[{"city":"Delhi","state":"Delhi","latitude":28.6139,"longitude":77.209,"temp":33.9,"humidity":49,"rain":0.0,"pressure":980.1,"uv_index":7.8,"wind_gusts":23.4,"aqi":239,"pm10":459.1,"pm2_5":115.9,"no2":14.3,"co":687.0,"o3":189.0,"so2":36.0,"mosquito_risk":0,"arthritis_risk":5,"migraine_risk":7,"frizz_risk":1,"updated_at":"2026-06-14T11:21:30.380815+05:30"},{"city":"Mumbai","state":"Maharashtra","latitude":19.076,"longitude":72.8777,"temp":32.7,"humidity":60,"rain":0.0,"pressure":1009.6,"uv_index":7.7,"wind_gusts":47.5,"aqi":69,"pm10":52.2,"pm2_5":22.5,"no2":2.5,"co":139.0,"o3":69.0,"so2":3.8,"mosquito_risk":0,"arthritis_risk":0,"migraine_risk":4,"frizz_risk":1,"updated_at":"2026-06-14T11:21:30.380862+05:30"},{"city":"Bangalore","state":"Karnataka","latitude":12.9716,"longitude":77.5946,"temp":27.2,"humidity":67,"rain":0.0,"pressure":913.8,"uv_index":6.55,"wind_gusts":43.6,"aqi":48,"pm10":15.9,"pm2_5":7.9,"no2":4.6,"co":213.0,"o3":63.0,"so2":3.3,"mosquito_risk":7,"arthritis_risk":5,"migraine_risk":7,"frizz_risk":1,"updated_at":"2026-06-14T11:21:30.380879+05:30"},{"city":"Hyderabad","state":"Telangana","latitude":17.385,"longitude":78.4867,"temp":32.0,"humidity":50,"rain":0.0,"pressure":953.1,"uv_index":5.05,"wind_gusts":53.3,"aqi":89,"pm10":40.9,"pm2_5":21.9,"no2":2.4,"co":195.0,"o3":109.0,"so2":6.4,"mosquito_risk":0,"arthritis_risk":5,"migraine_risk":3,"frizz_risk":1,"updated_at":"2026-06-14T11:21:30.380889+05:30"},{"city":"Chennai","state":"Tamil Nadu","latitude":13.0827,"longitude":80.2707,"temp":33.2,"humidity":56,"rain":0.0,"pressure":1006.4,"uv_index":8.45,"wind_gusts":36.7,"aqi":60,"pm10":27.4,"pm2_5":19.3,"no2":8.0,"co":261.0,"o3":113.0,"so2":10.9,"mosquito_risk":0,"arthritis_risk":5,"migraine_risk":4,"frizz_risk":1,"updated_at":"2026-06-14T11:21:30.380897+05:30"},{"city":"Kolkata","state":"West Bengal","latitude":22.5726,"longitude":88.3639,"temp":33.7,"humidity":55,"rain":0.0,"pressure":1002.3,"uv_index":8.35,"wind_gusts":31.7,"aqi":109,"pm10":32.1,"pm2_5":28.6,"no2":4.0,"co":391.0,"o3":155.0,"so2":10.6,"mosquito_risk":0,"arthritis_risk":5,"migraine_risk":4,"frizz_risk":1,"updated_at":"2026-06-14T11:21:30.380905+05:30"},{"city":"Pune","state":"Maharashtra","latitude":18.5204,"longitude":73.8567,"temp":33.0,"humidity":45,"rain":0.0,"pressure":949.8,"uv_index":8.3,"wind_gusts":50.8,"aqi":56,"pm10":39.3,"pm2_5":16.2,"no2":2.3,"co":126.0,"o3":78.0,"so2":6.4,"mosquito_risk":0,"arthritis_risk":5,"migraine_risk":7,"frizz_risk":1,"updated_at":"2026-06-14T11:21:30.380912+05:30"},{"city":"Ahmedabad","state":"Gujarat","latitude":23.0225,"longitude":72.5714,"temp":36.0,"humidity":44,"rain":0.0,"pressure":1001.2,"uv_index":8.05,"wind_gusts":45.4,"aqi":71,"pm10":68.5,"pm2_5":22.1,"no2":1.5,"co":120.0,"o3":68.0,"so2":3.1,"mosquito_risk":0,"arthritis_risk":5,"migraine_risk":7,"frizz_risk":1,"updated_at":"2026-06-14T11:21:30.380918+05:30"},{"city":"Jaipur","state":"Rajasthan","latitude":26.9124,"longitude":75.7873,"temp":34.5,"humidity":44,"rain":0.0,"pressure":957.9,"uv_index":8.2,"wind_gusts":39.6,"aqi":113,"pm10":269.2,"pm2_5":62.2,"no2":2.1,"co":184.0,"o3":90.0,"so2":5.5,"mosquito_risk":0,"arthritis_risk":5,"migraine_risk":7,"frizz_risk":1,"updated_at":"2026-06-14T11:21:30.380929+05:30"},{"city":"Lucknow","state":"Uttar Pradesh","latitude":26.8467,"longitude":80.9462,"temp":34.1,"humidity":50,"rain":0.0,"pressure":990.3,"uv_index":8.35,"wind_gusts":32.0,"aqi":151,"pm10":285.0,"pm2_5":67.5,"no2":3.3,"co":294.0,"o3":158.0,"so2":10.4,"mosquito_risk":0,"arthritis_risk":5,"migraine_risk":7,"frizz_risk":1,"updated_at":"2026-06-14T11:21:30.380937+05:30"},{"city":"Kanpur","state":"Uttar Pradesh","latitude":26.4499,"longitude":80.3319,"temp":36.2,"humidity":37,"rain":0.0,"pressure":989.1,"uv_index":8.3,"wind_gusts":34.6,"aqi":152,"pm10":355.8,"pm2_5":73.6,"no2":2.3,"co":283.0,"o3":158.0,"so2":9.5,"mosquito_risk":0,"arthritis_risk":5,"migraine_risk":10,"frizz_risk":1,"updated_at":"2026-06-14T11:21:30.380944+05:30"},{"city":"Chandigarh","state":"Chandigarh","latitude":30.7333,"longitude":76.7794,"temp":31.3,"humidity":51,"rain":0.0,"pressure":966.1,"uv_index":7.8,"wind_gusts":20.2,"aqi":102,"pm10":53.1,"pm2_5":21.9,"no2":3.2,"co":349.0,"o3":157.0,"so2":13.3,"mosquito_risk":0,"arthritis_risk":5,"migraine_risk":7,"frizz_risk":1,"updated_at":"2026-06-14T11:21:30.380951+05:30"},{"city":"Srinagar","state":"Jammu and Kashmir","latitude":34.0837,"longitude":74.7973,"temp":20.6,"humidity":59,"rain":0.0,"pressure":842.3,"uv_index":9.0,"wind_gusts":20.9,"aqi":70,"pm10":13.0,"pm2_5":9.9,"no2":2.2,"co":355.0,"o3":135.0,"so2":2.4,"mosquito_risk":0,"arthritis_risk":5,"migraine_risk":7,"frizz_risk":0,"updated_at":"2026-06-14T11:21:30.380959+05:30"},{"city":"Jammu","state":"Jammu and Kashmir","latitude":32.7266,"longitude":74.857,"temp":33.3,"humidity":31,"rain":0.0,"pressure":969.9,"uv_index":8.6,"wind_gusts":28.1,"aqi":84,"pm10":18.0,"pm2_5":10.9,"no2":3.7,"co":399.0,"o3":145.0,"so2":2.2,"mosquito_risk":0,"arthritis_risk":5,"migraine_risk":7,"frizz_risk":0,"updated_at":"2026-06-14T11:21:30.380966+05:30"},{"city":"Amritsar","state":"Punjab","latitude":31.634,"longitude":74.8723,"temp":31.8,"humidity":47,"rain":0.0,"pressure":978.0,"uv_index":8.45,"wind_gusts":18.4,"aqi":108,"pm10":62.2,"pm2_5":26.5,"no2":3.0,"co":318.0,"o3":140.0,"so2":4.6,"mosquito_risk":0,"arthritis_risk":5,"migraine_risk":7,"frizz_risk":1,"updated_at":"2026-06-14T11:21:30.380973+05:30"},{"city":"Ludhiana","state":"Punjab","latitude":30.901,"longitude":75.8573,"temp":32.2,"humidity":42,"rain":0.0,"pressure":975.8,"uv_index":8.05,"wind_gusts":24.1,"aqi":126,"pm10":39.3,"pm2_5":22.3,"no2":3.4,"co":353.0,"o3":143.0,"so2":8.1,"mosquito_risk":0,"arthritis_risk":5,"migraine_risk":7,"frizz_risk":1,"updated_at":"2026-06-14T11:21:30.380981+05:30"},{"city":"Jalandhar","state":"Punjab","latitude":31.326,"longitude":75.5762,"temp":32.2,"humidity":41,"rain":0.0,"pressure":976.9,"uv_index":8.25,"wind_gusts":21.6,"aqi":104,"pm10":95.0,"pm2_5":32.5,"no2":3.0,"co":342.0,"o3":142.0,"so2":3.4,"mosquito_risk":0,"arthritis_risk":5,"migraine_risk":7,"frizz_risk":1,"updated_at":"2026-06-14T11:21:30.380988+05:30"},{"city":"Dehradun","state":"Uttarakhand","latitude":30.6284,"longitude":78.0322,"temp":24.0,"humidity":43,"rain":0.0,"pressure":831.2,"uv_index":8.3,"wind_gusts":27.4,"aqi":55,"pm10":44.6,"pm2_5":13.4,"no2":0.0,"co":148.0,"o3":128.0,"so2":0.8,"mosquito_risk":0,"arthritis_risk":5,"migraine_risk":7,"frizz_risk":0,"updated_at":"2026-06-14T11:21:30.380995+05:30"},{"city":"Shimla","state":"Himachal Pradesh","latitude":31.1048,"longitude":77.1734,"temp":21.2,"humidity":40,"rain":0.0,"pressure":785.7,"uv_index":8.35,"wind_gusts":33.8,"aqi":59,"pm10":46.6,"pm2_5":14.2,"no2":0.1,"co":158.0,"o3":132.0,"so2":1.2,"mosquito_risk":0,"arthritis_risk":5,"migraine_risk":7,"frizz_risk":0,"updated_at":"2026-06-14T11:21:30.381007+05:30"},{"city":"Manali","state":"Himachal Pradesh","latitude":32.2396,"longitude":77.1887,"temp":23.3,"humidity":46,"rain":0.0,"pressure":819.6,"uv_index":9.75,"wind_gusts":37.1,"aqi":50,"pm10":5.0,"pm2_5":3.3,"no2":3.7,"co":153.0,"o3":142.0,"so2":0.7,"mosquito_risk":0,"arthritis_risk":5,"migraine_risk":7,"frizz_risk":0,"updated_at":"2026-06-14T11:21:30.381031+05:30"},{"city":"Gurgaon","state":"Haryana","latitude":28.4595,"longitude":77.0266,"temp":35.6,"humidity":38,"rain":0.0,"pressure":978.6,"uv_index":7.85,"wind_gusts":27.4,"aqi":493,"pm10":536.4,"pm2_5":131.8,"no2":14.8,"co":324.0,"o3":191.0,"so2":35.0,"mosquito_risk":0,"arthritis_risk":5,"migraine_risk":10,"frizz_risk":1,"updated_at":"2026-06-14T11:21:30.381038+05:30"},{"city":"Noida","state":"Uttar Pradesh","latitude":28.5355,"longitude":77.391,"temp":34.6,"humidity":47,"rain":0.0,"pressure":981.6,"uv_index":7.85,"wind_gusts":25.6,"aqi":493,"pm10":536.4,"pm2_5":131.8,"no2":14.8,"co":603.0,"o3":191.0,"so2":35.0,"mosquito_risk":0,"arthritis_risk":5,"migraine_risk":7,"frizz_risk":1,"updated_at":"2026-06-14T11:21:30.381045+05:30"},{"city":"Ghaziabad","state":"Uttar Pradesh","latitude":28.6692,"longitude":77.4538,"temp":33.9,"humidity":49,"rain":0.0,"pressure":979.9,"uv_index":7.8,"wind_gusts":22.7,"aqi":171,"pm10":465.7,"pm2_5":109.2,"no2":6.9,"co":438.0,"o3":189.0,"so2":32.5,"mosquito_risk":0,"arthritis_risk":5,"migraine_risk":7,"frizz_risk":1,"updated_at":"2026-06-14T11:21:30.381052+05:30"},{"city":"Faridabad","state":"Haryana","latitude":28.4089,"longitude":77.3178,"temp":34.9,"humidity":43,"rain":0.0,"pressure":980.8,"uv_index":7.85,"wind_gusts":27.0,"aqi":493,"pm10":536.4,"pm2_5":131.8,"no2":14.8,"co":492.0,"o3":191.0,"so2":35.0,"mosquito_risk":0,"arthritis_risk":5,"migraine_risk":7,"frizz_risk":1,"updated_at":"2026-06-14T11:21:30.381058+05:30"},{"city":"Meerut","state":"Uttar Pradesh","latitude":28.9845,"longitude":77.7064,"temp":33.2,"humidity":51,"rain":0.0,"pressure":978.8,"uv_index":7.75,"wind_gusts":31.7,"aqi":171,"pm10":465.7,"pm2_5":109.2,"no2":6.9,"co":328.0,"o3":189.0,"so2":32.5,"mosquito_risk":0,"arthritis_risk":5,"migraine_risk":7,"frizz_risk":1,"updated_at":"2026-06-14T11:21:30.381064+05:30"},{"city":"Agra","state":"Uttar Pradesh","latitude":27.1767,"longitude":78.0081,"temp":36.8,"humidity":35,"rain":0.0,"pressure":985.0,"uv_index":8.15,"wind_gusts":28.1,"aqi":484,"pm10":637.0,"pm2_5":105.7,"no2":6.0,"co":325.0,"o3":154.0,"so2":10.8,"mosquito_risk":0,"arthritis_risk":5,"migraine_risk":10,"frizz_risk":1,"updated_at":"2026-06-14T11:21:30.381070+05:30"},{"city":"Varanasi","state":"Uttar Pradesh","latitude":25.3176,"longitude":82.9739,"temp":36.2,"humidity":42,"rain":0.0,"pressure":994.1,"uv_index":8.8,"wind_gusts":34.9,"aqi":175,"pm10":104.5,"pm2_5":56.9,"no2":2.0,"co":293.0,"o3":185.0,"so2":15.4,"mosquito_risk":0,"arthritis_risk":5,"migraine_risk":10,"frizz_risk":1,"updated_at":"2026-06-14T11:21:30.381077+05:30"},{"city":"Prayagraj","state":"Uttar Pradesh","latitude":25.4358,"longitude":81.8463,"temp":36.8,"humidity":38,"rain":0.0,"pressure":992.8,"uv_index":8.7,"wind_gusts":36.7,"aqi":167,"pm10":192.3,"pm2_5":56.0,"no2":2.6,"co":270.0,"o3":169.0,"so2":12.7,"mosquito_risk":0,"arthritis_risk":5,"migraine_risk":10,"frizz_risk":1,"updated_at":"2026-06-14T11:21:30.381083+05:30"},{"city":"Gorakhpur","state":"Uttar Pradesh","latitude":26.7606,"longitude":83.3732,"temp":34.4,"humidity":53,"rain":0.0,"pressure":993.6,"uv_index":8.7,"wind_gusts":41.4,"aqi":156,"pm10":122.0,"pm2_5":48.4,"no2":0.9,"co":323.0,"o3":153.0,"so2":9.3,"mosquito_risk":0,"arthritis_risk":5,"migraine_risk":7,"frizz_risk":1,"updated_at":"2026-06-14T11:21:30.381092+05:30"},{"city":"Bareilly","state":"Uttar Pradesh","latitude":28.367,"longitude":79.4304,"temp":34.0,"humidity":46,"rain":0.0,"pressure":983.7,"uv_index":8.15,"wind_gusts":30.6,"aqi":157,"pm10":200.7,"pm2_5":62.4,"no2":4.3,"co":337.0,"o3":180.0,"so2":15.0,"mosquito_risk":0,"arthritis_risk":5,"migraine_risk":7,"frizz_risk":1,"updated_at":"2026-06-14T11:21:30.381098+05:30"},{"city":"Aligarh","state":"Uttar Pradesh","latitude":27.8974,"longitude":78.088,"temp":35.1,"humidity":42,"rain":0.0,"pressure":982.7,"uv_index":8.0,"wind_gusts":24.8,"aqi":232,"pm10":403.3,"pm2_5":109.4,"no2":4.3,"co":321.0,"o3":188.0,"so2":23.4,"mosquito_risk":0,"arthritis_risk":5,"migraine_risk":10,"frizz_risk":1,"updated_at":"2026-06-14T11:21:30.381105+05:30"},{"city":"Moradabad","state":"Uttar Pradesh","latitude":28.8386,"longitude":78.7733,"temp":33.9,"humidity":46,"rain":0.0,"pressure":980.7,"uv_index":7.95,"wind_gusts":37.1,"aqi":153,"pm10":323.2,"pm2_5":81.0,"no2":5.2,"co":326.0,"o3":170.0,"so2":16.1,"mosquito_risk":0,"arthritis_risk":5,"migraine_risk":7,"frizz_risk":1,"updated_at":"2026-06-14T11:21:30.381111+05:30"},{"city":"Saharanpur","state":"Uttar Pradesh","latitude":29.9637,"longitude":77.546,"temp":31.9,"humidity":53,"rain":0.0,"pressure":972.9,"uv_index":7.55,"wind_gusts":25.2,"aqi":143,"pm10":165.8,"pm2_5":52.5,"no2":6.3,"co":331.0,"o3":158.0,"so2":12.5,"mosquito_risk":0,"arthritis_risk":5,"migraine_risk":7,"frizz_risk":1,"updated_at":"2026-06-14T11:21:30.381118+05:30"},{"city":"Jhansi","state":"Uttar Pradesh","latitude":25.4484,"longitude":78.5685,"temp":36.4,"humidity":37,"rain":0.0,"pressure":975.9,"uv_index":8.5,"wind_gusts":29.2,"aqi":93,"pm10":124.3,"pm2_5":32.9,"no2":1.5,"co":149.0,"o3":115.0,"so2":6.4,"mosquito_risk":0,"arthritis_risk":5,"migraine_risk":10,"frizz_risk":1,"updated_at":"2026-06-14T11:21:33.614792+05:30"},{"city":"Surat","state":"Gujarat","latitude":21.1702,"longitude":72.8311,"temp":34.5,"humidity":52,"rain":0.0,"pressure":1007.0,"uv_index":7.6,"wind_gusts":52.9,"aqi":77,"pm10":83.8,"pm2_5":33.6,"no2":10.3,"co":263.0,"o3":56.0,"so2":28.0,"mosquito_risk":0,"arthritis_risk":5,"migraine_risk":4,"frizz_risk":1,"updated_at":"2026-06-14T11:21:33.614829+05:30"},{"city":"Vadodara","state":"Gujarat","latitude":22.3072,"longitude":73.1812,"temp":36.0,"humidity":44,"rain":0.0,"pressure":1003.5,"uv_index":8.0,"wind_gusts":46.4,"aqi":73,"pm10":76.1,"pm2_5":27.1,"no2":2.2,"co":121.0,"o3":72.0,"so2":4.8,"mosquito_risk":0,"arthritis_risk":5,"migraine_risk":7,"frizz_risk":1,"updated_at":"2026-06-14T11:21:33.614840+05:30"},{"city":"Rajkot","state":"Gujarat","latitude":22.3039,"longitude":70.8022,"temp":35.6,"humidity":44,"rain":0.0,"pressure":993.9,"uv_index":7.55,"wind_gusts":52.6,"aqi":71,"pm10":50.6,"pm2_5":19.6,"no2":1.3,"co":100.0,"o3":71.0,"so2":4.0,"mosquito_risk":0,"arthritis_risk":5,"migraine_risk":10,"frizz_risk":1,"updated_at":"2026-06-14T11:21:33.614849+05:30"},{"city":"Thane","state":"Maharashtra","latitude":19.2183,"longitude":72.9781,"temp":35.0,"humidity":47,"rain":0.0,"pressure":1008.6,"uv_index":7.7,"wind_gusts":44.3,"aqi":69,"pm10":52.2,"pm2_5":22.5,"no2":2.5,"co":128.0,"o3":69.0,"so2":3.8,"mosquito_risk":0,"arthritis_risk":0,"migraine_risk":4,"frizz_risk":1,"updated_at":"2026-06-14T11:21:33.614856+05:30"},{"city":"Nagpur","state":"Maharashtra","latitude":21.1458,"longitude":79.0882,"temp":35.8,"humidity":39,"rain":0.0,"pressure":971.4,"uv_index":8.1,"wind_gusts":70.2,"aqi":106,"pm10":64.3,"pm2_5":31.1,"no2":5.1,"co":162.0,"o3":129.0,"so2":18.9,"mosquito_risk":0,"arthritis_risk":5,"migraine_risk":10,"frizz_risk":1,"updated_at":"2026-06-14T11:21:33.614864+05:30"},{"city":"Nashik","state":"Maharashtra","latitude":19.9975,"longitude":73.7898,"temp":31.9,"humidity":46,"rain":0.0,"pressure":946.7,"uv_index":8.05,"wind_gusts":54.0,"aqi":60,"pm10":52.5,"pm2_5":19.6,"no2":1.0,"co":110.0,"o3":64.0,"so2":1.1,"mosquito_risk":0,"arthritis_risk":5,"migraine_risk":7,"frizz_risk":1,"updated_at":"2026-06-14T11:21:33.614870+05:30"},{"city":"Aurangabad","state":"Maharashtra","latitude":19.8762,"longitude":75.3433,"temp":33.4,"humidity":41,"rain":0.0,"pressure":945.0,"uv_index":8.95,"wind_gusts":52.9,"aqi":61,"pm10":53.2,"pm2_5":19.3,"no2":1.1,"co":113.0,"o3":73.0,"so2":2.5,"mosquito_risk":0,"arthritis_risk":5,"migraine_risk":7,"frizz_risk":1,"updated_at":"2026-06-14T11:21:33.614878+05:30"},{"city":"Solapur","state":"Maharashtra","latitude":17.6599,"longitude":75.9064,"temp":34.0,"humidity":43,"rain":0.0,"pressure":958.1,"uv_index":8.9,"wind_gusts":47.2,"aqi":63,"pm10":43.2,"pm2_5":17.1,"no2":1.5,"co":117.0,"o3":83.0,"so2":3.5,"mosquito_risk":0,"arthritis_risk":5,"migraine_risk":7,"frizz_risk":1,"updated_at":"2026-06-14T11:21:33.614885+05:30"},{"city":"Kolhapur","state":"Maharashtra","latitude":16.705,"longitude":74.2433,"temp":30.3,"humidity":55,"rain":0.1,"pressure":949.4,"uv_index":8.75,"wind_gusts":44.6,"aqi":46,"pm10":28.0,"pm2_5":11.6,"no2":1.5,"co":120.0,"o3":70.0,"so2":1.9,"mosquito_risk":3,"arthritis_risk":5,"migraine_risk":7,"frizz_risk":1,"updated_at":"2026-06-14T11:21:33.614893+05:30"},{"city":"Goa","state":"Goa","latitude":15.2993,"longitude":74.124,"temp":31.2,"humidity":69,"rain":0.0,"pressure":1000.3,"uv_index":8.0,"wind_gusts":35.6,"aqi":65,"pm10":30.0,"pm2_5":13.9,"no2":0.8,"co":129.0,"o3":64.0,"so2":1.6,"mosquito_risk":3,"arthritis_risk":5,"migraine_risk":4,"frizz_risk":1,"updated_at":"2026-06-14T11:21:33.614901+05:30"},{"city":"Jodhpur","state":"Rajasthan","latitude":26.2389,"longitude":73.0243,"temp":35.3,"humidity":46,"rain":0.0,"pressure":981.0,"uv_index":8.45,"wind_gusts":43.2,"aqi":159,"pm10":322.2,"pm2_5":68.0,"no2":1.0,"co":112.0,"o3":76.0,"so2":4.5,"mosquito_risk":0,"arthritis_risk":5,"migraine_risk":10,"frizz_risk":1,"updated_at":"2026-06-14T11:21:33.614909+05:30"},{"city":"Udaipur","state":"Rajasthan","latitude":24.5854,"longitude":73.7125,"temp":33.2,"humidity":48,"rain":0.0,"pressure":945.9,"uv_index":8.85,"wind_gusts":48.6,"aqi":74,"pm10":88.2,"pm2_5":25.7,"no2":0.8,"co":108.0,"o3":69.0,"so2":2.7,"mosquito_risk":0,"arthritis_risk":5,"migraine_risk":7,"frizz_risk":1,"updated_at":"2026-06-14T11:21:33.614916+05:30"},{"city":"Kota","state":"Rajasthan","latitude":25.2138,"longitude":75.8648,"temp":36.1,"humidity":43,"rain":0.0,"pressure":976.8,"uv_index":8.35,"wind_gusts":37.1,"aqi":107,"pm10":100.4,"pm2_5":34.1,"no2":2.0,"co":140.0,"o3":87.0,"so2":6.6,"mosquito_risk":0,"arthritis_risk":5,"migraine_risk":10,"frizz_risk":1,"updated_at":"2026-06-14T11:21:33.614923+05:30"},{"city":"Bikaner","state":"Rajasthan","latitude":28.0229,"longitude":73.3119,"temp":37.8,"humidity":35,"rain":0.0,"pressure":978.4,"uv_index":8.45,"wind_gusts":32.4,"aqi":155,"pm10":176.0,"pm2_5":57.3,"no2":1.2,"co":148.0,"o3":94.0,"so2":4.4,"mosquito_risk":0,"arthritis_risk":5,"migraine_risk":10,"frizz_risk":1,"updated_at":"2026-06-14T11:21:33.614932+05:30"},{"city":"Ajmer","state":"Rajasthan","latitude":26.4499,"longitude":74.6399,"temp":33.8,"humidity":47,"rain":0.0,"pressure":953.2,"uv_index":8.35,"wind_gusts":38.5,"aqi":107,"pm10":133.2,"pm2_5":48.1,"no2":0.9,"co":121.0,"o3":85.0,"so2":4.8,"mosquito_risk":0,"arthritis_risk":5,"migraine_risk":7,"frizz_risk":1,"updated_at":"2026-06-14T11:21:33.614938+05:30"},{"city":"Gwalior","state":"Madhya Pradesh","latitude":26.2183,"longitude":78.1828,"temp":35.5,"humidity":40,"rain":0.0,"pressure":980.8,"uv_index":8.3,"wind_gusts":31.3,"aqi":118,"pm10":136.9,"pm2_5":35.3,"no2":1.0,"co":160.0,"o3":110.0,"so2":3.5,"mosquito_risk":0,"arthritis_risk":5,"migraine_risk":10,"frizz_risk":1,"updated_at":"2026-06-14T11:21:33.614945+05:30"},{"city":"Indore","state":"Madhya Pradesh","latitude":22.7196,"longitude":75.8577,"temp":33.5,"humidity":46,"rain":0.0,"pressure":948.0,"uv_index":8.6,"wind_gusts":43.9,"aqi":77,"pm10":70.5,"pm2_5":30.3,"no2":2.3,"co":153.0,"o3":80.0,"so2":6.8,"mosquito_risk":0,"arthritis_risk":5,"migraine_risk":7,"frizz_risk":1,"updated_at":"2026-06-14T11:21:33.614952+05:30"},{"city":"Bhopal","state":"Madhya Pradesh","latitude":23.2599,"longitude":77.4126,"temp":33.6,"humidity":48,"rain":0.0,"pressure":952.8,"uv_index":8.65,"wind_gusts":40.3,"aqi":98,"pm10":63.3,"pm2_5":28.3,"no2":1.3,"co":174.0,"o3":96.0,"so2":6.3,"mosquito_risk":0,"arthritis_risk":5,"migraine_risk":7,"frizz_risk":1,"updated_at":"2026-06-14T11:21:33.614959+05:30"},{"city":"Jabalpur","state":"Madhya Pradesh","latitude":23.1815,"longitude":79.9864,"temp":34.7,"humidity":41,"rain":0.0,"pressure":959.9,"uv_index":8.05,"wind_gusts":28.8,"aqi":98,"pm10":72.6,"pm2_5":28.7,"no2":1.5,"co":160.0,"o3":118.0,"so2":4.7,"mosquito_risk":0,"arthritis_risk":5,"migraine_risk":7,"frizz_risk":1,"updated_at":"2026-06-14T11:21:33.614966+05:30"},{"city":"Ujjain","state":"Madhya Pradesh","latitude":23.1765,"longitude":75.7885,"temp":32.7,"humidity":50,"rain":0.0,"pressure":953.4,"uv_index":8.55,"wind_gusts":55.4,"aqi":76,"pm10":61.0,"pm2_5":26.7,"no2":2.0,"co":137.0,"o3":78.0,"so2":6.5,"mosquito_risk":0,"arthritis_risk":5,"migraine_risk":7,"frizz_risk":1,"updated_at":"2026-06-14T11:21:33.614975+05:30"},{"city":"Visakhapatnam","state":"Andhra Pradesh","latitude":17.6868,"longitude":83.2185,"temp":34.6,"humidity":52,"rain":0.0,"pressure":1000.0,"uv_index":8.8,"wind_gusts":41.8,"aqi":93,"pm10":46.1,"pm2_5":34.3,"no2":9.1,"co":306.0,"o3":141.0,"so2":30.0,"mosquito_risk":0,"arthritis_risk":5,"migraine_risk":4,"frizz_risk":1,"updated_at":"2026-06-14T11:21:33.614982+05:30"},{"city":"Vijayawada","state":"Andhra Pradesh","latitude":16.5062,"longitude":80.648,"temp":34.2,"humidity":50,"rain":0.0,"pressure":1000.7,"uv_index":8.7,"wind_gusts":35.3,"aqi":82,"pm10":52.3,"pm2_5":32.4,"no2":3.3,"co":214.0,"o3":120.0,"so2":8.3,"mosquito_risk":0,"arthritis_risk":5,"migraine_risk":4,"frizz_risk":1,"updated_at":"2026-06-14T11:21:33.614989+05:30"},{"city":"Guntur","state":"Andhra Pradesh","latitude":16.3067,"longitude":80.4365,"temp":34.8,"humidity":49,"rain":0.0,"pressure":1002.1,"uv_index":8.95,"wind_gusts":37.1,"aqi":81,"pm10":43.2,"pm2_5":28.8,"no2":3.4,"co":206.0,"o3":115.0,"so2":7.8,"mosquito_risk":0,"arthritis_risk":5,"migraine_risk":4,"frizz_risk":1,"updated_at":"2026-06-14T11:21:33.614996+05:30"},{"city":"Nellore","state":"Andhra Pradesh","latitude":14.4426,"longitude":79.9865,"temp":32.6,"humidity":58,"rain":0.0,"pressure":1005.1,"uv_index":7.8,"wind_gusts":37.8,"aqi":62,"pm10":30.5,"pm2_5":16.6,"no2":2.8,"co":130.0,"o3":86.0,"so2":6.8,"mosquito_risk":0,"arthritis_risk":5,"migraine_risk":4,"frizz_risk":1,"updated_at":"2026-06-14T11:21:33.615004+05:30"},{"city":"Kurnool","state":"Andhra Pradesh","latitude":15.8281,"longitude":78.0373,"temp":33.8,"humidity":47,"rain":0.0,"pressure":977.3,"uv_index":4.8,"wind_gusts":44.6,"aqi":72,"pm10":34.6,"pm2_5":17.2,"no2":2.6,"co":129.0,"o3":86.0,"so2":8.3,"mosquito_risk":0,"arthritis_risk":5,"migraine_risk":3,"frizz_risk":1,"updated_at":"2026-06-14T11:21:33.615029+05:30"},{"city":"Kakinada","state":"Andhra Pradesh","latitude":16.9891,"longitude":82.2475,"temp":34.4,"humidity":47,"rain":0.0,"pressure":1004.8,"uv_index":8.8,"wind_gusts":51.1,"aqi":77,"pm10":36.8,"pm2_5":23.6,"no2":2.5,"co":252.0,"o3":132.0,"so2":6.2,"mosquito_risk":0,"arthritis_risk":5,"migraine_risk":4,"frizz_risk":1,"updated_at":"2026-06-14T11:21:33.615037+05:30"},{"city":"Tirupati","state":"Andhra Pradesh","latitude":13.6288,"longitude":79.4192,"temp":33.6,"humidity":47,"rain":0.0,"pressure":990.9,"uv_index":8.8,"wind_gusts":34.9,"aqi":58,"pm10":28.1,"pm2_5":13.6,"no2":1.9,"co":118.0,"o3":74.0,"so2":1.8,"mosquito_risk":0,"arthritis_risk":5,"migraine_risk":7,"frizz_risk":1,"updated_at":"2026-06-14T11:21:33.615044+05:30"},{"city":"Warangal","state":"Telangana","latitude":17.9689,"longitude":79.5941,"temp":34.5,"humidity":47,"rain":0.0,"pressure":977.1,"uv_index":7.9,"wind_gusts":36.7,"aqi":116,"pm10":39.0,"pm2_5":25.0,"no2":2.7,"co":210.0,"o3":118.0,"so2":7.9,"mosquito_risk":0,"arthritis_risk":5,"migraine_risk":7,"frizz_risk":1,"updated_at":"2026-06-14T11:21:33.615050+05:30"},{"city":"Nizamabad","state":"Telangana","latitude":18.6725,"longitude":78.0941,"temp":34.7,"humidity":44,"rain":0.0,"pressure":964.5,"uv_index":9.0,"wind_gusts":49.3,"aqi":95,"pm10":41.7,"pm2_5":20.1,"no2":1.5,"co":135.0,"o3":91.0,"so2":3.6,"mosquito_risk":0,"arthritis_risk":5,"migraine_risk":7,"frizz_risk":1,"updated_at":"2026-06-14T11:21:33.615056+05:30"},{"city":"Mysore","state":"Karnataka","latitude":12.2958,"longitude":76.6396,"temp":28.4,"humidity":63,"rain":0.0,"pressure":930.9,"uv_index":8.95,"wind_gusts":37.8,"aqi":39,"pm10":9.5,"pm2_5":5.0,"no2":2.3,"co":127.0,"o3":67.0,"so2":1.9,"mosquito_risk":7,"arthritis_risk":5,"migraine_risk":7,"frizz_risk":1,"updated_at":"2026-06-14T11:21:33.615063+05:30"},{"city":"Mangalore","state":"Karnataka","latitude":12.9141,"longitude":74.856,"temp":28.5,"humidity":76,"rain":0.0,"pressure":1010.3,"uv_index":8.65,"wind_gusts":31.3,"aqi":56,"pm10":25.3,"pm2_5":11.2,"no2":1.5,"co":131.0,"o3":72.0,"so2":2.2,"mosquito_risk":7,"arthritis_risk":0,"migraine_risk":4,"frizz_risk":1,"updated_at":"2026-06-14T11:21:33.615070+05:30"},{"city":"Hubli-Dharwad","state":"Karnataka","latitude":15.3647,"longitude":75.124,"temp":30.1,"humidity":60,"rain":0.0,"pressure":943.0,"uv_index":8.05,"wind_gusts":49.3,"aqi":46,"pm10":21.4,"pm2_5":9.6,"no2":1.3,"co":113.0,"o3":67.0,"so2":1.3,"mosquito_risk":0,"arthritis_risk":5,"migraine_risk":7,"frizz_risk":1,"updated_at":"2026-06-14T11:21:33.615077+05:30"},{"city":"Belgaum","state":"Karnataka","latitude":15.8497,"longitude":74.4977,"temp":29.6,"humidity":57,"rain":0.0,"pressure":928.2,"uv_index":6.65,"wind_gusts":49.0,"aqi":43,"pm10":21.5,"pm2_5":9.0,"no2":1.5,"co":109.0,"o3":65.0,"so2":1.5,"mosquito_risk":4,"arthritis_risk":5,"migraine_risk":7,"frizz_risk":1,"updated_at":"2026-06-14T11:21:36.851627+05:30"},{"city":"Coimbatore","state":"Tamil Nadu","latitude":11.0168,"longitude":76.9558,"temp":31.1,"humidity":51,"rain":0.1,"pressure":963.6,"uv_index":8.35,"wind_gusts":47.5,"aqi":35,"pm10":12.6,"pm2_5":6.2,"no2":1.6,"co":142.0,"o3":65.0,"so2":2.0,"mosquito_risk":3,"arthritis_risk":5,"migraine_risk":7,"frizz_risk":1,"updated_at":"2026-06-14T11:21:36.851664+05:30"},{"city":"Madurai","state":"Tamil Nadu","latitude":9.9252,"longitude":78.1198,"temp":35.9,"humidity":36,"rain":0.0,"pressure":993.9,"uv_index":8.55,"wind_gusts":46.1,"aqi":58,"pm10":32.8,"pm2_5":14.4,"no2":2.0,"co":123.0,"o3":95.0,"so2":3.3,"mosquito_risk":0,"arthritis_risk":5,"migraine_risk":10,"frizz_risk":1,"updated_at":"2026-06-14T11:21:36.851675+05:30"},{"city":"Trichy","state":"Tamil Nadu","latitude":10.7905,"longitude":78.7047,"temp":35.7,"humidity":40,"rain":0.0,"pressure":1000.2,"uv_index":7.75,"wind_gusts":58.7,"aqi":52,"pm10":17.0,"pm2_5":8.6,"no2":1.7,"co":128.0,"o3":74.0,"so2":2.3,"mosquito_risk":0,"arthritis_risk":5,"migraine_risk":7,"frizz_risk":1,"updated_at":"2026-06-14T11:21:36.851685+05:30"},{"city":"Salem","state":"Tamil Nadu","latitude":11.6643,"longitude":78.146,"temp":31.7,"humidity":55,"rain":0.0,"pressure":978.8,"uv_index":8.75,"wind_gusts":36.7,"aqi":58,"pm10":25.7,"pm2_5":14.5,"no2":5.1,"co":186.0,"o3":88.0,"so2":9.9,"mosquito_risk":0,"arthritis_risk":5,"migraine_risk":7,"frizz_risk":1,"updated_at":"2026-06-14T11:21:36.851693+05:30"},{"city":"Tirunelveli","state":"Tamil Nadu","latitude":8.7139,"longitude":77.7567,"temp":36.1,"humidity":40,"rain":0.0,"pressure":1004.4,"uv_index":8.65,"wind_gusts":43.9,"aqi":41,"pm10":12.9,"pm2_5":6.2,"no2":1.2,"co":118.0,"o3":70.0,"so2":1.2,"mosquito_risk":0,"arthritis_risk":5,"migraine_risk":7,"frizz_risk":1,"updated_at":"2026-06-14T11:21:36.851701+05:30"},{"city":"Vellore","state":"Tamil Nadu","latitude":12.9165,"longitude":79.1325,"temp":33.6,"humidity":50,"rain":0.0,"pressure":984.5,"uv_index":8.15,"wind_gusts":42.8,"aqi":55,"pm10":21.4,"pm2_5":12.3,"no2":2.6,"co":157.0,"o3":81.0,"so2":2.8,"mosquito_risk":0,"arthritis_risk":5,"migraine_risk":7,"frizz_risk":1,"updated_at":"2026-06-14T11:21:36.851709+05:30"},{"city":"Erode","state":"Tamil Nadu","latitude":11.341,"longitude":77.7172,"temp":34.7,"humidity":43,"rain":0.0,"pressure":990.3,"uv_index":8.45,"wind_gusts":36.0,"aqi":47,"pm10":16.1,"pm2_5":9.1,"no2":2.8,"co":165.0,"o3":79.0,"so2":2.6,"mosquito_risk":0,"arthritis_risk":5,"migraine_risk":7,"frizz_risk":1,"updated_at":"2026-06-14T11:21:36.851716+05:30"},{"city":"Kochi","state":"Kerala","latitude":9.9312,"longitude":76.2673,"temp":28.5,"humidity":76,"rain":0.0,"pressure":1012.2,"uv_index":7.6,"wind_gusts":40.3,"aqi":67,"pm10":12.8,"pm2_5":7.9,"no2":4.0,"co":128.0,"o3":68.0,"so2":3.8,"mosquito_risk":7,"arthritis_risk":0,"migraine_risk":4,"frizz_risk":1,"updated_at":"2026-06-14T11:21:36.851724+05:30"},{"city":"Thiruvananthapuram","state":"Kerala","latitude":8.5241,"longitude":76.9366,"temp":28.8,"humidity":77,"rain":0.0,"pressure":1011.1,"uv_index":8.3,"wind_gusts":44.3,"aqi":40,"pm10":24.4,"pm2_5":12.4,"no2":1.4,"co":116.0,"o3":74.0,"so2":1.6,"mosquito_risk":7,"arthritis_risk":0,"migraine_risk":4,"frizz_risk":1,"updated_at":"2026-06-14T11:21:36.851731+05:30"},{"city":"Kozhikode","state":"Kerala","latitude":11.2588,"longitude":75.7804,"temp":28.7,"humidity":76,"rain":0.0,"pressure":1011.5,"uv_index":8.2,"wind_gusts":34.2,"aqi":37,"pm10":16.4,"pm2_5":6.3,"no2":0.6,"co":146.0,"o3":68.0,"so2":1.0,"mosquito_risk":7,"arthritis_risk":0,"migraine_risk":4,"frizz_risk":1,"updated_at":"2026-06-14T11:21:36.851738+05:30"},{"city":"Thrissur","state":"Kerala","latitude":10.5276,"longitude":76.2144,"temp":29.4,"humidity":74,"rain":0.0,"pressure":1010.4,"uv_index":8.4,"wind_gusts":36.7,"aqi":67,"pm10":15.5,"pm2_5":9.5,"no2":2.4,"co":146.0,"o3":73.0,"so2":2.5,"mosquito_risk":7,"arthritis_risk":0,"migraine_risk":4,"frizz_risk":1,"updated_at":"2026-06-14T11:21:36.851746+05:30"},{"city":"Kannur","state":"Kerala","latitude":11.8745,"longitude":75.3704,"temp":28.2,"humidity":75,"rain":0.0,"pressure":1010.8,"uv_index":8.1,"wind_gusts":34.2,"aqi":51,"pm10":15.9,"pm2_5":6.8,"no2":1.6,"co":137.0,"o3":61.0,"so2":1.3,"mosquito_risk":7,"arthritis_risk":0,"migraine_risk":4,"frizz_risk":1,"updated_at":"2026-06-14T11:21:36.851753+05:30"},{"city":"Patna","state":"Bihar","latitude":25.5941,"longitude":85.1376,"temp":33.9,"humidity":53,"rain":0.0,"pressure":996.6,"uv_index":8.9,"wind_gusts":28.8,"aqi":176,"pm10":105.0,"pm2_5":77.1,"no2":3.3,"co":410.0,"o3":192.0,"so2":15.2,"mosquito_risk":0,"arthritis_risk":5,"migraine_risk":7,"frizz_risk":1,"updated_at":"2026-06-14T11:21:36.851760+05:30"},{"city":"Gaya","state":"Bihar","latitude":24.7914,"longitude":85.0002,"temp":34.9,"humidity":47,"rain":0.0,"pressure":990.3,"uv_index":8.95,"wind_gusts":33.1,"aqi":169,"pm10":111.1,"pm2_5":79.6,"no2":3.8,"co":333.0,"o3":187.0,"so2":13.0,"mosquito_risk":0,"arthritis_risk":5,"migraine_risk":7,"frizz_risk":1,"updated_at":"2026-06-14T11:21:36.851767+05:30"},{"city":"Muzaffarpur","state":"Bihar","latitude":26.1209,"longitude":85.3647,"temp":33.1,"humidity":58,"rain":0.0,"pressure":996.5,"uv_index":8.6,"wind_gusts":23.8,"aqi":174,"pm10":101.0,"pm2_5":76.6,"no2":3.5,"co":425.0,"o3":188.0,"so2":15.2,"mosquito_risk":0,"arthritis_risk":5,"migraine_risk":7,"frizz_risk":1,"updated_at":"2026-06-14T11:21:36.851774+05:30"},{"city":"Bhagalpur","state":"Bihar","latitude":25.2425,"longitude":87.0117,"temp":33.5,"humidity":60,"rain":0.0,"pressure":997.1,"uv_index":8.85,"wind_gusts":20.2,"aqi":156,"pm10":78.5,"pm2_5":67.5,"no2":6.4,"co":355.0,"o3":188.0,"so2":34.1,"mosquito_risk":0,"arthritis_risk":5,"migraine_risk":7,"frizz_risk":1,"updated_at":"2026-06-14T11:21:36.851781+05:30"},{"city":"Ranchi","state":"Jharkhand","latitude":23.3441,"longitude":85.3096,"temp":32.5,"humidity":46,"rain":0.0,"pressure":935.8,"uv_index":8.0,"wind_gusts":33.5,"aqi":141,"pm10":87.8,"pm2_5":56.8,"no2":1.7,"co":193.0,"o3":165.0,"so2":11.5,"mosquito_risk":0,"arthritis_risk":5,"migraine_risk":7,"frizz_risk":1,"updated_at":"2026-06-14T11:21:36.851788+05:30"},{"city":"Jamshedpur","state":"Jharkhand","latitude":22.8046,"longitude":86.2029,"temp":34.4,"humidity":51,"rain":0.0,"pressure":987.2,"uv_index":9.1,"wind_gusts":43.2,"aqi":155,"pm10":75.2,"pm2_5":61.7,"no2":5.9,"co":314.0,"o3":201.0,"so2":34.8,"mosquito_risk":0,"arthritis_risk":5,"migraine_risk":7,"frizz_risk":1,"updated_at":"2026-06-14T11:21:36.851795+05:30"},{"city":"Dhanbad","state":"Jharkhand","latitude":23.7957,"longitude":86.4304,"temp":33.0,"humidity":55,"rain":0.0,"pressure":976.7,"uv_index":8.45,"wind_gusts":42.5,"aqi":170,"pm10":106.2,"pm2_5":79.6,"no2":15.3,"co":267.0,"o3":168.0,"so2":52.8,"mosquito_risk":0,"arthritis_risk":5,"migraine_risk":7,"frizz_risk":1,"updated_at":"2026-06-14T11:21:36.851803+05:30"},{"city":"Bokaro","state":"Jharkhand","latitude":23.6693,"longitude":86.1511,"temp":33.3,"humidity":56,"rain":0.0,"pressure":980.4,"uv_index":8.6,"wind_gusts":43.9,"aqi":162,"pm10":106.9,"pm2_5":79.2,"no2":14.8,"co":276.0,"o3":177.0,"so2":56.2,"mosquito_risk":0,"arthritis_risk":5,"migraine_risk":7,"frizz_risk":1,"updated_at":"2026-06-14T11:21:36.851809+05:30"},{"city":"Bhubaneswar","state":"Odisha","latitude":20.2961,"longitude":85.8245,"temp":35.3,"humidity":55,"rain":0.0,"pressure":998.6,"uv_index":9.05,"wind_gusts":52.2,"aqi":116,"pm10":38.4,"pm2_5":29.0,"no2":4.3,"co":244.0,"o3":127.0,"so2":9.8,"mosquito_risk":0,"arthritis_risk":5,"migraine_risk":10,"frizz_risk":1,"updated_at":"2026-06-14T11:21:36.851816+05:30"},{"city":"Cuttack","state":"Odisha","latitude":20.4625,"longitude":85.8828,"temp":35.1,"humidity":56,"rain":0.0,"pressure":1000.4,"uv_index":9.15,"wind_gusts":43.2,"aqi":116,"pm10":38.4,"pm2_5":29.0,"no2":4.3,"co":263.0,"o3":127.0,"so2":9.8,"mosquito_risk":0,"arthritis_risk":5,"migraine_risk":7,"frizz_risk":1,"updated_at":"2026-06-14T11:21:36.851823+05:30"},{"city":"Rourkela","state":"Odisha","latitude":22.2604,"longitude":84.8536,"temp":35.0,"humidity":49,"rain":0.0,"pressure":981.5,"uv_index":8.75,"wind_gusts":32.8,"aqi":151,"pm10":58.8,"pm2_5":42.7,"no2":3.1,"co":308.0,"o3":178.0,"so2":21.3,"mosquito_risk":0,"arthritis_risk":5,"migraine_risk":7,"frizz_risk":1,"updated_at":"2026-06-14T11:21:36.851830+05:30"},{"city":"Raipur","state":"Chhattisgarh","latitude":21.2514,"longitude":81.6296,"temp":36.7,"humidity":32,"rain":0.0,"pressure":972.4,"uv_index":8.95,"wind_gusts":46.8,"aqi":133,"pm10":85.2,"pm2_5":45.1,"no2":13.1,"co":162.0,"o3":118.0,"so2":43.2,"mosquito_risk":0,"arthritis_risk":5,"migraine_risk":10,"frizz_risk":1,"updated_at":"2026-06-14T11:21:36.851836+05:30"},{"city":"Bhilai","state":"Chhattisgarh","latitude":21.1938,"longitude":81.3509,"temp":34.8,"humidity":38,"rain":0.0,"pressure":972.9,"uv_index":8.95,"wind_gusts":46.1,"aqi":125,"pm10":89.2,"pm2_5":41.9,"no2":10.1,"co":395.0,"o3":116.0,"so2":33.1,"mosquito_risk":0,"arthritis_risk":5,"migraine_risk":7,"frizz_risk":1,"updated_at":"2026-06-14T11:21:36.851843+05:30"},{"city":"Guwahati","state":"Assam","latitude":26.1158,"longitude":91.7086,"temp":29.4,"humidity":76,"rain":0.0,"pressure":997.6,"uv_index":8.15,"wind_gusts":28.8,"aqi":78,"pm10":24.4,"pm2_5":19.8,"no2":1.4,"co":295.0,"o3":128.0,"so2":2.8,"mosquito_risk":7,"arthritis_risk":5,"migraine_risk":7,"frizz_risk":1,"updated_at":"2026-06-14T11:21:36.851850+05:30"},{"city":"Agartala","state":"Tripura","latitude":23.8315,"longitude":91.2868,"temp":28.6,"humidity":83,"rain":0.1,"pressure":1003.0,"uv_index":8.5,"wind_gusts":30.2,"aqi":70,"pm10":32.9,"pm2_5":23.5,"no2":3.6,"co":183.0,"o3":118.0,"so2":3.2,"mosquito_risk":10,"arthritis_risk":5,"migraine_risk":4,"frizz_risk":1,"updated_at":"2026-06-14T11:21:36.851858+05:30"},{"city":"Shillong","state":"Meghalaya","latitude":25.5788,"longitude":91.8933,"temp":22.7,"humidity":88,"rain":0.0,"pressure":855.6,"uv_index":7.35,"wind_gusts":25.2,"aqi":50,"pm10":10.8,"pm2_5":8.6,"no2":1.7,"co":230.0,"o3":110.0,"so2":2.6,"mosquito_risk":3,"arthritis_risk":5,"migraine_risk":7,"frizz_risk":1,"updated_at":"2026-06-14T11:21:36.851864+05:30"},{"city":"Imphal","state":"Manipur","latitude":24.817,"longitude":93.9368,"temp":28.2,"humidity":67,"rain":0.0,"pressure":920.6,"uv_index":9.2,"wind_gusts":32.0,"aqi":63,"pm10":18.9,"pm2_5":10.9,"no2":0.7,"co":174.0,"o3":98.0,"so2":1.6,"mosquito_risk":7,"arthritis_risk":5,"migraine_risk":7,"frizz_risk":1,"updated_at":"2026-06-14T11:21:36.851872+05:30"},{"city":"Aizawl","state":"Mizoram","latitude":23.7271,"longitude":92.7176,"temp":25.1,"humidity":68,"rain":0.0,"pressure":890.9,"uv_index":9.1,"wind_gusts":33.8,"aqi":51,"pm10":25.8,"pm2_5":14.8,"no2":0.5,"co":156.0,"o3":88.0,"so2":1.0,"mosquito_risk":7,"arthritis_risk":5,"migraine_risk":7,"frizz_risk":1,"updated_at":"2026-06-14T11:21:36.851879+05:30"},{"city":"Kohima","state":"Nagaland","latitude":25.6701,"longitude":94.1077,"temp":21.7,"humidity":96,"rain":0.1,"pressure":853.2,"uv_index":7.65,"wind_gusts":24.8,"aqi":40,"pm10":16.9,"pm2_5":10.2,"no2":0.6,"co":185.0,"o3":104.0,"so2":1.5,"mosquito_risk":6,"arthritis_risk":5,"migraine_risk":7,"frizz_risk":1,"updated_at":"2026-06-14T11:21:36.851886+05:30"},{"city":"Gangtok","state":"Sikkim","latitude":27.3314,"longitude":88.6138,"temp":25.4,"humidity":52,"rain":0.0,"pressure":837.1,"uv_index":9.2,"wind_gusts":39.2,"aqi":71,"pm10":24.2,"pm2_5":15.6,"no2":0.9,"co":268.0,"o3":130.0,"so2":1.7,"mosquito_risk":4,"arthritis_risk":5,"migraine_risk":7,"frizz_risk":0,"updated_at":"2026-06-14T11:21:36.851893+05:30"},{"city":"Siliguri","state":"West Bengal","latitude":26.7271,"longitude":88.3953,"temp":30.0,"humidity":70,"rain":0.1,"pressure":989.2,"uv_index":8.75,"wind_gusts":20.5,"aqi":115,"pm10":31.3,"pm2_5":23.5,"no2":1.7,"co":385.0,"o3":156.0,"so2":5.3,"mosquito_risk":10,"arthritis_risk":5,"migraine_risk":7,"frizz_risk":1,"updated_at":"2026-06-14T11:21:40.076532+05:30"},{"city":"Durgapur","state":"West Bengal","latitude":23.5204,"longitude":87.3119,"temp":33.5,"humidity":55,"rain":0.0,"pressure":991.4,"uv_index":8.9,"wind_gusts":38.5,"aqi":166,"pm10":106.2,"pm2_5":93.1,"no2":27.8,"co":591.0,"o3":180.0,"so2":96.9,"mosquito_risk":0,"arthritis_risk":5,"migraine_risk":7,"frizz_risk":1,"updated_at":"2026-06-14T11:21:40.076569+05:30"},{"city":"Asansol","state":"West Bengal","latitude":23.6739,"longitude":86.9524,"temp":33.5,"humidity":53,"rain":0.0,"pressure":990.1,"uv_index":8.9,"wind_gusts":55.8,"aqi":164,"pm10":102.7,"pm2_5":83.1,"no2":21.8,"co":404.0,"o3":163.0,"so2":67.4,"mosquito_risk":0,"arthritis_risk":5,"migraine_risk":7,"frizz_risk":1,"updated_at":"2026-06-14T11:21:40.076580+05:30"},{"city":"Pondicherry","state":"Puducherry","latitude":11.9139,"longitude":79.8145,"temp":33.8,"humidity":55,"rain":0.0,"pressure":1008.3,"uv_index":8.55,"wind_gusts":40.7,"aqi":63,"pm10":30.9,"pm2_5":21.5,"no2":7.1,"co":189.0,"o3":104.0,"so2":10.1,"mosquito_risk":0,"arthritis_risk":0,"migraine_risk":4,"frizz_risk":1,"updated_at":"2026-06-14T11:21:40.076589+05:30"},{"city":"Port Blair","state":"Andaman and Nicobar Islands","latitude":11.6234,"longitude":92.7265,"temp":30.8,"humidity":68,"rain":0.1,"pressure":1008.0,"uv_index":7.15,"wind_gusts":46.8,"aqi":27,"pm10":16.8,"pm2_5":9.5,"no2":0.2,"co":89.0,"o3":46.0,"so2":0.5,"mosquito_risk":6,"arthritis_risk":0,"migraine_risk":4,"frizz_risk":1,"updated_at":"2026-06-14T11:21:40.076597+05:30"},{"city":"Haridwar","state":"Uttarakhand","latitude":29.9457,"longitude":78.1642,"temp":32.9,"humidity":46,"rain":0.0,"pressure":971.2,"uv_index":7.65,"wind_gusts":27.0,"aqi":102,"pm10":104.8,"pm2_5":35.6,"no2":1.1,"co":240.0,"o3":154.0,"so2":6.9,"mosquito_risk":0,"arthritis_risk":5,"migraine_risk":7,"frizz_risk":1,"updated_at":"2026-06-14T11:21:40.076605+05:30"},{"city":"Rishikesh","state":"Uttarakhand","latitude":30.0869,"longitude":78.2676,"temp":32.5,"humidity":43,"rain":0.0,"pressure":964.0,"uv_index":7.75,"wind_gusts":28.4,"aqi":77,"pm10":61.7,"pm2_5":22.8,"no2":0.8,"co":213.0,"o3":146.0,"so2":3.8,"mosquito_risk":0,"arthritis_risk":5,"migraine_risk":7,"frizz_risk":1,"updated_at":"2026-06-14T11:21:40.076613+05:30"},{"city":"Nainital","state":"Uttarakhand","latitude":29.3919,"longitude":79.4542,"temp":23.1,"humidity":44,"rain":0.0,"pressure":807.0,"uv_index":8.6,"wind_gusts":37.8,"aqi":93,"pm10":80.1,"pm2_5":25.9,"no2":0.5,"co":187.0,"o3":152.0,"so2":5.0,"mosquito_risk":0,"arthritis_risk":5,"migraine_risk":7,"frizz_risk":0,"updated_at":"2026-06-14T11:21:40.076620+05:30"},{"city":"Mussoorie","state":"Uttarakhand","latitude":30.4599,"longitude":78.0664,"temp":21.6,"humidity":47,"rain":0.0,"pressure":804.0,"uv_index":8.15,"wind_gusts":41.0,"aqi":77,"pm10":59.1,"pm2_5":20.5,"no2":0.1,"co":156.0,"o3":141.0,"so2":2.6,"mosquito_risk":0,"arthritis_risk":5,"migraine_risk":7,"frizz_risk":0,"updated_at":"2026-06-14T11:21:40.076628+05:30"},{"city":"Dharamshala","state":"Himachal Pradesh","latitude":32.219,"longitude":76.3234,"temp":25.0,"humidity":42,"rain":0.0,"pressure":868.5,"uv_index":8.5,"wind_gusts":41.8,"aqi":36,"pm10":8.4,"pm2_5":3.5,"no2":0.4,"co":194.0,"o3":140.0,"so2":0.6,"mosquito_risk":4,"arthritis_risk":5,"migraine_risk":7,"frizz_risk":0,"updated_at":"2026-06-14T11:21:40.076635+05:30"},{"city":"Dalhousie","state":"Himachal Pradesh","latitude":32.5387,"longitude":75.971,"temp":22.1,"humidity":42,"rain":0.1,"pressure":805.5,"uv_index":8.75,"wind_gusts":34.6,"aqi":60,"pm10":37.0,"pm2_5":14.2,"no2":0.9,"co":181.0,"o3":150.0,"so2":1.1,"mosquito_risk":3,"arthritis_risk":5,"migraine_risk":7,"frizz_risk":0,"updated_at":"2026-06-14T11:21:40.076644+05:30"},{"city":"Patiala","state":"Punjab","latitude":30.3398,"longitude":76.3869,"temp":33.2,"humidity":40,"rain":0.0,"pressure":975.2,"uv_index":7.7,"wind_gusts":23.0,"aqi":144,"pm10":242.1,"pm2_5":54.2,"no2":4.1,"co":271.0,"o3":148.0,"so2":15.2,"mosquito_risk":0,"arthritis_risk":5,"migraine_risk":7,"frizz_risk":1,"updated_at":"2026-06-14T11:21:40.076651+05:30"},{"city":"Bhatinda","state":"Punjab","latitude":30.211,"longitude":74.9455,"temp":34.3,"humidity":36,"rain":0.0,"pressure":980.8,"uv_index":8.35,"wind_gusts":23.4,"aqi":147,"pm10":42.3,"pm2_5":25.3,"no2":7.0,"co":274.0,"o3":140.0,"so2":23.1,"mosquito_risk":0,"arthritis_risk":5,"migraine_risk":7,"frizz_risk":1,"updated_at":"2026-06-14T11:21:40.076658+05:30"},{"city":"Rohtak","state":"Haryana","latitude":28.8955,"longitude":76.6066,"temp":34.9,"humidity":43,"rain":0.0,"pressure":978.8,"uv_index":7.8,"wind_gusts":26.3,"aqi":447,"pm10":457.3,"pm2_5":109.0,"no2":7.6,"co":349.0,"o3":173.0,"so2":15.8,"mosquito_risk":0,"arthritis_risk":5,"migraine_risk":7,"frizz_risk":1,"updated_at":"2026-06-14T11:21:40.076665+05:30"},{"city":"Panipat","state":"Haryana","latitude":29.3909,"longitude":76.9635,"temp":33.6,"humidity":49,"rain":0.0,"pressure":977.5,"uv_index":7.65,"wind_gusts":27.7,"aqi":431,"pm10":791.6,"pm2_5":132.2,"no2":8.2,"co":367.0,"o3":148.0,"so2":25.0,"mosquito_risk":0,"arthritis_risk":5,"migraine_risk":7,"frizz_risk":1,"updated_at":"2026-06-14T11:21:40.076672+05:30"},{"city":"Mathura","state":"Uttar Pradesh","latitude":27.4924,"longitude":77.6737,"temp":35.8,"humidity":39,"rain":0.0,"pressure":984.0,"uv_index":8.1,"wind_gusts":23.8,"aqi":376,"pm10":381.8,"pm2_5":85.7,"no2":5.0,"co":328.0,"o3":136.0,"so2":10.0,"mosquito_risk":0,"arthritis_risk":5,"migraine_risk":10,"frizz_risk":1,"updated_at":"2026-06-14T11:21:40.076679+05:30"},{"city":"Vrindavan","state":"Uttar Pradesh","latitude":27.5823,"longitude":77.7027,"temp":36.1,"humidity":37,"rain":0.0,"pressure":984.3,"uv_index":8.05,"wind_gusts":24.1,"aqi":376,"pm10":381.8,"pm2_5":85.7,"no2":5.0,"co":333.0,"o3":136.0,"so2":10.0,"mosquito_risk":0,"arthritis_risk":5,"migraine_risk":10,"frizz_risk":1,"updated_at":"2026-06-14T11:21:40.076687+05:30"},{"city":"Ayodhya","state":"Uttar Pradesh","latitude":26.7922,"longitude":82.1998,"temp":34.4,"humidity":54,"rain":0.0,"pressure":991.7,"uv_index":8.4,"wind_gusts":32.4,"aqi":154,"pm10":156.5,"pm2_5":52.3,"no2":1.0,"co":293.0,"o3":157.0,"so2":11.0,"mosquito_risk":0,"arthritis_risk":5,"migraine_risk":7,"frizz_risk":1,"updated_at":"2026-06-14T11:21:40.076694+05:30"},{"city":"Ratlam","state":"Madhya Pradesh","latitude":23.3315,"longitude":75.0367,"temp":32.5,"humidity":52,"rain":0.0,"pressure":954.6,"uv_index":8.5,"wind_gusts":43.6,"aqi":74,"pm10":66.1,"pm2_5":27.0,"no2":1.8,"co":115.0,"o3":74.0,"so2":5.6,"mosquito_risk":0,"arthritis_risk":5,"migraine_risk":7,"frizz_risk":1,"updated_at":"2026-06-14T11:21:40.076700+05:30"},{"city":"Sagar","state":"Madhya Pradesh","latitude":23.8388,"longitude":78.7378,"temp":35.0,"humidity":36,"rain":0.0,"pressure":949.1,"uv_index":8.75,"wind_gusts":34.2,"aqi":74,"pm10":94.3,"pm2_5":32.1,"no2":1.4,"co":148.0,"o3":111.0,"so2":5.5,"mosquito_risk":0,"arthritis_risk":5,"migraine_risk":7,"frizz_risk":1,"updated_at":"2026-06-14T11:21:40.076708+05:30"},{"city":"Satna","state":"Madhya Pradesh","latitude":24.6005,"longitude":80.8322,"temp":35.5,"humidity":37,"rain":0.0,"pressure":969.3,"uv_index":8.8,"wind_gusts":32.0,"aqi":103,"pm10":82.7,"pm2_5":30.3,"no2":0.7,"co":174.0,"o3":140.0,"so2":5.1,"mosquito_risk":0,"arthritis_risk":5,"migraine_risk":10,"frizz_risk":1,"updated_at":"2026-06-14T11:21:40.076714+05:30"},{"city":"Akola","state":"Maharashtra","latitude":20.7002,"longitude":77.0082,"temp":34.2,"humidity":49,"rain":0.0,"pressure":974.6,"uv_index":8.85,"wind_gusts":52.9,"aqi":71,"pm10":50.6,"pm2_5":23.7,"no2":2.0,"co":112.0,"o3":82.0,"so2":7.1,"mosquito_risk":0,"arthritis_risk":5,"migraine_risk":7,"frizz_risk":1,"updated_at":"2026-06-14T11:21:40.076722+05:30"},{"city":"Amravati","state":"Maharashtra","latitude":20.9374,"longitude":77.7796,"temp":35.0,"humidity":45,"rain":0.0,"pressure":966.6,"uv_index":8.85,"wind_gusts":56.5,"aqi":73,"pm10":49.6,"pm2_5":23.6,"no2":2.3,"co":121.0,"o3":84.0,"so2":7.9,"mosquito_risk":0,"arthritis_risk":5,"migraine_risk":7,"frizz_risk":1,"updated_at":"2026-06-14T11:21:40.076731+05:30"},{"city":"Latur","state":"Maharashtra","latitude":18.4088,"longitude":76.5604,"temp":32.7,"humidity":50,"rain":0.0,"pressure":940.7,"uv_index":8.9,"wind_gusts":45.4,"aqi":77,"pm10":53.6,"pm2_5":20.8,"no2":1.9,"co":132.0,"o3":82.0,"so2":5.2,"mosquito_risk":0,"arthritis_risk":5,"migraine_risk":7,"frizz_risk":1,"updated_at":"2026-06-14T11:21:40.076739+05:30"},{"city":"Nanded","state":"Maharashtra","latitude":19.1383,"longitude":77.3091,"temp":32.7,"humidity":52,"rain":0.1,"pressure":968.7,"uv_index":8.9,"wind_gusts":45.4,"aqi":81,"pm10":44.1,"pm2_5":19.5,"no2":1.6,"co":123.0,"o3":83.0,"so2":3.3,"mosquito_risk":3,"arthritis_risk":5,"migraine_risk":7,"frizz_risk":1,"updated_at":"2026-06-14T11:21:40.076746+05:30"},{"city":"Gulbarga","state":"Karnataka","latitude":17.3297,"longitude":76.8343,"temp":33.4,"humidity":48,"rain":0.0,"pressure":959.3,"uv_index":8.9,"wind_gusts":41.8,"aqi":69,"pm10":41.4,"pm2_5":16.9,"no2":1.8,"co":128.0,"o3":83.0,"so2":3.6,"mosquito_risk":0,"arthritis_risk":5,"migraine_risk":7,"frizz_risk":1,"updated_at":"2026-06-14T11:21:40.076753+05:30"},{"city":"Bidar","state":"Karnataka","latitude":17.9104,"longitude":77.5199,"temp":32.4,"humidity":51,"rain":0.0,"pressure":936.3,"uv_index":8.95,"wind_gusts":46.4,"aqi":92,"pm10":44.4,"pm2_5":20.9,"no2":2.1,"co":133.0,"o3":96.0,"so2":6.6,"mosquito_risk":0,"arthritis_risk":5,"migraine_risk":7,"frizz_risk":1,"updated_at":"2026-06-14T11:21:40.076759+05:30"},{"city":"Hospet","state":"Karnataka","latitude":15.2689,"longitude":76.3909,"temp":31.5,"humidity":56,"rain":0.0,"pressure":957.5,"uv_index":8.75,"wind_gusts":51.1,"aqi":51,"pm10":26.3,"pm2_5":11.7,"no2":1.5,"co":121.0,"o3":70.0,"so2":2.2,"mosquito_risk":0,"arthritis_risk":5,"migraine_risk":7,"frizz_risk":1,"updated_at":"2026-06-14T11:21:40.076766+05:30"},{"city":"Tirupur","state":"Tamil Nadu","latitude":11.1085,"longitude":77.3411,"temp":33.3,"humidity":48,"rain":0.0,"pressure":976.8,"uv_index":8.15,"wind_gusts":51.8,"aqi":50,"pm10":17.9,"pm2_5":9.9,"no2":2.9,"co":141.0,"o3":76.0,"so2":2.8,"mosquito_risk":0,"arthritis_risk":5,"migraine_risk":7,"frizz_risk":1,"updated_at":"2026-06-14T11:21:40.076772+05:30"},{"city":"Alappuzha","state":"Kerala","latitude":9.4981,"longitude":76.3388,"temp":28.4,"humidity":78,"rain":0.0,"pressure":1012.3,"uv_index":8.15,"wind_gusts":40.3,"aqi":54,"pm10":16.5,"pm2_5":9.7,"no2":3.2,"co":94.0,"o3":75.0,"so2":3.2,"mosquito_risk":7,"arthritis_risk":0,"migraine_risk":4,"frizz_risk":1,"updated_at":"2026-06-14T11:21:40.076779+05:30"},{"city":"Munnar","state":"Kerala","latitude":10.0889,"longitude":77.0595,"temp":19.5,"humidity":88,"rain":0.0,"pressure":859.9,"uv_index":8.5,"wind_gusts":37.1,"aqi":37,"pm10":9.7,"pm2_5":4.4,"no2":1.0,"co":97.0,"o3":62.0,"so2":1.2,"mosquito_risk":3,"arthritis_risk":10,"migraine_risk":7,"frizz_risk":1,"updated_at":"2026-06-14T11:21:40.076787+05:30"},{"city":"Silchar","state":"Assam","latitude":24.8333,"longitude":92.7789,"temp":29.3,"humidity":78,"rain":0.0,"pressure":1001.8,"uv_index":8.35,"wind_gusts":32.4,"aqi":68,"pm10":21.5,"pm2_5":13.0,"no2":1.7,"co":195.0,"o3":91.0,"so2":3.1,"mosquito_risk":7,"arthritis_risk":5,"migraine_risk":4,"frizz_risk":1,"updated_at":"2026-06-14T11:21:40.076793+05:30"},{"city":"Dibrugarh","state":"Assam","latitude":27.4728,"longitude":94.912,"temp":29.8,"humidity":73,"rain":0.0,"pressure":990.9,"uv_index":8.5,"wind_gusts":22.0,"aqi":71,"pm10":16.9,"pm2_5":15.7,"no2":1.4,"co":231.0,"o3":106.0,"so2":0.9,"mosquito_risk":7,"arthritis_risk":5,"migraine_risk":7,"frizz_risk":1,"updated_at":"2026-06-14T11:21:40.076800+05:30"}]