[{"city":"Delhi","state":"Delhi","latitude":28.6139,"longitude":77.209,"temp":33.5,"humidity":34,"rain":0.0,"pressure":980.6,"uv_index":7.4,"wind_gusts":34.2,"aqi":143,"pm10":508.5,"pm2_5":76.8,"mosquito_risk":0,"arthritis_risk":5,"migraine_risk":7,"frizz_risk":0,"updated_at":"2026-04-30T12:00:35.917933+05:30"},{"city":"Mumbai","state":"Maharashtra","latitude":19.076,"longitude":72.8777,"temp":32.5,"humidity":59,"rain":0.0,"pressure":1009.1,"uv_index":8.05,"wind_gusts":41.8,"aqi":70,"pm10":48.4,"pm2_5":26.8,"mosquito_risk":0,"arthritis_risk":0,"migraine_risk":4,"frizz_risk":1,"updated_at":"2026-04-30T12:00:35.917978+05:30"},{"city":"Bangalore","state":"Karnataka","latitude":12.9716,"longitude":77.5946,"temp":34.1,"humidity":34,"rain":0.0,"pressure":914.0,"uv_index":9.55,"wind_gusts":40.3,"aqi":88,"pm10":36.0,"pm2_5":27.0,"mosquito_risk":0,"arthritis_risk":5,"migraine_risk":7,"frizz_risk":1,"updated_at":"2026-04-30T12:00:35.917995+05:30"},{"city":"Hyderabad","state":"Telangana","latitude":17.385,"longitude":78.4867,"temp":38.2,"humidity":21,"rain":0.0,"pressure":953.6,"uv_index":9.25,"wind_gusts":32.4,"aqi":94,"pm10":30.0,"pm2_5":24.9,"mosquito_risk":0,"arthritis_risk":5,"migraine_risk":10,"frizz_risk":0,"updated_at":"2026-04-30T12:00:35.918010+05:30"},{"city":"Chennai","state":"Tamil Nadu","latitude":13.0827,"longitude":80.2707,"temp":36.5,"humidity":49,"rain":0.0,"pressure":1006.5,"uv_index":9.25,"wind_gusts":54.4,"aqi":47,"pm10":17.2,"pm2_5":13.6,"mosquito_risk":0,"arthritis_risk":5,"migraine_risk":7,"frizz_risk":1,"updated_at":"2026-04-30T12:00:35.918020+05:30"},{"city":"Kolkata","state":"West Bengal","latitude":22.5726,"longitude":88.3639,"temp":31.7,"humidity":59,"rain":0.0,"pressure":1006.0,"uv_index":8.8,"wind_gusts":42.8,"aqi":55,"pm10":21.4,"pm2_5":18.0,"mosquito_risk":0,"arthritis_risk":5,"migraine_risk":4,"frizz_risk":1,"updated_at":"2026-04-30T12:00:35.918029+05:30"},{"city":"Pune","state":"Maharashtra","latitude":18.5204,"longitude":73.8567,"temp":37.3,"humidity":15,"rain":0.0,"pressure":949.3,"uv_index":8.6,"wind_gusts":50.0,"aqi":56,"pm10":39.7,"pm2_5":14.6,"mosquito_risk":0,"arthritis_risk":5,"migraine_risk":10,"frizz_risk":0,"updated_at":"2026-04-30T12:00:35.918036+05:30"},{"city":"Ahmedabad","state":"Gujarat","latitude":23.0225,"longitude":72.5714,"temp":37.1,"humidity":31,"rain":0.0,"pressure":1000.4,"uv_index":8.2,"wind_gusts":43.6,"aqi":53,"pm10":45.8,"pm2_5":17.3,"mosquito_risk":0,"arthritis_risk":5,"migraine_risk":7,"frizz_risk":1,"updated_at":"2026-04-30T12:00:35.918044+05:30"},{"city":"Jaipur","state":"Rajasthan","latitude":26.9124,"longitude":75.7873,"temp":36.8,"humidity":22,"rain":0.0,"pressure":957.5,"uv_index":8.1,"wind_gusts":45.4,"aqi":159,"pm10":240.3,"pm2_5":36.8,"mosquito_risk":0,"arthritis_risk":5,"migraine_risk":10,"frizz_risk":0,"updated_at":"2026-04-30T12:00:35.918051+05:30"},{"city":"Lucknow","state":"Uttar Pradesh","latitude":26.8467,"longitude":80.9462,"temp":32.5,"humidity":42,"rain":0.0,"pressure":992.3,"uv_index":7.5,"wind_gusts":47.2,"aqi":101,"pm10":61.5,"pm2_5":27.5,"mosquito_risk":0,"arthritis_risk":5,"migraine_risk":7,"frizz_risk":1,"updated_at":"2026-04-30T12:00:35.918059+05:30"},{"city":"Kanpur","state":"Uttar Pradesh","latitude":26.4499,"longitude":80.3319,"temp":34.1,"humidity":33,"rain":0.0,"pressure":989.6,"uv_index":6.65,"wind_gusts":52.6,"aqi":164,"pm10":231.0,"pm2_5":45.6,"mosquito_risk":0,"arthritis_risk":5,"migraine_risk":7,"frizz_risk":0,"updated_at":"2026-04-30T12:00:35.918066+05:30"},{"city":"Chandigarh","state":"Chandigarh","latitude":30.7333,"longitude":76.7794,"temp":31.2,"humidity":33,"rain":0.0,"pressure":967.4,"uv_index":6.8,"wind_gusts":42.1,"aqi":59,"pm10":116.4,"pm2_5":20.7,"mosquito_risk":0,"arthritis_risk":5,"migraine_risk":7,"frizz_risk":0,"updated_at":"2026-04-30T12:00:35.918074+05:30"},{"city":"Srinagar","state":"Jammu and Kashmir","latitude":34.0837,"longitude":74.7973,"temp":19.0,"humidity":58,"rain":0.0,"pressure":841.7,"uv_index":6.85,"wind_gusts":29.2,"aqi":70,"pm10":15.5,"pm2_5":9.3,"mosquito_risk":0,"arthritis_risk":5,"migraine_risk":7,"frizz_risk":0,"updated_at":"2026-04-30T12:00:35.918082+05:30"},{"city":"Jammu","state":"Jammu and Kashmir","latitude":32.7266,"longitude":74.857,"temp":30.9,"humidity":38,"rain":0.0,"pressure":970.8,"uv_index":8.3,"wind_gusts":24.8,"aqi":55,"pm10":28.0,"pm2_5":11.7,"mosquito_risk":0,"arthritis_risk":5,"migraine_risk":7,"frizz_risk":0,"updated_at":"2026-04-30T12:00:35.918091+05:30"},{"city":"Amritsar","state":"Punjab","latitude":31.634,"longitude":74.8723,"temp":33.8,"humidity":30,"rain":0.0,"pressure":978.1,"uv_index":7.85,"wind_gusts":41.8,"aqi":83,"pm10":30.0,"pm2_5":16.1,"mosquito_risk":0,"arthritis_risk":5,"migraine_risk":7,"frizz_risk":0,"updated_at":"2026-04-30T12:00:35.918098+05:30"},{"city":"Ludhiana","state":"Punjab","latitude":30.901,"longitude":75.8573,"temp":32.8,"humidity":32,"rain":0.0,"pressure":976.4,"uv_index":7.35,"wind_gusts":52.2,"aqi":90,"pm10":146.2,"pm2_5":31.4,"mosquito_risk":0,"arthritis_risk":5,"migraine_risk":7,"frizz_risk":0,"updated_at":"2026-04-30T12:00:35.918104+05:30"},{"city":"Jalandhar","state":"Punjab","latitude":31.326,"longitude":75.5762,"temp":33.4,"humidity":31,"rain":0.0,"pressure":976.9,"uv_index":7.45,"wind_gusts":31.3,"aqi":79,"pm10":89.6,"pm2_5":22.7,"mosquito_risk":0,"arthritis_risk":5,"migraine_risk":7,"frizz_risk":0,"updated_at":"2026-04-30T12:00:35.918110+05:30"},{"city":"Dehradun","state":"Uttarakhand","latitude":30.6284,"longitude":78.0322,"temp":18.8,"humidity":56,"rain":0.0,"pressure":830.1,"uv_index":7.7,"wind_gusts":33.8,"aqi":43,"pm10":62.9,"pm2_5":11.3,"mosquito_risk":0,"arthritis_risk":5,"migraine_risk":7,"frizz_risk":0,"updated_at":"2026-04-30T12:00:35.918117+05:30"},{"city":"Shimla","state":"Himachal Pradesh","latitude":31.1048,"longitude":77.1734,"temp":17.8,"humidity":44,"rain":0.0,"pressure":784.5,"uv_index":7.4,"wind_gusts":38.5,"aqi":48,"pm10":79.6,"pm2_5":13.7,"mosquito_risk":0,"arthritis_risk":5,"migraine_risk":7,"frizz_risk":0,"updated_at":"2026-04-30T12:00:35.918123+05:30"},{"city":"Manali","state":"Himachal Pradesh","latitude":32.2396,"longitude":77.1887,"temp":16.5,"humidity":55,"rain":0.0,"pressure":816.7,"uv_index":10.1,"wind_gusts":37.1,"aqi":65,"pm10":4.6,"pm2_5":2.7,"mosquito_risk":0,"arthritis_risk":5,"migraine_risk":7,"frizz_risk":0,"updated_at":"2026-04-30T12:00:35.918129+05:30"},{"city":"Gurgaon","state":"Haryana","latitude":28.4595,"longitude":77.0266,"temp":33.6,"humidity":33,"rain":0.0,"pressure":979.0,"uv_index":7.55,"wind_gusts":40.7,"aqi":681,"pm10":1601.9,"pm2_5":163.9,"mosquito_risk":0,"arthritis_risk":5,"migraine_risk":7,"frizz_risk":0,"updated_at":"2026-04-30T12:00:35.918135+05:30"},{"city":"Noida","state":"Uttar Pradesh","latitude":28.5355,"longitude":77.391,"temp":33.5,"humidity":36,"rain":0.0,"pressure":982.2,"uv_index":7.45,"wind_gusts":44.6,"aqi":681,"pm10":1601.9,"pm2_5":163.9,"mosquito_risk":0,"arthritis_risk":5,"migraine_risk":7,"frizz_risk":1,"updated_at":"2026-04-30T12:00:35.918141+05:30"},{"city":"Ghaziabad","state":"Uttar Pradesh","latitude":28.6692,"longitude":77.4538,"temp":32.5,"humidity":39,"rain":0.0,"pressure":981.0,"uv_index":7.3,"wind_gusts":39.2,"aqi":131,"pm10":343.7,"pm2_5":57.2,"mosquito_risk":0,"arthritis_risk":5,"migraine_risk":7,"frizz_risk":1,"updated_at":"2026-04-30T12:00:35.918147+05:30"},{"city":"Faridabad","state":"Haryana","latitude":28.4089,"longitude":77.3178,"temp":32.8,"humidity":36,"rain":0.0,"pressure":981.6,"uv_index":7.5,"wind_gusts":37.1,"aqi":681,"pm10":1601.9,"pm2_5":163.9,"mosquito_risk":0,"arthritis_risk":5,"migraine_risk":7,"frizz_risk":0,"updated_at":"2026-04-30T12:00:35.918156+05:30"},{"city":"Meerut","state":"Uttar Pradesh","latitude":28.9845,"longitude":77.7064,"temp":30.2,"humidity":50,"rain":0.0,"pressure":980.3,"uv_index":5.65,"wind_gusts":47.9,"aqi":131,"pm10":343.7,"pm2_5":57.2,"mosquito_risk":0,"arthritis_risk":5,"migraine_risk":3,"frizz_risk":1,"updated_at":"2026-04-30T12:00:35.918163+05:30"},{"city":"Agra","state":"Uttar Pradesh","latitude":27.1767,"longitude":78.0081,"temp":37.8,"humidity":24,"rain":0.0,"pressure":984.4,"uv_index":7.8,"wind_gusts":68.0,"aqi":745,"pm10":868.0,"pm2_5":104.1,"mosquito_risk":0,"arthritis_risk":5,"migraine_risk":10,"frizz_risk":0,"updated_at":"2026-04-30T12:00:35.918169+05:30"},{"city":"Varanasi","state":"Uttar Pradesh","latitude":25.3176,"longitude":82.9739,"temp":31.5,"humidity":37,"rain":0.0,"pressure":997.3,"uv_index":8.45,"wind_gusts":39.2,"aqi":91,"pm10":60.1,"pm2_5":31.1,"mosquito_risk":0,"arthritis_risk":5,"migraine_risk":7,"frizz_risk":0,"updated_at":"2026-04-30T12:00:35.918176+05:30"},{"city":"Prayagraj","state":"Uttar Pradesh","latitude":25.4358,"longitude":81.8463,"temp":31.0,"humidity":45,"rain":0.1,"pressure":994.7,"uv_index":7.7,"wind_gusts":50.0,"aqi":83,"pm10":55.2,"pm2_5":30.5,"mosquito_risk":3,"arthritis_risk":5,"migraine_risk":7,"frizz_risk":1,"updated_at":"2026-04-30T12:00:35.918183+05:30"},{"city":"Gorakhpur","state":"Uttar Pradesh","latitude":26.7606,"longitude":83.3732,"temp":30.9,"humidity":45,"rain":0.0,"pressure":997.8,"uv_index":8.25,"wind_gusts":46.1,"aqi":74,"pm10":48.9,"pm2_5":26.0,"mosquito_risk":0,"arthritis_risk":5,"migraine_risk":7,"frizz_risk":1,"updated_at":"2026-04-30T12:00:35.918189+05:30"},{"city":"Bareilly","state":"Uttar Pradesh","latitude":28.367,"longitude":79.4304,"temp":26.8,"humidity":62,"rain":0.0,"pressure":987.1,"uv_index":7.7,"wind_gusts":45.7,"aqi":98,"pm10":192.3,"pm2_5":44.9,"mosquito_risk":7,"arthritis_risk":5,"migraine_risk":7,"frizz_risk":1,"updated_at":"2026-04-30T12:00:35.918198+05:30"},{"city":"Aligarh","state":"Uttar Pradesh","latitude":27.8974,"longitude":78.088,"temp":35.5,"humidity":31,"rain":0.0,"pressure":983.2,"uv_index":7.6,"wind_gusts":48.6,"aqi":362,"pm10":581.1,"pm2_5":77.1,"mosquito_risk":0,"arthritis_risk":5,"migraine_risk":10,"frizz_risk":0,"updated_at":"2026-04-30T12:00:35.918205+05:30"},{"city":"Moradabad","state":"Uttar Pradesh","latitude":28.8386,"longitude":78.7733,"temp":28.6,"humidity":51,"rain":0.0,"pressure":983.3,"uv_index":7.55,"wind_gusts":59.0,"aqi":123,"pm10":105.9,"pm2_5":38.4,"mosquito_risk":4,"arthritis_risk":5,"migraine_risk":7,"frizz_risk":1,"updated_at":"2026-04-30T12:00:35.918210+05:30"},{"city":"Saharanpur","state":"Uttar Pradesh","latitude":29.9637,"longitude":77.546,"temp":29.9,"humidity":46,"rain":0.0,"pressure":974.7,"uv_index":6.4,"wind_gusts":49.7,"aqi":86,"pm10":92.7,"pm2_5":27.5,"mosquito_risk":4,"arthritis_risk":5,"migraine_risk":7,"frizz_risk":1,"updated_at":"2026-04-30T12:00:35.918216+05:30"},{"city":"Jhansi","state":"Uttar Pradesh","latitude":25.4484,"longitude":78.5685,"temp":39.1,"humidity":18,"rain":0.0,"pressure":974.9,"uv_index":8.3,"wind_gusts":64.8,"aqi":77,"pm10":121.1,"pm2_5":26.6,"mosquito_risk":0,"arthritis_risk":5,"migraine_risk":10,"frizz_risk":0,"updated_at":"2026-04-30T12:00:39.504006+05:30"},{"city":"Surat","state":"Gujarat","latitude":21.1702,"longitude":72.8311,"temp":34.0,"humidity":53,"rain":0.0,"pressure":1006.5,"uv_index":7.85,"wind_gusts":49.7,"aqi":66,"pm10":68.7,"pm2_5":22.5,"mosquito_risk":0,"arthritis_risk":5,"migraine_risk":4,"frizz_risk":1,"updated_at":"2026-04-30T12:00:39.504040+05:30"},{"city":"Vadodara","state":"Gujarat","latitude":22.3072,"longitude":73.1812,"temp":37.8,"humidity":27,"rain":0.0,"pressure":1003.0,"uv_index":8.15,"wind_gusts":45.0,"aqi":58,"pm10":56.8,"pm2_5":20.3,"mosquito_risk":0,"arthritis_risk":5,"migraine_risk":7,"frizz_risk":0,"updated_at":"2026-04-30T12:00:39.504050+05:30"},{"city":"Rajkot","state":"Gujarat","latitude":22.3039,"longitude":70.8022,"temp":38.7,"humidity":26,"rain":0.0,"pressure":992.8,"uv_index":7.9,"wind_gusts":51.8,"aqi":51,"pm10":54.7,"pm2_5":18.6,"mosquito_risk":0,"arthritis_risk":5,"migraine_risk":10,"frizz_risk":0,"updated_at":"2026-04-30T12:00:39.504057+05:30"},{"city":"Thane","state":"Maharashtra","latitude":19.2183,"longitude":72.9781,"temp":36.0,"humidity":43,"rain":0.0,"pressure":1007.9,"uv_index":8.05,"wind_gusts":40.3,"aqi":70,"pm10":48.4,"pm2_5":26.8,"mosquito_risk":0,"arthritis_risk":5,"migraine_risk":7,"frizz_risk":1,"updated_at":"2026-04-30T12:00:39.504064+05:30"},{"city":"Nagpur","state":"Maharashtra","latitude":21.1458,"longitude":79.0882,"temp":40.7,"humidity":14,"rain":0.0,"pressure":971.7,"uv_index":8.9,"wind_gusts":49.0,"aqi":51,"pm10":29.7,"pm2_5":16.1,"mosquito_risk":0,"arthritis_risk":5,"migraine_risk":10,"frizz_risk":0,"updated_at":"2026-04-30T12:00:39.504070+05:30"},{"city":"Nashik","state":"Maharashtra","latitude":19.9975,"longitude":73.7898,"temp":36.0,"humidity":21,"rain":0.0,"pressure":946.7,"uv_index":8.3,"wind_gusts":54.7,"aqi":58,"pm10":50.5,"pm2_5":19.8,"mosquito_risk":0,"arthritis_risk":5,"migraine_risk":10,"frizz_risk":0,"updated_at":"2026-04-30T12:00:39.504077+05:30"},{"city":"Aurangabad","state":"Maharashtra","latitude":19.8762,"longitude":75.3433,"temp":38.2,"humidity":11,"rain":0.0,"pressure":944.9,"uv_index":9.05,"wind_gusts":54.0,"aqi":52,"pm10":34.6,"pm2_5":11.7,"mosquito_risk":0,"arthritis_risk":5,"migraine_risk":10,"frizz_risk":0,"updated_at":"2026-04-30T12:00:39.504083+05:30"},{"city":"Solapur","state":"Maharashtra","latitude":17.6599,"longitude":75.9064,"temp":38.3,"humidity":17,"rain":0.0,"pressure":958.1,"uv_index":9.1,"wind_gusts":40.3,"aqi":66,"pm10":25.8,"pm2_5":11.3,"mosquito_risk":0,"arthritis_risk":5,"migraine_risk":10,"frizz_risk":0,"updated_at":"2026-04-30T12:00:39.504090+05:30"},{"city":"Kolhapur","state":"Maharashtra","latitude":16.705,"longitude":74.2433,"temp":36.0,"humidity":22,"rain":0.0,"pressure":949.5,"uv_index":9.0,"wind_gusts":44.3,"aqi":62,"pm10":35.6,"pm2_5":16.0,"mosquito_risk":0,"arthritis_risk":5,"migraine_risk":10,"frizz_risk":0,"updated_at":"2026-04-30T12:00:39.504097+05:30"},{"city":"Goa","state":"Goa","latitude":15.2993,"longitude":74.124,"temp":37.0,"humidity":46,"rain":0.0,"pressure":998.3,"uv_index":8.95,"wind_gusts":34.6,"aqi":59,"pm10":27.4,"pm2_5":14.7,"mosquito_risk":0,"arthritis_risk":5,"migraine_risk":10,"frizz_risk":1,"updated_at":"2026-04-30T12:00:39.504104+05:30"},{"city":"Jodhpur","state":"Rajasthan","latitude":26.2389,"longitude":73.0243,"temp":38.5,"humidity":21,"rain":0.0,"pressure":979.5,"uv_index":8.3,"wind_gusts":45.7,"aqi":122,"pm10":242.1,"pm2_5":38.9,"mosquito_risk":0,"arthritis_risk":5,"migraine_risk":10,"frizz_risk":0,"updated_at":"2026-04-30T12:00:39.504110+05:30"},{"city":"Udaipur","state":"Rajasthan","latitude":24.5854,"longitude":73.7125,"temp":36.3,"humidity":23,"rain":0.0,"pressure":945.2,"uv_index":8.8,"wind_gusts":47.2,"aqi":55,"pm10":69.8,"pm2_5":19.9,"mosquito_risk":0,"arthritis_risk":5,"migraine_risk":10,"frizz_risk":0,"updated_at":"2026-04-30T12:00:39.504117+05:30"},{"city":"Kota","state":"Rajasthan","latitude":25.2138,"longitude":75.8648,"temp":39.0,"humidity":23,"rain":0.0,"pressure":975.9,"uv_index":8.3,"wind_gusts":43.9,"aqi":62,"pm10":88.7,"pm2_5":23.2,"mosquito_risk":0,"arthritis_risk":5,"migraine_risk":10,"frizz_risk":0,"updated_at":"2026-04-30T12:00:39.504123+05:30"},{"city":"Bikaner","state":"Rajasthan","latitude":28.0229,"longitude":73.3119,"temp":39.3,"humidity":16,"rain":0.0,"pressure":977.8,"uv_index":8.2,"wind_gusts":42.5,"aqi":79,"pm10":119.2,"pm2_5":27.3,"mosquito_risk":0,"arthritis_risk":5,"migraine_risk":10,"frizz_risk":0,"updated_at":"2026-04-30T12:00:39.504129+05:30"},{"city":"Ajmer","state":"Rajasthan","latitude":26.4499,"longitude":74.6399,"temp":37.6,"humidity":18,"rain":0.0,"pressure":952.4,"uv_index":8.25,"wind_gusts":53.6,"aqi":73,"pm10":142.5,"pm2_5":28.5,"mosquito_risk":0,"arthritis_risk":5,"migraine_risk":10,"frizz_risk":0,"updated_at":"2026-04-30T12:00:39.504135+05:30"},{"city":"Gwalior","state":"Madhya Pradesh","latitude":26.2183,"longitude":78.1828,"temp":38.3,"humidity":21,"rain":0.0,"pressure":979.9,"uv_index":8.05,"wind_gusts":50.8,"aqi":136,"pm10":187.7,"pm2_5":37.4,"mosquito_risk":0,"arthritis_risk":5,"migraine_risk":10,"frizz_risk":0,"updated_at":"2026-04-30T12:00:39.504141+05:30"},{"city":"Indore","state":"Madhya Pradesh","latitude":22.7196,"longitude":75.8577,"temp":37.3,"humidity":18,"rain":0.0,"pressure":947.8,"uv_index":8.6,"wind_gusts":47.5,"aqi":48,"pm10":53.0,"pm2_5":17.2,"mosquito_risk":0,"arthritis_risk":5,"migraine_risk":10,"frizz_risk":0,"updated_at":"2026-04-30T12:00:39.504147+05:30"},{"city":"Bhopal","state":"Madhya Pradesh","latitude":23.2599,"longitude":77.4126,"temp":38.3,"humidity":20,"rain":0.0,"pressure":952.6,"uv_index":8.6,"wind_gusts":64.4,"aqi":45,"pm10":51.7,"pm2_5":17.5,"mosquito_risk":0,"arthritis_risk":5,"migraine_risk":10,"frizz_risk":0,"updated_at":"2026-04-30T12:00:39.504154+05:30"},{"city":"Jabalpur","state":"Madhya Pradesh","latitude":23.1815,"longitude":79.9864,"temp":39.0,"humidity":17,"rain":0.0,"pressure":959.8,"uv_index":8.75,"wind_gusts":48.2,"aqi":42,"pm10":52.2,"pm2_5":16.9,"mosquito_risk":0,"arthritis_risk":5,"migraine_risk":10,"frizz_risk":0,"updated_at":"2026-04-30T12:00:39.504161+05:30"},{"city":"Ujjain","state":"Madhya Pradesh","latitude":23.1765,"longitude":75.7885,"temp":37.2,"humidity":23,"rain":0.0,"pressure":953.1,"uv_index":8.55,"wind_gusts":47.2,"aqi":50,"pm10":50.5,"pm2_5":17.6,"mosquito_risk":0,"arthritis_risk":5,"migraine_risk":10,"frizz_risk":0,"updated_at":"2026-04-30T12:00:39.504167+05:30"},{"city":"Visakhapatnam","state":"Andhra Pradesh","latitude":17.6868,"longitude":83.2185,"temp":35.2,"humidity":51,"rain":0.0,"pressure":1002.6,"uv_index":9.1,"wind_gusts":49.7,"aqi":58,"pm10":21.4,"pm2_5":17.3,"mosquito_risk":0,"arthritis_risk":5,"migraine_risk":7,"frizz_risk":1,"updated_at":"2026-04-30T12:00:39.504173+05:30"},{"city":"Vijayawada","state":"Andhra Pradesh","latitude":16.5062,"longitude":80.648,"temp":32.7,"humidity":60,"rain":0.0,"pressure":1003.0,"uv_index":9.2,"wind_gusts":43.2,"aqi":69,"pm10":24.2,"pm2_5":20.9,"mosquito_risk":0,"arthritis_risk":5,"migraine_risk":4,"frizz_risk":1,"updated_at":"2026-04-30T12:00:39.504179+05:30"},{"city":"Guntur","state":"Andhra Pradesh","latitude":16.3067,"longitude":80.4365,"temp":33.2,"humidity":54,"rain":0.0,"pressure":1003.9,"uv_index":9.2,"wind_gusts":49.7,"aqi":73,"pm10":27.5,"pm2_5":23.8,"mosquito_risk":0,"arthritis_risk":5,"migraine_risk":4,"frizz_risk":1,"updated_at":"2026-04-30T12:00:39.504186+05:30"},{"city":"Nellore","state":"Andhra Pradesh","latitude":14.4426,"longitude":79.9865,"temp":40.8,"humidity":30,"rain":0.0,"pressure":1004.3,"uv_index":9.2,"wind_gusts":37.8,"aqi":55,"pm10":19.4,"pm2_5":17.7,"mosquito_risk":0,"arthritis_risk":5,"migraine_risk":7,"frizz_risk":1,"updated_at":"2026-04-30T12:00:39.504192+05:30"},{"city":"Kurnool","state":"Andhra Pradesh","latitude":15.8281,"longitude":78.0373,"temp":40.0,"humidity":26,"rain":0.0,"pressure":976.8,"uv_index":9.2,"wind_gusts":38.5,"aqi":96,"pm10":23.2,"pm2_5":17.5,"mosquito_risk":0,"arthritis_risk":5,"migraine_risk":10,"frizz_risk":1,"updated_at":"2026-04-30T12:00:39.504199+05:30"},{"city":"Kakinada","state":"Andhra Pradesh","latitude":16.9891,"longitude":82.2475,"temp":30.6,"humidity":70,"rain":0.1,"pressure":1007.4,"uv_index":9.15,"wind_gusts":42.1,"aqi":51,"pm10":19.2,"pm2_5":14.3,"mosquito_risk":6,"arthritis_risk":5,"migraine_risk":4,"frizz_risk":1,"updated_at":"2026-04-30T12:00:39.504206+05:30"},{"city":"Tirupati","state":"Andhra Pradesh","latitude":13.6288,"longitude":79.4192,"temp":40.2,"humidity":27,"rain":0.0,"pressure":990.1,"uv_index":9.3,"wind_gusts":43.6,"aqi":59,"pm10":19.2,"pm2_5":17.7,"mosquito_risk":0,"arthritis_risk":5,"migraine_risk":10,"frizz_risk":1,"updated_at":"2026-04-30T12:00:39.504212+05:30"},{"city":"Warangal","state":"Telangana","latitude":17.9689,"longitude":79.5941,"temp":37.8,"humidity":35,"rain":0.0,"pressure":978.5,"uv_index":9.15,"wind_gusts":36.7,"aqi":96,"pm10":33.8,"pm2_5":28.6,"mosquito_risk":0,"arthritis_risk":5,"migraine_risk":10,"frizz_risk":1,"updated_at":"2026-04-30T12:00:39.504218+05:30"},{"city":"Nizamabad","state":"Telangana","latitude":18.6725,"longitude":78.0941,"temp":39.0,"humidity":16,"rain":0.0,"pressure":965.0,"uv_index":9.1,"wind_gusts":40.7,"aqi":83,"pm10":20.7,"pm2_5":9.5,"mosquito_risk":0,"arthritis_risk":5,"migraine_risk":10,"frizz_risk":0,"updated_at":"2026-04-30T12:00:39.504225+05:30"},{"city":"Mysore","state":"Karnataka","latitude":12.2958,"longitude":76.6396,"temp":33.2,"humidity":43,"rain":0.0,"pressure":930.2,"uv_index":9.4,"wind_gusts":48.6,"aqi":75,"pm10":30.7,"pm2_5":21.1,"mosquito_risk":0,"arthritis_risk":5,"migraine_risk":7,"frizz_risk":1,"updated_at":"2026-04-30T12:00:39.504231+05:30"},{"city":"Mangalore","state":"Karnataka","latitude":12.9141,"longitude":74.856,"temp":33.3,"humidity":56,"rain":0.0,"pressure":1007.9,"uv_index":9.05,"wind_gusts":34.6,"aqi":70,"pm10":43.2,"pm2_5":20.8,"mosquito_risk":0,"arthritis_risk":5,"migraine_risk":4,"frizz_risk":1,"updated_at":"2026-04-30T12:00:39.504237+05:30"},{"city":"Hubli-Dharwad","state":"Karnataka","latitude":15.3647,"longitude":75.124,"temp":33.8,"humidity":46,"rain":0.0,"pressure":942.7,"uv_index":9.2,"wind_gusts":47.2,"aqi":64,"pm10":25.2,"pm2_5":18.1,"mosquito_risk":0,"arthritis_risk":5,"migraine_risk":7,"frizz_risk":1,"updated_at":"2026-04-30T12:00:39.504243+05:30"},{"city":"Belgaum","state":"Karnataka","latitude":15.8497,"longitude":74.4977,"temp":32.8,"humidity":41,"rain":0.0,"pressure":928.1,"uv_index":9.2,"wind_gusts":40.7,"aqi":59,"pm10":24.9,"pm2_5":14.4,"mosquito_risk":0,"arthritis_risk":5,"migraine_risk":7,"frizz_risk":1,"updated_at":"2026-04-30T12:00:42.746428+05:30"},{"city":"Coimbatore","state":"Tamil Nadu","latitude":11.0168,"longitude":76.9558,"temp":35.0,"humidity":38,"rain":0.0,"pressure":962.6,"uv_index":9.35,"wind_gusts":51.5,"aqi":71,"pm10":29.2,"pm2_5":20.2,"mosquito_risk":0,"arthritis_risk":5,"migraine_risk":7,"frizz_risk":1,"updated_at":"2026-04-30T12:00:42.746462+05:30"},{"city":"Madurai","state":"Tamil Nadu","latitude":9.9252,"longitude":78.1198,"temp":38.7,"humidity":34,"rain":0.0,"pressure":992.9,"uv_index":9.2,"wind_gusts":59.0,"aqi":67,"pm10":20.6,"pm2_5":19.0,"mosquito_risk":0,"arthritis_risk":5,"migraine_risk":10,"frizz_risk":1,"updated_at":"2026-04-30T12:00:42.746474+05:30"},{"city":"Trichy","state":"Tamil Nadu","latitude":10.7905,"longitude":78.7047,"temp":36.8,"humidity":42,"rain":0.0,"pressure":999.6,"uv_index":9.25,"wind_gusts":45.7,"aqi":50,"pm10":20.8,"pm2_5":19.0,"mosquito_risk":0,"arthritis_risk":5,"migraine_risk":10,"frizz_risk":1,"updated_at":"2026-04-30T12:00:42.746483+05:30"},{"city":"Salem","state":"Tamil Nadu","latitude":11.6643,"longitude":78.146,"temp":37.7,"humidity":32,"rain":0.0,"pressure":977.4,"uv_index":9.3,"wind_gusts":51.8,"aqi":69,"pm10":32.6,"pm2_5":26.7,"mosquito_risk":0,"arthritis_risk":5,"migraine_risk":10,"frizz_risk":1,"updated_at":"2026-04-30T12:00:42.746490+05:30"},{"city":"Tirunelveli","state":"Tamil Nadu","latitude":8.7139,"longitude":77.7567,"temp":38.2,"humidity":37,"rain":0.0,"pressure":1003.1,"uv_index":9.1,"wind_gusts":46.1,"aqi":54,"pm10":12.5,"pm2_5":11.1,"mosquito_risk":0,"arthritis_risk":5,"migraine_risk":7,"frizz_risk":1,"updated_at":"2026-04-30T12:00:42.746497+05:30"},{"city":"Vellore","state":"Tamil Nadu","latitude":12.9165,"longitude":79.1325,"temp":39.5,"humidity":29,"rain":0.0,"pressure":983.9,"uv_index":9.35,"wind_gusts":41.0,"aqi":63,"pm10":22.8,"pm2_5":20.5,"mosquito_risk":0,"arthritis_risk":5,"migraine_risk":10,"frizz_risk":1,"updated_at":"2026-04-30T12:00:42.746504+05:30"},{"city":"Erode","state":"Tamil Nadu","latitude":11.341,"longitude":77.7172,"temp":38.7,"humidity":30,"rain":0.0,"pressure":988.7,"uv_index":9.3,"wind_gusts":68.8,"aqi":76,"pm10":27.0,"pm2_5":21.0,"mosquito_risk":0,"arthritis_risk":5,"migraine_risk":10,"frizz_risk":1,"updated_at":"2026-04-30T12:00:42.746512+05:30"},{"city":"Kochi","state":"Kerala","latitude":9.9312,"longitude":76.2673,"temp":31.0,"humidity":72,"rain":0.0,"pressure":1009.5,"uv_index":8.45,"wind_gusts":31.0,"aqi":72,"pm10":13.3,"pm2_5":11.4,"mosquito_risk":3,"arthritis_risk":0,"migraine_risk":4,"frizz_risk":1,"updated_at":"2026-04-30T12:00:42.746519+05:30"},{"city":"Thiruvananthapuram","state":"Kerala","latitude":8.5241,"longitude":76.9366,"temp":30.4,"humidity":74,"rain":0.0,"pressure":1009.1,"uv_index":8.95,"wind_gusts":29.5,"aqi":42,"pm10":7.8,"pm2_5":6.5,"mosquito_risk":3,"arthritis_risk":0,"migraine_risk":4,"frizz_risk":1,"updated_at":"2026-04-30T12:00:42.746526+05:30"},{"city":"Kozhikode","state":"Kerala","latitude":11.2588,"longitude":75.7804,"temp":30.9,"humidity":72,"rain":0.0,"pressure":1008.6,"uv_index":8.9,"wind_gusts":39.2,"aqi":58,"pm10":22.4,"pm2_5":12.0,"mosquito_risk":3,"arthritis_risk":0,"migraine_risk":4,"frizz_risk":1,"updated_at":"2026-04-30T12:00:42.746532+05:30"},{"city":"Thrissur","state":"Kerala","latitude":10.5276,"longitude":76.2144,"temp":33.1,"humidity":58,"rain":0.1,"pressure":1007.5,"uv_index":8.95,"wind_gusts":38.2,"aqi":80,"pm10":12.7,"pm2_5":9.9,"mosquito_risk":3,"arthritis_risk":5,"migraine_risk":4,"frizz_risk":1,"updated_at":"2026-04-30T12:00:42.746567+05:30"},{"city":"Kannur","state":"Kerala","latitude":11.8745,"longitude":75.3704,"temp":32.3,"humidity":62,"rain":0.0,"pressure":1008.3,"uv_index":9.0,"wind_gusts":35.3,"aqi":69,"pm10":40.2,"pm2_5":19.7,"mosquito_risk":3,"arthritis_risk":0,"migraine_risk":4,"frizz_risk":1,"updated_at":"2026-04-30T12:00:42.746578+05:30"},{"city":"Patna","state":"Bihar","latitude":25.5941,"longitude":85.1376,"temp":30.8,"humidity":52,"rain":0.0,"pressure":999.9,"uv_index":8.6,"wind_gusts":40.3,"aqi":68,"pm10":32.4,"pm2_5":23.4,"mosquito_risk":0,"arthritis_risk":5,"migraine_risk":7,"frizz_risk":1,"updated_at":"2026-04-30T12:00:42.746586+05:30"},{"city":"Gaya","state":"Bihar","latitude":24.7914,"longitude":85.0002,"temp":34.5,"humidity":37,"rain":0.0,"pressure":991.9,"uv_index":8.7,"wind_gusts":54.4,"aqi":95,"pm10":40.6,"pm2_5":31.7,"mosquito_risk":0,"arthritis_risk":5,"migraine_risk":7,"frizz_risk":1,"updated_at":"2026-04-30T12:00:42.746592+05:30"},{"city":"Muzaffarpur","state":"Bihar","latitude":26.1209,"longitude":85.3647,"temp":29.9,"humidity":54,"rain":0.0,"pressure":1000.7,"uv_index":8.55,"wind_gusts":43.9,"aqi":62,"pm10":32.8,"pm2_5":22.6,"mosquito_risk":4,"arthritis_risk":5,"migraine_risk":4,"frizz_risk":1,"updated_at":"2026-04-30T12:00:42.746599+05:30"},{"city":"Bhagalpur","state":"Bihar","latitude":25.2425,"longitude":87.0117,"temp":32.1,"humidity":46,"rain":0.0,"pressure":1001.3,"uv_index":8.55,"wind_gusts":43.9,"aqi":56,"pm10":14.0,"pm2_5":13.4,"mosquito_risk":0,"arthritis_risk":5,"migraine_risk":4,"frizz_risk":1,"updated_at":"2026-04-30T12:00:42.746605+05:30"},{"city":"Ranchi","state":"Jharkhand","latitude":23.3441,"longitude":85.3096,"temp":32.1,"humidity":44,"rain":0.0,"pressure":937.2,"uv_index":9.15,"wind_gusts":45.4,"aqi":88,"pm10":43.9,"pm2_5":35.5,"mosquito_risk":0,"arthritis_risk":5,"migraine_risk":7,"frizz_risk":1,"updated_at":"2026-04-30T12:00:42.746611+05:30"},{"city":"Jamshedpur","state":"Jharkhand","latitude":22.8046,"longitude":86.2029,"temp":34.2,"humidity":46,"rain":0.0,"pressure":989.9,"uv_index":9.0,"wind_gusts":50.4,"aqi":112,"pm10":47.3,"pm2_5":43.3,"mosquito_risk":0,"arthritis_risk":5,"migraine_risk":7,"frizz_risk":1,"updated_at":"2026-04-30T12:00:42.746616+05:30"},{"city":"Dhanbad","state":"Jharkhand","latitude":23.7957,"longitude":86.4304,"temp":32.7,"humidity":48,"rain":0.0,"pressure":979.5,"uv_index":8.9,"wind_gusts":43.6,"aqi":144,"pm10":67.3,"pm2_5":61.9,"mosquito_risk":0,"arthritis_risk":5,"migraine_risk":7,"frizz_risk":1,"updated_at":"2026-04-30T12:00:42.746623+05:30"},{"city":"Bokaro","state":"Jharkhand","latitude":23.6693,"longitude":86.1511,"temp":33.2,"humidity":48,"rain":0.0,"pressure":983.0,"uv_index":8.9,"wind_gusts":41.8,"aqi":136,"pm10":68.9,"pm2_5":63.3,"mosquito_risk":0,"arthritis_risk":5,"migraine_risk":7,"frizz_risk":1,"updated_at":"2026-04-30T12:00:42.746628+05:30"},{"city":"Bhubaneswar","state":"Odisha","latitude":20.2961,"longitude":85.8245,"temp":34.2,"humidity":57,"rain":0.0,"pressure":1001.4,"uv_index":9.05,"wind_gusts":53.3,"aqi":53,"pm10":22.5,"pm2_5":19.3,"mosquito_risk":0,"arthritis_risk":5,"migraine_risk":4,"frizz_risk":1,"updated_at":"2026-04-30T12:00:42.746634+05:30"},{"city":"Cuttack","state":"Odisha","latitude":20.4625,"longitude":85.8828,"temp":35.3,"humidity":54,"rain":0.0,"pressure":1002.8,"uv_index":9.1,"wind_gusts":49.3,"aqi":53,"pm10":22.5,"pm2_5":19.3,"mosquito_risk":0,"arthritis_risk":5,"migraine_risk":7,"frizz_risk":1,"updated_at":"2026-04-30T12:00:42.746640+05:30"},{"city":"Rourkela","state":"Odisha","latitude":22.2604,"longitude":84.8536,"temp":38.2,"humidity":28,"rain":0.0,"pressure":982.7,"uv_index":8.9,"wind_gusts":63.4,"aqi":100,"pm10":41.6,"pm2_5":37.7,"mosquito_risk":0,"arthritis_risk":5,"migraine_risk":10,"frizz_risk":1,"updated_at":"2026-04-30T12:00:42.746646+05:30"},{"city":"Raipur","state":"Chhattisgarh","latitude":21.2514,"longitude":81.6296,"temp":39.7,"humidity":19,"rain":0.0,"pressure":972.6,"uv_index":8.95,"wind_gusts":53.6,"aqi":91,"pm10":35.6,"pm2_5":24.3,"mosquito_risk":0,"arthritis_risk":5,"migraine_risk":10,"frizz_risk":0,"updated_at":"2026-04-30T12:00:42.746652+05:30"},{"city":"Bhilai","state":"Chhattisgarh","latitude":21.1938,"longitude":81.3509,"temp":39.0,"humidity":20,"rain":0.0,"pressure":973.3,"uv_index":8.95,"wind_gusts":55.4,"aqi":82,"pm10":33.2,"pm2_5":21.8,"mosquito_risk":0,"arthritis_risk":5,"migraine_risk":10,"frizz_risk":0,"updated_at":"2026-04-30T12:00:42.746659+05:30"},{"city":"Guwahati","state":"Assam","latitude":26.1158,"longitude":91.7086,"temp":23.7,"humidity":84,"rain":0.2,"pressure":1003.6,"uv_index":7.65,"wind_gusts":30.2,"aqi":69,"pm10":27.5,"pm2_5":20.4,"mosquito_risk":6,"arthritis_risk":5,"migraine_risk":4,"frizz_risk":1,"updated_at":"2026-04-30T12:00:42.746666+05:30"},{"city":"Agartala","state":"Tripura","latitude":23.8315,"longitude":91.2868,"temp":29.8,"humidity":65,"rain":0.0,"pressure":1007.5,"uv_index":5.5,"wind_gusts":34.2,"aqi":84,"pm10":14.4,"pm2_5":12.7,"mosquito_risk":7,"arthritis_risk":5,"migraine_risk":0,"frizz_risk":1,"updated_at":"2026-04-30T12:00:42.746672+05:30"},{"city":"Shillong","state":"Meghalaya","latitude":25.5788,"longitude":91.8933,"temp":19.5,"humidity":70,"rain":0.2,"pressure":858.0,"uv_index":8.35,"wind_gusts":44.3,"aqi":49,"pm10":6.7,"pm2_5":4.9,"mosquito_risk":6,"arthritis_risk":5,"migraine_risk":7,"frizz_risk":0,"updated_at":"2026-04-30T12:00:42.746679+05:30"},{"city":"Imphal","state":"Manipur","latitude":24.817,"longitude":93.9368,"temp":24.4,"humidity":65,"rain":0.0,"pressure":924.6,"uv_index":9.05,"wind_gusts":31.7,"aqi":98,"pm10":20.8,"pm2_5":12.3,"mosquito_risk":3,"arthritis_risk":5,"migraine_risk":7,"frizz_risk":1,"updated_at":"2026-04-30T12:00:42.746686+05:30"},{"city":"Aizawl","state":"Mizoram","latitude":23.7271,"longitude":92.7176,"temp":24.4,"humidity":58,"rain":0.0,"pressure":894.6,"uv_index":8.3,"wind_gusts":32.8,"aqi":78,"pm10":17.6,"pm2_5":12.6,"mosquito_risk":0,"arthritis_risk":5,"migraine_risk":7,"frizz_risk":0,"updated_at":"2026-04-30T12:00:42.746693+05:30"},{"city":"Kohima","state":"Nagaland","latitude":25.6701,"longitude":94.1077,"temp":21.6,"humidity":74,"rain":0.0,"pressure":856.2,"uv_index":5.0,"wind_gusts":28.4,"aqi":61,"pm10":25.8,"pm2_5":12.9,"mosquito_risk":3,"arthritis_risk":5,"migraine_risk":3,"frizz_risk":1,"updated_at":"2026-04-30T12:00:42.746699+05:30"},{"city":"Gangtok","state":"Sikkim","latitude":27.3314,"longitude":88.6138,"temp":14.2,"humidity":96,"rain":0.3,"pressure":837.6,"uv_index":5.6,"wind_gusts":31.3,"aqi":45,"pm10":11.6,"pm2_5":4.1,"mosquito_risk":6,"arthritis_risk":10,"migraine_risk":3,"frizz_risk":0,"updated_at":"2026-04-30T12:00:42.746705+05:30"},{"city":"Siliguri","state":"West Bengal","latitude":26.7271,"longitude":88.3953,"temp":21.9,"humidity":88,"rain":0.2,"pressure":995.7,"uv_index":8.2,"wind_gusts":36.0,"aqi":49,"pm10":10.9,"pm2_5":6.1,"mosquito_risk":6,"arthritis_risk":5,"migraine_risk":7,"frizz_risk":1,"updated_at":"2026-04-30T12:00:45.987275+05:30"},{"city":"Durgapur","state":"West Bengal","latitude":23.5204,"longitude":87.3119,"temp":30.6,"humidity":60,"rain":0.0,"pressure":995.4,"uv_index":8.85,"wind_gusts":40.7,"aqi":98,"pm10":48.3,"pm2_5":44.8,"mosquito_risk":0,"arthritis_risk":5,"migraine_risk":7,"frizz_risk":1,"updated_at":"2026-04-30T12:00:45.987310+05:30"},{"city":"Asansol","state":"West Bengal","latitude":23.6739,"longitude":86.9524,"temp":31.6,"humidity":54,"rain":0.0,"pressure":993.7,"uv_index":8.6,"wind_gusts":43.6,"aqi":114,"pm10":62.9,"pm2_5":57.6,"mosquito_risk":0,"arthritis_risk":5,"migraine_risk":7,"frizz_risk":1,"updated_at":"2026-04-30T12:00:45.987320+05:30"},{"city":"Pondicherry","state":"Puducherry","latitude":11.9139,"longitude":79.8145,"temp":34.1,"humidity":61,"rain":0.0,"pressure":1008.3,"uv_index":9.2,"wind_gusts":52.2,"aqi":40,"pm10":15.8,"pm2_5":13.2,"mosquito_risk":3,"arthritis_risk":0,"migraine_risk":4,"frizz_risk":1,"updated_at":"2026-04-30T12:00:45.987328+05:30"},{"city":"Port Blair","state":"Andaman and Nicobar Islands","latitude":11.6234,"longitude":92.7265,"temp":34.8,"humidity":44,"rain":0.0,"pressure":1008.7,"uv_index":8.9,"wind_gusts":31.7,"aqi":41,"pm10":11.8,"pm2_5":10.2,"mosquito_risk":0,"arthritis_risk":0,"migraine_risk":4,"frizz_risk":1,"updated_at":"2026-04-30T12:00:45.987336+05:30"},{"city":"Haridwar","state":"Uttarakhand","latitude":29.9457,"longitude":78.1642,"temp":29.6,"humidity":49,"rain":0.0,"pressure":973.3,"uv_index":6.9,"wind_gusts":40.7,"aqi":75,"pm10":107.6,"pm2_5":28.2,"mosquito_risk":4,"arthritis_risk":5,"migraine_risk":7,"frizz_risk":1,"updated_at":"2026-04-30T12:00:45.987344+05:30"},{"city":"Rishikesh","state":"Uttarakhand","latitude":30.0869,"longitude":78.2676,"temp":28.1,"humidity":47,"rain":0.0,"pressure":966.1,"uv_index":7.3,"wind_gusts":41.0,"aqi":70,"pm10":98.7,"pm2_5":24.2,"mosquito_risk":4,"arthritis_risk":5,"migraine_risk":7,"frizz_risk":0,"updated_at":"2026-04-30T12:00:45.987351+05:30"},{"city":"Nainital","state":"Uttarakhand","latitude":29.3919,"longitude":79.4542,"temp":18.8,"humidity":48,"rain":0.0,"pressure":806.2,"uv_index":7.85,"wind_gusts":36.4,"aqi":83,"pm10":68.9,"pm2_5":24.1,"mosquito_risk":0,"arthritis_risk":5,"migraine_risk":7,"frizz_risk":0,"updated_at":"2026-04-30T12:00:45.987358+05:30"},{"city":"Mussoorie","state":"Uttarakhand","latitude":30.4599,"longitude":78.0664,"temp":16.5,"humidity":61,"rain":0.0,"pressure":802.5,"uv_index":7.6,"wind_gusts":42.8,"aqi":55,"pm10":105.7,"pm2_5":18.2,"mosquito_risk":3,"arthritis_risk":5,"migraine_risk":7,"frizz_risk":0,"updated_at":"2026-04-30T12:00:45.987365+05:30"},{"city":"Dharamshala","state":"Himachal Pradesh","latitude":32.219,"longitude":76.3234,"temp":22.8,"humidity":37,"rain":0.0,"pressure":868.3,"uv_index":7.5,"wind_gusts":50.0,"aqi":60,"pm10":25.8,"pm2_5":6.4,"mosquito_risk":0,"arthritis_risk":5,"migraine_risk":7,"frizz_risk":0,"updated_at":"2026-04-30T12:00:45.987372+05:30"},{"city":"Dalhousie","state":"Himachal Pradesh","latitude":32.5387,"longitude":75.971,"temp":14.0,"humidity":77,"rain":0.0,"pressure":803.1,"uv_index":6.35,"wind_gusts":42.5,"aqi":52,"pm10":43.0,"pm2_5":10.7,"mosquito_risk":3,"arthritis_risk":5,"migraine_risk":7,"frizz_risk":0,"updated_at":"2026-04-30T12:00:45.987379+05:30"},{"city":"Patiala","state":"Punjab","latitude":30.3398,"longitude":76.3869,"temp":29.5,"humidity":43,"rain":0.0,"pressure":976.4,"uv_index":6.9,"wind_gusts":48.6,"aqi":134,"pm10":262.6,"pm2_5":39.1,"mosquito_risk":4,"arthritis_risk":5,"migraine_risk":7,"frizz_risk":0,"updated_at":"2026-04-30T12:00:45.987385+05:30"},{"city":"Bhatinda","state":"Punjab","latitude":30.211,"longitude":74.9455,"temp":35.8,"humidity":26,"rain":0.0,"pressure":980.7,"uv_index":8.05,"wind_gusts":46.4,"aqi":113,"pm10":147.1,"pm2_5":32.5,"mosquito_risk":0,"arthritis_risk":5,"migraine_risk":10,"frizz_risk":0,"updated_at":"2026-04-30T12:00:45.987392+05:30"},{"city":"Rohtak","state":"Haryana","latitude":28.8955,"longitude":76.6066,"temp":31.9,"humidity":38,"rain":0.0,"pressure":980.0,"uv_index":7.5,"wind_gusts":38.5,"aqi":290,"pm10":828.9,"pm2_5":105.2,"mosquito_risk":0,"arthritis_risk":5,"migraine_risk":7,"frizz_risk":0,"updated_at":"2026-04-30T12:00:45.987400+05:30"},{"city":"Panipat","state":"Haryana","latitude":29.3909,"longitude":76.9635,"temp":28.9,"humidity":45,"rain":0.0,"pressure":979.3,"uv_index":6.9,"wind_gusts":42.1,"aqi":603,"pm10":1061.7,"pm2_5":121.1,"mosquito_risk":4,"arthritis_risk":5,"migraine_risk":7,"frizz_risk":0,"updated_at":"2026-04-30T12:00:45.987406+05:30"},{"city":"Mathura","state":"Uttar Pradesh","latitude":27.4924,"longitude":77.6737,"temp":37.1,"humidity":27,"rain":0.0,"pressure":983.7,"uv_index":7.75,"wind_gusts":43.9,"aqi":585,"pm10":851.2,"pm2_5":99.7,"mosquito_risk":0,"arthritis_risk":5,"migraine_risk":10,"frizz_risk":0,"updated_at":"2026-04-30T12:00:45.987413+05:30"},{"city":"Vrindavan","state":"Uttar Pradesh","latitude":27.5823,"longitude":77.7027,"temp":37.0,"humidity":26,"rain":0.0,"pressure":984.1,"uv_index":7.7,"wind_gusts":42.5,"aqi":585,"pm10":851.2,"pm2_5":99.7,"mosquito_risk":0,"arthritis_risk":5,"migraine_risk":10,"frizz_risk":0,"updated_at":"2026-04-30T12:00:45.987420+05:30"},{"city":"Ayodhya","state":"Uttar Pradesh","latitude":26.7922,"longitude":82.1998,"temp":29.6,"humidity":50,"rain":0.0,"pressure":995.2,"uv_index":7.75,"wind_gusts":42.1,"aqi":91,"pm10":44.0,"pm2_5":25.7,"mosquito_risk":4,"arthritis_risk":5,"migraine_risk":7,"frizz_risk":1,"updated_at":"2026-04-30T12:00:45.987426+05:30"},{"city":"Ratlam","state":"Madhya Pradesh","latitude":23.3315,"longitude":75.0367,"temp":35.8,"humidity":30,"rain":0.0,"pressure":954.3,"uv_index":8.5,"wind_gusts":46.4,"aqi":50,"pm10":54.2,"pm2_5":18.3,"mosquito_risk":0,"arthritis_risk":5,"migraine_risk":10,"frizz_risk":0,"updated_at":"2026-04-30T12:00:45.987432+05:30"},{"city":"Sagar","state":"Madhya Pradesh","latitude":23.8388,"longitude":78.7378,"temp":37.5,"humidity":19,"rain":0.0,"pressure":949.0,"uv_index":8.45,"wind_gusts":53.6,"aqi":50,"pm10":61.2,"pm2_5":17.6,"mosquito_risk":0,"arthritis_risk":5,"migraine_risk":10,"frizz_risk":0,"updated_at":"2026-04-30T12:00:45.987438+05:30"},{"city":"Satna","state":"Madhya Pradesh","latitude":24.6005,"longitude":80.8322,"temp":33.2,"humidity":32,"rain":0.0,"pressure":969.7,"uv_index":7.2,"wind_gusts":55.4,"aqi":71,"pm10":79.6,"pm2_5":22.6,"mosquito_risk":0,"arthritis_risk":5,"migraine_risk":7,"frizz_risk":0,"updated_at":"2026-04-30T12:00:45.987444+05:30"},{"city":"Akola","state":"Maharashtra","latitude":20.7002,"longitude":77.0082,"temp":39.2,"humidity":16,"rain":0.0,"pressure":974.5,"uv_index":8.85,"wind_gusts":45.7,"aqi":49,"pm10":39.8,"pm2_5":14.4,"mosquito_risk":0,"arthritis_risk":5,"migraine_risk":10,"frizz_risk":0,"updated_at":"2026-04-30T12:00:45.987451+05:30"},{"city":"Amravati","state":"Maharashtra","latitude":20.9374,"longitude":77.7796,"temp":38.7,"humidity":20,"rain":0.0,"pressure":966.8,"uv_index":8.85,"wind_gusts":48.2,"aqi":49,"pm10":35.7,"pm2_5":13.4,"mosquito_risk":0,"arthritis_risk":5,"migraine_risk":10,"frizz_risk":0,"updated_at":"2026-04-30T12:00:45.987457+05:30"},{"city":"Latur","state":"Maharashtra","latitude":18.4088,"longitude":76.5604,"temp":38.3,"humidity":14,"rain":0.0,"pressure":941.1,"uv_index":9.05,"wind_gusts":41.4,"aqi":77,"pm10":26.3,"pm2_5":10.9,"mosquito_risk":0,"arthritis_risk":5,"migraine_risk":10,"frizz_risk":0,"updated_at":"2026-04-30T12:00:45.987463+05:30"},{"city":"Nanded","state":"Maharashtra","latitude":19.1383,"longitude":77.3091,"temp":39.2,"humidity":16,"rain":0.0,"pressure":968.8,"uv_index":9.0,"wind_gusts":43.2,"aqi":63,"pm10":32.9,"pm2_5":13.1,"mosquito_risk":0,"arthritis_risk":5,"migraine_risk":10,"frizz_risk":0,"updated_at":"2026-04-30T12:00:45.987470+05:30"},{"city":"Gulbarga","state":"Karnataka","latitude":17.3297,"longitude":76.8343,"temp":40.0,"humidity":15,"rain":0.0,"pressure":958.9,"uv_index":9.1,"wind_gusts":40.3,"aqi":74,"pm10":24.0,"pm2_5":14.6,"mosquito_risk":0,"arthritis_risk":5,"migraine_risk":10,"frizz_risk":0,"updated_at":"2026-04-30T12:00:45.987475+05:30"},{"city":"Bidar","state":"Karnataka","latitude":17.9104,"longitude":77.5199,"temp":38.4,"humidity":17,"rain":0.0,"pressure":936.6,"uv_index":9.1,"wind_gusts":37.4,"aqi":84,"pm10":26.8,"pm2_5":17.1,"mosquito_risk":0,"arthritis_risk":5,"migraine_risk":10,"frizz_risk":0,"updated_at":"2026-04-30T12:00:45.987482+05:30"},{"city":"Hospet","state":"Karnataka","latitude":15.2689,"longitude":76.3909,"temp":35.5,"humidity":41,"rain":0.0,"pressure":957.2,"uv_index":9.25,"wind_gusts":60.5,"aqi":74,"pm10":25.4,"pm2_5":19.1,"mosquito_risk":0,"arthritis_risk":5,"migraine_risk":10,"frizz_risk":1,"updated_at":"2026-04-30T12:00:45.987488+05:30"},{"city":"Tirupur","state":"Tamil Nadu","latitude":11.1085,"longitude":77.3411,"temp":37.4,"humidity":33,"rain":0.0,"pressure":975.4,"uv_index":9.35,"wind_gusts":58.7,"aqi":80,"pm10":30.5,"pm2_5":23.2,"mosquito_risk":0,"arthritis_risk":5,"migraine_risk":10,"frizz_risk":1,"updated_at":"2026-04-30T12:00:45.987493+05:30"},{"city":"Alappuzha","state":"Kerala","latitude":9.4981,"longitude":76.3388,"temp":31.0,"humidity":72,"rain":0.0,"pressure":1009.6,"uv_index":9.0,"wind_gusts":30.6,"aqi":60,"pm10":13.9,"pm2_5":12.3,"mosquito_risk":3,"arthritis_risk":0,"migraine_risk":4,"frizz_risk":1,"updated_at":"2026-04-30T12:00:45.987500+05:30"},{"city":"Munnar","state":"Kerala","latitude":10.0889,"longitude":77.0595,"temp":23.4,"humidity":70,"rain":0.0,"pressure":859.8,"uv_index":8.75,"wind_gusts":25.9,"aqi":85,"pm10":23.1,"pm2_5":19.7,"mosquito_risk":3,"arthritis_risk":5,"migraine_risk":7,"frizz_risk":1,"updated_at":"2026-04-30T12:00:45.987506+05:30"},{"city":"Silchar","state":"Assam","latitude":24.8333,"longitude":92.7789,"temp":26.5,"humidity":72,"rain":0.0,"pressure":1006.8,"uv_index":6.05,"wind_gusts":33.1,"aqi":121,"pm10":33.2,"pm2_5":21.0,"mosquito_risk":7,"arthritis_risk":5,"migraine_risk":4,"frizz_risk":1,"updated_at":"2026-04-30T12:00:45.987513+05:30"},{"city":"Dibrugarh","state":"Assam","latitude":27.4728,"longitude":94.912,"temp":27.6,"humidity":68,"rain":0.0,"pressure":996.2,"uv_index":7.9,"wind_gusts":31.7,"aqi":87,"pm10":35.2,"pm2_5":18.0,"mosquito_risk":7,"arthritis_risk":5,"migraine_risk":7,"frizz_risk":1,"updated_at":"2026-04-30T12:00:45.987519+05:30"}]