[{"city":"Delhi","state":"Delhi","latitude":28.6139,"longitude":77.209,"temp":42.5,"humidity":17,"rain":0.0,"pressure":973.5,"uv_index":7.8,"wind_gusts":42.1,"aqi":559,"pm10":687.3,"pm2_5":107.3,"no2":3.8,"co":233.0,"o3":166.0,"so2":9.9,"mosquito_risk":0,"arthritis_risk":5,"migraine_risk":10,"frizz_risk":0,"updated_at":"2026-06-09T15:20:55.156656+05:30"},{"city":"Mumbai","state":"Maharashtra","latitude":19.076,"longitude":72.8777,"temp":32.7,"humidity":63,"rain":0.0,"pressure":1004.4,"uv_index":7.55,"wind_gusts":46.4,"aqi":84,"pm10":81.7,"pm2_5":30.4,"no2":4.2,"co":162.0,"o3":106.0,"so2":6.0,"mosquito_risk":3,"arthritis_risk":5,"migraine_risk":4,"frizz_risk":1,"updated_at":"2026-06-09T15:20:55.156708+05:30"},{"city":"Bangalore","state":"Karnataka","latitude":12.9716,"longitude":77.5946,"temp":27.3,"humidity":62,"rain":0.1,"pressure":909.9,"uv_index":7.65,"wind_gusts":52.6,"aqi":26,"pm10":3.4,"pm2_5":2.8,"no2":6.3,"co":253.0,"o3":61.0,"so2":2.5,"mosquito_risk":10,"arthritis_risk":5,"migraine_risk":7,"frizz_risk":1,"updated_at":"2026-06-09T15:20:55.156723+05:30"},{"city":"Hyderabad","state":"Telangana","latitude":17.385,"longitude":78.4867,"temp":32.2,"humidity":51,"rain":0.0,"pressure":948.6,"uv_index":8.7,"wind_gusts":42.8,"aqi":61,"pm10":46.3,"pm2_5":23.5,"no2":2.2,"co":213.0,"o3":119.0,"so2":4.4,"mosquito_risk":0,"arthritis_risk":5,"migraine_risk":7,"frizz_risk":1,"updated_at":"2026-06-09T15:20:55.156732+05:30"},{"city":"Chennai","state":"Tamil Nadu","latitude":13.0827,"longitude":80.2707,"temp":40.3,"humidity":29,"rain":0.0,"pressure":1000.5,"uv_index":7.8,"wind_gusts":51.1,"aqi":49,"pm10":17.5,"pm2_5":13.3,"no2":3.4,"co":214.0,"o3":118.0,"so2":5.3,"mosquito_risk":0,"arthritis_risk":5,"migraine_risk":7,"frizz_risk":1,"updated_at":"2026-06-09T15:20:55.156740+05:30"},{"city":"Kolkata","state":"West Bengal","latitude":22.5726,"longitude":88.3639,"temp":36.2,"humidity":56,"rain":0.0,"pressure":995.7,"uv_index":8.95,"wind_gusts":33.1,"aqi":158,"pm10":91.3,"pm2_5":65.9,"no2":3.7,"co":396.0,"o3":212.0,"so2":17.4,"mosquito_risk":0,"arthritis_risk":5,"migraine_risk":10,"frizz_risk":1,"updated_at":"2026-06-09T15:20:55.156748+05:30"},{"city":"Pune","state":"Maharashtra","latitude":18.5204,"longitude":73.8567,"temp":30.3,"humidity":58,"rain":0.1,"pressure":945.2,"uv_index":6.65,"wind_gusts":47.2,"aqi":51,"pm10":36.2,"pm2_5":14.1,"no2":1.7,"co":140.0,"o3":98.0,"so2":3.9,"mosquito_risk":3,"arthritis_risk":5,"migraine_risk":7,"frizz_risk":1,"updated_at":"2026-06-09T15:20:55.156755+05:30"},{"city":"Ahmedabad","state":"Gujarat","latitude":23.0225,"longitude":72.5714,"temp":40.9,"humidity":30,"rain":0.0,"pressure":994.5,"uv_index":8.05,"wind_gusts":41.8,"aqi":89,"pm10":82.7,"pm2_5":32.1,"no2":1.6,"co":139.0,"o3":106.0,"so2":4.5,"mosquito_risk":0,"arthritis_risk":5,"migraine_risk":10,"frizz_risk":1,"updated_at":"2026-06-09T15:20:55.156762+05:30"},{"city":"Jaipur","state":"Rajasthan","latitude":26.9124,"longitude":75.7873,"temp":41.2,"humidity":21,"rain":0.0,"pressure":952.6,"uv_index":8.25,"wind_gusts":44.3,"aqi":141,"pm10":194.2,"pm2_5":36.0,"no2":1.1,"co":141.0,"o3":122.0,"so2":2.5,"mosquito_risk":0,"arthritis_risk":5,"migraine_risk":10,"frizz_risk":0,"updated_at":"2026-06-09T15:20:55.156773+05:30"},{"city":"Lucknow","state":"Uttar Pradesh","latitude":26.8467,"longitude":80.9462,"temp":41.0,"humidity":24,"rain":0.0,"pressure":983.1,"uv_index":8.35,"wind_gusts":40.7,"aqi":156,"pm10":330.6,"pm2_5":69.8,"no2":1.9,"co":205.0,"o3":175.0,"so2":6.4,"mosquito_risk":0,"arthritis_risk":5,"migraine_risk":10,"frizz_risk":1,"updated_at":"2026-06-09T15:20:55.156780+05:30"},{"city":"Kanpur","state":"Uttar Pradesh","latitude":26.4499,"longitude":80.3319,"temp":41.7,"humidity":25,"rain":0.1,"pressure":981.4,"uv_index":8.35,"wind_gusts":48.2,"aqi":307,"pm10":482.4,"pm2_5":81.3,"no2":1.5,"co":151.0,"o3":137.0,"so2":4.8,"mosquito_risk":3,"arthritis_risk":5,"migraine_risk":10,"frizz_risk":1,"updated_at":"2026-06-09T15:20:55.156786+05:30"},{"city":"Chandigarh","state":"Chandigarh","latitude":30.7333,"longitude":76.7794,"temp":38.9,"humidity":22,"rain":0.0,"pressure":960.0,"uv_index":7.8,"wind_gusts":36.4,"aqi":150,"pm10":28.6,"pm2_5":21.1,"no2":2.1,"co":274.0,"o3":200.0,"so2":10.8,"mosquito_risk":0,"arthritis_risk":5,"migraine_risk":10,"frizz_risk":0,"updated_at":"2026-06-09T15:20:55.156792+05:30"},{"city":"Srinagar","state":"Jammu and Kashmir","latitude":34.0837,"longitude":74.7973,"temp":28.6,"humidity":31,"rain":0.0,"pressure":839.5,"uv_index":9.0,"wind_gusts":20.9,"aqi":85,"pm10":16.4,"pm2_5":8.6,"no2":1.3,"co":349.0,"o3":161.0,"so2":1.9,"mosquito_risk":4,"arthritis_risk":5,"migraine_risk":7,"frizz_risk":0,"updated_at":"2026-06-09T15:20:55.156799+05:30"},{"city":"Jammu","state":"Jammu and Kashmir","latitude":32.7266,"longitude":74.857,"temp":41.7,"humidity":13,"rain":0.0,"pressure":963.3,"uv_index":8.6,"wind_gusts":37.4,"aqi":115,"pm10":21.9,"pm2_5":13.6,"no2":1.8,"co":183.0,"o3":181.0,"so2":3.5,"mosquito_risk":0,"arthritis_risk":5,"migraine_risk":10,"frizz_risk":0,"updated_at":"2026-06-09T15:20:55.156806+05:30"},{"city":"Amritsar","state":"Punjab","latitude":31.634,"longitude":74.8723,"temp":42.1,"humidity":16,"rain":0.0,"pressure":971.0,"uv_index":8.45,"wind_gusts":27.7,"aqi":119,"pm10":50.3,"pm2_5":28.5,"no2":2.1,"co":319.0,"o3":198.0,"so2":8.6,"mosquito_risk":0,"arthritis_risk":5,"migraine_risk":10,"frizz_risk":0,"updated_at":"2026-06-09T15:20:55.156812+05:30"},{"city":"Ludhiana","state":"Punjab","latitude":30.901,"longitude":75.8573,"temp":41.9,"humidity":16,"rain":0.0,"pressure":969.3,"uv_index":8.0,"wind_gusts":39.6,"aqi":130,"pm10":42.6,"pm2_5":22.1,"no2":1.5,"co":250.0,"o3":180.0,"so2":5.2,"mosquito_risk":0,"arthritis_risk":5,"migraine_risk":10,"frizz_risk":0,"updated_at":"2026-06-09T15:20:55.156818+05:30"},{"city":"Jalandhar","state":"Punjab","latitude":31.326,"longitude":75.5762,"temp":41.9,"humidity":16,"rain":0.0,"pressure":970.2,"uv_index":8.25,"wind_gusts":35.6,"aqi":133,"pm10":52.6,"pm2_5":24.0,"no2":1.5,"co":271.0,"o3":178.0,"so2":5.7,"mosquito_risk":0,"arthritis_risk":5,"migraine_risk":10,"frizz_risk":0,"updated_at":"2026-06-09T15:20:55.156825+05:30"},{"city":"Dehradun","state":"Uttarakhand","latitude":30.6284,"longitude":78.0322,"temp":25.2,"humidity":49,"rain":0.0,"pressure":827.9,"uv_index":8.25,"wind_gusts":42.5,"aqi":111,"pm10":19.6,"pm2_5":14.2,"no2":0.9,"co":207.0,"o3":175.0,"so2":3.7,"mosquito_risk":4,"arthritis_risk":5,"migraine_risk":7,"frizz_risk":0,"updated_at":"2026-06-09T15:20:55.156848+05:30"},{"city":"Shimla","state":"Himachal Pradesh","latitude":31.1048,"longitude":77.1734,"temp":24.2,"humidity":31,"rain":0.0,"pressure":784.3,"uv_index":8.35,"wind_gusts":52.2,"aqi":118,"pm10":19.3,"pm2_5":13.6,"no2":1.0,"co":189.0,"o3":177.0,"so2":6.0,"mosquito_risk":0,"arthritis_risk":5,"migraine_risk":7,"frizz_risk":0,"updated_at":"2026-06-09T15:20:55.156856+05:30"},{"city":"Manali","state":"Himachal Pradesh","latitude":32.2396,"longitude":77.1887,"temp":24.0,"humidity":50,"rain":0.0,"pressure":817.4,"uv_index":9.6,"wind_gusts":35.3,"aqi":89,"pm10":15.7,"pm2_5":12.9,"no2":5.9,"co":156.0,"o3":151.0,"so2":0.4,"mosquito_risk":0,"arthritis_risk":5,"migraine_risk":7,"frizz_risk":0,"updated_at":"2026-06-09T15:20:55.156862+05:30"},{"city":"Gurgaon","state":"Haryana","latitude":28.4595,"longitude":77.0266,"temp":41.7,"humidity":18,"rain":0.0,"pressure":972.2,"uv_index":7.9,"wind_gusts":41.0,"aqi":1297,"pm10":2726.9,"pm2_5":335.3,"no2":3.7,"co":190.0,"o3":144.0,"so2":7.9,"mosquito_risk":0,"arthritis_risk":5,"migraine_risk":10,"frizz_risk":0,"updated_at":"2026-06-09T15:20:55.156868+05:30"},{"city":"Noida","state":"Uttar Pradesh","latitude":28.5355,"longitude":77.391,"temp":42.1,"humidity":18,"rain":0.0,"pressure":974.6,"uv_index":7.85,"wind_gusts":35.3,"aqi":1297,"pm10":2726.9,"pm2_5":335.3,"no2":3.7,"co":242.0,"o3":144.0,"so2":7.9,"mosquito_risk":0,"arthritis_risk":5,"migraine_risk":10,"frizz_risk":0,"updated_at":"2026-06-09T15:20:55.156874+05:30"},{"city":"Ghaziabad","state":"Uttar Pradesh","latitude":28.6692,"longitude":77.4538,"temp":41.0,"humidity":20,"rain":0.0,"pressure":973.0,"uv_index":7.8,"wind_gusts":38.5,"aqi":438,"pm10":389.3,"pm2_5":76.1,"no2":3.3,"co":218.0,"o3":195.0,"so2":13.6,"mosquito_risk":0,"arthritis_risk":5,"migraine_risk":10,"frizz_risk":0,"updated_at":"2026-06-09T15:20:55.156880+05:30"},{"city":"Faridabad","state":"Haryana","latitude":28.4089,"longitude":77.3178,"temp":42.2,"humidity":17,"rain":0.0,"pressure":974.1,"uv_index":7.85,"wind_gusts":45.4,"aqi":1297,"pm10":2726.9,"pm2_5":335.3,"no2":3.7,"co":202.0,"o3":144.0,"so2":7.9,"mosquito_risk":0,"arthritis_risk":5,"migraine_risk":10,"frizz_risk":0,"updated_at":"2026-06-09T15:20:55.156887+05:30"},{"city":"Meerut","state":"Uttar Pradesh","latitude":28.9845,"longitude":77.7064,"temp":40.5,"humidity":20,"rain":0.0,"pressure":972.0,"uv_index":7.75,"wind_gusts":37.1,"aqi":438,"pm10":389.3,"pm2_5":76.1,"no2":3.3,"co":276.0,"o3":195.0,"so2":13.6,"mosquito_risk":0,"arthritis_risk":5,"migraine_risk":10,"frizz_risk":0,"updated_at":"2026-06-09T15:20:55.156893+05:30"},{"city":"Agra","state":"Uttar Pradesh","latitude":27.1767,"longitude":78.0081,"temp":42.4,"humidity":20,"rain":0.0,"pressure":978.0,"uv_index":8.15,"wind_gusts":54.4,"aqi":755,"pm10":1981.9,"pm2_5":224.4,"no2":1.7,"co":138.0,"o3":115.0,"so2":3.9,"mosquito_risk":0,"arthritis_risk":5,"migraine_risk":10,"frizz_risk":0,"updated_at":"2026-06-09T15:20:55.156899+05:30"},{"city":"Varanasi","state":"Uttar Pradesh","latitude":25.3176,"longitude":82.9739,"temp":42.3,"humidity":17,"rain":0.0,"pressure":987.0,"uv_index":8.8,"wind_gusts":41.0,"aqi":124,"pm10":151.8,"pm2_5":38.0,"no2":1.5,"co":197.0,"o3":145.0,"so2":5.2,"mosquito_risk":0,"arthritis_risk":5,"migraine_risk":10,"frizz_risk":0,"updated_at":"2026-06-09T15:20:55.156905+05:30"},{"city":"Prayagraj","state":"Uttar Pradesh","latitude":25.4358,"longitude":81.8463,"temp":41.5,"humidity":23,"rain":0.0,"pressure":986.0,"uv_index":8.7,"wind_gusts":40.3,"aqi":118,"pm10":101.5,"pm2_5":31.5,"no2":1.4,"co":166.0,"o3":142.0,"so2":5.9,"mosquito_risk":0,"arthritis_risk":5,"migraine_risk":10,"frizz_risk":1,"updated_at":"2026-06-09T15:20:55.156911+05:30"},{"city":"Gorakhpur","state":"Uttar Pradesh","latitude":26.7606,"longitude":83.3732,"temp":38.3,"humidity":34,"rain":0.0,"pressure":986.9,"uv_index":8.7,"wind_gusts":22.7,"aqi":158,"pm10":228.2,"pm2_5":77.3,"no2":2.2,"co":333.0,"o3":212.0,"so2":11.0,"mosquito_risk":0,"arthritis_risk":5,"migraine_risk":10,"frizz_risk":1,"updated_at":"2026-06-09T15:20:55.156918+05:30"},{"city":"Bareilly","state":"Uttar Pradesh","latitude":28.367,"longitude":79.4304,"temp":39.4,"humidity":29,"rain":0.0,"pressure":976.5,"uv_index":8.15,"wind_gusts":27.0,"aqi":154,"pm10":147.6,"pm2_5":44.5,"no2":1.7,"co":330.0,"o3":198.0,"so2":10.5,"mosquito_risk":0,"arthritis_risk":5,"migraine_risk":10,"frizz_risk":1,"updated_at":"2026-06-09T15:20:55.156924+05:30"},{"city":"Aligarh","state":"Uttar Pradesh","latitude":27.8974,"longitude":78.088,"temp":40.7,"humidity":23,"rain":0.0,"pressure":975.9,"uv_index":8.0,"wind_gusts":42.1,"aqi":691,"pm10":1668.9,"pm2_5":230.5,"no2":2.7,"co":166.0,"o3":173.0,"so2":12.0,"mosquito_risk":0,"arthritis_risk":5,"migraine_risk":10,"frizz_risk":0,"updated_at":"2026-06-09T15:20:55.156930+05:30"},{"city":"Moradabad","state":"Uttar Pradesh","latitude":28.8386,"longitude":78.7733,"temp":40.3,"humidity":24,"rain":0.0,"pressure":973.7,"uv_index":7.95,"wind_gusts":37.8,"aqi":171,"pm10":180.7,"pm2_5":58.0,"no2":3.0,"co":362.0,"o3":246.0,"so2":19.3,"mosquito_risk":0,"arthritis_risk":5,"migraine_risk":10,"frizz_risk":0,"updated_at":"2026-06-09T15:20:55.156936+05:30"},{"city":"Saharanpur","state":"Uttar Pradesh","latitude":29.9637,"longitude":77.546,"temp":38.5,"humidity":24,"rain":0.0,"pressure":966.5,"uv_index":7.5,"wind_gusts":36.4,"aqi":165,"pm10":57.4,"pm2_5":32.0,"no2":2.9,"co":275.0,"o3":220.0,"so2":15.7,"mosquito_risk":0,"arthritis_risk":5,"migraine_risk":10,"frizz_risk":0,"updated_at":"2026-06-09T15:20:55.156942+05:30"},{"city":"Jhansi","state":"Uttar Pradesh","latitude":25.4484,"longitude":78.5685,"temp":40.9,"humidity":25,"rain":0.0,"pressure":969.6,"uv_index":8.5,"wind_gusts":45.7,"aqi":76,"pm10":107.8,"pm2_5":29.3,"no2":0.9,"co":135.0,"o3":110.0,"so2":3.1,"mosquito_risk":0,"arthritis_risk":5,"migraine_risk":10,"frizz_risk":1,"updated_at":"2026-06-09T15:20:58.498678+05:30"},{"city":"Surat","state":"Gujarat","latitude":21.1702,"longitude":72.8311,"temp":35.3,"humidity":49,"rain":0.0,"pressure":1001.4,"uv_index":7.6,"wind_gusts":52.2,"aqi":82,"pm10":76.1,"pm2_5":33.1,"no2":8.7,"co":205.0,"o3":70.0,"so2":29.9,"mosquito_risk":0,"arthritis_risk":5,"migraine_risk":7,"frizz_risk":1,"updated_at":"2026-06-09T15:20:58.498708+05:30"},{"city":"Vadodara","state":"Gujarat","latitude":22.3072,"longitude":73.1812,"temp":38.8,"humidity":37,"rain":0.0,"pressure":997.6,"uv_index":7.65,"wind_gusts":46.8,"aqi":83,"pm10":85.7,"pm2_5":32.8,"no2":1.6,"co":135.0,"o3":115.0,"so2":5.0,"mosquito_risk":0,"arthritis_risk":5,"migraine_risk":10,"frizz_risk":1,"updated_at":"2026-06-09T15:20:58.498719+05:30"},{"city":"Rajkot","state":"Gujarat","latitude":22.3039,"longitude":70.8022,"temp":40.3,"humidity":32,"rain":0.0,"pressure":987.3,"uv_index":7.55,"wind_gusts":51.5,"aqi":87,"pm10":63.3,"pm2_5":27.3,"no2":1.0,"co":109.0,"o3":99.0,"so2":4.0,"mosquito_risk":0,"arthritis_risk":5,"migraine_risk":10,"frizz_risk":1,"updated_at":"2026-06-09T15:20:58.498727+05:30"},{"city":"Thane","state":"Maharashtra","latitude":19.2183,"longitude":72.9781,"temp":34.6,"humidity":52,"rain":0.1,"pressure":1003.4,"uv_index":7.5,"wind_gusts":44.3,"aqi":84,"pm10":81.7,"pm2_5":30.4,"no2":4.2,"co":154.0,"o3":106.0,"so2":6.0,"mosquito_risk":3,"arthritis_risk":5,"migraine_risk":4,"frizz_risk":1,"updated_at":"2026-06-09T15:20:58.498735+05:30"},{"city":"Nagpur","state":"Maharashtra","latitude":21.1458,"longitude":79.0882,"temp":41.5,"humidity":22,"rain":0.0,"pressure":966.2,"uv_index":8.9,"wind_gusts":40.0,"aqi":94,"pm10":61.2,"pm2_5":29.9,"no2":3.6,"co":155.0,"o3":147.0,"so2":16.2,"mosquito_risk":0,"arthritis_risk":5,"migraine_risk":10,"frizz_risk":0,"updated_at":"2026-06-09T15:20:58.498743+05:30"},{"city":"Nashik","state":"Maharashtra","latitude":19.9975,"longitude":73.7898,"temp":34.3,"humidity":40,"rain":0.0,"pressure":942.0,"uv_index":7.9,"wind_gusts":48.2,"aqi":71,"pm10":65.7,"pm2_5":21.8,"no2":0.9,"co":128.0,"o3":87.0,"so2":1.6,"mosquito_risk":0,"arthritis_risk":5,"migraine_risk":7,"frizz_risk":1,"updated_at":"2026-06-09T15:20:58.498750+05:30"},{"city":"Aurangabad","state":"Maharashtra","latitude":19.8762,"longitude":75.3433,"temp":37.2,"humidity":24,"rain":0.0,"pressure":940.1,"uv_index":9.0,"wind_gusts":49.7,"aqi":74,"pm10":67.5,"pm2_5":21.9,"no2":1.0,"co":127.0,"o3":113.0,"so2":3.5,"mosquito_risk":0,"arthritis_risk":5,"migraine_risk":10,"frizz_risk":0,"updated_at":"2026-06-09T15:20:58.498758+05:30"},{"city":"Solapur","state":"Maharashtra","latitude":17.6599,"longitude":75.9064,"temp":34.3,"humidity":43,"rain":0.0,"pressure":953.3,"uv_index":5.55,"wind_gusts":39.6,"aqi":60,"pm10":42.7,"pm2_5":17.4,"no2":1.1,"co":122.0,"o3":107.0,"so2":2.2,"mosquito_risk":0,"arthritis_risk":5,"migraine_risk":3,"frizz_risk":1,"updated_at":"2026-06-09T15:20:58.498765+05:30"},{"city":"Kolhapur","state":"Maharashtra","latitude":16.705,"longitude":74.2433,"temp":28.2,"humidity":64,"rain":0.0,"pressure":945.8,"uv_index":7.3,"wind_gusts":43.6,"aqi":29,"pm10":20.3,"pm2_5":9.3,"no2":1.8,"co":138.0,"o3":74.0,"so2":1.4,"mosquito_risk":7,"arthritis_risk":5,"migraine_risk":7,"frizz_risk":1,"updated_at":"2026-06-09T15:20:58.498773+05:30"},{"city":"Goa","state":"Goa","latitude":15.2993,"longitude":74.124,"temp":25.6,"humidity":99,"rain":0.2,"pressure":997.1,"uv_index":6.35,"wind_gusts":32.0,"aqi":27,"pm10":8.1,"pm2_5":4.8,"no2":2.1,"co":136.0,"o3":58.0,"so2":0.7,"mosquito_risk":10,"arthritis_risk":5,"migraine_risk":7,"frizz_risk":1,"updated_at":"2026-06-09T15:20:58.498781+05:30"},{"city":"Jodhpur","state":"Rajasthan","latitude":26.2389,"longitude":73.0243,"temp":40.0,"humidity":31,"rain":0.0,"pressure":975.2,"uv_index":8.45,"wind_gusts":48.2,"aqi":152,"pm10":292.4,"pm2_5":56.9,"no2":0.7,"co":118.0,"o3":96.0,"so2":1.7,"mosquito_risk":0,"arthritis_risk":5,"migraine_risk":10,"frizz_risk":1,"updated_at":"2026-06-09T15:20:58.498788+05:30"},{"city":"Udaipur","state":"Rajasthan","latitude":24.5854,"longitude":73.7125,"temp":36.9,"humidity":35,"rain":0.0,"pressure":941.2,"uv_index":8.85,"wind_gusts":44.6,"aqi":79,"pm10":88.2,"pm2_5":33.1,"no2":0.7,"co":127.0,"o3":102.0,"so2":4.0,"mosquito_risk":0,"arthritis_risk":5,"migraine_risk":10,"frizz_risk":1,"updated_at":"2026-06-09T15:20:58.498795+05:30"},{"city":"Kota","state":"Rajasthan","latitude":25.2138,"longitude":75.8648,"temp":41.2,"humidity":22,"rain":0.0,"pressure":971.1,"uv_index":8.4,"wind_gusts":38.5,"aqi":83,"pm10":50.4,"pm2_5":21.7,"no2":0.9,"co":133.0,"o3":127.0,"so2":4.6,"mosquito_risk":0,"arthritis_risk":5,"migraine_risk":10,"frizz_risk":0,"updated_at":"2026-06-09T15:20:58.498802+05:30"},{"city":"Bikaner","state":"Rajasthan","latitude":28.0229,"longitude":73.3119,"temp":43.6,"humidity":17,"rain":0.0,"pressure":972.5,"uv_index":8.45,"wind_gusts":42.1,"aqi":131,"pm10":111.8,"pm2_5":36.4,"no2":0.4,"co":120.0,"o3":106.0,"so2":3.1,"mosquito_risk":0,"arthritis_risk":5,"migraine_risk":10,"frizz_risk":0,"updated_at":"2026-06-09T15:20:58.498809+05:30"},{"city":"Ajmer","state":"Rajasthan","latitude":26.4499,"longitude":74.6399,"temp":37.2,"humidity":34,"rain":0.0,"pressure":948.1,"uv_index":8.35,"wind_gusts":50.4,"aqi":84,"pm10":53.9,"pm2_5":21.1,"no2":0.7,"co":132.0,"o3":116.0,"so2":2.4,"mosquito_risk":0,"arthritis_risk":5,"migraine_risk":10,"frizz_risk":1,"updated_at":"2026-06-09T15:20:58.498816+05:30"},{"city":"Gwalior","state":"Madhya Pradesh","latitude":26.2183,"longitude":78.1828,"temp":41.5,"humidity":23,"rain":0.0,"pressure":974.1,"uv_index":8.3,"wind_gusts":52.2,"aqi":86,"pm10":126.7,"pm2_5":36.9,"no2":0.6,"co":135.0,"o3":111.0,"so2":2.6,"mosquito_risk":0,"arthritis_risk":5,"migraine_risk":10,"frizz_risk":1,"updated_at":"2026-06-09T15:20:58.498823+05:30"},{"city":"Indore","state":"Madhya Pradesh","latitude":22.7196,"longitude":75.8577,"temp":38.4,"humidity":27,"rain":0.0,"pressure":943.1,"uv_index":8.65,"wind_gusts":50.8,"aqi":82,"pm10":50.5,"pm2_5":26.7,"no2":1.0,"co":161.0,"o3":111.0,"so2":3.8,"mosquito_risk":0,"arthritis_risk":5,"migraine_risk":10,"frizz_risk":0,"updated_at":"2026-06-09T15:20:58.498830+05:30"},{"city":"Bhopal","state":"Madhya Pradesh","latitude":23.2599,"longitude":77.4126,"temp":39.1,"humidity":26,"rain":0.0,"pressure":947.8,"uv_index":8.7,"wind_gusts":39.6,"aqi":86,"pm10":60.1,"pm2_5":29.3,"no2":0.8,"co":171.0,"o3":114.0,"so2":4.7,"mosquito_risk":0,"arthritis_risk":5,"migraine_risk":10,"frizz_risk":1,"updated_at":"2026-06-09T15:20:58.498838+05:30"},{"city":"Jabalpur","state":"Madhya Pradesh","latitude":23.1815,"longitude":79.9864,"temp":40.0,"humidity":23,"rain":0.0,"pressure":954.4,"uv_index":8.8,"wind_gusts":34.6,"aqi":78,"pm10":48.9,"pm2_5":22.6,"no2":0.8,"co":157.0,"o3":129.0,"so2":4.4,"mosquito_risk":0,"arthritis_risk":5,"migraine_risk":10,"frizz_risk":0,"updated_at":"2026-06-09T15:20:58.498845+05:30"},{"city":"Ujjain","state":"Madhya Pradesh","latitude":23.1765,"longitude":75.7885,"temp":37.9,"humidity":30,"rain":0.0,"pressure":948.4,"uv_index":8.6,"wind_gusts":49.3,"aqi":80,"pm10":48.4,"pm2_5":26.4,"no2":0.6,"co":142.0,"o3":107.0,"so2":3.5,"mosquito_risk":0,"arthritis_risk":5,"migraine_risk":10,"frizz_risk":1,"updated_at":"2026-06-09T15:20:58.498852+05:30"},{"city":"Visakhapatnam","state":"Andhra Pradesh","latitude":17.6868,"longitude":83.2185,"temp":37.0,"humidity":49,"rain":0.0,"pressure":995.2,"uv_index":8.4,"wind_gusts":42.5,"aqi":96,"pm10":56.9,"pm2_5":43.0,"no2":8.2,"co":382.0,"o3":198.0,"so2":35.8,"mosquito_risk":0,"arthritis_risk":5,"migraine_risk":10,"frizz_risk":1,"updated_at":"2026-06-09T15:20:58.498859+05:30"},{"city":"Vijayawada","state":"Andhra Pradesh","latitude":16.5062,"longitude":80.648,"temp":38.0,"humidity":41,"rain":0.0,"pressure":995.8,"uv_index":8.7,"wind_gusts":42.8,"aqi":65,"pm10":41.3,"pm2_5":23.7,"no2":1.6,"co":178.0,"o3":129.0,"so2":5.0,"mosquito_risk":0,"arthritis_risk":5,"migraine_risk":10,"frizz_risk":1,"updated_at":"2026-06-09T15:20:58.498866+05:30"},{"city":"Guntur","state":"Andhra Pradesh","latitude":16.3067,"longitude":80.4365,"temp":38.1,"humidity":40,"rain":0.0,"pressure":996.9,"uv_index":8.35,"wind_gusts":42.5,"aqi":60,"pm10":44.1,"pm2_5":24.4,"no2":1.3,"co":161.0,"o3":123.0,"so2":4.2,"mosquito_risk":0,"arthritis_risk":5,"migraine_risk":10,"frizz_risk":1,"updated_at":"2026-06-09T15:20:58.498873+05:30"},{"city":"Nellore","state":"Andhra Pradesh","latitude":14.4426,"longitude":79.9865,"temp":36.8,"humidity":39,"rain":0.0,"pressure":999.8,"uv_index":8.15,"wind_gusts":50.0,"aqi":38,"pm10":14.4,"pm2_5":9.7,"no2":2.5,"co":132.0,"o3":110.0,"so2":4.0,"mosquito_risk":0,"arthritis_risk":5,"migraine_risk":10,"frizz_risk":1,"updated_at":"2026-06-09T15:20:58.498881+05:30"},{"city":"Kurnool","state":"Andhra Pradesh","latitude":15.8281,"longitude":78.0373,"temp":33.1,"humidity":50,"rain":0.0,"pressure":972.8,"uv_index":5.7,"wind_gusts":49.0,"aqi":38,"pm10":27.1,"pm2_5":13.1,"no2":1.0,"co":132.0,"o3":105.0,"so2":4.2,"mosquito_risk":0,"arthritis_risk":5,"migraine_risk":3,"frizz_risk":1,"updated_at":"2026-06-09T15:20:58.498889+05:30"},{"city":"Kakinada","state":"Andhra Pradesh","latitude":16.9891,"longitude":82.2475,"temp":37.6,"humidity":40,"rain":0.0,"pressure":999.6,"uv_index":8.8,"wind_gusts":46.1,"aqi":66,"pm10":36.2,"pm2_5":24.9,"no2":2.0,"co":204.0,"o3":146.0,"so2":5.1,"mosquito_risk":0,"arthritis_risk":5,"migraine_risk":10,"frizz_risk":1,"updated_at":"2026-06-09T15:20:58.498896+05:30"},{"city":"Tirupati","state":"Andhra Pradesh","latitude":13.6288,"longitude":79.4192,"temp":37.7,"humidity":34,"rain":0.0,"pressure":985.4,"uv_index":7.35,"wind_gusts":46.4,"aqi":31,"pm10":4.2,"pm2_5":2.9,"no2":1.8,"co":111.0,"o3":79.0,"so2":0.7,"mosquito_risk":0,"arthritis_risk":5,"migraine_risk":10,"frizz_risk":1,"updated_at":"2026-06-09T15:20:58.498903+05:30"},{"city":"Warangal","state":"Telangana","latitude":17.9689,"longitude":79.5941,"temp":36.9,"humidity":38,"rain":0.0,"pressure":972.6,"uv_index":8.6,"wind_gusts":37.8,"aqi":80,"pm10":66.1,"pm2_5":34.7,"no2":1.5,"co":165.0,"o3":130.0,"so2":5.7,"mosquito_risk":0,"arthritis_risk":5,"migraine_risk":10,"frizz_risk":1,"updated_at":"2026-06-09T15:20:58.498910+05:30"},{"city":"Nizamabad","state":"Telangana","latitude":18.6725,"longitude":78.0941,"temp":36.8,"humidity":37,"rain":0.0,"pressure":959.4,"uv_index":7.55,"wind_gusts":40.7,"aqi":88,"pm10":69.8,"pm2_5":29.8,"no2":1.0,"co":144.0,"o3":115.0,"so2":3.5,"mosquito_risk":0,"arthritis_risk":5,"migraine_risk":10,"frizz_risk":1,"updated_at":"2026-06-09T15:20:58.498917+05:30"},{"city":"Mysore","state":"Karnataka","latitude":12.2958,"longitude":76.6396,"temp":25.2,"humidity":73,"rain":0.0,"pressure":927.3,"uv_index":7.4,"wind_gusts":48.2,"aqi":25,"pm10":2.8,"pm2_5":2.5,"no2":3.7,"co":118.0,"o3":65.0,"so2":1.5,"mosquito_risk":7,"arthritis_risk":5,"migraine_risk":7,"frizz_risk":1,"updated_at":"2026-06-09T15:20:58.498923+05:30"},{"city":"Mangalore","state":"Karnataka","latitude":12.9141,"longitude":74.856,"temp":27.4,"humidity":82,"rain":0.0,"pressure":1006.7,"uv_index":3.5,"wind_gusts":33.1,"aqi":31,"pm10":10.7,"pm2_5":5.4,"no2":2.5,"co":136.0,"o3":53.0,"so2":1.0,"mosquito_risk":7,"arthritis_risk":5,"migraine_risk":0,"frizz_risk":1,"updated_at":"2026-06-09T15:20:58.498930+05:30"},{"city":"Hubli-Dharwad","state":"Karnataka","latitude":15.3647,"longitude":75.124,"temp":28.0,"humidity":62,"rain":0.0,"pressure":939.3,"uv_index":7.2,"wind_gusts":47.5,"aqi":23,"pm10":4.9,"pm2_5":2.7,"no2":2.8,"co":123.0,"o3":61.0,"so2":0.8,"mosquito_risk":7,"arthritis_risk":5,"migraine_risk":7,"frizz_risk":1,"updated_at":"2026-06-09T15:20:58.498938+05:30"},{"city":"Belgaum","state":"Karnataka","latitude":15.8497,"longitude":74.4977,"temp":27.0,"humidity":66,"rain":0.0,"pressure":924.2,"uv_index":1.45,"wind_gusts":40.0,"aqi":25,"pm10":8.7,"pm2_5":4.9,"no2":2.6,"co":121.0,"o3":65.0,"so2":1.6,"mosquito_risk":7,"arthritis_risk":5,"migraine_risk":3,"frizz_risk":1,"updated_at":"2026-06-09T15:21:01.846615+05:30"},{"city":"Coimbatore","state":"Tamil Nadu","latitude":11.0168,"longitude":76.9558,"temp":25.1,"humidity":86,"rain":0.2,"pressure":960.0,"uv_index":4.6,"wind_gusts":54.7,"aqi":25,"pm10":2.6,"pm2_5":2.2,"no2":2.7,"co":132.0,"o3":62.0,"so2":1.4,"mosquito_risk":10,"arthritis_risk":5,"migraine_risk":3,"frizz_risk":1,"updated_at":"2026-06-09T15:21:01.846647+05:30"},{"city":"Madurai","state":"Tamil Nadu","latitude":9.9252,"longitude":78.1198,"temp":35.3,"humidity":40,"rain":0.0,"pressure":989.9,"uv_index":8.25,"wind_gusts":61.2,"aqi":26,"pm10":5.0,"pm2_5":3.6,"no2":1.7,"co":109.0,"o3":86.0,"so2":1.6,"mosquito_risk":0,"arthritis_risk":5,"migraine_risk":10,"frizz_risk":1,"updated_at":"2026-06-09T15:21:01.846657+05:30"},{"city":"Trichy","state":"Tamil Nadu","latitude":10.7905,"longitude":78.7047,"temp":35.0,"humidity":44,"rain":0.0,"pressure":996.4,"uv_index":8.3,"wind_gusts":64.8,"aqi":30,"pm10":6.6,"pm2_5":4.0,"no2":1.3,"co":108.0,"o3":82.0,"so2":1.3,"mosquito_risk":0,"arthritis_risk":5,"migraine_risk":7,"frizz_risk":1,"updated_at":"2026-06-09T15:21:01.846665+05:30"},{"city":"Salem","state":"Tamil Nadu","latitude":11.6643,"longitude":78.146,"temp":33.7,"humidity":44,"rain":0.0,"pressure":974.6,"uv_index":6.65,"wind_gusts":43.6,"aqi":29,"pm10":5.0,"pm2_5":4.2,"no2":2.1,"co":138.0,"o3":97.0,"so2":4.6,"mosquito_risk":0,"arthritis_risk":5,"migraine_risk":7,"frizz_risk":1,"updated_at":"2026-06-09T15:21:01.846673+05:30"},{"city":"Tirunelveli","state":"Tamil Nadu","latitude":8.7139,"longitude":77.7567,"temp":34.0,"humidity":49,"rain":0.0,"pressure":1001.5,"uv_index":7.6,"wind_gusts":55.8,"aqi":21,"pm10":6.6,"pm2_5":3.4,"no2":1.1,"co":97.0,"o3":54.0,"so2":0.7,"mosquito_risk":0,"arthritis_risk":5,"migraine_risk":4,"frizz_risk":1,"updated_at":"2026-06-09T15:21:01.846681+05:30"},{"city":"Vellore","state":"Tamil Nadu","latitude":12.9165,"longitude":79.1325,"temp":35.0,"humidity":40,"rain":0.0,"pressure":980.1,"uv_index":8.25,"wind_gusts":50.8,"aqi":26,"pm10":4.2,"pm2_5":3.3,"no2":1.7,"co":117.0,"o3":89.0,"so2":1.9,"mosquito_risk":0,"arthritis_risk":5,"migraine_risk":7,"frizz_risk":1,"updated_at":"2026-06-09T15:21:01.846688+05:30"},{"city":"Erode","state":"Tamil Nadu","latitude":11.341,"longitude":77.7172,"temp":33.7,"humidity":47,"rain":0.0,"pressure":986.3,"uv_index":5.0,"wind_gusts":52.6,"aqi":27,"pm10":4.2,"pm2_5":3.3,"no2":2.0,"co":137.0,"o3":82.0,"so2":1.5,"mosquito_risk":0,"arthritis_risk":5,"migraine_risk":3,"frizz_risk":1,"updated_at":"2026-06-09T15:21:01.846695+05:30"},{"city":"Kochi","state":"Kerala","latitude":9.9312,"longitude":76.2673,"temp":26.5,"humidity":90,"rain":0.1,"pressure":1009.5,"uv_index":5.75,"wind_gusts":46.4,"aqi":34,"pm10":8.5,"pm2_5":5.3,"no2":2.5,"co":104.0,"o3":56.0,"so2":1.6,"mosquito_risk":10,"arthritis_risk":0,"migraine_risk":0,"frizz_risk":1,"updated_at":"2026-06-09T15:21:01.846702+05:30"},{"city":"Thiruvananthapuram","state":"Kerala","latitude":8.5241,"longitude":76.9366,"temp":26.0,"humidity":90,"rain":0.2,"pressure":1008.6,"uv_index":7.6,"wind_gusts":58.3,"aqi":33,"pm10":11.5,"pm2_5":6.3,"no2":1.1,"co":92.0,"o3":55.0,"so2":0.6,"mosquito_risk":10,"arthritis_risk":0,"migraine_risk":4,"frizz_risk":1,"updated_at":"2026-06-09T15:21:01.846710+05:30"},{"city":"Kozhikode","state":"Kerala","latitude":11.2588,"longitude":75.7804,"temp":24.9,"humidity":96,"rain":0.2,"pressure":1008.7,"uv_index":7.9,"wind_gusts":29.2,"aqi":29,"pm10":7.3,"pm2_5":3.8,"no2":0.6,"co":116.0,"o3":65.0,"so2":0.4,"mosquito_risk":6,"arthritis_risk":0,"migraine_risk":4,"frizz_risk":1,"updated_at":"2026-06-09T15:21:01.846717+05:30"},{"city":"Thrissur","state":"Kerala","latitude":10.5276,"longitude":76.2144,"temp":26.0,"humidity":92,"rain":0.0,"pressure":1007.8,"uv_index":8.15,"wind_gusts":34.2,"aqi":31,"pm10":7.6,"pm2_5":5.2,"no2":2.0,"co":104.0,"o3":55.0,"so2":1.0,"mosquito_risk":7,"arthritis_risk":5,"migraine_risk":4,"frizz_risk":1,"updated_at":"2026-06-09T15:21:01.846725+05:30"},{"city":"Kannur","state":"Kerala","latitude":11.8745,"longitude":75.3704,"temp":26.2,"humidity":92,"rain":0.1,"pressure":1007.8,"uv_index":7.25,"wind_gusts":28.1,"aqi":26,"pm10":9.0,"pm2_5":4.4,"no2":2.2,"co":116.0,"o3":59.0,"so2":0.8,"mosquito_risk":10,"arthritis_risk":5,"migraine_risk":4,"frizz_risk":1,"updated_at":"2026-06-09T15:21:01.846733+05:30"},{"city":"Patna","state":"Bihar","latitude":25.5941,"longitude":85.1376,"temp":38.1,"humidity":32,"rain":0.0,"pressure":990.2,"uv_index":8.6,"wind_gusts":22.0,"aqi":173,"pm10":110.8,"pm2_5":49.7,"no2":2.5,"co":246.0,"o3":192.0,"so2":9.3,"mosquito_risk":0,"arthritis_risk":5,"migraine_risk":10,"frizz_risk":1,"updated_at":"2026-06-09T15:21:01.846739+05:30"},{"city":"Gaya","state":"Bihar","latitude":24.7914,"longitude":85.0002,"temp":38.6,"humidity":30,"rain":0.0,"pressure":984.4,"uv_index":7.7,"wind_gusts":36.7,"aqi":154,"pm10":149.9,"pm2_5":46.2,"no2":1.5,"co":183.0,"o3":158.0,"so2":8.8,"mosquito_risk":0,"arthritis_risk":5,"migraine_risk":10,"frizz_risk":1,"updated_at":"2026-06-09T15:21:01.846746+05:30"},{"city":"Muzaffarpur","state":"Bihar","latitude":26.1209,"longitude":85.3647,"temp":36.8,"humidity":45,"rain":0.0,"pressure":990.2,"uv_index":8.8,"wind_gusts":30.6,"aqi":183,"pm10":118.7,"pm2_5":66.6,"no2":3.4,"co":381.0,"o3":237.0,"so2":15.0,"mosquito_risk":0,"arthritis_risk":5,"migraine_risk":10,"frizz_risk":1,"updated_at":"2026-06-09T15:21:01.846753+05:30"},{"city":"Bhagalpur","state":"Bihar","latitude":25.2425,"longitude":87.0117,"temp":37.4,"humidity":37,"rain":0.0,"pressure":991.0,"uv_index":8.85,"wind_gusts":25.9,"aqi":173,"pm10":113.4,"pm2_5":64.0,"no2":3.6,"co":385.0,"o3":232.0,"so2":20.5,"mosquito_risk":0,"arthritis_risk":5,"migraine_risk":10,"frizz_risk":1,"updated_at":"2026-06-09T15:21:01.846759+05:30"},{"city":"Ranchi","state":"Jharkhand","latitude":23.3441,"longitude":85.3096,"temp":33.5,"humidity":40,"rain":0.0,"pressure":931.3,"uv_index":8.75,"wind_gusts":35.6,"aqi":127,"pm10":93.8,"pm2_5":30.2,"no2":1.1,"co":159.0,"o3":139.0,"so2":4.1,"mosquito_risk":0,"arthritis_risk":5,"migraine_risk":7,"frizz_risk":1,"updated_at":"2026-06-09T15:21:01.846766+05:30"},{"city":"Jamshedpur","state":"Jharkhand","latitude":22.8046,"longitude":86.2029,"temp":35.5,"humidity":45,"rain":0.0,"pressure":981.9,"uv_index":9.1,"wind_gusts":31.0,"aqi":149,"pm10":103.1,"pm2_5":49.6,"no2":3.4,"co":254.0,"o3":203.0,"so2":22.3,"mosquito_risk":0,"arthritis_risk":5,"migraine_risk":10,"frizz_risk":1,"updated_at":"2026-06-09T15:21:01.846773+05:30"},{"city":"Dhanbad","state":"Jharkhand","latitude":23.7957,"longitude":86.4304,"temp":39.1,"humidity":26,"rain":0.0,"pressure":970.9,"uv_index":8.9,"wind_gusts":52.2,"aqi":159,"pm10":102.2,"pm2_5":39.2,"no2":5.8,"co":161.0,"o3":154.0,"so2":24.2,"mosquito_risk":0,"arthritis_risk":5,"migraine_risk":10,"frizz_risk":1,"updated_at":"2026-06-09T15:21:01.846780+05:30"},{"city":"Bokaro","state":"Jharkhand","latitude":23.6693,"longitude":86.1511,"temp":38.1,"humidity":30,"rain":0.0,"pressure":974.7,"uv_index":7.2,"wind_gusts":54.4,"aqi":162,"pm10":114.3,"pm2_5":41.4,"no2":6.5,"co":164.0,"o3":168.0,"so2":29.4,"mosquito_risk":0,"arthritis_risk":5,"migraine_risk":10,"frizz_risk":1,"updated_at":"2026-06-09T15:21:01.846787+05:30"},{"city":"Bhubaneswar","state":"Odisha","latitude":20.2961,"longitude":85.8245,"temp":36.7,"humidity":44,"rain":0.0,"pressure":993.7,"uv_index":8.25,"wind_gusts":33.8,"aqi":132,"pm10":65.9,"pm2_5":43.3,"no2":2.8,"co":311.0,"o3":198.0,"so2":14.2,"mosquito_risk":0,"arthritis_risk":5,"migraine_risk":10,"frizz_risk":1,"updated_at":"2026-06-09T15:21:01.846794+05:30"},{"city":"Cuttack","state":"Odisha","latitude":20.4625,"longitude":85.8828,"temp":36.2,"humidity":49,"rain":0.0,"pressure":995.2,"uv_index":8.65,"wind_gusts":33.5,"aqi":132,"pm10":65.9,"pm2_5":43.3,"no2":2.8,"co":248.0,"o3":198.0,"so2":14.2,"mosquito_risk":0,"arthritis_risk":5,"migraine_risk":10,"frizz_risk":1,"updated_at":"2026-06-09T15:21:01.846801+05:30"},{"city":"Rourkela","state":"Odisha","latitude":22.2604,"longitude":84.8536,"temp":37.7,"humidity":35,"rain":0.0,"pressure":976.7,"uv_index":8.75,"wind_gusts":33.8,"aqi":121,"pm10":64.3,"pm2_5":33.2,"no2":1.4,"co":216.0,"o3":155.0,"so2":7.4,"mosquito_risk":0,"arthritis_risk":5,"migraine_risk":10,"frizz_risk":1,"updated_at":"2026-06-09T15:21:01.846808+05:30"},{"city":"Raipur","state":"Chhattisgarh","latitude":21.2514,"longitude":81.6296,"temp":40.1,"humidity":25,"rain":0.0,"pressure":967.2,"uv_index":8.9,"wind_gusts":39.2,"aqi":117,"pm10":76.4,"pm2_5":38.5,"no2":4.7,"co":153.0,"o3":162.0,"so2":25.1,"mosquito_risk":0,"arthritis_risk":5,"migraine_risk":10,"frizz_risk":1,"updated_at":"2026-06-09T15:21:01.846814+05:30"},{"city":"Bhilai","state":"Chhattisgarh","latitude":21.1938,"longitude":81.3509,"temp":39.5,"humidity":27,"rain":0.0,"pressure":967.6,"uv_index":8.45,"wind_gusts":40.7,"aqi":110,"pm10":72.6,"pm2_5":37.0,"no2":5.4,"co":201.0,"o3":150.0,"so2":23.9,"mosquito_risk":0,"arthritis_risk":5,"migraine_risk":10,"frizz_risk":1,"updated_at":"2026-06-09T15:21:01.846821+05:30"},{"city":"Guwahati","state":"Assam","latitude":26.1158,"longitude":91.7086,"temp":27.6,"humidity":90,"rain":0.2,"pressure":992.3,"uv_index":8.8,"wind_gusts":30.2,"aqi":89,"pm10":29.0,"pm2_5":21.1,"no2":1.9,"co":331.0,"o3":124.0,"so2":3.9,"mosquito_risk":10,"arthritis_risk":5,"migraine_risk":7,"frizz_risk":1,"updated_at":"2026-06-09T15:21:01.846828+05:30"},{"city":"Agartala","state":"Tripura","latitude":23.8315,"longitude":91.2868,"temp":29.3,"humidity":87,"rain":0.3,"pressure":997.5,"uv_index":8.85,"wind_gusts":36.0,"aqi":71,"pm10":38.1,"pm2_5":24.0,"no2":4.2,"co":193.0,"o3":117.0,"so2":3.3,"mosquito_risk":10,"arthritis_risk":5,"migraine_risk":7,"frizz_risk":1,"updated_at":"2026-06-09T15:21:01.846835+05:30"},{"city":"Shillong","state":"Meghalaya","latitude":25.5788,"longitude":91.8933,"temp":24.3,"humidity":68,"rain":0.1,"pressure":852.1,"uv_index":7.3,"wind_gusts":31.7,"aqi":64,"pm10":19.7,"pm2_5":14.3,"no2":1.8,"co":247.0,"o3":127.0,"so2":2.9,"mosquito_risk":6,"arthritis_risk":5,"migraine_risk":7,"frizz_risk":1,"updated_at":"2026-06-09T15:21:01.846841+05:30"},{"city":"Imphal","state":"Manipur","latitude":24.817,"longitude":93.9368,"temp":27.9,"humidity":64,"rain":0.0,"pressure":916.3,"uv_index":8.4,"wind_gusts":34.9,"aqi":68,"pm10":35.7,"pm2_5":23.9,"no2":1.1,"co":249.0,"o3":117.0,"so2":3.7,"mosquito_risk":7,"arthritis_risk":5,"migraine_risk":7,"frizz_risk":1,"updated_at":"2026-06-09T15:21:01.846848+05:30"},{"city":"Aizawl","state":"Mizoram","latitude":23.7271,"longitude":92.7176,"temp":25.7,"humidity":61,"rain":0.0,"pressure":887.3,"uv_index":8.85,"wind_gusts":34.9,"aqi":52,"pm10":34.9,"pm2_5":21.0,"no2":0.6,"co":194.0,"o3":109.0,"so2":2.4,"mosquito_risk":7,"arthritis_risk":5,"migraine_risk":7,"frizz_risk":1,"updated_at":"2026-06-09T15:21:01.846855+05:30"},{"city":"Kohima","state":"Nagaland","latitude":25.6701,"longitude":94.1077,"temp":21.6,"humidity":97,"rain":0.3,"pressure":849.7,"uv_index":6.7,"wind_gusts":29.2,"aqi":49,"pm10":9.6,"pm2_5":7.2,"no2":0.9,"co":226.0,"o3":107.0,"so2":2.3,"mosquito_risk":6,"arthritis_risk":5,"migraine_risk":7,"frizz_risk":1,"updated_at":"2026-06-09T15:21:01.846862+05:30"},{"city":"Gangtok","state":"Sikkim","latitude":27.3314,"longitude":88.6138,"temp":21.3,"humidity":88,"rain":0.2,"pressure":832.5,"uv_index":8.9,"wind_gusts":36.4,"aqi":118,"pm10":26.5,"pm2_5":17.8,"no2":1.1,"co":305.0,"o3":155.0,"so2":4.6,"mosquito_risk":6,"arthritis_risk":5,"migraine_risk":7,"frizz_risk":1,"updated_at":"2026-06-09T15:21:01.846868+05:30"},{"city":"Siliguri","state":"West Bengal","latitude":26.7271,"longitude":88.3953,"temp":29.8,"humidity":73,"rain":0.0,"pressure":984.0,"uv_index":8.75,"wind_gusts":23.0,"aqi":142,"pm10":69.4,"pm2_5":47.7,"no2":2.2,"co":456.0,"o3":176.0,"so2":9.7,"mosquito_risk":7,"arthritis_risk":5,"migraine_risk":7,"frizz_risk":1,"updated_at":"2026-06-09T15:21:05.200275+05:30"},{"city":"Durgapur","state":"West Bengal","latitude":23.5204,"longitude":87.3119,"temp":38.3,"humidity":34,"rain":0.0,"pressure":985.0,"uv_index":8.85,"wind_gusts":33.8,"aqi":166,"pm10":112.2,"pm2_5":55.3,"no2":7.2,"co":307.0,"o3":197.0,"so2":30.9,"mosquito_risk":0,"arthritis_risk":5,"migraine_risk":10,"frizz_risk":1,"updated_at":"2026-06-09T15:21:05.200312+05:30"},{"city":"Asansol","state":"West Bengal","latitude":23.6739,"longitude":86.9524,"temp":39.4,"humidity":26,"rain":0.0,"pressure":983.7,"uv_index":8.8,"wind_gusts":43.2,"aqi":156,"pm10":104.1,"pm2_5":44.7,"no2":5.8,"co":292.0,"o3":164.0,"so2":22.6,"mosquito_risk":0,"arthritis_risk":5,"migraine_risk":10,"frizz_risk":1,"updated_at":"2026-06-09T15:21:05.200324+05:30"},{"city":"Pondicherry","state":"Puducherry","latitude":11.9139,"longitude":79.8145,"temp":36.7,"humidity":42,"rain":0.0,"pressure":1003.1,"uv_index":8.0,"wind_gusts":50.0,"aqi":39,"pm10":9.3,"pm2_5":8.7,"no2":3.6,"co":146.0,"o3":105.0,"so2":8.1,"mosquito_risk":0,"arthritis_risk":5,"migraine_risk":7,"frizz_risk":1,"updated_at":"2026-06-09T15:21:05.200335+05:30"},{"city":"Port Blair","state":"Andaman and Nicobar Islands","latitude":11.6234,"longitude":92.7265,"temp":27.1,"humidity":90,"rain":0.1,"pressure":1003.9,"uv_index":8.75,"wind_gusts":47.5,"aqi":24,"pm10":6.8,"pm2_5":3.9,"no2":0.3,"co":88.0,"o3":56.0,"so2":0.3,"mosquito_risk":10,"arthritis_risk":5,"migraine_risk":4,"frizz_risk":1,"updated_at":"2026-06-09T15:21:05.200345+05:30"},{"city":"Haridwar","state":"Uttarakhand","latitude":29.9457,"longitude":78.1642,"temp":37.9,"humidity":29,"rain":0.0,"pressure":964.8,"uv_index":7.65,"wind_gusts":30.2,"aqi":154,"pm10":39.3,"pm2_5":25.2,"no2":1.5,"co":253.0,"o3":198.0,"so2":8.3,"mosquito_risk":0,"arthritis_risk":5,"migraine_risk":10,"frizz_risk":1,"updated_at":"2026-06-09T15:21:05.200356+05:30"},{"city":"Rishikesh","state":"Uttarakhand","latitude":30.0869,"longitude":78.2676,"temp":36.5,"humidity":32,"rain":0.0,"pressure":958.1,"uv_index":7.75,"wind_gusts":24.5,"aqi":145,"pm10":36.4,"pm2_5":20.7,"no2":0.8,"co":220.0,"o3":181.0,"so2":5.3,"mosquito_risk":0,"arthritis_risk":5,"migraine_risk":10,"frizz_risk":1,"updated_at":"2026-06-09T15:21:05.200366+05:30"},{"city":"Nainital","state":"Uttarakhand","latitude":29.3919,"longitude":79.4542,"temp":24.6,"humidity":38,"rain":0.0,"pressure":803.8,"uv_index":8.6,"wind_gusts":42.5,"aqi":135,"pm10":42.4,"pm2_5":22.5,"no2":1.3,"co":205.0,"o3":192.0,"so2":10.7,"mosquito_risk":0,"arthritis_risk":5,"migraine_risk":7,"frizz_risk":0,"updated_at":"2026-06-09T15:21:05.200376+05:30"},{"city":"Mussoorie","state":"Uttarakhand","latitude":30.4599,"longitude":78.0664,"temp":22.6,"humidity":50,"rain":0.0,"pressure":801.1,"uv_index":8.15,"wind_gusts":53.6,"aqi":141,"pm10":26.3,"pm2_5":22.6,"no2":1.6,"co":216.0,"o3":211.0,"so2":9.8,"mosquito_risk":0,"arthritis_risk":5,"migraine_risk":7,"frizz_risk":0,"updated_at":"2026-06-09T15:21:05.200383+05:30"},{"city":"Dharamshala","state":"Himachal Pradesh","latitude":32.219,"longitude":76.3234,"temp":28.9,"humidity":32,"rain":0.0,"pressure":865.8,"uv_index":8.5,"wind_gusts":47.2,"aqi":105,"pm10":13.9,"pm2_5":9.5,"no2":0.5,"co":197.0,"o3":165.0,"so2":2.0,"mosquito_risk":4,"arthritis_risk":5,"migraine_risk":7,"frizz_risk":0,"updated_at":"2026-06-09T15:21:05.200391+05:30"},{"city":"Dalhousie","state":"Himachal Pradesh","latitude":32.5387,"longitude":75.971,"temp":24.7,"humidity":39,"rain":0.1,"pressure":803.6,"uv_index":8.75,"wind_gusts":38.5,"aqi":129,"pm10":24.7,"pm2_5":16.1,"no2":1.3,"co":201.0,"o3":183.0,"so2":3.4,"mosquito_risk":3,"arthritis_risk":5,"migraine_risk":7,"frizz_risk":0,"updated_at":"2026-06-09T15:21:05.200400+05:30"},{"city":"Patiala","state":"Punjab","latitude":30.3398,"longitude":76.3869,"temp":41.5,"humidity":17,"rain":0.0,"pressure":969.0,"uv_index":7.65,"wind_gusts":42.5,"aqi":293,"pm10":468.5,"pm2_5":65.0,"no2":1.4,"co":221.0,"o3":189.0,"so2":7.0,"mosquito_risk":0,"arthritis_risk":5,"migraine_risk":10,"frizz_risk":0,"updated_at":"2026-06-09T15:21:05.200408+05:30"},{"city":"Bhatinda","state":"Punjab","latitude":30.211,"longitude":74.9455,"temp":43.2,"humidity":19,"rain":0.0,"pressure":973.8,"uv_index":8.35,"wind_gusts":33.5,"aqi":115,"pm10":64.7,"pm2_5":29.0,"no2":2.1,"co":208.0,"o3":180.0,"so2":9.8,"mosquito_risk":0,"arthritis_risk":5,"migraine_risk":10,"frizz_risk":0,"updated_at":"2026-06-09T15:21:05.200415+05:30"},{"city":"Rohtak","state":"Haryana","latitude":28.8955,"longitude":76.6066,"temp":40.9,"humidity":21,"rain":0.0,"pressure":972.4,"uv_index":7.85,"wind_gusts":31.3,"aqi":713,"pm10":1143.7,"pm2_5":147.6,"no2":1.9,"co":192.0,"o3":150.0,"so2":5.7,"mosquito_risk":0,"arthritis_risk":5,"migraine_risk":10,"frizz_risk":0,"updated_at":"2026-06-09T15:21:05.200422+05:30"},{"city":"Panipat","state":"Haryana","latitude":29.3909,"longitude":76.9635,"temp":40.6,"humidity":19,"rain":0.0,"pressure":970.8,"uv_index":7.65,"wind_gusts":34.6,"aqi":893,"pm10":1493.8,"pm2_5":168.6,"no2":2.4,"co":245.0,"o3":171.0,"so2":10.0,"mosquito_risk":0,"arthritis_risk":5,"migraine_risk":10,"frizz_risk":0,"updated_at":"2026-06-09T15:21:05.200430+05:30"},{"city":"Mathura","state":"Uttar Pradesh","latitude":27.4924,"longitude":77.6737,"temp":40.7,"humidity":21,"rain":0.0,"pressure":977.1,"uv_index":8.1,"wind_gusts":49.0,"aqi":671,"pm10":1914.8,"pm2_5":226.3,"no2":1.6,"co":140.0,"o3":115.0,"so2":3.6,"mosquito_risk":0,"arthritis_risk":5,"migraine_risk":10,"frizz_risk":0,"updated_at":"2026-06-09T15:21:05.200437+05:30"},{"city":"Vrindavan","state":"Uttar Pradesh","latitude":27.5823,"longitude":77.7027,"temp":40.8,"humidity":21,"rain":0.0,"pressure":977.5,"uv_index":8.05,"wind_gusts":48.2,"aqi":671,"pm10":1914.8,"pm2_5":226.3,"no2":1.6,"co":141.0,"o3":115.0,"so2":3.6,"mosquito_risk":0,"arthritis_risk":5,"migraine_risk":10,"frizz_risk":0,"updated_at":"2026-06-09T15:21:05.200444+05:30"},{"city":"Ayodhya","state":"Uttar Pradesh","latitude":26.7922,"longitude":82.1998,"temp":38.8,"humidity":34,"rain":0.0,"pressure":984.7,"uv_index":8.45,"wind_gusts":19.4,"aqi":152,"pm10":161.6,"pm2_5":56.1,"no2":1.8,"co":224.0,"o3":192.0,"so2":8.2,"mosquito_risk":0,"arthritis_risk":5,"migraine_risk":10,"frizz_risk":1,"updated_at":"2026-06-09T15:21:05.200451+05:30"},{"city":"Ratlam","state":"Madhya Pradesh","latitude":23.3315,"longitude":75.0367,"temp":37.3,"humidity":35,"rain":0.0,"pressure":949.5,"uv_index":8.55,"wind_gusts":43.9,"aqi":80,"pm10":50.9,"pm2_5":27.1,"no2":0.5,"co":127.0,"o3":106.0,"so2":3.4,"mosquito_risk":0,"arthritis_risk":5,"migraine_risk":10,"frizz_risk":1,"updated_at":"2026-06-09T15:21:05.200459+05:30"},{"city":"Sagar","state":"Madhya Pradesh","latitude":23.8388,"longitude":78.7378,"temp":38.0,"humidity":32,"rain":0.0,"pressure":944.2,"uv_index":8.05,"wind_gusts":41.4,"aqi":77,"pm10":57.2,"pm2_5":24.2,"no2":0.6,"co":145.0,"o3":120.0,"so2":3.5,"mosquito_risk":0,"arthritis_risk":5,"migraine_risk":10,"frizz_risk":1,"updated_at":"2026-06-09T15:21:05.200466+05:30"},{"city":"Satna","state":"Madhya Pradesh","latitude":24.6005,"longitude":80.8322,"temp":40.0,"humidity":24,"rain":0.0,"pressure":963.3,"uv_index":8.8,"wind_gusts":42.8,"aqi":77,"pm10":65.4,"pm2_5":24.4,"no2":0.7,"co":147.0,"o3":122.0,"so2":3.1,"mosquito_risk":0,"arthritis_risk":5,"migraine_risk":10,"frizz_risk":0,"updated_at":"2026-06-09T15:21:05.200473+05:30"},{"city":"Akola","state":"Maharashtra","latitude":20.7002,"longitude":77.0082,"temp":40.2,"humidity":24,"rain":0.0,"pressure":968.9,"uv_index":8.65,"wind_gusts":42.8,"aqi":78,"pm10":63.1,"pm2_5":26.4,"no2":1.2,"co":129.0,"o3":114.0,"so2":5.7,"mosquito_risk":0,"arthritis_risk":5,"migraine_risk":10,"frizz_risk":0,"updated_at":"2026-06-09T15:21:05.200481+05:30"},{"city":"Amravati","state":"Maharashtra","latitude":20.9374,"longitude":77.7796,"temp":39.1,"humidity":30,"rain":0.0,"pressure":961.5,"uv_index":8.85,"wind_gusts":43.9,"aqi":80,"pm10":61.9,"pm2_5":26.9,"no2":1.4,"co":135.0,"o3":117.0,"so2":6.6,"mosquito_risk":0,"arthritis_risk":5,"migraine_risk":10,"frizz_risk":1,"updated_at":"2026-06-09T15:21:05.200489+05:30"},{"city":"Latur","state":"Maharashtra","latitude":18.4088,"longitude":76.5604,"temp":34.4,"humidity":41,"rain":0.0,"pressure":935.6,"uv_index":8.6,"wind_gusts":39.2,"aqi":72,"pm10":60.1,"pm2_5":24.0,"no2":0.9,"co":128.0,"o3":105.0,"so2":2.8,"mosquito_risk":0,"arthritis_risk":5,"migraine_risk":7,"frizz_risk":1,"updated_at":"2026-06-09T15:21:05.200497+05:30"},{"city":"Nanded","state":"Maharashtra","latitude":19.1383,"longitude":77.3091,"temp":37.7,"humidity":34,"rain":0.0,"pressure":963.2,"uv_index":8.9,"wind_gusts":38.2,"aqi":87,"pm10":71.0,"pm2_5":27.5,"no2":1.0,"co":141.0,"o3":111.0,"so2":2.6,"mosquito_risk":0,"arthritis_risk":5,"migraine_risk":10,"frizz_risk":1,"updated_at":"2026-06-09T15:21:05.200504+05:30"},{"city":"Gulbarga","state":"Karnataka","latitude":17.3297,"longitude":76.8343,"temp":33.1,"humidity":49,"rain":0.0,"pressure":954.3,"uv_index":3.55,"wind_gusts":41.0,"aqi":56,"pm10":37.7,"pm2_5":16.7,"no2":1.4,"co":128.0,"o3":106.0,"so2":2.4,"mosquito_risk":0,"arthritis_risk":5,"migraine_risk":3,"frizz_risk":1,"updated_at":"2026-06-09T15:21:05.200511+05:30"},{"city":"Bidar","state":"Karnataka","latitude":17.9104,"longitude":77.5199,"temp":33.9,"humidity":45,"rain":0.0,"pressure":931.3,"uv_index":4.85,"wind_gusts":50.4,"aqi":74,"pm10":62.4,"pm2_5":28.5,"no2":1.4,"co":136.0,"o3":118.0,"so2":4.5,"mosquito_risk":0,"arthritis_risk":5,"migraine_risk":3,"frizz_risk":1,"updated_at":"2026-06-09T15:21:05.200518+05:30"},{"city":"Hospet","state":"Karnataka","latitude":15.2689,"longitude":76.3909,"temp":30.5,"humidity":54,"rain":0.0,"pressure":953.3,"uv_index":6.6,"wind_gusts":46.8,"aqi":25,"pm10":7.1,"pm2_5":3.9,"no2":2.0,"co":129.0,"o3":69.0,"so2":1.3,"mosquito_risk":0,"arthritis_risk":5,"migraine_risk":7,"frizz_risk":1,"updated_at":"2026-06-09T15:21:05.200525+05:30"},{"city":"Tirupur","state":"Tamil Nadu","latitude":11.1085,"longitude":77.3411,"temp":29.2,"humidity":67,"rain":0.0,"pressure":973.2,"uv_index":5.05,"wind_gusts":55.1,"aqi":26,"pm10":4.1,"pm2_5":3.3,"no2":2.3,"co":130.0,"o3":78.0,"so2":1.9,"mosquito_risk":7,"arthritis_risk":5,"migraine_risk":3,"frizz_risk":1,"updated_at":"2026-06-09T15:21:05.200532+05:30"},{"city":"Alappuzha","state":"Kerala","latitude":9.4981,"longitude":76.3388,"temp":26.5,"humidity":91,"rain":0.2,"pressure":1009.8,"uv_index":8.3,"wind_gusts":49.7,"aqi":33,"pm10":11.8,"pm2_5":6.5,"no2":1.8,"co":86.0,"o3":60.0,"so2":1.3,"mosquito_risk":10,"arthritis_risk":0,"migraine_risk":4,"frizz_risk":1,"updated_at":"2026-06-09T15:21:05.200539+05:30"},{"city":"Munnar","state":"Kerala","latitude":10.0889,"longitude":77.0595,"temp":17.3,"humidity":97,"rain":0.1,"pressure":856.0,"uv_index":2.15,"wind_gusts":52.9,"aqi":22,"pm10":2.8,"pm2_5":2.2,"no2":1.9,"co":99.0,"o3":61.0,"so2":1.2,"mosquito_risk":6,"arthritis_risk":10,"migraine_risk":3,"frizz_risk":1,"updated_at":"2026-06-09T15:21:05.200547+05:30"},{"city":"Silchar","state":"Assam","latitude":24.8333,"longitude":92.7789,"temp":30.2,"humidity":75,"rain":0.1,"pressure":996.8,"uv_index":8.8,"wind_gusts":26.3,"aqi":74,"pm10":34.8,"pm2_5":23.6,"no2":1.3,"co":252.0,"o3":127.0,"so2":4.3,"mosquito_risk":6,"arthritis_risk":5,"migraine_risk":7,"frizz_risk":1,"updated_at":"2026-06-09T15:21:05.200554+05:30"},{"city":"Dibrugarh","state":"Assam","latitude":27.4728,"longitude":94.912,"temp":29.9,"humidity":76,"rain":0.0,"pressure":986.1,"uv_index":5.9,"wind_gusts":23.4,"aqi":91,"pm10":20.5,"pm2_5":17.2,"no2":1.5,"co":246.0,"o3":137.0,"so2":2.1,"mosquito_risk":7,"arthritis_risk":5,"migraine_risk":3,"frizz_risk":1,"updated_at":"2026-06-09T15:21:05.200561+05:30"}]