[{"city":"Delhi","state":"Delhi","latitude":28.6139,"longitude":77.209,"temp":23.7,"humidity":61,"rain":0.0,"pressure":983.4,"uv_index":6.15,"wind_gusts":38.2,"aqi":158,"pm10":407.0,"pm2_5":61.0,"mosquito_risk":3,"arthritis_risk":5,"migraine_risk":7,"frizz_risk":0,"updated_at":"2026-03-15T19:23:53.351045+05:30"},{"city":"Mumbai","state":"Maharashtra","latitude":19.076,"longitude":72.8777,"temp":27.8,"humidity":76,"rain":0.0,"pressure":1010.1,"uv_index":7.7,"wind_gusts":19.8,"aqi":149,"pm10":70.8,"pm2_5":31.2,"mosquito_risk":7,"arthritis_risk":0,"migraine_risk":4,"frizz_risk":1,"updated_at":"2026-03-15T19:23:53.351093+05:30"},{"city":"Bangalore","state":"Karnataka","latitude":12.9716,"longitude":77.5946,"temp":28.1,"humidity":37,"rain":0.0,"pressure":912.4,"uv_index":9.3,"wind_gusts":19.1,"aqi":155,"pm10":30.0,"pm2_5":26.8,"mosquito_risk":4,"arthritis_risk":5,"migraine_risk":7,"frizz_risk":0,"updated_at":"2026-03-15T19:23:53.351107+05:30"},{"city":"Hyderabad","state":"Telangana","latitude":17.385,"longitude":78.4867,"temp":27.0,"humidity":56,"rain":0.0,"pressure":955.3,"uv_index":8.7,"wind_gusts":29.2,"aqi":134,"pm10":50.5,"pm2_5":39.5,"mosquito_risk":4,"arthritis_risk":5,"migraine_risk":7,"frizz_risk":1,"updated_at":"2026-03-15T19:23:53.351117+05:30"},{"city":"Chennai","state":"Tamil Nadu","latitude":13.0827,"longitude":80.2707,"temp":27.5,"humidity":73,"rain":0.0,"pressure":1009.5,"uv_index":9.05,"wind_gusts":32.0,"aqi":47,"pm10":9.3,"pm2_5":6.7,"mosquito_risk":7,"arthritis_risk":0,"migraine_risk":4,"frizz_risk":1,"updated_at":"2026-03-15T19:23:53.351125+05:30"},{"city":"Kolkata","state":"West Bengal","latitude":22.5726,"longitude":88.3639,"temp":26.1,"humidity":82,"rain":0.0,"pressure":1008.9,"uv_index":7.9,"wind_gusts":36.4,"aqi":59,"pm10":21.9,"pm2_5":17.2,"mosquito_risk":7,"arthritis_risk":0,"migraine_risk":4,"frizz_risk":1,"updated_at":"2026-03-15T19:23:53.351133+05:30"},{"city":"Pune","state":"Maharashtra","latitude":18.5204,"longitude":73.8567,"temp":28.1,"humidity":30,"rain":0.0,"pressure":949.8,"uv_index":8.25,"wind_gusts":41.8,"aqi":135,"pm10":34.6,"pm2_5":27.6,"mosquito_risk":4,"arthritis_risk":5,"migraine_risk":7,"frizz_risk":0,"updated_at":"2026-03-15T19:23:53.351142+05:30"},{"city":"Ahmedabad","state":"Gujarat","latitude":23.0225,"longitude":72.5714,"temp":31.8,"humidity":18,"rain":0.0,"pressure":1002.0,"uv_index":7.5,"wind_gusts":27.7,"aqi":68,"pm10":50.6,"pm2_5":17.5,"mosquito_risk":0,"arthritis_risk":5,"migraine_risk":4,"frizz_risk":0,"updated_at":"2026-03-15T19:23:53.351149+05:30"},{"city":"Jaipur","state":"Rajasthan","latitude":26.9124,"longitude":75.7873,"temp":28.9,"humidity":21,"rain":0.0,"pressure":958.8,"uv_index":6.95,"wind_gusts":46.4,"aqi":123,"pm10":225.8,"pm2_5":37.0,"mosquito_risk":4,"arthritis_risk":5,"migraine_risk":7,"frizz_risk":0,"updated_at":"2026-03-15T19:23:53.351156+05:30"},{"city":"Lucknow","state":"Uttar Pradesh","latitude":26.8467,"longitude":80.9462,"temp":22.4,"humidity":65,"rain":0.0,"pressure":996.0,"uv_index":6.5,"wind_gusts":49.0,"aqi":135,"pm10":34.5,"pm2_5":23.2,"mosquito_risk":3,"arthritis_risk":5,"migraine_risk":7,"frizz_risk":0,"updated_at":"2026-03-15T19:23:53.351174+05:30"},{"city":"Kanpur","state":"Uttar Pradesh","latitude":26.4499,"longitude":80.3319,"temp":22.7,"humidity":61,"rain":0.0,"pressure":993.8,"uv_index":6.6,"wind_gusts":41.8,"aqi":148,"pm10":366.9,"pm2_5":56.0,"mosquito_risk":3,"arthritis_risk":5,"migraine_risk":7,"frizz_risk":0,"updated_at":"2026-03-15T19:23:53.351181+05:30"},{"city":"Chandigarh","state":"Chandigarh","latitude":30.7333,"longitude":76.7794,"temp":18.6,"humidity":88,"rain":0.0,"pressure":970.1,"uv_index":6.0,"wind_gusts":38.2,"aqi":82,"pm10":51.7,"pm2_5":22.8,"mosquito_risk":3,"arthritis_risk":10,"migraine_risk":3,"frizz_risk":1,"updated_at":"2026-03-15T19:23:53.351188+05:30"},{"city":"Srinagar","state":"Jammu and Kashmir","latitude":34.0837,"longitude":74.7973,"temp":6.9,"humidity":90,"rain":0.0,"pressure":836.6,"uv_index":4.95,"wind_gusts":27.7,"aqi":98,"pm10":10.7,"pm2_5":9.8,"mosquito_risk":3,"arthritis_risk":10,"migraine_risk":3,"frizz_risk":0,"updated_at":"2026-03-15T19:23:53.351194+05:30"},{"city":"Jammu","state":"Jammu and Kashmir","latitude":32.7266,"longitude":74.857,"temp":16.9,"humidity":93,"rain":0.8,"pressure":973.9,"uv_index":2.9,"wind_gusts":49.0,"aqi":93,"pm10":37.0,"pm2_5":24.8,"mosquito_risk":6,"arthritis_risk":10,"migraine_risk":3,"frizz_risk":0,"updated_at":"2026-03-15T19:23:53.351201+05:30"},{"city":"Amritsar","state":"Punjab","latitude":31.634,"longitude":74.8723,"temp":16.1,"humidity":93,"rain":0.0,"pressure":982.1,"uv_index":3.5,"wind_gusts":34.2,"aqi":119,"pm10":47.4,"pm2_5":27.7,"mosquito_risk":3,"arthritis_risk":10,"migraine_risk":3,"frizz_risk":0,"updated_at":"2026-03-15T19:23:53.351207+05:30"},{"city":"Ludhiana","state":"Punjab","latitude":30.901,"longitude":75.8573,"temp":16.9,"humidity":91,"rain":0.0,"pressure":980.1,"uv_index":5.15,"wind_gusts":33.1,"aqi":125,"pm10":78.7,"pm2_5":32.8,"mosquito_risk":3,"arthritis_risk":10,"migraine_risk":3,"frizz_risk":0,"updated_at":"2026-03-15T19:23:53.351212+05:30"},{"city":"Jalandhar","state":"Punjab","latitude":31.326,"longitude":75.5762,"temp":16.6,"humidity":91,"rain":0.0,"pressure":981.2,"uv_index":5.05,"wind_gusts":31.0,"aqi":118,"pm10":48.1,"pm2_5":26.9,"mosquito_risk":3,"arthritis_risk":10,"migraine_risk":3,"frizz_risk":0,"updated_at":"2026-03-15T19:23:53.351219+05:30"},{"city":"Dehradun","state":"Uttarakhand","latitude":30.6284,"longitude":78.0322,"temp":10.6,"humidity":82,"rain":0.0,"pressure":828.7,"uv_index":5.25,"wind_gusts":34.2,"aqi":66,"pm10":25.4,"pm2_5":11.5,"mosquito_risk":3,"arthritis_risk":10,"migraine_risk":3,"frizz_risk":0,"updated_at":"2026-03-15T19:23:53.351225+05:30"},{"city":"Shimla","state":"Himachal Pradesh","latitude":31.1048,"longitude":77.1734,"temp":8.6,"humidity":76,"rain":0.0,"pressure":781.4,"uv_index":5.95,"wind_gusts":56.2,"aqi":64,"pm10":27.0,"pm2_5":14.9,"mosquito_risk":3,"arthritis_risk":5,"migraine_risk":3,"frizz_risk":0,"updated_at":"2026-03-15T19:23:53.351231+05:30"},{"city":"Manali","state":"Himachal Pradesh","latitude":32.2396,"longitude":77.1887,"temp":10.1,"humidity":95,"rain":0.1,"pressure":814.6,"uv_index":6.9,"wind_gusts":37.8,"aqi":50,"pm10":1.6,"pm2_5":1.2,"mosquito_risk":6,"arthritis_risk":10,"migraine_risk":7,"frizz_risk":0,"updated_at":"2026-03-15T19:23:53.351237+05:30"},{"city":"Gurgaon","state":"Haryana","latitude":28.4595,"longitude":77.0266,"temp":22.3,"humidity":67,"rain":0.0,"pressure":981.6,"uv_index":6.25,"wind_gusts":45.4,"aqi":695,"pm10":2883.4,"pm2_5":300.8,"mosquito_risk":3,"arthritis_risk":5,"migraine_risk":7,"frizz_risk":0,"updated_at":"2026-03-15T19:23:53.351245+05:30"},{"city":"Noida","state":"Uttar Pradesh","latitude":28.5355,"longitude":77.391,"temp":23.7,"humidity":63,"rain":0.0,"pressure":985.0,"uv_index":6.15,"wind_gusts":36.7,"aqi":695,"pm10":2883.4,"pm2_5":300.8,"mosquito_risk":3,"arthritis_risk":5,"migraine_risk":7,"frizz_risk":1,"updated_at":"2026-03-15T19:23:53.351250+05:30"},{"city":"Ghaziabad","state":"Uttar Pradesh","latitude":28.6692,"longitude":77.4538,"temp":22.1,"humidity":70,"rain":0.0,"pressure":983.5,"uv_index":6.15,"wind_gusts":34.9,"aqi":156,"pm10":249.6,"pm2_5":45.6,"mosquito_risk":3,"arthritis_risk":5,"migraine_risk":7,"frizz_risk":1,"updated_at":"2026-03-15T19:23:53.351256+05:30"},{"city":"Faridabad","state":"Haryana","latitude":28.4089,"longitude":77.3178,"temp":22.7,"humidity":65,"rain":0.0,"pressure":984.1,"uv_index":6.2,"wind_gusts":39.6,"aqi":695,"pm10":2883.4,"pm2_5":300.8,"mosquito_risk":3,"arthritis_risk":5,"migraine_risk":7,"frizz_risk":0,"updated_at":"2026-03-15T19:23:53.351262+05:30"},{"city":"Meerut","state":"Uttar Pradesh","latitude":28.9845,"longitude":77.7064,"temp":19.7,"humidity":81,"rain":0.0,"pressure":982.6,"uv_index":6.0,"wind_gusts":27.7,"aqi":156,"pm10":249.6,"pm2_5":45.6,"mosquito_risk":3,"arthritis_risk":10,"migraine_risk":3,"frizz_risk":1,"updated_at":"2026-03-15T19:23:53.351267+05:30"},{"city":"Agra","state":"Uttar Pradesh","latitude":27.1767,"longitude":78.0081,"temp":24.5,"humidity":61,"rain":0.0,"pressure":988.1,"uv_index":6.6,"wind_gusts":36.7,"aqi":558,"pm10":1654.0,"pm2_5":165.3,"mosquito_risk":3,"arthritis_risk":5,"migraine_risk":7,"frizz_risk":1,"updated_at":"2026-03-15T19:23:53.351272+05:30"},{"city":"Varanasi","state":"Uttar Pradesh","latitude":25.3176,"longitude":82.9739,"temp":27.4,"humidity":44,"rain":0.0,"pressure":998.1,"uv_index":7.35,"wind_gusts":32.4,"aqi":149,"pm10":62.9,"pm2_5":44.5,"mosquito_risk":4,"arthritis_risk":5,"migraine_risk":7,"frizz_risk":0,"updated_at":"2026-03-15T19:23:53.351280+05:30"},{"city":"Prayagraj","state":"Uttar Pradesh","latitude":25.4358,"longitude":81.8463,"temp":26.6,"humidity":48,"rain":0.0,"pressure":996.6,"uv_index":7.25,"wind_gusts":42.8,"aqi":133,"pm10":50.1,"pm2_5":35.9,"mosquito_risk":4,"arthritis_risk":5,"migraine_risk":7,"frizz_risk":0,"updated_at":"2026-03-15T19:23:53.351286+05:30"},{"city":"Gorakhpur","state":"Uttar Pradesh","latitude":26.7606,"longitude":83.3732,"temp":21.9,"humidity":63,"rain":0.0,"pressure":999.8,"uv_index":7.1,"wind_gusts":40.3,"aqi":153,"pm10":53.0,"pm2_5":38.5,"mosquito_risk":3,"arthritis_risk":5,"migraine_risk":7,"frizz_risk":0,"updated_at":"2026-03-15T19:23:53.351291+05:30"},{"city":"Bareilly","state":"Uttar Pradesh","latitude":28.367,"longitude":79.4304,"temp":20.6,"humidity":84,"rain":0.0,"pressure":989.0,"uv_index":6.35,"wind_gusts":34.6,"aqi":148,"pm10":61.5,"pm2_5":38.8,"mosquito_risk":3,"arthritis_risk":5,"migraine_risk":7,"frizz_risk":1,"updated_at":"2026-03-15T19:23:53.351296+05:30"},{"city":"Aligarh","state":"Uttar Pradesh","latitude":27.8974,"longitude":78.088,"temp":22.5,"humidity":70,"rain":0.0,"pressure":986.5,"uv_index":6.3,"wind_gusts":40.7,"aqi":173,"pm10":142.0,"pm2_5":43.9,"mosquito_risk":3,"arthritis_risk":5,"migraine_risk":7,"frizz_risk":1,"updated_at":"2026-03-15T19:23:53.351301+05:30"},{"city":"Moradabad","state":"Uttar Pradesh","latitude":28.8386,"longitude":78.7733,"temp":22.2,"humidity":65,"rain":0.0,"pressure":985.5,"uv_index":6.2,"wind_gusts":29.5,"aqi":154,"pm10":60.1,"pm2_5":33.6,"mosquito_risk":3,"arthritis_risk":5,"migraine_risk":7,"frizz_risk":0,"updated_at":"2026-03-15T19:23:53.351307+05:30"},{"city":"Saharanpur","state":"Uttar Pradesh","latitude":29.9637,"longitude":77.546,"temp":18.4,"humidity":87,"rain":0.0,"pressure":977.3,"uv_index":5.8,"wind_gusts":33.5,"aqi":151,"pm10":47.8,"pm2_5":23.6,"mosquito_risk":3,"arthritis_risk":10,"migraine_risk":3,"frizz_risk":1,"updated_at":"2026-03-15T19:23:53.351312+05:30"},{"city":"Jhansi","state":"Uttar Pradesh","latitude":25.4484,"longitude":78.5685,"temp":26.8,"humidity":47,"rain":0.0,"pressure":978.0,"uv_index":7.2,"wind_gusts":31.7,"aqi":85,"pm10":69.6,"pm2_5":23.3,"mosquito_risk":4,"arthritis_risk":5,"migraine_risk":7,"frizz_risk":0,"updated_at":"2026-03-15T19:23:56.619293+05:30"},{"city":"Surat","state":"Gujarat","latitude":21.1702,"longitude":72.8311,"temp":26.9,"humidity":76,"rain":0.0,"pressure":1007.6,"uv_index":7.4,"wind_gusts":25.2,"aqi":134,"pm10":71.0,"pm2_5":46.9,"mosquito_risk":7,"arthritis_risk":5,"migraine_risk":4,"frizz_risk":1,"updated_at":"2026-03-15T19:23:56.619321+05:30"},{"city":"Vadodara","state":"Gujarat","latitude":22.3072,"longitude":73.1812,"temp":32.3,"humidity":31,"rain":0.0,"pressure":1004.2,"uv_index":7.5,"wind_gusts":25.9,"aqi":88,"pm10":56.2,"pm2_5":27.2,"mosquito_risk":0,"arthritis_risk":5,"migraine_risk":4,"frizz_risk":0,"updated_at":"2026-03-15T19:23:56.619330+05:30"},{"city":"Rajkot","state":"Gujarat","latitude":22.3039,"longitude":70.8022,"temp":31.6,"humidity":28,"rain":0.0,"pressure":994.7,"uv_index":7.35,"wind_gusts":31.0,"aqi":68,"pm10":58.9,"pm2_5":18.6,"mosquito_risk":0,"arthritis_risk":5,"migraine_risk":7,"frizz_risk":0,"updated_at":"2026-03-15T19:23:56.619338+05:30"},{"city":"Thane","state":"Maharashtra","latitude":19.2183,"longitude":72.9781,"temp":27.3,"humidity":74,"rain":0.0,"pressure":1009.5,"uv_index":7.7,"wind_gusts":33.8,"aqi":149,"pm10":70.8,"pm2_5":31.2,"mosquito_risk":7,"arthritis_risk":0,"migraine_risk":4,"frizz_risk":1,"updated_at":"2026-03-15T19:23:56.619345+05:30"},{"city":"Nagpur","state":"Maharashtra","latitude":21.1458,"longitude":79.0882,"temp":30.7,"humidity":36,"rain":0.0,"pressure":973.0,"uv_index":8.15,"wind_gusts":22.3,"aqi":162,"pm10":29.8,"pm2_5":27.0,"mosquito_risk":0,"arthritis_risk":5,"migraine_risk":7,"frizz_risk":0,"updated_at":"2026-03-15T19:23:56.619353+05:30"},{"city":"Nashik","state":"Maharashtra","latitude":19.9975,"longitude":73.7898,"temp":25.9,"humidity":39,"rain":0.0,"pressure":946.8,"uv_index":7.9,"wind_gusts":40.7,"aqi":79,"pm10":36.0,"pm2_5":16.6,"mosquito_risk":4,"arthritis_risk":5,"migraine_risk":7,"frizz_risk":0,"updated_at":"2026-03-15T19:23:56.619361+05:30"},{"city":"Aurangabad","state":"Maharashtra","latitude":19.8762,"longitude":75.3433,"temp":29.9,"humidity":28,"rain":0.0,"pressure":944.5,"uv_index":8.4,"wind_gusts":31.0,"aqi":116,"pm10":30.9,"pm2_5":25.0,"mosquito_risk":4,"arthritis_risk":5,"migraine_risk":7,"frizz_risk":0,"updated_at":"2026-03-15T19:23:56.619367+05:30"},{"city":"Solapur","state":"Maharashtra","latitude":17.6599,"longitude":75.9064,"temp":29.3,"humidity":39,"rain":0.0,"pressure":957.2,"uv_index":8.65,"wind_gusts":24.1,"aqi":157,"pm10":42.5,"pm2_5":36.1,"mosquito_risk":4,"arthritis_risk":5,"migraine_risk":7,"frizz_risk":0,"updated_at":"2026-03-15T19:23:56.619374+05:30"},{"city":"Kolhapur","state":"Maharashtra","latitude":16.705,"longitude":74.2433,"temp":26.3,"humidity":58,"rain":0.0,"pressure":949.0,"uv_index":8.7,"wind_gusts":38.9,"aqi":138,"pm10":43.3,"pm2_5":37.6,"mosquito_risk":4,"arthritis_risk":5,"migraine_risk":7,"frizz_risk":1,"updated_at":"2026-03-15T19:23:56.619381+05:30"},{"city":"Goa","state":"Goa","latitude":15.2993,"longitude":74.124,"temp":28.6,"humidity":72,"rain":0.0,"pressure":999.6,"uv_index":8.75,"wind_gusts":32.0,"aqi":121,"pm10":41.7,"pm2_5":33.3,"mosquito_risk":7,"arthritis_risk":5,"migraine_risk":7,"frizz_risk":1,"updated_at":"2026-03-15T19:23:56.619388+05:30"},{"city":"Jodhpur","state":"Rajasthan","latitude":26.2389,"longitude":73.0243,"temp":32.0,"humidity":15,"rain":0.0,"pressure":981.8,"uv_index":7.25,"wind_gusts":27.4,"aqi":115,"pm10":112.0,"pm2_5":21.7,"mosquito_risk":0,"arthritis_risk":5,"migraine_risk":7,"frizz_risk":0,"updated_at":"2026-03-15T19:23:56.619395+05:30"},{"city":"Udaipur","state":"Rajasthan","latitude":24.5854,"longitude":73.7125,"temp":28.1,"humidity":20,"rain":0.0,"pressure":946.6,"uv_index":7.85,"wind_gusts":38.2,"aqi":63,"pm10":39.0,"pm2_5":13.5,"mosquito_risk":4,"arthritis_risk":5,"migraine_risk":7,"frizz_risk":0,"updated_at":"2026-03-15T19:23:56.619401+05:30"},{"city":"Kota","state":"Rajasthan","latitude":25.2138,"longitude":75.8648,"temp":30.8,"humidity":28,"rain":0.0,"pressure":977.5,"uv_index":7.3,"wind_gusts":35.3,"aqi":65,"pm10":37.7,"pm2_5":17.8,"mosquito_risk":0,"arthritis_risk":5,"migraine_risk":7,"frizz_risk":0,"updated_at":"2026-03-15T19:23:56.619408+05:30"},{"city":"Bikaner","state":"Rajasthan","latitude":28.0229,"longitude":73.3119,"temp":30.5,"humidity":16,"rain":0.0,"pressure":981.0,"uv_index":6.9,"wind_gusts":41.4,"aqi":63,"pm10":20.0,"pm2_5":7.5,"mosquito_risk":0,"arthritis_risk":5,"migraine_risk":7,"frizz_risk":0,"updated_at":"2026-03-15T19:23:56.619415+05:30"},{"city":"Ajmer","state":"Rajasthan","latitude":26.4499,"longitude":74.6399,"temp":28.2,"humidity":23,"rain":0.0,"pressure":953.5,"uv_index":7.25,"wind_gusts":37.4,"aqi":75,"pm10":48.2,"pm2_5":18.3,"mosquito_risk":4,"arthritis_risk":5,"migraine_risk":7,"frizz_risk":0,"updated_at":"2026-03-15T19:23:56.619421+05:30"},{"city":"Gwalior","state":"Madhya Pradesh","latitude":26.2183,"longitude":78.1828,"temp":24.9,"humidity":64,"rain":0.0,"pressure":982.9,"uv_index":6.9,"wind_gusts":45.4,"aqi":104,"pm10":62.2,"pm2_5":26.0,"mosquito_risk":3,"arthritis_risk":5,"migraine_risk":7,"frizz_risk":1,"updated_at":"2026-03-15T19:23:56.619428+05:30"},{"city":"Indore","state":"Madhya Pradesh","latitude":22.7196,"longitude":75.8577,"temp":28.0,"humidity":31,"rain":0.0,"pressure":948.4,"uv_index":7.8,"wind_gusts":35.6,"aqi":75,"pm10":37.4,"pm2_5":18.1,"mosquito_risk":4,"arthritis_risk":5,"migraine_risk":7,"frizz_risk":0,"updated_at":"2026-03-15T19:23:56.619435+05:30"},{"city":"Bhopal","state":"Madhya Pradesh","latitude":23.2599,"longitude":77.4126,"temp":28.3,"humidity":33,"rain":0.0,"pressure":953.8,"uv_index":7.7,"wind_gusts":42.8,"aqi":75,"pm10":25.8,"pm2_5":14.5,"mosquito_risk":4,"arthritis_risk":5,"migraine_risk":7,"frizz_risk":0,"updated_at":"2026-03-15T19:23:56.619441+05:30"},{"city":"Jabalpur","state":"Madhya Pradesh","latitude":23.1815,"longitude":79.9864,"temp":27.9,"humidity":39,"rain":0.0,"pressure":961.0,"uv_index":7.8,"wind_gusts":38.2,"aqi":109,"pm10":25.6,"pm2_5":19.7,"mosquito_risk":4,"arthritis_risk":5,"migraine_risk":7,"frizz_risk":0,"updated_at":"2026-03-15T19:23:56.619448+05:30"},{"city":"Ujjain","state":"Madhya Pradesh","latitude":23.1765,"longitude":75.7885,"temp":27.4,"humidity":34,"rain":0.0,"pressure":954.2,"uv_index":7.7,"wind_gusts":34.6,"aqi":66,"pm10":40.4,"pm2_5":20.0,"mosquito_risk":4,"arthritis_risk":5,"migraine_risk":7,"frizz_risk":0,"updated_at":"2026-03-15T19:23:56.619456+05:30"},{"city":"Visakhapatnam","state":"Andhra Pradesh","latitude":17.6868,"longitude":83.2185,"temp":26.3,"humidity":77,"rain":0.0,"pressure":1006.5,"uv_index":8.65,"wind_gusts":40.0,"aqi":64,"pm10":21.0,"pm2_5":16.5,"mosquito_risk":7,"arthritis_risk":5,"migraine_risk":4,"frizz_risk":1,"updated_at":"2026-03-15T19:23:56.619463+05:30"},{"city":"Vijayawada","state":"Andhra Pradesh","latitude":16.5062,"longitude":80.648,"temp":27.6,"humidity":67,"rain":0.0,"pressure":1004.5,"uv_index":8.75,"wind_gusts":29.2,"aqi":58,"pm10":15.3,"pm2_5":12.7,"mosquito_risk":7,"arthritis_risk":5,"migraine_risk":4,"frizz_risk":1,"updated_at":"2026-03-15T19:23:56.619470+05:30"},{"city":"Guntur","state":"Andhra Pradesh","latitude":16.3067,"longitude":80.4365,"temp":26.9,"humidity":72,"rain":0.0,"pressure":1005.8,"uv_index":8.75,"wind_gusts":30.2,"aqi":55,"pm10":15.8,"pm2_5":13.0,"mosquito_risk":7,"arthritis_risk":5,"migraine_risk":4,"frizz_risk":1,"updated_at":"2026-03-15T19:23:56.619477+05:30"},{"city":"Nellore","state":"Andhra Pradesh","latitude":14.4426,"longitude":79.9865,"temp":27.0,"humidity":75,"rain":0.0,"pressure":1007.8,"uv_index":8.95,"wind_gusts":29.9,"aqi":60,"pm10":12.4,"pm2_5":9.8,"mosquito_risk":7,"arthritis_risk":5,"migraine_risk":4,"frizz_risk":1,"updated_at":"2026-03-15T19:23:56.619485+05:30"},{"city":"Kurnool","state":"Andhra Pradesh","latitude":15.8281,"longitude":78.0373,"temp":33.3,"humidity":34,"rain":0.0,"pressure":977.2,"uv_index":8.75,"wind_gusts":20.2,"aqi":141,"pm10":43.0,"pm2_5":33.8,"mosquito_risk":0,"arthritis_risk":5,"migraine_risk":7,"frizz_risk":0,"updated_at":"2026-03-15T19:23:56.619492+05:30"},{"city":"Kakinada","state":"Andhra Pradesh","latitude":16.9891,"longitude":82.2475,"temp":26.2,"humidity":75,"rain":0.0,"pressure":1010.0,"uv_index":8.7,"wind_gusts":31.7,"aqi":58,"pm10":16.5,"pm2_5":11.2,"mosquito_risk":7,"arthritis_risk":0,"migraine_risk":4,"frizz_risk":1,"updated_at":"2026-03-15T19:23:56.619499+05:30"},{"city":"Tirupati","state":"Andhra Pradesh","latitude":13.6288,"longitude":79.4192,"temp":28.7,"humidity":53,"rain":0.0,"pressure":993.1,"uv_index":9.05,"wind_gusts":29.5,"aqi":72,"pm10":16.1,"pm2_5":14.9,"mosquito_risk":4,"arthritis_risk":5,"migraine_risk":7,"frizz_risk":1,"updated_at":"2026-03-15T19:23:56.619505+05:30"},{"city":"Warangal","state":"Telangana","latitude":17.9689,"longitude":79.5941,"temp":29.5,"humidity":52,"rain":0.0,"pressure":980.0,"uv_index":8.55,"wind_gusts":31.7,"aqi":81,"pm10":40.5,"pm2_5":32.9,"mosquito_risk":4,"arthritis_risk":5,"migraine_risk":7,"frizz_risk":1,"updated_at":"2026-03-15T19:23:56.619511+05:30"},{"city":"Nizamabad","state":"Telangana","latitude":18.6725,"longitude":78.0941,"temp":28.7,"humidity":49,"rain":0.0,"pressure":965.3,"uv_index":8.4,"wind_gusts":33.1,"aqi":141,"pm10":65.9,"pm2_5":55.9,"mosquito_risk":4,"arthritis_risk":5,"migraine_risk":7,"frizz_risk":1,"updated_at":"2026-03-15T19:23:56.619518+05:30"},{"city":"Mysore","state":"Karnataka","latitude":12.2958,"longitude":76.6396,"temp":28.5,"humidity":39,"rain":0.0,"pressure":929.1,"uv_index":9.3,"wind_gusts":33.5,"aqi":160,"pm10":32.9,"pm2_5":28.2,"mosquito_risk":4,"arthritis_risk":5,"migraine_risk":7,"frizz_risk":0,"updated_at":"2026-03-15T19:23:56.619525+05:30"},{"city":"Mangalore","state":"Karnataka","latitude":12.9141,"longitude":74.856,"temp":29.1,"humidity":79,"rain":0.0,"pressure":1008.2,"uv_index":8.95,"wind_gusts":27.7,"aqi":92,"pm10":23.7,"pm2_5":19.3,"mosquito_risk":7,"arthritis_risk":0,"migraine_risk":4,"frizz_risk":1,"updated_at":"2026-03-15T19:23:56.619532+05:30"},{"city":"Hubli-Dharwad","state":"Karnataka","latitude":15.3647,"longitude":75.124,"temp":25.0,"humidity":78,"rain":0.0,"pressure":941.9,"uv_index":8.95,"wind_gusts":43.2,"aqi":153,"pm10":45.1,"pm2_5":40.0,"mosquito_risk":7,"arthritis_risk":5,"migraine_risk":7,"frizz_risk":1,"updated_at":"2026-03-15T19:23:56.619539+05:30"},{"city":"Belgaum","state":"Karnataka","latitude":15.8497,"longitude":74.4977,"temp":24.6,"humidity":74,"rain":0.0,"pressure":927.0,"uv_index":9.0,"wind_gusts":40.0,"aqi":145,"pm10":43.4,"pm2_5":38.2,"mosquito_risk":3,"arthritis_risk":5,"migraine_risk":7,"frizz_risk":1,"updated_at":"2026-03-15T19:23:59.891637+05:30"},{"city":"Coimbatore","state":"Tamil Nadu","latitude":11.0168,"longitude":76.9558,"temp":27.9,"humidity":61,"rain":0.0,"pressure":962.8,"uv_index":9.3,"wind_gusts":32.8,"aqi":114,"pm10":18.3,"pm2_5":15.0,"mosquito_risk":7,"arthritis_risk":5,"migraine_risk":7,"frizz_risk":1,"updated_at":"2026-03-15T19:23:59.891664+05:30"},{"city":"Madurai","state":"Tamil Nadu","latitude":9.9252,"longitude":78.1198,"temp":31.3,"humidity":43,"rain":0.0,"pressure":993.6,"uv_index":9.25,"wind_gusts":23.4,"aqi":75,"pm10":10.4,"pm2_5":9.4,"mosquito_risk":0,"arthritis_risk":5,"migraine_risk":7,"frizz_risk":1,"updated_at":"2026-03-15T19:23:59.891673+05:30"},{"city":"Trichy","state":"Tamil Nadu","latitude":10.7905,"longitude":78.7047,"temp":29.9,"humidity":54,"rain":0.0,"pressure":1000.7,"uv_index":9.15,"wind_gusts":20.2,"aqi":55,"pm10":10.9,"pm2_5":10.2,"mosquito_risk":4,"arthritis_risk":5,"migraine_risk":4,"frizz_risk":1,"updated_at":"2026-03-15T19:23:59.891681+05:30"},{"city":"Salem","state":"Tamil Nadu","latitude":11.6643,"longitude":78.146,"temp":30.5,"humidity":45,"rain":0.0,"pressure":978.1,"uv_index":9.2,"wind_gusts":14.8,"aqi":100,"pm10":17.9,"pm2_5":16.1,"mosquito_risk":0,"arthritis_risk":5,"migraine_risk":7,"frizz_risk":1,"updated_at":"2026-03-15T19:23:59.891688+05:30"},{"city":"Tirunelveli","state":"Tamil Nadu","latitude":8.7139,"longitude":77.7567,"temp":29.4,"humidity":63,"rain":0.0,"pressure":1004.3,"uv_index":9.25,"wind_gusts":40.0,"aqi":71,"pm10":8.3,"pm2_5":7.6,"mosquito_risk":7,"arthritis_risk":5,"migraine_risk":4,"frizz_risk":1,"updated_at":"2026-03-15T19:23:59.891695+05:30"},{"city":"Vellore","state":"Tamil Nadu","latitude":12.9165,"longitude":79.1325,"temp":28.1,"humidity":51,"rain":0.0,"pressure":986.2,"uv_index":9.1,"wind_gusts":31.0,"aqi":92,"pm10":17.7,"pm2_5":16.9,"mosquito_risk":4,"arthritis_risk":5,"migraine_risk":7,"frizz_risk":1,"updated_at":"2026-03-15T19:23:59.891702+05:30"},{"city":"Erode","state":"Tamil Nadu","latitude":11.341,"longitude":77.7172,"temp":31.8,"humidity":42,"rain":0.0,"pressure":989.3,"uv_index":9.2,"wind_gusts":20.5,"aqi":75,"pm10":14.3,"pm2_5":12.5,"mosquito_risk":0,"arthritis_risk":5,"migraine_risk":7,"frizz_risk":1,"updated_at":"2026-03-15T19:23:59.891709+05:30"},{"city":"Kochi","state":"Kerala","latitude":9.9312,"longitude":76.2673,"temp":29.0,"humidity":75,"rain":0.0,"pressure":1009.9,"uv_index":9.1,"wind_gusts":34.2,"aqi":108,"pm10":20.1,"pm2_5":18.4,"mosquito_risk":7,"arthritis_risk":0,"migraine_risk":4,"frizz_risk":1,"updated_at":"2026-03-15T19:23:59.891717+05:30"},{"city":"Thiruvananthapuram","state":"Kerala","latitude":8.5241,"longitude":76.9366,"temp":28.7,"humidity":74,"rain":0.0,"pressure":1009.4,"uv_index":9.1,"wind_gusts":27.0,"aqi":90,"pm10":11.2,"pm2_5":8.0,"mosquito_risk":7,"arthritis_risk":0,"migraine_risk":4,"frizz_risk":1,"updated_at":"2026-03-15T19:23:59.891724+05:30"},{"city":"Kozhikode","state":"Kerala","latitude":11.2588,"longitude":75.7804,"temp":29.3,"humidity":74,"rain":0.0,"pressure":1009.1,"uv_index":9.0,"wind_gusts":32.8,"aqi":75,"pm10":20.8,"pm2_5":17.2,"mosquito_risk":7,"arthritis_risk":0,"migraine_risk":4,"frizz_risk":1,"updated_at":"2026-03-15T19:23:59.891730+05:30"},{"city":"Thrissur","state":"Kerala","latitude":10.5276,"longitude":76.2144,"temp":28.5,"humidity":76,"rain":0.0,"pressure":1008.3,"uv_index":9.05,"wind_gusts":40.0,"aqi":98,"pm10":19.8,"pm2_5":18.3,"mosquito_risk":7,"arthritis_risk":0,"migraine_risk":4,"frizz_risk":1,"updated_at":"2026-03-15T19:23:59.891738+05:30"},{"city":"Kannur","state":"Kerala","latitude":11.8745,"longitude":75.3704,"temp":28.6,"humidity":76,"rain":0.0,"pressure":1008.6,"uv_index":8.95,"wind_gusts":33.5,"aqi":88,"pm10":28.1,"pm2_5":23.3,"mosquito_risk":7,"arthritis_risk":0,"migraine_risk":4,"frizz_risk":1,"updated_at":"2026-03-15T19:23:59.891744+05:30"},{"city":"Patna","state":"Bihar","latitude":25.5941,"longitude":85.1376,"temp":27.7,"humidity":57,"rain":0.0,"pressure":1001.6,"uv_index":7.55,"wind_gusts":27.4,"aqi":171,"pm10":71.2,"pm2_5":53.3,"mosquito_risk":4,"arthritis_risk":5,"migraine_risk":4,"frizz_risk":1,"updated_at":"2026-03-15T19:23:59.891751+05:30"},{"city":"Gaya","state":"Bihar","latitude":24.7914,"longitude":85.0002,"temp":25.6,"humidity":66,"rain":0.0,"pressure":994.1,"uv_index":7.65,"wind_gusts":28.8,"aqi":144,"pm10":80.1,"pm2_5":49.2,"mosquito_risk":7,"arthritis_risk":5,"migraine_risk":7,"frizz_risk":1,"updated_at":"2026-03-15T19:23:59.891758+05:30"},{"city":"Muzaffarpur","state":"Bihar","latitude":26.1209,"longitude":85.3647,"temp":24.8,"humidity":69,"rain":0.0,"pressure":1002.0,"uv_index":7.5,"wind_gusts":38.5,"aqi":162,"pm10":77.5,"pm2_5":60.5,"mosquito_risk":3,"arthritis_risk":5,"migraine_risk":4,"frizz_risk":1,"updated_at":"2026-03-15T19:23:59.891764+05:30"},{"city":"Bhagalpur","state":"Bihar","latitude":25.2425,"longitude":87.0117,"temp":27.1,"humidity":72,"rain":0.0,"pressure":1002.3,"uv_index":7.55,"wind_gusts":32.4,"aqi":179,"pm10":76.6,"pm2_5":54.4,"mosquito_risk":7,"arthritis_risk":5,"migraine_risk":4,"frizz_risk":1,"updated_at":"2026-03-15T19:23:59.891771+05:30"},{"city":"Ranchi","state":"Jharkhand","latitude":23.3441,"longitude":85.3096,"temp":23.2,"humidity":70,"rain":0.0,"pressure":938.9,"uv_index":8.3,"wind_gusts":45.7,"aqi":183,"pm10":43.0,"pm2_5":40.4,"mosquito_risk":3,"arthritis_risk":5,"migraine_risk":7,"frizz_risk":1,"updated_at":"2026-03-15T19:23:59.891778+05:30"},{"city":"Jamshedpur","state":"Jharkhand","latitude":22.8046,"longitude":86.2029,"temp":25.7,"humidity":73,"rain":0.0,"pressure":993.0,"uv_index":8.15,"wind_gusts":37.4,"aqi":182,"pm10":50.4,"pm2_5":46.2,"mosquito_risk":7,"arthritis_risk":5,"migraine_risk":7,"frizz_risk":1,"updated_at":"2026-03-15T19:23:59.891785+05:30"},{"city":"Dhanbad","state":"Jharkhand","latitude":23.7957,"longitude":86.4304,"temp":25.9,"humidity":71,"rain":0.0,"pressure":981.2,"uv_index":8.0,"wind_gusts":31.7,"aqi":193,"pm10":63.1,"pm2_5":59.6,"mosquito_risk":7,"arthritis_risk":5,"migraine_risk":7,"frizz_risk":1,"updated_at":"2026-03-15T19:23:59.891791+05:30"},{"city":"Bokaro","state":"Jharkhand","latitude":23.6693,"longitude":86.1511,"temp":26.4,"humidity":69,"rain":0.0,"pressure":985.1,"uv_index":8.0,"wind_gusts":25.9,"aqi":177,"pm10":57.3,"pm2_5":52.4,"mosquito_risk":7,"arthritis_risk":5,"migraine_risk":7,"frizz_risk":1,"updated_at":"2026-03-15T19:23:59.891798+05:30"},{"city":"Bhubaneswar","state":"Odisha","latitude":20.2961,"longitude":85.8245,"temp":26.1,"humidity":80,"rain":0.0,"pressure":1005.9,"uv_index":8.5,"wind_gusts":42.5,"aqi":56,"pm10":19.2,"pm2_5":15.3,"mosquito_risk":7,"arthritis_risk":5,"migraine_risk":4,"frizz_risk":1,"updated_at":"2026-03-15T19:23:59.891805+05:30"},{"city":"Cuttack","state":"Odisha","latitude":20.4625,"longitude":85.8828,"temp":27.0,"humidity":74,"rain":0.0,"pressure":1007.9,"uv_index":8.5,"wind_gusts":37.4,"aqi":56,"pm10":19.2,"pm2_5":15.3,"mosquito_risk":7,"arthritis_risk":5,"migraine_risk":4,"frizz_risk":1,"updated_at":"2026-03-15T19:23:59.891812+05:30"},{"city":"Rourkela","state":"Odisha","latitude":22.2604,"longitude":84.8536,"temp":26.3,"humidity":69,"rain":0.0,"pressure":986.9,"uv_index":8.1,"wind_gusts":55.4,"aqi":201,"pm10":53.3,"pm2_5":49.4,"mosquito_risk":7,"arthritis_risk":5,"migraine_risk":7,"frizz_risk":1,"updated_at":"2026-03-15T19:23:59.891819+05:30"},{"city":"Raipur","state":"Chhattisgarh","latitude":21.2514,"longitude":81.6296,"temp":29.5,"humidity":39,"rain":0.0,"pressure":974.8,"uv_index":8.2,"wind_gusts":35.6,"aqi":151,"pm10":53.6,"pm2_5":48.4,"mosquito_risk":4,"arthritis_risk":5,"migraine_risk":7,"frizz_risk":0,"updated_at":"2026-03-15T19:23:59.891825+05:30"},{"city":"Bhilai","state":"Chhattisgarh","latitude":21.1938,"longitude":81.3509,"temp":29.0,"humidity":40,"rain":0.0,"pressure":975.0,"uv_index":8.2,"wind_gusts":36.7,"aqi":141,"pm10":52.5,"pm2_5":47.3,"mosquito_risk":4,"arthritis_risk":5,"migraine_risk":7,"frizz_risk":0,"updated_at":"2026-03-15T19:23:59.891832+05:30"},{"city":"Guwahati","state":"Assam","latitude":26.1158,"longitude":91.7086,"temp":22.8,"humidity":87,"rain":0.0,"pressure":1004.5,"uv_index":7.4,"wind_gusts":39.6,"aqi":77,"pm10":24.7,"pm2_5":20.4,"mosquito_risk":3,"arthritis_risk":5,"migraine_risk":4,"frizz_risk":1,"updated_at":"2026-03-15T19:23:59.891838+05:30"},{"city":"Agartala","state":"Tripura","latitude":23.8315,"longitude":91.2868,"temp":23.2,"humidity":90,"rain":0.0,"pressure":1009.9,"uv_index":7.75,"wind_gusts":35.3,"aqi":54,"pm10":24.1,"pm2_5":21.4,"mosquito_risk":3,"arthritis_risk":0,"migraine_risk":4,"frizz_risk":1,"updated_at":"2026-03-15T19:23:59.891845+05:30"},{"city":"Shillong","state":"Meghalaya","latitude":25.5788,"longitude":91.8933,"temp":12.8,"humidity":93,"rain":0.0,"pressure":856.9,"uv_index":7.85,"wind_gusts":79.9,"aqi":59,"pm10":19.4,"pm2_5":15.3,"mosquito_risk":3,"arthritis_risk":10,"migraine_risk":7,"frizz_risk":0,"updated_at":"2026-03-15T19:23:59.891852+05:30"},{"city":"Imphal","state":"Manipur","latitude":24.817,"longitude":93.9368,"temp":16.2,"humidity":83,"rain":0.0,"pressure":925.5,"uv_index":8.15,"wind_gusts":70.2,"aqi":86,"pm10":38.3,"pm2_5":31.5,"mosquito_risk":3,"arthritis_risk":10,"migraine_risk":7,"frizz_risk":0,"updated_at":"2026-03-15T19:23:59.891859+05:30"},{"city":"Aizawl","state":"Mizoram","latitude":23.7271,"longitude":92.7176,"temp":16.2,"humidity":87,"rain":0.0,"pressure":894.6,"uv_index":8.1,"wind_gusts":55.8,"aqi":86,"pm10":31.4,"pm2_5":25.7,"mosquito_risk":3,"arthritis_risk":10,"migraine_risk":7,"frizz_risk":0,"updated_at":"2026-03-15T19:23:59.891866+05:30"},{"city":"Kohima","state":"Nagaland","latitude":25.6701,"longitude":94.1077,"temp":14.7,"humidity":71,"rain":0.0,"pressure":856.0,"uv_index":7.8,"wind_gusts":111.2,"aqi":70,"pm10":30.9,"pm2_5":24.1,"mosquito_risk":3,"arthritis_risk":5,"migraine_risk":7,"frizz_risk":0,"updated_at":"2026-03-15T19:23:59.891872+05:30"},{"city":"Gangtok","state":"Sikkim","latitude":27.3314,"longitude":88.6138,"temp":13.4,"humidity":81,"rain":0.0,"pressure":835.9,"uv_index":7.05,"wind_gusts":20.9,"aqi":99,"pm10":54.6,"pm2_5":36.2,"mosquito_risk":3,"arthritis_risk":10,"migraine_risk":7,"frizz_risk":0,"updated_at":"2026-03-15T19:23:59.891879+05:30"},{"city":"Siliguri","state":"West Bengal","latitude":26.7271,"longitude":88.3953,"temp":19.7,"humidity":87,"rain":0.0,"pressure":995.1,"uv_index":7.45,"wind_gusts":32.0,"aqi":124,"pm10":59.3,"pm2_5":43.9,"mosquito_risk":3,"arthritis_risk":10,"migraine_risk":7,"frizz_risk":1,"updated_at":"2026-03-15T19:24:03.164510+05:30"},{"city":"Durgapur","state":"West Bengal","latitude":23.5204,"longitude":87.3119,"temp":24.5,"humidity":82,"rain":0.0,"pressure":997.1,"uv_index":8.05,"wind_gusts":36.4,"aqi":164,"pm10":65.0,"pm2_5":60.1,"mosquito_risk":3,"arthritis_risk":5,"migraine_risk":7,"frizz_risk":1,"updated_at":"2026-03-15T19:24:03.164536+05:30"},{"city":"Asansol","state":"West Bengal","latitude":23.6739,"longitude":86.9524,"temp":25.4,"humidity":79,"rain":0.0,"pressure":995.4,"uv_index":8.05,"wind_gusts":33.5,"aqi":192,"pm10":59.8,"pm2_5":56.0,"mosquito_risk":7,"arthritis_risk":5,"migraine_risk":7,"frizz_risk":1,"updated_at":"2026-03-15T19:24:03.164544+05:30"},{"city":"Pondicherry","state":"Puducherry","latitude":11.9139,"longitude":79.8145,"temp":26.1,"humidity":80,"rain":0.0,"pressure":1010.5,"uv_index":9.0,"wind_gusts":28.1,"aqi":38,"pm10":6.5,"pm2_5":4.5,"mosquito_risk":7,"arthritis_risk":0,"migraine_risk":4,"frizz_risk":1,"updated_at":"2026-03-15T19:24:03.164550+05:30"},{"city":"Port Blair","state":"Andaman and Nicobar Islands","latitude":11.6234,"longitude":92.7265,"temp":27.7,"humidity":79,"rain":0.0,"pressure":1009.7,"uv_index":8.95,"wind_gusts":21.6,"aqi":71,"pm10":14.2,"pm2_5":11.5,"mosquito_risk":7,"arthritis_risk":0,"migraine_risk":4,"frizz_risk":1,"updated_at":"2026-03-15T19:24:03.164556+05:30"},{"city":"Haridwar","state":"Uttarakhand","latitude":29.9457,"longitude":78.1642,"temp":19.3,"humidity":84,"rain":0.0,"pressure":976.4,"uv_index":5.85,"wind_gusts":33.1,"aqi":90,"pm10":40.3,"pm2_5":20.6,"mosquito_risk":3,"arthritis_risk":10,"migraine_risk":3,"frizz_risk":1,"updated_at":"2026-03-15T19:24:03.164562+05:30"},{"city":"Rishikesh","state":"Uttarakhand","latitude":30.0869,"longitude":78.2676,"temp":18.7,"humidity":78,"rain":0.0,"pressure":968.9,"uv_index":5.65,"wind_gusts":36.7,"aqi":68,"pm10":40.4,"pm2_5":18.4,"mosquito_risk":3,"arthritis_risk":5,"migraine_risk":3,"frizz_risk":0,"updated_at":"2026-03-15T19:24:03.164568+05:30"},{"city":"Nainital","state":"Uttarakhand","latitude":29.3919,"longitude":79.4542,"temp":14.1,"humidity":79,"rain":0.0,"pressure":805.6,"uv_index":5.35,"wind_gusts":58.7,"aqi":81,"pm10":42.7,"pm2_5":18.6,"mosquito_risk":3,"arthritis_risk":5,"migraine_risk":3,"frizz_risk":0,"updated_at":"2026-03-15T19:24:03.164574+05:30"},{"city":"Mussoorie","state":"Uttarakhand","latitude":30.4599,"longitude":78.0664,"temp":11.3,"humidity":74,"rain":0.0,"pressure":800.8,"uv_index":5.35,"wind_gusts":46.8,"aqi":78,"pm10":33.8,"pm2_5":17.8,"mosquito_risk":3,"arthritis_risk":5,"migraine_risk":3,"frizz_risk":0,"updated_at":"2026-03-15T19:24:03.164579+05:30"},{"city":"Dharamshala","state":"Himachal Pradesh","latitude":32.219,"longitude":76.3234,"temp":13.7,"humidity":74,"rain":0.0,"pressure":867.1,"uv_index":4.15,"wind_gusts":40.7,"aqi":49,"pm10":8.1,"pm2_5":4.9,"mosquito_risk":3,"arthritis_risk":5,"migraine_risk":3,"frizz_risk":0,"updated_at":"2026-03-15T19:24:03.164585+05:30"},{"city":"Dalhousie","state":"Himachal Pradesh","latitude":32.5387,"longitude":75.971,"temp":10.0,"humidity":85,"rain":0.0,"pressure":800.0,"uv_index":3.65,"wind_gusts":32.8,"aqi":74,"pm10":41.7,"pm2_5":25.0,"mosquito_risk":3,"arthritis_risk":10,"migraine_risk":3,"frizz_risk":0,"updated_at":"2026-03-15T19:24:03.164591+05:30"},{"city":"Patiala","state":"Punjab","latitude":30.3398,"longitude":76.3869,"temp":18.8,"humidity":88,"rain":0.0,"pressure":979.7,"uv_index":5.9,"wind_gusts":33.1,"aqi":126,"pm10":54.4,"pm2_5":28.1,"mosquito_risk":3,"arthritis_risk":10,"migraine_risk":3,"frizz_risk":1,"updated_at":"2026-03-15T19:24:03.164596+05:30"},{"city":"Bhatinda","state":"Punjab","latitude":30.211,"longitude":74.9455,"temp":18.4,"humidity":85,"rain":0.0,"pressure":984.4,"uv_index":6.4,"wind_gusts":46.8,"aqi":99,"pm10":73.3,"pm2_5":32.1,"mosquito_risk":3,"arthritis_risk":10,"migraine_risk":7,"frizz_risk":0,"updated_at":"2026-03-15T19:24:03.164601+05:30"},{"city":"Rohtak","state":"Haryana","latitude":28.8955,"longitude":76.6066,"temp":21.2,"humidity":75,"rain":0.0,"pressure":981.8,"uv_index":6.15,"wind_gusts":39.2,"aqi":181,"pm10":853.1,"pm2_5":100.8,"mosquito_risk":3,"arthritis_risk":5,"migraine_risk":7,"frizz_risk":1,"updated_at":"2026-03-15T19:24:03.164607+05:30"},{"city":"Panipat","state":"Haryana","latitude":29.3909,"longitude":76.9635,"temp":20.5,"humidity":80,"rain":0.0,"pressure":981.3,"uv_index":5.95,"wind_gusts":27.4,"aqi":176,"pm10":466.6,"pm2_5":60.3,"mosquito_risk":3,"arthritis_risk":5,"migraine_risk":3,"frizz_risk":1,"updated_at":"2026-03-15T19:24:03.164612+05:30"},{"city":"Mathura","state":"Uttar Pradesh","latitude":27.4924,"longitude":77.6737,"temp":24.9,"humidity":53,"rain":0.0,"pressure":987.0,"uv_index":6.5,"wind_gusts":37.1,"aqi":350,"pm10":156.5,"pm2_5":38.0,"mosquito_risk":0,"arthritis_risk":5,"migraine_risk":7,"frizz_risk":0,"updated_at":"2026-03-15T19:24:03.164617+05:30"},{"city":"Vrindavan","state":"Uttar Pradesh","latitude":27.5823,"longitude":77.7027,"temp":23.9,"humidity":62,"rain":0.0,"pressure":987.7,"uv_index":6.45,"wind_gusts":38.2,"aqi":350,"pm10":156.5,"pm2_5":38.0,"mosquito_risk":3,"arthritis_risk":5,"migraine_risk":7,"frizz_risk":1,"updated_at":"2026-03-15T19:24:03.164623+05:30"},{"city":"Ayodhya","state":"Uttar Pradesh","latitude":26.7922,"longitude":82.1998,"temp":22.3,"humidity":60,"rain":0.0,"pressure":997.8,"uv_index":6.9,"wind_gusts":47.2,"aqi":123,"pm10":47.7,"pm2_5":32.1,"mosquito_risk":0,"arthritis_risk":5,"migraine_risk":7,"frizz_risk":0,"updated_at":"2026-03-15T19:24:03.164628+05:30"},{"city":"Ratlam","state":"Madhya Pradesh","latitude":23.3315,"longitude":75.0367,"temp":28.8,"humidity":27,"rain":0.0,"pressure":955.1,"uv_index":7.65,"wind_gusts":38.5,"aqi":66,"pm10":36.7,"pm2_5":16.4,"mosquito_risk":4,"arthritis_risk":5,"migraine_risk":7,"frizz_risk":0,"updated_at":"2026-03-15T19:24:03.164633+05:30"},{"city":"Sagar","state":"Madhya Pradesh","latitude":23.8388,"longitude":78.7378,"temp":27.1,"humidity":38,"rain":0.0,"pressure":950.2,"uv_index":7.65,"wind_gusts":36.7,"aqi":73,"pm10":26.4,"pm2_5":14.0,"mosquito_risk":4,"arthritis_risk":5,"migraine_risk":7,"frizz_risk":0,"updated_at":"2026-03-15T19:24:03.164638+05:30"},{"city":"Satna","state":"Madhya Pradesh","latitude":24.6005,"longitude":80.8322,"temp":27.7,"humidity":50,"rain":0.0,"pressure":971.2,"uv_index":7.6,"wind_gusts":51.1,"aqi":113,"pm10":25.6,"pm2_5":15.1,"mosquito_risk":4,"arthritis_risk":5,"migraine_risk":7,"frizz_risk":1,"updated_at":"2026-03-15T19:24:03.164644+05:30"},{"city":"Akola","state":"Maharashtra","latitude":20.7002,"longitude":77.0082,"temp":31.8,"humidity":25,"rain":0.0,"pressure":974.9,"uv_index":8.15,"wind_gusts":29.2,"aqi":124,"pm10":33.1,"pm2_5":28.2,"mosquito_risk":0,"arthritis_risk":5,"migraine_risk":7,"frizz_risk":0,"updated_at":"2026-03-15T19:24:03.164650+05:30"},{"city":"Amravati","state":"Maharashtra","latitude":20.9374,"longitude":77.7796,"temp":30.3,"humidity":33,"rain":0.0,"pressure":967.1,"uv_index":8.1,"wind_gusts":27.7,"aqi":129,"pm10":33.9,"pm2_5":29.2,"mosquito_risk":0,"arthritis_risk":5,"migraine_risk":7,"frizz_risk":0,"updated_at":"2026-03-15T19:24:03.164656+05:30"},{"city":"Latur","state":"Maharashtra","latitude":18.4088,"longitude":76.5604,"temp":28.2,"humidity":34,"rain":0.0,"pressure":940.1,"uv_index":8.55,"wind_gusts":25.6,"aqi":155,"pm10":37.8,"pm2_5":33.4,"mosquito_risk":4,"arthritis_risk":5,"migraine_risk":7,"frizz_risk":0,"updated_at":"2026-03-15T19:24:03.164662+05:30"},{"city":"Nanded","state":"Maharashtra","latitude":19.1383,"longitude":77.3091,"temp":31.4,"humidity":33,"rain":0.0,"pressure":968.7,"uv_index":8.35,"wind_gusts":19.1,"aqi":160,"pm10":46.4,"pm2_5":39.6,"mosquito_risk":0,"arthritis_risk":5,"migraine_risk":7,"frizz_risk":0,"updated_at":"2026-03-15T19:24:03.164667+05:30"},{"city":"Gulbarga","state":"Karnataka","latitude":17.3297,"longitude":76.8343,"temp":28.6,"humidity":49,"rain":0.0,"pressure":958.9,"uv_index":8.6,"wind_gusts":31.0,"aqi":166,"pm10":48.0,"pm2_5":39.7,"mosquito_risk":4,"arthritis_risk":5,"migraine_risk":7,"frizz_risk":1,"updated_at":"2026-03-15T19:24:03.164672+05:30"},{"city":"Bidar","state":"Karnataka","latitude":17.9104,"longitude":77.5199,"temp":26.8,"humidity":54,"rain":0.0,"pressure":936.3,"uv_index":7.65,"wind_gusts":34.9,"aqi":159,"pm10":52.6,"pm2_5":42.7,"mosquito_risk":4,"arthritis_risk":5,"migraine_risk":7,"frizz_risk":1,"updated_at":"2026-03-15T19:24:03.164677+05:30"},{"city":"Hospet","state":"Karnataka","latitude":15.2689,"longitude":76.3909,"temp":30.7,"humidity":44,"rain":0.0,"pressure":956.4,"uv_index":8.9,"wind_gusts":31.3,"aqi":160,"pm10":49.5,"pm2_5":41.6,"mosquito_risk":0,"arthritis_risk":5,"migraine_risk":7,"frizz_risk":1,"updated_at":"2026-03-15T19:24:03.164682+05:30"},{"city":"Tirupur","state":"Tamil Nadu","latitude":11.1085,"longitude":77.3411,"temp":31.6,"humidity":36,"rain":0.0,"pressure":975.8,"uv_index":9.3,"wind_gusts":28.4,"aqi":90,"pm10":17.6,"pm2_5":15.1,"mosquito_risk":0,"arthritis_risk":5,"migraine_risk":7,"frizz_risk":0,"updated_at":"2026-03-15T19:24:03.164688+05:30"},{"city":"Alappuzha","state":"Kerala","latitude":9.4981,"longitude":76.3388,"temp":28.7,"humidity":78,"rain":0.0,"pressure":1010.0,"uv_index":9.05,"wind_gusts":30.2,"aqi":116,"pm10":19.3,"pm2_5":16.4,"mosquito_risk":7,"arthritis_risk":0,"migraine_risk":4,"frizz_risk":1,"updated_at":"2026-03-15T19:24:03.164693+05:30"},{"city":"Munnar","state":"Kerala","latitude":10.0889,"longitude":77.0595,"temp":21.7,"humidity":81,"rain":0.0,"pressure":858.1,"uv_index":9.55,"wind_gusts":34.9,"aqi":76,"pm10":17.4,"pm2_5":15.3,"mosquito_risk":3,"arthritis_risk":5,"migraine_risk":7,"frizz_risk":1,"updated_at":"2026-03-15T19:24:03.164698+05:30"},{"city":"Silchar","state":"Assam","latitude":24.8333,"longitude":92.7789,"temp":21.4,"humidity":89,"rain":0.0,"pressure":1009.4,"uv_index":7.8,"wind_gusts":42.5,"aqi":104,"pm10":32.7,"pm2_5":30.0,"mosquito_risk":3,"arthritis_risk":0,"migraine_risk":4,"frizz_risk":1,"updated_at":"2026-03-15T19:24:03.164704+05:30"},{"city":"Dibrugarh","state":"Assam","latitude":27.4728,"longitude":94.912,"temp":18.7,"humidity":93,"rain":0.7,"pressure":999.2,"uv_index":4.5,"wind_gusts":40.0,"aqi":69,"pm10":33.2,"pm2_5":27.5,"mosquito_risk":6,"arthritis_risk":10,"migraine_risk":3,"frizz_risk":1,"updated_at":"2026-03-15T19:24:03.164709+05:30"}]