[{"city":"Delhi","state":"Delhi","latitude":28.6139,"longitude":77.209,"temp":35.6,"humidity":51,"rain":0.0,"pressure":972.6,"uv_index":7.55,"wind_gusts":29.5,"aqi":536,"pm10":489.9,"pm2_5":103.8,"no2":6.8,"co":273.0,"o3":142.0,"so2":11.9,"mosquito_risk":0,"arthritis_risk":5,"migraine_risk":10,"frizz_risk":1,"updated_at":"2026-07-13T16:00:06.332502+05:30"},{"city":"Mumbai","state":"Maharashtra","latitude":19.076,"longitude":72.8777,"temp":29.2,"humidity":74,"rain":0.0,"pressure":1005.9,"uv_index":6.75,"wind_gusts":50.8,"aqi":53,"pm10":27.6,"pm2_5":15.4,"no2":4.9,"co":148.0,"o3":68.0,"so2":6.3,"mosquito_risk":7,"arthritis_risk":5,"migraine_risk":4,"frizz_risk":1,"updated_at":"2026-07-13T16:00:06.332553+05:30"},{"city":"Bangalore","state":"Karnataka","latitude":12.9716,"longitude":77.5946,"temp":32.2,"humidity":37,"rain":0.0,"pressure":910.2,"uv_index":8.75,"wind_gusts":46.4,"aqi":52,"pm10":39.2,"pm2_5":16.4,"no2":3.9,"co":234.0,"o3":87.0,"so2":2.4,"mosquito_risk":0,"arthritis_risk":5,"migraine_risk":7,"frizz_risk":0,"updated_at":"2026-07-13T16:00:06.332569+05:30"},{"city":"Hyderabad","state":"Telangana","latitude":17.385,"longitude":78.4867,"temp":33.9,"humidity":41,"rain":0.0,"pressure":949.0,"uv_index":9.05,"wind_gusts":47.2,"aqi":59,"pm10":20.7,"pm2_5":11.4,"no2":2.1,"co":193.0,"o3":99.0,"so2":2.8,"mosquito_risk":0,"arthritis_risk":5,"migraine_risk":7,"frizz_risk":1,"updated_at":"2026-07-13T16:00:06.332580+05:30"},{"city":"Chennai","state":"Tamil Nadu","latitude":13.0827,"longitude":80.2707,"temp":35.3,"humidity":47,"rain":0.0,"pressure":1001.2,"uv_index":8.65,"wind_gusts":42.5,"aqi":67,"pm10":55.6,"pm2_5":27.5,"no2":4.4,"co":215.0,"o3":139.0,"so2":6.7,"mosquito_risk":0,"arthritis_risk":5,"migraine_risk":7,"frizz_risk":1,"updated_at":"2026-07-13T16:00:06.332590+05:30"},{"city":"Kolkata","state":"West Bengal","latitude":22.5726,"longitude":88.3639,"temp":29.4,"humidity":89,"rain":0.0,"pressure":996.3,"uv_index":7.4,"wind_gusts":22.7,"aqi":143,"pm10":77.1,"pm2_5":58.2,"no2":13.5,"co":776.0,"o3":114.0,"so2":20.5,"mosquito_risk":7,"arthritis_risk":5,"migraine_risk":7,"frizz_risk":1,"updated_at":"2026-07-13T16:00:06.332599+05:30"},{"city":"Pune","state":"Maharashtra","latitude":18.5204,"longitude":73.8567,"temp":28.4,"humidity":59,"rain":0.0,"pressure":945.7,"uv_index":8.2,"wind_gusts":49.0,"aqi":32,"pm10":20.3,"pm2_5":11.1,"no2":1.8,"co":119.0,"o3":71.0,"so2":3.0,"mosquito_risk":4,"arthritis_risk":5,"migraine_risk":7,"frizz_risk":1,"updated_at":"2026-07-13T16:00:06.332606+05:30"},{"city":"Ahmedabad","state":"Gujarat","latitude":23.0225,"longitude":72.5714,"temp":37.2,"humidity":40,"rain":0.0,"pressure":994.5,"uv_index":8.15,"wind_gusts":50.0,"aqi":62,"pm10":38.4,"pm2_5":17.6,"no2":2.2,"co":124.0,"o3":89.0,"so2":3.3,"mosquito_risk":0,"arthritis_risk":5,"migraine_risk":10,"frizz_risk":1,"updated_at":"2026-07-13T16:00:06.332614+05:30"},{"city":"Jaipur","state":"Rajasthan","latitude":26.9124,"longitude":75.7873,"temp":34.3,"humidity":49,"rain":0.0,"pressure":951.5,"uv_index":8.2,"wind_gusts":32.8,"aqi":318,"pm10":516.0,"pm2_5":87.3,"no2":1.6,"co":139.0,"o3":98.0,"so2":3.2,"mosquito_risk":0,"arthritis_risk":5,"migraine_risk":7,"frizz_risk":1,"updated_at":"2026-07-13T16:00:06.332621+05:30"},{"city":"Lucknow","state":"Uttar Pradesh","latitude":26.8467,"longitude":80.9462,"temp":35.3,"humidity":58,"rain":0.0,"pressure":982.6,"uv_index":8.2,"wind_gusts":37.8,"aqi":126,"pm10":136.4,"pm2_5":49.1,"no2":2.5,"co":166.0,"o3":116.0,"so2":3.8,"mosquito_risk":0,"arthritis_risk":5,"migraine_risk":10,"frizz_risk":1,"updated_at":"2026-07-13T16:00:06.332634+05:30"},{"city":"Kanpur","state":"Uttar Pradesh","latitude":26.4499,"longitude":80.3319,"temp":35.8,"humidity":53,"rain":0.0,"pressure":981.4,"uv_index":8.2,"wind_gusts":39.2,"aqi":114,"pm10":125.7,"pm2_5":43.5,"no2":2.6,"co":139.0,"o3":114.0,"so2":4.4,"mosquito_risk":0,"arthritis_risk":5,"migraine_risk":10,"frizz_risk":1,"updated_at":"2026-07-13T16:00:06.332642+05:30"},{"city":"Chandigarh","state":"Chandigarh","latitude":30.7333,"longitude":76.7794,"temp":33.0,"humidity":62,"rain":0.0,"pressure":958.8,"uv_index":7.7,"wind_gusts":32.8,"aqi":156,"pm10":199.3,"pm2_5":80.1,"no2":2.9,"co":334.0,"o3":181.0,"so2":14.1,"mosquito_risk":3,"arthritis_risk":5,"migraine_risk":7,"frizz_risk":1,"updated_at":"2026-07-13T16:00:06.332650+05:30"},{"city":"Srinagar","state":"Jammu and Kashmir","latitude":34.0837,"longitude":74.7973,"temp":26.6,"humidity":48,"rain":0.0,"pressure":837.2,"uv_index":9.0,"wind_gusts":20.5,"aqi":92,"pm10":20.0,"pm2_5":10.5,"no2":1.7,"co":298.0,"o3":143.0,"so2":1.9,"mosquito_risk":4,"arthritis_risk":5,"migraine_risk":7,"frizz_risk":0,"updated_at":"2026-07-13T16:00:06.332657+05:30"},{"city":"Jammu","state":"Jammu and Kashmir","latitude":32.7266,"longitude":74.857,"temp":32.1,"humidity":61,"rain":0.0,"pressure":963.0,"uv_index":8.55,"wind_gusts":18.4,"aqi":148,"pm10":88.9,"pm2_5":52.3,"no2":4.7,"co":394.0,"o3":171.0,"so2":5.9,"mosquito_risk":3,"arthritis_risk":5,"migraine_risk":7,"frizz_risk":1,"updated_at":"2026-07-13T16:00:06.332664+05:30"},{"city":"Amritsar","state":"Punjab","latitude":31.634,"longitude":74.8723,"temp":32.8,"humidity":64,"rain":0.0,"pressure":970.5,"uv_index":8.4,"wind_gusts":19.8,"aqi":172,"pm10":185.8,"pm2_5":85.0,"no2":4.8,"co":296.0,"o3":183.0,"so2":17.4,"mosquito_risk":3,"arthritis_risk":5,"migraine_risk":7,"frizz_risk":1,"updated_at":"2026-07-13T16:00:06.332671+05:30"},{"city":"Ludhiana","state":"Punjab","latitude":30.901,"longitude":75.8573,"temp":33.5,"humidity":64,"rain":0.0,"pressure":968.3,"uv_index":7.9,"wind_gusts":27.7,"aqi":164,"pm10":186.7,"pm2_5":75.9,"no2":2.6,"co":343.0,"o3":143.0,"so2":4.6,"mosquito_risk":3,"arthritis_risk":5,"migraine_risk":7,"frizz_risk":1,"updated_at":"2026-07-13T16:00:06.332680+05:30"},{"city":"Jalandhar","state":"Punjab","latitude":31.326,"longitude":75.5762,"temp":33.3,"humidity":65,"rain":0.0,"pressure":969.4,"uv_index":8.15,"wind_gusts":24.1,"aqi":164,"pm10":180.2,"pm2_5":80.1,"no2":3.5,"co":377.0,"o3":150.0,"so2":7.1,"mosquito_risk":3,"arthritis_risk":5,"migraine_risk":7,"frizz_risk":1,"updated_at":"2026-07-13T16:00:06.332687+05:30"},{"city":"Dehradun","state":"Uttarakhand","latitude":30.6284,"longitude":78.0322,"temp":23.7,"humidity":77,"rain":0.1,"pressure":825.9,"uv_index":8.15,"wind_gusts":31.3,"aqi":93,"pm10":94.5,"pm2_5":38.8,"no2":1.8,"co":200.0,"o3":145.0,"so2":4.0,"mosquito_risk":6,"arthritis_risk":5,"migraine_risk":7,"frizz_risk":1,"updated_at":"2026-07-13T16:00:06.332695+05:30"},{"city":"Shimla","state":"Himachal Pradesh","latitude":31.1048,"longitude":77.1734,"temp":21.9,"humidity":63,"rain":0.1,"pressure":781.6,"uv_index":8.25,"wind_gusts":36.4,"aqi":99,"pm10":101.5,"pm2_5":43.0,"no2":1.1,"co":148.0,"o3":155.0,"so2":7.7,"mosquito_risk":6,"arthritis_risk":5,"migraine_risk":7,"frizz_risk":0,"updated_at":"2026-07-13T16:00:06.332701+05:30"},{"city":"Manali","state":"Himachal Pradesh","latitude":32.2396,"longitude":77.1887,"temp":24.7,"humidity":49,"rain":0.0,"pressure":815.6,"uv_index":9.55,"wind_gusts":34.2,"aqi":82,"pm10":20.4,"pm2_5":9.7,"no2":2.1,"co":166.0,"o3":151.0,"so2":1.1,"mosquito_risk":0,"arthritis_risk":5,"migraine_risk":7,"frizz_risk":0,"updated_at":"2026-07-13T16:00:06.332711+05:30"},{"city":"Gurgaon","state":"Haryana","latitude":28.4595,"longitude":77.0266,"temp":35.6,"humidity":50,"rain":0.0,"pressure":971.2,"uv_index":7.7,"wind_gusts":33.5,"aqi":561,"pm10":497.3,"pm2_5":100.1,"no2":7.0,"co":217.0,"o3":131.0,"so2":8.1,"mosquito_risk":0,"arthritis_risk":5,"migraine_risk":10,"frizz_risk":1,"updated_at":"2026-07-13T16:00:06.332720+05:30"},{"city":"Noida","state":"Uttar Pradesh","latitude":28.5355,"longitude":77.391,"temp":35.8,"humidity":51,"rain":0.0,"pressure":974.0,"uv_index":7.7,"wind_gusts":28.4,"aqi":561,"pm10":497.3,"pm2_5":100.1,"no2":7.0,"co":311.0,"o3":131.0,"so2":8.1,"mosquito_risk":0,"arthritis_risk":5,"migraine_risk":10,"frizz_risk":1,"updated_at":"2026-07-13T16:00:06.332728+05:30"},{"city":"Ghaziabad","state":"Uttar Pradesh","latitude":28.6692,"longitude":77.4538,"temp":35.5,"humidity":53,"rain":0.0,"pressure":972.2,"uv_index":7.6,"wind_gusts":26.3,"aqi":459,"pm10":407.9,"pm2_5":99.2,"no2":4.8,"co":203.0,"o3":163.0,"so2":14.8,"mosquito_risk":0,"arthritis_risk":5,"migraine_risk":10,"frizz_risk":1,"updated_at":"2026-07-13T16:00:06.332735+05:30"},{"city":"Faridabad","state":"Haryana","latitude":28.4089,"longitude":77.3178,"temp":35.6,"humidity":51,"rain":0.0,"pressure":973.3,"uv_index":7.7,"wind_gusts":32.0,"aqi":561,"pm10":497.3,"pm2_5":100.1,"no2":7.0,"co":207.0,"o3":131.0,"so2":8.1,"mosquito_risk":0,"arthritis_risk":5,"migraine_risk":10,"frizz_risk":1,"updated_at":"2026-07-13T16:00:06.332743+05:30"},{"city":"Meerut","state":"Uttar Pradesh","latitude":28.9845,"longitude":77.7064,"temp":34.9,"humidity":56,"rain":0.0,"pressure":971.0,"uv_index":7.6,"wind_gusts":31.0,"aqi":459,"pm10":407.9,"pm2_5":99.2,"no2":4.8,"co":179.0,"o3":163.0,"so2":14.8,"mosquito_risk":0,"arthritis_risk":5,"migraine_risk":7,"frizz_risk":1,"updated_at":"2026-07-13T16:00:06.332750+05:30"},{"city":"Agra","state":"Uttar Pradesh","latitude":27.1767,"longitude":78.0081,"temp":35.2,"humidity":53,"rain":0.0,"pressure":977.9,"uv_index":7.5,"wind_gusts":39.6,"aqi":132,"pm10":176.0,"pm2_5":49.7,"no2":2.8,"co":143.0,"o3":118.0,"so2":3.4,"mosquito_risk":0,"arthritis_risk":5,"migraine_risk":10,"frizz_risk":1,"updated_at":"2026-07-13T16:00:06.332758+05:30"},{"city":"Varanasi","state":"Uttar Pradesh","latitude":25.3176,"longitude":82.9739,"temp":33.7,"humidity":64,"rain":0.0,"pressure":987.4,"uv_index":4.7,"wind_gusts":33.5,"aqi":108,"pm10":104.3,"pm2_5":47.3,"no2":6.5,"co":234.0,"o3":108.0,"so2":9.1,"mosquito_risk":3,"arthritis_risk":5,"migraine_risk":3,"frizz_risk":1,"updated_at":"2026-07-13T16:00:06.332766+05:30"},{"city":"Prayagraj","state":"Uttar Pradesh","latitude":25.4358,"longitude":81.8463,"temp":33.5,"humidity":65,"rain":0.0,"pressure":986.1,"uv_index":6.0,"wind_gusts":37.4,"aqi":104,"pm10":101.0,"pm2_5":44.0,"no2":4.6,"co":157.0,"o3":109.0,"so2":7.6,"mosquito_risk":3,"arthritis_risk":5,"migraine_risk":3,"frizz_risk":1,"updated_at":"2026-07-13T16:00:06.332774+05:30"},{"city":"Gorakhpur","state":"Uttar Pradesh","latitude":26.7606,"longitude":83.3732,"temp":31.1,"humidity":77,"rain":0.1,"pressure":986.5,"uv_index":4.7,"wind_gusts":32.0,"aqi":141,"pm10":217.0,"pm2_5":80.6,"no2":5.5,"co":222.0,"o3":132.0,"so2":8.3,"mosquito_risk":6,"arthritis_risk":5,"migraine_risk":3,"frizz_risk":1,"updated_at":"2026-07-13T16:00:06.332781+05:30"},{"city":"Bareilly","state":"Uttar Pradesh","latitude":28.367,"longitude":79.4304,"temp":35.2,"humidity":58,"rain":0.0,"pressure":975.6,"uv_index":8.0,"wind_gusts":36.0,"aqi":177,"pm10":192.8,"pm2_5":73.1,"no2":2.6,"co":197.0,"o3":134.0,"so2":6.6,"mosquito_risk":0,"arthritis_risk":5,"migraine_risk":10,"frizz_risk":1,"updated_at":"2026-07-13T16:00:06.332795+05:30"},{"city":"Aligarh","state":"Uttar Pradesh","latitude":27.8974,"longitude":78.088,"temp":34.9,"humidity":55,"rain":0.0,"pressure":975.4,"uv_index":7.65,"wind_gusts":35.3,"aqi":513,"pm10":489.9,"pm2_5":95.7,"no2":3.3,"co":144.0,"o3":127.0,"so2":5.9,"mosquito_risk":0,"arthritis_risk":5,"migraine_risk":7,"frizz_risk":1,"updated_at":"2026-07-13T16:00:06.332802+05:30"},{"city":"Moradabad","state":"Uttar Pradesh","latitude":28.8386,"longitude":78.7733,"temp":34.9,"humidity":59,"rain":0.0,"pressure":972.8,"uv_index":7.85,"wind_gusts":34.9,"aqi":283,"pm10":197.0,"pm2_5":73.1,"no2":2.7,"co":236.0,"o3":134.0,"so2":6.8,"mosquito_risk":0,"arthritis_risk":5,"migraine_risk":7,"frizz_risk":1,"updated_at":"2026-07-13T16:00:06.332809+05:30"},{"city":"Saharanpur","state":"Uttar Pradesh","latitude":29.9637,"longitude":77.546,"temp":34.1,"humidity":61,"rain":0.0,"pressure":965.2,"uv_index":7.35,"wind_gusts":30.2,"aqi":179,"pm10":252.4,"pm2_5":91.0,"no2":3.2,"co":248.0,"o3":152.0,"so2":11.8,"mosquito_risk":3,"arthritis_risk":5,"migraine_risk":7,"frizz_risk":1,"updated_at":"2026-07-13T16:00:06.332816+05:30"},{"city":"Jhansi","state":"Uttar Pradesh","latitude":25.4484,"longitude":78.5685,"temp":33.1,"humidity":60,"rain":0.1,"pressure":969.3,"uv_index":8.0,"wind_gusts":40.0,"aqi":93,"pm10":97.8,"pm2_5":35.9,"no2":2.3,"co":119.0,"o3":100.0,"so2":7.7,"mosquito_risk":3,"arthritis_risk":5,"migraine_risk":7,"frizz_risk":1,"updated_at":"2026-07-13T16:00:09.696675+05:30"},{"city":"Surat","state":"Gujarat","latitude":21.1702,"longitude":72.8311,"temp":30.5,"humidity":70,"rain":0.0,"pressure":1002.1,"uv_index":7.35,"wind_gusts":62.3,"aqi":57,"pm10":28.4,"pm2_5":17.7,"no2":7.0,"co":175.0,"o3":51.0,"so2":20.8,"mosquito_risk":3,"arthritis_risk":5,"migraine_risk":4,"frizz_risk":1,"updated_at":"2026-07-13T16:00:09.696716+05:30"},{"city":"Vadodara","state":"Gujarat","latitude":22.3072,"longitude":73.1812,"temp":32.8,"humidity":60,"rain":0.0,"pressure":998.1,"uv_index":8.0,"wind_gusts":54.4,"aqi":55,"pm10":29.7,"pm2_5":16.0,"no2":2.2,"co":121.0,"o3":85.0,"so2":3.9,"mosquito_risk":0,"arthritis_risk":5,"migraine_risk":7,"frizz_risk":1,"updated_at":"2026-07-13T16:00:09.696726+05:30"},{"city":"Rajkot","state":"Gujarat","latitude":22.3039,"longitude":70.8022,"temp":34.2,"humidity":48,"rain":0.0,"pressure":987.9,"uv_index":7.4,"wind_gusts":56.9,"aqi":54,"pm10":38.2,"pm2_5":16.9,"no2":1.1,"co":95.0,"o3":71.0,"so2":2.7,"mosquito_risk":0,"arthritis_risk":5,"migraine_risk":7,"frizz_risk":1,"updated_at":"2026-07-13T16:00:09.696735+05:30"},{"city":"Thane","state":"Maharashtra","latitude":19.2183,"longitude":72.9781,"temp":30.0,"humidity":69,"rain":0.0,"pressure":1005.1,"uv_index":7.8,"wind_gusts":45.0,"aqi":53,"pm10":27.6,"pm2_5":15.4,"no2":4.9,"co":142.0,"o3":68.0,"so2":6.3,"mosquito_risk":7,"arthritis_risk":5,"migraine_risk":4,"frizz_risk":1,"updated_at":"2026-07-13T16:00:09.696744+05:30"},{"city":"Nagpur","state":"Maharashtra","latitude":21.1458,"longitude":79.0882,"temp":34.0,"humidity":45,"rain":0.0,"pressure":967.0,"uv_index":7.4,"wind_gusts":40.0,"aqi":84,"pm10":103.6,"pm2_5":32.8,"no2":5.7,"co":138.0,"o3":89.0,"so2":14.5,"mosquito_risk":0,"arthritis_risk":5,"migraine_risk":7,"frizz_risk":1,"updated_at":"2026-07-13T16:00:09.696751+05:30"},{"city":"Nashik","state":"Maharashtra","latitude":19.9975,"longitude":73.7898,"temp":28.3,"humidity":64,"rain":0.0,"pressure":942.1,"uv_index":8.15,"wind_gusts":59.8,"aqi":35,"pm10":22.8,"pm2_5":12.8,"no2":1.4,"co":106.0,"o3":71.0,"so2":2.6,"mosquito_risk":7,"arthritis_risk":5,"migraine_risk":7,"frizz_risk":1,"updated_at":"2026-07-13T16:00:09.696759+05:30"},{"city":"Aurangabad","state":"Maharashtra","latitude":19.8762,"longitude":75.3433,"temp":31.1,"humidity":51,"rain":0.0,"pressure":940.3,"uv_index":8.85,"wind_gusts":52.9,"aqi":49,"pm10":23.6,"pm2_5":13.7,"no2":1.5,"co":123.0,"o3":100.0,"so2":5.3,"mosquito_risk":0,"arthritis_risk":5,"migraine_risk":7,"frizz_risk":1,"updated_at":"2026-07-13T16:00:09.696766+05:30"},{"city":"Solapur","state":"Maharashtra","latitude":17.6599,"longitude":75.9064,"temp":33.2,"humidity":45,"rain":0.0,"pressure":953.6,"uv_index":8.9,"wind_gusts":46.1,"aqi":47,"pm10":15.6,"pm2_5":9.3,"no2":1.0,"co":118.0,"o3":85.0,"so2":1.5,"mosquito_risk":0,"arthritis_risk":5,"migraine_risk":7,"frizz_risk":1,"updated_at":"2026-07-13T16:00:09.696774+05:30"},{"city":"Kolhapur","state":"Maharashtra","latitude":16.705,"longitude":74.2433,"temp":27.6,"humidity":66,"rain":0.0,"pressure":946.6,"uv_index":8.9,"wind_gusts":49.0,"aqi":34,"pm10":16.2,"pm2_5":9.3,"no2":1.5,"co":113.0,"o3":65.0,"so2":1.6,"mosquito_risk":7,"arthritis_risk":5,"migraine_risk":7,"frizz_risk":1,"updated_at":"2026-07-13T16:00:09.696781+05:30"},{"city":"Goa","state":"Goa","latitude":15.2993,"longitude":74.124,"temp":30.1,"humidity":68,"rain":0.1,"pressure":997.3,"uv_index":6.95,"wind_gusts":37.1,"aqi":51,"pm10":22.2,"pm2_5":11.6,"no2":0.8,"co":98.0,"o3":55.0,"so2":1.2,"mosquito_risk":6,"arthritis_risk":5,"migraine_risk":7,"frizz_risk":1,"updated_at":"2026-07-13T16:00:09.696788+05:30"},{"city":"Jodhpur","state":"Rajasthan","latitude":26.2389,"longitude":73.0243,"temp":36.6,"humidity":41,"rain":0.0,"pressure":973.6,"uv_index":8.45,"wind_gusts":47.9,"aqi":167,"pm10":378.1,"pm2_5":67.8,"no2":0.8,"co":105.0,"o3":84.0,"so2":1.8,"mosquito_risk":0,"arthritis_risk":5,"migraine_risk":10,"frizz_risk":1,"updated_at":"2026-07-13T16:00:09.696795+05:30"},{"city":"Udaipur","state":"Rajasthan","latitude":24.5854,"longitude":73.7125,"temp":31.3,"humidity":54,"rain":0.0,"pressure":939.7,"uv_index":7.95,"wind_gusts":47.5,"aqi":72,"pm10":74.3,"pm2_5":24.9,"no2":1.0,"co":110.0,"o3":82.0,"so2":2.5,"mosquito_risk":0,"arthritis_risk":5,"migraine_risk":7,"frizz_risk":1,"updated_at":"2026-07-13T16:00:09.696802+05:30"},{"city":"Kota","state":"Rajasthan","latitude":25.2138,"longitude":75.8648,"temp":35.3,"humidity":43,"rain":0.0,"pressure":970.5,"uv_index":8.3,"wind_gusts":38.5,"aqi":90,"pm10":197.4,"pm2_5":49.8,"no2":1.9,"co":134.0,"o3":97.0,"so2":4.8,"mosquito_risk":0,"arthritis_risk":5,"migraine_risk":10,"frizz_risk":1,"updated_at":"2026-07-13T16:00:09.696809+05:30"},{"city":"Bikaner","state":"Rajasthan","latitude":28.0229,"longitude":73.3119,"temp":39.0,"humidity":35,"rain":0.0,"pressure":971.2,"uv_index":8.45,"wind_gusts":36.0,"aqi":162,"pm10":331.6,"pm2_5":74.5,"no2":0.4,"co":106.0,"o3":85.0,"so2":3.3,"mosquito_risk":0,"arthritis_risk":5,"migraine_risk":10,"frizz_risk":1,"updated_at":"2026-07-13T16:00:09.696816+05:30"},{"city":"Ajmer","state":"Rajasthan","latitude":26.4499,"longitude":74.6399,"temp":32.8,"humidity":51,"rain":0.0,"pressure":946.7,"uv_index":8.35,"wind_gusts":47.9,"aqi":94,"pm10":244.9,"pm2_5":58.3,"no2":1.3,"co":119.0,"o3":90.0,"so2":2.7,"mosquito_risk":0,"arthritis_risk":5,"migraine_risk":7,"frizz_risk":1,"updated_at":"2026-07-13T16:00:09.696823+05:30"},{"city":"Gwalior","state":"Madhya Pradesh","latitude":26.2183,"longitude":78.1828,"temp":32.0,"humidity":67,"rain":0.1,"pressure":974.2,"uv_index":8.2,"wind_gusts":43.2,"aqi":93,"pm10":107.6,"pm2_5":38.0,"no2":1.5,"co":126.0,"o3":98.0,"so2":3.2,"mosquito_risk":6,"arthritis_risk":5,"migraine_risk":7,"frizz_risk":1,"updated_at":"2026-07-13T16:00:09.696831+05:30"},{"city":"Indore","state":"Madhya Pradesh","latitude":22.7196,"longitude":75.8577,"temp":31.7,"humidity":50,"rain":0.0,"pressure":942.6,"uv_index":8.2,"wind_gusts":52.6,"aqi":67,"pm10":64.7,"pm2_5":26.0,"no2":2.6,"co":158.0,"o3":87.0,"so2":4.5,"mosquito_risk":0,"arthritis_risk":5,"migraine_risk":7,"frizz_risk":1,"updated_at":"2026-07-13T16:00:09.696838+05:30"},{"city":"Bhopal","state":"Madhya Pradesh","latitude":23.2599,"longitude":77.4126,"temp":31.8,"humidity":52,"rain":0.0,"pressure":947.3,"uv_index":7.9,"wind_gusts":42.5,"aqi":77,"pm10":94.1,"pm2_5":30.3,"no2":1.7,"co":159.0,"o3":89.0,"so2":3.7,"mosquito_risk":0,"arthritis_risk":5,"migraine_risk":7,"frizz_risk":1,"updated_at":"2026-07-13T16:00:09.696845+05:30"},{"city":"Jabalpur","state":"Madhya Pradesh","latitude":23.1815,"longitude":79.9864,"temp":31.9,"humidity":60,"rain":0.0,"pressure":954.5,"uv_index":6.75,"wind_gusts":38.2,"aqi":87,"pm10":96.2,"pm2_5":32.2,"no2":1.9,"co":138.0,"o3":89.0,"so2":3.8,"mosquito_risk":0,"arthritis_risk":5,"migraine_risk":7,"frizz_risk":1,"updated_at":"2026-07-13T16:00:09.696853+05:30"},{"city":"Ujjain","state":"Madhya Pradesh","latitude":23.1765,"longitude":75.7885,"temp":31.5,"humidity":52,"rain":0.0,"pressure":948.1,"uv_index":8.5,"wind_gusts":52.9,"aqi":66,"pm10":63.3,"pm2_5":25.2,"no2":1.6,"co":139.0,"o3":85.0,"so2":3.7,"mosquito_risk":0,"arthritis_risk":5,"migraine_risk":7,"frizz_risk":1,"updated_at":"2026-07-13T16:00:09.696860+05:30"},{"city":"Visakhapatnam","state":"Andhra Pradesh","latitude":17.6868,"longitude":83.2185,"temp":35.2,"humidity":55,"rain":0.0,"pressure":994.9,"uv_index":8.1,"wind_gusts":32.8,"aqi":101,"pm10":76.8,"pm2_5":42.8,"no2":9.7,"co":338.0,"o3":157.0,"so2":31.3,"mosquito_risk":0,"arthritis_risk":5,"migraine_risk":10,"frizz_risk":1,"updated_at":"2026-07-13T16:00:09.696867+05:30"},{"city":"Vijayawada","state":"Andhra Pradesh","latitude":16.5062,"longitude":80.648,"temp":36.4,"humidity":40,"rain":0.0,"pressure":996.0,"uv_index":8.8,"wind_gusts":50.8,"aqi":82,"pm10":53.7,"pm2_5":22.4,"no2":2.8,"co":136.0,"o3":91.0,"so2":4.0,"mosquito_risk":0,"arthritis_risk":5,"migraine_risk":10,"frizz_risk":1,"updated_at":"2026-07-13T16:00:09.696874+05:30"},{"city":"Guntur","state":"Andhra Pradesh","latitude":16.3067,"longitude":80.4365,"temp":37.5,"humidity":35,"rain":0.0,"pressure":997.0,"uv_index":8.75,"wind_gusts":49.7,"aqi":80,"pm10":49.5,"pm2_5":20.4,"no2":2.2,"co":127.0,"o3":92.0,"so2":3.3,"mosquito_risk":0,"arthritis_risk":5,"migraine_risk":10,"frizz_risk":1,"updated_at":"2026-07-13T16:00:09.696881+05:30"},{"city":"Nellore","state":"Andhra Pradesh","latitude":14.4426,"longitude":79.9865,"temp":38.9,"humidity":28,"rain":0.0,"pressure":999.2,"uv_index":8.75,"wind_gusts":51.1,"aqi":66,"pm10":60.3,"pm2_5":24.6,"no2":2.8,"co":111.0,"o3":110.0,"so2":4.4,"mosquito_risk":0,"arthritis_risk":5,"migraine_risk":10,"frizz_risk":1,"updated_at":"2026-07-13T16:00:09.696888+05:30"},{"city":"Kurnool","state":"Andhra Pradesh","latitude":15.8281,"longitude":78.0373,"temp":36.7,"humidity":32,"rain":0.0,"pressure":972.3,"uv_index":8.85,"wind_gusts":48.2,"aqi":55,"pm10":26.6,"pm2_5":13.7,"no2":1.2,"co":119.0,"o3":105.0,"so2":5.2,"mosquito_risk":0,"arthritis_risk":5,"migraine_risk":10,"frizz_risk":1,"updated_at":"2026-07-13T16:00:09.696922+05:30"},{"city":"Kakinada","state":"Andhra Pradesh","latitude":16.9891,"longitude":82.2475,"temp":34.6,"humidity":51,"rain":0.0,"pressure":999.7,"uv_index":7.25,"wind_gusts":40.0,"aqi":80,"pm10":51.5,"pm2_5":24.6,"no2":2.8,"co":148.0,"o3":124.0,"so2":5.0,"mosquito_risk":0,"arthritis_risk":5,"migraine_risk":7,"frizz_risk":1,"updated_at":"2026-07-13T16:00:09.696930+05:30"},{"city":"Tirupati","state":"Andhra Pradesh","latitude":13.6288,"longitude":79.4192,"temp":38.3,"humidity":26,"rain":0.0,"pressure":985.5,"uv_index":8.65,"wind_gusts":44.3,"aqi":80,"pm10":62.6,"pm2_5":21.7,"no2":2.4,"co":105.0,"o3":90.0,"so2":1.7,"mosquito_risk":0,"arthritis_risk":5,"migraine_risk":10,"frizz_risk":0,"updated_at":"2026-07-13T16:00:09.696937+05:30"},{"city":"Warangal","state":"Telangana","latitude":17.9689,"longitude":79.5941,"temp":33.4,"humidity":48,"rain":0.0,"pressure":973.3,"uv_index":8.6,"wind_gusts":44.3,"aqi":79,"pm10":45.1,"pm2_5":18.5,"no2":1.8,"co":134.0,"o3":92.0,"so2":2.9,"mosquito_risk":0,"arthritis_risk":5,"migraine_risk":7,"frizz_risk":1,"updated_at":"2026-07-13T16:00:09.696947+05:30"},{"city":"Nizamabad","state":"Telangana","latitude":18.6725,"longitude":78.0941,"temp":32.8,"humidity":48,"rain":0.0,"pressure":960.3,"uv_index":8.85,"wind_gusts":46.1,"aqi":64,"pm10":22.6,"pm2_5":12.5,"no2":1.4,"co":125.0,"o3":98.0,"so2":4.3,"mosquito_risk":0,"arthritis_risk":5,"migraine_risk":7,"frizz_risk":1,"updated_at":"2026-07-13T16:00:09.696955+05:30"},{"city":"Mysore","state":"Karnataka","latitude":12.2958,"longitude":76.6396,"temp":30.8,"humidity":44,"rain":0.0,"pressure":927.0,"uv_index":8.6,"wind_gusts":44.3,"aqi":43,"pm10":30.9,"pm2_5":12.8,"no2":2.1,"co":123.0,"o3":83.0,"so2":1.5,"mosquito_risk":0,"arthritis_risk":5,"migraine_risk":7,"frizz_risk":1,"updated_at":"2026-07-13T16:00:09.696963+05:30"},{"city":"Mangalore","state":"Karnataka","latitude":12.9141,"longitude":74.856,"temp":28.4,"humidity":79,"rain":0.0,"pressure":1006.5,"uv_index":8.15,"wind_gusts":45.7,"aqi":49,"pm10":18.8,"pm2_5":10.0,"no2":1.1,"co":95.0,"o3":54.0,"so2":1.3,"mosquito_risk":7,"arthritis_risk":5,"migraine_risk":4,"frizz_risk":1,"updated_at":"2026-07-13T16:00:09.696970+05:30"},{"city":"Hubli-Dharwad","state":"Karnataka","latitude":15.3647,"longitude":75.124,"temp":29.2,"humidity":54,"rain":0.0,"pressure":939.8,"uv_index":8.95,"wind_gusts":49.3,"aqi":32,"pm10":15.1,"pm2_5":7.9,"no2":1.4,"co":107.0,"o3":64.0,"so2":1.2,"mosquito_risk":4,"arthritis_risk":5,"migraine_risk":7,"frizz_risk":1,"updated_at":"2026-07-13T16:00:09.696977+05:30"},{"city":"Belgaum","state":"Karnataka","latitude":15.8497,"longitude":74.4977,"temp":26.4,"humidity":69,"rain":0.0,"pressure":924.9,"uv_index":9.0,"wind_gusts":47.2,"aqi":29,"pm10":15.5,"pm2_5":8.6,"no2":1.2,"co":100.0,"o3":60.0,"so2":1.4,"mosquito_risk":7,"arthritis_risk":5,"migraine_risk":7,"frizz_risk":1,"updated_at":"2026-07-13T16:00:13.060943+05:30"},{"city":"Coimbatore","state":"Tamil Nadu","latitude":11.0168,"longitude":76.9558,"temp":31.4,"humidity":54,"rain":0.0,"pressure":959.3,"uv_index":8.25,"wind_gusts":53.6,"aqi":44,"pm10":22.9,"pm2_5":10.4,"no2":1.4,"co":126.0,"o3":75.0,"so2":1.9,"mosquito_risk":0,"arthritis_risk":5,"migraine_risk":7,"frizz_risk":1,"updated_at":"2026-07-13T16:00:13.060979+05:30"},{"city":"Madurai","state":"Tamil Nadu","latitude":9.9252,"longitude":78.1198,"temp":39.6,"humidity":27,"rain":0.0,"pressure":988.2,"uv_index":8.25,"wind_gusts":45.0,"aqi":59,"pm10":61.2,"pm2_5":20.3,"no2":1.8,"co":119.0,"o3":105.0,"so2":2.0,"mosquito_risk":0,"arthritis_risk":5,"migraine_risk":10,"frizz_risk":1,"updated_at":"2026-07-13T16:00:13.060990+05:30"},{"city":"Trichy","state":"Tamil Nadu","latitude":10.7905,"longitude":78.7047,"temp":39.1,"humidity":29,"rain":0.0,"pressure":994.6,"uv_index":8.0,"wind_gusts":50.0,"aqi":59,"pm10":47.3,"pm2_5":18.8,"no2":1.1,"co":119.0,"o3":97.0,"so2":1.9,"mosquito_risk":0,"arthritis_risk":5,"migraine_risk":10,"frizz_risk":1,"updated_at":"2026-07-13T16:00:13.060999+05:30"},{"city":"Salem","state":"Tamil Nadu","latitude":11.6643,"longitude":78.146,"temp":36.1,"humidity":37,"rain":0.0,"pressure":973.2,"uv_index":8.45,"wind_gusts":33.5,"aqi":66,"pm10":45.4,"pm2_5":18.3,"no2":2.3,"co":158.0,"o3":105.0,"so2":4.5,"mosquito_risk":0,"arthritis_risk":5,"migraine_risk":10,"frizz_risk":1,"updated_at":"2026-07-13T16:00:13.061007+05:30"},{"city":"Tirunelveli","state":"Tamil Nadu","latitude":8.7139,"longitude":77.7567,"temp":37.2,"humidity":37,"rain":0.0,"pressure":998.9,"uv_index":8.65,"wind_gusts":51.5,"aqi":35,"pm10":19.8,"pm2_5":10.0,"no2":1.4,"co":115.0,"o3":75.0,"so2":1.3,"mosquito_risk":0,"arthritis_risk":5,"migraine_risk":10,"frizz_risk":1,"updated_at":"2026-07-13T16:00:13.061015+05:30"},{"city":"Vellore","state":"Tamil Nadu","latitude":12.9165,"longitude":79.1325,"temp":38.2,"humidity":26,"rain":0.0,"pressure":979.2,"uv_index":8.6,"wind_gusts":42.5,"aqi":69,"pm10":62.9,"pm2_5":22.9,"no2":2.5,"co":118.0,"o3":96.0,"so2":1.9,"mosquito_risk":0,"arthritis_risk":5,"migraine_risk":10,"frizz_risk":0,"updated_at":"2026-07-13T16:00:13.061023+05:30"},{"city":"Erode","state":"Tamil Nadu","latitude":11.341,"longitude":77.7172,"temp":36.6,"humidity":36,"rain":0.1,"pressure":984.7,"uv_index":7.85,"wind_gusts":50.0,"aqi":55,"pm10":35.0,"pm2_5":14.8,"no2":2.1,"co":146.0,"o3":98.0,"so2":2.0,"mosquito_risk":3,"arthritis_risk":5,"migraine_risk":10,"frizz_risk":1,"updated_at":"2026-07-13T16:00:13.061031+05:30"},{"city":"Kochi","state":"Kerala","latitude":9.9312,"longitude":76.2673,"temp":29.0,"humidity":76,"rain":0.0,"pressure":1008.0,"uv_index":8.55,"wind_gusts":44.3,"aqi":49,"pm10":20.4,"pm2_5":11.3,"no2":2.1,"co":106.0,"o3":64.0,"so2":2.1,"mosquito_risk":7,"arthritis_risk":0,"migraine_risk":4,"frizz_risk":1,"updated_at":"2026-07-13T16:00:13.061038+05:30"},{"city":"Thiruvananthapuram","state":"Kerala","latitude":8.5241,"longitude":76.9366,"temp":28.6,"humidity":76,"rain":0.0,"pressure":1007.0,"uv_index":8.4,"wind_gusts":52.9,"aqi":44,"pm10":20.3,"pm2_5":11.0,"no2":2.0,"co":95.0,"o3":63.0,"so2":1.0,"mosquito_risk":7,"arthritis_risk":5,"migraine_risk":4,"frizz_risk":1,"updated_at":"2026-07-13T16:00:13.061045+05:30"},{"city":"Kozhikode","state":"Kerala","latitude":11.2588,"longitude":75.7804,"temp":28.7,"humidity":77,"rain":0.0,"pressure":1007.2,"uv_index":8.55,"wind_gusts":47.9,"aqi":43,"pm10":18.6,"pm2_5":9.1,"no2":0.5,"co":96.0,"o3":55.0,"so2":0.9,"mosquito_risk":7,"arthritis_risk":5,"migraine_risk":4,"frizz_risk":1,"updated_at":"2026-07-13T16:00:13.061052+05:30"},{"city":"Thrissur","state":"Kerala","latitude":10.5276,"longitude":76.2144,"temp":29.4,"humidity":71,"rain":0.0,"pressure":1006.3,"uv_index":8.35,"wind_gusts":44.3,"aqi":47,"pm10":19.0,"pm2_5":10.1,"no2":1.4,"co":101.0,"o3":61.0,"so2":1.5,"mosquito_risk":7,"arthritis_risk":5,"migraine_risk":4,"frizz_risk":1,"updated_at":"2026-07-13T16:00:13.061060+05:30"},{"city":"Kannur","state":"Kerala","latitude":11.8745,"longitude":75.3704,"temp":29.6,"humidity":71,"rain":0.0,"pressure":1006.6,"uv_index":8.6,"wind_gusts":49.0,"aqi":44,"pm10":18.6,"pm2_5":10.0,"no2":1.2,"co":95.0,"o3":55.0,"so2":1.2,"mosquito_risk":7,"arthritis_risk":5,"migraine_risk":4,"frizz_risk":1,"updated_at":"2026-07-13T16:00:13.061067+05:30"},{"city":"Patna","state":"Bihar","latitude":25.5941,"longitude":85.1376,"temp":33.6,"humidity":64,"rain":0.0,"pressure":989.8,"uv_index":6.75,"wind_gusts":33.5,"aqi":150,"pm10":81.7,"pm2_5":47.5,"no2":8.7,"co":229.0,"o3":113.0,"so2":10.2,"mosquito_risk":3,"arthritis_risk":5,"migraine_risk":7,"frizz_risk":1,"updated_at":"2026-07-13T16:00:13.061074+05:30"},{"city":"Gaya","state":"Bihar","latitude":24.7914,"longitude":85.0002,"temp":33.4,"humidity":61,"rain":0.0,"pressure":984.0,"uv_index":6.55,"wind_gusts":35.6,"aqi":126,"pm10":74.3,"pm2_5":41.2,"no2":4.7,"co":192.0,"o3":112.0,"so2":8.2,"mosquito_risk":3,"arthritis_risk":5,"migraine_risk":7,"frizz_risk":1,"updated_at":"2026-07-13T16:00:13.061081+05:30"},{"city":"Muzaffarpur","state":"Bihar","latitude":26.1209,"longitude":85.3647,"temp":32.8,"humidity":68,"rain":0.1,"pressure":989.7,"uv_index":7.15,"wind_gusts":32.4,"aqi":150,"pm10":110.1,"pm2_5":56.1,"no2":8.5,"co":283.0,"o3":122.0,"so2":11.4,"mosquito_risk":6,"arthritis_risk":5,"migraine_risk":7,"frizz_risk":1,"updated_at":"2026-07-13T16:00:13.061088+05:30"},{"city":"Bhagalpur","state":"Bihar","latitude":25.2425,"longitude":87.0117,"temp":29.1,"humidity":93,"rain":0.3,"pressure":991.3,"uv_index":5.65,"wind_gusts":24.1,"aqi":139,"pm10":89.4,"pm2_5":48.9,"no2":10.3,"co":271.0,"o3":94.0,"so2":17.5,"mosquito_risk":10,"arthritis_risk":5,"migraine_risk":3,"frizz_risk":1,"updated_at":"2026-07-13T16:00:13.061095+05:30"},{"city":"Ranchi","state":"Jharkhand","latitude":23.3441,"longitude":85.3096,"temp":30.6,"humidity":58,"rain":0.0,"pressure":930.1,"uv_index":8.45,"wind_gusts":33.1,"aqi":110,"pm10":91.0,"pm2_5":39.2,"no2":2.6,"co":161.0,"o3":116.0,"so2":8.6,"mosquito_risk":0,"arthritis_risk":5,"migraine_risk":7,"frizz_risk":1,"updated_at":"2026-07-13T16:00:13.061103+05:30"},{"city":"Jamshedpur","state":"Jharkhand","latitude":22.8046,"longitude":86.2029,"temp":31.0,"humidity":69,"rain":0.1,"pressure":982.2,"uv_index":8.45,"wind_gusts":24.8,"aqi":128,"pm10":104.3,"pm2_5":54.1,"no2":8.7,"co":262.0,"o3":147.0,"so2":30.1,"mosquito_risk":6,"arthritis_risk":5,"migraine_risk":7,"frizz_risk":1,"updated_at":"2026-07-13T16:00:13.061110+05:30"},{"city":"Dhanbad","state":"Jharkhand","latitude":23.7957,"longitude":86.4304,"temp":28.7,"humidity":85,"rain":0.0,"pressure":971.1,"uv_index":5.9,"wind_gusts":29.5,"aqi":158,"pm10":90.1,"pm2_5":46.6,"no2":13.1,"co":260.0,"o3":118.0,"so2":36.4,"mosquito_risk":7,"arthritis_risk":5,"migraine_risk":3,"frizz_risk":1,"updated_at":"2026-07-13T16:00:13.061117+05:30"},{"city":"Bokaro","state":"Jharkhand","latitude":23.6693,"longitude":86.1511,"temp":30.5,"humidity":74,"rain":0.0,"pressure":974.8,"uv_index":8.55,"wind_gusts":27.0,"aqi":155,"pm10":90.6,"pm2_5":46.7,"no2":12.3,"co":727.0,"o3":126.0,"so2":44.6,"mosquito_risk":3,"arthritis_risk":5,"migraine_risk":7,"frizz_risk":1,"updated_at":"2026-07-13T16:00:13.061124+05:30"},{"city":"Bhubaneswar","state":"Odisha","latitude":20.2961,"longitude":85.8245,"temp":33.5,"humidity":62,"rain":0.0,"pressure":993.1,"uv_index":6.2,"wind_gusts":31.3,"aqi":100,"pm10":82.2,"pm2_5":42.4,"no2":10.7,"co":246.0,"o3":119.0,"so2":20.6,"mosquito_risk":3,"arthritis_risk":5,"migraine_risk":7,"frizz_risk":1,"updated_at":"2026-07-13T16:00:13.061131+05:30"},{"city":"Cuttack","state":"Odisha","latitude":20.4625,"longitude":85.8828,"temp":32.9,"humidity":65,"rain":0.1,"pressure":995.0,"uv_index":6.7,"wind_gusts":36.0,"aqi":100,"pm10":82.2,"pm2_5":42.4,"no2":10.7,"co":275.0,"o3":119.0,"so2":20.6,"mosquito_risk":6,"arthritis_risk":5,"migraine_risk":7,"frizz_risk":1,"updated_at":"2026-07-13T16:00:13.061139+05:30"},{"city":"Rourkela","state":"Odisha","latitude":22.2604,"longitude":84.8536,"temp":34.1,"humidity":53,"rain":0.0,"pressure":975.8,"uv_index":8.75,"wind_gusts":25.9,"aqi":100,"pm10":87.1,"pm2_5":36.8,"no2":3.0,"co":292.0,"o3":105.0,"so2":4.0,"mosquito_risk":0,"arthritis_risk":5,"migraine_risk":7,"frizz_risk":1,"updated_at":"2026-07-13T16:00:13.061146+05:30"},{"city":"Raipur","state":"Chhattisgarh","latitude":21.2514,"longitude":81.6296,"temp":33.3,"humidity":54,"rain":0.0,"pressure":967.2,"uv_index":6.45,"wind_gusts":39.2,"aqi":111,"pm10":106.9,"pm2_5":44.9,"no2":8.7,"co":121.0,"o3":110.0,"so2":27.3,"mosquito_risk":0,"arthritis_risk":5,"migraine_risk":7,"frizz_risk":1,"updated_at":"2026-07-13T16:00:13.061153+05:30"},{"city":"Bhilai","state":"Chhattisgarh","latitude":21.1938,"longitude":81.3509,"temp":32.8,"humidity":56,"rain":0.1,"pressure":967.7,"uv_index":6.3,"wind_gusts":42.5,"aqi":105,"pm10":112.9,"pm2_5":42.5,"no2":8.4,"co":283.0,"o3":97.0,"so2":23.7,"mosquito_risk":3,"arthritis_risk":5,"migraine_risk":7,"frizz_risk":1,"updated_at":"2026-07-13T16:00:13.061160+05:30"},{"city":"Guwahati","state":"Assam","latitude":26.1158,"longitude":91.7086,"temp":30.9,"humidity":84,"rain":0.0,"pressure":990.4,"uv_index":2.0,"wind_gusts":20.5,"aqi":53,"pm10":16.4,"pm2_5":13.4,"no2":1.9,"co":296.0,"o3":106.0,"so2":2.9,"mosquito_risk":3,"arthritis_risk":5,"migraine_risk":3,"frizz_risk":1,"updated_at":"2026-07-13T16:00:13.061168+05:30"},{"city":"Agartala","state":"Tripura","latitude":23.8315,"longitude":91.2868,"temp":30.4,"humidity":80,"rain":0.1,"pressure":995.4,"uv_index":1.0,"wind_gusts":30.6,"aqi":66,"pm10":8.8,"pm2_5":7.4,"no2":4.7,"co":203.0,"o3":117.0,"so2":1.6,"mosquito_risk":6,"arthritis_risk":5,"migraine_risk":3,"frizz_risk":1,"updated_at":"2026-07-13T16:00:13.061175+05:30"},{"city":"Shillong","state":"Meghalaya","latitude":25.5788,"longitude":91.8933,"temp":24.8,"humidity":72,"rain":0.0,"pressure":851.0,"uv_index":1.55,"wind_gusts":25.6,"aqi":47,"pm10":14.3,"pm2_5":9.6,"no2":2.0,"co":277.0,"o3":98.0,"so2":2.3,"mosquito_risk":3,"arthritis_risk":5,"migraine_risk":3,"frizz_risk":1,"updated_at":"2026-07-13T16:00:13.061183+05:30"},{"city":"Imphal","state":"Manipur","latitude":24.817,"longitude":93.9368,"temp":28.9,"humidity":69,"rain":0.0,"pressure":914.6,"uv_index":6.8,"wind_gusts":23.8,"aqi":43,"pm10":3.7,"pm2_5":3.1,"no2":1.6,"co":237.0,"o3":79.0,"so2":1.2,"mosquito_risk":7,"arthritis_risk":5,"migraine_risk":7,"frizz_risk":1,"updated_at":"2026-07-13T16:00:13.061190+05:30"},{"city":"Aizawl","state":"Mizoram","latitude":23.7271,"longitude":92.7176,"temp":22.5,"humidity":95,"rain":0.2,"pressure":884.1,"uv_index":1.9,"wind_gusts":21.6,"aqi":57,"pm10":10.4,"pm2_5":7.1,"no2":1.6,"co":170.0,"o3":81.0,"so2":1.5,"mosquito_risk":6,"arthritis_risk":5,"migraine_risk":3,"frizz_risk":1,"updated_at":"2026-07-13T16:00:13.061196+05:30"},{"city":"Kohima","state":"Nagaland","latitude":25.6701,"longitude":94.1077,"temp":23.3,"humidity":98,"rain":0.0,"pressure":849.0,"uv_index":8.05,"wind_gusts":22.0,"aqi":41,"pm10":5.8,"pm2_5":5.6,"no2":2.4,"co":178.0,"o3":79.0,"so2":0.6,"mosquito_risk":3,"arthritis_risk":5,"migraine_risk":7,"frizz_risk":1,"updated_at":"2026-07-13T16:00:13.061203+05:30"},{"city":"Gangtok","state":"Sikkim","latitude":27.3314,"longitude":88.6138,"temp":21.7,"humidity":87,"rain":0.0,"pressure":831.8,"uv_index":2.2,"wind_gusts":29.5,"aqi":46,"pm10":4.8,"pm2_5":4.5,"no2":3.2,"co":269.0,"o3":106.0,"so2":1.0,"mosquito_risk":3,"arthritis_risk":5,"migraine_risk":3,"frizz_risk":1,"updated_at":"2026-07-13T16:00:13.061210+05:30"},{"city":"Siliguri","state":"West Bengal","latitude":26.7271,"longitude":88.3953,"temp":29.4,"humidity":78,"rain":0.0,"pressure":982.8,"uv_index":5.8,"wind_gusts":37.1,"aqi":48,"pm10":10.2,"pm2_5":9.8,"no2":7.1,"co":398.0,"o3":100.0,"so2":2.4,"mosquito_risk":7,"arthritis_risk":5,"migraine_risk":3,"frizz_risk":1,"updated_at":"2026-07-13T16:00:16.439401+05:30"},{"city":"Durgapur","state":"West Bengal","latitude":23.5204,"longitude":87.3119,"temp":28.0,"humidity":91,"rain":0.2,"pressure":986.3,"uv_index":6.45,"wind_gusts":24.1,"aqi":153,"pm10":93.8,"pm2_5":48.1,"no2":10.7,"co":482.0,"o3":125.0,"so2":26.9,"mosquito_risk":10,"arthritis_risk":5,"migraine_risk":7,"frizz_risk":1,"updated_at":"2026-07-13T16:00:16.439436+05:30"},{"city":"Asansol","state":"West Bengal","latitude":23.6739,"longitude":86.9524,"temp":27.4,"humidity":96,"rain":0.3,"pressure":984.9,"uv_index":2.3,"wind_gusts":29.5,"aqi":148,"pm10":89.6,"pm2_5":45.8,"no2":11.2,"co":285.0,"o3":117.0,"so2":24.2,"mosquito_risk":10,"arthritis_risk":5,"migraine_risk":3,"frizz_risk":1,"updated_at":"2026-07-13T16:00:16.439448+05:30"},{"city":"Pondicherry","state":"Puducherry","latitude":11.9139,"longitude":79.8145,"temp":36.2,"humidity":43,"rain":0.0,"pressure":1002.7,"uv_index":8.45,"wind_gusts":48.2,"aqi":61,"pm10":42.5,"pm2_5":22.7,"no2":7.2,"co":166.0,"o3":128.0,"so2":4.9,"mosquito_risk":0,"arthritis_risk":5,"migraine_risk":7,"frizz_risk":1,"updated_at":"2026-07-13T16:00:16.439458+05:30"},{"city":"Port Blair","state":"Andaman and Nicobar Islands","latitude":11.6234,"longitude":92.7265,"temp":27.4,"humidity":88,"rain":0.1,"pressure":1003.0,"uv_index":8.6,"wind_gusts":57.6,"aqi":41,"pm10":17.3,"pm2_5":7.5,"no2":0.4,"co":93.0,"o3":48.0,"so2":0.4,"mosquito_risk":10,"arthritis_risk":5,"migraine_risk":4,"frizz_risk":1,"updated_at":"2026-07-13T16:00:16.439467+05:30"},{"city":"Haridwar","state":"Uttarakhand","latitude":29.9457,"longitude":78.1642,"temp":34.6,"humidity":58,"rain":0.0,"pressure":963.4,"uv_index":7.5,"wind_gusts":27.4,"aqi":180,"pm10":232.4,"pm2_5":89.4,"no2":1.6,"co":227.0,"o3":167.0,"so2":10.8,"mosquito_risk":0,"arthritis_risk":5,"migraine_risk":7,"frizz_risk":1,"updated_at":"2026-07-13T16:00:16.439475+05:30"},{"city":"Rishikesh","state":"Uttarakhand","latitude":30.0869,"longitude":78.2676,"temp":33.4,"humidity":60,"rain":0.0,"pressure":956.5,"uv_index":7.6,"wind_gusts":29.9,"aqi":164,"pm10":202.1,"pm2_5":77.5,"no2":1.1,"co":210.0,"o3":160.0,"so2":8.6,"mosquito_risk":0,"arthritis_risk":5,"migraine_risk":7,"frizz_risk":1,"updated_at":"2026-07-13T16:00:16.439483+05:30"},{"city":"Nainital","state":"Uttarakhand","latitude":29.3919,"longitude":79.4542,"temp":22.7,"humidity":71,"rain":0.1,"pressure":801.5,"uv_index":8.5,"wind_gusts":37.1,"aqi":162,"pm10":173.2,"pm2_5":70.8,"no2":1.6,"co":178.0,"o3":145.0,"so2":8.1,"mosquito_risk":6,"arthritis_risk":5,"migraine_risk":7,"frizz_risk":1,"updated_at":"2026-07-13T16:00:16.439490+05:30"},{"city":"Mussoorie","state":"Uttarakhand","latitude":30.4599,"longitude":78.0664,"temp":22.6,"humidity":69,"rain":0.0,"pressure":799.3,"uv_index":8.0,"wind_gusts":45.7,"aqi":163,"pm10":171.4,"pm2_5":69.6,"no2":1.6,"co":187.0,"o3":172.0,"so2":8.5,"mosquito_risk":3,"arthritis_risk":5,"migraine_risk":7,"frizz_risk":1,"updated_at":"2026-07-13T16:00:16.439498+05:30"},{"city":"Dharamshala","state":"Himachal Pradesh","latitude":32.219,"longitude":76.3234,"temp":25.9,"humidity":70,"rain":0.0,"pressure":863.5,"uv_index":8.4,"wind_gusts":33.8,"aqi":68,"pm10":60.1,"pm2_5":25.0,"no2":0.8,"co":238.0,"o3":135.0,"so2":1.9,"mosquito_risk":7,"arthritis_risk":5,"migraine_risk":7,"frizz_risk":1,"updated_at":"2026-07-13T16:00:16.439505+05:30"},{"city":"Dalhousie","state":"Himachal Pradesh","latitude":32.5387,"longitude":75.971,"temp":22.4,"humidity":74,"rain":0.0,"pressure":801.0,"uv_index":8.65,"wind_gusts":27.0,"aqi":101,"pm10":100.1,"pm2_5":47.1,"no2":4.0,"co":317.0,"o3":156.0,"so2":3.3,"mosquito_risk":3,"arthritis_risk":5,"migraine_risk":7,"frizz_risk":1,"updated_at":"2026-07-13T16:00:16.439513+05:30"},{"city":"Patiala","state":"Punjab","latitude":30.3398,"longitude":76.3869,"temp":33.9,"humidity":59,"rain":0.0,"pressure":967.8,"uv_index":7.5,"wind_gusts":37.1,"aqi":168,"pm10":307.3,"pm2_5":87.1,"no2":1.9,"co":199.0,"o3":142.0,"so2":6.3,"mosquito_risk":0,"arthritis_risk":5,"migraine_risk":7,"frizz_risk":1,"updated_at":"2026-07-13T16:00:16.439520+05:30"},{"city":"Bhatinda","state":"Punjab","latitude":30.211,"longitude":74.9455,"temp":33.5,"humidity":59,"rain":0.1,"pressure":973.4,"uv_index":8.25,"wind_gusts":36.7,"aqi":171,"pm10":313.9,"pm2_5":98.5,"no2":4.4,"co":205.0,"o3":173.0,"so2":21.0,"mosquito_risk":3,"arthritis_risk":5,"migraine_risk":7,"frizz_risk":1,"updated_at":"2026-07-13T16:00:16.439528+05:30"},{"city":"Rohtak","state":"Haryana","latitude":28.8955,"longitude":76.6066,"temp":36.1,"humidity":49,"rain":0.0,"pressure":971.2,"uv_index":7.3,"wind_gusts":43.2,"aqi":705,"pm10":478.7,"pm2_5":93.8,"no2":2.7,"co":171.0,"o3":118.0,"so2":3.6,"mosquito_risk":0,"arthritis_risk":5,"migraine_risk":10,"frizz_risk":1,"updated_at":"2026-07-13T16:00:16.439536+05:30"},{"city":"Panipat","state":"Haryana","latitude":29.3909,"longitude":76.9635,"temp":34.7,"humidity":60,"rain":0.0,"pressure":969.8,"uv_index":7.45,"wind_gusts":27.4,"aqi":822,"pm10":366.0,"pm2_5":89.2,"no2":2.7,"co":176.0,"o3":135.0,"so2":11.2,"mosquito_risk":0,"arthritis_risk":5,"migraine_risk":7,"frizz_risk":1,"updated_at":"2026-07-13T16:00:16.439544+05:30"},{"city":"Mathura","state":"Uttar Pradesh","latitude":27.4924,"longitude":77.6737,"temp":34.9,"humidity":54,"rain":0.0,"pressure":976.9,"uv_index":7.2,"wind_gusts":37.4,"aqi":700,"pm10":655.7,"pm2_5":95.7,"no2":3.2,"co":158.0,"o3":117.0,"so2":2.5,"mosquito_risk":0,"arthritis_risk":5,"migraine_risk":7,"frizz_risk":1,"updated_at":"2026-07-13T16:00:16.439551+05:30"},{"city":"Vrindavan","state":"Uttar Pradesh","latitude":27.5823,"longitude":77.7027,"temp":35.1,"humidity":53,"rain":0.0,"pressure":977.2,"uv_index":7.25,"wind_gusts":36.7,"aqi":700,"pm10":655.7,"pm2_5":95.7,"no2":3.2,"co":153.0,"o3":117.0,"so2":2.5,"mosquito_risk":0,"arthritis_risk":5,"migraine_risk":10,"frizz_risk":1,"updated_at":"2026-07-13T16:00:16.439559+05:30"},{"city":"Ayodhya","state":"Uttar Pradesh","latitude":26.7922,"longitude":82.1998,"temp":34.8,"humidity":61,"rain":0.0,"pressure":984.1,"uv_index":7.9,"wind_gusts":29.2,"aqi":136,"pm10":169.0,"pm2_5":65.7,"no2":2.4,"co":178.0,"o3":125.0,"so2":5.6,"mosquito_risk":3,"arthritis_risk":5,"migraine_risk":7,"frizz_risk":1,"updated_at":"2026-07-13T16:00:16.439566+05:30"},{"city":"Ratlam","state":"Madhya Pradesh","latitude":23.3315,"longitude":75.0367,"temp":31.4,"humidity":52,"rain":0.0,"pressure":949.0,"uv_index":8.5,"wind_gusts":51.8,"aqi":63,"pm10":62.4,"pm2_5":24.6,"no2":1.3,"co":117.0,"o3":86.0,"so2":3.8,"mosquito_risk":0,"arthritis_risk":5,"migraine_risk":7,"frizz_risk":1,"updated_at":"2026-07-13T16:00:16.439573+05:30"},{"city":"Sagar","state":"Madhya Pradesh","latitude":23.8388,"longitude":78.7378,"temp":31.2,"humidity":57,"rain":0.0,"pressure":943.5,"uv_index":7.45,"wind_gusts":43.6,"aqi":84,"pm10":113.6,"pm2_5":34.7,"no2":1.1,"co":131.0,"o3":95.0,"so2":3.8,"mosquito_risk":0,"arthritis_risk":5,"migraine_risk":7,"frizz_risk":1,"updated_at":"2026-07-13T16:00:16.439580+05:30"},{"city":"Satna","state":"Madhya Pradesh","latitude":24.6005,"longitude":80.8322,"temp":33.6,"humidity":55,"rain":0.0,"pressure":962.8,"uv_index":8.0,"wind_gusts":42.5,"aqi":94,"pm10":80.6,"pm2_5":32.7,"no2":1.4,"co":122.0,"o3":101.0,"so2":3.5,"mosquito_risk":0,"arthritis_risk":5,"migraine_risk":7,"frizz_risk":1,"updated_at":"2026-07-13T16:00:16.439587+05:30"},{"city":"Akola","state":"Maharashtra","latitude":20.7002,"longitude":77.0082,"temp":33.7,"humidity":45,"rain":0.0,"pressure":969.9,"uv_index":8.6,"wind_gusts":47.5,"aqi":63,"pm10":41.2,"pm2_5":16.9,"no2":1.8,"co":118.0,"o3":94.0,"so2":5.3,"mosquito_risk":0,"arthritis_risk":5,"migraine_risk":7,"frizz_risk":1,"updated_at":"2026-07-13T16:00:16.439595+05:30"},{"city":"Amravati","state":"Maharashtra","latitude":20.9374,"longitude":77.7796,"temp":33.9,"humidity":44,"rain":0.0,"pressure":961.7,"uv_index":7.75,"wind_gusts":53.6,"aqi":65,"pm10":52.0,"pm2_5":20.1,"no2":2.2,"co":121.0,"o3":93.0,"so2":6.0,"mosquito_risk":0,"arthritis_risk":5,"migraine_risk":7,"frizz_risk":1,"updated_at":"2026-07-13T16:00:16.439602+05:30"},{"city":"Latur","state":"Maharashtra","latitude":18.4088,"longitude":76.5604,"temp":32.4,"humidity":47,"rain":0.0,"pressure":936.2,"uv_index":8.85,"wind_gusts":47.5,"aqi":49,"pm10":17.1,"pm2_5":10.1,"no2":1.0,"co":117.0,"o3":90.0,"so2":2.1,"mosquito_risk":0,"arthritis_risk":5,"migraine_risk":7,"frizz_risk":1,"updated_at":"2026-07-13T16:00:16.439610+05:30"},{"city":"Nanded","state":"Maharashtra","latitude":19.1383,"longitude":77.3091,"temp":33.5,"humidity":47,"rain":0.0,"pressure":963.9,"uv_index":8.45,"wind_gusts":43.9,"aqi":59,"pm10":20.6,"pm2_5":11.4,"no2":1.4,"co":133.0,"o3":89.0,"so2":2.5,"mosquito_risk":0,"arthritis_risk":5,"migraine_risk":7,"frizz_risk":1,"updated_at":"2026-07-13T16:00:16.439617+05:30"},{"city":"Gulbarga","state":"Karnataka","latitude":17.3297,"longitude":76.8343,"temp":33.7,"humidity":40,"rain":0.0,"pressure":954.9,"uv_index":8.8,"wind_gusts":48.6,"aqi":50,"pm10":16.9,"pm2_5":9.6,"no2":1.5,"co":119.0,"o3":91.0,"so2":1.9,"mosquito_risk":0,"arthritis_risk":5,"migraine_risk":7,"frizz_risk":1,"updated_at":"2026-07-13T16:00:16.439624+05:30"},{"city":"Bidar","state":"Karnataka","latitude":17.9104,"longitude":77.5199,"temp":32.1,"humidity":48,"rain":0.0,"pressure":931.9,"uv_index":8.95,"wind_gusts":46.1,"aqi":55,"pm10":18.9,"pm2_5":10.5,"no2":1.7,"co":125.0,"o3":90.0,"so2":1.7,"mosquito_risk":0,"arthritis_risk":5,"migraine_risk":7,"frizz_risk":1,"updated_at":"2026-07-13T16:00:16.439631+05:30"},{"city":"Hospet","state":"Karnataka","latitude":15.2689,"longitude":76.3909,"temp":32.9,"humidity":42,"rain":0.0,"pressure":953.4,"uv_index":8.9,"wind_gusts":48.6,"aqi":39,"pm10":23.1,"pm2_5":10.4,"no2":1.4,"co":116.0,"o3":82.0,"so2":1.6,"mosquito_risk":0,"arthritis_risk":5,"migraine_risk":7,"frizz_risk":1,"updated_at":"2026-07-13T16:00:16.439638+05:30"},{"city":"Tirupur","state":"Tamil Nadu","latitude":11.1085,"longitude":77.3411,"temp":33.5,"humidity":47,"rain":0.0,"pressure":972.0,"uv_index":8.05,"wind_gusts":55.8,"aqi":57,"pm10":32.0,"pm2_5":13.7,"no2":1.9,"co":128.0,"o3":92.0,"so2":2.3,"mosquito_risk":0,"arthritis_risk":5,"migraine_risk":7,"frizz_risk":1,"updated_at":"2026-07-13T16:00:16.439645+05:30"},{"city":"Alappuzha","state":"Kerala","latitude":9.4981,"longitude":76.3388,"temp":29.2,"humidity":76,"rain":0.0,"pressure":1008.0,"uv_index":8.45,"wind_gusts":45.4,"aqi":49,"pm10":21.5,"pm2_5":11.5,"no2":2.6,"co":87.0,"o3":64.0,"so2":2.0,"mosquito_risk":7,"arthritis_risk":0,"migraine_risk":4,"frizz_risk":1,"updated_at":"2026-07-13T16:00:16.439651+05:30"},{"city":"Munnar","state":"Kerala","latitude":10.0889,"longitude":77.0595,"temp":19.5,"humidity":91,"rain":0.1,"pressure":856.4,"uv_index":8.8,"wind_gusts":35.6,"aqi":28,"pm10":18.9,"pm2_5":8.9,"no2":1.5,"co":105.0,"o3":68.0,"so2":1.3,"mosquito_risk":6,"arthritis_risk":10,"migraine_risk":7,"frizz_risk":1,"updated_at":"2026-07-13T16:00:16.439659+05:30"},{"city":"Silchar","state":"Assam","latitude":24.8333,"longitude":92.7789,"temp":34.0,"humidity":61,"rain":0.0,"pressure":992.9,"uv_index":5.7,"wind_gusts":19.4,"aqi":73,"pm10":19.7,"pm2_5":14.1,"no2":2.9,"co":251.0,"o3":111.0,"so2":4.4,"mosquito_risk":3,"arthritis_risk":5,"migraine_risk":3,"frizz_risk":1,"updated_at":"2026-07-13T16:00:16.439665+05:30"},{"city":"Dibrugarh","state":"Assam","latitude":27.4728,"longitude":94.912,"temp":32.9,"humidity":66,"rain":0.0,"pressure":983.9,"uv_index":8.9,"wind_gusts":20.9,"aqi":46,"pm10":4.7,"pm2_5":4.7,"no2":1.8,"co":197.0,"o3":97.0,"so2":0.7,"mosquito_risk":3,"arthritis_risk":5,"migraine_risk":7,"frizz_risk":1,"updated_at":"2026-07-13T16:00:16.439672+05:30"}]