[{"city":"Delhi","state":"Delhi","latitude":28.6139,"longitude":77.209,"temp":27.8,"humidity":52,"rain":0.0,"pressure":989.4,"uv_index":5.85,"wind_gusts":37.1,"aqi":310,"pm10":262.6,"pm2_5":74.7,"mosquito_risk":4,"arthritis_risk":5,"migraine_risk":3,"frizz_risk":1,"updated_at":"2026-03-04T11:17:27.613481+05:30"},{"city":"Mumbai","state":"Maharashtra","latitude":19.076,"longitude":72.8777,"temp":28.5,"humidity":65,"rain":0.0,"pressure":1012.8,"uv_index":7.4,"wind_gusts":24.8,"aqi":134,"pm10":50.2,"pm2_5":49.5,"mosquito_risk":7,"arthritis_risk":0,"migraine_risk":4,"frizz_risk":1,"updated_at":"2026-03-04T11:17:27.613528+05:30"},{"city":"Bangalore","state":"Karnataka","latitude":12.9716,"longitude":77.5946,"temp":29.1,"humidity":28,"rain":0.0,"pressure":916.5,"uv_index":9.1,"wind_gusts":35.3,"aqi":95,"pm10":33.1,"pm2_5":31.8,"mosquito_risk":4,"arthritis_risk":5,"migraine_risk":7,"frizz_risk":0,"updated_at":"2026-03-04T11:17:27.613544+05:30"},{"city":"Hyderabad","state":"Telangana","latitude":17.385,"longitude":78.4867,"temp":32.6,"humidity":28,"rain":0.0,"pressure":958.9,"uv_index":8.4,"wind_gusts":27.4,"aqi":115,"pm10":27.8,"pm2_5":25.7,"mosquito_risk":0,"arthritis_risk":5,"migraine_risk":7,"frizz_risk":0,"updated_at":"2026-03-04T11:17:27.613554+05:30"},{"city":"Chennai","state":"Tamil Nadu","latitude":13.0827,"longitude":80.2707,"temp":32.0,"humidity":50,"rain":0.0,"pressure":1012.4,"uv_index":8.8,"wind_gusts":28.4,"aqi":115,"pm10":39.3,"pm2_5":34.7,"mosquito_risk":0,"arthritis_risk":0,"migraine_risk":4,"frizz_risk":1,"updated_at":"2026-03-04T11:17:27.613563+05:30"},{"city":"Kolkata","state":"West Bengal","latitude":22.5726,"longitude":88.3639,"temp":29.9,"humidity":57,"rain":0.0,"pressure":1011.1,"uv_index":7.75,"wind_gusts":21.2,"aqi":164,"pm10":102.9,"pm2_5":67.1,"mosquito_risk":4,"arthritis_risk":0,"migraine_risk":4,"frizz_risk":1,"updated_at":"2026-03-04T11:17:27.613587+05:30"},{"city":"Pune","state":"Maharashtra","latitude":18.5204,"longitude":73.8567,"temp":33.6,"humidity":27,"rain":0.0,"pressure":954.1,"uv_index":7.95,"wind_gusts":31.3,"aqi":77,"pm10":19.0,"pm2_5":18.3,"mosquito_risk":0,"arthritis_risk":5,"migraine_risk":7,"frizz_risk":0,"updated_at":"2026-03-04T11:17:27.613601+05:30"},{"city":"Ahmedabad","state":"Gujarat","latitude":23.0225,"longitude":72.5714,"temp":33.0,"humidity":32,"rain":0.0,"pressure":1009.3,"uv_index":7.2,"wind_gusts":16.6,"aqi":79,"pm10":26.6,"pm2_5":21.9,"mosquito_risk":0,"arthritis_risk":0,"migraine_risk":4,"frizz_risk":0,"updated_at":"2026-03-04T11:17:27.613609+05:30"},{"city":"Jaipur","state":"Rajasthan","latitude":26.9124,"longitude":75.7873,"temp":32.8,"humidity":18,"rain":0.0,"pressure":967.4,"uv_index":6.6,"wind_gusts":34.6,"aqi":92,"pm10":79.4,"pm2_5":25.7,"mosquito_risk":0,"arthritis_risk":5,"migraine_risk":7,"frizz_risk":0,"updated_at":"2026-03-04T11:17:27.613617+05:30"},{"city":"Lucknow","state":"Uttar Pradesh","latitude":26.8467,"longitude":80.9462,"temp":26.7,"humidity":51,"rain":0.0,"pressure":1000.3,"uv_index":6.35,"wind_gusts":26.6,"aqi":154,"pm10":320.4,"pm2_5":94.3,"mosquito_risk":4,"arthritis_risk":5,"migraine_risk":4,"frizz_risk":0,"updated_at":"2026-03-04T11:17:27.613625+05:30"},{"city":"Kanpur","state":"Uttar Pradesh","latitude":26.4499,"longitude":80.3319,"temp":27.4,"humidity":51,"rain":0.0,"pressure":998.7,"uv_index":6.35,"wind_gusts":28.8,"aqi":175,"pm10":308.3,"pm2_5":78.9,"mosquito_risk":4,"arthritis_risk":5,"migraine_risk":7,"frizz_risk":1,"updated_at":"2026-03-04T11:17:27.613632+05:30"},{"city":"Chandigarh","state":"Chandigarh","latitude":30.7333,"longitude":76.7794,"temp":27.2,"humidity":46,"rain":0.0,"pressure":974.8,"uv_index":5.75,"wind_gusts":36.0,"aqi":86,"pm10":31.2,"pm2_5":25.4,"mosquito_risk":4,"arthritis_risk":5,"migraine_risk":3,"frizz_risk":0,"updated_at":"2026-03-04T11:17:27.613639+05:30"},{"city":"Srinagar","state":"Jammu and Kashmir","latitude":34.0837,"longitude":74.7973,"temp":15.7,"humidity":45,"rain":0.0,"pressure":849.8,"uv_index":6.2,"wind_gusts":16.9,"aqi":141,"pm10":58.9,"pm2_5":43.9,"mosquito_risk":0,"arthritis_risk":5,"migraine_risk":7,"frizz_risk":0,"updated_at":"2026-03-04T11:17:27.613647+05:30"},{"city":"Jammu","state":"Jammu and Kashmir","latitude":32.7266,"longitude":74.857,"temp":26.6,"humidity":45,"rain":0.0,"pressure":979.0,"uv_index":6.35,"wind_gusts":25.6,"aqi":96,"pm10":41.4,"pm2_5":35.4,"mosquito_risk":4,"arthritis_risk":5,"migraine_risk":7,"frizz_risk":0,"updated_at":"2026-03-04T11:17:27.613653+05:30"},{"city":"Amritsar","state":"Punjab","latitude":31.634,"longitude":74.8723,"temp":27.0,"humidity":57,"rain":0.0,"pressure":987.4,"uv_index":6.3,"wind_gusts":23.4,"aqi":129,"pm10":82.4,"pm2_5":68.5,"mosquito_risk":4,"arthritis_risk":5,"migraine_risk":7,"frizz_risk":1,"updated_at":"2026-03-04T11:17:27.613660+05:30"},{"city":"Ludhiana","state":"Punjab","latitude":30.901,"longitude":75.8573,"temp":27.0,"humidity":53,"rain":0.0,"pressure":985.3,"uv_index":6.0,"wind_gusts":30.2,"aqi":151,"pm10":71.9,"pm2_5":64.5,"mosquito_risk":4,"arthritis_risk":5,"migraine_risk":3,"frizz_risk":1,"updated_at":"2026-03-04T11:17:27.613667+05:30"},{"city":"Jalandhar","state":"Punjab","latitude":31.326,"longitude":75.5762,"temp":26.5,"humidity":54,"rain":0.0,"pressure":986.4,"uv_index":6.15,"wind_gusts":28.8,"aqi":152,"pm10":72.6,"pm2_5":59.8,"mosquito_risk":4,"arthritis_risk":5,"migraine_risk":7,"frizz_risk":1,"updated_at":"2026-03-04T11:17:27.613676+05:30"},{"city":"Dehradun","state":"Uttarakhand","latitude":30.6284,"longitude":78.0322,"temp":22.7,"humidity":35,"rain":0.0,"pressure":835.9,"uv_index":6.1,"wind_gusts":31.3,"aqi":59,"pm10":13.3,"pm2_5":7.9,"mosquito_risk":0,"arthritis_risk":5,"migraine_risk":7,"frizz_risk":0,"updated_at":"2026-03-04T11:17:27.613683+05:30"},{"city":"Shimla","state":"Himachal Pradesh","latitude":31.1048,"longitude":77.1734,"temp":20.9,"humidity":33,"rain":0.0,"pressure":791.8,"uv_index":6.15,"wind_gusts":52.6,"aqi":69,"pm10":19.3,"pm2_5":11.8,"mosquito_risk":0,"arthritis_risk":5,"migraine_risk":7,"frizz_risk":0,"updated_at":"2026-03-04T11:17:27.613692+05:30"},{"city":"Manali","state":"Himachal Pradesh","latitude":32.2396,"longitude":77.1887,"temp":24.3,"humidity":15,"rain":0.0,"pressure":828.0,"uv_index":7.8,"wind_gusts":32.8,"aqi":49,"pm10":16.9,"pm2_5":8.0,"mosquito_risk":0,"arthritis_risk":5,"migraine_risk":7,"frizz_risk":1,"updated_at":"2026-03-04T11:17:27.613699+05:30"},{"city":"Gurgaon","state":"Haryana","latitude":28.4595,"longitude":77.0266,"temp":28.2,"humidity":51,"rain":0.0,"pressure":988.1,"uv_index":5.95,"wind_gusts":35.6,"aqi":1157,"pm10":976.0,"pm2_5":139.2,"mosquito_risk":4,"arthritis_risk":5,"migraine_risk":3,"frizz_risk":1,"updated_at":"2026-03-04T11:17:27.613706+05:30"},{"city":"Noida","state":"Uttar Pradesh","latitude":28.5355,"longitude":77.391,"temp":28.4,"humidity":49,"rain":0.0,"pressure":990.8,"uv_index":5.85,"wind_gusts":36.4,"aqi":1157,"pm10":976.0,"pm2_5":139.2,"mosquito_risk":4,"arthritis_risk":5,"migraine_risk":3,"frizz_risk":1,"updated_at":"2026-03-04T11:17:27.613713+05:30"},{"city":"Ghaziabad","state":"Uttar Pradesh","latitude":28.6692,"longitude":77.4538,"temp":27.1,"humidity":57,"rain":0.0,"pressure":989.0,"uv_index":5.85,"wind_gusts":33.8,"aqi":237,"pm10":224.9,"pm2_5":72.9,"mosquito_risk":4,"arthritis_risk":5,"migraine_risk":3,"frizz_risk":1,"updated_at":"2026-03-04T11:17:27.613719+05:30"},{"city":"Faridabad","state":"Haryana","latitude":28.4089,"longitude":77.3178,"temp":27.6,"humidity":54,"rain":0.0,"pressure":990.3,"uv_index":5.9,"wind_gusts":34.2,"aqi":1157,"pm10":976.0,"pm2_5":139.2,"mosquito_risk":4,"arthritis_risk":5,"migraine_risk":3,"frizz_risk":1,"updated_at":"2026-03-04T11:17:27.613726+05:30"},{"city":"Meerut","state":"Uttar Pradesh","latitude":28.9845,"longitude":77.7064,"temp":26.9,"humidity":53,"rain":0.0,"pressure":987.5,"uv_index":5.7,"wind_gusts":35.6,"aqi":237,"pm10":224.9,"pm2_5":72.9,"mosquito_risk":4,"arthritis_risk":5,"migraine_risk":3,"frizz_risk":1,"updated_at":"2026-03-04T11:17:27.613732+05:30"},{"city":"Agra","state":"Uttar Pradesh","latitude":27.1767,"longitude":78.0081,"temp":29.9,"humidity":39,"rain":0.0,"pressure":994.8,"uv_index":6.2,"wind_gusts":35.3,"aqi":347,"pm10":292.4,"pm2_5":65.0,"mosquito_risk":4,"arthritis_risk":5,"migraine_risk":7,"frizz_risk":0,"updated_at":"2026-03-04T11:17:27.613739+05:30"},{"city":"Varanasi","state":"Uttar Pradesh","latitude":25.3176,"longitude":82.9739,"temp":28.0,"humidity":51,"rain":0.0,"pressure":1004.5,"uv_index":7.0,"wind_gusts":19.8,"aqi":140,"pm10":240.3,"pm2_5":54.7,"mosquito_risk":4,"arthritis_risk":5,"migraine_risk":4,"frizz_risk":1,"updated_at":"2026-03-04T11:17:27.613750+05:30"},{"city":"Prayagraj","state":"Uttar Pradesh","latitude":25.4358,"longitude":81.8463,"temp":28.4,"humidity":45,"rain":0.0,"pressure":1003.1,"uv_index":6.9,"wind_gusts":25.9,"aqi":143,"pm10":308.3,"pm2_5":68.7,"mosquito_risk":4,"arthritis_risk":5,"migraine_risk":4,"frizz_risk":0,"updated_at":"2026-03-04T11:17:27.613757+05:30"},{"city":"Gorakhpur","state":"Uttar Pradesh","latitude":26.7606,"longitude":83.3732,"temp":27.0,"humidity":60,"rain":0.0,"pressure":1004.2,"uv_index":6.75,"wind_gusts":10.1,"aqi":164,"pm10":98.0,"pm2_5":77.1,"mosquito_risk":4,"arthritis_risk":5,"migraine_risk":4,"frizz_risk":1,"updated_at":"2026-03-04T11:17:27.613764+05:30"},{"city":"Bareilly","state":"Uttar Pradesh","latitude":28.367,"longitude":79.4304,"temp":24.6,"humidity":68,"rain":0.0,"pressure":993.1,"uv_index":6.05,"wind_gusts":19.1,"aqi":159,"pm10":195.6,"pm2_5":83.4,"mosquito_risk":3,"arthritis_risk":5,"migraine_risk":7,"frizz_risk":1,"updated_at":"2026-03-04T11:17:27.613771+05:30"},{"city":"Aligarh","state":"Uttar Pradesh","latitude":27.8974,"longitude":78.088,"temp":28.1,"humidity":52,"rain":0.0,"pressure":992.0,"uv_index":5.95,"wind_gusts":33.1,"aqi":666,"pm10":454.5,"pm2_5":97.6,"mosquito_risk":4,"arthritis_risk":5,"migraine_risk":3,"frizz_risk":1,"updated_at":"2026-03-04T11:17:27.613777+05:30"},{"city":"Moradabad","state":"Uttar Pradesh","latitude":28.8386,"longitude":78.7733,"temp":25.0,"humidity":61,"rain":0.0,"pressure":989.7,"uv_index":5.85,"wind_gusts":22.3,"aqi":155,"pm10":142.5,"pm2_5":72.6,"mosquito_risk":7,"arthritis_risk":5,"migraine_risk":3,"frizz_risk":1,"updated_at":"2026-03-04T11:17:27.613783+05:30"},{"city":"Saharanpur","state":"Uttar Pradesh","latitude":29.9637,"longitude":77.546,"temp":25.6,"humidity":56,"rain":0.0,"pressure":981.2,"uv_index":5.5,"wind_gusts":45.7,"aqi":148,"pm10":90.1,"pm2_5":55.9,"mosquito_risk":4,"arthritis_risk":5,"migraine_risk":3,"frizz_risk":1,"updated_at":"2026-03-04T11:17:27.613790+05:30"},{"city":"Jhansi","state":"Uttar Pradesh","latitude":25.4484,"longitude":78.5685,"temp":31.9,"humidity":28,"rain":0.0,"pressure":985.2,"uv_index":6.8,"wind_gusts":32.0,"aqi":64,"pm10":21.9,"pm2_5":12.7,"mosquito_risk":0,"arthritis_risk":5,"migraine_risk":7,"frizz_risk":0,"updated_at":"2026-03-04T11:17:30.958508+05:30"},{"city":"Surat","state":"Gujarat","latitude":21.1702,"longitude":72.8311,"temp":31.6,"humidity":43,"rain":0.0,"pressure":1012.9,"uv_index":7.1,"wind_gusts":25.2,"aqi":152,"pm10":60.1,"pm2_5":56.2,"mosquito_risk":0,"arthritis_risk":0,"migraine_risk":4,"frizz_risk":1,"updated_at":"2026-03-04T11:17:30.958537+05:30"},{"city":"Vadodara","state":"Gujarat","latitude":22.3072,"longitude":73.1812,"temp":33.5,"humidity":35,"rain":0.0,"pressure":1011.3,"uv_index":7.2,"wind_gusts":18.0,"aqi":140,"pm10":36.2,"pm2_5":27.9,"mosquito_risk":0,"arthritis_risk":0,"migraine_risk":4,"frizz_risk":0,"updated_at":"2026-03-04T11:17:30.958547+05:30"},{"city":"Rajkot","state":"Gujarat","latitude":22.3039,"longitude":70.8022,"temp":31.5,"humidity":39,"rain":0.0,"pressure":1001.6,"uv_index":7.0,"wind_gusts":24.8,"aqi":62,"pm10":27.1,"pm2_5":19.4,"mosquito_risk":0,"arthritis_risk":5,"migraine_risk":4,"frizz_risk":0,"updated_at":"2026-03-04T11:17:30.958556+05:30"},{"city":"Thane","state":"Maharashtra","latitude":19.2183,"longitude":72.9781,"temp":33.7,"humidity":35,"rain":0.0,"pressure":1012.4,"uv_index":7.35,"wind_gusts":35.6,"aqi":134,"pm10":50.2,"pm2_5":49.5,"mosquito_risk":0,"arthritis_risk":0,"migraine_risk":4,"frizz_risk":1,"updated_at":"2026-03-04T11:17:30.958562+05:30"},{"city":"Nagpur","state":"Maharashtra","latitude":21.1458,"longitude":79.0882,"temp":32.7,"humidity":30,"rain":0.0,"pressure":980.1,"uv_index":7.75,"wind_gusts":23.4,"aqi":68,"pm10":22.8,"pm2_5":15.2,"mosquito_risk":0,"arthritis_risk":5,"migraine_risk":7,"frizz_risk":0,"updated_at":"2026-03-04T11:17:30.958598+05:30"},{"city":"Nashik","state":"Maharashtra","latitude":19.9975,"longitude":73.7898,"temp":32.3,"humidity":25,"rain":0.0,"pressure":951.8,"uv_index":7.55,"wind_gusts":23.4,"aqi":83,"pm10":22.6,"pm2_5":21.9,"mosquito_risk":0,"arthritis_risk":5,"migraine_risk":7,"frizz_risk":0,"updated_at":"2026-03-04T11:17:30.958606+05:30"},{"city":"Aurangabad","state":"Maharashtra","latitude":19.8762,"longitude":75.3433,"temp":32.6,"humidity":25,"rain":0.0,"pressure":950.4,"uv_index":8.1,"wind_gusts":22.7,"aqi":75,"pm10":20.0,"pm2_5":18.9,"mosquito_risk":0,"arthritis_risk":5,"migraine_risk":7,"frizz_risk":0,"updated_at":"2026-03-04T11:17:30.958614+05:30"},{"city":"Solapur","state":"Maharashtra","latitude":17.6599,"longitude":75.9064,"temp":31.8,"humidity":39,"rain":0.0,"pressure":962.8,"uv_index":8.35,"wind_gusts":18.7,"aqi":76,"pm10":28.8,"pm2_5":27.6,"mosquito_risk":0,"arthritis_risk":5,"migraine_risk":7,"frizz_risk":1,"updated_at":"2026-03-04T11:17:30.958621+05:30"},{"city":"Kolhapur","state":"Maharashtra","latitude":16.705,"longitude":74.2433,"temp":32.0,"humidity":33,"rain":0.0,"pressure":952.8,"uv_index":8.45,"wind_gusts":37.4,"aqi":159,"pm10":40.2,"pm2_5":39.5,"mosquito_risk":0,"arthritis_risk":5,"migraine_risk":7,"frizz_risk":0,"updated_at":"2026-03-04T11:17:30.958628+05:30"},{"city":"Goa","state":"Goa","latitude":15.2993,"longitude":74.124,"temp":31.2,"humidity":62,"rain":0.0,"pressure":1002.0,"uv_index":8.5,"wind_gusts":34.9,"aqi":104,"pm10":44.6,"pm2_5":41.8,"mosquito_risk":3,"arthritis_risk":5,"migraine_risk":4,"frizz_risk":1,"updated_at":"2026-03-04T11:17:30.958635+05:30"},{"city":"Jodhpur","state":"Rajasthan","latitude":26.2389,"longitude":73.0243,"temp":31.9,"humidity":28,"rain":0.0,"pressure":991.0,"uv_index":6.9,"wind_gusts":18.7,"aqi":78,"pm10":58.6,"pm2_5":24.8,"mosquito_risk":0,"arthritis_risk":5,"migraine_risk":7,"frizz_risk":0,"updated_at":"2026-03-04T11:17:30.958641+05:30"},{"city":"Udaipur","state":"Rajasthan","latitude":24.5854,"longitude":73.7125,"temp":31.8,"humidity":22,"rain":0.0,"pressure":954.1,"uv_index":7.5,"wind_gusts":23.4,"aqi":58,"pm10":31.8,"pm2_5":13.4,"mosquito_risk":0,"arthritis_risk":5,"migraine_risk":7,"frizz_risk":0,"updated_at":"2026-03-04T11:17:30.958648+05:30"},{"city":"Kota","state":"Rajasthan","latitude":25.2138,"longitude":75.8648,"temp":31.1,"humidity":31,"rain":0.0,"pressure":986.6,"uv_index":6.9,"wind_gusts":17.3,"aqi":84,"pm10":28.0,"pm2_5":21.7,"mosquito_risk":0,"arthritis_risk":5,"migraine_risk":7,"frizz_risk":0,"updated_at":"2026-03-04T11:17:30.958655+05:30"},{"city":"Bikaner","state":"Rajasthan","latitude":28.0229,"longitude":73.3119,"temp":30.3,"humidity":32,"rain":0.0,"pressure":989.7,"uv_index":6.6,"wind_gusts":26.3,"aqi":67,"pm10":44.9,"pm2_5":19.1,"mosquito_risk":0,"arthritis_risk":5,"migraine_risk":7,"frizz_risk":0,"updated_at":"2026-03-04T11:17:30.958661+05:30"},{"city":"Ajmer","state":"Rajasthan","latitude":26.4499,"longitude":74.6399,"temp":31.4,"humidity":30,"rain":0.0,"pressure":962.3,"uv_index":6.85,"wind_gusts":25.2,"aqi":69,"pm10":37.7,"pm2_5":15.3,"mosquito_risk":0,"arthritis_risk":5,"migraine_risk":7,"frizz_risk":0,"updated_at":"2026-03-04T11:17:30.958667+05:30"},{"city":"Gwalior","state":"Madhya Pradesh","latitude":26.2183,"longitude":78.1828,"temp":30.9,"humidity":34,"rain":0.0,"pressure":990.4,"uv_index":6.55,"wind_gusts":31.0,"aqi":81,"pm10":26.0,"pm2_5":18.4,"mosquito_risk":0,"arthritis_risk":5,"migraine_risk":7,"frizz_risk":0,"updated_at":"2026-03-04T11:17:30.958674+05:30"},{"city":"Indore","state":"Madhya Pradesh","latitude":22.7196,"longitude":75.8577,"temp":31.4,"humidity":30,"rain":0.0,"pressure":955.3,"uv_index":7.45,"wind_gusts":17.6,"aqi":81,"pm10":30.6,"pm2_5":20.5,"mosquito_risk":0,"arthritis_risk":5,"migraine_risk":7,"frizz_risk":0,"updated_at":"2026-03-04T11:17:30.958680+05:30"},{"city":"Bhopal","state":"Madhya Pradesh","latitude":23.2599,"longitude":77.4126,"temp":31.6,"humidity":30,"rain":0.0,"pressure":961.1,"uv_index":7.35,"wind_gusts":22.0,"aqi":75,"pm10":29.1,"pm2_5":17.4,"mosquito_risk":0,"arthritis_risk":5,"migraine_risk":7,"frizz_risk":0,"updated_at":"2026-03-04T11:17:30.958687+05:30"},{"city":"Jabalpur","state":"Madhya Pradesh","latitude":23.1815,"longitude":79.9864,"temp":29.9,"humidity":39,"rain":0.0,"pressure":968.8,"uv_index":7.45,"wind_gusts":24.5,"aqi":71,"pm10":25.7,"pm2_5":17.5,"mosquito_risk":4,"arthritis_risk":5,"migraine_risk":7,"frizz_risk":0,"updated_at":"2026-03-04T11:17:30.958694+05:30"},{"city":"Ujjain","state":"Madhya Pradesh","latitude":23.1765,"longitude":75.7885,"temp":30.5,"humidity":39,"rain":0.0,"pressure":961.2,"uv_index":7.4,"wind_gusts":16.2,"aqi":101,"pm10":36.8,"pm2_5":26.5,"mosquito_risk":0,"arthritis_risk":5,"migraine_risk":7,"frizz_risk":0,"updated_at":"2026-03-04T11:17:30.958703+05:30"},{"city":"Visakhapatnam","state":"Andhra Pradesh","latitude":17.6868,"longitude":83.2185,"temp":33.1,"humidity":44,"rain":0.0,"pressure":1008.7,"uv_index":8.4,"wind_gusts":37.1,"aqi":139,"pm10":62.4,"pm2_5":58.8,"mosquito_risk":0,"arthritis_risk":0,"migraine_risk":4,"frizz_risk":1,"updated_at":"2026-03-04T11:17:30.958710+05:30"},{"city":"Vijayawada","state":"Andhra Pradesh","latitude":16.5062,"longitude":80.648,"temp":31.3,"humidity":56,"rain":0.0,"pressure":1008.1,"uv_index":8.45,"wind_gusts":20.5,"aqi":129,"pm10":46.4,"pm2_5":41.7,"mosquito_risk":0,"arthritis_risk":0,"migraine_risk":4,"frizz_risk":1,"updated_at":"2026-03-04T11:17:30.958716+05:30"},{"city":"Guntur","state":"Andhra Pradesh","latitude":16.3067,"longitude":80.4365,"temp":32.3,"humidity":47,"rain":0.0,"pressure":1009.2,"uv_index":8.45,"wind_gusts":25.6,"aqi":119,"pm10":43.2,"pm2_5":39.0,"mosquito_risk":0,"arthritis_risk":0,"migraine_risk":4,"frizz_risk":1,"updated_at":"2026-03-04T11:17:30.958723+05:30"},{"city":"Nellore","state":"Andhra Pradesh","latitude":14.4426,"longitude":79.9865,"temp":34.0,"humidity":36,"rain":0.0,"pressure":1010.8,"uv_index":8.65,"wind_gusts":29.9,"aqi":114,"pm10":45.4,"pm2_5":41.8,"mosquito_risk":0,"arthritis_risk":0,"migraine_risk":4,"frizz_risk":1,"updated_at":"2026-03-04T11:17:30.958730+05:30"},{"city":"Kurnool","state":"Andhra Pradesh","latitude":15.8281,"longitude":78.0373,"temp":34.6,"humidity":27,"rain":0.0,"pressure":981.9,"uv_index":8.5,"wind_gusts":26.3,"aqi":98,"pm10":43.9,"pm2_5":41.1,"mosquito_risk":0,"arthritis_risk":5,"migraine_risk":7,"frizz_risk":0,"updated_at":"2026-03-04T11:17:30.958737+05:30"},{"city":"Kakinada","state":"Andhra Pradesh","latitude":16.9891,"longitude":82.2475,"temp":33.5,"humidity":43,"rain":0.0,"pressure":1012.6,"uv_index":8.4,"wind_gusts":33.8,"aqi":109,"pm10":44.6,"pm2_5":38.6,"mosquito_risk":0,"arthritis_risk":0,"migraine_risk":4,"frizz_risk":1,"updated_at":"2026-03-04T11:17:30.958743+05:30"},{"city":"Tirupati","state":"Andhra Pradesh","latitude":13.6288,"longitude":79.4192,"temp":33.3,"humidity":26,"rain":0.0,"pressure":996.6,"uv_index":8.8,"wind_gusts":32.4,"aqi":149,"pm10":40.2,"pm2_5":37.1,"mosquito_risk":0,"arthritis_risk":5,"migraine_risk":7,"frizz_risk":0,"updated_at":"2026-03-04T11:17:30.958750+05:30"},{"city":"Warangal","state":"Telangana","latitude":17.9689,"longitude":79.5941,"temp":31.6,"humidity":44,"rain":0.0,"pressure":984.5,"uv_index":8.25,"wind_gusts":23.8,"aqi":117,"pm10":46.2,"pm2_5":44.4,"mosquito_risk":0,"arthritis_risk":5,"migraine_risk":7,"frizz_risk":1,"updated_at":"2026-03-04T11:17:30.958756+05:30"},{"city":"Nizamabad","state":"Telangana","latitude":18.6725,"longitude":78.0941,"temp":32.6,"humidity":31,"rain":0.0,"pressure":971.0,"uv_index":8.1,"wind_gusts":28.1,"aqi":73,"pm10":24.6,"pm2_5":21.1,"mosquito_risk":0,"arthritis_risk":5,"migraine_risk":7,"frizz_risk":0,"updated_at":"2026-03-04T11:17:30.958762+05:30"},{"city":"Mysore","state":"Karnataka","latitude":12.2958,"longitude":76.6396,"temp":29.7,"humidity":31,"rain":0.0,"pressure":933.0,"uv_index":9.15,"wind_gusts":39.2,"aqi":98,"pm10":35.0,"pm2_5":33.9,"mosquito_risk":4,"arthritis_risk":5,"migraine_risk":7,"frizz_risk":0,"updated_at":"2026-03-04T11:17:30.958768+05:30"},{"city":"Mangalore","state":"Karnataka","latitude":12.9141,"longitude":74.856,"temp":27.9,"humidity":82,"rain":0.0,"pressure":1010.5,"uv_index":8.75,"wind_gusts":30.2,"aqi":81,"pm10":41.8,"pm2_5":36.9,"mosquito_risk":7,"arthritis_risk":0,"migraine_risk":4,"frizz_risk":1,"updated_at":"2026-03-04T11:17:30.958774+05:30"},{"city":"Hubli-Dharwad","state":"Karnataka","latitude":15.3647,"longitude":75.124,"temp":30.6,"humidity":45,"rain":0.0,"pressure":945.8,"uv_index":8.65,"wind_gusts":24.5,"aqi":94,"pm10":37.4,"pm2_5":36.0,"mosquito_risk":0,"arthritis_risk":5,"migraine_risk":7,"frizz_risk":1,"updated_at":"2026-03-04T11:17:30.958781+05:30"},{"city":"Belgaum","state":"Karnataka","latitude":15.8497,"longitude":74.4977,"temp":31.9,"humidity":33,"rain":0.0,"pressure":930.6,"uv_index":8.75,"wind_gusts":32.0,"aqi":135,"pm10":34.6,"pm2_5":33.5,"mosquito_risk":0,"arthritis_risk":5,"migraine_risk":7,"frizz_risk":0,"updated_at":"2026-03-04T11:17:34.303054+05:30"},{"city":"Coimbatore","state":"Tamil Nadu","latitude":11.0168,"longitude":76.9558,"temp":30.0,"humidity":44,"rain":0.0,"pressure":966.5,"uv_index":9.15,"wind_gusts":41.0,"aqi":100,"pm10":32.1,"pm2_5":30.6,"mosquito_risk":4,"arthritis_risk":5,"migraine_risk":7,"frizz_risk":1,"updated_at":"2026-03-04T11:17:34.303085+05:30"},{"city":"Madurai","state":"Tamil Nadu","latitude":9.9252,"longitude":78.1198,"temp":30.4,"humidity":48,"rain":0.0,"pressure":997.9,"uv_index":9.1,"wind_gusts":24.1,"aqi":97,"pm10":29.9,"pm2_5":27.2,"mosquito_risk":0,"arthritis_risk":5,"migraine_risk":7,"frizz_risk":1,"updated_at":"2026-03-04T11:17:34.303097+05:30"},{"city":"Trichy","state":"Tamil Nadu","latitude":10.7905,"longitude":78.7047,"temp":30.8,"humidity":51,"rain":0.0,"pressure":1004.7,"uv_index":9.0,"wind_gusts":28.8,"aqi":104,"pm10":31.5,"pm2_5":28.6,"mosquito_risk":0,"arthritis_risk":5,"migraine_risk":4,"frizz_risk":1,"updated_at":"2026-03-04T11:17:34.303106+05:30"},{"city":"Salem","state":"Tamil Nadu","latitude":11.6643,"longitude":78.146,"temp":32.1,"humidity":37,"rain":0.0,"pressure":982.0,"uv_index":9.05,"wind_gusts":35.6,"aqi":123,"pm10":46.4,"pm2_5":43.9,"mosquito_risk":0,"arthritis_risk":5,"migraine_risk":7,"frizz_risk":0,"updated_at":"2026-03-04T11:17:34.303114+05:30"},{"city":"Tirunelveli","state":"Tamil Nadu","latitude":8.7139,"longitude":77.7567,"temp":32.0,"humidity":45,"rain":0.0,"pressure":1007.8,"uv_index":9.15,"wind_gusts":38.9,"aqi":88,"pm10":21.7,"pm2_5":19.9,"mosquito_risk":0,"arthritis_risk":5,"migraine_risk":4,"frizz_risk":1,"updated_at":"2026-03-04T11:17:34.303123+05:30"},{"city":"Vellore","state":"Tamil Nadu","latitude":12.9165,"longitude":79.1325,"temp":32.5,"humidity":28,"rain":0.0,"pressure":989.6,"uv_index":8.9,"wind_gusts":36.7,"aqi":142,"pm10":39.1,"pm2_5":36.0,"mosquito_risk":0,"arthritis_risk":5,"migraine_risk":7,"frizz_risk":0,"updated_at":"2026-03-04T11:17:34.303131+05:30"},{"city":"Erode","state":"Tamil Nadu","latitude":11.341,"longitude":77.7172,"temp":31.5,"humidity":46,"rain":0.0,"pressure":993.9,"uv_index":9.05,"wind_gusts":28.8,"aqi":101,"pm10":38.6,"pm2_5":36.1,"mosquito_risk":0,"arthritis_risk":5,"migraine_risk":7,"frizz_risk":1,"updated_at":"2026-03-04T11:17:34.303139+05:30"},{"city":"Kochi","state":"Kerala","latitude":9.9312,"longitude":76.2673,"temp":27.3,"humidity":79,"rain":0.0,"pressure":1012.7,"uv_index":8.95,"wind_gusts":32.8,"aqi":105,"pm10":35.0,"pm2_5":32.6,"mosquito_risk":7,"arthritis_risk":0,"migraine_risk":4,"frizz_risk":1,"updated_at":"2026-03-04T11:17:34.303148+05:30"},{"city":"Thiruvananthapuram","state":"Kerala","latitude":8.5241,"longitude":76.9366,"temp":27.1,"humidity":76,"rain":0.0,"pressure":1011.9,"uv_index":9.0,"wind_gusts":27.4,"aqi":98,"pm10":36.4,"pm2_5":34.1,"mosquito_risk":7,"arthritis_risk":0,"migraine_risk":4,"frizz_risk":1,"updated_at":"2026-03-04T11:17:34.303156+05:30"},{"city":"Kozhikode","state":"Kerala","latitude":11.2588,"longitude":75.7804,"temp":29.4,"humidity":72,"rain":0.0,"pressure":1011.7,"uv_index":8.85,"wind_gusts":30.6,"aqi":83,"pm10":45.4,"pm2_5":41.0,"mosquito_risk":7,"arthritis_risk":0,"migraine_risk":4,"frizz_risk":1,"updated_at":"2026-03-04T11:17:34.303164+05:30"},{"city":"Thrissur","state":"Kerala","latitude":10.5276,"longitude":76.2144,"temp":33.1,"humidity":56,"rain":0.0,"pressure":1010.7,"uv_index":8.95,"wind_gusts":38.9,"aqi":113,"pm10":40.4,"pm2_5":38.1,"mosquito_risk":0,"arthritis_risk":0,"migraine_risk":4,"frizz_risk":1,"updated_at":"2026-03-04T11:17:34.303173+05:30"},{"city":"Kannur","state":"Kerala","latitude":11.8745,"longitude":75.3704,"temp":30.7,"humidity":62,"rain":0.0,"pressure":1010.9,"uv_index":8.85,"wind_gusts":35.3,"aqi":77,"pm10":40.5,"pm2_5":36.0,"mosquito_risk":3,"arthritis_risk":0,"migraine_risk":4,"frizz_risk":1,"updated_at":"2026-03-04T11:17:34.303182+05:30"},{"city":"Patna","state":"Bihar","latitude":25.5941,"longitude":85.1376,"temp":28.1,"humidity":47,"rain":0.0,"pressure":1007.5,"uv_index":7.2,"wind_gusts":15.5,"aqi":164,"pm10":126.7,"pm2_5":92.4,"mosquito_risk":4,"arthritis_risk":5,"migraine_risk":4,"frizz_risk":0,"updated_at":"2026-03-04T11:17:34.303190+05:30"},{"city":"Gaya","state":"Bihar","latitude":24.7914,"longitude":85.0002,"temp":28.7,"humidity":44,"rain":0.0,"pressure":1000.6,"uv_index":7.25,"wind_gusts":18.4,"aqi":140,"pm10":78.2,"pm2_5":44.4,"mosquito_risk":4,"arthritis_risk":5,"migraine_risk":4,"frizz_risk":0,"updated_at":"2026-03-04T11:17:34.303197+05:30"},{"city":"Muzaffarpur","state":"Bihar","latitude":26.1209,"longitude":85.3647,"temp":28.7,"humidity":43,"rain":0.0,"pressure":1007.3,"uv_index":7.15,"wind_gusts":12.2,"aqi":167,"pm10":116.2,"pm2_5":86.4,"mosquito_risk":4,"arthritis_risk":5,"migraine_risk":4,"frizz_risk":0,"updated_at":"2026-03-04T11:17:34.303205+05:30"},{"city":"Bhagalpur","state":"Bihar","latitude":25.2425,"longitude":87.0117,"temp":28.2,"humidity":51,"rain":0.0,"pressure":1008.0,"uv_index":7.2,"wind_gusts":9.4,"aqi":159,"pm10":116.4,"pm2_5":70.8,"mosquito_risk":4,"arthritis_risk":0,"migraine_risk":4,"frizz_risk":1,"updated_at":"2026-03-04T11:17:34.303212+05:30"},{"city":"Ranchi","state":"Jharkhand","latitude":23.3441,"longitude":85.3096,"temp":27.3,"humidity":28,"rain":0.0,"pressure":943.7,"uv_index":7.9,"wind_gusts":31.3,"aqi":86,"pm10":97.8,"pm2_5":28.4,"mosquito_risk":4,"arthritis_risk":5,"migraine_risk":7,"frizz_risk":0,"updated_at":"2026-03-04T11:17:34.303220+05:30"},{"city":"Jamshedpur","state":"Jharkhand","latitude":22.8046,"longitude":86.2029,"temp":30.4,"humidity":27,"rain":0.0,"pressure":996.9,"uv_index":7.85,"wind_gusts":24.5,"aqi":118,"pm10":77.5,"pm2_5":44.1,"mosquito_risk":0,"arthritis_risk":5,"migraine_risk":7,"frizz_risk":0,"updated_at":"2026-03-04T11:17:34.303228+05:30"},{"city":"Dhanbad","state":"Jharkhand","latitude":23.7957,"longitude":86.4304,"temp":30.8,"humidity":23,"rain":0.0,"pressure":985.9,"uv_index":7.7,"wind_gusts":25.2,"aqi":126,"pm10":89.6,"pm2_5":51.6,"mosquito_risk":0,"arthritis_risk":5,"migraine_risk":7,"frizz_risk":0,"updated_at":"2026-03-04T11:17:34.303235+05:30"},{"city":"Bokaro","state":"Jharkhand","latitude":23.6693,"longitude":86.1511,"temp":30.1,"humidity":27,"rain":0.0,"pressure":990.1,"uv_index":7.7,"wind_gusts":26.6,"aqi":134,"pm10":110.4,"pm2_5":50.1,"mosquito_risk":0,"arthritis_risk":5,"migraine_risk":7,"frizz_risk":0,"updated_at":"2026-03-04T11:17:34.303243+05:30"},{"city":"Bhubaneswar","state":"Odisha","latitude":20.2961,"longitude":85.8245,"temp":33.7,"humidity":38,"rain":0.0,"pressure":1007.7,"uv_index":8.15,"wind_gusts":26.6,"aqi":152,"pm10":78.2,"pm2_5":64.3,"mosquito_risk":0,"arthritis_risk":5,"migraine_risk":4,"frizz_risk":1,"updated_at":"2026-03-04T11:17:34.303251+05:30"},{"city":"Cuttack","state":"Odisha","latitude":20.4625,"longitude":85.8828,"temp":33.8,"humidity":38,"rain":0.0,"pressure":1009.8,"uv_index":8.15,"wind_gusts":27.7,"aqi":152,"pm10":78.2,"pm2_5":64.3,"mosquito_risk":0,"arthritis_risk":0,"migraine_risk":4,"frizz_risk":1,"updated_at":"2026-03-04T11:17:34.303258+05:30"},{"city":"Rourkela","state":"Odisha","latitude":22.2604,"longitude":84.8536,"temp":31.4,"humidity":27,"rain":0.0,"pressure":991.3,"uv_index":7.75,"wind_gusts":21.6,"aqi":94,"pm10":63.8,"pm2_5":36.7,"mosquito_risk":0,"arthritis_risk":5,"migraine_risk":7,"frizz_risk":0,"updated_at":"2026-03-04T11:17:34.303265+05:30"},{"city":"Raipur","state":"Chhattisgarh","latitude":21.2514,"longitude":81.6296,"temp":32.9,"humidity":25,"rain":0.0,"pressure":981.3,"uv_index":7.8,"wind_gusts":23.4,"aqi":140,"pm10":43.7,"pm2_5":34.1,"mosquito_risk":0,"arthritis_risk":5,"migraine_risk":7,"frizz_risk":0,"updated_at":"2026-03-04T11:17:34.303273+05:30"},{"city":"Bhilai","state":"Chhattisgarh","latitude":21.1938,"longitude":81.3509,"temp":33.4,"humidity":26,"rain":0.0,"pressure":981.7,"uv_index":7.8,"wind_gusts":20.5,"aqi":123,"pm10":36.2,"pm2_5":27.1,"mosquito_risk":0,"arthritis_risk":5,"migraine_risk":7,"frizz_risk":0,"updated_at":"2026-03-04T11:17:34.303280+05:30"},{"city":"Guwahati","state":"Assam","latitude":26.1158,"longitude":91.7086,"temp":27.9,"humidity":54,"rain":0.0,"pressure":1007.4,"uv_index":7.1,"wind_gusts":16.6,"aqi":154,"pm10":57.9,"pm2_5":47.4,"mosquito_risk":4,"arthritis_risk":5,"migraine_risk":4,"frizz_risk":1,"updated_at":"2026-03-04T11:17:34.303288+05:30"},{"city":"Agartala","state":"Tripura","latitude":23.8315,"longitude":91.2868,"temp":29.1,"humidity":50,"rain":0.0,"pressure":1011.2,"uv_index":7.5,"wind_gusts":21.6,"aqi":163,"pm10":83.6,"pm2_5":63.6,"mosquito_risk":4,"arthritis_risk":0,"migraine_risk":4,"frizz_risk":1,"updated_at":"2026-03-04T11:17:34.303296+05:30"},{"city":"Shillong","state":"Meghalaya","latitude":25.5788,"longitude":91.8933,"temp":18.0,"humidity":45,"rain":0.0,"pressure":860.5,"uv_index":7.5,"wind_gusts":29.2,"aqi":151,"pm10":58.3,"pm2_5":45.5,"mosquito_risk":0,"arthritis_risk":5,"migraine_risk":7,"frizz_risk":0,"updated_at":"2026-03-04T11:17:34.303304+05:30"},{"city":"Imphal","state":"Manipur","latitude":24.817,"longitude":93.9368,"temp":22.5,"humidity":46,"rain":0.0,"pressure":927.7,"uv_index":7.7,"wind_gusts":21.2,"aqi":137,"pm10":39.7,"pm2_5":32.7,"mosquito_risk":0,"arthritis_risk":5,"migraine_risk":7,"frizz_risk":0,"updated_at":"2026-03-04T11:17:34.303312+05:30"},{"city":"Aizawl","state":"Mizoram","latitude":23.7271,"longitude":92.7176,"temp":23.0,"humidity":42,"rain":0.0,"pressure":897.0,"uv_index":7.7,"wind_gusts":24.5,"aqi":155,"pm10":61.9,"pm2_5":48.4,"mosquito_risk":0,"arthritis_risk":5,"migraine_risk":7,"frizz_risk":0,"updated_at":"2026-03-04T11:17:34.303320+05:30"},{"city":"Kohima","state":"Nagaland","latitude":25.6701,"longitude":94.1077,"temp":18.4,"humidity":58,"rain":0.0,"pressure":859.4,"uv_index":7.55,"wind_gusts":39.2,"aqi":148,"pm10":53.9,"pm2_5":43.0,"mosquito_risk":0,"arthritis_risk":5,"migraine_risk":7,"frizz_risk":0,"updated_at":"2026-03-04T11:17:34.303328+05:30"},{"city":"Gangtok","state":"Sikkim","latitude":27.3314,"longitude":88.6138,"temp":19.2,"humidity":58,"rain":0.0,"pressure":843.4,"uv_index":7.45,"wind_gusts":20.9,"aqi":151,"pm10":66.4,"pm2_5":47.1,"mosquito_risk":0,"arthritis_risk":5,"migraine_risk":7,"frizz_risk":0,"updated_at":"2026-03-04T11:17:34.303334+05:30"},{"city":"Siliguri","state":"West Bengal","latitude":26.7271,"longitude":88.3953,"temp":24.6,"humidity":62,"rain":0.0,"pressure":1000.4,"uv_index":7.1,"wind_gusts":20.5,"aqi":160,"pm10":77.3,"pm2_5":50.4,"mosquito_risk":3,"arthritis_risk":5,"migraine_risk":4,"frizz_risk":1,"updated_at":"2026-03-04T11:17:37.647528+05:30"},{"city":"Durgapur","state":"West Bengal","latitude":23.5204,"longitude":87.3119,"temp":32.0,"humidity":24,"rain":0.0,"pressure":1000.8,"uv_index":7.7,"wind_gusts":22.3,"aqi":104,"pm10":82.9,"pm2_5":46.2,"mosquito_risk":0,"arthritis_risk":5,"migraine_risk":4,"frizz_risk":0,"updated_at":"2026-03-04T11:17:37.647561+05:30"},{"city":"Asansol","state":"West Bengal","latitude":23.6739,"longitude":86.9524,"temp":31.5,"humidity":25,"rain":0.0,"pressure":999.5,"uv_index":7.7,"wind_gusts":23.0,"aqi":95,"pm10":78.5,"pm2_5":46.0,"mosquito_risk":0,"arthritis_risk":5,"migraine_risk":7,"frizz_risk":0,"updated_at":"2026-03-04T11:17:37.647590+05:30"},{"city":"Pondicherry","state":"Puducherry","latitude":11.9139,"longitude":79.8145,"temp":30.8,"humidity":60,"rain":0.0,"pressure":1013.4,"uv_index":8.85,"wind_gusts":27.4,"aqi":105,"pm10":31.8,"pm2_5":27.5,"mosquito_risk":0,"arthritis_risk":0,"migraine_risk":4,"frizz_risk":1,"updated_at":"2026-03-04T11:17:37.647598+05:30"},{"city":"Port Blair","state":"Andaman and Nicobar Islands","latitude":11.6234,"longitude":92.7265,"temp":27.2,"humidity":73,"rain":0.0,"pressure":1010.2,"uv_index":8.85,"wind_gusts":26.3,"aqi":84,"pm10":48.4,"pm2_5":38.6,"mosquito_risk":7,"arthritis_risk":0,"migraine_risk":4,"frizz_risk":1,"updated_at":"2026-03-04T11:17:37.647606+05:30"},{"city":"Haridwar","state":"Uttarakhand","latitude":29.9457,"longitude":78.1642,"temp":26.0,"humidity":56,"rain":0.0,"pressure":979.7,"uv_index":5.6,"wind_gusts":19.1,"aqi":123,"pm10":45.6,"pm2_5":34.2,"mosquito_risk":4,"arthritis_risk":5,"migraine_risk":3,"frizz_risk":1,"updated_at":"2026-03-04T11:17:37.647614+05:30"},{"city":"Rishikesh","state":"Uttarakhand","latitude":30.0869,"longitude":78.2676,"temp":26.7,"humidity":51,"rain":0.0,"pressure":972.1,"uv_index":5.65,"wind_gusts":24.1,"aqi":97,"pm10":44.0,"pm2_5":31.0,"mosquito_risk":4,"arthritis_risk":5,"migraine_risk":3,"frizz_risk":0,"updated_at":"2026-03-04T11:17:37.647621+05:30"},{"city":"Nainital","state":"Uttarakhand","latitude":29.3919,"longitude":79.4542,"temp":19.2,"humidity":69,"rain":0.0,"pressure":810.3,"uv_index":6.45,"wind_gusts":57.2,"aqi":134,"pm10":56.5,"pm2_5":36.8,"mosquito_risk":3,"arthritis_risk":5,"migraine_risk":7,"frizz_risk":0,"updated_at":"2026-03-04T11:17:37.647629+05:30"},{"city":"Mussoorie","state":"Uttarakhand","latitude":30.4599,"longitude":78.0664,"temp":20.5,"humidity":47,"rain":0.0,"pressure":807.8,"uv_index":6.0,"wind_gusts":37.8,"aqi":93,"pm10":33.2,"pm2_5":25.4,"mosquito_risk":0,"arthritis_risk":5,"migraine_risk":3,"frizz_risk":0,"updated_at":"2026-03-04T11:17:37.647636+05:30"},{"city":"Dharamshala","state":"Himachal Pradesh","latitude":32.219,"longitude":76.3234,"temp":24.6,"humidity":35,"rain":0.0,"pressure":875.3,"uv_index":6.25,"wind_gusts":29.5,"aqi":47,"pm10":19.7,"pm2_5":6.8,"mosquito_risk":0,"arthritis_risk":5,"migraine_risk":7,"frizz_risk":0,"updated_at":"2026-03-04T11:17:37.647642+05:30"},{"city":"Dalhousie","state":"Himachal Pradesh","latitude":32.5387,"longitude":75.971,"temp":25.0,"humidity":17,"rain":0.0,"pressure":811.5,"uv_index":6.45,"wind_gusts":24.1,"aqi":84,"pm10":22.5,"pm2_5":13.8,"mosquito_risk":4,"arthritis_risk":5,"migraine_risk":7,"frizz_risk":1,"updated_at":"2026-03-04T11:17:37.647650+05:30"},{"city":"Patiala","state":"Punjab","latitude":30.3398,"longitude":76.3869,"temp":27.6,"humidity":50,"rain":0.0,"pressure":984.4,"uv_index":5.65,"wind_gusts":32.8,"aqi":220,"pm10":278.5,"pm2_5":71.5,"mosquito_risk":4,"arthritis_risk":5,"migraine_risk":3,"frizz_risk":1,"updated_at":"2026-03-04T11:17:37.647658+05:30"},{"city":"Bhatinda","state":"Punjab","latitude":30.211,"longitude":74.9455,"temp":28.6,"humidity":53,"rain":0.0,"pressure":990.6,"uv_index":6.3,"wind_gusts":25.6,"aqi":151,"pm10":89.9,"pm2_5":65.0,"mosquito_risk":4,"arthritis_risk":5,"migraine_risk":7,"frizz_risk":1,"updated_at":"2026-03-04T11:17:37.647664+05:30"},{"city":"Rohtak","state":"Haryana","latitude":28.8955,"longitude":76.6066,"temp":28.2,"humidity":53,"rain":0.0,"pressure":988.4,"uv_index":5.85,"wind_gusts":34.6,"aqi":410,"pm10":325.0,"pm2_5":72.2,"mosquito_risk":4,"arthritis_risk":5,"migraine_risk":3,"frizz_risk":1,"updated_at":"2026-03-04T11:17:37.647670+05:30"},{"city":"Panipat","state":"Haryana","latitude":29.3909,"longitude":76.9635,"temp":27.8,"humidity":53,"rain":0.0,"pressure":986.6,"uv_index":5.65,"wind_gusts":34.2,"aqi":997,"pm10":765.5,"pm2_5":122.5,"mosquito_risk":4,"arthritis_risk":5,"migraine_risk":3,"frizz_risk":1,"updated_at":"2026-03-04T11:17:37.647676+05:30"},{"city":"Mathura","state":"Uttar Pradesh","latitude":27.4924,"longitude":77.6737,"temp":29.8,"humidity":40,"rain":0.0,"pressure":993.7,"uv_index":6.1,"wind_gusts":32.8,"aqi":423,"pm10":340.9,"pm2_5":65.0,"mosquito_risk":4,"arthritis_risk":5,"migraine_risk":7,"frizz_risk":0,"updated_at":"2026-03-04T11:17:37.647683+05:30"},{"city":"Vrindavan","state":"Uttar Pradesh","latitude":27.5823,"longitude":77.7027,"temp":29.2,"humidity":44,"rain":0.0,"pressure":994.0,"uv_index":6.1,"wind_gusts":34.9,"aqi":423,"pm10":340.9,"pm2_5":65.0,"mosquito_risk":4,"arthritis_risk":5,"migraine_risk":7,"frizz_risk":0,"updated_at":"2026-03-04T11:17:37.647690+05:30"},{"city":"Ayodhya","state":"Uttar Pradesh","latitude":26.7922,"longitude":82.1998,"temp":27.3,"humidity":54,"rain":0.0,"pressure":1002.2,"uv_index":6.5,"wind_gusts":9.7,"aqi":159,"pm10":166.7,"pm2_5":82.2,"mosquito_risk":4,"arthritis_risk":5,"migraine_risk":4,"frizz_risk":1,"updated_at":"2026-03-04T11:17:37.647696+05:30"},{"city":"Ratlam","state":"Madhya Pradesh","latitude":23.3315,"longitude":75.0367,"temp":31.1,"humidity":37,"rain":0.0,"pressure":961.9,"uv_index":7.35,"wind_gusts":18.0,"aqi":98,"pm10":32.8,"pm2_5":23.2,"mosquito_risk":0,"arthritis_risk":5,"migraine_risk":7,"frizz_risk":0,"updated_at":"2026-03-04T11:17:37.647703+05:30"},{"city":"Sagar","state":"Madhya Pradesh","latitude":23.8388,"longitude":78.7378,"temp":30.9,"humidity":32,"rain":0.0,"pressure":957.5,"uv_index":7.25,"wind_gusts":27.0,"aqi":64,"pm10":22.9,"pm2_5":12.0,"mosquito_risk":0,"arthritis_risk":5,"migraine_risk":7,"frizz_risk":0,"updated_at":"2026-03-04T11:17:37.647709+05:30"},{"city":"Satna","state":"Madhya Pradesh","latitude":24.6005,"longitude":80.8322,"temp":30.9,"humidity":31,"rain":0.0,"pressure":978.3,"uv_index":7.25,"wind_gusts":36.7,"aqi":67,"pm10":40.0,"pm2_5":16.2,"mosquito_risk":0,"arthritis_risk":5,"migraine_risk":7,"frizz_risk":0,"updated_at":"2026-03-04T11:17:37.647716+05:30"},{"city":"Akola","state":"Maharashtra","latitude":20.7002,"longitude":77.0082,"temp":33.4,"humidity":28,"rain":0.0,"pressure":982.1,"uv_index":7.8,"wind_gusts":14.4,"aqi":73,"pm10":24.0,"pm2_5":18.9,"mosquito_risk":0,"arthritis_risk":5,"migraine_risk":7,"frizz_risk":0,"updated_at":"2026-03-04T11:17:37.647723+05:30"},{"city":"Amravati","state":"Maharashtra","latitude":20.9374,"longitude":77.7796,"temp":34.1,"humidity":26,"rain":0.0,"pressure":974.2,"uv_index":7.75,"wind_gusts":16.2,"aqi":69,"pm10":22.8,"pm2_5":17.0,"mosquito_risk":0,"arthritis_risk":5,"migraine_risk":7,"frizz_risk":0,"updated_at":"2026-03-04T11:17:37.647730+05:30"},{"city":"Latur","state":"Maharashtra","latitude":18.4088,"longitude":76.5604,"temp":32.1,"humidity":28,"rain":0.0,"pressure":945.9,"uv_index":8.25,"wind_gusts":20.5,"aqi":79,"pm10":19.4,"pm2_5":18.0,"mosquito_risk":0,"arthritis_risk":5,"migraine_risk":7,"frizz_risk":0,"updated_at":"2026-03-04T11:17:37.647736+05:30"},{"city":"Nanded","state":"Maharashtra","latitude":19.1383,"longitude":77.3091,"temp":33.7,"humidity":30,"rain":0.0,"pressure":974.8,"uv_index":8.0,"wind_gusts":14.4,"aqi":81,"pm10":24.7,"pm2_5":20.7,"mosquito_risk":0,"arthritis_risk":5,"migraine_risk":7,"frizz_risk":0,"updated_at":"2026-03-04T11:17:37.647742+05:30"},{"city":"Gulbarga","state":"Karnataka","latitude":17.3297,"longitude":76.8343,"temp":34.1,"humidity":25,"rain":0.0,"pressure":964.3,"uv_index":8.35,"wind_gusts":25.2,"aqi":86,"pm10":38.6,"pm2_5":37.3,"mosquito_risk":0,"arthritis_risk":5,"migraine_risk":7,"frizz_risk":0,"updated_at":"2026-03-04T11:17:37.647748+05:30"},{"city":"Bidar","state":"Karnataka","latitude":17.9104,"longitude":77.5199,"temp":33.1,"humidity":22,"rain":0.0,"pressure":941.3,"uv_index":8.3,"wind_gusts":26.6,"aqi":90,"pm10":20.0,"pm2_5":17.9,"mosquito_risk":0,"arthritis_risk":5,"migraine_risk":7,"frizz_risk":0,"updated_at":"2026-03-04T11:17:37.647754+05:30"},{"city":"Hospet","state":"Karnataka","latitude":15.2689,"longitude":76.3909,"temp":30.9,"humidity":37,"rain":0.0,"pressure":961.1,"uv_index":8.65,"wind_gusts":25.2,"aqi":102,"pm10":38.5,"pm2_5":37.3,"mosquito_risk":0,"arthritis_risk":5,"migraine_risk":7,"frizz_risk":0,"updated_at":"2026-03-04T11:17:37.647761+05:30"},{"city":"Tirupur","state":"Tamil Nadu","latitude":11.1085,"longitude":77.3411,"temp":30.9,"humidity":42,"rain":0.0,"pressure":980.2,"uv_index":9.15,"wind_gusts":31.0,"aqi":108,"pm10":40.7,"pm2_5":38.6,"mosquito_risk":0,"arthritis_risk":5,"migraine_risk":7,"frizz_risk":1,"updated_at":"2026-03-04T11:17:37.647767+05:30"},{"city":"Alappuzha","state":"Kerala","latitude":9.4981,"longitude":76.3388,"temp":27.5,"humidity":79,"rain":0.0,"pressure":1012.7,"uv_index":8.95,"wind_gusts":32.4,"aqi":103,"pm10":38.6,"pm2_5":36.7,"mosquito_risk":7,"arthritis_risk":0,"migraine_risk":4,"frizz_risk":1,"updated_at":"2026-03-04T11:17:37.647773+05:30"},{"city":"Munnar","state":"Kerala","latitude":10.0889,"longitude":77.0595,"temp":26.8,"humidity":44,"rain":0.0,"pressure":861.5,"uv_index":9.45,"wind_gusts":22.0,"aqi":88,"pm10":27.2,"pm2_5":26.2,"mosquito_risk":4,"arthritis_risk":5,"migraine_risk":7,"frizz_risk":0,"updated_at":"2026-03-04T11:17:37.647781+05:30"},{"city":"Silchar","state":"Assam","latitude":24.8333,"longitude":92.7789,"temp":29.5,"humidity":45,"rain":0.0,"pressure":1010.1,"uv_index":7.45,"wind_gusts":15.8,"aqi":152,"pm10":45.6,"pm2_5":35.7,"mosquito_risk":4,"arthritis_risk":0,"migraine_risk":4,"frizz_risk":1,"updated_at":"2026-03-04T11:17:37.647787+05:30"},{"city":"Dibrugarh","state":"Assam","latitude":27.4728,"longitude":94.912,"temp":25.9,"humidity":64,"rain":0.0,"pressure":1001.4,"uv_index":7.15,"wind_gusts":9.0,"aqi":134,"pm10":71.9,"pm2_5":53.3,"mosquito_risk":7,"arthritis_risk":5,"migraine_risk":4,"frizz_risk":1,"updated_at":"2026-03-04T11:17:37.647794+05:30"}]