[{"city":"Delhi","state":"Delhi","latitude":28.6139,"longitude":77.209,"temp":21.7,"humidity":69,"rain":0.0,"pressure":983.6,"uv_index":5.9,"wind_gusts":18.0,"aqi":462,"pm10":371.6,"pm2_5":94.1,"mosquito_risk":3,"arthritis_risk":5,"migraine_risk":3,"frizz_risk":0,"updated_at":"2026-03-06T02:10:45.873625+05:30"},{"city":"Mumbai","state":"Maharashtra","latitude":19.076,"longitude":72.8777,"temp":27.5,"humidity":73,"rain":0.0,"pressure":1008.7,"uv_index":7.45,"wind_gusts":25.2,"aqi":101,"pm10":28.5,"pm2_5":27.0,"mosquito_risk":7,"arthritis_risk":0,"migraine_risk":4,"frizz_risk":1,"updated_at":"2026-03-06T02:10:45.873665+05:30"},{"city":"Bangalore","state":"Karnataka","latitude":12.9716,"longitude":77.5946,"temp":20.8,"humidity":59,"rain":0.0,"pressure":910.8,"uv_index":9.15,"wind_gusts":20.5,"aqi":87,"pm10":36.9,"pm2_5":33.5,"mosquito_risk":0,"arthritis_risk":5,"migraine_risk":7,"frizz_risk":0,"updated_at":"2026-03-06T02:10:45.873681+05:30"},{"city":"Hyderabad","state":"Telangana","latitude":17.385,"longitude":78.4867,"temp":24.2,"humidity":50,"rain":0.0,"pressure":953.0,"uv_index":8.45,"wind_gusts":23.8,"aqi":93,"pm10":45.9,"pm2_5":44.0,"mosquito_risk":0,"arthritis_risk":5,"migraine_risk":7,"frizz_risk":0,"updated_at":"2026-03-06T02:10:45.873691+05:30"},{"city":"Chennai","state":"Tamil Nadu","latitude":13.0827,"longitude":80.2707,"temp":24.1,"humidity":94,"rain":0.0,"pressure":1007.2,"uv_index":8.9,"wind_gusts":32.8,"aqi":91,"pm10":25.2,"pm2_5":21.5,"mosquito_risk":3,"arthritis_risk":5,"migraine_risk":4,"frizz_risk":1,"updated_at":"2026-03-06T02:10:45.873700+05:30"},{"city":"Kolkata","state":"West Bengal","latitude":22.5726,"longitude":88.3639,"temp":21.8,"humidity":93,"rain":0.0,"pressure":1006.8,"uv_index":7.8,"wind_gusts":15.5,"aqi":169,"pm10":119.7,"pm2_5":105.9,"mosquito_risk":3,"arthritis_risk":5,"migraine_risk":4,"frizz_risk":1,"updated_at":"2026-03-06T02:10:45.873708+05:30"},{"city":"Pune","state":"Maharashtra","latitude":18.5204,"longitude":73.8567,"temp":21.7,"humidity":59,"rain":0.0,"pressure":948.5,"uv_index":8.0,"wind_gusts":27.4,"aqi":81,"pm10":40.5,"pm2_5":38.8,"mosquito_risk":0,"arthritis_risk":5,"migraine_risk":7,"frizz_risk":0,"updated_at":"2026-03-06T02:10:45.873720+05:30"},{"city":"Ahmedabad","state":"Gujarat","latitude":23.0225,"longitude":72.5714,"temp":21.8,"humidity":59,"rain":0.0,"pressure":1004.2,"uv_index":7.25,"wind_gusts":19.8,"aqi":71,"pm10":46.0,"pm2_5":44.6,"mosquito_risk":0,"arthritis_risk":5,"migraine_risk":4,"frizz_risk":0,"updated_at":"2026-03-06T02:10:45.873727+05:30"},{"city":"Jaipur","state":"Rajasthan","latitude":26.9124,"longitude":75.7873,"temp":24.8,"humidity":37,"rain":0.0,"pressure":960.9,"uv_index":6.7,"wind_gusts":21.6,"aqi":100,"pm10":111.3,"pm2_5":27.2,"mosquito_risk":0,"arthritis_risk":5,"migraine_risk":7,"frizz_risk":0,"updated_at":"2026-03-06T02:10:45.873735+05:30"},{"city":"Lucknow","state":"Uttar Pradesh","latitude":26.8467,"longitude":80.9462,"temp":21.5,"humidity":79,"rain":0.0,"pressure":994.6,"uv_index":6.4,"wind_gusts":21.6,"aqi":169,"pm10":168.6,"pm2_5":105.9,"mosquito_risk":3,"arthritis_risk":5,"migraine_risk":7,"frizz_risk":1,"updated_at":"2026-03-06T02:10:45.873742+05:30"},{"city":"Kanpur","state":"Uttar Pradesh","latitude":26.4499,"longitude":80.3319,"temp":21.0,"humidity":81,"rain":0.0,"pressure":992.8,"uv_index":6.4,"wind_gusts":13.0,"aqi":178,"pm10":269.2,"pm2_5":97.6,"mosquito_risk":3,"arthritis_risk":5,"migraine_risk":7,"frizz_risk":1,"updated_at":"2026-03-06T02:10:45.873749+05:30"},{"city":"Chandigarh","state":"Chandigarh","latitude":30.7333,"longitude":76.7794,"temp":20.4,"humidity":75,"rain":0.0,"pressure":968.6,"uv_index":5.8,"wind_gusts":23.4,"aqi":98,"pm10":44.6,"pm2_5":38.6,"mosquito_risk":3,"arthritis_risk":5,"migraine_risk":3,"frizz_risk":0,"updated_at":"2026-03-06T02:10:45.873757+05:30"},{"city":"Srinagar","state":"Jammu and Kashmir","latitude":34.0837,"longitude":74.7973,"temp":7.8,"humidity":79,"rain":0.0,"pressure":839.0,"uv_index":6.5,"wind_gusts":16.2,"aqi":147,"pm10":85.9,"pm2_5":68.5,"mosquito_risk":3,"arthritis_risk":5,"migraine_risk":7,"frizz_risk":0,"updated_at":"2026-03-06T02:10:45.873764+05:30"},{"city":"Jammu","state":"Jammu and Kashmir","latitude":32.7266,"longitude":74.857,"temp":17.9,"humidity":92,"rain":0.0,"pressure":972.9,"uv_index":5.9,"wind_gusts":20.2,"aqi":111,"pm10":57.6,"pm2_5":48.8,"mosquito_risk":3,"arthritis_risk":10,"migraine_risk":3,"frizz_risk":1,"updated_at":"2026-03-06T02:10:45.873771+05:30"},{"city":"Amritsar","state":"Punjab","latitude":31.634,"longitude":74.8723,"temp":19.2,"humidity":75,"rain":0.0,"pressure":981.1,"uv_index":6.15,"wind_gusts":14.4,"aqi":145,"pm10":88.7,"pm2_5":77.1,"mosquito_risk":3,"arthritis_risk":5,"migraine_risk":7,"frizz_risk":0,"updated_at":"2026-03-06T02:10:45.873778+05:30"},{"city":"Ludhiana","state":"Punjab","latitude":30.901,"longitude":75.8573,"temp":21.7,"humidity":69,"rain":0.0,"pressure":979.0,"uv_index":6.05,"wind_gusts":14.4,"aqi":156,"pm10":103.4,"pm2_5":80.6,"mosquito_risk":3,"arthritis_risk":5,"migraine_risk":7,"frizz_risk":0,"updated_at":"2026-03-06T02:10:45.873787+05:30"},{"city":"Jalandhar","state":"Punjab","latitude":31.326,"longitude":75.5762,"temp":19.4,"humidity":83,"rain":0.0,"pressure":980.2,"uv_index":6.2,"wind_gusts":14.8,"aqi":156,"pm10":102.0,"pm2_5":89.6,"mosquito_risk":3,"arthritis_risk":10,"migraine_risk":7,"frizz_risk":1,"updated_at":"2026-03-06T02:10:45.873796+05:30"},{"city":"Dehradun","state":"Uttarakhand","latitude":30.6284,"longitude":78.0322,"temp":13.2,"humidity":51,"rain":0.0,"pressure":828.1,"uv_index":6.15,"wind_gusts":25.9,"aqi":68,"pm10":31.9,"pm2_5":27.2,"mosquito_risk":0,"arthritis_risk":5,"migraine_risk":7,"frizz_risk":0,"updated_at":"2026-03-06T02:10:45.873803+05:30"},{"city":"Shimla","state":"Himachal Pradesh","latitude":31.1048,"longitude":77.1734,"temp":13.5,"humidity":48,"rain":0.0,"pressure":783.8,"uv_index":6.25,"wind_gusts":29.9,"aqi":66,"pm10":44.0,"pm2_5":26.5,"mosquito_risk":0,"arthritis_risk":5,"migraine_risk":7,"frizz_risk":0,"updated_at":"2026-03-06T02:10:45.873809+05:30"},{"city":"Manali","state":"Himachal Pradesh","latitude":32.2396,"longitude":77.1887,"temp":18.5,"humidity":24,"rain":0.0,"pressure":821.8,"uv_index":7.0,"wind_gusts":36.4,"aqi":57,"pm10":29.2,"pm2_5":20.3,"mosquito_risk":0,"arthritis_risk":5,"migraine_risk":7,"frizz_risk":1,"updated_at":"2026-03-06T02:10:45.873816+05:30"},{"city":"Gurgaon","state":"Haryana","latitude":28.4595,"longitude":77.0266,"temp":19.7,"humidity":71,"rain":0.0,"pressure":981.8,"uv_index":6.05,"wind_gusts":15.8,"aqi":1508,"pm10":724.6,"pm2_5":127.6,"mosquito_risk":3,"arthritis_risk":5,"migraine_risk":7,"frizz_risk":0,"updated_at":"2026-03-06T02:10:45.873823+05:30"},{"city":"Noida","state":"Uttar Pradesh","latitude":28.5355,"longitude":77.391,"temp":21.7,"humidity":70,"rain":0.0,"pressure":985.1,"uv_index":5.95,"wind_gusts":16.9,"aqi":1508,"pm10":724.6,"pm2_5":127.6,"mosquito_risk":3,"arthritis_risk":5,"migraine_risk":3,"frizz_risk":0,"updated_at":"2026-03-06T02:10:45.873830+05:30"},{"city":"Ghaziabad","state":"Uttar Pradesh","latitude":28.6692,"longitude":77.4538,"temp":21.5,"humidity":74,"rain":0.0,"pressure":983.2,"uv_index":5.9,"wind_gusts":13.7,"aqi":330,"pm10":426.5,"pm2_5":113.9,"mosquito_risk":3,"arthritis_risk":5,"migraine_risk":3,"frizz_risk":1,"updated_at":"2026-03-06T02:10:45.873836+05:30"},{"city":"Faridabad","state":"Haryana","latitude":28.4089,"longitude":77.3178,"temp":23.0,"humidity":55,"rain":0.0,"pressure":984.3,"uv_index":5.95,"wind_gusts":16.6,"aqi":1508,"pm10":724.6,"pm2_5":127.6,"mosquito_risk":0,"arthritis_risk":5,"migraine_risk":3,"frizz_risk":0,"updated_at":"2026-03-06T02:10:45.873842+05:30"},{"city":"Meerut","state":"Uttar Pradesh","latitude":28.9845,"longitude":77.7064,"temp":19.6,"humidity":87,"rain":0.0,"pressure":981.7,"uv_index":5.75,"wind_gusts":13.3,"aqi":330,"pm10":426.5,"pm2_5":113.9,"mosquito_risk":3,"arthritis_risk":10,"migraine_risk":3,"frizz_risk":1,"updated_at":"2026-03-06T02:10:45.873849+05:30"},{"city":"Agra","state":"Uttar Pradesh","latitude":27.1767,"longitude":78.0081,"temp":19.8,"humidity":64,"rain":0.0,"pressure":988.3,"uv_index":6.3,"wind_gusts":18.0,"aqi":534,"pm10":577.4,"pm2_5":104.8,"mosquito_risk":3,"arthritis_risk":5,"migraine_risk":7,"frizz_risk":0,"updated_at":"2026-03-06T02:10:45.873858+05:30"},{"city":"Varanasi","state":"Uttar Pradesh","latitude":25.3176,"longitude":82.9739,"temp":21.5,"humidity":74,"rain":0.0,"pressure":998.8,"uv_index":7.1,"wind_gusts":18.0,"aqi":159,"pm10":161.1,"pm2_5":98.0,"mosquito_risk":3,"arthritis_risk":5,"migraine_risk":7,"frizz_risk":1,"updated_at":"2026-03-06T02:10:45.873866+05:30"},{"city":"Prayagraj","state":"Uttar Pradesh","latitude":25.4358,"longitude":81.8463,"temp":20.8,"humidity":82,"rain":0.0,"pressure":997.1,"uv_index":6.95,"wind_gusts":15.5,"aqi":162,"pm10":172.8,"pm2_5":108.3,"mosquito_risk":3,"arthritis_risk":5,"migraine_risk":7,"frizz_risk":1,"updated_at":"2026-03-06T02:10:45.873873+05:30"},{"city":"Gorakhpur","state":"Uttar Pradesh","latitude":26.7606,"longitude":83.3732,"temp":20.1,"humidity":75,"rain":0.0,"pressure":998.7,"uv_index":6.75,"wind_gusts":17.6,"aqi":173,"pm10":131.8,"pm2_5":108.0,"mosquito_risk":3,"arthritis_risk":5,"migraine_risk":7,"frizz_risk":0,"updated_at":"2026-03-06T02:10:45.873880+05:30"},{"city":"Bareilly","state":"Uttar Pradesh","latitude":28.367,"longitude":79.4304,"temp":19.3,"humidity":89,"rain":0.0,"pressure":987.7,"uv_index":6.1,"wind_gusts":20.9,"aqi":170,"pm10":104.5,"pm2_5":80.3,"mosquito_risk":3,"arthritis_risk":10,"migraine_risk":7,"frizz_risk":1,"updated_at":"2026-03-06T02:10:45.873886+05:30"},{"city":"Aligarh","state":"Uttar Pradesh","latitude":27.8974,"longitude":78.088,"temp":19.9,"humidity":73,"rain":0.0,"pressure":986.3,"uv_index":6.0,"wind_gusts":18.7,"aqi":749,"pm10":713.4,"pm2_5":149.9,"mosquito_risk":3,"arthritis_risk":5,"migraine_risk":3,"frizz_risk":0,"updated_at":"2026-03-06T02:10:45.873892+05:30"},{"city":"Moradabad","state":"Uttar Pradesh","latitude":28.8386,"longitude":78.7733,"temp":19.2,"humidity":90,"rain":0.0,"pressure":984.5,"uv_index":5.9,"wind_gusts":24.8,"aqi":174,"pm10":97.1,"pm2_5":78.0,"mosquito_risk":3,"arthritis_risk":10,"migraine_risk":3,"frizz_risk":1,"updated_at":"2026-03-06T02:10:45.873898+05:30"},{"city":"Saharanpur","state":"Uttar Pradesh","latitude":29.9637,"longitude":77.546,"temp":17.7,"humidity":95,"rain":0.0,"pressure":975.9,"uv_index":5.55,"wind_gusts":25.6,"aqi":162,"pm10":172.3,"pm2_5":90.1,"mosquito_risk":3,"arthritis_risk":10,"migraine_risk":3,"frizz_risk":1,"updated_at":"2026-03-06T02:10:45.873903+05:30"},{"city":"Jhansi","state":"Uttar Pradesh","latitude":25.4484,"longitude":78.5685,"temp":20.3,"humidity":63,"rain":0.0,"pressure":978.7,"uv_index":6.9,"wind_gusts":24.8,"aqi":60,"pm10":31.2,"pm2_5":20.0,"mosquito_risk":3,"arthritis_risk":5,"migraine_risk":7,"frizz_risk":0,"updated_at":"2026-03-06T02:10:49.120163+05:30"},{"city":"Surat","state":"Gujarat","latitude":21.1702,"longitude":72.8311,"temp":24.1,"humidity":71,"rain":0.0,"pressure":1008.0,"uv_index":7.15,"wind_gusts":22.7,"aqi":112,"pm10":46.7,"pm2_5":45.5,"mosquito_risk":3,"arthritis_risk":0,"migraine_risk":4,"frizz_risk":1,"updated_at":"2026-03-06T02:10:49.120194+05:30"},{"city":"Vadodara","state":"Gujarat","latitude":22.3072,"longitude":73.1812,"temp":24.0,"humidity":51,"rain":0.0,"pressure":1005.8,"uv_index":7.25,"wind_gusts":18.7,"aqi":83,"pm10":40.0,"pm2_5":39.2,"mosquito_risk":0,"arthritis_risk":5,"migraine_risk":4,"frizz_risk":0,"updated_at":"2026-03-06T02:10:49.120204+05:30"},{"city":"Rajkot","state":"Gujarat","latitude":22.3039,"longitude":70.8022,"temp":21.3,"humidity":81,"rain":0.0,"pressure":996.8,"uv_index":7.1,"wind_gusts":23.0,"aqi":54,"pm10":14.1,"pm2_5":12.3,"mosquito_risk":3,"arthritis_risk":5,"migraine_risk":7,"frizz_risk":1,"updated_at":"2026-03-06T02:10:49.120212+05:30"},{"city":"Thane","state":"Maharashtra","latitude":19.2183,"longitude":72.9781,"temp":26.0,"humidity":61,"rain":0.0,"pressure":1008.2,"uv_index":7.4,"wind_gusts":35.6,"aqi":101,"pm10":28.5,"pm2_5":27.0,"mosquito_risk":7,"arthritis_risk":0,"migraine_risk":4,"frizz_risk":1,"updated_at":"2026-03-06T02:10:49.120220+05:30"},{"city":"Nagpur","state":"Maharashtra","latitude":21.1458,"longitude":79.0882,"temp":22.1,"humidity":49,"rain":0.0,"pressure":973.4,"uv_index":7.8,"wind_gusts":26.3,"aqi":54,"pm10":22.4,"pm2_5":15.8,"mosquito_risk":0,"arthritis_risk":5,"migraine_risk":7,"frizz_risk":0,"updated_at":"2026-03-06T02:10:49.120228+05:30"},{"city":"Nashik","state":"Maharashtra","latitude":19.9975,"longitude":73.7898,"temp":22.6,"humidity":49,"rain":0.0,"pressure":946.4,"uv_index":7.6,"wind_gusts":33.1,"aqi":74,"pm10":23.5,"pm2_5":21.6,"mosquito_risk":0,"arthritis_risk":5,"migraine_risk":7,"frizz_risk":0,"updated_at":"2026-03-06T02:10:49.120235+05:30"},{"city":"Aurangabad","state":"Maharashtra","latitude":19.8762,"longitude":75.3433,"temp":23.8,"humidity":44,"rain":0.0,"pressure":944.6,"uv_index":8.15,"wind_gusts":24.1,"aqi":70,"pm10":31.9,"pm2_5":27.5,"mosquito_risk":0,"arthritis_risk":5,"migraine_risk":7,"frizz_risk":0,"updated_at":"2026-03-06T02:10:49.120242+05:30"},{"city":"Solapur","state":"Maharashtra","latitude":17.6599,"longitude":75.9064,"temp":23.9,"humidity":51,"rain":0.0,"pressure":956.6,"uv_index":8.4,"wind_gusts":18.0,"aqi":77,"pm10":24.9,"pm2_5":23.2,"mosquito_risk":0,"arthritis_risk":5,"migraine_risk":7,"frizz_risk":0,"updated_at":"2026-03-06T02:10:49.120250+05:30"},{"city":"Kolhapur","state":"Maharashtra","latitude":16.705,"longitude":74.2433,"temp":18.1,"humidity":70,"rain":0.0,"pressure":947.1,"uv_index":8.55,"wind_gusts":30.2,"aqi":151,"pm10":82.7,"pm2_5":81.7,"mosquito_risk":3,"arthritis_risk":5,"migraine_risk":7,"frizz_risk":0,"updated_at":"2026-03-06T02:10:49.120257+05:30"},{"city":"Goa","state":"Goa","latitude":15.2993,"longitude":74.124,"temp":25.3,"humidity":94,"rain":0.0,"pressure":997.7,"uv_index":8.6,"wind_gusts":31.3,"aqi":152,"pm10":73.3,"pm2_5":71.0,"mosquito_risk":7,"arthritis_risk":5,"migraine_risk":7,"frizz_risk":1,"updated_at":"2026-03-06T02:10:49.120265+05:30"},{"city":"Jodhpur","state":"Rajasthan","latitude":26.2389,"longitude":73.0243,"temp":21.4,"humidity":34,"rain":0.0,"pressure":984.5,"uv_index":6.95,"wind_gusts":21.2,"aqi":76,"pm10":90.3,"pm2_5":20.7,"mosquito_risk":0,"arthritis_risk":5,"migraine_risk":7,"frizz_risk":0,"updated_at":"2026-03-06T02:10:49.120272+05:30"},{"city":"Udaipur","state":"Rajasthan","latitude":24.5854,"longitude":73.7125,"temp":17.9,"humidity":35,"rain":0.0,"pressure":947.8,"uv_index":7.6,"wind_gusts":22.7,"aqi":55,"pm10":16.6,"pm2_5":15.9,"mosquito_risk":0,"arthritis_risk":5,"migraine_risk":7,"frizz_risk":0,"updated_at":"2026-03-06T02:10:49.120279+05:30"},{"city":"Kota","state":"Rajasthan","latitude":25.2138,"longitude":75.8648,"temp":20.3,"humidity":61,"rain":0.0,"pressure":979.6,"uv_index":7.0,"wind_gusts":16.6,"aqi":78,"pm10":40.7,"pm2_5":28.6,"mosquito_risk":3,"arthritis_risk":5,"migraine_risk":7,"frizz_risk":0,"updated_at":"2026-03-06T02:10:49.120285+05:30"},{"city":"Bikaner","state":"Rajasthan","latitude":28.0229,"longitude":73.3119,"temp":22.5,"humidity":39,"rain":0.0,"pressure":982.8,"uv_index":6.65,"wind_gusts":22.7,"aqi":61,"pm10":32.6,"pm2_5":11.8,"mosquito_risk":0,"arthritis_risk":5,"migraine_risk":7,"frizz_risk":0,"updated_at":"2026-03-06T02:10:49.120291+05:30"},{"city":"Ajmer","state":"Rajasthan","latitude":26.4499,"longitude":74.6399,"temp":22.2,"humidity":43,"rain":0.0,"pressure":955.9,"uv_index":6.95,"wind_gusts":22.3,"aqi":68,"pm10":37.0,"pm2_5":15.0,"mosquito_risk":0,"arthritis_risk":5,"migraine_risk":7,"frizz_risk":0,"updated_at":"2026-03-06T02:10:49.120298+05:30"},{"city":"Gwalior","state":"Madhya Pradesh","latitude":26.2183,"longitude":78.1828,"temp":21.6,"humidity":63,"rain":0.0,"pressure":984.0,"uv_index":6.6,"wind_gusts":22.0,"aqi":77,"pm10":113.6,"pm2_5":35.4,"mosquito_risk":3,"arthritis_risk":5,"migraine_risk":7,"frizz_risk":0,"updated_at":"2026-03-06T02:10:49.120304+05:30"},{"city":"Indore","state":"Madhya Pradesh","latitude":22.7196,"longitude":75.8577,"temp":19.3,"humidity":57,"rain":0.0,"pressure":948.8,"uv_index":7.55,"wind_gusts":22.0,"aqi":78,"pm10":42.5,"pm2_5":32.5,"mosquito_risk":0,"arthritis_risk":5,"migraine_risk":7,"frizz_risk":0,"updated_at":"2026-03-06T02:10:49.120310+05:30"},{"city":"Bhopal","state":"Madhya Pradesh","latitude":23.2599,"longitude":77.4126,"temp":20.1,"humidity":53,"rain":0.0,"pressure":954.4,"uv_index":7.4,"wind_gusts":24.8,"aqi":64,"pm10":36.7,"pm2_5":26.9,"mosquito_risk":0,"arthritis_risk":5,"migraine_risk":7,"frizz_risk":0,"updated_at":"2026-03-06T02:10:49.120317+05:30"},{"city":"Jabalpur","state":"Madhya Pradesh","latitude":23.1815,"longitude":79.9864,"temp":22.4,"humidity":51,"rain":0.0,"pressure":962.0,"uv_index":7.5,"wind_gusts":26.6,"aqi":62,"pm10":44.6,"pm2_5":28.0,"mosquito_risk":0,"arthritis_risk":5,"migraine_risk":7,"frizz_risk":0,"updated_at":"2026-03-06T02:10:49.120323+05:30"},{"city":"Ujjain","state":"Madhya Pradesh","latitude":23.1765,"longitude":75.7885,"temp":19.1,"humidity":59,"rain":0.0,"pressure":954.5,"uv_index":7.45,"wind_gusts":18.0,"aqi":107,"pm10":56.1,"pm2_5":49.7,"mosquito_risk":0,"arthritis_risk":5,"migraine_risk":7,"frizz_risk":0,"updated_at":"2026-03-06T02:10:49.120330+05:30"},{"city":"Visakhapatnam","state":"Andhra Pradesh","latitude":17.6868,"longitude":83.2185,"temp":24.5,"humidity":90,"rain":0.0,"pressure":1002.2,"uv_index":8.45,"wind_gusts":34.6,"aqi":115,"pm10":46.0,"pm2_5":43.4,"mosquito_risk":3,"arthritis_risk":5,"migraine_risk":4,"frizz_risk":1,"updated_at":"2026-03-06T02:10:49.120337+05:30"},{"city":"Vijayawada","state":"Andhra Pradesh","latitude":16.5062,"longitude":80.648,"temp":24.4,"humidity":76,"rain":0.0,"pressure":1001.6,"uv_index":8.55,"wind_gusts":17.3,"aqi":114,"pm10":49.8,"pm2_5":48.3,"mosquito_risk":3,"arthritis_risk":5,"migraine_risk":4,"frizz_risk":1,"updated_at":"2026-03-06T02:10:49.120344+05:30"},{"city":"Guntur","state":"Andhra Pradesh","latitude":16.3067,"longitude":80.4365,"temp":23.8,"humidity":78,"rain":0.0,"pressure":1002.7,"uv_index":8.55,"wind_gusts":17.3,"aqi":107,"pm10":48.0,"pm2_5":46.3,"mosquito_risk":3,"arthritis_risk":5,"migraine_risk":4,"frizz_risk":1,"updated_at":"2026-03-06T02:10:49.120351+05:30"},{"city":"Nellore","state":"Andhra Pradesh","latitude":14.4426,"longitude":79.9865,"temp":24.2,"humidity":81,"rain":0.0,"pressure":1005.2,"uv_index":8.75,"wind_gusts":29.2,"aqi":95,"pm10":32.1,"pm2_5":30.5,"mosquito_risk":3,"arthritis_risk":5,"migraine_risk":4,"frizz_risk":1,"updated_at":"2026-03-06T02:10:49.120358+05:30"},{"city":"Kurnool","state":"Andhra Pradesh","latitude":15.8281,"longitude":78.0373,"temp":27.3,"humidity":39,"rain":0.0,"pressure":976.1,"uv_index":8.55,"wind_gusts":20.5,"aqi":75,"pm10":17.8,"pm2_5":16.3,"mosquito_risk":4,"arthritis_risk":5,"migraine_risk":7,"frizz_risk":0,"updated_at":"2026-03-06T02:10:49.120366+05:30"},{"city":"Kakinada","state":"Andhra Pradesh","latitude":16.9891,"longitude":82.2475,"temp":22.8,"humidity":92,"rain":0.0,"pressure":1006.2,"uv_index":8.5,"wind_gusts":34.9,"aqi":103,"pm10":39.1,"pm2_5":35.5,"mosquito_risk":3,"arthritis_risk":5,"migraine_risk":4,"frizz_risk":1,"updated_at":"2026-03-06T02:10:49.120372+05:30"},{"city":"Tirupati","state":"Andhra Pradesh","latitude":13.6288,"longitude":79.4192,"temp":22.6,"humidity":71,"rain":0.0,"pressure":991.8,"uv_index":8.85,"wind_gusts":28.8,"aqi":121,"pm10":53.4,"pm2_5":51.6,"mosquito_risk":3,"arthritis_risk":5,"migraine_risk":7,"frizz_risk":1,"updated_at":"2026-03-06T02:10:49.120379+05:30"},{"city":"Warangal","state":"Telangana","latitude":17.9689,"longitude":79.5941,"temp":24.8,"humidity":48,"rain":0.0,"pressure":977.5,"uv_index":8.3,"wind_gusts":25.9,"aqi":77,"pm10":26.6,"pm2_5":25.4,"mosquito_risk":0,"arthritis_risk":5,"migraine_risk":7,"frizz_risk":0,"updated_at":"2026-03-06T02:10:49.120385+05:30"},{"city":"Nizamabad","state":"Telangana","latitude":18.6725,"longitude":78.0941,"temp":21.0,"humidity":61,"rain":0.0,"pressure":964.3,"uv_index":8.2,"wind_gusts":29.5,"aqi":84,"pm10":31.1,"pm2_5":29.2,"mosquito_risk":3,"arthritis_risk":5,"migraine_risk":7,"frizz_risk":0,"updated_at":"2026-03-06T02:10:49.120392+05:30"},{"city":"Mysore","state":"Karnataka","latitude":12.2958,"longitude":76.6396,"temp":21.5,"humidity":93,"rain":0.0,"pressure":927.8,"uv_index":9.2,"wind_gusts":37.4,"aqi":114,"pm10":55.4,"pm2_5":53.9,"mosquito_risk":3,"arthritis_risk":5,"migraine_risk":7,"frizz_risk":1,"updated_at":"2026-03-06T02:10:49.120398+05:30"},{"city":"Mangalore","state":"Karnataka","latitude":12.9141,"longitude":74.856,"temp":28.7,"humidity":78,"rain":0.0,"pressure":1006.7,"uv_index":8.8,"wind_gusts":25.6,"aqi":132,"pm10":51.3,"pm2_5":47.6,"mosquito_risk":7,"arthritis_risk":5,"migraine_risk":4,"frizz_risk":1,"updated_at":"2026-03-06T02:10:49.120405+05:30"},{"city":"Hubli-Dharwad","state":"Karnataka","latitude":15.3647,"longitude":75.124,"temp":20.5,"humidity":94,"rain":0.0,"pressure":940.2,"uv_index":8.75,"wind_gusts":25.9,"aqi":80,"pm10":35.7,"pm2_5":34.9,"mosquito_risk":3,"arthritis_risk":5,"migraine_risk":7,"frizz_risk":1,"updated_at":"2026-03-06T02:10:49.120411+05:30"},{"city":"Belgaum","state":"Karnataka","latitude":15.8497,"longitude":74.4977,"temp":21.3,"humidity":73,"rain":0.0,"pressure":925.0,"uv_index":8.8,"wind_gusts":33.1,"aqi":118,"pm10":57.7,"pm2_5":56.1,"mosquito_risk":3,"arthritis_risk":5,"migraine_risk":7,"frizz_risk":1,"updated_at":"2026-03-06T02:10:52.365384+05:30"},{"city":"Coimbatore","state":"Tamil Nadu","latitude":11.0168,"longitude":76.9558,"temp":22.1,"humidity":96,"rain":0.0,"pressure":961.7,"uv_index":9.15,"wind_gusts":41.8,"aqi":106,"pm10":55.9,"pm2_5":54.5,"mosquito_risk":3,"arthritis_risk":5,"migraine_risk":7,"frizz_risk":1,"updated_at":"2026-03-06T02:10:52.365416+05:30"},{"city":"Madurai","state":"Tamil Nadu","latitude":9.9252,"longitude":78.1198,"temp":24.4,"humidity":88,"rain":0.0,"pressure":993.2,"uv_index":9.15,"wind_gusts":29.9,"aqi":87,"pm10":42.3,"pm2_5":40.7,"mosquito_risk":3,"arthritis_risk":5,"migraine_risk":7,"frizz_risk":1,"updated_at":"2026-03-06T02:10:52.365426+05:30"},{"city":"Trichy","state":"Tamil Nadu","latitude":10.7905,"longitude":78.7047,"temp":23.2,"humidity":97,"rain":0.0,"pressure":999.8,"uv_index":9.05,"wind_gusts":25.9,"aqi":96,"pm10":30.7,"pm2_5":29.4,"mosquito_risk":3,"arthritis_risk":5,"migraine_risk":7,"frizz_risk":1,"updated_at":"2026-03-06T02:10:52.365434+05:30"},{"city":"Salem","state":"Tamil Nadu","latitude":11.6643,"longitude":78.146,"temp":23.3,"humidity":76,"rain":0.0,"pressure":977.1,"uv_index":9.05,"wind_gusts":14.8,"aqi":98,"pm10":46.3,"pm2_5":43.8,"mosquito_risk":3,"arthritis_risk":5,"migraine_risk":7,"frizz_risk":1,"updated_at":"2026-03-06T02:10:52.365442+05:30"},{"city":"Tirunelveli","state":"Tamil Nadu","latitude":8.7139,"longitude":77.7567,"temp":24.5,"humidity":79,"rain":0.0,"pressure":1003.4,"uv_index":9.15,"wind_gusts":46.4,"aqi":75,"pm10":44.1,"pm2_5":43.2,"mosquito_risk":3,"arthritis_risk":5,"migraine_risk":4,"frizz_risk":1,"updated_at":"2026-03-06T02:10:52.365449+05:30"},{"city":"Vellore","state":"Tamil Nadu","latitude":12.9165,"longitude":79.1325,"temp":22.1,"humidity":81,"rain":0.0,"pressure":984.8,"uv_index":8.95,"wind_gusts":31.3,"aqi":121,"pm10":48.0,"pm2_5":46.0,"mosquito_risk":3,"arthritis_risk":5,"migraine_risk":7,"frizz_risk":1,"updated_at":"2026-03-06T02:10:52.365457+05:30"},{"city":"Erode","state":"Tamil Nadu","latitude":11.341,"longitude":77.7172,"temp":25.0,"humidity":69,"rain":0.0,"pressure":989.3,"uv_index":9.05,"wind_gusts":21.6,"aqi":87,"pm10":31.1,"pm2_5":29.2,"mosquito_risk":7,"arthritis_risk":5,"migraine_risk":7,"frizz_risk":1,"updated_at":"2026-03-06T02:10:52.365465+05:30"},{"city":"Kochi","state":"Kerala","latitude":9.9312,"longitude":76.2673,"temp":27.6,"humidity":82,"rain":0.0,"pressure":1008.6,"uv_index":9.0,"wind_gusts":37.8,"aqi":143,"pm10":61.9,"pm2_5":61.0,"mosquito_risk":7,"arthritis_risk":0,"migraine_risk":4,"frizz_risk":1,"updated_at":"2026-03-06T02:10:52.365473+05:30"},{"city":"Thiruvananthapuram","state":"Kerala","latitude":8.5241,"longitude":76.9366,"temp":27.5,"humidity":80,"rain":0.0,"pressure":1007.9,"uv_index":9.05,"wind_gusts":33.1,"aqi":91,"pm10":32.4,"pm2_5":29.3,"mosquito_risk":7,"arthritis_risk":5,"migraine_risk":4,"frizz_risk":1,"updated_at":"2026-03-06T02:10:52.365480+05:30"},{"city":"Kozhikode","state":"Kerala","latitude":11.2588,"longitude":75.7804,"temp":28.1,"humidity":83,"rain":0.0,"pressure":1007.6,"uv_index":8.85,"wind_gusts":28.8,"aqi":125,"pm10":48.1,"pm2_5":43.5,"mosquito_risk":7,"arthritis_risk":5,"migraine_risk":4,"frizz_risk":1,"updated_at":"2026-03-06T02:10:52.365487+05:30"},{"city":"Thrissur","state":"Kerala","latitude":10.5276,"longitude":76.2144,"temp":26.6,"humidity":90,"rain":0.0,"pressure":1006.9,"uv_index":8.95,"wind_gusts":38.9,"aqi":144,"pm10":67.8,"pm2_5":65.7,"mosquito_risk":7,"arthritis_risk":5,"migraine_risk":4,"frizz_risk":1,"updated_at":"2026-03-06T02:10:52.365495+05:30"},{"city":"Kannur","state":"Kerala","latitude":11.8745,"longitude":75.3704,"temp":27.8,"humidity":81,"rain":0.0,"pressure":1006.9,"uv_index":8.85,"wind_gusts":30.6,"aqi":129,"pm10":46.3,"pm2_5":43.4,"mosquito_risk":7,"arthritis_risk":5,"migraine_risk":4,"frizz_risk":1,"updated_at":"2026-03-06T02:10:52.365502+05:30"},{"city":"Patna","state":"Bihar","latitude":25.5941,"longitude":85.1376,"temp":22.7,"humidity":69,"rain":0.0,"pressure":1001.9,"uv_index":7.25,"wind_gusts":23.4,"aqi":164,"pm10":117.8,"pm2_5":91.3,"mosquito_risk":3,"arthritis_risk":5,"migraine_risk":4,"frizz_risk":1,"updated_at":"2026-03-06T02:10:52.365508+05:30"},{"city":"Gaya","state":"Bihar","latitude":24.7914,"longitude":85.0002,"temp":20.5,"humidity":74,"rain":0.0,"pressure":994.9,"uv_index":7.35,"wind_gusts":19.4,"aqi":151,"pm10":88.2,"pm2_5":71.0,"mosquito_risk":3,"arthritis_risk":5,"migraine_risk":7,"frizz_risk":0,"updated_at":"2026-03-06T02:10:52.365514+05:30"},{"city":"Muzaffarpur","state":"Bihar","latitude":26.1209,"longitude":85.3647,"temp":20.1,"humidity":76,"rain":0.0,"pressure":1002.0,"uv_index":7.2,"wind_gusts":23.4,"aqi":168,"pm10":138.8,"pm2_5":110.8,"mosquito_risk":3,"arthritis_risk":5,"migraine_risk":4,"frizz_risk":0,"updated_at":"2026-03-06T02:10:52.365521+05:30"},{"city":"Bhagalpur","state":"Bihar","latitude":25.2425,"longitude":87.0117,"temp":22.0,"humidity":67,"rain":0.0,"pressure":1002.6,"uv_index":7.3,"wind_gusts":18.4,"aqi":163,"pm10":99.2,"pm2_5":84.1,"mosquito_risk":3,"arthritis_risk":5,"migraine_risk":4,"frizz_risk":0,"updated_at":"2026-03-06T02:10:52.365527+05:30"},{"city":"Ranchi","state":"Jharkhand","latitude":23.3441,"longitude":85.3096,"temp":18.7,"humidity":70,"rain":0.0,"pressure":937.4,"uv_index":8.0,"wind_gusts":27.7,"aqi":129,"pm10":136.0,"pm2_5":72.9,"mosquito_risk":3,"arthritis_risk":5,"migraine_risk":7,"frizz_risk":0,"updated_at":"2026-03-06T02:10:52.365533+05:30"},{"city":"Jamshedpur","state":"Jharkhand","latitude":22.8046,"longitude":86.2029,"temp":22.9,"humidity":68,"rain":0.0,"pressure":991.5,"uv_index":7.9,"wind_gusts":21.6,"aqi":158,"pm10":97.1,"pm2_5":66.8,"mosquito_risk":3,"arthritis_risk":5,"migraine_risk":7,"frizz_risk":1,"updated_at":"2026-03-06T02:10:52.365540+05:30"},{"city":"Dhanbad","state":"Jharkhand","latitude":23.7957,"longitude":86.4304,"temp":23.5,"humidity":55,"rain":0.0,"pressure":980.6,"uv_index":7.75,"wind_gusts":28.4,"aqi":168,"pm10":115.5,"pm2_5":95.0,"mosquito_risk":0,"arthritis_risk":5,"migraine_risk":7,"frizz_risk":0,"updated_at":"2026-03-06T02:10:52.365546+05:30"},{"city":"Bokaro","state":"Jharkhand","latitude":23.6693,"longitude":86.1511,"temp":22.9,"humidity":60,"rain":0.0,"pressure":984.8,"uv_index":7.75,"wind_gusts":30.6,"aqi":171,"pm10":158.8,"pm2_5":121.5,"mosquito_risk":0,"arthritis_risk":5,"migraine_risk":7,"frizz_risk":0,"updated_at":"2026-03-06T02:10:52.365553+05:30"},{"city":"Bhubaneswar","state":"Odisha","latitude":20.2961,"longitude":85.8245,"temp":24.4,"humidity":91,"rain":0.0,"pressure":1002.6,"uv_index":8.2,"wind_gusts":31.0,"aqi":144,"pm10":43.8,"pm2_5":37.3,"mosquito_risk":3,"arthritis_risk":5,"migraine_risk":4,"frizz_risk":1,"updated_at":"2026-03-06T02:10:52.365559+05:30"},{"city":"Cuttack","state":"Odisha","latitude":20.4625,"longitude":85.8828,"temp":24.6,"humidity":91,"rain":0.0,"pressure":1004.7,"uv_index":8.25,"wind_gusts":33.8,"aqi":144,"pm10":43.8,"pm2_5":37.3,"mosquito_risk":3,"arthritis_risk":5,"migraine_risk":4,"frizz_risk":1,"updated_at":"2026-03-06T02:10:52.365565+05:30"},{"city":"Rourkela","state":"Odisha","latitude":22.2604,"longitude":84.8536,"temp":24.4,"humidity":58,"rain":0.0,"pressure":985.0,"uv_index":7.8,"wind_gusts":13.7,"aqi":124,"pm10":76.6,"pm2_5":48.5,"mosquito_risk":0,"arthritis_risk":5,"migraine_risk":7,"frizz_risk":0,"updated_at":"2026-03-06T02:10:52.365571+05:30"},{"city":"Raipur","state":"Chhattisgarh","latitude":21.2514,"longitude":81.6296,"temp":25.0,"humidity":40,"rain":0.0,"pressure":974.3,"uv_index":7.9,"wind_gusts":25.2,"aqi":113,"pm10":38.6,"pm2_5":29.9,"mosquito_risk":4,"arthritis_risk":5,"migraine_risk":7,"frizz_risk":0,"updated_at":"2026-03-06T02:10:52.365578+05:30"},{"city":"Bhilai","state":"Chhattisgarh","latitude":21.1938,"longitude":81.3509,"temp":23.7,"humidity":43,"rain":0.0,"pressure":974.5,"uv_index":7.9,"wind_gusts":25.9,"aqi":87,"pm10":34.7,"pm2_5":24.3,"mosquito_risk":0,"arthritis_risk":5,"migraine_risk":7,"frizz_risk":0,"updated_at":"2026-03-06T02:10:52.365583+05:30"},{"city":"Guwahati","state":"Assam","latitude":26.1158,"longitude":91.7086,"temp":23.5,"humidity":77,"rain":0.0,"pressure":1002.8,"uv_index":7.25,"wind_gusts":23.4,"aqi":132,"pm10":56.1,"pm2_5":52.7,"mosquito_risk":3,"arthritis_risk":5,"migraine_risk":4,"frizz_risk":1,"updated_at":"2026-03-06T02:10:52.365589+05:30"},{"city":"Agartala","state":"Tripura","latitude":23.8315,"longitude":91.2868,"temp":20.8,"humidity":77,"rain":0.0,"pressure":1007.2,"uv_index":7.6,"wind_gusts":20.9,"aqi":160,"pm10":108.7,"pm2_5":98.0,"mosquito_risk":3,"arthritis_risk":5,"migraine_risk":4,"frizz_risk":1,"updated_at":"2026-03-06T02:10:52.365595+05:30"},{"city":"Shillong","state":"Meghalaya","latitude":25.5788,"longitude":91.8933,"temp":10.0,"humidity":78,"rain":0.0,"pressure":854.3,"uv_index":7.6,"wind_gusts":36.0,"aqi":109,"pm10":39.2,"pm2_5":36.3,"mosquito_risk":3,"arthritis_risk":5,"migraine_risk":7,"frizz_risk":0,"updated_at":"2026-03-06T02:10:52.365602+05:30"},{"city":"Imphal","state":"Manipur","latitude":24.817,"longitude":93.9368,"temp":14.7,"humidity":74,"rain":0.0,"pressure":923.6,"uv_index":7.8,"wind_gusts":30.6,"aqi":139,"pm10":61.9,"pm2_5":57.7,"mosquito_risk":3,"arthritis_risk":5,"migraine_risk":7,"frizz_risk":0,"updated_at":"2026-03-06T02:10:52.365608+05:30"},{"city":"Aizawl","state":"Mizoram","latitude":23.7271,"longitude":92.7176,"temp":16.8,"humidity":69,"rain":0.0,"pressure":892.2,"uv_index":7.7,"wind_gusts":30.6,"aqi":154,"pm10":80.3,"pm2_5":71.9,"mosquito_risk":3,"arthritis_risk":5,"migraine_risk":7,"frizz_risk":0,"updated_at":"2026-03-06T02:10:52.365614+05:30"},{"city":"Kohima","state":"Nagaland","latitude":25.6701,"longitude":94.1077,"temp":14.6,"humidity":68,"rain":0.0,"pressure":855.1,"uv_index":7.65,"wind_gusts":43.2,"aqi":117,"pm10":44.5,"pm2_5":41.1,"mosquito_risk":3,"arthritis_risk":5,"migraine_risk":7,"frizz_risk":0,"updated_at":"2026-03-06T02:10:52.365620+05:30"},{"city":"Gangtok","state":"Sikkim","latitude":27.3314,"longitude":88.6138,"temp":13.5,"humidity":97,"rain":0.0,"pressure":837.9,"uv_index":7.55,"wind_gusts":20.2,"aqi":96,"pm10":36.4,"pm2_5":33.2,"mosquito_risk":3,"arthritis_risk":10,"migraine_risk":7,"frizz_risk":0,"updated_at":"2026-03-06T02:10:52.365626+05:30"},{"city":"Siliguri","state":"West Bengal","latitude":26.7271,"longitude":88.3953,"temp":21.5,"humidity":65,"rain":0.0,"pressure":995.7,"uv_index":7.2,"wind_gusts":24.8,"aqi":129,"pm10":55.2,"pm2_5":52.5,"mosquito_risk":3,"arthritis_risk":5,"migraine_risk":7,"frizz_risk":0,"updated_at":"2026-03-06T02:10:55.619544+05:30"},{"city":"Durgapur","state":"West Bengal","latitude":23.5204,"longitude":87.3119,"temp":23.1,"humidity":60,"rain":0.0,"pressure":996.2,"uv_index":7.75,"wind_gusts":25.6,"aqi":160,"pm10":103.1,"pm2_5":84.5,"mosquito_risk":0,"arthritis_risk":5,"migraine_risk":7,"frizz_risk":0,"updated_at":"2026-03-06T02:10:55.619576+05:30"},{"city":"Asansol","state":"West Bengal","latitude":23.6739,"longitude":86.9524,"temp":23.8,"humidity":57,"rain":0.0,"pressure":994.8,"uv_index":7.75,"wind_gusts":23.4,"aqi":157,"pm10":94.3,"pm2_5":78.2,"mosquito_risk":0,"arthritis_risk":5,"migraine_risk":7,"frizz_risk":0,"updated_at":"2026-03-06T02:10:55.619586+05:30"},{"city":"Pondicherry","state":"Puducherry","latitude":11.9139,"longitude":79.8145,"temp":22.7,"humidity":94,"rain":0.0,"pressure":1008.6,"uv_index":8.9,"wind_gusts":23.8,"aqi":75,"pm10":20.4,"pm2_5":17.3,"mosquito_risk":3,"arthritis_risk":0,"migraine_risk":4,"frizz_risk":1,"updated_at":"2026-03-06T02:10:55.619594+05:30"},{"city":"Port Blair","state":"Andaman and Nicobar Islands","latitude":11.6234,"longitude":92.7265,"temp":26.7,"humidity":73,"rain":0.0,"pressure":1006.7,"uv_index":8.85,"wind_gusts":14.8,"aqi":56,"pm10":20.3,"pm2_5":12.6,"mosquito_risk":7,"arthritis_risk":5,"migraine_risk":4,"frizz_risk":1,"updated_at":"2026-03-06T02:10:55.619602+05:30"},{"city":"Haridwar","state":"Uttarakhand","latitude":29.9457,"longitude":78.1642,"temp":19.0,"humidity":91,"rain":0.0,"pressure":974.8,"uv_index":5.65,"wind_gusts":27.0,"aqi":146,"pm10":70.8,"pm2_5":57.0,"mosquito_risk":3,"arthritis_risk":10,"migraine_risk":3,"frizz_risk":1,"updated_at":"2026-03-06T02:10:55.619610+05:30"},{"city":"Rishikesh","state":"Uttarakhand","latitude":30.0869,"longitude":78.2676,"temp":18.9,"humidity":84,"rain":0.0,"pressure":967.5,"uv_index":5.7,"wind_gusts":23.0,"aqi":125,"pm10":90.3,"pm2_5":63.6,"mosquito_risk":3,"arthritis_risk":10,"migraine_risk":3,"frizz_risk":1,"updated_at":"2026-03-06T02:10:55.619618+05:30"},{"city":"Nainital","state":"Uttarakhand","latitude":29.3919,"longitude":79.4542,"temp":15.9,"humidity":72,"rain":0.0,"pressure":805.1,"uv_index":6.5,"wind_gusts":43.6,"aqi":153,"pm10":90.3,"pm2_5":65.9,"mosquito_risk":3,"arthritis_risk":5,"migraine_risk":7,"frizz_risk":0,"updated_at":"2026-03-06T02:10:55.619626+05:30"},{"city":"Mussoorie","state":"Uttarakhand","latitude":30.4599,"longitude":78.0664,"temp":15.1,"humidity":76,"rain":0.0,"pressure":801.7,"uv_index":6.05,"wind_gusts":33.1,"aqi":139,"pm10":86.1,"pm2_5":58.3,"mosquito_risk":3,"arthritis_risk":5,"migraine_risk":7,"frizz_risk":0,"updated_at":"2026-03-06T02:10:55.619634+05:30"},{"city":"Dharamshala","state":"Himachal Pradesh","latitude":32.219,"longitude":76.3234,"temp":21.6,"humidity":31,"rain":0.0,"pressure":869.7,"uv_index":5.75,"wind_gusts":25.2,"aqi":51,"pm10":18.6,"pm2_5":11.1,"mosquito_risk":0,"arthritis_risk":5,"migraine_risk":3,"frizz_risk":0,"updated_at":"2026-03-06T02:10:55.619641+05:30"},{"city":"Dalhousie","state":"Himachal Pradesh","latitude":32.5387,"longitude":75.971,"temp":17.4,"humidity":41,"rain":0.0,"pressure":803.9,"uv_index":5.85,"wind_gusts":22.3,"aqi":84,"pm10":42.1,"pm2_5":36.1,"mosquito_risk":0,"arthritis_risk":5,"migraine_risk":3,"frizz_risk":0,"updated_at":"2026-03-06T02:10:55.619650+05:30"},{"city":"Patiala","state":"Punjab","latitude":30.3398,"longitude":76.3869,"temp":20.1,"humidity":81,"rain":0.0,"pressure":978.4,"uv_index":5.75,"wind_gusts":15.1,"aqi":326,"pm10":287.8,"pm2_5":79.9,"mosquito_risk":3,"arthritis_risk":5,"migraine_risk":3,"frizz_risk":1,"updated_at":"2026-03-06T02:10:55.619657+05:30"},{"city":"Bhatinda","state":"Punjab","latitude":30.211,"longitude":74.9455,"temp":19.4,"humidity":77,"rain":0.0,"pressure":984.2,"uv_index":6.4,"wind_gusts":16.6,"aqi":138,"pm10":59.0,"pm2_5":48.1,"mosquito_risk":3,"arthritis_risk":5,"migraine_risk":7,"frizz_risk":0,"updated_at":"2026-03-06T02:10:55.619664+05:30"},{"city":"Rohtak","state":"Haryana","latitude":28.8955,"longitude":76.6066,"temp":19.7,"humidity":75,"rain":0.0,"pressure":982.1,"uv_index":5.9,"wind_gusts":16.2,"aqi":596,"pm10":412.6,"pm2_5":87.8,"mosquito_risk":3,"arthritis_risk":5,"migraine_risk":3,"frizz_risk":0,"updated_at":"2026-03-06T02:10:55.619672+05:30"},{"city":"Panipat","state":"Haryana","latitude":29.3909,"longitude":76.9635,"temp":19.7,"humidity":85,"rain":0.0,"pressure":980.7,"uv_index":5.7,"wind_gusts":11.5,"aqi":1218,"pm10":767.4,"pm2_5":122.5,"mosquito_risk":3,"arthritis_risk":10,"migraine_risk":3,"frizz_risk":1,"updated_at":"2026-03-06T02:10:55.619679+05:30"},{"city":"Mathura","state":"Uttar Pradesh","latitude":27.4924,"longitude":77.6737,"temp":22.0,"humidity":50,"rain":0.0,"pressure":987.3,"uv_index":6.2,"wind_gusts":19.4,"aqi":694,"pm10":542.0,"pm2_5":105.2,"mosquito_risk":0,"arthritis_risk":5,"migraine_risk":7,"frizz_risk":0,"updated_at":"2026-03-06T02:10:55.619686+05:30"},{"city":"Vrindavan","state":"Uttar Pradesh","latitude":27.5823,"longitude":77.7027,"temp":19.7,"humidity":65,"rain":0.0,"pressure":987.8,"uv_index":6.15,"wind_gusts":20.2,"aqi":694,"pm10":542.0,"pm2_5":105.2,"mosquito_risk":3,"arthritis_risk":5,"migraine_risk":7,"frizz_risk":0,"updated_at":"2026-03-06T02:10:55.619693+05:30"},{"city":"Ayodhya","state":"Uttar Pradesh","latitude":26.7922,"longitude":82.1998,"temp":20.3,"humidity":78,"rain":0.0,"pressure":996.6,"uv_index":6.55,"wind_gusts":20.2,"aqi":173,"pm10":127.6,"pm2_5":100.6,"mosquito_risk":3,"arthritis_risk":5,"migraine_risk":7,"frizz_risk":1,"updated_at":"2026-03-06T02:10:55.619701+05:30"},{"city":"Ratlam","state":"Madhya Pradesh","latitude":23.3315,"longitude":75.0367,"temp":22.6,"humidity":50,"rain":0.0,"pressure":955.8,"uv_index":7.4,"wind_gusts":18.0,"aqi":96,"pm10":31.2,"pm2_5":29.1,"mosquito_risk":0,"arthritis_risk":5,"migraine_risk":7,"frizz_risk":0,"updated_at":"2026-03-06T02:10:55.619708+05:30"},{"city":"Sagar","state":"Madhya Pradesh","latitude":23.8388,"longitude":78.7378,"temp":20.2,"humidity":55,"rain":0.0,"pressure":950.7,"uv_index":7.35,"wind_gusts":23.8,"aqi":55,"pm10":27.1,"pm2_5":17.7,"mosquito_risk":0,"arthritis_risk":5,"migraine_risk":7,"frizz_risk":0,"updated_at":"2026-03-06T02:10:55.619715+05:30"},{"city":"Satna","state":"Madhya Pradesh","latitude":24.6005,"longitude":80.8322,"temp":21.5,"humidity":53,"rain":0.0,"pressure":971.8,"uv_index":7.3,"wind_gusts":29.9,"aqi":73,"pm10":38.9,"pm2_5":26.1,"mosquito_risk":0,"arthritis_risk":5,"migraine_risk":7,"frizz_risk":0,"updated_at":"2026-03-06T02:10:55.619722+05:30"},{"city":"Akola","state":"Maharashtra","latitude":20.7002,"longitude":77.0082,"temp":22.1,"humidity":47,"rain":0.0,"pressure":975.7,"uv_index":7.85,"wind_gusts":19.8,"aqi":75,"pm10":41.9,"pm2_5":35.2,"mosquito_risk":0,"arthritis_risk":5,"migraine_risk":7,"frizz_risk":0,"updated_at":"2026-03-06T02:10:55.619730+05:30"},{"city":"Amravati","state":"Maharashtra","latitude":20.9374,"longitude":77.7796,"temp":22.3,"humidity":50,"rain":0.0,"pressure":967.6,"uv_index":7.8,"wind_gusts":16.6,"aqi":75,"pm10":45.5,"pm2_5":38.0,"mosquito_risk":0,"arthritis_risk":5,"migraine_risk":7,"frizz_risk":0,"updated_at":"2026-03-06T02:10:55.619738+05:30"},{"city":"Latur","state":"Maharashtra","latitude":18.4088,"longitude":76.5604,"temp":23.1,"humidity":42,"rain":0.0,"pressure":939.7,"uv_index":8.3,"wind_gusts":28.8,"aqi":89,"pm10":34.0,"pm2_5":30.6,"mosquito_risk":0,"arthritis_risk":5,"migraine_risk":7,"frizz_risk":0,"updated_at":"2026-03-06T02:10:55.619746+05:30"},{"city":"Nanded","state":"Maharashtra","latitude":19.1383,"longitude":77.3091,"temp":22.8,"humidity":47,"rain":0.0,"pressure":968.8,"uv_index":8.1,"wind_gusts":19.8,"aqi":92,"pm10":51.2,"pm2_5":49.1,"mosquito_risk":0,"arthritis_risk":5,"migraine_risk":7,"frizz_risk":0,"updated_at":"2026-03-06T02:10:55.619753+05:30"},{"city":"Gulbarga","state":"Karnataka","latitude":17.3297,"longitude":76.8343,"temp":24.6,"humidity":42,"rain":0.0,"pressure":958.3,"uv_index":8.4,"wind_gusts":27.0,"aqi":71,"pm10":19.0,"pm2_5":17.9,"mosquito_risk":0,"arthritis_risk":5,"migraine_risk":7,"frizz_risk":0,"updated_at":"2026-03-06T02:10:55.619759+05:30"},{"city":"Bidar","state":"Karnataka","latitude":17.9104,"longitude":77.5199,"temp":24.4,"humidity":48,"rain":0.0,"pressure":935.3,"uv_index":8.35,"wind_gusts":26.3,"aqi":83,"pm10":21.9,"pm2_5":20.0,"mosquito_risk":0,"arthritis_risk":5,"migraine_risk":7,"frizz_risk":0,"updated_at":"2026-03-06T02:10:55.619766+05:30"},{"city":"Hospet","state":"Karnataka","latitude":15.2689,"longitude":76.3909,"temp":22.8,"humidity":62,"rain":0.0,"pressure":954.9,"uv_index":8.75,"wind_gusts":15.1,"aqi":100,"pm10":35.9,"pm2_5":33.8,"mosquito_risk":3,"arthritis_risk":5,"migraine_risk":7,"frizz_risk":0,"updated_at":"2026-03-06T02:10:55.619773+05:30"},{"city":"Tirupur","state":"Tamil Nadu","latitude":11.1085,"longitude":77.3411,"temp":24.0,"humidity":93,"rain":0.0,"pressure":975.3,"uv_index":9.2,"wind_gusts":29.9,"aqi":104,"pm10":49.4,"pm2_5":47.7,"mosquito_risk":3,"arthritis_risk":5,"migraine_risk":7,"frizz_risk":1,"updated_at":"2026-03-06T02:10:55.619779+05:30"},{"city":"Alappuzha","state":"Kerala","latitude":9.4981,"longitude":76.3388,"temp":27.6,"humidity":79,"rain":0.0,"pressure":1008.7,"uv_index":9.0,"wind_gusts":34.2,"aqi":120,"pm10":58.8,"pm2_5":56.6,"mosquito_risk":7,"arthritis_risk":0,"migraine_risk":4,"frizz_risk":1,"updated_at":"2026-03-06T02:10:55.619787+05:30"},{"city":"Munnar","state":"Kerala","latitude":10.0889,"longitude":77.0595,"temp":17.0,"humidity":85,"rain":0.0,"pressure":854.8,"uv_index":9.5,"wind_gusts":28.8,"aqi":82,"pm10":39.8,"pm2_5":38.6,"mosquito_risk":3,"arthritis_risk":10,"migraine_risk":7,"frizz_risk":0,"updated_at":"2026-03-06T02:10:55.619794+05:30"},{"city":"Silchar","state":"Assam","latitude":24.8333,"longitude":92.7789,"temp":21.0,"humidity":74,"rain":0.0,"pressure":1006.0,"uv_index":7.55,"wind_gusts":13.7,"aqi":147,"pm10":70.5,"pm2_5":63.3,"mosquito_risk":3,"arthritis_risk":5,"migraine_risk":4,"frizz_risk":1,"updated_at":"2026-03-06T02:10:55.619801+05:30"},{"city":"Dibrugarh","state":"Assam","latitude":27.4728,"longitude":94.912,"temp":21.6,"humidity":84,"rain":0.0,"pressure":997.0,"uv_index":7.25,"wind_gusts":14.8,"aqi":100,"pm10":28.1,"pm2_5":26.5,"mosquito_risk":3,"arthritis_risk":5,"migraine_risk":7,"frizz_risk":1,"updated_at":"2026-03-06T02:10:55.619808+05:30"}]