[{"city":"Delhi","state":"Delhi","latitude":28.6139,"longitude":77.209,"temp":38.9,"humidity":18,"rain":0.0,"pressure":982.0,"uv_index":7.4,"wind_gusts":29.5,"aqi":382,"pm10":343.7,"pm2_5":44.8,"mosquito_risk":0,"arthritis_risk":5,"migraine_risk":10,"frizz_risk":0,"updated_at":"2026-04-23T13:30:49.384356+05:30"},{"city":"Mumbai","state":"Maharashtra","latitude":19.076,"longitude":72.8777,"temp":29.7,"humidity":77,"rain":0.0,"pressure":1006.6,"uv_index":8.05,"wind_gusts":23.4,"aqi":76,"pm10":40.9,"pm2_5":31.9,"mosquito_risk":7,"arthritis_risk":5,"migraine_risk":4,"frizz_risk":1,"updated_at":"2026-04-23T13:30:49.384410+05:30"},{"city":"Bangalore","state":"Karnataka","latitude":12.9716,"longitude":77.5946,"temp":35.8,"humidity":22,"rain":0.0,"pressure":911.3,"uv_index":9.4,"wind_gusts":31.7,"aqi":74,"pm10":28.2,"pm2_5":18.7,"mosquito_risk":0,"arthritis_risk":5,"migraine_risk":10,"frizz_risk":0,"updated_at":"2026-04-23T13:30:49.384428+05:30"},{"city":"Hyderabad","state":"Telangana","latitude":17.385,"longitude":78.4867,"temp":37.9,"humidity":26,"rain":0.0,"pressure":952.2,"uv_index":8.75,"wind_gusts":39.2,"aqi":117,"pm10":41.4,"pm2_5":34.9,"mosquito_risk":0,"arthritis_risk":5,"migraine_risk":10,"frizz_risk":0,"updated_at":"2026-04-23T13:30:49.384439+05:30"},{"city":"Chennai","state":"Tamil Nadu","latitude":13.0827,"longitude":80.2707,"temp":36.2,"humidity":51,"rain":0.0,"pressure":1005.4,"uv_index":9.3,"wind_gusts":33.8,"aqi":31,"pm10":11.3,"pm2_5":8.2,"mosquito_risk":0,"arthritis_risk":5,"migraine_risk":7,"frizz_risk":1,"updated_at":"2026-04-23T13:30:49.384450+05:30"},{"city":"Kolkata","state":"West Bengal","latitude":22.5726,"longitude":88.3639,"temp":35.8,"humidity":60,"rain":0.0,"pressure":1002.4,"uv_index":8.85,"wind_gusts":23.4,"aqi":83,"pm10":38.8,"pm2_5":34.2,"mosquito_risk":0,"arthritis_risk":5,"migraine_risk":7,"frizz_risk":1,"updated_at":"2026-04-23T13:30:49.384459+05:30"},{"city":"Pune","state":"Maharashtra","latitude":18.5204,"longitude":73.8567,"temp":39.6,"humidity":21,"rain":0.0,"pressure":947.8,"uv_index":8.65,"wind_gusts":37.4,"aqi":110,"pm10":33.6,"pm2_5":27.1,"mosquito_risk":0,"arthritis_risk":5,"migraine_risk":10,"frizz_risk":0,"updated_at":"2026-04-23T13:30:49.384467+05:30"},{"city":"Ahmedabad","state":"Gujarat","latitude":23.0225,"longitude":72.5714,"temp":38.9,"humidity":24,"rain":0.0,"pressure":1001.1,"uv_index":8.2,"wind_gusts":27.0,"aqi":45,"pm10":48.7,"pm2_5":13.9,"mosquito_risk":0,"arthritis_risk":5,"migraine_risk":7,"frizz_risk":0,"updated_at":"2026-04-23T13:30:49.384476+05:30"},{"city":"Jaipur","state":"Rajasthan","latitude":26.9124,"longitude":75.7873,"temp":38.3,"humidity":15,"rain":0.0,"pressure":959.7,"uv_index":8.05,"wind_gusts":29.9,"aqi":140,"pm10":115.5,"pm2_5":16.6,"mosquito_risk":0,"arthritis_risk":5,"migraine_risk":10,"frizz_risk":0,"updated_at":"2026-04-23T13:30:49.384484+05:30"},{"city":"Lucknow","state":"Uttar Pradesh","latitude":26.8467,"longitude":80.9462,"temp":41.5,"humidity":15,"rain":0.0,"pressure":990.8,"uv_index":7.85,"wind_gusts":37.4,"aqi":192,"pm10":192.8,"pm2_5":37.0,"mosquito_risk":0,"arthritis_risk":5,"migraine_risk":10,"frizz_risk":0,"updated_at":"2026-04-23T13:30:49.384492+05:30"},{"city":"Kanpur","state":"Uttar Pradesh","latitude":26.4499,"longitude":80.3319,"temp":39.3,"humidity":23,"rain":0.0,"pressure":989.9,"uv_index":7.9,"wind_gusts":29.2,"aqi":428,"pm10":497.3,"pm2_5":58.6,"mosquito_risk":0,"arthritis_risk":5,"migraine_risk":10,"frizz_risk":0,"updated_at":"2026-04-23T13:30:49.384504+05:30"},{"city":"Chandigarh","state":"Chandigarh","latitude":30.7333,"longitude":76.7794,"temp":38.8,"humidity":22,"rain":0.0,"pressure":967.8,"uv_index":7.4,"wind_gusts":30.6,"aqi":85,"pm10":31.3,"pm2_5":18.3,"mosquito_risk":0,"arthritis_risk":5,"migraine_risk":10,"frizz_risk":0,"updated_at":"2026-04-23T13:30:49.384512+05:30"},{"city":"Srinagar","state":"Jammu and Kashmir","latitude":34.0837,"longitude":74.7973,"temp":23.1,"humidity":51,"rain":0.0,"pressure":845.6,"uv_index":7.65,"wind_gusts":17.3,"aqi":70,"pm10":18.6,"pm2_5":9.3,"mosquito_risk":0,"arthritis_risk":5,"migraine_risk":7,"frizz_risk":0,"updated_at":"2026-04-23T13:30:49.384520+05:30"},{"city":"Jammu","state":"Jammu and Kashmir","latitude":32.7266,"longitude":74.857,"temp":38.6,"humidity":27,"rain":0.0,"pressure":971.5,"uv_index":8.2,"wind_gusts":32.0,"aqi":63,"pm10":25.8,"pm2_5":13.0,"mosquito_risk":0,"arthritis_risk":5,"migraine_risk":10,"frizz_risk":1,"updated_at":"2026-04-23T13:30:49.384528+05:30"},{"city":"Amritsar","state":"Punjab","latitude":31.634,"longitude":74.8723,"temp":40.7,"humidity":20,"rain":0.0,"pressure":978.9,"uv_index":7.55,"wind_gusts":33.8,"aqi":97,"pm10":44.9,"pm2_5":24.6,"mosquito_risk":0,"arthritis_risk":5,"migraine_risk":10,"frizz_risk":0,"updated_at":"2026-04-23T13:30:49.384535+05:30"},{"city":"Ludhiana","state":"Punjab","latitude":30.901,"longitude":75.8573,"temp":40.8,"humidity":17,"rain":0.0,"pressure":976.7,"uv_index":7.7,"wind_gusts":22.0,"aqi":87,"pm10":43.0,"pm2_5":19.7,"mosquito_risk":0,"arthritis_risk":5,"migraine_risk":10,"frizz_risk":0,"updated_at":"2026-04-23T13:30:49.384542+05:30"},{"city":"Jalandhar","state":"Punjab","latitude":31.326,"longitude":75.5762,"temp":41.0,"humidity":18,"rain":0.0,"pressure":978.1,"uv_index":7.85,"wind_gusts":33.8,"aqi":88,"pm10":56.2,"pm2_5":22.1,"mosquito_risk":0,"arthritis_risk":5,"migraine_risk":10,"frizz_risk":0,"updated_at":"2026-04-23T13:30:49.384549+05:30"},{"city":"Dehradun","state":"Uttarakhand","latitude":30.6284,"longitude":78.0322,"temp":27.9,"humidity":36,"rain":0.0,"pressure":834.6,"uv_index":7.85,"wind_gusts":38.5,"aqi":71,"pm10":19.5,"pm2_5":10.6,"mosquito_risk":4,"arthritis_risk":5,"migraine_risk":7,"frizz_risk":0,"updated_at":"2026-04-23T13:30:49.384556+05:30"},{"city":"Shimla","state":"Himachal Pradesh","latitude":31.1048,"longitude":77.1734,"temp":27.2,"humidity":25,"rain":0.0,"pressure":790.8,"uv_index":7.9,"wind_gusts":52.6,"aqi":78,"pm10":20.7,"pm2_5":10.6,"mosquito_risk":4,"arthritis_risk":5,"migraine_risk":7,"frizz_risk":0,"updated_at":"2026-04-23T13:30:49.384563+05:30"},{"city":"Manali","state":"Himachal Pradesh","latitude":32.2396,"longitude":77.1887,"temp":28.4,"humidity":32,"rain":0.0,"pressure":826.3,"uv_index":9.9,"wind_gusts":31.3,"aqi":121,"pm10":18.4,"pm2_5":8.9,"mosquito_risk":4,"arthritis_risk":5,"migraine_risk":7,"frizz_risk":0,"updated_at":"2026-04-23T13:30:49.384571+05:30"},{"city":"Gurgaon","state":"Haryana","latitude":28.4595,"longitude":77.0266,"temp":38.8,"humidity":19,"rain":0.0,"pressure":980.5,"uv_index":7.5,"wind_gusts":23.4,"aqi":1200,"pm10":936.9,"pm2_5":90.6,"mosquito_risk":0,"arthritis_risk":5,"migraine_risk":10,"frizz_risk":0,"updated_at":"2026-04-23T13:30:49.384581+05:30"},{"city":"Noida","state":"Uttar Pradesh","latitude":28.5355,"longitude":77.391,"temp":39.7,"humidity":16,"rain":0.0,"pressure":983.3,"uv_index":7.4,"wind_gusts":31.0,"aqi":1200,"pm10":936.9,"pm2_5":90.6,"mosquito_risk":0,"arthritis_risk":5,"migraine_risk":10,"frizz_risk":0,"updated_at":"2026-04-23T13:30:49.384592+05:30"},{"city":"Ghaziabad","state":"Uttar Pradesh","latitude":28.6692,"longitude":77.4538,"temp":39.0,"humidity":21,"rain":0.0,"pressure":981.6,"uv_index":7.4,"wind_gusts":29.5,"aqi":290,"pm10":218.4,"pm2_5":35.3,"mosquito_risk":0,"arthritis_risk":5,"migraine_risk":10,"frizz_risk":0,"updated_at":"2026-04-23T13:30:49.384602+05:30"},{"city":"Faridabad","state":"Haryana","latitude":28.4089,"longitude":77.3178,"temp":40.9,"humidity":12,"rain":0.0,"pressure":982.7,"uv_index":7.45,"wind_gusts":29.9,"aqi":1200,"pm10":936.9,"pm2_5":90.6,"mosquito_risk":0,"arthritis_risk":5,"migraine_risk":10,"frizz_risk":0,"updated_at":"2026-04-23T13:30:49.384610+05:30"},{"city":"Meerut","state":"Uttar Pradesh","latitude":28.9845,"longitude":77.7064,"temp":39.8,"humidity":19,"rain":0.0,"pressure":980.1,"uv_index":7.3,"wind_gusts":28.1,"aqi":290,"pm10":218.4,"pm2_5":35.3,"mosquito_risk":0,"arthritis_risk":5,"migraine_risk":10,"frizz_risk":0,"updated_at":"2026-04-23T13:30:49.384616+05:30"},{"city":"Agra","state":"Uttar Pradesh","latitude":27.1767,"longitude":78.0081,"temp":40.5,"humidity":14,"rain":0.0,"pressure":986.8,"uv_index":7.75,"wind_gusts":31.3,"aqi":671,"pm10":597.9,"pm2_5":53.9,"mosquito_risk":0,"arthritis_risk":5,"migraine_risk":10,"frizz_risk":0,"updated_at":"2026-04-23T13:30:49.384623+05:30"},{"city":"Varanasi","state":"Uttar Pradesh","latitude":25.3176,"longitude":82.9739,"temp":42.8,"humidity":13,"rain":0.0,"pressure":994.1,"uv_index":8.45,"wind_gusts":36.0,"aqi":112,"pm10":271.9,"pm2_5":43.0,"mosquito_risk":0,"arthritis_risk":5,"migraine_risk":10,"frizz_risk":0,"updated_at":"2026-04-23T13:30:49.384630+05:30"},{"city":"Prayagraj","state":"Uttar Pradesh","latitude":25.4358,"longitude":81.8463,"temp":42.3,"humidity":13,"rain":0.0,"pressure":993.0,"uv_index":8.35,"wind_gusts":32.4,"aqi":123,"pm10":251.5,"pm2_5":39.5,"mosquito_risk":0,"arthritis_risk":5,"migraine_risk":10,"frizz_risk":0,"updated_at":"2026-04-23T13:30:49.384636+05:30"},{"city":"Gorakhpur","state":"Uttar Pradesh","latitude":26.7606,"longitude":83.3732,"temp":41.1,"humidity":16,"rain":0.0,"pressure":993.9,"uv_index":8.3,"wind_gusts":30.6,"aqi":123,"pm10":148.5,"pm2_5":38.8,"mosquito_risk":0,"arthritis_risk":5,"migraine_risk":10,"frizz_risk":0,"updated_at":"2026-04-23T13:30:49.384643+05:30"},{"city":"Bareilly","state":"Uttar Pradesh","latitude":28.367,"longitude":79.4304,"temp":40.9,"humidity":17,"rain":0.0,"pressure":984.7,"uv_index":7.65,"wind_gusts":28.8,"aqi":104,"pm10":54.2,"pm2_5":26.6,"mosquito_risk":0,"arthritis_risk":5,"migraine_risk":10,"frizz_risk":0,"updated_at":"2026-04-23T13:30:49.384650+05:30"},{"city":"Aligarh","state":"Uttar Pradesh","latitude":27.8974,"longitude":78.088,"temp":41.1,"humidity":11,"rain":0.0,"pressure":984.2,"uv_index":7.55,"wind_gusts":30.6,"aqi":671,"pm10":633.3,"pm2_5":66.1,"mosquito_risk":0,"arthritis_risk":5,"migraine_risk":10,"frizz_risk":0,"updated_at":"2026-04-23T13:30:49.384659+05:30"},{"city":"Moradabad","state":"Uttar Pradesh","latitude":28.8386,"longitude":78.7733,"temp":40.5,"humidity":19,"rain":0.0,"pressure":981.8,"uv_index":7.5,"wind_gusts":32.0,"aqi":124,"pm10":65.2,"pm2_5":26.0,"mosquito_risk":0,"arthritis_risk":5,"migraine_risk":10,"frizz_risk":0,"updated_at":"2026-04-23T13:30:49.384665+05:30"},{"city":"Saharanpur","state":"Uttar Pradesh","latitude":29.9637,"longitude":77.546,"temp":38.4,"humidity":24,"rain":0.0,"pressure":974.4,"uv_index":7.1,"wind_gusts":33.1,"aqi":94,"pm10":77.5,"pm2_5":26.5,"mosquito_risk":0,"arthritis_risk":5,"migraine_risk":10,"frizz_risk":0,"updated_at":"2026-04-23T13:30:49.384672+05:30"},{"city":"Jhansi","state":"Uttar Pradesh","latitude":25.4484,"longitude":78.5685,"temp":42.8,"humidity":10,"rain":0.0,"pressure":976.6,"uv_index":8.25,"wind_gusts":29.2,"aqi":52,"pm10":14.9,"pm2_5":9.8,"mosquito_risk":0,"arthritis_risk":5,"migraine_risk":10,"frizz_risk":0,"updated_at":"2026-04-23T13:30:55.720471+05:30"},{"city":"Surat","state":"Gujarat","latitude":21.1702,"longitude":72.8311,"temp":35.5,"humidity":45,"rain":0.0,"pressure":1005.7,"uv_index":7.9,"wind_gusts":21.2,"aqi":100,"pm10":37.8,"pm2_5":28.0,"mosquito_risk":0,"arthritis_risk":5,"migraine_risk":7,"frizz_risk":1,"updated_at":"2026-04-23T13:30:55.720505+05:30"},{"city":"Vadodara","state":"Gujarat","latitude":22.3072,"longitude":73.1812,"temp":39.8,"humidity":21,"rain":0.0,"pressure":1003.3,"uv_index":8.2,"wind_gusts":24.8,"aqi":78,"pm10":26.8,"pm2_5":14.3,"mosquito_risk":0,"arthritis_risk":5,"migraine_risk":7,"frizz_risk":0,"updated_at":"2026-04-23T13:30:55.720515+05:30"},{"city":"Rajkot","state":"Gujarat","latitude":22.3039,"longitude":70.8022,"temp":38.0,"humidity":25,"rain":0.0,"pressure":993.5,"uv_index":7.9,"wind_gusts":30.6,"aqi":46,"pm10":34.5,"pm2_5":11.0,"mosquito_risk":0,"arthritis_risk":5,"migraine_risk":10,"frizz_risk":0,"updated_at":"2026-04-23T13:30:55.720523+05:30"},{"city":"Thane","state":"Maharashtra","latitude":19.2183,"longitude":72.9781,"temp":34.6,"humidity":54,"rain":0.0,"pressure":1006.4,"uv_index":8.05,"wind_gusts":35.6,"aqi":76,"pm10":40.9,"pm2_5":31.9,"mosquito_risk":0,"arthritis_risk":5,"migraine_risk":4,"frizz_risk":1,"updated_at":"2026-04-23T13:30:55.720531+05:30"},{"city":"Nagpur","state":"Maharashtra","latitude":21.1458,"longitude":79.0882,"temp":39.9,"humidity":18,"rain":0.0,"pressure":972.2,"uv_index":8.95,"wind_gusts":24.1,"aqi":75,"pm10":18.3,"pm2_5":16.2,"mosquito_risk":0,"arthritis_risk":5,"migraine_risk":10,"frizz_risk":0,"updated_at":"2026-04-23T13:30:55.720538+05:30"},{"city":"Nashik","state":"Maharashtra","latitude":19.9975,"longitude":73.7898,"temp":37.0,"humidity":23,"rain":0.0,"pressure":945.7,"uv_index":8.35,"wind_gusts":24.8,"aqi":85,"pm10":32.7,"pm2_5":24.7,"mosquito_risk":0,"arthritis_risk":5,"migraine_risk":10,"frizz_risk":0,"updated_at":"2026-04-23T13:30:55.720545+05:30"},{"city":"Aurangabad","state":"Maharashtra","latitude":19.8762,"longitude":75.3433,"temp":38.9,"humidity":17,"rain":0.0,"pressure":944.4,"uv_index":9.05,"wind_gusts":33.8,"aqi":89,"pm10":30.4,"pm2_5":24.2,"mosquito_risk":0,"arthritis_risk":5,"migraine_risk":10,"frizz_risk":0,"updated_at":"2026-04-23T13:30:55.720551+05:30"},{"city":"Solapur","state":"Maharashtra","latitude":17.6599,"longitude":75.9064,"temp":39.7,"humidity":19,"rain":0.0,"pressure":955.9,"uv_index":9.1,"wind_gusts":32.0,"aqi":98,"pm10":38.4,"pm2_5":32.5,"mosquito_risk":0,"arthritis_risk":5,"migraine_risk":10,"frizz_risk":0,"updated_at":"2026-04-23T13:30:55.720558+05:30"},{"city":"Kolhapur","state":"Maharashtra","latitude":16.705,"longitude":74.2433,"temp":37.6,"humidity":26,"rain":0.0,"pressure":947.1,"uv_index":9.05,"wind_gusts":46.4,"aqi":119,"pm10":37.1,"pm2_5":32.2,"mosquito_risk":0,"arthritis_risk":5,"migraine_risk":10,"frizz_risk":0,"updated_at":"2026-04-23T13:30:55.720564+05:30"},{"city":"Goa","state":"Goa","latitude":15.2993,"longitude":74.124,"temp":34.1,"humidity":62,"rain":0.0,"pressure":995.7,"uv_index":9.0,"wind_gusts":32.0,"aqi":85,"pm10":35.4,"pm2_5":25.1,"mosquito_risk":3,"arthritis_risk":5,"migraine_risk":7,"frizz_risk":1,"updated_at":"2026-04-23T13:30:55.720571+05:30"},{"city":"Jodhpur","state":"Rajasthan","latitude":26.2389,"longitude":73.0243,"temp":38.8,"humidity":25,"rain":0.0,"pressure":982.0,"uv_index":8.25,"wind_gusts":22.7,"aqi":86,"pm10":82.4,"pm2_5":14.8,"mosquito_risk":0,"arthritis_risk":5,"migraine_risk":10,"frizz_risk":0,"updated_at":"2026-04-23T13:30:55.720577+05:30"},{"city":"Udaipur","state":"Rajasthan","latitude":24.5854,"longitude":73.7125,"temp":36.2,"humidity":16,"rain":0.0,"pressure":946.9,"uv_index":8.75,"wind_gusts":31.3,"aqi":45,"pm10":36.3,"pm2_5":9.9,"mosquito_risk":0,"arthritis_risk":5,"migraine_risk":10,"frizz_risk":0,"updated_at":"2026-04-23T13:30:55.720583+05:30"},{"city":"Kota","state":"Rajasthan","latitude":25.2138,"longitude":75.8648,"temp":41.3,"humidity":12,"rain":0.0,"pressure":977.6,"uv_index":8.25,"wind_gusts":31.0,"aqi":52,"pm10":12.0,"pm2_5":9.8,"mosquito_risk":0,"arthritis_risk":5,"migraine_risk":10,"frizz_risk":0,"updated_at":"2026-04-23T13:30:55.720590+05:30"},{"city":"Bikaner","state":"Rajasthan","latitude":28.0229,"longitude":73.3119,"temp":40.4,"humidity":18,"rain":0.0,"pressure":980.4,"uv_index":8.15,"wind_gusts":23.4,"aqi":63,"pm10":149.5,"pm2_5":27.3,"mosquito_risk":0,"arthritis_risk":5,"migraine_risk":10,"frizz_risk":0,"updated_at":"2026-04-23T13:30:55.720596+05:30"},{"city":"Ajmer","state":"Rajasthan","latitude":26.4499,"longitude":74.6399,"temp":36.9,"humidity":19,"rain":0.0,"pressure":954.8,"uv_index":8.2,"wind_gusts":26.6,"aqi":46,"pm10":35.9,"pm2_5":9.6,"mosquito_risk":0,"arthritis_risk":5,"migraine_risk":10,"frizz_risk":0,"updated_at":"2026-04-23T13:30:55.720602+05:30"},{"city":"Gwalior","state":"Madhya Pradesh","latitude":26.2183,"longitude":78.1828,"temp":39.8,"humidity":15,"rain":0.0,"pressure":982.5,"uv_index":8.0,"wind_gusts":38.2,"aqi":46,"pm10":19.0,"pm2_5":7.6,"mosquito_risk":0,"arthritis_risk":5,"migraine_risk":10,"frizz_risk":0,"updated_at":"2026-04-23T13:30:55.720608+05:30"},{"city":"Indore","state":"Madhya Pradesh","latitude":22.7196,"longitude":75.8577,"temp":38.4,"humidity":20,"rain":0.0,"pressure":948.7,"uv_index":8.4,"wind_gusts":32.8,"aqi":75,"pm10":24.7,"pm2_5":19.0,"mosquito_risk":0,"arthritis_risk":5,"migraine_risk":10,"frizz_risk":0,"updated_at":"2026-04-23T13:30:55.720615+05:30"},{"city":"Bhopal","state":"Madhya Pradesh","latitude":23.2599,"longitude":77.4126,"temp":38.7,"humidity":16,"rain":0.0,"pressure":954.2,"uv_index":8.5,"wind_gusts":28.4,"aqi":68,"pm10":21.6,"pm2_5":16.9,"mosquito_risk":0,"arthritis_risk":5,"migraine_risk":10,"frizz_risk":0,"updated_at":"2026-04-23T13:30:55.720622+05:30"},{"city":"Jabalpur","state":"Madhya Pradesh","latitude":23.1815,"longitude":79.9864,"temp":38.9,"humidity":18,"rain":0.0,"pressure":961.1,"uv_index":8.8,"wind_gusts":25.2,"aqi":66,"pm10":14.6,"pm2_5":11.8,"mosquito_risk":0,"arthritis_risk":5,"migraine_risk":10,"frizz_risk":0,"updated_at":"2026-04-23T13:30:55.720628+05:30"},{"city":"Ujjain","state":"Madhya Pradesh","latitude":23.1765,"longitude":75.7885,"temp":38.9,"humidity":16,"rain":0.0,"pressure":954.3,"uv_index":8.55,"wind_gusts":33.5,"aqi":67,"pm10":21.9,"pm2_5":17.2,"mosquito_risk":0,"arthritis_risk":5,"migraine_risk":10,"frizz_risk":0,"updated_at":"2026-04-23T13:30:55.720635+05:30"},{"city":"Visakhapatnam","state":"Andhra Pradesh","latitude":17.6868,"longitude":83.2185,"temp":34.6,"humidity":57,"rain":0.0,"pressure":1001.4,"uv_index":9.25,"wind_gusts":33.8,"aqi":66,"pm10":27.5,"pm2_5":22.2,"mosquito_risk":0,"arthritis_risk":5,"migraine_risk":4,"frizz_risk":1,"updated_at":"2026-04-23T13:30:55.720641+05:30"},{"city":"Vijayawada","state":"Andhra Pradesh","latitude":16.5062,"longitude":80.648,"temp":37.6,"humidity":39,"rain":0.0,"pressure":1000.5,"uv_index":9.25,"wind_gusts":22.7,"aqi":61,"pm10":24.6,"pm2_5":18.6,"mosquito_risk":0,"arthritis_risk":5,"migraine_risk":7,"frizz_risk":1,"updated_at":"2026-04-23T13:30:55.720647+05:30"},{"city":"Guntur","state":"Andhra Pradesh","latitude":16.3067,"longitude":80.4365,"temp":38.5,"humidity":36,"rain":0.0,"pressure":1001.6,"uv_index":9.3,"wind_gusts":26.6,"aqi":65,"pm10":27.4,"pm2_5":21.4,"mosquito_risk":0,"arthritis_risk":5,"migraine_risk":7,"frizz_risk":1,"updated_at":"2026-04-23T13:30:55.720653+05:30"},{"city":"Nellore","state":"Andhra Pradesh","latitude":14.4426,"longitude":79.9865,"temp":39.8,"humidity":32,"rain":0.0,"pressure":1003.0,"uv_index":9.3,"wind_gusts":32.0,"aqi":44,"pm10":20.6,"pm2_5":15.8,"mosquito_risk":0,"arthritis_risk":5,"migraine_risk":7,"frizz_risk":1,"updated_at":"2026-04-23T13:30:55.720660+05:30"},{"city":"Kurnool","state":"Andhra Pradesh","latitude":15.8281,"longitude":78.0373,"temp":40.2,"humidity":24,"rain":0.0,"pressure":974.4,"uv_index":8.8,"wind_gusts":44.6,"aqi":90,"pm10":39.6,"pm2_5":33.1,"mosquito_risk":0,"arthritis_risk":5,"migraine_risk":10,"frizz_risk":0,"updated_at":"2026-04-23T13:30:55.720667+05:30"},{"city":"Kakinada","state":"Andhra Pradesh","latitude":16.9891,"longitude":82.2475,"temp":37.5,"humidity":45,"rain":0.0,"pressure":1004.8,"uv_index":9.25,"wind_gusts":29.5,"aqi":47,"pm10":19.4,"pm2_5":12.5,"mosquito_risk":0,"arthritis_risk":5,"migraine_risk":7,"frizz_risk":1,"updated_at":"2026-04-23T13:30:55.720674+05:30"},{"city":"Tirupati","state":"Andhra Pradesh","latitude":13.6288,"longitude":79.4192,"temp":38.4,"humidity":28,"rain":0.0,"pressure":989.6,"uv_index":9.35,"wind_gusts":33.8,"aqi":65,"pm10":18.3,"pm2_5":14.4,"mosquito_risk":0,"arthritis_risk":5,"migraine_risk":10,"frizz_risk":1,"updated_at":"2026-04-23T13:30:55.720680+05:30"},{"city":"Warangal","state":"Telangana","latitude":17.9689,"longitude":79.5941,"temp":38.0,"humidity":34,"rain":0.0,"pressure":977.4,"uv_index":8.4,"wind_gusts":20.5,"aqi":116,"pm10":44.0,"pm2_5":37.7,"mosquito_risk":0,"arthritis_risk":5,"migraine_risk":10,"frizz_risk":1,"updated_at":"2026-04-23T13:30:55.720686+05:30"},{"city":"Nizamabad","state":"Telangana","latitude":18.6725,"longitude":78.0941,"temp":39.0,"humidity":21,"rain":0.0,"pressure":963.8,"uv_index":8.6,"wind_gusts":32.0,"aqi":113,"pm10":30.6,"pm2_5":24.9,"mosquito_risk":0,"arthritis_risk":5,"migraine_risk":10,"frizz_risk":0,"updated_at":"2026-04-23T13:30:55.720692+05:30"},{"city":"Mysore","state":"Karnataka","latitude":12.2958,"longitude":76.6396,"temp":37.3,"humidity":21,"rain":0.0,"pressure":927.5,"uv_index":9.2,"wind_gusts":39.6,"aqi":83,"pm10":26.8,"pm2_5":19.5,"mosquito_risk":0,"arthritis_risk":5,"migraine_risk":10,"frizz_risk":0,"updated_at":"2026-04-23T13:30:55.720698+05:30"},{"city":"Mangalore","state":"Karnataka","latitude":12.9141,"longitude":74.856,"temp":30.2,"humidity":83,"rain":0.0,"pressure":1004.0,"uv_index":8.7,"wind_gusts":25.9,"aqi":83,"pm10":38.3,"pm2_5":29.0,"mosquito_risk":3,"arthritis_risk":5,"migraine_risk":4,"frizz_risk":1,"updated_at":"2026-04-23T13:30:55.720705+05:30"},{"city":"Hubli-Dharwad","state":"Karnataka","latitude":15.3647,"longitude":75.124,"temp":37.1,"humidity":29,"rain":0.0,"pressure":939.8,"uv_index":9.25,"wind_gusts":40.7,"aqi":92,"pm10":31.7,"pm2_5":26.6,"mosquito_risk":0,"arthritis_risk":5,"migraine_risk":10,"frizz_risk":1,"updated_at":"2026-04-23T13:30:55.720712+05:30"},{"city":"Belgaum","state":"Karnataka","latitude":15.8497,"longitude":74.4977,"temp":35.8,"humidity":29,"rain":0.0,"pressure":925.2,"uv_index":9.25,"wind_gusts":34.9,"aqi":115,"pm10":31.4,"pm2_5":27.5,"mosquito_risk":0,"arthritis_risk":5,"migraine_risk":10,"frizz_risk":0,"updated_at":"2026-04-23T13:31:01.729115+05:30"},{"city":"Coimbatore","state":"Tamil Nadu","latitude":11.0168,"longitude":76.9558,"temp":37.0,"humidity":29,"rain":0.0,"pressure":960.1,"uv_index":9.4,"wind_gusts":33.8,"aqi":89,"pm10":20.3,"pm2_5":15.4,"mosquito_risk":0,"arthritis_risk":5,"migraine_risk":10,"frizz_risk":0,"updated_at":"2026-04-23T13:31:01.729150+05:30"},{"city":"Madurai","state":"Tamil Nadu","latitude":9.9252,"longitude":78.1198,"temp":37.9,"humidity":35,"rain":0.0,"pressure":990.5,"uv_index":9.3,"wind_gusts":31.0,"aqi":51,"pm10":10.9,"pm2_5":9.2,"mosquito_risk":0,"arthritis_risk":5,"migraine_risk":10,"frizz_risk":1,"updated_at":"2026-04-23T13:31:01.729161+05:30"},{"city":"Trichy","state":"Tamil Nadu","latitude":10.7905,"longitude":78.7047,"temp":37.2,"humidity":40,"rain":0.0,"pressure":997.3,"uv_index":9.3,"wind_gusts":23.4,"aqi":46,"pm10":9.3,"pm2_5":8.1,"mosquito_risk":0,"arthritis_risk":5,"migraine_risk":10,"frizz_risk":1,"updated_at":"2026-04-23T13:31:01.729169+05:30"},{"city":"Salem","state":"Tamil Nadu","latitude":11.6643,"longitude":78.146,"temp":37.5,"humidity":37,"rain":0.0,"pressure":975.3,"uv_index":9.4,"wind_gusts":29.9,"aqi":64,"pm10":19.9,"pm2_5":15.9,"mosquito_risk":0,"arthritis_risk":5,"migraine_risk":10,"frizz_risk":1,"updated_at":"2026-04-23T13:31:01.729177+05:30"},{"city":"Tirunelveli","state":"Tamil Nadu","latitude":8.7139,"longitude":77.7567,"temp":36.8,"humidity":41,"rain":0.0,"pressure":1000.6,"uv_index":9.25,"wind_gusts":36.0,"aqi":69,"pm10":13.4,"pm2_5":11.6,"mosquito_risk":0,"arthritis_risk":5,"migraine_risk":7,"frizz_risk":1,"updated_at":"2026-04-23T13:31:01.729185+05:30"},{"city":"Vellore","state":"Tamil Nadu","latitude":12.9165,"longitude":79.1325,"temp":37.3,"humidity":31,"rain":0.0,"pressure":982.9,"uv_index":9.4,"wind_gusts":30.6,"aqi":80,"pm10":19.6,"pm2_5":17.2,"mosquito_risk":0,"arthritis_risk":5,"migraine_risk":10,"frizz_risk":1,"updated_at":"2026-04-23T13:31:01.729192+05:30"},{"city":"Erode","state":"Tamil Nadu","latitude":11.341,"longitude":77.7172,"temp":39.2,"humidity":32,"rain":0.0,"pressure":986.4,"uv_index":9.35,"wind_gusts":30.2,"aqi":42,"pm10":13.0,"pm2_5":10.1,"mosquito_risk":0,"arthritis_risk":5,"migraine_risk":10,"frizz_risk":1,"updated_at":"2026-04-23T13:31:01.729200+05:30"},{"city":"Kochi","state":"Kerala","latitude":9.9312,"longitude":76.2673,"temp":29.8,"humidity":82,"rain":0.0,"pressure":1005.9,"uv_index":9.05,"wind_gusts":29.9,"aqi":80,"pm10":21.8,"pm2_5":19.0,"mosquito_risk":7,"arthritis_risk":5,"migraine_risk":4,"frizz_risk":1,"updated_at":"2026-04-23T13:31:01.729207+05:30"},{"city":"Thiruvananthapuram","state":"Kerala","latitude":8.5241,"longitude":76.9366,"temp":29.4,"humidity":82,"rain":0.0,"pressure":1005.6,"uv_index":8.7,"wind_gusts":18.7,"aqi":67,"pm10":19.1,"pm2_5":15.7,"mosquito_risk":7,"arthritis_risk":5,"migraine_risk":4,"frizz_risk":1,"updated_at":"2026-04-23T13:31:01.729214+05:30"},{"city":"Kozhikode","state":"Kerala","latitude":11.2588,"longitude":75.7804,"temp":31.3,"humidity":77,"rain":0.0,"pressure":1005.1,"uv_index":9.1,"wind_gusts":30.2,"aqi":74,"pm10":24.9,"pm2_5":19.7,"mosquito_risk":3,"arthritis_risk":5,"migraine_risk":4,"frizz_risk":1,"updated_at":"2026-04-23T13:31:01.729221+05:30"},{"city":"Thrissur","state":"Kerala","latitude":10.5276,"longitude":76.2144,"temp":34.5,"humidity":60,"rain":0.0,"pressure":1004.4,"uv_index":9.15,"wind_gusts":37.4,"aqi":81,"pm10":20.7,"pm2_5":17.3,"mosquito_risk":0,"arthritis_risk":5,"migraine_risk":4,"frizz_risk":1,"updated_at":"2026-04-23T13:31:01.729227+05:30"},{"city":"Kannur","state":"Kerala","latitude":11.8745,"longitude":75.3704,"temp":32.5,"humidity":68,"rain":0.0,"pressure":1004.5,"uv_index":9.1,"wind_gusts":31.7,"aqi":85,"pm10":35.6,"pm2_5":27.8,"mosquito_risk":3,"arthritis_risk":5,"migraine_risk":4,"frizz_risk":1,"updated_at":"2026-04-23T13:31:01.729234+05:30"},{"city":"Patna","state":"Bihar","latitude":25.5941,"longitude":85.1376,"temp":39.1,"humidity":22,"rain":0.0,"pressure":997.2,"uv_index":8.6,"wind_gusts":23.8,"aqi":149,"pm10":156.9,"pm2_5":48.1,"mosquito_risk":0,"arthritis_risk":5,"migraine_risk":10,"frizz_risk":0,"updated_at":"2026-04-23T13:31:01.729241+05:30"},{"city":"Gaya","state":"Bihar","latitude":24.7914,"longitude":85.0002,"temp":41.2,"humidity":15,"rain":0.0,"pressure":990.7,"uv_index":8.5,"wind_gusts":33.5,"aqi":128,"pm10":220.7,"pm2_5":41.7,"mosquito_risk":0,"arthritis_risk":5,"migraine_risk":10,"frizz_risk":0,"updated_at":"2026-04-23T13:31:01.729247+05:30"},{"city":"Muzaffarpur","state":"Bihar","latitude":26.1209,"longitude":85.3647,"temp":38.0,"humidity":33,"rain":0.0,"pressure":997.1,"uv_index":8.65,"wind_gusts":25.9,"aqi":150,"pm10":114.6,"pm2_5":45.2,"mosquito_risk":0,"arthritis_risk":5,"migraine_risk":10,"frizz_risk":1,"updated_at":"2026-04-23T13:31:01.729253+05:30"},{"city":"Bhagalpur","state":"Bihar","latitude":25.2425,"longitude":87.0117,"temp":36.5,"humidity":45,"rain":0.0,"pressure":997.9,"uv_index":8.55,"wind_gusts":19.1,"aqi":160,"pm10":105.5,"pm2_5":56.6,"mosquito_risk":0,"arthritis_risk":5,"migraine_risk":10,"frizz_risk":1,"updated_at":"2026-04-23T13:31:01.729258+05:30"},{"city":"Ranchi","state":"Jharkhand","latitude":23.3441,"longitude":85.3096,"temp":38.0,"humidity":13,"rain":0.0,"pressure":937.1,"uv_index":8.8,"wind_gusts":37.4,"aqi":117,"pm10":139.7,"pm2_5":23.9,"mosquito_risk":0,"arthritis_risk":5,"migraine_risk":10,"frizz_risk":0,"updated_at":"2026-04-23T13:31:01.729265+05:30"},{"city":"Jamshedpur","state":"Jharkhand","latitude":22.8046,"longitude":86.2029,"temp":41.6,"humidity":18,"rain":0.0,"pressure":987.3,"uv_index":8.85,"wind_gusts":16.2,"aqi":159,"pm10":149.9,"pm2_5":35.9,"mosquito_risk":0,"arthritis_risk":5,"migraine_risk":10,"frizz_risk":0,"updated_at":"2026-04-23T13:31:01.729271+05:30"},{"city":"Dhanbad","state":"Jharkhand","latitude":23.7957,"longitude":86.4304,"temp":41.8,"humidity":13,"rain":0.0,"pressure":976.7,"uv_index":8.8,"wind_gusts":34.2,"aqi":163,"pm10":205.8,"pm2_5":37.5,"mosquito_risk":0,"arthritis_risk":5,"migraine_risk":10,"frizz_risk":0,"updated_at":"2026-04-23T13:31:01.729277+05:30"},{"city":"Bokaro","state":"Jharkhand","latitude":23.6693,"longitude":86.1511,"temp":41.6,"humidity":12,"rain":0.0,"pressure":980.6,"uv_index":8.65,"wind_gusts":37.1,"aqi":155,"pm10":211.9,"pm2_5":38.5,"mosquito_risk":0,"arthritis_risk":5,"migraine_risk":10,"frizz_risk":0,"updated_at":"2026-04-23T13:31:01.729283+05:30"},{"city":"Bhubaneswar","state":"Odisha","latitude":20.2961,"longitude":85.8245,"temp":38.0,"humidity":49,"rain":0.0,"pressure":998.9,"uv_index":9.15,"wind_gusts":35.6,"aqi":106,"pm10":48.0,"pm2_5":39.7,"mosquito_risk":0,"arthritis_risk":5,"migraine_risk":10,"frizz_risk":1,"updated_at":"2026-04-23T13:31:01.729289+05:30"},{"city":"Cuttack","state":"Odisha","latitude":20.4625,"longitude":85.8828,"temp":42.0,"humidity":29,"rain":0.0,"pressure":1000.1,"uv_index":9.2,"wind_gusts":40.3,"aqi":106,"pm10":48.0,"pm2_5":39.7,"mosquito_risk":0,"arthritis_risk":5,"migraine_risk":7,"frizz_risk":1,"updated_at":"2026-04-23T13:31:01.729294+05:30"},{"city":"Rourkela","state":"Odisha","latitude":22.2604,"longitude":84.8536,"temp":41.3,"humidity":16,"rain":0.0,"pressure":982.3,"uv_index":8.8,"wind_gusts":19.1,"aqi":97,"pm10":83.4,"pm2_5":19.8,"mosquito_risk":0,"arthritis_risk":5,"migraine_risk":10,"frizz_risk":0,"updated_at":"2026-04-23T13:31:01.729300+05:30"},{"city":"Raipur","state":"Chhattisgarh","latitude":21.2514,"longitude":81.6296,"temp":41.1,"humidity":16,"rain":0.0,"pressure":973.1,"uv_index":7.9,"wind_gusts":29.5,"aqi":122,"pm10":22.8,"pm2_5":18.1,"mosquito_risk":0,"arthritis_risk":5,"migraine_risk":10,"frizz_risk":0,"updated_at":"2026-04-23T13:31:01.729306+05:30"},{"city":"Bhilai","state":"Chhattisgarh","latitude":21.1938,"longitude":81.3509,"temp":40.7,"humidity":18,"rain":0.0,"pressure":973.5,"uv_index":7.7,"wind_gusts":25.9,"aqi":112,"pm10":19.3,"pm2_5":16.4,"mosquito_risk":0,"arthritis_risk":5,"migraine_risk":10,"frizz_risk":0,"updated_at":"2026-04-23T13:31:01.729311+05:30"},{"city":"Guwahati","state":"Assam","latitude":26.1158,"longitude":91.7086,"temp":31.1,"humidity":66,"rain":0.0,"pressure":999.5,"uv_index":8.55,"wind_gusts":20.9,"aqi":93,"pm10":73.1,"pm2_5":31.7,"mosquito_risk":3,"arthritis_risk":5,"migraine_risk":7,"frizz_risk":1,"updated_at":"2026-04-23T13:31:01.729317+05:30"},{"city":"Agartala","state":"Tripura","latitude":23.8315,"longitude":91.2868,"temp":35.3,"humidity":49,"rain":0.0,"pressure":1003.1,"uv_index":8.4,"wind_gusts":20.5,"aqi":78,"pm10":74.3,"pm2_5":29.2,"mosquito_risk":0,"arthritis_risk":5,"migraine_risk":7,"frizz_risk":1,"updated_at":"2026-04-23T13:31:01.729323+05:30"},{"city":"Shillong","state":"Meghalaya","latitude":25.5788,"longitude":91.8933,"temp":24.9,"humidity":47,"rain":0.0,"pressure":858.1,"uv_index":8.95,"wind_gusts":36.0,"aqi":97,"pm10":83.4,"pm2_5":32.6,"mosquito_risk":0,"arthritis_risk":5,"migraine_risk":7,"frizz_risk":0,"updated_at":"2026-04-23T13:31:01.729329+05:30"},{"city":"Imphal","state":"Manipur","latitude":24.817,"longitude":93.9368,"temp":25.7,"humidity":61,"rain":0.0,"pressure":922.3,"uv_index":9.15,"wind_gusts":48.2,"aqi":110,"pm10":77.3,"pm2_5":31.4,"mosquito_risk":7,"arthritis_risk":5,"migraine_risk":7,"frizz_risk":1,"updated_at":"2026-04-23T13:31:01.729335+05:30"},{"city":"Aizawl","state":"Mizoram","latitude":23.7271,"longitude":92.7176,"temp":28.8,"humidity":48,"rain":0.0,"pressure":893.2,"uv_index":8.95,"wind_gusts":35.3,"aqi":107,"pm10":116.2,"pm2_5":37.4,"mosquito_risk":4,"arthritis_risk":5,"migraine_risk":7,"frizz_risk":1,"updated_at":"2026-04-23T13:31:01.729341+05:30"},{"city":"Kohima","state":"Nagaland","latitude":25.6701,"longitude":94.1077,"temp":22.3,"humidity":66,"rain":0.0,"pressure":855.6,"uv_index":9.05,"wind_gusts":50.0,"aqi":91,"pm10":60.3,"pm2_5":26.3,"mosquito_risk":3,"arthritis_risk":5,"migraine_risk":7,"frizz_risk":0,"updated_at":"2026-04-23T13:31:01.729347+05:30"},{"city":"Gangtok","state":"Sikkim","latitude":27.3314,"longitude":88.6138,"temp":24.8,"humidity":57,"rain":0.0,"pressure":839.6,"uv_index":8.9,"wind_gusts":22.0,"aqi":113,"pm10":55.1,"pm2_5":32.1,"mosquito_risk":0,"arthritis_risk":5,"migraine_risk":7,"frizz_risk":0,"updated_at":"2026-04-23T13:31:01.729354+05:30"},{"city":"Siliguri","state":"West Bengal","latitude":26.7271,"longitude":88.3953,"temp":27.7,"humidity":70,"rain":0.0,"pressure":992.4,"uv_index":8.55,"wind_gusts":22.3,"aqi":150,"pm10":66.4,"pm2_5":36.8,"mosquito_risk":7,"arthritis_risk":5,"migraine_risk":7,"frizz_risk":1,"updated_at":"2026-04-23T13:31:05.713792+05:30"},{"city":"Durgapur","state":"West Bengal","latitude":23.5204,"longitude":87.3119,"temp":42.2,"humidity":20,"rain":0.0,"pressure":990.8,"uv_index":8.95,"wind_gusts":25.9,"aqi":153,"pm10":180.7,"pm2_5":49.1,"mosquito_risk":0,"arthritis_risk":5,"migraine_risk":10,"frizz_risk":0,"updated_at":"2026-04-23T13:31:05.713824+05:30"},{"city":"Asansol","state":"West Bengal","latitude":23.6739,"longitude":86.9524,"temp":42.7,"humidity":15,"rain":0.0,"pressure":989.5,"uv_index":8.95,"wind_gusts":29.2,"aqi":154,"pm10":201.6,"pm2_5":40.6,"mosquito_risk":0,"arthritis_risk":5,"migraine_risk":10,"frizz_risk":0,"updated_at":"2026-04-23T13:31:05.713836+05:30"},{"city":"Pondicherry","state":"Puducherry","latitude":11.9139,"longitude":79.8145,"temp":37.1,"humidity":46,"rain":0.0,"pressure":1005.9,"uv_index":9.25,"wind_gusts":28.8,"aqi":25,"pm10":10.0,"pm2_5":6.7,"mosquito_risk":0,"arthritis_risk":5,"migraine_risk":7,"frizz_risk":1,"updated_at":"2026-04-23T13:31:05.713844+05:30"},{"city":"Port Blair","state":"Andaman and Nicobar Islands","latitude":11.6234,"longitude":92.7265,"temp":30.2,"humidity":70,"rain":0.0,"pressure":1004.8,"uv_index":9.15,"wind_gusts":23.8,"aqi":32,"pm10":13.2,"pm2_5":6.3,"mosquito_risk":3,"arthritis_risk":5,"migraine_risk":4,"frizz_risk":1,"updated_at":"2026-04-23T13:31:05.713851+05:30"},{"city":"Haridwar","state":"Uttarakhand","latitude":29.9457,"longitude":78.1642,"temp":38.3,"humidity":25,"rain":0.0,"pressure":973.2,"uv_index":7.2,"wind_gusts":36.7,"aqi":78,"pm10":38.0,"pm2_5":19.3,"mosquito_risk":0,"arthritis_risk":5,"migraine_risk":10,"frizz_risk":0,"updated_at":"2026-04-23T13:31:05.713859+05:30"},{"city":"Rishikesh","state":"Uttarakhand","latitude":30.0869,"longitude":78.2676,"temp":37.1,"humidity":27,"rain":0.0,"pressure":966.1,"uv_index":7.3,"wind_gusts":34.9,"aqi":80,"pm10":24.9,"pm2_5":14.0,"mosquito_risk":0,"arthritis_risk":5,"migraine_risk":10,"frizz_risk":0,"updated_at":"2026-04-23T13:31:05.713866+05:30"},{"city":"Nainital","state":"Uttarakhand","latitude":29.3919,"longitude":79.4542,"temp":30.6,"humidity":24,"rain":0.0,"pressure":811.4,"uv_index":8.15,"wind_gusts":47.9,"aqi":106,"pm10":38.2,"pm2_5":18.6,"mosquito_risk":0,"arthritis_risk":5,"migraine_risk":7,"frizz_risk":0,"updated_at":"2026-04-23T13:31:05.713873+05:30"},{"city":"Mussoorie","state":"Uttarakhand","latitude":30.4599,"longitude":78.0664,"temp":28.7,"humidity":33,"rain":0.0,"pressure":808.0,"uv_index":7.7,"wind_gusts":40.7,"aqi":79,"pm10":33.8,"pm2_5":18.3,"mosquito_risk":4,"arthritis_risk":5,"migraine_risk":7,"frizz_risk":0,"updated_at":"2026-04-23T13:31:05.713880+05:30"},{"city":"Dharamshala","state":"Himachal Pradesh","latitude":32.219,"longitude":76.3234,"temp":32.3,"humidity":27,"rain":0.0,"pressure":872.3,"uv_index":8.05,"wind_gusts":33.5,"aqi":89,"pm10":15.1,"pm2_5":6.4,"mosquito_risk":0,"arthritis_risk":5,"migraine_risk":7,"frizz_risk":0,"updated_at":"2026-04-23T13:31:05.713887+05:30"},{"city":"Dalhousie","state":"Himachal Pradesh","latitude":32.5387,"longitude":75.971,"temp":31.0,"humidity":24,"rain":0.0,"pressure":809.3,"uv_index":8.35,"wind_gusts":32.4,"aqi":70,"pm10":18.2,"pm2_5":8.8,"mosquito_risk":0,"arthritis_risk":5,"migraine_risk":7,"frizz_risk":0,"updated_at":"2026-04-23T13:31:05.713930+05:30"},{"city":"Patiala","state":"Punjab","latitude":30.3398,"longitude":76.3869,"temp":39.6,"humidity":23,"rain":0.0,"pressure":976.8,"uv_index":7.3,"wind_gusts":16.9,"aqi":250,"pm10":291.5,"pm2_5":40.2,"mosquito_risk":0,"arthritis_risk":5,"migraine_risk":10,"frizz_risk":0,"updated_at":"2026-04-23T13:31:05.713939+05:30"},{"city":"Bhatinda","state":"Punjab","latitude":30.211,"longitude":74.9455,"temp":42.5,"humidity":14,"rain":0.0,"pressure":981.6,"uv_index":8.0,"wind_gusts":28.1,"aqi":81,"pm10":49.2,"pm2_5":19.0,"mosquito_risk":0,"arthritis_risk":5,"migraine_risk":10,"frizz_risk":0,"updated_at":"2026-04-23T13:31:05.713947+05:30"},{"city":"Rohtak","state":"Haryana","latitude":28.8955,"longitude":76.6066,"temp":39.5,"humidity":20,"rain":0.0,"pressure":980.7,"uv_index":7.45,"wind_gusts":23.8,"aqi":534,"pm10":538.3,"pm2_5":57.5,"mosquito_risk":0,"arthritis_risk":5,"migraine_risk":10,"frizz_risk":0,"updated_at":"2026-04-23T13:31:05.713954+05:30"},{"city":"Panipat","state":"Haryana","latitude":29.3909,"longitude":76.9635,"temp":40.0,"humidity":19,"rain":0.0,"pressure":979.1,"uv_index":7.25,"wind_gusts":21.2,"aqi":988,"pm10":720.8,"pm2_5":72.2,"mosquito_risk":0,"arthritis_risk":5,"migraine_risk":10,"frizz_risk":0,"updated_at":"2026-04-23T13:31:05.713960+05:30"},{"city":"Mathura","state":"Uttar Pradesh","latitude":27.4924,"longitude":77.6737,"temp":40.3,"humidity":13,"rain":0.0,"pressure":985.8,"uv_index":7.7,"wind_gusts":24.8,"aqi":628,"pm10":467.5,"pm2_5":43.1,"mosquito_risk":0,"arthritis_risk":5,"migraine_risk":10,"frizz_risk":0,"updated_at":"2026-04-23T13:31:05.713968+05:30"},{"city":"Vrindavan","state":"Uttar Pradesh","latitude":27.5823,"longitude":77.7027,"temp":40.6,"humidity":12,"rain":0.0,"pressure":986.2,"uv_index":7.65,"wind_gusts":27.0,"aqi":628,"pm10":467.5,"pm2_5":43.1,"mosquito_risk":0,"arthritis_risk":5,"migraine_risk":10,"frizz_risk":0,"updated_at":"2026-04-23T13:31:05.713974+05:30"},{"city":"Ayodhya","state":"Uttar Pradesh","latitude":26.7922,"longitude":82.1998,"temp":42.0,"humidity":17,"rain":0.0,"pressure":992.1,"uv_index":8.05,"wind_gusts":39.6,"aqi":133,"pm10":131.3,"pm2_5":34.3,"mosquito_risk":0,"arthritis_risk":5,"migraine_risk":10,"frizz_risk":0,"updated_at":"2026-04-23T13:31:05.713980+05:30"},{"city":"Ratlam","state":"Madhya Pradesh","latitude":23.3315,"longitude":75.0367,"temp":36.6,"humidity":25,"rain":0.0,"pressure":955.1,"uv_index":8.5,"wind_gusts":31.7,"aqi":67,"pm10":20.3,"pm2_5":15.9,"mosquito_risk":0,"arthritis_risk":5,"migraine_risk":10,"frizz_risk":0,"updated_at":"2026-04-23T13:31:05.713986+05:30"},{"city":"Sagar","state":"Madhya Pradesh","latitude":23.8388,"longitude":78.7378,"temp":39.5,"humidity":14,"rain":0.0,"pressure":950.4,"uv_index":8.65,"wind_gusts":32.0,"aqi":65,"pm10":19.3,"pm2_5":15.1,"mosquito_risk":0,"arthritis_risk":5,"migraine_risk":10,"frizz_risk":0,"updated_at":"2026-04-23T13:31:05.713992+05:30"},{"city":"Satna","state":"Madhya Pradesh","latitude":24.6005,"longitude":80.8322,"temp":41.9,"humidity":10,"rain":0.0,"pressure":970.1,"uv_index":8.65,"wind_gusts":29.2,"aqi":60,"pm10":59.8,"pm2_5":15.3,"mosquito_risk":0,"arthritis_risk":5,"migraine_risk":10,"frizz_risk":0,"updated_at":"2026-04-23T13:31:05.713998+05:30"},{"city":"Akola","state":"Maharashtra","latitude":20.7002,"longitude":77.0082,"temp":42.5,"humidity":13,"rain":0.0,"pressure":973.9,"uv_index":8.75,"wind_gusts":23.8,"aqi":77,"pm10":24.7,"pm2_5":19.7,"mosquito_risk":0,"arthritis_risk":5,"migraine_risk":10,"frizz_risk":0,"updated_at":"2026-04-23T13:31:05.714005+05:30"},{"city":"Amravati","state":"Maharashtra","latitude":20.9374,"longitude":77.7796,"temp":40.5,"humidity":17,"rain":0.0,"pressure":966.5,"uv_index":8.4,"wind_gusts":20.9,"aqi":76,"pm10":22.6,"pm2_5":18.2,"mosquito_risk":0,"arthritis_risk":5,"migraine_risk":10,"frizz_risk":0,"updated_at":"2026-04-23T13:31:05.714012+05:30"},{"city":"Latur","state":"Maharashtra","latitude":18.4088,"longitude":76.5604,"temp":37.3,"humidity":20,"rain":0.0,"pressure":939.7,"uv_index":9.1,"wind_gusts":41.0,"aqi":107,"pm10":35.3,"pm2_5":30.2,"mosquito_risk":0,"arthritis_risk":5,"migraine_risk":10,"frizz_risk":0,"updated_at":"2026-04-23T13:31:05.714018+05:30"},{"city":"Nanded","state":"Maharashtra","latitude":19.1383,"longitude":77.3091,"temp":40.5,"humidity":17,"rain":0.0,"pressure":967.5,"uv_index":9.05,"wind_gusts":29.9,"aqi":115,"pm10":24.8,"pm2_5":20.4,"mosquito_risk":0,"arthritis_risk":5,"migraine_risk":10,"frizz_risk":0,"updated_at":"2026-04-23T13:31:05.714025+05:30"},{"city":"Gulbarga","state":"Karnataka","latitude":17.3297,"longitude":76.8343,"temp":39.0,"humidity":23,"rain":0.0,"pressure":957.9,"uv_index":8.8,"wind_gusts":49.7,"aqi":96,"pm10":41.4,"pm2_5":35.3,"mosquito_risk":0,"arthritis_risk":5,"migraine_risk":10,"frizz_risk":0,"updated_at":"2026-04-23T13:31:05.714031+05:30"},{"city":"Bidar","state":"Karnataka","latitude":17.9104,"longitude":77.5199,"temp":38.2,"humidity":20,"rain":0.0,"pressure":935.3,"uv_index":7.95,"wind_gusts":33.5,"aqi":114,"pm10":39.8,"pm2_5":33.5,"mosquito_risk":0,"arthritis_risk":5,"migraine_risk":10,"frizz_risk":0,"updated_at":"2026-04-23T13:31:05.714037+05:30"},{"city":"Hospet","state":"Karnataka","latitude":15.2689,"longitude":76.3909,"temp":36.7,"humidity":29,"rain":0.0,"pressure":954.5,"uv_index":8.75,"wind_gusts":27.7,"aqi":88,"pm10":36.7,"pm2_5":30.3,"mosquito_risk":0,"arthritis_risk":5,"migraine_risk":10,"frizz_risk":0,"updated_at":"2026-04-23T13:31:05.714043+05:30"},{"city":"Tirupur","state":"Tamil Nadu","latitude":11.1085,"longitude":77.3411,"temp":38.4,"humidity":31,"rain":0.0,"pressure":973.2,"uv_index":9.45,"wind_gusts":33.8,"aqi":64,"pm10":14.0,"pm2_5":10.8,"mosquito_risk":0,"arthritis_risk":5,"migraine_risk":10,"frizz_risk":1,"updated_at":"2026-04-23T13:31:05.714049+05:30"},{"city":"Alappuzha","state":"Kerala","latitude":9.4981,"longitude":76.3388,"temp":29.6,"humidity":82,"rain":0.0,"pressure":1006.1,"uv_index":9.1,"wind_gusts":28.1,"aqi":81,"pm10":22.2,"pm2_5":18.6,"mosquito_risk":7,"arthritis_risk":5,"migraine_risk":4,"frizz_risk":1,"updated_at":"2026-04-23T13:31:05.714056+05:30"},{"city":"Munnar","state":"Kerala","latitude":10.0889,"longitude":77.0595,"temp":33.0,"humidity":32,"rain":0.0,"pressure":858.6,"uv_index":9.65,"wind_gusts":20.5,"aqi":68,"pm10":12.4,"pm2_5":9.9,"mosquito_risk":0,"arthritis_risk":5,"migraine_risk":7,"frizz_risk":0,"updated_at":"2026-04-23T13:31:05.714062+05:30"},{"city":"Silchar","state":"Assam","latitude":24.8333,"longitude":92.7789,"temp":31.5,"humidity":65,"rain":0.0,"pressure":1003.0,"uv_index":8.7,"wind_gusts":19.1,"aqi":117,"pm10":80.1,"pm2_5":39.3,"mosquito_risk":3,"arthritis_risk":5,"migraine_risk":4,"frizz_risk":1,"updated_at":"2026-04-23T13:31:05.714069+05:30"},{"city":"Dibrugarh","state":"Assam","latitude":27.4728,"longitude":94.912,"temp":29.6,"humidity":62,"rain":0.0,"pressure":993.3,"uv_index":8.65,"wind_gusts":11.2,"aqi":76,"pm10":14.3,"pm2_5":11.3,"mosquito_risk":7,"arthritis_risk":5,"migraine_risk":7,"frizz_risk":1,"updated_at":"2026-04-23T13:31:05.714075+05:30"}]