[{"city":"Delhi","state":"Delhi","latitude":28.6139,"longitude":77.209,"temp":21.9,"humidity":88,"rain":0.0,"pressure":983.8,"uv_index":7.55,"wind_gusts":34.2,"aqi":470,"pm10":292.4,"pm2_5":58.1,"no2":14.4,"co":375.0,"o3":94.0,"so2":14.2,"mosquito_risk":3,"arthritis_risk":5,"migraine_risk":7,"frizz_risk":1,"updated_at":"2026-05-08T05:25:24.594020+05:30"},{"city":"Mumbai","state":"Maharashtra","latitude":19.076,"longitude":72.8777,"temp":27.5,"humidity":92,"rain":0.0,"pressure":1006.8,"uv_index":7.85,"wind_gusts":45.7,"aqi":96,"pm10":80.3,"pm2_5":24.2,"no2":9.5,"co":407.0,"o3":62.0,"so2":12.9,"mosquito_risk":7,"arthritis_risk":5,"migraine_risk":4,"frizz_risk":1,"updated_at":"2026-05-08T05:25:24.594066+05:30"},{"city":"Bangalore","state":"Karnataka","latitude":12.9716,"longitude":77.5946,"temp":22.0,"humidity":91,"rain":0.0,"pressure":910.1,"uv_index":9.45,"wind_gusts":43.6,"aqi":63,"pm10":11.4,"pm2_5":10.9,"no2":11.9,"co":211.0,"o3":34.0,"so2":5.1,"mosquito_risk":3,"arthritis_risk":5,"migraine_risk":7,"frizz_risk":1,"updated_at":"2026-05-08T05:25:24.594082+05:30"},{"city":"Hyderabad","state":"Telangana","latitude":17.385,"longitude":78.4867,"temp":25.2,"humidity":69,"rain":0.0,"pressure":953.6,"uv_index":9.25,"wind_gusts":36.4,"aqi":56,"pm10":11.9,"pm2_5":10.3,"no2":9.8,"co":218.0,"o3":44.0,"so2":5.4,"mosquito_risk":7,"arthritis_risk":5,"migraine_risk":7,"frizz_risk":1,"updated_at":"2026-05-08T05:25:24.594098+05:30"},{"city":"Chennai","state":"Tamil Nadu","latitude":13.0827,"longitude":80.2707,"temp":26.5,"humidity":83,"rain":0.1,"pressure":1006.7,"uv_index":7.4,"wind_gusts":40.0,"aqi":25,"pm10":7.3,"pm2_5":5.1,"no2":4.7,"co":125.0,"o3":42.0,"so2":1.8,"mosquito_risk":10,"arthritis_risk":5,"migraine_risk":4,"frizz_risk":1,"updated_at":"2026-05-08T05:25:24.594108+05:30"},{"city":"Kolkata","state":"West Bengal","latitude":22.5726,"longitude":88.3639,"temp":23.5,"humidity":92,"rain":0.0,"pressure":1008.3,"uv_index":8.9,"wind_gusts":59.8,"aqi":112,"pm10":92.7,"pm2_5":90.3,"no2":32.8,"co":610.0,"o3":51.0,"so2":22.0,"mosquito_risk":3,"arthritis_risk":0,"migraine_risk":4,"frizz_risk":1,"updated_at":"2026-05-08T05:25:24.594117+05:30"},{"city":"Pune","state":"Maharashtra","latitude":18.5204,"longitude":73.8567,"temp":26.1,"humidity":71,"rain":0.0,"pressure":946.8,"uv_index":8.45,"wind_gusts":37.4,"aqi":104,"pm10":82.2,"pm2_5":50.6,"no2":22.1,"co":330.0,"o3":62.0,"so2":17.7,"mosquito_risk":7,"arthritis_risk":5,"migraine_risk":7,"frizz_risk":1,"updated_at":"2026-05-08T05:25:24.594125+05:30"},{"city":"Ahmedabad","state":"Gujarat","latitude":23.0225,"longitude":72.5714,"temp":29.4,"humidity":34,"rain":0.0,"pressure":1000.1,"uv_index":8.1,"wind_gusts":24.8,"aqi":94,"pm10":34.0,"pm2_5":21.8,"no2":14.2,"co":211.0,"o3":41.0,"so2":6.6,"mosquito_risk":4,"arthritis_risk":5,"migraine_risk":4,"frizz_risk":0,"updated_at":"2026-05-08T05:25:24.594136+05:30"},{"city":"Jaipur","state":"Rajasthan","latitude":26.9124,"longitude":75.7873,"temp":22.0,"humidity":62,"rain":0.0,"pressure":958.4,"uv_index":8.1,"wind_gusts":28.4,"aqi":143,"pm10":289.6,"pm2_5":50.9,"no2":5.5,"co":314.0,"o3":91.0,"so2":6.4,"mosquito_risk":3,"arthritis_risk":5,"migraine_risk":7,"frizz_risk":0,"updated_at":"2026-05-08T05:25:24.594145+05:30"},{"city":"Lucknow","state":"Uttar Pradesh","latitude":26.8467,"longitude":80.9462,"temp":21.9,"humidity":88,"rain":0.0,"pressure":995.2,"uv_index":8.05,"wind_gusts":27.4,"aqi":94,"pm10":56.8,"pm2_5":38.1,"no2":14.3,"co":391.0,"o3":80.0,"so2":8.8,"mosquito_risk":3,"arthritis_risk":5,"migraine_risk":7,"frizz_risk":1,"updated_at":"2026-05-08T05:25:24.594153+05:30"},{"city":"Kanpur","state":"Uttar Pradesh","latitude":26.4499,"longitude":80.3319,"temp":21.1,"humidity":90,"rain":0.0,"pressure":993.5,"uv_index":8.05,"wind_gusts":26.6,"aqi":128,"pm10":218.9,"pm2_5":43.4,"no2":7.7,"co":357.0,"o3":104.0,"so2":7.0,"mosquito_risk":3,"arthritis_risk":5,"migraine_risk":7,"frizz_risk":1,"updated_at":"2026-05-08T05:25:24.594161+05:30"},{"city":"Chandigarh","state":"Chandigarh","latitude":30.7333,"longitude":76.7794,"temp":19.3,"humidity":78,"rain":0.0,"pressure":969.0,"uv_index":7.55,"wind_gusts":33.5,"aqi":82,"pm10":52.2,"pm2_5":31.4,"no2":20.2,"co":302.0,"o3":42.0,"so2":3.1,"mosquito_risk":3,"arthritis_risk":5,"migraine_risk":7,"frizz_risk":0,"updated_at":"2026-05-08T05:25:24.594169+05:30"},{"city":"Srinagar","state":"Jammu and Kashmir","latitude":34.0837,"longitude":74.7973,"temp":7.6,"humidity":82,"rain":0.0,"pressure":837.9,"uv_index":8.8,"wind_gusts":16.6,"aqi":73,"pm10":49.6,"pm2_5":38.2,"no2":21.3,"co":217.0,"o3":37.0,"so2":0.7,"mosquito_risk":3,"arthritis_risk":10,"migraine_risk":7,"frizz_risk":0,"updated_at":"2026-05-08T05:25:24.594177+05:30"},{"city":"Jammu","state":"Jammu and Kashmir","latitude":32.7266,"longitude":74.857,"temp":22.8,"humidity":61,"rain":0.0,"pressure":973.4,"uv_index":8.35,"wind_gusts":31.3,"aqi":83,"pm10":53.1,"pm2_5":46.3,"no2":34.5,"co":308.0,"o3":0.0,"so2":1.5,"mosquito_risk":3,"arthritis_risk":5,"migraine_risk":7,"frizz_risk":0,"updated_at":"2026-05-08T05:25:24.594185+05:30"},{"city":"Amritsar","state":"Punjab","latitude":31.634,"longitude":74.8723,"temp":22.6,"humidity":71,"rain":0.0,"pressure":981.1,"uv_index":8.25,"wind_gusts":27.0,"aqi":123,"pm10":167.2,"pm2_5":53.3,"no2":6.2,"co":362.0,"o3":102.0,"so2":11.6,"mosquito_risk":3,"arthritis_risk":5,"migraine_risk":7,"frizz_risk":1,"updated_at":"2026-05-08T05:25:24.594193+05:30"},{"city":"Ludhiana","state":"Punjab","latitude":30.901,"longitude":75.8573,"temp":21.4,"humidity":79,"rain":0.0,"pressure":979.0,"uv_index":7.8,"wind_gusts":28.8,"aqi":192,"pm10":257.0,"pm2_5":56.9,"no2":7.7,"co":344.0,"o3":100.0,"so2":8.0,"mosquito_risk":3,"arthritis_risk":5,"migraine_risk":7,"frizz_risk":1,"updated_at":"2026-05-08T05:25:24.594200+05:30"},{"city":"Jalandhar","state":"Punjab","latitude":31.326,"longitude":75.5762,"temp":21.0,"humidity":79,"rain":0.0,"pressure":980.1,"uv_index":8.0,"wind_gusts":29.2,"aqi":137,"pm10":114.1,"pm2_5":42.6,"no2":8.8,"co":357.0,"o3":91.0,"so2":10.5,"mosquito_risk":3,"arthritis_risk":5,"migraine_risk":7,"frizz_risk":1,"updated_at":"2026-05-08T05:25:24.594207+05:30"},{"city":"Dehradun","state":"Uttarakhand","latitude":30.6284,"longitude":78.0322,"temp":9.6,"humidity":99,"rain":0.0,"pressure":827.4,"uv_index":7.45,"wind_gusts":26.6,"aqi":61,"pm10":29.6,"pm2_5":16.1,"no2":25.3,"co":223.0,"o3":23.0,"so2":0.1,"mosquito_risk":3,"arthritis_risk":10,"migraine_risk":7,"frizz_risk":0,"updated_at":"2026-05-08T05:25:24.594218+05:30"},{"city":"Shimla","state":"Himachal Pradesh","latitude":31.1048,"longitude":77.1734,"temp":7.6,"humidity":87,"rain":0.0,"pressure":780.2,"uv_index":7.3,"wind_gusts":28.8,"aqi":66,"pm10":32.5,"pm2_5":22.2,"no2":21.2,"co":269.0,"o3":60.0,"so2":0.6,"mosquito_risk":3,"arthritis_risk":10,"migraine_risk":7,"frizz_risk":0,"updated_at":"2026-05-08T05:25:24.594225+05:30"},{"city":"Manali","state":"Himachal Pradesh","latitude":32.2396,"longitude":77.1887,"temp":7.0,"humidity":65,"rain":0.0,"pressure":812.0,"uv_index":9.55,"wind_gusts":36.7,"aqi":49,"pm10":42.8,"pm2_5":9.2,"no2":8.5,"co":246.0,"o3":113.0,"so2":0.4,"mosquito_risk":3,"arthritis_risk":5,"migraine_risk":7,"frizz_risk":0,"updated_at":"2026-05-08T05:25:24.594233+05:30"},{"city":"Gurgaon","state":"Haryana","latitude":28.4595,"longitude":77.0266,"temp":21.6,"humidity":83,"rain":0.0,"pressure":981.9,"uv_index":7.65,"wind_gusts":37.4,"aqi":2035,"pm10":1598.1,"pm2_5":185.8,"no2":11.0,"co":344.0,"o3":99.0,"so2":14.7,"mosquito_risk":3,"arthritis_risk":5,"migraine_risk":7,"frizz_risk":1,"updated_at":"2026-05-08T05:25:24.594240+05:30"},{"city":"Noida","state":"Uttar Pradesh","latitude":28.5355,"longitude":77.391,"temp":20.9,"humidity":94,"rain":0.0,"pressure":985.4,"uv_index":7.6,"wind_gusts":32.8,"aqi":2035,"pm10":1598.1,"pm2_5":185.8,"no2":11.0,"co":359.0,"o3":99.0,"so2":14.7,"mosquito_risk":3,"arthritis_risk":5,"migraine_risk":7,"frizz_risk":1,"updated_at":"2026-05-08T05:25:24.594249+05:30"},{"city":"Ghaziabad","state":"Uttar Pradesh","latitude":28.6692,"longitude":77.4538,"temp":20.7,"humidity":95,"rain":0.0,"pressure":983.6,"uv_index":7.55,"wind_gusts":34.6,"aqi":182,"pm10":198.8,"pm2_5":42.7,"no2":8.3,"co":346.0,"o3":94.0,"so2":7.2,"mosquito_risk":3,"arthritis_risk":5,"migraine_risk":7,"frizz_risk":1,"updated_at":"2026-05-08T05:25:24.594256+05:30"},{"city":"Faridabad","state":"Haryana","latitude":28.4089,"longitude":77.3178,"temp":21.4,"humidity":90,"rain":0.0,"pressure":984.5,"uv_index":7.6,"wind_gusts":33.8,"aqi":2035,"pm10":1598.1,"pm2_5":185.8,"no2":11.0,"co":344.0,"o3":99.0,"so2":14.7,"mosquito_risk":3,"arthritis_risk":5,"migraine_risk":7,"frizz_risk":1,"updated_at":"2026-05-08T05:25:24.594263+05:30"},{"city":"Meerut","state":"Uttar Pradesh","latitude":28.9845,"longitude":77.7064,"temp":20.5,"humidity":95,"rain":0.0,"pressure":982.6,"uv_index":7.45,"wind_gusts":34.2,"aqi":182,"pm10":198.8,"pm2_5":42.7,"no2":8.3,"co":364.0,"o3":94.0,"so2":7.2,"mosquito_risk":3,"arthritis_risk":5,"migraine_risk":7,"frizz_risk":1,"updated_at":"2026-05-08T05:25:24.594270+05:30"},{"city":"Agra","state":"Uttar Pradesh","latitude":27.1767,"longitude":78.0081,"temp":21.4,"humidity":76,"rain":0.0,"pressure":988.7,"uv_index":7.9,"wind_gusts":31.7,"aqi":1246,"pm10":1255.4,"pm2_5":156.5,"no2":6.4,"co":317.0,"o3":103.0,"so2":19.2,"mosquito_risk":3,"arthritis_risk":5,"migraine_risk":7,"frizz_risk":1,"updated_at":"2026-05-08T05:25:24.594276+05:30"},{"city":"Varanasi","state":"Uttar Pradesh","latitude":25.3176,"longitude":82.9739,"temp":23.5,"humidity":82,"rain":0.0,"pressure":999.1,"uv_index":8.55,"wind_gusts":23.8,"aqi":94,"pm10":38.9,"pm2_5":33.4,"no2":17.6,"co":573.0,"o3":77.0,"so2":12.2,"mosquito_risk":3,"arthritis_risk":5,"migraine_risk":7,"frizz_risk":1,"updated_at":"2026-05-08T05:25:24.594283+05:30"},{"city":"Prayagraj","state":"Uttar Pradesh","latitude":25.4358,"longitude":81.8463,"temp":22.7,"humidity":84,"rain":0.0,"pressure":997.4,"uv_index":8.45,"wind_gusts":24.8,"aqi":94,"pm10":37.0,"pm2_5":33.1,"no2":17.4,"co":551.0,"o3":75.0,"so2":10.0,"mosquito_risk":3,"arthritis_risk":5,"migraine_risk":7,"frizz_risk":1,"updated_at":"2026-05-08T05:25:24.594292+05:30"},{"city":"Gorakhpur","state":"Uttar Pradesh","latitude":26.7606,"longitude":83.3732,"temp":21.6,"humidity":89,"rain":0.0,"pressure":999.4,"uv_index":8.4,"wind_gusts":26.3,"aqi":101,"pm10":56.7,"pm2_5":54.2,"no2":21.0,"co":554.0,"o3":58.0,"so2":5.1,"mosquito_risk":3,"arthritis_risk":5,"migraine_risk":7,"frizz_risk":1,"updated_at":"2026-05-08T05:25:24.594299+05:30"},{"city":"Bareilly","state":"Uttar Pradesh","latitude":28.367,"longitude":79.4304,"temp":20.4,"humidity":93,"rain":0.0,"pressure":988.5,"uv_index":7.85,"wind_gusts":31.3,"aqi":89,"pm10":38.5,"pm2_5":24.8,"no2":11.4,"co":367.0,"o3":80.0,"so2":4.4,"mosquito_risk":3,"arthritis_risk":5,"migraine_risk":7,"frizz_risk":1,"updated_at":"2026-05-08T05:25:24.594306+05:30"},{"city":"Aligarh","state":"Uttar Pradesh","latitude":27.8974,"longitude":78.088,"temp":21.4,"humidity":89,"rain":0.0,"pressure":986.7,"uv_index":7.7,"wind_gusts":33.8,"aqi":772,"pm10":739.5,"pm2_5":97.1,"no2":9.2,"co":312.0,"o3":92.0,"so2":23.5,"mosquito_risk":3,"arthritis_risk":5,"migraine_risk":7,"frizz_risk":1,"updated_at":"2026-05-08T05:25:24.594313+05:30"},{"city":"Moradabad","state":"Uttar Pradesh","latitude":28.8386,"longitude":78.7733,"temp":20.8,"humidity":89,"rain":0.0,"pressure":985.2,"uv_index":7.65,"wind_gusts":33.8,"aqi":94,"pm10":46.0,"pm2_5":31.3,"no2":14.8,"co":392.0,"o3":74.0,"so2":5.6,"mosquito_risk":3,"arthritis_risk":5,"migraine_risk":7,"frizz_risk":1,"updated_at":"2026-05-08T05:25:24.594320+05:30"},{"city":"Saharanpur","state":"Uttar Pradesh","latitude":29.9637,"longitude":77.546,"temp":20.1,"humidity":87,"rain":0.0,"pressure":976.5,"uv_index":7.25,"wind_gusts":32.0,"aqi":107,"pm10":77.3,"pm2_5":49.1,"no2":25.5,"co":350.0,"o3":48.0,"so2":10.0,"mosquito_risk":3,"arthritis_risk":5,"migraine_risk":7,"frizz_risk":1,"updated_at":"2026-05-08T05:25:24.594327+05:30"},{"city":"Jhansi","state":"Uttar Pradesh","latitude":25.4484,"longitude":78.5685,"temp":21.9,"humidity":67,"rain":0.0,"pressure":978.4,"uv_index":8.35,"wind_gusts":41.0,"aqi":66,"pm10":30.0,"pm2_5":19.0,"no2":4.5,"co":265.0,"o3":91.0,"so2":6.1,"mosquito_risk":3,"arthritis_risk":5,"migraine_risk":7,"frizz_risk":0,"updated_at":"2026-05-08T05:25:27.925998+05:30"},{"city":"Surat","state":"Gujarat","latitude":21.1702,"longitude":72.8311,"temp":26.5,"humidity":98,"rain":0.0,"pressure":1004.6,"uv_index":7.7,"wind_gusts":34.6,"aqi":130,"pm10":54.4,"pm2_5":31.5,"no2":34.6,"co":397.0,"o3":27.0,"so2":43.2,"mosquito_risk":7,"arthritis_risk":5,"migraine_risk":4,"frizz_risk":1,"updated_at":"2026-05-08T05:25:27.926030+05:30"},{"city":"Vadodara","state":"Gujarat","latitude":22.3072,"longitude":73.1812,"temp":28.9,"humidity":31,"rain":0.0,"pressure":1002.1,"uv_index":8.05,"wind_gusts":28.4,"aqi":104,"pm10":42.7,"pm2_5":25.4,"no2":13.6,"co":235.0,"o3":48.0,"so2":15.0,"mosquito_risk":4,"arthritis_risk":5,"migraine_risk":4,"frizz_risk":0,"updated_at":"2026-05-08T05:25:27.926041+05:30"},{"city":"Rajkot","state":"Gujarat","latitude":22.3039,"longitude":70.8022,"temp":24.8,"humidity":81,"rain":0.0,"pressure":992.1,"uv_index":7.7,"wind_gusts":48.2,"aqi":63,"pm10":27.2,"pm2_5":12.3,"no2":7.1,"co":203.0,"o3":43.0,"so2":6.4,"mosquito_risk":3,"arthritis_risk":5,"migraine_risk":7,"frizz_risk":1,"updated_at":"2026-05-08T05:25:27.926051+05:30"},{"city":"Thane","state":"Maharashtra","latitude":19.2183,"longitude":72.9781,"temp":27.2,"humidity":92,"rain":0.0,"pressure":1006.3,"uv_index":7.85,"wind_gusts":41.0,"aqi":96,"pm10":80.3,"pm2_5":24.2,"no2":9.5,"co":289.0,"o3":62.0,"so2":12.9,"mosquito_risk":7,"arthritis_risk":5,"migraine_risk":4,"frizz_risk":1,"updated_at":"2026-05-08T05:25:27.926059+05:30"},{"city":"Nagpur","state":"Maharashtra","latitude":21.1458,"longitude":79.0882,"temp":26.2,"humidity":61,"rain":0.0,"pressure":974.0,"uv_index":8.9,"wind_gusts":31.0,"aqi":124,"pm10":85.7,"pm2_5":69.2,"no2":42.1,"co":355.0,"o3":35.0,"so2":20.0,"mosquito_risk":7,"arthritis_risk":5,"migraine_risk":7,"frizz_risk":1,"updated_at":"2026-05-08T05:25:27.926067+05:30"},{"city":"Nashik","state":"Maharashtra","latitude":19.9975,"longitude":73.7898,"temp":24.3,"humidity":72,"rain":0.0,"pressure":944.2,"uv_index":8.15,"wind_gusts":38.5,"aqi":96,"pm10":92.0,"pm2_5":43.0,"no2":33.7,"co":252.0,"o3":40.0,"so2":8.6,"mosquito_risk":3,"arthritis_risk":5,"migraine_risk":7,"frizz_risk":1,"updated_at":"2026-05-08T05:25:27.926076+05:30"},{"city":"Aurangabad","state":"Maharashtra","latitude":19.8762,"longitude":75.3433,"temp":26.1,"humidity":51,"rain":0.0,"pressure":943.3,"uv_index":9.0,"wind_gusts":27.0,"aqi":79,"pm10":68.0,"pm2_5":37.0,"no2":22.1,"co":276.0,"o3":51.0,"so2":5.9,"mosquito_risk":4,"arthritis_risk":5,"migraine_risk":7,"frizz_risk":0,"updated_at":"2026-05-08T05:25:27.926083+05:30"},{"city":"Solapur","state":"Maharashtra","latitude":17.6599,"longitude":75.9064,"temp":26.7,"humidity":59,"rain":0.0,"pressure":956.7,"uv_index":9.05,"wind_gusts":31.0,"aqi":83,"pm10":64.5,"pm2_5":47.0,"no2":27.2,"co":344.0,"o3":40.0,"so2":5.4,"mosquito_risk":4,"arthritis_risk":5,"migraine_risk":7,"frizz_risk":1,"updated_at":"2026-05-08T05:25:27.926092+05:30"},{"city":"Kolhapur","state":"Maharashtra","latitude":16.705,"longitude":74.2433,"temp":25.1,"humidity":68,"rain":0.0,"pressure":946.1,"uv_index":8.9,"wind_gusts":36.4,"aqi":113,"pm10":101.5,"pm2_5":78.2,"no2":49.5,"co":279.0,"o3":6.0,"so2":9.3,"mosquito_risk":7,"arthritis_risk":5,"migraine_risk":7,"frizz_risk":1,"updated_at":"2026-05-08T05:25:27.926099+05:30"},{"city":"Goa","state":"Goa","latitude":15.2993,"longitude":74.124,"temp":27.5,"humidity":85,"rain":0.0,"pressure":995.6,"uv_index":8.9,"wind_gusts":47.5,"aqi":95,"pm10":84.3,"pm2_5":56.9,"no2":17.9,"co":364.0,"o3":50.0,"so2":3.7,"mosquito_risk":7,"arthritis_risk":5,"migraine_risk":7,"frizz_risk":1,"updated_at":"2026-05-08T05:25:27.926108+05:30"},{"city":"Jodhpur","state":"Rajasthan","latitude":26.2389,"longitude":73.0243,"temp":27.9,"humidity":31,"rain":0.0,"pressure":980.9,"uv_index":8.3,"wind_gusts":33.1,"aqi":117,"pm10":186.7,"pm2_5":33.2,"no2":3.2,"co":167.0,"o3":68.0,"so2":3.2,"mosquito_risk":4,"arthritis_risk":5,"migraine_risk":7,"frizz_risk":0,"updated_at":"2026-05-08T05:25:27.926115+05:30"},{"city":"Udaipur","state":"Rajasthan","latitude":24.5854,"longitude":73.7125,"temp":26.2,"humidity":32,"rain":0.0,"pressure":944.1,"uv_index":8.75,"wind_gusts":31.3,"aqi":66,"pm10":88.2,"pm2_5":20.2,"no2":2.7,"co":174.0,"o3":98.0,"so2":2.3,"mosquito_risk":4,"arthritis_risk":5,"migraine_risk":7,"frizz_risk":0,"updated_at":"2026-05-08T05:25:27.926123+05:30"},{"city":"Kota","state":"Rajasthan","latitude":25.2138,"longitude":75.8648,"temp":25.8,"humidity":42,"rain":0.0,"pressure":977.3,"uv_index":8.35,"wind_gusts":37.8,"aqi":69,"pm10":43.8,"pm2_5":20.3,"no2":7.3,"co":258.0,"o3":67.0,"so2":7.1,"mosquito_risk":4,"arthritis_risk":5,"migraine_risk":7,"frizz_risk":0,"updated_at":"2026-05-08T05:25:27.926131+05:30"},{"city":"Bikaner","state":"Rajasthan","latitude":28.0229,"longitude":73.3119,"temp":25.0,"humidity":48,"rain":0.0,"pressure":978.5,"uv_index":8.25,"wind_gusts":28.1,"aqi":63,"pm10":42.1,"pm2_5":20.7,"no2":4.7,"co":282.0,"o3":68.0,"so2":5.0,"mosquito_risk":4,"arthritis_risk":5,"migraine_risk":7,"frizz_risk":0,"updated_at":"2026-05-08T05:25:27.926138+05:30"},{"city":"Ajmer","state":"Rajasthan","latitude":26.4499,"longitude":74.6399,"temp":26.0,"humidity":32,"rain":0.0,"pressure":952.9,"uv_index":8.25,"wind_gusts":55.8,"aqi":63,"pm10":38.5,"pm2_5":15.7,"no2":4.1,"co":210.0,"o3":85.0,"so2":3.9,"mosquito_risk":4,"arthritis_risk":5,"migraine_risk":7,"frizz_risk":0,"updated_at":"2026-05-08T05:25:27.926146+05:30"},{"city":"Gwalior","state":"Madhya Pradesh","latitude":26.2183,"longitude":78.1828,"temp":21.5,"humidity":71,"rain":0.0,"pressure":983.3,"uv_index":8.15,"wind_gusts":33.8,"aqi":82,"pm10":109.9,"pm2_5":39.5,"no2":4.1,"co":268.0,"o3":105.0,"so2":7.6,"mosquito_risk":3,"arthritis_risk":5,"migraine_risk":7,"frizz_risk":0,"updated_at":"2026-05-08T05:25:27.926154+05:30"},{"city":"Indore","state":"Madhya Pradesh","latitude":22.7196,"longitude":75.8577,"temp":26.7,"humidity":31,"rain":0.0,"pressure":946.9,"uv_index":8.65,"wind_gusts":41.8,"aqi":71,"pm10":40.4,"pm2_5":25.9,"no2":7.3,"co":346.0,"o3":73.0,"so2":6.5,"mosquito_risk":4,"arthritis_risk":5,"migraine_risk":7,"frizz_risk":0,"updated_at":"2026-05-08T05:25:27.926161+05:30"},{"city":"Bhopal","state":"Madhya Pradesh","latitude":23.2599,"longitude":77.4126,"temp":25.0,"humidity":45,"rain":0.0,"pressure":953.4,"uv_index":8.65,"wind_gusts":41.8,"aqi":59,"pm10":41.9,"pm2_5":30.2,"no2":10.5,"co":278.0,"o3":76.0,"so2":11.8,"mosquito_risk":4,"arthritis_risk":5,"migraine_risk":7,"frizz_risk":0,"updated_at":"2026-05-08T05:25:27.926169+05:30"},{"city":"Jabalpur","state":"Madhya Pradesh","latitude":23.1815,"longitude":79.9864,"temp":25.1,"humidity":47,"rain":0.0,"pressure":960.9,"uv_index":8.8,"wind_gusts":38.5,"aqi":53,"pm10":25.6,"pm2_5":20.3,"no2":17.9,"co":343.0,"o3":59.0,"so2":4.5,"mosquito_risk":4,"arthritis_risk":5,"migraine_risk":7,"frizz_risk":0,"updated_at":"2026-05-08T05:25:27.926176+05:30"},{"city":"Ujjain","state":"Madhya Pradesh","latitude":23.1765,"longitude":75.7885,"temp":26.2,"humidity":34,"rain":0.0,"pressure":952.5,"uv_index":8.55,"wind_gusts":25.9,"aqi":79,"pm10":46.9,"pm2_5":22.5,"no2":5.4,"co":371.0,"o3":82.0,"so2":5.4,"mosquito_risk":4,"arthritis_risk":5,"migraine_risk":7,"frizz_risk":0,"updated_at":"2026-05-08T05:25:27.926185+05:30"},{"city":"Visakhapatnam","state":"Andhra Pradesh","latitude":17.6868,"longitude":83.2185,"temp":25.1,"humidity":91,"rain":0.0,"pressure":1005.2,"uv_index":9.15,"wind_gusts":37.8,"aqi":67,"pm10":28.1,"pm2_5":25.5,"no2":22.9,"co":1552.0,"o3":17.0,"so2":2.6,"mosquito_risk":7,"arthritis_risk":5,"migraine_risk":4,"frizz_risk":1,"updated_at":"2026-05-08T05:25:27.926193+05:30"},{"city":"Vijayawada","state":"Andhra Pradesh","latitude":16.5062,"longitude":80.648,"temp":27.5,"humidity":86,"rain":0.0,"pressure":1002.6,"uv_index":9.2,"wind_gusts":43.2,"aqi":46,"pm10":19.7,"pm2_5":18.0,"no2":18.7,"co":187.0,"o3":17.0,"so2":4.8,"mosquito_risk":7,"arthritis_risk":5,"migraine_risk":4,"frizz_risk":1,"updated_at":"2026-05-08T05:25:27.926201+05:30"},{"city":"Guntur","state":"Andhra Pradesh","latitude":16.3067,"longitude":80.4365,"temp":27.6,"humidity":83,"rain":0.0,"pressure":1003.7,"uv_index":9.2,"wind_gusts":45.0,"aqi":46,"pm10":14.7,"pm2_5":13.5,"no2":18.1,"co":170.0,"o3":18.0,"so2":6.7,"mosquito_risk":7,"arthritis_risk":5,"migraine_risk":4,"frizz_risk":1,"updated_at":"2026-05-08T05:25:27.926208+05:30"},{"city":"Nellore","state":"Andhra Pradesh","latitude":14.4426,"longitude":79.9865,"temp":26.5,"humidity":86,"rain":0.0,"pressure":1005.6,"uv_index":9.2,"wind_gusts":40.0,"aqi":28,"pm10":7.3,"pm2_5":5.2,"no2":4.9,"co":173.0,"o3":36.0,"so2":2.2,"mosquito_risk":7,"arthritis_risk":5,"migraine_risk":4,"frizz_risk":1,"updated_at":"2026-05-08T05:25:27.926217+05:30"},{"city":"Kurnool","state":"Andhra Pradesh","latitude":15.8281,"longitude":78.0373,"temp":27.2,"humidity":70,"rain":0.0,"pressure":976.3,"uv_index":9.15,"wind_gusts":58.7,"aqi":48,"pm10":4.5,"pm2_5":3.7,"no2":5.7,"co":125.0,"o3":26.0,"so2":1.1,"mosquito_risk":7,"arthritis_risk":5,"migraine_risk":7,"frizz_risk":1,"updated_at":"2026-05-08T05:25:27.926225+05:30"},{"city":"Kakinada","state":"Andhra Pradesh","latitude":16.9891,"longitude":82.2475,"temp":27.1,"humidity":85,"rain":0.0,"pressure":1008.1,"uv_index":9.15,"wind_gusts":37.8,"aqi":28,"pm10":10.2,"pm2_5":7.2,"no2":1.8,"co":237.0,"o3":41.0,"so2":0.5,"mosquito_risk":7,"arthritis_risk":0,"migraine_risk":4,"frizz_risk":1,"updated_at":"2026-05-08T05:25:27.926232+05:30"},{"city":"Tirupati","state":"Andhra Pradesh","latitude":13.6288,"longitude":79.4192,"temp":26.5,"humidity":86,"rain":0.0,"pressure":990.2,"uv_index":8.25,"wind_gusts":46.1,"aqi":41,"pm10":9.7,"pm2_5":8.2,"no2":15.6,"co":208.0,"o3":15.0,"so2":2.7,"mosquito_risk":7,"arthritis_risk":5,"migraine_risk":7,"frizz_risk":1,"updated_at":"2026-05-08T05:25:27.926240+05:30"},{"city":"Warangal","state":"Telangana","latitude":17.9689,"longitude":79.5941,"temp":25.5,"humidity":78,"rain":0.0,"pressure":978.9,"uv_index":9.15,"wind_gusts":37.4,"aqi":64,"pm10":13.9,"pm2_5":13.3,"no2":12.5,"co":248.0,"o3":34.0,"so2":10.2,"mosquito_risk":7,"arthritis_risk":5,"migraine_risk":7,"frizz_risk":1,"updated_at":"2026-05-08T05:25:27.926248+05:30"},{"city":"Nizamabad","state":"Telangana","latitude":18.6725,"longitude":78.0941,"temp":25.3,"humidity":65,"rain":0.0,"pressure":964.4,"uv_index":9.05,"wind_gusts":30.2,"aqi":88,"pm10":32.9,"pm2_5":29.2,"no2":19.2,"co":272.0,"o3":44.0,"so2":5.6,"mosquito_risk":7,"arthritis_risk":5,"migraine_risk":7,"frizz_risk":1,"updated_at":"2026-05-08T05:25:27.926255+05:30"},{"city":"Mysore","state":"Karnataka","latitude":12.2958,"longitude":76.6396,"temp":22.5,"humidity":91,"rain":0.0,"pressure":926.3,"uv_index":9.35,"wind_gusts":36.7,"aqi":82,"pm10":32.7,"pm2_5":29.8,"no2":22.5,"co":342.0,"o3":56.0,"so2":9.2,"mosquito_risk":3,"arthritis_risk":5,"migraine_risk":7,"frizz_risk":1,"updated_at":"2026-05-08T05:25:27.926263+05:30"},{"city":"Mangalore","state":"Karnataka","latitude":12.9141,"longitude":74.856,"temp":25.4,"humidity":84,"rain":0.0,"pressure":1004.6,"uv_index":9.0,"wind_gusts":39.2,"aqi":68,"pm10":42.6,"pm2_5":29.0,"no2":12.2,"co":343.0,"o3":48.0,"so2":3.3,"mosquito_risk":7,"arthritis_risk":5,"migraine_risk":4,"frizz_risk":1,"updated_at":"2026-05-08T05:25:27.926271+05:30"},{"city":"Hubli-Dharwad","state":"Karnataka","latitude":15.3647,"longitude":75.124,"temp":25.8,"humidity":66,"rain":0.0,"pressure":939.2,"uv_index":9.05,"wind_gusts":40.7,"aqi":91,"pm10":47.6,"pm2_5":36.7,"no2":12.8,"co":281.0,"o3":67.0,"so2":5.3,"mosquito_risk":7,"arthritis_risk":5,"migraine_risk":7,"frizz_risk":1,"updated_at":"2026-05-08T05:25:27.926278+05:30"},{"city":"Belgaum","state":"Karnataka","latitude":15.8497,"longitude":74.4977,"temp":24.5,"humidity":65,"rain":0.0,"pressure":924.1,"uv_index":8.9,"wind_gusts":60.8,"aqi":94,"pm10":54.9,"pm2_5":35.5,"no2":11.9,"co":239.0,"o3":74.0,"so2":6.1,"mosquito_risk":3,"arthritis_risk":5,"migraine_risk":7,"frizz_risk":1,"updated_at":"2026-05-08T05:25:31.268393+05:30"},{"city":"Coimbatore","state":"Tamil Nadu","latitude":11.0168,"longitude":76.9558,"temp":24.2,"humidity":89,"rain":0.0,"pressure":960.2,"uv_index":9.25,"wind_gusts":34.9,"aqi":65,"pm10":18.9,"pm2_5":17.3,"no2":14.0,"co":276.0,"o3":53.0,"so2":6.2,"mosquito_risk":3,"arthritis_risk":5,"migraine_risk":7,"frizz_risk":1,"updated_at":"2026-05-08T05:25:31.268424+05:30"},{"city":"Madurai","state":"Tamil Nadu","latitude":9.9252,"longitude":78.1198,"temp":25.2,"humidity":95,"rain":0.1,"pressure":990.8,"uv_index":8.4,"wind_gusts":32.8,"aqi":59,"pm10":10.1,"pm2_5":9.4,"no2":10.2,"co":233.0,"o3":63.0,"so2":3.2,"mosquito_risk":10,"arthritis_risk":5,"migraine_risk":7,"frizz_risk":1,"updated_at":"2026-05-08T05:25:31.268438+05:30"},{"city":"Trichy","state":"Tamil Nadu","latitude":10.7905,"longitude":78.7047,"temp":24.3,"humidity":95,"rain":0.0,"pressure":998.4,"uv_index":8.45,"wind_gusts":37.4,"aqi":51,"pm10":10.5,"pm2_5":10.0,"no2":14.8,"co":223.0,"o3":40.0,"so2":8.4,"mosquito_risk":3,"arthritis_risk":5,"migraine_risk":7,"frizz_risk":1,"updated_at":"2026-05-08T05:25:31.268448+05:30"},{"city":"Salem","state":"Tamil Nadu","latitude":11.6643,"longitude":78.146,"temp":24.2,"humidity":96,"rain":0.0,"pressure":976.0,"uv_index":7.15,"wind_gusts":35.3,"aqi":68,"pm10":22.9,"pm2_5":22.3,"no2":12.4,"co":255.0,"o3":72.0,"so2":13.0,"mosquito_risk":3,"arthritis_risk":5,"migraine_risk":7,"frizz_risk":1,"updated_at":"2026-05-08T05:25:31.268458+05:30"},{"city":"Tirunelveli","state":"Tamil Nadu","latitude":8.7139,"longitude":77.7567,"temp":26.5,"humidity":83,"rain":0.0,"pressure":1000.9,"uv_index":7.95,"wind_gusts":40.3,"aqi":62,"pm10":12.0,"pm2_5":11.2,"no2":7.0,"co":319.0,"o3":60.0,"so2":3.0,"mosquito_risk":7,"arthritis_risk":5,"migraine_risk":4,"frizz_risk":1,"updated_at":"2026-05-08T05:25:31.268467+05:30"},{"city":"Vellore","state":"Tamil Nadu","latitude":12.9165,"longitude":79.1325,"temp":25.4,"humidity":91,"rain":0.0,"pressure":983.4,"uv_index":7.95,"wind_gusts":42.8,"aqi":50,"pm10":14.6,"pm2_5":13.1,"no2":17.0,"co":245.0,"o3":16.0,"so2":6.2,"mosquito_risk":7,"arthritis_risk":5,"migraine_risk":7,"frizz_risk":1,"updated_at":"2026-05-08T05:25:31.268476+05:30"},{"city":"Erode","state":"Tamil Nadu","latitude":11.341,"longitude":77.7172,"temp":24.0,"humidity":92,"rain":0.0,"pressure":988.0,"uv_index":8.9,"wind_gusts":33.5,"aqi":55,"pm10":14.2,"pm2_5":13.6,"no2":12.7,"co":224.0,"o3":68.0,"so2":3.8,"mosquito_risk":3,"arthritis_risk":5,"migraine_risk":7,"frizz_risk":1,"updated_at":"2026-05-08T05:25:31.268484+05:30"},{"city":"Kochi","state":"Kerala","latitude":9.9312,"longitude":76.2673,"temp":25.6,"humidity":95,"rain":0.0,"pressure":1005.8,"uv_index":8.9,"wind_gusts":29.2,"aqi":61,"pm10":16.4,"pm2_5":15.1,"no2":13.0,"co":303.0,"o3":34.0,"so2":2.8,"mosquito_risk":7,"arthritis_risk":5,"migraine_risk":4,"frizz_risk":1,"updated_at":"2026-05-08T05:25:31.268493+05:30"},{"city":"Thiruvananthapuram","state":"Kerala","latitude":8.5241,"longitude":76.9366,"temp":24.7,"humidity":89,"rain":0.0,"pressure":1004.8,"uv_index":8.75,"wind_gusts":25.2,"aqi":54,"pm10":7.9,"pm2_5":6.5,"no2":4.4,"co":240.0,"o3":88.0,"so2":2.2,"mosquito_risk":3,"arthritis_risk":5,"migraine_risk":4,"frizz_risk":1,"updated_at":"2026-05-08T05:25:31.268501+05:30"},{"city":"Kozhikode","state":"Kerala","latitude":11.2588,"longitude":75.7804,"temp":25.0,"humidity":95,"rain":0.0,"pressure":1005.3,"uv_index":8.7,"wind_gusts":34.9,"aqi":62,"pm10":31.8,"pm2_5":25.3,"no2":5.1,"co":502.0,"o3":103.0,"so2":4.5,"mosquito_risk":7,"arthritis_risk":5,"migraine_risk":4,"frizz_risk":1,"updated_at":"2026-05-08T05:25:31.268509+05:30"},{"city":"Thrissur","state":"Kerala","latitude":10.5276,"longitude":76.2144,"temp":24.9,"humidity":97,"rain":0.0,"pressure":1004.3,"uv_index":8.95,"wind_gusts":26.6,"aqi":68,"pm10":22.3,"pm2_5":20.5,"no2":12.9,"co":408.0,"o3":43.0,"so2":2.9,"mosquito_risk":3,"arthritis_risk":5,"migraine_risk":4,"frizz_risk":1,"updated_at":"2026-05-08T05:25:31.268518+05:30"},{"city":"Kannur","state":"Kerala","latitude":11.8745,"longitude":75.3704,"temp":26.1,"humidity":93,"rain":0.0,"pressure":1004.4,"uv_index":9.0,"wind_gusts":40.3,"aqi":69,"pm10":37.6,"pm2_5":28.3,"no2":11.6,"co":446.0,"o3":48.0,"so2":2.7,"mosquito_risk":7,"arthritis_risk":5,"migraine_risk":4,"frizz_risk":1,"updated_at":"2026-05-08T05:25:31.268526+05:30"},{"city":"Patna","state":"Bihar","latitude":25.5941,"longitude":85.1376,"temp":23.4,"humidity":85,"rain":0.0,"pressure":1002.2,"uv_index":8.7,"wind_gusts":21.2,"aqi":118,"pm10":63.6,"pm2_5":58.0,"no2":43.7,"co":591.0,"o3":35.0,"so2":20.6,"mosquito_risk":3,"arthritis_risk":5,"migraine_risk":4,"frizz_risk":1,"updated_at":"2026-05-08T05:25:31.268534+05:30"},{"city":"Gaya","state":"Bihar","latitude":24.7914,"longitude":85.0002,"temp":23.4,"humidity":79,"rain":0.0,"pressure":995.8,"uv_index":8.75,"wind_gusts":27.0,"aqi":115,"pm10":50.8,"pm2_5":47.0,"no2":25.4,"co":441.0,"o3":62.0,"so2":11.6,"mosquito_risk":3,"arthritis_risk":5,"migraine_risk":7,"frizz_risk":1,"updated_at":"2026-05-08T05:25:31.268542+05:30"},{"city":"Muzaffarpur","state":"Bihar","latitude":26.1209,"longitude":85.3647,"temp":21.8,"humidity":88,"rain":0.0,"pressure":1002.9,"uv_index":8.45,"wind_gusts":23.4,"aqi":122,"pm10":68.2,"pm2_5":63.6,"no2":39.9,"co":698.0,"o3":28.0,"so2":16.2,"mosquito_risk":3,"arthritis_risk":5,"migraine_risk":4,"frizz_risk":1,"updated_at":"2026-05-08T05:25:31.268549+05:30"},{"city":"Bhagalpur","state":"Bihar","latitude":25.2425,"longitude":87.0117,"temp":22.7,"humidity":88,"rain":0.0,"pressure":1003.9,"uv_index":8.7,"wind_gusts":25.9,"aqi":156,"pm10":82.9,"pm2_5":77.1,"no2":35.9,"co":409.0,"o3":43.0,"so2":11.1,"mosquito_risk":3,"arthritis_risk":5,"migraine_risk":4,"frizz_risk":1,"updated_at":"2026-05-08T05:25:31.268557+05:30"},{"city":"Ranchi","state":"Jharkhand","latitude":23.3441,"longitude":85.3096,"temp":21.0,"humidity":82,"rain":0.0,"pressure":938.9,"uv_index":9.2,"wind_gusts":40.0,"aqi":111,"pm10":65.9,"pm2_5":61.0,"no2":12.2,"co":338.0,"o3":109.0,"so2":33.1,"mosquito_risk":3,"arthritis_risk":5,"migraine_risk":7,"frizz_risk":1,"updated_at":"2026-05-08T05:25:31.268565+05:30"},{"city":"Jamshedpur","state":"Jharkhand","latitude":22.8046,"longitude":86.2029,"temp":23.0,"humidity":89,"rain":0.0,"pressure":993.4,"uv_index":8.9,"wind_gusts":50.4,"aqi":123,"pm10":68.7,"pm2_5":64.7,"no2":35.6,"co":379.0,"o3":70.0,"so2":14.9,"mosquito_risk":3,"arthritis_risk":5,"migraine_risk":7,"frizz_risk":1,"updated_at":"2026-05-08T05:25:31.268573+05:30"},{"city":"Dhanbad","state":"Jharkhand","latitude":23.7957,"longitude":86.4304,"temp":22.5,"humidity":92,"rain":0.0,"pressure":982.3,"uv_index":9.0,"wind_gusts":42.1,"aqi":164,"pm10":166.2,"pm2_5":162.5,"no2":81.6,"co":1055.0,"o3":31.0,"so2":97.5,"mosquito_risk":3,"arthritis_risk":5,"migraine_risk":7,"frizz_risk":1,"updated_at":"2026-05-08T05:25:31.268581+05:30"},{"city":"Bokaro","state":"Jharkhand","latitude":23.6693,"longitude":86.1511,"temp":22.4,"humidity":94,"rain":0.0,"pressure":986.1,"uv_index":9.0,"wind_gusts":53.6,"aqi":159,"pm10":149.0,"pm2_5":145.3,"no2":76.3,"co":3356.0,"o3":36.0,"so2":75.5,"mosquito_risk":3,"arthritis_risk":5,"migraine_risk":7,"frizz_risk":1,"updated_at":"2026-05-08T05:25:31.268589+05:30"},{"city":"Bhubaneswar","state":"Odisha","latitude":20.2961,"longitude":85.8245,"temp":25.5,"humidity":97,"rain":0.0,"pressure":1004.6,"uv_index":8.75,"wind_gusts":31.3,"aqi":49,"pm10":14.8,"pm2_5":13.2,"no2":12.4,"co":212.0,"o3":18.0,"so2":4.0,"mosquito_risk":7,"arthritis_risk":5,"migraine_risk":4,"frizz_risk":1,"updated_at":"2026-05-08T05:25:31.268597+05:30"},{"city":"Cuttack","state":"Odisha","latitude":20.4625,"longitude":85.8828,"temp":25.4,"humidity":97,"rain":0.0,"pressure":1006.6,"uv_index":9.0,"wind_gusts":27.4,"aqi":49,"pm10":14.8,"pm2_5":13.2,"no2":12.4,"co":229.0,"o3":18.0,"so2":4.0,"mosquito_risk":7,"arthritis_risk":5,"migraine_risk":4,"frizz_risk":1,"updated_at":"2026-05-08T05:25:31.268605+05:30"},{"city":"Rourkela","state":"Odisha","latitude":22.2604,"longitude":84.8536,"temp":23.8,"humidity":77,"rain":0.0,"pressure":986.6,"uv_index":8.7,"wind_gusts":47.5,"aqi":112,"pm10":46.8,"pm2_5":44.8,"no2":19.4,"co":358.0,"o3":70.0,"so2":44.5,"mosquito_risk":3,"arthritis_risk":5,"migraine_risk":7,"frizz_risk":1,"updated_at":"2026-05-08T05:25:31.268612+05:30"},{"city":"Raipur","state":"Chhattisgarh","latitude":21.2514,"longitude":81.6296,"temp":26.9,"humidity":56,"rain":0.0,"pressure":974.8,"uv_index":8.95,"wind_gusts":27.4,"aqi":105,"pm10":68.2,"pm2_5":61.9,"no2":64.6,"co":467.0,"o3":8.0,"so2":9.9,"mosquito_risk":4,"arthritis_risk":5,"migraine_risk":7,"frizz_risk":1,"updated_at":"2026-05-08T05:25:31.268620+05:30"},{"city":"Bhilai","state":"Chhattisgarh","latitude":21.1938,"longitude":81.3509,"temp":26.7,"humidity":57,"rain":0.0,"pressure":975.6,"uv_index":8.95,"wind_gusts":25.9,"aqi":100,"pm10":51.3,"pm2_5":45.8,"no2":46.2,"co":462.0,"o3":32.0,"so2":7.3,"mosquito_risk":4,"arthritis_risk":5,"migraine_risk":7,"frizz_risk":1,"updated_at":"2026-05-08T05:25:31.268628+05:30"},{"city":"Guwahati","state":"Assam","latitude":26.1158,"longitude":91.7086,"temp":21.1,"humidity":97,"rain":0.0,"pressure":1005.5,"uv_index":8.65,"wind_gusts":23.4,"aqi":100,"pm10":43.1,"pm2_5":38.6,"no2":19.0,"co":376.0,"o3":26.0,"so2":1.8,"mosquito_risk":3,"arthritis_risk":5,"migraine_risk":4,"frizz_risk":1,"updated_at":"2026-05-08T05:25:31.268636+05:30"},{"city":"Agartala","state":"Tripura","latitude":23.8315,"longitude":91.2868,"temp":23.2,"humidity":95,"rain":0.0,"pressure":1008.9,"uv_index":8.85,"wind_gusts":16.6,"aqi":149,"pm10":105.2,"pm2_5":101.3,"no2":76.4,"co":584.0,"o3":10.0,"so2":4.8,"mosquito_risk":3,"arthritis_risk":0,"migraine_risk":4,"frizz_risk":1,"updated_at":"2026-05-08T05:25:31.268644+05:30"},{"city":"Shillong","state":"Meghalaya","latitude":25.5788,"longitude":91.8933,"temp":13.8,"humidity":85,"rain":0.0,"pressure":857.5,"uv_index":8.9,"wind_gusts":16.6,"aqi":80,"pm10":31.2,"pm2_5":26.7,"no2":11.4,"co":307.0,"o3":48.0,"so2":1.4,"mosquito_risk":3,"arthritis_risk":10,"migraine_risk":7,"frizz_risk":0,"updated_at":"2026-05-08T05:25:31.268652+05:30"},{"city":"Imphal","state":"Manipur","latitude":24.817,"longitude":93.9368,"temp":18.7,"humidity":85,"rain":0.0,"pressure":925.6,"uv_index":9.2,"wind_gusts":27.4,"aqi":114,"pm10":72.2,"pm2_5":65.4,"no2":21.7,"co":437.0,"o3":20.0,"so2":1.3,"mosquito_risk":3,"arthritis_risk":10,"migraine_risk":7,"frizz_risk":1,"updated_at":"2026-05-08T05:25:31.268661+05:30"},{"city":"Aizawl","state":"Mizoram","latitude":23.7271,"longitude":92.7176,"temp":15.9,"humidity":90,"rain":0.0,"pressure":893.3,"uv_index":9.05,"wind_gusts":23.8,"aqi":77,"pm10":40.2,"pm2_5":33.9,"no2":18.1,"co":374.0,"o3":23.0,"so2":0.8,"mosquito_risk":3,"arthritis_risk":10,"migraine_risk":7,"frizz_risk":0,"updated_at":"2026-05-08T05:25:31.268669+05:30"},{"city":"Kohima","state":"Nagaland","latitude":25.6701,"longitude":94.1077,"temp":15.4,"humidity":81,"rain":0.0,"pressure":856.9,"uv_index":9.15,"wind_gusts":30.6,"aqi":83,"pm10":47.0,"pm2_5":37.3,"no2":9.8,"co":234.0,"o3":30.0,"so2":0.3,"mosquito_risk":3,"arthritis_risk":10,"migraine_risk":7,"frizz_risk":0,"updated_at":"2026-05-08T05:25:31.268677+05:30"},{"city":"Gangtok","state":"Sikkim","latitude":27.3314,"longitude":88.6138,"temp":11.2,"humidity":64,"rain":0.0,"pressure":837.3,"uv_index":9.0,"wind_gusts":43.9,"aqi":67,"pm10":29.5,"pm2_5":20.3,"no2":14.9,"co":246.0,"o3":55.0,"so2":0.5,"mosquito_risk":3,"arthritis_risk":5,"migraine_risk":7,"frizz_risk":0,"updated_at":"2026-05-08T05:25:31.268685+05:30"},{"city":"Siliguri","state":"West Bengal","latitude":26.7271,"longitude":88.3953,"temp":21.3,"humidity":79,"rain":0.0,"pressure":996.3,"uv_index":8.6,"wind_gusts":24.1,"aqi":111,"pm10":60.1,"pm2_5":49.6,"no2":35.7,"co":498.0,"o3":28.0,"so2":3.6,"mosquito_risk":3,"arthritis_risk":5,"migraine_risk":7,"frizz_risk":1,"updated_at":"2026-05-08T05:25:34.613372+05:30"},{"city":"Durgapur","state":"West Bengal","latitude":23.5204,"longitude":87.3119,"temp":22.0,"humidity":94,"rain":0.0,"pressure":997.7,"uv_index":8.65,"wind_gusts":22.7,"aqi":159,"pm10":124.3,"pm2_5":120.6,"no2":60.2,"co":720.0,"o3":29.0,"so2":69.9,"mosquito_risk":3,"arthritis_risk":5,"migraine_risk":7,"frizz_risk":1,"updated_at":"2026-05-08T05:25:34.613401+05:30"},{"city":"Asansol","state":"West Bengal","latitude":23.6739,"longitude":86.9524,"temp":22.2,"humidity":93,"rain":0.0,"pressure":996.1,"uv_index":8.95,"wind_gusts":45.0,"aqi":159,"pm10":125.3,"pm2_5":121.5,"no2":57.5,"co":710.0,"o3":40.0,"so2":78.7,"mosquito_risk":3,"arthritis_risk":5,"migraine_risk":7,"frizz_risk":1,"updated_at":"2026-05-08T05:25:34.613412+05:30"},{"city":"Pondicherry","state":"Puducherry","latitude":11.9139,"longitude":79.8145,"temp":24.5,"humidity":97,"rain":0.1,"pressure":1007.9,"uv_index":9.0,"wind_gusts":45.0,"aqi":21,"pm10":5.7,"pm2_5":3.7,"no2":1.8,"co":164.0,"o3":45.0,"so2":0.3,"mosquito_risk":6,"arthritis_risk":5,"migraine_risk":4,"frizz_risk":1,"updated_at":"2026-05-08T05:25:34.613420+05:30"},{"city":"Port Blair","state":"Andaman and Nicobar Islands","latitude":11.6234,"longitude":92.7265,"temp":26.5,"humidity":87,"rain":0.0,"pressure":1006.7,"uv_index":9.1,"wind_gusts":37.1,"aqi":31,"pm10":7.3,"pm2_5":5.6,"no2":0.3,"co":145.0,"o3":70.0,"so2":1.9,"mosquito_risk":7,"arthritis_risk":5,"migraine_risk":4,"frizz_risk":1,"updated_at":"2026-05-08T05:25:34.613428+05:30"},{"city":"Haridwar","state":"Uttarakhand","latitude":29.9457,"longitude":78.1642,"temp":18.4,"humidity":85,"rain":0.0,"pressure":974.7,"uv_index":7.25,"wind_gusts":25.2,"aqi":96,"pm10":56.5,"pm2_5":42.7,"no2":30.0,"co":284.0,"o3":16.0,"so2":4.1,"mosquito_risk":3,"arthritis_risk":10,"migraine_risk":7,"frizz_risk":0,"updated_at":"2026-05-08T05:25:34.613437+05:30"},{"city":"Rishikesh","state":"Uttarakhand","latitude":30.0869,"longitude":78.2676,"temp":16.0,"humidity":91,"rain":0.0,"pressure":966.9,"uv_index":7.2,"wind_gusts":20.2,"aqi":83,"pm10":44.6,"pm2_5":30.6,"no2":15.0,"co":299.0,"o3":55.0,"so2":2.4,"mosquito_risk":3,"arthritis_risk":10,"migraine_risk":7,"frizz_risk":0,"updated_at":"2026-05-08T05:25:34.613445+05:30"},{"city":"Nainital","state":"Uttarakhand","latitude":29.3919,"longitude":79.4542,"temp":8.7,"humidity":89,"rain":0.0,"pressure":802.4,"uv_index":8.0,"wind_gusts":28.1,"aqi":68,"pm10":15.5,"pm2_5":15.5,"no2":13.0,"co":245.0,"o3":72.0,"so2":1.7,"mosquito_risk":3,"arthritis_risk":10,"migraine_risk":7,"frizz_risk":0,"updated_at":"2026-05-08T05:25:34.613453+05:30"},{"city":"Mussoorie","state":"Uttarakhand","latitude":30.4599,"longitude":78.0664,"temp":8.5,"humidity":90,"rain":0.0,"pressure":799.2,"uv_index":7.6,"wind_gusts":25.2,"aqi":88,"pm10":46.6,"pm2_5":34.0,"no2":35.8,"co":226.0,"o3":19.0,"so2":5.9,"mosquito_risk":3,"arthritis_risk":10,"migraine_risk":7,"frizz_risk":0,"updated_at":"2026-05-08T05:25:34.613461+05:30"},{"city":"Dharamshala","state":"Himachal Pradesh","latitude":32.219,"longitude":76.3234,"temp":14.7,"humidity":72,"rain":0.0,"pressure":867.1,"uv_index":8.2,"wind_gusts":34.9,"aqi":52,"pm10":40.7,"pm2_5":13.0,"no2":10.4,"co":228.0,"o3":63.0,"so2":0.1,"mosquito_risk":3,"arthritis_risk":5,"migraine_risk":7,"frizz_risk":0,"updated_at":"2026-05-08T05:25:34.613469+05:30"},{"city":"Dalhousie","state":"Himachal Pradesh","latitude":32.5387,"longitude":75.971,"temp":6.6,"humidity":91,"rain":0.0,"pressure":799.0,"uv_index":8.45,"wind_gusts":35.6,"aqi":70,"pm10":42.5,"pm2_5":27.8,"no2":25.2,"co":298.0,"o3":26.0,"so2":0.9,"mosquito_risk":3,"arthritis_risk":10,"migraine_risk":7,"frizz_risk":0,"updated_at":"2026-05-08T05:25:34.613477+05:30"},{"city":"Patiala","state":"Punjab","latitude":30.3398,"longitude":76.3869,"temp":21.0,"humidity":82,"rain":0.0,"pressure":978.7,"uv_index":7.5,"wind_gusts":32.4,"aqi":822,"pm10":566.2,"pm2_5":80.1,"no2":6.0,"co":357.0,"o3":110.0,"so2":10.4,"mosquito_risk":3,"arthritis_risk":5,"migraine_risk":7,"frizz_risk":1,"updated_at":"2026-05-08T05:25:34.613485+05:30"},{"city":"Bhatinda","state":"Punjab","latitude":30.211,"longitude":74.9455,"temp":23.0,"humidity":70,"rain":0.0,"pressure":983.4,"uv_index":8.1,"wind_gusts":31.3,"aqi":820,"pm10":964.9,"pm2_5":183.9,"no2":5.0,"co":331.0,"o3":116.0,"so2":14.0,"mosquito_risk":3,"arthritis_risk":5,"migraine_risk":7,"frizz_risk":1,"updated_at":"2026-05-08T05:25:34.613492+05:30"},{"city":"Rohtak","state":"Haryana","latitude":28.8955,"longitude":76.6066,"temp":21.4,"humidity":89,"rain":0.0,"pressure":982.2,"uv_index":7.6,"wind_gusts":35.6,"aqi":944,"pm10":644.5,"pm2_5":92.4,"no2":13.8,"co":392.0,"o3":98.0,"so2":18.8,"mosquito_risk":3,"arthritis_risk":5,"migraine_risk":7,"frizz_risk":1,"updated_at":"2026-05-08T05:25:34.613500+05:30"},{"city":"Panipat","state":"Haryana","latitude":29.3909,"longitude":76.9635,"temp":20.5,"humidity":93,"rain":0.0,"pressure":981.2,"uv_index":7.45,"wind_gusts":35.3,"aqi":1573,"pm10":1065.4,"pm2_5":122.0,"no2":11.1,"co":359.0,"o3":97.0,"so2":17.3,"mosquito_risk":3,"arthritis_risk":5,"migraine_risk":7,"frizz_risk":1,"updated_at":"2026-05-08T05:25:34.613508+05:30"},{"city":"Mathura","state":"Uttar Pradesh","latitude":27.4924,"longitude":77.6737,"temp":21.9,"humidity":75,"rain":0.0,"pressure":987.3,"uv_index":7.85,"wind_gusts":34.9,"aqi":1328,"pm10":1218.2,"pm2_5":151.8,"no2":6.8,"co":301.0,"o3":101.0,"so2":26.5,"mosquito_risk":3,"arthritis_risk":5,"migraine_risk":7,"frizz_risk":1,"updated_at":"2026-05-08T05:25:34.613515+05:30"},{"city":"Vrindavan","state":"Uttar Pradesh","latitude":27.5823,"longitude":77.7027,"temp":22.0,"humidity":76,"rain":0.0,"pressure":987.8,"uv_index":7.85,"wind_gusts":34.9,"aqi":1328,"pm10":1218.2,"pm2_5":151.8,"no2":6.8,"co":303.0,"o3":101.0,"so2":26.5,"mosquito_risk":3,"arthritis_risk":5,"migraine_risk":7,"frizz_risk":1,"updated_at":"2026-05-08T05:25:34.613522+05:30"},{"city":"Ayodhya","state":"Uttar Pradesh","latitude":26.7922,"longitude":82.1998,"temp":21.4,"humidity":88,"rain":0.0,"pressure":997.6,"uv_index":8.2,"wind_gusts":23.8,"aqi":97,"pm10":49.5,"pm2_5":41.9,"no2":23.1,"co":472.0,"o3":50.0,"so2":7.6,"mosquito_risk":3,"arthritis_risk":5,"migraine_risk":7,"frizz_risk":1,"updated_at":"2026-05-08T05:25:34.613529+05:30"},{"city":"Ratlam","state":"Madhya Pradesh","latitude":23.3315,"longitude":75.0367,"temp":24.8,"humidity":37,"rain":0.0,"pressure":953.1,"uv_index":8.5,"wind_gusts":26.3,"aqi":67,"pm10":59.0,"pm2_5":21.9,"no2":4.1,"co":228.0,"o3":95.0,"so2":5.4,"mosquito_risk":0,"arthritis_risk":5,"migraine_risk":7,"frizz_risk":0,"updated_at":"2026-05-08T05:25:34.613537+05:30"},{"city":"Sagar","state":"Madhya Pradesh","latitude":23.8388,"longitude":78.7378,"temp":24.3,"humidity":48,"rain":0.0,"pressure":949.3,"uv_index":8.65,"wind_gusts":39.6,"aqi":48,"pm10":24.3,"pm2_5":14.8,"no2":8.2,"co":258.0,"o3":82.0,"so2":5.7,"mosquito_risk":0,"arthritis_risk":5,"migraine_risk":7,"frizz_risk":0,"updated_at":"2026-05-08T05:25:34.613544+05:30"},{"city":"Satna","state":"Madhya Pradesh","latitude":24.6005,"longitude":80.8322,"temp":21.4,"humidity":71,"rain":0.0,"pressure":971.5,"uv_index":8.7,"wind_gusts":33.1,"aqi":72,"pm10":36.7,"pm2_5":24.0,"no2":12.1,"co":301.0,"o3":86.0,"so2":9.7,"mosquito_risk":3,"arthritis_risk":5,"migraine_risk":7,"frizz_risk":0,"updated_at":"2026-05-08T05:25:34.613552+05:30"},{"city":"Akola","state":"Maharashtra","latitude":20.7002,"longitude":77.0082,"temp":27.0,"humidity":51,"rain":0.0,"pressure":974.9,"uv_index":8.85,"wind_gusts":35.3,"aqi":83,"pm10":51.8,"pm2_5":36.0,"no2":19.8,"co":297.0,"o3":52.0,"so2":4.9,"mosquito_risk":4,"arthritis_risk":5,"migraine_risk":7,"frizz_risk":1,"updated_at":"2026-05-08T05:25:34.613560+05:30"},{"city":"Amravati","state":"Maharashtra","latitude":20.9374,"longitude":77.7796,"temp":25.7,"humidity":62,"rain":0.0,"pressure":967.7,"uv_index":8.85,"wind_gusts":29.9,"aqi":85,"pm10":54.9,"pm2_5":38.2,"no2":22.3,"co":281.0,"o3":54.0,"so2":7.8,"mosquito_risk":7,"arthritis_risk":5,"migraine_risk":7,"frizz_risk":1,"updated_at":"2026-05-08T05:25:34.613567+05:30"},{"city":"Latur","state":"Maharashtra","latitude":18.4088,"longitude":76.5604,"temp":25.0,"humidity":63,"rain":0.0,"pressure":939.2,"uv_index":8.3,"wind_gusts":29.9,"aqi":88,"pm10":47.6,"pm2_5":35.6,"no2":15.3,"co":289.0,"o3":58.0,"so2":3.9,"mosquito_risk":7,"arthritis_risk":5,"migraine_risk":7,"frizz_risk":1,"updated_at":"2026-05-08T05:25:34.613574+05:30"},{"city":"Nanded","state":"Maharashtra","latitude":19.1383,"longitude":77.3091,"temp":26.0,"humidity":62,"rain":0.0,"pressure":968.7,"uv_index":8.95,"wind_gusts":30.6,"aqi":82,"pm10":50.1,"pm2_5":37.7,"no2":25.0,"co":384.0,"o3":34.0,"so2":3.7,"mosquito_risk":7,"arthritis_risk":5,"migraine_risk":7,"frizz_risk":1,"updated_at":"2026-05-08T05:25:34.613581+05:30"},{"city":"Gulbarga","state":"Karnataka","latitude":17.3297,"longitude":76.8343,"temp":26.0,"humidity":68,"rain":0.0,"pressure":958.4,"uv_index":9.05,"wind_gusts":33.1,"aqi":72,"pm10":25.6,"pm2_5":19.3,"no2":13.6,"co":220.0,"o3":68.0,"so2":5.4,"mosquito_risk":7,"arthritis_risk":5,"migraine_risk":7,"frizz_risk":1,"updated_at":"2026-05-08T05:25:34.613589+05:30"},{"city":"Bidar","state":"Karnataka","latitude":17.9104,"longitude":77.5199,"temp":24.9,"humidity":66,"rain":0.0,"pressure":935.7,"uv_index":9.1,"wind_gusts":32.4,"aqi":81,"pm10":24.6,"pm2_5":21.2,"no2":14.9,"co":255.0,"o3":60.0,"so2":6.3,"mosquito_risk":3,"arthritis_risk":5,"migraine_risk":7,"frizz_risk":1,"updated_at":"2026-05-08T05:25:34.613596+05:30"},{"city":"Hospet","state":"Karnataka","latitude":15.2689,"longitude":76.3909,"temp":24.3,"humidity":76,"rain":0.0,"pressure":954.7,"uv_index":9.15,"wind_gusts":36.0,"aqi":83,"pm10":20.4,"pm2_5":18.2,"no2":21.0,"co":226.0,"o3":45.0,"so2":9.8,"mosquito_risk":3,"arthritis_risk":5,"migraine_risk":7,"frizz_risk":1,"updated_at":"2026-05-08T05:25:34.613603+05:30"},{"city":"Tirupur","state":"Tamil Nadu","latitude":11.1085,"longitude":77.3411,"temp":22.5,"humidity":97,"rain":0.2,"pressure":973.7,"uv_index":9.15,"wind_gusts":31.7,"aqi":65,"pm10":21.8,"pm2_5":20.5,"no2":18.5,"co":223.0,"o3":54.0,"so2":6.2,"mosquito_risk":6,"arthritis_risk":5,"migraine_risk":7,"frizz_risk":1,"updated_at":"2026-05-08T05:25:34.613610+05:30"},{"city":"Alappuzha","state":"Kerala","latitude":9.4981,"longitude":76.3388,"temp":25.9,"humidity":91,"rain":0.0,"pressure":1005.8,"uv_index":8.85,"wind_gusts":31.0,"aqi":57,"pm10":12.7,"pm2_5":10.9,"no2":8.9,"co":279.0,"o3":69.0,"so2":3.4,"mosquito_risk":7,"arthritis_risk":5,"migraine_risk":4,"frizz_risk":1,"updated_at":"2026-05-08T05:25:34.613617+05:30"},{"city":"Munnar","state":"Kerala","latitude":10.0889,"longitude":77.0595,"temp":17.2,"humidity":92,"rain":0.0,"pressure":853.9,"uv_index":9.25,"wind_gusts":23.8,"aqi":57,"pm10":7.6,"pm2_5":6.6,"no2":6.3,"co":244.0,"o3":59.0,"so2":1.4,"mosquito_risk":3,"arthritis_risk":10,"migraine_risk":7,"frizz_risk":0,"updated_at":"2026-05-08T05:25:34.613624+05:30"},{"city":"Silchar","state":"Assam","latitude":24.8333,"longitude":92.7789,"temp":23.6,"humidity":89,"rain":0.0,"pressure":1007.8,"uv_index":8.85,"wind_gusts":19.1,"aqi":132,"pm10":53.9,"pm2_5":49.8,"no2":20.6,"co":451.0,"o3":26.0,"so2":3.4,"mosquito_risk":3,"arthritis_risk":5,"migraine_risk":4,"frizz_risk":1,"updated_at":"2026-05-08T05:25:34.613632+05:30"},{"city":"Dibrugarh","state":"Assam","latitude":27.4728,"longitude":94.912,"temp":20.6,"humidity":93,"rain":0.0,"pressure":999.5,"uv_index":8.8,"wind_gusts":42.8,"aqi":79,"pm10":26.8,"pm2_5":24.3,"no2":17.1,"co":247.0,"o3":22.0,"so2":1.1,"mosquito_risk":3,"arthritis_risk":5,"migraine_risk":7,"frizz_risk":1,"updated_at":"2026-05-08T05:25:34.613639+05:30"}]