[{"city":"Siliguri","state":"West Bengal","latitude":26.7271,"longitude":88.3953,"temp":26.2,"humidity":99,"rain":0.2,"pressure":983.4,"uv_index":7.9,"wind_gusts":23.4,"aqi":60,"pm10":16.1,"pm2_5":14.5,"no2":8.5,"co":478.0,"o3":104.0,"so2":2.8,"mosquito_risk":10,"arthritis_risk":5,"migraine_risk":7,"frizz_risk":1,"updated_at":"2026-07-12T19:01:46.155243+05:30"},{"city":"Durgapur","state":"West Bengal","latitude":23.5204,"longitude":87.3119,"temp":29.7,"humidity":83,"rain":0.0,"pressure":986.1,"uv_index":5.2,"wind_gusts":28.1,"aqi":151,"pm10":78.0,"pm2_5":58.4,"no2":24.9,"co":900.0,"o3":86.0,"so2":36.3,"mosquito_risk":7,"arthritis_risk":5,"migraine_risk":3,"frizz_risk":1,"updated_at":"2026-07-12T19:01:46.155297+05:30"},{"city":"Asansol","state":"West Bengal","latitude":23.6739,"longitude":86.9524,"temp":28.7,"humidity":92,"rain":0.0,"pressure":984.7,"uv_index":8.3,"wind_gusts":28.8,"aqi":135,"pm10":73.8,"pm2_5":52.3,"no2":25.0,"co":329.0,"o3":85.0,"so2":35.2,"mosquito_risk":7,"arthritis_risk":5,"migraine_risk":7,"frizz_risk":1,"updated_at":"2026-07-12T19:01:46.155313+05:30"},{"city":"Pondicherry","state":"Puducherry","latitude":11.9139,"longitude":79.8145,"temp":31.6,"humidity":70,"rain":0.0,"pressure":1003.0,"uv_index":8.65,"wind_gusts":45.0,"aqi":72,"pm10":48.8,"pm2_5":27.4,"no2":11.5,"co":177.0,"o3":108.0,"so2":10.0,"mosquito_risk":3,"arthritis_risk":5,"migraine_risk":4,"frizz_risk":1,"updated_at":"2026-07-12T19:01:46.155327+05:30"},{"city":"Port Blair","state":"Andaman and Nicobar Islands","latitude":11.6234,"longitude":92.7265,"temp":28.1,"humidity":84,"rain":0.1,"pressure":1004.2,"uv_index":8.7,"wind_gusts":55.8,"aqi":52,"pm10":23.5,"pm2_5":10.1,"no2":0.3,"co":92.0,"o3":46.0,"so2":0.4,"mosquito_risk":10,"arthritis_risk":5,"migraine_risk":4,"frizz_risk":1,"updated_at":"2026-07-12T19:01:46.155338+05:30"},{"city":"Haridwar","state":"Uttarakhand","latitude":29.9457,"longitude":78.1642,"temp":30.6,"humidity":82,"rain":0.0,"pressure":962.6,"uv_index":7.45,"wind_gusts":37.4,"aqi":157,"pm10":168.6,"pm2_5":83.1,"no2":11.3,"co":324.0,"o3":121.0,"so2":11.3,"mosquito_risk":3,"arthritis_risk":5,"migraine_risk":7,"frizz_risk":1,"updated_at":"2026-07-12T19:01:46.155347+05:30"},{"city":"Rishikesh","state":"Uttarakhand","latitude":30.0869,"longitude":78.2676,"temp":29.7,"humidity":82,"rain":0.0,"pressure":955.6,"uv_index":7.6,"wind_gusts":29.9,"aqi":126,"pm10":143.0,"pm2_5":65.9,"no2":4.9,"co":268.0,"o3":137.0,"so2":9.5,"mosquito_risk":7,"arthritis_risk":5,"migraine_risk":7,"frizz_risk":1,"updated_at":"2026-07-12T19:01:46.155355+05:30"},{"city":"Nainital","state":"Uttarakhand","latitude":29.3919,"longitude":79.4542,"temp":19.4,"humidity":91,"rain":0.0,"pressure":799.5,"uv_index":6.3,"wind_gusts":32.8,"aqi":150,"pm10":198.4,"pm2_5":80.1,"no2":6.2,"co":208.0,"o3":122.0,"so2":7.1,"mosquito_risk":3,"arthritis_risk":10,"migraine_risk":7,"frizz_risk":1,"updated_at":"2026-07-12T19:01:46.155363+05:30"},{"city":"Mussoorie","state":"Uttarakhand","latitude":30.4599,"longitude":78.0664,"temp":19.3,"humidity":93,"rain":0.0,"pressure":797.1,"uv_index":8.0,"wind_gusts":43.2,"aqi":123,"pm10":138.8,"pm2_5":66.8,"no2":6.9,"co":240.0,"o3":131.0,"so2":8.9,"mosquito_risk":3,"arthritis_risk":10,"migraine_risk":7,"frizz_risk":1,"updated_at":"2026-07-12T19:01:46.155371+05:30"},{"city":"Dharamshala","state":"Himachal Pradesh","latitude":32.219,"longitude":76.3234,"temp":23.5,"humidity":85,"rain":0.0,"pressure":861.3,"uv_index":8.45,"wind_gusts":28.8,"aqi":103,"pm10":38.2,"pm2_5":21.1,"no2":3.7,"co":453.0,"o3":119.0,"so2":1.5,"mosquito_risk":3,"arthritis_risk":5,"migraine_risk":7,"frizz_risk":1,"updated_at":"2026-07-12T19:01:46.155379+05:30"},{"city":"Dalhousie","state":"Himachal Pradesh","latitude":32.5387,"longitude":75.971,"temp":18.8,"humidity":95,"rain":0.0,"pressure":798.3,"uv_index":8.65,"wind_gusts":25.6,"aqi":124,"pm10":69.2,"pm2_5":35.5,"no2":8.0,"co":451.0,"o3":140.0,"so2":2.5,"mosquito_risk":3,"arthritis_risk":10,"migraine_risk":7,"frizz_risk":1,"updated_at":"2026-07-12T19:01:46.155387+05:30"},{"city":"Patiala","state":"Punjab","latitude":30.3398,"longitude":76.3869,"temp":30.4,"humidity":82,"rain":0.0,"pressure":966.9,"uv_index":7.5,"wind_gusts":29.9,"aqi":165,"pm10":303.6,"pm2_5":121.5,"no2":15.6,"co":419.0,"o3":110.0,"so2":9.1,"mosquito_risk":3,"arthritis_risk":5,"migraine_risk":7,"frizz_risk":1,"updated_at":"2026-07-12T19:01:46.155394+05:30"},{"city":"Bhatinda","state":"Punjab","latitude":30.211,"longitude":74.9455,"temp":33.1,"humidity":67,"rain":0.0,"pressure":972.1,"uv_index":8.25,"wind_gusts":37.1,"aqi":358,"pm10":357.6,"pm2_5":143.9,"no2":16.8,"co":215.0,"o3":98.0,"so2":9.9,"mosquito_risk":3,"arthritis_risk":5,"migraine_risk":7,"frizz_risk":1,"updated_at":"2026-07-12T19:01:46.155402+05:30"},{"city":"Rohtak","state":"Haryana","latitude":28.8955,"longitude":76.6066,"temp":31.2,"humidity":76,"rain":0.0,"pressure":970.5,"uv_index":7.65,"wind_gusts":37.8,"aqi":1039,"pm10":631.4,"pm2_5":136.9,"no2":13.1,"co":223.0,"o3":79.0,"so2":3.8,"mosquito_risk":3,"arthritis_risk":5,"migraine_risk":7,"frizz_risk":1,"updated_at":"2026-07-12T19:01:46.155412+05:30"},{"city":"Panipat","state":"Haryana","latitude":29.3909,"longitude":76.9635,"temp":30.6,"humidity":76,"rain":0.0,"pressure":969.1,"uv_index":7.45,"wind_gusts":44.6,"aqi":1382,"pm10":1311.3,"pm2_5":242.1,"no2":15.9,"co":260.0,"o3":75.0,"so2":7.5,"mosquito_risk":3,"arthritis_risk":5,"migraine_risk":7,"frizz_risk":1,"updated_at":"2026-07-12T19:01:46.155421+05:30"},{"city":"Mathura","state":"Uttar Pradesh","latitude":27.4924,"longitude":77.6737,"temp":32.5,"humidity":62,"rain":0.0,"pressure":976.1,"uv_index":7.95,"wind_gusts":36.7,"aqi":818,"pm10":1009.6,"pm2_5":144.8,"no2":7.4,"co":159.0,"o3":87.0,"so2":3.2,"mosquito_risk":3,"arthritis_risk":5,"migraine_risk":7,"frizz_risk":1,"updated_at":"2026-07-12T19:01:46.155428+05:30"},{"city":"Vrindavan","state":"Uttar Pradesh","latitude":27.5823,"longitude":77.7027,"temp":32.6,"humidity":62,"rain":0.0,"pressure":976.5,"uv_index":7.9,"wind_gusts":36.0,"aqi":818,"pm10":1009.6,"pm2_5":144.8,"no2":7.4,"co":163.0,"o3":87.0,"so2":3.2,"mosquito_risk":3,"arthritis_risk":5,"migraine_risk":7,"frizz_risk":1,"updated_at":"2026-07-12T19:01:46.155436+05:30"},{"city":"Ayodhya","state":"Uttar Pradesh","latitude":26.7922,"longitude":82.1998,"temp":29.1,"humidity":89,"rain":0.0,"pressure":984.6,"uv_index":7.05,"wind_gusts":36.4,"aqi":141,"pm10":106.2,"pm2_5":50.5,"no2":11.6,"co":259.0,"o3":75.0,"so2":5.4,"mosquito_risk":7,"arthritis_risk":5,"migraine_risk":7,"frizz_risk":1,"updated_at":"2026-07-12T19:01:46.155444+05:30"},{"city":"Ratlam","state":"Madhya Pradesh","latitude":23.3315,"longitude":75.0367,"temp":28.8,"humidity":68,"rain":0.0,"pressure":947.7,"uv_index":8.45,"wind_gusts":58.0,"aqi":62,"pm10":62.6,"pm2_5":31.0,"no2":2.3,"co":121.0,"o3":82.0,"so2":4.6,"mosquito_risk":7,"arthritis_risk":5,"migraine_risk":7,"frizz_risk":1,"updated_at":"2026-07-12T19:01:46.155451+05:30"},{"city":"Sagar","state":"Madhya Pradesh","latitude":23.8388,"longitude":78.7378,"temp":28.3,"humidity":67,"rain":0.0,"pressure":942.7,"uv_index":7.65,"wind_gusts":43.2,"aqi":73,"pm10":54.2,"pm2_5":26.5,"no2":2.5,"co":148.0,"o3":79.0,"so2":3.1,"mosquito_risk":7,"arthritis_risk":5,"migraine_risk":7,"frizz_risk":1,"updated_at":"2026-07-12T19:01:46.155458+05:30"},{"city":"Satna","state":"Madhya Pradesh","latitude":24.6005,"longitude":80.8322,"temp":30.8,"humidity":60,"rain":0.0,"pressure":962.8,"uv_index":8.5,"wind_gusts":45.7,"aqi":80,"pm10":46.7,"pm2_5":24.3,"no2":3.2,"co":147.0,"o3":87.0,"so2":3.4,"mosquito_risk":0,"arthritis_risk":5,"migraine_risk":7,"frizz_risk":1,"updated_at":"2026-07-12T19:01:46.155466+05:30"},{"city":"Akola","state":"Maharashtra","latitude":20.7002,"longitude":77.0082,"temp":32.0,"humidity":54,"rain":0.0,"pressure":968.6,"uv_index":7.9,"wind_gusts":45.0,"aqi":58,"pm10":42.6,"pm2_5":20.2,"no2":4.4,"co":135.0,"o3":81.0,"so2":6.7,"mosquito_risk":0,"arthritis_risk":5,"migraine_risk":7,"frizz_risk":1,"updated_at":"2026-07-12T19:01:46.155473+05:30"},{"city":"Amravati","state":"Maharashtra","latitude":20.9374,"longitude":77.7796,"temp":30.6,"humidity":60,"rain":0.0,"pressure":961.0,"uv_index":5.85,"wind_gusts":44.3,"aqi":60,"pm10":42.7,"pm2_5":20.3,"no2":5.1,"co":137.0,"o3":81.0,"so2":7.5,"mosquito_risk":0,"arthritis_risk":5,"migraine_risk":3,"frizz_risk":1,"updated_at":"2026-07-12T19:01:46.155481+05:30"},{"city":"Latur","state":"Maharashtra","latitude":18.4088,"longitude":76.5604,"temp":29.1,"humidity":55,"rain":0.0,"pressure":935.4,"uv_index":8.85,"wind_gusts":46.8,"aqi":51,"pm10":34.2,"pm2_5":16.0,"no2":2.1,"co":129.0,"o3":75.0,"so2":2.1,"mosquito_risk":4,"arthritis_risk":5,"migraine_risk":7,"frizz_risk":1,"updated_at":"2026-07-12T19:01:46.155491+05:30"},{"city":"Nanded","state":"Maharashtra","latitude":19.1383,"longitude":77.3091,"temp":30.9,"humidity":58,"rain":0.0,"pressure":962.8,"uv_index":8.85,"wind_gusts":39.6,"aqi":57,"pm10":38.9,"pm2_5":20.0,"no2":3.6,"co":154.0,"o3":77.0,"so2":2.9,"mosquito_risk":0,"arthritis_risk":5,"migraine_risk":7,"frizz_risk":1,"updated_at":"2026-07-12T19:01:46.155498+05:30"},{"city":"Gulbarga","state":"Karnataka","latitude":17.3297,"longitude":76.8343,"temp":30.3,"humidity":51,"rain":0.0,"pressure":954.3,"uv_index":8.75,"wind_gusts":49.7,"aqi":51,"pm10":30.9,"pm2_5":14.2,"no2":3.1,"co":138.0,"o3":71.0,"so2":2.0,"mosquito_risk":0,"arthritis_risk":5,"migraine_risk":7,"frizz_risk":1,"updated_at":"2026-07-12T19:01:46.155506+05:30"},{"city":"Bidar","state":"Karnataka","latitude":17.9104,"longitude":77.5199,"temp":29.1,"humidity":55,"rain":0.0,"pressure":930.9,"uv_index":8.9,"wind_gusts":47.9,"aqi":56,"pm10":35.0,"pm2_5":18.0,"no2":4.6,"co":135.0,"o3":73.0,"so2":2.0,"mosquito_risk":4,"arthritis_risk":5,"migraine_risk":7,"frizz_risk":1,"updated_at":"2026-07-12T19:01:46.155513+05:30"},{"city":"Hospet","state":"Karnataka","latitude":15.2689,"longitude":76.3909,"temp":29.4,"humidity":51,"rain":0.0,"pressure":953.1,"uv_index":8.55,"wind_gusts":52.9,"aqi":38,"pm10":21.5,"pm2_5":9.7,"no2":2.5,"co":116.0,"o3":58.0,"so2":1.7,"mosquito_risk":4,"arthritis_risk":5,"migraine_risk":7,"frizz_risk":1,"updated_at":"2026-07-12T19:01:46.155521+05:30"},{"city":"Tirupur","state":"Tamil Nadu","latitude":11.1085,"longitude":77.3411,"temp":27.6,"humidity":73,"rain":0.0,"pressure":972.3,"uv_index":8.4,"wind_gusts":61.9,"aqi":57,"pm10":24.0,"pm2_5":11.3,"no2":6.7,"co":129.0,"o3":61.0,"so2":2.9,"mosquito_risk":7,"arthritis_risk":5,"migraine_risk":7,"frizz_risk":1,"updated_at":"2026-07-12T19:01:46.155529+05:30"},{"city":"Alappuzha","state":"Kerala","latitude":9.4981,"longitude":76.3388,"temp":27.9,"humidity":83,"rain":0.0,"pressure":1008.6,"uv_index":7.9,"wind_gusts":42.8,"aqi":44,"pm10":14.3,"pm2_5":8.2,"no2":3.9,"co":83.0,"o3":49.0,"so2":1.9,"mosquito_risk":7,"arthritis_risk":0,"migraine_risk":4,"frizz_risk":1,"updated_at":"2026-07-12T19:01:46.155537+05:30"},{"city":"Munnar","state":"Kerala","latitude":10.0889,"longitude":77.0595,"temp":17.4,"humidity":100,"rain":0.1,"pressure":856.1,"uv_index":8.05,"wind_gusts":38.5,"aqi":35,"pm10":15.4,"pm2_5":8.1,"no2":3.1,"co":101.0,"o3":54.0,"so2":1.6,"mosquito_risk":6,"arthritis_risk":10,"migraine_risk":7,"frizz_risk":1,"updated_at":"2026-07-12T19:01:46.155552+05:30"},{"city":"Silchar","state":"Assam","latitude":24.8333,"longitude":92.7789,"temp":27.7,"humidity":95,"rain":0.1,"pressure":996.0,"uv_index":6.4,"wind_gusts":30.2,"aqi":70,"pm10":40.0,"pm2_5":25.4,"no2":5.1,"co":282.0,"o3":84.0,"so2":5.7,"mosquito_risk":10,"arthritis_risk":5,"migraine_risk":7,"frizz_risk":1,"updated_at":"2026-07-12T19:01:46.155560+05:30"},{"city":"Dibrugarh","state":"Assam","latitude":27.4728,"longitude":94.912,"temp":27.3,"humidity":97,"rain":0.1,"pressure":987.1,"uv_index":3.7,"wind_gusts":23.8,"aqi":66,"pm10":15.6,"pm2_5":15.4,"no2":9.6,"co":286.0,"o3":75.0,"so2":2.4,"mosquito_risk":10,"arthritis_risk":5,"migraine_risk":3,"frizz_risk":1,"updated_at":"2026-07-12T19:01:46.155567+05:30"}]