[{"city":"Delhi","state":"Delhi","latitude":28.6139,"longitude":77.209,"temp":27.7,"humidity":87,"rain":0.0,"pressure":977.1,"uv_index":6.95,"wind_gusts":37.1,"aqi":101,"pm10":33.8,"pm2_5":33.6,"no2":30.4,"co":543.0,"o3":65.0,"so2":22.7,"mosquito_risk":7,"arthritis_risk":5,"migraine_risk":7,"frizz_risk":1,"updated_at":"2026-07-23T00:54:17.020516+05:30"},{"city":"Mumbai","state":"Maharashtra","latitude":19.076,"longitude":72.8777,"temp":26.8,"humidity":86,"rain":0.5,"pressure":1003.8,"uv_index":0.85,"wind_gusts":68.4,"aqi":56,"pm10":45.4,"pm2_5":19.2,"no2":4.0,"co":126.0,"o3":45.0,"so2":3.1,"mosquito_risk":10,"arthritis_risk":5,"migraine_risk":0,"frizz_risk":1,"updated_at":"2026-07-23T00:54:17.020562+05:30"},{"city":"Bangalore","state":"Karnataka","latitude":12.9716,"longitude":77.5946,"temp":20.6,"humidity":89,"rain":0.0,"pressure":911.7,"uv_index":9.0,"wind_gusts":49.7,"aqi":32,"pm10":8.8,"pm2_5":6.6,"no2":15.5,"co":277.0,"o3":25.0,"so2":5.3,"mosquito_risk":3,"arthritis_risk":5,"migraine_risk":7,"frizz_risk":1,"updated_at":"2026-07-23T00:54:17.020579+05:30"},{"city":"Hyderabad","state":"Telangana","latitude":17.385,"longitude":78.4867,"temp":23.2,"humidity":89,"rain":0.0,"pressure":950.9,"uv_index":7.8,"wind_gusts":59.4,"aqi":37,"pm10":8.4,"pm2_5":5.9,"no2":9.0,"co":197.0,"o3":33.0,"so2":4.7,"mosquito_risk":3,"arthritis_risk":5,"migraine_risk":7,"frizz_risk":1,"updated_at":"2026-07-23T00:54:17.020589+05:30"},{"city":"Chennai","state":"Tamil Nadu","latitude":13.0827,"longitude":80.2707,"temp":26.9,"humidity":92,"rain":0.0,"pressure":1006.7,"uv_index":8.95,"wind_gusts":36.4,"aqi":74,"pm10":26.2,"pm2_5":20.1,"no2":23.6,"co":248.0,"o3":50.0,"so2":11.2,"mosquito_risk":7,"arthritis_risk":5,"migraine_risk":4,"frizz_risk":1,"updated_at":"2026-07-23T00:54:17.020597+05:30"},{"city":"Kolkata","state":"West Bengal","latitude":22.5726,"longitude":88.3639,"temp":24.6,"humidity":97,"rain":0.2,"pressure":1002.4,"uv_index":1.2,"wind_gusts":33.8,"aqi":56,"pm10":21.1,"pm2_5":17.7,"no2":11.5,"co":276.0,"o3":56.0,"so2":7.4,"mosquito_risk":6,"arthritis_risk":5,"migraine_risk":0,"frizz_risk":1,"updated_at":"2026-07-23T00:54:17.020604+05:30"},{"city":"Pune","state":"Maharashtra","latitude":18.5204,"longitude":73.8567,"temp":22.2,"humidity":87,"rain":0.0,"pressure":943.2,"uv_index":1.45,"wind_gusts":58.0,"aqi":31,"pm10":29.0,"pm2_5":11.9,"no2":3.8,"co":118.0,"o3":59.0,"so2":3.0,"mosquito_risk":3,"arthritis_risk":5,"migraine_risk":3,"frizz_risk":1,"updated_at":"2026-07-23T00:54:17.020611+05:30"},{"city":"Ahmedabad","state":"Gujarat","latitude":23.0225,"longitude":72.5714,"temp":25.8,"humidity":97,"rain":0.4,"pressure":994.3,"uv_index":3.95,"wind_gusts":43.9,"aqi":61,"pm10":25.8,"pm2_5":14.3,"no2":13.1,"co":153.0,"o3":37.0,"so2":4.0,"mosquito_risk":10,"arthritis_risk":5,"migraine_risk":3,"frizz_risk":1,"updated_at":"2026-07-23T00:54:17.020618+05:30"},{"city":"Jaipur","state":"Rajasthan","latitude":26.9124,"longitude":75.7873,"temp":25.4,"humidity":97,"rain":0.0,"pressure":952.5,"uv_index":7.3,"wind_gusts":30.6,"aqi":56,"pm10":31.3,"pm2_5":21.4,"no2":20.4,"co":359.0,"o3":62.0,"so2":7.0,"mosquito_risk":7,"arthritis_risk":5,"migraine_risk":7,"frizz_risk":1,"updated_at":"2026-07-23T00:54:17.020624+05:30"},{"city":"Lucknow","state":"Uttar Pradesh","latitude":26.8467,"longitude":80.9462,"temp":26.4,"humidity":93,"rain":0.0,"pressure":987.6,"uv_index":4.2,"wind_gusts":50.0,"aqi":74,"pm10":13.9,"pm2_5":13.9,"no2":8.6,"co":313.0,"o3":82.0,"so2":5.9,"mosquito_risk":7,"arthritis_risk":5,"migraine_risk":3,"frizz_risk":1,"updated_at":"2026-07-23T00:54:17.020634+05:30"},{"city":"Kanpur","state":"Uttar Pradesh","latitude":26.4499,"longitude":80.3319,"temp":26.9,"humidity":87,"rain":0.0,"pressure":985.4,"uv_index":7.6,"wind_gusts":47.9,"aqi":74,"pm10":15.5,"pm2_5":15.5,"no2":9.2,"co":315.0,"o3":84.0,"so2":6.1,"mosquito_risk":7,"arthritis_risk":5,"migraine_risk":7,"frizz_risk":1,"updated_at":"2026-07-23T00:54:17.020640+05:30"},{"city":"Chandigarh","state":"Chandigarh","latitude":30.7333,"longitude":76.7794,"temp":26.9,"humidity":83,"rain":0.0,"pressure":963.8,"uv_index":7.6,"wind_gusts":36.7,"aqi":88,"pm10":44.6,"pm2_5":43.9,"no2":50.3,"co":756.0,"o3":21.0,"so2":9.1,"mosquito_risk":7,"arthritis_risk":5,"migraine_risk":7,"frizz_risk":1,"updated_at":"2026-07-23T00:54:17.020647+05:30"},{"city":"Srinagar","state":"Jammu and Kashmir","latitude":34.0837,"longitude":74.7973,"temp":16.2,"humidity":99,"rain":0.0,"pressure":839.6,"uv_index":8.75,"wind_gusts":24.5,"aqi":63,"pm10":34.5,"pm2_5":34.5,"no2":35.5,"co":982.0,"o3":16.0,"so2":2.6,"mosquito_risk":3,"arthritis_risk":10,"migraine_risk":7,"frizz_risk":1,"updated_at":"2026-07-23T00:54:17.020653+05:30"},{"city":"Jammu","state":"Jammu and Kashmir","latitude":32.7266,"longitude":74.857,"temp":25.1,"humidity":90,"rain":0.0,"pressure":968.0,"uv_index":7.75,"wind_gusts":32.4,"aqi":68,"pm10":56.8,"pm2_5":55.6,"no2":73.9,"co":485.0,"o3":4.0,"so2":9.4,"mosquito_risk":7,"arthritis_risk":5,"migraine_risk":7,"frizz_risk":1,"updated_at":"2026-07-23T00:54:17.020659+05:30"},{"city":"Amritsar","state":"Punjab","latitude":31.634,"longitude":74.8723,"temp":26.6,"humidity":85,"rain":0.0,"pressure":975.4,"uv_index":5.7,"wind_gusts":29.5,"aqi":82,"pm10":44.0,"pm2_5":43.2,"no2":29.7,"co":678.0,"o3":27.0,"so2":6.6,"mosquito_risk":7,"arthritis_risk":5,"migraine_risk":3,"frizz_risk":1,"updated_at":"2026-07-23T00:54:17.020665+05:30"},{"city":"Ludhiana","state":"Punjab","latitude":30.901,"longitude":75.8573,"temp":27.3,"humidity":93,"rain":0.0,"pressure":973.3,"uv_index":6.15,"wind_gusts":37.4,"aqi":101,"pm10":62.9,"pm2_5":61.7,"no2":47.9,"co":761.0,"o3":16.0,"so2":15.3,"mosquito_risk":7,"arthritis_risk":5,"migraine_risk":7,"frizz_risk":1,"updated_at":"2026-07-23T00:54:17.020671+05:30"},{"city":"Jalandhar","state":"Punjab","latitude":31.326,"longitude":75.5762,"temp":26.8,"humidity":97,"rain":0.0,"pressure":974.4,"uv_index":6.9,"wind_gusts":32.8,"aqi":102,"pm10":45.4,"pm2_5":44.6,"no2":36.3,"co":907.0,"o3":22.0,"so2":7.4,"mosquito_risk":7,"arthritis_risk":5,"migraine_risk":7,"frizz_risk":1,"updated_at":"2026-07-23T00:54:17.020680+05:30"},{"city":"Dehradun","state":"Uttarakhand","latitude":30.6284,"longitude":78.0322,"temp":16.5,"humidity":98,"rain":0.0,"pressure":827.0,"uv_index":7.75,"wind_gusts":24.1,"aqi":33,"pm10":14.1,"pm2_5":13.9,"no2":27.3,"co":193.0,"o3":33.0,"so2":0.7,"mosquito_risk":3,"arthritis_risk":10,"migraine_risk":7,"frizz_risk":1,"updated_at":"2026-07-23T00:54:17.020686+05:30"},{"city":"Shimla","state":"Himachal Pradesh","latitude":31.1048,"longitude":77.1734,"temp":14.9,"humidity":95,"rain":0.0,"pressure":781.4,"uv_index":7.2,"wind_gusts":23.4,"aqi":46,"pm10":15.7,"pm2_5":15.5,"no2":28.2,"co":393.0,"o3":34.0,"so2":0.5,"mosquito_risk":3,"arthritis_risk":10,"migraine_risk":7,"frizz_risk":0,"updated_at":"2026-07-23T00:54:17.020693+05:30"},{"city":"Manali","state":"Himachal Pradesh","latitude":32.2396,"longitude":77.1887,"temp":19.8,"humidity":90,"rain":0.0,"pressure":817.8,"uv_index":6.7,"wind_gusts":23.8,"aqi":26,"pm10":3.6,"pm2_5":3.6,"no2":33.7,"co":210.0,"o3":26.0,"so2":0.5,"mosquito_risk":3,"arthritis_risk":10,"migraine_risk":7,"frizz_risk":1,"updated_at":"2026-07-23T00:54:17.020701+05:30"},{"city":"Gurgaon","state":"Haryana","latitude":28.4595,"longitude":77.0266,"temp":27.7,"humidity":86,"rain":0.0,"pressure":975.3,"uv_index":7.0,"wind_gusts":39.2,"aqi":106,"pm10":27.8,"pm2_5":27.8,"no2":26.9,"co":439.0,"o3":67.0,"so2":18.8,"mosquito_risk":7,"arthritis_risk":5,"migraine_risk":7,"frizz_risk":1,"updated_at":"2026-07-23T00:54:17.020706+05:30"},{"city":"Noida","state":"Uttar Pradesh","latitude":28.5355,"longitude":77.391,"temp":27.6,"humidity":87,"rain":0.0,"pressure":978.6,"uv_index":6.95,"wind_gusts":37.8,"aqi":106,"pm10":27.8,"pm2_5":27.8,"no2":26.9,"co":494.0,"o3":67.0,"so2":18.8,"mosquito_risk":7,"arthritis_risk":5,"migraine_risk":7,"frizz_risk":1,"updated_at":"2026-07-23T00:54:17.020712+05:30"},{"city":"Ghaziabad","state":"Uttar Pradesh","latitude":28.6692,"longitude":77.4538,"temp":27.5,"humidity":85,"rain":0.0,"pressure":977.0,"uv_index":7.55,"wind_gusts":40.7,"aqi":88,"pm10":27.6,"pm2_5":27.5,"no2":15.5,"co":349.0,"o3":75.0,"so2":9.0,"mosquito_risk":7,"arthritis_risk":5,"migraine_risk":7,"frizz_risk":1,"updated_at":"2026-07-23T00:54:17.020718+05:30"},{"city":"Faridabad","state":"Haryana","latitude":28.4089,"longitude":77.3178,"temp":27.6,"humidity":88,"rain":0.0,"pressure":977.8,"uv_index":7.05,"wind_gusts":41.0,"aqi":106,"pm10":27.8,"pm2_5":27.8,"no2":26.9,"co":416.0,"o3":67.0,"so2":18.8,"mosquito_risk":7,"arthritis_risk":5,"migraine_risk":7,"frizz_risk":1,"updated_at":"2026-07-23T00:54:17.020724+05:30"},{"city":"Meerut","state":"Uttar Pradesh","latitude":28.9845,"longitude":77.7064,"temp":27.9,"humidity":83,"rain":0.0,"pressure":976.1,"uv_index":7.5,"wind_gusts":43.2,"aqi":88,"pm10":27.6,"pm2_5":27.5,"no2":15.5,"co":330.0,"o3":75.0,"so2":9.0,"mosquito_risk":7,"arthritis_risk":5,"migraine_risk":7,"frizz_risk":1,"updated_at":"2026-07-23T00:54:17.020730+05:30"},{"city":"Agra","state":"Uttar Pradesh","latitude":27.1767,"longitude":78.0081,"temp":28.3,"humidity":79,"rain":0.0,"pressure":981.0,"uv_index":7.15,"wind_gusts":39.6,"aqi":72,"pm10":20.1,"pm2_5":20.1,"no2":17.5,"co":316.0,"o3":70.0,"so2":8.1,"mosquito_risk":7,"arthritis_risk":5,"migraine_risk":7,"frizz_risk":1,"updated_at":"2026-07-23T00:54:17.020736+05:30"},{"city":"Varanasi","state":"Uttar Pradesh","latitude":25.3176,"longitude":82.9739,"temp":26.2,"humidity":95,"rain":0.0,"pressure":991.5,"uv_index":6.25,"wind_gusts":35.3,"aqi":64,"pm10":18.9,"pm2_5":18.9,"no2":20.8,"co":340.0,"o3":45.0,"so2":16.6,"mosquito_risk":7,"arthritis_risk":5,"migraine_risk":7,"frizz_risk":1,"updated_at":"2026-07-23T00:54:17.020742+05:30"},{"city":"Prayagraj","state":"Uttar Pradesh","latitude":25.4358,"longitude":81.8463,"temp":26.1,"humidity":95,"rain":0.0,"pressure":989.1,"uv_index":7.3,"wind_gusts":34.2,"aqi":68,"pm10":17.1,"pm2_5":17.1,"no2":12.9,"co":415.0,"o3":77.0,"so2":10.5,"mosquito_risk":7,"arthritis_risk":5,"migraine_risk":7,"frizz_risk":1,"updated_at":"2026-07-23T00:54:17.020748+05:30"},{"city":"Gorakhpur","state":"Uttar Pradesh","latitude":26.7606,"longitude":83.3732,"temp":27.3,"humidity":86,"rain":0.0,"pressure":992.5,"uv_index":4.6,"wind_gusts":47.9,"aqi":70,"pm10":16.0,"pm2_5":15.9,"no2":10.2,"co":329.0,"o3":71.0,"so2":6.1,"mosquito_risk":7,"arthritis_risk":5,"migraine_risk":3,"frizz_risk":1,"updated_at":"2026-07-23T00:54:17.020754+05:30"},{"city":"Bareilly","state":"Uttar Pradesh","latitude":28.367,"longitude":79.4304,"temp":28.1,"humidity":78,"rain":0.0,"pressure":981.6,"uv_index":5.4,"wind_gusts":49.3,"aqi":76,"pm10":18.5,"pm2_5":18.4,"no2":12.1,"co":278.0,"o3":67.0,"so2":6.0,"mosquito_risk":7,"arthritis_risk":5,"migraine_risk":3,"frizz_risk":1,"updated_at":"2026-07-23T00:54:17.020762+05:30"},{"city":"Aligarh","state":"Uttar Pradesh","latitude":27.8974,"longitude":78.088,"temp":27.5,"humidity":87,"rain":0.0,"pressure":979.4,"uv_index":7.1,"wind_gusts":43.6,"aqi":82,"pm10":18.1,"pm2_5":18.0,"no2":15.1,"co":323.0,"o3":75.0,"so2":15.5,"mosquito_risk":7,"arthritis_risk":5,"migraine_risk":7,"frizz_risk":1,"updated_at":"2026-07-23T00:54:17.020768+05:30"},{"city":"Moradabad","state":"Uttar Pradesh","latitude":28.8386,"longitude":78.7733,"temp":28.4,"humidity":79,"rain":0.0,"pressure":978.4,"uv_index":7.35,"wind_gusts":49.0,"aqi":75,"pm10":21.9,"pm2_5":21.8,"no2":13.1,"co":286.0,"o3":69.0,"so2":6.8,"mosquito_risk":7,"arthritis_risk":5,"migraine_risk":7,"frizz_risk":1,"updated_at":"2026-07-23T00:54:17.020774+05:30"},{"city":"Saharanpur","state":"Uttar Pradesh","latitude":29.9637,"longitude":77.546,"temp":27.7,"humidity":83,"rain":0.0,"pressure":970.8,"uv_index":7.3,"wind_gusts":41.0,"aqi":81,"pm10":35.9,"pm2_5":35.6,"no2":28.4,"co":474.0,"o3":34.0,"so2":8.9,"mosquito_risk":7,"arthritis_risk":5,"migraine_risk":7,"frizz_risk":1,"updated_at":"2026-07-23T00:54:17.020780+05:30"},{"city":"Jhansi","state":"Uttar Pradesh","latitude":25.4484,"longitude":78.5685,"temp":25.7,"humidity":96,"rain":0.0,"pressure":970.5,"uv_index":7.45,"wind_gusts":28.4,"aqi":57,"pm10":14.7,"pm2_5":14.6,"no2":13.5,"co":318.0,"o3":70.0,"so2":5.4,"mosquito_risk":7,"arthritis_risk":5,"migraine_risk":7,"frizz_risk":1,"updated_at":"2026-07-23T00:54:20.286974+05:30"},{"city":"Surat","state":"Gujarat","latitude":21.1702,"longitude":72.8311,"temp":25.7,"humidity":96,"rain":0.0,"pressure":999.3,"uv_index":1.55,"wind_gusts":50.8,"aqi":74,"pm10":18.8,"pm2_5":13.5,"no2":20.8,"co":326.0,"o3":23.0,"so2":30.1,"mosquito_risk":7,"arthritis_risk":5,"migraine_risk":3,"frizz_risk":1,"updated_at":"2026-07-23T00:54:20.287011+05:30"},{"city":"Vadodara","state":"Gujarat","latitude":22.3072,"longitude":73.1812,"temp":25.7,"humidity":98,"rain":0.1,"pressure":996.8,"uv_index":1.05,"wind_gusts":42.8,"aqi":63,"pm10":18.4,"pm2_5":11.9,"no2":13.2,"co":232.0,"o3":46.0,"so2":5.1,"mosquito_risk":10,"arthritis_risk":5,"migraine_risk":3,"frizz_risk":1,"updated_at":"2026-07-23T00:54:20.287023+05:30"},{"city":"Rajkot","state":"Gujarat","latitude":22.3039,"longitude":70.8022,"temp":26.9,"humidity":86,"rain":0.0,"pressure":986.9,"uv_index":1.7,"wind_gusts":56.5,"aqi":60,"pm10":21.9,"pm2_5":11.4,"no2":5.8,"co":101.0,"o3":38.0,"so2":5.4,"mosquito_risk":7,"arthritis_risk":5,"migraine_risk":3,"frizz_risk":1,"updated_at":"2026-07-23T00:54:20.287032+05:30"},{"city":"Thane","state":"Maharashtra","latitude":19.2183,"longitude":72.9781,"temp":25.0,"humidity":94,"rain":0.4,"pressure":1003.3,"uv_index":0.55,"wind_gusts":45.0,"aqi":56,"pm10":45.4,"pm2_5":19.2,"no2":4.0,"co":141.0,"o3":45.0,"so2":3.1,"mosquito_risk":10,"arthritis_risk":5,"migraine_risk":0,"frizz_risk":1,"updated_at":"2026-07-23T00:54:20.287040+05:30"},{"city":"Nagpur","state":"Maharashtra","latitude":21.1458,"longitude":79.0882,"temp":24.3,"humidity":92,"rain":0.0,"pressure":967.9,"uv_index":5.4,"wind_gusts":55.1,"aqi":30,"pm10":5.0,"pm2_5":4.4,"no2":10.7,"co":183.0,"o3":37.0,"so2":10.5,"mosquito_risk":3,"arthritis_risk":5,"migraine_risk":3,"frizz_risk":1,"updated_at":"2026-07-23T00:54:20.287048+05:30"},{"city":"Nashik","state":"Maharashtra","latitude":19.9975,"longitude":73.7898,"temp":22.3,"humidity":96,"rain":0.4,"pressure":939.4,"uv_index":1.35,"wind_gusts":63.7,"aqi":17,"pm10":0.7,"pm2_5":0.7,"no2":7.2,"co":120.0,"o3":35.0,"so2":5.3,"mosquito_risk":6,"arthritis_risk":5,"migraine_risk":3,"frizz_risk":1,"updated_at":"2026-07-23T00:54:20.287055+05:30"},{"city":"Aurangabad","state":"Maharashtra","latitude":19.8762,"longitude":75.3433,"temp":22.2,"humidity":93,"rain":0.2,"pressure":938.6,"uv_index":3.65,"wind_gusts":66.6,"aqi":20,"pm10":2.5,"pm2_5":1.9,"no2":5.1,"co":139.0,"o3":39.0,"so2":3.3,"mosquito_risk":6,"arthritis_risk":5,"migraine_risk":3,"frizz_risk":1,"updated_at":"2026-07-23T00:54:20.287062+05:30"},{"city":"Solapur","state":"Maharashtra","latitude":17.6599,"longitude":75.9064,"temp":24.1,"humidity":81,"rain":0.0,"pressure":954.4,"uv_index":5.3,"wind_gusts":64.1,"aqi":25,"pm10":20.0,"pm2_5":8.8,"no2":4.8,"co":123.0,"o3":44.0,"so2":2.3,"mosquito_risk":3,"arthritis_risk":5,"migraine_risk":3,"frizz_risk":1,"updated_at":"2026-07-23T00:54:20.287069+05:30"},{"city":"Kolhapur","state":"Maharashtra","latitude":16.705,"longitude":74.2433,"temp":22.2,"humidity":94,"rain":0.0,"pressure":945.7,"uv_index":5.55,"wind_gusts":54.4,"aqi":24,"pm10":11.2,"pm2_5":5.6,"no2":3.8,"co":118.0,"o3":42.0,"so2":1.8,"mosquito_risk":3,"arthritis_risk":5,"migraine_risk":3,"frizz_risk":1,"updated_at":"2026-07-23T00:54:20.287077+05:30"},{"city":"Goa","state":"Goa","latitude":15.2993,"longitude":74.124,"temp":23.7,"humidity":98,"rain":0.2,"pressure":998.0,"uv_index":3.95,"wind_gusts":43.2,"aqi":56,"pm10":24.2,"pm2_5":13.4,"no2":2.8,"co":291.0,"o3":37.0,"so2":0.8,"mosquito_risk":6,"arthritis_risk":5,"migraine_risk":3,"frizz_risk":1,"updated_at":"2026-07-23T00:54:20.287085+05:30"},{"city":"Jodhpur","state":"Rajasthan","latitude":26.2389,"longitude":73.0243,"temp":25.7,"humidity":99,"rain":0.1,"pressure":974.7,"uv_index":8.15,"wind_gusts":31.3,"aqi":86,"pm10":64.3,"pm2_5":23.9,"no2":11.3,"co":207.0,"o3":63.0,"so2":2.0,"mosquito_risk":10,"arthritis_risk":5,"migraine_risk":7,"frizz_risk":1,"updated_at":"2026-07-23T00:54:20.287092+05:30"},{"city":"Udaipur","state":"Rajasthan","latitude":24.5854,"longitude":73.7125,"temp":23.8,"humidity":97,"rain":1.0,"pressure":938.1,"uv_index":8.65,"wind_gusts":27.7,"aqi":53,"pm10":13.9,"pm2_5":6.9,"no2":5.3,"co":169.0,"o3":65.0,"so2":2.3,"mosquito_risk":6,"arthritis_risk":5,"migraine_risk":7,"frizz_risk":1,"updated_at":"2026-07-23T00:54:20.287098+05:30"},{"city":"Kota","state":"Rajasthan","latitude":25.2138,"longitude":75.8648,"temp":25.5,"humidity":96,"rain":0.1,"pressure":970.6,"uv_index":7.8,"wind_gusts":28.4,"aqi":49,"pm10":13.2,"pm2_5":12.6,"no2":13.8,"co":298.0,"o3":72.0,"so2":7.1,"mosquito_risk":10,"arthritis_risk":5,"migraine_risk":7,"frizz_risk":1,"updated_at":"2026-07-23T00:54:20.287105+05:30"},{"city":"Bikaner","state":"Rajasthan","latitude":28.0229,"longitude":73.3119,"temp":27.3,"humidity":93,"rain":0.1,"pressure":974.4,"uv_index":7.15,"wind_gusts":27.0,"aqi":74,"pm10":12.0,"pm2_5":11.9,"no2":5.1,"co":297.0,"o3":101.0,"so2":4.2,"mosquito_risk":10,"arthritis_risk":5,"migraine_risk":7,"frizz_risk":1,"updated_at":"2026-07-23T00:54:20.287111+05:30"},{"city":"Ajmer","state":"Rajasthan","latitude":26.4499,"longitude":74.6399,"temp":25.1,"humidity":95,"rain":0.1,"pressure":947.0,"uv_index":7.35,"wind_gusts":32.8,"aqi":55,"pm10":12.6,"pm2_5":12.1,"no2":15.0,"co":274.0,"o3":71.0,"so2":3.1,"mosquito_risk":10,"arthritis_risk":5,"migraine_risk":7,"frizz_risk":1,"updated_at":"2026-07-23T00:54:20.287118+05:30"},{"city":"Gwalior","state":"Madhya Pradesh","latitude":26.2183,"longitude":78.1828,"temp":26.5,"humidity":90,"rain":0.0,"pressure":975.9,"uv_index":6.15,"wind_gusts":28.4,"aqi":56,"pm10":21.7,"pm2_5":16.4,"no2":10.3,"co":293.0,"o3":88.0,"so2":6.1,"mosquito_risk":7,"arthritis_risk":5,"migraine_risk":7,"frizz_risk":1,"updated_at":"2026-07-23T00:54:20.287124+05:30"},{"city":"Indore","state":"Madhya Pradesh","latitude":22.7196,"longitude":75.8577,"temp":23.4,"humidity":97,"rain":0.2,"pressure":940.5,"uv_index":2.1,"wind_gusts":52.9,"aqi":45,"pm10":15.6,"pm2_5":13.7,"no2":13.3,"co":236.0,"o3":46.0,"so2":7.3,"mosquito_risk":6,"arthritis_risk":5,"migraine_risk":3,"frizz_risk":1,"updated_at":"2026-07-23T00:54:20.287130+05:30"},{"city":"Bhopal","state":"Madhya Pradesh","latitude":23.2599,"longitude":77.4126,"temp":24.0,"humidity":96,"rain":0.1,"pressure":945.9,"uv_index":5.1,"wind_gusts":33.8,"aqi":37,"pm10":6.4,"pm2_5":6.2,"no2":7.4,"co":225.0,"o3":61.0,"so2":2.6,"mosquito_risk":6,"arthritis_risk":5,"migraine_risk":3,"frizz_risk":1,"updated_at":"2026-07-23T00:54:20.287137+05:30"},{"city":"Jabalpur","state":"Madhya Pradesh","latitude":23.1815,"longitude":79.9864,"temp":24.3,"humidity":97,"rain":0.1,"pressure":954.6,"uv_index":1.15,"wind_gusts":36.7,"aqi":29,"pm10":6.5,"pm2_5":6.3,"no2":8.1,"co":175.0,"o3":50.0,"so2":5.1,"mosquito_risk":6,"arthritis_risk":5,"migraine_risk":3,"frizz_risk":1,"updated_at":"2026-07-23T00:54:20.287143+05:30"},{"city":"Ujjain","state":"Madhya Pradesh","latitude":23.1765,"longitude":75.7885,"temp":23.3,"humidity":97,"rain":0.1,"pressure":946.1,"uv_index":2.65,"wind_gusts":43.9,"aqi":43,"pm10":14.6,"pm2_5":12.9,"no2":9.4,"co":247.0,"o3":51.0,"so2":6.2,"mosquito_risk":6,"arthritis_risk":5,"migraine_risk":3,"frizz_risk":1,"updated_at":"2026-07-23T00:54:20.287149+05:30"},{"city":"Visakhapatnam","state":"Andhra Pradesh","latitude":17.6868,"longitude":83.2185,"temp":27.5,"humidity":82,"rain":0.0,"pressure":1000.8,"uv_index":8.1,"wind_gusts":41.8,"aqi":64,"pm10":20.0,"pm2_5":15.9,"no2":18.1,"co":274.0,"o3":46.0,"so2":28.8,"mosquito_risk":7,"arthritis_risk":5,"migraine_risk":4,"frizz_risk":1,"updated_at":"2026-07-23T00:54:20.287156+05:30"},{"city":"Vijayawada","state":"Andhra Pradesh","latitude":16.5062,"longitude":80.648,"temp":28.3,"humidity":70,"rain":0.0,"pressure":1001.2,"uv_index":7.45,"wind_gusts":38.2,"aqi":56,"pm10":18.7,"pm2_5":11.1,"no2":8.4,"co":184.0,"o3":40.0,"so2":6.2,"mosquito_risk":7,"arthritis_risk":5,"migraine_risk":4,"frizz_risk":1,"updated_at":"2026-07-23T00:54:20.287162+05:30"},{"city":"Guntur","state":"Andhra Pradesh","latitude":16.3067,"longitude":80.4365,"temp":28.4,"humidity":68,"rain":0.0,"pressure":1002.6,"uv_index":8.2,"wind_gusts":43.6,"aqi":52,"pm10":24.8,"pm2_5":12.5,"no2":8.1,"co":184.0,"o3":39.0,"so2":6.3,"mosquito_risk":7,"arthritis_risk":5,"migraine_risk":4,"frizz_risk":1,"updated_at":"2026-07-23T00:54:20.287169+05:30"},{"city":"Nellore","state":"Andhra Pradesh","latitude":14.4426,"longitude":79.9865,"temp":27.6,"humidity":74,"rain":0.0,"pressure":1005.1,"uv_index":8.95,"wind_gusts":38.2,"aqi":63,"pm10":19.0,"pm2_5":12.3,"no2":12.0,"co":186.0,"o3":36.0,"so2":4.1,"mosquito_risk":7,"arthritis_risk":5,"migraine_risk":4,"frizz_risk":1,"updated_at":"2026-07-23T00:54:20.287176+05:30"},{"city":"Kurnool","state":"Andhra Pradesh","latitude":15.8281,"longitude":78.0373,"temp":26.4,"humidity":68,"rain":0.0,"pressure":976.3,"uv_index":8.75,"wind_gusts":48.2,"aqi":34,"pm10":6.1,"pm2_5":4.4,"no2":8.7,"co":124.0,"o3":31.0,"so2":4.2,"mosquito_risk":7,"arthritis_risk":5,"migraine_risk":7,"frizz_risk":1,"updated_at":"2026-07-23T00:54:20.287183+05:30"},{"city":"Kakinada","state":"Andhra Pradesh","latitude":16.9891,"longitude":82.2475,"temp":27.5,"humidity":79,"rain":0.0,"pressure":1005.4,"uv_index":8.3,"wind_gusts":48.2,"aqi":62,"pm10":21.8,"pm2_5":16.1,"no2":8.1,"co":265.0,"o3":64.0,"so2":5.6,"mosquito_risk":7,"arthritis_risk":5,"migraine_risk":4,"frizz_risk":1,"updated_at":"2026-07-23T00:54:20.287189+05:30"},{"city":"Tirupati","state":"Andhra Pradesh","latitude":13.6288,"longitude":79.4192,"temp":25.3,"humidity":96,"rain":0.0,"pressure":990.9,"uv_index":8.65,"wind_gusts":35.3,"aqi":61,"pm10":19.3,"pm2_5":15.5,"no2":22.6,"co":310.0,"o3":18.0,"so2":3.0,"mosquito_risk":7,"arthritis_risk":5,"migraine_risk":7,"frizz_risk":1,"updated_at":"2026-07-23T00:54:20.287195+05:30"},{"city":"Warangal","state":"Telangana","latitude":17.9689,"longitude":79.5941,"temp":24.1,"humidity":92,"rain":0.1,"pressure":976.4,"uv_index":7.35,"wind_gusts":47.5,"aqi":48,"pm10":12.3,"pm2_5":9.8,"no2":11.2,"co":218.0,"o3":38.0,"so2":4.3,"mosquito_risk":6,"arthritis_risk":5,"migraine_risk":7,"frizz_risk":1,"updated_at":"2026-07-23T00:54:20.287201+05:30"},{"city":"Nizamabad","state":"Telangana","latitude":18.6725,"longitude":78.0941,"temp":23.3,"humidity":91,"rain":0.1,"pressure":961.3,"uv_index":3.5,"wind_gusts":62.6,"aqi":35,"pm10":18.5,"pm2_5":8.8,"no2":5.7,"co":147.0,"o3":40.0,"so2":2.8,"mosquito_risk":6,"arthritis_risk":5,"migraine_risk":3,"frizz_risk":1,"updated_at":"2026-07-23T00:54:20.287207+05:30"},{"city":"Mysore","state":"Karnataka","latitude":12.2958,"longitude":76.6396,"temp":21.0,"humidity":95,"rain":0.0,"pressure":928.9,"uv_index":8.7,"wind_gusts":50.4,"aqi":24,"pm10":7.8,"pm2_5":5.5,"no2":9.7,"co":141.0,"o3":28.0,"so2":2.4,"mosquito_risk":3,"arthritis_risk":5,"migraine_risk":7,"frizz_risk":1,"updated_at":"2026-07-23T00:54:20.287213+05:30"},{"city":"Mangalore","state":"Karnataka","latitude":12.9141,"longitude":74.856,"temp":24.2,"humidity":98,"rain":0.1,"pressure":1008.0,"uv_index":8.8,"wind_gusts":44.3,"aqi":47,"pm10":18.2,"pm2_5":10.9,"no2":9.3,"co":330.0,"o3":28.0,"so2":2.8,"mosquito_risk":6,"arthritis_risk":0,"migraine_risk":4,"frizz_risk":1,"updated_at":"2026-07-23T00:54:20.287218+05:30"},{"city":"Hubli-Dharwad","state":"Karnataka","latitude":15.3647,"longitude":75.124,"temp":21.6,"humidity":97,"rain":0.1,"pressure":939.7,"uv_index":5.2,"wind_gusts":55.8,"aqi":18,"pm10":2.3,"pm2_5":1.5,"no2":3.6,"co":111.0,"o3":36.0,"so2":1.0,"mosquito_risk":6,"arthritis_risk":5,"migraine_risk":3,"frizz_risk":1,"updated_at":"2026-07-23T00:54:20.287225+05:30"},{"city":"Belgaum","state":"Karnataka","latitude":15.8497,"longitude":74.4977,"temp":20.8,"humidity":98,"rain":0.0,"pressure":923.8,"uv_index":5.9,"wind_gusts":50.4,"aqi":18,"pm10":4.2,"pm2_5":2.6,"no2":3.0,"co":100.0,"o3":38.0,"so2":1.2,"mosquito_risk":3,"arthritis_risk":5,"migraine_risk":3,"frizz_risk":1,"updated_at":"2026-07-23T00:54:23.555423+05:30"},{"city":"Coimbatore","state":"Tamil Nadu","latitude":11.0168,"longitude":76.9558,"temp":23.1,"humidity":93,"rain":0.0,"pressure":962.2,"uv_index":8.95,"wind_gusts":51.5,"aqi":34,"pm10":8.5,"pm2_5":6.8,"no2":10.6,"co":211.0,"o3":24.0,"so2":3.6,"mosquito_risk":3,"arthritis_risk":5,"migraine_risk":7,"frizz_risk":1,"updated_at":"2026-07-23T00:54:23.555459+05:30"},{"city":"Madurai","state":"Tamil Nadu","latitude":9.9252,"longitude":78.1198,"temp":28.8,"humidity":74,"rain":0.0,"pressure":993.2,"uv_index":8.7,"wind_gusts":29.9,"aqi":72,"pm10":20.6,"pm2_5":14.8,"no2":13.8,"co":437.0,"o3":51.0,"so2":5.8,"mosquito_risk":7,"arthritis_risk":5,"migraine_risk":7,"frizz_risk":1,"updated_at":"2026-07-23T00:54:23.555470+05:30"},{"city":"Trichy","state":"Tamil Nadu","latitude":10.7905,"longitude":78.7047,"temp":28.0,"humidity":79,"rain":0.0,"pressure":1000.0,"uv_index":8.1,"wind_gusts":45.4,"aqi":56,"pm10":29.8,"pm2_5":24.3,"no2":22.7,"co":146.0,"o3":32.0,"so2":6.0,"mosquito_risk":7,"arthritis_risk":5,"migraine_risk":4,"frizz_risk":1,"updated_at":"2026-07-23T00:54:23.555478+05:30"},{"city":"Salem","state":"Tamil Nadu","latitude":11.6643,"longitude":78.146,"temp":26.7,"humidity":79,"rain":0.0,"pressure":977.8,"uv_index":8.9,"wind_gusts":27.7,"aqi":63,"pm10":22.1,"pm2_5":18.3,"no2":28.0,"co":369.0,"o3":22.0,"so2":12.4,"mosquito_risk":7,"arthritis_risk":5,"migraine_risk":7,"frizz_risk":1,"updated_at":"2026-07-23T00:54:23.555486+05:30"},{"city":"Tirunelveli","state":"Tamil Nadu","latitude":8.7139,"longitude":77.7567,"temp":28.5,"humidity":70,"rain":0.0,"pressure":1003.9,"uv_index":7.9,"wind_gusts":49.0,"aqi":42,"pm10":8.5,"pm2_5":7.2,"no2":8.5,"co":150.0,"o3":34.0,"so2":2.8,"mosquito_risk":7,"arthritis_risk":5,"migraine_risk":4,"frizz_risk":1,"updated_at":"2026-07-23T00:54:23.555493+05:30"},{"city":"Vellore","state":"Tamil Nadu","latitude":12.9165,"longitude":79.1325,"temp":26.2,"humidity":96,"rain":0.0,"pressure":984.4,"uv_index":8.75,"wind_gusts":39.2,"aqi":62,"pm10":13.0,"pm2_5":11.2,"no2":18.5,"co":210.0,"o3":24.0,"so2":4.6,"mosquito_risk":7,"arthritis_risk":5,"migraine_risk":7,"frizz_risk":1,"updated_at":"2026-07-23T00:54:23.555501+05:30"},{"city":"Erode","state":"Tamil Nadu","latitude":11.341,"longitude":77.7172,"temp":26.8,"humidity":74,"rain":0.0,"pressure":989.5,"uv_index":8.8,"wind_gusts":39.6,"aqi":53,"pm10":14.1,"pm2_5":12.0,"no2":18.7,"co":192.0,"o3":24.0,"so2":4.7,"mosquito_risk":7,"arthritis_risk":5,"migraine_risk":7,"frizz_risk":1,"updated_at":"2026-07-23T00:54:23.555508+05:30"},{"city":"Kochi","state":"Kerala","latitude":9.9312,"longitude":76.2673,"temp":25.5,"humidity":94,"rain":0.0,"pressure":1010.3,"uv_index":7.75,"wind_gusts":27.7,"aqi":60,"pm10":22.2,"pm2_5":20.3,"no2":26.1,"co":205.0,"o3":7.0,"so2":7.2,"mosquito_risk":7,"arthritis_risk":0,"migraine_risk":4,"frizz_risk":1,"updated_at":"2026-07-23T00:54:23.555516+05:30"},{"city":"Thiruvananthapuram","state":"Kerala","latitude":8.5241,"longitude":76.9366,"temp":25.3,"humidity":92,"rain":0.0,"pressure":1009.9,"uv_index":7.0,"wind_gusts":40.3,"aqi":48,"pm10":9.4,"pm2_5":6.2,"no2":4.4,"co":175.0,"o3":40.0,"so2":2.2,"mosquito_risk":7,"arthritis_risk":0,"migraine_risk":4,"frizz_risk":1,"updated_at":"2026-07-23T00:54:23.555523+05:30"},{"city":"Kozhikode","state":"Kerala","latitude":11.2588,"longitude":75.7804,"temp":25.0,"humidity":91,"rain":0.0,"pressure":1009.4,"uv_index":8.5,"wind_gusts":36.0,"aqi":33,"pm10":11.1,"pm2_5":6.6,"no2":3.4,"co":396.0,"o3":41.0,"so2":1.8,"mosquito_risk":7,"arthritis_risk":0,"migraine_risk":4,"frizz_risk":1,"updated_at":"2026-07-23T00:54:23.555529+05:30"},{"city":"Thrissur","state":"Kerala","latitude":10.5276,"longitude":76.2144,"temp":23.6,"humidity":100,"rain":0.0,"pressure":1008.7,"uv_index":8.65,"wind_gusts":32.8,"aqi":59,"pm10":24.2,"pm2_5":22.0,"no2":22.0,"co":424.0,"o3":10.0,"so2":6.1,"mosquito_risk":3,"arthritis_risk":0,"migraine_risk":4,"frizz_risk":1,"updated_at":"2026-07-23T00:54:23.555536+05:30"},{"city":"Kannur","state":"Kerala","latitude":11.8745,"longitude":75.3704,"temp":24.4,"humidity":94,"rain":0.1,"pressure":1008.6,"uv_index":8.5,"wind_gusts":34.2,"aqi":41,"pm10":16.6,"pm2_5":12.9,"no2":16.8,"co":271.0,"o3":15.0,"so2":3.4,"mosquito_risk":6,"arthritis_risk":0,"migraine_risk":4,"frizz_risk":1,"updated_at":"2026-07-23T00:54:23.555543+05:30"},{"city":"Patna","state":"Bihar","latitude":25.5941,"longitude":85.1376,"temp":25.9,"humidity":94,"rain":0.0,"pressure":995.8,"uv_index":7.1,"wind_gusts":36.7,"aqi":58,"pm10":17.6,"pm2_5":17.6,"no2":13.6,"co":257.0,"o3":68.0,"so2":11.0,"mosquito_risk":7,"arthritis_risk":5,"migraine_risk":7,"frizz_risk":1,"updated_at":"2026-07-23T00:54:23.555550+05:30"},{"city":"Gaya","state":"Bihar","latitude":24.7914,"longitude":85.0002,"temp":26.3,"humidity":91,"rain":0.0,"pressure":988.5,"uv_index":7.6,"wind_gusts":23.4,"aqi":52,"pm10":12.6,"pm2_5":12.6,"no2":20.9,"co":362.0,"o3":30.0,"so2":16.8,"mosquito_risk":7,"arthritis_risk":5,"migraine_risk":7,"frizz_risk":1,"updated_at":"2026-07-23T00:54:23.555556+05:30"},{"city":"Muzaffarpur","state":"Bihar","latitude":26.1209,"longitude":85.3647,"temp":25.8,"humidity":93,"rain":0.0,"pressure":996.4,"uv_index":6.7,"wind_gusts":45.0,"aqi":62,"pm10":15.4,"pm2_5":15.4,"no2":11.3,"co":285.0,"o3":68.0,"so2":7.6,"mosquito_risk":7,"arthritis_risk":5,"migraine_risk":7,"frizz_risk":1,"updated_at":"2026-07-23T00:54:23.555563+05:30"},{"city":"Bhagalpur","state":"Bihar","latitude":25.2425,"longitude":87.0117,"temp":25.8,"humidity":95,"rain":0.0,"pressure":997.5,"uv_index":7.4,"wind_gusts":35.6,"aqi":57,"pm10":15.7,"pm2_5":15.7,"no2":14.7,"co":241.0,"o3":57.0,"so2":11.5,"mosquito_risk":7,"arthritis_risk":5,"migraine_risk":7,"frizz_risk":1,"updated_at":"2026-07-23T00:54:23.555570+05:30"},{"city":"Ranchi","state":"Jharkhand","latitude":23.3441,"longitude":85.3096,"temp":22.3,"humidity":97,"rain":0.0,"pressure":932.6,"uv_index":5.8,"wind_gusts":38.9,"aqi":33,"pm10":3.6,"pm2_5":3.4,"no2":8.1,"co":187.0,"o3":42.0,"so2":7.5,"mosquito_risk":3,"arthritis_risk":5,"migraine_risk":3,"frizz_risk":1,"updated_at":"2026-07-23T00:54:23.555577+05:30"},{"city":"Jamshedpur","state":"Jharkhand","latitude":22.8046,"longitude":86.2029,"temp":25.0,"humidity":94,"rain":0.0,"pressure":986.8,"uv_index":8.35,"wind_gusts":35.6,"aqi":61,"pm10":19.2,"pm2_5":18.7,"no2":25.5,"co":327.0,"o3":30.0,"so2":23.9,"mosquito_risk":7,"arthritis_risk":5,"migraine_risk":7,"frizz_risk":1,"updated_at":"2026-07-23T00:54:23.555584+05:30"},{"city":"Dhanbad","state":"Jharkhand","latitude":23.7957,"longitude":86.4304,"temp":25.1,"humidity":97,"rain":0.0,"pressure":975.4,"uv_index":6.4,"wind_gusts":32.0,"aqi":80,"pm10":32.8,"pm2_5":32.1,"no2":48.6,"co":1294.0,"o3":9.0,"so2":106.5,"mosquito_risk":7,"arthritis_risk":5,"migraine_risk":7,"frizz_risk":1,"updated_at":"2026-07-23T00:54:23.555591+05:30"},{"city":"Bokaro","state":"Jharkhand","latitude":23.6693,"longitude":86.1511,"temp":25.5,"humidity":91,"rain":0.0,"pressure":979.2,"uv_index":6.85,"wind_gusts":36.4,"aqi":76,"pm10":21.7,"pm2_5":21.2,"no2":28.9,"co":422.0,"o3":25.0,"so2":72.0,"mosquito_risk":7,"arthritis_risk":5,"migraine_risk":7,"frizz_risk":1,"updated_at":"2026-07-23T00:54:23.555599+05:30"},{"city":"Bhubaneswar","state":"Odisha","latitude":20.2961,"longitude":85.8245,"temp":26.8,"humidity":94,"rain":0.0,"pressure":999.0,"uv_index":8.65,"wind_gusts":41.8,"aqi":62,"pm10":22.1,"pm2_5":18.9,"no2":9.4,"co":221.0,"o3":76.0,"so2":9.3,"mosquito_risk":7,"arthritis_risk":5,"migraine_risk":7,"frizz_risk":1,"updated_at":"2026-07-23T00:54:23.555606+05:30"},{"city":"Cuttack","state":"Odisha","latitude":20.4625,"longitude":85.8828,"temp":27.0,"humidity":94,"rain":0.1,"pressure":1000.7,"uv_index":8.45,"wind_gusts":42.1,"aqi":62,"pm10":22.1,"pm2_5":18.9,"no2":9.4,"co":260.0,"o3":76.0,"so2":9.3,"mosquito_risk":10,"arthritis_risk":5,"migraine_risk":4,"frizz_risk":1,"updated_at":"2026-07-23T00:54:23.555613+05:30"},{"city":"Rourkela","state":"Odisha","latitude":22.2604,"longitude":84.8536,"temp":24.2,"humidity":94,"rain":0.1,"pressure":980.6,"uv_index":4.25,"wind_gusts":47.9,"aqi":44,"pm10":7.2,"pm2_5":6.3,"no2":6.8,"co":204.0,"o3":45.0,"so2":3.5,"mosquito_risk":6,"arthritis_risk":5,"migraine_risk":3,"frizz_risk":1,"updated_at":"2026-07-23T00:54:23.555621+05:30"},{"city":"Raipur","state":"Chhattisgarh","latitude":21.2514,"longitude":81.6296,"temp":25.0,"humidity":86,"rain":0.0,"pressure":970.0,"uv_index":2.55,"wind_gusts":56.9,"aqi":54,"pm10":9.7,"pm2_5":8.4,"no2":14.0,"co":212.0,"o3":40.0,"so2":21.0,"mosquito_risk":7,"arthritis_risk":5,"migraine_risk":3,"frizz_risk":1,"updated_at":"2026-07-23T00:54:23.555628+05:30"},{"city":"Bhilai","state":"Chhattisgarh","latitude":21.1938,"longitude":81.3509,"temp":24.8,"humidity":87,"rain":0.0,"pressure":970.5,"uv_index":4.25,"wind_gusts":58.7,"aqi":52,"pm10":8.5,"pm2_5":7.6,"no2":13.5,"co":312.0,"o3":39.0,"so2":20.3,"mosquito_risk":3,"arthritis_risk":5,"migraine_risk":3,"frizz_risk":1,"updated_at":"2026-07-23T00:54:23.555635+05:30"},{"city":"Guwahati","state":"Assam","latitude":26.1158,"longitude":91.7086,"temp":25.7,"humidity":97,"rain":0.0,"pressure":998.9,"uv_index":7.1,"wind_gusts":22.3,"aqi":42,"pm10":8.9,"pm2_5":8.7,"no2":9.4,"co":222.0,"o3":37.0,"so2":1.9,"mosquito_risk":7,"arthritis_risk":5,"migraine_risk":7,"frizz_risk":1,"updated_at":"2026-07-23T00:54:23.555642+05:30"},{"city":"Agartala","state":"Tripura","latitude":23.8315,"longitude":91.2868,"temp":24.9,"humidity":96,"rain":0.0,"pressure":1003.9,"uv_index":7.8,"wind_gusts":35.3,"aqi":37,"pm10":7.8,"pm2_5":7.5,"no2":9.2,"co":176.0,"o3":55.0,"so2":1.8,"mosquito_risk":3,"arthritis_risk":5,"migraine_risk":4,"frizz_risk":1,"updated_at":"2026-07-23T00:54:23.555648+05:30"},{"city":"Shillong","state":"Meghalaya","latitude":25.5788,"longitude":91.8933,"temp":19.7,"humidity":94,"rain":0.1,"pressure":856.0,"uv_index":4.75,"wind_gusts":25.2,"aqi":25,"pm10":2.6,"pm2_5":2.4,"no2":5.3,"co":207.0,"o3":47.0,"so2":1.7,"mosquito_risk":6,"arthritis_risk":10,"migraine_risk":3,"frizz_risk":1,"updated_at":"2026-07-23T00:54:23.555656+05:30"},{"city":"Imphal","state":"Manipur","latitude":24.817,"longitude":93.9368,"temp":21.4,"humidity":98,"rain":0.0,"pressure":921.8,"uv_index":7.25,"wind_gusts":23.8,"aqi":44,"pm10":16.5,"pm2_5":16.1,"no2":17.4,"co":348.0,"o3":16.0,"so2":2.7,"mosquito_risk":3,"arthritis_risk":5,"migraine_risk":7,"frizz_risk":1,"updated_at":"2026-07-23T00:54:23.555663+05:30"},{"city":"Aizawl","state":"Mizoram","latitude":23.7271,"longitude":92.7176,"temp":19.5,"humidity":96,"rain":0.0,"pressure":890.8,"uv_index":8.45,"wind_gusts":36.0,"aqi":22,"pm10":1.6,"pm2_5":1.4,"no2":2.8,"co":133.0,"o3":48.0,"so2":0.5,"mosquito_risk":3,"arthritis_risk":10,"migraine_risk":7,"frizz_risk":1,"updated_at":"2026-07-23T00:54:23.555670+05:30"},{"city":"Kohima","state":"Nagaland","latitude":25.6701,"longitude":94.1077,"temp":19.3,"humidity":100,"rain":0.2,"pressure":854.4,"uv_index":5.9,"wind_gusts":20.9,"aqi":26,"pm10":5.8,"pm2_5":5.7,"no2":10.3,"co":225.0,"o3":21.0,"so2":0.7,"mosquito_risk":6,"arthritis_risk":10,"migraine_risk":3,"frizz_risk":1,"updated_at":"2026-07-23T00:54:23.555676+05:30"},{"city":"Gangtok","state":"Sikkim","latitude":27.3314,"longitude":88.6138,"temp":18.0,"humidity":94,"rain":0.1,"pressure":836.9,"uv_index":7.3,"wind_gusts":31.3,"aqi":36,"pm10":3.9,"pm2_5":3.7,"no2":5.6,"co":235.0,"o3":79.0,"so2":1.2,"mosquito_risk":6,"arthritis_risk":10,"migraine_risk":7,"frizz_risk":1,"updated_at":"2026-07-23T00:54:23.555684+05:30"},{"city":"Siliguri","state":"West Bengal","latitude":26.7271,"longitude":88.3953,"temp":24.4,"humidity":96,"rain":0.2,"pressure":990.8,"uv_index":8.45,"wind_gusts":30.6,"aqi":54,"pm10":13.1,"pm2_5":12.7,"no2":14.1,"co":216.0,"o3":64.0,"so2":3.6,"mosquito_risk":6,"arthritis_risk":5,"migraine_risk":7,"frizz_risk":1,"updated_at":"2026-07-23T00:54:26.813051+05:30"},{"city":"Durgapur","state":"West Bengal","latitude":23.5204,"longitude":87.3119,"temp":25.7,"humidity":97,"rain":0.1,"pressure":991.1,"uv_index":7.55,"wind_gusts":31.3,"aqi":71,"pm10":28.4,"pm2_5":27.6,"no2":34.7,"co":389.0,"o3":24.0,"so2":38.2,"mosquito_risk":10,"arthritis_risk":5,"migraine_risk":7,"frizz_risk":1,"updated_at":"2026-07-23T00:54:26.813086+05:30"},{"city":"Asansol","state":"West Bengal","latitude":23.6739,"longitude":86.9524,"temp":25.6,"humidity":95,"rain":0.2,"pressure":989.4,"uv_index":6.55,"wind_gusts":29.9,"aqi":66,"pm10":21.9,"pm2_5":21.4,"no2":38.2,"co":509.0,"o3":19.0,"so2":46.7,"mosquito_risk":10,"arthritis_risk":5,"migraine_risk":7,"frizz_risk":1,"updated_at":"2026-07-23T00:54:26.813098+05:30"},{"city":"Pondicherry","state":"Puducherry","latitude":11.9139,"longitude":79.8145,"temp":28.7,"humidity":74,"rain":0.0,"pressure":1008.2,"uv_index":8.1,"wind_gusts":40.3,"aqi":69,"pm10":35.5,"pm2_5":26.5,"no2":22.5,"co":230.0,"o3":50.0,"so2":9.7,"mosquito_risk":7,"arthritis_risk":0,"migraine_risk":4,"frizz_risk":1,"updated_at":"2026-07-23T00:54:26.813106+05:30"},{"city":"Port Blair","state":"Andaman and Nicobar Islands","latitude":11.6234,"longitude":92.7265,"temp":27.5,"humidity":83,"rain":0.0,"pressure":1007.6,"uv_index":8.7,"wind_gusts":38.5,"aqi":48,"pm10":15.4,"pm2_5":9.0,"no2":0.2,"co":92.0,"o3":45.0,"so2":0.5,"mosquito_risk":7,"arthritis_risk":5,"migraine_risk":4,"frizz_risk":1,"updated_at":"2026-07-23T00:54:26.813114+05:30"},{"city":"Haridwar","state":"Uttarakhand","latitude":29.9457,"longitude":78.1642,"temp":26.3,"humidity":94,"rain":0.0,"pressure":969.1,"uv_index":7.3,"wind_gusts":30.6,"aqi":74,"pm10":25.8,"pm2_5":25.6,"no2":20.2,"co":313.0,"o3":40.0,"so2":5.8,"mosquito_risk":7,"arthritis_risk":5,"migraine_risk":7,"frizz_risk":1,"updated_at":"2026-07-23T00:54:26.813122+05:30"},{"city":"Rishikesh","state":"Uttarakhand","latitude":30.0869,"longitude":78.2676,"temp":24.7,"humidity":95,"rain":0.0,"pressure":961.9,"uv_index":7.3,"wind_gusts":24.5,"aqi":56,"pm10":15.5,"pm2_5":15.3,"no2":11.1,"co":446.0,"o3":63.0,"so2":3.4,"mosquito_risk":3,"arthritis_risk":5,"migraine_risk":7,"frizz_risk":1,"updated_at":"2026-07-23T00:54:26.813129+05:30"},{"city":"Nainital","state":"Uttarakhand","latitude":29.3919,"longitude":79.4542,"temp":15.8,"humidity":92,"rain":0.0,"pressure":802.7,"uv_index":6.75,"wind_gusts":42.8,"aqi":56,"pm10":14.1,"pm2_5":13.9,"no2":10.2,"co":237.0,"o3":61.0,"so2":2.1,"mosquito_risk":3,"arthritis_risk":10,"migraine_risk":7,"frizz_risk":0,"updated_at":"2026-07-23T00:54:26.813137+05:30"},{"city":"Mussoorie","state":"Uttarakhand","latitude":30.4599,"longitude":78.0664,"temp":15.8,"humidity":99,"rain":0.0,"pressure":800.2,"uv_index":7.0,"wind_gusts":27.4,"aqi":56,"pm10":27.0,"pm2_5":26.9,"no2":43.4,"co":336.0,"o3":16.0,"so2":5.9,"mosquito_risk":3,"arthritis_risk":10,"migraine_risk":7,"frizz_risk":0,"updated_at":"2026-07-23T00:54:26.813144+05:30"},{"city":"Dharamshala","state":"Himachal Pradesh","latitude":32.219,"longitude":76.3234,"temp":21.8,"humidity":81,"rain":0.0,"pressure":866.7,"uv_index":7.6,"wind_gusts":25.9,"aqi":34,"pm10":8.5,"pm2_5":8.2,"no2":19.4,"co":369.0,"o3":40.0,"so2":1.0,"mosquito_risk":3,"arthritis_risk":5,"migraine_risk":7,"frizz_risk":1,"updated_at":"2026-07-23T00:54:26.813151+05:30"},{"city":"Dalhousie","state":"Himachal Pradesh","latitude":32.5387,"longitude":75.971,"temp":16.4,"humidity":98,"rain":0.0,"pressure":802.5,"uv_index":1.4,"wind_gusts":20.5,"aqi":63,"pm10":22.9,"pm2_5":22.5,"no2":25.6,"co":424.0,"o3":69.0,"so2":3.1,"mosquito_risk":3,"arthritis_risk":10,"migraine_risk":3,"frizz_risk":1,"updated_at":"2026-07-23T00:54:26.813159+05:30"},{"city":"Patiala","state":"Punjab","latitude":30.3398,"longitude":76.3869,"temp":28.0,"humidity":84,"rain":0.0,"pressure":972.8,"uv_index":7.5,"wind_gusts":41.0,"aqi":92,"pm10":65.2,"pm2_5":52.4,"no2":38.7,"co":459.0,"o3":33.0,"so2":10.3,"mosquito_risk":7,"arthritis_risk":5,"migraine_risk":7,"frizz_risk":1,"updated_at":"2026-07-23T00:54:26.813166+05:30"},{"city":"Bhatinda","state":"Punjab","latitude":30.211,"longitude":74.9455,"temp":27.8,"humidity":94,"rain":0.1,"pressure":977.9,"uv_index":6.9,"wind_gusts":28.1,"aqi":91,"pm10":55.6,"pm2_5":55.3,"no2":25.2,"co":440.0,"o3":54.0,"so2":10.3,"mosquito_risk":10,"arthritis_risk":5,"migraine_risk":7,"frizz_risk":1,"updated_at":"2026-07-23T00:54:26.813172+05:30"},{"city":"Rohtak","state":"Haryana","latitude":28.8955,"longitude":76.6066,"temp":28.0,"humidity":87,"rain":0.0,"pressure":975.7,"uv_index":6.55,"wind_gusts":37.8,"aqi":111,"pm10":34.6,"pm2_5":34.5,"no2":35.1,"co":522.0,"o3":58.0,"so2":26.6,"mosquito_risk":7,"arthritis_risk":5,"migraine_risk":7,"frizz_risk":1,"updated_at":"2026-07-23T00:54:26.813178+05:30"},{"city":"Panipat","state":"Haryana","latitude":29.3909,"longitude":76.9635,"temp":28.4,"humidity":82,"rain":0.0,"pressure":974.8,"uv_index":7.3,"wind_gusts":39.2,"aqi":101,"pm10":37.5,"pm2_5":37.5,"no2":24.1,"co":395.0,"o3":64.0,"so2":13.9,"mosquito_risk":7,"arthritis_risk":5,"migraine_risk":7,"frizz_risk":1,"updated_at":"2026-07-23T00:54:26.813185+05:30"},{"city":"Mathura","state":"Uttar Pradesh","latitude":27.4924,"longitude":77.6737,"temp":28.0,"humidity":84,"rain":0.0,"pressure":980.1,"uv_index":7.05,"wind_gusts":37.1,"aqi":85,"pm10":21.2,"pm2_5":21.2,"no2":17.9,"co":331.0,"o3":71.0,"so2":8.0,"mosquito_risk":7,"arthritis_risk":5,"migraine_risk":7,"frizz_risk":1,"updated_at":"2026-07-23T00:54:26.813191+05:30"},{"city":"Vrindavan","state":"Uttar Pradesh","latitude":27.5823,"longitude":77.7027,"temp":28.0,"humidity":83,"rain":0.0,"pressure":980.7,"uv_index":7.1,"wind_gusts":36.4,"aqi":85,"pm10":21.2,"pm2_5":21.2,"no2":17.9,"co":341.0,"o3":71.0,"so2":8.0,"mosquito_risk":7,"arthritis_risk":5,"migraine_risk":7,"frizz_risk":1,"updated_at":"2026-07-23T00:54:26.813198+05:30"},{"city":"Ayodhya","state":"Uttar Pradesh","latitude":26.7922,"longitude":82.1998,"temp":26.7,"humidity":91,"rain":0.0,"pressure":990.0,"uv_index":6.85,"wind_gusts":45.4,"aqi":71,"pm10":16.2,"pm2_5":16.2,"no2":9.2,"co":331.0,"o3":78.0,"so2":5.6,"mosquito_risk":7,"arthritis_risk":5,"migraine_risk":7,"frizz_risk":1,"updated_at":"2026-07-23T00:54:26.813204+05:30"},{"city":"Ratlam","state":"Madhya Pradesh","latitude":23.3315,"longitude":75.0367,"temp":23.3,"humidity":98,"rain":0.2,"pressure":946.9,"uv_index":2.65,"wind_gusts":46.4,"aqi":43,"pm10":15.0,"pm2_5":12.8,"no2":9.3,"co":178.0,"o3":51.0,"so2":7.2,"mosquito_risk":6,"arthritis_risk":5,"migraine_risk":3,"frizz_risk":1,"updated_at":"2026-07-23T00:54:26.813212+05:30"},{"city":"Sagar","state":"Madhya Pradesh","latitude":23.8388,"longitude":78.7378,"temp":23.8,"humidity":97,"rain":0.0,"pressure":942.4,"uv_index":2.15,"wind_gusts":35.6,"aqi":34,"pm10":5.4,"pm2_5":5.4,"no2":6.9,"co":200.0,"o3":64.0,"so2":1.4,"mosquito_risk":3,"arthritis_risk":5,"migraine_risk":3,"frizz_risk":1,"updated_at":"2026-07-23T00:54:26.813218+05:30"},{"city":"Satna","state":"Madhya Pradesh","latitude":24.6005,"longitude":80.8322,"temp":25.2,"humidity":98,"rain":0.0,"pressure":963.9,"uv_index":3.95,"wind_gusts":36.7,"aqi":57,"pm10":14.0,"pm2_5":13.9,"no2":10.3,"co":281.0,"o3":72.0,"so2":7.5,"mosquito_risk":7,"arthritis_risk":5,"migraine_risk":3,"frizz_risk":1,"updated_at":"2026-07-23T00:54:26.813225+05:30"},{"city":"Akola","state":"Maharashtra","latitude":20.7002,"longitude":77.0082,"temp":24.7,"humidity":88,"rain":0.0,"pressure":969.2,"uv_index":1.9,"wind_gusts":61.6,"aqi":21,"pm10":4.1,"pm2_5":3.9,"no2":8.3,"co":144.0,"o3":34.0,"so2":4.8,"mosquito_risk":3,"arthritis_risk":5,"migraine_risk":3,"frizz_risk":1,"updated_at":"2026-07-23T00:54:26.813233+05:30"},{"city":"Amravati","state":"Maharashtra","latitude":20.9374,"longitude":77.7796,"temp":24.4,"humidity":88,"rain":0.1,"pressure":961.6,"uv_index":3.55,"wind_gusts":60.1,"aqi":21,"pm10":5.5,"pm2_5":4.6,"no2":8.4,"co":142.0,"o3":36.0,"so2":5.3,"mosquito_risk":6,"arthritis_risk":5,"migraine_risk":3,"frizz_risk":1,"updated_at":"2026-07-23T00:54:26.813240+05:30"},{"city":"Latur","state":"Maharashtra","latitude":18.4088,"longitude":76.5604,"temp":23.3,"humidity":73,"rain":0.0,"pressure":936.2,"uv_index":6.25,"wind_gusts":60.5,"aqi":28,"pm10":35.9,"pm2_5":15.3,"no2":4.4,"co":133.0,"o3":49.0,"so2":1.9,"mosquito_risk":3,"arthritis_risk":5,"migraine_risk":7,"frizz_risk":1,"updated_at":"2026-07-23T00:54:26.813248+05:30"},{"city":"Nanded","state":"Maharashtra","latitude":19.1383,"longitude":77.3091,"temp":23.5,"humidity":87,"rain":0.0,"pressure":964.7,"uv_index":1.85,"wind_gusts":52.2,"aqi":34,"pm10":36.1,"pm2_5":16.6,"no2":5.4,"co":150.0,"o3":48.0,"so2":3.6,"mosquito_risk":3,"arthritis_risk":5,"migraine_risk":3,"frizz_risk":1,"updated_at":"2026-07-23T00:54:26.813254+05:30"},{"city":"Gulbarga","state":"Karnataka","latitude":17.3297,"longitude":76.8343,"temp":24.0,"humidity":80,"rain":0.0,"pressure":956.3,"uv_index":4.25,"wind_gusts":71.3,"aqi":28,"pm10":9.4,"pm2_5":5.0,"no2":6.7,"co":136.0,"o3":36.0,"so2":2.8,"mosquito_risk":3,"arthritis_risk":5,"migraine_risk":3,"frizz_risk":1,"updated_at":"2026-07-23T00:54:26.813260+05:30"},{"city":"Bidar","state":"Karnataka","latitude":17.9104,"longitude":77.5199,"temp":22.3,"humidity":92,"rain":0.0,"pressure":932.5,"uv_index":6.4,"wind_gusts":67.0,"aqi":29,"pm10":6.0,"pm2_5":4.0,"no2":7.4,"co":132.0,"o3":33.0,"so2":2.7,"mosquito_risk":3,"arthritis_risk":5,"migraine_risk":7,"frizz_risk":1,"updated_at":"2026-07-23T00:54:26.813267+05:30"},{"city":"Hospet","state":"Karnataka","latitude":15.2689,"longitude":76.3909,"temp":23.5,"humidity":85,"rain":0.0,"pressure":955.3,"uv_index":6.2,"wind_gusts":56.2,"aqi":19,"pm10":3.7,"pm2_5":2.4,"no2":4.9,"co":120.0,"o3":34.0,"so2":1.6,"mosquito_risk":3,"arthritis_risk":5,"migraine_risk":7,"frizz_risk":1,"updated_at":"2026-07-23T00:54:26.813273+05:30"},{"city":"Tirupur","state":"Tamil Nadu","latitude":11.1085,"longitude":77.3411,"temp":24.6,"humidity":86,"rain":0.0,"pressure":975.9,"uv_index":8.9,"wind_gusts":52.9,"aqi":55,"pm10":16.5,"pm2_5":14.3,"no2":21.8,"co":183.0,"o3":21.0,"so2":6.0,"mosquito_risk":3,"arthritis_risk":5,"migraine_risk":7,"frizz_risk":1,"updated_at":"2026-07-23T00:54:26.813279+05:30"},{"city":"Alappuzha","state":"Kerala","latitude":9.4981,"longitude":76.3388,"temp":25.8,"humidity":96,"rain":0.0,"pressure":1010.4,"uv_index":8.3,"wind_gusts":29.5,"aqi":57,"pm10":15.5,"pm2_5":12.1,"no2":14.2,"co":141.0,"o3":30.0,"so2":5.0,"mosquito_risk":7,"arthritis_risk":0,"migraine_risk":4,"frizz_risk":1,"updated_at":"2026-07-23T00:54:26.813286+05:30"},{"city":"Munnar","state":"Kerala","latitude":10.0889,"longitude":77.0595,"temp":16.5,"humidity":97,"rain":0.0,"pressure":857.3,"uv_index":7.55,"wind_gusts":36.7,"aqi":40,"pm10":8.4,"pm2_5":7.3,"no2":10.0,"co":102.0,"o3":21.0,"so2":1.8,"mosquito_risk":3,"arthritis_risk":10,"migraine_risk":7,"frizz_risk":0,"updated_at":"2026-07-23T00:54:26.813293+05:30"},{"city":"Silchar","state":"Assam","latitude":24.8333,"longitude":92.7789,"temp":25.3,"humidity":97,"rain":0.1,"pressure":1003.6,"uv_index":7.0,"wind_gusts":32.0,"aqi":53,"pm10":15.6,"pm2_5":14.4,"no2":8.1,"co":192.0,"o3":57.0,"so2":5.5,"mosquito_risk":10,"arthritis_risk":5,"migraine_risk":4,"frizz_risk":1,"updated_at":"2026-07-23T00:54:26.813299+05:30"},{"city":"Dibrugarh","state":"Assam","latitude":27.4728,"longitude":94.912,"temp":25.9,"humidity":96,"rain":0.1,"pressure":993.0,"uv_index":8.25,"wind_gusts":24.5,"aqi":46,"pm10":4.3,"pm2_5":4.2,"no2":5.4,"co":231.0,"o3":73.0,"so2":1.1,"mosquito_risk":10,"arthritis_risk":5,"migraine_risk":7,"frizz_risk":1,"updated_at":"2026-07-23T00:54:26.813305+05:30"}]