[{"city":"Delhi","state":"Delhi","latitude":28.6139,"longitude":77.209,"temp":34.9,"humidity":42,"rain":0.0,"pressure":976.3,"uv_index":7.55,"wind_gusts":30.2,"aqi":165,"pm10":256.1,"pm2_5":66.1,"no2":9.7,"co":344.0,"o3":143.0,"so2":13.9,"mosquito_risk":0,"arthritis_risk":5,"migraine_risk":7,"frizz_risk":1,"updated_at":"2026-06-05T18:11:46.991627+05:30"},{"city":"Mumbai","state":"Maharashtra","latitude":19.076,"longitude":72.8777,"temp":31.8,"humidity":68,"rain":0.0,"pressure":1003.1,"uv_index":7.55,"wind_gusts":42.5,"aqi":70,"pm10":42.4,"pm2_5":20.3,"no2":7.3,"co":182.0,"o3":66.0,"so2":5.4,"mosquito_risk":3,"arthritis_risk":5,"migraine_risk":4,"frizz_risk":1,"updated_at":"2026-06-05T18:11:46.991662+05:30"},{"city":"Bangalore","state":"Karnataka","latitude":12.9716,"longitude":77.5946,"temp":24.4,"humidity":75,"rain":0.0,"pressure":908.9,"uv_index":8.9,"wind_gusts":51.8,"aqi":32,"pm10":6.9,"pm2_5":5.4,"no2":13.0,"co":490.0,"o3":58.0,"so2":3.0,"mosquito_risk":3,"arthritis_risk":5,"migraine_risk":7,"frizz_risk":1,"updated_at":"2026-06-05T18:11:46.991677+05:30"},{"city":"Hyderabad","state":"Telangana","latitude":17.385,"longitude":78.4867,"temp":32.3,"humidity":45,"rain":0.0,"pressure":948.0,"uv_index":7.65,"wind_gusts":37.8,"aqi":68,"pm10":46.4,"pm2_5":27.9,"no2":7.3,"co":347.0,"o3":114.0,"so2":4.5,"mosquito_risk":0,"arthritis_risk":5,"migraine_risk":7,"frizz_risk":1,"updated_at":"2026-06-05T18:11:46.991686+05:30"},{"city":"Chennai","state":"Tamil Nadu","latitude":13.0827,"longitude":80.2707,"temp":33.0,"humidity":55,"rain":0.1,"pressure":1001.8,"uv_index":8.55,"wind_gusts":48.6,"aqi":78,"pm10":24.8,"pm2_5":18.3,"no2":6.8,"co":391.0,"o3":127.0,"so2":6.5,"mosquito_risk":3,"arthritis_risk":5,"migraine_risk":4,"frizz_risk":1,"updated_at":"2026-06-05T18:11:46.991716+05:30"},{"city":"Kolkata","state":"West Bengal","latitude":22.5726,"longitude":88.3639,"temp":32.0,"humidity":74,"rain":0.0,"pressure":997.7,"uv_index":8.65,"wind_gusts":32.8,"aqi":131,"pm10":50.2,"pm2_5":45.9,"no2":10.5,"co":687.0,"o3":131.0,"so2":13.1,"mosquito_risk":3,"arthritis_risk":5,"migraine_risk":7,"frizz_risk":1,"updated_at":"2026-06-05T18:11:46.991725+05:30"},{"city":"Pune","state":"Maharashtra","latitude":18.5204,"longitude":73.8567,"temp":28.5,"humidity":69,"rain":0.1,"pressure":943.7,"uv_index":8.25,"wind_gusts":50.4,"aqi":46,"pm10":20.1,"pm2_5":10.7,"no2":4.0,"co":158.0,"o3":89.0,"so2":3.7,"mosquito_risk":10,"arthritis_risk":5,"migraine_risk":7,"frizz_risk":1,"updated_at":"2026-06-05T18:11:46.991732+05:30"},{"city":"Ahmedabad","state":"Gujarat","latitude":23.0225,"longitude":72.5714,"temp":38.5,"humidity":39,"rain":0.0,"pressure":993.7,"uv_index":8.1,"wind_gusts":39.2,"aqi":80,"pm10":79.9,"pm2_5":30.6,"no2":2.7,"co":156.0,"o3":90.0,"so2":2.9,"mosquito_risk":0,"arthritis_risk":5,"migraine_risk":10,"frizz_risk":1,"updated_at":"2026-06-05T18:11:46.991740+05:30"},{"city":"Jaipur","state":"Rajasthan","latitude":26.9124,"longitude":75.7873,"temp":35.5,"humidity":34,"rain":0.0,"pressure":953.4,"uv_index":8.2,"wind_gusts":34.9,"aqi":98,"pm10":149.5,"pm2_5":42.5,"no2":1.9,"co":162.0,"o3":105.0,"so2":3.1,"mosquito_risk":0,"arthritis_risk":5,"migraine_risk":10,"frizz_risk":1,"updated_at":"2026-06-05T18:11:46.991751+05:30"},{"city":"Lucknow","state":"Uttar Pradesh","latitude":26.8467,"longitude":80.9462,"temp":36.0,"humidity":38,"rain":0.0,"pressure":985.1,"uv_index":8.35,"wind_gusts":31.0,"aqi":156,"pm10":139.7,"pm2_5":58.3,"no2":4.9,"co":289.0,"o3":169.0,"so2":9.9,"mosquito_risk":0,"arthritis_risk":5,"migraine_risk":10,"frizz_risk":1,"updated_at":"2026-06-05T18:11:46.991758+05:30"},{"city":"Kanpur","state":"Uttar Pradesh","latitude":26.4499,"longitude":80.3319,"temp":32.0,"humidity":44,"rain":0.0,"pressure":984.0,"uv_index":8.35,"wind_gusts":27.0,"aqi":155,"pm10":320.4,"pm2_5":80.1,"no2":4.3,"co":199.0,"o3":156.0,"so2":8.9,"mosquito_risk":0,"arthritis_risk":5,"migraine_risk":7,"frizz_risk":1,"updated_at":"2026-06-05T18:11:46.991765+05:30"},{"city":"Chandigarh","state":"Chandigarh","latitude":30.7333,"longitude":76.7794,"temp":32.9,"humidity":42,"rain":0.0,"pressure":962.9,"uv_index":7.7,"wind_gusts":25.2,"aqi":173,"pm10":112.9,"pm2_5":39.6,"no2":4.5,"co":465.0,"o3":172.0,"so2":10.9,"mosquito_risk":0,"arthritis_risk":5,"migraine_risk":7,"frizz_risk":1,"updated_at":"2026-06-05T18:11:46.991772+05:30"},{"city":"Srinagar","state":"Jammu and Kashmir","latitude":34.0837,"longitude":74.7973,"temp":18.3,"humidity":73,"rain":0.0,"pressure":840.6,"uv_index":9.0,"wind_gusts":31.3,"aqi":83,"pm10":17.6,"pm2_5":13.0,"no2":5.3,"co":337.0,"o3":119.0,"so2":2.3,"mosquito_risk":3,"arthritis_risk":5,"migraine_risk":7,"frizz_risk":0,"updated_at":"2026-06-05T18:11:46.991778+05:30"},{"city":"Jammu","state":"Jammu and Kashmir","latitude":32.7266,"longitude":74.857,"temp":33.8,"humidity":33,"rain":0.0,"pressure":966.8,"uv_index":8.55,"wind_gusts":30.2,"aqi":130,"pm10":53.1,"pm2_5":25.7,"no2":3.1,"co":273.0,"o3":147.0,"so2":3.3,"mosquito_risk":0,"arthritis_risk":5,"migraine_risk":7,"frizz_risk":0,"updated_at":"2026-06-05T18:11:46.991785+05:30"},{"city":"Amritsar","state":"Punjab","latitude":31.634,"longitude":74.8723,"temp":35.0,"humidity":33,"rain":0.0,"pressure":974.4,"uv_index":8.45,"wind_gusts":28.1,"aqi":152,"pm10":59.5,"pm2_5":33.1,"no2":2.9,"co":310.0,"o3":166.0,"so2":5.2,"mosquito_risk":0,"arthritis_risk":5,"migraine_risk":7,"frizz_risk":1,"updated_at":"2026-06-05T18:11:46.991791+05:30"},{"city":"Ludhiana","state":"Punjab","latitude":30.901,"longitude":75.8573,"temp":34.9,"humidity":29,"rain":0.0,"pressure":972.2,"uv_index":8.0,"wind_gusts":37.8,"aqi":166,"pm10":85.2,"pm2_5":36.9,"no2":3.2,"co":341.0,"o3":163.0,"so2":6.4,"mosquito_risk":0,"arthritis_risk":5,"migraine_risk":7,"frizz_risk":0,"updated_at":"2026-06-05T18:11:46.991797+05:30"},{"city":"Jalandhar","state":"Punjab","latitude":31.326,"longitude":75.5762,"temp":35.1,"humidity":28,"rain":0.0,"pressure":973.2,"uv_index":8.2,"wind_gusts":27.7,"aqi":166,"pm10":70.3,"pm2_5":33.6,"no2":2.9,"co":375.0,"o3":163.0,"so2":5.2,"mosquito_risk":0,"arthritis_risk":5,"migraine_risk":10,"frizz_risk":0,"updated_at":"2026-06-05T18:11:46.991803+05:30"},{"city":"Dehradun","state":"Uttarakhand","latitude":30.6284,"longitude":78.0322,"temp":21.7,"humidity":55,"rain":0.0,"pressure":827.9,"uv_index":4.45,"wind_gusts":25.6,"aqi":115,"pm10":57.3,"pm2_5":27.6,"no2":3.3,"co":203.0,"o3":152.0,"so2":3.0,"mosquito_risk":0,"arthritis_risk":5,"migraine_risk":3,"frizz_risk":0,"updated_at":"2026-06-05T18:11:46.991810+05:30"},{"city":"Shimla","state":"Himachal Pradesh","latitude":31.1048,"longitude":77.1734,"temp":17.3,"humidity":61,"rain":0.0,"pressure":782.6,"uv_index":6.55,"wind_gusts":32.4,"aqi":149,"pm10":85.2,"pm2_5":35.7,"no2":2.5,"co":243.0,"o3":177.0,"so2":8.6,"mosquito_risk":3,"arthritis_risk":5,"migraine_risk":7,"frizz_risk":0,"updated_at":"2026-06-05T18:11:46.991820+05:30"},{"city":"Manali","state":"Himachal Pradesh","latitude":32.2396,"longitude":77.1887,"temp":19.9,"humidity":72,"rain":0.6,"pressure":816.8,"uv_index":7.45,"wind_gusts":39.6,"aqi":117,"pm10":10.9,"pm2_5":7.2,"no2":9.6,"co":157.0,"o3":147.0,"so2":0.5,"mosquito_risk":6,"arthritis_risk":5,"migraine_risk":7,"frizz_risk":0,"updated_at":"2026-06-05T18:11:46.991827+05:30"},{"city":"Gurgaon","state":"Haryana","latitude":28.4595,"longitude":77.0266,"temp":33.9,"humidity":41,"rain":0.0,"pressure":975.0,"uv_index":7.8,"wind_gusts":29.9,"aqi":691,"pm10":183.9,"pm2_5":54.7,"no2":9.8,"co":260.0,"o3":162.0,"so2":15.0,"mosquito_risk":0,"arthritis_risk":5,"migraine_risk":7,"frizz_risk":1,"updated_at":"2026-06-05T18:11:46.991833+05:30"},{"city":"Noida","state":"Uttar Pradesh","latitude":28.5355,"longitude":77.391,"temp":33.3,"humidity":51,"rain":0.0,"pressure":977.7,"uv_index":7.35,"wind_gusts":23.0,"aqi":691,"pm10":183.9,"pm2_5":54.7,"no2":9.8,"co":493.0,"o3":162.0,"so2":15.0,"mosquito_risk":0,"arthritis_risk":5,"migraine_risk":7,"frizz_risk":1,"updated_at":"2026-06-05T18:11:46.991840+05:30"},{"city":"Ghaziabad","state":"Uttar Pradesh","latitude":28.6692,"longitude":77.4538,"temp":32.1,"humidity":57,"rain":0.0,"pressure":976.2,"uv_index":6.9,"wind_gusts":25.2,"aqi":161,"pm10":266.4,"pm2_5":75.0,"no2":6.2,"co":359.0,"o3":163.0,"so2":16.7,"mosquito_risk":0,"arthritis_risk":5,"migraine_risk":7,"frizz_risk":1,"updated_at":"2026-06-05T18:11:46.991852+05:30"},{"city":"Faridabad","state":"Haryana","latitude":28.4089,"longitude":77.3178,"temp":34.8,"humidity":43,"rain":0.0,"pressure":977.0,"uv_index":7.0,"wind_gusts":27.7,"aqi":691,"pm10":183.9,"pm2_5":54.7,"no2":9.8,"co":282.0,"o3":162.0,"so2":15.0,"mosquito_risk":0,"arthritis_risk":5,"migraine_risk":7,"frizz_risk":1,"updated_at":"2026-06-05T18:11:46.991858+05:30"},{"city":"Meerut","state":"Uttar Pradesh","latitude":28.9845,"longitude":77.7064,"temp":31.3,"humidity":59,"rain":0.0,"pressure":975.1,"uv_index":7.3,"wind_gusts":31.7,"aqi":161,"pm10":266.4,"pm2_5":75.0,"no2":6.2,"co":277.0,"o3":163.0,"so2":16.7,"mosquito_risk":0,"arthritis_risk":5,"migraine_risk":7,"frizz_risk":1,"updated_at":"2026-06-05T18:11:46.991864+05:30"},{"city":"Agra","state":"Uttar Pradesh","latitude":27.1767,"longitude":78.0081,"temp":33.6,"humidity":44,"rain":0.0,"pressure":981.0,"uv_index":7.75,"wind_gusts":31.3,"aqi":145,"pm10":346.5,"pm2_5":61.7,"no2":4.0,"co":166.0,"o3":134.0,"so2":6.1,"mosquito_risk":0,"arthritis_risk":5,"migraine_risk":7,"frizz_risk":1,"updated_at":"2026-06-05T18:11:46.991870+05:30"},{"city":"Varanasi","state":"Uttar Pradesh","latitude":25.3176,"longitude":82.9739,"temp":38.0,"humidity":32,"rain":0.0,"pressure":988.3,"uv_index":8.8,"wind_gusts":24.8,"aqi":146,"pm10":72.2,"pm2_5":36.4,"no2":5.5,"co":310.0,"o3":146.0,"so2":7.3,"mosquito_risk":0,"arthritis_risk":5,"migraine_risk":10,"frizz_risk":1,"updated_at":"2026-06-05T18:11:46.991877+05:30"},{"city":"Prayagraj","state":"Uttar Pradesh","latitude":25.4358,"longitude":81.8463,"temp":37.9,"humidity":31,"rain":0.0,"pressure":986.8,"uv_index":8.35,"wind_gusts":31.3,"aqi":165,"pm10":96.9,"pm2_5":46.9,"no2":5.8,"co":222.0,"o3":150.0,"so2":9.0,"mosquito_risk":0,"arthritis_risk":5,"migraine_risk":10,"frizz_risk":1,"updated_at":"2026-06-05T18:11:46.991883+05:30"},{"city":"Gorakhpur","state":"Uttar Pradesh","latitude":26.7606,"longitude":83.3732,"temp":34.6,"humidity":44,"rain":0.0,"pressure":988.3,"uv_index":8.7,"wind_gusts":23.8,"aqi":168,"pm10":91.5,"pm2_5":53.9,"no2":8.3,"co":314.0,"o3":147.0,"so2":8.3,"mosquito_risk":0,"arthritis_risk":5,"migraine_risk":7,"frizz_risk":1,"updated_at":"2026-06-05T18:11:46.991891+05:30"},{"city":"Bareilly","state":"Uttar Pradesh","latitude":28.367,"longitude":79.4304,"temp":31.8,"humidity":59,"rain":0.0,"pressure":979.5,"uv_index":4.7,"wind_gusts":34.6,"aqi":135,"pm10":61.0,"pm2_5":38.9,"no2":3.7,"co":303.0,"o3":156.0,"so2":5.0,"mosquito_risk":0,"arthritis_risk":5,"migraine_risk":3,"frizz_risk":1,"updated_at":"2026-06-05T18:11:46.991898+05:30"},{"city":"Aligarh","state":"Uttar Pradesh","latitude":27.8974,"longitude":78.088,"temp":32.7,"humidity":50,"rain":0.0,"pressure":978.6,"uv_index":7.4,"wind_gusts":25.9,"aqi":275,"pm10":403.3,"pm2_5":98.0,"no2":5.2,"co":195.0,"o3":183.0,"so2":19.8,"mosquito_risk":0,"arthritis_risk":5,"migraine_risk":7,"frizz_risk":1,"updated_at":"2026-06-05T18:11:46.991904+05:30"},{"city":"Moradabad","state":"Uttar Pradesh","latitude":28.8386,"longitude":78.7733,"temp":31.9,"humidity":50,"rain":0.0,"pressure":976.8,"uv_index":5.65,"wind_gusts":34.6,"aqi":166,"pm10":78.0,"pm2_5":48.8,"no2":7.5,"co":296.0,"o3":199.0,"so2":20.1,"mosquito_risk":0,"arthritis_risk":5,"migraine_risk":3,"frizz_risk":1,"updated_at":"2026-06-05T18:11:46.991910+05:30"},{"city":"Saharanpur","state":"Uttar Pradesh","latitude":29.9637,"longitude":77.546,"temp":30.5,"humidity":57,"rain":0.0,"pressure":969.6,"uv_index":6.95,"wind_gusts":35.6,"aqi":155,"pm10":230.5,"pm2_5":62.6,"no2":5.2,"co":295.0,"o3":163.0,"so2":12.2,"mosquito_risk":0,"arthritis_risk":5,"migraine_risk":7,"frizz_risk":1,"updated_at":"2026-06-05T18:11:46.991916+05:30"},{"city":"Jhansi","state":"Uttar Pradesh","latitude":25.4484,"longitude":78.5685,"temp":34.0,"humidity":39,"rain":0.0,"pressure":970.9,"uv_index":8.5,"wind_gusts":34.6,"aqi":70,"pm10":69.6,"pm2_5":24.2,"no2":2.1,"co":143.0,"o3":100.0,"so2":4.7,"mosquito_risk":0,"arthritis_risk":5,"migraine_risk":7,"frizz_risk":1,"updated_at":"2026-06-05T18:11:50.249388+05:30"},{"city":"Surat","state":"Gujarat","latitude":21.1702,"longitude":72.8311,"temp":32.2,"humidity":69,"rain":0.0,"pressure":1000.2,"uv_index":7.55,"wind_gusts":49.0,"aqi":89,"pm10":48.4,"pm2_5":27.1,"no2":13.6,"co":213.0,"o3":44.0,"so2":33.7,"mosquito_risk":3,"arthritis_risk":5,"migraine_risk":4,"frizz_risk":1,"updated_at":"2026-06-05T18:11:50.249414+05:30"},{"city":"Vadodara","state":"Gujarat","latitude":22.3072,"longitude":73.1812,"temp":36.1,"humidity":46,"rain":0.0,"pressure":996.6,"uv_index":8.0,"wind_gusts":42.5,"aqi":83,"pm10":62.9,"pm2_5":29.4,"no2":3.0,"co":151.0,"o3":94.0,"so2":4.2,"mosquito_risk":0,"arthritis_risk":5,"migraine_risk":10,"frizz_risk":1,"updated_at":"2026-06-05T18:11:50.249424+05:30"},{"city":"Rajkot","state":"Gujarat","latitude":22.3039,"longitude":70.8022,"temp":38.0,"humidity":42,"rain":0.0,"pressure":986.7,"uv_index":7.55,"wind_gusts":42.1,"aqi":80,"pm10":73.1,"pm2_5":27.8,"no2":1.6,"co":111.0,"o3":87.0,"so2":3.7,"mosquito_risk":0,"arthritis_risk":5,"migraine_risk":10,"frizz_risk":1,"updated_at":"2026-06-05T18:11:50.249432+05:30"},{"city":"Thane","state":"Maharashtra","latitude":19.2183,"longitude":72.9781,"temp":33.1,"humidity":60,"rain":0.0,"pressure":1002.2,"uv_index":7.35,"wind_gusts":41.8,"aqi":70,"pm10":42.4,"pm2_5":20.3,"no2":7.3,"co":163.0,"o3":66.0,"so2":5.4,"mosquito_risk":0,"arthritis_risk":5,"migraine_risk":4,"frizz_risk":1,"updated_at":"2026-06-05T18:11:50.249440+05:30"},{"city":"Nagpur","state":"Maharashtra","latitude":21.1458,"longitude":79.0882,"temp":35.6,"humidity":35,"rain":0.0,"pressure":965.8,"uv_index":8.9,"wind_gusts":43.6,"aqi":88,"pm10":65.2,"pm2_5":30.3,"no2":6.0,"co":165.0,"o3":110.0,"so2":13.9,"mosquito_risk":0,"arthritis_risk":5,"migraine_risk":10,"frizz_risk":1,"updated_at":"2026-06-05T18:11:50.249447+05:30"},{"city":"Nashik","state":"Maharashtra","latitude":19.9975,"longitude":73.7898,"temp":31.1,"humidity":54,"rain":0.0,"pressure":940.6,"uv_index":8.0,"wind_gusts":45.4,"aqi":59,"pm10":33.8,"pm2_5":16.5,"no2":1.6,"co":126.0,"o3":74.0,"so2":1.0,"mosquito_risk":0,"arthritis_risk":5,"migraine_risk":7,"frizz_risk":1,"updated_at":"2026-06-05T18:11:50.249453+05:30"},{"city":"Aurangabad","state":"Maharashtra","latitude":19.8762,"longitude":75.3433,"temp":35.9,"humidity":27,"rain":0.0,"pressure":938.2,"uv_index":8.95,"wind_gusts":39.2,"aqi":70,"pm10":41.9,"pm2_5":20.0,"no2":1.7,"co":145.0,"o3":121.0,"so2":4.2,"mosquito_risk":0,"arthritis_risk":5,"migraine_risk":10,"frizz_risk":0,"updated_at":"2026-06-05T18:11:50.249461+05:30"},{"city":"Solapur","state":"Maharashtra","latitude":17.6599,"longitude":75.9064,"temp":34.5,"humidity":42,"rain":0.0,"pressure":951.3,"uv_index":8.95,"wind_gusts":32.0,"aqi":54,"pm10":41.6,"pm2_5":19.6,"no2":2.1,"co":147.0,"o3":121.0,"so2":3.2,"mosquito_risk":0,"arthritis_risk":5,"migraine_risk":7,"frizz_risk":1,"updated_at":"2026-06-05T18:11:50.249468+05:30"},{"city":"Kolhapur","state":"Maharashtra","latitude":16.705,"longitude":74.2433,"temp":26.6,"humidity":80,"rain":0.1,"pressure":944.2,"uv_index":8.3,"wind_gusts":50.8,"aqi":40,"pm10":10.5,"pm2_5":6.7,"no2":4.5,"co":162.0,"o3":76.0,"so2":1.5,"mosquito_risk":10,"arthritis_risk":5,"migraine_risk":7,"frizz_risk":1,"updated_at":"2026-06-05T18:11:50.249475+05:30"},{"city":"Goa","state":"Goa","latitude":15.2993,"longitude":74.124,"temp":26.1,"humidity":87,"rain":0.0,"pressure":994.8,"uv_index":7.15,"wind_gusts":28.1,"aqi":29,"pm10":7.1,"pm2_5":4.0,"no2":1.7,"co":183.0,"o3":57.0,"so2":0.6,"mosquito_risk":7,"arthritis_risk":5,"migraine_risk":7,"frizz_risk":1,"updated_at":"2026-06-05T18:11:50.249482+05:30"},{"city":"Jodhpur","state":"Rajasthan","latitude":26.2389,"longitude":73.0243,"temp":38.1,"humidity":29,"rain":0.0,"pressure":975.4,"uv_index":8.45,"wind_gusts":38.2,"aqi":150,"pm10":249.6,"pm2_5":51.8,"no2":1.3,"co":126.0,"o3":93.0,"so2":1.8,"mosquito_risk":0,"arthritis_risk":5,"migraine_risk":10,"frizz_risk":1,"updated_at":"2026-06-05T18:11:50.249489+05:30"},{"city":"Udaipur","state":"Rajasthan","latitude":24.5854,"longitude":73.7125,"temp":33.4,"humidity":42,"rain":0.0,"pressure":940.7,"uv_index":8.85,"wind_gusts":41.0,"aqi":79,"pm10":69.6,"pm2_5":28.7,"no2":1.0,"co":131.0,"o3":93.0,"so2":2.9,"mosquito_risk":0,"arthritis_risk":5,"migraine_risk":7,"frizz_risk":1,"updated_at":"2026-06-05T18:11:50.249496+05:30"},{"city":"Kota","state":"Rajasthan","latitude":25.2138,"longitude":75.8648,"temp":35.9,"humidity":32,"rain":0.0,"pressure":971.6,"uv_index":8.2,"wind_gusts":33.8,"aqi":91,"pm10":86.1,"pm2_5":31.1,"no2":1.5,"co":180.0,"o3":116.0,"so2":3.8,"mosquito_risk":0,"arthritis_risk":5,"migraine_risk":10,"frizz_risk":1,"updated_at":"2026-06-05T18:11:50.249503+05:30"},{"city":"Bikaner","state":"Rajasthan","latitude":28.0229,"longitude":73.3119,"temp":38.6,"humidity":30,"rain":0.0,"pressure":973.7,"uv_index":8.45,"wind_gusts":42.8,"aqi":153,"pm10":163.4,"pm2_5":48.4,"no2":0.6,"co":130.0,"o3":100.0,"so2":3.0,"mosquito_risk":0,"arthritis_risk":5,"migraine_risk":10,"frizz_risk":1,"updated_at":"2026-06-05T18:11:50.249509+05:30"},{"city":"Ajmer","state":"Rajasthan","latitude":26.4499,"longitude":74.6399,"temp":33.7,"humidity":43,"rain":0.0,"pressure":948.5,"uv_index":8.35,"wind_gusts":47.9,"aqi":85,"pm10":115.5,"pm2_5":36.4,"no2":1.2,"co":136.0,"o3":97.0,"so2":2.2,"mosquito_risk":0,"arthritis_risk":5,"migraine_risk":7,"frizz_risk":1,"updated_at":"2026-06-05T18:11:50.249515+05:30"},{"city":"Gwalior","state":"Madhya Pradesh","latitude":26.2183,"longitude":78.1828,"temp":31.9,"humidity":48,"rain":0.0,"pressure":976.7,"uv_index":8.35,"wind_gusts":44.6,"aqi":78,"pm10":67.3,"pm2_5":23.5,"no2":1.2,"co":138.0,"o3":108.0,"so2":1.9,"mosquito_risk":0,"arthritis_risk":5,"migraine_risk":7,"frizz_risk":1,"updated_at":"2026-06-05T18:11:50.249521+05:30"},{"city":"Indore","state":"Madhya Pradesh","latitude":22.7196,"longitude":75.8577,"temp":33.5,"humidity":40,"rain":0.0,"pressure":942.0,"uv_index":8.65,"wind_gusts":45.7,"aqi":94,"pm10":66.4,"pm2_5":28.5,"no2":1.9,"co":183.0,"o3":99.0,"so2":3.3,"mosquito_risk":0,"arthritis_risk":5,"migraine_risk":7,"frizz_risk":1,"updated_at":"2026-06-05T18:11:50.249527+05:30"},{"city":"Bhopal","state":"Madhya Pradesh","latitude":23.2599,"longitude":77.4126,"temp":34.1,"humidity":41,"rain":0.1,"pressure":947.1,"uv_index":8.7,"wind_gusts":43.9,"aqi":91,"pm10":90.6,"pm2_5":40.0,"no2":2.4,"co":181.0,"o3":94.0,"so2":3.1,"mosquito_risk":3,"arthritis_risk":5,"migraine_risk":7,"frizz_risk":1,"updated_at":"2026-06-05T18:11:50.249534+05:30"},{"city":"Jabalpur","state":"Madhya Pradesh","latitude":23.1815,"longitude":79.9864,"temp":31.5,"humidity":52,"rain":0.0,"pressure":954.4,"uv_index":8.9,"wind_gusts":33.5,"aqi":87,"pm10":74.7,"pm2_5":24.2,"no2":1.4,"co":170.0,"o3":101.0,"so2":1.7,"mosquito_risk":0,"arthritis_risk":5,"migraine_risk":7,"frizz_risk":1,"updated_at":"2026-06-05T18:11:50.249540+05:30"},{"city":"Ujjain","state":"Madhya Pradesh","latitude":23.1765,"longitude":75.7885,"temp":32.0,"humidity":44,"rain":0.0,"pressure":947.4,"uv_index":8.6,"wind_gusts":45.0,"aqi":90,"pm10":61.0,"pm2_5":27.9,"no2":1.0,"co":146.0,"o3":98.0,"so2":3.2,"mosquito_risk":0,"arthritis_risk":5,"migraine_risk":7,"frizz_risk":1,"updated_at":"2026-06-05T18:11:50.249547+05:30"},{"city":"Visakhapatnam","state":"Andhra Pradesh","latitude":17.6868,"longitude":83.2185,"temp":35.6,"humidity":51,"rain":0.0,"pressure":995.7,"uv_index":8.7,"wind_gusts":42.1,"aqi":140,"pm10":36.4,"pm2_5":31.4,"no2":20.3,"co":372.0,"o3":132.0,"so2":41.5,"mosquito_risk":0,"arthritis_risk":5,"migraine_risk":10,"frizz_risk":1,"updated_at":"2026-06-05T18:11:50.249553+05:30"},{"city":"Vijayawada","state":"Andhra Pradesh","latitude":16.5062,"longitude":80.648,"temp":33.9,"humidity":51,"rain":0.0,"pressure":995.6,"uv_index":8.95,"wind_gusts":55.1,"aqi":72,"pm10":16.1,"pm2_5":12.7,"no2":4.4,"co":220.0,"o3":113.0,"so2":4.2,"mosquito_risk":0,"arthritis_risk":5,"migraine_risk":7,"frizz_risk":1,"updated_at":"2026-06-05T18:11:50.249559+05:30"},{"city":"Guntur","state":"Andhra Pradesh","latitude":16.3067,"longitude":80.4365,"temp":33.7,"humidity":52,"rain":0.0,"pressure":996.7,"uv_index":9.0,"wind_gusts":51.8,"aqi":59,"pm10":15.4,"pm2_5":10.9,"no2":2.5,"co":210.0,"o3":116.0,"so2":3.2,"mosquito_risk":0,"arthritis_risk":5,"migraine_risk":7,"frizz_risk":1,"updated_at":"2026-06-05T18:11:50.249566+05:30"},{"city":"Nellore","state":"Andhra Pradesh","latitude":14.4426,"longitude":79.9865,"temp":32.6,"humidity":54,"rain":0.0,"pressure":1000.1,"uv_index":8.55,"wind_gusts":42.8,"aqi":49,"pm10":17.2,"pm2_5":13.0,"no2":5.7,"co":159.0,"o3":104.0,"so2":4.4,"mosquito_risk":0,"arthritis_risk":5,"migraine_risk":4,"frizz_risk":1,"updated_at":"2026-06-05T18:11:50.249573+05:30"},{"city":"Kurnool","state":"Andhra Pradesh","latitude":15.8281,"longitude":78.0373,"temp":30.3,"humidity":63,"rain":0.0,"pressure":971.9,"uv_index":9.0,"wind_gusts":41.0,"aqi":43,"pm10":15.3,"pm2_5":10.2,"no2":1.9,"co":151.0,"o3":113.0,"so2":5.0,"mosquito_risk":3,"arthritis_risk":5,"migraine_risk":7,"frizz_risk":1,"updated_at":"2026-06-05T18:11:50.249579+05:30"},{"city":"Kakinada","state":"Andhra Pradesh","latitude":16.9891,"longitude":82.2475,"temp":34.5,"humidity":56,"rain":0.0,"pressure":999.6,"uv_index":9.05,"wind_gusts":46.4,"aqi":122,"pm10":26.8,"pm2_5":22.2,"no2":3.3,"co":273.0,"o3":140.0,"so2":4.3,"mosquito_risk":0,"arthritis_risk":5,"migraine_risk":7,"frizz_risk":1,"updated_at":"2026-06-05T18:11:50.249586+05:30"},{"city":"Tirupati","state":"Andhra Pradesh","latitude":13.6288,"longitude":79.4192,"temp":31.0,"humidity":54,"rain":0.0,"pressure":986.1,"uv_index":8.5,"wind_gusts":42.8,"aqi":53,"pm10":13.9,"pm2_5":9.3,"no2":9.4,"co":186.0,"o3":58.0,"so2":1.3,"mosquito_risk":0,"arthritis_risk":5,"migraine_risk":7,"frizz_risk":1,"updated_at":"2026-06-05T18:11:50.249592+05:30"},{"city":"Warangal","state":"Telangana","latitude":17.9689,"longitude":79.5941,"temp":34.8,"humidity":44,"rain":0.0,"pressure":972.0,"uv_index":7.6,"wind_gusts":31.3,"aqi":84,"pm10":69.6,"pm2_5":36.7,"no2":2.7,"co":208.0,"o3":129.0,"so2":6.3,"mosquito_risk":0,"arthritis_risk":5,"migraine_risk":7,"frizz_risk":1,"updated_at":"2026-06-05T18:11:50.249598+05:30"},{"city":"Nizamabad","state":"Telangana","latitude":18.6725,"longitude":78.0941,"temp":33.9,"humidity":43,"rain":0.0,"pressure":958.9,"uv_index":8.7,"wind_gusts":34.9,"aqi":86,"pm10":65.0,"pm2_5":31.7,"no2":1.8,"co":172.0,"o3":119.0,"so2":3.8,"mosquito_risk":0,"arthritis_risk":5,"migraine_risk":7,"frizz_risk":1,"updated_at":"2026-06-05T18:11:50.249604+05:30"},{"city":"Mysore","state":"Karnataka","latitude":12.2958,"longitude":76.6396,"temp":23.5,"humidity":84,"rain":0.0,"pressure":926.3,"uv_index":8.3,"wind_gusts":59.4,"aqi":30,"pm10":2.5,"pm2_5":2.1,"no2":4.3,"co":129.0,"o3":56.0,"so2":1.2,"mosquito_risk":3,"arthritis_risk":5,"migraine_risk":7,"frizz_risk":1,"updated_at":"2026-06-05T18:11:50.249610+05:30"},{"city":"Mangalore","state":"Karnataka","latitude":12.9141,"longitude":74.856,"temp":25.5,"humidity":96,"rain":0.0,"pressure":1004.8,"uv_index":2.1,"wind_gusts":33.5,"aqi":27,"pm10":8.4,"pm2_5":5.2,"no2":4.7,"co":153.0,"o3":46.0,"so2":1.3,"mosquito_risk":7,"arthritis_risk":5,"migraine_risk":0,"frizz_risk":1,"updated_at":"2026-06-05T18:11:50.249616+05:30"},{"city":"Hubli-Dharwad","state":"Karnataka","latitude":15.3647,"longitude":75.124,"temp":26.0,"humidity":75,"rain":0.0,"pressure":937.5,"uv_index":8.4,"wind_gusts":50.0,"aqi":32,"pm10":2.9,"pm2_5":2.1,"no2":3.9,"co":137.0,"o3":58.0,"so2":0.6,"mosquito_risk":7,"arthritis_risk":5,"migraine_risk":7,"frizz_risk":1,"updated_at":"2026-06-05T18:11:50.249622+05:30"},{"city":"Belgaum","state":"Karnataka","latitude":15.8497,"longitude":74.4977,"temp":23.2,"humidity":87,"rain":0.0,"pressure":922.3,"uv_index":8.85,"wind_gusts":38.2,"aqi":34,"pm10":5.8,"pm2_5":4.1,"no2":3.5,"co":151.0,"o3":67.0,"so2":1.6,"mosquito_risk":3,"arthritis_risk":5,"migraine_risk":7,"frizz_risk":1,"updated_at":"2026-06-05T18:11:53.495858+05:30"},{"city":"Coimbatore","state":"Tamil Nadu","latitude":11.0168,"longitude":76.9558,"temp":25.3,"humidity":81,"rain":0.0,"pressure":959.0,"uv_index":6.45,"wind_gusts":61.2,"aqi":25,"pm10":2.4,"pm2_5":2.0,"no2":4.0,"co":171.0,"o3":46.0,"so2":1.4,"mosquito_risk":7,"arthritis_risk":5,"migraine_risk":7,"frizz_risk":1,"updated_at":"2026-06-05T18:11:53.495890+05:30"},{"city":"Madurai","state":"Tamil Nadu","latitude":9.9252,"longitude":78.1198,"temp":31.8,"humidity":46,"rain":0.0,"pressure":989.6,"uv_index":8.25,"wind_gusts":62.6,"aqi":36,"pm10":5.6,"pm2_5":3.3,"no2":3.6,"co":135.0,"o3":61.0,"so2":1.4,"mosquito_risk":0,"arthritis_risk":5,"migraine_risk":7,"frizz_risk":1,"updated_at":"2026-06-05T18:11:53.495902+05:30"},{"city":"Trichy","state":"Tamil Nadu","latitude":10.7905,"longitude":78.7047,"temp":33.4,"humidity":46,"rain":0.0,"pressure":995.7,"uv_index":8.35,"wind_gusts":55.8,"aqi":35,"pm10":6.4,"pm2_5":4.1,"no2":4.0,"co":132.0,"o3":62.0,"so2":1.7,"mosquito_risk":0,"arthritis_risk":5,"migraine_risk":7,"frizz_risk":1,"updated_at":"2026-06-05T18:11:53.495911+05:30"},{"city":"Salem","state":"Tamil Nadu","latitude":11.6643,"longitude":78.146,"temp":30.8,"humidity":61,"rain":0.0,"pressure":973.9,"uv_index":7.85,"wind_gusts":39.2,"aqi":40,"pm10":6.8,"pm2_5":5.6,"no2":9.2,"co":209.0,"o3":67.0,"so2":3.8,"mosquito_risk":3,"arthritis_risk":5,"migraine_risk":7,"frizz_risk":1,"updated_at":"2026-06-05T18:11:53.495920+05:30"},{"city":"Tirunelveli","state":"Tamil Nadu","latitude":8.7139,"longitude":77.7567,"temp":32.3,"humidity":52,"rain":0.0,"pressure":1000.8,"uv_index":8.5,"wind_gusts":45.4,"aqi":23,"pm10":4.1,"pm2_5":3.4,"no2":6.1,"co":114.0,"o3":40.0,"so2":1.0,"mosquito_risk":0,"arthritis_risk":5,"migraine_risk":4,"frizz_risk":1,"updated_at":"2026-06-05T18:11:53.495929+05:30"},{"city":"Vellore","state":"Tamil Nadu","latitude":12.9165,"longitude":79.1325,"temp":31.3,"humidity":53,"rain":0.0,"pressure":979.6,"uv_index":8.5,"wind_gusts":69.1,"aqi":40,"pm10":6.2,"pm2_5":5.5,"no2":7.2,"co":181.0,"o3":65.0,"so2":1.9,"mosquito_risk":0,"arthritis_risk":5,"migraine_risk":7,"frizz_risk":1,"updated_at":"2026-06-05T18:11:53.495937+05:30"},{"city":"Erode","state":"Tamil Nadu","latitude":11.341,"longitude":77.7172,"temp":30.6,"humidity":54,"rain":0.0,"pressure":985.7,"uv_index":8.6,"wind_gusts":54.7,"aqi":32,"pm10":4.4,"pm2_5":3.4,"no2":4.9,"co":189.0,"o3":57.0,"so2":1.6,"mosquito_risk":0,"arthritis_risk":5,"migraine_risk":7,"frizz_risk":1,"updated_at":"2026-06-05T18:11:53.495945+05:30"},{"city":"Kochi","state":"Kerala","latitude":9.9312,"longitude":76.2673,"temp":27.5,"humidity":86,"rain":0.1,"pressure":1007.6,"uv_index":3.6,"wind_gusts":35.3,"aqi":38,"pm10":14.9,"pm2_5":10.6,"no2":13.9,"co":169.0,"o3":27.0,"so2":2.7,"mosquito_risk":10,"arthritis_risk":5,"migraine_risk":0,"frizz_risk":1,"updated_at":"2026-06-05T18:11:53.495953+05:30"},{"city":"Thiruvananthapuram","state":"Kerala","latitude":8.5241,"longitude":76.9366,"temp":26.0,"humidity":90,"rain":0.0,"pressure":1007.4,"uv_index":4.7,"wind_gusts":58.7,"aqi":25,"pm10":14.4,"pm2_5":7.2,"no2":2.0,"co":129.0,"o3":48.0,"so2":0.5,"mosquito_risk":7,"arthritis_risk":5,"migraine_risk":0,"frizz_risk":1,"updated_at":"2026-06-05T18:11:53.495962+05:30"},{"city":"Kozhikode","state":"Kerala","latitude":11.2588,"longitude":75.7804,"temp":25.1,"humidity":99,"rain":0.2,"pressure":1006.8,"uv_index":8.45,"wind_gusts":24.5,"aqi":24,"pm10":10.0,"pm2_5":4.6,"no2":1.2,"co":150.0,"o3":52.0,"so2":0.4,"mosquito_risk":10,"arthritis_risk":5,"migraine_risk":4,"frizz_risk":1,"updated_at":"2026-06-05T18:11:53.495970+05:30"},{"city":"Thrissur","state":"Kerala","latitude":10.5276,"longitude":76.2144,"temp":25.6,"humidity":100,"rain":0.0,"pressure":1006.0,"uv_index":7.35,"wind_gusts":32.4,"aqi":34,"pm10":10.7,"pm2_5":7.4,"no2":7.3,"co":186.0,"o3":36.0,"so2":1.6,"mosquito_risk":7,"arthritis_risk":5,"migraine_risk":4,"frizz_risk":1,"updated_at":"2026-06-05T18:11:53.495979+05:30"},{"city":"Kannur","state":"Kerala","latitude":11.8745,"longitude":75.3704,"temp":25.5,"humidity":99,"rain":0.3,"pressure":1005.7,"uv_index":5.7,"wind_gusts":41.0,"aqi":26,"pm10":9.7,"pm2_5":5.3,"no2":5.0,"co":139.0,"o3":45.0,"so2":0.8,"mosquito_risk":10,"arthritis_risk":5,"migraine_risk":0,"frizz_risk":1,"updated_at":"2026-06-05T18:11:53.495987+05:30"},{"city":"Patna","state":"Bihar","latitude":25.5941,"longitude":85.1376,"temp":34.7,"humidity":60,"rain":0.0,"pressure":991.5,"uv_index":8.9,"wind_gusts":37.4,"aqi":195,"pm10":109.0,"pm2_5":80.8,"no2":14.9,"co":325.0,"o3":151.0,"so2":9.6,"mosquito_risk":0,"arthritis_risk":5,"migraine_risk":7,"frizz_risk":1,"updated_at":"2026-06-05T18:11:53.495995+05:30"},{"city":"Gaya","state":"Bihar","latitude":24.7914,"longitude":85.0002,"temp":34.9,"humidity":51,"rain":0.0,"pressure":985.2,"uv_index":8.95,"wind_gusts":59.0,"aqi":163,"pm10":72.6,"pm2_5":55.1,"no2":9.3,"co":302.0,"o3":130.0,"so2":8.0,"mosquito_risk":0,"arthritis_risk":5,"migraine_risk":7,"frizz_risk":1,"updated_at":"2026-06-05T18:11:53.496002+05:30"},{"city":"Muzaffarpur","state":"Bihar","latitude":26.1209,"longitude":85.3647,"temp":34.1,"humidity":63,"rain":0.0,"pressure":991.7,"uv_index":8.85,"wind_gusts":28.4,"aqi":202,"pm10":120.6,"pm2_5":91.7,"no2":15.8,"co":372.0,"o3":158.0,"so2":12.0,"mosquito_risk":3,"arthritis_risk":5,"migraine_risk":7,"frizz_risk":1,"updated_at":"2026-06-05T18:11:53.496011+05:30"},{"city":"Bhagalpur","state":"Bihar","latitude":25.2425,"longitude":87.0117,"temp":34.0,"humidity":65,"rain":0.0,"pressure":992.7,"uv_index":8.85,"wind_gusts":36.4,"aqi":213,"pm10":96.2,"pm2_5":79.9,"no2":8.7,"co":408.0,"o3":197.0,"so2":21.5,"mosquito_risk":3,"arthritis_risk":5,"migraine_risk":7,"frizz_risk":1,"updated_at":"2026-06-05T18:11:53.496019+05:30"},{"city":"Ranchi","state":"Jharkhand","latitude":23.3441,"longitude":85.3096,"temp":24.8,"humidity":85,"rain":0.0,"pressure":931.3,"uv_index":9.2,"wind_gusts":35.3,"aqi":124,"pm10":47.3,"pm2_5":35.2,"no2":5.3,"co":261.0,"o3":134.0,"so2":6.4,"mosquito_risk":3,"arthritis_risk":5,"migraine_risk":7,"frizz_risk":1,"updated_at":"2026-06-05T18:11:53.496027+05:30"},{"city":"Jamshedpur","state":"Jharkhand","latitude":22.8046,"longitude":86.2029,"temp":28.4,"humidity":83,"rain":0.0,"pressure":983.4,"uv_index":8.95,"wind_gusts":34.2,"aqi":188,"pm10":62.2,"pm2_5":50.4,"no2":8.8,"co":311.0,"o3":159.0,"so2":16.7,"mosquito_risk":7,"arthritis_risk":5,"migraine_risk":7,"frizz_risk":1,"updated_at":"2026-06-05T18:11:53.496035+05:30"},{"city":"Dhanbad","state":"Jharkhand","latitude":23.7957,"longitude":86.4304,"temp":32.2,"humidity":63,"rain":0.1,"pressure":972.6,"uv_index":9.05,"wind_gusts":38.9,"aqi":187,"pm10":80.1,"pm2_5":65.7,"no2":30.8,"co":489.0,"o3":142.0,"so2":76.4,"mosquito_risk":6,"arthritis_risk":5,"migraine_risk":7,"frizz_risk":1,"updated_at":"2026-06-05T18:11:53.496044+05:30"},{"city":"Bokaro","state":"Jharkhand","latitude":23.6693,"longitude":86.1511,"temp":30.8,"humidity":75,"rain":0.1,"pressure":976.3,"uv_index":9.1,"wind_gusts":30.6,"aqi":162,"pm10":64.7,"pm2_5":49.9,"no2":23.1,"co":265.0,"o3":147.0,"so2":70.7,"mosquito_risk":6,"arthritis_risk":5,"migraine_risk":7,"frizz_risk":1,"updated_at":"2026-06-05T18:11:53.496051+05:30"},{"city":"Bhubaneswar","state":"Odisha","latitude":20.2961,"longitude":85.8245,"temp":33.0,"humidity":66,"rain":0.0,"pressure":994.3,"uv_index":9.05,"wind_gusts":27.0,"aqi":166,"pm10":50.8,"pm2_5":44.2,"no2":14.5,"co":545.0,"o3":146.0,"so2":10.6,"mosquito_risk":3,"arthritis_risk":5,"migraine_risk":7,"frizz_risk":1,"updated_at":"2026-06-05T18:11:53.496059+05:30"},{"city":"Cuttack","state":"Odisha","latitude":20.4625,"longitude":85.8828,"temp":33.2,"humidity":72,"rain":0.0,"pressure":996.1,"uv_index":9.1,"wind_gusts":30.2,"aqi":166,"pm10":50.8,"pm2_5":44.2,"no2":14.5,"co":434.0,"o3":146.0,"so2":10.6,"mosquito_risk":3,"arthritis_risk":5,"migraine_risk":7,"frizz_risk":1,"updated_at":"2026-06-05T18:11:53.496067+05:30"},{"city":"Rourkela","state":"Odisha","latitude":22.2604,"longitude":84.8536,"temp":33.6,"humidity":64,"rain":0.6,"pressure":977.4,"uv_index":9.0,"wind_gusts":29.2,"aqi":172,"pm10":70.3,"pm2_5":49.8,"no2":6.6,"co":351.0,"o3":172.0,"so2":12.4,"mosquito_risk":6,"arthritis_risk":5,"migraine_risk":7,"frizz_risk":1,"updated_at":"2026-06-05T18:11:53.496075+05:30"},{"city":"Raipur","state":"Chhattisgarh","latitude":21.2514,"longitude":81.6296,"temp":37.8,"humidity":26,"rain":0.0,"pressure":967.0,"uv_index":9.0,"wind_gusts":35.3,"aqi":114,"pm10":52.0,"pm2_5":32.7,"no2":9.8,"co":191.0,"o3":135.0,"so2":27.9,"mosquito_risk":0,"arthritis_risk":5,"migraine_risk":10,"frizz_risk":0,"updated_at":"2026-06-05T18:11:53.496083+05:30"},{"city":"Bhilai","state":"Chhattisgarh","latitude":21.1938,"longitude":81.3509,"temp":36.4,"humidity":30,"rain":0.0,"pressure":967.5,"uv_index":9.0,"wind_gusts":34.9,"aqi":104,"pm10":51.0,"pm2_5":29.8,"no2":9.8,"co":450.0,"o3":116.0,"so2":22.8,"mosquito_risk":0,"arthritis_risk":5,"migraine_risk":10,"frizz_risk":0,"updated_at":"2026-06-05T18:11:53.496091+05:30"},{"city":"Guwahati","state":"Assam","latitude":26.1158,"longitude":91.7086,"temp":27.8,"humidity":90,"rain":0.0,"pressure":994.8,"uv_index":8.8,"wind_gusts":28.1,"aqi":113,"pm10":35.2,"pm2_5":31.7,"no2":4.3,"co":448.0,"o3":125.0,"so2":3.1,"mosquito_risk":7,"arthritis_risk":5,"migraine_risk":7,"frizz_risk":1,"updated_at":"2026-06-05T18:11:53.496098+05:30"},{"city":"Agartala","state":"Tripura","latitude":23.8315,"longitude":91.2868,"temp":30.0,"humidity":81,"rain":0.0,"pressure":998.6,"uv_index":8.9,"wind_gusts":36.0,"aqi":112,"pm10":34.2,"pm2_5":28.8,"no2":15.4,"co":324.0,"o3":111.0,"so2":3.8,"mosquito_risk":7,"arthritis_risk":5,"migraine_risk":7,"frizz_risk":1,"updated_at":"2026-06-05T18:11:53.496105+05:30"},{"city":"Shillong","state":"Meghalaya","latitude":25.5788,"longitude":91.8933,"temp":20.8,"humidity":92,"rain":0.0,"pressure":853.0,"uv_index":8.45,"wind_gusts":23.4,"aqi":103,"pm10":22.7,"pm2_5":20.4,"no2":4.7,"co":319.0,"o3":120.0,"so2":2.6,"mosquito_risk":3,"arthritis_risk":5,"migraine_risk":7,"frizz_risk":1,"updated_at":"2026-06-05T18:11:53.496111+05:30"},{"city":"Imphal","state":"Manipur","latitude":24.817,"longitude":93.9368,"temp":27.3,"humidity":69,"rain":0.0,"pressure":917.6,"uv_index":8.75,"wind_gusts":27.4,"aqi":120,"pm10":40.7,"pm2_5":34.9,"no2":5.9,"co":332.0,"o3":105.0,"so2":3.0,"mosquito_risk":7,"arthritis_risk":5,"migraine_risk":7,"frizz_risk":1,"updated_at":"2026-06-05T18:11:53.496117+05:30"},{"city":"Aizawl","state":"Mizoram","latitude":23.7271,"longitude":92.7176,"temp":23.6,"humidity":81,"rain":0.0,"pressure":887.6,"uv_index":9.1,"wind_gusts":26.3,"aqi":104,"pm10":47.3,"pm2_5":38.8,"no2":5.9,"co":233.0,"o3":89.0,"so2":3.2,"mosquito_risk":3,"arthritis_risk":5,"migraine_risk":7,"frizz_risk":1,"updated_at":"2026-06-05T18:11:53.496123+05:30"},{"city":"Kohima","state":"Nagaland","latitude":25.6701,"longitude":94.1077,"temp":20.7,"humidity":94,"rain":0.0,"pressure":851.3,"uv_index":8.95,"wind_gusts":28.8,"aqi":86,"pm10":23.6,"pm2_5":21.0,"no2":4.3,"co":303.0,"o3":109.0,"so2":1.9,"mosquito_risk":3,"arthritis_risk":5,"migraine_risk":7,"frizz_risk":1,"updated_at":"2026-06-05T18:11:53.496130+05:30"},{"city":"Gangtok","state":"Sikkim","latitude":27.3314,"longitude":88.6138,"temp":18.6,"humidity":94,"rain":0.1,"pressure":833.2,"uv_index":9.2,"wind_gusts":37.1,"aqi":112,"pm10":19.4,"pm2_5":16.8,"no2":5.4,"co":318.0,"o3":135.0,"so2":3.5,"mosquito_risk":6,"arthritis_risk":10,"migraine_risk":7,"frizz_risk":1,"updated_at":"2026-06-05T18:11:53.496136+05:30"},{"city":"Siliguri","state":"West Bengal","latitude":26.7271,"longitude":88.3953,"temp":26.5,"humidity":92,"rain":0.1,"pressure":986.1,"uv_index":8.8,"wind_gusts":23.4,"aqi":143,"pm10":66.4,"pm2_5":58.3,"no2":10.0,"co":663.0,"o3":138.0,"so2":6.7,"mosquito_risk":10,"arthritis_risk":5,"migraine_risk":7,"frizz_risk":1,"updated_at":"2026-06-05T18:11:56.735366+05:30"},{"city":"Durgapur","state":"West Bengal","latitude":23.5204,"longitude":87.3119,"temp":32.0,"humidity":73,"rain":0.1,"pressure":987.1,"uv_index":8.95,"wind_gusts":32.4,"aqi":210,"pm10":85.9,"pm2_5":79.9,"no2":21.4,"co":552.0,"o3":186.0,"so2":46.7,"mosquito_risk":6,"arthritis_risk":5,"migraine_risk":7,"frizz_risk":1,"updated_at":"2026-06-05T18:11:56.735390+05:30"},{"city":"Asansol","state":"West Bengal","latitude":23.6739,"longitude":86.9524,"temp":31.7,"humidity":71,"rain":0.2,"pressure":985.8,"uv_index":9.0,"wind_gusts":32.0,"aqi":210,"pm10":89.9,"pm2_5":79.9,"no2":27.7,"co":429.0,"o3":170.0,"so2":46.3,"mosquito_risk":6,"arthritis_risk":5,"migraine_risk":7,"frizz_risk":1,"updated_at":"2026-06-05T18:11:56.735401+05:30"},{"city":"Pondicherry","state":"Puducherry","latitude":11.9139,"longitude":79.8145,"temp":34.2,"humidity":51,"rain":0.0,"pressure":1003.1,"uv_index":8.4,"wind_gusts":49.3,"aqi":73,"pm10":20.6,"pm2_5":15.9,"no2":8.3,"co":273.0,"o3":114.0,"so2":7.6,"mosquito_risk":0,"arthritis_risk":5,"migraine_risk":4,"frizz_risk":1,"updated_at":"2026-06-05T18:11:56.735408+05:30"},{"city":"Port Blair","state":"Andaman and Nicobar Islands","latitude":11.6234,"longitude":92.7265,"temp":24.9,"humidity":98,"rain":0.3,"pressure":1004.9,"uv_index":1.85,"wind_gusts":47.2,"aqi":28,"pm10":8.4,"pm2_5":5.3,"no2":0.6,"co":117.0,"o3":56.0,"so2":0.4,"mosquito_risk":6,"arthritis_risk":5,"migraine_risk":0,"frizz_risk":1,"updated_at":"2026-06-05T18:11:56.735415+05:30"},{"city":"Haridwar","state":"Uttarakhand","latitude":29.9457,"longitude":78.1642,"temp":30.2,"humidity":60,"rain":0.0,"pressure":967.7,"uv_index":6.75,"wind_gusts":33.1,"aqi":158,"pm10":125.7,"pm2_5":48.4,"no2":3.2,"co":262.0,"o3":178.0,"so2":7.3,"mosquito_risk":0,"arthritis_risk":5,"migraine_risk":7,"frizz_risk":1,"updated_at":"2026-06-05T18:11:56.735422+05:30"},{"city":"Rishikesh","state":"Uttarakhand","latitude":30.0869,"longitude":78.2676,"temp":28.7,"humidity":68,"rain":0.0,"pressure":960.7,"uv_index":6.85,"wind_gusts":33.1,"aqi":141,"pm10":106.2,"pm2_5":43.0,"no2":2.0,"co":233.0,"o3":172.0,"so2":5.2,"mosquito_risk":7,"arthritis_risk":5,"migraine_risk":7,"frizz_risk":1,"updated_at":"2026-06-05T18:11:56.735429+05:30"},{"city":"Nainital","state":"Uttarakhand","latitude":29.3919,"longitude":79.4542,"temp":18.2,"humidity":74,"rain":0.0,"pressure":802.6,"uv_index":5.05,"wind_gusts":27.0,"aqi":94,"pm10":43.4,"pm2_5":26.3,"no2":2.9,"co":217.0,"o3":145.0,"so2":3.4,"mosquito_risk":3,"arthritis_risk":5,"migraine_risk":3,"frizz_risk":0,"updated_at":"2026-06-05T18:11:56.735436+05:30"},{"city":"Mussoorie","state":"Uttarakhand","latitude":30.4599,"longitude":78.0664,"temp":18.3,"humidity":61,"rain":0.0,"pressure":800.2,"uv_index":4.55,"wind_gusts":26.3,"aqi":142,"pm10":92.0,"pm2_5":36.6,"no2":4.0,"co":219.0,"o3":175.0,"so2":7.0,"mosquito_risk":3,"arthritis_risk":5,"migraine_risk":3,"frizz_risk":0,"updated_at":"2026-06-05T18:11:56.735443+05:30"},{"city":"Dharamshala","state":"Himachal Pradesh","latitude":32.219,"longitude":76.3234,"temp":23.8,"humidity":48,"rain":0.0,"pressure":866.2,"uv_index":8.45,"wind_gusts":38.2,"aqi":115,"pm10":27.3,"pm2_5":15.4,"no2":1.1,"co":229.0,"o3":148.0,"so2":1.2,"mosquito_risk":0,"arthritis_risk":5,"migraine_risk":7,"frizz_risk":0,"updated_at":"2026-06-05T18:11:56.735449+05:30"},{"city":"Dalhousie","state":"Himachal Pradesh","latitude":32.5387,"longitude":75.971,"temp":19.5,"humidity":70,"rain":0.0,"pressure":802.9,"uv_index":7.0,"wind_gusts":38.2,"aqi":137,"pm10":34.7,"pm2_5":18.4,"no2":2.7,"co":223.0,"o3":157.0,"so2":2.0,"mosquito_risk":3,"arthritis_risk":5,"migraine_risk":7,"frizz_risk":0,"updated_at":"2026-06-05T18:11:56.735457+05:30"},{"city":"Patiala","state":"Punjab","latitude":30.3398,"longitude":76.3869,"temp":34.8,"humidity":38,"rain":0.0,"pressure":971.8,"uv_index":7.7,"wind_gusts":29.2,"aqi":161,"pm10":240.3,"pm2_5":55.8,"no2":2.5,"co":243.0,"o3":158.0,"so2":6.8,"mosquito_risk":0,"arthritis_risk":5,"migraine_risk":7,"frizz_risk":1,"updated_at":"2026-06-05T18:11:56.735464+05:30"},{"city":"Bhatinda","state":"Punjab","latitude":30.211,"longitude":74.9455,"temp":35.9,"humidity":30,"rain":0.0,"pressure":976.8,"uv_index":8.3,"wind_gusts":22.7,"aqi":166,"pm10":131.8,"pm2_5":46.4,"no2":3.7,"co":259.0,"o3":170.0,"so2":13.6,"mosquito_risk":0,"arthritis_risk":5,"migraine_risk":10,"frizz_risk":0,"updated_at":"2026-06-05T18:11:56.735470+05:30"},{"city":"Rohtak","state":"Haryana","latitude":28.8955,"longitude":76.6066,"temp":34.9,"humidity":38,"rain":0.0,"pressure":975.0,"uv_index":7.7,"wind_gusts":23.0,"aqi":265,"pm10":245.9,"pm2_5":51.8,"no2":3.9,"co":231.0,"o3":125.0,"so2":3.6,"mosquito_risk":0,"arthritis_risk":5,"migraine_risk":7,"frizz_risk":1,"updated_at":"2026-06-05T18:11:56.735477+05:30"},{"city":"Panipat","state":"Haryana","latitude":29.3909,"longitude":76.9635,"temp":32.5,"humidity":53,"rain":0.0,"pressure":974.0,"uv_index":7.55,"wind_gusts":29.9,"aqi":468,"pm10":456.3,"pm2_5":82.0,"no2":5.1,"co":309.0,"o3":138.0,"so2":12.3,"mosquito_risk":0,"arthritis_risk":5,"migraine_risk":7,"frizz_risk":1,"updated_at":"2026-06-05T18:11:56.735483+05:30"},{"city":"Mathura","state":"Uttar Pradesh","latitude":27.4924,"longitude":77.6737,"temp":33.4,"humidity":48,"rain":0.0,"pressure":979.9,"uv_index":7.65,"wind_gusts":29.2,"aqi":340,"pm10":356.7,"pm2_5":70.5,"no2":4.2,"co":184.0,"o3":132.0,"so2":5.7,"mosquito_risk":0,"arthritis_risk":5,"migraine_risk":7,"frizz_risk":1,"updated_at":"2026-06-05T18:11:56.735489+05:30"},{"city":"Vrindavan","state":"Uttar Pradesh","latitude":27.5823,"longitude":77.7027,"temp":33.6,"humidity":46,"rain":0.0,"pressure":980.3,"uv_index":7.8,"wind_gusts":28.1,"aqi":340,"pm10":356.7,"pm2_5":70.5,"no2":4.2,"co":184.0,"o3":132.0,"so2":5.7,"mosquito_risk":0,"arthritis_risk":5,"migraine_risk":7,"frizz_risk":1,"updated_at":"2026-06-05T18:11:56.735496+05:30"},{"city":"Ayodhya","state":"Uttar Pradesh","latitude":26.7922,"longitude":82.1998,"temp":34.6,"humidity":52,"rain":0.0,"pressure":986.4,"uv_index":8.45,"wind_gusts":29.5,"aqi":160,"pm10":92.2,"pm2_5":48.4,"no2":5.1,"co":337.0,"o3":140.0,"so2":5.3,"mosquito_risk":0,"arthritis_risk":5,"migraine_risk":7,"frizz_risk":1,"updated_at":"2026-06-05T18:11:56.735502+05:30"},{"city":"Ratlam","state":"Madhya Pradesh","latitude":23.3315,"longitude":75.0367,"temp":33.2,"humidity":45,"rain":0.0,"pressure":948.5,"uv_index":8.45,"wind_gusts":41.4,"aqi":87,"pm10":59.6,"pm2_5":28.6,"no2":0.8,"co":134.0,"o3":100.0,"so2":3.4,"mosquito_risk":0,"arthritis_risk":5,"migraine_risk":7,"frizz_risk":1,"updated_at":"2026-06-05T18:11:56.735508+05:30"},{"city":"Sagar","state":"Madhya Pradesh","latitude":23.8388,"longitude":78.7378,"temp":32.9,"humidity":34,"rain":0.0,"pressure":943.8,"uv_index":8.65,"wind_gusts":39.6,"aqi":80,"pm10":105.2,"pm2_5":36.6,"no2":1.6,"co":145.0,"o3":97.0,"so2":1.9,"mosquito_risk":0,"arthritis_risk":5,"migraine_risk":7,"frizz_risk":0,"updated_at":"2026-06-05T18:11:56.735514+05:30"},{"city":"Satna","state":"Madhya Pradesh","latitude":24.6005,"longitude":80.8322,"temp":35.8,"humidity":36,"rain":0.0,"pressure":963.5,"uv_index":8.85,"wind_gusts":37.8,"aqi":101,"pm10":94.3,"pm2_5":38.4,"no2":1.7,"co":156.0,"o3":122.0,"so2":3.8,"mosquito_risk":0,"arthritis_risk":5,"migraine_risk":10,"frizz_risk":1,"updated_at":"2026-06-05T18:11:56.735520+05:30"},{"city":"Akola","state":"Maharashtra","latitude":20.7002,"longitude":77.0082,"temp":36.7,"humidity":32,"rain":0.0,"pressure":967.7,"uv_index":8.8,"wind_gusts":45.7,"aqi":87,"pm10":55.6,"pm2_5":24.7,"no2":2.1,"co":135.0,"o3":105.0,"so2":4.9,"mosquito_risk":0,"arthritis_risk":5,"migraine_risk":10,"frizz_risk":1,"updated_at":"2026-06-05T18:11:56.735527+05:30"},{"city":"Amravati","state":"Maharashtra","latitude":20.9374,"longitude":77.7796,"temp":37.0,"humidity":32,"rain":0.0,"pressure":960.3,"uv_index":8.85,"wind_gusts":51.1,"aqi":92,"pm10":58.4,"pm2_5":26.5,"no2":2.6,"co":146.0,"o3":102.0,"so2":5.4,"mosquito_risk":0,"arthritis_risk":5,"migraine_risk":10,"frizz_risk":1,"updated_at":"2026-06-05T18:11:56.735534+05:30"},{"city":"Latur","state":"Maharashtra","latitude":18.4088,"longitude":76.5604,"temp":33.5,"humidity":48,"rain":0.0,"pressure":934.5,"uv_index":8.95,"wind_gusts":35.3,"aqi":66,"pm10":52.6,"pm2_5":22.0,"no2":1.5,"co":156.0,"o3":110.0,"so2":3.3,"mosquito_risk":0,"arthritis_risk":5,"migraine_risk":7,"frizz_risk":1,"updated_at":"2026-06-05T18:11:56.735540+05:30"},{"city":"Nanded","state":"Maharashtra","latitude":19.1383,"longitude":77.3091,"temp":36.9,"humidity":33,"rain":0.0,"pressure":961.9,"uv_index":8.95,"wind_gusts":31.0,"aqi":90,"pm10":56.0,"pm2_5":25.9,"no2":1.7,"co":158.0,"o3":116.0,"so2":3.1,"mosquito_risk":0,"arthritis_risk":5,"migraine_risk":10,"frizz_risk":1,"updated_at":"2026-06-05T18:11:56.735547+05:30"},{"city":"Gulbarga","state":"Karnataka","latitude":17.3297,"longitude":76.8343,"temp":32.8,"humidity":48,"rain":0.0,"pressure":953.2,"uv_index":7.25,"wind_gusts":45.0,"aqi":55,"pm10":36.1,"pm2_5":19.0,"no2":3.4,"co":277.0,"o3":115.0,"so2":2.9,"mosquito_risk":0,"arthritis_risk":5,"migraine_risk":7,"frizz_risk":1,"updated_at":"2026-06-05T18:11:56.735552+05:30"},{"city":"Bidar","state":"Karnataka","latitude":17.9104,"longitude":77.5199,"temp":32.1,"humidity":52,"rain":0.0,"pressure":930.5,"uv_index":7.3,"wind_gusts":43.9,"aqi":71,"pm10":66.4,"pm2_5":33.3,"no2":3.2,"co":301.0,"o3":124.0,"so2":5.1,"mosquito_risk":0,"arthritis_risk":5,"migraine_risk":7,"frizz_risk":1,"updated_at":"2026-06-05T18:11:56.735558+05:30"},{"city":"Hospet","state":"Karnataka","latitude":15.2689,"longitude":76.3909,"temp":26.2,"humidity":76,"rain":0.0,"pressure":952.1,"uv_index":8.05,"wind_gusts":45.7,"aqi":35,"pm10":5.9,"pm2_5":4.1,"no2":4.1,"co":172.0,"o3":70.0,"so2":1.3,"mosquito_risk":7,"arthritis_risk":5,"migraine_risk":7,"frizz_risk":1,"updated_at":"2026-06-05T18:11:56.735564+05:30"},{"city":"Tirupur","state":"Tamil Nadu","latitude":11.1085,"longitude":77.3411,"temp":26.9,"humidity":71,"rain":0.0,"pressure":971.9,"uv_index":8.55,"wind_gusts":64.1,"aqi":32,"pm10":4.3,"pm2_5":3.5,"no2":5.0,"co":145.0,"o3":57.0,"so2":2.1,"mosquito_risk":7,"arthritis_risk":5,"migraine_risk":7,"frizz_risk":1,"updated_at":"2026-06-05T18:11:56.735571+05:30"},{"city":"Alappuzha","state":"Kerala","latitude":9.4981,"longitude":76.3388,"temp":27.1,"humidity":90,"rain":0.0,"pressure":1007.7,"uv_index":7.25,"wind_gusts":38.5,"aqi":31,"pm10":13.5,"pm2_5":8.4,"no2":7.6,"co":92.0,"o3":37.0,"so2":1.3,"mosquito_risk":7,"arthritis_risk":5,"migraine_risk":4,"frizz_risk":1,"updated_at":"2026-06-05T18:11:56.735577+05:30"},{"city":"Munnar","state":"Kerala","latitude":10.0889,"longitude":77.0595,"temp":17.3,"humidity":93,"rain":0.0,"pressure":855.0,"uv_index":6.4,"wind_gusts":48.2,"aqi":22,"pm10":2.3,"pm2_5":1.9,"no2":4.6,"co":116.0,"o3":41.0,"so2":1.2,"mosquito_risk":3,"arthritis_risk":10,"migraine_risk":7,"frizz_risk":1,"updated_at":"2026-06-05T18:11:56.735583+05:30"},{"city":"Silchar","state":"Assam","latitude":24.8333,"longitude":92.7789,"temp":31.1,"humidity":75,"rain":0.0,"pressure":997.3,"uv_index":8.7,"wind_gusts":31.0,"aqi":114,"pm10":36.9,"pm2_5":29.3,"no2":3.9,"co":380.0,"o3":119.0,"so2":5.5,"mosquito_risk":3,"arthritis_risk":5,"migraine_risk":7,"frizz_risk":1,"updated_at":"2026-06-05T18:11:56.735589+05:30"},{"city":"Dibrugarh","state":"Assam","latitude":27.4728,"longitude":94.912,"temp":28.8,"humidity":75,"rain":0.0,"pressure":988.7,"uv_index":8.95,"wind_gusts":19.4,"aqi":113,"pm10":25.4,"pm2_5":22.5,"no2":7.2,"co":340.0,"o3":107.0,"so2":2.8,"mosquito_risk":7,"arthritis_risk":5,"migraine_risk":7,"frizz_risk":1,"updated_at":"2026-06-05T18:11:56.735596+05:30"}]