[{"city":"Delhi","state":"Delhi","latitude":28.6139,"longitude":77.209,"temp":27.8,"humidity":44,"rain":0.0,"pressure":980.4,"uv_index":6.05,"wind_gusts":21.6,"aqi":138,"pm10":168.1,"pm2_5":52.3,"mosquito_risk":4,"arthritis_risk":5,"migraine_risk":7,"frizz_risk":0,"updated_at":"2026-03-28T20:04:59.464883+05:30"},{"city":"Mumbai","state":"Maharashtra","latitude":19.076,"longitude":72.8777,"temp":26.7,"humidity":85,"rain":0.0,"pressure":1007.8,"uv_index":8.0,"wind_gusts":24.5,"aqi":97,"pm10":59.8,"pm2_5":16.0,"mosquito_risk":7,"arthritis_risk":5,"migraine_risk":4,"frizz_risk":1,"updated_at":"2026-03-28T20:04:59.464933+05:30"},{"city":"Bangalore","state":"Karnataka","latitude":12.9716,"longitude":77.5946,"temp":26.6,"humidity":61,"rain":0.0,"pressure":910.5,"uv_index":9.5,"wind_gusts":42.5,"aqi":178,"pm10":65.2,"pm2_5":57.3,"mosquito_risk":7,"arthritis_risk":5,"migraine_risk":7,"frizz_risk":1,"updated_at":"2026-03-28T20:04:59.464948+05:30"},{"city":"Hyderabad","state":"Telangana","latitude":17.385,"longitude":78.4867,"temp":32.9,"humidity":33,"rain":0.0,"pressure":950.7,"uv_index":9.0,"wind_gusts":24.8,"aqi":134,"pm10":44.6,"pm2_5":39.7,"mosquito_risk":0,"arthritis_risk":5,"migraine_risk":7,"frizz_risk":0,"updated_at":"2026-03-28T20:04:59.464958+05:30"},{"city":"Chennai","state":"Tamil Nadu","latitude":13.0827,"longitude":80.2707,"temp":27.5,"humidity":80,"rain":0.0,"pressure":1006.2,"uv_index":9.25,"wind_gusts":34.6,"aqi":68,"pm10":22.5,"pm2_5":15.9,"mosquito_risk":7,"arthritis_risk":5,"migraine_risk":4,"frizz_risk":1,"updated_at":"2026-03-28T20:04:59.464966+05:30"},{"city":"Kolkata","state":"West Bengal","latitude":22.5726,"longitude":88.3639,"temp":24.5,"humidity":88,"rain":0.0,"pressure":1005.9,"uv_index":8.4,"wind_gusts":31.7,"aqi":187,"pm10":58.1,"pm2_5":51.8,"mosquito_risk":3,"arthritis_risk":5,"migraine_risk":4,"frizz_risk":1,"updated_at":"2026-03-28T20:04:59.464974+05:30"},{"city":"Pune","state":"Maharashtra","latitude":18.5204,"longitude":73.8567,"temp":28.2,"humidity":30,"rain":0.0,"pressure":947.6,"uv_index":8.5,"wind_gusts":49.0,"aqi":117,"pm10":17.3,"pm2_5":15.9,"mosquito_risk":4,"arthritis_risk":5,"migraine_risk":7,"frizz_risk":0,"updated_at":"2026-03-28T20:04:59.464983+05:30"},{"city":"Ahmedabad","state":"Gujarat","latitude":23.0225,"longitude":72.5714,"temp":31.9,"humidity":43,"rain":0.0,"pressure":999.3,"uv_index":7.95,"wind_gusts":34.2,"aqi":40,"pm10":23.0,"pm2_5":9.5,"mosquito_risk":0,"arthritis_risk":5,"migraine_risk":7,"frizz_risk":1,"updated_at":"2026-03-28T20:04:59.464991+05:30"},{"city":"Jaipur","state":"Rajasthan","latitude":26.9124,"longitude":75.7873,"temp":30.4,"humidity":32,"rain":0.0,"pressure":956.7,"uv_index":7.45,"wind_gusts":32.4,"aqi":90,"pm10":114.6,"pm2_5":23.5,"mosquito_risk":0,"arthritis_risk":5,"migraine_risk":7,"frizz_risk":0,"updated_at":"2026-03-28T20:04:59.464997+05:30"},{"city":"Lucknow","state":"Uttar Pradesh","latitude":26.8467,"longitude":80.9462,"temp":27.9,"humidity":47,"rain":0.0,"pressure":990.7,"uv_index":7.15,"wind_gusts":28.1,"aqi":132,"pm10":159.7,"pm2_5":41.2,"mosquito_risk":4,"arthritis_risk":5,"migraine_risk":7,"frizz_risk":0,"updated_at":"2026-03-28T20:04:59.465004+05:30"},{"city":"Kanpur","state":"Uttar Pradesh","latitude":26.4499,"longitude":80.3319,"temp":27.2,"humidity":57,"rain":0.0,"pressure":988.8,"uv_index":6.95,"wind_gusts":25.2,"aqi":197,"pm10":297.1,"pm2_5":54.6,"mosquito_risk":4,"arthritis_risk":5,"migraine_risk":7,"frizz_risk":1,"updated_at":"2026-03-28T20:04:59.465010+05:30"},{"city":"Chandigarh","state":"Chandigarh","latitude":30.7333,"longitude":76.7794,"temp":23.6,"humidity":69,"rain":0.0,"pressure":966.1,"uv_index":5.4,"wind_gusts":23.4,"aqi":127,"pm10":28.8,"pm2_5":25.9,"mosquito_risk":3,"arthritis_risk":5,"migraine_risk":3,"frizz_risk":1,"updated_at":"2026-03-28T20:04:59.465016+05:30"},{"city":"Srinagar","state":"Jammu and Kashmir","latitude":34.0837,"longitude":74.7973,"temp":14.9,"humidity":80,"rain":0.1,"pressure":838.2,"uv_index":6.0,"wind_gusts":16.2,"aqi":118,"pm10":46.9,"pm2_5":31.8,"mosquito_risk":6,"arthritis_risk":5,"migraine_risk":3,"frizz_risk":0,"updated_at":"2026-03-28T20:04:59.465022+05:30"},{"city":"Jammu","state":"Jammu and Kashmir","latitude":32.7266,"longitude":74.857,"temp":25.7,"humidity":55,"rain":0.0,"pressure":970.0,"uv_index":7.05,"wind_gusts":16.6,"aqi":127,"pm10":36.6,"pm2_5":35.0,"mosquito_risk":4,"arthritis_risk":5,"migraine_risk":7,"frizz_risk":0,"updated_at":"2026-03-28T20:04:59.465030+05:30"},{"city":"Amritsar","state":"Punjab","latitude":31.634,"longitude":74.8723,"temp":25.4,"humidity":62,"rain":0.0,"pressure":978.2,"uv_index":7.0,"wind_gusts":14.0,"aqi":132,"pm10":27.2,"pm2_5":21.8,"mosquito_risk":7,"arthritis_risk":5,"migraine_risk":7,"frizz_risk":1,"updated_at":"2026-03-28T20:04:59.465036+05:30"},{"city":"Ludhiana","state":"Punjab","latitude":30.901,"longitude":75.8573,"temp":26.1,"humidity":56,"rain":0.0,"pressure":976.1,"uv_index":6.05,"wind_gusts":13.7,"aqi":103,"pm10":60.3,"pm2_5":46.6,"mosquito_risk":4,"arthritis_risk":5,"migraine_risk":7,"frizz_risk":1,"updated_at":"2026-03-28T20:04:59.465041+05:30"},{"city":"Jalandhar","state":"Punjab","latitude":31.326,"longitude":75.5762,"temp":24.7,"humidity":64,"rain":0.0,"pressure":977.3,"uv_index":6.25,"wind_gusts":11.5,"aqi":103,"pm10":49.2,"pm2_5":34.5,"mosquito_risk":3,"arthritis_risk":5,"migraine_risk":7,"frizz_risk":1,"updated_at":"2026-03-28T20:04:59.465049+05:30"},{"city":"Dehradun","state":"Uttarakhand","latitude":30.6284,"longitude":78.0322,"temp":15.6,"humidity":81,"rain":0.0,"pressure":827.4,"uv_index":5.85,"wind_gusts":22.3,"aqi":107,"pm10":29.1,"pm2_5":23.3,"mosquito_risk":3,"arthritis_risk":10,"migraine_risk":3,"frizz_risk":0,"updated_at":"2026-03-28T20:04:59.465054+05:30"},{"city":"Shimla","state":"Himachal Pradesh","latitude":31.1048,"longitude":77.1734,"temp":13.6,"humidity":84,"rain":0.0,"pressure":781.8,"uv_index":6.15,"wind_gusts":33.1,"aqi":118,"pm10":27.5,"pm2_5":23.3,"mosquito_risk":3,"arthritis_risk":10,"migraine_risk":7,"frizz_risk":0,"updated_at":"2026-03-28T20:04:59.465060+05:30"},{"city":"Manali","state":"Himachal Pradesh","latitude":32.2396,"longitude":77.1887,"temp":16.5,"humidity":84,"rain":0.0,"pressure":817.3,"uv_index":8.45,"wind_gusts":29.9,"aqi":134,"pm10":26.1,"pm2_5":10.6,"mosquito_risk":3,"arthritis_risk":10,"migraine_risk":7,"frizz_risk":0,"updated_at":"2026-03-28T20:04:59.465066+05:30"},{"city":"Gurgaon","state":"Haryana","latitude":28.4595,"longitude":77.0266,"temp":26.1,"humidity":53,"rain":0.0,"pressure":978.7,"uv_index":6.2,"wind_gusts":17.3,"aqi":412,"pm10":354.8,"pm2_5":68.9,"mosquito_risk":4,"arthritis_risk":5,"migraine_risk":7,"frizz_risk":0,"updated_at":"2026-03-28T20:04:59.465072+05:30"},{"city":"Noida","state":"Uttar Pradesh","latitude":28.5355,"longitude":77.391,"temp":27.4,"humidity":47,"rain":0.0,"pressure":981.9,"uv_index":6.05,"wind_gusts":21.6,"aqi":412,"pm10":354.8,"pm2_5":68.9,"mosquito_risk":4,"arthritis_risk":5,"migraine_risk":7,"frizz_risk":0,"updated_at":"2026-03-28T20:04:59.465078+05:30"},{"city":"Ghaziabad","state":"Uttar Pradesh","latitude":28.6692,"longitude":77.4538,"temp":26.4,"humidity":52,"rain":0.0,"pressure":979.9,"uv_index":5.95,"wind_gusts":20.5,"aqi":152,"pm10":122.0,"pm2_5":46.3,"mosquito_risk":4,"arthritis_risk":5,"migraine_risk":3,"frizz_risk":0,"updated_at":"2026-03-28T20:04:59.465083+05:30"},{"city":"Faridabad","state":"Haryana","latitude":28.4089,"longitude":77.3178,"temp":26.3,"humidity":50,"rain":0.0,"pressure":981.1,"uv_index":6.15,"wind_gusts":19.8,"aqi":412,"pm10":354.8,"pm2_5":68.9,"mosquito_risk":4,"arthritis_risk":5,"migraine_risk":7,"frizz_risk":0,"updated_at":"2026-03-28T20:04:59.465089+05:30"},{"city":"Meerut","state":"Uttar Pradesh","latitude":28.9845,"longitude":77.7064,"temp":24.8,"humidity":60,"rain":0.0,"pressure":978.8,"uv_index":5.9,"wind_gusts":23.0,"aqi":152,"pm10":122.0,"pm2_5":46.3,"mosquito_risk":0,"arthritis_risk":5,"migraine_risk":3,"frizz_risk":1,"updated_at":"2026-03-28T20:04:59.465094+05:30"},{"city":"Agra","state":"Uttar Pradesh","latitude":27.1767,"longitude":78.0081,"temp":27.2,"humidity":44,"rain":0.0,"pressure":984.7,"uv_index":6.45,"wind_gusts":25.6,"aqi":455,"pm10":486.2,"pm2_5":70.3,"mosquito_risk":4,"arthritis_risk":5,"migraine_risk":7,"frizz_risk":0,"updated_at":"2026-03-28T20:04:59.465099+05:30"},{"city":"Varanasi","state":"Uttar Pradesh","latitude":25.3176,"longitude":82.9739,"temp":26.0,"humidity":54,"rain":0.0,"pressure":995.2,"uv_index":7.8,"wind_gusts":37.4,"aqi":112,"pm10":81.0,"pm2_5":39.0,"mosquito_risk":4,"arthritis_risk":5,"migraine_risk":7,"frizz_risk":0,"updated_at":"2026-03-28T20:04:59.465108+05:30"},{"city":"Prayagraj","state":"Uttar Pradesh","latitude":25.4358,"longitude":81.8463,"temp":27.3,"humidity":50,"rain":0.0,"pressure":993.5,"uv_index":7.7,"wind_gusts":30.2,"aqi":108,"pm10":105.5,"pm2_5":38.3,"mosquito_risk":4,"arthritis_risk":5,"migraine_risk":7,"frizz_risk":0,"updated_at":"2026-03-28T20:04:59.465115+05:30"},{"city":"Gorakhpur","state":"Uttar Pradesh","latitude":26.7606,"longitude":83.3732,"temp":25.4,"humidity":63,"rain":0.0,"pressure":994.9,"uv_index":6.1,"wind_gusts":28.1,"aqi":107,"pm10":50.5,"pm2_5":28.9,"mosquito_risk":7,"arthritis_risk":5,"migraine_risk":7,"frizz_risk":1,"updated_at":"2026-03-28T20:04:59.465120+05:30"},{"city":"Bareilly","state":"Uttar Pradesh","latitude":28.367,"longitude":79.4304,"temp":24.8,"humidity":65,"rain":0.0,"pressure":984.2,"uv_index":6.3,"wind_gusts":24.5,"aqi":105,"pm10":34.0,"pm2_5":27.3,"mosquito_risk":3,"arthritis_risk":5,"migraine_risk":7,"frizz_risk":1,"updated_at":"2026-03-28T20:04:59.465127+05:30"},{"city":"Aligarh","state":"Uttar Pradesh","latitude":27.8974,"longitude":78.088,"temp":24.9,"humidity":59,"rain":0.0,"pressure":982.9,"uv_index":6.2,"wind_gusts":23.8,"aqi":271,"pm10":468.5,"pm2_5":79.6,"mosquito_risk":0,"arthritis_risk":5,"migraine_risk":7,"frizz_risk":1,"updated_at":"2026-03-28T20:04:59.465132+05:30"},{"city":"Moradabad","state":"Uttar Pradesh","latitude":28.8386,"longitude":78.7733,"temp":24.4,"humidity":64,"rain":0.0,"pressure":981.0,"uv_index":6.1,"wind_gusts":23.0,"aqi":113,"pm10":52.7,"pm2_5":40.3,"mosquito_risk":3,"arthritis_risk":5,"migraine_risk":7,"frizz_risk":1,"updated_at":"2026-03-28T20:04:59.465138+05:30"},{"city":"Saharanpur","state":"Uttar Pradesh","latitude":29.9637,"longitude":77.546,"temp":23.7,"humidity":64,"rain":0.0,"pressure":973.0,"uv_index":5.15,"wind_gusts":24.8,"aqi":135,"pm10":71.7,"pm2_5":43.2,"mosquito_risk":3,"arthritis_risk":5,"migraine_risk":3,"frizz_risk":1,"updated_at":"2026-03-28T20:04:59.465143+05:30"},{"city":"Jhansi","state":"Uttar Pradesh","latitude":25.4484,"longitude":78.5685,"temp":28.7,"humidity":37,"rain":0.0,"pressure":975.0,"uv_index":7.05,"wind_gusts":31.3,"aqi":91,"pm10":33.5,"pm2_5":14.7,"mosquito_risk":4,"arthritis_risk":5,"migraine_risk":7,"frizz_risk":0,"updated_at":"2026-03-28T20:05:02.719356+05:30"},{"city":"Surat","state":"Gujarat","latitude":21.1702,"longitude":72.8311,"temp":26.9,"humidity":81,"rain":0.0,"pressure":1005.0,"uv_index":7.75,"wind_gusts":30.6,"aqi":84,"pm10":53.2,"pm2_5":22.5,"mosquito_risk":7,"arthritis_risk":5,"migraine_risk":4,"frizz_risk":1,"updated_at":"2026-03-28T20:05:02.719383+05:30"},{"city":"Vadodara","state":"Gujarat","latitude":22.3072,"longitude":73.1812,"temp":30.9,"humidity":44,"rain":0.0,"pressure":1001.9,"uv_index":7.95,"wind_gusts":32.8,"aqi":60,"pm10":41.7,"pm2_5":20.1,"mosquito_risk":0,"arthritis_risk":5,"migraine_risk":4,"frizz_risk":1,"updated_at":"2026-03-28T20:05:02.719393+05:30"},{"city":"Rajkot","state":"Gujarat","latitude":22.3039,"longitude":70.8022,"temp":28.6,"humidity":60,"rain":0.0,"pressure":992.8,"uv_index":7.8,"wind_gusts":43.2,"aqi":41,"pm10":15.4,"pm2_5":8.2,"mosquito_risk":4,"arthritis_risk":5,"migraine_risk":7,"frizz_risk":1,"updated_at":"2026-03-28T20:05:02.719401+05:30"},{"city":"Thane","state":"Maharashtra","latitude":19.2183,"longitude":72.9781,"temp":26.1,"humidity":85,"rain":0.0,"pressure":1007.2,"uv_index":8.0,"wind_gusts":37.8,"aqi":97,"pm10":59.8,"pm2_5":16.0,"mosquito_risk":7,"arthritis_risk":5,"migraine_risk":4,"frizz_risk":1,"updated_at":"2026-03-28T20:05:02.719409+05:30"},{"city":"Nagpur","state":"Maharashtra","latitude":21.1458,"longitude":79.0882,"temp":31.0,"humidity":27,"rain":0.0,"pressure":969.5,"uv_index":8.5,"wind_gusts":31.3,"aqi":82,"pm10":24.7,"pm2_5":18.0,"mosquito_risk":0,"arthritis_risk":5,"migraine_risk":7,"frizz_risk":0,"updated_at":"2026-03-28T20:05:02.719416+05:30"},{"city":"Nashik","state":"Maharashtra","latitude":19.9975,"longitude":73.7898,"temp":25.8,"humidity":48,"rain":0.0,"pressure":944.4,"uv_index":8.2,"wind_gusts":43.6,"aqi":55,"pm10":21.9,"pm2_5":9.3,"mosquito_risk":4,"arthritis_risk":5,"migraine_risk":7,"frizz_risk":0,"updated_at":"2026-03-28T20:05:02.719424+05:30"},{"city":"Aurangabad","state":"Maharashtra","latitude":19.8762,"longitude":75.3433,"temp":30.7,"humidity":23,"rain":0.0,"pressure":942.1,"uv_index":8.7,"wind_gusts":43.6,"aqi":87,"pm10":15.7,"pm2_5":8.8,"mosquito_risk":0,"arthritis_risk":5,"migraine_risk":7,"frizz_risk":0,"updated_at":"2026-03-28T20:05:02.719431+05:30"},{"city":"Solapur","state":"Maharashtra","latitude":17.6599,"longitude":75.9064,"temp":32.9,"humidity":24,"rain":0.0,"pressure":954.6,"uv_index":8.85,"wind_gusts":31.7,"aqi":95,"pm10":22.0,"pm2_5":17.7,"mosquito_risk":0,"arthritis_risk":5,"migraine_risk":7,"frizz_risk":0,"updated_at":"2026-03-28T20:05:02.719438+05:30"},{"city":"Kolhapur","state":"Maharashtra","latitude":16.705,"longitude":74.2433,"temp":25.9,"humidity":61,"rain":0.0,"pressure":947.4,"uv_index":8.95,"wind_gusts":43.6,"aqi":125,"pm10":29.5,"pm2_5":27.2,"mosquito_risk":7,"arthritis_risk":5,"migraine_risk":7,"frizz_risk":1,"updated_at":"2026-03-28T20:05:02.719445+05:30"},{"city":"Goa","state":"Goa","latitude":15.2993,"longitude":74.124,"temp":28.6,"humidity":74,"rain":0.0,"pressure":997.2,"uv_index":8.95,"wind_gusts":28.4,"aqi":96,"pm10":41.0,"pm2_5":34.9,"mosquito_risk":7,"arthritis_risk":5,"migraine_risk":7,"frizz_risk":1,"updated_at":"2026-03-28T20:05:02.719453+05:30"},{"city":"Jodhpur","state":"Rajasthan","latitude":26.2389,"longitude":73.0243,"temp":30.0,"humidity":38,"rain":0.0,"pressure":979.6,"uv_index":7.8,"wind_gusts":31.0,"aqi":72,"pm10":217.0,"pm2_5":27.9,"mosquito_risk":4,"arthritis_risk":5,"migraine_risk":7,"frizz_risk":0,"updated_at":"2026-03-28T20:05:02.719460+05:30"},{"city":"Udaipur","state":"Rajasthan","latitude":24.5854,"longitude":73.7125,"temp":27.2,"humidity":45,"rain":0.0,"pressure":944.5,"uv_index":8.35,"wind_gusts":33.5,"aqi":41,"pm10":26.0,"pm2_5":7.9,"mosquito_risk":4,"arthritis_risk":5,"migraine_risk":7,"frizz_risk":0,"updated_at":"2026-03-28T20:05:02.719467+05:30"},{"city":"Kota","state":"Rajasthan","latitude":25.2138,"longitude":75.8648,"temp":32.2,"humidity":29,"rain":0.0,"pressure":974.8,"uv_index":7.7,"wind_gusts":24.5,"aqi":64,"pm10":86.4,"pm2_5":24.6,"mosquito_risk":0,"arthritis_risk":5,"migraine_risk":7,"frizz_risk":0,"updated_at":"2026-03-28T20:05:02.719473+05:30"},{"city":"Bikaner","state":"Rajasthan","latitude":28.0229,"longitude":73.3119,"temp":32.0,"humidity":31,"rain":0.0,"pressure":977.6,"uv_index":7.5,"wind_gusts":20.9,"aqi":50,"pm10":39.1,"pm2_5":13.0,"mosquito_risk":0,"arthritis_risk":5,"migraine_risk":7,"frizz_risk":0,"updated_at":"2026-03-28T20:05:02.719480+05:30"},{"city":"Ajmer","state":"Rajasthan","latitude":26.4499,"longitude":74.6399,"temp":28.0,"humidity":40,"rain":0.0,"pressure":951.5,"uv_index":7.75,"wind_gusts":30.6,"aqi":57,"pm10":32.8,"pm2_5":12.1,"mosquito_risk":4,"arthritis_risk":5,"migraine_risk":7,"frizz_risk":0,"updated_at":"2026-03-28T20:05:02.719487+05:30"},{"city":"Gwalior","state":"Madhya Pradesh","latitude":26.2183,"longitude":78.1828,"temp":28.3,"humidity":42,"rain":0.0,"pressure":980.3,"uv_index":6.75,"wind_gusts":36.4,"aqi":142,"pm10":97.6,"pm2_5":25.9,"mosquito_risk":4,"arthritis_risk":5,"migraine_risk":7,"frizz_risk":0,"updated_at":"2026-03-28T20:05:02.719493+05:30"},{"city":"Indore","state":"Madhya Pradesh","latitude":22.7196,"longitude":75.8577,"temp":27.7,"humidity":39,"rain":0.0,"pressure":946.0,"uv_index":8.2,"wind_gusts":37.1,"aqi":59,"pm10":17.2,"pm2_5":11.6,"mosquito_risk":4,"arthritis_risk":5,"migraine_risk":7,"frizz_risk":0,"updated_at":"2026-03-28T20:05:02.719500+05:30"},{"city":"Bhopal","state":"Madhya Pradesh","latitude":23.2599,"longitude":77.4126,"temp":29.9,"humidity":35,"rain":0.0,"pressure":950.7,"uv_index":8.15,"wind_gusts":31.3,"aqi":55,"pm10":17.8,"pm2_5":10.5,"mosquito_risk":4,"arthritis_risk":5,"migraine_risk":7,"frizz_risk":0,"updated_at":"2026-03-28T20:05:02.719506+05:30"},{"city":"Jabalpur","state":"Madhya Pradesh","latitude":23.1815,"longitude":79.9864,"temp":28.6,"humidity":45,"rain":0.0,"pressure":958.2,"uv_index":8.25,"wind_gusts":29.9,"aqi":70,"pm10":34.5,"pm2_5":17.8,"mosquito_risk":4,"arthritis_risk":5,"migraine_risk":7,"frizz_risk":0,"updated_at":"2026-03-28T20:05:02.719513+05:30"},{"city":"Ujjain","state":"Madhya Pradesh","latitude":23.1765,"longitude":75.7885,"temp":27.7,"humidity":43,"rain":0.0,"pressure":951.7,"uv_index":8.15,"wind_gusts":34.2,"aqi":49,"pm10":17.1,"pm2_5":10.8,"mosquito_risk":4,"arthritis_risk":5,"migraine_risk":7,"frizz_risk":0,"updated_at":"2026-03-28T20:05:02.719520+05:30"},{"city":"Visakhapatnam","state":"Andhra Pradesh","latitude":17.6868,"longitude":83.2185,"temp":27.5,"humidity":80,"rain":0.0,"pressure":1001.9,"uv_index":9.0,"wind_gusts":41.8,"aqi":94,"pm10":32.1,"pm2_5":21.6,"mosquito_risk":7,"arthritis_risk":5,"migraine_risk":4,"frizz_risk":1,"updated_at":"2026-03-28T20:05:02.719527+05:30"},{"city":"Vijayawada","state":"Andhra Pradesh","latitude":16.5062,"longitude":80.648,"temp":29.5,"humidity":59,"rain":0.0,"pressure":1000.3,"uv_index":9.05,"wind_gusts":30.6,"aqi":84,"pm10":40.4,"pm2_5":34.2,"mosquito_risk":4,"arthritis_risk":5,"migraine_risk":4,"frizz_risk":1,"updated_at":"2026-03-28T20:05:02.719534+05:30"},{"city":"Guntur","state":"Andhra Pradesh","latitude":16.3067,"longitude":80.4365,"temp":28.2,"humidity":71,"rain":0.0,"pressure":1001.7,"uv_index":9.05,"wind_gusts":33.1,"aqi":97,"pm10":45.8,"pm2_5":39.6,"mosquito_risk":7,"arthritis_risk":5,"migraine_risk":4,"frizz_risk":1,"updated_at":"2026-03-28T20:05:02.719541+05:30"},{"city":"Nellore","state":"Andhra Pradesh","latitude":14.4426,"longitude":79.9865,"temp":27.8,"humidity":78,"rain":0.0,"pressure":1004.3,"uv_index":9.2,"wind_gusts":34.6,"aqi":138,"pm10":26.4,"pm2_5":20.7,"mosquito_risk":7,"arthritis_risk":5,"migraine_risk":4,"frizz_risk":1,"updated_at":"2026-03-28T20:05:02.719549+05:30"},{"city":"Kurnool","state":"Andhra Pradesh","latitude":15.8281,"longitude":78.0373,"temp":34.1,"humidity":29,"rain":0.0,"pressure":974.0,"uv_index":9.05,"wind_gusts":33.5,"aqi":167,"pm10":54.8,"pm2_5":46.6,"mosquito_risk":0,"arthritis_risk":5,"migraine_risk":7,"frizz_risk":0,"updated_at":"2026-03-28T20:05:02.719557+05:30"},{"city":"Kakinada","state":"Andhra Pradesh","latitude":16.9891,"longitude":82.2475,"temp":27.8,"humidity":77,"rain":0.0,"pressure":1005.4,"uv_index":9.0,"wind_gusts":35.3,"aqi":73,"pm10":28.2,"pm2_5":16.9,"mosquito_risk":7,"arthritis_risk":5,"migraine_risk":4,"frizz_risk":1,"updated_at":"2026-03-28T20:05:02.719563+05:30"},{"city":"Tirupati","state":"Andhra Pradesh","latitude":13.6288,"longitude":79.4192,"temp":30.2,"humidity":53,"rain":0.0,"pressure":990.2,"uv_index":9.25,"wind_gusts":27.4,"aqi":116,"pm10":48.9,"pm2_5":42.4,"mosquito_risk":0,"arthritis_risk":5,"migraine_risk":7,"frizz_risk":1,"updated_at":"2026-03-28T20:05:02.719570+05:30"},{"city":"Warangal","state":"Telangana","latitude":17.9689,"longitude":79.5941,"temp":32.9,"humidity":34,"rain":0.0,"pressure":975.7,"uv_index":8.85,"wind_gusts":25.6,"aqi":122,"pm10":54.0,"pm2_5":50.5,"mosquito_risk":0,"arthritis_risk":5,"migraine_risk":7,"frizz_risk":0,"updated_at":"2026-03-28T20:05:02.719576+05:30"},{"city":"Nizamabad","state":"Telangana","latitude":18.6725,"longitude":78.0941,"temp":32.1,"humidity":33,"rain":0.0,"pressure":961.7,"uv_index":8.8,"wind_gusts":26.3,"aqi":91,"pm10":22.6,"pm2_5":20.1,"mosquito_risk":0,"arthritis_risk":5,"migraine_risk":7,"frizz_risk":0,"updated_at":"2026-03-28T20:05:02.719583+05:30"},{"city":"Mysore","state":"Karnataka","latitude":12.2958,"longitude":76.6396,"temp":25.9,"humidity":74,"rain":0.0,"pressure":927.9,"uv_index":9.45,"wind_gusts":45.7,"aqi":169,"pm10":41.7,"pm2_5":37.0,"mosquito_risk":7,"arthritis_risk":5,"migraine_risk":7,"frizz_risk":1,"updated_at":"2026-03-28T20:05:02.719590+05:30"},{"city":"Mangalore","state":"Karnataka","latitude":12.9141,"longitude":74.856,"temp":29.4,"humidity":82,"rain":0.0,"pressure":1005.9,"uv_index":9.1,"wind_gusts":23.8,"aqi":94,"pm10":35.4,"pm2_5":28.1,"mosquito_risk":7,"arthritis_risk":5,"migraine_risk":4,"frizz_risk":1,"updated_at":"2026-03-28T20:05:02.719596+05:30"},{"city":"Hubli-Dharwad","state":"Karnataka","latitude":15.3647,"longitude":75.124,"temp":27.0,"humidity":73,"rain":0.0,"pressure":940.2,"uv_index":8.3,"wind_gusts":44.3,"aqi":149,"pm10":39.6,"pm2_5":35.0,"mosquito_risk":7,"arthritis_risk":5,"migraine_risk":7,"frizz_risk":1,"updated_at":"2026-03-28T20:05:02.719604+05:30"},{"city":"Belgaum","state":"Karnataka","latitude":15.8497,"longitude":74.4977,"temp":25.0,"humidity":79,"rain":0.0,"pressure":925.1,"uv_index":8.95,"wind_gusts":36.4,"aqi":122,"pm10":38.5,"pm2_5":34.1,"mosquito_risk":7,"arthritis_risk":5,"migraine_risk":7,"frizz_risk":1,"updated_at":"2026-03-28T20:05:05.971502+05:30"},{"city":"Coimbatore","state":"Tamil Nadu","latitude":11.0168,"longitude":76.9558,"temp":26.5,"humidity":76,"rain":0.0,"pressure":960.7,"uv_index":9.45,"wind_gusts":54.4,"aqi":112,"pm10":32.9,"pm2_5":30.4,"mosquito_risk":7,"arthritis_risk":5,"migraine_risk":7,"frizz_risk":1,"updated_at":"2026-03-28T20:05:05.971531+05:30"},{"city":"Madurai","state":"Tamil Nadu","latitude":9.9252,"longitude":78.1198,"temp":29.3,"humidity":61,"rain":0.0,"pressure":992.1,"uv_index":9.4,"wind_gusts":38.5,"aqi":129,"pm10":25.9,"pm2_5":22.4,"mosquito_risk":7,"arthritis_risk":5,"migraine_risk":7,"frizz_risk":1,"updated_at":"2026-03-28T20:05:05.971541+05:30"},{"city":"Trichy","state":"Tamil Nadu","latitude":10.7905,"longitude":78.7047,"temp":29.7,"humidity":65,"rain":0.0,"pressure":998.0,"uv_index":9.35,"wind_gusts":25.9,"aqi":93,"pm10":19.0,"pm2_5":17.2,"mosquito_risk":7,"arthritis_risk":5,"migraine_risk":7,"frizz_risk":1,"updated_at":"2026-03-28T20:05:05.971549+05:30"},{"city":"Salem","state":"Tamil Nadu","latitude":11.6643,"longitude":78.146,"temp":32.5,"humidity":39,"rain":0.0,"pressure":975.2,"uv_index":9.4,"wind_gusts":30.6,"aqi":165,"pm10":48.1,"pm2_5":39.7,"mosquito_risk":0,"arthritis_risk":5,"migraine_risk":7,"frizz_risk":1,"updated_at":"2026-03-28T20:05:05.971558+05:30"},{"city":"Tirunelveli","state":"Tamil Nadu","latitude":8.7139,"longitude":77.7567,"temp":29.8,"humidity":63,"rain":0.0,"pressure":1002.0,"uv_index":9.35,"wind_gusts":47.5,"aqi":108,"pm10":24.9,"pm2_5":22.4,"mosquito_risk":7,"arthritis_risk":5,"migraine_risk":4,"frizz_risk":1,"updated_at":"2026-03-28T20:05:05.971566+05:30"},{"city":"Vellore","state":"Tamil Nadu","latitude":12.9165,"longitude":79.1325,"temp":29.7,"humidity":55,"rain":0.0,"pressure":983.2,"uv_index":9.35,"wind_gusts":31.0,"aqi":138,"pm10":54.2,"pm2_5":48.8,"mosquito_risk":4,"arthritis_risk":5,"migraine_risk":7,"frizz_risk":1,"updated_at":"2026-03-28T20:05:05.971574+05:30"},{"city":"Erode","state":"Tamil Nadu","latitude":11.341,"longitude":77.7172,"temp":32.9,"humidity":46,"rain":0.0,"pressure":986.5,"uv_index":9.35,"wind_gusts":26.3,"aqi":155,"pm10":39.6,"pm2_5":33.4,"mosquito_risk":0,"arthritis_risk":5,"migraine_risk":7,"frizz_risk":1,"updated_at":"2026-03-28T20:05:05.971581+05:30"},{"city":"Kochi","state":"Kerala","latitude":9.9312,"longitude":76.2673,"temp":29.3,"humidity":77,"rain":0.0,"pressure":1007.8,"uv_index":8.45,"wind_gusts":31.7,"aqi":93,"pm10":36.8,"pm2_5":32.9,"mosquito_risk":7,"arthritis_risk":5,"migraine_risk":4,"frizz_risk":1,"updated_at":"2026-03-28T20:05:05.971588+05:30"},{"city":"Thiruvananthapuram","state":"Kerala","latitude":8.5241,"longitude":76.9366,"temp":28.9,"humidity":80,"rain":0.0,"pressure":1007.5,"uv_index":9.15,"wind_gusts":39.6,"aqi":65,"pm10":25.2,"pm2_5":19.7,"mosquito_risk":7,"arthritis_risk":5,"migraine_risk":4,"frizz_risk":1,"updated_at":"2026-03-28T20:05:05.971596+05:30"},{"city":"Kozhikode","state":"Kerala","latitude":11.2588,"longitude":75.7804,"temp":29.4,"humidity":80,"rain":0.0,"pressure":1007.0,"uv_index":9.1,"wind_gusts":31.0,"aqi":79,"pm10":30.2,"pm2_5":23.6,"mosquito_risk":7,"arthritis_risk":5,"migraine_risk":4,"frizz_risk":1,"updated_at":"2026-03-28T20:05:05.971603+05:30"},{"city":"Thrissur","state":"Kerala","latitude":10.5276,"longitude":76.2144,"temp":28.9,"humidity":79,"rain":0.0,"pressure":1006.1,"uv_index":9.15,"wind_gusts":36.4,"aqi":90,"pm10":32.9,"pm2_5":29.6,"mosquito_risk":7,"arthritis_risk":5,"migraine_risk":4,"frizz_risk":1,"updated_at":"2026-03-28T20:05:05.971610+05:30"},{"city":"Kannur","state":"Kerala","latitude":11.8745,"longitude":75.3704,"temp":29.4,"humidity":77,"rain":0.0,"pressure":1006.4,"uv_index":9.05,"wind_gusts":31.0,"aqi":89,"pm10":36.4,"pm2_5":29.7,"mosquito_risk":7,"arthritis_risk":5,"migraine_risk":4,"frizz_risk":1,"updated_at":"2026-03-28T20:05:05.971617+05:30"},{"city":"Patna","state":"Bihar","latitude":25.5941,"longitude":85.1376,"temp":26.1,"humidity":67,"rain":0.0,"pressure":998.6,"uv_index":7.9,"wind_gusts":29.5,"aqi":90,"pm10":63.1,"pm2_5":36.8,"mosquito_risk":7,"arthritis_risk":5,"migraine_risk":7,"frizz_risk":1,"updated_at":"2026-03-28T20:05:05.971624+05:30"},{"city":"Gaya","state":"Bihar","latitude":24.7914,"longitude":85.0002,"temp":24.7,"humidity":71,"rain":0.0,"pressure":992.0,"uv_index":7.9,"wind_gusts":24.1,"aqi":92,"pm10":54.8,"pm2_5":29.3,"mosquito_risk":3,"arthritis_risk":5,"migraine_risk":7,"frizz_risk":1,"updated_at":"2026-03-28T20:05:05.971631+05:30"},{"city":"Muzaffarpur","state":"Bihar","latitude":26.1209,"longitude":85.3647,"temp":24.9,"humidity":69,"rain":0.0,"pressure":998.8,"uv_index":7.85,"wind_gusts":20.5,"aqi":108,"pm10":69.6,"pm2_5":43.9,"mosquito_risk":3,"arthritis_risk":5,"migraine_risk":7,"frizz_risk":1,"updated_at":"2026-03-28T20:05:05.971638+05:30"},{"city":"Bhagalpur","state":"Bihar","latitude":25.2425,"longitude":87.0117,"temp":23.6,"humidity":82,"rain":0.0,"pressure":1000.4,"uv_index":7.75,"wind_gusts":25.2,"aqi":113,"pm10":62.4,"pm2_5":38.6,"mosquito_risk":3,"arthritis_risk":5,"migraine_risk":4,"frizz_risk":1,"updated_at":"2026-03-28T20:05:05.971645+05:30"},{"city":"Ranchi","state":"Jharkhand","latitude":23.3441,"longitude":85.3096,"temp":24.2,"humidity":72,"rain":0.0,"pressure":935.7,"uv_index":8.7,"wind_gusts":31.7,"aqi":110,"pm10":40.0,"pm2_5":26.7,"mosquito_risk":3,"arthritis_risk":5,"migraine_risk":7,"frizz_risk":1,"updated_at":"2026-03-28T20:05:05.971651+05:30"},{"city":"Jamshedpur","state":"Jharkhand","latitude":22.8046,"longitude":86.2029,"temp":29.0,"humidity":60,"rain":0.0,"pressure":988.3,"uv_index":8.5,"wind_gusts":32.4,"aqi":176,"pm10":59.0,"pm2_5":49.9,"mosquito_risk":4,"arthritis_risk":5,"migraine_risk":7,"frizz_risk":1,"updated_at":"2026-03-28T20:05:05.971658+05:30"},{"city":"Dhanbad","state":"Jharkhand","latitude":23.7957,"longitude":86.4304,"temp":27.4,"humidity":58,"rain":0.0,"pressure":978.2,"uv_index":8.4,"wind_gusts":30.2,"aqi":152,"pm10":95.0,"pm2_5":80.6,"mosquito_risk":4,"arthritis_risk":5,"migraine_risk":7,"frizz_risk":1,"updated_at":"2026-03-28T20:05:05.971665+05:30"},{"city":"Bokaro","state":"Jharkhand","latitude":23.6693,"longitude":86.1511,"temp":26.2,"humidity":68,"rain":0.0,"pressure":982.1,"uv_index":8.45,"wind_gusts":31.0,"aqi":143,"pm10":85.2,"pm2_5":65.0,"mosquito_risk":7,"arthritis_risk":5,"migraine_risk":7,"frizz_risk":1,"updated_at":"2026-03-28T20:05:05.971672+05:30"},{"city":"Bhubaneswar","state":"Odisha","latitude":20.2961,"longitude":85.8245,"temp":26.9,"humidity":82,"rain":0.0,"pressure":1000.4,"uv_index":8.8,"wind_gusts":31.7,"aqi":139,"pm10":36.8,"pm2_5":30.6,"mosquito_risk":7,"arthritis_risk":5,"migraine_risk":4,"frizz_risk":1,"updated_at":"2026-03-28T20:05:05.971679+05:30"},{"city":"Cuttack","state":"Odisha","latitude":20.4625,"longitude":85.8828,"temp":27.7,"humidity":79,"rain":0.0,"pressure":1002.1,"uv_index":8.8,"wind_gusts":30.6,"aqi":139,"pm10":36.8,"pm2_5":30.6,"mosquito_risk":7,"arthritis_risk":5,"migraine_risk":4,"frizz_risk":1,"updated_at":"2026-03-28T20:05:05.971686+05:30"},{"city":"Rourkela","state":"Odisha","latitude":22.2604,"longitude":84.8536,"temp":29.3,"humidity":59,"rain":0.0,"pressure":981.8,"uv_index":8.4,"wind_gusts":43.9,"aqi":155,"pm10":41.8,"pm2_5":32.6,"mosquito_risk":4,"arthritis_risk":5,"migraine_risk":7,"frizz_risk":1,"updated_at":"2026-03-28T20:05:05.971693+05:30"},{"city":"Raipur","state":"Chhattisgarh","latitude":21.2514,"longitude":81.6296,"temp":31.9,"humidity":31,"rain":0.0,"pressure":971.0,"uv_index":8.55,"wind_gusts":34.6,"aqi":94,"pm10":34.9,"pm2_5":28.4,"mosquito_risk":0,"arthritis_risk":5,"migraine_risk":7,"frizz_risk":0,"updated_at":"2026-03-28T20:05:05.971700+05:30"},{"city":"Bhilai","state":"Chhattisgarh","latitude":21.1938,"longitude":81.3509,"temp":30.8,"humidity":34,"rain":0.0,"pressure":971.3,"uv_index":8.55,"wind_gusts":33.8,"aqi":76,"pm10":27.6,"pm2_5":22.3,"mosquito_risk":0,"arthritis_risk":5,"migraine_risk":7,"frizz_risk":0,"updated_at":"2026-03-28T20:05:05.971706+05:30"},{"city":"Guwahati","state":"Assam","latitude":26.1158,"longitude":91.7086,"temp":21.4,"humidity":90,"rain":0.0,"pressure":1002.1,"uv_index":4.0,"wind_gusts":28.1,"aqi":141,"pm10":31.1,"pm2_5":29.3,"mosquito_risk":3,"arthritis_risk":5,"migraine_risk":0,"frizz_risk":1,"updated_at":"2026-03-28T20:05:05.971713+05:30"},{"city":"Agartala","state":"Tripura","latitude":23.8315,"longitude":91.2868,"temp":21.8,"humidity":92,"rain":0.0,"pressure":1006.2,"uv_index":6.4,"wind_gusts":38.5,"aqi":140,"pm10":70.1,"pm2_5":62.9,"mosquito_risk":3,"arthritis_risk":5,"migraine_risk":4,"frizz_risk":1,"updated_at":"2026-03-28T20:05:05.971720+05:30"},{"city":"Shillong","state":"Meghalaya","latitude":25.5788,"longitude":91.8933,"temp":10.9,"humidity":94,"rain":0.0,"pressure":852.9,"uv_index":3.7,"wind_gusts":43.9,"aqi":89,"pm10":17.6,"pm2_5":15.1,"mosquito_risk":3,"arthritis_risk":10,"migraine_risk":3,"frizz_risk":0,"updated_at":"2026-03-28T20:05:05.971726+05:30"},{"city":"Imphal","state":"Manipur","latitude":24.817,"longitude":93.9368,"temp":15.5,"humidity":92,"rain":0.0,"pressure":921.5,"uv_index":7.7,"wind_gusts":52.6,"aqi":149,"pm10":68.9,"pm2_5":59.8,"mosquito_risk":3,"arthritis_risk":10,"migraine_risk":7,"frizz_risk":0,"updated_at":"2026-03-28T20:05:05.971733+05:30"},{"city":"Aizawl","state":"Mizoram","latitude":23.7271,"longitude":92.7176,"temp":15.6,"humidity":94,"rain":0.0,"pressure":890.7,"uv_index":7.35,"wind_gusts":38.2,"aqi":117,"pm10":57.6,"pm2_5":45.8,"mosquito_risk":3,"arthritis_risk":10,"migraine_risk":7,"frizz_risk":0,"updated_at":"2026-03-28T20:05:05.971758+05:30"},{"city":"Kohima","state":"Nagaland","latitude":25.6701,"longitude":94.1077,"temp":13.7,"humidity":72,"rain":0.0,"pressure":852.1,"uv_index":4.95,"wind_gusts":71.3,"aqi":113,"pm10":45.2,"pm2_5":36.9,"mosquito_risk":3,"arthritis_risk":5,"migraine_risk":3,"frizz_risk":0,"updated_at":"2026-03-28T20:05:05.971765+05:30"},{"city":"Gangtok","state":"Sikkim","latitude":27.3314,"longitude":88.6138,"temp":12.6,"humidity":94,"rain":0.0,"pressure":834.5,"uv_index":6.7,"wind_gusts":17.3,"aqi":83,"pm10":16.5,"pm2_5":14.5,"mosquito_risk":3,"arthritis_risk":10,"migraine_risk":7,"frizz_risk":0,"updated_at":"2026-03-28T20:05:05.971772+05:30"},{"city":"Siliguri","state":"West Bengal","latitude":26.7271,"longitude":88.3953,"temp":17.9,"humidity":92,"rain":0.0,"pressure":994.3,"uv_index":7.5,"wind_gusts":26.3,"aqi":150,"pm10":44.9,"pm2_5":36.9,"mosquito_risk":3,"arthritis_risk":10,"migraine_risk":7,"frizz_risk":1,"updated_at":"2026-03-28T20:05:09.236549+05:30"},{"city":"Durgapur","state":"West Bengal","latitude":23.5204,"longitude":87.3119,"temp":24.7,"humidity":74,"rain":0.0,"pressure":994.0,"uv_index":8.35,"wind_gusts":28.4,"aqi":155,"pm10":78.2,"pm2_5":67.8,"mosquito_risk":3,"arthritis_risk":5,"migraine_risk":7,"frizz_risk":1,"updated_at":"2026-03-28T20:05:09.236577+05:30"},{"city":"Asansol","state":"West Bengal","latitude":23.6739,"longitude":86.9524,"temp":25.8,"humidity":70,"rain":0.0,"pressure":992.3,"uv_index":8.35,"wind_gusts":31.7,"aqi":158,"pm10":79.4,"pm2_5":71.5,"mosquito_risk":7,"arthritis_risk":5,"migraine_risk":7,"frizz_risk":1,"updated_at":"2026-03-28T20:05:09.236588+05:30"},{"city":"Pondicherry","state":"Puducherry","latitude":11.9139,"longitude":79.8145,"temp":26.6,"humidity":88,"rain":0.0,"pressure":1007.1,"uv_index":9.25,"wind_gusts":32.4,"aqi":73,"pm10":19.3,"pm2_5":13.8,"mosquito_risk":7,"arthritis_risk":5,"migraine_risk":4,"frizz_risk":1,"updated_at":"2026-03-28T20:05:09.236596+05:30"},{"city":"Port Blair","state":"Andaman and Nicobar Islands","latitude":11.6234,"longitude":92.7265,"temp":28.3,"humidity":79,"rain":0.0,"pressure":1006.2,"uv_index":9.15,"wind_gusts":27.0,"aqi":69,"pm10":24.4,"pm2_5":19.0,"mosquito_risk":7,"arthritis_risk":5,"migraine_risk":4,"frizz_risk":1,"updated_at":"2026-03-28T20:05:09.236604+05:30"},{"city":"Haridwar","state":"Uttarakhand","latitude":29.9457,"longitude":78.1642,"temp":25.5,"humidity":63,"rain":0.0,"pressure":971.8,"uv_index":5.7,"wind_gusts":27.0,"aqi":120,"pm10":34.3,"pm2_5":29.8,"mosquito_risk":7,"arthritis_risk":5,"migraine_risk":3,"frizz_risk":1,"updated_at":"2026-03-28T20:05:09.236612+05:30"},{"city":"Rishikesh","state":"Uttarakhand","latitude":30.0869,"longitude":78.2676,"temp":24.7,"humidity":63,"rain":0.0,"pressure":964.6,"uv_index":5.8,"wind_gusts":24.8,"aqi":104,"pm10":24.6,"pm2_5":21.1,"mosquito_risk":3,"arthritis_risk":5,"migraine_risk":3,"frizz_risk":1,"updated_at":"2026-03-28T20:05:09.236619+05:30"},{"city":"Nainital","state":"Uttarakhand","latitude":29.3919,"longitude":79.4542,"temp":17.9,"humidity":68,"rain":0.0,"pressure":803.7,"uv_index":4.8,"wind_gusts":25.9,"aqi":110,"pm10":29.3,"pm2_5":24.2,"mosquito_risk":3,"arthritis_risk":5,"migraine_risk":3,"frizz_risk":0,"updated_at":"2026-03-28T20:05:09.236627+05:30"},{"city":"Mussoorie","state":"Uttarakhand","latitude":30.4599,"longitude":78.0664,"temp":16.1,"humidity":78,"rain":0.0,"pressure":800.0,"uv_index":5.65,"wind_gusts":25.9,"aqi":121,"pm10":35.6,"pm2_5":31.2,"mosquito_risk":3,"arthritis_risk":5,"migraine_risk":3,"frizz_risk":0,"updated_at":"2026-03-28T20:05:09.236634+05:30"},{"city":"Dharamshala","state":"Himachal Pradesh","latitude":32.219,"longitude":76.3234,"temp":18.9,"humidity":79,"rain":0.0,"pressure":866.3,"uv_index":6.9,"wind_gusts":16.6,"aqi":109,"pm10":22.6,"pm2_5":16.4,"mosquito_risk":3,"arthritis_risk":5,"migraine_risk":7,"frizz_risk":0,"updated_at":"2026-03-28T20:05:09.236641+05:30"},{"city":"Dalhousie","state":"Himachal Pradesh","latitude":32.5387,"longitude":75.971,"temp":16.5,"humidity":72,"rain":0.0,"pressure":801.0,"uv_index":6.45,"wind_gusts":17.3,"aqi":124,"pm10":28.5,"pm2_5":24.6,"mosquito_risk":3,"arthritis_risk":5,"migraine_risk":7,"frizz_risk":0,"updated_at":"2026-03-28T20:05:09.236649+05:30"},{"city":"Patiala","state":"Punjab","latitude":30.3398,"longitude":76.3869,"temp":24.2,"humidity":62,"rain":0.0,"pressure":975.5,"uv_index":5.95,"wind_gusts":17.3,"aqi":101,"pm10":92.9,"pm2_5":41.4,"mosquito_risk":3,"arthritis_risk":5,"migraine_risk":3,"frizz_risk":1,"updated_at":"2026-03-28T20:05:09.236656+05:30"},{"city":"Bhatinda","state":"Punjab","latitude":30.211,"longitude":74.9455,"temp":26.1,"humidity":50,"rain":0.0,"pressure":980.4,"uv_index":6.95,"wind_gusts":17.3,"aqi":79,"pm10":42.3,"pm2_5":25.4,"mosquito_risk":4,"arthritis_risk":5,"migraine_risk":7,"frizz_risk":0,"updated_at":"2026-03-28T20:05:09.236664+05:30"},{"city":"Rohtak","state":"Haryana","latitude":28.8955,"longitude":76.6066,"temp":25.8,"humidity":57,"rain":0.0,"pressure":979.0,"uv_index":6.25,"wind_gusts":14.8,"aqi":140,"pm10":159.7,"pm2_5":52.0,"mosquito_risk":4,"arthritis_risk":5,"migraine_risk":7,"frizz_risk":1,"updated_at":"2026-03-28T20:05:09.236671+05:30"},{"city":"Panipat","state":"Haryana","latitude":29.3909,"longitude":76.9635,"temp":25.0,"humidity":59,"rain":0.0,"pressure":977.6,"uv_index":5.65,"wind_gusts":19.4,"aqi":235,"pm10":238.4,"pm2_5":64.3,"mosquito_risk":4,"arthritis_risk":5,"migraine_risk":3,"frizz_risk":1,"updated_at":"2026-03-28T20:05:09.236678+05:30"},{"city":"Mathura","state":"Uttar Pradesh","latitude":27.4924,"longitude":77.6737,"temp":25.9,"humidity":55,"rain":0.0,"pressure":983.7,"uv_index":6.5,"wind_gusts":20.9,"aqi":283,"pm10":386.5,"pm2_5":64.3,"mosquito_risk":4,"arthritis_risk":5,"migraine_risk":7,"frizz_risk":1,"updated_at":"2026-03-28T20:05:09.236685+05:30"},{"city":"Vrindavan","state":"Uttar Pradesh","latitude":27.5823,"longitude":77.7027,"temp":25.6,"humidity":56,"rain":0.0,"pressure":984.3,"uv_index":6.5,"wind_gusts":22.7,"aqi":283,"pm10":386.5,"pm2_5":64.3,"mosquito_risk":4,"arthritis_risk":5,"migraine_risk":7,"frizz_risk":1,"updated_at":"2026-03-28T20:05:09.236692+05:30"},{"city":"Ayodhya","state":"Uttar Pradesh","latitude":26.7922,"longitude":82.1998,"temp":26.1,"humidity":60,"rain":0.0,"pressure":992.7,"uv_index":6.85,"wind_gusts":31.7,"aqi":98,"pm10":68.7,"pm2_5":31.0,"mosquito_risk":4,"arthritis_risk":5,"migraine_risk":7,"frizz_risk":1,"updated_at":"2026-03-28T20:05:09.236698+05:30"},{"city":"Ratlam","state":"Madhya Pradesh","latitude":23.3315,"longitude":75.0367,"temp":27.6,"humidity":54,"rain":0.0,"pressure":952.4,"uv_index":8.1,"wind_gusts":37.1,"aqi":49,"pm10":17.7,"pm2_5":9.6,"mosquito_risk":4,"arthritis_risk":5,"migraine_risk":7,"frizz_risk":1,"updated_at":"2026-03-28T20:05:09.236705+05:30"},{"city":"Sagar","state":"Madhya Pradesh","latitude":23.8388,"longitude":78.7378,"temp":29.6,"humidity":36,"rain":0.0,"pressure":947.4,"uv_index":8.15,"wind_gusts":32.4,"aqi":61,"pm10":49.6,"pm2_5":14.7,"mosquito_risk":4,"arthritis_risk":5,"migraine_risk":7,"frizz_risk":0,"updated_at":"2026-03-28T20:05:09.236712+05:30"},{"city":"Satna","state":"Madhya Pradesh","latitude":24.6005,"longitude":80.8322,"temp":29.2,"humidity":32,"rain":0.0,"pressure":968.3,"uv_index":8.1,"wind_gusts":23.8,"aqi":101,"pm10":41.0,"pm2_5":15.5,"mosquito_risk":4,"arthritis_risk":5,"migraine_risk":7,"frizz_risk":0,"updated_at":"2026-03-28T20:05:09.236719+05:30"},{"city":"Akola","state":"Maharashtra","latitude":20.7002,"longitude":77.0082,"temp":30.3,"humidity":36,"rain":0.0,"pressure":972.3,"uv_index":8.5,"wind_gusts":37.1,"aqi":67,"pm10":18.7,"pm2_5":13.0,"mosquito_risk":0,"arthritis_risk":5,"migraine_risk":7,"frizz_risk":0,"updated_at":"2026-03-28T20:05:09.236727+05:30"},{"city":"Amravati","state":"Maharashtra","latitude":20.9374,"longitude":77.7796,"temp":30.0,"humidity":38,"rain":0.0,"pressure":964.3,"uv_index":8.45,"wind_gusts":33.5,"aqi":68,"pm10":16.6,"pm2_5":11.1,"mosquito_risk":4,"arthritis_risk":5,"migraine_risk":7,"frizz_risk":0,"updated_at":"2026-03-28T20:05:09.236734+05:30"},{"city":"Latur","state":"Maharashtra","latitude":18.4088,"longitude":76.5604,"temp":30.7,"humidity":29,"rain":0.0,"pressure":937.5,"uv_index":8.8,"wind_gusts":32.4,"aqi":78,"pm10":23.8,"pm2_5":21.0,"mosquito_risk":0,"arthritis_risk":5,"migraine_risk":7,"frizz_risk":0,"updated_at":"2026-03-28T20:05:09.236770+05:30"},{"city":"Nanded","state":"Maharashtra","latitude":19.1383,"longitude":77.3091,"temp":31.8,"humidity":27,"rain":0.0,"pressure":965.4,"uv_index":8.7,"wind_gusts":28.8,"aqi":82,"pm10":16.3,"pm2_5":14.8,"mosquito_risk":0,"arthritis_risk":5,"migraine_risk":7,"frizz_risk":0,"updated_at":"2026-03-28T20:05:09.236777+05:30"},{"city":"Gulbarga","state":"Karnataka","latitude":17.3297,"longitude":76.8343,"temp":33.3,"humidity":23,"rain":0.0,"pressure":956.2,"uv_index":8.85,"wind_gusts":31.7,"aqi":112,"pm10":28.1,"pm2_5":22.2,"mosquito_risk":0,"arthritis_risk":5,"migraine_risk":7,"frizz_risk":0,"updated_at":"2026-03-28T20:05:09.236784+05:30"},{"city":"Bidar","state":"Karnataka","latitude":17.9104,"longitude":77.5199,"temp":32.2,"humidity":26,"rain":0.0,"pressure":933.3,"uv_index":8.85,"wind_gusts":28.8,"aqi":113,"pm10":21.5,"pm2_5":19.4,"mosquito_risk":0,"arthritis_risk":5,"migraine_risk":7,"frizz_risk":0,"updated_at":"2026-03-28T20:05:09.236791+05:30"},{"city":"Hospet","state":"Karnataka","latitude":15.2689,"longitude":76.3909,"temp":30.5,"humidity":46,"rain":0.0,"pressure":954.9,"uv_index":9.1,"wind_gusts":45.0,"aqi":147,"pm10":59.5,"pm2_5":50.2,"mosquito_risk":0,"arthritis_risk":5,"migraine_risk":7,"frizz_risk":1,"updated_at":"2026-03-28T20:05:09.236798+05:30"},{"city":"Tirupur","state":"Tamil Nadu","latitude":11.1085,"longitude":77.3411,"temp":29.2,"humidity":66,"rain":0.0,"pressure":973.6,"uv_index":9.45,"wind_gusts":43.2,"aqi":149,"pm10":43.8,"pm2_5":37.8,"mosquito_risk":7,"arthritis_risk":5,"migraine_risk":7,"frizz_risk":1,"updated_at":"2026-03-28T20:05:09.236805+05:30"},{"city":"Alappuzha","state":"Kerala","latitude":9.4981,"longitude":76.3388,"temp":29.1,"humidity":80,"rain":0.0,"pressure":1008.0,"uv_index":9.1,"wind_gusts":31.3,"aqi":86,"pm10":35.5,"pm2_5":29.3,"mosquito_risk":7,"arthritis_risk":0,"migraine_risk":4,"frizz_risk":1,"updated_at":"2026-03-28T20:05:09.236812+05:30"},{"city":"Munnar","state":"Kerala","latitude":10.0889,"longitude":77.0595,"temp":21.7,"humidity":92,"rain":0.0,"pressure":856.5,"uv_index":9.7,"wind_gusts":40.7,"aqi":79,"pm10":39.6,"pm2_5":35.3,"mosquito_risk":3,"arthritis_risk":5,"migraine_risk":7,"frizz_risk":1,"updated_at":"2026-03-28T20:05:09.236820+05:30"},{"city":"Silchar","state":"Assam","latitude":24.8333,"longitude":92.7789,"temp":21.8,"humidity":88,"rain":0.0,"pressure":1005.1,"uv_index":4.85,"wind_gusts":30.2,"aqi":153,"pm10":87.8,"pm2_5":76.4,"mosquito_risk":3,"arthritis_risk":5,"migraine_risk":0,"frizz_risk":1,"updated_at":"2026-03-28T20:05:09.236826+05:30"},{"city":"Dibrugarh","state":"Assam","latitude":27.4728,"longitude":94.912,"temp":19.5,"humidity":88,"rain":0.0,"pressure":996.9,"uv_index":4.5,"wind_gusts":31.0,"aqi":113,"pm10":41.6,"pm2_5":33.1,"mosquito_risk":3,"arthritis_risk":10,"migraine_risk":3,"frizz_risk":1,"updated_at":"2026-03-28T20:05:09.236833+05:30"}]