[{"city":"Delhi","state":"Delhi","latitude":28.6139,"longitude":77.209,"temp":35.6,"humidity":33,"rain":0.0,"pressure":976.8,"uv_index":7.8,"wind_gusts":27.7,"aqi":202,"pm10":113.9,"pm2_5":60.1,"no2":38.9,"co":442.0,"o3":134.0,"so2":25.8,"mosquito_risk":0,"arthritis_risk":5,"migraine_risk":10,"frizz_risk":1,"updated_at":"2026-06-03T20:13:44.703266+05:30"},{"city":"Mumbai","state":"Maharashtra","latitude":19.076,"longitude":72.8777,"temp":29.6,"humidity":74,"rain":0.0,"pressure":1005.2,"uv_index":7.7,"wind_gusts":38.9,"aqi":74,"pm10":28.2,"pm2_5":12.4,"no2":7.0,"co":320.0,"o3":48.0,"so2":5.7,"mosquito_risk":7,"arthritis_risk":5,"migraine_risk":4,"frizz_risk":1,"updated_at":"2026-06-03T20:13:44.703324+05:30"},{"city":"Bangalore","state":"Karnataka","latitude":12.9716,"longitude":77.5946,"temp":22.6,"humidity":90,"rain":0.0,"pressure":910.3,"uv_index":8.95,"wind_gusts":41.4,"aqi":50,"pm10":8.7,"pm2_5":7.8,"no2":22.8,"co":693.0,"o3":44.0,"so2":5.1,"mosquito_risk":3,"arthritis_risk":5,"migraine_risk":7,"frizz_risk":1,"updated_at":"2026-06-03T20:13:44.703340+05:30"},{"city":"Hyderabad","state":"Telangana","latitude":17.385,"longitude":78.4867,"temp":31.9,"humidity":45,"rain":0.0,"pressure":950.3,"uv_index":6.75,"wind_gusts":36.0,"aqi":109,"pm10":41.0,"pm2_5":29.2,"no2":26.2,"co":482.0,"o3":86.0,"so2":8.0,"mosquito_risk":0,"arthritis_risk":5,"migraine_risk":7,"frizz_risk":1,"updated_at":"2026-06-03T20:13:44.703350+05:30"},{"city":"Chennai","state":"Tamil Nadu","latitude":13.0827,"longitude":80.2707,"temp":31.1,"humidity":66,"rain":0.0,"pressure":1004.3,"uv_index":8.4,"wind_gusts":39.2,"aqi":140,"pm10":25.8,"pm2_5":21.4,"no2":12.3,"co":305.0,"o3":124.0,"so2":9.3,"mosquito_risk":3,"arthritis_risk":5,"migraine_risk":4,"frizz_risk":1,"updated_at":"2026-06-03T20:13:44.703358+05:30"},{"city":"Kolkata","state":"West Bengal","latitude":22.5726,"longitude":88.3639,"temp":30.8,"humidity":83,"rain":0.0,"pressure":1001.0,"uv_index":8.95,"wind_gusts":32.8,"aqi":134,"pm10":63.8,"pm2_5":60.8,"no2":21.5,"co":462.0,"o3":79.0,"so2":14.0,"mosquito_risk":3,"arthritis_risk":5,"migraine_risk":4,"frizz_risk":1,"updated_at":"2026-06-03T20:13:44.703366+05:30"},{"city":"Pune","state":"Maharashtra","latitude":18.5204,"longitude":73.8567,"temp":27.5,"humidity":67,"rain":0.0,"pressure":945.4,"uv_index":8.3,"wind_gusts":42.5,"aqi":66,"pm10":20.2,"pm2_5":10.0,"no2":5.5,"co":182.0,"o3":67.0,"so2":4.4,"mosquito_risk":7,"arthritis_risk":5,"migraine_risk":7,"frizz_risk":1,"updated_at":"2026-06-03T20:13:44.703378+05:30"},{"city":"Ahmedabad","state":"Gujarat","latitude":23.0225,"longitude":72.5714,"temp":37.0,"humidity":37,"rain":0.0,"pressure":996.2,"uv_index":8.05,"wind_gusts":29.9,"aqi":93,"pm10":77.1,"pm2_5":36.1,"no2":20.9,"co":242.0,"o3":67.0,"so2":8.4,"mosquito_risk":0,"arthritis_risk":5,"migraine_risk":10,"frizz_risk":1,"updated_at":"2026-06-03T20:13:44.703392+05:30"},{"city":"Jaipur","state":"Rajasthan","latitude":26.9124,"longitude":75.7873,"temp":34.7,"humidity":31,"rain":0.0,"pressure":953.7,"uv_index":8.25,"wind_gusts":32.0,"aqi":118,"pm10":151.8,"pm2_5":45.5,"no2":16.1,"co":436.0,"o3":94.0,"so2":7.1,"mosquito_risk":0,"arthritis_risk":5,"migraine_risk":7,"frizz_risk":0,"updated_at":"2026-06-03T20:13:44.703410+05:30"},{"city":"Lucknow","state":"Uttar Pradesh","latitude":26.8467,"longitude":80.9462,"temp":31.1,"humidity":62,"rain":0.0,"pressure":987.4,"uv_index":8.3,"wind_gusts":29.2,"aqi":127,"pm10":84.1,"pm2_5":42.6,"no2":22.6,"co":381.0,"o3":88.0,"so2":11.0,"mosquito_risk":3,"arthritis_risk":5,"migraine_risk":7,"frizz_risk":1,"updated_at":"2026-06-03T20:13:44.703423+05:30"},{"city":"Kanpur","state":"Uttar Pradesh","latitude":26.4499,"longitude":80.3319,"temp":31.8,"humidity":57,"rain":0.0,"pressure":985.4,"uv_index":8.3,"wind_gusts":33.8,"aqi":132,"pm10":82.7,"pm2_5":36.9,"no2":21.1,"co":436.0,"o3":90.0,"so2":9.6,"mosquito_risk":0,"arthritis_risk":5,"migraine_risk":7,"frizz_risk":1,"updated_at":"2026-06-03T20:13:44.703436+05:30"},{"city":"Chandigarh","state":"Chandigarh","latitude":30.7333,"longitude":76.7794,"temp":30.2,"humidity":51,"rain":0.0,"pressure":962.7,"uv_index":7.8,"wind_gusts":28.1,"aqi":163,"pm10":77.1,"pm2_5":43.3,"no2":23.1,"co":864.0,"o3":130.0,"so2":14.1,"mosquito_risk":0,"arthritis_risk":5,"migraine_risk":7,"frizz_risk":1,"updated_at":"2026-06-03T20:13:44.703447+05:30"},{"city":"Srinagar","state":"Jammu and Kashmir","latitude":34.0837,"longitude":74.7973,"temp":19.8,"humidity":71,"rain":0.0,"pressure":839.7,"uv_index":7.5,"wind_gusts":24.8,"aqi":103,"pm10":39.1,"pm2_5":25.3,"no2":16.5,"co":666.0,"o3":90.0,"so2":3.4,"mosquito_risk":3,"arthritis_risk":5,"migraine_risk":7,"frizz_risk":0,"updated_at":"2026-06-03T20:13:44.703455+05:30"},{"city":"Jammu","state":"Jammu and Kashmir","latitude":32.7266,"longitude":74.857,"temp":32.3,"humidity":42,"rain":0.0,"pressure":966.3,"uv_index":8.6,"wind_gusts":25.9,"aqi":134,"pm10":79.4,"pm2_5":44.6,"no2":31.3,"co":459.0,"o3":112.0,"so2":6.3,"mosquito_risk":0,"arthritis_risk":5,"migraine_risk":7,"frizz_risk":1,"updated_at":"2026-06-03T20:13:44.703467+05:30"},{"city":"Amritsar","state":"Punjab","latitude":31.634,"longitude":74.8723,"temp":32.6,"humidity":43,"rain":0.0,"pressure":974.0,"uv_index":8.45,"wind_gusts":23.4,"aqi":164,"pm10":76.6,"pm2_5":49.1,"no2":20.0,"co":584.0,"o3":126.0,"so2":9.8,"mosquito_risk":0,"arthritis_risk":5,"migraine_risk":7,"frizz_risk":1,"updated_at":"2026-06-03T20:13:44.703476+05:30"},{"city":"Ludhiana","state":"Punjab","latitude":30.901,"longitude":75.8573,"temp":32.3,"humidity":45,"rain":0.0,"pressure":972.5,"uv_index":8.05,"wind_gusts":31.7,"aqi":150,"pm10":101.5,"pm2_5":47.4,"no2":18.2,"co":569.0,"o3":109.0,"so2":6.9,"mosquito_risk":0,"arthritis_risk":5,"migraine_risk":7,"frizz_risk":1,"updated_at":"2026-06-03T20:13:44.703486+05:30"},{"city":"Jalandhar","state":"Punjab","latitude":31.326,"longitude":75.5762,"temp":31.6,"humidity":52,"rain":0.0,"pressure":973.3,"uv_index":8.25,"wind_gusts":25.6,"aqi":154,"pm10":84.8,"pm2_5":49.2,"no2":21.9,"co":512.0,"o3":115.0,"so2":6.9,"mosquito_risk":0,"arthritis_risk":5,"migraine_risk":7,"frizz_risk":1,"updated_at":"2026-06-03T20:13:44.703498+05:30"},{"city":"Dehradun","state":"Uttarakhand","latitude":30.6284,"longitude":78.0322,"temp":16.3,"humidity":97,"rain":0.0,"pressure":826.2,"uv_index":8.25,"wind_gusts":33.1,"aqi":117,"pm10":25.1,"pm2_5":19.6,"no2":14.7,"co":241.0,"o3":118.0,"so2":1.9,"mosquito_risk":3,"arthritis_risk":10,"migraine_risk":7,"frizz_risk":0,"updated_at":"2026-06-03T20:13:44.703517+05:30"},{"city":"Shimla","state":"Himachal Pradesh","latitude":31.1048,"longitude":77.1734,"temp":15.3,"humidity":74,"rain":0.0,"pressure":781.2,"uv_index":7.75,"wind_gusts":40.0,"aqi":144,"pm10":63.6,"pm2_5":34.2,"no2":15.7,"co":385.0,"o3":121.0,"so2":7.9,"mosquito_risk":3,"arthritis_risk":5,"migraine_risk":7,"frizz_risk":0,"updated_at":"2026-06-03T20:13:44.703531+05:30"},{"city":"Manali","state":"Himachal Pradesh","latitude":32.2396,"longitude":77.1887,"temp":16.8,"humidity":89,"rain":0.0,"pressure":815.5,"uv_index":9.9,"wind_gusts":34.9,"aqi":102,"pm10":9.6,"pm2_5":6.7,"no2":68.4,"co":226.0,"o3":65.0,"so2":0.5,"mosquito_risk":3,"arthritis_risk":10,"migraine_risk":7,"frizz_risk":0,"updated_at":"2026-06-03T20:13:44.703539+05:30"},{"city":"Gurgaon","state":"Haryana","latitude":28.4595,"longitude":77.0266,"temp":33.7,"humidity":39,"rain":0.0,"pressure":975.2,"uv_index":7.9,"wind_gusts":29.9,"aqi":212,"pm10":182.5,"pm2_5":76.4,"no2":52.3,"co":477.0,"o3":153.0,"so2":30.2,"mosquito_risk":0,"arthritis_risk":5,"migraine_risk":7,"frizz_risk":1,"updated_at":"2026-06-03T20:13:44.703546+05:30"},{"city":"Noida","state":"Uttar Pradesh","latitude":28.5355,"longitude":77.391,"temp":32.5,"humidity":48,"rain":0.0,"pressure":978.1,"uv_index":7.85,"wind_gusts":23.0,"aqi":212,"pm10":182.5,"pm2_5":76.4,"no2":52.3,"co":710.0,"o3":153.0,"so2":30.2,"mosquito_risk":0,"arthritis_risk":5,"migraine_risk":7,"frizz_risk":1,"updated_at":"2026-06-03T20:13:44.703552+05:30"},{"city":"Ghaziabad","state":"Uttar Pradesh","latitude":28.6692,"longitude":77.4538,"temp":31.4,"humidity":55,"rain":0.0,"pressure":976.4,"uv_index":7.8,"wind_gusts":19.4,"aqi":169,"pm10":87.1,"pm2_5":59.4,"no2":30.5,"co":400.0,"o3":115.0,"so2":18.1,"mosquito_risk":0,"arthritis_risk":5,"migraine_risk":7,"frizz_risk":1,"updated_at":"2026-06-03T20:13:44.703559+05:30"},{"city":"Faridabad","state":"Haryana","latitude":28.4089,"longitude":77.3178,"temp":34.3,"humidity":39,"rain":0.0,"pressure":977.5,"uv_index":7.85,"wind_gusts":24.8,"aqi":212,"pm10":182.5,"pm2_5":76.4,"no2":52.3,"co":589.0,"o3":153.0,"so2":30.2,"mosquito_risk":0,"arthritis_risk":5,"migraine_risk":7,"frizz_risk":1,"updated_at":"2026-06-03T20:13:44.703565+05:30"},{"city":"Meerut","state":"Uttar Pradesh","latitude":28.9845,"longitude":77.7064,"temp":32.5,"humidity":54,"rain":0.0,"pressure":975.5,"uv_index":7.7,"wind_gusts":23.0,"aqi":169,"pm10":87.1,"pm2_5":59.4,"no2":30.5,"co":563.0,"o3":115.0,"so2":18.1,"mosquito_risk":0,"arthritis_risk":5,"migraine_risk":7,"frizz_risk":1,"updated_at":"2026-06-03T20:13:44.703571+05:30"},{"city":"Agra","state":"Uttar Pradesh","latitude":27.1767,"longitude":78.0081,"temp":33.1,"humidity":45,"rain":0.0,"pressure":981.1,"uv_index":8.15,"wind_gusts":25.6,"aqi":168,"pm10":698.5,"pm2_5":104.8,"no2":14.4,"co":395.0,"o3":111.0,"so2":9.2,"mosquito_risk":0,"arthritis_risk":5,"migraine_risk":7,"frizz_risk":1,"updated_at":"2026-06-03T20:13:44.703577+05:30"},{"city":"Varanasi","state":"Uttar Pradesh","latitude":25.3176,"longitude":82.9739,"temp":33.8,"humidity":43,"rain":0.0,"pressure":991.5,"uv_index":8.75,"wind_gusts":37.1,"aqi":151,"pm10":56.6,"pm2_5":44.6,"no2":28.5,"co":419.0,"o3":90.0,"so2":13.4,"mosquito_risk":0,"arthritis_risk":5,"migraine_risk":7,"frizz_risk":1,"updated_at":"2026-06-03T20:13:44.703584+05:30"},{"city":"Prayagraj","state":"Uttar Pradesh","latitude":25.4358,"longitude":81.8463,"temp":33.2,"humidity":46,"rain":0.0,"pressure":990.1,"uv_index":8.65,"wind_gusts":36.4,"aqi":129,"pm10":51.8,"pm2_5":39.0,"no2":25.7,"co":326.0,"o3":92.0,"so2":13.0,"mosquito_risk":0,"arthritis_risk":5,"migraine_risk":7,"frizz_risk":1,"updated_at":"2026-06-03T20:13:44.703594+05:30"},{"city":"Gorakhpur","state":"Uttar Pradesh","latitude":26.7606,"longitude":83.3732,"temp":31.1,"humidity":57,"rain":0.0,"pressure":990.9,"uv_index":8.65,"wind_gusts":39.2,"aqi":155,"pm10":44.2,"pm2_5":36.4,"no2":16.1,"co":338.0,"o3":100.0,"so2":7.7,"mosquito_risk":0,"arthritis_risk":5,"migraine_risk":7,"frizz_risk":1,"updated_at":"2026-06-03T20:13:44.703608+05:30"},{"city":"Bareilly","state":"Uttar Pradesh","latitude":28.367,"longitude":79.4304,"temp":31.4,"humidity":62,"rain":0.0,"pressure":980.6,"uv_index":8.1,"wind_gusts":21.6,"aqi":152,"pm10":86.4,"pm2_5":50.4,"no2":27.6,"co":543.0,"o3":82.0,"so2":9.3,"mosquito_risk":3,"arthritis_risk":5,"migraine_risk":7,"frizz_risk":1,"updated_at":"2026-06-03T20:13:44.703617+05:30"},{"city":"Aligarh","state":"Uttar Pradesh","latitude":27.8974,"longitude":78.088,"temp":32.0,"humidity":48,"rain":0.0,"pressure":979.2,"uv_index":7.95,"wind_gusts":19.4,"aqi":155,"pm10":124.3,"pm2_5":55.2,"no2":26.7,"co":422.0,"o3":107.0,"so2":14.0,"mosquito_risk":0,"arthritis_risk":5,"migraine_risk":7,"frizz_risk":1,"updated_at":"2026-06-03T20:13:44.703626+05:30"},{"city":"Moradabad","state":"Uttar Pradesh","latitude":28.8386,"longitude":78.7733,"temp":32.1,"humidity":50,"rain":0.0,"pressure":977.5,"uv_index":7.95,"wind_gusts":28.1,"aqi":160,"pm10":112.2,"pm2_5":70.5,"no2":33.3,"co":376.0,"o3":104.0,"so2":17.7,"mosquito_risk":0,"arthritis_risk":5,"migraine_risk":7,"frizz_risk":1,"updated_at":"2026-06-03T20:13:44.703635+05:30"},{"city":"Saharanpur","state":"Uttar Pradesh","latitude":29.9637,"longitude":77.546,"temp":30.6,"humidity":57,"rain":0.0,"pressure":969.6,"uv_index":7.55,"wind_gusts":24.8,"aqi":163,"pm10":84.3,"pm2_5":54.9,"no2":34.4,"co":529.0,"o3":117.0,"so2":20.2,"mosquito_risk":0,"arthritis_risk":5,"migraine_risk":7,"frizz_risk":1,"updated_at":"2026-06-03T20:13:44.703645+05:30"},{"city":"Jhansi","state":"Uttar Pradesh","latitude":25.4484,"longitude":78.5685,"temp":31.7,"humidity":54,"rain":0.0,"pressure":971.9,"uv_index":8.2,"wind_gusts":25.6,"aqi":79,"pm10":64.7,"pm2_5":28.3,"no2":9.3,"co":244.0,"o3":91.0,"so2":6.7,"mosquito_risk":0,"arthritis_risk":5,"migraine_risk":7,"frizz_risk":1,"updated_at":"2026-06-03T20:13:48.062271+05:30"},{"city":"Surat","state":"Gujarat","latitude":21.1702,"longitude":72.8311,"temp":30.1,"humidity":78,"rain":0.0,"pressure":1002.4,"uv_index":7.55,"wind_gusts":41.8,"aqi":89,"pm10":45.3,"pm2_5":25.1,"no2":21.6,"co":275.0,"o3":36.0,"so2":39.7,"mosquito_risk":3,"arthritis_risk":5,"migraine_risk":4,"frizz_risk":1,"updated_at":"2026-06-03T20:13:48.062304+05:30"},{"city":"Vadodara","state":"Gujarat","latitude":22.3072,"longitude":73.1812,"temp":33.2,"humidity":55,"rain":0.0,"pressure":998.9,"uv_index":8.0,"wind_gusts":37.4,"aqi":86,"pm10":51.9,"pm2_5":30.5,"no2":10.5,"co":165.0,"o3":80.0,"so2":11.5,"mosquito_risk":0,"arthritis_risk":5,"migraine_risk":7,"frizz_risk":1,"updated_at":"2026-06-03T20:13:48.062315+05:30"},{"city":"Rajkot","state":"Gujarat","latitude":22.3039,"longitude":70.8022,"temp":33.2,"humidity":61,"rain":0.0,"pressure":989.0,"uv_index":7.55,"wind_gusts":34.9,"aqi":76,"pm10":44.7,"pm2_5":21.9,"no2":3.5,"co":132.0,"o3":79.0,"so2":3.7,"mosquito_risk":3,"arthritis_risk":5,"migraine_risk":7,"frizz_risk":1,"updated_at":"2026-06-03T20:13:48.062323+05:30"},{"city":"Thane","state":"Maharashtra","latitude":19.2183,"longitude":72.9781,"temp":29.7,"humidity":72,"rain":0.0,"pressure":1004.7,"uv_index":7.6,"wind_gusts":36.0,"aqi":74,"pm10":28.2,"pm2_5":12.4,"no2":7.0,"co":320.0,"o3":48.0,"so2":5.7,"mosquito_risk":7,"arthritis_risk":5,"migraine_risk":4,"frizz_risk":1,"updated_at":"2026-06-03T20:13:48.062331+05:30"},{"city":"Nagpur","state":"Maharashtra","latitude":21.1458,"longitude":79.0882,"temp":36.0,"humidity":32,"rain":0.0,"pressure":968.3,"uv_index":8.9,"wind_gusts":35.6,"aqi":91,"pm10":27.3,"pm2_5":18.7,"no2":15.3,"co":206.0,"o3":84.0,"so2":16.0,"mosquito_risk":0,"arthritis_risk":5,"migraine_risk":10,"frizz_risk":1,"updated_at":"2026-06-03T20:13:48.062340+05:30"},{"city":"Nashik","state":"Maharashtra","latitude":19.9975,"longitude":73.7898,"temp":26.9,"humidity":73,"rain":0.0,"pressure":942.5,"uv_index":8.05,"wind_gusts":42.1,"aqi":70,"pm10":33.9,"pm2_5":17.1,"no2":3.8,"co":171.0,"o3":80.0,"so2":3.3,"mosquito_risk":7,"arthritis_risk":5,"migraine_risk":7,"frizz_risk":1,"updated_at":"2026-06-03T20:13:48.062348+05:30"},{"city":"Aurangabad","state":"Maharashtra","latitude":19.8762,"longitude":75.3433,"temp":31.8,"humidity":39,"rain":0.0,"pressure":940.1,"uv_index":9.0,"wind_gusts":50.4,"aqi":70,"pm10":64.7,"pm2_5":29.6,"no2":5.2,"co":169.0,"o3":101.0,"so2":4.5,"mosquito_risk":0,"arthritis_risk":5,"migraine_risk":7,"frizz_risk":1,"updated_at":"2026-06-03T20:13:48.062355+05:30"},{"city":"Solapur","state":"Maharashtra","latitude":17.6599,"longitude":75.9064,"temp":30.0,"humidity":51,"rain":0.0,"pressure":954.5,"uv_index":2.75,"wind_gusts":44.6,"aqi":65,"pm10":38.9,"pm2_5":20.3,"no2":8.6,"co":156.0,"o3":88.0,"so2":3.4,"mosquito_risk":4,"arthritis_risk":5,"migraine_risk":3,"frizz_risk":1,"updated_at":"2026-06-03T20:13:48.062363+05:30"},{"city":"Kolhapur","state":"Maharashtra","latitude":16.705,"longitude":74.2433,"temp":26.1,"humidity":70,"rain":0.0,"pressure":945.6,"uv_index":3.6,"wind_gusts":35.6,"aqi":49,"pm10":13.8,"pm2_5":8.9,"no2":5.9,"co":165.0,"o3":58.0,"so2":2.1,"mosquito_risk":7,"arthritis_risk":5,"migraine_risk":3,"frizz_risk":1,"updated_at":"2026-06-03T20:13:48.062370+05:30"},{"city":"Goa","state":"Goa","latitude":15.2993,"longitude":74.124,"temp":27.2,"humidity":81,"rain":0.0,"pressure":996.0,"uv_index":2.4,"wind_gusts":21.2,"aqi":35,"pm10":11.6,"pm2_5":6.1,"no2":3.4,"co":216.0,"o3":51.0,"so2":0.9,"mosquito_risk":7,"arthritis_risk":5,"migraine_risk":3,"frizz_risk":1,"updated_at":"2026-06-03T20:13:48.062377+05:30"},{"city":"Jodhpur","state":"Rajasthan","latitude":26.2389,"longitude":73.0243,"temp":36.3,"humidity":35,"rain":0.0,"pressure":976.6,"uv_index":8.45,"wind_gusts":32.0,"aqi":102,"pm10":108.7,"pm2_5":38.2,"no2":5.2,"co":231.0,"o3":83.0,"so2":3.7,"mosquito_risk":0,"arthritis_risk":5,"migraine_risk":10,"frizz_risk":1,"updated_at":"2026-06-03T20:13:48.062385+05:30"},{"city":"Udaipur","state":"Rajasthan","latitude":24.5854,"longitude":73.7125,"temp":31.3,"humidity":48,"rain":0.0,"pressure":941.9,"uv_index":8.85,"wind_gusts":33.1,"aqi":89,"pm10":67.1,"pm2_5":32.1,"no2":2.8,"co":233.0,"o3":89.0,"so2":3.5,"mosquito_risk":0,"arthritis_risk":5,"migraine_risk":7,"frizz_risk":1,"updated_at":"2026-06-03T20:13:48.062392+05:30"},{"city":"Kota","state":"Rajasthan","latitude":25.2138,"longitude":75.8648,"temp":31.4,"humidity":55,"rain":0.0,"pressure":972.4,"uv_index":8.4,"wind_gusts":31.0,"aqi":106,"pm10":102.9,"pm2_5":41.0,"no2":10.1,"co":342.0,"o3":85.0,"so2":5.7,"mosquito_risk":0,"arthritis_risk":5,"migraine_risk":7,"frizz_risk":1,"updated_at":"2026-06-03T20:13:48.062400+05:30"},{"city":"Bikaner","state":"Rajasthan","latitude":28.0229,"longitude":73.3119,"temp":36.7,"humidity":28,"rain":0.0,"pressure":974.8,"uv_index":8.45,"wind_gusts":28.4,"aqi":108,"pm10":118.0,"pm2_5":39.7,"no2":4.6,"co":180.0,"o3":86.0,"so2":3.8,"mosquito_risk":0,"arthritis_risk":5,"migraine_risk":10,"frizz_risk":0,"updated_at":"2026-06-03T20:13:48.062407+05:30"},{"city":"Ajmer","state":"Rajasthan","latitude":26.4499,"longitude":74.6399,"temp":32.0,"humidity":45,"rain":0.0,"pressure":948.9,"uv_index":8.35,"wind_gusts":38.2,"aqi":96,"pm10":73.8,"pm2_5":32.2,"no2":5.9,"co":291.0,"o3":91.0,"so2":3.7,"mosquito_risk":0,"arthritis_risk":5,"migraine_risk":7,"frizz_risk":1,"updated_at":"2026-06-03T20:13:48.062415+05:30"},{"city":"Gwalior","state":"Madhya Pradesh","latitude":26.2183,"longitude":78.1828,"temp":30.5,"humidity":60,"rain":0.0,"pressure":976.7,"uv_index":7.75,"wind_gusts":36.4,"aqi":96,"pm10":81.7,"pm2_5":34.0,"no2":14.5,"co":348.0,"o3":85.0,"so2":6.5,"mosquito_risk":0,"arthritis_risk":5,"migraine_risk":7,"frizz_risk":1,"updated_at":"2026-06-03T20:13:48.062423+05:30"},{"city":"Indore","state":"Madhya Pradesh","latitude":22.7196,"longitude":75.8577,"temp":32.5,"humidity":44,"rain":0.0,"pressure":943.7,"uv_index":8.6,"wind_gusts":27.7,"aqi":82,"pm10":62.6,"pm2_5":35.0,"no2":8.9,"co":472.0,"o3":91.0,"so2":6.0,"mosquito_risk":0,"arthritis_risk":5,"migraine_risk":7,"frizz_risk":1,"updated_at":"2026-06-03T20:13:48.062430+05:30"},{"city":"Bhopal","state":"Madhya Pradesh","latitude":23.2599,"longitude":77.4126,"temp":32.1,"humidity":45,"rain":0.0,"pressure":948.6,"uv_index":8.4,"wind_gusts":47.5,"aqi":77,"pm10":48.5,"pm2_5":27.6,"no2":11.6,"co":522.0,"o3":84.0,"so2":5.2,"mosquito_risk":0,"arthritis_risk":5,"migraine_risk":7,"frizz_risk":1,"updated_at":"2026-06-03T20:13:48.062437+05:30"},{"city":"Jabalpur","state":"Madhya Pradesh","latitude":23.1815,"longitude":79.9864,"temp":33.0,"humidity":41,"rain":0.0,"pressure":956.3,"uv_index":8.35,"wind_gusts":30.6,"aqi":91,"pm10":37.3,"pm2_5":24.0,"no2":10.4,"co":259.0,"o3":98.0,"so2":5.9,"mosquito_risk":0,"arthritis_risk":5,"migraine_risk":7,"frizz_risk":1,"updated_at":"2026-06-03T20:13:48.062445+05:30"},{"city":"Ujjain","state":"Madhya Pradesh","latitude":23.1765,"longitude":75.7885,"temp":31.2,"humidity":51,"rain":0.0,"pressure":949.1,"uv_index":8.55,"wind_gusts":28.1,"aqi":82,"pm10":58.3,"pm2_5":30.6,"no2":4.0,"co":284.0,"o3":99.0,"so2":6.4,"mosquito_risk":0,"arthritis_risk":5,"migraine_risk":7,"frizz_risk":1,"updated_at":"2026-06-03T20:13:48.062453+05:30"},{"city":"Visakhapatnam","state":"Andhra Pradesh","latitude":17.6868,"longitude":83.2185,"temp":30.8,"humidity":87,"rain":0.0,"pressure":998.8,"uv_index":9.05,"wind_gusts":44.6,"aqi":130,"pm10":40.6,"pm2_5":33.2,"no2":28.7,"co":363.0,"o3":103.0,"so2":52.8,"mosquito_risk":3,"arthritis_risk":5,"migraine_risk":7,"frizz_risk":1,"updated_at":"2026-06-03T20:13:48.062460+05:30"},{"city":"Vijayawada","state":"Andhra Pradesh","latitude":16.5062,"longitude":80.648,"temp":33.2,"humidity":57,"rain":0.0,"pressure":998.1,"uv_index":9.0,"wind_gusts":43.6,"aqi":128,"pm10":68.2,"pm2_5":58.9,"no2":21.9,"co":334.0,"o3":87.0,"so2":9.4,"mosquito_risk":0,"arthritis_risk":5,"migraine_risk":7,"frizz_risk":1,"updated_at":"2026-06-03T20:13:48.062468+05:30"},{"city":"Guntur","state":"Andhra Pradesh","latitude":16.3067,"longitude":80.4365,"temp":32.8,"humidity":56,"rain":0.0,"pressure":999.5,"uv_index":9.05,"wind_gusts":45.0,"aqi":128,"pm10":58.8,"pm2_5":47.6,"no2":24.9,"co":223.0,"o3":93.0,"so2":10.1,"mosquito_risk":0,"arthritis_risk":5,"migraine_risk":7,"frizz_risk":1,"updated_at":"2026-06-03T20:13:48.062475+05:30"},{"city":"Nellore","state":"Andhra Pradesh","latitude":14.4426,"longitude":79.9865,"temp":26.6,"humidity":94,"rain":0.5,"pressure":1003.1,"uv_index":9.0,"wind_gusts":37.4,"aqi":134,"pm10":25.2,"pm2_5":21.2,"no2":5.7,"co":271.0,"o3":130.0,"so2":4.8,"mosquito_risk":10,"arthritis_risk":5,"migraine_risk":4,"frizz_risk":1,"updated_at":"2026-06-03T20:13:48.062484+05:30"},{"city":"Kurnool","state":"Andhra Pradesh","latitude":15.8281,"longitude":78.0373,"temp":27.5,"humidity":73,"rain":0.0,"pressure":974.9,"uv_index":2.65,"wind_gusts":47.5,"aqi":90,"pm10":30.6,"pm2_5":21.9,"no2":13.2,"co":174.0,"o3":105.0,"so2":9.4,"mosquito_risk":7,"arthritis_risk":5,"migraine_risk":3,"frizz_risk":1,"updated_at":"2026-06-03T20:13:48.062492+05:30"},{"city":"Kakinada","state":"Andhra Pradesh","latitude":16.9891,"longitude":82.2475,"temp":30.8,"humidity":81,"rain":0.0,"pressure":1002.5,"uv_index":9.05,"wind_gusts":36.0,"aqi":105,"pm10":32.4,"pm2_5":23.6,"no2":3.8,"co":278.0,"o3":127.0,"so2":4.0,"mosquito_risk":3,"arthritis_risk":5,"migraine_risk":4,"frizz_risk":1,"updated_at":"2026-06-03T20:13:48.062500+05:30"},{"city":"Tirupati","state":"Andhra Pradesh","latitude":13.6288,"longitude":79.4192,"temp":26.1,"humidity":93,"rain":0.3,"pressure":989.4,"uv_index":9.0,"wind_gusts":28.4,"aqi":79,"pm10":15.8,"pm2_5":13.9,"no2":13.0,"co":312.0,"o3":87.0,"so2":2.0,"mosquito_risk":10,"arthritis_risk":5,"migraine_risk":7,"frizz_risk":1,"updated_at":"2026-06-03T20:13:48.062508+05:30"},{"city":"Warangal","state":"Telangana","latitude":17.9689,"longitude":79.5941,"temp":33.3,"humidity":45,"rain":0.0,"pressure":974.6,"uv_index":9.0,"wind_gusts":30.2,"aqi":98,"pm10":53.9,"pm2_5":42.4,"no2":20.2,"co":292.0,"o3":76.0,"so2":7.2,"mosquito_risk":0,"arthritis_risk":5,"migraine_risk":7,"frizz_risk":1,"updated_at":"2026-06-03T20:13:48.062515+05:30"},{"city":"Nizamabad","state":"Telangana","latitude":18.6725,"longitude":78.0941,"temp":32.2,"humidity":46,"rain":0.0,"pressure":960.9,"uv_index":8.3,"wind_gusts":38.9,"aqi":72,"pm10":45.8,"pm2_5":27.0,"no2":8.0,"co":224.0,"o3":103.0,"so2":5.6,"mosquito_risk":0,"arthritis_risk":5,"migraine_risk":7,"frizz_risk":1,"updated_at":"2026-06-03T20:13:48.062523+05:30"},{"city":"Mysore","state":"Karnataka","latitude":12.2958,"longitude":76.6396,"temp":23.0,"humidity":80,"rain":0.0,"pressure":927.3,"uv_index":8.8,"wind_gusts":49.7,"aqi":34,"pm10":8.1,"pm2_5":6.5,"no2":9.6,"co":169.0,"o3":57.0,"so2":2.1,"mosquito_risk":3,"arthritis_risk":5,"migraine_risk":7,"frizz_risk":1,"updated_at":"2026-06-03T20:13:48.062530+05:30"},{"city":"Mangalore","state":"Karnataka","latitude":12.9141,"longitude":74.856,"temp":25.1,"humidity":94,"rain":0.4,"pressure":1006.1,"uv_index":8.6,"wind_gusts":32.4,"aqi":39,"pm10":10.8,"pm2_5":7.2,"no2":7.8,"co":277.0,"o3":40.0,"so2":2.6,"mosquito_risk":10,"arthritis_risk":5,"migraine_risk":4,"frizz_risk":1,"updated_at":"2026-06-03T20:13:48.062538+05:30"},{"city":"Hubli-Dharwad","state":"Karnataka","latitude":15.3647,"longitude":75.124,"temp":23.8,"humidity":90,"rain":0.0,"pressure":938.8,"uv_index":6.35,"wind_gusts":38.9,"aqi":36,"pm10":7.2,"pm2_5":4.5,"no2":4.4,"co":138.0,"o3":62.0,"so2":0.9,"mosquito_risk":3,"arthritis_risk":5,"migraine_risk":7,"frizz_risk":1,"updated_at":"2026-06-03T20:13:48.062545+05:30"},{"city":"Belgaum","state":"Karnataka","latitude":15.8497,"longitude":74.4977,"temp":23.2,"humidity":85,"rain":0.0,"pressure":923.7,"uv_index":1.4,"wind_gusts":30.6,"aqi":38,"pm10":10.2,"pm2_5":6.0,"no2":4.9,"co":132.0,"o3":62.0,"so2":2.0,"mosquito_risk":3,"arthritis_risk":5,"migraine_risk":3,"frizz_risk":1,"updated_at":"2026-06-03T20:13:51.337417+05:30"},{"city":"Coimbatore","state":"Tamil Nadu","latitude":11.0168,"longitude":76.9558,"temp":25.7,"humidity":75,"rain":0.0,"pressure":960.5,"uv_index":8.85,"wind_gusts":48.6,"aqi":34,"pm10":7.4,"pm2_5":6.0,"no2":6.5,"co":180.0,"o3":59.0,"so2":2.5,"mosquito_risk":7,"arthritis_risk":5,"migraine_risk":7,"frizz_risk":1,"updated_at":"2026-06-03T20:13:51.337451+05:30"},{"city":"Madurai","state":"Tamil Nadu","latitude":9.9252,"longitude":78.1198,"temp":30.0,"humidity":56,"rain":0.0,"pressure":991.3,"uv_index":8.65,"wind_gusts":55.1,"aqi":68,"pm10":15.7,"pm2_5":12.3,"no2":17.9,"co":167.0,"o3":54.0,"so2":4.4,"mosquito_risk":4,"arthritis_risk":5,"migraine_risk":7,"frizz_risk":1,"updated_at":"2026-06-03T20:13:51.337463+05:30"},{"city":"Trichy","state":"Tamil Nadu","latitude":10.7905,"longitude":78.7047,"temp":31.5,"humidity":51,"rain":0.0,"pressure":997.7,"uv_index":8.85,"wind_gusts":60.8,"aqi":45,"pm10":12.2,"pm2_5":9.2,"no2":9.4,"co":172.0,"o3":70.0,"so2":3.7,"mosquito_risk":0,"arthritis_risk":5,"migraine_risk":7,"frizz_risk":1,"updated_at":"2026-06-03T20:13:51.337472+05:30"},{"city":"Salem","state":"Tamil Nadu","latitude":11.6643,"longitude":78.146,"temp":27.8,"humidity":84,"rain":0.0,"pressure":975.8,"uv_index":8.1,"wind_gusts":44.3,"aqi":48,"pm10":10.6,"pm2_5":7.9,"no2":11.2,"co":361.0,"o3":63.0,"so2":5.8,"mosquito_risk":7,"arthritis_risk":5,"migraine_risk":7,"frizz_risk":1,"updated_at":"2026-06-03T20:13:51.337481+05:30"},{"city":"Tirunelveli","state":"Tamil Nadu","latitude":8.7139,"longitude":77.7567,"temp":30.4,"humidity":59,"rain":0.0,"pressure":1002.5,"uv_index":8.3,"wind_gusts":50.0,"aqi":29,"pm10":6.6,"pm2_5":5.1,"no2":4.9,"co":137.0,"o3":47.0,"so2":1.3,"mosquito_risk":0,"arthritis_risk":5,"migraine_risk":4,"frizz_risk":1,"updated_at":"2026-06-03T20:13:51.337490+05:30"},{"city":"Vellore","state":"Tamil Nadu","latitude":12.9165,"longitude":79.1325,"temp":26.7,"humidity":91,"rain":0.1,"pressure":982.9,"uv_index":9.0,"wind_gusts":38.9,"aqi":91,"pm10":13.4,"pm2_5":13.0,"no2":15.8,"co":264.0,"o3":75.0,"so2":4.3,"mosquito_risk":10,"arthritis_risk":5,"migraine_risk":7,"frizz_risk":1,"updated_at":"2026-06-03T20:13:51.337498+05:30"},{"city":"Erode","state":"Tamil Nadu","latitude":11.341,"longitude":77.7172,"temp":28.9,"humidity":63,"rain":0.0,"pressure":987.4,"uv_index":8.55,"wind_gusts":49.3,"aqi":41,"pm10":10.0,"pm2_5":8.0,"no2":10.0,"co":213.0,"o3":61.0,"so2":2.6,"mosquito_risk":7,"arthritis_risk":5,"migraine_risk":7,"frizz_risk":1,"updated_at":"2026-06-03T20:13:51.337505+05:30"},{"city":"Kochi","state":"Kerala","latitude":9.9312,"longitude":76.2673,"temp":27.7,"humidity":85,"rain":0.1,"pressure":1008.8,"uv_index":8.2,"wind_gusts":26.3,"aqi":37,"pm10":18.9,"pm2_5":16.1,"no2":20.6,"co":143.0,"o3":27.0,"so2":4.2,"mosquito_risk":10,"arthritis_risk":0,"migraine_risk":4,"frizz_risk":1,"updated_at":"2026-06-03T20:13:51.337514+05:30"},{"city":"Thiruvananthapuram","state":"Kerala","latitude":8.5241,"longitude":76.9366,"temp":26.0,"humidity":89,"rain":0.1,"pressure":1008.4,"uv_index":8.1,"wind_gusts":45.0,"aqi":27,"pm10":11.6,"pm2_5":6.5,"no2":1.9,"co":116.0,"o3":47.0,"so2":0.6,"mosquito_risk":10,"arthritis_risk":0,"migraine_risk":4,"frizz_risk":1,"updated_at":"2026-06-03T20:13:51.337521+05:30"},{"city":"Kozhikode","state":"Kerala","latitude":11.2588,"longitude":75.7804,"temp":25.6,"humidity":99,"rain":0.0,"pressure":1008.1,"uv_index":8.6,"wind_gusts":30.6,"aqi":28,"pm10":9.8,"pm2_5":5.8,"no2":1.7,"co":329.0,"o3":55.0,"so2":0.7,"mosquito_risk":7,"arthritis_risk":0,"migraine_risk":4,"frizz_risk":1,"updated_at":"2026-06-03T20:13:51.337529+05:30"},{"city":"Thrissur","state":"Kerala","latitude":10.5276,"longitude":76.2144,"temp":26.4,"humidity":90,"rain":0.1,"pressure":1007.2,"uv_index":8.55,"wind_gusts":25.9,"aqi":35,"pm10":18.5,"pm2_5":15.8,"no2":20.7,"co":307.0,"o3":26.0,"so2":4.6,"mosquito_risk":10,"arthritis_risk":5,"migraine_risk":4,"frizz_risk":1,"updated_at":"2026-06-03T20:13:51.337537+05:30"},{"city":"Kannur","state":"Kerala","latitude":11.8745,"longitude":75.3704,"temp":25.6,"humidity":95,"rain":0.1,"pressure":1007.1,"uv_index":8.5,"wind_gusts":27.4,"aqi":33,"pm10":12.3,"pm2_5":9.7,"no2":13.8,"co":324.0,"o3":34.0,"so2":2.3,"mosquito_risk":10,"arthritis_risk":5,"migraine_risk":4,"frizz_risk":1,"updated_at":"2026-06-03T20:13:51.337545+05:30"},{"city":"Patna","state":"Bihar","latitude":25.5941,"longitude":85.1376,"temp":30.7,"humidity":68,"rain":0.0,"pressure":994.5,"uv_index":8.85,"wind_gusts":29.9,"aqi":164,"pm10":80.8,"pm2_5":67.1,"no2":39.0,"co":520.0,"o3":80.0,"so2":17.4,"mosquito_risk":3,"arthritis_risk":5,"migraine_risk":7,"frizz_risk":1,"updated_at":"2026-06-03T20:13:51.337571+05:30"},{"city":"Gaya","state":"Bihar","latitude":24.7914,"longitude":85.0002,"temp":31.7,"humidity":61,"rain":0.0,"pressure":988.2,"uv_index":8.9,"wind_gusts":28.8,"aqi":152,"pm10":84.5,"pm2_5":70.5,"no2":21.8,"co":780.0,"o3":108.0,"so2":16.4,"mosquito_risk":3,"arthritis_risk":5,"migraine_risk":7,"frizz_risk":1,"updated_at":"2026-06-03T20:13:51.337582+05:30"},{"city":"Muzaffarpur","state":"Bihar","latitude":26.1209,"longitude":85.3647,"temp":30.5,"humidity":74,"rain":0.0,"pressure":994.3,"uv_index":8.85,"wind_gusts":33.1,"aqi":167,"pm10":87.3,"pm2_5":71.7,"no2":42.9,"co":615.0,"o3":80.0,"so2":17.0,"mosquito_risk":3,"arthritis_risk":5,"migraine_risk":7,"frizz_risk":1,"updated_at":"2026-06-03T20:13:51.337591+05:30"},{"city":"Bhagalpur","state":"Bihar","latitude":25.2425,"longitude":87.0117,"temp":32.2,"humidity":70,"rain":0.0,"pressure":995.2,"uv_index":8.8,"wind_gusts":28.1,"aqi":169,"pm10":65.0,"pm2_5":52.0,"no2":17.4,"co":535.0,"o3":123.0,"so2":12.4,"mosquito_risk":3,"arthritis_risk":5,"migraine_risk":7,"frizz_risk":1,"updated_at":"2026-06-03T20:13:51.337601+05:30"},{"city":"Ranchi","state":"Jharkhand","latitude":23.3441,"longitude":85.3096,"temp":27.3,"humidity":69,"rain":0.0,"pressure":933.5,"uv_index":9.3,"wind_gusts":32.8,"aqi":158,"pm10":86.6,"pm2_5":63.8,"no2":12.7,"co":431.0,"o3":122.0,"so2":9.2,"mosquito_risk":7,"arthritis_risk":5,"migraine_risk":7,"frizz_risk":1,"updated_at":"2026-06-03T20:13:51.337611+05:30"},{"city":"Jamshedpur","state":"Jharkhand","latitude":22.8046,"longitude":86.2029,"temp":29.1,"humidity":74,"rain":0.0,"pressure":986.0,"uv_index":8.9,"wind_gusts":39.6,"aqi":201,"pm10":71.0,"pm2_5":63.3,"no2":17.9,"co":549.0,"o3":132.0,"so2":30.6,"mosquito_risk":7,"arthritis_risk":5,"migraine_risk":7,"frizz_risk":1,"updated_at":"2026-06-03T20:13:51.337621+05:30"},{"city":"Dhanbad","state":"Jharkhand","latitude":23.7957,"longitude":86.4304,"temp":31.3,"humidity":62,"rain":0.0,"pressure":975.1,"uv_index":9.05,"wind_gusts":33.8,"aqi":183,"pm10":110.4,"pm2_5":97.1,"no2":52.3,"co":391.0,"o3":107.0,"so2":130.0,"mosquito_risk":3,"arthritis_risk":5,"migraine_risk":7,"frizz_risk":1,"updated_at":"2026-06-03T20:13:51.337632+05:30"},{"city":"Bokaro","state":"Jharkhand","latitude":23.6693,"longitude":86.1511,"temp":30.9,"humidity":65,"rain":0.0,"pressure":978.9,"uv_index":9.1,"wind_gusts":31.3,"aqi":200,"pm10":102.0,"pm2_5":84.1,"no2":40.4,"co":432.0,"o3":109.0,"so2":102.8,"mosquito_risk":3,"arthritis_risk":5,"migraine_risk":7,"frizz_risk":1,"updated_at":"2026-06-03T20:13:51.337640+05:30"},{"city":"Bhubaneswar","state":"Odisha","latitude":20.2961,"longitude":85.8245,"temp":30.2,"humidity":85,"rain":0.0,"pressure":997.6,"uv_index":9.0,"wind_gusts":28.8,"aqi":151,"pm10":47.1,"pm2_5":42.5,"no2":14.0,"co":485.0,"o3":115.0,"so2":10.7,"mosquito_risk":3,"arthritis_risk":5,"migraine_risk":7,"frizz_risk":1,"updated_at":"2026-06-03T20:13:51.337647+05:30"},{"city":"Cuttack","state":"Odisha","latitude":20.4625,"longitude":85.8828,"temp":30.4,"humidity":87,"rain":0.0,"pressure":999.5,"uv_index":9.1,"wind_gusts":35.6,"aqi":151,"pm10":47.1,"pm2_5":42.5,"no2":14.0,"co":438.0,"o3":115.0,"so2":10.7,"mosquito_risk":3,"arthritis_risk":5,"migraine_risk":7,"frizz_risk":1,"updated_at":"2026-06-03T20:13:51.337654+05:30"},{"city":"Rourkela","state":"Odisha","latitude":22.2604,"longitude":84.8536,"temp":31.8,"humidity":58,"rain":0.0,"pressure":980.0,"uv_index":9.0,"wind_gusts":26.3,"aqi":170,"pm10":103.4,"pm2_5":76.1,"no2":18.0,"co":296.0,"o3":132.0,"so2":18.0,"mosquito_risk":0,"arthritis_risk":5,"migraine_risk":7,"frizz_risk":1,"updated_at":"2026-06-03T20:13:51.337661+05:30"},{"city":"Raipur","state":"Chhattisgarh","latitude":21.2514,"longitude":81.6296,"temp":35.8,"humidity":29,"rain":0.0,"pressure":969.6,"uv_index":8.95,"wind_gusts":35.3,"aqi":149,"pm10":53.6,"pm2_5":41.3,"no2":30.1,"co":457.0,"o3":98.0,"so2":46.5,"mosquito_risk":0,"arthritis_risk":5,"migraine_risk":10,"frizz_risk":0,"updated_at":"2026-06-03T20:13:51.337669+05:30"},{"city":"Bhilai","state":"Chhattisgarh","latitude":21.1938,"longitude":81.3509,"temp":34.2,"humidity":32,"rain":0.0,"pressure":969.9,"uv_index":8.95,"wind_gusts":34.6,"aqi":131,"pm10":55.9,"pm2_5":42.3,"no2":30.1,"co":665.0,"o3":97.0,"so2":41.3,"mosquito_risk":0,"arthritis_risk":5,"migraine_risk":7,"frizz_risk":0,"updated_at":"2026-06-03T20:13:51.337676+05:30"},{"city":"Guwahati","state":"Assam","latitude":26.1158,"longitude":91.7086,"temp":28.4,"humidity":87,"rain":0.0,"pressure":996.9,"uv_index":8.8,"wind_gusts":39.2,"aqi":113,"pm10":45.6,"pm2_5":43.4,"no2":7.6,"co":563.0,"o3":97.0,"so2":6.0,"mosquito_risk":7,"arthritis_risk":5,"migraine_risk":7,"frizz_risk":1,"updated_at":"2026-06-03T20:13:51.337683+05:30"},{"city":"Agartala","state":"Tripura","latitude":23.8315,"longitude":91.2868,"temp":29.6,"humidity":75,"rain":0.0,"pressure":1001.6,"uv_index":8.85,"wind_gusts":20.5,"aqi":101,"pm10":55.9,"pm2_5":49.5,"no2":23.6,"co":376.0,"o3":73.0,"so2":7.1,"mosquito_risk":7,"arthritis_risk":5,"migraine_risk":4,"frizz_risk":1,"updated_at":"2026-06-03T20:13:51.337691+05:30"},{"city":"Shillong","state":"Meghalaya","latitude":25.5788,"longitude":91.8933,"temp":19.3,"humidity":95,"rain":0.0,"pressure":854.6,"uv_index":7.15,"wind_gusts":29.2,"aqi":86,"pm10":29.8,"pm2_5":27.6,"no2":9.0,"co":599.0,"o3":91.0,"so2":3.8,"mosquito_risk":3,"arthritis_risk":10,"migraine_risk":7,"frizz_risk":1,"updated_at":"2026-06-03T20:13:51.337720+05:30"},{"city":"Imphal","state":"Manipur","latitude":24.817,"longitude":93.9368,"temp":24.1,"humidity":86,"rain":0.0,"pressure":919.9,"uv_index":9.25,"wind_gusts":30.2,"aqi":92,"pm10":38.2,"pm2_5":32.1,"no2":17.6,"co":606.0,"o3":60.0,"so2":4.5,"mosquito_risk":3,"arthritis_risk":5,"migraine_risk":7,"frizz_risk":1,"updated_at":"2026-06-03T20:13:51.337730+05:30"},{"city":"Aizawl","state":"Mizoram","latitude":23.7271,"longitude":92.7176,"temp":22.2,"humidity":86,"rain":0.0,"pressure":890.0,"uv_index":9.1,"wind_gusts":23.0,"aqi":78,"pm10":35.2,"pm2_5":25.5,"no2":8.4,"co":251.0,"o3":67.0,"so2":2.1,"mosquito_risk":3,"arthritis_risk":5,"migraine_risk":7,"frizz_risk":1,"updated_at":"2026-06-03T20:13:51.337740+05:30"},{"city":"Kohima","state":"Nagaland","latitude":25.6701,"longitude":94.1077,"temp":20.0,"humidity":95,"rain":0.0,"pressure":852.8,"uv_index":9.25,"wind_gusts":29.2,"aqi":85,"pm10":31.7,"pm2_5":27.1,"no2":12.8,"co":450.0,"o3":72.0,"so2":2.6,"mosquito_risk":3,"arthritis_risk":5,"migraine_risk":7,"frizz_risk":1,"updated_at":"2026-06-03T20:13:51.337750+05:30"},{"city":"Gangtok","state":"Sikkim","latitude":27.3314,"longitude":88.6138,"temp":18.3,"humidity":92,"rain":0.4,"pressure":834.9,"uv_index":9.15,"wind_gusts":40.7,"aqi":114,"pm10":40.2,"pm2_5":33.8,"no2":9.0,"co":507.0,"o3":130.0,"so2":2.9,"mosquito_risk":6,"arthritis_risk":10,"migraine_risk":7,"frizz_risk":1,"updated_at":"2026-06-03T20:13:51.337759+05:30"},{"city":"Siliguri","state":"West Bengal","latitude":26.7271,"longitude":88.3953,"temp":26.6,"humidity":94,"rain":0.1,"pressure":987.7,"uv_index":8.7,"wind_gusts":31.3,"aqi":156,"pm10":81.7,"pm2_5":64.7,"no2":17.9,"co":658.0,"o3":120.0,"so2":7.1,"mosquito_risk":10,"arthritis_risk":5,"migraine_risk":7,"frizz_risk":1,"updated_at":"2026-06-03T20:13:54.612522+05:30"},{"city":"Durgapur","state":"West Bengal","latitude":23.5204,"longitude":87.3119,"temp":30.8,"humidity":75,"rain":0.0,"pressure":989.8,"uv_index":9.0,"wind_gusts":23.8,"aqi":217,"pm10":103.4,"pm2_5":97.3,"no2":28.2,"co":1344.0,"o3":144.0,"so2":51.0,"mosquito_risk":3,"arthritis_risk":5,"migraine_risk":7,"frizz_risk":1,"updated_at":"2026-06-03T20:13:54.612554+05:30"},{"city":"Asansol","state":"West Bengal","latitude":23.6739,"longitude":86.9524,"temp":31.0,"humidity":69,"rain":0.0,"pressure":988.4,"uv_index":8.9,"wind_gusts":24.5,"aqi":193,"pm10":101.0,"pm2_5":91.0,"no2":35.1,"co":715.0,"o3":129.0,"so2":56.4,"mosquito_risk":3,"arthritis_risk":5,"migraine_risk":7,"frizz_risk":1,"updated_at":"2026-06-03T20:13:54.612565+05:30"},{"city":"Pondicherry","state":"Puducherry","latitude":11.9139,"longitude":79.8145,"temp":31.2,"humidity":68,"rain":0.0,"pressure":1005.4,"uv_index":8.85,"wind_gusts":39.6,"aqi":102,"pm10":21.0,"pm2_5":17.5,"no2":17.7,"co":288.0,"o3":98.0,"so2":5.7,"mosquito_risk":3,"arthritis_risk":5,"migraine_risk":4,"frizz_risk":1,"updated_at":"2026-06-03T20:13:54.612574+05:30"},{"city":"Port Blair","state":"Andaman and Nicobar Islands","latitude":11.6234,"longitude":92.7265,"temp":26.2,"humidity":91,"rain":0.0,"pressure":1006.1,"uv_index":2.1,"wind_gusts":36.0,"aqi":36,"pm10":6.2,"pm2_5":3.8,"no2":0.5,"co":134.0,"o3":71.0,"so2":0.5,"mosquito_risk":7,"arthritis_risk":5,"migraine_risk":0,"frizz_risk":1,"updated_at":"2026-06-03T20:13:54.612583+05:30"},{"city":"Haridwar","state":"Uttarakhand","latitude":29.9457,"longitude":78.1642,"temp":29.4,"humidity":67,"rain":0.0,"pressure":967.8,"uv_index":7.6,"wind_gusts":24.1,"aqi":158,"pm10":46.0,"pm2_5":35.3,"no2":15.7,"co":435.0,"o3":132.0,"so2":11.8,"mosquito_risk":7,"arthritis_risk":5,"migraine_risk":7,"frizz_risk":1,"updated_at":"2026-06-03T20:13:54.612591+05:30"},{"city":"Rishikesh","state":"Uttarakhand","latitude":30.0869,"longitude":78.2676,"temp":26.7,"humidity":83,"rain":0.0,"pressure":960.7,"uv_index":7.7,"wind_gusts":23.8,"aqi":136,"pm10":32.0,"pm2_5":22.8,"no2":9.2,"co":373.0,"o3":126.0,"so2":4.9,"mosquito_risk":7,"arthritis_risk":5,"migraine_risk":7,"frizz_risk":1,"updated_at":"2026-06-03T20:13:54.612599+05:30"},{"city":"Nainital","state":"Uttarakhand","latitude":29.3919,"longitude":79.4542,"temp":15.2,"humidity":100,"rain":0.0,"pressure":801.8,"uv_index":7.4,"wind_gusts":31.3,"aqi":123,"pm10":66.8,"pm2_5":40.7,"no2":10.4,"co":323.0,"o3":128.0,"so2":6.0,"mosquito_risk":3,"arthritis_risk":10,"migraine_risk":7,"frizz_risk":0,"updated_at":"2026-06-03T20:13:54.612607+05:30"},{"city":"Mussoorie","state":"Uttarakhand","latitude":30.4599,"longitude":78.0664,"temp":15.5,"humidity":95,"rain":0.0,"pressure":799.5,"uv_index":7.9,"wind_gusts":40.7,"aqi":159,"pm10":39.1,"pm2_5":29.0,"no2":18.0,"co":353.0,"o3":141.0,"so2":10.4,"mosquito_risk":3,"arthritis_risk":10,"migraine_risk":7,"frizz_risk":0,"updated_at":"2026-06-03T20:13:54.612615+05:30"},{"city":"Dharamshala","state":"Himachal Pradesh","latitude":32.219,"longitude":76.3234,"temp":20.9,"humidity":81,"rain":0.0,"pressure":865.2,"uv_index":8.5,"wind_gusts":36.0,"aqi":102,"pm10":37.4,"pm2_5":20.1,"no2":9.5,"co":339.0,"o3":100.0,"so2":1.0,"mosquito_risk":3,"arthritis_risk":5,"migraine_risk":7,"frizz_risk":1,"updated_at":"2026-06-03T20:13:54.612622+05:30"},{"city":"Dalhousie","state":"Himachal Pradesh","latitude":32.5387,"longitude":75.971,"temp":16.8,"humidity":79,"rain":0.0,"pressure":801.3,"uv_index":8.6,"wind_gusts":31.7,"aqi":138,"pm10":56.6,"pm2_5":29.0,"no2":14.7,"co":592.0,"o3":137.0,"so2":2.7,"mosquito_risk":3,"arthritis_risk":5,"migraine_risk":7,"frizz_risk":0,"updated_at":"2026-06-03T20:13:54.612629+05:30"},{"city":"Patiala","state":"Punjab","latitude":30.3398,"longitude":76.3869,"temp":30.9,"humidity":54,"rain":0.0,"pressure":971.8,"uv_index":7.7,"wind_gusts":34.2,"aqi":147,"pm10":237.5,"pm2_5":61.9,"no2":13.0,"co":378.0,"o3":119.0,"so2":8.5,"mosquito_risk":0,"arthritis_risk":5,"migraine_risk":7,"frizz_risk":1,"updated_at":"2026-06-03T20:13:54.612637+05:30"},{"city":"Bhatinda","state":"Punjab","latitude":30.211,"longitude":74.9455,"temp":33.5,"humidity":40,"rain":0.0,"pressure":977.3,"uv_index":8.35,"wind_gusts":28.4,"aqi":162,"pm10":90.8,"pm2_5":41.8,"no2":10.9,"co":408.0,"o3":123.0,"so2":10.4,"mosquito_risk":0,"arthritis_risk":5,"migraine_risk":7,"frizz_risk":1,"updated_at":"2026-06-03T20:13:54.612644+05:30"},{"city":"Rohtak","state":"Haryana","latitude":28.8955,"longitude":76.6066,"temp":32.7,"humidity":54,"rain":0.0,"pressure":975.2,"uv_index":7.8,"wind_gusts":20.5,"aqi":201,"pm10":163.4,"pm2_5":67.8,"no2":45.1,"co":644.0,"o3":111.0,"so2":15.7,"mosquito_risk":0,"arthritis_risk":5,"migraine_risk":7,"frizz_risk":1,"updated_at":"2026-06-03T20:13:54.612650+05:30"},{"city":"Panipat","state":"Haryana","latitude":29.3909,"longitude":76.9635,"temp":31.5,"humidity":46,"rain":0.0,"pressure":974.2,"uv_index":7.65,"wind_gusts":23.0,"aqi":186,"pm10":222.6,"pm2_5":76.8,"no2":36.5,"co":411.0,"o3":115.0,"so2":22.0,"mosquito_risk":0,"arthritis_risk":5,"migraine_risk":7,"frizz_risk":1,"updated_at":"2026-06-03T20:13:54.612657+05:30"},{"city":"Mathura","state":"Uttar Pradesh","latitude":27.4924,"longitude":77.6737,"temp":31.6,"humidity":53,"rain":0.0,"pressure":980.3,"uv_index":8.1,"wind_gusts":18.4,"aqi":132,"pm10":228.6,"pm2_5":61.5,"no2":23.3,"co":608.0,"o3":97.0,"so2":6.3,"mosquito_risk":0,"arthritis_risk":5,"migraine_risk":7,"frizz_risk":1,"updated_at":"2026-06-03T20:13:54.612664+05:30"},{"city":"Vrindavan","state":"Uttar Pradesh","latitude":27.5823,"longitude":77.7027,"temp":31.9,"humidity":50,"rain":0.0,"pressure":980.7,"uv_index":8.05,"wind_gusts":18.4,"aqi":132,"pm10":228.6,"pm2_5":61.5,"no2":23.3,"co":349.0,"o3":97.0,"so2":6.3,"mosquito_risk":0,"arthritis_risk":5,"migraine_risk":7,"frizz_risk":1,"updated_at":"2026-06-03T20:13:54.612671+05:30"},{"city":"Ayodhya","state":"Uttar Pradesh","latitude":26.7922,"longitude":82.1998,"temp":31.0,"humidity":60,"rain":0.0,"pressure":989.0,"uv_index":8.4,"wind_gusts":47.2,"aqi":125,"pm10":55.8,"pm2_5":43.3,"no2":20.9,"co":320.0,"o3":87.0,"so2":8.4,"mosquito_risk":0,"arthritis_risk":5,"migraine_risk":7,"frizz_risk":1,"updated_at":"2026-06-03T20:13:54.612677+05:30"},{"city":"Ratlam","state":"Madhya Pradesh","latitude":23.3315,"longitude":75.0367,"temp":31.9,"humidity":46,"rain":0.0,"pressure":950.1,"uv_index":8.5,"wind_gusts":29.9,"aqi":85,"pm10":56.3,"pm2_5":30.0,"no2":3.0,"co":187.0,"o3":98.0,"so2":5.9,"mosquito_risk":0,"arthritis_risk":5,"migraine_risk":7,"frizz_risk":1,"updated_at":"2026-06-03T20:13:54.612685+05:30"},{"city":"Sagar","state":"Madhya Pradesh","latitude":23.8388,"longitude":78.7378,"temp":30.5,"humidity":51,"rain":0.0,"pressure":945.0,"uv_index":7.6,"wind_gusts":25.9,"aqi":77,"pm10":50.8,"pm2_5":26.6,"no2":7.3,"co":299.0,"o3":93.0,"so2":4.4,"mosquito_risk":0,"arthritis_risk":5,"migraine_risk":7,"frizz_risk":1,"updated_at":"2026-06-03T20:13:54.612692+05:30"},{"city":"Satna","state":"Madhya Pradesh","latitude":24.6005,"longitude":80.8322,"temp":29.9,"humidity":58,"rain":0.0,"pressure":965.7,"uv_index":8.75,"wind_gusts":28.1,"aqi":92,"pm10":34.0,"pm2_5":20.9,"no2":8.2,"co":363.0,"o3":96.0,"so2":3.5,"mosquito_risk":4,"arthritis_risk":5,"migraine_risk":7,"frizz_risk":1,"updated_at":"2026-06-03T20:13:54.612700+05:30"},{"city":"Akola","state":"Maharashtra","latitude":20.7002,"longitude":77.0082,"temp":33.6,"humidity":43,"rain":0.0,"pressure":969.7,"uv_index":8.85,"wind_gusts":33.5,"aqi":65,"pm10":46.8,"pm2_5":23.6,"no2":7.5,"co":203.0,"o3":97.0,"so2":6.8,"mosquito_risk":0,"arthritis_risk":5,"migraine_risk":7,"frizz_risk":1,"updated_at":"2026-06-03T20:13:54.612708+05:30"},{"city":"Amravati","state":"Maharashtra","latitude":20.9374,"longitude":77.7796,"temp":34.8,"humidity":33,"rain":0.0,"pressure":962.5,"uv_index":8.85,"wind_gusts":34.6,"aqi":71,"pm10":39.6,"pm2_5":21.7,"no2":10.0,"co":179.0,"o3":89.0,"so2":7.0,"mosquito_risk":0,"arthritis_risk":5,"migraine_risk":7,"frizz_risk":1,"updated_at":"2026-06-03T20:13:54.612715+05:30"},{"city":"Latur","state":"Maharashtra","latitude":18.4088,"longitude":76.5604,"temp":29.5,"humidity":56,"rain":0.0,"pressure":937.0,"uv_index":8.75,"wind_gusts":39.2,"aqi":67,"pm10":39.6,"pm2_5":21.2,"no2":6.5,"co":183.0,"o3":84.0,"so2":2.5,"mosquito_risk":4,"arthritis_risk":5,"migraine_risk":7,"frizz_risk":1,"updated_at":"2026-06-03T20:13:54.612723+05:30"},{"city":"Nanded","state":"Maharashtra","latitude":19.1383,"longitude":77.3091,"temp":34.0,"humidity":40,"rain":0.0,"pressure":964.2,"uv_index":8.95,"wind_gusts":40.7,"aqi":73,"pm10":51.5,"pm2_5":26.9,"no2":7.5,"co":198.0,"o3":102.0,"so2":5.4,"mosquito_risk":0,"arthritis_risk":5,"migraine_risk":7,"frizz_risk":1,"updated_at":"2026-06-03T20:13:54.612730+05:30"},{"city":"Gulbarga","state":"Karnataka","latitude":17.3297,"longitude":76.8343,"temp":27.4,"humidity":70,"rain":0.0,"pressure":956.3,"uv_index":6.45,"wind_gusts":50.4,"aqi":66,"pm10":36.0,"pm2_5":20.1,"no2":11.4,"co":193.0,"o3":87.0,"so2":3.5,"mosquito_risk":7,"arthritis_risk":5,"migraine_risk":7,"frizz_risk":1,"updated_at":"2026-06-03T20:13:54.612737+05:30"},{"city":"Bidar","state":"Karnataka","latitude":17.9104,"longitude":77.5199,"temp":26.6,"humidity":69,"rain":0.0,"pressure":932.4,"uv_index":8.95,"wind_gusts":32.8,"aqi":90,"pm10":50.5,"pm2_5":32.0,"no2":23.2,"co":271.0,"o3":80.0,"so2":5.1,"mosquito_risk":7,"arthritis_risk":5,"migraine_risk":7,"frizz_risk":1,"updated_at":"2026-06-03T20:13:54.612743+05:30"},{"city":"Hospet","state":"Karnataka","latitude":15.2689,"longitude":76.3909,"temp":25.4,"humidity":85,"rain":0.0,"pressure":954.1,"uv_index":8.75,"wind_gusts":33.1,"aqi":44,"pm10":10.0,"pm2_5":7.7,"no2":7.7,"co":194.0,"o3":76.0,"so2":1.7,"mosquito_risk":7,"arthritis_risk":5,"migraine_risk":7,"frizz_risk":1,"updated_at":"2026-06-03T20:13:54.612750+05:30"},{"city":"Tirupur","state":"Tamil Nadu","latitude":11.1085,"longitude":77.3411,"temp":26.7,"humidity":72,"rain":0.0,"pressure":973.8,"uv_index":8.95,"wind_gusts":50.8,"aqi":39,"pm10":10.2,"pm2_5":8.3,"no2":10.7,"co":185.0,"o3":59.0,"so2":3.4,"mosquito_risk":7,"arthritis_risk":5,"migraine_risk":7,"frizz_risk":1,"updated_at":"2026-06-03T20:13:54.612757+05:30"},{"city":"Alappuzha","state":"Kerala","latitude":9.4981,"longitude":76.3388,"temp":28.0,"humidity":80,"rain":0.2,"pressure":1008.7,"uv_index":8.1,"wind_gusts":38.9,"aqi":29,"pm10":11.5,"pm2_5":8.1,"no2":8.6,"co":94.0,"o3":42.0,"so2":1.9,"mosquito_risk":10,"arthritis_risk":0,"migraine_risk":4,"frizz_risk":1,"updated_at":"2026-06-03T20:13:54.612764+05:30"},{"city":"Munnar","state":"Kerala","latitude":10.0889,"longitude":77.0595,"temp":16.6,"humidity":100,"rain":0.0,"pressure":856.4,"uv_index":8.4,"wind_gusts":45.0,"aqi":34,"pm10":8.7,"pm2_5":6.5,"no2":5.7,"co":129.0,"o3":55.0,"so2":1.7,"mosquito_risk":3,"arthritis_risk":10,"migraine_risk":7,"frizz_risk":1,"updated_at":"2026-06-03T20:13:54.612772+05:30"},{"city":"Silchar","state":"Assam","latitude":24.8333,"longitude":92.7789,"temp":29.2,"humidity":87,"rain":0.0,"pressure":1000.4,"uv_index":8.8,"wind_gusts":22.3,"aqi":113,"pm10":51.8,"pm2_5":41.6,"no2":11.5,"co":946.0,"o3":109.0,"so2":7.7,"mosquito_risk":7,"arthritis_risk":5,"migraine_risk":4,"frizz_risk":1,"updated_at":"2026-06-03T20:13:54.612779+05:30"},{"city":"Dibrugarh","state":"Assam","latitude":27.4728,"longitude":94.912,"temp":25.8,"humidity":91,"rain":0.2,"pressure":991.3,"uv_index":8.95,"wind_gusts":33.8,"aqi":106,"pm10":30.5,"pm2_5":28.5,"no2":12.9,"co":409.0,"o3":77.0,"so2":3.5,"mosquito_risk":10,"arthritis_risk":5,"migraine_risk":7,"frizz_risk":1,"updated_at":"2026-06-03T20:13:54.612786+05:30"}]