[{"city":"Delhi","state":"Delhi","latitude":28.6139,"longitude":77.209,"temp":37.8,"humidity":34,"rain":0.0,"pressure":979.7,"uv_index":7.8,"wind_gusts":33.1,"aqi":171,"pm10":297.1,"pm2_5":74.5,"no2":2.8,"co":254.0,"o3":192.0,"so2":15.9,"mosquito_risk":0,"arthritis_risk":5,"migraine_risk":10,"frizz_risk":1,"updated_at":"2026-06-19T12:40:09.117360+05:30"},{"city":"Mumbai","state":"Maharashtra","latitude":19.076,"longitude":72.8777,"temp":33.1,"humidity":52,"rain":0.0,"pressure":1008.3,"uv_index":7.7,"wind_gusts":45.7,"aqi":58,"pm10":27.0,"pm2_5":16.6,"no2":4.0,"co":137.0,"o3":88.0,"so2":8.2,"mosquito_risk":0,"arthritis_risk":0,"migraine_risk":4,"frizz_risk":1,"updated_at":"2026-06-19T12:40:09.117407+05:30"},{"city":"Bangalore","state":"Karnataka","latitude":12.9716,"longitude":77.5946,"temp":29.9,"humidity":49,"rain":0.0,"pressure":913.2,"uv_index":8.4,"wind_gusts":36.4,"aqi":58,"pm10":15.6,"pm2_5":11.4,"no2":3.3,"co":227.0,"o3":130.0,"so2":4.5,"mosquito_risk":4,"arthritis_risk":5,"migraine_risk":7,"frizz_risk":1,"updated_at":"2026-06-19T12:40:09.117423+05:30"},{"city":"Hyderabad","state":"Telangana","latitude":17.385,"longitude":78.4867,"temp":35.0,"humidity":38,"rain":0.0,"pressure":953.2,"uv_index":8.95,"wind_gusts":38.2,"aqi":72,"pm10":26.3,"pm2_5":18.6,"no2":1.9,"co":200.0,"o3":139.0,"so2":6.6,"mosquito_risk":0,"arthritis_risk":5,"migraine_risk":7,"frizz_risk":1,"updated_at":"2026-06-19T12:40:09.117433+05:30"},{"city":"Chennai","state":"Tamil Nadu","latitude":13.0827,"longitude":80.2707,"temp":33.5,"humidity":57,"rain":0.0,"pressure":1006.1,"uv_index":8.3,"wind_gusts":42.8,"aqi":82,"pm10":31.7,"pm2_5":25.1,"no2":9.5,"co":338.0,"o3":145.0,"so2":15.5,"mosquito_risk":0,"arthritis_risk":5,"migraine_risk":4,"frizz_risk":1,"updated_at":"2026-06-19T12:40:09.117442+05:30"},{"city":"Kolkata","state":"West Bengal","latitude":22.5726,"longitude":88.3639,"temp":30.4,"humidity":80,"rain":0.7,"pressure":1003.8,"uv_index":8.85,"wind_gusts":37.8,"aqi":120,"pm10":45.5,"pm2_5":39.1,"no2":6.7,"co":389.0,"o3":122.0,"so2":11.0,"mosquito_risk":6,"arthritis_risk":5,"migraine_risk":4,"frizz_risk":1,"updated_at":"2026-06-19T12:40:09.117450+05:30"},{"city":"Pune","state":"Maharashtra","latitude":18.5204,"longitude":73.8567,"temp":33.7,"humidity":31,"rain":0.0,"pressure":948.6,"uv_index":8.25,"wind_gusts":44.3,"aqi":52,"pm10":20.1,"pm2_5":11.5,"no2":1.3,"co":126.0,"o3":96.0,"so2":3.5,"mosquito_risk":0,"arthritis_risk":5,"migraine_risk":7,"frizz_risk":0,"updated_at":"2026-06-19T12:40:09.117458+05:30"},{"city":"Ahmedabad","state":"Gujarat","latitude":23.0225,"longitude":72.5714,"temp":33.0,"humidity":49,"rain":0.0,"pressure":1000.3,"uv_index":7.5,"wind_gusts":42.1,"aqi":69,"pm10":58.4,"pm2_5":22.1,"no2":2.0,"co":129.0,"o3":81.0,"so2":5.5,"mosquito_risk":0,"arthritis_risk":5,"migraine_risk":4,"frizz_risk":1,"updated_at":"2026-06-19T12:40:09.117465+05:30"},{"city":"Jaipur","state":"Rajasthan","latitude":26.9124,"longitude":75.7873,"temp":35.2,"humidity":42,"rain":0.0,"pressure":958.3,"uv_index":8.25,"wind_gusts":34.2,"aqi":119,"pm10":131.8,"pm2_5":35.4,"no2":0.7,"co":139.0,"o3":102.0,"so2":3.8,"mosquito_risk":0,"arthritis_risk":5,"migraine_risk":10,"frizz_risk":1,"updated_at":"2026-06-19T12:40:09.117472+05:30"},{"city":"Lucknow","state":"Uttar Pradesh","latitude":26.8467,"longitude":80.9462,"temp":39.9,"humidity":31,"rain":0.0,"pressure":989.1,"uv_index":8.35,"wind_gusts":33.8,"aqi":158,"pm10":205.4,"pm2_5":56.8,"no2":0.5,"co":247.0,"o3":170.0,"so2":8.8,"mosquito_risk":0,"arthritis_risk":5,"migraine_risk":10,"frizz_risk":1,"updated_at":"2026-06-19T12:40:09.117483+05:30"},{"city":"Kanpur","state":"Uttar Pradesh","latitude":26.4499,"longitude":80.3319,"temp":40.2,"humidity":28,"rain":0.0,"pressure":988.0,"uv_index":8.1,"wind_gusts":34.2,"aqi":156,"pm10":276.6,"pm2_5":57.6,"no2":1.0,"co":201.0,"o3":154.0,"so2":8.0,"mosquito_risk":0,"arthritis_risk":5,"migraine_risk":10,"frizz_risk":1,"updated_at":"2026-06-19T12:40:09.117490+05:30"},{"city":"Chandigarh","state":"Chandigarh","latitude":30.7333,"longitude":76.7794,"temp":35.3,"humidity":38,"rain":0.0,"pressure":965.7,"uv_index":7.8,"wind_gusts":28.4,"aqi":142,"pm10":58.3,"pm2_5":43.5,"no2":2.0,"co":322.0,"o3":208.0,"so2":13.6,"mosquito_risk":0,"arthritis_risk":5,"migraine_risk":10,"frizz_risk":1,"updated_at":"2026-06-19T12:40:09.117498+05:30"},{"city":"Srinagar","state":"Jammu and Kashmir","latitude":34.0837,"longitude":74.7973,"temp":24.9,"humidity":48,"rain":0.0,"pressure":844.0,"uv_index":8.1,"wind_gusts":24.1,"aqi":82,"pm10":12.6,"pm2_5":9.3,"no2":1.6,"co":272.0,"o3":150.0,"so2":2.2,"mosquito_risk":0,"arthritis_risk":5,"migraine_risk":7,"frizz_risk":0,"updated_at":"2026-06-19T12:40:09.117505+05:30"},{"city":"Jammu","state":"Jammu and Kashmir","latitude":32.7266,"longitude":74.857,"temp":35.9,"humidity":34,"rain":0.0,"pressure":970.1,"uv_index":8.15,"wind_gusts":60.8,"aqi":84,"pm10":33.1,"pm2_5":21.3,"no2":1.4,"co":286.0,"o3":172.0,"so2":3.4,"mosquito_risk":0,"arthritis_risk":5,"migraine_risk":10,"frizz_risk":1,"updated_at":"2026-06-19T12:40:09.117512+05:30"},{"city":"Amritsar","state":"Punjab","latitude":31.634,"longitude":74.8723,"temp":34.4,"humidity":48,"rain":0.0,"pressure":978.1,"uv_index":8.45,"wind_gusts":62.3,"aqi":123,"pm10":53.9,"pm2_5":32.5,"no2":2.0,"co":313.0,"o3":170.0,"so2":8.3,"mosquito_risk":0,"arthritis_risk":5,"migraine_risk":7,"frizz_risk":1,"updated_at":"2026-06-19T12:40:09.117519+05:30"},{"city":"Ludhiana","state":"Punjab","latitude":30.901,"longitude":75.8573,"temp":36.1,"humidity":40,"rain":0.0,"pressure":975.8,"uv_index":8.05,"wind_gusts":31.0,"aqi":153,"pm10":75.0,"pm2_5":36.7,"no2":0.8,"co":334.0,"o3":163.0,"so2":4.4,"mosquito_risk":0,"arthritis_risk":5,"migraine_risk":10,"frizz_risk":1,"updated_at":"2026-06-19T12:40:09.117526+05:30"},{"city":"Jalandhar","state":"Punjab","latitude":31.326,"longitude":75.5762,"temp":35.4,"humidity":43,"rain":0.0,"pressure":977.0,"uv_index":8.25,"wind_gusts":40.0,"aqi":152,"pm10":88.9,"pm2_5":40.0,"no2":1.0,"co":322.0,"o3":174.0,"so2":5.4,"mosquito_risk":0,"arthritis_risk":5,"migraine_risk":10,"frizz_risk":1,"updated_at":"2026-06-19T12:40:09.117533+05:30"},{"city":"Dehradun","state":"Uttarakhand","latitude":30.6284,"longitude":78.0322,"temp":23.7,"humidity":58,"rain":0.0,"pressure":831.6,"uv_index":7.7,"wind_gusts":31.7,"aqi":69,"pm10":42.3,"pm2_5":21.7,"no2":0.7,"co":206.0,"o3":152.0,"so2":2.3,"mosquito_risk":0,"arthritis_risk":5,"migraine_risk":7,"frizz_risk":0,"updated_at":"2026-06-19T12:40:09.117541+05:30"},{"city":"Shimla","state":"Himachal Pradesh","latitude":31.1048,"longitude":77.1734,"temp":23.0,"humidity":48,"rain":0.1,"pressure":787.5,"uv_index":7.75,"wind_gusts":33.8,"aqi":77,"pm10":37.8,"pm2_5":23.5,"no2":0.8,"co":191.0,"o3":160.0,"so2":5.3,"mosquito_risk":3,"arthritis_risk":5,"migraine_risk":7,"frizz_risk":0,"updated_at":"2026-06-19T12:40:09.117548+05:30"},{"city":"Manali","state":"Himachal Pradesh","latitude":32.2396,"longitude":77.1887,"temp":24.8,"humidity":44,"rain":0.0,"pressure":821.2,"uv_index":9.3,"wind_gusts":30.2,"aqi":81,"pm10":8.9,"pm2_5":6.4,"no2":3.3,"co":146.0,"o3":146.0,"so2":0.4,"mosquito_risk":0,"arthritis_risk":5,"migraine_risk":7,"frizz_risk":0,"updated_at":"2026-06-19T12:40:09.117559+05:30"},{"city":"Gurgaon","state":"Haryana","latitude":28.4595,"longitude":77.0266,"temp":36.5,"humidity":37,"rain":0.0,"pressure":978.5,"uv_index":7.9,"wind_gusts":29.2,"aqi":302,"pm10":392.1,"pm2_5":82.2,"no2":2.4,"co":202.0,"o3":184.0,"so2":15.8,"mosquito_risk":0,"arthritis_risk":5,"migraine_risk":10,"frizz_risk":1,"updated_at":"2026-06-19T12:40:09.117566+05:30"},{"city":"Noida","state":"Uttar Pradesh","latitude":28.5355,"longitude":77.391,"temp":36.9,"humidity":39,"rain":0.0,"pressure":981.2,"uv_index":7.85,"wind_gusts":24.5,"aqi":302,"pm10":392.1,"pm2_5":82.2,"no2":2.4,"co":299.0,"o3":184.0,"so2":15.8,"mosquito_risk":0,"arthritis_risk":5,"migraine_risk":10,"frizz_risk":1,"updated_at":"2026-06-19T12:40:09.117573+05:30"},{"city":"Ghaziabad","state":"Uttar Pradesh","latitude":28.6692,"longitude":77.4538,"temp":35.8,"humidity":44,"rain":0.0,"pressure":979.4,"uv_index":7.85,"wind_gusts":28.1,"aqi":166,"pm10":183.0,"pm2_5":67.5,"no2":4.1,"co":273.0,"o3":224.0,"so2":24.7,"mosquito_risk":0,"arthritis_risk":5,"migraine_risk":10,"frizz_risk":1,"updated_at":"2026-06-19T12:40:09.117579+05:30"},{"city":"Faridabad","state":"Haryana","latitude":28.4089,"longitude":77.3178,"temp":37.1,"humidity":36,"rain":0.0,"pressure":980.5,"uv_index":7.9,"wind_gusts":31.0,"aqi":302,"pm10":392.1,"pm2_5":82.2,"no2":2.4,"co":217.0,"o3":184.0,"so2":15.8,"mosquito_risk":0,"arthritis_risk":5,"migraine_risk":10,"frizz_risk":1,"updated_at":"2026-06-19T12:40:09.117586+05:30"},{"city":"Meerut","state":"Uttar Pradesh","latitude":28.9845,"longitude":77.7064,"temp":35.0,"humidity":46,"rain":0.0,"pressure":978.2,"uv_index":7.75,"wind_gusts":29.5,"aqi":166,"pm10":183.0,"pm2_5":67.5,"no2":4.1,"co":280.0,"o3":224.0,"so2":24.7,"mosquito_risk":0,"arthritis_risk":5,"migraine_risk":7,"frizz_risk":1,"updated_at":"2026-06-19T12:40:09.117592+05:30"},{"city":"Agra","state":"Uttar Pradesh","latitude":27.1767,"longitude":78.0081,"temp":37.8,"humidity":33,"rain":0.0,"pressure":984.6,"uv_index":8.15,"wind_gusts":31.3,"aqi":398,"pm10":540.2,"pm2_5":87.1,"no2":1.1,"co":166.0,"o3":183.0,"so2":11.3,"mosquito_risk":0,"arthritis_risk":5,"migraine_risk":10,"frizz_risk":1,"updated_at":"2026-06-19T12:40:09.117599+05:30"},{"city":"Varanasi","state":"Uttar Pradesh","latitude":25.3176,"longitude":82.9739,"temp":40.6,"humidity":30,"rain":0.0,"pressure":993.0,"uv_index":8.45,"wind_gusts":33.8,"aqi":95,"pm10":163.9,"pm2_5":52.0,"no2":1.0,"co":201.0,"o3":155.0,"so2":8.6,"mosquito_risk":0,"arthritis_risk":5,"migraine_risk":10,"frizz_risk":1,"updated_at":"2026-06-19T12:40:09.117605+05:30"},{"city":"Prayagraj","state":"Uttar Pradesh","latitude":25.4358,"longitude":81.8463,"temp":40.3,"humidity":27,"rain":0.0,"pressure":991.4,"uv_index":8.05,"wind_gusts":32.0,"aqi":104,"pm10":157.4,"pm2_5":49.4,"no2":1.1,"co":183.0,"o3":150.0,"so2":8.9,"mosquito_risk":0,"arthritis_risk":5,"migraine_risk":10,"frizz_risk":1,"updated_at":"2026-06-19T12:40:09.117612+05:30"},{"city":"Gorakhpur","state":"Uttar Pradesh","latitude":26.7606,"longitude":83.3732,"temp":37.2,"humidity":41,"rain":0.0,"pressure":992.3,"uv_index":8.7,"wind_gusts":27.0,"aqi":157,"pm10":148.1,"pm2_5":59.3,"no2":1.5,"co":256.0,"o3":195.0,"so2":10.1,"mosquito_risk":0,"arthritis_risk":5,"migraine_risk":10,"frizz_risk":1,"updated_at":"2026-06-19T12:40:09.117618+05:30"},{"city":"Bareilly","state":"Uttar Pradesh","latitude":28.367,"longitude":79.4304,"temp":37.0,"humidity":40,"rain":0.0,"pressure":982.9,"uv_index":8.15,"wind_gusts":33.8,"aqi":154,"pm10":76.8,"pm2_5":49.2,"no2":1.3,"co":277.0,"o3":200.0,"so2":10.2,"mosquito_risk":0,"arthritis_risk":5,"migraine_risk":10,"frizz_risk":1,"updated_at":"2026-06-19T12:40:09.117627+05:30"},{"city":"Aligarh","state":"Uttar Pradesh","latitude":27.8974,"longitude":78.088,"temp":36.2,"humidity":37,"rain":0.0,"pressure":982.3,"uv_index":8.05,"wind_gusts":29.5,"aqi":171,"pm10":363.2,"pm2_5":79.2,"no2":1.5,"co":192.0,"o3":203.0,"so2":17.3,"mosquito_risk":0,"arthritis_risk":5,"migraine_risk":10,"frizz_risk":1,"updated_at":"2026-06-19T12:40:09.117633+05:30"},{"city":"Moradabad","state":"Uttar Pradesh","latitude":28.8386,"longitude":78.7733,"temp":36.0,"humidity":42,"rain":0.0,"pressure":980.0,"uv_index":7.95,"wind_gusts":35.6,"aqi":159,"pm10":84.5,"pm2_5":58.0,"no2":1.6,"co":305.0,"o3":217.0,"so2":14.2,"mosquito_risk":0,"arthritis_risk":5,"migraine_risk":10,"frizz_risk":1,"updated_at":"2026-06-19T12:40:09.117640+05:30"},{"city":"Saharanpur","state":"Uttar Pradesh","latitude":29.9637,"longitude":77.546,"temp":34.5,"humidity":49,"rain":0.0,"pressure":972.4,"uv_index":7.55,"wind_gusts":27.7,"aqi":157,"pm10":93.1,"pm2_5":58.6,"no2":2.3,"co":275.0,"o3":221.0,"so2":17.6,"mosquito_risk":0,"arthritis_risk":5,"migraine_risk":7,"frizz_risk":1,"updated_at":"2026-06-19T12:40:09.117646+05:30"},{"city":"Jhansi","state":"Uttar Pradesh","latitude":25.4484,"longitude":78.5685,"temp":37.8,"humidity":35,"rain":0.0,"pressure":975.5,"uv_index":8.5,"wind_gusts":32.0,"aqi":72,"pm10":84.5,"pm2_5":30.2,"no2":0.8,"co":138.0,"o3":109.0,"so2":4.8,"mosquito_risk":0,"arthritis_risk":5,"migraine_risk":10,"frizz_risk":1,"updated_at":"2026-06-19T12:40:12.387820+05:30"},{"city":"Surat","state":"Gujarat","latitude":21.1702,"longitude":72.8311,"temp":33.0,"humidity":56,"rain":0.0,"pressure":1005.9,"uv_index":7.6,"wind_gusts":47.5,"aqi":68,"pm10":24.9,"pm2_5":16.4,"no2":10.6,"co":250.0,"o3":53.0,"so2":35.4,"mosquito_risk":0,"arthritis_risk":5,"migraine_risk":4,"frizz_risk":1,"updated_at":"2026-06-19T12:40:12.387853+05:30"},{"city":"Vadodara","state":"Gujarat","latitude":22.3072,"longitude":73.1812,"temp":34.3,"humidity":46,"rain":0.0,"pressure":1002.9,"uv_index":7.8,"wind_gusts":43.6,"aqi":63,"pm10":51.2,"pm2_5":22.5,"no2":3.6,"co":124.0,"o3":76.0,"so2":7.5,"mosquito_risk":0,"arthritis_risk":5,"migraine_risk":4,"frizz_risk":1,"updated_at":"2026-06-19T12:40:12.387864+05:30"},{"city":"Rajkot","state":"Gujarat","latitude":22.3039,"longitude":70.8022,"temp":36.4,"humidity":40,"rain":0.0,"pressure":992.4,"uv_index":7.55,"wind_gusts":45.4,"aqi":62,"pm10":65.7,"pm2_5":21.4,"no2":0.8,"co":105.0,"o3":80.0,"so2":2.7,"mosquito_risk":0,"arthritis_risk":5,"migraine_risk":10,"frizz_risk":1,"updated_at":"2026-06-19T12:40:12.387874+05:30"},{"city":"Thane","state":"Maharashtra","latitude":19.2183,"longitude":72.9781,"temp":35.4,"humidity":42,"rain":0.0,"pressure":1007.2,"uv_index":7.7,"wind_gusts":40.3,"aqi":58,"pm10":27.0,"pm2_5":16.6,"no2":4.0,"co":137.0,"o3":88.0,"so2":8.2,"mosquito_risk":0,"arthritis_risk":5,"migraine_risk":7,"frizz_risk":1,"updated_at":"2026-06-19T12:40:12.387882+05:30"},{"city":"Nagpur","state":"Maharashtra","latitude":21.1458,"longitude":79.0882,"temp":38.0,"humidity":28,"rain":0.0,"pressure":972.0,"uv_index":8.9,"wind_gusts":41.0,"aqi":84,"pm10":31.7,"pm2_5":17.5,"no2":2.9,"co":154.0,"o3":133.0,"so2":14.3,"mosquito_risk":0,"arthritis_risk":5,"migraine_risk":10,"frizz_risk":1,"updated_at":"2026-06-19T12:40:12.387889+05:30"},{"city":"Nashik","state":"Maharashtra","latitude":19.9975,"longitude":73.7898,"temp":33.0,"humidity":38,"rain":0.0,"pressure":946.0,"uv_index":8.05,"wind_gusts":42.8,"aqi":51,"pm10":19.8,"pm2_5":12.3,"no2":1.1,"co":130.0,"o3":101.0,"so2":4.6,"mosquito_risk":0,"arthritis_risk":5,"migraine_risk":7,"frizz_risk":1,"updated_at":"2026-06-19T12:40:12.387897+05:30"},{"city":"Aurangabad","state":"Maharashtra","latitude":19.8762,"longitude":75.3433,"temp":35.0,"humidity":26,"rain":0.0,"pressure":944.6,"uv_index":8.95,"wind_gusts":43.2,"aqi":51,"pm10":19.0,"pm2_5":11.4,"no2":1.0,"co":124.0,"o3":108.0,"so2":5.0,"mosquito_risk":0,"arthritis_risk":5,"migraine_risk":7,"frizz_risk":0,"updated_at":"2026-06-19T12:40:12.387905+05:30"},{"city":"Solapur","state":"Maharashtra","latitude":17.6599,"longitude":75.9064,"temp":35.0,"humidity":32,"rain":0.0,"pressure":957.7,"uv_index":8.4,"wind_gusts":41.8,"aqi":51,"pm10":21.0,"pm2_5":12.5,"no2":1.1,"co":122.0,"o3":105.0,"so2":2.3,"mosquito_risk":0,"arthritis_risk":5,"migraine_risk":7,"frizz_risk":0,"updated_at":"2026-06-19T12:40:12.387913+05:30"},{"city":"Kolhapur","state":"Maharashtra","latitude":16.705,"longitude":74.2433,"temp":32.2,"humidity":37,"rain":0.0,"pressure":948.8,"uv_index":8.05,"wind_gusts":47.2,"aqi":53,"pm10":23.5,"pm2_5":13.0,"no2":1.2,"co":120.0,"o3":90.0,"so2":1.7,"mosquito_risk":0,"arthritis_risk":5,"migraine_risk":7,"frizz_risk":0,"updated_at":"2026-06-19T12:40:12.387921+05:30"},{"city":"Goa","state":"Goa","latitude":15.2993,"longitude":74.124,"temp":32.9,"humidity":57,"rain":0.0,"pressure":998.5,"uv_index":8.7,"wind_gusts":29.9,"aqi":61,"pm10":32.2,"pm2_5":14.3,"no2":0.5,"co":122.0,"o3":64.0,"so2":1.5,"mosquito_risk":0,"arthritis_risk":5,"migraine_risk":7,"frizz_risk":1,"updated_at":"2026-06-19T12:40:12.387929+05:30"},{"city":"Jodhpur","state":"Rajasthan","latitude":26.2389,"longitude":73.0243,"temp":35.8,"humidity":44,"rain":0.0,"pressure":981.1,"uv_index":8.4,"wind_gusts":36.7,"aqi":98,"pm10":200.2,"pm2_5":43.4,"no2":0.5,"co":109.0,"o3":81.0,"so2":2.3,"mosquito_risk":0,"arthritis_risk":5,"migraine_risk":10,"frizz_risk":1,"updated_at":"2026-06-19T12:40:12.387936+05:30"},{"city":"Udaipur","state":"Rajasthan","latitude":24.5854,"longitude":73.7125,"temp":32.6,"humidity":49,"rain":0.0,"pressure":945.8,"uv_index":8.45,"wind_gusts":35.6,"aqi":62,"pm10":39.3,"pm2_5":18.8,"no2":0.6,"co":111.0,"o3":86.0,"so2":3.0,"mosquito_risk":0,"arthritis_risk":5,"migraine_risk":7,"frizz_risk":1,"updated_at":"2026-06-19T12:40:12.387943+05:30"},{"city":"Kota","state":"Rajasthan","latitude":25.2138,"longitude":75.8648,"temp":36.9,"humidity":42,"rain":0.0,"pressure":977.5,"uv_index":8.35,"wind_gusts":38.2,"aqi":67,"pm10":62.6,"pm2_5":25.2,"no2":0.8,"co":129.0,"o3":107.0,"so2":5.7,"mosquito_risk":0,"arthritis_risk":5,"migraine_risk":10,"frizz_risk":1,"updated_at":"2026-06-19T12:40:12.387950+05:30"},{"city":"Bikaner","state":"Rajasthan","latitude":28.0229,"longitude":73.3119,"temp":37.5,"humidity":39,"rain":0.0,"pressure":979.7,"uv_index":8.45,"wind_gusts":29.9,"aqi":121,"pm10":151.8,"pm2_5":49.6,"no2":0.3,"co":110.0,"o3":83.0,"so2":2.5,"mosquito_risk":0,"arthritis_risk":5,"migraine_risk":10,"frizz_risk":1,"updated_at":"2026-06-19T12:40:12.387958+05:30"},{"city":"Ajmer","state":"Rajasthan","latitude":26.4499,"longitude":74.6399,"temp":33.2,"humidity":45,"rain":0.0,"pressure":953.2,"uv_index":8.35,"wind_gusts":36.0,"aqi":74,"pm10":101.3,"pm2_5":31.2,"no2":0.5,"co":115.0,"o3":93.0,"so2":3.1,"mosquito_risk":0,"arthritis_risk":5,"migraine_risk":7,"frizz_risk":1,"updated_at":"2026-06-19T12:40:12.387965+05:30"},{"city":"Gwalior","state":"Madhya Pradesh","latitude":26.2183,"longitude":78.1828,"temp":38.4,"humidity":32,"rain":0.0,"pressure":980.4,"uv_index":8.3,"wind_gusts":36.4,"aqi":86,"pm10":97.3,"pm2_5":32.8,"no2":0.6,"co":141.0,"o3":109.0,"so2":3.2,"mosquito_risk":0,"arthritis_risk":5,"migraine_risk":10,"frizz_risk":1,"updated_at":"2026-06-19T12:40:12.387972+05:30"},{"city":"Indore","state":"Madhya Pradesh","latitude":22.7196,"longitude":75.8577,"temp":33.9,"humidity":40,"rain":0.0,"pressure":948.5,"uv_index":8.65,"wind_gusts":43.6,"aqi":66,"pm10":32.6,"pm2_5":17.2,"no2":1.0,"co":160.0,"o3":102.0,"so2":3.6,"mosquito_risk":0,"arthritis_risk":5,"migraine_risk":7,"frizz_risk":1,"updated_at":"2026-06-19T12:40:12.387979+05:30"},{"city":"Bhopal","state":"Madhya Pradesh","latitude":23.2599,"longitude":77.4126,"temp":33.6,"humidity":44,"rain":0.0,"pressure":952.9,"uv_index":8.7,"wind_gusts":34.9,"aqi":64,"pm10":37.8,"pm2_5":19.0,"no2":0.7,"co":154.0,"o3":106.0,"so2":4.1,"mosquito_risk":0,"arthritis_risk":5,"migraine_risk":7,"frizz_risk":1,"updated_at":"2026-06-19T12:40:12.387986+05:30"},{"city":"Jabalpur","state":"Madhya Pradesh","latitude":23.1815,"longitude":79.9864,"temp":36.2,"humidity":43,"rain":0.0,"pressure":960.1,"uv_index":8.15,"wind_gusts":30.6,"aqi":66,"pm10":24.5,"pm2_5":13.7,"no2":0.6,"co":131.0,"o3":116.0,"so2":2.0,"mosquito_risk":0,"arthritis_risk":5,"migraine_risk":10,"frizz_risk":1,"updated_at":"2026-06-19T12:40:12.387992+05:30"},{"city":"Ujjain","state":"Madhya Pradesh","latitude":23.1765,"longitude":75.7885,"temp":34.0,"humidity":44,"rain":0.0,"pressure":953.5,"uv_index":8.45,"wind_gusts":41.4,"aqi":63,"pm10":31.0,"pm2_5":16.4,"no2":0.8,"co":139.0,"o3":95.0,"so2":3.1,"mosquito_risk":0,"arthritis_risk":5,"migraine_risk":7,"frizz_risk":1,"updated_at":"2026-06-19T12:40:12.387999+05:30"},{"city":"Visakhapatnam","state":"Andhra Pradesh","latitude":17.6868,"longitude":83.2185,"temp":34.3,"humidity":63,"rain":0.0,"pressure":1000.4,"uv_index":8.85,"wind_gusts":36.7,"aqi":102,"pm10":37.8,"pm2_5":32.0,"no2":16.6,"co":407.0,"o3":127.0,"so2":45.6,"mosquito_risk":3,"arthritis_risk":5,"migraine_risk":4,"frizz_risk":1,"updated_at":"2026-06-19T12:40:12.388008+05:30"},{"city":"Vijayawada","state":"Andhra Pradesh","latitude":16.5062,"longitude":80.648,"temp":35.9,"humidity":47,"rain":0.0,"pressure":1000.2,"uv_index":8.85,"wind_gusts":28.8,"aqi":79,"pm10":24.0,"pm2_5":19.7,"no2":2.3,"co":169.0,"o3":141.0,"so2":7.5,"mosquito_risk":0,"arthritis_risk":5,"migraine_risk":7,"frizz_risk":1,"updated_at":"2026-06-19T12:40:12.388015+05:30"},{"city":"Guntur","state":"Andhra Pradesh","latitude":16.3067,"longitude":80.4365,"temp":36.0,"humidity":45,"rain":0.0,"pressure":1001.5,"uv_index":8.9,"wind_gusts":34.6,"aqi":74,"pm10":23.1,"pm2_5":19.0,"no2":1.9,"co":164.0,"o3":139.0,"so2":5.9,"mosquito_risk":0,"arthritis_risk":5,"migraine_risk":7,"frizz_risk":1,"updated_at":"2026-06-19T12:40:12.388023+05:30"},{"city":"Nellore","state":"Andhra Pradesh","latitude":14.4426,"longitude":79.9865,"temp":34.7,"humidity":51,"rain":0.0,"pressure":1004.7,"uv_index":7.85,"wind_gusts":29.5,"aqi":65,"pm10":26.4,"pm2_5":17.9,"no2":2.9,"co":159.0,"o3":121.0,"so2":8.0,"mosquito_risk":0,"arthritis_risk":5,"migraine_risk":4,"frizz_risk":1,"updated_at":"2026-06-19T12:40:12.388031+05:30"},{"city":"Kurnool","state":"Andhra Pradesh","latitude":15.8281,"longitude":78.0373,"temp":33.8,"humidity":42,"rain":0.0,"pressure":977.0,"uv_index":7.25,"wind_gusts":37.4,"aqi":64,"pm10":27.1,"pm2_5":18.2,"no2":1.7,"co":142.0,"o3":119.0,"so2":8.7,"mosquito_risk":0,"arthritis_risk":5,"migraine_risk":7,"frizz_risk":1,"updated_at":"2026-06-19T12:40:12.388040+05:30"},{"city":"Kakinada","state":"Andhra Pradesh","latitude":16.9891,"longitude":82.2475,"temp":32.9,"humidity":56,"rain":0.0,"pressure":1004.7,"uv_index":5.55,"wind_gusts":31.0,"aqi":83,"pm10":27.9,"pm2_5":23.6,"no2":4.4,"co":225.0,"o3":141.0,"so2":8.4,"mosquito_risk":0,"arthritis_risk":5,"migraine_risk":0,"frizz_risk":1,"updated_at":"2026-06-19T12:40:12.388047+05:30"},{"city":"Tirupati","state":"Andhra Pradesh","latitude":13.6288,"longitude":79.4192,"temp":35.6,"humidity":42,"rain":0.0,"pressure":990.3,"uv_index":5.3,"wind_gusts":50.0,"aqi":67,"pm10":19.2,"pm2_5":12.7,"no2":1.2,"co":129.0,"o3":116.0,"so2":2.5,"mosquito_risk":0,"arthritis_risk":5,"migraine_risk":6,"frizz_risk":1,"updated_at":"2026-06-19T12:40:12.388054+05:30"},{"city":"Warangal","state":"Telangana","latitude":17.9689,"longitude":79.5941,"temp":36.8,"humidity":36,"rain":0.0,"pressure":977.5,"uv_index":8.5,"wind_gusts":34.2,"aqi":83,"pm10":25.5,"pm2_5":20.3,"no2":2.0,"co":210.0,"o3":162.0,"so2":7.2,"mosquito_risk":0,"arthritis_risk":5,"migraine_risk":10,"frizz_risk":1,"updated_at":"2026-06-19T12:40:12.388062+05:30"},{"city":"Nizamabad","state":"Telangana","latitude":18.6725,"longitude":78.0941,"temp":35.6,"humidity":35,"rain":0.0,"pressure":964.5,"uv_index":8.95,"wind_gusts":31.7,"aqi":71,"pm10":27.5,"pm2_5":15.5,"no2":0.8,"co":142.0,"o3":110.0,"so2":3.5,"mosquito_risk":0,"arthritis_risk":5,"migraine_risk":10,"frizz_risk":1,"updated_at":"2026-06-19T12:40:12.388070+05:30"},{"city":"Mysore","state":"Karnataka","latitude":12.2958,"longitude":76.6396,"temp":28.9,"humidity":60,"rain":0.0,"pressure":929.7,"uv_index":6.5,"wind_gusts":38.5,"aqi":56,"pm10":18.6,"pm2_5":10.9,"no2":1.5,"co":154.0,"o3":115.0,"so2":2.1,"mosquito_risk":4,"arthritis_risk":5,"migraine_risk":7,"frizz_risk":1,"updated_at":"2026-06-19T12:40:12.388078+05:30"},{"city":"Mangalore","state":"Karnataka","latitude":12.9141,"longitude":74.856,"temp":30.1,"humidity":69,"rain":0.0,"pressure":1007.5,"uv_index":7.8,"wind_gusts":27.7,"aqi":66,"pm10":28.4,"pm2_5":12.9,"no2":1.0,"co":129.0,"o3":77.0,"so2":2.4,"mosquito_risk":3,"arthritis_risk":5,"migraine_risk":4,"frizz_risk":1,"updated_at":"2026-06-19T12:40:12.388085+05:30"},{"city":"Hubli-Dharwad","state":"Karnataka","latitude":15.3647,"longitude":75.124,"temp":31.7,"humidity":45,"rain":0.0,"pressure":942.2,"uv_index":8.95,"wind_gusts":37.1,"aqi":51,"pm10":31.2,"pm2_5":13.4,"no2":1.0,"co":114.0,"o3":83.0,"so2":1.1,"mosquito_risk":0,"arthritis_risk":5,"migraine_risk":7,"frizz_risk":1,"updated_at":"2026-06-19T12:40:12.388092+05:30"},{"city":"Belgaum","state":"Karnataka","latitude":15.8497,"longitude":74.4977,"temp":28.1,"humidity":53,"rain":0.0,"pressure":926.7,"uv_index":9.0,"wind_gusts":38.2,"aqi":56,"pm10":29.5,"pm2_5":13.9,"no2":1.0,"co":113.0,"o3":80.0,"so2":1.7,"mosquito_risk":4,"arthritis_risk":5,"migraine_risk":7,"frizz_risk":1,"updated_at":"2026-06-19T12:40:15.649487+05:30"},{"city":"Coimbatore","state":"Tamil Nadu","latitude":11.0168,"longitude":76.9558,"temp":32.1,"humidity":54,"rain":0.1,"pressure":963.0,"uv_index":8.35,"wind_gusts":36.7,"aqi":34,"pm10":19.3,"pm2_5":10.8,"no2":1.3,"co":155.0,"o3":97.0,"so2":2.3,"mosquito_risk":3,"arthritis_risk":5,"migraine_risk":7,"frizz_risk":1,"updated_at":"2026-06-19T12:40:15.649523+05:30"},{"city":"Madurai","state":"Tamil Nadu","latitude":9.9252,"longitude":78.1198,"temp":34.6,"humidity":46,"rain":0.0,"pressure":992.6,"uv_index":7.7,"wind_gusts":28.8,"aqi":62,"pm10":11.1,"pm2_5":8.0,"no2":1.6,"co":153.0,"o3":125.0,"so2":2.3,"mosquito_risk":0,"arthritis_risk":5,"migraine_risk":7,"frizz_risk":1,"updated_at":"2026-06-19T12:40:15.649537+05:30"},{"city":"Trichy","state":"Tamil Nadu","latitude":10.7905,"longitude":78.7047,"temp":34.8,"humidity":51,"rain":0.0,"pressure":999.4,"uv_index":8.45,"wind_gusts":38.9,"aqi":51,"pm10":11.3,"pm2_5":8.0,"no2":1.6,"co":158.0,"o3":122.0,"so2":2.6,"mosquito_risk":0,"arthritis_risk":5,"migraine_risk":7,"frizz_risk":1,"updated_at":"2026-06-19T12:40:15.649547+05:30"},{"city":"Salem","state":"Tamil Nadu","latitude":11.6643,"longitude":78.146,"temp":32.2,"humidity":53,"rain":0.0,"pressure":977.7,"uv_index":7.4,"wind_gusts":21.6,"aqi":59,"pm10":17.1,"pm2_5":13.7,"no2":3.6,"co":181.0,"o3":147.0,"so2":14.1,"mosquito_risk":0,"arthritis_risk":5,"migraine_risk":7,"frizz_risk":1,"updated_at":"2026-06-19T12:40:15.649557+05:30"},{"city":"Tirunelveli","state":"Tamil Nadu","latitude":8.7139,"longitude":77.7567,"temp":36.7,"humidity":38,"rain":0.0,"pressure":1002.3,"uv_index":7.95,"wind_gusts":36.0,"aqi":47,"pm10":11.9,"pm2_5":6.7,"no2":1.0,"co":122.0,"o3":83.0,"so2":1.1,"mosquito_risk":0,"arthritis_risk":5,"migraine_risk":7,"frizz_risk":1,"updated_at":"2026-06-19T12:40:15.649567+05:30"},{"city":"Vellore","state":"Tamil Nadu","latitude":12.9165,"longitude":79.1325,"temp":33.6,"humidity":51,"rain":0.0,"pressure":984.2,"uv_index":8.25,"wind_gusts":42.5,"aqi":70,"pm10":22.3,"pm2_5":16.5,"no2":1.4,"co":164.0,"o3":131.0,"so2":3.8,"mosquito_risk":0,"arthritis_risk":5,"migraine_risk":7,"frizz_risk":1,"updated_at":"2026-06-19T12:40:15.649575+05:30"},{"city":"Erode","state":"Tamil Nadu","latitude":11.341,"longitude":77.7172,"temp":33.3,"humidity":52,"rain":0.0,"pressure":989.4,"uv_index":7.1,"wind_gusts":23.8,"aqi":46,"pm10":9.7,"pm2_5":7.3,"no2":1.5,"co":184.0,"o3":131.0,"so2":2.3,"mosquito_risk":0,"arthritis_risk":5,"migraine_risk":7,"frizz_risk":1,"updated_at":"2026-06-19T12:40:15.649584+05:30"},{"city":"Kochi","state":"Kerala","latitude":9.9312,"longitude":76.2673,"temp":28.7,"humidity":76,"rain":0.0,"pressure":1009.3,"uv_index":7.75,"wind_gusts":22.7,"aqi":57,"pm10":23.0,"pm2_5":13.0,"no2":2.5,"co":156.0,"o3":91.0,"so2":4.3,"mosquito_risk":7,"arthritis_risk":0,"migraine_risk":4,"frizz_risk":1,"updated_at":"2026-06-19T12:40:15.649593+05:30"},{"city":"Thiruvananthapuram","state":"Kerala","latitude":8.5241,"longitude":76.9366,"temp":29.4,"humidity":71,"rain":0.0,"pressure":1008.3,"uv_index":7.2,"wind_gusts":35.6,"aqi":54,"pm10":29.7,"pm2_5":15.1,"no2":1.0,"co":127.0,"o3":90.0,"so2":1.8,"mosquito_risk":7,"arthritis_risk":0,"migraine_risk":4,"frizz_risk":1,"updated_at":"2026-06-19T12:40:15.649602+05:30"},{"city":"Kozhikode","state":"Kerala","latitude":11.2588,"longitude":75.7804,"temp":30.1,"humidity":69,"rain":0.0,"pressure":1008.5,"uv_index":8.3,"wind_gusts":32.8,"aqi":52,"pm10":32.1,"pm2_5":16.0,"no2":0.8,"co":123.0,"o3":87.0,"so2":2.1,"mosquito_risk":3,"arthritis_risk":0,"migraine_risk":4,"frizz_risk":1,"updated_at":"2026-06-19T12:40:15.649610+05:30"},{"city":"Thrissur","state":"Kerala","latitude":10.5276,"longitude":76.2144,"temp":29.9,"humidity":71,"rain":0.0,"pressure":1007.7,"uv_index":7.65,"wind_gusts":25.9,"aqi":56,"pm10":27.9,"pm2_5":14.8,"no2":1.0,"co":137.0,"o3":83.0,"so2":2.3,"mosquito_risk":7,"arthritis_risk":5,"migraine_risk":4,"frizz_risk":1,"updated_at":"2026-06-19T12:40:15.649620+05:30"},{"city":"Kannur","state":"Kerala","latitude":11.8745,"longitude":75.3704,"temp":30.0,"humidity":72,"rain":0.0,"pressure":1008.0,"uv_index":8.35,"wind_gusts":31.7,"aqi":67,"pm10":31.4,"pm2_5":14.2,"no2":0.9,"co":122.0,"o3":79.0,"so2":1.8,"mosquito_risk":7,"arthritis_risk":0,"migraine_risk":4,"frizz_risk":1,"updated_at":"2026-06-19T12:40:15.649629+05:30"},{"city":"Patna","state":"Bihar","latitude":25.5941,"longitude":85.1376,"temp":36.7,"humidity":45,"rain":0.0,"pressure":995.4,"uv_index":8.65,"wind_gusts":28.1,"aqi":155,"pm10":93.8,"pm2_5":55.2,"no2":1.8,"co":263.0,"o3":197.0,"so2":10.5,"mosquito_risk":0,"arthritis_risk":5,"migraine_risk":10,"frizz_risk":1,"updated_at":"2026-06-19T12:40:15.649637+05:30"},{"city":"Gaya","state":"Bihar","latitude":24.7914,"longitude":85.0002,"temp":37.7,"humidity":37,"rain":0.0,"pressure":989.2,"uv_index":8.5,"wind_gusts":29.5,"aqi":152,"pm10":72.6,"pm2_5":45.5,"no2":1.4,"co":192.0,"o3":177.0,"so2":12.8,"mosquito_risk":0,"arthritis_risk":5,"migraine_risk":10,"frizz_risk":1,"updated_at":"2026-06-19T12:40:15.649644+05:30"},{"city":"Muzaffarpur","state":"Bihar","latitude":26.1209,"longitude":85.3647,"temp":34.4,"humidity":61,"rain":0.0,"pressure":995.6,"uv_index":8.65,"wind_gusts":24.1,"aqi":155,"pm10":91.3,"pm2_5":55.6,"no2":2.1,"co":381.0,"o3":199.0,"so2":11.9,"mosquito_risk":3,"arthritis_risk":5,"migraine_risk":7,"frizz_risk":1,"updated_at":"2026-06-19T12:40:15.649651+05:30"},{"city":"Bhagalpur","state":"Bihar","latitude":25.2425,"longitude":87.0117,"temp":34.7,"humidity":57,"rain":0.0,"pressure":996.7,"uv_index":8.45,"wind_gusts":34.6,"aqi":162,"pm10":104.5,"pm2_5":76.8,"no2":6.3,"co":288.0,"o3":204.0,"so2":37.2,"mosquito_risk":0,"arthritis_risk":5,"migraine_risk":7,"frizz_risk":1,"updated_at":"2026-06-19T12:40:15.649658+05:30"},{"city":"Ranchi","state":"Jharkhand","latitude":23.3441,"longitude":85.3096,"temp":32.9,"humidity":53,"rain":0.0,"pressure":936.1,"uv_index":8.0,"wind_gusts":34.2,"aqi":148,"pm10":51.2,"pm2_5":36.6,"no2":1.3,"co":161.0,"o3":161.0,"so2":9.9,"mosquito_risk":0,"arthritis_risk":5,"migraine_risk":7,"frizz_risk":1,"updated_at":"2026-06-19T12:40:15.649665+05:30"},{"city":"Jamshedpur","state":"Jharkhand","latitude":22.8046,"longitude":86.2029,"temp":31.9,"humidity":62,"rain":0.0,"pressure":988.2,"uv_index":9.05,"wind_gusts":36.4,"aqi":158,"pm10":79.6,"pm2_5":62.4,"no2":3.5,"co":249.0,"o3":212.0,"so2":32.6,"mosquito_risk":3,"arthritis_risk":5,"migraine_risk":7,"frizz_risk":1,"updated_at":"2026-06-19T12:40:15.649672+05:30"},{"city":"Dhanbad","state":"Jharkhand","latitude":23.7957,"longitude":86.4304,"temp":36.6,"humidity":46,"rain":0.0,"pressure":977.2,"uv_index":7.85,"wind_gusts":37.1,"aqi":166,"pm10":90.6,"pm2_5":58.1,"no2":14.0,"co":143.0,"o3":167.0,"so2":51.5,"mosquito_risk":0,"arthritis_risk":5,"migraine_risk":10,"frizz_risk":1,"updated_at":"2026-06-19T12:40:15.649680+05:30"},{"city":"Bokaro","state":"Jharkhand","latitude":23.6693,"longitude":86.1511,"temp":37.2,"humidity":46,"rain":0.0,"pressure":980.8,"uv_index":6.95,"wind_gusts":38.5,"aqi":162,"pm10":83.6,"pm2_5":63.1,"no2":16.0,"co":167.0,"o3":193.0,"so2":67.4,"mosquito_risk":0,"arthritis_risk":5,"migraine_risk":10,"frizz_risk":1,"updated_at":"2026-06-19T12:40:15.649687+05:30"},{"city":"Bhubaneswar","state":"Odisha","latitude":20.2961,"longitude":85.8245,"temp":29.2,"humidity":83,"rain":0.0,"pressure":999.4,"uv_index":8.15,"wind_gusts":42.8,"aqi":113,"pm10":45.6,"pm2_5":34.9,"no2":2.0,"co":266.0,"o3":160.0,"so2":8.5,"mosquito_risk":7,"arthritis_risk":5,"migraine_risk":7,"frizz_risk":1,"updated_at":"2026-06-19T12:40:15.649694+05:30"},{"city":"Cuttack","state":"Odisha","latitude":20.4625,"longitude":85.8828,"temp":29.3,"humidity":81,"rain":0.0,"pressure":1001.0,"uv_index":7.2,"wind_gusts":44.3,"aqi":113,"pm10":45.6,"pm2_5":34.9,"no2":2.0,"co":269.0,"o3":160.0,"so2":8.5,"mosquito_risk":7,"arthritis_risk":5,"migraine_risk":4,"frizz_risk":1,"updated_at":"2026-06-19T12:40:15.649700+05:30"},{"city":"Rourkela","state":"Odisha","latitude":22.2604,"longitude":84.8536,"temp":35.1,"humidity":59,"rain":0.4,"pressure":983.0,"uv_index":9.0,"wind_gusts":37.1,"aqi":153,"pm10":49.4,"pm2_5":41.1,"no2":2.3,"co":257.0,"o3":183.0,"so2":18.2,"mosquito_risk":3,"arthritis_risk":5,"migraine_risk":10,"frizz_risk":1,"updated_at":"2026-06-19T12:40:15.649707+05:30"},{"city":"Raipur","state":"Chhattisgarh","latitude":21.2514,"longitude":81.6296,"temp":37.1,"humidity":39,"rain":0.0,"pressure":972.9,"uv_index":7.8,"wind_gusts":46.4,"aqi":116,"pm10":49.5,"pm2_5":35.7,"no2":13.3,"co":152.0,"o3":134.0,"so2":41.9,"mosquito_risk":0,"arthritis_risk":5,"migraine_risk":10,"frizz_risk":1,"updated_at":"2026-06-19T12:40:15.649714+05:30"},{"city":"Bhilai","state":"Chhattisgarh","latitude":21.1938,"longitude":81.3509,"temp":36.4,"humidity":40,"rain":0.0,"pressure":973.3,"uv_index":8.5,"wind_gusts":45.0,"aqi":113,"pm10":43.4,"pm2_5":30.4,"no2":12.8,"co":216.0,"o3":127.0,"so2":38.4,"mosquito_risk":0,"arthritis_risk":5,"migraine_risk":10,"frizz_risk":1,"updated_at":"2026-06-19T12:40:15.649721+05:30"},{"city":"Guwahati","state":"Assam","latitude":26.1158,"longitude":91.7086,"temp":31.7,"humidity":69,"rain":0.0,"pressure":997.2,"uv_index":8.7,"wind_gusts":35.3,"aqi":92,"pm10":17.6,"pm2_5":15.1,"no2":1.7,"co":287.0,"o3":107.0,"so2":2.8,"mosquito_risk":3,"arthritis_risk":5,"migraine_risk":7,"frizz_risk":1,"updated_at":"2026-06-19T12:40:15.649728+05:30"},{"city":"Agartala","state":"Tripura","latitude":23.8315,"longitude":91.2868,"temp":28.7,"humidity":83,"rain":0.0,"pressure":1003.6,"uv_index":8.0,"wind_gusts":31.0,"aqi":82,"pm10":16.6,"pm2_5":14.1,"no2":3.1,"co":189.0,"o3":120.0,"so2":2.9,"mosquito_risk":7,"arthritis_risk":5,"migraine_risk":4,"frizz_risk":1,"updated_at":"2026-06-19T12:40:15.649736+05:30"},{"city":"Shillong","state":"Meghalaya","latitude":25.5788,"longitude":91.8933,"temp":24.7,"humidity":70,"rain":0.1,"pressure":856.9,"uv_index":7.2,"wind_gusts":24.5,"aqi":58,"pm10":16.1,"pm2_5":12.5,"no2":1.6,"co":245.0,"o3":105.0,"so2":2.5,"mosquito_risk":6,"arthritis_risk":5,"migraine_risk":7,"frizz_risk":1,"updated_at":"2026-06-19T12:40:15.649743+05:30"},{"city":"Imphal","state":"Manipur","latitude":24.817,"longitude":93.9368,"temp":28.6,"humidity":68,"rain":0.1,"pressure":920.7,"uv_index":8.15,"wind_gusts":29.9,"aqi":70,"pm10":29.2,"pm2_5":19.0,"no2":0.8,"co":201.0,"o3":101.0,"so2":2.2,"mosquito_risk":10,"arthritis_risk":5,"migraine_risk":7,"frizz_risk":1,"updated_at":"2026-06-19T12:40:15.649750+05:30"},{"city":"Aizawl","state":"Mizoram","latitude":23.7271,"longitude":92.7176,"temp":24.8,"humidity":72,"rain":0.1,"pressure":891.8,"uv_index":8.55,"wind_gusts":26.6,"aqi":58,"pm10":23.5,"pm2_5":15.3,"no2":0.6,"co":168.0,"o3":94.0,"so2":1.1,"mosquito_risk":6,"arthritis_risk":5,"migraine_risk":7,"frizz_risk":1,"updated_at":"2026-06-19T12:40:15.649757+05:30"},{"city":"Kohima","state":"Nagaland","latitude":25.6701,"longitude":94.1077,"temp":21.2,"humidity":100,"rain":0.5,"pressure":853.1,"uv_index":7.85,"wind_gusts":21.6,"aqi":59,"pm10":20.7,"pm2_5":14.4,"no2":0.7,"co":216.0,"o3":105.0,"so2":2.1,"mosquito_risk":6,"arthritis_risk":5,"migraine_risk":7,"frizz_risk":1,"updated_at":"2026-06-19T12:40:15.649764+05:30"},{"city":"Gangtok","state":"Sikkim","latitude":27.3314,"longitude":88.6138,"temp":22.5,"humidity":72,"rain":0.0,"pressure":837.1,"uv_index":8.45,"wind_gusts":33.8,"aqi":69,"pm10":5.7,"pm2_5":4.9,"no2":1.4,"co":291.0,"o3":136.0,"so2":3.2,"mosquito_risk":3,"arthritis_risk":5,"migraine_risk":7,"frizz_risk":1,"updated_at":"2026-06-19T12:40:15.649771+05:30"},{"city":"Siliguri","state":"West Bengal","latitude":26.7271,"longitude":88.3953,"temp":29.0,"humidity":74,"rain":0.2,"pressure":989.6,"uv_index":6.45,"wind_gusts":25.6,"aqi":97,"pm10":15.7,"pm2_5":12.8,"no2":1.7,"co":388.0,"o3":153.0,"so2":8.6,"mosquito_risk":10,"arthritis_risk":5,"migraine_risk":7,"frizz_risk":1,"updated_at":"2026-06-19T12:40:18.922495+05:30"},{"city":"Durgapur","state":"West Bengal","latitude":23.5204,"longitude":87.3119,"temp":31.5,"humidity":70,"rain":0.0,"pressure":992.4,"uv_index":8.85,"wind_gusts":28.4,"aqi":176,"pm10":116.6,"pm2_5":90.8,"no2":32.0,"co":425.0,"o3":164.0,"so2":89.2,"mosquito_risk":3,"arthritis_risk":5,"migraine_risk":7,"frizz_risk":1,"updated_at":"2026-06-19T12:40:18.922528+05:30"},{"city":"Asansol","state":"West Bengal","latitude":23.6739,"longitude":86.9524,"temp":35.2,"humidity":54,"rain":0.0,"pressure":991.0,"uv_index":8.9,"wind_gusts":31.3,"aqi":167,"pm10":100.8,"pm2_5":64.7,"no2":19.0,"co":295.0,"o3":161.0,"so2":52.7,"mosquito_risk":0,"arthritis_risk":5,"migraine_risk":10,"frizz_risk":1,"updated_at":"2026-06-19T12:40:18.922540+05:30"},{"city":"Pondicherry","state":"Puducherry","latitude":11.9139,"longitude":79.8145,"temp":33.5,"humidity":58,"rain":0.0,"pressure":1007.7,"uv_index":7.8,"wind_gusts":44.3,"aqi":77,"pm10":26.1,"pm2_5":21.1,"no2":6.7,"co":231.0,"o3":134.0,"so2":10.8,"mosquito_risk":0,"arthritis_risk":5,"migraine_risk":4,"frizz_risk":1,"updated_at":"2026-06-19T12:40:18.922548+05:30"},{"city":"Port Blair","state":"Andaman and Nicobar Islands","latitude":11.6234,"longitude":92.7265,"temp":30.9,"humidity":64,"rain":0.0,"pressure":1007.4,"uv_index":8.75,"wind_gusts":36.0,"aqi":25,"pm10":17.3,"pm2_5":8.0,"no2":0.2,"co":92.0,"o3":49.0,"so2":0.5,"mosquito_risk":3,"arthritis_risk":5,"migraine_risk":4,"frizz_risk":1,"updated_at":"2026-06-19T12:40:18.922556+05:30"},{"city":"Haridwar","state":"Uttarakhand","latitude":29.9457,"longitude":78.1642,"temp":35.2,"humidity":44,"rain":0.0,"pressure":970.6,"uv_index":7.65,"wind_gusts":23.4,"aqi":149,"pm10":61.5,"pm2_5":45.5,"no2":1.5,"co":268.0,"o3":200.0,"so2":10.1,"mosquito_risk":0,"arthritis_risk":5,"migraine_risk":10,"frizz_risk":1,"updated_at":"2026-06-19T12:40:18.922565+05:30"},{"city":"Rishikesh","state":"Uttarakhand","latitude":30.0869,"longitude":78.2676,"temp":33.9,"humidity":45,"rain":0.0,"pressure":963.6,"uv_index":7.75,"wind_gusts":22.7,"aqi":118,"pm10":65.0,"pm2_5":39.0,"no2":0.8,"co":240.0,"o3":180.0,"so2":6.1,"mosquito_risk":0,"arthritis_risk":5,"migraine_risk":7,"frizz_risk":1,"updated_at":"2026-06-19T12:40:18.922572+05:30"},{"city":"Nainital","state":"Uttarakhand","latitude":29.3919,"longitude":79.4542,"temp":21.5,"humidity":67,"rain":0.0,"pressure":807.0,"uv_index":8.6,"wind_gusts":28.8,"aqi":115,"pm10":67.5,"pm2_5":37.8,"no2":1.2,"co":227.0,"o3":183.0,"so2":8.0,"mosquito_risk":3,"arthritis_risk":5,"migraine_risk":7,"frizz_risk":0,"updated_at":"2026-06-19T12:40:18.922580+05:30"},{"city":"Mussoorie","state":"Uttarakhand","latitude":30.4599,"longitude":78.0664,"temp":20.9,"humidity":62,"rain":0.1,"pressure":804.1,"uv_index":7.6,"wind_gusts":37.4,"aqi":110,"pm10":59.6,"pm2_5":37.3,"no2":1.1,"co":197.0,"o3":182.0,"so2":6.3,"mosquito_risk":6,"arthritis_risk":5,"migraine_risk":7,"frizz_risk":0,"updated_at":"2026-06-19T12:40:18.922587+05:30"},{"city":"Dharamshala","state":"Himachal Pradesh","latitude":32.219,"longitude":76.3234,"temp":25.5,"humidity":52,"rain":0.0,"pressure":869.5,"uv_index":8.3,"wind_gusts":44.3,"aqi":56,"pm10":24.9,"pm2_5":12.5,"no2":0.4,"co":228.0,"o3":142.0,"so2":1.0,"mosquito_risk":4,"arthritis_risk":5,"migraine_risk":7,"frizz_risk":0,"updated_at":"2026-06-19T12:40:18.922595+05:30"},{"city":"Dalhousie","state":"Himachal Pradesh","latitude":32.5387,"longitude":75.971,"temp":21.2,"humidity":75,"rain":0.1,"pressure":808.0,"uv_index":8.25,"wind_gusts":33.8,"aqi":77,"pm10":27.2,"pm2_5":16.4,"no2":1.0,"co":221.0,"o3":162.0,"so2":1.7,"mosquito_risk":6,"arthritis_risk":5,"migraine_risk":7,"frizz_risk":1,"updated_at":"2026-06-19T12:40:18.922603+05:30"},{"city":"Patiala","state":"Punjab","latitude":30.3398,"longitude":76.3869,"temp":36.4,"humidity":40,"rain":0.0,"pressure":975.0,"uv_index":7.7,"wind_gusts":28.4,"aqi":165,"pm10":901.5,"pm2_5":122.0,"no2":1.2,"co":303.0,"o3":170.0,"so2":7.6,"mosquito_risk":0,"arthritis_risk":5,"migraine_risk":10,"frizz_risk":1,"updated_at":"2026-06-19T12:40:18.922610+05:30"},{"city":"Bhatinda","state":"Punjab","latitude":30.211,"longitude":74.9455,"temp":36.4,"humidity":39,"rain":0.0,"pressure":980.9,"uv_index":8.3,"wind_gusts":34.9,"aqi":149,"pm10":106.6,"pm2_5":42.6,"no2":2.9,"co":182.0,"o3":161.0,"so2":17.0,"mosquito_risk":0,"arthritis_risk":5,"migraine_risk":10,"frizz_risk":1,"updated_at":"2026-06-19T12:40:18.922617+05:30"},{"city":"Rohtak","state":"Haryana","latitude":28.8955,"longitude":76.6066,"temp":36.0,"humidity":44,"rain":0.0,"pressure":978.8,"uv_index":7.8,"wind_gusts":30.2,"aqi":325,"pm10":270.1,"pm2_5":61.5,"no2":0.3,"co":204.0,"o3":156.0,"so2":5.7,"mosquito_risk":0,"arthritis_risk":5,"migraine_risk":10,"frizz_risk":1,"updated_at":"2026-06-19T12:40:18.922624+05:30"},{"city":"Panipat","state":"Haryana","latitude":29.3909,"longitude":76.9635,"temp":36.0,"humidity":42,"rain":0.0,"pressure":977.2,"uv_index":7.65,"wind_gusts":27.7,"aqi":635,"pm10":405.1,"pm2_5":83.4,"no2":1.7,"co":267.0,"o3":170.0,"so2":13.5,"mosquito_risk":0,"arthritis_risk":5,"migraine_risk":10,"frizz_risk":1,"updated_at":"2026-06-19T12:40:18.922634+05:30"},{"city":"Mathura","state":"Uttar Pradesh","latitude":27.4924,"longitude":77.6737,"temp":36.2,"humidity":40,"rain":0.0,"pressure":983.8,"uv_index":8.1,"wind_gusts":28.1,"aqi":165,"pm10":332.5,"pm2_5":73.1,"no2":0.5,"co":142.0,"o3":184.0,"so2":13.2,"mosquito_risk":0,"arthritis_risk":5,"migraine_risk":10,"frizz_risk":1,"updated_at":"2026-06-19T12:40:18.922642+05:30"},{"city":"Vrindavan","state":"Uttar Pradesh","latitude":27.5823,"longitude":77.7027,"temp":36.2,"humidity":40,"rain":0.0,"pressure":984.1,"uv_index":8.1,"wind_gusts":27.7,"aqi":165,"pm10":332.5,"pm2_5":73.1,"no2":0.5,"co":139.0,"o3":184.0,"so2":13.2,"mosquito_risk":0,"arthritis_risk":5,"migraine_risk":10,"frizz_risk":1,"updated_at":"2026-06-19T12:40:18.922649+05:30"},{"city":"Ayodhya","state":"Uttar Pradesh","latitude":26.7922,"longitude":82.1998,"temp":38.6,"humidity":37,"rain":0.0,"pressure":990.5,"uv_index":8.45,"wind_gusts":31.0,"aqi":160,"pm10":182.1,"pm2_5":61.7,"no2":0.3,"co":248.0,"o3":187.0,"so2":11.4,"mosquito_risk":0,"arthritis_risk":5,"migraine_risk":10,"frizz_risk":1,"updated_at":"2026-06-19T12:40:18.922656+05:30"},{"city":"Ratlam","state":"Madhya Pradesh","latitude":23.3315,"longitude":75.0367,"temp":32.9,"humidity":50,"rain":0.1,"pressure":955.2,"uv_index":6.6,"wind_gusts":43.6,"aqi":61,"pm10":31.8,"pm2_5":16.4,"no2":0.7,"co":117.0,"o3":90.0,"so2":2.6,"mosquito_risk":3,"arthritis_risk":5,"migraine_risk":7,"frizz_risk":1,"updated_at":"2026-06-19T12:40:18.922663+05:30"},{"city":"Sagar","state":"Madhya Pradesh","latitude":23.8388,"longitude":78.7378,"temp":35.3,"humidity":41,"rain":0.0,"pressure":949.5,"uv_index":8.75,"wind_gusts":31.7,"aqi":59,"pm10":46.9,"pm2_5":20.3,"no2":0.5,"co":149.0,"o3":108.0,"so2":2.0,"mosquito_risk":0,"arthritis_risk":5,"migraine_risk":10,"frizz_risk":1,"updated_at":"2026-06-19T12:40:18.922671+05:30"},{"city":"Satna","state":"Madhya Pradesh","latitude":24.6005,"longitude":80.8322,"temp":38.2,"humidity":32,"rain":0.0,"pressure":968.8,"uv_index":8.8,"wind_gusts":37.4,"aqi":74,"pm10":82.4,"pm2_5":31.8,"no2":0.6,"co":140.0,"o3":116.0,"so2":4.5,"mosquito_risk":0,"arthritis_risk":5,"migraine_risk":10,"frizz_risk":1,"updated_at":"2026-06-19T12:40:18.922678+05:30"},{"city":"Akola","state":"Maharashtra","latitude":20.7002,"longitude":77.0082,"temp":36.9,"humidity":35,"rain":0.0,"pressure":974.7,"uv_index":8.8,"wind_gusts":40.7,"aqi":58,"pm10":34.8,"pm2_5":16.3,"no2":1.2,"co":115.0,"o3":101.0,"so2":5.5,"mosquito_risk":0,"arthritis_risk":5,"migraine_risk":10,"frizz_risk":1,"updated_at":"2026-06-19T12:40:18.922685+05:30"},{"city":"Amravati","state":"Maharashtra","latitude":20.9374,"longitude":77.7796,"temp":36.2,"humidity":35,"rain":0.0,"pressure":967.0,"uv_index":8.8,"wind_gusts":37.1,"aqi":60,"pm10":34.9,"pm2_5":17.2,"no2":1.4,"co":123.0,"o3":107.0,"so2":7.1,"mosquito_risk":0,"arthritis_risk":5,"migraine_risk":10,"frizz_risk":1,"updated_at":"2026-06-19T12:40:18.922693+05:30"},{"city":"Latur","state":"Maharashtra","latitude":18.4088,"longitude":76.5604,"temp":34.7,"humidity":33,"rain":0.0,"pressure":940.7,"uv_index":8.7,"wind_gusts":27.0,"aqi":62,"pm10":21.7,"pm2_5":13.3,"no2":0.9,"co":127.0,"o3":110.0,"so2":3.3,"mosquito_risk":0,"arthritis_risk":5,"migraine_risk":7,"frizz_risk":1,"updated_at":"2026-06-19T12:40:18.922700+05:30"},{"city":"Nanded","state":"Maharashtra","latitude":19.1383,"longitude":77.3091,"temp":36.8,"humidity":31,"rain":0.0,"pressure":968.5,"uv_index":8.9,"wind_gusts":34.2,"aqi":59,"pm10":26.7,"pm2_5":14.5,"no2":1.0,"co":131.0,"o3":107.0,"so2":2.4,"mosquito_risk":0,"arthritis_risk":5,"migraine_risk":10,"frizz_risk":1,"updated_at":"2026-06-19T12:40:18.922707+05:30"},{"city":"Gulbarga","state":"Karnataka","latitude":17.3297,"longitude":76.8343,"temp":35.4,"humidity":33,"rain":0.0,"pressure":959.2,"uv_index":8.05,"wind_gusts":35.3,"aqi":55,"pm10":21.2,"pm2_5":13.6,"no2":1.4,"co":132.0,"o3":114.0,"so2":3.0,"mosquito_risk":0,"arthritis_risk":5,"migraine_risk":10,"frizz_risk":1,"updated_at":"2026-06-19T12:40:18.922714+05:30"},{"city":"Bidar","state":"Karnataka","latitude":17.9104,"longitude":77.5199,"temp":33.8,"humidity":38,"rain":0.0,"pressure":936.3,"uv_index":8.5,"wind_gusts":31.3,"aqi":67,"pm10":25.4,"pm2_5":16.5,"no2":1.3,"co":147.0,"o3":123.0,"so2":5.9,"mosquito_risk":0,"arthritis_risk":5,"migraine_risk":7,"frizz_risk":1,"updated_at":"2026-06-19T12:40:18.922721+05:30"},{"city":"Hospet","state":"Karnataka","latitude":15.2689,"longitude":76.3909,"temp":31.7,"humidity":45,"rain":0.0,"pressure":956.7,"uv_index":7.05,"wind_gusts":38.5,"aqi":52,"pm10":30.0,"pm2_5":14.9,"no2":1.3,"co":130.0,"o3":92.0,"so2":2.3,"mosquito_risk":0,"arthritis_risk":5,"migraine_risk":7,"frizz_risk":1,"updated_at":"2026-06-19T12:40:18.922728+05:30"},{"city":"Tirupur","state":"Tamil Nadu","latitude":11.1085,"longitude":77.3411,"temp":33.1,"humidity":51,"rain":0.0,"pressure":975.8,"uv_index":8.1,"wind_gusts":29.9,"aqi":48,"pm10":14.9,"pm2_5":9.6,"no2":1.5,"co":168.0,"o3":119.0,"so2":2.7,"mosquito_risk":0,"arthritis_risk":5,"migraine_risk":7,"frizz_risk":1,"updated_at":"2026-06-19T12:40:18.922734+05:30"},{"city":"Alappuzha","state":"Kerala","latitude":9.4981,"longitude":76.3388,"temp":29.7,"humidity":71,"rain":0.0,"pressure":1009.2,"uv_index":7.1,"wind_gusts":29.5,"aqi":53,"pm10":17.4,"pm2_5":11.1,"no2":3.8,"co":99.0,"o3":74.0,"so2":3.8,"mosquito_risk":7,"arthritis_risk":0,"migraine_risk":4,"frizz_risk":1,"updated_at":"2026-06-19T12:40:18.922742+05:30"},{"city":"Munnar","state":"Kerala","latitude":10.0889,"longitude":77.0595,"temp":20.2,"humidity":89,"rain":0.0,"pressure":858.3,"uv_index":6.25,"wind_gusts":22.3,"aqi":20,"pm10":15.7,"pm2_5":7.4,"no2":0.5,"co":114.0,"o3":74.0,"so2":1.1,"mosquito_risk":3,"arthritis_risk":5,"migraine_risk":7,"frizz_risk":1,"updated_at":"2026-06-19T12:40:18.922749+05:30"},{"city":"Silchar","state":"Assam","latitude":24.8333,"longitude":92.7789,"temp":31.2,"humidity":72,"rain":0.1,"pressure":1001.9,"uv_index":8.2,"wind_gusts":30.2,"aqi":85,"pm10":28.0,"pm2_5":18.9,"no2":1.2,"co":210.0,"o3":95.0,"so2":2.4,"mosquito_risk":6,"arthritis_risk":5,"migraine_risk":4,"frizz_risk":1,"updated_at":"2026-06-19T12:40:18.922756+05:30"},{"city":"Dibrugarh","state":"Assam","latitude":27.4728,"longitude":94.912,"temp":28.1,"humidity":91,"rain":0.1,"pressure":990.5,"uv_index":8.9,"wind_gusts":22.3,"aqi":68,"pm10":28.2,"pm2_5":21.8,"no2":1.2,"co":253.0,"o3":138.0,"so2":2.7,"mosquito_risk":10,"arthritis_risk":5,"migraine_risk":7,"frizz_risk":1,"updated_at":"2026-06-19T12:40:18.922763+05:30"}]