[{"city":"Delhi","state":"Delhi","latitude":28.6139,"longitude":77.209,"temp":29.5,"humidity":58,"rain":0.0,"pressure":977.1,"uv_index":7.8,"wind_gusts":51.8,"aqi":155,"pm10":154.1,"pm2_5":78.2,"no2":47.9,"co":545.0,"o3":43.0,"so2":33.4,"mosquito_risk":4,"arthritis_risk":5,"migraine_risk":7,"frizz_risk":1,"updated_at":"2026-06-04T05:16:40.603047+05:30"},{"city":"Mumbai","state":"Maharashtra","latitude":19.076,"longitude":72.8777,"temp":28.4,"humidity":80,"rain":0.0,"pressure":1004.7,"uv_index":7.7,"wind_gusts":45.7,"aqi":69,"pm10":42.6,"pm2_5":17.8,"no2":10.1,"co":173.0,"o3":42.0,"so2":10.6,"mosquito_risk":7,"arthritis_risk":5,"migraine_risk":4,"frizz_risk":1,"updated_at":"2026-06-04T05:16:40.603089+05:30"},{"city":"Bangalore","state":"Karnataka","latitude":12.9716,"longitude":77.5946,"temp":20.1,"humidity":96,"rain":0.0,"pressure":909.1,"uv_index":8.05,"wind_gusts":47.5,"aqi":43,"pm10":6.6,"pm2_5":5.5,"no2":9.8,"co":202.0,"o3":34.0,"so2":4.5,"mosquito_risk":3,"arthritis_risk":5,"migraine_risk":7,"frizz_risk":1,"updated_at":"2026-06-04T05:16:40.603104+05:30"},{"city":"Hyderabad","state":"Telangana","latitude":17.385,"longitude":78.4867,"temp":27.0,"humidity":67,"rain":0.0,"pressure":950.0,"uv_index":9.15,"wind_gusts":47.5,"aqi":69,"pm10":27.9,"pm2_5":20.1,"no2":12.6,"co":207.0,"o3":60.0,"so2":6.9,"mosquito_risk":7,"arthritis_risk":5,"migraine_risk":7,"frizz_risk":1,"updated_at":"2026-06-04T05:16:40.603114+05:30"},{"city":"Chennai","state":"Tamil Nadu","latitude":13.0827,"longitude":80.2707,"temp":29.8,"humidity":67,"rain":0.0,"pressure":1003.3,"uv_index":8.0,"wind_gusts":51.1,"aqi":69,"pm10":18.2,"pm2_5":16.6,"no2":16.2,"co":350.0,"o3":57.0,"so2":9.0,"mosquito_risk":7,"arthritis_risk":5,"migraine_risk":4,"frizz_risk":1,"updated_at":"2026-06-04T05:16:40.603122+05:30"},{"city":"Kolkata","state":"West Bengal","latitude":22.5726,"longitude":88.3639,"temp":29.4,"humidity":89,"rain":0.0,"pressure":1000.7,"uv_index":8.95,"wind_gusts":43.6,"aqi":128,"pm10":72.6,"pm2_5":68.7,"no2":22.2,"co":364.0,"o3":55.0,"so2":11.5,"mosquito_risk":7,"arthritis_risk":5,"migraine_risk":4,"frizz_risk":1,"updated_at":"2026-06-04T05:16:40.603130+05:30"},{"city":"Pune","state":"Maharashtra","latitude":18.5204,"longitude":73.8567,"temp":24.1,"humidity":85,"rain":0.0,"pressure":944.7,"uv_index":8.35,"wind_gusts":43.2,"aqi":61,"pm10":35.0,"pm2_5":15.2,"no2":10.6,"co":131.0,"o3":33.0,"so2":8.9,"mosquito_risk":3,"arthritis_risk":5,"migraine_risk":7,"frizz_risk":1,"updated_at":"2026-06-04T05:16:40.603137+05:30"},{"city":"Ahmedabad","state":"Gujarat","latitude":23.0225,"longitude":72.5714,"temp":30.2,"humidity":72,"rain":0.0,"pressure":997.0,"uv_index":8.05,"wind_gusts":41.0,"aqi":87,"pm10":35.6,"pm2_5":22.1,"no2":6.9,"co":159.0,"o3":43.0,"so2":4.3,"mosquito_risk":3,"arthritis_risk":5,"migraine_risk":7,"frizz_risk":1,"updated_at":"2026-06-04T05:16:40.603144+05:30"},{"city":"Jaipur","state":"Rajasthan","latitude":26.9124,"longitude":75.7873,"temp":28.1,"humidity":53,"rain":0.0,"pressure":953.7,"uv_index":8.25,"wind_gusts":68.4,"aqi":117,"pm10":187.2,"pm2_5":54.7,"no2":16.0,"co":428.0,"o3":57.0,"so2":7.2,"mosquito_risk":4,"arthritis_risk":5,"migraine_risk":7,"frizz_risk":1,"updated_at":"2026-06-04T05:16:40.603154+05:30"},{"city":"Lucknow","state":"Uttar Pradesh","latitude":26.8467,"longitude":80.9462,"temp":28.1,"humidity":68,"rain":0.0,"pressure":987.5,"uv_index":8.0,"wind_gusts":21.2,"aqi":149,"pm10":189.5,"pm2_5":107.3,"no2":83.8,"co":474.0,"o3":0.0,"so2":28.4,"mosquito_risk":7,"arthritis_risk":5,"migraine_risk":7,"frizz_risk":1,"updated_at":"2026-06-04T05:16:40.603162+05:30"},{"city":"Kanpur","state":"Uttar Pradesh","latitude":26.4499,"longitude":80.3319,"temp":30.0,"humidity":57,"rain":0.0,"pressure":985.8,"uv_index":8.3,"wind_gusts":49.3,"aqi":141,"pm10":154.1,"pm2_5":78.7,"no2":72.4,"co":381.0,"o3":2.0,"so2":15.6,"mosquito_risk":4,"arthritis_risk":5,"migraine_risk":7,"frizz_risk":1,"updated_at":"2026-06-04T05:16:40.603169+05:30"},{"city":"Chandigarh","state":"Chandigarh","latitude":30.7333,"longitude":76.7794,"temp":24.5,"humidity":73,"rain":0.0,"pressure":963.0,"uv_index":7.75,"wind_gusts":34.9,"aqi":117,"pm10":66.8,"pm2_5":50.9,"no2":44.6,"co":714.0,"o3":11.0,"so2":8.1,"mosquito_risk":3,"arthritis_risk":5,"migraine_risk":7,"frizz_risk":1,"updated_at":"2026-06-04T05:16:40.603175+05:30"},{"city":"Srinagar","state":"Jammu and Kashmir","latitude":34.0837,"longitude":74.7973,"temp":13.8,"humidity":98,"rain":0.0,"pressure":837.5,"uv_index":8.15,"wind_gusts":33.5,"aqi":89,"pm10":39.2,"pm2_5":34.3,"no2":22.1,"co":431.0,"o3":17.0,"so2":0.0,"mosquito_risk":3,"arthritis_risk":10,"migraine_risk":7,"frizz_risk":0,"updated_at":"2026-06-04T05:16:40.603182+05:30"},{"city":"Jammu","state":"Jammu and Kashmir","latitude":32.7266,"longitude":74.857,"temp":25.5,"humidity":60,"rain":0.0,"pressure":966.3,"uv_index":8.45,"wind_gusts":69.5,"aqi":91,"pm10":34.2,"pm2_5":31.5,"no2":42.4,"co":367.0,"o3":0.0,"so2":1.9,"mosquito_risk":4,"arthritis_risk":5,"migraine_risk":7,"frizz_risk":1,"updated_at":"2026-06-04T05:16:40.603189+05:30"},{"city":"Amritsar","state":"Punjab","latitude":31.634,"longitude":74.8723,"temp":27.5,"humidity":62,"rain":0.0,"pressure":973.9,"uv_index":8.4,"wind_gusts":67.0,"aqi":151,"pm10":84.1,"pm2_5":68.5,"no2":30.4,"co":756.0,"o3":41.0,"so2":6.7,"mosquito_risk":7,"arthritis_risk":5,"migraine_risk":7,"frizz_risk":1,"updated_at":"2026-06-04T05:16:40.603195+05:30"},{"city":"Ludhiana","state":"Punjab","latitude":30.901,"longitude":75.8573,"temp":26.6,"humidity":64,"rain":0.0,"pressure":972.3,"uv_index":7.9,"wind_gusts":55.4,"aqi":151,"pm10":119.2,"pm2_5":86.6,"no2":47.8,"co":889.0,"o3":24.0,"so2":14.4,"mosquito_risk":7,"arthritis_risk":5,"migraine_risk":7,"frizz_risk":1,"updated_at":"2026-06-04T05:16:40.603202+05:30"},{"city":"Jalandhar","state":"Punjab","latitude":31.326,"longitude":75.5762,"temp":27.0,"humidity":58,"rain":0.0,"pressure":973.3,"uv_index":8.2,"wind_gusts":63.7,"aqi":154,"pm10":125.3,"pm2_5":89.4,"no2":61.0,"co":706.0,"o3":9.0,"so2":9.3,"mosquito_risk":4,"arthritis_risk":5,"migraine_risk":7,"frizz_risk":1,"updated_at":"2026-06-04T05:16:40.603208+05:30"},{"city":"Dehradun","state":"Uttarakhand","latitude":30.6284,"longitude":78.0322,"temp":14.0,"humidity":94,"rain":0.0,"pressure":825.7,"uv_index":6.55,"wind_gusts":28.1,"aqi":45,"pm10":9.9,"pm2_5":9.8,"no2":22.5,"co":214.0,"o3":24.0,"so2":0.0,"mosquito_risk":3,"arthritis_risk":10,"migraine_risk":7,"frizz_risk":0,"updated_at":"2026-06-04T05:16:40.603215+05:30"},{"city":"Shimla","state":"Himachal Pradesh","latitude":31.1048,"longitude":77.1734,"temp":11.9,"humidity":84,"rain":0.0,"pressure":779.3,"uv_index":7.2,"wind_gusts":42.1,"aqi":82,"pm10":47.6,"pm2_5":34.2,"no2":27.3,"co":299.0,"o3":33.0,"so2":2.6,"mosquito_risk":3,"arthritis_risk":10,"migraine_risk":7,"frizz_risk":0,"updated_at":"2026-06-04T05:16:40.603224+05:30"},{"city":"Manali","state":"Himachal Pradesh","latitude":32.2396,"longitude":77.1887,"temp":13.2,"humidity":83,"rain":0.1,"pressure":815.0,"uv_index":8.95,"wind_gusts":38.2,"aqi":39,"pm10":3.8,"pm2_5":2.4,"no2":11.3,"co":179.0,"o3":112.0,"so2":0.0,"mosquito_risk":6,"arthritis_risk":10,"migraine_risk":7,"frizz_risk":0,"updated_at":"2026-06-04T05:16:40.603230+05:30"},{"city":"Gurgaon","state":"Haryana","latitude":28.4595,"longitude":77.0266,"temp":28.1,"humidity":59,"rain":0.0,"pressure":975.3,"uv_index":7.9,"wind_gusts":50.8,"aqi":160,"pm10":134.1,"pm2_5":67.5,"no2":34.9,"co":449.0,"o3":48.0,"so2":17.5,"mosquito_risk":4,"arthritis_risk":5,"migraine_risk":7,"frizz_risk":1,"updated_at":"2026-06-04T05:16:40.603236+05:30"},{"city":"Noida","state":"Uttar Pradesh","latitude":28.5355,"longitude":77.391,"temp":28.3,"humidity":65,"rain":0.0,"pressure":978.4,"uv_index":7.85,"wind_gusts":59.4,"aqi":160,"pm10":134.1,"pm2_5":67.5,"no2":34.9,"co":554.0,"o3":48.0,"so2":17.5,"mosquito_risk":7,"arthritis_risk":5,"migraine_risk":7,"frizz_risk":1,"updated_at":"2026-06-04T05:16:40.603245+05:30"},{"city":"Ghaziabad","state":"Uttar Pradesh","latitude":28.6692,"longitude":77.4538,"temp":27.1,"humidity":72,"rain":0.0,"pressure":976.7,"uv_index":7.8,"wind_gusts":67.7,"aqi":156,"pm10":97.3,"pm2_5":71.9,"no2":36.6,"co":522.0,"o3":36.0,"so2":11.5,"mosquito_risk":7,"arthritis_risk":5,"migraine_risk":7,"frizz_risk":1,"updated_at":"2026-06-04T05:16:40.603251+05:30"},{"city":"Faridabad","state":"Haryana","latitude":28.4089,"longitude":77.3178,"temp":29.1,"humidity":57,"rain":0.0,"pressure":977.7,"uv_index":7.85,"wind_gusts":51.1,"aqi":160,"pm10":134.1,"pm2_5":67.5,"no2":34.9,"co":605.0,"o3":48.0,"so2":17.5,"mosquito_risk":4,"arthritis_risk":5,"migraine_risk":7,"frizz_risk":1,"updated_at":"2026-06-04T05:16:40.603257+05:30"},{"city":"Meerut","state":"Uttar Pradesh","latitude":28.9845,"longitude":77.7064,"temp":27.2,"humidity":67,"rain":0.0,"pressure":976.1,"uv_index":7.15,"wind_gusts":51.8,"aqi":156,"pm10":97.3,"pm2_5":71.9,"no2":36.6,"co":640.0,"o3":36.0,"so2":11.5,"mosquito_risk":7,"arthritis_risk":5,"migraine_risk":7,"frizz_risk":1,"updated_at":"2026-06-04T05:16:40.603264+05:30"},{"city":"Agra","state":"Uttar Pradesh","latitude":27.1767,"longitude":78.0081,"temp":28.5,"humidity":59,"rain":0.0,"pressure":981.5,"uv_index":8.15,"wind_gusts":86.4,"aqi":179,"pm10":166.7,"pm2_5":62.2,"no2":23.8,"co":641.0,"o3":47.0,"so2":9.7,"mosquito_risk":4,"arthritis_risk":5,"migraine_risk":7,"frizz_risk":1,"updated_at":"2026-06-04T05:16:40.603270+05:30"},{"city":"Varanasi","state":"Uttar Pradesh","latitude":25.3176,"longitude":82.9739,"temp":29.9,"humidity":53,"rain":0.0,"pressure":992.2,"uv_index":8.45,"wind_gusts":24.8,"aqi":152,"pm10":57.9,"pm2_5":48.2,"no2":38.8,"co":523.0,"o3":22.0,"so2":27.0,"mosquito_risk":4,"arthritis_risk":5,"migraine_risk":7,"frizz_risk":1,"updated_at":"2026-06-04T05:16:40.603276+05:30"},{"city":"Prayagraj","state":"Uttar Pradesh","latitude":25.4358,"longitude":81.8463,"temp":29.4,"humidity":57,"rain":0.0,"pressure":990.1,"uv_index":8.7,"wind_gusts":24.8,"aqi":140,"pm10":101.5,"pm2_5":80.1,"no2":63.3,"co":275.0,"o3":1.0,"so2":16.2,"mosquito_risk":4,"arthritis_risk":5,"migraine_risk":7,"frizz_risk":1,"updated_at":"2026-06-04T05:16:40.603283+05:30"},{"city":"Gorakhpur","state":"Uttar Pradesh","latitude":26.7606,"longitude":83.3732,"temp":27.1,"humidity":73,"rain":0.0,"pressure":991.2,"uv_index":7.5,"wind_gusts":20.2,"aqi":153,"pm10":118.7,"pm2_5":104.1,"no2":73.9,"co":522.0,"o3":0.0,"so2":17.4,"mosquito_risk":7,"arthritis_risk":5,"migraine_risk":7,"frizz_risk":1,"updated_at":"2026-06-04T05:16:40.603291+05:30"},{"city":"Bareilly","state":"Uttar Pradesh","latitude":28.367,"longitude":79.4304,"temp":26.1,"humidity":76,"rain":0.0,"pressure":980.8,"uv_index":8.1,"wind_gusts":52.2,"aqi":153,"pm10":106.6,"pm2_5":76.4,"no2":44.8,"co":976.0,"o3":39.0,"so2":9.8,"mosquito_risk":7,"arthritis_risk":5,"migraine_risk":7,"frizz_risk":1,"updated_at":"2026-06-04T05:16:40.603297+05:30"},{"city":"Aligarh","state":"Uttar Pradesh","latitude":27.8974,"longitude":78.088,"temp":27.4,"humidity":69,"rain":0.0,"pressure":979.3,"uv_index":7.7,"wind_gusts":67.7,"aqi":151,"pm10":107.8,"pm2_5":55.3,"no2":26.1,"co":487.0,"o3":53.0,"so2":9.0,"mosquito_risk":7,"arthritis_risk":5,"migraine_risk":7,"frizz_risk":1,"updated_at":"2026-06-04T05:16:40.603305+05:30"},{"city":"Moradabad","state":"Uttar Pradesh","latitude":28.8386,"longitude":78.7733,"temp":27.8,"humidity":66,"rain":0.0,"pressure":978.0,"uv_index":7.95,"wind_gusts":43.9,"aqi":157,"pm10":91.0,"pm2_5":72.9,"no2":37.2,"co":1241.0,"o3":34.0,"so2":10.5,"mosquito_risk":7,"arthritis_risk":5,"migraine_risk":7,"frizz_risk":1,"updated_at":"2026-06-04T05:16:40.603311+05:30"},{"city":"Saharanpur","state":"Uttar Pradesh","latitude":29.9637,"longitude":77.546,"temp":26.4,"humidity":74,"rain":0.0,"pressure":970.2,"uv_index":7.5,"wind_gusts":36.0,"aqi":127,"pm10":38.3,"pm2_5":35.2,"no2":32.5,"co":508.0,"o3":38.0,"so2":7.9,"mosquito_risk":7,"arthritis_risk":5,"migraine_risk":7,"frizz_risk":1,"updated_at":"2026-06-04T05:16:40.603317+05:30"},{"city":"Jhansi","state":"Uttar Pradesh","latitude":25.4484,"longitude":78.5685,"temp":28.9,"humidity":59,"rain":0.0,"pressure":972.0,"uv_index":8.5,"wind_gusts":64.1,"aqi":85,"pm10":45.4,"pm2_5":26.9,"no2":11.0,"co":216.0,"o3":53.0,"so2":4.8,"mosquito_risk":4,"arthritis_risk":5,"migraine_risk":7,"frizz_risk":1,"updated_at":"2026-06-04T05:16:43.966380+05:30"},{"city":"Surat","state":"Gujarat","latitude":21.1702,"longitude":72.8311,"temp":29.1,"humidity":81,"rain":0.0,"pressure":1002.1,"uv_index":7.6,"wind_gusts":47.9,"aqi":85,"pm10":45.1,"pm2_5":23.9,"no2":22.9,"co":249.0,"o3":33.0,"so2":38.5,"mosquito_risk":7,"arthritis_risk":5,"migraine_risk":4,"frizz_risk":1,"updated_at":"2026-06-04T05:16:43.966412+05:30"},{"city":"Vadodara","state":"Gujarat","latitude":22.3072,"longitude":73.1812,"temp":29.0,"humidity":82,"rain":0.0,"pressure":999.6,"uv_index":8.0,"wind_gusts":44.6,"aqi":86,"pm10":36.1,"pm2_5":21.0,"no2":12.1,"co":116.0,"o3":40.0,"so2":14.4,"mosquito_risk":7,"arthritis_risk":5,"migraine_risk":7,"frizz_risk":1,"updated_at":"2026-06-04T05:16:43.966423+05:30"},{"city":"Rajkot","state":"Gujarat","latitude":22.3039,"longitude":70.8022,"temp":28.1,"humidity":82,"rain":0.0,"pressure":989.0,"uv_index":7.55,"wind_gusts":48.6,"aqi":76,"pm10":36.9,"pm2_5":16.8,"no2":4.2,"co":103.0,"o3":39.0,"so2":2.8,"mosquito_risk":7,"arthritis_risk":5,"migraine_risk":7,"frizz_risk":1,"updated_at":"2026-06-04T05:16:43.966432+05:30"},{"city":"Thane","state":"Maharashtra","latitude":19.2183,"longitude":72.9781,"temp":28.0,"humidity":80,"rain":0.0,"pressure":1004.2,"uv_index":7.7,"wind_gusts":39.6,"aqi":69,"pm10":42.6,"pm2_5":17.8,"no2":10.1,"co":162.0,"o3":42.0,"so2":10.6,"mosquito_risk":7,"arthritis_risk":5,"migraine_risk":4,"frizz_risk":1,"updated_at":"2026-06-04T05:16:43.966441+05:30"},{"city":"Nagpur","state":"Maharashtra","latitude":21.1458,"longitude":79.0882,"temp":31.0,"humidity":47,"rain":0.0,"pressure":968.6,"uv_index":6.95,"wind_gusts":35.6,"aqi":69,"pm10":24.7,"pm2_5":19.7,"no2":22.5,"co":196.0,"o3":42.0,"so2":10.6,"mosquito_risk":0,"arthritis_risk":5,"migraine_risk":7,"frizz_risk":1,"updated_at":"2026-06-04T05:16:43.966449+05:30"},{"city":"Nashik","state":"Maharashtra","latitude":19.9975,"longitude":73.7898,"temp":23.3,"humidity":93,"rain":0.0,"pressure":942.0,"uv_index":8.05,"wind_gusts":39.6,"aqi":70,"pm10":29.9,"pm2_5":15.8,"no2":13.9,"co":171.0,"o3":26.0,"so2":14.7,"mosquito_risk":3,"arthritis_risk":5,"migraine_risk":7,"frizz_risk":1,"updated_at":"2026-06-04T05:16:43.966458+05:30"},{"city":"Aurangabad","state":"Maharashtra","latitude":19.8762,"longitude":75.3433,"temp":25.5,"humidity":76,"rain":0.0,"pressure":940.9,"uv_index":8.95,"wind_gusts":39.6,"aqi":74,"pm10":32.6,"pm2_5":18.8,"no2":11.2,"co":146.0,"o3":46.0,"so2":12.6,"mosquito_risk":7,"arthritis_risk":5,"migraine_risk":7,"frizz_risk":1,"updated_at":"2026-06-04T05:16:43.966466+05:30"},{"city":"Solapur","state":"Maharashtra","latitude":17.6599,"longitude":75.9064,"temp":27.2,"humidity":65,"rain":0.0,"pressure":954.2,"uv_index":9.0,"wind_gusts":43.9,"aqi":65,"pm10":22.1,"pm2_5":13.5,"no2":6.9,"co":157.0,"o3":46.0,"so2":2.7,"mosquito_risk":7,"arthritis_risk":5,"migraine_risk":7,"frizz_risk":1,"updated_at":"2026-06-04T05:16:43.966475+05:30"},{"city":"Kolhapur","state":"Maharashtra","latitude":16.705,"longitude":74.2433,"temp":23.4,"humidity":87,"rain":0.0,"pressure":945.1,"uv_index":8.75,"wind_gusts":46.8,"aqi":52,"pm10":22.6,"pm2_5":12.6,"no2":8.3,"co":117.0,"o3":32.0,"so2":3.1,"mosquito_risk":3,"arthritis_risk":5,"migraine_risk":7,"frizz_risk":1,"updated_at":"2026-06-04T05:16:43.966484+05:30"},{"city":"Goa","state":"Goa","latitude":15.2993,"longitude":74.124,"temp":24.9,"humidity":98,"rain":0.0,"pressure":995.5,"uv_index":8.75,"wind_gusts":34.9,"aqi":38,"pm10":18.8,"pm2_5":9.5,"no2":4.1,"co":184.0,"o3":42.0,"so2":0.8,"mosquito_risk":3,"arthritis_risk":5,"migraine_risk":7,"frizz_risk":1,"updated_at":"2026-06-04T05:16:43.966493+05:30"},{"city":"Jodhpur","state":"Rajasthan","latitude":26.2389,"longitude":73.0243,"temp":31.0,"humidity":52,"rain":0.0,"pressure":976.7,"uv_index":8.4,"wind_gusts":51.8,"aqi":102,"pm10":238.0,"pm2_5":54.9,"no2":3.1,"co":136.0,"o3":58.0,"so2":3.9,"mosquito_risk":0,"arthritis_risk":5,"migraine_risk":7,"frizz_risk":1,"updated_at":"2026-06-04T05:16:43.966501+05:30"},{"city":"Udaipur","state":"Rajasthan","latitude":24.5854,"longitude":73.7125,"temp":26.6,"humidity":72,"rain":0.0,"pressure":941.3,"uv_index":8.8,"wind_gusts":60.5,"aqi":90,"pm10":42.0,"pm2_5":27.2,"no2":8.8,"co":176.0,"o3":51.0,"so2":8.4,"mosquito_risk":7,"arthritis_risk":5,"migraine_risk":7,"frizz_risk":1,"updated_at":"2026-06-04T05:16:43.966511+05:30"},{"city":"Kota","state":"Rajasthan","latitude":25.2138,"longitude":75.8648,"temp":30.9,"humidity":49,"rain":0.0,"pressure":972.6,"uv_index":8.4,"wind_gusts":60.1,"aqi":95,"pm10":37.8,"pm2_5":24.2,"no2":6.3,"co":205.0,"o3":59.0,"so2":5.9,"mosquito_risk":0,"arthritis_risk":5,"migraine_risk":7,"frizz_risk":1,"updated_at":"2026-06-04T05:16:43.966520+05:30"},{"city":"Bikaner","state":"Rajasthan","latitude":28.0229,"longitude":73.3119,"temp":30.6,"humidity":40,"rain":0.0,"pressure":974.2,"uv_index":8.3,"wind_gusts":57.2,"aqi":98,"pm10":104.8,"pm2_5":34.7,"no2":5.3,"co":131.0,"o3":50.0,"so2":3.4,"mosquito_risk":0,"arthritis_risk":5,"migraine_risk":7,"frizz_risk":0,"updated_at":"2026-06-04T05:16:43.966529+05:30"},{"city":"Ajmer","state":"Rajasthan","latitude":26.4499,"longitude":74.6399,"temp":28.6,"humidity":55,"rain":0.0,"pressure":949.0,"uv_index":8.35,"wind_gusts":46.4,"aqi":93,"pm10":41.9,"pm2_5":19.4,"no2":4.6,"co":155.0,"o3":57.0,"so2":4.3,"mosquito_risk":4,"arthritis_risk":5,"migraine_risk":7,"frizz_risk":1,"updated_at":"2026-06-04T05:16:43.966536+05:30"},{"city":"Gwalior","state":"Madhya Pradesh","latitude":26.2183,"longitude":78.1828,"temp":27.5,"humidity":71,"rain":0.0,"pressure":976.7,"uv_index":8.3,"wind_gusts":77.4,"aqi":101,"pm10":97.6,"pm2_5":40.7,"no2":14.7,"co":247.0,"o3":49.0,"so2":5.7,"mosquito_risk":7,"arthritis_risk":5,"migraine_risk":7,"frizz_risk":1,"updated_at":"2026-06-04T05:16:43.966544+05:30"},{"city":"Indore","state":"Madhya Pradesh","latitude":22.7196,"longitude":75.8577,"temp":26.9,"humidity":71,"rain":0.0,"pressure":943.9,"uv_index":8.65,"wind_gusts":53.6,"aqi":86,"pm10":47.0,"pm2_5":32.6,"no2":6.5,"co":254.0,"o3":74.0,"so2":12.5,"mosquito_risk":7,"arthritis_risk":5,"migraine_risk":7,"frizz_risk":1,"updated_at":"2026-06-04T05:16:43.966550+05:30"},{"city":"Bhopal","state":"Madhya Pradesh","latitude":23.2599,"longitude":77.4126,"temp":27.8,"humidity":60,"rain":0.0,"pressure":949.0,"uv_index":8.7,"wind_gusts":47.9,"aqi":81,"pm10":45.2,"pm2_5":27.9,"no2":6.8,"co":260.0,"o3":67.0,"so2":5.7,"mosquito_risk":4,"arthritis_risk":5,"migraine_risk":7,"frizz_risk":1,"updated_at":"2026-06-04T05:16:43.966557+05:30"},{"city":"Jabalpur","state":"Madhya Pradesh","latitude":23.1815,"longitude":79.9864,"temp":27.0,"humidity":68,"rain":0.0,"pressure":957.0,"uv_index":8.85,"wind_gusts":28.8,"aqi":74,"pm10":39.3,"pm2_5":25.6,"no2":12.1,"co":186.0,"o3":59.0,"so2":4.3,"mosquito_risk":7,"arthritis_risk":5,"migraine_risk":7,"frizz_risk":1,"updated_at":"2026-06-04T05:16:43.966564+05:30"},{"city":"Ujjain","state":"Madhya Pradesh","latitude":23.1765,"longitude":75.7885,"temp":26.6,"humidity":75,"rain":0.0,"pressure":949.3,"uv_index":8.6,"wind_gusts":51.5,"aqi":86,"pm10":47.7,"pm2_5":32.4,"no2":6.8,"co":215.0,"o3":66.0,"so2":13.7,"mosquito_risk":7,"arthritis_risk":5,"migraine_risk":7,"frizz_risk":1,"updated_at":"2026-06-04T05:16:43.966570+05:30"},{"city":"Visakhapatnam","state":"Andhra Pradesh","latitude":17.6868,"longitude":83.2185,"temp":29.0,"humidity":83,"rain":0.0,"pressure":998.8,"uv_index":8.8,"wind_gusts":37.1,"aqi":92,"pm10":36.0,"pm2_5":29.9,"no2":23.1,"co":472.0,"o3":79.0,"so2":38.2,"mosquito_risk":7,"arthritis_risk":5,"migraine_risk":7,"frizz_risk":1,"updated_at":"2026-06-04T05:16:43.966577+05:30"},{"city":"Vijayawada","state":"Andhra Pradesh","latitude":16.5062,"longitude":80.648,"temp":29.6,"humidity":66,"rain":0.0,"pressure":998.2,"uv_index":8.7,"wind_gusts":41.4,"aqi":86,"pm10":22.1,"pm2_5":19.8,"no2":8.8,"co":273.0,"o3":81.0,"so2":5.8,"mosquito_risk":7,"arthritis_risk":5,"migraine_risk":7,"frizz_risk":1,"updated_at":"2026-06-04T05:16:43.966583+05:30"},{"city":"Guntur","state":"Andhra Pradesh","latitude":16.3067,"longitude":80.4365,"temp":29.0,"humidity":69,"rain":0.0,"pressure":999.5,"uv_index":8.65,"wind_gusts":42.1,"aqi":84,"pm10":21.6,"pm2_5":19.7,"no2":11.6,"co":207.0,"o3":65.0,"so2":4.9,"mosquito_risk":7,"arthritis_risk":5,"migraine_risk":7,"frizz_risk":1,"updated_at":"2026-06-04T05:16:43.966609+05:30"},{"city":"Nellore","state":"Andhra Pradesh","latitude":14.4426,"longitude":79.9865,"temp":28.3,"humidity":71,"rain":0.0,"pressure":1002.0,"uv_index":8.65,"wind_gusts":42.8,"aqi":63,"pm10":8.8,"pm2_5":7.4,"no2":5.5,"co":174.0,"o3":78.0,"so2":2.6,"mosquito_risk":7,"arthritis_risk":5,"migraine_risk":4,"frizz_risk":1,"updated_at":"2026-06-04T05:16:43.966619+05:30"},{"city":"Kurnool","state":"Andhra Pradesh","latitude":15.8281,"longitude":78.0373,"temp":26.9,"humidity":72,"rain":0.0,"pressure":974.0,"uv_index":8.5,"wind_gusts":33.1,"aqi":59,"pm10":9.9,"pm2_5":7.5,"no2":12.1,"co":177.0,"o3":38.0,"so2":6.3,"mosquito_risk":7,"arthritis_risk":5,"migraine_risk":7,"frizz_risk":1,"updated_at":"2026-06-04T05:16:43.966627+05:30"},{"city":"Kakinada","state":"Andhra Pradesh","latitude":16.9891,"longitude":82.2475,"temp":28.5,"humidity":79,"rain":0.0,"pressure":1002.8,"uv_index":8.9,"wind_gusts":44.3,"aqi":72,"pm10":26.0,"pm2_5":20.3,"no2":3.9,"co":295.0,"o3":124.0,"so2":5.2,"mosquito_risk":7,"arthritis_risk":5,"migraine_risk":4,"frizz_risk":1,"updated_at":"2026-06-04T05:16:43.966634+05:30"},{"city":"Tirupati","state":"Andhra Pradesh","latitude":13.6288,"longitude":79.4192,"temp":27.2,"humidity":72,"rain":0.0,"pressure":987.5,"uv_index":8.9,"wind_gusts":32.0,"aqi":60,"pm10":11.8,"pm2_5":10.7,"no2":11.2,"co":159.0,"o3":53.0,"so2":2.5,"mosquito_risk":7,"arthritis_risk":5,"migraine_risk":7,"frizz_risk":1,"updated_at":"2026-06-04T05:16:43.966640+05:30"},{"city":"Warangal","state":"Telangana","latitude":17.9689,"longitude":79.5941,"temp":29.8,"humidity":59,"rain":0.0,"pressure":974.6,"uv_index":9.1,"wind_gusts":39.6,"aqi":78,"pm10":24.8,"pm2_5":21.6,"no2":16.0,"co":256.0,"o3":65.0,"so2":6.9,"mosquito_risk":4,"arthritis_risk":5,"migraine_risk":7,"frizz_risk":1,"updated_at":"2026-06-04T05:16:43.966647+05:30"},{"city":"Nizamabad","state":"Telangana","latitude":18.6725,"longitude":78.0941,"temp":27.9,"humidity":63,"rain":0.0,"pressure":961.5,"uv_index":9.05,"wind_gusts":33.1,"aqi":67,"pm10":30.9,"pm2_5":19.4,"no2":9.5,"co":187.0,"o3":61.0,"so2":3.3,"mosquito_risk":7,"arthritis_risk":5,"migraine_risk":7,"frizz_risk":1,"updated_at":"2026-06-04T05:16:43.966653+05:30"},{"city":"Mysore","state":"Karnataka","latitude":12.2958,"longitude":76.6396,"temp":21.3,"humidity":93,"rain":0.0,"pressure":926.3,"uv_index":8.3,"wind_gusts":51.8,"aqi":23,"pm10":4.0,"pm2_5":3.7,"no2":6.7,"co":134.0,"o3":35.0,"so2":2.0,"mosquito_risk":3,"arthritis_risk":5,"migraine_risk":7,"frizz_risk":1,"updated_at":"2026-06-04T05:16:43.966661+05:30"},{"city":"Mangalore","state":"Karnataka","latitude":12.9141,"longitude":74.856,"temp":24.9,"humidity":96,"rain":0.3,"pressure":1005.0,"uv_index":8.45,"wind_gusts":35.6,"aqi":31,"pm10":13.1,"pm2_5":7.5,"no2":5.4,"co":169.0,"o3":43.0,"so2":1.8,"mosquito_risk":6,"arthritis_risk":5,"migraine_risk":4,"frizz_risk":1,"updated_at":"2026-06-04T05:16:43.966668+05:30"},{"city":"Hubli-Dharwad","state":"Karnataka","latitude":15.3647,"longitude":75.124,"temp":22.5,"humidity":91,"rain":0.0,"pressure":938.3,"uv_index":8.95,"wind_gusts":50.0,"aqi":23,"pm10":8.8,"pm2_5":5.5,"no2":6.3,"co":112.0,"o3":36.0,"so2":1.2,"mosquito_risk":3,"arthritis_risk":5,"migraine_risk":7,"frizz_risk":1,"updated_at":"2026-06-04T05:16:43.966675+05:30"},{"city":"Belgaum","state":"Karnataka","latitude":15.8497,"longitude":74.4977,"temp":21.5,"humidity":94,"rain":0.0,"pressure":922.8,"uv_index":8.95,"wind_gusts":37.8,"aqi":39,"pm10":21.7,"pm2_5":13.1,"no2":8.9,"co":107.0,"o3":31.0,"so2":1.5,"mosquito_risk":3,"arthritis_risk":5,"migraine_risk":7,"frizz_risk":1,"updated_at":"2026-06-04T05:16:47.348793+05:30"},{"city":"Coimbatore","state":"Tamil Nadu","latitude":11.0168,"longitude":76.9558,"temp":22.8,"humidity":94,"rain":0.0,"pressure":959.6,"uv_index":7.9,"wind_gusts":60.1,"aqi":22,"pm10":3.0,"pm2_5":2.5,"no2":4.6,"co":163.0,"o3":40.0,"so2":2.0,"mosquito_risk":3,"arthritis_risk":5,"migraine_risk":7,"frizz_risk":1,"updated_at":"2026-06-04T05:16:47.348829+05:30"},{"city":"Madurai","state":"Tamil Nadu","latitude":9.9252,"longitude":78.1198,"temp":27.0,"humidity":74,"rain":0.0,"pressure":990.8,"uv_index":7.95,"wind_gusts":56.2,"aqi":48,"pm10":15.4,"pm2_5":13.7,"no2":23.9,"co":188.0,"o3":10.0,"so2":4.6,"mosquito_risk":7,"arthritis_risk":5,"migraine_risk":7,"frizz_risk":1,"updated_at":"2026-06-04T05:16:47.348843+05:30"},{"city":"Trichy","state":"Tamil Nadu","latitude":10.7905,"longitude":78.7047,"temp":27.4,"humidity":73,"rain":0.0,"pressure":997.6,"uv_index":8.75,"wind_gusts":45.7,"aqi":46,"pm10":7.8,"pm2_5":6.0,"no2":6.7,"co":131.0,"o3":40.0,"so2":3.0,"mosquito_risk":7,"arthritis_risk":5,"migraine_risk":7,"frizz_risk":1,"updated_at":"2026-06-04T05:16:47.348855+05:30"},{"city":"Salem","state":"Tamil Nadu","latitude":11.6643,"longitude":78.146,"temp":24.3,"humidity":90,"rain":0.0,"pressure":975.4,"uv_index":8.05,"wind_gusts":38.2,"aqi":43,"pm10":15.9,"pm2_5":12.7,"no2":17.0,"co":237.0,"o3":30.0,"so2":7.0,"mosquito_risk":3,"arthritis_risk":5,"migraine_risk":7,"frizz_risk":1,"updated_at":"2026-06-04T05:16:47.348865+05:30"},{"city":"Tirunelveli","state":"Tamil Nadu","latitude":8.7139,"longitude":77.7567,"temp":27.5,"humidity":72,"rain":0.0,"pressure":1001.8,"uv_index":8.05,"wind_gusts":45.7,"aqi":18,"pm10":6.0,"pm2_5":4.7,"no2":6.6,"co":138.0,"o3":26.0,"so2":1.8,"mosquito_risk":7,"arthritis_risk":5,"migraine_risk":4,"frizz_risk":1,"updated_at":"2026-06-04T05:16:47.348875+05:30"},{"city":"Vellore","state":"Tamil Nadu","latitude":12.9165,"longitude":79.1325,"temp":27.0,"humidity":66,"rain":0.0,"pressure":981.3,"uv_index":8.9,"wind_gusts":61.2,"aqi":62,"pm10":10.0,"pm2_5":8.0,"no2":11.4,"co":175.0,"o3":41.0,"so2":4.5,"mosquito_risk":7,"arthritis_risk":5,"migraine_risk":7,"frizz_risk":1,"updated_at":"2026-06-04T05:16:47.348885+05:30"},{"city":"Erode","state":"Tamil Nadu","latitude":11.341,"longitude":77.7172,"temp":25.1,"humidity":82,"rain":0.0,"pressure":987.1,"uv_index":7.65,"wind_gusts":44.6,"aqi":31,"pm10":8.0,"pm2_5":6.8,"no2":11.3,"co":163.0,"o3":32.0,"so2":3.2,"mosquito_risk":7,"arthritis_risk":5,"migraine_risk":7,"frizz_risk":1,"updated_at":"2026-06-04T05:16:47.348895+05:30"},{"city":"Kochi","state":"Kerala","latitude":9.9312,"longitude":76.2673,"temp":25.8,"humidity":91,"rain":0.3,"pressure":1007.9,"uv_index":7.85,"wind_gusts":37.4,"aqi":43,"pm10":9.9,"pm2_5":7.8,"no2":10.0,"co":125.0,"o3":24.0,"so2":2.7,"mosquito_risk":10,"arthritis_risk":5,"migraine_risk":4,"frizz_risk":1,"updated_at":"2026-06-04T05:16:47.348904+05:30"},{"city":"Thiruvananthapuram","state":"Kerala","latitude":8.5241,"longitude":76.9366,"temp":23.9,"humidity":99,"rain":0.4,"pressure":1007.8,"uv_index":7.9,"wind_gusts":46.1,"aqi":28,"pm10":10.0,"pm2_5":5.5,"no2":1.7,"co":85.0,"o3":37.0,"so2":0.5,"mosquito_risk":6,"arthritis_risk":5,"migraine_risk":4,"frizz_risk":1,"updated_at":"2026-06-04T05:16:47.348912+05:30"},{"city":"Kozhikode","state":"Kerala","latitude":11.2588,"longitude":75.7804,"temp":24.6,"humidity":97,"rain":0.4,"pressure":1007.1,"uv_index":7.7,"wind_gusts":27.4,"aqi":28,"pm10":10.3,"pm2_5":4.6,"no2":0.5,"co":217.0,"o3":64.0,"so2":0.3,"mosquito_risk":6,"arthritis_risk":5,"migraine_risk":4,"frizz_risk":1,"updated_at":"2026-06-04T05:16:47.348921+05:30"},{"city":"Thrissur","state":"Kerala","latitude":10.5276,"longitude":76.2144,"temp":24.4,"humidity":98,"rain":0.5,"pressure":1006.1,"uv_index":3.45,"wind_gusts":30.2,"aqi":41,"pm10":10.3,"pm2_5":8.6,"no2":11.1,"co":153.0,"o3":23.0,"so2":3.1,"mosquito_risk":6,"arthritis_risk":5,"migraine_risk":0,"frizz_risk":1,"updated_at":"2026-06-04T05:16:47.348930+05:30"},{"city":"Kannur","state":"Kerala","latitude":11.8745,"longitude":75.3704,"temp":25.0,"humidity":97,"rain":0.3,"pressure":1005.9,"uv_index":8.45,"wind_gusts":31.3,"aqi":28,"pm10":9.5,"pm2_5":5.1,"no2":3.0,"co":137.0,"o3":48.0,"so2":1.0,"mosquito_risk":10,"arthritis_risk":5,"migraine_risk":4,"frizz_risk":1,"updated_at":"2026-06-04T05:16:47.348939+05:30"},{"city":"Patna","state":"Bihar","latitude":25.5941,"longitude":85.1376,"temp":28.4,"humidity":72,"rain":0.0,"pressure":995.1,"uv_index":8.75,"wind_gusts":24.5,"aqi":162,"pm10":109.9,"pm2_5":97.1,"no2":53.3,"co":713.0,"o3":9.0,"so2":18.0,"mosquito_risk":7,"arthritis_risk":5,"migraine_risk":7,"frizz_risk":1,"updated_at":"2026-06-04T05:16:47.348946+05:30"},{"city":"Gaya","state":"Bihar","latitude":24.7914,"longitude":85.0002,"temp":26.2,"humidity":85,"rain":0.1,"pressure":989.0,"uv_index":8.7,"wind_gusts":28.8,"aqi":151,"pm10":66.1,"pm2_5":55.8,"no2":21.0,"co":427.0,"o3":56.0,"so2":11.6,"mosquito_risk":10,"arthritis_risk":5,"migraine_risk":7,"frizz_risk":1,"updated_at":"2026-06-04T05:16:47.348953+05:30"},{"city":"Muzaffarpur","state":"Bihar","latitude":26.1209,"longitude":85.3647,"temp":27.5,"humidity":79,"rain":0.0,"pressure":994.7,"uv_index":8.85,"wind_gusts":18.4,"aqi":164,"pm10":136.4,"pm2_5":120.1,"no2":64.0,"co":972.0,"o3":0.0,"so2":18.4,"mosquito_risk":7,"arthritis_risk":5,"migraine_risk":7,"frizz_risk":1,"updated_at":"2026-06-04T05:16:47.348960+05:30"},{"city":"Bhagalpur","state":"Bihar","latitude":25.2425,"longitude":87.0117,"temp":28.6,"humidity":75,"rain":0.0,"pressure":995.6,"uv_index":8.7,"wind_gusts":20.5,"aqi":157,"pm10":69.6,"pm2_5":65.2,"no2":19.0,"co":741.0,"o3":77.0,"so2":37.0,"mosquito_risk":7,"arthritis_risk":5,"migraine_risk":7,"frizz_risk":1,"updated_at":"2026-06-04T05:16:47.348967+05:30"},{"city":"Ranchi","state":"Jharkhand","latitude":23.3441,"longitude":85.3096,"temp":24.4,"humidity":78,"rain":0.0,"pressure":933.2,"uv_index":9.25,"wind_gusts":26.6,"aqi":128,"pm10":54.6,"pm2_5":44.8,"no2":12.5,"co":374.0,"o3":95.0,"so2":13.2,"mosquito_risk":3,"arthritis_risk":5,"migraine_risk":7,"frizz_risk":1,"updated_at":"2026-06-04T05:16:47.348974+05:30"},{"city":"Jamshedpur","state":"Jharkhand","latitude":22.8046,"longitude":86.2029,"temp":26.6,"humidity":86,"rain":0.0,"pressure":986.1,"uv_index":9.1,"wind_gusts":23.0,"aqi":157,"pm10":81.0,"pm2_5":73.8,"no2":33.2,"co":360.0,"o3":46.0,"so2":32.5,"mosquito_risk":7,"arthritis_risk":5,"migraine_risk":7,"frizz_risk":1,"updated_at":"2026-06-04T05:16:47.348981+05:30"},{"city":"Dhanbad","state":"Jharkhand","latitude":23.7957,"longitude":86.4304,"temp":28.2,"humidity":71,"rain":0.0,"pressure":974.8,"uv_index":8.95,"wind_gusts":26.6,"aqi":167,"pm10":100.1,"pm2_5":92.2,"no2":60.1,"co":755.0,"o3":36.0,"so2":187.2,"mosquito_risk":7,"arthritis_risk":5,"migraine_risk":7,"frizz_risk":1,"updated_at":"2026-06-04T05:16:47.348988+05:30"},{"city":"Bokaro","state":"Jharkhand","latitude":23.6693,"longitude":86.1511,"temp":27.1,"humidity":75,"rain":0.0,"pressure":978.7,"uv_index":9.05,"wind_gusts":32.0,"aqi":159,"pm10":87.8,"pm2_5":78.7,"no2":48.0,"co":546.0,"o3":40.0,"so2":141.3,"mosquito_risk":7,"arthritis_risk":5,"migraine_risk":7,"frizz_risk":1,"updated_at":"2026-06-04T05:16:47.348994+05:30"},{"city":"Bhubaneswar","state":"Odisha","latitude":20.2961,"longitude":85.8245,"temp":28.4,"humidity":98,"rain":0.0,"pressure":997.3,"uv_index":9.05,"wind_gusts":32.4,"aqi":103,"pm10":36.6,"pm2_5":33.9,"no2":14.6,"co":405.0,"o3":65.0,"so2":8.3,"mosquito_risk":7,"arthritis_risk":5,"migraine_risk":7,"frizz_risk":1,"updated_at":"2026-06-04T05:16:47.349001+05:30"},{"city":"Cuttack","state":"Odisha","latitude":20.4625,"longitude":85.8828,"temp":28.4,"humidity":97,"rain":0.0,"pressure":999.2,"uv_index":9.15,"wind_gusts":28.1,"aqi":103,"pm10":36.6,"pm2_5":33.9,"no2":14.6,"co":478.0,"o3":65.0,"so2":8.3,"mosquito_risk":7,"arthritis_risk":5,"migraine_risk":7,"frizz_risk":1,"updated_at":"2026-06-04T05:16:47.349008+05:30"},{"city":"Rourkela","state":"Odisha","latitude":22.2604,"longitude":84.8536,"temp":27.1,"humidity":84,"rain":0.0,"pressure":980.5,"uv_index":9.0,"wind_gusts":32.0,"aqi":156,"pm10":119.7,"pm2_5":107.6,"no2":48.0,"co":365.0,"o3":26.0,"so2":17.0,"mosquito_risk":7,"arthritis_risk":5,"migraine_risk":7,"frizz_risk":1,"updated_at":"2026-06-04T05:16:47.349016+05:30"},{"city":"Raipur","state":"Chhattisgarh","latitude":21.2514,"longitude":81.6296,"temp":30.3,"humidity":49,"rain":0.0,"pressure":969.9,"uv_index":8.85,"wind_gusts":34.9,"aqi":125,"pm10":51.7,"pm2_5":44.0,"no2":43.0,"co":499.0,"o3":38.0,"so2":59.4,"mosquito_risk":0,"arthritis_risk":5,"migraine_risk":7,"frizz_risk":1,"updated_at":"2026-06-04T05:16:47.349022+05:30"},{"city":"Bhilai","state":"Chhattisgarh","latitude":21.1938,"longitude":81.3509,"temp":29.0,"humidity":53,"rain":0.0,"pressure":970.4,"uv_index":8.6,"wind_gusts":38.2,"aqi":122,"pm10":46.3,"pm2_5":38.5,"no2":34.1,"co":642.0,"o3":43.0,"so2":47.0,"mosquito_risk":4,"arthritis_risk":5,"migraine_risk":7,"frizz_risk":1,"updated_at":"2026-06-04T05:16:47.349029+05:30"},{"city":"Guwahati","state":"Assam","latitude":26.1158,"longitude":91.7086,"temp":24.0,"humidity":95,"rain":0.0,"pressure":998.3,"uv_index":8.8,"wind_gusts":34.9,"aqi":122,"pm10":37.1,"pm2_5":33.8,"no2":6.6,"co":397.0,"o3":81.0,"so2":4.0,"mosquito_risk":3,"arthritis_risk":5,"migraine_risk":7,"frizz_risk":1,"updated_at":"2026-06-04T05:16:47.349035+05:30"},{"city":"Agartala","state":"Tripura","latitude":23.8315,"longitude":91.2868,"temp":27.5,"humidity":92,"rain":0.0,"pressure":1002.1,"uv_index":8.85,"wind_gusts":23.0,"aqi":95,"pm10":40.4,"pm2_5":37.3,"no2":23.0,"co":281.0,"o3":23.0,"so2":3.1,"mosquito_risk":7,"arthritis_risk":5,"migraine_risk":4,"frizz_risk":1,"updated_at":"2026-06-04T05:16:47.349042+05:30"},{"city":"Shillong","state":"Meghalaya","latitude":25.5788,"longitude":91.8933,"temp":19.4,"humidity":90,"rain":0.0,"pressure":854.5,"uv_index":7.9,"wind_gusts":26.3,"aqi":85,"pm10":23.7,"pm2_5":20.4,"no2":4.2,"co":305.0,"o3":99.0,"so2":5.7,"mosquito_risk":3,"arthritis_risk":10,"migraine_risk":7,"frizz_risk":1,"updated_at":"2026-06-04T05:16:47.349048+05:30"},{"city":"Imphal","state":"Manipur","latitude":24.817,"longitude":93.9368,"temp":22.1,"humidity":95,"rain":0.0,"pressure":920.4,"uv_index":9.25,"wind_gusts":27.4,"aqi":95,"pm10":53.1,"pm2_5":45.8,"no2":12.0,"co":414.0,"o3":33.0,"so2":2.3,"mosquito_risk":3,"arthritis_risk":5,"migraine_risk":7,"frizz_risk":1,"updated_at":"2026-06-04T05:16:47.349055+05:30"},{"city":"Aizawl","state":"Mizoram","latitude":23.7271,"longitude":92.7176,"temp":19.6,"humidity":95,"rain":0.0,"pressure":889.4,"uv_index":9.05,"wind_gusts":28.1,"aqi":78,"pm10":39.7,"pm2_5":30.3,"no2":8.0,"co":254.0,"o3":48.0,"so2":3.3,"mosquito_risk":3,"arthritis_risk":10,"migraine_risk":7,"frizz_risk":1,"updated_at":"2026-06-04T05:16:47.349062+05:30"},{"city":"Kohima","state":"Nagaland","latitude":25.6701,"longitude":94.1077,"temp":18.6,"humidity":84,"rain":0.0,"pressure":852.2,"uv_index":8.75,"wind_gusts":32.4,"aqi":85,"pm10":27.6,"pm2_5":21.8,"no2":5.2,"co":288.0,"o3":46.0,"so2":1.1,"mosquito_risk":3,"arthritis_risk":10,"migraine_risk":7,"frizz_risk":0,"updated_at":"2026-06-04T05:16:47.349069+05:30"},{"city":"Gangtok","state":"Sikkim","latitude":27.3314,"longitude":88.6138,"temp":16.0,"humidity":93,"rain":0.1,"pressure":834.1,"uv_index":9.2,"wind_gusts":37.8,"aqi":85,"pm10":47.4,"pm2_5":37.8,"no2":11.9,"co":501.0,"o3":104.0,"so2":2.6,"mosquito_risk":6,"arthritis_risk":10,"migraine_risk":7,"frizz_risk":0,"updated_at":"2026-06-04T05:16:47.349076+05:30"},{"city":"Siliguri","state":"West Bengal","latitude":26.7271,"longitude":88.3953,"temp":25.4,"humidity":88,"rain":0.0,"pressure":988.5,"uv_index":8.8,"wind_gusts":21.6,"aqi":151,"pm10":105.7,"pm2_5":82.2,"no2":15.4,"co":539.0,"o3":95.0,"so2":6.5,"mosquito_risk":7,"arthritis_risk":5,"migraine_risk":7,"frizz_risk":1,"updated_at":"2026-06-04T05:16:50.711216+05:30"},{"city":"Durgapur","state":"West Bengal","latitude":23.5204,"longitude":87.3119,"temp":27.8,"humidity":91,"rain":0.0,"pressure":989.9,"uv_index":9.0,"wind_gusts":28.1,"aqi":171,"pm10":117.1,"pm2_5":112.7,"no2":50.3,"co":1019.0,"o3":31.0,"so2":73.8,"mosquito_risk":7,"arthritis_risk":5,"migraine_risk":7,"frizz_risk":1,"updated_at":"2026-06-04T05:16:50.711252+05:30"},{"city":"Asansol","state":"West Bengal","latitude":23.6739,"longitude":86.9524,"temp":27.4,"humidity":84,"rain":0.0,"pressure":988.4,"uv_index":8.85,"wind_gusts":24.5,"aqi":165,"pm10":95.5,"pm2_5":89.6,"no2":48.7,"co":708.0,"o3":39.0,"so2":82.1,"mosquito_risk":7,"arthritis_risk":5,"migraine_risk":7,"frizz_risk":1,"updated_at":"2026-06-04T05:16:50.711266+05:30"},{"city":"Pondicherry","state":"Puducherry","latitude":11.9139,"longitude":79.8145,"temp":27.9,"humidity":75,"rain":0.0,"pressure":1005.1,"uv_index":8.3,"wind_gusts":32.8,"aqi":58,"pm10":14.5,"pm2_5":12.2,"no2":18.7,"co":402.0,"o3":33.0,"so2":9.0,"mosquito_risk":7,"arthritis_risk":5,"migraine_risk":4,"frizz_risk":1,"updated_at":"2026-06-04T05:16:50.711276+05:30"},{"city":"Port Blair","state":"Andaman and Nicobar Islands","latitude":11.6234,"longitude":92.7265,"temp":24.9,"humidity":97,"rain":0.4,"pressure":1005.2,"uv_index":1.45,"wind_gusts":43.9,"aqi":30,"pm10":14.4,"pm2_5":8.6,"no2":0.3,"co":116.0,"o3":68.0,"so2":0.6,"mosquito_risk":6,"arthritis_risk":5,"migraine_risk":0,"frizz_risk":1,"updated_at":"2026-06-04T05:16:50.711285+05:30"},{"city":"Haridwar","state":"Uttarakhand","latitude":29.9457,"longitude":78.1642,"temp":25.2,"humidity":75,"rain":0.0,"pressure":968.6,"uv_index":7.6,"wind_gusts":42.5,"aqi":85,"pm10":24.4,"pm2_5":23.6,"no2":29.8,"co":287.0,"o3":40.0,"so2":4.6,"mosquito_risk":7,"arthritis_risk":5,"migraine_risk":7,"frizz_risk":1,"updated_at":"2026-06-04T05:16:50.711292+05:30"},{"city":"Rishikesh","state":"Uttarakhand","latitude":30.0869,"longitude":78.2676,"temp":22.3,"humidity":84,"rain":0.0,"pressure":961.1,"uv_index":7.7,"wind_gusts":34.2,"aqi":58,"pm10":6.8,"pm2_5":6.7,"no2":11.0,"co":353.0,"o3":89.0,"so2":2.2,"mosquito_risk":3,"arthritis_risk":5,"migraine_risk":7,"frizz_risk":1,"updated_at":"2026-06-04T05:16:50.711299+05:30"},{"city":"Nainital","state":"Uttarakhand","latitude":29.3919,"longitude":79.4542,"temp":12.9,"humidity":91,"rain":0.0,"pressure":800.9,"uv_index":6.95,"wind_gusts":27.7,"aqi":92,"pm10":35.4,"pm2_5":26.3,"no2":23.4,"co":306.0,"o3":53.0,"so2":2.4,"mosquito_risk":3,"arthritis_risk":10,"migraine_risk":7,"frizz_risk":0,"updated_at":"2026-06-04T05:16:50.711306+05:30"},{"city":"Mussoorie","state":"Uttarakhand","latitude":30.4599,"longitude":78.0664,"temp":13.9,"humidity":85,"rain":0.0,"pressure":798.8,"uv_index":6.45,"wind_gusts":32.0,"aqi":67,"pm10":20.8,"pm2_5":20.8,"no2":41.4,"co":284.0,"o3":25.0,"so2":3.8,"mosquito_risk":3,"arthritis_risk":10,"migraine_risk":7,"frizz_risk":0,"updated_at":"2026-06-04T05:16:50.711314+05:30"},{"city":"Dharamshala","state":"Himachal Pradesh","latitude":32.219,"longitude":76.3234,"temp":20.5,"humidity":71,"rain":0.0,"pressure":865.1,"uv_index":7.8,"wind_gusts":40.0,"aqi":51,"pm10":12.8,"pm2_5":7.6,"no2":10.4,"co":282.0,"o3":79.0,"so2":0.0,"mosquito_risk":3,"arthritis_risk":5,"migraine_risk":7,"frizz_risk":0,"updated_at":"2026-06-04T05:16:50.711321+05:30"},{"city":"Dalhousie","state":"Himachal Pradesh","latitude":32.5387,"longitude":75.971,"temp":13.1,"humidity":91,"rain":0.0,"pressure":799.4,"uv_index":6.8,"wind_gusts":46.8,"aqi":76,"pm10":20.4,"pm2_5":13.6,"no2":20.8,"co":292.0,"o3":43.0,"so2":0.9,"mosquito_risk":3,"arthritis_risk":10,"migraine_risk":7,"frizz_risk":0,"updated_at":"2026-06-04T05:16:50.711329+05:30"},{"city":"Patiala","state":"Punjab","latitude":30.3398,"longitude":76.3869,"temp":26.5,"humidity":69,"rain":0.0,"pressure":972.2,"uv_index":7.7,"wind_gusts":68.0,"aqi":142,"pm10":92.2,"pm2_5":61.0,"no2":21.2,"co":710.0,"o3":60.0,"so2":13.4,"mosquito_risk":7,"arthritis_risk":5,"migraine_risk":7,"frizz_risk":1,"updated_at":"2026-06-04T05:16:50.711336+05:30"},{"city":"Bhatinda","state":"Punjab","latitude":30.211,"longitude":74.9455,"temp":28.9,"humidity":53,"rain":0.0,"pressure":977.0,"uv_index":8.35,"wind_gusts":67.3,"aqi":153,"pm10":91.0,"pm2_5":65.0,"no2":36.1,"co":407.0,"o3":58.0,"so2":10.5,"mosquito_risk":4,"arthritis_risk":5,"migraine_risk":7,"frizz_risk":1,"updated_at":"2026-06-04T05:16:50.711342+05:30"},{"city":"Rohtak","state":"Haryana","latitude":28.8955,"longitude":76.6066,"temp":27.6,"humidity":68,"rain":0.0,"pressure":975.6,"uv_index":7.8,"wind_gusts":57.6,"aqi":156,"pm10":143.9,"pm2_5":72.2,"no2":42.1,"co":658.0,"o3":40.0,"so2":26.9,"mosquito_risk":7,"arthritis_risk":5,"migraine_risk":7,"frizz_risk":1,"updated_at":"2026-06-04T05:16:50.711349+05:30"},{"city":"Panipat","state":"Haryana","latitude":29.3909,"longitude":76.9635,"temp":27.2,"humidity":71,"rain":0.0,"pressure":974.3,"uv_index":7.7,"wind_gusts":47.5,"aqi":186,"pm10":240.3,"pm2_5":106.4,"no2":70.6,"co":622.0,"o3":10.0,"so2":22.7,"mosquito_risk":7,"arthritis_risk":5,"migraine_risk":7,"frizz_risk":1,"updated_at":"2026-06-04T05:16:50.711356+05:30"},{"city":"Mathura","state":"Uttar Pradesh","latitude":27.4924,"longitude":77.6737,"temp":27.1,"humidity":69,"rain":0.0,"pressure":980.6,"uv_index":8.1,"wind_gusts":75.6,"aqi":150,"pm10":246.8,"pm2_5":73.8,"no2":22.6,"co":513.0,"o3":53.0,"so2":9.4,"mosquito_risk":7,"arthritis_risk":5,"migraine_risk":7,"frizz_risk":1,"updated_at":"2026-06-04T05:16:50.711363+05:30"},{"city":"Vrindavan","state":"Uttar Pradesh","latitude":27.5823,"longitude":77.7027,"temp":27.2,"humidity":68,"rain":0.0,"pressure":981.0,"uv_index":8.05,"wind_gusts":71.3,"aqi":150,"pm10":246.8,"pm2_5":73.8,"no2":22.6,"co":499.0,"o3":53.0,"so2":9.4,"mosquito_risk":7,"arthritis_risk":5,"migraine_risk":7,"frizz_risk":1,"updated_at":"2026-06-04T05:16:50.711369+05:30"},{"city":"Ayodhya","state":"Uttar Pradesh","latitude":26.7922,"longitude":82.1998,"temp":26.9,"humidity":79,"rain":0.0,"pressure":989.4,"uv_index":8.05,"wind_gusts":19.1,"aqi":141,"pm10":126.2,"pm2_5":105.2,"no2":73.7,"co":947.0,"o3":0.0,"so2":17.3,"mosquito_risk":7,"arthritis_risk":5,"migraine_risk":7,"frizz_risk":1,"updated_at":"2026-06-04T05:16:50.711376+05:30"},{"city":"Ratlam","state":"Madhya Pradesh","latitude":23.3315,"longitude":75.0367,"temp":25.9,"humidity":83,"rain":0.0,"pressure":950.3,"uv_index":8.5,"wind_gusts":45.7,"aqi":85,"pm10":47.6,"pm2_5":31.0,"no2":8.6,"co":195.0,"o3":55.0,"so2":15.8,"mosquito_risk":7,"arthritis_risk":5,"migraine_risk":7,"frizz_risk":1,"updated_at":"2026-06-04T05:16:50.711382+05:30"},{"city":"Sagar","state":"Madhya Pradesh","latitude":23.8388,"longitude":78.7378,"temp":27.2,"humidity":60,"rain":0.0,"pressure":945.4,"uv_index":8.35,"wind_gusts":63.7,"aqi":73,"pm10":49.6,"pm2_5":25.9,"no2":14.5,"co":223.0,"o3":48.0,"so2":3.2,"mosquito_risk":4,"arthritis_risk":5,"migraine_risk":7,"frizz_risk":1,"updated_at":"2026-06-04T05:16:50.711389+05:30"},{"city":"Satna","state":"Madhya Pradesh","latitude":24.6005,"longitude":80.8322,"temp":27.0,"humidity":65,"rain":0.0,"pressure":966.0,"uv_index":6.8,"wind_gusts":26.6,"aqi":86,"pm10":42.7,"pm2_5":30.3,"no2":26.5,"co":289.0,"o3":28.0,"so2":5.2,"mosquito_risk":7,"arthritis_risk":5,"migraine_risk":7,"frizz_risk":1,"updated_at":"2026-06-04T05:16:50.711396+05:30"},{"city":"Akola","state":"Maharashtra","latitude":20.7002,"longitude":77.0082,"temp":29.8,"humidity":67,"rain":0.0,"pressure":971.2,"uv_index":6.65,"wind_gusts":38.5,"aqi":65,"pm10":27.8,"pm2_5":19.8,"no2":10.3,"co":174.0,"o3":65.0,"so2":10.1,"mosquito_risk":7,"arthritis_risk":5,"migraine_risk":7,"frizz_risk":1,"updated_at":"2026-06-04T05:16:50.711403+05:30"},{"city":"Amravati","state":"Maharashtra","latitude":20.9374,"longitude":77.7796,"temp":30.7,"humidity":45,"rain":0.0,"pressure":963.1,"uv_index":8.45,"wind_gusts":37.8,"aqi":66,"pm10":32.0,"pm2_5":21.7,"no2":16.6,"co":181.0,"o3":52.0,"so2":7.1,"mosquito_risk":0,"arthritis_risk":5,"migraine_risk":7,"frizz_risk":1,"updated_at":"2026-06-04T05:16:50.711411+05:30"},{"city":"Latur","state":"Maharashtra","latitude":18.4088,"longitude":76.5604,"temp":27.0,"humidity":65,"rain":0.0,"pressure":936.8,"uv_index":8.8,"wind_gusts":35.6,"aqi":66,"pm10":20.7,"pm2_5":13.5,"no2":6.2,"co":174.0,"o3":55.0,"so2":3.7,"mosquito_risk":7,"arthritis_risk":5,"migraine_risk":7,"frizz_risk":1,"updated_at":"2026-06-04T05:16:50.711418+05:30"},{"city":"Nanded","state":"Maharashtra","latitude":19.1383,"longitude":77.3091,"temp":30.1,"humidity":55,"rain":0.0,"pressure":965.0,"uv_index":6.25,"wind_gusts":36.7,"aqi":71,"pm10":38.1,"pm2_5":25.6,"no2":8.8,"co":173.0,"o3":75.0,"so2":7.7,"mosquito_risk":0,"arthritis_risk":5,"migraine_risk":7,"frizz_risk":1,"updated_at":"2026-06-04T05:16:50.711424+05:30"},{"city":"Gulbarga","state":"Karnataka","latitude":17.3297,"longitude":76.8343,"temp":26.4,"humidity":73,"rain":0.0,"pressure":955.6,"uv_index":9.0,"wind_gusts":32.0,"aqi":65,"pm10":22.7,"pm2_5":15.5,"no2":8.8,"co":196.0,"o3":51.0,"so2":3.4,"mosquito_risk":7,"arthritis_risk":5,"migraine_risk":7,"frizz_risk":1,"updated_at":"2026-06-04T05:16:50.711431+05:30"},{"city":"Bidar","state":"Karnataka","latitude":17.9104,"longitude":77.5199,"temp":25.9,"humidity":71,"rain":0.0,"pressure":932.5,"uv_index":9.05,"wind_gusts":36.4,"aqi":70,"pm10":27.5,"pm2_5":18.4,"no2":10.4,"co":208.0,"o3":59.0,"so2":2.8,"mosquito_risk":7,"arthritis_risk":5,"migraine_risk":7,"frizz_risk":1,"updated_at":"2026-06-04T05:16:50.711437+05:30"},{"city":"Hospet","state":"Karnataka","latitude":15.2689,"longitude":76.3909,"temp":23.4,"humidity":90,"rain":0.0,"pressure":953.3,"uv_index":8.95,"wind_gusts":41.8,"aqi":30,"pm10":8.1,"pm2_5":5.8,"no2":8.2,"co":148.0,"o3":35.0,"so2":1.7,"mosquito_risk":3,"arthritis_risk":5,"migraine_risk":7,"frizz_risk":1,"updated_at":"2026-06-04T05:16:50.711444+05:30"},{"city":"Tirupur","state":"Tamil Nadu","latitude":11.1085,"longitude":77.3411,"temp":24.3,"humidity":86,"rain":0.0,"pressure":973.1,"uv_index":7.85,"wind_gusts":53.6,"aqi":33,"pm10":9.8,"pm2_5":8.2,"no2":13.7,"co":146.0,"o3":29.0,"so2":4.0,"mosquito_risk":3,"arthritis_risk":5,"migraine_risk":7,"frizz_risk":1,"updated_at":"2026-06-04T05:16:50.711451+05:30"},{"city":"Alappuzha","state":"Kerala","latitude":9.4981,"longitude":76.3388,"temp":26.0,"humidity":91,"rain":0.2,"pressure":1008.0,"uv_index":7.3,"wind_gusts":40.3,"aqi":33,"pm10":9.2,"pm2_5":5.5,"no2":4.0,"co":89.0,"o3":37.0,"so2":1.3,"mosquito_risk":10,"arthritis_risk":0,"migraine_risk":4,"frizz_risk":1,"updated_at":"2026-06-04T05:16:50.711458+05:30"},{"city":"Munnar","state":"Kerala","latitude":10.0889,"longitude":77.0595,"temp":17.0,"humidity":100,"rain":0.2,"pressure":855.1,"uv_index":8.2,"wind_gusts":42.1,"aqi":20,"pm10":1.6,"pm2_5":1.4,"no2":3.8,"co":96.0,"o3":32.0,"so2":1.2,"mosquito_risk":6,"arthritis_risk":10,"migraine_risk":7,"frizz_risk":1,"updated_at":"2026-06-04T05:16:50.711465+05:30"},{"city":"Silchar","state":"Assam","latitude":24.8333,"longitude":92.7789,"temp":25.5,"humidity":97,"rain":0.0,"pressure":1002.1,"uv_index":8.95,"wind_gusts":25.9,"aqi":114,"pm10":64.5,"pm2_5":53.7,"no2":14.1,"co":289.0,"o3":94.0,"so2":7.4,"mosquito_risk":7,"arthritis_risk":5,"migraine_risk":4,"frizz_risk":1,"updated_at":"2026-06-04T05:16:50.711473+05:30"},{"city":"Dibrugarh","state":"Assam","latitude":27.4728,"longitude":94.912,"temp":23.7,"humidity":96,"rain":0.2,"pressure":992.4,"uv_index":8.8,"wind_gusts":27.4,"aqi":83,"pm10":22.3,"pm2_5":19.2,"no2":7.1,"co":293.0,"o3":91.0,"so2":1.6,"mosquito_risk":6,"arthritis_risk":5,"migraine_risk":7,"frizz_risk":1,"updated_at":"2026-06-04T05:16:50.711479+05:30"}]