[{"city":"Delhi","state":"Delhi","latitude":28.6139,"longitude":77.209,"temp":33.0,"humidity":37,"rain":0.0,"pressure":980.5,"uv_index":7.45,"wind_gusts":27.4,"aqi":164,"pm10":155.1,"pm2_5":61.9,"no2":34.6,"co":423.0,"o3":112.0,"so2":25.5,"mosquito_risk":0,"arthritis_risk":5,"migraine_risk":7,"frizz_risk":1,"updated_at":"2026-06-02T20:25:38.934276+05:30"},{"city":"Mumbai","state":"Maharashtra","latitude":19.076,"longitude":72.8777,"temp":30.4,"humidity":68,"rain":0.0,"pressure":1006.8,"uv_index":7.7,"wind_gusts":44.3,"aqi":68,"pm10":29.1,"pm2_5":14.2,"no2":9.0,"co":193.0,"o3":49.0,"so2":5.1,"mosquito_risk":3,"arthritis_risk":5,"migraine_risk":4,"frizz_risk":1,"updated_at":"2026-06-02T20:25:38.934321+05:30"},{"city":"Bangalore","state":"Karnataka","latitude":12.9716,"longitude":77.5946,"temp":21.8,"humidity":96,"rain":0.3,"pressure":912.2,"uv_index":9.2,"wind_gusts":27.7,"aqi":112,"pm10":22.1,"pm2_5":19.4,"no2":32.9,"co":1175.0,"o3":85.0,"so2":6.7,"mosquito_risk":6,"arthritis_risk":5,"migraine_risk":7,"frizz_risk":1,"updated_at":"2026-06-02T20:25:38.934338+05:30"},{"city":"Hyderabad","state":"Telangana","latitude":17.385,"longitude":78.4867,"temp":32.6,"humidity":41,"rain":0.0,"pressure":951.9,"uv_index":9.1,"wind_gusts":29.5,"aqi":117,"pm10":79.2,"pm2_5":46.3,"no2":38.3,"co":425.0,"o3":74.0,"so2":9.3,"mosquito_risk":0,"arthritis_risk":5,"migraine_risk":7,"frizz_risk":1,"updated_at":"2026-06-02T20:25:38.934348+05:30"},{"city":"Chennai","state":"Tamil Nadu","latitude":13.0827,"longitude":80.2707,"temp":30.7,"humidity":77,"rain":0.0,"pressure":1005.8,"uv_index":8.95,"wind_gusts":37.1,"aqi":110,"pm10":23.1,"pm2_5":17.1,"no2":7.5,"co":220.0,"o3":94.0,"so2":6.6,"mosquito_risk":3,"arthritis_risk":5,"migraine_risk":4,"frizz_risk":1,"updated_at":"2026-06-02T20:25:38.934356+05:30"},{"city":"Kolkata","state":"West Bengal","latitude":22.5726,"longitude":88.3639,"temp":31.5,"humidity":69,"rain":0.0,"pressure":1003.2,"uv_index":8.4,"wind_gusts":28.4,"aqi":120,"pm10":48.7,"pm2_5":45.5,"no2":16.7,"co":561.0,"o3":84.0,"so2":11.9,"mosquito_risk":3,"arthritis_risk":5,"migraine_risk":4,"frizz_risk":1,"updated_at":"2026-06-02T20:25:38.934365+05:30"},{"city":"Pune","state":"Maharashtra","latitude":18.5204,"longitude":73.8567,"temp":27.2,"humidity":64,"rain":0.0,"pressure":947.4,"uv_index":8.3,"wind_gusts":52.6,"aqi":52,"pm10":41.0,"pm2_5":17.7,"no2":6.0,"co":152.0,"o3":74.0,"so2":5.9,"mosquito_risk":7,"arthritis_risk":5,"migraine_risk":7,"frizz_risk":1,"updated_at":"2026-06-02T20:25:38.934371+05:30"},{"city":"Ahmedabad","state":"Gujarat","latitude":23.0225,"longitude":72.5714,"temp":34.8,"humidity":45,"rain":0.0,"pressure":998.3,"uv_index":8.05,"wind_gusts":31.0,"aqi":88,"pm10":63.3,"pm2_5":31.8,"no2":25.0,"co":184.0,"o3":56.0,"so2":8.0,"mosquito_risk":0,"arthritis_risk":5,"migraine_risk":7,"frizz_risk":1,"updated_at":"2026-06-02T20:25:38.934378+05:30"},{"city":"Jaipur","state":"Rajasthan","latitude":26.9124,"longitude":75.7873,"temp":31.0,"humidity":47,"rain":0.0,"pressure":957.0,"uv_index":8.2,"wind_gusts":30.6,"aqi":102,"pm10":163.9,"pm2_5":55.8,"no2":24.7,"co":328.0,"o3":86.0,"so2":12.2,"mosquito_risk":0,"arthritis_risk":5,"migraine_risk":7,"frizz_risk":1,"updated_at":"2026-06-02T20:25:38.934388+05:30"},{"city":"Lucknow","state":"Uttar Pradesh","latitude":26.8467,"longitude":80.9462,"temp":31.8,"humidity":58,"rain":0.0,"pressure":990.4,"uv_index":8.25,"wind_gusts":23.0,"aqi":154,"pm10":93.4,"pm2_5":66.1,"no2":30.3,"co":398.0,"o3":93.0,"so2":13.6,"mosquito_risk":0,"arthritis_risk":5,"migraine_risk":7,"frizz_risk":1,"updated_at":"2026-06-02T20:25:38.934395+05:30"},{"city":"Kanpur","state":"Uttar Pradesh","latitude":26.4499,"longitude":80.3319,"temp":31.0,"humidity":55,"rain":0.0,"pressure":988.5,"uv_index":7.6,"wind_gusts":39.2,"aqi":152,"pm10":101.0,"pm2_5":60.8,"no2":28.6,"co":307.0,"o3":101.0,"so2":12.8,"mosquito_risk":0,"arthritis_risk":5,"migraine_risk":7,"frizz_risk":1,"updated_at":"2026-06-02T20:25:38.934402+05:30"},{"city":"Chandigarh","state":"Chandigarh","latitude":30.7333,"longitude":76.7794,"temp":29.2,"humidity":56,"rain":0.0,"pressure":966.6,"uv_index":7.85,"wind_gusts":25.2,"aqi":183,"pm10":49.2,"pm2_5":39.2,"no2":25.5,"co":1280.0,"o3":137.0,"so2":17.7,"mosquito_risk":4,"arthritis_risk":5,"migraine_risk":7,"frizz_risk":1,"updated_at":"2026-06-02T20:25:38.934409+05:30"},{"city":"Srinagar","state":"Jammu and Kashmir","latitude":34.0837,"longitude":74.7973,"temp":21.2,"humidity":59,"rain":0.0,"pressure":842.2,"uv_index":9.1,"wind_gusts":41.0,"aqi":119,"pm10":43.9,"pm2_5":27.9,"no2":23.6,"co":541.0,"o3":80.0,"so2":3.6,"mosquito_risk":0,"arthritis_risk":5,"migraine_risk":7,"frizz_risk":0,"updated_at":"2026-06-02T20:25:38.934417+05:30"},{"city":"Jammu","state":"Jammu and Kashmir","latitude":32.7266,"longitude":74.857,"temp":30.0,"humidity":51,"rain":0.0,"pressure":970.1,"uv_index":8.65,"wind_gusts":31.0,"aqi":136,"pm10":92.4,"pm2_5":46.2,"no2":21.7,"co":666.0,"o3":130.0,"so2":5.8,"mosquito_risk":4,"arthritis_risk":5,"migraine_risk":7,"frizz_risk":1,"updated_at":"2026-06-02T20:25:38.934426+05:30"},{"city":"Amritsar","state":"Punjab","latitude":31.634,"longitude":74.8723,"temp":32.0,"humidity":44,"rain":0.0,"pressure":977.9,"uv_index":8.45,"wind_gusts":23.4,"aqi":145,"pm10":113.2,"pm2_5":49.4,"no2":29.0,"co":549.0,"o3":112.0,"so2":9.3,"mosquito_risk":0,"arthritis_risk":5,"migraine_risk":7,"frizz_risk":1,"updated_at":"2026-06-02T20:25:38.934433+05:30"},{"city":"Ludhiana","state":"Punjab","latitude":30.901,"longitude":75.8573,"temp":32.8,"humidity":36,"rain":0.0,"pressure":976.3,"uv_index":8.05,"wind_gusts":28.8,"aqi":159,"pm10":45.9,"pm2_5":35.7,"no2":19.5,"co":891.0,"o3":118.0,"so2":9.4,"mosquito_risk":0,"arthritis_risk":5,"migraine_risk":7,"frizz_risk":0,"updated_at":"2026-06-02T20:25:38.934439+05:30"},{"city":"Jalandhar","state":"Punjab","latitude":31.326,"longitude":75.5762,"temp":33.2,"humidity":35,"rain":0.0,"pressure":977.1,"uv_index":8.25,"wind_gusts":22.7,"aqi":158,"pm10":71.0,"pm2_5":37.4,"no2":18.3,"co":558.0,"o3":111.0,"so2":7.2,"mosquito_risk":0,"arthritis_risk":5,"migraine_risk":7,"frizz_risk":0,"updated_at":"2026-06-02T20:25:38.934446+05:30"},{"city":"Dehradun","state":"Uttarakhand","latitude":30.6284,"longitude":78.0322,"temp":16.2,"humidity":90,"rain":0.0,"pressure":829.1,"uv_index":8.25,"wind_gusts":31.0,"aqi":99,"pm10":22.5,"pm2_5":15.8,"no2":15.6,"co":233.0,"o3":105.0,"so2":1.2,"mosquito_risk":3,"arthritis_risk":10,"migraine_risk":7,"frizz_risk":0,"updated_at":"2026-06-02T20:25:38.934452+05:30"},{"city":"Shimla","state":"Himachal Pradesh","latitude":31.1048,"longitude":77.1734,"temp":15.5,"humidity":70,"rain":0.0,"pressure":784.3,"uv_index":8.35,"wind_gusts":32.8,"aqi":130,"pm10":33.4,"pm2_5":22.2,"no2":17.1,"co":376.0,"o3":112.0,"so2":5.9,"mosquito_risk":3,"arthritis_risk":5,"migraine_risk":7,"frizz_risk":0,"updated_at":"2026-06-02T20:25:38.934460+05:30"},{"city":"Manali","state":"Himachal Pradesh","latitude":32.2396,"longitude":77.1887,"temp":16.3,"humidity":80,"rain":0.0,"pressure":819.0,"uv_index":9.65,"wind_gusts":38.2,"aqi":86,"pm10":16.2,"pm2_5":8.4,"no2":39.2,"co":254.0,"o3":96.0,"so2":0.4,"mosquito_risk":3,"arthritis_risk":5,"migraine_risk":7,"frizz_risk":0,"updated_at":"2026-06-02T20:25:38.934469+05:30"},{"city":"Gurgaon","state":"Haryana","latitude":28.4595,"longitude":77.0266,"temp":31.0,"humidity":43,"rain":0.0,"pressure":978.6,"uv_index":7.45,"wind_gusts":29.9,"aqi":230,"pm10":230.5,"pm2_5":71.9,"no2":45.8,"co":773.0,"o3":88.0,"so2":19.2,"mosquito_risk":0,"arthritis_risk":5,"migraine_risk":7,"frizz_risk":1,"updated_at":"2026-06-02T20:25:38.934476+05:30"},{"city":"Noida","state":"Uttar Pradesh","latitude":28.5355,"longitude":77.391,"temp":31.2,"humidity":45,"rain":0.0,"pressure":982.0,"uv_index":7.8,"wind_gusts":27.0,"aqi":230,"pm10":230.5,"pm2_5":71.9,"no2":45.8,"co":633.0,"o3":88.0,"so2":19.2,"mosquito_risk":0,"arthritis_risk":5,"migraine_risk":7,"frizz_risk":1,"updated_at":"2026-06-02T20:25:38.934482+05:30"},{"city":"Ghaziabad","state":"Uttar Pradesh","latitude":28.6692,"longitude":77.4538,"temp":29.4,"humidity":58,"rain":0.0,"pressure":980.2,"uv_index":7.7,"wind_gusts":28.8,"aqi":134,"pm10":87.5,"pm2_5":49.5,"no2":21.4,"co":419.0,"o3":92.0,"so2":10.4,"mosquito_risk":4,"arthritis_risk":5,"migraine_risk":7,"frizz_risk":1,"updated_at":"2026-06-02T20:25:38.934488+05:30"},{"city":"Faridabad","state":"Haryana","latitude":28.4089,"longitude":77.3178,"temp":32.0,"humidity":40,"rain":0.0,"pressure":981.1,"uv_index":7.8,"wind_gusts":34.2,"aqi":230,"pm10":230.5,"pm2_5":71.9,"no2":45.8,"co":619.0,"o3":88.0,"so2":19.2,"mosquito_risk":0,"arthritis_risk":5,"migraine_risk":7,"frizz_risk":1,"updated_at":"2026-06-02T20:25:38.934495+05:30"},{"city":"Meerut","state":"Uttar Pradesh","latitude":28.9845,"longitude":77.7064,"temp":29.5,"humidity":64,"rain":0.0,"pressure":979.1,"uv_index":7.15,"wind_gusts":29.2,"aqi":134,"pm10":87.5,"pm2_5":49.5,"no2":21.4,"co":444.0,"o3":92.0,"so2":10.4,"mosquito_risk":7,"arthritis_risk":5,"migraine_risk":7,"frizz_risk":1,"updated_at":"2026-06-02T20:25:38.934501+05:30"},{"city":"Agra","state":"Uttar Pradesh","latitude":27.1767,"longitude":78.0081,"temp":30.5,"humidity":54,"rain":0.0,"pressure":984.9,"uv_index":8.1,"wind_gusts":28.8,"aqi":178,"pm10":123.4,"pm2_5":51.6,"no2":19.7,"co":388.0,"o3":93.0,"so2":8.0,"mosquito_risk":0,"arthritis_risk":5,"migraine_risk":7,"frizz_risk":1,"updated_at":"2026-06-02T20:25:38.934508+05:30"},{"city":"Varanasi","state":"Uttar Pradesh","latitude":25.3176,"longitude":82.9739,"temp":33.6,"humidity":45,"rain":0.0,"pressure":994.3,"uv_index":8.75,"wind_gusts":23.4,"aqi":152,"pm10":74.3,"pm2_5":57.2,"no2":26.8,"co":788.0,"o3":101.0,"so2":15.5,"mosquito_risk":0,"arthritis_risk":5,"migraine_risk":7,"frizz_risk":1,"updated_at":"2026-06-02T20:25:38.934514+05:30"},{"city":"Prayagraj","state":"Uttar Pradesh","latitude":25.4358,"longitude":81.8463,"temp":33.2,"humidity":47,"rain":0.0,"pressure":992.8,"uv_index":8.7,"wind_gusts":26.6,"aqi":156,"pm10":78.9,"pm2_5":53.4,"no2":18.7,"co":519.0,"o3":109.0,"so2":11.2,"mosquito_risk":0,"arthritis_risk":5,"migraine_risk":7,"frizz_risk":1,"updated_at":"2026-06-02T20:25:38.934521+05:30"},{"city":"Gorakhpur","state":"Uttar Pradesh","latitude":26.7606,"longitude":83.3732,"temp":30.4,"humidity":56,"rain":0.0,"pressure":993.9,"uv_index":8.35,"wind_gusts":23.8,"aqi":156,"pm10":78.9,"pm2_5":60.5,"no2":22.7,"co":309.0,"o3":97.0,"so2":10.3,"mosquito_risk":0,"arthritis_risk":5,"migraine_risk":7,"frizz_risk":1,"updated_at":"2026-06-02T20:25:38.934530+05:30"},{"city":"Bareilly","state":"Uttar Pradesh","latitude":28.367,"longitude":79.4304,"temp":28.5,"humidity":75,"rain":0.0,"pressure":984.2,"uv_index":8.05,"wind_gusts":21.6,"aqi":141,"pm10":82.9,"pm2_5":52.2,"no2":19.5,"co":529.0,"o3":96.0,"so2":9.5,"mosquito_risk":7,"arthritis_risk":5,"migraine_risk":7,"frizz_risk":1,"updated_at":"2026-06-02T20:25:38.934536+05:30"},{"city":"Aligarh","state":"Uttar Pradesh","latitude":27.8974,"longitude":78.088,"temp":28.6,"humidity":60,"rain":0.0,"pressure":982.9,"uv_index":7.95,"wind_gusts":24.5,"aqi":151,"pm10":129.9,"pm2_5":56.0,"no2":22.4,"co":370.0,"o3":91.0,"so2":11.2,"mosquito_risk":4,"arthritis_risk":5,"migraine_risk":7,"frizz_risk":1,"updated_at":"2026-06-02T20:25:38.934542+05:30"},{"city":"Moradabad","state":"Uttar Pradesh","latitude":28.8386,"longitude":78.7733,"temp":29.4,"humidity":64,"rain":0.0,"pressure":981.2,"uv_index":7.9,"wind_gusts":25.9,"aqi":151,"pm10":125.7,"pm2_5":68.5,"no2":30.5,"co":636.0,"o3":102.0,"so2":16.7,"mosquito_risk":7,"arthritis_risk":5,"migraine_risk":7,"frizz_risk":1,"updated_at":"2026-06-02T20:25:38.934548+05:30"},{"city":"Saharanpur","state":"Uttar Pradesh","latitude":29.9637,"longitude":77.546,"temp":28.7,"humidity":68,"rain":0.0,"pressure":973.6,"uv_index":7.5,"wind_gusts":26.3,"aqi":142,"pm10":91.5,"pm2_5":52.6,"no2":34.6,"co":384.0,"o3":91.0,"so2":12.2,"mosquito_risk":7,"arthritis_risk":5,"migraine_risk":7,"frizz_risk":1,"updated_at":"2026-06-02T20:25:38.934554+05:30"},{"city":"Jhansi","state":"Uttar Pradesh","latitude":25.4484,"longitude":78.5685,"temp":31.2,"humidity":54,"rain":0.0,"pressure":975.0,"uv_index":8.25,"wind_gusts":30.6,"aqi":84,"pm10":58.2,"pm2_5":25.3,"no2":9.0,"co":248.0,"o3":88.0,"so2":7.1,"mosquito_risk":0,"arthritis_risk":5,"migraine_risk":7,"frizz_risk":1,"updated_at":"2026-06-02T20:25:42.172688+05:30"},{"city":"Surat","state":"Gujarat","latitude":21.1702,"longitude":72.8311,"temp":29.5,"humidity":81,"rain":0.0,"pressure":1004.1,"uv_index":7.6,"wind_gusts":40.3,"aqi":70,"pm10":34.3,"pm2_5":21.1,"no2":24.7,"co":234.0,"o3":25.0,"so2":46.4,"mosquito_risk":7,"arthritis_risk":5,"migraine_risk":4,"frizz_risk":1,"updated_at":"2026-06-02T20:25:42.172725+05:30"},{"city":"Vadodara","state":"Gujarat","latitude":22.3072,"longitude":73.1812,"temp":32.2,"humidity":58,"rain":0.0,"pressure":1001.0,"uv_index":8.0,"wind_gusts":35.3,"aqi":79,"pm10":57.0,"pm2_5":30.0,"no2":11.6,"co":184.0,"o3":77.0,"so2":12.4,"mosquito_risk":0,"arthritis_risk":5,"migraine_risk":4,"frizz_risk":1,"updated_at":"2026-06-02T20:25:42.172735+05:30"},{"city":"Rajkot","state":"Gujarat","latitude":22.3039,"longitude":70.8022,"temp":33.8,"humidity":48,"rain":0.0,"pressure":990.8,"uv_index":7.55,"wind_gusts":44.6,"aqi":78,"pm10":56.5,"pm2_5":26.1,"no2":4.1,"co":119.0,"o3":94.0,"so2":6.5,"mosquito_risk":0,"arthritis_risk":5,"migraine_risk":7,"frizz_risk":1,"updated_at":"2026-06-02T20:25:42.172743+05:30"},{"city":"Thane","state":"Maharashtra","latitude":19.2183,"longitude":72.9781,"temp":30.0,"humidity":72,"rain":0.0,"pressure":1006.1,"uv_index":7.7,"wind_gusts":40.3,"aqi":68,"pm10":29.1,"pm2_5":14.2,"no2":9.0,"co":186.0,"o3":49.0,"so2":5.1,"mosquito_risk":7,"arthritis_risk":5,"migraine_risk":4,"frizz_risk":1,"updated_at":"2026-06-02T20:25:42.172750+05:30"},{"city":"Nagpur","state":"Maharashtra","latitude":21.1458,"longitude":79.0882,"temp":35.0,"humidity":32,"rain":0.0,"pressure":970.6,"uv_index":8.85,"wind_gusts":41.8,"aqi":100,"pm10":43.5,"pm2_5":22.8,"no2":11.5,"co":202.0,"o3":97.0,"so2":14.1,"mosquito_risk":0,"arthritis_risk":5,"migraine_risk":7,"frizz_risk":0,"updated_at":"2026-06-02T20:25:42.172756+05:30"},{"city":"Nashik","state":"Maharashtra","latitude":19.9975,"longitude":73.7898,"temp":27.1,"humidity":67,"rain":0.0,"pressure":944.2,"uv_index":8.0,"wind_gusts":52.6,"aqi":62,"pm10":21.8,"pm2_5":11.1,"no2":5.0,"co":138.0,"o3":59.0,"so2":1.2,"mosquito_risk":7,"arthritis_risk":5,"migraine_risk":7,"frizz_risk":1,"updated_at":"2026-06-02T20:25:42.172763+05:30"},{"city":"Aurangabad","state":"Maharashtra","latitude":19.8762,"longitude":75.3433,"temp":29.5,"humidity":48,"rain":0.0,"pressure":942.2,"uv_index":8.95,"wind_gusts":42.1,"aqi":64,"pm10":36.4,"pm2_5":19.3,"no2":3.6,"co":188.0,"o3":92.0,"so2":3.0,"mosquito_risk":4,"arthritis_risk":5,"migraine_risk":7,"frizz_risk":1,"updated_at":"2026-06-02T20:25:42.172770+05:30"},{"city":"Solapur","state":"Maharashtra","latitude":17.6599,"longitude":75.9064,"temp":30.5,"humidity":48,"rain":0.0,"pressure":956.1,"uv_index":8.9,"wind_gusts":51.5,"aqi":108,"pm10":43.1,"pm2_5":22.9,"no2":7.8,"co":172.0,"o3":115.0,"so2":5.6,"mosquito_risk":0,"arthritis_risk":5,"migraine_risk":7,"frizz_risk":1,"updated_at":"2026-06-02T20:25:42.172777+05:30"},{"city":"Kolhapur","state":"Maharashtra","latitude":16.705,"longitude":74.2433,"temp":27.2,"humidity":65,"rain":0.0,"pressure":947.6,"uv_index":8.75,"wind_gusts":43.6,"aqi":45,"pm10":18.0,"pm2_5":10.6,"no2":4.9,"co":186.0,"o3":64.0,"so2":2.1,"mosquito_risk":7,"arthritis_risk":5,"migraine_risk":7,"frizz_risk":1,"updated_at":"2026-06-02T20:25:42.172784+05:30"},{"city":"Goa","state":"Goa","latitude":15.2993,"longitude":74.124,"temp":27.3,"humidity":90,"rain":0.0,"pressure":997.8,"uv_index":8.5,"wind_gusts":27.4,"aqi":52,"pm10":18.0,"pm2_5":10.1,"no2":3.6,"co":188.0,"o3":52.0,"so2":1.2,"mosquito_risk":7,"arthritis_risk":5,"migraine_risk":7,"frizz_risk":1,"updated_at":"2026-06-02T20:25:42.172790+05:30"},{"city":"Jodhpur","state":"Rajasthan","latitude":26.2389,"longitude":73.0243,"temp":34.2,"humidity":41,"rain":0.0,"pressure":979.4,"uv_index":8.4,"wind_gusts":30.2,"aqi":104,"pm10":130.9,"pm2_5":44.1,"no2":7.9,"co":144.0,"o3":86.0,"so2":3.8,"mosquito_risk":0,"arthritis_risk":5,"migraine_risk":7,"frizz_risk":1,"updated_at":"2026-06-02T20:25:42.172796+05:30"},{"city":"Udaipur","state":"Rajasthan","latitude":24.5854,"longitude":73.7125,"temp":29.0,"humidity":65,"rain":0.0,"pressure":944.2,"uv_index":8.85,"wind_gusts":22.7,"aqi":85,"pm10":57.6,"pm2_5":25.7,"no2":4.1,"co":253.0,"o3":84.0,"so2":3.5,"mosquito_risk":7,"arthritis_risk":5,"migraine_risk":7,"frizz_risk":1,"updated_at":"2026-06-02T20:25:42.172802+05:30"},{"city":"Kota","state":"Rajasthan","latitude":25.2138,"longitude":75.8648,"temp":32.2,"humidity":48,"rain":0.0,"pressure":975.8,"uv_index":8.4,"wind_gusts":19.8,"aqi":86,"pm10":115.0,"pm2_5":46.1,"no2":9.3,"co":288.0,"o3":80.0,"so2":4.6,"mosquito_risk":0,"arthritis_risk":5,"migraine_risk":7,"frizz_risk":1,"updated_at":"2026-06-02T20:25:42.172809+05:30"},{"city":"Bikaner","state":"Rajasthan","latitude":28.0229,"longitude":73.3119,"temp":33.9,"humidity":36,"rain":0.0,"pressure":978.3,"uv_index":8.45,"wind_gusts":23.4,"aqi":144,"pm10":223.5,"pm2_5":58.7,"no2":3.8,"co":339.0,"o3":109.0,"so2":4.2,"mosquito_risk":0,"arthritis_risk":5,"migraine_risk":7,"frizz_risk":1,"updated_at":"2026-06-02T20:25:42.172815+05:30"},{"city":"Ajmer","state":"Rajasthan","latitude":26.4499,"longitude":74.6399,"temp":30.4,"humidity":50,"rain":0.0,"pressure":951.9,"uv_index":8.3,"wind_gusts":25.2,"aqi":91,"pm10":138.8,"pm2_5":49.8,"no2":9.4,"co":328.0,"o3":96.0,"so2":6.0,"mosquito_risk":0,"arthritis_risk":5,"migraine_risk":7,"frizz_risk":1,"updated_at":"2026-06-02T20:25:42.172821+05:30"},{"city":"Gwalior","state":"Madhya Pradesh","latitude":26.2183,"longitude":78.1828,"temp":30.2,"humidity":58,"rain":0.0,"pressure":980.2,"uv_index":8.25,"wind_gusts":32.0,"aqi":84,"pm10":76.1,"pm2_5":32.6,"no2":12.4,"co":299.0,"o3":76.0,"so2":4.8,"mosquito_risk":0,"arthritis_risk":5,"migraine_risk":7,"frizz_risk":1,"updated_at":"2026-06-02T20:25:42.172828+05:30"},{"city":"Indore","state":"Madhya Pradesh","latitude":22.7196,"longitude":75.8577,"temp":31.7,"humidity":38,"rain":0.0,"pressure":945.9,"uv_index":8.6,"wind_gusts":35.6,"aqi":91,"pm10":53.1,"pm2_5":31.8,"no2":11.2,"co":611.0,"o3":78.0,"so2":4.9,"mosquito_risk":0,"arthritis_risk":5,"migraine_risk":7,"frizz_risk":0,"updated_at":"2026-06-02T20:25:42.172834+05:30"},{"city":"Bhopal","state":"Madhya Pradesh","latitude":23.2599,"longitude":77.4126,"temp":30.1,"humidity":49,"rain":0.0,"pressure":951.1,"uv_index":8.65,"wind_gusts":37.4,"aqi":79,"pm10":49.2,"pm2_5":28.1,"no2":7.6,"co":295.0,"o3":90.0,"so2":5.0,"mosquito_risk":0,"arthritis_risk":5,"migraine_risk":7,"frizz_risk":1,"updated_at":"2026-06-02T20:25:42.172840+05:30"},{"city":"Jabalpur","state":"Madhya Pradesh","latitude":23.1815,"longitude":79.9864,"temp":31.5,"humidity":41,"rain":0.0,"pressure":959.1,"uv_index":8.85,"wind_gusts":24.8,"aqi":90,"pm10":51.1,"pm2_5":27.5,"no2":12.2,"co":215.0,"o3":90.0,"so2":4.7,"mosquito_risk":0,"arthritis_risk":5,"migraine_risk":7,"frizz_risk":1,"updated_at":"2026-06-02T20:25:42.172847+05:30"},{"city":"Ujjain","state":"Madhya Pradesh","latitude":23.1765,"longitude":75.7885,"temp":29.4,"humidity":50,"rain":0.0,"pressure":951.2,"uv_index":8.55,"wind_gusts":28.8,"aqi":88,"pm10":50.2,"pm2_5":27.5,"no2":3.1,"co":296.0,"o3":90.0,"so2":4.4,"mosquito_risk":4,"arthritis_risk":5,"migraine_risk":7,"frizz_risk":1,"updated_at":"2026-06-02T20:25:42.172854+05:30"},{"city":"Visakhapatnam","state":"Andhra Pradesh","latitude":17.6868,"longitude":83.2185,"temp":30.6,"humidity":80,"rain":0.0,"pressure":1001.3,"uv_index":9.0,"wind_gusts":36.7,"aqi":112,"pm10":42.3,"pm2_5":34.9,"no2":32.5,"co":384.0,"o3":84.0,"so2":51.5,"mosquito_risk":3,"arthritis_risk":5,"migraine_risk":4,"frizz_risk":1,"updated_at":"2026-06-02T20:25:42.172860+05:30"},{"city":"Vijayawada","state":"Andhra Pradesh","latitude":16.5062,"longitude":80.648,"temp":35.1,"humidity":43,"rain":0.0,"pressure":999.6,"uv_index":9.0,"wind_gusts":34.2,"aqi":122,"pm10":68.2,"pm2_5":56.5,"no2":23.5,"co":242.0,"o3":89.0,"so2":9.9,"mosquito_risk":0,"arthritis_risk":5,"migraine_risk":10,"frizz_risk":1,"updated_at":"2026-06-02T20:25:42.172868+05:30"},{"city":"Guntur","state":"Andhra Pradesh","latitude":16.3067,"longitude":80.4365,"temp":33.7,"humidity":48,"rain":0.0,"pressure":1000.8,"uv_index":9.0,"wind_gusts":33.5,"aqi":118,"pm10":79.6,"pm2_5":61.0,"no2":32.6,"co":219.0,"o3":76.0,"so2":11.4,"mosquito_risk":0,"arthritis_risk":5,"migraine_risk":4,"frizz_risk":1,"updated_at":"2026-06-02T20:25:42.172875+05:30"},{"city":"Nellore","state":"Andhra Pradesh","latitude":14.4426,"longitude":79.9865,"temp":31.8,"humidity":67,"rain":0.0,"pressure":1003.8,"uv_index":8.95,"wind_gusts":33.8,"aqi":147,"pm10":29.7,"pm2_5":23.3,"no2":5.2,"co":260.0,"o3":135.0,"so2":5.9,"mosquito_risk":3,"arthritis_risk":5,"migraine_risk":4,"frizz_risk":1,"updated_at":"2026-06-02T20:25:42.172883+05:30"},{"city":"Kurnool","state":"Andhra Pradesh","latitude":15.8281,"longitude":78.0373,"temp":32.6,"humidity":52,"rain":0.0,"pressure":974.9,"uv_index":9.0,"wind_gusts":52.6,"aqi":138,"pm10":59.3,"pm2_5":36.3,"no2":18.3,"co":210.0,"o3":119.0,"so2":10.6,"mosquito_risk":0,"arthritis_risk":5,"migraine_risk":7,"frizz_risk":1,"updated_at":"2026-06-02T20:25:42.172890+05:30"},{"city":"Kakinada","state":"Andhra Pradesh","latitude":16.9891,"longitude":82.2475,"temp":31.4,"humidity":78,"rain":0.0,"pressure":1004.8,"uv_index":9.0,"wind_gusts":38.5,"aqi":99,"pm10":33.9,"pm2_5":25.3,"no2":3.5,"co":288.0,"o3":140.0,"so2":4.7,"mosquito_risk":3,"arthritis_risk":5,"migraine_risk":4,"frizz_risk":1,"updated_at":"2026-06-02T20:25:42.172897+05:30"},{"city":"Tirupati","state":"Andhra Pradesh","latitude":13.6288,"longitude":79.4192,"temp":28.7,"humidity":82,"rain":0.0,"pressure":990.3,"uv_index":9.0,"wind_gusts":24.8,"aqi":99,"pm10":39.7,"pm2_5":34.3,"no2":37.6,"co":378.0,"o3":65.0,"so2":6.4,"mosquito_risk":7,"arthritis_risk":5,"migraine_risk":7,"frizz_risk":1,"updated_at":"2026-06-02T20:25:42.172904+05:30"},{"city":"Warangal","state":"Telangana","latitude":17.9689,"longitude":79.5941,"temp":33.2,"humidity":43,"rain":0.0,"pressure":976.1,"uv_index":9.0,"wind_gusts":32.0,"aqi":128,"pm10":92.9,"pm2_5":61.9,"no2":33.3,"co":536.0,"o3":78.0,"so2":10.3,"mosquito_risk":0,"arthritis_risk":5,"migraine_risk":7,"frizz_risk":1,"updated_at":"2026-06-02T20:25:42.172910+05:30"},{"city":"Nizamabad","state":"Telangana","latitude":18.6725,"longitude":78.0941,"temp":32.2,"humidity":39,"rain":0.0,"pressure":962.3,"uv_index":8.75,"wind_gusts":30.2,"aqi":106,"pm10":63.3,"pm2_5":31.4,"no2":14.6,"co":332.0,"o3":98.0,"so2":5.6,"mosquito_risk":0,"arthritis_risk":5,"migraine_risk":7,"frizz_risk":1,"updated_at":"2026-06-02T20:25:42.172916+05:30"},{"city":"Mysore","state":"Karnataka","latitude":12.2958,"longitude":76.6396,"temp":22.8,"humidity":96,"rain":0.0,"pressure":928.7,"uv_index":9.0,"wind_gusts":35.6,"aqi":91,"pm10":9.3,"pm2_5":9.0,"no2":12.8,"co":298.0,"o3":80.0,"so2":2.5,"mosquito_risk":3,"arthritis_risk":5,"migraine_risk":7,"frizz_risk":1,"updated_at":"2026-06-02T20:25:42.172923+05:30"},{"city":"Mangalore","state":"Karnataka","latitude":12.9141,"longitude":74.856,"temp":27.2,"humidity":87,"rain":0.0,"pressure":1007.2,"uv_index":1.85,"wind_gusts":34.6,"aqi":47,"pm10":15.5,"pm2_5":12.4,"no2":16.5,"co":173.0,"o3":48.0,"so2":4.8,"mosquito_risk":7,"arthritis_risk":5,"migraine_risk":0,"frizz_risk":1,"updated_at":"2026-06-02T20:25:42.172929+05:30"},{"city":"Hubli-Dharwad","state":"Karnataka","latitude":15.3647,"longitude":75.124,"temp":26.1,"humidity":77,"rain":0.0,"pressure":940.6,"uv_index":8.55,"wind_gusts":41.0,"aqi":43,"pm10":12.9,"pm2_5":8.2,"no2":5.2,"co":171.0,"o3":64.0,"so2":1.3,"mosquito_risk":7,"arthritis_risk":5,"migraine_risk":7,"frizz_risk":1,"updated_at":"2026-06-02T20:25:42.172936+05:30"},{"city":"Belgaum","state":"Karnataka","latitude":15.8497,"longitude":74.4977,"temp":23.1,"humidity":92,"rain":0.0,"pressure":925.5,"uv_index":8.9,"wind_gusts":42.5,"aqi":43,"pm10":16.5,"pm2_5":9.3,"no2":4.5,"co":145.0,"o3":59.0,"so2":1.8,"mosquito_risk":3,"arthritis_risk":5,"migraine_risk":7,"frizz_risk":1,"updated_at":"2026-06-02T20:25:45.410021+05:30"},{"city":"Coimbatore","state":"Tamil Nadu","latitude":11.0168,"longitude":76.9558,"temp":24.5,"humidity":91,"rain":0.0,"pressure":962.1,"uv_index":8.95,"wind_gusts":49.0,"aqi":48,"pm10":5.8,"pm2_5":5.6,"no2":10.8,"co":231.0,"o3":59.0,"so2":3.3,"mosquito_risk":3,"arthritis_risk":5,"migraine_risk":7,"frizz_risk":1,"updated_at":"2026-06-02T20:25:45.410057+05:30"},{"city":"Madurai","state":"Tamil Nadu","latitude":9.9252,"longitude":78.1198,"temp":30.0,"humidity":74,"rain":0.0,"pressure":992.6,"uv_index":8.85,"wind_gusts":40.0,"aqi":68,"pm10":21.4,"pm2_5":20.1,"no2":47.1,"co":330.0,"o3":26.0,"so2":8.7,"mosquito_risk":7,"arthritis_risk":5,"migraine_risk":7,"frizz_risk":1,"updated_at":"2026-06-02T20:25:45.410068+05:30"},{"city":"Trichy","state":"Tamil Nadu","latitude":10.7905,"longitude":78.7047,"temp":29.8,"humidity":73,"rain":0.1,"pressure":999.3,"uv_index":8.85,"wind_gusts":43.6,"aqi":68,"pm10":10.2,"pm2_5":9.1,"no2":12.9,"co":175.0,"o3":56.0,"so2":3.7,"mosquito_risk":10,"arthritis_risk":5,"migraine_risk":7,"frizz_risk":1,"updated_at":"2026-06-02T20:25:45.410078+05:30"},{"city":"Salem","state":"Tamil Nadu","latitude":11.6643,"longitude":78.146,"temp":26.7,"humidity":92,"rain":0.1,"pressure":977.5,"uv_index":8.95,"wind_gusts":37.4,"aqi":134,"pm10":18.9,"pm2_5":15.7,"no2":14.1,"co":318.0,"o3":91.0,"so2":5.7,"mosquito_risk":10,"arthritis_risk":5,"migraine_risk":7,"frizz_risk":1,"updated_at":"2026-06-02T20:25:45.410086+05:30"},{"city":"Tirunelveli","state":"Tamil Nadu","latitude":8.7139,"longitude":77.7567,"temp":30.3,"humidity":59,"rain":0.0,"pressure":1003.5,"uv_index":8.7,"wind_gusts":38.2,"aqi":33,"pm10":6.3,"pm2_5":5.3,"no2":5.4,"co":165.0,"o3":57.0,"so2":1.1,"mosquito_risk":0,"arthritis_risk":5,"migraine_risk":4,"frizz_risk":1,"updated_at":"2026-06-02T20:25:45.410093+05:30"},{"city":"Vellore","state":"Tamil Nadu","latitude":12.9165,"longitude":79.1325,"temp":30.3,"humidity":63,"rain":0.0,"pressure":983.4,"uv_index":9.0,"wind_gusts":40.3,"aqi":137,"pm10":32.7,"pm2_5":27.6,"no2":10.6,"co":348.0,"o3":124.0,"so2":8.0,"mosquito_risk":3,"arthritis_risk":5,"migraine_risk":7,"frizz_risk":1,"updated_at":"2026-06-02T20:25:45.410100+05:30"},{"city":"Erode","state":"Tamil Nadu","latitude":11.341,"longitude":77.7172,"temp":28.8,"humidity":71,"rain":0.0,"pressure":989.1,"uv_index":8.9,"wind_gusts":45.0,"aqi":89,"pm10":10.2,"pm2_5":9.6,"no2":15.4,"co":257.0,"o3":68.0,"so2":3.1,"mosquito_risk":7,"arthritis_risk":5,"migraine_risk":7,"frizz_risk":1,"updated_at":"2026-06-02T20:25:45.410107+05:30"},{"city":"Kochi","state":"Kerala","latitude":9.9312,"longitude":76.2673,"temp":25.9,"humidity":93,"rain":0.2,"pressure":1009.8,"uv_index":8.65,"wind_gusts":32.4,"aqi":44,"pm10":14.5,"pm2_5":13.5,"no2":22.3,"co":220.0,"o3":26.0,"so2":5.0,"mosquito_risk":10,"arthritis_risk":0,"migraine_risk":4,"frizz_risk":1,"updated_at":"2026-06-02T20:25:45.410115+05:30"},{"city":"Thiruvananthapuram","state":"Kerala","latitude":8.5241,"longitude":76.9366,"temp":25.4,"humidity":92,"rain":0.1,"pressure":1009.8,"uv_index":8.3,"wind_gusts":35.3,"aqi":31,"pm10":8.2,"pm2_5":4.9,"no2":1.6,"co":140.0,"o3":63.0,"so2":0.5,"mosquito_risk":10,"arthritis_risk":0,"migraine_risk":4,"frizz_risk":1,"updated_at":"2026-06-02T20:25:45.410122+05:30"},{"city":"Kozhikode","state":"Kerala","latitude":11.2588,"longitude":75.7804,"temp":25.2,"humidity":98,"rain":0.3,"pressure":1009.2,"uv_index":8.2,"wind_gusts":27.4,"aqi":37,"pm10":6.4,"pm2_5":4.6,"no2":3.0,"co":341.0,"o3":71.0,"so2":1.3,"mosquito_risk":10,"arthritis_risk":0,"migraine_risk":4,"frizz_risk":1,"updated_at":"2026-06-02T20:25:45.410129+05:30"},{"city":"Thrissur","state":"Kerala","latitude":10.5276,"longitude":76.2144,"temp":24.2,"humidity":99,"rain":0.2,"pressure":1008.5,"uv_index":8.4,"wind_gusts":34.9,"aqi":46,"pm10":15.4,"pm2_5":14.8,"no2":16.0,"co":437.0,"o3":32.0,"so2":3.7,"mosquito_risk":6,"arthritis_risk":0,"migraine_risk":4,"frizz_risk":1,"updated_at":"2026-06-02T20:25:45.410137+05:30"},{"city":"Kannur","state":"Kerala","latitude":11.8745,"longitude":75.3704,"temp":25.8,"humidity":98,"rain":0.1,"pressure":1008.0,"uv_index":2.95,"wind_gusts":29.5,"aqi":36,"pm10":12.5,"pm2_5":11.1,"no2":22.8,"co":387.0,"o3":37.0,"so2":4.0,"mosquito_risk":10,"arthritis_risk":0,"migraine_risk":0,"frizz_risk":1,"updated_at":"2026-06-02T20:25:45.410144+05:30"},{"city":"Patna","state":"Bihar","latitude":25.5941,"longitude":85.1376,"temp":32.0,"humidity":68,"rain":0.0,"pressure":996.8,"uv_index":8.85,"wind_gusts":18.0,"aqi":189,"pm10":81.7,"pm2_5":71.5,"no2":37.5,"co":854.0,"o3":107.0,"so2":19.9,"mosquito_risk":3,"arthritis_risk":5,"migraine_risk":7,"frizz_risk":1,"updated_at":"2026-06-02T20:25:45.410151+05:30"},{"city":"Gaya","state":"Bihar","latitude":24.7914,"longitude":85.0002,"temp":31.2,"humidity":61,"rain":0.0,"pressure":990.7,"uv_index":8.9,"wind_gusts":25.2,"aqi":165,"pm10":71.2,"pm2_5":61.2,"no2":25.7,"co":629.0,"o3":110.0,"so2":15.2,"mosquito_risk":3,"arthritis_risk":5,"migraine_risk":7,"frizz_risk":1,"updated_at":"2026-06-02T20:25:45.410157+05:30"},{"city":"Muzaffarpur","state":"Bihar","latitude":26.1209,"longitude":85.3647,"temp":30.6,"humidity":67,"rain":0.0,"pressure":996.7,"uv_index":8.85,"wind_gusts":19.1,"aqi":182,"pm10":94.3,"pm2_5":81.7,"no2":41.7,"co":757.0,"o3":92.0,"so2":19.4,"mosquito_risk":3,"arthritis_risk":5,"migraine_risk":7,"frizz_risk":1,"updated_at":"2026-06-02T20:25:45.410164+05:30"},{"city":"Bhagalpur","state":"Bihar","latitude":25.2425,"longitude":87.0117,"temp":31.6,"humidity":69,"rain":0.0,"pressure":997.5,"uv_index":8.8,"wind_gusts":16.9,"aqi":184,"pm10":69.4,"pm2_5":61.9,"no2":27.8,"co":610.0,"o3":118.0,"so2":17.8,"mosquito_risk":3,"arthritis_risk":5,"migraine_risk":7,"frizz_risk":1,"updated_at":"2026-06-02T20:25:45.410170+05:30"},{"city":"Ranchi","state":"Jharkhand","latitude":23.3441,"longitude":85.3096,"temp":26.5,"humidity":64,"rain":0.0,"pressure":935.8,"uv_index":9.05,"wind_gusts":21.2,"aqi":170,"pm10":61.7,"pm2_5":54.2,"no2":13.9,"co":399.0,"o3":116.0,"so2":15.3,"mosquito_risk":7,"arthritis_risk":5,"migraine_risk":7,"frizz_risk":1,"updated_at":"2026-06-02T20:25:45.410177+05:30"},{"city":"Jamshedpur","state":"Jharkhand","latitude":22.8046,"longitude":86.2029,"temp":30.0,"humidity":76,"rain":0.0,"pressure":988.2,"uv_index":9.05,"wind_gusts":19.1,"aqi":198,"pm10":68.0,"pm2_5":59.8,"no2":16.6,"co":770.0,"o3":132.0,"so2":23.6,"mosquito_risk":7,"arthritis_risk":5,"migraine_risk":7,"frizz_risk":1,"updated_at":"2026-06-02T20:25:45.410183+05:30"},{"city":"Dhanbad","state":"Jharkhand","latitude":23.7957,"longitude":86.4304,"temp":30.9,"humidity":64,"rain":0.0,"pressure":977.0,"uv_index":9.05,"wind_gusts":22.0,"aqi":205,"pm10":100.1,"pm2_5":93.4,"no2":54.0,"co":424.0,"o3":111.0,"so2":141.9,"mosquito_risk":3,"arthritis_risk":5,"migraine_risk":7,"frizz_risk":1,"updated_at":"2026-06-02T20:25:45.410190+05:30"},{"city":"Bokaro","state":"Jharkhand","latitude":23.6693,"longitude":86.1511,"temp":30.5,"humidity":66,"rain":0.0,"pressure":980.6,"uv_index":9.05,"wind_gusts":18.7,"aqi":192,"pm10":111.1,"pm2_5":98.7,"no2":49.9,"co":1095.0,"o3":105.0,"so2":112.8,"mosquito_risk":3,"arthritis_risk":5,"migraine_risk":7,"frizz_risk":1,"updated_at":"2026-06-02T20:25:45.410197+05:30"},{"city":"Bhubaneswar","state":"Odisha","latitude":20.2961,"longitude":85.8245,"temp":29.5,"humidity":87,"rain":0.0,"pressure":1000.4,"uv_index":9.0,"wind_gusts":31.3,"aqi":126,"pm10":33.2,"pm2_5":28.9,"no2":10.1,"co":360.0,"o3":109.0,"so2":10.8,"mosquito_risk":7,"arthritis_risk":5,"migraine_risk":4,"frizz_risk":1,"updated_at":"2026-06-02T20:25:45.410203+05:30"},{"city":"Cuttack","state":"Odisha","latitude":20.4625,"longitude":85.8828,"temp":30.0,"humidity":84,"rain":0.0,"pressure":1002.0,"uv_index":9.05,"wind_gusts":28.1,"aqi":126,"pm10":33.2,"pm2_5":28.9,"no2":10.1,"co":407.0,"o3":109.0,"so2":10.8,"mosquito_risk":7,"arthritis_risk":5,"migraine_risk":4,"frizz_risk":1,"updated_at":"2026-06-02T20:25:45.410210+05:30"},{"city":"Rourkela","state":"Odisha","latitude":22.2604,"longitude":84.8536,"temp":31.9,"humidity":60,"rain":0.0,"pressure":982.5,"uv_index":7.9,"wind_gusts":29.5,"aqi":198,"pm10":83.6,"pm2_5":69.6,"no2":24.2,"co":672.0,"o3":127.0,"so2":19.8,"mosquito_risk":0,"arthritis_risk":5,"migraine_risk":7,"frizz_risk":1,"updated_at":"2026-06-02T20:25:45.410217+05:30"},{"city":"Raipur","state":"Chhattisgarh","latitude":21.2514,"longitude":81.6296,"temp":33.5,"humidity":41,"rain":0.0,"pressure":971.5,"uv_index":8.9,"wind_gusts":31.7,"aqi":171,"pm10":86.1,"pm2_5":60.3,"no2":35.7,"co":546.0,"o3":100.0,"so2":55.7,"mosquito_risk":0,"arthritis_risk":5,"migraine_risk":7,"frizz_risk":1,"updated_at":"2026-06-02T20:25:45.410224+05:30"},{"city":"Bhilai","state":"Chhattisgarh","latitude":21.1938,"longitude":81.3509,"temp":33.2,"humidity":38,"rain":0.0,"pressure":971.9,"uv_index":8.95,"wind_gusts":26.3,"aqi":152,"pm10":83.6,"pm2_5":54.4,"no2":36.7,"co":818.0,"o3":80.0,"so2":44.6,"mosquito_risk":0,"arthritis_risk":5,"migraine_risk":7,"frizz_risk":1,"updated_at":"2026-06-02T20:25:45.410230+05:30"},{"city":"Guwahati","state":"Assam","latitude":26.1158,"longitude":91.7086,"temp":28.6,"humidity":79,"rain":0.0,"pressure":997.9,"uv_index":8.7,"wind_gusts":40.7,"aqi":119,"pm10":60.8,"pm2_5":56.3,"no2":8.3,"co":510.0,"o3":99.0,"so2":6.7,"mosquito_risk":7,"arthritis_risk":5,"migraine_risk":7,"frizz_risk":1,"updated_at":"2026-06-02T20:25:45.410237+05:30"},{"city":"Agartala","state":"Tripura","latitude":23.8315,"longitude":91.2868,"temp":29.3,"humidity":75,"rain":0.0,"pressure":1003.5,"uv_index":8.7,"wind_gusts":21.2,"aqi":156,"pm10":70.3,"pm2_5":61.2,"no2":24.2,"co":399.0,"o3":90.0,"so2":8.0,"mosquito_risk":7,"arthritis_risk":5,"migraine_risk":4,"frizz_risk":1,"updated_at":"2026-06-02T20:25:45.410244+05:30"},{"city":"Shillong","state":"Meghalaya","latitude":25.5788,"longitude":91.8933,"temp":19.4,"humidity":94,"rain":0.0,"pressure":856.2,"uv_index":7.85,"wind_gusts":23.4,"aqi":93,"pm10":36.1,"pm2_5":31.5,"no2":8.4,"co":572.0,"o3":92.0,"so2":3.0,"mosquito_risk":3,"arthritis_risk":10,"migraine_risk":7,"frizz_risk":1,"updated_at":"2026-06-02T20:25:45.410251+05:30"},{"city":"Imphal","state":"Manipur","latitude":24.817,"longitude":93.9368,"temp":23.6,"humidity":91,"rain":0.0,"pressure":921.1,"uv_index":8.85,"wind_gusts":27.4,"aqi":71,"pm10":37.8,"pm2_5":33.8,"no2":20.3,"co":643.0,"o3":57.0,"so2":4.8,"mosquito_risk":3,"arthritis_risk":5,"migraine_risk":7,"frizz_risk":1,"updated_at":"2026-06-02T20:25:45.410258+05:30"},{"city":"Aizawl","state":"Mizoram","latitude":23.7271,"longitude":92.7176,"temp":21.4,"humidity":89,"rain":0.0,"pressure":891.1,"uv_index":8.3,"wind_gusts":22.7,"aqi":69,"pm10":47.8,"pm2_5":36.0,"no2":13.5,"co":290.0,"o3":57.0,"so2":3.1,"mosquito_risk":3,"arthritis_risk":5,"migraine_risk":7,"frizz_risk":1,"updated_at":"2026-06-02T20:25:45.410264+05:30"},{"city":"Kohima","state":"Nagaland","latitude":25.6701,"longitude":94.1077,"temp":20.1,"humidity":96,"rain":0.0,"pressure":854.2,"uv_index":8.55,"wind_gusts":32.8,"aqi":67,"pm10":35.9,"pm2_5":29.7,"no2":13.8,"co":368.0,"o3":76.0,"so2":3.1,"mosquito_risk":3,"arthritis_risk":5,"migraine_risk":7,"frizz_risk":1,"updated_at":"2026-06-02T20:25:45.410270+05:30"},{"city":"Gangtok","state":"Sikkim","latitude":27.3314,"longitude":88.6138,"temp":17.5,"humidity":95,"rain":0.2,"pressure":836.7,"uv_index":9.1,"wind_gusts":40.0,"aqi":116,"pm10":36.1,"pm2_5":31.0,"no2":8.9,"co":560.0,"o3":136.0,"so2":2.8,"mosquito_risk":6,"arthritis_risk":10,"migraine_risk":7,"frizz_risk":1,"updated_at":"2026-06-02T20:25:45.410277+05:30"},{"city":"Siliguri","state":"West Bengal","latitude":26.7271,"longitude":88.3953,"temp":29.2,"humidity":74,"rain":0.0,"pressure":989.5,"uv_index":8.7,"wind_gusts":35.3,"aqi":158,"pm10":72.4,"pm2_5":60.3,"no2":10.5,"co":979.0,"o3":151.0,"so2":9.5,"mosquito_risk":7,"arthritis_risk":5,"migraine_risk":7,"frizz_risk":1,"updated_at":"2026-06-02T20:25:48.651556+05:30"},{"city":"Durgapur","state":"West Bengal","latitude":23.5204,"longitude":87.3119,"temp":30.2,"humidity":77,"rain":0.0,"pressure":992.1,"uv_index":8.95,"wind_gusts":20.2,"aqi":177,"pm10":107.1,"pm2_5":102.7,"no2":49.9,"co":587.0,"o3":102.0,"so2":76.0,"mosquito_risk":3,"arthritis_risk":5,"migraine_risk":7,"frizz_risk":1,"updated_at":"2026-06-02T20:25:48.651610+05:30"},{"city":"Asansol","state":"West Bengal","latitude":23.6739,"longitude":86.9524,"temp":30.5,"humidity":71,"rain":0.0,"pressure":990.6,"uv_index":9.0,"wind_gusts":24.1,"aqi":180,"pm10":71.7,"pm2_5":68.2,"no2":39.8,"co":942.0,"o3":108.0,"so2":62.9,"mosquito_risk":3,"arthritis_risk":5,"migraine_risk":7,"frizz_risk":1,"updated_at":"2026-06-02T20:25:48.651622+05:30"},{"city":"Pondicherry","state":"Puducherry","latitude":11.9139,"longitude":79.8145,"temp":30.6,"humidity":69,"rain":0.0,"pressure":1007.4,"uv_index":8.8,"wind_gusts":41.8,"aqi":80,"pm10":16.4,"pm2_5":11.3,"no2":8.9,"co":192.0,"o3":60.0,"so2":5.0,"mosquito_risk":3,"arthritis_risk":5,"migraine_risk":4,"frizz_risk":1,"updated_at":"2026-06-02T20:25:48.651631+05:30"},{"city":"Port Blair","state":"Andaman and Nicobar Islands","latitude":11.6234,"longitude":92.7265,"temp":25.6,"humidity":96,"rain":0.1,"pressure":1007.4,"uv_index":1.7,"wind_gusts":37.4,"aqi":30,"pm10":13.3,"pm2_5":7.2,"no2":0.5,"co":131.0,"o3":65.0,"so2":0.4,"mosquito_risk":10,"arthritis_risk":5,"migraine_risk":0,"frizz_risk":1,"updated_at":"2026-06-02T20:25:48.651639+05:30"},{"city":"Haridwar","state":"Uttarakhand","latitude":29.9457,"longitude":78.1642,"temp":28.4,"humidity":69,"rain":0.0,"pressure":971.7,"uv_index":7.6,"wind_gusts":27.0,"aqi":123,"pm10":82.7,"pm2_5":43.2,"no2":18.0,"co":449.0,"o3":107.0,"so2":8.2,"mosquito_risk":7,"arthritis_risk":5,"migraine_risk":7,"frizz_risk":1,"updated_at":"2026-06-02T20:25:48.651647+05:30"},{"city":"Rishikesh","state":"Uttarakhand","latitude":30.0869,"longitude":78.2676,"temp":27.4,"humidity":69,"rain":0.0,"pressure":964.6,"uv_index":7.6,"wind_gusts":21.2,"aqi":123,"pm10":58.0,"pm2_5":32.0,"no2":8.9,"co":407.0,"o3":113.0,"so2":4.9,"mosquito_risk":7,"arthritis_risk":5,"migraine_risk":7,"frizz_risk":1,"updated_at":"2026-06-02T20:25:48.651655+05:30"},{"city":"Nainital","state":"Uttarakhand","latitude":29.3919,"longitude":79.4542,"temp":14.6,"humidity":94,"rain":0.0,"pressure":804.2,"uv_index":7.25,"wind_gusts":41.8,"aqi":105,"pm10":74.3,"pm2_5":34.9,"no2":11.7,"co":328.0,"o3":121.0,"so2":6.8,"mosquito_risk":3,"arthritis_risk":10,"migraine_risk":7,"frizz_risk":0,"updated_at":"2026-06-02T20:25:48.651662+05:30"},{"city":"Mussoorie","state":"Uttarakhand","latitude":30.4599,"longitude":78.0664,"temp":14.5,"humidity":95,"rain":0.0,"pressure":801.4,"uv_index":8.15,"wind_gusts":36.7,"aqi":138,"pm10":51.2,"pm2_5":32.1,"no2":20.6,"co":327.0,"o3":123.0,"so2":7.9,"mosquito_risk":3,"arthritis_risk":10,"migraine_risk":7,"frizz_risk":0,"updated_at":"2026-06-02T20:25:48.651670+05:30"},{"city":"Dharamshala","state":"Himachal Pradesh","latitude":32.219,"longitude":76.3234,"temp":20.5,"humidity":76,"rain":0.0,"pressure":868.1,"uv_index":8.55,"wind_gusts":38.9,"aqi":94,"pm10":18.3,"pm2_5":10.9,"no2":9.5,"co":353.0,"o3":107.0,"so2":0.9,"mosquito_risk":3,"arthritis_risk":5,"migraine_risk":7,"frizz_risk":0,"updated_at":"2026-06-02T20:25:48.651677+05:30"},{"city":"Dalhousie","state":"Himachal Pradesh","latitude":32.5387,"longitude":75.971,"temp":16.1,"humidity":75,"rain":0.0,"pressure":803.6,"uv_index":8.75,"wind_gusts":32.0,"aqi":125,"pm10":50.4,"pm2_5":24.2,"no2":13.5,"co":401.0,"o3":138.0,"so2":2.5,"mosquito_risk":3,"arthritis_risk":5,"migraine_risk":7,"frizz_risk":0,"updated_at":"2026-06-02T20:25:48.651685+05:30"},{"city":"Patiala","state":"Punjab","latitude":30.3398,"longitude":76.3869,"temp":30.0,"humidity":58,"rain":0.0,"pressure":975.9,"uv_index":7.7,"wind_gusts":26.3,"aqi":185,"pm10":80.1,"pm2_5":41.4,"no2":18.8,"co":546.0,"o3":118.0,"so2":10.2,"mosquito_risk":4,"arthritis_risk":5,"migraine_risk":7,"frizz_risk":1,"updated_at":"2026-06-02T20:25:48.651692+05:30"},{"city":"Bhatinda","state":"Punjab","latitude":30.211,"longitude":74.9455,"temp":32.7,"humidity":36,"rain":0.0,"pressure":981.0,"uv_index":8.3,"wind_gusts":32.4,"aqi":424,"pm10":234.7,"pm2_5":67.3,"no2":24.2,"co":428.0,"o3":114.0,"so2":15.3,"mosquito_risk":0,"arthritis_risk":5,"migraine_risk":7,"frizz_risk":0,"updated_at":"2026-06-02T20:25:48.651699+05:30"},{"city":"Rohtak","state":"Haryana","latitude":28.8955,"longitude":76.6066,"temp":30.6,"humidity":46,"rain":0.0,"pressure":979.3,"uv_index":7.2,"wind_gusts":31.3,"aqi":191,"pm10":172.3,"pm2_5":69.4,"no2":39.0,"co":369.0,"o3":127.0,"so2":20.1,"mosquito_risk":0,"arthritis_risk":5,"migraine_risk":7,"frizz_risk":1,"updated_at":"2026-06-02T20:25:48.651705+05:30"},{"city":"Panipat","state":"Haryana","latitude":29.3909,"longitude":76.9635,"temp":29.2,"humidity":58,"rain":0.0,"pressure":978.0,"uv_index":7.65,"wind_gusts":33.1,"aqi":410,"pm10":113.6,"pm2_5":50.6,"no2":23.2,"co":387.0,"o3":121.0,"so2":17.3,"mosquito_risk":4,"arthritis_risk":5,"migraine_risk":7,"frizz_risk":1,"updated_at":"2026-06-02T20:25:48.651712+05:30"},{"city":"Mathura","state":"Uttar Pradesh","latitude":27.4924,"longitude":77.6737,"temp":30.1,"humidity":57,"rain":0.0,"pressure":983.9,"uv_index":8.05,"wind_gusts":24.1,"aqi":153,"pm10":123.9,"pm2_5":50.1,"no2":38.2,"co":619.0,"o3":72.0,"so2":6.0,"mosquito_risk":0,"arthritis_risk":5,"migraine_risk":7,"frizz_risk":1,"updated_at":"2026-06-02T20:25:48.651719+05:30"},{"city":"Vrindavan","state":"Uttar Pradesh","latitude":27.5823,"longitude":77.7027,"temp":30.5,"humidity":52,"rain":0.0,"pressure":984.5,"uv_index":8.0,"wind_gusts":36.0,"aqi":153,"pm10":123.9,"pm2_5":50.1,"no2":38.2,"co":550.0,"o3":72.0,"so2":6.0,"mosquito_risk":0,"arthritis_risk":5,"migraine_risk":7,"frizz_risk":1,"updated_at":"2026-06-02T20:25:48.651725+05:30"},{"city":"Ayodhya","state":"Uttar Pradesh","latitude":26.7922,"longitude":82.1998,"temp":30.2,"humidity":70,"rain":0.0,"pressure":992.1,"uv_index":8.35,"wind_gusts":16.2,"aqi":158,"pm10":71.9,"pm2_5":52.7,"no2":17.4,"co":422.0,"o3":97.0,"so2":7.4,"mosquito_risk":3,"arthritis_risk":5,"migraine_risk":7,"frizz_risk":1,"updated_at":"2026-06-02T20:25:48.651732+05:30"},{"city":"Ratlam","state":"Madhya Pradesh","latitude":23.3315,"longitude":75.0367,"temp":30.6,"humidity":45,"rain":0.0,"pressure":952.4,"uv_index":8.5,"wind_gusts":32.4,"aqi":84,"pm10":42.5,"pm2_5":25.4,"no2":2.5,"co":186.0,"o3":90.0,"so2":5.1,"mosquito_risk":0,"arthritis_risk":5,"migraine_risk":7,"frizz_risk":1,"updated_at":"2026-06-02T20:25:48.651739+05:30"},{"city":"Sagar","state":"Madhya Pradesh","latitude":23.8388,"longitude":78.7378,"temp":29.4,"humidity":51,"rain":0.0,"pressure":948.2,"uv_index":8.7,"wind_gusts":24.8,"aqi":71,"pm10":44.6,"pm2_5":23.0,"no2":7.0,"co":220.0,"o3":92.0,"so2":2.9,"mosquito_risk":4,"arthritis_risk":5,"migraine_risk":7,"frizz_risk":1,"updated_at":"2026-06-02T20:25:48.651746+05:30"},{"city":"Satna","state":"Madhya Pradesh","latitude":24.6005,"longitude":80.8322,"temp":30.7,"humidity":53,"rain":0.0,"pressure":968.7,"uv_index":8.8,"wind_gusts":22.3,"aqi":119,"pm10":49.0,"pm2_5":35.4,"no2":7.4,"co":253.0,"o3":95.0,"so2":3.7,"mosquito_risk":0,"arthritis_risk":5,"migraine_risk":7,"frizz_risk":1,"updated_at":"2026-06-02T20:25:48.651753+05:30"},{"city":"Akola","state":"Maharashtra","latitude":20.7002,"longitude":77.0082,"temp":32.4,"humidity":40,"rain":0.0,"pressure":972.0,"uv_index":8.8,"wind_gusts":33.5,"aqi":76,"pm10":44.7,"pm2_5":22.8,"no2":7.4,"co":163.0,"o3":95.0,"so2":5.6,"mosquito_risk":0,"arthritis_risk":5,"migraine_risk":7,"frizz_risk":1,"updated_at":"2026-06-02T20:25:48.651760+05:30"},{"city":"Amravati","state":"Maharashtra","latitude":20.9374,"longitude":77.7796,"temp":34.4,"humidity":27,"rain":0.0,"pressure":964.5,"uv_index":8.8,"wind_gusts":36.4,"aqi":82,"pm10":49.5,"pm2_5":25.3,"no2":13.0,"co":239.0,"o3":87.0,"so2":7.2,"mosquito_risk":0,"arthritis_risk":5,"migraine_risk":7,"frizz_risk":0,"updated_at":"2026-06-02T20:25:48.651768+05:30"},{"city":"Latur","state":"Maharashtra","latitude":18.4088,"longitude":76.5604,"temp":32.3,"humidity":40,"rain":0.0,"pressure":938.2,"uv_index":8.95,"wind_gusts":37.1,"aqi":79,"pm10":49.7,"pm2_5":24.7,"no2":11.0,"co":273.0,"o3":90.0,"so2":3.9,"mosquito_risk":0,"arthritis_risk":5,"migraine_risk":7,"frizz_risk":1,"updated_at":"2026-06-02T20:25:48.651775+05:30"},{"city":"Nanded","state":"Maharashtra","latitude":19.1383,"longitude":77.3091,"temp":34.1,"humidity":35,"rain":0.0,"pressure":965.9,"uv_index":8.9,"wind_gusts":28.8,"aqi":86,"pm10":46.2,"pm2_5":22.9,"no2":12.3,"co":341.0,"o3":96.0,"so2":4.1,"mosquito_risk":0,"arthritis_risk":5,"migraine_risk":7,"frizz_risk":1,"updated_at":"2026-06-02T20:25:48.651783+05:30"},{"city":"Gulbarga","state":"Karnataka","latitude":17.3297,"longitude":76.8343,"temp":30.8,"humidity":47,"rain":0.0,"pressure":956.8,"uv_index":8.95,"wind_gusts":40.3,"aqi":114,"pm10":54.7,"pm2_5":27.6,"no2":19.4,"co":286.0,"o3":102.0,"so2":6.0,"mosquito_risk":0,"arthritis_risk":5,"migraine_risk":7,"frizz_risk":1,"updated_at":"2026-06-02T20:25:48.651790+05:30"},{"city":"Bidar","state":"Karnataka","latitude":17.9104,"longitude":77.5199,"temp":29.7,"humidity":52,"rain":0.0,"pressure":933.7,"uv_index":8.95,"wind_gusts":29.2,"aqi":97,"pm10":75.7,"pm2_5":38.9,"no2":16.8,"co":297.0,"o3":85.0,"so2":4.4,"mosquito_risk":4,"arthritis_risk":5,"migraine_risk":7,"frizz_risk":1,"updated_at":"2026-06-02T20:25:48.651796+05:30"},{"city":"Hospet","state":"Karnataka","latitude":15.2689,"longitude":76.3909,"temp":26.1,"humidity":86,"rain":0.0,"pressure":955.4,"uv_index":8.95,"wind_gusts":44.3,"aqi":67,"pm10":16.7,"pm2_5":10.7,"no2":5.8,"co":217.0,"o3":91.0,"so2":2.0,"mosquito_risk":7,"arthritis_risk":5,"migraine_risk":7,"frizz_risk":1,"updated_at":"2026-06-02T20:25:48.651803+05:30"},{"city":"Tirupur","state":"Tamil Nadu","latitude":11.1085,"longitude":77.3411,"temp":26.5,"humidity":80,"rain":0.1,"pressure":975.4,"uv_index":9.0,"wind_gusts":46.4,"aqi":84,"pm10":11.3,"pm2_5":10.4,"no2":14.8,"co":218.0,"o3":69.0,"so2":4.9,"mosquito_risk":10,"arthritis_risk":5,"migraine_risk":7,"frizz_risk":1,"updated_at":"2026-06-02T20:25:48.651810+05:30"},{"city":"Alappuzha","state":"Kerala","latitude":9.4981,"longitude":76.3388,"temp":26.2,"humidity":93,"rain":0.0,"pressure":1010.2,"uv_index":8.25,"wind_gusts":37.4,"aqi":40,"pm10":13.4,"pm2_5":11.6,"no2":12.7,"co":112.0,"o3":51.0,"so2":2.8,"mosquito_risk":7,"arthritis_risk":0,"migraine_risk":4,"frizz_risk":1,"updated_at":"2026-06-02T20:25:48.651816+05:30"},{"city":"Munnar","state":"Kerala","latitude":10.0889,"longitude":77.0595,"temp":17.2,"humidity":100,"rain":0.3,"pressure":857.6,"uv_index":9.15,"wind_gusts":27.7,"aqi":48,"pm10":5.8,"pm2_5":5.5,"no2":8.1,"co":189.0,"o3":50.0,"so2":1.7,"mosquito_risk":6,"arthritis_risk":10,"migraine_risk":7,"frizz_risk":1,"updated_at":"2026-06-02T20:25:48.651824+05:30"},{"city":"Silchar","state":"Assam","latitude":24.8333,"longitude":92.7789,"temp":27.9,"humidity":93,"rain":0.0,"pressure":1002.4,"uv_index":8.7,"wind_gusts":23.8,"aqi":103,"pm10":67.3,"pm2_5":52.9,"no2":15.5,"co":864.0,"o3":101.0,"so2":10.3,"mosquito_risk":7,"arthritis_risk":5,"migraine_risk":4,"frizz_risk":1,"updated_at":"2026-06-02T20:25:48.651830+05:30"},{"city":"Dibrugarh","state":"Assam","latitude":27.4728,"longitude":94.912,"temp":25.5,"humidity":97,"rain":0.3,"pressure":992.4,"uv_index":8.9,"wind_gusts":26.6,"aqi":67,"pm10":16.5,"pm2_5":15.5,"no2":8.5,"co":424.0,"o3":78.0,"so2":1.7,"mosquito_risk":10,"arthritis_risk":5,"migraine_risk":7,"frizz_risk":1,"updated_at":"2026-06-02T20:25:48.651837+05:30"}]