[{"city":"Delhi","state":"Delhi","latitude":28.6139,"longitude":77.209,"temp":21.3,"humidity":72,"rain":0.0,"pressure":983.0,"uv_index":5.9,"wind_gusts":18.0,"aqi":425,"pm10":326.9,"pm2_5":86.6,"mosquito_risk":3,"arthritis_risk":5,"migraine_risk":3,"frizz_risk":0,"updated_at":"2026-03-06T04:05:55.697434+05:30"},{"city":"Mumbai","state":"Maharashtra","latitude":19.076,"longitude":72.8777,"temp":27.4,"humidity":69,"rain":0.0,"pressure":1008.0,"uv_index":7.45,"wind_gusts":24.8,"aqi":100,"pm10":33.5,"pm2_5":31.0,"mosquito_risk":7,"arthritis_risk":0,"migraine_risk":4,"frizz_risk":1,"updated_at":"2026-03-06T04:05:55.697483+05:30"},{"city":"Bangalore","state":"Karnataka","latitude":12.9716,"longitude":77.5946,"temp":19.6,"humidity":63,"rain":0.0,"pressure":909.8,"uv_index":9.15,"wind_gusts":24.5,"aqi":93,"pm10":44.7,"pm2_5":40.3,"mosquito_risk":3,"arthritis_risk":5,"migraine_risk":7,"frizz_risk":0,"updated_at":"2026-03-06T04:05:55.697500+05:30"},{"city":"Hyderabad","state":"Telangana","latitude":17.385,"longitude":78.4867,"temp":22.9,"humidity":50,"rain":0.0,"pressure":952.2,"uv_index":8.45,"wind_gusts":25.6,"aqi":103,"pm10":50.3,"pm2_5":46.3,"mosquito_risk":0,"arthritis_risk":5,"migraine_risk":7,"frizz_risk":0,"updated_at":"2026-03-06T04:05:55.697511+05:30"},{"city":"Chennai","state":"Tamil Nadu","latitude":13.0827,"longitude":80.2707,"temp":24.0,"humidity":93,"rain":0.0,"pressure":1006.5,"uv_index":8.9,"wind_gusts":31.3,"aqi":84,"pm10":23.8,"pm2_5":20.0,"mosquito_risk":3,"arthritis_risk":5,"migraine_risk":4,"frizz_risk":1,"updated_at":"2026-03-06T04:05:55.697521+05:30"},{"city":"Kolkata","state":"West Bengal","latitude":22.5726,"longitude":88.3639,"temp":21.5,"humidity":97,"rain":0.0,"pressure":1006.8,"uv_index":7.8,"wind_gusts":14.8,"aqi":165,"pm10":101.7,"pm2_5":91.7,"mosquito_risk":3,"arthritis_risk":5,"migraine_risk":4,"frizz_risk":1,"updated_at":"2026-03-06T04:05:55.697530+05:30"},{"city":"Pune","state":"Maharashtra","latitude":18.5204,"longitude":73.8567,"temp":21.5,"humidity":59,"rain":0.0,"pressure":948.0,"uv_index":8.0,"wind_gusts":28.8,"aqi":87,"pm10":55.5,"pm2_5":53.7,"mosquito_risk":0,"arthritis_risk":5,"migraine_risk":7,"frizz_risk":0,"updated_at":"2026-03-06T04:05:55.697544+05:30"},{"city":"Ahmedabad","state":"Gujarat","latitude":23.0225,"longitude":72.5714,"temp":20.6,"humidity":79,"rain":0.0,"pressure":1003.7,"uv_index":7.25,"wind_gusts":21.2,"aqi":67,"pm10":24.0,"pm2_5":23.2,"mosquito_risk":3,"arthritis_risk":5,"migraine_risk":4,"frizz_risk":1,"updated_at":"2026-03-06T04:05:55.697551+05:30"},{"city":"Jaipur","state":"Rajasthan","latitude":26.9124,"longitude":75.7873,"temp":22.7,"humidity":40,"rain":0.0,"pressure":960.1,"uv_index":6.7,"wind_gusts":20.9,"aqi":99,"pm10":136.0,"pm2_5":25.3,"mosquito_risk":0,"arthritis_risk":5,"migraine_risk":7,"frizz_risk":0,"updated_at":"2026-03-06T04:05:55.697559+05:30"},{"city":"Lucknow","state":"Uttar Pradesh","latitude":26.8467,"longitude":80.9462,"temp":21.1,"humidity":82,"rain":0.0,"pressure":994.0,"uv_index":6.4,"wind_gusts":22.7,"aqi":169,"pm10":155.5,"pm2_5":102.4,"mosquito_risk":3,"arthritis_risk":5,"migraine_risk":7,"frizz_risk":1,"updated_at":"2026-03-06T04:05:55.697567+05:30"},{"city":"Kanpur","state":"Uttar Pradesh","latitude":26.4499,"longitude":80.3319,"temp":20.4,"humidity":87,"rain":0.0,"pressure":992.0,"uv_index":6.4,"wind_gusts":14.8,"aqi":181,"pm10":297.1,"pm2_5":98.0,"mosquito_risk":3,"arthritis_risk":5,"migraine_risk":7,"frizz_risk":1,"updated_at":"2026-03-06T04:05:55.697574+05:30"},{"city":"Chandigarh","state":"Chandigarh","latitude":30.7333,"longitude":76.7794,"temp":19.8,"humidity":73,"rain":0.0,"pressure":968.3,"uv_index":5.8,"wind_gusts":21.6,"aqi":105,"pm10":54.5,"pm2_5":40.6,"mosquito_risk":3,"arthritis_risk":5,"migraine_risk":3,"frizz_risk":0,"updated_at":"2026-03-06T04:05:55.697582+05:30"},{"city":"Srinagar","state":"Jammu and Kashmir","latitude":34.0837,"longitude":74.7973,"temp":6.2,"humidity":74,"rain":0.0,"pressure":838.3,"uv_index":6.5,"wind_gusts":16.6,"aqi":145,"pm10":82.2,"pm2_5":59.3,"mosquito_risk":3,"arthritis_risk":5,"migraine_risk":7,"frizz_risk":0,"updated_at":"2026-03-06T04:05:55.697589+05:30"},{"city":"Jammu","state":"Jammu and Kashmir","latitude":32.7266,"longitude":74.857,"temp":17.5,"humidity":87,"rain":0.0,"pressure":972.4,"uv_index":5.9,"wind_gusts":19.8,"aqi":117,"pm10":53.3,"pm2_5":45.2,"mosquito_risk":3,"arthritis_risk":10,"migraine_risk":3,"frizz_risk":0,"updated_at":"2026-03-06T04:05:55.697596+05:30"},{"city":"Amritsar","state":"Punjab","latitude":31.634,"longitude":74.8723,"temp":18.1,"humidity":84,"rain":0.0,"pressure":980.8,"uv_index":6.15,"wind_gusts":14.4,"aqi":151,"pm10":105.5,"pm2_5":89.2,"mosquito_risk":3,"arthritis_risk":10,"migraine_risk":7,"frizz_risk":0,"updated_at":"2026-03-06T04:05:55.697604+05:30"},{"city":"Ludhiana","state":"Punjab","latitude":30.901,"longitude":75.8573,"temp":20.8,"humidity":80,"rain":0.0,"pressure":978.7,"uv_index":6.05,"wind_gusts":14.4,"aqi":160,"pm10":114.3,"pm2_5":91.5,"mosquito_risk":3,"arthritis_risk":5,"migraine_risk":7,"frizz_risk":1,"updated_at":"2026-03-06T04:05:55.697611+05:30"},{"city":"Jalandhar","state":"Punjab","latitude":31.326,"longitude":75.5762,"temp":18.5,"humidity":90,"rain":0.0,"pressure":979.9,"uv_index":6.2,"wind_gusts":15.8,"aqi":160,"pm10":119.0,"pm2_5":100.6,"mosquito_risk":3,"arthritis_risk":10,"migraine_risk":7,"frizz_risk":1,"updated_at":"2026-03-06T04:05:55.697620+05:30"},{"city":"Dehradun","state":"Uttarakhand","latitude":30.6284,"longitude":78.0322,"temp":12.2,"humidity":54,"rain":0.0,"pressure":827.1,"uv_index":6.15,"wind_gusts":26.6,"aqi":74,"pm10":34.2,"pm2_5":29.3,"mosquito_risk":0,"arthritis_risk":5,"migraine_risk":7,"frizz_risk":0,"updated_at":"2026-03-06T04:05:55.697628+05:30"},{"city":"Shimla","state":"Himachal Pradesh","latitude":31.1048,"longitude":77.1734,"temp":12.2,"humidity":49,"rain":0.0,"pressure":782.5,"uv_index":6.25,"wind_gusts":30.6,"aqi":71,"pm10":52.4,"pm2_5":29.2,"mosquito_risk":0,"arthritis_risk":5,"migraine_risk":7,"frizz_risk":0,"updated_at":"2026-03-06T04:05:55.697635+05:30"},{"city":"Manali","state":"Himachal Pradesh","latitude":32.2396,"longitude":77.1887,"temp":18.0,"humidity":19,"rain":0.0,"pressure":820.9,"uv_index":7.0,"wind_gusts":37.4,"aqi":61,"pm10":38.1,"pm2_5":22.9,"mosquito_risk":0,"arthritis_risk":5,"migraine_risk":7,"frizz_risk":1,"updated_at":"2026-03-06T04:05:55.697642+05:30"},{"city":"Gurgaon","state":"Haryana","latitude":28.4595,"longitude":77.0266,"temp":18.7,"humidity":77,"rain":0.0,"pressure":981.3,"uv_index":6.05,"wind_gusts":16.2,"aqi":1433,"pm10":711.5,"pm2_5":124.3,"mosquito_risk":3,"arthritis_risk":5,"migraine_risk":7,"frizz_risk":0,"updated_at":"2026-03-06T04:05:55.697649+05:30"},{"city":"Noida","state":"Uttar Pradesh","latitude":28.5355,"longitude":77.391,"temp":21.3,"humidity":73,"rain":0.0,"pressure":984.5,"uv_index":5.95,"wind_gusts":17.3,"aqi":1433,"pm10":711.5,"pm2_5":124.3,"mosquito_risk":3,"arthritis_risk":5,"migraine_risk":3,"frizz_risk":1,"updated_at":"2026-03-06T04:05:55.697656+05:30"},{"city":"Ghaziabad","state":"Uttar Pradesh","latitude":28.6692,"longitude":77.4538,"temp":20.8,"humidity":77,"rain":0.0,"pressure":982.6,"uv_index":5.9,"wind_gusts":13.7,"aqi":297,"pm10":304.5,"pm2_5":95.5,"mosquito_risk":3,"arthritis_risk":5,"migraine_risk":3,"frizz_risk":1,"updated_at":"2026-03-06T04:05:55.697663+05:30"},{"city":"Faridabad","state":"Haryana","latitude":28.4089,"longitude":77.3178,"temp":21.7,"humidity":62,"rain":0.0,"pressure":983.7,"uv_index":5.95,"wind_gusts":16.9,"aqi":1433,"pm10":711.5,"pm2_5":124.3,"mosquito_risk":3,"arthritis_risk":5,"migraine_risk":3,"frizz_risk":0,"updated_at":"2026-03-06T04:05:55.697669+05:30"},{"city":"Meerut","state":"Uttar Pradesh","latitude":28.9845,"longitude":77.7064,"temp":19.8,"humidity":89,"rain":0.0,"pressure":981.2,"uv_index":5.75,"wind_gusts":11.2,"aqi":297,"pm10":304.5,"pm2_5":95.5,"mosquito_risk":3,"arthritis_risk":10,"migraine_risk":3,"frizz_risk":1,"updated_at":"2026-03-06T04:05:55.697675+05:30"},{"city":"Agra","state":"Uttar Pradesh","latitude":27.1767,"longitude":78.0081,"temp":18.8,"humidity":72,"rain":0.0,"pressure":987.8,"uv_index":6.3,"wind_gusts":20.2,"aqi":534,"pm10":476.8,"pm2_5":92.9,"mosquito_risk":3,"arthritis_risk":5,"migraine_risk":7,"frizz_risk":0,"updated_at":"2026-03-06T04:05:55.697682+05:30"},{"city":"Varanasi","state":"Uttar Pradesh","latitude":25.3176,"longitude":82.9739,"temp":20.5,"humidity":81,"rain":0.0,"pressure":998.5,"uv_index":7.1,"wind_gusts":16.6,"aqi":160,"pm10":160.7,"pm2_5":92.4,"mosquito_risk":3,"arthritis_risk":5,"migraine_risk":7,"frizz_risk":1,"updated_at":"2026-03-06T04:05:55.697691+05:30"},{"city":"Prayagraj","state":"Uttar Pradesh","latitude":25.4358,"longitude":81.8463,"temp":20.2,"humidity":87,"rain":0.0,"pressure":996.4,"uv_index":6.95,"wind_gusts":14.8,"aqi":163,"pm10":173.7,"pm2_5":112.5,"mosquito_risk":3,"arthritis_risk":5,"migraine_risk":7,"frizz_risk":1,"updated_at":"2026-03-06T04:05:55.697697+05:30"},{"city":"Gorakhpur","state":"Uttar Pradesh","latitude":26.7606,"longitude":83.3732,"temp":18.3,"humidity":85,"rain":0.0,"pressure":998.3,"uv_index":6.75,"wind_gusts":20.9,"aqi":172,"pm10":121.1,"pm2_5":105.5,"mosquito_risk":3,"arthritis_risk":10,"migraine_risk":7,"frizz_risk":0,"updated_at":"2026-03-06T04:05:55.697707+05:30"},{"city":"Bareilly","state":"Uttar Pradesh","latitude":28.367,"longitude":79.4304,"temp":19.0,"humidity":94,"rain":0.0,"pressure":987.2,"uv_index":6.1,"wind_gusts":20.9,"aqi":169,"pm10":120.1,"pm2_5":85.0,"mosquito_risk":3,"arthritis_risk":10,"migraine_risk":7,"frizz_risk":1,"updated_at":"2026-03-06T04:05:55.697714+05:30"},{"city":"Aligarh","state":"Uttar Pradesh","latitude":27.8974,"longitude":78.088,"temp":20.1,"humidity":75,"rain":0.0,"pressure":985.4,"uv_index":6.0,"wind_gusts":19.1,"aqi":714,"pm10":597.9,"pm2_5":138.3,"mosquito_risk":3,"arthritis_risk":5,"migraine_risk":3,"frizz_risk":0,"updated_at":"2026-03-06T04:05:55.697720+05:30"},{"city":"Moradabad","state":"Uttar Pradesh","latitude":28.8386,"longitude":78.7733,"temp":19.0,"humidity":94,"rain":0.0,"pressure":983.9,"uv_index":5.9,"wind_gusts":24.1,"aqi":177,"pm10":103.8,"pm2_5":97.6,"mosquito_risk":3,"arthritis_risk":10,"migraine_risk":3,"frizz_risk":1,"updated_at":"2026-03-06T04:05:55.697726+05:30"},{"city":"Saharanpur","state":"Uttar Pradesh","latitude":29.9637,"longitude":77.546,"temp":18.3,"humidity":94,"rain":0.0,"pressure":975.5,"uv_index":5.55,"wind_gusts":25.6,"aqi":160,"pm10":126.2,"pm2_5":89.4,"mosquito_risk":3,"arthritis_risk":10,"migraine_risk":3,"frizz_risk":1,"updated_at":"2026-03-06T04:05:55.697732+05:30"},{"city":"Jhansi","state":"Uttar Pradesh","latitude":25.4484,"longitude":78.5685,"temp":19.7,"humidity":57,"rain":0.0,"pressure":977.8,"uv_index":6.9,"wind_gusts":25.2,"aqi":59,"pm10":28.1,"pm2_5":16.8,"mosquito_risk":0,"arthritis_risk":5,"migraine_risk":7,"frizz_risk":0,"updated_at":"2026-03-06T04:05:58.924185+05:30"},{"city":"Surat","state":"Gujarat","latitude":21.1702,"longitude":72.8311,"temp":23.2,"humidity":74,"rain":0.0,"pressure":1007.5,"uv_index":7.15,"wind_gusts":22.7,"aqi":122,"pm10":39.2,"pm2_5":38.4,"mosquito_risk":3,"arthritis_risk":5,"migraine_risk":4,"frizz_risk":1,"updated_at":"2026-03-06T04:05:58.924220+05:30"},{"city":"Vadodara","state":"Gujarat","latitude":22.3072,"longitude":73.1812,"temp":21.7,"humidity":67,"rain":0.0,"pressure":1005.5,"uv_index":7.25,"wind_gusts":19.1,"aqi":91,"pm10":40.9,"pm2_5":40.3,"mosquito_risk":3,"arthritis_risk":5,"migraine_risk":4,"frizz_risk":0,"updated_at":"2026-03-06T04:05:58.924230+05:30"},{"city":"Rajkot","state":"Gujarat","latitude":22.3039,"longitude":70.8022,"temp":20.1,"humidity":94,"rain":0.0,"pressure":996.4,"uv_index":7.1,"wind_gusts":23.4,"aqi":54,"pm10":15.5,"pm2_5":12.5,"mosquito_risk":3,"arthritis_risk":5,"migraine_risk":7,"frizz_risk":1,"updated_at":"2026-03-06T04:05:58.924239+05:30"},{"city":"Thane","state":"Maharashtra","latitude":19.2183,"longitude":72.9781,"temp":24.9,"humidity":63,"rain":0.0,"pressure":1007.5,"uv_index":7.4,"wind_gusts":36.7,"aqi":100,"pm10":33.5,"pm2_5":31.0,"mosquito_risk":3,"arthritis_risk":5,"migraine_risk":4,"frizz_risk":1,"updated_at":"2026-03-06T04:05:58.924246+05:30"},{"city":"Nagpur","state":"Maharashtra","latitude":21.1458,"longitude":79.0882,"temp":18.6,"humidity":63,"rain":0.0,"pressure":972.6,"uv_index":7.8,"wind_gusts":25.6,"aqi":54,"pm10":21.8,"pm2_5":14.9,"mosquito_risk":3,"arthritis_risk":5,"migraine_risk":7,"frizz_risk":0,"updated_at":"2026-03-06T04:05:58.924253+05:30"},{"city":"Nashik","state":"Maharashtra","latitude":19.9975,"longitude":73.7898,"temp":21.7,"humidity":52,"rain":0.0,"pressure":945.6,"uv_index":7.6,"wind_gusts":34.2,"aqi":73,"pm10":27.1,"pm2_5":24.2,"mosquito_risk":0,"arthritis_risk":5,"migraine_risk":7,"frizz_risk":0,"updated_at":"2026-03-06T04:05:58.924260+05:30"},{"city":"Aurangabad","state":"Maharashtra","latitude":19.8762,"longitude":75.3433,"temp":23.7,"humidity":42,"rain":0.0,"pressure":944.1,"uv_index":8.15,"wind_gusts":24.5,"aqi":67,"pm10":23.6,"pm2_5":20.6,"mosquito_risk":0,"arthritis_risk":5,"migraine_risk":7,"frizz_risk":0,"updated_at":"2026-03-06T04:05:58.924266+05:30"},{"city":"Solapur","state":"Maharashtra","latitude":17.6599,"longitude":75.9064,"temp":20.6,"humidity":61,"rain":0.0,"pressure":956.1,"uv_index":8.4,"wind_gusts":19.8,"aqi":75,"pm10":24.0,"pm2_5":22.1,"mosquito_risk":3,"arthritis_risk":5,"migraine_risk":7,"frizz_risk":0,"updated_at":"2026-03-06T04:05:58.924273+05:30"},{"city":"Kolhapur","state":"Maharashtra","latitude":16.705,"longitude":74.2433,"temp":18.8,"humidity":61,"rain":0.0,"pressure":946.6,"uv_index":8.55,"wind_gusts":32.4,"aqi":151,"pm10":85.2,"pm2_5":84.3,"mosquito_risk":3,"arthritis_risk":5,"migraine_risk":7,"frizz_risk":0,"updated_at":"2026-03-06T04:05:58.924279+05:30"},{"city":"Goa","state":"Goa","latitude":15.2993,"longitude":74.124,"temp":23.8,"humidity":98,"rain":0.0,"pressure":996.8,"uv_index":8.6,"wind_gusts":31.3,"aqi":155,"pm10":81.5,"pm2_5":78.5,"mosquito_risk":3,"arthritis_risk":5,"migraine_risk":7,"frizz_risk":1,"updated_at":"2026-03-06T04:05:58.924286+05:30"},{"city":"Jodhpur","state":"Rajasthan","latitude":26.2389,"longitude":73.0243,"temp":20.3,"humidity":43,"rain":0.0,"pressure":984.0,"uv_index":6.95,"wind_gusts":21.6,"aqi":73,"pm10":80.8,"pm2_5":17.2,"mosquito_risk":0,"arthritis_risk":5,"migraine_risk":7,"frizz_risk":0,"updated_at":"2026-03-06T04:05:58.924309+05:30"},{"city":"Udaipur","state":"Rajasthan","latitude":24.5854,"longitude":73.7125,"temp":16.3,"humidity":38,"rain":0.0,"pressure":946.7,"uv_index":7.6,"wind_gusts":20.5,"aqi":48,"pm10":10.0,"pm2_5":9.6,"mosquito_risk":0,"arthritis_risk":5,"migraine_risk":7,"frizz_risk":0,"updated_at":"2026-03-06T04:05:58.924316+05:30"},{"city":"Kota","state":"Rajasthan","latitude":25.2138,"longitude":75.8648,"temp":19.2,"humidity":66,"rain":0.0,"pressure":978.9,"uv_index":7.0,"wind_gusts":17.6,"aqi":77,"pm10":28.9,"pm2_5":22.7,"mosquito_risk":3,"arthritis_risk":5,"migraine_risk":7,"frizz_risk":0,"updated_at":"2026-03-06T04:05:58.924323+05:30"},{"city":"Bikaner","state":"Rajasthan","latitude":28.0229,"longitude":73.3119,"temp":21.8,"humidity":43,"rain":0.0,"pressure":982.4,"uv_index":6.65,"wind_gusts":20.9,"aqi":59,"pm10":54.5,"pm2_5":14.4,"mosquito_risk":0,"arthritis_risk":5,"migraine_risk":7,"frizz_risk":0,"updated_at":"2026-03-06T04:05:58.924329+05:30"},{"city":"Ajmer","state":"Rajasthan","latitude":26.4499,"longitude":74.6399,"temp":20.0,"humidity":47,"rain":0.0,"pressure":955.1,"uv_index":6.95,"wind_gusts":23.8,"aqi":67,"pm10":41.1,"pm2_5":12.3,"mosquito_risk":0,"arthritis_risk":5,"migraine_risk":7,"frizz_risk":0,"updated_at":"2026-03-06T04:05:58.924336+05:30"},{"city":"Gwalior","state":"Madhya Pradesh","latitude":26.2183,"longitude":78.1828,"temp":20.9,"humidity":66,"rain":0.0,"pressure":983.1,"uv_index":6.6,"wind_gusts":22.0,"aqi":81,"pm10":134.1,"pm2_5":32.4,"mosquito_risk":3,"arthritis_risk":5,"migraine_risk":7,"frizz_risk":0,"updated_at":"2026-03-06T04:05:58.924343+05:30"},{"city":"Indore","state":"Madhya Pradesh","latitude":22.7196,"longitude":75.8577,"temp":16.5,"humidity":69,"rain":0.0,"pressure":947.7,"uv_index":7.55,"wind_gusts":22.7,"aqi":80,"pm10":35.5,"pm2_5":29.3,"mosquito_risk":3,"arthritis_risk":5,"migraine_risk":7,"frizz_risk":0,"updated_at":"2026-03-06T04:05:58.924349+05:30"},{"city":"Bhopal","state":"Madhya Pradesh","latitude":23.2599,"longitude":77.4126,"temp":18.0,"humidity":58,"rain":0.0,"pressure":953.2,"uv_index":7.4,"wind_gusts":24.8,"aqi":65,"pm10":37.6,"pm2_5":27.8,"mosquito_risk":0,"arthritis_risk":5,"migraine_risk":7,"frizz_risk":0,"updated_at":"2026-03-06T04:05:58.924355+05:30"},{"city":"Jabalpur","state":"Madhya Pradesh","latitude":23.1815,"longitude":79.9864,"temp":17.9,"humidity":75,"rain":0.0,"pressure":961.0,"uv_index":7.5,"wind_gusts":27.7,"aqi":60,"pm10":36.0,"pm2_5":24.4,"mosquito_risk":3,"arthritis_risk":5,"migraine_risk":7,"frizz_risk":0,"updated_at":"2026-03-06T04:05:58.924361+05:30"},{"city":"Ujjain","state":"Madhya Pradesh","latitude":23.1765,"longitude":75.7885,"temp":16.9,"humidity":70,"rain":0.0,"pressure":953.6,"uv_index":7.45,"wind_gusts":19.1,"aqi":103,"pm10":22.2,"pm2_5":21.1,"mosquito_risk":3,"arthritis_risk":5,"migraine_risk":7,"frizz_risk":0,"updated_at":"2026-03-06T04:05:58.924368+05:30"},{"city":"Visakhapatnam","state":"Andhra Pradesh","latitude":17.6868,"longitude":83.2185,"temp":24.0,"humidity":93,"rain":0.0,"pressure":1001.9,"uv_index":8.45,"wind_gusts":36.7,"aqi":135,"pm10":59.0,"pm2_5":55.9,"mosquito_risk":3,"arthritis_risk":5,"migraine_risk":4,"frizz_risk":1,"updated_at":"2026-03-06T04:05:58.924375+05:30"},{"city":"Vijayawada","state":"Andhra Pradesh","latitude":16.5062,"longitude":80.648,"temp":23.4,"humidity":82,"rain":0.0,"pressure":1001.1,"uv_index":8.55,"wind_gusts":18.4,"aqi":126,"pm10":57.2,"pm2_5":55.4,"mosquito_risk":3,"arthritis_risk":5,"migraine_risk":4,"frizz_risk":1,"updated_at":"2026-03-06T04:05:58.924381+05:30"},{"city":"Guntur","state":"Andhra Pradesh","latitude":16.3067,"longitude":80.4365,"temp":23.7,"humidity":78,"rain":0.0,"pressure":1002.5,"uv_index":8.55,"wind_gusts":16.9,"aqi":111,"pm10":46.3,"pm2_5":44.1,"mosquito_risk":3,"arthritis_risk":5,"migraine_risk":4,"frizz_risk":1,"updated_at":"2026-03-06T04:05:58.924388+05:30"},{"city":"Nellore","state":"Andhra Pradesh","latitude":14.4426,"longitude":79.9865,"temp":23.9,"humidity":82,"rain":0.0,"pressure":1004.6,"uv_index":8.75,"wind_gusts":29.9,"aqi":94,"pm10":29.4,"pm2_5":28.1,"mosquito_risk":3,"arthritis_risk":5,"migraine_risk":4,"frizz_risk":1,"updated_at":"2026-03-06T04:05:58.924395+05:30"},{"city":"Kurnool","state":"Andhra Pradesh","latitude":15.8281,"longitude":78.0373,"temp":24.2,"humidity":50,"rain":0.0,"pressure":975.6,"uv_index":8.55,"wind_gusts":23.8,"aqi":78,"pm10":23.3,"pm2_5":21.1,"mosquito_risk":0,"arthritis_risk":5,"migraine_risk":7,"frizz_risk":0,"updated_at":"2026-03-06T04:05:58.924403+05:30"},{"city":"Kakinada","state":"Andhra Pradesh","latitude":16.9891,"longitude":82.2475,"temp":22.6,"humidity":93,"rain":0.0,"pressure":1005.9,"uv_index":8.5,"wind_gusts":35.3,"aqi":118,"pm10":50.4,"pm2_5":46.8,"mosquito_risk":3,"arthritis_risk":5,"migraine_risk":4,"frizz_risk":1,"updated_at":"2026-03-06T04:05:58.924409+05:30"},{"city":"Tirupati","state":"Andhra Pradesh","latitude":13.6288,"longitude":79.4192,"temp":20.4,"humidity":82,"rain":0.0,"pressure":991.0,"uv_index":8.85,"wind_gusts":29.5,"aqi":117,"pm10":51.1,"pm2_5":49.9,"mosquito_risk":3,"arthritis_risk":5,"migraine_risk":7,"frizz_risk":1,"updated_at":"2026-03-06T04:05:58.924417+05:30"},{"city":"Warangal","state":"Telangana","latitude":17.9689,"longitude":79.5941,"temp":23.5,"humidity":52,"rain":0.0,"pressure":977.0,"uv_index":8.3,"wind_gusts":26.3,"aqi":81,"pm10":31.0,"pm2_5":29.6,"mosquito_risk":0,"arthritis_risk":5,"migraine_risk":7,"frizz_risk":0,"updated_at":"2026-03-06T04:05:58.924423+05:30"},{"city":"Nizamabad","state":"Telangana","latitude":18.6725,"longitude":78.0941,"temp":22.2,"humidity":57,"rain":0.0,"pressure":964.0,"uv_index":8.2,"wind_gusts":31.3,"aqi":92,"pm10":39.7,"pm2_5":38.0,"mosquito_risk":0,"arthritis_risk":5,"migraine_risk":7,"frizz_risk":0,"updated_at":"2026-03-06T04:05:58.924428+05:30"},{"city":"Mysore","state":"Karnataka","latitude":12.2958,"longitude":76.6396,"temp":20.8,"humidity":97,"rain":0.0,"pressure":926.9,"uv_index":9.2,"wind_gusts":35.6,"aqi":114,"pm10":48.7,"pm2_5":47.7,"mosquito_risk":3,"arthritis_risk":5,"migraine_risk":7,"frizz_risk":1,"updated_at":"2026-03-06T04:05:58.924435+05:30"},{"city":"Mangalore","state":"Karnataka","latitude":12.9141,"longitude":74.856,"temp":28.5,"humidity":79,"rain":0.0,"pressure":1005.6,"uv_index":8.8,"wind_gusts":24.5,"aqi":128,"pm10":49.8,"pm2_5":46.1,"mosquito_risk":7,"arthritis_risk":5,"migraine_risk":4,"frizz_risk":1,"updated_at":"2026-03-06T04:05:58.924442+05:30"},{"city":"Hubli-Dharwad","state":"Karnataka","latitude":15.3647,"longitude":75.124,"temp":19.0,"humidity":97,"rain":0.0,"pressure":939.1,"uv_index":8.75,"wind_gusts":35.3,"aqi":80,"pm10":41.0,"pm2_5":39.8,"mosquito_risk":3,"arthritis_risk":10,"migraine_risk":7,"frizz_risk":1,"updated_at":"2026-03-06T04:05:58.924450+05:30"},{"city":"Belgaum","state":"Karnataka","latitude":15.8497,"longitude":74.4977,"temp":20.3,"humidity":72,"rain":0.0,"pressure":924.1,"uv_index":8.8,"wind_gusts":38.9,"aqi":120,"pm10":66.8,"pm2_5":64.7,"mosquito_risk":3,"arthritis_risk":5,"migraine_risk":7,"frizz_risk":0,"updated_at":"2026-03-06T04:06:02.153610+05:30"},{"city":"Coimbatore","state":"Tamil Nadu","latitude":11.0168,"longitude":76.9558,"temp":21.6,"humidity":92,"rain":0.0,"pressure":960.8,"uv_index":9.15,"wind_gusts":37.8,"aqi":106,"pm10":51.1,"pm2_5":49.7,"mosquito_risk":3,"arthritis_risk":5,"migraine_risk":7,"frizz_risk":1,"updated_at":"2026-03-06T04:06:02.153646+05:30"},{"city":"Madurai","state":"Tamil Nadu","latitude":9.9252,"longitude":78.1198,"temp":23.8,"humidity":91,"rain":0.0,"pressure":992.4,"uv_index":9.15,"wind_gusts":27.4,"aqi":87,"pm10":38.4,"pm2_5":37.1,"mosquito_risk":3,"arthritis_risk":5,"migraine_risk":7,"frizz_risk":1,"updated_at":"2026-03-06T04:06:02.153656+05:30"},{"city":"Trichy","state":"Tamil Nadu","latitude":10.7905,"longitude":78.7047,"temp":22.9,"humidity":98,"rain":0.0,"pressure":999.2,"uv_index":9.05,"wind_gusts":25.2,"aqi":94,"pm10":30.4,"pm2_5":28.9,"mosquito_risk":3,"arthritis_risk":5,"migraine_risk":7,"frizz_risk":1,"updated_at":"2026-03-06T04:06:02.153664+05:30"},{"city":"Salem","state":"Tamil Nadu","latitude":11.6643,"longitude":78.146,"temp":23.3,"humidity":77,"rain":0.0,"pressure":976.8,"uv_index":9.05,"wind_gusts":15.5,"aqi":99,"pm10":45.2,"pm2_5":43.0,"mosquito_risk":3,"arthritis_risk":5,"migraine_risk":7,"frizz_risk":1,"updated_at":"2026-03-06T04:06:02.153671+05:30"},{"city":"Tirunelveli","state":"Tamil Nadu","latitude":8.7139,"longitude":77.7567,"temp":23.6,"humidity":79,"rain":0.0,"pressure":1002.8,"uv_index":9.15,"wind_gusts":49.0,"aqi":84,"pm10":49.7,"pm2_5":48.5,"mosquito_risk":3,"arthritis_risk":5,"migraine_risk":4,"frizz_risk":1,"updated_at":"2026-03-06T04:06:02.153679+05:30"},{"city":"Vellore","state":"Tamil Nadu","latitude":12.9165,"longitude":79.1325,"temp":19.9,"humidity":95,"rain":0.0,"pressure":984.1,"uv_index":8.95,"wind_gusts":32.8,"aqi":119,"pm10":53.8,"pm2_5":51.8,"mosquito_risk":3,"arthritis_risk":10,"migraine_risk":7,"frizz_risk":1,"updated_at":"2026-03-06T04:06:02.153686+05:30"},{"city":"Erode","state":"Tamil Nadu","latitude":11.341,"longitude":77.7172,"temp":23.9,"humidity":76,"rain":0.0,"pressure":988.4,"uv_index":9.05,"wind_gusts":19.8,"aqi":89,"pm10":32.5,"pm2_5":30.5,"mosquito_risk":3,"arthritis_risk":5,"migraine_risk":7,"frizz_risk":1,"updated_at":"2026-03-06T04:06:02.153693+05:30"},{"city":"Kochi","state":"Kerala","latitude":9.9312,"longitude":76.2673,"temp":27.4,"humidity":83,"rain":0.0,"pressure":1007.7,"uv_index":9.0,"wind_gusts":33.1,"aqi":141,"pm10":59.5,"pm2_5":58.8,"mosquito_risk":7,"arthritis_risk":5,"migraine_risk":4,"frizz_risk":1,"updated_at":"2026-03-06T04:06:02.153699+05:30"},{"city":"Thiruvananthapuram","state":"Kerala","latitude":8.5241,"longitude":76.9366,"temp":27.6,"humidity":79,"rain":0.0,"pressure":1007.1,"uv_index":9.05,"wind_gusts":32.4,"aqi":89,"pm10":29.7,"pm2_5":26.9,"mosquito_risk":7,"arthritis_risk":5,"migraine_risk":4,"frizz_risk":1,"updated_at":"2026-03-06T04:06:02.153706+05:30"},{"city":"Kozhikode","state":"Kerala","latitude":11.2588,"longitude":75.7804,"temp":27.9,"humidity":84,"rain":0.0,"pressure":1006.7,"uv_index":8.85,"wind_gusts":26.3,"aqi":117,"pm10":41.8,"pm2_5":38.2,"mosquito_risk":7,"arthritis_risk":5,"migraine_risk":4,"frizz_risk":1,"updated_at":"2026-03-06T04:06:02.153712+05:30"},{"city":"Thrissur","state":"Kerala","latitude":10.5276,"longitude":76.2144,"temp":25.9,"humidity":93,"rain":0.0,"pressure":1006.0,"uv_index":8.95,"wind_gusts":33.5,"aqi":135,"pm10":60.8,"pm2_5":58.6,"mosquito_risk":7,"arthritis_risk":5,"migraine_risk":4,"frizz_risk":1,"updated_at":"2026-03-06T04:06:02.153719+05:30"},{"city":"Kannur","state":"Kerala","latitude":11.8745,"longitude":75.3704,"temp":27.3,"humidity":83,"rain":0.0,"pressure":1005.9,"uv_index":8.85,"wind_gusts":29.5,"aqi":123,"pm10":43.3,"pm2_5":40.3,"mosquito_risk":7,"arthritis_risk":5,"migraine_risk":4,"frizz_risk":1,"updated_at":"2026-03-06T04:06:02.153726+05:30"},{"city":"Patna","state":"Bihar","latitude":25.5941,"longitude":85.1376,"temp":21.8,"humidity":79,"rain":0.0,"pressure":1001.9,"uv_index":7.25,"wind_gusts":23.4,"aqi":163,"pm10":122.5,"pm2_5":98.5,"mosquito_risk":3,"arthritis_risk":5,"migraine_risk":4,"frizz_risk":1,"updated_at":"2026-03-06T04:06:02.153732+05:30"},{"city":"Gaya","state":"Bihar","latitude":24.7914,"longitude":85.0002,"temp":18.5,"humidity":88,"rain":0.0,"pressure":994.7,"uv_index":7.35,"wind_gusts":22.7,"aqi":151,"pm10":95.5,"pm2_5":78.9,"mosquito_risk":3,"arthritis_risk":10,"migraine_risk":7,"frizz_risk":1,"updated_at":"2026-03-06T04:06:02.153738+05:30"},{"city":"Muzaffarpur","state":"Bihar","latitude":26.1209,"longitude":85.3647,"temp":19.1,"humidity":84,"rain":0.0,"pressure":1002.1,"uv_index":7.2,"wind_gusts":22.7,"aqi":170,"pm10":143.9,"pm2_5":119.7,"mosquito_risk":3,"arthritis_risk":10,"migraine_risk":4,"frizz_risk":1,"updated_at":"2026-03-06T04:06:02.153744+05:30"},{"city":"Bhagalpur","state":"Bihar","latitude":25.2425,"longitude":87.0117,"temp":20.9,"humidity":80,"rain":0.0,"pressure":1002.7,"uv_index":7.3,"wind_gusts":18.7,"aqi":163,"pm10":110.1,"pm2_5":91.0,"mosquito_risk":3,"arthritis_risk":5,"migraine_risk":4,"frizz_risk":1,"updated_at":"2026-03-06T04:06:02.153749+05:30"},{"city":"Ranchi","state":"Jharkhand","latitude":23.3441,"longitude":85.3096,"temp":18.0,"humidity":73,"rain":0.0,"pressure":937.0,"uv_index":8.0,"wind_gusts":28.4,"aqi":120,"pm10":123.9,"pm2_5":57.9,"mosquito_risk":3,"arthritis_risk":5,"migraine_risk":7,"frizz_risk":0,"updated_at":"2026-03-06T04:06:02.153756+05:30"},{"city":"Jamshedpur","state":"Jharkhand","latitude":22.8046,"longitude":86.2029,"temp":22.5,"humidity":76,"rain":0.0,"pressure":991.5,"uv_index":7.9,"wind_gusts":24.1,"aqi":155,"pm10":81.3,"pm2_5":59.8,"mosquito_risk":3,"arthritis_risk":5,"migraine_risk":7,"frizz_risk":1,"updated_at":"2026-03-06T04:06:02.153762+05:30"},{"city":"Dhanbad","state":"Jharkhand","latitude":23.7957,"longitude":86.4304,"temp":22.7,"humidity":61,"rain":0.0,"pressure":980.6,"uv_index":7.75,"wind_gusts":29.9,"aqi":165,"pm10":129.0,"pm2_5":110.6,"mosquito_risk":3,"arthritis_risk":5,"migraine_risk":7,"frizz_risk":0,"updated_at":"2026-03-06T04:06:02.153768+05:30"},{"city":"Bokaro","state":"Jharkhand","latitude":23.6693,"longitude":86.1511,"temp":21.2,"humidity":69,"rain":0.0,"pressure":984.8,"uv_index":7.75,"wind_gusts":30.2,"aqi":169,"pm10":146.2,"pm2_5":118.7,"mosquito_risk":3,"arthritis_risk":5,"migraine_risk":7,"frizz_risk":0,"updated_at":"2026-03-06T04:06:02.153775+05:30"},{"city":"Bhubaneswar","state":"Odisha","latitude":20.2961,"longitude":85.8245,"temp":24.2,"humidity":93,"rain":0.0,"pressure":1002.7,"uv_index":8.2,"wind_gusts":32.0,"aqi":152,"pm10":62.4,"pm2_5":54.9,"mosquito_risk":3,"arthritis_risk":5,"migraine_risk":4,"frizz_risk":1,"updated_at":"2026-03-06T04:06:02.153781+05:30"},{"city":"Cuttack","state":"Odisha","latitude":20.4625,"longitude":85.8828,"temp":24.1,"humidity":94,"rain":0.0,"pressure":1004.8,"uv_index":8.25,"wind_gusts":34.6,"aqi":152,"pm10":62.4,"pm2_5":54.9,"mosquito_risk":3,"arthritis_risk":5,"migraine_risk":4,"frizz_risk":1,"updated_at":"2026-03-06T04:06:02.153787+05:30"},{"city":"Rourkela","state":"Odisha","latitude":22.2604,"longitude":84.8536,"temp":21.7,"humidity":70,"rain":0.0,"pressure":985.0,"uv_index":7.8,"wind_gusts":13.0,"aqi":120,"pm10":73.1,"pm2_5":41.0,"mosquito_risk":3,"arthritis_risk":5,"migraine_risk":7,"frizz_risk":0,"updated_at":"2026-03-06T04:06:02.153793+05:30"},{"city":"Raipur","state":"Chhattisgarh","latitude":21.2514,"longitude":81.6296,"temp":23.2,"humidity":44,"rain":0.0,"pressure":974.0,"uv_index":7.9,"wind_gusts":22.7,"aqi":100,"pm10":31.4,"pm2_5":23.9,"mosquito_risk":0,"arthritis_risk":5,"migraine_risk":7,"frizz_risk":0,"updated_at":"2026-03-06T04:06:02.153799+05:30"},{"city":"Bhilai","state":"Chhattisgarh","latitude":21.1938,"longitude":81.3509,"temp":22.0,"humidity":48,"rain":0.0,"pressure":974.1,"uv_index":7.9,"wind_gusts":23.8,"aqi":79,"pm10":31.1,"pm2_5":22.2,"mosquito_risk":0,"arthritis_risk":5,"migraine_risk":7,"frizz_risk":0,"updated_at":"2026-03-06T04:06:02.153805+05:30"},{"city":"Guwahati","state":"Assam","latitude":26.1158,"longitude":91.7086,"temp":22.2,"humidity":85,"rain":0.0,"pressure":1003.0,"uv_index":7.25,"wind_gusts":20.5,"aqi":148,"pm10":74.0,"pm2_5":67.1,"mosquito_risk":3,"arthritis_risk":5,"migraine_risk":4,"frizz_risk":1,"updated_at":"2026-03-06T04:06:02.153811+05:30"},{"city":"Agartala","state":"Tripura","latitude":23.8315,"longitude":91.2868,"temp":19.9,"humidity":86,"rain":0.0,"pressure":1007.2,"uv_index":7.6,"wind_gusts":17.3,"aqi":159,"pm10":90.1,"pm2_5":80.6,"mosquito_risk":3,"arthritis_risk":10,"migraine_risk":4,"frizz_risk":1,"updated_at":"2026-03-06T04:06:02.153817+05:30"},{"city":"Shillong","state":"Meghalaya","latitude":25.5788,"longitude":91.8933,"temp":9.2,"humidity":65,"rain":0.0,"pressure":853.8,"uv_index":7.6,"wind_gusts":35.3,"aqi":123,"pm10":51.6,"pm2_5":44.6,"mosquito_risk":3,"arthritis_risk":5,"migraine_risk":7,"frizz_risk":0,"updated_at":"2026-03-06T04:06:02.153823+05:30"},{"city":"Imphal","state":"Manipur","latitude":24.817,"longitude":93.9368,"temp":14.1,"humidity":83,"rain":0.0,"pressure":923.4,"uv_index":7.8,"wind_gusts":33.8,"aqi":150,"pm10":88.9,"pm2_5":85.2,"mosquito_risk":3,"arthritis_risk":10,"migraine_risk":7,"frizz_risk":0,"updated_at":"2026-03-06T04:06:02.153829+05:30"},{"city":"Aizawl","state":"Mizoram","latitude":23.7271,"longitude":92.7176,"temp":15.9,"humidity":75,"rain":0.0,"pressure":892.0,"uv_index":7.7,"wind_gusts":33.8,"aqi":165,"pm10":168.1,"pm2_5":159.3,"mosquito_risk":3,"arthritis_risk":5,"migraine_risk":7,"frizz_risk":0,"updated_at":"2026-03-06T04:06:02.153835+05:30"},{"city":"Kohima","state":"Nagaland","latitude":25.6701,"longitude":94.1077,"temp":13.2,"humidity":74,"rain":0.0,"pressure":854.3,"uv_index":7.65,"wind_gusts":43.6,"aqi":144,"pm10":74.7,"pm2_5":70.5,"mosquito_risk":3,"arthritis_risk":5,"migraine_risk":7,"frizz_risk":0,"updated_at":"2026-03-06T04:06:02.153841+05:30"},{"city":"Gangtok","state":"Sikkim","latitude":27.3314,"longitude":88.6138,"temp":13.8,"humidity":97,"rain":0.0,"pressure":837.8,"uv_index":7.55,"wind_gusts":16.6,"aqi":99,"pm10":37.5,"pm2_5":33.1,"mosquito_risk":3,"arthritis_risk":10,"migraine_risk":7,"frizz_risk":0,"updated_at":"2026-03-06T04:06:02.153848+05:30"},{"city":"Siliguri","state":"West Bengal","latitude":26.7271,"longitude":88.3953,"temp":20.9,"humidity":62,"rain":0.0,"pressure":995.6,"uv_index":7.2,"wind_gusts":16.6,"aqi":135,"pm10":59.6,"pm2_5":56.7,"mosquito_risk":3,"arthritis_risk":5,"migraine_risk":7,"frizz_risk":0,"updated_at":"2026-03-06T04:06:05.386754+05:30"},{"city":"Durgapur","state":"West Bengal","latitude":23.5204,"longitude":87.3119,"temp":22.3,"humidity":70,"rain":0.0,"pressure":996.2,"uv_index":7.75,"wind_gusts":25.9,"aqi":159,"pm10":116.4,"pm2_5":94.1,"mosquito_risk":3,"arthritis_risk":5,"migraine_risk":7,"frizz_risk":1,"updated_at":"2026-03-06T04:06:05.386789+05:30"},{"city":"Asansol","state":"West Bengal","latitude":23.6739,"longitude":86.9524,"temp":22.7,"humidity":67,"rain":0.0,"pressure":994.7,"uv_index":7.75,"wind_gusts":22.3,"aqi":157,"pm10":106.4,"pm2_5":87.5,"mosquito_risk":3,"arthritis_risk":5,"migraine_risk":7,"frizz_risk":1,"updated_at":"2026-03-06T04:06:05.386800+05:30"},{"city":"Pondicherry","state":"Puducherry","latitude":11.9139,"longitude":79.8145,"temp":22.1,"humidity":96,"rain":0.0,"pressure":1008.0,"uv_index":8.9,"wind_gusts":24.5,"aqi":72,"pm10":23.6,"pm2_5":19.8,"mosquito_risk":3,"arthritis_risk":0,"migraine_risk":4,"frizz_risk":1,"updated_at":"2026-03-06T04:06:05.386807+05:30"},{"city":"Port Blair","state":"Andaman and Nicobar Islands","latitude":11.6234,"longitude":92.7265,"temp":26.2,"humidity":75,"rain":0.0,"pressure":1006.9,"uv_index":8.85,"wind_gusts":14.4,"aqi":53,"pm10":19.8,"pm2_5":12.3,"mosquito_risk":7,"arthritis_risk":5,"migraine_risk":4,"frizz_risk":1,"updated_at":"2026-03-06T04:06:05.386816+05:30"},{"city":"Haridwar","state":"Uttarakhand","latitude":29.9457,"longitude":78.1642,"temp":18.9,"humidity":92,"rain":0.0,"pressure":974.3,"uv_index":5.65,"wind_gusts":26.3,"aqi":150,"pm10":84.3,"pm2_5":63.1,"mosquito_risk":3,"arthritis_risk":10,"migraine_risk":3,"frizz_risk":1,"updated_at":"2026-03-06T04:06:05.386824+05:30"},{"city":"Rishikesh","state":"Uttarakhand","latitude":30.0869,"longitude":78.2676,"temp":19.0,"humidity":82,"rain":0.0,"pressure":967.0,"uv_index":5.7,"wind_gusts":23.0,"aqi":128,"pm10":79.2,"pm2_5":58.8,"mosquito_risk":3,"arthritis_risk":10,"migraine_risk":3,"frizz_risk":0,"updated_at":"2026-03-06T04:06:05.386833+05:30"},{"city":"Nainital","state":"Uttarakhand","latitude":29.3919,"longitude":79.4542,"temp":15.5,"humidity":78,"rain":0.0,"pressure":804.5,"uv_index":6.5,"wind_gusts":42.5,"aqi":156,"pm10":111.8,"pm2_5":78.9,"mosquito_risk":3,"arthritis_risk":5,"migraine_risk":7,"frizz_risk":0,"updated_at":"2026-03-06T04:06:05.386840+05:30"},{"city":"Mussoorie","state":"Uttarakhand","latitude":30.4599,"longitude":78.0664,"temp":14.4,"humidity":69,"rain":0.0,"pressure":800.8,"uv_index":6.05,"wind_gusts":36.0,"aqi":120,"pm10":82.0,"pm2_5":55.6,"mosquito_risk":3,"arthritis_risk":5,"migraine_risk":7,"frizz_risk":0,"updated_at":"2026-03-06T04:06:05.386847+05:30"},{"city":"Dharamshala","state":"Himachal Pradesh","latitude":32.219,"longitude":76.3234,"temp":21.4,"humidity":27,"rain":0.0,"pressure":869.4,"uv_index":5.75,"wind_gusts":22.0,"aqi":54,"pm10":27.2,"pm2_5":12.6,"mosquito_risk":0,"arthritis_risk":5,"migraine_risk":3,"frizz_risk":0,"updated_at":"2026-03-06T04:06:05.386854+05:30"},{"city":"Dalhousie","state":"Himachal Pradesh","latitude":32.5387,"longitude":75.971,"temp":17.0,"humidity":36,"rain":0.0,"pressure":803.4,"uv_index":5.85,"wind_gusts":23.4,"aqi":90,"pm10":36.7,"pm2_5":29.2,"mosquito_risk":0,"arthritis_risk":5,"migraine_risk":3,"frizz_risk":0,"updated_at":"2026-03-06T04:06:05.386862+05:30"},{"city":"Patiala","state":"Punjab","latitude":30.3398,"longitude":76.3869,"temp":20.0,"humidity":86,"rain":0.0,"pressure":978.1,"uv_index":5.75,"wind_gusts":13.0,"aqi":279,"pm10":93.8,"pm2_5":74.7,"mosquito_risk":3,"arthritis_risk":5,"migraine_risk":3,"frizz_risk":1,"updated_at":"2026-03-06T04:06:05.386869+05:30"},{"city":"Bhatinda","state":"Punjab","latitude":30.211,"longitude":74.9455,"temp":19.7,"humidity":74,"rain":0.0,"pressure":984.0,"uv_index":6.4,"wind_gusts":17.6,"aqi":143,"pm10":71.5,"pm2_5":59.8,"mosquito_risk":3,"arthritis_risk":5,"migraine_risk":7,"frizz_risk":0,"updated_at":"2026-03-06T04:06:05.386877+05:30"},{"city":"Rohtak","state":"Haryana","latitude":28.8955,"longitude":76.6066,"temp":19.2,"humidity":77,"rain":0.0,"pressure":981.7,"uv_index":5.9,"wind_gusts":16.9,"aqi":553,"pm10":326.9,"pm2_5":80.1,"mosquito_risk":3,"arthritis_risk":5,"migraine_risk":3,"frizz_risk":0,"updated_at":"2026-03-06T04:06:05.386884+05:30"},{"city":"Panipat","state":"Haryana","latitude":29.3909,"longitude":76.9635,"temp":19.4,"humidity":91,"rain":0.0,"pressure":980.3,"uv_index":5.7,"wind_gusts":11.2,"aqi":1159,"pm10":661.2,"pm2_5":112.7,"mosquito_risk":3,"arthritis_risk":10,"migraine_risk":3,"frizz_risk":1,"updated_at":"2026-03-06T04:06:05.386891+05:30"},{"city":"Mathura","state":"Uttar Pradesh","latitude":27.4924,"longitude":77.6737,"temp":20.3,"humidity":59,"rain":0.0,"pressure":986.7,"uv_index":6.2,"wind_gusts":19.8,"aqi":677,"pm10":428.4,"pm2_5":87.1,"mosquito_risk":0,"arthritis_risk":5,"migraine_risk":7,"frizz_risk":0,"updated_at":"2026-03-06T04:06:05.386898+05:30"},{"city":"Vrindavan","state":"Uttar Pradesh","latitude":27.5823,"longitude":77.7027,"temp":19.4,"humidity":69,"rain":0.0,"pressure":987.2,"uv_index":6.15,"wind_gusts":19.8,"aqi":677,"pm10":428.4,"pm2_5":87.1,"mosquito_risk":3,"arthritis_risk":5,"migraine_risk":7,"frizz_risk":0,"updated_at":"2026-03-06T04:06:05.386904+05:30"},{"city":"Ayodhya","state":"Uttar Pradesh","latitude":26.7922,"longitude":82.1998,"temp":18.9,"humidity":85,"rain":0.0,"pressure":996.2,"uv_index":6.55,"wind_gusts":21.6,"aqi":171,"pm10":129.5,"pm2_5":100.1,"mosquito_risk":3,"arthritis_risk":10,"migraine_risk":7,"frizz_risk":1,"updated_at":"2026-03-06T04:06:05.386910+05:30"},{"city":"Ratlam","state":"Madhya Pradesh","latitude":23.3315,"longitude":75.0367,"temp":22.1,"humidity":47,"rain":0.0,"pressure":954.9,"uv_index":7.4,"wind_gusts":19.1,"aqi":90,"pm10":13.5,"pm2_5":13.0,"mosquito_risk":0,"arthritis_risk":5,"migraine_risk":7,"frizz_risk":0,"updated_at":"2026-03-06T04:06:05.386917+05:30"},{"city":"Sagar","state":"Madhya Pradesh","latitude":23.8388,"longitude":78.7378,"temp":18.6,"humidity":59,"rain":0.0,"pressure":949.5,"uv_index":7.35,"wind_gusts":23.4,"aqi":54,"pm10":27.6,"pm2_5":17.0,"mosquito_risk":0,"arthritis_risk":5,"migraine_risk":7,"frizz_risk":0,"updated_at":"2026-03-06T04:06:05.386923+05:30"},{"city":"Satna","state":"Madhya Pradesh","latitude":24.6005,"longitude":80.8322,"temp":19.6,"humidity":61,"rain":0.0,"pressure":971.1,"uv_index":7.3,"wind_gusts":32.4,"aqi":70,"pm10":74.0,"pm2_5":26.2,"mosquito_risk":3,"arthritis_risk":5,"migraine_risk":7,"frizz_risk":0,"updated_at":"2026-03-06T04:06:05.386929+05:30"},{"city":"Akola","state":"Maharashtra","latitude":20.7002,"longitude":77.0082,"temp":19.9,"humidity":61,"rain":0.0,"pressure":975.1,"uv_index":7.85,"wind_gusts":19.8,"aqi":75,"pm10":37.5,"pm2_5":31.3,"mosquito_risk":3,"arthritis_risk":5,"migraine_risk":7,"frizz_risk":0,"updated_at":"2026-03-06T04:06:05.386936+05:30"},{"city":"Amravati","state":"Maharashtra","latitude":20.9374,"longitude":77.7796,"temp":20.0,"humidity":59,"rain":0.0,"pressure":966.9,"uv_index":7.8,"wind_gusts":15.8,"aqi":74,"pm10":37.1,"pm2_5":30.3,"mosquito_risk":0,"arthritis_risk":5,"migraine_risk":7,"frizz_risk":0,"updated_at":"2026-03-06T04:06:05.386943+05:30"},{"city":"Latur","state":"Maharashtra","latitude":18.4088,"longitude":76.5604,"temp":19.5,"humidity":50,"rain":0.0,"pressure":938.8,"uv_index":8.3,"wind_gusts":32.4,"aqi":85,"pm10":23.9,"pm2_5":21.2,"mosquito_risk":0,"arthritis_risk":5,"migraine_risk":7,"frizz_risk":0,"updated_at":"2026-03-06T04:06:05.386949+05:30"},{"city":"Nanded","state":"Maharashtra","latitude":19.1383,"longitude":77.3091,"temp":19.4,"humidity":56,"rain":0.0,"pressure":968.1,"uv_index":8.1,"wind_gusts":20.5,"aqi":97,"pm10":53.4,"pm2_5":51.2,"mosquito_risk":0,"arthritis_risk":5,"migraine_risk":7,"frizz_risk":0,"updated_at":"2026-03-06T04:06:05.386955+05:30"},{"city":"Gulbarga","state":"Karnataka","latitude":17.3297,"longitude":76.8343,"temp":22.7,"humidity":47,"rain":0.0,"pressure":957.7,"uv_index":8.4,"wind_gusts":34.2,"aqi":77,"pm10":31.2,"pm2_5":28.7,"mosquito_risk":0,"arthritis_risk":5,"migraine_risk":7,"frizz_risk":0,"updated_at":"2026-03-06T04:06:05.386961+05:30"},{"city":"Bidar","state":"Karnataka","latitude":17.9104,"longitude":77.5199,"temp":22.5,"humidity":50,"rain":0.0,"pressure":934.4,"uv_index":8.35,"wind_gusts":32.8,"aqi":86,"pm10":33.2,"pm2_5":29.9,"mosquito_risk":0,"arthritis_risk":5,"migraine_risk":7,"frizz_risk":0,"updated_at":"2026-03-06T04:06:05.386967+05:30"},{"city":"Hospet","state":"Karnataka","latitude":15.2689,"longitude":76.3909,"temp":22.8,"humidity":62,"rain":0.0,"pressure":954.4,"uv_index":8.75,"wind_gusts":22.7,"aqi":90,"pm10":44.5,"pm2_5":42.4,"mosquito_risk":3,"arthritis_risk":5,"migraine_risk":7,"frizz_risk":0,"updated_at":"2026-03-06T04:06:05.386972+05:30"},{"city":"Tirupur","state":"Tamil Nadu","latitude":11.1085,"longitude":77.3411,"temp":23.6,"humidity":86,"rain":0.0,"pressure":974.5,"uv_index":9.2,"wind_gusts":28.4,"aqi":110,"pm10":52.7,"pm2_5":51.0,"mosquito_risk":3,"arthritis_risk":5,"migraine_risk":7,"frizz_risk":1,"updated_at":"2026-03-06T04:06:05.386978+05:30"},{"city":"Alappuzha","state":"Kerala","latitude":9.4981,"longitude":76.3388,"temp":27.5,"humidity":81,"rain":0.0,"pressure":1007.9,"uv_index":9.0,"wind_gusts":30.6,"aqi":118,"pm10":51.3,"pm2_5":49.0,"mosquito_risk":7,"arthritis_risk":5,"migraine_risk":4,"frizz_risk":1,"updated_at":"2026-03-06T04:06:05.386984+05:30"},{"city":"Munnar","state":"Kerala","latitude":10.0889,"longitude":77.0595,"temp":15.9,"humidity":71,"rain":0.0,"pressure":853.7,"uv_index":9.5,"wind_gusts":29.2,"aqi":88,"pm10":42.1,"pm2_5":40.9,"mosquito_risk":3,"arthritis_risk":5,"migraine_risk":7,"frizz_risk":0,"updated_at":"2026-03-06T04:06:05.386990+05:30"},{"city":"Silchar","state":"Assam","latitude":24.8333,"longitude":92.7789,"temp":20.8,"humidity":77,"rain":0.0,"pressure":1006.2,"uv_index":7.55,"wind_gusts":12.6,"aqi":156,"pm10":112.9,"pm2_5":106.2,"mosquito_risk":3,"arthritis_risk":5,"migraine_risk":4,"frizz_risk":1,"updated_at":"2026-03-06T04:06:05.386996+05:30"},{"city":"Dibrugarh","state":"Assam","latitude":27.4728,"longitude":94.912,"temp":19.9,"humidity":92,"rain":0.0,"pressure":997.1,"uv_index":7.25,"wind_gusts":14.8,"aqi":111,"pm10":35.0,"pm2_5":32.9,"mosquito_risk":3,"arthritis_risk":10,"migraine_risk":7,"frizz_risk":1,"updated_at":"2026-03-06T04:06:05.387001+05:30"}]