[{"city":"Delhi","state":"Delhi","latitude":28.6139,"longitude":77.209,"temp":21.9,"humidity":64,"rain":0.0,"pressure":983.3,"uv_index":6.1,"wind_gusts":41.4,"aqi":420,"pm10":502.9,"pm2_5":82.2,"mosquito_risk":3,"arthritis_risk":5,"migraine_risk":7,"frizz_risk":0,"updated_at":"2026-03-16T20:33:41.431262+05:30"},{"city":"Mumbai","state":"Maharashtra","latitude":19.076,"longitude":72.8777,"temp":26.8,"humidity":81,"rain":0.0,"pressure":1009.0,"uv_index":7.7,"wind_gusts":18.0,"aqi":103,"pm10":108.5,"pm2_5":32.9,"mosquito_risk":7,"arthritis_risk":0,"migraine_risk":4,"frizz_risk":1,"updated_at":"2026-03-16T20:33:41.431314+05:30"},{"city":"Bangalore","state":"Karnataka","latitude":12.9716,"longitude":77.5946,"temp":24.1,"humidity":62,"rain":0.0,"pressure":912.7,"uv_index":9.35,"wind_gusts":22.0,"aqi":164,"pm10":37.4,"pm2_5":35.0,"mosquito_risk":3,"arthritis_risk":5,"migraine_risk":7,"frizz_risk":1,"updated_at":"2026-03-16T20:33:41.431330+05:30"},{"city":"Hyderabad","state":"Telangana","latitude":17.385,"longitude":78.4867,"temp":26.1,"humidity":63,"rain":0.0,"pressure":954.7,"uv_index":8.65,"wind_gusts":22.3,"aqi":105,"pm10":57.2,"pm2_5":50.6,"mosquito_risk":7,"arthritis_risk":5,"migraine_risk":7,"frizz_risk":1,"updated_at":"2026-03-16T20:33:41.431340+05:30"},{"city":"Chennai","state":"Tamil Nadu","latitude":13.0827,"longitude":80.2707,"temp":26.4,"humidity":80,"rain":0.0,"pressure":1009.3,"uv_index":9.05,"wind_gusts":31.0,"aqi":41,"pm10":8.4,"pm2_5":6.2,"mosquito_risk":7,"arthritis_risk":0,"migraine_risk":4,"frizz_risk":1,"updated_at":"2026-03-16T20:33:41.431348+05:30"},{"city":"Kolkata","state":"West Bengal","latitude":22.5726,"longitude":88.3639,"temp":23.9,"humidity":88,"rain":0.0,"pressure":1008.8,"uv_index":8.15,"wind_gusts":33.8,"aqi":76,"pm10":22.6,"pm2_5":19.1,"mosquito_risk":3,"arthritis_risk":0,"migraine_risk":4,"frizz_risk":1,"updated_at":"2026-03-16T20:33:41.431355+05:30"},{"city":"Pune","state":"Maharashtra","latitude":18.5204,"longitude":73.8567,"temp":25.0,"humidity":53,"rain":0.0,"pressure":948.7,"uv_index":8.25,"wind_gusts":42.8,"aqi":123,"pm10":37.1,"pm2_5":27.9,"mosquito_risk":4,"arthritis_risk":5,"migraine_risk":7,"frizz_risk":0,"updated_at":"2026-03-16T20:33:41.431367+05:30"},{"city":"Ahmedabad","state":"Gujarat","latitude":23.0225,"longitude":72.5714,"temp":29.3,"humidity":23,"rain":0.0,"pressure":1001.6,"uv_index":7.45,"wind_gusts":28.4,"aqi":72,"pm10":44.4,"pm2_5":26.5,"mosquito_risk":4,"arthritis_risk":5,"migraine_risk":4,"frizz_risk":0,"updated_at":"2026-03-16T20:33:41.431375+05:30"},{"city":"Jaipur","state":"Rajasthan","latitude":26.9124,"longitude":75.7873,"temp":27.9,"humidity":17,"rain":0.0,"pressure":958.8,"uv_index":6.9,"wind_gusts":31.3,"aqi":159,"pm10":101.3,"pm2_5":30.6,"mosquito_risk":4,"arthritis_risk":5,"migraine_risk":7,"frizz_risk":0,"updated_at":"2026-03-16T20:33:41.431382+05:30"},{"city":"Lucknow","state":"Uttar Pradesh","latitude":26.8467,"longitude":80.9462,"temp":26.3,"humidity":44,"rain":0.0,"pressure":994.2,"uv_index":6.65,"wind_gusts":48.6,"aqi":103,"pm10":55.2,"pm2_5":42.6,"mosquito_risk":4,"arthritis_risk":5,"migraine_risk":7,"frizz_risk":0,"updated_at":"2026-03-16T20:33:41.431389+05:30"},{"city":"Kanpur","state":"Uttar Pradesh","latitude":26.4499,"longitude":80.3319,"temp":24.8,"humidity":49,"rain":0.0,"pressure":991.9,"uv_index":6.7,"wind_gusts":35.3,"aqi":115,"pm10":141.6,"pm2_5":53.7,"mosquito_risk":0,"arthritis_risk":5,"migraine_risk":7,"frizz_risk":0,"updated_at":"2026-03-16T20:33:41.431395+05:30"},{"city":"Chandigarh","state":"Chandigarh","latitude":30.7333,"longitude":76.7794,"temp":15.3,"humidity":81,"rain":0.0,"pressure":969.8,"uv_index":5.25,"wind_gusts":43.2,"aqi":66,"pm10":41.1,"pm2_5":28.7,"mosquito_risk":3,"arthritis_risk":10,"migraine_risk":3,"frizz_risk":0,"updated_at":"2026-03-16T20:33:41.431402+05:30"},{"city":"Srinagar","state":"Jammu and Kashmir","latitude":34.0837,"longitude":74.7973,"temp":5.8,"humidity":90,"rain":0.0,"pressure":838.7,"uv_index":5.0,"wind_gusts":21.6,"aqi":78,"pm10":31.0,"pm2_5":28.9,"mosquito_risk":3,"arthritis_risk":10,"migraine_risk":3,"frizz_risk":0,"updated_at":"2026-03-16T20:33:41.431408+05:30"},{"city":"Jammu","state":"Jammu and Kashmir","latitude":32.7266,"longitude":74.857,"temp":16.3,"humidity":77,"rain":0.0,"pressure":975.7,"uv_index":6.5,"wind_gusts":34.2,"aqi":63,"pm10":56.5,"pm2_5":39.2,"mosquito_risk":3,"arthritis_risk":5,"migraine_risk":7,"frizz_risk":0,"updated_at":"2026-03-16T20:33:41.431415+05:30"},{"city":"Amritsar","state":"Punjab","latitude":31.634,"longitude":74.8723,"temp":13.9,"humidity":89,"rain":0.0,"pressure":984.0,"uv_index":6.45,"wind_gusts":34.2,"aqi":78,"pm10":56.3,"pm2_5":34.9,"mosquito_risk":3,"arthritis_risk":10,"migraine_risk":7,"frizz_risk":0,"updated_at":"2026-03-16T20:33:41.431421+05:30"},{"city":"Ludhiana","state":"Punjab","latitude":30.901,"longitude":75.8573,"temp":14.9,"humidity":72,"rain":0.0,"pressure":980.9,"uv_index":6.15,"wind_gusts":42.8,"aqi":82,"pm10":38.2,"pm2_5":24.9,"mosquito_risk":3,"arthritis_risk":5,"migraine_risk":7,"frizz_risk":0,"updated_at":"2026-03-16T20:33:41.431426+05:30"},{"city":"Jalandhar","state":"Punjab","latitude":31.326,"longitude":75.5762,"temp":14.5,"humidity":84,"rain":0.0,"pressure":982.4,"uv_index":6.3,"wind_gusts":43.2,"aqi":72,"pm10":46.8,"pm2_5":27.5,"mosquito_risk":3,"arthritis_risk":10,"migraine_risk":7,"frizz_risk":0,"updated_at":"2026-03-16T20:33:41.431434+05:30"},{"city":"Dehradun","state":"Uttarakhand","latitude":30.6284,"longitude":78.0322,"temp":9.9,"humidity":68,"rain":0.0,"pressure":828.3,"uv_index":5.25,"wind_gusts":31.0,"aqi":82,"pm10":40.5,"pm2_5":12.8,"mosquito_risk":3,"arthritis_risk":5,"migraine_risk":3,"frizz_risk":0,"updated_at":"2026-03-16T20:33:41.431440+05:30"},{"city":"Shimla","state":"Himachal Pradesh","latitude":31.1048,"longitude":77.1734,"temp":8.2,"humidity":66,"rain":0.0,"pressure":780.5,"uv_index":4.4,"wind_gusts":35.6,"aqi":83,"pm10":43.5,"pm2_5":12.5,"mosquito_risk":3,"arthritis_risk":5,"migraine_risk":3,"frizz_risk":0,"updated_at":"2026-03-16T20:33:41.431447+05:30"},{"city":"Manali","state":"Himachal Pradesh","latitude":32.2396,"longitude":77.1887,"temp":7.5,"humidity":96,"rain":0.5,"pressure":814.7,"uv_index":5.2,"wind_gusts":43.2,"aqi":101,"pm10":20.1,"pm2_5":6.9,"mosquito_risk":6,"arthritis_risk":10,"migraine_risk":3,"frizz_risk":0,"updated_at":"2026-03-16T20:33:41.431453+05:30"},{"city":"Gurgaon","state":"Haryana","latitude":28.4595,"longitude":77.0266,"temp":21.4,"humidity":67,"rain":0.0,"pressure":981.6,"uv_index":6.2,"wind_gusts":45.7,"aqi":1881,"pm10":892.2,"pm2_5":136.4,"mosquito_risk":3,"arthritis_risk":5,"migraine_risk":7,"frizz_risk":0,"updated_at":"2026-03-16T20:33:41.431459+05:30"},{"city":"Noida","state":"Uttar Pradesh","latitude":28.5355,"longitude":77.391,"temp":21.6,"humidity":64,"rain":0.0,"pressure":984.9,"uv_index":6.1,"wind_gusts":42.1,"aqi":1881,"pm10":892.2,"pm2_5":136.4,"mosquito_risk":3,"arthritis_risk":5,"migraine_risk":7,"frizz_risk":0,"updated_at":"2026-03-16T20:33:41.431465+05:30"},{"city":"Ghaziabad","state":"Uttar Pradesh","latitude":28.6692,"longitude":77.4538,"temp":20.7,"humidity":71,"rain":0.0,"pressure":983.1,"uv_index":6.1,"wind_gusts":45.7,"aqi":112,"pm10":117.6,"pm2_5":34.1,"mosquito_risk":3,"arthritis_risk":5,"migraine_risk":7,"frizz_risk":0,"updated_at":"2026-03-16T20:33:41.431470+05:30"},{"city":"Faridabad","state":"Haryana","latitude":28.4089,"longitude":77.3178,"temp":21.8,"humidity":61,"rain":0.0,"pressure":983.8,"uv_index":6.15,"wind_gusts":41.0,"aqi":1881,"pm10":892.2,"pm2_5":136.4,"mosquito_risk":3,"arthritis_risk":5,"migraine_risk":7,"frizz_risk":0,"updated_at":"2026-03-16T20:33:41.431475+05:30"},{"city":"Meerut","state":"Uttar Pradesh","latitude":28.9845,"longitude":77.7064,"temp":19.5,"humidity":76,"rain":0.0,"pressure":981.7,"uv_index":6.0,"wind_gusts":53.6,"aqi":112,"pm10":117.6,"pm2_5":34.1,"mosquito_risk":3,"arthritis_risk":5,"migraine_risk":3,"frizz_risk":0,"updated_at":"2026-03-16T20:33:41.431481+05:30"},{"city":"Agra","state":"Uttar Pradesh","latitude":27.1767,"longitude":78.0081,"temp":22.9,"humidity":52,"rain":0.0,"pressure":986.9,"uv_index":6.5,"wind_gusts":34.9,"aqi":940,"pm10":534.6,"pm2_5":91.3,"mosquito_risk":0,"arthritis_risk":5,"migraine_risk":7,"frizz_risk":0,"updated_at":"2026-03-16T20:33:41.431486+05:30"},{"city":"Varanasi","state":"Uttar Pradesh","latitude":25.3176,"longitude":82.9739,"temp":24.3,"humidity":68,"rain":0.0,"pressure":997.9,"uv_index":7.35,"wind_gusts":29.9,"aqi":147,"pm10":64.5,"pm2_5":52.3,"mosquito_risk":3,"arthritis_risk":5,"migraine_risk":7,"frizz_risk":1,"updated_at":"2026-03-16T20:33:41.431494+05:30"},{"city":"Prayagraj","state":"Uttar Pradesh","latitude":25.4358,"longitude":81.8463,"temp":23.9,"humidity":80,"rain":0.0,"pressure":996.1,"uv_index":7.2,"wind_gusts":33.8,"aqi":154,"pm10":63.1,"pm2_5":53.2,"mosquito_risk":3,"arthritis_risk":5,"migraine_risk":7,"frizz_risk":1,"updated_at":"2026-03-16T20:33:41.431500+05:30"},{"city":"Gorakhpur","state":"Uttar Pradesh","latitude":26.7606,"longitude":83.3732,"temp":23.8,"humidity":59,"rain":0.0,"pressure":998.1,"uv_index":6.85,"wind_gusts":27.4,"aqi":126,"pm10":64.5,"pm2_5":44.2,"mosquito_risk":0,"arthritis_risk":5,"migraine_risk":7,"frizz_risk":0,"updated_at":"2026-03-16T20:33:41.431505+05:30"},{"city":"Bareilly","state":"Uttar Pradesh","latitude":28.367,"longitude":79.4304,"temp":20.6,"humidity":74,"rain":0.0,"pressure":987.7,"uv_index":6.3,"wind_gusts":60.8,"aqi":91,"pm10":99.4,"pm2_5":52.3,"mosquito_risk":3,"arthritis_risk":5,"migraine_risk":7,"frizz_risk":0,"updated_at":"2026-03-16T20:33:41.431512+05:30"},{"city":"Aligarh","state":"Uttar Pradesh","latitude":27.8974,"longitude":78.088,"temp":22.6,"humidity":60,"rain":0.0,"pressure":985.6,"uv_index":6.25,"wind_gusts":37.1,"aqi":577,"pm10":1121.3,"pm2_5":120.6,"mosquito_risk":0,"arthritis_risk":5,"migraine_risk":7,"frizz_risk":0,"updated_at":"2026-03-16T20:33:41.431517+05:30"},{"city":"Moradabad","state":"Uttar Pradesh","latitude":28.8386,"longitude":78.7733,"temp":21.0,"humidity":69,"rain":0.0,"pressure":984.1,"uv_index":6.15,"wind_gusts":69.1,"aqi":100,"pm10":81.3,"pm2_5":35.0,"mosquito_risk":3,"arthritis_risk":5,"migraine_risk":7,"frizz_risk":0,"updated_at":"2026-03-16T20:33:41.431522+05:30"},{"city":"Saharanpur","state":"Uttar Pradesh","latitude":29.9637,"longitude":77.546,"temp":18.7,"humidity":71,"rain":0.0,"pressure":976.7,"uv_index":5.7,"wind_gusts":40.7,"aqi":80,"pm10":63.3,"pm2_5":39.5,"mosquito_risk":3,"arthritis_risk":5,"migraine_risk":3,"frizz_risk":0,"updated_at":"2026-03-16T20:33:41.431528+05:30"},{"city":"Jhansi","state":"Uttar Pradesh","latitude":25.4484,"longitude":78.5685,"temp":26.9,"humidity":39,"rain":0.0,"pressure":977.8,"uv_index":7.15,"wind_gusts":27.4,"aqi":86,"pm10":168.1,"pm2_5":43.5,"mosquito_risk":4,"arthritis_risk":5,"migraine_risk":7,"frizz_risk":0,"updated_at":"2026-03-16T20:33:44.748408+05:30"},{"city":"Surat","state":"Gujarat","latitude":21.1702,"longitude":72.8311,"temp":25.6,"humidity":88,"rain":0.0,"pressure":1006.9,"uv_index":7.35,"wind_gusts":28.1,"aqi":99,"pm10":58.0,"pm2_5":34.7,"mosquito_risk":7,"arthritis_risk":5,"migraine_risk":4,"frizz_risk":1,"updated_at":"2026-03-16T20:33:44.748439+05:30"},{"city":"Vadodara","state":"Gujarat","latitude":22.3072,"longitude":73.1812,"temp":28.8,"humidity":42,"rain":0.0,"pressure":1003.9,"uv_index":7.0,"wind_gusts":28.4,"aqi":92,"pm10":51.0,"pm2_5":28.4,"mosquito_risk":4,"arthritis_risk":5,"migraine_risk":4,"frizz_risk":0,"updated_at":"2026-03-16T20:33:44.748447+05:30"},{"city":"Rajkot","state":"Gujarat","latitude":22.3039,"longitude":70.8022,"temp":29.0,"humidity":45,"rain":0.0,"pressure":994.3,"uv_index":7.3,"wind_gusts":25.6,"aqi":83,"pm10":49.2,"pm2_5":20.8,"mosquito_risk":4,"arthritis_risk":5,"migraine_risk":7,"frizz_risk":0,"updated_at":"2026-03-16T20:33:44.748455+05:30"},{"city":"Thane","state":"Maharashtra","latitude":19.2183,"longitude":72.9781,"temp":25.8,"humidity":82,"rain":0.0,"pressure":1008.5,"uv_index":7.7,"wind_gusts":31.3,"aqi":103,"pm10":108.5,"pm2_5":32.9,"mosquito_risk":7,"arthritis_risk":0,"migraine_risk":4,"frizz_risk":1,"updated_at":"2026-03-16T20:33:44.748462+05:30"},{"city":"Nagpur","state":"Maharashtra","latitude":21.1458,"longitude":79.0882,"temp":28.2,"humidity":38,"rain":0.0,"pressure":972.3,"uv_index":7.95,"wind_gusts":20.5,"aqi":109,"pm10":44.7,"pm2_5":36.9,"mosquito_risk":4,"arthritis_risk":5,"migraine_risk":7,"frizz_risk":0,"updated_at":"2026-03-16T20:33:44.748468+05:30"},{"city":"Nashik","state":"Maharashtra","latitude":19.9975,"longitude":73.7898,"temp":24.2,"humidity":59,"rain":0.0,"pressure":945.6,"uv_index":7.9,"wind_gusts":26.6,"aqi":80,"pm10":49.0,"pm2_5":20.0,"mosquito_risk":0,"arthritis_risk":5,"migraine_risk":7,"frizz_risk":0,"updated_at":"2026-03-16T20:33:44.748474+05:30"},{"city":"Aurangabad","state":"Maharashtra","latitude":19.8762,"longitude":75.3433,"temp":27.7,"humidity":30,"rain":0.0,"pressure":943.7,"uv_index":8.45,"wind_gusts":28.1,"aqi":79,"pm10":27.9,"pm2_5":19.0,"mosquito_risk":4,"arthritis_risk":5,"migraine_risk":7,"frizz_risk":0,"updated_at":"2026-03-16T20:33:44.748480+05:30"},{"city":"Solapur","state":"Maharashtra","latitude":17.6599,"longitude":75.9064,"temp":27.7,"humidity":42,"rain":0.0,"pressure":956.9,"uv_index":8.65,"wind_gusts":26.6,"aqi":125,"pm10":40.4,"pm2_5":35.6,"mosquito_risk":4,"arthritis_risk":5,"migraine_risk":7,"frizz_risk":0,"updated_at":"2026-03-16T20:33:44.748486+05:30"},{"city":"Kolhapur","state":"Maharashtra","latitude":16.705,"longitude":74.2433,"temp":23.5,"humidity":62,"rain":0.0,"pressure":948.4,"uv_index":8.75,"wind_gusts":41.0,"aqi":96,"pm10":34.6,"pm2_5":28.5,"mosquito_risk":3,"arthritis_risk":5,"migraine_risk":7,"frizz_risk":0,"updated_at":"2026-03-16T20:33:44.748492+05:30"},{"city":"Goa","state":"Goa","latitude":15.2993,"longitude":74.124,"temp":27.7,"humidity":72,"rain":0.0,"pressure":999.3,"uv_index":8.75,"wind_gusts":33.1,"aqi":93,"pm10":45.1,"pm2_5":23.0,"mosquito_risk":7,"arthritis_risk":5,"migraine_risk":7,"frizz_risk":1,"updated_at":"2026-03-16T20:33:44.748498+05:30"},{"city":"Jodhpur","state":"Rajasthan","latitude":26.2389,"longitude":73.0243,"temp":28.1,"humidity":17,"rain":0.0,"pressure":981.0,"uv_index":7.2,"wind_gusts":34.2,"aqi":105,"pm10":115.7,"pm2_5":23.8,"mosquito_risk":4,"arthritis_risk":5,"migraine_risk":7,"frizz_risk":0,"updated_at":"2026-03-16T20:33:44.748504+05:30"},{"city":"Udaipur","state":"Rajasthan","latitude":24.5854,"longitude":73.7125,"temp":25.6,"humidity":20,"rain":0.0,"pressure":946.1,"uv_index":7.8,"wind_gusts":33.5,"aqi":79,"pm10":21.1,"pm2_5":10.0,"mosquito_risk":4,"arthritis_risk":5,"migraine_risk":7,"frizz_risk":0,"updated_at":"2026-03-16T20:33:44.748510+05:30"},{"city":"Kota","state":"Rajasthan","latitude":25.2138,"longitude":75.8648,"temp":27.4,"humidity":25,"rain":0.0,"pressure":977.2,"uv_index":7.2,"wind_gusts":23.0,"aqi":73,"pm10":101.3,"pm2_5":42.1,"mosquito_risk":4,"arthritis_risk":5,"migraine_risk":7,"frizz_risk":0,"updated_at":"2026-03-16T20:33:44.748515+05:30"},{"city":"Bikaner","state":"Rajasthan","latitude":28.0229,"longitude":73.3119,"temp":26.2,"humidity":25,"rain":0.0,"pressure":981.5,"uv_index":6.9,"wind_gusts":28.4,"aqi":82,"pm10":80.1,"pm2_5":28.2,"mosquito_risk":4,"arthritis_risk":5,"migraine_risk":7,"frizz_risk":0,"updated_at":"2026-03-16T20:33:44.748521+05:30"},{"city":"Ajmer","state":"Rajasthan","latitude":26.4499,"longitude":74.6399,"temp":27.1,"humidity":23,"rain":0.0,"pressure":953.4,"uv_index":7.15,"wind_gusts":32.4,"aqi":67,"pm10":42.0,"pm2_5":17.1,"mosquito_risk":4,"arthritis_risk":5,"migraine_risk":7,"frizz_risk":0,"updated_at":"2026-03-16T20:33:44.748527+05:30"},{"city":"Gwalior","state":"Madhya Pradesh","latitude":26.2183,"longitude":78.1828,"temp":25.7,"humidity":45,"rain":0.0,"pressure":982.9,"uv_index":6.8,"wind_gusts":31.0,"aqi":101,"pm10":97.6,"pm2_5":36.1,"mosquito_risk":4,"arthritis_risk":5,"migraine_risk":7,"frizz_risk":0,"updated_at":"2026-03-16T20:33:44.748533+05:30"},{"city":"Indore","state":"Madhya Pradesh","latitude":22.7196,"longitude":75.8577,"temp":26.1,"humidity":33,"rain":0.0,"pressure":947.8,"uv_index":7.75,"wind_gusts":33.1,"aqi":75,"pm10":45.3,"pm2_5":29.9,"mosquito_risk":4,"arthritis_risk":5,"migraine_risk":7,"frizz_risk":0,"updated_at":"2026-03-16T20:33:44.748538+05:30"},{"city":"Bhopal","state":"Madhya Pradesh","latitude":23.2599,"longitude":77.4126,"temp":25.7,"humidity":29,"rain":0.0,"pressure":953.2,"uv_index":7.65,"wind_gusts":32.4,"aqi":71,"pm10":27.1,"pm2_5":18.6,"mosquito_risk":4,"arthritis_risk":5,"migraine_risk":7,"frizz_risk":0,"updated_at":"2026-03-16T20:33:44.748544+05:30"},{"city":"Jabalpur","state":"Madhya Pradesh","latitude":23.1815,"longitude":79.9864,"temp":25.4,"humidity":41,"rain":0.0,"pressure":960.7,"uv_index":7.8,"wind_gusts":37.4,"aqi":78,"pm10":15.9,"pm2_5":12.9,"mosquito_risk":4,"arthritis_risk":5,"migraine_risk":7,"frizz_risk":0,"updated_at":"2026-03-16T20:33:44.748549+05:30"},{"city":"Ujjain","state":"Madhya Pradesh","latitude":23.1765,"longitude":75.7885,"temp":25.6,"humidity":38,"rain":0.0,"pressure":953.7,"uv_index":7.65,"wind_gusts":32.4,"aqi":66,"pm10":42.5,"pm2_5":28.9,"mosquito_risk":4,"arthritis_risk":5,"migraine_risk":7,"frizz_risk":0,"updated_at":"2026-03-16T20:33:44.748556+05:30"},{"city":"Visakhapatnam","state":"Andhra Pradesh","latitude":17.6868,"longitude":83.2185,"temp":25.6,"humidity":81,"rain":0.0,"pressure":1007.5,"uv_index":8.7,"wind_gusts":40.0,"aqi":58,"pm10":16.6,"pm2_5":14.3,"mosquito_risk":7,"arthritis_risk":5,"migraine_risk":4,"frizz_risk":1,"updated_at":"2026-03-16T20:33:44.748561+05:30"},{"city":"Vijayawada","state":"Andhra Pradesh","latitude":16.5062,"longitude":80.648,"temp":25.9,"humidity":70,"rain":0.0,"pressure":1005.4,"uv_index":8.75,"wind_gusts":26.6,"aqi":47,"pm10":13.6,"pm2_5":12.3,"mosquito_risk":7,"arthritis_risk":5,"migraine_risk":4,"frizz_risk":1,"updated_at":"2026-03-16T20:33:44.748567+05:30"},{"city":"Guntur","state":"Andhra Pradesh","latitude":16.3067,"longitude":80.4365,"temp":25.5,"humidity":76,"rain":0.0,"pressure":1006.4,"uv_index":8.75,"wind_gusts":28.4,"aqi":44,"pm10":13.0,"pm2_5":11.5,"mosquito_risk":7,"arthritis_risk":5,"migraine_risk":4,"frizz_risk":1,"updated_at":"2026-03-16T20:33:44.748573+05:30"},{"city":"Nellore","state":"Andhra Pradesh","latitude":14.4426,"longitude":79.9865,"temp":25.6,"humidity":79,"rain":0.0,"pressure":1008.2,"uv_index":8.95,"wind_gusts":32.4,"aqi":62,"pm10":7.7,"pm2_5":5.7,"mosquito_risk":7,"arthritis_risk":0,"migraine_risk":4,"frizz_risk":1,"updated_at":"2026-03-16T20:33:44.748579+05:30"},{"city":"Kurnool","state":"Andhra Pradesh","latitude":15.8281,"longitude":78.0373,"temp":28.5,"humidity":55,"rain":0.0,"pressure":978.0,"uv_index":8.8,"wind_gusts":26.3,"aqi":118,"pm10":44.6,"pm2_5":36.3,"mosquito_risk":4,"arthritis_risk":5,"migraine_risk":7,"frizz_risk":1,"updated_at":"2026-03-16T20:33:44.748585+05:30"},{"city":"Kakinada","state":"Andhra Pradesh","latitude":16.9891,"longitude":82.2475,"temp":24.7,"humidity":79,"rain":0.0,"pressure":1010.8,"uv_index":8.7,"wind_gusts":31.0,"aqi":40,"pm10":8.6,"pm2_5":6.4,"mosquito_risk":3,"arthritis_risk":0,"migraine_risk":4,"frizz_risk":1,"updated_at":"2026-03-16T20:33:44.748591+05:30"},{"city":"Tirupati","state":"Andhra Pradesh","latitude":13.6288,"longitude":79.4192,"temp":26.7,"humidity":57,"rain":0.0,"pressure":993.4,"uv_index":9.05,"wind_gusts":28.4,"aqi":82,"pm10":17.9,"pm2_5":17.1,"mosquito_risk":4,"arthritis_risk":5,"migraine_risk":7,"frizz_risk":1,"updated_at":"2026-03-16T20:33:44.748596+05:30"},{"city":"Warangal","state":"Telangana","latitude":17.9689,"longitude":79.5941,"temp":26.8,"humidity":71,"rain":0.0,"pressure":980.3,"uv_index":8.5,"wind_gusts":32.0,"aqi":74,"pm10":37.6,"pm2_5":32.2,"mosquito_risk":7,"arthritis_risk":5,"migraine_risk":7,"frizz_risk":1,"updated_at":"2026-03-16T20:33:44.748602+05:30"},{"city":"Nizamabad","state":"Telangana","latitude":18.6725,"longitude":78.0941,"temp":26.1,"humidity":58,"rain":0.0,"pressure":965.5,"uv_index":8.45,"wind_gusts":33.5,"aqi":142,"pm10":49.4,"pm2_5":45.9,"mosquito_risk":4,"arthritis_risk":5,"migraine_risk":7,"frizz_risk":1,"updated_at":"2026-03-16T20:33:44.748607+05:30"},{"city":"Mysore","state":"Karnataka","latitude":12.2958,"longitude":76.6396,"temp":24.4,"humidity":76,"rain":0.0,"pressure":929.5,"uv_index":9.35,"wind_gusts":33.5,"aqi":166,"pm10":45.6,"pm2_5":41.6,"mosquito_risk":3,"arthritis_risk":5,"migraine_risk":7,"frizz_risk":1,"updated_at":"2026-03-16T20:33:44.748613+05:30"},{"city":"Mangalore","state":"Karnataka","latitude":12.9141,"longitude":74.856,"temp":29.4,"humidity":75,"rain":0.0,"pressure":1007.9,"uv_index":9.0,"wind_gusts":23.8,"aqi":101,"pm10":43.7,"pm2_5":33.8,"mosquito_risk":7,"arthritis_risk":5,"migraine_risk":4,"frizz_risk":1,"updated_at":"2026-03-16T20:33:44.748618+05:30"},{"city":"Hubli-Dharwad","state":"Karnataka","latitude":15.3647,"longitude":75.124,"temp":25.0,"humidity":71,"rain":0.0,"pressure":941.9,"uv_index":8.95,"wind_gusts":44.6,"aqi":150,"pm10":34.6,"pm2_5":29.0,"mosquito_risk":7,"arthritis_risk":5,"migraine_risk":7,"frizz_risk":1,"updated_at":"2026-03-16T20:33:44.748625+05:30"},{"city":"Belgaum","state":"Karnataka","latitude":15.8497,"longitude":74.4977,"temp":23.4,"humidity":74,"rain":0.0,"pressure":926.4,"uv_index":9.0,"wind_gusts":36.7,"aqi":111,"pm10":28.3,"pm2_5":19.7,"mosquito_risk":3,"arthritis_risk":5,"migraine_risk":7,"frizz_risk":1,"updated_at":"2026-03-16T20:33:48.064153+05:30"},{"city":"Coimbatore","state":"Tamil Nadu","latitude":11.0168,"longitude":76.9558,"temp":24.2,"humidity":77,"rain":0.0,"pressure":963.0,"uv_index":9.3,"wind_gusts":40.0,"aqi":115,"pm10":39.6,"pm2_5":37.7,"mosquito_risk":3,"arthritis_risk":5,"migraine_risk":7,"frizz_risk":1,"updated_at":"2026-03-16T20:33:48.064184+05:30"},{"city":"Madurai","state":"Tamil Nadu","latitude":9.9252,"longitude":78.1198,"temp":29.0,"humidity":63,"rain":0.0,"pressure":994.3,"uv_index":9.25,"wind_gusts":25.6,"aqi":66,"pm10":13.4,"pm2_5":12.2,"mosquito_risk":7,"arthritis_risk":5,"migraine_risk":7,"frizz_risk":1,"updated_at":"2026-03-16T20:33:48.064193+05:30"},{"city":"Trichy","state":"Tamil Nadu","latitude":10.7905,"longitude":78.7047,"temp":28.0,"humidity":68,"rain":0.0,"pressure":1000.9,"uv_index":9.2,"wind_gusts":22.7,"aqi":81,"pm10":19.6,"pm2_5":18.4,"mosquito_risk":7,"arthritis_risk":5,"migraine_risk":4,"frizz_risk":1,"updated_at":"2026-03-16T20:33:48.064201+05:30"},{"city":"Salem","state":"Tamil Nadu","latitude":11.6643,"longitude":78.146,"temp":29.3,"humidity":55,"rain":0.0,"pressure":978.1,"uv_index":9.25,"wind_gusts":16.6,"aqi":124,"pm10":29.7,"pm2_5":28.0,"mosquito_risk":4,"arthritis_risk":5,"migraine_risk":7,"frizz_risk":1,"updated_at":"2026-03-16T20:33:48.064209+05:30"},{"city":"Tirunelveli","state":"Tamil Nadu","latitude":8.7139,"longitude":77.7567,"temp":28.2,"humidity":70,"rain":0.0,"pressure":1004.5,"uv_index":9.25,"wind_gusts":38.9,"aqi":61,"pm10":16.5,"pm2_5":15.4,"mosquito_risk":7,"arthritis_risk":5,"migraine_risk":4,"frizz_risk":1,"updated_at":"2026-03-16T20:33:48.064217+05:30"},{"city":"Vellore","state":"Tamil Nadu","latitude":12.9165,"longitude":79.1325,"temp":26.8,"humidity":59,"rain":0.0,"pressure":986.2,"uv_index":9.15,"wind_gusts":29.9,"aqi":83,"pm10":20.4,"pm2_5":18.9,"mosquito_risk":4,"arthritis_risk":5,"migraine_risk":7,"frizz_risk":1,"updated_at":"2026-03-16T20:33:48.064224+05:30"},{"city":"Erode","state":"Tamil Nadu","latitude":11.341,"longitude":77.7172,"temp":30.8,"humidity":49,"rain":0.0,"pressure":989.6,"uv_index":9.2,"wind_gusts":23.8,"aqi":79,"pm10":26.5,"pm2_5":24.4,"mosquito_risk":0,"arthritis_risk":5,"migraine_risk":7,"frizz_risk":1,"updated_at":"2026-03-16T20:33:48.064231+05:30"},{"city":"Kochi","state":"Kerala","latitude":9.9312,"longitude":76.2673,"temp":28.7,"humidity":79,"rain":0.0,"pressure":1009.7,"uv_index":9.1,"wind_gusts":32.0,"aqi":88,"pm10":28.6,"pm2_5":26.1,"mosquito_risk":7,"arthritis_risk":0,"migraine_risk":4,"frizz_risk":1,"updated_at":"2026-03-16T20:33:48.064239+05:30"},{"city":"Thiruvananthapuram","state":"Kerala","latitude":8.5241,"longitude":76.9366,"temp":28.7,"humidity":75,"rain":0.0,"pressure":1009.0,"uv_index":9.15,"wind_gusts":28.4,"aqi":94,"pm10":16.7,"pm2_5":13.5,"mosquito_risk":7,"arthritis_risk":0,"migraine_risk":4,"frizz_risk":1,"updated_at":"2026-03-16T20:33:48.064246+05:30"},{"city":"Kozhikode","state":"Kerala","latitude":11.2588,"longitude":75.7804,"temp":29.1,"humidity":78,"rain":0.0,"pressure":1008.7,"uv_index":9.0,"wind_gusts":31.7,"aqi":76,"pm10":30.6,"pm2_5":25.5,"mosquito_risk":7,"arthritis_risk":0,"migraine_risk":4,"frizz_risk":1,"updated_at":"2026-03-16T20:33:48.064253+05:30"},{"city":"Thrissur","state":"Kerala","latitude":10.5276,"longitude":76.2144,"temp":28.1,"humidity":80,"rain":0.0,"pressure":1008.1,"uv_index":9.05,"wind_gusts":35.6,"aqi":82,"pm10":30.7,"pm2_5":27.9,"mosquito_risk":7,"arthritis_risk":0,"migraine_risk":4,"frizz_risk":1,"updated_at":"2026-03-16T20:33:48.064260+05:30"},{"city":"Kannur","state":"Kerala","latitude":11.8745,"longitude":75.3704,"temp":28.9,"humidity":73,"rain":0.0,"pressure":1008.1,"uv_index":8.9,"wind_gusts":29.9,"aqi":89,"pm10":43.4,"pm2_5":38.2,"mosquito_risk":7,"arthritis_risk":0,"migraine_risk":4,"frizz_risk":1,"updated_at":"2026-03-16T20:33:48.064268+05:30"},{"city":"Patna","state":"Bihar","latitude":25.5941,"longitude":85.1376,"temp":27.1,"humidity":61,"rain":0.0,"pressure":1000.9,"uv_index":7.5,"wind_gusts":24.5,"aqi":153,"pm10":79.6,"pm2_5":60.1,"mosquito_risk":7,"arthritis_risk":5,"migraine_risk":4,"frizz_risk":1,"updated_at":"2026-03-16T20:33:48.064274+05:30"},{"city":"Gaya","state":"Bihar","latitude":24.7914,"longitude":85.0002,"temp":25.1,"humidity":62,"rain":0.0,"pressure":994.4,"uv_index":7.25,"wind_gusts":33.5,"aqi":133,"pm10":61.7,"pm2_5":45.6,"mosquito_risk":7,"arthritis_risk":5,"migraine_risk":7,"frizz_risk":1,"updated_at":"2026-03-16T20:33:48.064281+05:30"},{"city":"Muzaffarpur","state":"Bihar","latitude":26.1209,"longitude":85.3647,"temp":24.8,"humidity":62,"rain":0.0,"pressure":1001.2,"uv_index":7.5,"wind_gusts":21.6,"aqi":158,"pm10":86.8,"pm2_5":67.3,"mosquito_risk":3,"arthritis_risk":5,"migraine_risk":4,"frizz_risk":1,"updated_at":"2026-03-16T20:33:48.064288+05:30"},{"city":"Bhagalpur","state":"Bihar","latitude":25.2425,"longitude":87.0117,"temp":26.3,"humidity":67,"rain":0.0,"pressure":1002.2,"uv_index":7.55,"wind_gusts":31.7,"aqi":168,"pm10":84.8,"pm2_5":71.2,"mosquito_risk":7,"arthritis_risk":5,"migraine_risk":4,"frizz_risk":1,"updated_at":"2026-03-16T20:33:48.064294+05:30"},{"city":"Ranchi","state":"Jharkhand","latitude":23.3441,"longitude":85.3096,"temp":22.8,"humidity":68,"rain":0.0,"pressure":939.1,"uv_index":8.0,"wind_gusts":35.3,"aqi":137,"pm10":43.1,"pm2_5":38.0,"mosquito_risk":3,"arthritis_risk":5,"migraine_risk":7,"frizz_risk":1,"updated_at":"2026-03-16T20:33:48.064301+05:30"},{"city":"Jamshedpur","state":"Jharkhand","latitude":22.8046,"longitude":86.2029,"temp":24.0,"humidity":77,"rain":0.0,"pressure":993.1,"uv_index":8.0,"wind_gusts":39.6,"aqi":146,"pm10":54.4,"pm2_5":46.9,"mosquito_risk":3,"arthritis_risk":5,"migraine_risk":7,"frizz_risk":1,"updated_at":"2026-03-16T20:33:48.064307+05:30"},{"city":"Dhanbad","state":"Jharkhand","latitude":23.7957,"longitude":86.4304,"temp":26.1,"humidity":62,"rain":0.0,"pressure":981.4,"uv_index":7.6,"wind_gusts":35.6,"aqi":161,"pm10":70.1,"pm2_5":61.2,"mosquito_risk":7,"arthritis_risk":5,"migraine_risk":7,"frizz_risk":1,"updated_at":"2026-03-16T20:33:48.064314+05:30"},{"city":"Bokaro","state":"Jharkhand","latitude":23.6693,"longitude":86.1511,"temp":24.9,"humidity":66,"rain":0.0,"pressure":985.4,"uv_index":7.8,"wind_gusts":28.4,"aqi":155,"pm10":59.8,"pm2_5":52.0,"mosquito_risk":3,"arthritis_risk":5,"migraine_risk":7,"frizz_risk":1,"updated_at":"2026-03-16T20:33:48.064320+05:30"},{"city":"Bhubaneswar","state":"Odisha","latitude":20.2961,"longitude":85.8245,"temp":24.4,"humidity":89,"rain":0.3,"pressure":1006.0,"uv_index":8.5,"wind_gusts":37.4,"aqi":74,"pm10":24.6,"pm2_5":21.5,"mosquito_risk":6,"arthritis_risk":5,"migraine_risk":4,"frizz_risk":1,"updated_at":"2026-03-16T20:33:48.064328+05:30"},{"city":"Cuttack","state":"Odisha","latitude":20.4625,"longitude":85.8828,"temp":24.4,"humidity":88,"rain":0.0,"pressure":1007.5,"uv_index":8.5,"wind_gusts":39.6,"aqi":74,"pm10":24.6,"pm2_5":21.5,"mosquito_risk":3,"arthritis_risk":5,"migraine_risk":4,"frizz_risk":1,"updated_at":"2026-03-16T20:33:48.064335+05:30"},{"city":"Rourkela","state":"Odisha","latitude":22.2604,"longitude":84.8536,"temp":25.4,"humidity":67,"rain":0.0,"pressure":987.0,"uv_index":8.0,"wind_gusts":42.1,"aqi":156,"pm10":56.1,"pm2_5":51.0,"mosquito_risk":7,"arthritis_risk":5,"migraine_risk":7,"frizz_risk":1,"updated_at":"2026-03-16T20:33:48.064342+05:30"},{"city":"Raipur","state":"Chhattisgarh","latitude":21.2514,"longitude":81.6296,"temp":27.3,"humidity":54,"rain":0.0,"pressure":975.0,"uv_index":8.2,"wind_gusts":36.0,"aqi":135,"pm10":47.7,"pm2_5":44.1,"mosquito_risk":4,"arthritis_risk":5,"migraine_risk":7,"frizz_risk":1,"updated_at":"2026-03-16T20:33:48.064348+05:30"},{"city":"Bhilai","state":"Chhattisgarh","latitude":21.1938,"longitude":81.3509,"temp":27.3,"humidity":54,"rain":0.0,"pressure":975.2,"uv_index":8.2,"wind_gusts":34.2,"aqi":129,"pm10":49.5,"pm2_5":45.8,"mosquito_risk":4,"arthritis_risk":5,"migraine_risk":7,"frizz_risk":1,"updated_at":"2026-03-16T20:33:48.064355+05:30"},{"city":"Guwahati","state":"Assam","latitude":26.1158,"longitude":91.7086,"temp":24.1,"humidity":85,"rain":0.0,"pressure":1003.0,"uv_index":7.2,"wind_gusts":36.7,"aqi":81,"pm10":33.1,"pm2_5":30.0,"mosquito_risk":3,"arthritis_risk":5,"migraine_risk":4,"frizz_risk":1,"updated_at":"2026-03-16T20:33:48.064362+05:30"},{"city":"Agartala","state":"Tripura","latitude":23.8315,"longitude":91.2868,"temp":22.6,"humidity":84,"rain":0.0,"pressure":1010.8,"uv_index":5.55,"wind_gusts":31.7,"aqi":69,"pm10":35.0,"pm2_5":30.5,"mosquito_risk":3,"arthritis_risk":0,"migraine_risk":0,"frizz_risk":1,"updated_at":"2026-03-16T20:33:48.064368+05:30"},{"city":"Shillong","state":"Meghalaya","latitude":25.5788,"longitude":91.8933,"temp":13.1,"humidity":93,"rain":0.0,"pressure":856.3,"uv_index":7.85,"wind_gusts":74.2,"aqi":62,"pm10":14.1,"pm2_5":13.0,"mosquito_risk":3,"arthritis_risk":10,"migraine_risk":7,"frizz_risk":0,"updated_at":"2026-03-16T20:33:48.064375+05:30"},{"city":"Imphal","state":"Manipur","latitude":24.817,"longitude":93.9368,"temp":15.6,"humidity":88,"rain":0.0,"pressure":925.2,"uv_index":8.2,"wind_gusts":70.2,"aqi":87,"pm10":44.4,"pm2_5":37.5,"mosquito_risk":3,"arthritis_risk":10,"migraine_risk":7,"frizz_risk":0,"updated_at":"2026-03-16T20:33:48.064382+05:30"},{"city":"Aizawl","state":"Mizoram","latitude":23.7271,"longitude":92.7176,"temp":17.7,"humidity":80,"rain":0.0,"pressure":895.0,"uv_index":8.05,"wind_gusts":60.1,"aqi":89,"pm10":54.8,"pm2_5":44.5,"mosquito_risk":3,"arthritis_risk":5,"migraine_risk":7,"frizz_risk":0,"updated_at":"2026-03-16T20:33:48.064389+05:30"},{"city":"Kohima","state":"Nagaland","latitude":25.6701,"longitude":94.1077,"temp":14.7,"humidity":70,"rain":0.0,"pressure":855.6,"uv_index":7.9,"wind_gusts":110.5,"aqi":71,"pm10":36.1,"pm2_5":29.3,"mosquito_risk":3,"arthritis_risk":5,"migraine_risk":7,"frizz_risk":0,"updated_at":"2026-03-16T20:33:48.064395+05:30"},{"city":"Gangtok","state":"Sikkim","latitude":27.3314,"longitude":88.6138,"temp":11.7,"humidity":88,"rain":0.0,"pressure":836.8,"uv_index":7.85,"wind_gusts":18.7,"aqi":82,"pm10":38.0,"pm2_5":24.0,"mosquito_risk":3,"arthritis_risk":10,"migraine_risk":7,"frizz_risk":0,"updated_at":"2026-03-16T20:33:48.064402+05:30"},{"city":"Siliguri","state":"West Bengal","latitude":26.7271,"longitude":88.3953,"temp":19.2,"humidity":79,"rain":0.0,"pressure":996.4,"uv_index":7.5,"wind_gusts":28.8,"aqi":128,"pm10":58.6,"pm2_5":42.8,"mosquito_risk":3,"arthritis_risk":5,"migraine_risk":7,"frizz_risk":0,"updated_at":"2026-03-16T20:33:51.371177+05:30"},{"city":"Durgapur","state":"West Bengal","latitude":23.5204,"longitude":87.3119,"temp":24.3,"humidity":80,"rain":0.0,"pressure":997.3,"uv_index":7.75,"wind_gusts":41.4,"aqi":154,"pm10":61.5,"pm2_5":55.8,"mosquito_risk":3,"arthritis_risk":5,"migraine_risk":7,"frizz_risk":1,"updated_at":"2026-03-16T20:33:51.371208+05:30"},{"city":"Asansol","state":"West Bengal","latitude":23.6739,"longitude":86.9524,"temp":25.0,"humidity":75,"rain":0.0,"pressure":995.6,"uv_index":7.75,"wind_gusts":46.1,"aqi":154,"pm10":59.6,"pm2_5":52.6,"mosquito_risk":7,"arthritis_risk":5,"migraine_risk":7,"frizz_risk":1,"updated_at":"2026-03-16T20:33:51.371218+05:30"},{"city":"Pondicherry","state":"Puducherry","latitude":11.9139,"longitude":79.8145,"temp":25.3,"humidity":90,"rain":0.0,"pressure":1010.2,"uv_index":9.05,"wind_gusts":32.4,"aqi":34,"pm10":8.4,"pm2_5":5.9,"mosquito_risk":7,"arthritis_risk":0,"migraine_risk":4,"frizz_risk":1,"updated_at":"2026-03-16T20:33:51.371226+05:30"},{"city":"Port Blair","state":"Andaman and Nicobar Islands","latitude":11.6234,"longitude":92.7265,"temp":27.7,"humidity":79,"rain":0.0,"pressure":1009.4,"uv_index":9.0,"wind_gusts":20.2,"aqi":66,"pm10":16.0,"pm2_5":13.3,"mosquito_risk":7,"arthritis_risk":0,"migraine_risk":4,"frizz_risk":1,"updated_at":"2026-03-16T20:33:51.371234+05:30"},{"city":"Haridwar","state":"Uttarakhand","latitude":29.9457,"longitude":78.1642,"temp":19.9,"humidity":57,"rain":0.0,"pressure":975.3,"uv_index":5.85,"wind_gusts":51.8,"aqi":82,"pm10":52.4,"pm2_5":33.1,"mosquito_risk":0,"arthritis_risk":5,"migraine_risk":3,"frizz_risk":0,"updated_at":"2026-03-16T20:33:51.371242+05:30"},{"city":"Rishikesh","state":"Uttarakhand","latitude":30.0869,"longitude":78.2676,"temp":18.3,"humidity":58,"rain":0.0,"pressure":968.1,"uv_index":5.9,"wind_gusts":32.8,"aqi":91,"pm10":38.4,"pm2_5":18.1,"mosquito_risk":0,"arthritis_risk":5,"migraine_risk":3,"frizz_risk":0,"updated_at":"2026-03-16T20:33:51.371249+05:30"},{"city":"Nainital","state":"Uttarakhand","latitude":29.3919,"longitude":79.4542,"temp":15.4,"humidity":47,"rain":0.0,"pressure":805.5,"uv_index":6.75,"wind_gusts":68.8,"aqi":72,"pm10":60.1,"pm2_5":27.1,"mosquito_risk":0,"arthritis_risk":5,"migraine_risk":7,"frizz_risk":0,"updated_at":"2026-03-16T20:33:51.371257+05:30"},{"city":"Mussoorie","state":"Uttarakhand","latitude":30.4599,"longitude":78.0664,"temp":11.6,"humidity":61,"rain":0.0,"pressure":800.8,"uv_index":5.3,"wind_gusts":33.8,"aqi":75,"pm10":56.9,"pm2_5":31.2,"mosquito_risk":3,"arthritis_risk":5,"migraine_risk":3,"frizz_risk":0,"updated_at":"2026-03-16T20:33:51.371264+05:30"},{"city":"Dharamshala","state":"Himachal Pradesh","latitude":32.219,"longitude":76.3234,"temp":12.7,"humidity":52,"rain":0.0,"pressure":867.2,"uv_index":4.9,"wind_gusts":37.8,"aqi":78,"pm10":24.2,"pm2_5":11.5,"mosquito_risk":0,"arthritis_risk":5,"migraine_risk":3,"frizz_risk":0,"updated_at":"2026-03-16T20:33:51.371271+05:30"},{"city":"Dalhousie","state":"Himachal Pradesh","latitude":32.5387,"longitude":75.971,"temp":9.6,"humidity":59,"rain":0.0,"pressure":800.6,"uv_index":5.2,"wind_gusts":26.3,"aqi":68,"pm10":37.3,"pm2_5":20.2,"mosquito_risk":0,"arthritis_risk":5,"migraine_risk":3,"frizz_risk":0,"updated_at":"2026-03-16T20:33:51.371278+05:30"},{"city":"Patiala","state":"Punjab","latitude":30.3398,"longitude":76.3869,"temp":15.4,"humidity":79,"rain":0.0,"pressure":979.9,"uv_index":5.8,"wind_gusts":52.6,"aqi":74,"pm10":36.4,"pm2_5":25.2,"mosquito_risk":3,"arthritis_risk":5,"migraine_risk":3,"frizz_risk":0,"updated_at":"2026-03-16T20:33:51.371285+05:30"},{"city":"Bhatinda","state":"Punjab","latitude":30.211,"longitude":74.9455,"temp":16.6,"humidity":74,"rain":0.0,"pressure":986.4,"uv_index":6.55,"wind_gusts":36.0,"aqi":86,"pm10":50.4,"pm2_5":30.2,"mosquito_risk":3,"arthritis_risk":5,"migraine_risk":7,"frizz_risk":0,"updated_at":"2026-03-16T20:33:51.371292+05:30"},{"city":"Rohtak","state":"Haryana","latitude":28.8955,"longitude":76.6066,"temp":21.4,"humidity":65,"rain":0.0,"pressure":982.2,"uv_index":6.15,"wind_gusts":48.2,"aqi":656,"pm10":860.5,"pm2_5":123.4,"mosquito_risk":3,"arthritis_risk":5,"migraine_risk":7,"frizz_risk":0,"updated_at":"2026-03-16T20:33:51.371299+05:30"},{"city":"Panipat","state":"Haryana","latitude":29.3909,"longitude":76.9635,"temp":19.4,"humidity":74,"rain":0.0,"pressure":981.3,"uv_index":5.9,"wind_gusts":41.4,"aqi":238,"pm10":476.8,"pm2_5":76.4,"mosquito_risk":3,"arthritis_risk":5,"migraine_risk":3,"frizz_risk":0,"updated_at":"2026-03-16T20:33:51.371306+05:30"},{"city":"Mathura","state":"Uttar Pradesh","latitude":27.4924,"longitude":77.6737,"temp":23.8,"humidity":45,"rain":0.0,"pressure":985.8,"uv_index":6.4,"wind_gusts":34.2,"aqi":1036,"pm10":765.5,"pm2_5":103.8,"mosquito_risk":0,"arthritis_risk":5,"migraine_risk":7,"frizz_risk":0,"updated_at":"2026-03-16T20:33:51.371313+05:30"},{"city":"Vrindavan","state":"Uttar Pradesh","latitude":27.5823,"longitude":77.7027,"temp":23.5,"humidity":45,"rain":0.0,"pressure":986.7,"uv_index":6.35,"wind_gusts":37.1,"aqi":1036,"pm10":765.5,"pm2_5":103.8,"mosquito_risk":0,"arthritis_risk":5,"migraine_risk":7,"frizz_risk":0,"updated_at":"2026-03-16T20:33:51.371320+05:30"},{"city":"Ayodhya","state":"Uttar Pradesh","latitude":26.7922,"longitude":82.1998,"temp":24.3,"humidity":56,"rain":0.0,"pressure":996.1,"uv_index":6.75,"wind_gusts":33.1,"aqi":102,"pm10":64.5,"pm2_5":44.2,"mosquito_risk":0,"arthritis_risk":5,"migraine_risk":7,"frizz_risk":0,"updated_at":"2026-03-16T20:33:51.371326+05:30"},{"city":"Ratlam","state":"Madhya Pradesh","latitude":23.3315,"longitude":75.0367,"temp":27.3,"humidity":38,"rain":0.0,"pressure":954.6,"uv_index":7.55,"wind_gusts":34.2,"aqi":78,"pm10":28.1,"pm2_5":18.3,"mosquito_risk":4,"arthritis_risk":5,"migraine_risk":7,"frizz_risk":0,"updated_at":"2026-03-16T20:33:51.371333+05:30"},{"city":"Sagar","state":"Madhya Pradesh","latitude":23.8388,"longitude":78.7378,"temp":26.2,"humidity":36,"rain":0.0,"pressure":949.9,"uv_index":7.6,"wind_gusts":29.2,"aqi":77,"pm10":24.6,"pm2_5":10.9,"mosquito_risk":4,"arthritis_risk":5,"migraine_risk":7,"frizz_risk":0,"updated_at":"2026-03-16T20:33:51.371340+05:30"},{"city":"Satna","state":"Madhya Pradesh","latitude":24.6005,"longitude":80.8322,"temp":27.3,"humidity":32,"rain":0.0,"pressure":971.0,"uv_index":7.6,"wind_gusts":38.9,"aqi":87,"pm10":25.8,"pm2_5":17.1,"mosquito_risk":4,"arthritis_risk":5,"migraine_risk":7,"frizz_risk":0,"updated_at":"2026-03-16T20:33:51.371347+05:30"},{"city":"Akola","state":"Maharashtra","latitude":20.7002,"longitude":77.0082,"temp":29.5,"humidity":27,"rain":0.0,"pressure":974.3,"uv_index":8.1,"wind_gusts":23.4,"aqi":105,"pm10":38.1,"pm2_5":26.0,"mosquito_risk":4,"arthritis_risk":5,"migraine_risk":7,"frizz_risk":0,"updated_at":"2026-03-16T20:33:51.371355+05:30"},{"city":"Amravati","state":"Maharashtra","latitude":20.9374,"longitude":77.7796,"temp":28.8,"humidity":34,"rain":0.0,"pressure":966.4,"uv_index":8.05,"wind_gusts":31.0,"aqi":110,"pm10":40.0,"pm2_5":29.1,"mosquito_risk":4,"arthritis_risk":5,"migraine_risk":7,"frizz_risk":0,"updated_at":"2026-03-16T20:33:51.371362+05:30"},{"city":"Latur","state":"Maharashtra","latitude":18.4088,"longitude":76.5604,"temp":25.7,"humidity":47,"rain":0.0,"pressure":939.8,"uv_index":8.55,"wind_gusts":24.5,"aqi":108,"pm10":43.2,"pm2_5":36.8,"mosquito_risk":4,"arthritis_risk":5,"migraine_risk":7,"frizz_risk":0,"updated_at":"2026-03-16T20:33:51.371369+05:30"},{"city":"Nanded","state":"Maharashtra","latitude":19.1383,"longitude":77.3091,"temp":28.2,"humidity":43,"rain":0.0,"pressure":968.3,"uv_index":8.35,"wind_gusts":23.8,"aqi":107,"pm10":49.7,"pm2_5":42.1,"mosquito_risk":4,"arthritis_risk":5,"migraine_risk":7,"frizz_risk":0,"updated_at":"2026-03-16T20:33:51.371376+05:30"},{"city":"Gulbarga","state":"Karnataka","latitude":17.3297,"longitude":76.8343,"temp":27.5,"humidity":53,"rain":0.0,"pressure":959.6,"uv_index":8.65,"wind_gusts":32.4,"aqi":157,"pm10":42.5,"pm2_5":38.9,"mosquito_risk":4,"arthritis_risk":5,"migraine_risk":7,"frizz_risk":1,"updated_at":"2026-03-16T20:33:51.371383+05:30"},{"city":"Bidar","state":"Karnataka","latitude":17.9104,"longitude":77.5199,"temp":24.5,"humidity":62,"rain":0.0,"pressure":936.4,"uv_index":8.6,"wind_gusts":37.1,"aqi":158,"pm10":47.7,"pm2_5":44.1,"mosquito_risk":3,"arthritis_risk":5,"migraine_risk":7,"frizz_risk":1,"updated_at":"2026-03-16T20:33:51.371389+05:30"},{"city":"Hospet","state":"Karnataka","latitude":15.2689,"longitude":76.3909,"temp":26.3,"humidity":65,"rain":0.0,"pressure":957.2,"uv_index":8.9,"wind_gusts":28.8,"aqi":175,"pm10":49.4,"pm2_5":43.7,"mosquito_risk":7,"arthritis_risk":5,"migraine_risk":7,"frizz_risk":1,"updated_at":"2026-03-16T20:33:51.371396+05:30"},{"city":"Tirupur","state":"Tamil Nadu","latitude":11.1085,"longitude":77.3411,"temp":27.0,"humidity":57,"rain":0.0,"pressure":976.3,"uv_index":9.3,"wind_gusts":33.1,"aqi":104,"pm10":34.9,"pm2_5":32.6,"mosquito_risk":4,"arthritis_risk":5,"migraine_risk":7,"frizz_risk":1,"updated_at":"2026-03-16T20:33:51.371403+05:30"},{"city":"Alappuzha","state":"Kerala","latitude":9.4981,"longitude":76.3388,"temp":28.4,"humidity":80,"rain":0.0,"pressure":1010.0,"uv_index":9.1,"wind_gusts":30.2,"aqi":89,"pm10":27.1,"pm2_5":23.1,"mosquito_risk":7,"arthritis_risk":0,"migraine_risk":4,"frizz_risk":1,"updated_at":"2026-03-16T20:33:51.371409+05:30"},{"city":"Munnar","state":"Kerala","latitude":10.0889,"longitude":77.0595,"temp":20.5,"humidity":90,"rain":0.0,"pressure":857.6,"uv_index":9.6,"wind_gusts":33.1,"aqi":77,"pm10":32.6,"pm2_5":31.4,"mosquito_risk":3,"arthritis_risk":5,"migraine_risk":7,"frizz_risk":1,"updated_at":"2026-03-16T20:33:51.371417+05:30"},{"city":"Silchar","state":"Assam","latitude":24.8333,"longitude":92.7789,"temp":20.3,"humidity":87,"rain":0.0,"pressure":1009.6,"uv_index":7.85,"wind_gusts":44.6,"aqi":70,"pm10":28.5,"pm2_5":25.1,"mosquito_risk":3,"arthritis_risk":0,"migraine_risk":4,"frizz_risk":1,"updated_at":"2026-03-16T20:33:51.371424+05:30"},{"city":"Dibrugarh","state":"Assam","latitude":27.4728,"longitude":94.912,"temp":19.0,"humidity":91,"rain":0.0,"pressure":998.4,"uv_index":3.25,"wind_gusts":40.7,"aqi":79,"pm10":35.6,"pm2_5":31.4,"mosquito_risk":3,"arthritis_risk":10,"migraine_risk":3,"frizz_risk":1,"updated_at":"2026-03-16T20:33:51.371430+05:30"}]