[{"city":"Delhi","state":"Delhi","latitude":28.6139,"longitude":77.209,"temp":41.0,"humidity":29,"rain":0.0,"pressure":972.7,"uv_index":7.75,"wind_gusts":35.3,"aqi":165,"pm10":177.0,"pm2_5":62.2,"no2":6.2,"co":311.0,"o3":182.0,"so2":14.8,"mosquito_risk":0,"arthritis_risk":5,"migraine_risk":10,"frizz_risk":1,"updated_at":"2026-06-28T16:39:31.494302+05:30"},{"city":"Mumbai","state":"Maharashtra","latitude":19.076,"longitude":72.8777,"temp":29.0,"humidity":78,"rain":0.0,"pressure":1002.8,"uv_index":7.4,"wind_gusts":35.6,"aqi":57,"pm10":25.1,"pm2_5":12.7,"no2":4.9,"co":169.0,"o3":75.0,"so2":4.5,"mosquito_risk":7,"arthritis_risk":5,"migraine_risk":4,"frizz_risk":1,"updated_at":"2026-06-28T16:39:31.494342+05:30"},{"city":"Bangalore","state":"Karnataka","latitude":12.9716,"longitude":77.5946,"temp":24.2,"humidity":85,"rain":0.1,"pressure":908.2,"uv_index":8.3,"wind_gusts":55.8,"aqi":42,"pm10":7.3,"pm2_5":5.1,"no2":7.7,"co":333.0,"o3":65.0,"so2":2.5,"mosquito_risk":6,"arthritis_risk":5,"migraine_risk":7,"frizz_risk":1,"updated_at":"2026-06-28T16:39:31.494357+05:30"},{"city":"Hyderabad","state":"Telangana","latitude":17.385,"longitude":78.4867,"temp":29.1,"humidity":70,"rain":0.0,"pressure":947.4,"uv_index":8.55,"wind_gusts":41.4,"aqi":64,"pm10":10.7,"pm2_5":7.7,"no2":0.9,"co":284.0,"o3":111.0,"so2":2.0,"mosquito_risk":7,"arthritis_risk":5,"migraine_risk":7,"frizz_risk":1,"updated_at":"2026-06-28T16:39:31.494367+05:30"},{"city":"Chennai","state":"Tamil Nadu","latitude":13.0827,"longitude":80.2707,"temp":31.2,"humidity":71,"rain":0.0,"pressure":1000.8,"uv_index":8.85,"wind_gusts":40.7,"aqi":66,"pm10":28.4,"pm2_5":20.4,"no2":4.0,"co":223.0,"o3":129.0,"so2":6.6,"mosquito_risk":3,"arthritis_risk":5,"migraine_risk":4,"frizz_risk":1,"updated_at":"2026-06-28T16:39:31.494375+05:30"},{"city":"Kolkata","state":"West Bengal","latitude":22.5726,"longitude":88.3639,"temp":31.0,"humidity":75,"rain":0.0,"pressure":998.4,"uv_index":8.85,"wind_gusts":33.1,"aqi":67,"pm10":30.5,"pm2_5":25.6,"no2":6.2,"co":447.0,"o3":90.0,"so2":6.0,"mosquito_risk":3,"arthritis_risk":5,"migraine_risk":7,"frizz_risk":1,"updated_at":"2026-06-28T16:39:31.494382+05:30"},{"city":"Pune","state":"Maharashtra","latitude":18.5204,"longitude":73.8567,"temp":25.7,"humidity":82,"rain":0.2,"pressure":942.9,"uv_index":6.1,"wind_gusts":43.6,"aqi":41,"pm10":13.6,"pm2_5":10.6,"no2":5.6,"co":142.0,"o3":82.0,"so2":4.6,"mosquito_risk":10,"arthritis_risk":5,"migraine_risk":7,"frizz_risk":1,"updated_at":"2026-06-28T16:39:31.494389+05:30"},{"city":"Ahmedabad","state":"Gujarat","latitude":23.0225,"longitude":72.5714,"temp":39.0,"humidity":34,"rain":0.0,"pressure":993.6,"uv_index":7.85,"wind_gusts":34.9,"aqi":71,"pm10":53.2,"pm2_5":20.4,"no2":1.2,"co":124.0,"o3":94.0,"so2":2.6,"mosquito_risk":0,"arthritis_risk":5,"migraine_risk":10,"frizz_risk":1,"updated_at":"2026-06-28T16:39:31.494395+05:30"},{"city":"Jaipur","state":"Rajasthan","latitude":26.9124,"longitude":75.7873,"temp":38.7,"humidity":31,"rain":0.0,"pressure":951.7,"uv_index":7.35,"wind_gusts":36.0,"aqi":140,"pm10":137.4,"pm2_5":39.6,"no2":0.8,"co":132.0,"o3":95.0,"so2":2.6,"mosquito_risk":0,"arthritis_risk":5,"migraine_risk":10,"frizz_risk":1,"updated_at":"2026-06-28T16:39:31.494402+05:30"},{"city":"Lucknow","state":"Uttar Pradesh","latitude":26.8467,"longitude":80.9462,"temp":39.1,"humidity":35,"rain":0.0,"pressure":983.1,"uv_index":8.35,"wind_gusts":33.8,"aqi":114,"pm10":138.3,"pm2_5":45.8,"no2":0.9,"co":192.0,"o3":152.0,"so2":6.1,"mosquito_risk":0,"arthritis_risk":5,"migraine_risk":10,"frizz_risk":1,"updated_at":"2026-06-28T16:39:31.494413+05:30"},{"city":"Kanpur","state":"Uttar Pradesh","latitude":26.4499,"longitude":80.3319,"temp":39.6,"humidity":34,"rain":0.0,"pressure":981.5,"uv_index":8.2,"wind_gusts":31.3,"aqi":110,"pm10":140.6,"pm2_5":42.0,"no2":1.1,"co":160.0,"o3":139.0,"so2":5.1,"mosquito_risk":0,"arthritis_risk":5,"migraine_risk":10,"frizz_risk":1,"updated_at":"2026-06-28T16:39:31.494419+05:30"},{"city":"Chandigarh","state":"Chandigarh","latitude":30.7333,"longitude":76.7794,"temp":36.7,"humidity":42,"rain":0.0,"pressure":959.6,"uv_index":7.8,"wind_gusts":28.1,"aqi":191,"pm10":56.8,"pm2_5":43.3,"no2":1.6,"co":310.0,"o3":185.0,"so2":10.9,"mosquito_risk":0,"arthritis_risk":5,"migraine_risk":10,"frizz_risk":1,"updated_at":"2026-06-28T16:39:31.494426+05:30"},{"city":"Srinagar","state":"Jammu and Kashmir","latitude":34.0837,"longitude":74.7973,"temp":32.9,"humidity":29,"rain":0.0,"pressure":838.8,"uv_index":9.1,"wind_gusts":28.1,"aqi":111,"pm10":21.4,"pm2_5":13.9,"no2":0.5,"co":258.0,"o3":143.0,"so2":1.7,"mosquito_risk":0,"arthritis_risk":5,"migraine_risk":7,"frizz_risk":0,"updated_at":"2026-06-28T16:39:31.494433+05:30"},{"city":"Jammu","state":"Jammu and Kashmir","latitude":32.7266,"longitude":74.857,"temp":38.7,"humidity":36,"rain":0.0,"pressure":963.7,"uv_index":8.7,"wind_gusts":31.0,"aqi":122,"pm10":59.0,"pm2_5":37.5,"no2":1.3,"co":263.0,"o3":148.0,"so2":5.6,"mosquito_risk":0,"arthritis_risk":5,"migraine_risk":10,"frizz_risk":1,"updated_at":"2026-06-28T16:39:31.494440+05:30"},{"city":"Amritsar","state":"Punjab","latitude":31.634,"longitude":74.8723,"temp":37.3,"humidity":47,"rain":0.0,"pressure":971.2,"uv_index":8.5,"wind_gusts":44.6,"aqi":158,"pm10":66.1,"pm2_5":44.5,"no2":1.1,"co":307.0,"o3":184.0,"so2":9.2,"mosquito_risk":0,"arthritis_risk":5,"migraine_risk":10,"frizz_risk":1,"updated_at":"2026-06-28T16:39:31.494446+05:30"},{"city":"Ludhiana","state":"Punjab","latitude":30.901,"longitude":75.8573,"temp":38.7,"humidity":36,"rain":0.0,"pressure":969.1,"uv_index":8.0,"wind_gusts":60.8,"aqi":165,"pm10":60.5,"pm2_5":44.0,"no2":1.2,"co":295.0,"o3":162.0,"so2":5.5,"mosquito_risk":0,"arthritis_risk":5,"migraine_risk":10,"frizz_risk":1,"updated_at":"2026-06-28T16:39:31.494453+05:30"},{"city":"Jalandhar","state":"Punjab","latitude":31.326,"longitude":75.5762,"temp":37.0,"humidity":45,"rain":0.0,"pressure":970.3,"uv_index":8.25,"wind_gusts":56.9,"aqi":166,"pm10":77.3,"pm2_5":47.0,"no2":1.6,"co":310.0,"o3":164.0,"so2":6.3,"mosquito_risk":0,"arthritis_risk":5,"migraine_risk":10,"frizz_risk":1,"updated_at":"2026-06-28T16:39:31.494461+05:30"},{"city":"Dehradun","state":"Uttarakhand","latitude":30.6284,"longitude":78.0322,"temp":24.0,"humidity":69,"rain":0.0,"pressure":827.8,"uv_index":7.05,"wind_gusts":34.9,"aqi":108,"pm10":45.3,"pm2_5":31.4,"no2":1.7,"co":244.0,"o3":154.0,"so2":4.1,"mosquito_risk":3,"arthritis_risk":5,"migraine_risk":7,"frizz_risk":1,"updated_at":"2026-06-28T16:39:31.494467+05:30"},{"city":"Shimla","state":"Himachal Pradesh","latitude":31.1048,"longitude":77.1734,"temp":21.4,"humidity":66,"rain":0.0,"pressure":783.0,"uv_index":7.5,"wind_gusts":32.0,"aqi":142,"pm10":43.9,"pm2_5":31.9,"no2":0.2,"co":263.0,"o3":164.0,"so2":6.9,"mosquito_risk":3,"arthritis_risk":5,"migraine_risk":7,"frizz_risk":0,"updated_at":"2026-06-28T16:39:31.494473+05:30"},{"city":"Manali","state":"Himachal Pradesh","latitude":32.2396,"longitude":77.1887,"temp":23.2,"humidity":80,"rain":0.1,"pressure":816.9,"uv_index":9.05,"wind_gusts":35.3,"aqi":57,"pm10":29.6,"pm2_5":25.5,"no2":16.9,"co":187.0,"o3":108.0,"so2":0.4,"mosquito_risk":6,"arthritis_risk":5,"migraine_risk":7,"frizz_risk":1,"updated_at":"2026-06-28T16:39:31.494481+05:30"},{"city":"Gurgaon","state":"Haryana","latitude":28.4595,"longitude":77.0266,"temp":39.4,"humidity":32,"rain":0.0,"pressure":971.5,"uv_index":7.8,"wind_gusts":37.1,"aqi":171,"pm10":276.6,"pm2_5":71.0,"no2":4.1,"co":249.0,"o3":175.0,"so2":10.7,"mosquito_risk":0,"arthritis_risk":5,"migraine_risk":10,"frizz_risk":1,"updated_at":"2026-06-28T16:39:31.494488+05:30"},{"city":"Noida","state":"Uttar Pradesh","latitude":28.5355,"longitude":77.391,"temp":37.9,"humidity":44,"rain":0.0,"pressure":974.0,"uv_index":7.8,"wind_gusts":23.4,"aqi":171,"pm10":276.6,"pm2_5":71.0,"no2":4.1,"co":395.0,"o3":175.0,"so2":10.7,"mosquito_risk":0,"arthritis_risk":5,"migraine_risk":10,"frizz_risk":1,"updated_at":"2026-06-28T16:39:31.494494+05:30"},{"city":"Ghaziabad","state":"Uttar Pradesh","latitude":28.6692,"longitude":77.4538,"temp":38.5,"humidity":37,"rain":0.0,"pressure":972.6,"uv_index":7.75,"wind_gusts":26.3,"aqi":169,"pm10":193.2,"pm2_5":66.6,"no2":4.3,"co":314.0,"o3":212.0,"so2":20.2,"mosquito_risk":0,"arthritis_risk":5,"migraine_risk":10,"frizz_risk":1,"updated_at":"2026-06-28T16:39:31.494500+05:30"},{"city":"Faridabad","state":"Haryana","latitude":28.4089,"longitude":77.3178,"temp":40.1,"humidity":32,"rain":0.0,"pressure":973.4,"uv_index":7.55,"wind_gusts":28.8,"aqi":171,"pm10":276.6,"pm2_5":71.0,"no2":4.1,"co":238.0,"o3":175.0,"so2":10.7,"mosquito_risk":0,"arthritis_risk":5,"migraine_risk":10,"frizz_risk":1,"updated_at":"2026-06-28T16:39:31.494506+05:30"},{"city":"Meerut","state":"Uttar Pradesh","latitude":28.9845,"longitude":77.7064,"temp":38.5,"humidity":37,"rain":0.0,"pressure":971.6,"uv_index":7.45,"wind_gusts":28.1,"aqi":169,"pm10":193.2,"pm2_5":66.6,"no2":4.3,"co":308.0,"o3":212.0,"so2":20.2,"mosquito_risk":0,"arthritis_risk":5,"migraine_risk":10,"frizz_risk":1,"updated_at":"2026-06-28T16:39:31.494511+05:30"},{"city":"Agra","state":"Uttar Pradesh","latitude":27.1767,"longitude":78.0081,"temp":39.8,"humidity":36,"rain":0.0,"pressure":977.3,"uv_index":7.5,"wind_gusts":44.3,"aqi":178,"pm10":421.9,"pm2_5":66.6,"no2":0.6,"co":177.0,"o3":124.0,"so2":3.7,"mosquito_risk":0,"arthritis_risk":5,"migraine_risk":10,"frizz_risk":1,"updated_at":"2026-06-28T16:39:31.494517+05:30"},{"city":"Varanasi","state":"Uttar Pradesh","latitude":25.3176,"longitude":82.9739,"temp":38.0,"humidity":42,"rain":0.0,"pressure":987.6,"uv_index":8.8,"wind_gusts":33.8,"aqi":124,"pm10":52.5,"pm2_5":33.4,"no2":0.5,"co":244.0,"o3":159.0,"so2":5.6,"mosquito_risk":0,"arthritis_risk":5,"migraine_risk":10,"frizz_risk":1,"updated_at":"2026-06-28T16:39:31.494524+05:30"},{"city":"Prayagraj","state":"Uttar Pradesh","latitude":25.4358,"longitude":81.8463,"temp":39.1,"humidity":37,"rain":0.0,"pressure":985.7,"uv_index":8.75,"wind_gusts":34.9,"aqi":114,"pm10":63.6,"pm2_5":31.0,"no2":1.6,"co":187.0,"o3":143.0,"so2":6.3,"mosquito_risk":0,"arthritis_risk":5,"migraine_risk":10,"frizz_risk":1,"updated_at":"2026-06-28T16:39:31.494530+05:30"},{"city":"Gorakhpur","state":"Uttar Pradesh","latitude":26.7606,"longitude":83.3732,"temp":35.1,"humidity":53,"rain":0.0,"pressure":987.3,"uv_index":8.2,"wind_gusts":33.5,"aqi":158,"pm10":78.0,"pm2_5":37.8,"no2":0.3,"co":230.0,"o3":162.0,"so2":3.9,"mosquito_risk":0,"arthritis_risk":5,"migraine_risk":10,"frizz_risk":1,"updated_at":"2026-06-28T16:39:31.494536+05:30"},{"city":"Bareilly","state":"Uttar Pradesh","latitude":28.367,"longitude":79.4304,"temp":38.4,"humidity":41,"rain":0.0,"pressure":976.4,"uv_index":8.1,"wind_gusts":24.1,"aqi":154,"pm10":126.2,"pm2_5":49.4,"no2":1.0,"co":253.0,"o3":162.0,"so2":6.0,"mosquito_risk":0,"arthritis_risk":5,"migraine_risk":10,"frizz_risk":1,"updated_at":"2026-06-28T16:39:31.494545+05:30"},{"city":"Aligarh","state":"Uttar Pradesh","latitude":27.8974,"longitude":78.088,"temp":38.7,"humidity":41,"rain":0.0,"pressure":975.2,"uv_index":7.35,"wind_gusts":30.6,"aqi":166,"pm10":383.7,"pm2_5":77.5,"no2":0.7,"co":189.0,"o3":135.0,"so2":5.8,"mosquito_risk":0,"arthritis_risk":5,"migraine_risk":10,"frizz_risk":1,"updated_at":"2026-06-28T16:39:31.494551+05:30"},{"city":"Moradabad","state":"Uttar Pradesh","latitude":28.8386,"longitude":78.7733,"temp":38.4,"humidity":40,"rain":0.0,"pressure":973.5,"uv_index":7.55,"wind_gusts":28.8,"aqi":181,"pm10":139.2,"pm2_5":53.1,"no2":1.4,"co":262.0,"o3":167.0,"so2":9.4,"mosquito_risk":0,"arthritis_risk":5,"migraine_risk":10,"frizz_risk":1,"updated_at":"2026-06-28T16:39:31.494557+05:30"},{"city":"Saharanpur","state":"Uttar Pradesh","latitude":29.9637,"longitude":77.546,"temp":36.4,"humidity":43,"rain":0.0,"pressure":966.5,"uv_index":7.45,"wind_gusts":44.3,"aqi":170,"pm10":106.4,"pm2_5":60.3,"no2":1.7,"co":291.0,"o3":207.0,"so2":14.0,"mosquito_risk":0,"arthritis_risk":5,"migraine_risk":10,"frizz_risk":1,"updated_at":"2026-06-28T16:39:31.494565+05:30"},{"city":"Jhansi","state":"Uttar Pradesh","latitude":25.4484,"longitude":78.5685,"temp":38.0,"humidity":38,"rain":0.0,"pressure":968.8,"uv_index":7.4,"wind_gusts":47.2,"aqi":78,"pm10":50.1,"pm2_5":21.9,"no2":1.2,"co":141.0,"o3":106.0,"so2":3.9,"mosquito_risk":0,"arthritis_risk":5,"migraine_risk":10,"frizz_risk":1,"updated_at":"2026-06-28T16:39:34.844987+05:30"},{"city":"Surat","state":"Gujarat","latitude":21.1702,"longitude":72.8311,"temp":34.1,"humidity":50,"rain":0.0,"pressure":999.7,"uv_index":7.6,"wind_gusts":44.3,"aqi":79,"pm10":47.6,"pm2_5":25.3,"no2":19.3,"co":210.0,"o3":45.0,"so2":48.6,"mosquito_risk":0,"arthritis_risk":5,"migraine_risk":7,"frizz_risk":1,"updated_at":"2026-06-28T16:39:34.845016+05:30"},{"city":"Vadodara","state":"Gujarat","latitude":22.3072,"longitude":73.1812,"temp":39.4,"humidity":30,"rain":0.0,"pressure":995.8,"uv_index":7.9,"wind_gusts":44.3,"aqi":75,"pm10":55.9,"pm2_5":25.2,"no2":1.5,"co":131.0,"o3":105.0,"so2":2.7,"mosquito_risk":0,"arthritis_risk":5,"migraine_risk":10,"frizz_risk":1,"updated_at":"2026-06-28T16:39:34.845027+05:30"},{"city":"Rajkot","state":"Gujarat","latitude":22.3039,"longitude":70.8022,"temp":36.6,"humidity":41,"rain":0.1,"pressure":987.1,"uv_index":7.55,"wind_gusts":39.6,"aqi":68,"pm10":46.1,"pm2_5":19.3,"no2":1.1,"co":102.0,"o3":97.0,"so2":4.2,"mosquito_risk":3,"arthritis_risk":5,"migraine_risk":10,"frizz_risk":1,"updated_at":"2026-06-28T16:39:34.845036+05:30"},{"city":"Thane","state":"Maharashtra","latitude":19.2183,"longitude":72.9781,"temp":29.4,"humidity":77,"rain":0.1,"pressure":1002.1,"uv_index":5.4,"wind_gusts":25.9,"aqi":57,"pm10":25.1,"pm2_5":12.7,"no2":4.9,"co":157.0,"o3":75.0,"so2":4.5,"mosquito_risk":10,"arthritis_risk":5,"migraine_risk":0,"frizz_risk":1,"updated_at":"2026-06-28T16:39:34.845044+05:30"},{"city":"Nagpur","state":"Maharashtra","latitude":21.1458,"longitude":79.0882,"temp":31.1,"humidity":67,"rain":0.0,"pressure":966.2,"uv_index":8.85,"wind_gusts":38.9,"aqi":92,"pm10":45.8,"pm2_5":35.4,"no2":9.1,"co":209.0,"o3":140.0,"so2":28.1,"mosquito_risk":3,"arthritis_risk":5,"migraine_risk":7,"frizz_risk":1,"updated_at":"2026-06-28T16:39:34.845052+05:30"},{"city":"Nashik","state":"Maharashtra","latitude":19.9975,"longitude":73.7898,"temp":29.1,"humidity":59,"rain":0.0,"pressure":940.1,"uv_index":7.55,"wind_gusts":36.7,"aqi":52,"pm10":18.2,"pm2_5":9.5,"no2":3.2,"co":126.0,"o3":68.0,"so2":0.9,"mosquito_risk":4,"arthritis_risk":5,"migraine_risk":7,"frizz_risk":1,"updated_at":"2026-06-28T16:39:34.845060+05:30"},{"city":"Aurangabad","state":"Maharashtra","latitude":19.8762,"longitude":75.3433,"temp":30.1,"humidity":53,"rain":0.0,"pressure":938.2,"uv_index":6.2,"wind_gusts":28.8,"aqi":65,"pm10":29.7,"pm2_5":15.9,"no2":2.2,"co":156.0,"o3":85.0,"so2":1.9,"mosquito_risk":0,"arthritis_risk":5,"migraine_risk":7,"frizz_risk":1,"updated_at":"2026-06-28T16:39:34.845067+05:30"},{"city":"Solapur","state":"Maharashtra","latitude":17.6599,"longitude":75.9064,"temp":28.2,"humidity":73,"rain":0.0,"pressure":951.3,"uv_index":7.9,"wind_gusts":27.7,"aqi":52,"pm10":15.6,"pm2_5":10.1,"no2":2.0,"co":126.0,"o3":109.0,"so2":2.4,"mosquito_risk":7,"arthritis_risk":5,"migraine_risk":7,"frizz_risk":1,"updated_at":"2026-06-28T16:39:34.845075+05:30"},{"city":"Kolhapur","state":"Maharashtra","latitude":16.705,"longitude":74.2433,"temp":24.5,"humidity":89,"rain":0.3,"pressure":943.1,"uv_index":7.0,"wind_gusts":42.8,"aqi":31,"pm10":5.5,"pm2_5":4.7,"no2":4.7,"co":139.0,"o3":53.0,"so2":1.3,"mosquito_risk":6,"arthritis_risk":5,"migraine_risk":7,"frizz_risk":1,"updated_at":"2026-06-28T16:39:34.845084+05:30"},{"city":"Goa","state":"Goa","latitude":15.2993,"longitude":74.124,"temp":26.2,"humidity":97,"rain":0.2,"pressure":994.7,"uv_index":4.55,"wind_gusts":31.3,"aqi":31,"pm10":11.6,"pm2_5":6.7,"no2":1.7,"co":138.0,"o3":52.0,"so2":0.8,"mosquito_risk":10,"arthritis_risk":5,"migraine_risk":3,"frizz_risk":1,"updated_at":"2026-06-28T16:39:34.845092+05:30"},{"city":"Jodhpur","state":"Rajasthan","latitude":26.2389,"longitude":73.0243,"temp":39.1,"humidity":30,"rain":0.0,"pressure":974.5,"uv_index":8.4,"wind_gusts":38.9,"aqi":128,"pm10":227.7,"pm2_5":44.7,"no2":0.6,"co":111.0,"o3":89.0,"so2":1.7,"mosquito_risk":0,"arthritis_risk":5,"migraine_risk":10,"frizz_risk":1,"updated_at":"2026-06-28T16:39:34.845099+05:30"},{"city":"Udaipur","state":"Rajasthan","latitude":24.5854,"longitude":73.7125,"temp":32.0,"humidity":56,"rain":0.1,"pressure":940.2,"uv_index":8.45,"wind_gusts":28.1,"aqi":66,"pm10":46.4,"pm2_5":20.0,"no2":0.5,"co":110.0,"o3":89.0,"so2":2.0,"mosquito_risk":3,"arthritis_risk":5,"migraine_risk":7,"frizz_risk":1,"updated_at":"2026-06-28T16:39:34.845127+05:30"},{"city":"Kota","state":"Rajasthan","latitude":25.2138,"longitude":75.8648,"temp":38.1,"humidity":37,"rain":0.0,"pressure":970.2,"uv_index":8.2,"wind_gusts":36.7,"aqi":72,"pm10":80.3,"pm2_5":28.3,"no2":1.0,"co":142.0,"o3":100.0,"so2":4.0,"mosquito_risk":0,"arthritis_risk":5,"migraine_risk":10,"frizz_risk":1,"updated_at":"2026-06-28T16:39:34.845137+05:30"},{"city":"Bikaner","state":"Rajasthan","latitude":28.0229,"longitude":73.3119,"temp":41.8,"humidity":25,"rain":0.0,"pressure":972.2,"uv_index":8.45,"wind_gusts":37.4,"aqi":117,"pm10":118.7,"pm2_5":41.0,"no2":0.3,"co":115.0,"o3":82.0,"so2":2.1,"mosquito_risk":0,"arthritis_risk":5,"migraine_risk":10,"frizz_risk":1,"updated_at":"2026-06-28T16:39:34.845144+05:30"},{"city":"Ajmer","state":"Rajasthan","latitude":26.4499,"longitude":74.6399,"temp":36.1,"humidity":40,"rain":0.0,"pressure":947.4,"uv_index":8.35,"wind_gusts":47.2,"aqi":91,"pm10":119.7,"pm2_5":40.0,"no2":0.6,"co":120.0,"o3":87.0,"so2":2.2,"mosquito_risk":0,"arthritis_risk":5,"migraine_risk":10,"frizz_risk":1,"updated_at":"2026-06-28T16:39:34.845152+05:30"},{"city":"Gwalior","state":"Madhya Pradesh","latitude":26.2183,"longitude":78.1828,"temp":39.3,"humidity":34,"rain":0.0,"pressure":973.3,"uv_index":8.25,"wind_gusts":52.2,"aqi":79,"pm10":95.7,"pm2_5":35.5,"no2":0.3,"co":151.0,"o3":105.0,"so2":2.9,"mosquito_risk":0,"arthritis_risk":5,"migraine_risk":10,"frizz_risk":1,"updated_at":"2026-06-28T16:39:34.845159+05:30"},{"city":"Indore","state":"Madhya Pradesh","latitude":22.7196,"longitude":75.8577,"temp":30.7,"humidity":60,"rain":0.0,"pressure":941.9,"uv_index":8.15,"wind_gusts":34.6,"aqi":84,"pm10":51.2,"pm2_5":27.6,"no2":1.3,"co":242.0,"o3":105.0,"so2":4.2,"mosquito_risk":0,"arthritis_risk":5,"migraine_risk":7,"frizz_risk":1,"updated_at":"2026-06-28T16:39:34.845165+05:30"},{"city":"Bhopal","state":"Madhya Pradesh","latitude":23.2599,"longitude":77.4126,"temp":27.3,"humidity":88,"rain":0.2,"pressure":946.6,"uv_index":8.5,"wind_gusts":37.1,"aqi":87,"pm10":46.0,"pm2_5":27.3,"no2":2.0,"co":213.0,"o3":103.0,"so2":2.9,"mosquito_risk":10,"arthritis_risk":5,"migraine_risk":7,"frizz_risk":1,"updated_at":"2026-06-28T16:39:34.845173+05:30"},{"city":"Jabalpur","state":"Madhya Pradesh","latitude":23.1815,"longitude":79.9864,"temp":33.8,"humidity":52,"rain":0.0,"pressure":953.7,"uv_index":8.65,"wind_gusts":25.6,"aqi":79,"pm10":28.2,"pm2_5":21.4,"no2":1.0,"co":204.0,"o3":130.0,"so2":2.2,"mosquito_risk":0,"arthritis_risk":5,"migraine_risk":7,"frizz_risk":1,"updated_at":"2026-06-28T16:39:34.845180+05:30"},{"city":"Ujjain","state":"Madhya Pradesh","latitude":23.1765,"longitude":75.7885,"temp":29.5,"humidity":67,"rain":0.0,"pressure":947.4,"uv_index":8.5,"wind_gusts":37.1,"aqi":79,"pm10":49.2,"pm2_5":25.3,"no2":0.9,"co":206.0,"o3":104.0,"so2":3.3,"mosquito_risk":7,"arthritis_risk":5,"migraine_risk":7,"frizz_risk":1,"updated_at":"2026-06-28T16:39:34.845187+05:30"},{"city":"Visakhapatnam","state":"Andhra Pradesh","latitude":17.6868,"longitude":83.2185,"temp":29.7,"humidity":77,"rain":0.1,"pressure":997.3,"uv_index":8.25,"wind_gusts":46.1,"aqi":84,"pm10":28.7,"pm2_5":21.6,"no2":7.7,"co":296.0,"o3":123.0,"so2":21.0,"mosquito_risk":10,"arthritis_risk":5,"migraine_risk":7,"frizz_risk":1,"updated_at":"2026-06-28T16:39:34.845195+05:30"},{"city":"Vijayawada","state":"Andhra Pradesh","latitude":16.5062,"longitude":80.648,"temp":33.1,"humidity":57,"rain":0.1,"pressure":995.6,"uv_index":6.7,"wind_gusts":40.3,"aqi":84,"pm10":27.1,"pm2_5":19.8,"no2":2.8,"co":152.0,"o3":118.0,"so2":6.4,"mosquito_risk":3,"arthritis_risk":5,"migraine_risk":7,"frizz_risk":1,"updated_at":"2026-06-28T16:39:34.845202+05:30"},{"city":"Guntur","state":"Andhra Pradesh","latitude":16.3067,"longitude":80.4365,"temp":32.6,"humidity":60,"rain":0.1,"pressure":996.6,"uv_index":6.6,"wind_gusts":44.3,"aqi":79,"pm10":25.8,"pm2_5":18.2,"no2":1.4,"co":151.0,"o3":118.0,"so2":5.3,"mosquito_risk":3,"arthritis_risk":5,"migraine_risk":7,"frizz_risk":1,"updated_at":"2026-06-28T16:39:34.845209+05:30"},{"city":"Nellore","state":"Andhra Pradesh","latitude":14.4426,"longitude":79.9865,"temp":32.8,"humidity":60,"rain":0.2,"pressure":999.1,"uv_index":8.1,"wind_gusts":33.1,"aqi":62,"pm10":23.1,"pm2_5":16.5,"no2":2.5,"co":132.0,"o3":124.0,"so2":3.8,"mosquito_risk":3,"arthritis_risk":5,"migraine_risk":7,"frizz_risk":1,"updated_at":"2026-06-28T16:39:34.845217+05:30"},{"city":"Kurnool","state":"Andhra Pradesh","latitude":15.8281,"longitude":78.0373,"temp":34.3,"humidity":48,"rain":0.0,"pressure":970.3,"uv_index":7.65,"wind_gusts":55.8,"aqi":53,"pm10":13.4,"pm2_5":7.3,"no2":0.6,"co":121.0,"o3":78.0,"so2":1.3,"mosquito_risk":0,"arthritis_risk":5,"migraine_risk":7,"frizz_risk":1,"updated_at":"2026-06-28T16:39:34.845225+05:30"},{"city":"Kakinada","state":"Andhra Pradesh","latitude":16.9891,"longitude":82.2475,"temp":31.3,"humidity":76,"rain":0.1,"pressure":1000.5,"uv_index":6.85,"wind_gusts":37.4,"aqi":68,"pm10":29.2,"pm2_5":20.4,"no2":1.9,"co":198.0,"o3":126.0,"so2":4.7,"mosquito_risk":6,"arthritis_risk":5,"migraine_risk":4,"frizz_risk":1,"updated_at":"2026-06-28T16:39:34.845233+05:30"},{"city":"Tirupati","state":"Andhra Pradesh","latitude":13.6288,"longitude":79.4192,"temp":31.3,"humidity":67,"rain":0.1,"pressure":984.6,"uv_index":8.45,"wind_gusts":37.4,"aqi":57,"pm10":20.4,"pm2_5":11.8,"no2":3.9,"co":126.0,"o3":95.0,"so2":1.5,"mosquito_risk":6,"arthritis_risk":5,"migraine_risk":7,"frizz_risk":1,"updated_at":"2026-06-28T16:39:34.845240+05:30"},{"city":"Warangal","state":"Telangana","latitude":17.9689,"longitude":79.5941,"temp":29.1,"humidity":85,"rain":0.2,"pressure":972.2,"uv_index":8.0,"wind_gusts":25.9,"aqi":79,"pm10":21.0,"pm2_5":14.7,"no2":2.2,"co":184.0,"o3":98.0,"so2":1.9,"mosquito_risk":10,"arthritis_risk":5,"migraine_risk":7,"frizz_risk":1,"updated_at":"2026-06-28T16:39:34.845247+05:30"},{"city":"Nizamabad","state":"Telangana","latitude":18.6725,"longitude":78.0941,"temp":31.1,"humidity":62,"rain":0.0,"pressure":958.1,"uv_index":8.65,"wind_gusts":36.0,"aqi":92,"pm10":30.2,"pm2_5":19.7,"no2":0.5,"co":171.0,"o3":118.0,"so2":3.4,"mosquito_risk":3,"arthritis_risk":5,"migraine_risk":7,"frizz_risk":1,"updated_at":"2026-06-28T16:39:34.845254+05:30"},{"city":"Mysore","state":"Karnataka","latitude":12.2958,"longitude":76.6396,"temp":26.2,"humidity":67,"rain":0.0,"pressure":925.4,"uv_index":7.45,"wind_gusts":56.2,"aqi":30,"pm10":3.6,"pm2_5":2.8,"no2":2.5,"co":126.0,"o3":62.0,"so2":1.0,"mosquito_risk":7,"arthritis_risk":5,"migraine_risk":7,"frizz_risk":1,"updated_at":"2026-06-28T16:39:34.845261+05:30"},{"city":"Mangalore","state":"Karnataka","latitude":12.9141,"longitude":74.856,"temp":26.2,"humidity":92,"rain":0.6,"pressure":1004.4,"uv_index":7.8,"wind_gusts":45.0,"aqi":43,"pm10":9.6,"pm2_5":5.7,"no2":1.8,"co":115.0,"o3":50.0,"so2":0.8,"mosquito_risk":10,"arthritis_risk":5,"migraine_risk":4,"frizz_risk":1,"updated_at":"2026-06-28T16:39:34.845268+05:30"},{"city":"Hubli-Dharwad","state":"Karnataka","latitude":15.3647,"longitude":75.124,"temp":24.0,"humidity":91,"rain":0.1,"pressure":936.6,"uv_index":7.95,"wind_gusts":40.3,"aqi":25,"pm10":2.5,"pm2_5":2.2,"no2":3.7,"co":120.0,"o3":50.0,"so2":0.8,"mosquito_risk":6,"arthritis_risk":5,"migraine_risk":7,"frizz_risk":1,"updated_at":"2026-06-28T16:39:34.845275+05:30"},{"city":"Belgaum","state":"Karnataka","latitude":15.8497,"longitude":74.4977,"temp":23.0,"humidity":95,"rain":0.0,"pressure":921.3,"uv_index":7.2,"wind_gusts":45.0,"aqi":27,"pm10":2.2,"pm2_5":1.9,"no2":3.5,"co":107.0,"o3":48.0,"so2":1.1,"mosquito_risk":3,"arthritis_risk":5,"migraine_risk":7,"frizz_risk":1,"updated_at":"2026-06-28T16:39:38.189037+05:30"},{"city":"Coimbatore","state":"Tamil Nadu","latitude":11.0168,"longitude":76.9558,"temp":28.5,"humidity":65,"rain":0.0,"pressure":958.2,"uv_index":8.9,"wind_gusts":60.8,"aqi":29,"pm10":3.2,"pm2_5":2.6,"no2":1.8,"co":134.0,"o3":59.0,"so2":1.3,"mosquito_risk":7,"arthritis_risk":5,"migraine_risk":7,"frizz_risk":1,"updated_at":"2026-06-28T16:39:38.189069+05:30"},{"city":"Madurai","state":"Tamil Nadu","latitude":9.9252,"longitude":78.1198,"temp":34.5,"humidity":42,"rain":0.1,"pressure":987.9,"uv_index":8.75,"wind_gusts":57.6,"aqi":66,"pm10":20.1,"pm2_5":8.8,"no2":1.6,"co":136.0,"o3":80.0,"so2":1.5,"mosquito_risk":3,"arthritis_risk":5,"migraine_risk":7,"frizz_risk":1,"updated_at":"2026-06-28T16:39:38.189080+05:30"},{"city":"Trichy","state":"Tamil Nadu","latitude":10.7905,"longitude":78.7047,"temp":34.4,"humidity":49,"rain":0.1,"pressure":994.3,"uv_index":8.4,"wind_gusts":49.3,"aqi":49,"pm10":19.1,"pm2_5":9.4,"no2":2.5,"co":142.0,"o3":83.0,"so2":1.9,"mosquito_risk":3,"arthritis_risk":5,"migraine_risk":7,"frizz_risk":1,"updated_at":"2026-06-28T16:39:38.189088+05:30"},{"city":"Salem","state":"Tamil Nadu","latitude":11.6643,"longitude":78.146,"temp":27.6,"humidity":83,"rain":0.0,"pressure":973.5,"uv_index":8.85,"wind_gusts":43.6,"aqi":55,"pm10":16.1,"pm2_5":9.4,"no2":2.9,"co":143.0,"o3":96.0,"so2":4.4,"mosquito_risk":7,"arthritis_risk":5,"migraine_risk":7,"frizz_risk":1,"updated_at":"2026-06-28T16:39:38.189096+05:30"},{"city":"Tirunelveli","state":"Tamil Nadu","latitude":8.7139,"longitude":77.7567,"temp":34.4,"humidity":45,"rain":0.0,"pressure":999.1,"uv_index":8.65,"wind_gusts":46.4,"aqi":37,"pm10":6.4,"pm2_5":4.3,"no2":1.4,"co":101.0,"o3":62.0,"so2":0.9,"mosquito_risk":0,"arthritis_risk":5,"migraine_risk":7,"frizz_risk":1,"updated_at":"2026-06-28T16:39:38.189104+05:30"},{"city":"Vellore","state":"Tamil Nadu","latitude":12.9165,"longitude":79.1325,"temp":27.8,"humidity":86,"rain":0.3,"pressure":978.6,"uv_index":8.95,"wind_gusts":31.0,"aqi":60,"pm10":26.7,"pm2_5":13.3,"no2":4.0,"co":160.0,"o3":86.0,"so2":2.6,"mosquito_risk":10,"arthritis_risk":5,"migraine_risk":7,"frizz_risk":1,"updated_at":"2026-06-28T16:39:38.189139+05:30"},{"city":"Erode","state":"Tamil Nadu","latitude":11.341,"longitude":77.7172,"temp":34.1,"humidity":45,"rain":0.0,"pressure":984.3,"uv_index":8.75,"wind_gusts":51.1,"aqi":48,"pm10":5.3,"pm2_5":4.0,"no2":1.9,"co":146.0,"o3":78.0,"so2":1.4,"mosquito_risk":0,"arthritis_risk":5,"migraine_risk":7,"frizz_risk":1,"updated_at":"2026-06-28T16:39:38.189147+05:30"},{"city":"Kochi","state":"Kerala","latitude":9.9312,"longitude":76.2673,"temp":26.1,"humidity":89,"rain":0.1,"pressure":1007.4,"uv_index":8.55,"wind_gusts":43.9,"aqi":51,"pm10":10.2,"pm2_5":6.6,"no2":3.6,"co":109.0,"o3":49.0,"so2":1.7,"mosquito_risk":10,"arthritis_risk":5,"migraine_risk":4,"frizz_risk":1,"updated_at":"2026-06-28T16:39:38.189155+05:30"},{"city":"Thiruvananthapuram","state":"Kerala","latitude":8.5241,"longitude":76.9366,"temp":26.5,"humidity":90,"rain":0.1,"pressure":1006.6,"uv_index":8.05,"wind_gusts":46.8,"aqi":39,"pm10":12.8,"pm2_5":6.8,"no2":1.1,"co":94.0,"o3":60.0,"so2":0.5,"mosquito_risk":10,"arthritis_risk":5,"migraine_risk":4,"frizz_risk":1,"updated_at":"2026-06-28T16:39:38.189163+05:30"},{"city":"Kozhikode","state":"Kerala","latitude":11.2588,"longitude":75.7804,"temp":25.9,"humidity":95,"rain":0.1,"pressure":1006.5,"uv_index":8.5,"wind_gusts":39.2,"aqi":39,"pm10":12.6,"pm2_5":6.4,"no2":0.7,"co":100.0,"o3":56.0,"so2":0.4,"mosquito_risk":10,"arthritis_risk":5,"migraine_risk":4,"frizz_risk":1,"updated_at":"2026-06-28T16:39:38.189169+05:30"},{"city":"Thrissur","state":"Kerala","latitude":10.5276,"longitude":76.2144,"temp":26.2,"humidity":93,"rain":0.1,"pressure":1005.6,"uv_index":8.5,"wind_gusts":39.2,"aqi":53,"pm10":10.1,"pm2_5":6.8,"no2":2.3,"co":123.0,"o3":52.0,"so2":1.1,"mosquito_risk":10,"arthritis_risk":5,"migraine_risk":4,"frizz_risk":1,"updated_at":"2026-06-28T16:39:38.189177+05:30"},{"city":"Kannur","state":"Kerala","latitude":11.8745,"longitude":75.3704,"temp":26.4,"humidity":95,"rain":0.2,"pressure":1005.2,"uv_index":8.6,"wind_gusts":41.8,"aqi":44,"pm10":9.7,"pm2_5":5.4,"no2":1.6,"co":112.0,"o3":50.0,"so2":0.5,"mosquito_risk":10,"arthritis_risk":5,"migraine_risk":4,"frizz_risk":1,"updated_at":"2026-06-28T16:39:38.189184+05:30"},{"city":"Patna","state":"Bihar","latitude":25.5941,"longitude":85.1376,"temp":35.7,"humidity":55,"rain":0.0,"pressure":990.3,"uv_index":7.55,"wind_gusts":35.3,"aqi":159,"pm10":56.3,"pm2_5":44.5,"no2":3.3,"co":260.0,"o3":174.0,"so2":7.2,"mosquito_risk":0,"arthritis_risk":5,"migraine_risk":10,"frizz_risk":1,"updated_at":"2026-06-28T16:39:38.189190+05:30"},{"city":"Gaya","state":"Bihar","latitude":24.7914,"longitude":85.0002,"temp":36.9,"humidity":46,"rain":0.0,"pressure":984.1,"uv_index":8.6,"wind_gusts":35.6,"aqi":127,"pm10":40.4,"pm2_5":33.6,"no2":2.2,"co":210.0,"o3":150.0,"so2":5.9,"mosquito_risk":0,"arthritis_risk":5,"migraine_risk":10,"frizz_risk":1,"updated_at":"2026-06-28T16:39:38.189199+05:30"},{"city":"Muzaffarpur","state":"Bihar","latitude":26.1209,"longitude":85.3647,"temp":34.8,"humidity":61,"rain":0.0,"pressure":990.1,"uv_index":7.75,"wind_gusts":29.5,"aqi":172,"pm10":62.9,"pm2_5":50.8,"no2":5.6,"co":347.0,"o3":177.0,"so2":9.1,"mosquito_risk":3,"arthritis_risk":5,"migraine_risk":7,"frizz_risk":1,"updated_at":"2026-06-28T16:39:38.189205+05:30"},{"city":"Bhagalpur","state":"Bihar","latitude":25.2425,"longitude":87.0117,"temp":34.9,"humidity":59,"rain":0.0,"pressure":991.1,"uv_index":7.75,"wind_gusts":30.6,"aqi":121,"pm10":45.9,"pm2_5":42.0,"no2":6.0,"co":256.0,"o3":174.0,"so2":16.3,"mosquito_risk":0,"arthritis_risk":5,"migraine_risk":7,"frizz_risk":1,"updated_at":"2026-06-28T16:39:38.189212+05:30"},{"city":"Ranchi","state":"Jharkhand","latitude":23.3441,"longitude":85.3096,"temp":28.5,"humidity":73,"rain":0.0,"pressure":931.3,"uv_index":9.0,"wind_gusts":31.3,"aqi":120,"pm10":38.3,"pm2_5":37.4,"no2":3.9,"co":233.0,"o3":135.0,"so2":8.9,"mosquito_risk":7,"arthritis_risk":5,"migraine_risk":7,"frizz_risk":1,"updated_at":"2026-06-28T16:39:38.189219+05:30"},{"city":"Jamshedpur","state":"Jharkhand","latitude":22.8046,"longitude":86.2029,"temp":33.0,"humidity":63,"rain":0.0,"pressure":983.2,"uv_index":9.0,"wind_gusts":31.3,"aqi":155,"pm10":46.9,"pm2_5":44.6,"no2":5.5,"co":283.0,"o3":178.0,"so2":19.5,"mosquito_risk":3,"arthritis_risk":5,"migraine_risk":7,"frizz_risk":1,"updated_at":"2026-06-28T16:39:38.189226+05:30"},{"city":"Dhanbad","state":"Jharkhand","latitude":23.7957,"longitude":86.4304,"temp":31.9,"humidity":69,"rain":0.0,"pressure":971.8,"uv_index":8.85,"wind_gusts":38.9,"aqi":155,"pm10":61.7,"pm2_5":59.8,"no2":20.5,"co":223.0,"o3":176.0,"so2":73.9,"mosquito_risk":3,"arthritis_risk":5,"migraine_risk":7,"frizz_risk":1,"updated_at":"2026-06-28T16:39:38.189233+05:30"},{"city":"Bokaro","state":"Jharkhand","latitude":23.6693,"longitude":86.1511,"temp":34.2,"humidity":54,"rain":0.0,"pressure":975.5,"uv_index":8.8,"wind_gusts":35.3,"aqi":155,"pm10":52.2,"pm2_5":50.3,"no2":17.0,"co":313.0,"o3":157.0,"so2":59.2,"mosquito_risk":0,"arthritis_risk":5,"migraine_risk":7,"frizz_risk":1,"updated_at":"2026-06-28T16:39:38.189240+05:30"},{"city":"Bhubaneswar","state":"Odisha","latitude":20.2961,"longitude":85.8245,"temp":28.6,"humidity":93,"rain":0.3,"pressure":995.7,"uv_index":8.65,"wind_gusts":35.3,"aqi":109,"pm10":35.6,"pm2_5":32.0,"no2":4.7,"co":277.0,"o3":147.0,"so2":8.6,"mosquito_risk":10,"arthritis_risk":5,"migraine_risk":7,"frizz_risk":1,"updated_at":"2026-06-28T16:39:38.189247+05:30"},{"city":"Cuttack","state":"Odisha","latitude":20.4625,"longitude":85.8828,"temp":28.4,"humidity":94,"rain":0.3,"pressure":997.4,"uv_index":9.05,"wind_gusts":27.4,"aqi":109,"pm10":35.6,"pm2_5":32.0,"no2":4.7,"co":284.0,"o3":147.0,"so2":8.6,"mosquito_risk":10,"arthritis_risk":5,"migraine_risk":7,"frizz_risk":1,"updated_at":"2026-06-28T16:39:38.189253+05:30"},{"city":"Rourkela","state":"Odisha","latitude":22.2604,"longitude":84.8536,"temp":31.9,"humidity":65,"rain":0.0,"pressure":978.3,"uv_index":9.0,"wind_gusts":31.3,"aqi":138,"pm10":38.1,"pm2_5":36.1,"no2":3.3,"co":305.0,"o3":167.0,"so2":11.8,"mosquito_risk":3,"arthritis_risk":5,"migraine_risk":7,"frizz_risk":1,"updated_at":"2026-06-28T16:39:38.189260+05:30"},{"city":"Raipur","state":"Chhattisgarh","latitude":21.2514,"longitude":81.6296,"temp":32.9,"humidity":63,"rain":0.1,"pressure":967.1,"uv_index":8.95,"wind_gusts":31.0,"aqi":114,"pm10":43.8,"pm2_5":40.4,"no2":12.4,"co":571.0,"o3":141.0,"so2":36.0,"mosquito_risk":6,"arthritis_risk":5,"migraine_risk":7,"frizz_risk":1,"updated_at":"2026-06-28T16:39:38.189267+05:30"},{"city":"Bhilai","state":"Chhattisgarh","latitude":21.1938,"longitude":81.3509,"temp":31.1,"humidity":65,"rain":0.2,"pressure":967.8,"uv_index":8.7,"wind_gusts":31.3,"aqi":112,"pm10":39.6,"pm2_5":35.7,"no2":11.9,"co":692.0,"o3":128.0,"so2":33.1,"mosquito_risk":6,"arthritis_risk":5,"migraine_risk":7,"frizz_risk":1,"updated_at":"2026-06-28T16:39:38.189273+05:30"},{"city":"Guwahati","state":"Assam","latitude":26.1158,"longitude":91.7086,"temp":30.7,"humidity":79,"rain":0.0,"pressure":991.9,"uv_index":7.2,"wind_gusts":46.4,"aqi":70,"pm10":15.3,"pm2_5":13.7,"no2":2.4,"co":217.0,"o3":91.0,"so2":1.6,"mosquito_risk":3,"arthritis_risk":5,"migraine_risk":7,"frizz_risk":1,"updated_at":"2026-06-28T16:39:38.189279+05:30"},{"city":"Agartala","state":"Tripura","latitude":23.8315,"longitude":91.2868,"temp":31.0,"humidity":76,"rain":0.0,"pressure":998.4,"uv_index":6.2,"wind_gusts":40.7,"aqi":51,"pm10":11.7,"pm2_5":11.0,"no2":5.2,"co":145.0,"o3":83.0,"so2":1.6,"mosquito_risk":3,"arthritis_risk":5,"migraine_risk":7,"frizz_risk":1,"updated_at":"2026-06-28T16:39:38.189286+05:30"},{"city":"Shillong","state":"Meghalaya","latitude":25.5788,"longitude":91.8933,"temp":24.2,"humidity":74,"rain":0.1,"pressure":852.9,"uv_index":6.65,"wind_gusts":42.1,"aqi":46,"pm10":9.5,"pm2_5":8.8,"no2":3.6,"co":159.0,"o3":82.0,"so2":1.2,"mosquito_risk":6,"arthritis_risk":5,"migraine_risk":7,"frizz_risk":1,"updated_at":"2026-06-28T16:39:38.189292+05:30"},{"city":"Imphal","state":"Manipur","latitude":24.817,"longitude":93.9368,"temp":28.2,"humidity":67,"rain":0.0,"pressure":917.3,"uv_index":8.7,"wind_gusts":36.7,"aqi":54,"pm10":5.3,"pm2_5":4.8,"no2":1.5,"co":171.0,"o3":63.0,"so2":0.9,"mosquito_risk":7,"arthritis_risk":5,"migraine_risk":7,"frizz_risk":1,"updated_at":"2026-06-28T16:39:38.189299+05:30"},{"city":"Aizawl","state":"Mizoram","latitude":23.7271,"longitude":92.7176,"temp":23.5,"humidity":79,"rain":0.0,"pressure":887.6,"uv_index":8.35,"wind_gusts":34.2,"aqi":30,"pm10":4.6,"pm2_5":4.1,"no2":1.4,"co":119.0,"o3":65.0,"so2":0.7,"mosquito_risk":3,"arthritis_risk":5,"migraine_risk":7,"frizz_risk":1,"updated_at":"2026-06-28T16:39:38.189305+05:30"},{"city":"Kohima","state":"Nagaland","latitude":25.6701,"longitude":94.1077,"temp":23.2,"humidity":91,"rain":0.1,"pressure":851.1,"uv_index":8.85,"wind_gusts":28.8,"aqi":39,"pm10":7.6,"pm2_5":6.4,"no2":1.8,"co":134.0,"o3":60.0,"so2":0.7,"mosquito_risk":6,"arthritis_risk":5,"migraine_risk":7,"frizz_risk":1,"updated_at":"2026-06-28T16:39:38.189311+05:30"},{"city":"Gangtok","state":"Sikkim","latitude":27.3314,"longitude":88.6138,"temp":20.9,"humidity":96,"rain":0.1,"pressure":832.2,"uv_index":6.05,"wind_gusts":36.0,"aqi":98,"pm10":7.3,"pm2_5":6.2,"no2":3.5,"co":318.0,"o3":111.0,"so2":2.2,"mosquito_risk":6,"arthritis_risk":5,"migraine_risk":7,"frizz_risk":1,"updated_at":"2026-06-28T16:39:38.189318+05:30"},{"city":"Siliguri","state":"West Bengal","latitude":26.7271,"longitude":88.3953,"temp":28.6,"humidity":83,"rain":0.0,"pressure":983.7,"uv_index":6.6,"wind_gusts":27.0,"aqi":99,"pm10":25.0,"pm2_5":22.1,"no2":5.4,"co":458.0,"o3":123.0,"so2":5.0,"mosquito_risk":7,"arthritis_risk":5,"migraine_risk":7,"frizz_risk":1,"updated_at":"2026-06-28T16:39:41.538509+05:30"},{"city":"Durgapur","state":"West Bengal","latitude":23.5204,"longitude":87.3119,"temp":31.3,"humidity":79,"rain":0.0,"pressure":986.7,"uv_index":8.85,"wind_gusts":30.2,"aqi":132,"pm10":74.0,"pm2_5":72.2,"no2":20.2,"co":909.0,"o3":188.0,"so2":62.6,"mosquito_risk":3,"arthritis_risk":5,"migraine_risk":7,"frizz_risk":1,"updated_at":"2026-06-28T16:39:41.538541+05:30"},{"city":"Asansol","state":"West Bengal","latitude":23.6739,"longitude":86.9524,"temp":31.8,"humidity":71,"rain":0.0,"pressure":985.4,"uv_index":8.85,"wind_gusts":36.7,"aqi":132,"pm10":67.3,"pm2_5":65.7,"no2":17.6,"co":364.0,"o3":183.0,"so2":54.2,"mosquito_risk":3,"arthritis_risk":5,"migraine_risk":7,"frizz_risk":1,"updated_at":"2026-06-28T16:39:41.538553+05:30"},{"city":"Pondicherry","state":"Puducherry","latitude":11.9139,"longitude":79.8145,"temp":31.2,"humidity":73,"rain":0.0,"pressure":1002.4,"uv_index":8.2,"wind_gusts":43.9,"aqi":64,"pm10":32.6,"pm2_5":23.3,"no2":4.8,"co":166.0,"o3":125.0,"so2":5.9,"mosquito_risk":3,"arthritis_risk":5,"migraine_risk":4,"frizz_risk":1,"updated_at":"2026-06-28T16:39:41.538562+05:30"},{"city":"Port Blair","state":"Andaman and Nicobar Islands","latitude":11.6234,"longitude":92.7265,"temp":26.3,"humidity":93,"rain":0.1,"pressure":1004.9,"uv_index":1.65,"wind_gusts":39.6,"aqi":21,"pm10":5.9,"pm2_5":3.6,"no2":0.3,"co":91.0,"o3":45.0,"so2":0.1,"mosquito_risk":10,"arthritis_risk":5,"migraine_risk":0,"frizz_risk":1,"updated_at":"2026-06-28T16:39:41.538571+05:30"},{"city":"Haridwar","state":"Uttarakhand","latitude":29.9457,"longitude":78.1642,"temp":37.4,"humidity":41,"rain":0.0,"pressure":964.8,"uv_index":7.6,"wind_gusts":36.7,"aqi":153,"pm10":109.4,"pm2_5":55.6,"no2":1.5,"co":273.0,"o3":192.0,"so2":10.0,"mosquito_risk":0,"arthritis_risk":5,"migraine_risk":10,"frizz_risk":1,"updated_at":"2026-06-28T16:39:41.538580+05:30"},{"city":"Rishikesh","state":"Uttarakhand","latitude":30.0869,"longitude":78.2676,"temp":33.6,"humidity":60,"rain":0.1,"pressure":958.1,"uv_index":7.4,"wind_gusts":26.3,"aqi":134,"pm10":117.1,"pm2_5":53.4,"no2":0.6,"co":269.0,"o3":172.0,"so2":7.1,"mosquito_risk":3,"arthritis_risk":5,"migraine_risk":7,"frizz_risk":1,"updated_at":"2026-06-28T16:39:41.538588+05:30"},{"city":"Nainital","state":"Uttarakhand","latitude":29.3919,"longitude":79.4542,"temp":19.5,"humidity":96,"rain":0.1,"pressure":802.3,"uv_index":8.0,"wind_gusts":32.0,"aqi":143,"pm10":112.5,"pm2_5":50.5,"no2":1.6,"co":254.0,"o3":174.0,"so2":10.3,"mosquito_risk":6,"arthritis_risk":10,"migraine_risk":7,"frizz_risk":1,"updated_at":"2026-06-28T16:39:41.538597+05:30"},{"city":"Mussoorie","state":"Uttarakhand","latitude":30.4599,"longitude":78.0664,"temp":21.8,"humidity":77,"rain":0.1,"pressure":800.9,"uv_index":7.35,"wind_gusts":39.2,"aqi":141,"pm10":88.7,"pm2_5":55.9,"no2":2.2,"co":243.0,"o3":181.0,"so2":8.6,"mosquito_risk":6,"arthritis_risk":5,"migraine_risk":7,"frizz_risk":1,"updated_at":"2026-06-28T16:39:41.538605+05:30"},{"city":"Dharamshala","state":"Himachal Pradesh","latitude":32.219,"longitude":76.3234,"temp":26.5,"humidity":73,"rain":0.1,"pressure":865.0,"uv_index":6.65,"wind_gusts":33.8,"aqi":89,"pm10":23.2,"pm2_5":17.3,"no2":0.7,"co":277.0,"o3":134.0,"so2":1.1,"mosquito_risk":10,"arthritis_risk":5,"migraine_risk":7,"frizz_risk":1,"updated_at":"2026-06-28T16:39:41.538613+05:30"},{"city":"Dalhousie","state":"Himachal Pradesh","latitude":32.5387,"longitude":75.971,"temp":23.3,"humidity":75,"rain":0.1,"pressure":803.2,"uv_index":7.85,"wind_gusts":30.2,"aqi":121,"pm10":43.8,"pm2_5":30.2,"no2":1.5,"co":267.0,"o3":154.0,"so2":2.6,"mosquito_risk":6,"arthritis_risk":5,"migraine_risk":7,"frizz_risk":1,"updated_at":"2026-06-28T16:39:41.538622+05:30"},{"city":"Patiala","state":"Punjab","latitude":30.3398,"longitude":76.3869,"temp":38.0,"humidity":37,"rain":0.0,"pressure":968.8,"uv_index":7.6,"wind_gusts":38.2,"aqi":178,"pm10":279.4,"pm2_5":71.0,"no2":2.7,"co":309.0,"o3":175.0,"so2":7.5,"mosquito_risk":0,"arthritis_risk":5,"migraine_risk":10,"frizz_risk":1,"updated_at":"2026-06-28T16:39:41.538630+05:30"},{"city":"Bhatinda","state":"Punjab","latitude":30.211,"longitude":74.9455,"temp":39.5,"humidity":36,"rain":0.0,"pressure":974.1,"uv_index":8.3,"wind_gusts":46.1,"aqi":189,"pm10":62.2,"pm2_5":36.6,"no2":2.7,"co":266.0,"o3":151.0,"so2":9.0,"mosquito_risk":0,"arthritis_risk":5,"migraine_risk":10,"frizz_risk":1,"updated_at":"2026-06-28T16:39:41.538637+05:30"},{"city":"Rohtak","state":"Haryana","latitude":28.8955,"longitude":76.6066,"temp":37.2,"humidity":41,"rain":0.1,"pressure":972.3,"uv_index":7.75,"wind_gusts":36.7,"aqi":165,"pm10":261.7,"pm2_5":69.2,"no2":2.5,"co":287.0,"o3":162.0,"so2":7.5,"mosquito_risk":3,"arthritis_risk":5,"migraine_risk":10,"frizz_risk":1,"updated_at":"2026-06-28T16:39:41.538645+05:30"},{"city":"Panipat","state":"Haryana","latitude":29.3909,"longitude":76.9635,"temp":37.0,"humidity":43,"rain":0.1,"pressure":970.9,"uv_index":7.65,"wind_gusts":33.8,"aqi":173,"pm10":538.3,"pm2_5":101.7,"no2":3.5,"co":283.0,"o3":187.0,"so2":17.0,"mosquito_risk":3,"arthritis_risk":5,"migraine_risk":10,"frizz_risk":1,"updated_at":"2026-06-28T16:39:41.538652+05:30"},{"city":"Mathura","state":"Uttar Pradesh","latitude":27.4924,"longitude":77.6737,"temp":39.0,"humidity":36,"rain":0.0,"pressure":976.4,"uv_index":7.45,"wind_gusts":32.4,"aqi":206,"pm10":230.5,"pm2_5":54.6,"no2":0.4,"co":170.0,"o3":128.0,"so2":3.4,"mosquito_risk":0,"arthritis_risk":5,"migraine_risk":10,"frizz_risk":1,"updated_at":"2026-06-28T16:39:41.538660+05:30"},{"city":"Vrindavan","state":"Uttar Pradesh","latitude":27.5823,"longitude":77.7027,"temp":38.6,"humidity":38,"rain":0.0,"pressure":976.8,"uv_index":7.4,"wind_gusts":28.8,"aqi":206,"pm10":230.5,"pm2_5":54.6,"no2":0.4,"co":183.0,"o3":128.0,"so2":3.4,"mosquito_risk":0,"arthritis_risk":5,"migraine_risk":10,"frizz_risk":1,"updated_at":"2026-06-28T16:39:41.538668+05:30"},{"city":"Ayodhya","state":"Uttar Pradesh","latitude":26.7922,"longitude":82.1998,"temp":35.7,"humidity":52,"rain":0.0,"pressure":985.4,"uv_index":8.45,"wind_gusts":22.0,"aqi":140,"pm10":94.3,"pm2_5":41.0,"no2":0.0,"co":192.0,"o3":158.0,"so2":4.5,"mosquito_risk":0,"arthritis_risk":5,"migraine_risk":10,"frizz_risk":1,"updated_at":"2026-06-28T16:39:41.538676+05:30"},{"city":"Ratlam","state":"Madhya Pradesh","latitude":23.3315,"longitude":75.0367,"temp":28.1,"humidity":75,"rain":0.0,"pressure":948.4,"uv_index":8.45,"wind_gusts":31.0,"aqi":78,"pm10":51.2,"pm2_5":25.0,"no2":0.7,"co":147.0,"o3":97.0,"so2":2.3,"mosquito_risk":7,"arthritis_risk":5,"migraine_risk":7,"frizz_risk":1,"updated_at":"2026-06-28T16:39:41.538683+05:30"},{"city":"Sagar","state":"Madhya Pradesh","latitude":23.8388,"longitude":78.7378,"temp":33.6,"humidity":49,"rain":0.0,"pressure":942.6,"uv_index":8.1,"wind_gusts":36.0,"aqi":76,"pm10":38.3,"pm2_5":21.7,"no2":0.8,"co":162.0,"o3":110.0,"so2":1.8,"mosquito_risk":0,"arthritis_risk":5,"migraine_risk":7,"frizz_risk":1,"updated_at":"2026-06-28T16:39:41.538691+05:30"},{"city":"Satna","state":"Madhya Pradesh","latitude":24.6005,"longitude":80.8322,"temp":37.0,"humidity":39,"rain":0.0,"pressure":962.8,"uv_index":8.8,"wind_gusts":32.0,"aqi":76,"pm10":46.3,"pm2_5":23.3,"no2":0.4,"co":160.0,"o3":119.0,"so2":2.9,"mosquito_risk":0,"arthritis_risk":5,"migraine_risk":10,"frizz_risk":1,"updated_at":"2026-06-28T16:39:41.538698+05:30"},{"city":"Akola","state":"Maharashtra","latitude":20.7002,"longitude":77.0082,"temp":29.7,"humidity":72,"rain":0.1,"pressure":968.9,"uv_index":8.05,"wind_gusts":31.7,"aqi":82,"pm10":43.9,"pm2_5":25.7,"no2":2.0,"co":134.0,"o3":107.0,"so2":7.3,"mosquito_risk":10,"arthritis_risk":5,"migraine_risk":7,"frizz_risk":1,"updated_at":"2026-06-28T16:39:41.538707+05:30"},{"city":"Amravati","state":"Maharashtra","latitude":20.9374,"longitude":77.7796,"temp":29.6,"humidity":74,"rain":0.2,"pressure":960.8,"uv_index":8.05,"wind_gusts":26.6,"aqi":77,"pm10":41.1,"pm2_5":26.3,"no2":2.6,"co":170.0,"o3":115.0,"so2":9.2,"mosquito_risk":10,"arthritis_risk":5,"migraine_risk":7,"frizz_risk":1,"updated_at":"2026-06-28T16:39:41.538716+05:30"},{"city":"Latur","state":"Maharashtra","latitude":18.4088,"longitude":76.5604,"temp":26.8,"humidity":82,"rain":0.2,"pressure":933.8,"uv_index":8.2,"wind_gusts":38.9,"aqi":84,"pm10":23.9,"pm2_5":14.3,"no2":1.4,"co":143.0,"o3":107.0,"so2":2.8,"mosquito_risk":10,"arthritis_risk":5,"migraine_risk":7,"frizz_risk":1,"updated_at":"2026-06-28T16:39:41.538723+05:30"},{"city":"Nanded","state":"Maharashtra","latitude":19.1383,"longitude":77.3091,"temp":27.8,"humidity":84,"rain":0.2,"pressure":962.3,"uv_index":7.55,"wind_gusts":36.0,"aqi":78,"pm10":29.6,"pm2_5":18.0,"no2":1.4,"co":185.0,"o3":112.0,"so2":2.9,"mosquito_risk":10,"arthritis_risk":5,"migraine_risk":7,"frizz_risk":1,"updated_at":"2026-06-28T16:39:41.538731+05:30"},{"city":"Gulbarga","state":"Karnataka","latitude":17.3297,"longitude":76.8343,"temp":31.3,"humidity":61,"rain":0.0,"pressure":952.4,"uv_index":7.85,"wind_gusts":26.3,"aqi":57,"pm10":9.1,"pm2_5":6.2,"no2":2.2,"co":167.0,"o3":102.0,"so2":2.1,"mosquito_risk":3,"arthritis_risk":5,"migraine_risk":7,"frizz_risk":1,"updated_at":"2026-06-28T16:39:41.538738+05:30"},{"city":"Bidar","state":"Karnataka","latitude":17.9104,"longitude":77.5199,"temp":27.1,"humidity":80,"rain":0.2,"pressure":929.8,"uv_index":7.75,"wind_gusts":26.3,"aqi":66,"pm10":18.3,"pm2_5":12.1,"no2":2.7,"co":148.0,"o3":103.0,"so2":2.4,"mosquito_risk":10,"arthritis_risk":5,"migraine_risk":7,"frizz_risk":1,"updated_at":"2026-06-28T16:39:41.538746+05:30"},{"city":"Hospet","state":"Karnataka","latitude":15.2689,"longitude":76.3909,"temp":26.6,"humidity":83,"rain":0.1,"pressure":950.9,"uv_index":8.9,"wind_gusts":47.2,"aqi":27,"pm10":2.8,"pm2_5":2.5,"no2":2.6,"co":128.0,"o3":61.0,"so2":1.3,"mosquito_risk":10,"arthritis_risk":5,"migraine_risk":7,"frizz_risk":1,"updated_at":"2026-06-28T16:39:41.538753+05:30"},{"city":"Tirupur","state":"Tamil Nadu","latitude":11.1085,"longitude":77.3411,"temp":30.0,"humidity":63,"rain":0.1,"pressure":970.9,"uv_index":8.9,"wind_gusts":63.4,"aqi":50,"pm10":5.8,"pm2_5":4.4,"no2":1.9,"co":127.0,"o3":75.0,"so2":1.8,"mosquito_risk":10,"arthritis_risk":5,"migraine_risk":7,"frizz_risk":1,"updated_at":"2026-06-28T16:39:41.538761+05:30"},{"city":"Alappuzha","state":"Kerala","latitude":9.4981,"longitude":76.3388,"temp":26.0,"humidity":90,"rain":0.1,"pressure":1007.5,"uv_index":8.5,"wind_gusts":42.1,"aqi":49,"pm10":11.0,"pm2_5":6.6,"no2":2.6,"co":85.0,"o3":55.0,"so2":1.2,"mosquito_risk":10,"arthritis_risk":5,"migraine_risk":4,"frizz_risk":1,"updated_at":"2026-06-28T16:39:41.538769+05:30"},{"city":"Munnar","state":"Kerala","latitude":10.0889,"longitude":77.0595,"temp":17.9,"humidity":97,"rain":0.1,"pressure":854.6,"uv_index":8.25,"wind_gusts":41.4,"aqi":27,"pm10":4.4,"pm2_5":3.3,"no2":2.4,"co":99.0,"o3":55.0,"so2":0.9,"mosquito_risk":6,"arthritis_risk":10,"migraine_risk":7,"frizz_risk":1,"updated_at":"2026-06-28T16:39:41.538777+05:30"},{"city":"Silchar","state":"Assam","latitude":24.8333,"longitude":92.7789,"temp":28.4,"humidity":85,"rain":0.3,"pressure":997.7,"uv_index":8.3,"wind_gusts":31.7,"aqi":58,"pm10":6.8,"pm2_5":6.4,"no2":3.0,"co":192.0,"o3":73.0,"so2":1.8,"mosquito_risk":10,"arthritis_risk":5,"migraine_risk":7,"frizz_risk":1,"updated_at":"2026-06-28T16:39:41.538785+05:30"},{"city":"Dibrugarh","state":"Assam","latitude":27.4728,"longitude":94.912,"temp":27.5,"humidity":96,"rain":0.1,"pressure":987.2,"uv_index":2.75,"wind_gusts":40.3,"aqi":63,"pm10":11.5,"pm2_5":10.5,"no2":6.8,"co":200.0,"o3":71.0,"so2":1.7,"mosquito_risk":10,"arthritis_risk":5,"migraine_risk":3,"frizz_risk":1,"updated_at":"2026-06-28T16:39:41.538793+05:30"}]