[{"city":"Delhi","state":"Delhi","latitude":28.6139,"longitude":77.209,"temp":25.4,"humidity":51,"rain":0.0,"pressure":985.8,"uv_index":5.9,"wind_gusts":22.3,"aqi":251,"pm10":120.1,"pm2_5":43.9,"mosquito_risk":4,"arthritis_risk":5,"migraine_risk":3,"frizz_risk":0,"updated_at":"2026-03-17T11:31:27.487956+05:30"},{"city":"Mumbai","state":"Maharashtra","latitude":19.076,"longitude":72.8777,"temp":26.6,"humidity":75,"rain":0.0,"pressure":1011.1,"uv_index":7.7,"wind_gusts":18.7,"aqi":105,"pm10":112.5,"pm2_5":45.3,"mosquito_risk":7,"arthritis_risk":0,"migraine_risk":4,"frizz_risk":1,"updated_at":"2026-03-17T11:31:27.488016+05:30"},{"city":"Bangalore","state":"Karnataka","latitude":12.9716,"longitude":77.5946,"temp":28.3,"humidity":52,"rain":0.0,"pressure":914.2,"uv_index":9.35,"wind_gusts":44.6,"aqi":97,"pm10":32.6,"pm2_5":29.8,"mosquito_risk":4,"arthritis_risk":5,"migraine_risk":7,"frizz_risk":1,"updated_at":"2026-03-17T11:31:27.488032+05:30"},{"city":"Hyderabad","state":"Telangana","latitude":17.385,"longitude":78.4867,"temp":30.0,"humidity":46,"rain":0.0,"pressure":956.0,"uv_index":8.05,"wind_gusts":21.2,"aqi":90,"pm10":23.5,"pm2_5":18.3,"mosquito_risk":4,"arthritis_risk":5,"migraine_risk":7,"frizz_risk":1,"updated_at":"2026-03-17T11:31:27.488042+05:30"},{"city":"Chennai","state":"Tamil Nadu","latitude":13.0827,"longitude":80.2707,"temp":32.0,"humidity":53,"rain":0.0,"pressure":1010.3,"uv_index":9.1,"wind_gusts":31.7,"aqi":33,"pm10":10.9,"pm2_5":7.8,"mosquito_risk":0,"arthritis_risk":0,"migraine_risk":4,"frizz_risk":1,"updated_at":"2026-03-17T11:31:27.488052+05:30"},{"city":"Kolkata","state":"West Bengal","latitude":22.5726,"longitude":88.3639,"temp":30.8,"humidity":64,"rain":0.0,"pressure":1009.2,"uv_index":7.9,"wind_gusts":53.6,"aqi":88,"pm10":46.3,"pm2_5":39.5,"mosquito_risk":3,"arthritis_risk":0,"migraine_risk":4,"frizz_risk":1,"updated_at":"2026-03-17T11:31:27.488062+05:30"},{"city":"Pune","state":"Maharashtra","latitude":18.5204,"longitude":73.8567,"temp":32.8,"humidity":19,"rain":0.0,"pressure":950.8,"uv_index":8.25,"wind_gusts":34.9,"aqi":87,"pm10":34.2,"pm2_5":16.2,"mosquito_risk":0,"arthritis_risk":5,"migraine_risk":7,"frizz_risk":0,"updated_at":"2026-03-17T11:31:27.488082+05:30"},{"city":"Ahmedabad","state":"Gujarat","latitude":23.0225,"longitude":72.5714,"temp":31.2,"humidity":44,"rain":0.0,"pressure":1004.4,"uv_index":7.5,"wind_gusts":22.3,"aqi":56,"pm10":42.7,"pm2_5":16.4,"mosquito_risk":0,"arthritis_risk":5,"migraine_risk":4,"frizz_risk":1,"updated_at":"2026-03-17T11:31:27.488091+05:30"},{"city":"Jaipur","state":"Rajasthan","latitude":26.9124,"longitude":75.7873,"temp":30.6,"humidity":29,"rain":0.0,"pressure":961.4,"uv_index":6.65,"wind_gusts":38.5,"aqi":224,"pm10":369.7,"pm2_5":75.7,"mosquito_risk":0,"arthritis_risk":5,"migraine_risk":7,"frizz_risk":0,"updated_at":"2026-03-17T11:31:27.488100+05:30"},{"city":"Lucknow","state":"Uttar Pradesh","latitude":26.8467,"longitude":80.9462,"temp":32.0,"humidity":34,"rain":0.0,"pressure":995.5,"uv_index":6.6,"wind_gusts":25.2,"aqi":95,"pm10":68.9,"pm2_5":33.9,"mosquito_risk":0,"arthritis_risk":5,"migraine_risk":7,"frizz_risk":0,"updated_at":"2026-03-17T11:31:27.488109+05:30"},{"city":"Kanpur","state":"Uttar Pradesh","latitude":26.4499,"longitude":80.3319,"temp":32.6,"humidity":31,"rain":0.0,"pressure":993.5,"uv_index":6.7,"wind_gusts":21.6,"aqi":121,"pm10":98.7,"pm2_5":44.0,"mosquito_risk":0,"arthritis_risk":5,"migraine_risk":7,"frizz_risk":0,"updated_at":"2026-03-17T11:31:27.488117+05:30"},{"city":"Chandigarh","state":"Chandigarh","latitude":30.7333,"longitude":76.7794,"temp":25.3,"humidity":43,"rain":0.0,"pressure":971.7,"uv_index":5.5,"wind_gusts":12.2,"aqi":62,"pm10":99.7,"pm2_5":23.3,"mosquito_risk":4,"arthritis_risk":5,"migraine_risk":3,"frizz_risk":0,"updated_at":"2026-03-17T11:31:27.488125+05:30"},{"city":"Srinagar","state":"Jammu and Kashmir","latitude":34.0837,"longitude":74.7973,"temp":9.7,"humidity":66,"rain":0.0,"pressure":842.5,"uv_index":7.0,"wind_gusts":13.0,"aqi":81,"pm10":28.5,"pm2_5":20.5,"mosquito_risk":3,"arthritis_risk":5,"migraine_risk":7,"frizz_risk":0,"updated_at":"2026-03-17T11:31:27.488133+05:30"},{"city":"Jammu","state":"Jammu and Kashmir","latitude":32.7266,"longitude":74.857,"temp":24.7,"humidity":37,"rain":0.0,"pressure":976.3,"uv_index":6.7,"wind_gusts":16.9,"aqi":76,"pm10":31.0,"pm2_5":14.2,"mosquito_risk":0,"arthritis_risk":5,"migraine_risk":7,"frizz_risk":0,"updated_at":"2026-03-17T11:31:27.488142+05:30"},{"city":"Amritsar","state":"Punjab","latitude":31.634,"longitude":74.8723,"temp":23.2,"humidity":48,"rain":0.0,"pressure":984.9,"uv_index":6.45,"wind_gusts":16.6,"aqi":85,"pm10":63.3,"pm2_5":22.5,"mosquito_risk":0,"arthritis_risk":5,"migraine_risk":7,"frizz_risk":0,"updated_at":"2026-03-17T11:31:27.488149+05:30"},{"city":"Ludhiana","state":"Punjab","latitude":30.901,"longitude":75.8573,"temp":23.5,"humidity":44,"rain":0.0,"pressure":982.3,"uv_index":6.25,"wind_gusts":16.2,"aqi":75,"pm10":56.3,"pm2_5":27.1,"mosquito_risk":0,"arthritis_risk":5,"migraine_risk":7,"frizz_risk":0,"updated_at":"2026-03-17T11:31:27.488156+05:30"},{"city":"Jalandhar","state":"Punjab","latitude":31.326,"longitude":75.5762,"temp":22.4,"humidity":46,"rain":0.0,"pressure":983.9,"uv_index":6.5,"wind_gusts":16.6,"aqi":74,"pm10":64.5,"pm2_5":27.9,"mosquito_risk":0,"arthritis_risk":5,"migraine_risk":7,"frizz_risk":0,"updated_at":"2026-03-17T11:31:27.488166+05:30"},{"city":"Dehradun","state":"Uttarakhand","latitude":30.6284,"longitude":78.0322,"temp":15.3,"humidity":36,"rain":0.0,"pressure":831.1,"uv_index":4.85,"wind_gusts":23.8,"aqi":37,"pm10":90.3,"pm2_5":14.1,"mosquito_risk":0,"arthritis_risk":5,"migraine_risk":3,"frizz_risk":0,"updated_at":"2026-03-17T11:31:27.488173+05:30"},{"city":"Shimla","state":"Himachal Pradesh","latitude":31.1048,"longitude":77.1734,"temp":14.6,"humidity":40,"rain":0.0,"pressure":785.5,"uv_index":5.4,"wind_gusts":23.0,"aqi":44,"pm10":87.3,"pm2_5":14.4,"mosquito_risk":0,"arthritis_risk":5,"migraine_risk":3,"frizz_risk":0,"updated_at":"2026-03-17T11:31:27.488180+05:30"},{"city":"Manali","state":"Himachal Pradesh","latitude":32.2396,"longitude":77.1887,"temp":14.7,"humidity":20,"rain":0.0,"pressure":818.8,"uv_index":6.95,"wind_gusts":38.2,"aqi":51,"pm10":19.5,"pm2_5":5.8,"mosquito_risk":0,"arthritis_risk":5,"migraine_risk":7,"frizz_risk":1,"updated_at":"2026-03-17T11:31:27.488188+05:30"},{"city":"Gurgaon","state":"Haryana","latitude":28.4595,"longitude":77.0266,"temp":25.5,"humidity":52,"rain":0.0,"pressure":984.4,"uv_index":6.25,"wind_gusts":22.7,"aqi":1464,"pm10":726.4,"pm2_5":100.8,"mosquito_risk":4,"arthritis_risk":5,"migraine_risk":7,"frizz_risk":0,"updated_at":"2026-03-17T11:31:27.488197+05:30"},{"city":"Noida","state":"Uttar Pradesh","latitude":28.5355,"longitude":77.391,"temp":26.0,"humidity":50,"rain":0.0,"pressure":987.3,"uv_index":5.9,"wind_gusts":22.3,"aqi":1464,"pm10":726.4,"pm2_5":100.8,"mosquito_risk":4,"arthritis_risk":5,"migraine_risk":3,"frizz_risk":0,"updated_at":"2026-03-17T11:31:27.488204+05:30"},{"city":"Ghaziabad","state":"Uttar Pradesh","latitude":28.6692,"longitude":77.4538,"temp":25.1,"humidity":56,"rain":0.0,"pressure":985.5,"uv_index":5.8,"wind_gusts":19.8,"aqi":122,"pm10":117.8,"pm2_5":39.9,"mosquito_risk":4,"arthritis_risk":5,"migraine_risk":3,"frizz_risk":0,"updated_at":"2026-03-17T11:31:27.488211+05:30"},{"city":"Faridabad","state":"Haryana","latitude":28.4089,"longitude":77.3178,"temp":26.4,"humidity":50,"rain":0.0,"pressure":986.4,"uv_index":6.2,"wind_gusts":21.2,"aqi":1464,"pm10":726.4,"pm2_5":100.8,"mosquito_risk":4,"arthritis_risk":5,"migraine_risk":7,"frizz_risk":0,"updated_at":"2026-03-17T11:31:27.488218+05:30"},{"city":"Meerut","state":"Uttar Pradesh","latitude":28.9845,"longitude":77.7064,"temp":25.9,"humidity":49,"rain":0.0,"pressure":984.3,"uv_index":5.65,"wind_gusts":15.1,"aqi":122,"pm10":117.8,"pm2_5":39.9,"mosquito_risk":4,"arthritis_risk":5,"migraine_risk":3,"frizz_risk":0,"updated_at":"2026-03-17T11:31:27.488225+05:30"},{"city":"Agra","state":"Uttar Pradesh","latitude":27.1767,"longitude":78.0081,"temp":29.6,"humidity":43,"rain":0.0,"pressure":989.8,"uv_index":6.45,"wind_gusts":16.6,"aqi":521,"pm10":383.7,"pm2_5":75.2,"mosquito_risk":4,"arthritis_risk":5,"migraine_risk":7,"frizz_risk":0,"updated_at":"2026-03-17T11:31:27.488233+05:30"},{"city":"Varanasi","state":"Uttar Pradesh","latitude":25.3176,"longitude":82.9739,"temp":33.5,"humidity":36,"rain":0.0,"pressure":999.6,"uv_index":7.35,"wind_gusts":21.6,"aqi":151,"pm10":67.5,"pm2_5":28.5,"mosquito_risk":0,"arthritis_risk":5,"migraine_risk":7,"frizz_risk":1,"updated_at":"2026-03-17T11:31:27.488242+05:30"},{"city":"Prayagraj","state":"Uttar Pradesh","latitude":25.4358,"longitude":81.8463,"temp":32.2,"humidity":43,"rain":0.0,"pressure":998.1,"uv_index":7.2,"wind_gusts":20.9,"aqi":134,"pm10":69.6,"pm2_5":34.9,"mosquito_risk":0,"arthritis_risk":5,"migraine_risk":7,"frizz_risk":1,"updated_at":"2026-03-17T11:31:27.488251+05:30"},{"city":"Gorakhpur","state":"Uttar Pradesh","latitude":26.7606,"longitude":83.3732,"temp":31.6,"humidity":38,"rain":0.0,"pressure":999.5,"uv_index":7.05,"wind_gusts":23.0,"aqi":91,"pm10":63.3,"pm2_5":32.4,"mosquito_risk":0,"arthritis_risk":5,"migraine_risk":7,"frizz_risk":0,"updated_at":"2026-03-17T11:31:27.488258+05:30"},{"city":"Bareilly","state":"Uttar Pradesh","latitude":28.367,"longitude":79.4304,"temp":26.7,"humidity":43,"rain":0.0,"pressure":989.7,"uv_index":5.45,"wind_gusts":16.6,"aqi":99,"pm10":65.4,"pm2_5":27.0,"mosquito_risk":4,"arthritis_risk":5,"migraine_risk":3,"frizz_risk":0,"updated_at":"2026-03-17T11:31:27.488266+05:30"},{"city":"Aligarh","state":"Uttar Pradesh","latitude":27.8974,"longitude":78.088,"temp":28.7,"humidity":43,"rain":0.0,"pressure":987.9,"uv_index":6.15,"wind_gusts":18.0,"aqi":334,"pm10":272.9,"pm2_5":60.8,"mosquito_risk":4,"arthritis_risk":5,"migraine_risk":7,"frizz_risk":0,"updated_at":"2026-03-17T11:31:27.488272+05:30"},{"city":"Moradabad","state":"Uttar Pradesh","latitude":28.8386,"longitude":78.7733,"temp":25.8,"humidity":48,"rain":0.0,"pressure":986.6,"uv_index":5.45,"wind_gusts":16.2,"aqi":109,"pm10":56.6,"pm2_5":30.4,"mosquito_risk":4,"arthritis_risk":5,"migraine_risk":3,"frizz_risk":0,"updated_at":"2026-03-17T11:31:27.488279+05:30"},{"city":"Saharanpur","state":"Uttar Pradesh","latitude":29.9637,"longitude":77.546,"temp":24.5,"humidity":39,"rain":0.0,"pressure":978.8,"uv_index":4.55,"wind_gusts":14.8,"aqi":125,"pm10":39.2,"pm2_5":19.4,"mosquito_risk":0,"arthritis_risk":5,"migraine_risk":3,"frizz_risk":0,"updated_at":"2026-03-17T11:31:27.488286+05:30"},{"city":"Jhansi","state":"Uttar Pradesh","latitude":25.4484,"longitude":78.5685,"temp":33.8,"humidity":20,"rain":0.0,"pressure":979.1,"uv_index":7.2,"wind_gusts":25.2,"aqi":87,"pm10":34.7,"pm2_5":15.5,"mosquito_risk":0,"arthritis_risk":5,"migraine_risk":7,"frizz_risk":0,"updated_at":"2026-03-17T11:31:30.782581+05:30"},{"city":"Surat","state":"Gujarat","latitude":21.1702,"longitude":72.8311,"temp":28.2,"humidity":71,"rain":0.0,"pressure":1009.7,"uv_index":7.4,"wind_gusts":29.5,"aqi":96,"pm10":64.7,"pm2_5":36.0,"mosquito_risk":7,"arthritis_risk":0,"migraine_risk":4,"frizz_risk":1,"updated_at":"2026-03-17T11:31:30.782613+05:30"},{"city":"Vadodara","state":"Gujarat","latitude":22.3072,"longitude":73.1812,"temp":32.6,"humidity":46,"rain":0.0,"pressure":1006.8,"uv_index":7.55,"wind_gusts":28.1,"aqi":72,"pm10":36.3,"pm2_5":19.2,"mosquito_risk":0,"arthritis_risk":5,"migraine_risk":4,"frizz_risk":1,"updated_at":"2026-03-17T11:31:30.782623+05:30"},{"city":"Rajkot","state":"Gujarat","latitude":22.3039,"longitude":70.8022,"temp":32.0,"humidity":36,"rain":0.0,"pressure":996.3,"uv_index":7.35,"wind_gusts":24.5,"aqi":55,"pm10":54.4,"pm2_5":14.4,"mosquito_risk":0,"arthritis_risk":5,"migraine_risk":7,"frizz_risk":0,"updated_at":"2026-03-17T11:31:30.782631+05:30"},{"city":"Thane","state":"Maharashtra","latitude":19.2183,"longitude":72.9781,"temp":29.8,"humidity":57,"rain":0.0,"pressure":1010.5,"uv_index":7.7,"wind_gusts":30.2,"aqi":105,"pm10":112.5,"pm2_5":45.3,"mosquito_risk":4,"arthritis_risk":0,"migraine_risk":4,"frizz_risk":1,"updated_at":"2026-03-17T11:31:30.782638+05:30"},{"city":"Nagpur","state":"Maharashtra","latitude":21.1458,"longitude":79.0882,"temp":33.1,"humidity":32,"rain":0.0,"pressure":975.9,"uv_index":8.05,"wind_gusts":18.0,"aqi":108,"pm10":52.9,"pm2_5":44.9,"mosquito_risk":0,"arthritis_risk":5,"migraine_risk":7,"frizz_risk":0,"updated_at":"2026-03-17T11:31:30.782645+05:30"},{"city":"Nashik","state":"Maharashtra","latitude":19.9975,"longitude":73.7898,"temp":29.3,"humidity":30,"rain":0.0,"pressure":948.3,"uv_index":7.9,"wind_gusts":27.4,"aqi":72,"pm10":79.4,"pm2_5":16.9,"mosquito_risk":4,"arthritis_risk":5,"migraine_risk":7,"frizz_risk":0,"updated_at":"2026-03-17T11:31:30.782653+05:30"},{"city":"Aurangabad","state":"Maharashtra","latitude":19.8762,"longitude":75.3433,"temp":32.2,"humidity":20,"rain":0.0,"pressure":947.0,"uv_index":8.4,"wind_gusts":27.4,"aqi":61,"pm10":40.5,"pm2_5":13.5,"mosquito_risk":0,"arthritis_risk":5,"migraine_risk":7,"frizz_risk":0,"updated_at":"2026-03-17T11:31:30.782661+05:30"},{"city":"Solapur","state":"Maharashtra","latitude":17.6599,"longitude":75.9064,"temp":32.3,"humidity":32,"rain":0.0,"pressure":959.7,"uv_index":8.6,"wind_gusts":26.6,"aqi":90,"pm10":39.5,"pm2_5":28.5,"mosquito_risk":0,"arthritis_risk":5,"migraine_risk":7,"frizz_risk":0,"updated_at":"2026-03-17T11:31:30.782669+05:30"},{"city":"Kolhapur","state":"Maharashtra","latitude":16.705,"longitude":74.2433,"temp":29.7,"humidity":35,"rain":0.0,"pressure":950.5,"uv_index":8.75,"wind_gusts":37.4,"aqi":89,"pm10":30.0,"pm2_5":23.2,"mosquito_risk":4,"arthritis_risk":5,"migraine_risk":7,"frizz_risk":0,"updated_at":"2026-03-17T11:31:30.782676+05:30"},{"city":"Goa","state":"Goa","latitude":15.2993,"longitude":74.124,"temp":30.8,"humidity":58,"rain":0.0,"pressure":1000.7,"uv_index":8.75,"wind_gusts":36.0,"aqi":74,"pm10":44.9,"pm2_5":21.0,"mosquito_risk":0,"arthritis_risk":5,"migraine_risk":4,"frizz_risk":1,"updated_at":"2026-03-17T11:31:30.782683+05:30"},{"city":"Jodhpur","state":"Rajasthan","latitude":26.2389,"longitude":73.0243,"temp":30.7,"humidity":29,"rain":0.0,"pressure":984.5,"uv_index":6.1,"wind_gusts":30.6,"aqi":111,"pm10":167.6,"pm2_5":47.3,"mosquito_risk":0,"arthritis_risk":5,"migraine_risk":7,"frizz_risk":0,"updated_at":"2026-03-17T11:31:30.782690+05:30"},{"city":"Udaipur","state":"Rajasthan","latitude":24.5854,"longitude":73.7125,"temp":31.9,"humidity":20,"rain":0.0,"pressure":948.0,"uv_index":7.85,"wind_gusts":34.2,"aqi":38,"pm10":42.1,"pm2_5":11.1,"mosquito_risk":0,"arthritis_risk":5,"migraine_risk":7,"frizz_risk":0,"updated_at":"2026-03-17T11:31:30.782697+05:30"},{"city":"Kota","state":"Rajasthan","latitude":25.2138,"longitude":75.8648,"temp":33.7,"humidity":19,"rain":0.0,"pressure":980.0,"uv_index":7.25,"wind_gusts":28.8,"aqi":80,"pm10":308.3,"pm2_5":63.3,"mosquito_risk":0,"arthritis_risk":5,"migraine_risk":7,"frizz_risk":0,"updated_at":"2026-03-17T11:31:30.782704+05:30"},{"city":"Bikaner","state":"Rajasthan","latitude":28.0229,"longitude":73.3119,"temp":25.8,"humidity":46,"rain":0.0,"pressure":984.7,"uv_index":6.8,"wind_gusts":19.8,"aqi":86,"pm10":125.3,"pm2_5":34.5,"mosquito_risk":4,"arthritis_risk":5,"migraine_risk":7,"frizz_risk":0,"updated_at":"2026-03-17T11:31:30.782711+05:30"},{"city":"Ajmer","state":"Rajasthan","latitude":26.4499,"longitude":74.6399,"temp":29.9,"humidity":29,"rain":0.0,"pressure":956.0,"uv_index":6.9,"wind_gusts":37.4,"aqi":121,"pm10":244.0,"pm2_5":53.6,"mosquito_risk":4,"arthritis_risk":5,"migraine_risk":7,"frizz_risk":0,"updated_at":"2026-03-17T11:31:30.782717+05:30"},{"city":"Gwalior","state":"Madhya Pradesh","latitude":26.2183,"longitude":78.1828,"temp":31.3,"humidity":33,"rain":0.0,"pressure":984.4,"uv_index":6.9,"wind_gusts":34.9,"aqi":88,"pm10":102.7,"pm2_5":32.2,"mosquito_risk":0,"arthritis_risk":5,"migraine_risk":7,"frizz_risk":0,"updated_at":"2026-03-17T11:31:30.782724+05:30"},{"city":"Indore","state":"Madhya Pradesh","latitude":22.7196,"longitude":75.8577,"temp":31.8,"humidity":22,"rain":0.0,"pressure":950.4,"uv_index":7.75,"wind_gusts":31.7,"aqi":57,"pm10":24.2,"pm2_5":10.4,"mosquito_risk":0,"arthritis_risk":5,"migraine_risk":7,"frizz_risk":0,"updated_at":"2026-03-17T11:31:30.782732+05:30"},{"city":"Bhopal","state":"Madhya Pradesh","latitude":23.2599,"longitude":77.4126,"temp":32.8,"humidity":20,"rain":0.0,"pressure":956.0,"uv_index":7.7,"wind_gusts":32.0,"aqi":46,"pm10":13.2,"pm2_5":7.7,"mosquito_risk":0,"arthritis_risk":5,"migraine_risk":7,"frizz_risk":0,"updated_at":"2026-03-17T11:31:30.782739+05:30"},{"city":"Jabalpur","state":"Madhya Pradesh","latitude":23.1815,"longitude":79.9864,"temp":31.5,"humidity":32,"rain":0.0,"pressure":964.2,"uv_index":7.8,"wind_gusts":32.0,"aqi":56,"pm10":12.0,"pm2_5":8.3,"mosquito_risk":0,"arthritis_risk":5,"migraine_risk":7,"frizz_risk":0,"updated_at":"2026-03-17T11:31:30.782746+05:30"},{"city":"Ujjain","state":"Madhya Pradesh","latitude":23.1765,"longitude":75.7885,"temp":30.9,"humidity":32,"rain":0.0,"pressure":956.0,"uv_index":7.65,"wind_gusts":28.4,"aqi":56,"pm10":28.2,"pm2_5":11.1,"mosquito_risk":0,"arthritis_risk":5,"migraine_risk":7,"frizz_risk":0,"updated_at":"2026-03-17T11:31:30.782754+05:30"},{"city":"Visakhapatnam","state":"Andhra Pradesh","latitude":17.6868,"longitude":83.2185,"temp":30.8,"humidity":54,"rain":0.0,"pressure":1007.8,"uv_index":8.7,"wind_gusts":37.4,"aqi":57,"pm10":16.6,"pm2_5":13.0,"mosquito_risk":0,"arthritis_risk":5,"migraine_risk":4,"frizz_risk":1,"updated_at":"2026-03-17T11:31:30.782761+05:30"},{"city":"Vijayawada","state":"Andhra Pradesh","latitude":16.5062,"longitude":80.648,"temp":30.3,"humidity":60,"rain":0.0,"pressure":1006.2,"uv_index":8.8,"wind_gusts":27.0,"aqi":50,"pm10":11.9,"pm2_5":9.1,"mosquito_risk":0,"arthritis_risk":5,"migraine_risk":4,"frizz_risk":1,"updated_at":"2026-03-17T11:31:30.782768+05:30"},{"city":"Guntur","state":"Andhra Pradesh","latitude":16.3067,"longitude":80.4365,"temp":31.4,"humidity":54,"rain":0.0,"pressure":1007.2,"uv_index":8.8,"wind_gusts":31.0,"aqi":48,"pm10":10.9,"pm2_5":8.1,"mosquito_risk":0,"arthritis_risk":5,"migraine_risk":4,"frizz_risk":1,"updated_at":"2026-03-17T11:31:30.782774+05:30"},{"city":"Nellore","state":"Andhra Pradesh","latitude":14.4426,"longitude":79.9865,"temp":31.9,"humidity":54,"rain":0.0,"pressure":1009.0,"uv_index":8.95,"wind_gusts":30.6,"aqi":38,"pm10":14.0,"pm2_5":11.2,"mosquito_risk":0,"arthritis_risk":0,"migraine_risk":4,"frizz_risk":1,"updated_at":"2026-03-17T11:31:30.782782+05:30"},{"city":"Kurnool","state":"Andhra Pradesh","latitude":15.8281,"longitude":78.0373,"temp":33.2,"humidity":43,"rain":0.0,"pressure":979.5,"uv_index":8.4,"wind_gusts":37.4,"aqi":73,"pm10":19.3,"pm2_5":16.4,"mosquito_risk":0,"arthritis_risk":5,"migraine_risk":7,"frizz_risk":1,"updated_at":"2026-03-17T11:31:30.782789+05:30"},{"city":"Kakinada","state":"Andhra Pradesh","latitude":16.9891,"longitude":82.2475,"temp":31.3,"humidity":56,"rain":0.0,"pressure":1011.3,"uv_index":8.75,"wind_gusts":29.2,"aqi":41,"pm10":11.8,"pm2_5":8.6,"mosquito_risk":0,"arthritis_risk":0,"migraine_risk":4,"frizz_risk":1,"updated_at":"2026-03-17T11:31:30.782796+05:30"},{"city":"Tirupati","state":"Andhra Pradesh","latitude":13.6288,"longitude":79.4192,"temp":30.7,"humidity":54,"rain":0.0,"pressure":994.8,"uv_index":9.1,"wind_gusts":28.1,"aqi":54,"pm10":11.2,"pm2_5":9.3,"mosquito_risk":0,"arthritis_risk":5,"migraine_risk":7,"frizz_risk":1,"updated_at":"2026-03-17T11:31:30.782803+05:30"},{"city":"Warangal","state":"Telangana","latitude":17.9689,"longitude":79.5941,"temp":29.4,"humidity":61,"rain":0.0,"pressure":982.5,"uv_index":8.5,"wind_gusts":29.9,"aqi":67,"pm10":13.4,"pm2_5":11.3,"mosquito_risk":7,"arthritis_risk":5,"migraine_risk":7,"frizz_risk":1,"updated_at":"2026-03-17T11:31:30.782809+05:30"},{"city":"Nizamabad","state":"Telangana","latitude":18.6725,"longitude":78.0941,"temp":34.2,"humidity":29,"rain":0.0,"pressure":967.4,"uv_index":8.45,"wind_gusts":26.3,"aqi":123,"pm10":32.8,"pm2_5":28.2,"mosquito_risk":0,"arthritis_risk":5,"migraine_risk":7,"frizz_risk":0,"updated_at":"2026-03-17T11:31:30.782816+05:30"},{"city":"Mysore","state":"Karnataka","latitude":12.2958,"longitude":76.6396,"temp":29.3,"humidity":48,"rain":0.0,"pressure":930.7,"uv_index":9.35,"wind_gusts":39.2,"aqi":124,"pm10":23.5,"pm2_5":21.7,"mosquito_risk":4,"arthritis_risk":5,"migraine_risk":7,"frizz_risk":1,"updated_at":"2026-03-17T11:31:30.782823+05:30"},{"city":"Mangalore","state":"Karnataka","latitude":12.9141,"longitude":74.856,"temp":27.3,"humidity":81,"rain":0.0,"pressure":1009.1,"uv_index":8.95,"wind_gusts":20.9,"aqi":103,"pm10":39.2,"pm2_5":27.7,"mosquito_risk":7,"arthritis_risk":0,"migraine_risk":4,"frizz_risk":1,"updated_at":"2026-03-17T11:31:30.782829+05:30"},{"city":"Hubli-Dharwad","state":"Karnataka","latitude":15.3647,"longitude":75.124,"temp":30.6,"humidity":36,"rain":0.0,"pressure":943.5,"uv_index":8.6,"wind_gusts":25.6,"aqi":80,"pm10":28.7,"pm2_5":23.5,"mosquito_risk":0,"arthritis_risk":5,"migraine_risk":7,"frizz_risk":0,"updated_at":"2026-03-17T11:31:30.782836+05:30"},{"city":"Belgaum","state":"Karnataka","latitude":15.8497,"longitude":74.4977,"temp":29.2,"humidity":29,"rain":0.0,"pressure":928.6,"uv_index":8.95,"wind_gusts":35.3,"aqi":77,"pm10":29.7,"pm2_5":22.2,"mosquito_risk":4,"arthritis_risk":5,"migraine_risk":7,"frizz_risk":0,"updated_at":"2026-03-17T11:31:34.152742+05:30"},{"city":"Coimbatore","state":"Tamil Nadu","latitude":11.0168,"longitude":76.9558,"temp":31.6,"humidity":45,"rain":0.0,"pressure":964.1,"uv_index":9.3,"wind_gusts":34.9,"aqi":100,"pm10":23.4,"pm2_5":21.4,"mosquito_risk":0,"arthritis_risk":5,"migraine_risk":7,"frizz_risk":1,"updated_at":"2026-03-17T11:31:34.152775+05:30"},{"city":"Madurai","state":"Tamil Nadu","latitude":9.9252,"longitude":78.1198,"temp":32.0,"humidity":53,"rain":0.0,"pressure":995.0,"uv_index":7.55,"wind_gusts":25.9,"aqi":48,"pm10":10.0,"pm2_5":7.9,"mosquito_risk":0,"arthritis_risk":5,"migraine_risk":7,"frizz_risk":1,"updated_at":"2026-03-17T11:31:34.152785+05:30"},{"city":"Trichy","state":"Tamil Nadu","latitude":10.7905,"longitude":78.7047,"temp":31.5,"humidity":56,"rain":0.0,"pressure":1002.2,"uv_index":9.2,"wind_gusts":20.9,"aqi":53,"pm10":12.5,"pm2_5":10.2,"mosquito_risk":0,"arthritis_risk":5,"migraine_risk":4,"frizz_risk":1,"updated_at":"2026-03-17T11:31:34.152794+05:30"},{"city":"Salem","state":"Tamil Nadu","latitude":11.6643,"longitude":78.146,"temp":31.4,"humidity":53,"rain":0.0,"pressure":979.8,"uv_index":9.25,"wind_gusts":19.1,"aqi":71,"pm10":20.5,"pm2_5":18.5,"mosquito_risk":0,"arthritis_risk":5,"migraine_risk":7,"frizz_risk":1,"updated_at":"2026-03-17T11:31:34.152801+05:30"},{"city":"Tirunelveli","state":"Tamil Nadu","latitude":8.7139,"longitude":77.7567,"temp":33.3,"humidity":48,"rain":0.0,"pressure":1004.9,"uv_index":7.05,"wind_gusts":39.2,"aqi":61,"pm10":14.1,"pm2_5":12.4,"mosquito_risk":0,"arthritis_risk":5,"migraine_risk":4,"frizz_risk":1,"updated_at":"2026-03-17T11:31:34.152808+05:30"},{"city":"Vellore","state":"Tamil Nadu","latitude":12.9165,"longitude":79.1325,"temp":31.6,"humidity":46,"rain":0.0,"pressure":987.4,"uv_index":9.15,"wind_gusts":32.0,"aqi":62,"pm10":20.0,"pm2_5":17.6,"mosquito_risk":0,"arthritis_risk":5,"migraine_risk":7,"frizz_risk":1,"updated_at":"2026-03-17T11:31:34.152815+05:30"},{"city":"Erode","state":"Tamil Nadu","latitude":11.341,"longitude":77.7172,"temp":32.4,"humidity":53,"rain":0.0,"pressure":991.3,"uv_index":9.25,"wind_gusts":28.8,"aqi":50,"pm10":12.7,"pm2_5":10.9,"mosquito_risk":0,"arthritis_risk":5,"migraine_risk":7,"frizz_risk":1,"updated_at":"2026-03-17T11:31:34.152822+05:30"},{"city":"Kochi","state":"Kerala","latitude":9.9312,"longitude":76.2673,"temp":28.2,"humidity":77,"rain":0.0,"pressure":1010.2,"uv_index":8.9,"wind_gusts":32.4,"aqi":86,"pm10":32.4,"pm2_5":29.3,"mosquito_risk":7,"arthritis_risk":0,"migraine_risk":4,"frizz_risk":1,"updated_at":"2026-03-17T11:31:34.152829+05:30"},{"city":"Thiruvananthapuram","state":"Kerala","latitude":8.5241,"longitude":76.9366,"temp":27.7,"humidity":80,"rain":0.0,"pressure":1009.3,"uv_index":8.5,"wind_gusts":24.8,"aqi":54,"pm10":16.2,"pm2_5":14.8,"mosquito_risk":7,"arthritis_risk":0,"migraine_risk":4,"frizz_risk":1,"updated_at":"2026-03-17T11:31:34.152837+05:30"},{"city":"Kozhikode","state":"Kerala","latitude":11.2588,"longitude":75.7804,"temp":29.5,"humidity":73,"rain":0.0,"pressure":1009.6,"uv_index":8.9,"wind_gusts":29.9,"aqi":99,"pm10":38.5,"pm2_5":33.9,"mosquito_risk":7,"arthritis_risk":0,"migraine_risk":4,"frizz_risk":1,"updated_at":"2026-03-17T11:31:34.152844+05:30"},{"city":"Thrissur","state":"Kerala","latitude":10.5276,"longitude":76.2144,"temp":31.8,"humidity":62,"rain":0.0,"pressure":1008.6,"uv_index":8.85,"wind_gusts":34.2,"aqi":87,"pm10":37.1,"pm2_5":33.4,"mosquito_risk":3,"arthritis_risk":0,"migraine_risk":4,"frizz_risk":1,"updated_at":"2026-03-17T11:31:34.152850+05:30"},{"city":"Kannur","state":"Kerala","latitude":11.8745,"longitude":75.3704,"temp":30.5,"humidity":64,"rain":0.0,"pressure":1009.2,"uv_index":9.0,"wind_gusts":27.4,"aqi":111,"pm10":40.6,"pm2_5":33.8,"mosquito_risk":3,"arthritis_risk":0,"migraine_risk":4,"frizz_risk":1,"updated_at":"2026-03-17T11:31:34.152858+05:30"},{"city":"Patna","state":"Bihar","latitude":25.5941,"longitude":85.1376,"temp":32.4,"humidity":41,"rain":0.0,"pressure":1002.6,"uv_index":7.5,"wind_gusts":27.0,"aqi":152,"pm10":75.9,"pm2_5":46.7,"mosquito_risk":0,"arthritis_risk":5,"migraine_risk":4,"frizz_risk":1,"updated_at":"2026-03-17T11:31:34.152864+05:30"},{"city":"Gaya","state":"Bihar","latitude":24.7914,"longitude":85.0002,"temp":33.1,"humidity":38,"rain":0.0,"pressure":996.2,"uv_index":7.6,"wind_gusts":27.7,"aqi":103,"pm10":46.6,"pm2_5":35.6,"mosquito_risk":0,"arthritis_risk":5,"migraine_risk":7,"frizz_risk":1,"updated_at":"2026-03-17T11:31:34.152871+05:30"},{"city":"Muzaffarpur","state":"Bihar","latitude":26.1209,"longitude":85.3647,"temp":31.1,"humidity":49,"rain":0.0,"pressure":1002.7,"uv_index":7.45,"wind_gusts":27.7,"aqi":155,"pm10":76.6,"pm2_5":40.0,"mosquito_risk":0,"arthritis_risk":5,"migraine_risk":4,"frizz_risk":1,"updated_at":"2026-03-17T11:31:34.152877+05:30"},{"city":"Bhagalpur","state":"Bihar","latitude":25.2425,"longitude":87.0117,"temp":30.8,"humidity":57,"rain":0.0,"pressure":1003.4,"uv_index":7.5,"wind_gusts":28.8,"aqi":143,"pm10":60.3,"pm2_5":51.5,"mosquito_risk":0,"arthritis_risk":5,"migraine_risk":4,"frizz_risk":1,"updated_at":"2026-03-17T11:31:34.152883+05:30"},{"city":"Ranchi","state":"Jharkhand","latitude":23.3441,"longitude":85.3096,"temp":27.7,"humidity":54,"rain":0.0,"pressure":941.2,"uv_index":8.2,"wind_gusts":54.7,"aqi":114,"pm10":54.1,"pm2_5":46.4,"mosquito_risk":4,"arthritis_risk":5,"migraine_risk":7,"frizz_risk":1,"updated_at":"2026-03-17T11:31:34.152890+05:30"},{"city":"Jamshedpur","state":"Jharkhand","latitude":22.8046,"longitude":86.2029,"temp":31.4,"humidity":46,"rain":0.0,"pressure":993.8,"uv_index":8.15,"wind_gusts":36.0,"aqi":128,"pm10":77.1,"pm2_5":66.4,"mosquito_risk":0,"arthritis_risk":5,"migraine_risk":7,"frizz_risk":1,"updated_at":"2026-03-17T11:31:34.152896+05:30"},{"city":"Dhanbad","state":"Jharkhand","latitude":23.7957,"longitude":86.4304,"temp":33.3,"humidity":33,"rain":0.0,"pressure":982.4,"uv_index":8.0,"wind_gusts":37.8,"aqi":152,"pm10":71.0,"pm2_5":62.4,"mosquito_risk":0,"arthritis_risk":5,"migraine_risk":7,"frizz_risk":0,"updated_at":"2026-03-17T11:31:34.152903+05:30"},{"city":"Bokaro","state":"Jharkhand","latitude":23.6693,"longitude":86.1511,"temp":33.6,"humidity":30,"rain":0.0,"pressure":986.6,"uv_index":8.0,"wind_gusts":40.7,"aqi":136,"pm10":62.9,"pm2_5":53.7,"mosquito_risk":0,"arthritis_risk":5,"migraine_risk":7,"frizz_risk":0,"updated_at":"2026-03-17T11:31:34.152910+05:30"},{"city":"Bhubaneswar","state":"Odisha","latitude":20.2961,"longitude":85.8245,"temp":31.1,"humidity":58,"rain":0.0,"pressure":1006.5,"uv_index":8.05,"wind_gusts":36.7,"aqi":67,"pm10":31.5,"pm2_5":24.1,"mosquito_risk":0,"arthritis_risk":5,"migraine_risk":4,"frizz_risk":1,"updated_at":"2026-03-17T11:31:34.152916+05:30"},{"city":"Cuttack","state":"Odisha","latitude":20.4625,"longitude":85.8828,"temp":31.3,"humidity":58,"rain":0.0,"pressure":1008.2,"uv_index":8.0,"wind_gusts":33.8,"aqi":67,"pm10":31.5,"pm2_5":24.1,"mosquito_risk":0,"arthritis_risk":0,"migraine_risk":4,"frizz_risk":1,"updated_at":"2026-03-17T11:31:34.152922+05:30"},{"city":"Rourkela","state":"Odisha","latitude":22.2604,"longitude":84.8536,"temp":31.8,"humidity":47,"rain":0.0,"pressure":989.0,"uv_index":8.05,"wind_gusts":45.0,"aqi":150,"pm10":71.9,"pm2_5":62.9,"mosquito_risk":0,"arthritis_risk":5,"migraine_risk":7,"frizz_risk":1,"updated_at":"2026-03-17T11:31:34.152929+05:30"},{"city":"Raipur","state":"Chhattisgarh","latitude":21.2514,"longitude":81.6296,"temp":33.7,"humidity":39,"rain":0.0,"pressure":977.3,"uv_index":8.15,"wind_gusts":43.2,"aqi":146,"pm10":45.6,"pm2_5":37.8,"mosquito_risk":0,"arthritis_risk":5,"migraine_risk":7,"frizz_risk":1,"updated_at":"2026-03-17T11:31:34.152934+05:30"},{"city":"Bhilai","state":"Chhattisgarh","latitude":21.1938,"longitude":81.3509,"temp":34.3,"humidity":39,"rain":0.0,"pressure":977.6,"uv_index":8.15,"wind_gusts":40.0,"aqi":135,"pm10":39.3,"pm2_5":32.6,"mosquito_risk":0,"arthritis_risk":5,"migraine_risk":7,"frizz_risk":1,"updated_at":"2026-03-17T11:31:34.152940+05:30"},{"city":"Guwahati","state":"Assam","latitude":26.1158,"longitude":91.7086,"temp":22.5,"humidity":83,"rain":0.0,"pressure":1004.3,"uv_index":7.5,"wind_gusts":46.4,"aqi":83,"pm10":31.4,"pm2_5":24.7,"mosquito_risk":3,"arthritis_risk":5,"migraine_risk":4,"frizz_risk":1,"updated_at":"2026-03-17T11:31:34.152947+05:30"},{"city":"Agartala","state":"Tripura","latitude":23.8315,"longitude":91.2868,"temp":30.3,"humidity":54,"rain":0.0,"pressure":1009.4,"uv_index":7.15,"wind_gusts":43.6,"aqi":68,"pm10":24.4,"pm2_5":20.8,"mosquito_risk":0,"arthritis_risk":0,"migraine_risk":4,"frizz_risk":1,"updated_at":"2026-03-17T11:31:34.152953+05:30"},{"city":"Shillong","state":"Meghalaya","latitude":25.5788,"longitude":91.8933,"temp":16.5,"humidity":69,"rain":0.0,"pressure":857.7,"uv_index":7.45,"wind_gusts":77.8,"aqi":59,"pm10":23.1,"pm2_5":16.6,"mosquito_risk":3,"arthritis_risk":5,"migraine_risk":7,"frizz_risk":0,"updated_at":"2026-03-17T11:31:34.152959+05:30"},{"city":"Imphal","state":"Manipur","latitude":24.817,"longitude":93.9368,"temp":19.1,"humidity":80,"rain":0.0,"pressure":926.3,"uv_index":8.05,"wind_gusts":91.4,"aqi":106,"pm10":32.6,"pm2_5":24.5,"mosquito_risk":3,"arthritis_risk":5,"migraine_risk":7,"frizz_risk":0,"updated_at":"2026-03-17T11:31:34.152965+05:30"},{"city":"Aizawl","state":"Mizoram","latitude":23.7271,"longitude":92.7176,"temp":22.4,"humidity":56,"rain":0.0,"pressure":897.0,"uv_index":8.1,"wind_gusts":61.9,"aqi":98,"pm10":27.3,"pm2_5":19.3,"mosquito_risk":0,"arthritis_risk":5,"migraine_risk":7,"frizz_risk":0,"updated_at":"2026-03-17T11:31:34.152972+05:30"},{"city":"Kohima","state":"Nagaland","latitude":25.6701,"longitude":94.1077,"temp":18.1,"humidity":58,"rain":0.0,"pressure":856.7,"uv_index":7.95,"wind_gusts":102.2,"aqi":88,"pm10":31.4,"pm2_5":22.3,"mosquito_risk":0,"arthritis_risk":5,"migraine_risk":7,"frizz_risk":0,"updated_at":"2026-03-17T11:31:34.152978+05:30"},{"city":"Gangtok","state":"Sikkim","latitude":27.3314,"longitude":88.6138,"temp":17.9,"humidity":50,"rain":0.0,"pressure":838.2,"uv_index":7.55,"wind_gusts":19.4,"aqi":87,"pm10":45.3,"pm2_5":18.0,"mosquito_risk":0,"arthritis_risk":5,"migraine_risk":7,"frizz_risk":0,"updated_at":"2026-03-17T11:31:34.152984+05:30"},{"city":"Siliguri","state":"West Bengal","latitude":26.7271,"longitude":88.3953,"temp":22.6,"humidity":67,"rain":0.0,"pressure":996.2,"uv_index":7.45,"wind_gusts":42.5,"aqi":132,"pm10":61.5,"pm2_5":38.5,"mosquito_risk":3,"arthritis_risk":5,"migraine_risk":7,"frizz_risk":1,"updated_at":"2026-03-17T11:31:37.433669+05:30"},{"city":"Durgapur","state":"West Bengal","latitude":23.5204,"longitude":87.3119,"temp":31.5,"humidity":45,"rain":0.0,"pressure":997.9,"uv_index":8.05,"wind_gusts":33.5,"aqi":154,"pm10":82.0,"pm2_5":72.9,"mosquito_risk":0,"arthritis_risk":5,"migraine_risk":7,"frizz_risk":1,"updated_at":"2026-03-17T11:31:37.433703+05:30"},{"city":"Asansol","state":"West Bengal","latitude":23.6739,"longitude":86.9524,"temp":32.3,"humidity":44,"rain":0.0,"pressure":996.3,"uv_index":8.0,"wind_gusts":33.8,"aqi":146,"pm10":76.4,"pm2_5":67.5,"mosquito_risk":0,"arthritis_risk":5,"migraine_risk":7,"frizz_risk":1,"updated_at":"2026-03-17T11:31:37.433715+05:30"},{"city":"Pondicherry","state":"Puducherry","latitude":11.9139,"longitude":79.8145,"temp":32.1,"humidity":54,"rain":0.0,"pressure":1010.9,"uv_index":9.05,"wind_gusts":27.4,"aqi":31,"pm10":9.0,"pm2_5":6.1,"mosquito_risk":0,"arthritis_risk":0,"migraine_risk":4,"frizz_risk":1,"updated_at":"2026-03-17T11:31:37.433724+05:30"},{"city":"Port Blair","state":"Andaman and Nicobar Islands","latitude":11.6234,"longitude":92.7265,"temp":29.0,"humidity":70,"rain":0.0,"pressure":1009.3,"uv_index":9.0,"wind_gusts":20.5,"aqi":82,"pm10":14.8,"pm2_5":11.8,"mosquito_risk":7,"arthritis_risk":0,"migraine_risk":4,"frizz_risk":1,"updated_at":"2026-03-17T11:31:37.433733+05:30"},{"city":"Haridwar","state":"Uttarakhand","latitude":29.9457,"longitude":78.1642,"temp":25.3,"humidity":38,"rain":0.0,"pressure":977.3,"uv_index":4.2,"wind_gusts":18.4,"aqi":64,"pm10":39.5,"pm2_5":11.0,"mosquito_risk":4,"arthritis_risk":5,"migraine_risk":3,"frizz_risk":0,"updated_at":"2026-03-17T11:31:37.433742+05:30"},{"city":"Rishikesh","state":"Uttarakhand","latitude":30.0869,"longitude":78.2676,"temp":24.8,"humidity":33,"rain":0.0,"pressure":969.8,"uv_index":4.4,"wind_gusts":19.8,"aqi":54,"pm10":134.6,"pm2_5":20.1,"mosquito_risk":0,"arthritis_risk":5,"migraine_risk":3,"frizz_risk":0,"updated_at":"2026-03-17T11:31:37.433751+05:30"},{"city":"Nainital","state":"Uttarakhand","latitude":29.3919,"longitude":79.4542,"temp":20.1,"humidity":35,"rain":0.0,"pressure":808.5,"uv_index":5.3,"wind_gusts":37.8,"aqi":59,"pm10":95.9,"pm2_5":17.1,"mosquito_risk":0,"arthritis_risk":5,"migraine_risk":3,"frizz_risk":0,"updated_at":"2026-03-17T11:31:37.433760+05:30"},{"city":"Mussoorie","state":"Uttarakhand","latitude":30.4599,"longitude":78.0664,"temp":16.7,"humidity":39,"rain":0.0,"pressure":804.0,"uv_index":4.85,"wind_gusts":29.5,"aqi":56,"pm10":153.2,"pm2_5":22.2,"mosquito_risk":0,"arthritis_risk":5,"migraine_risk":3,"frizz_risk":0,"updated_at":"2026-03-17T11:31:37.433769+05:30"},{"city":"Dharamshala","state":"Himachal Pradesh","latitude":32.219,"longitude":76.3234,"temp":17.9,"humidity":41,"rain":0.0,"pressure":870.2,"uv_index":5.1,"wind_gusts":26.3,"aqi":49,"pm10":45.2,"pm2_5":9.0,"mosquito_risk":0,"arthritis_risk":5,"migraine_risk":3,"frizz_risk":0,"updated_at":"2026-03-17T11:31:37.433776+05:30"},{"city":"Dalhousie","state":"Himachal Pradesh","latitude":32.5387,"longitude":75.971,"temp":17.0,"humidity":21,"rain":0.0,"pressure":804.9,"uv_index":5.05,"wind_gusts":24.1,"aqi":57,"pm10":83.6,"pm2_5":17.3,"mosquito_risk":0,"arthritis_risk":5,"migraine_risk":3,"frizz_risk":1,"updated_at":"2026-03-17T11:31:37.433784+05:30"},{"city":"Patiala","state":"Punjab","latitude":30.3398,"longitude":76.3869,"temp":23.8,"humidity":49,"rain":0.0,"pressure":981.4,"uv_index":5.55,"wind_gusts":16.9,"aqi":85,"pm10":117.1,"pm2_5":31.9,"mosquito_risk":0,"arthritis_risk":5,"migraine_risk":3,"frizz_risk":0,"updated_at":"2026-03-17T11:31:37.433791+05:30"},{"city":"Bhatinda","state":"Punjab","latitude":30.211,"longitude":74.9455,"temp":23.7,"humidity":46,"rain":0.0,"pressure":987.5,"uv_index":6.5,"wind_gusts":18.4,"aqi":94,"pm10":96.4,"pm2_5":27.6,"mosquito_risk":0,"arthritis_risk":5,"migraine_risk":7,"frizz_risk":0,"updated_at":"2026-03-17T11:31:37.433798+05:30"},{"city":"Rohtak","state":"Haryana","latitude":28.8955,"longitude":76.6066,"temp":25.0,"humidity":53,"rain":0.0,"pressure":984.7,"uv_index":6.15,"wind_gusts":18.7,"aqi":476,"pm10":165.3,"pm2_5":49.5,"mosquito_risk":4,"arthritis_risk":5,"migraine_risk":7,"frizz_risk":0,"updated_at":"2026-03-17T11:31:37.433805+05:30"},{"city":"Panipat","state":"Haryana","latitude":29.3909,"longitude":76.9635,"temp":25.8,"humidity":47,"rain":0.0,"pressure":983.4,"uv_index":5.75,"wind_gusts":15.1,"aqi":264,"pm10":114.8,"pm2_5":42.1,"mosquito_risk":4,"arthritis_risk":5,"migraine_risk":3,"frizz_risk":0,"updated_at":"2026-03-17T11:31:37.433811+05:30"},{"city":"Mathura","state":"Uttar Pradesh","latitude":27.4924,"longitude":77.6737,"temp":29.0,"humidity":42,"rain":0.0,"pressure":988.8,"uv_index":6.45,"wind_gusts":20.5,"aqi":511,"pm10":640.7,"pm2_5":96.6,"mosquito_risk":4,"arthritis_risk":5,"migraine_risk":7,"frizz_risk":0,"updated_at":"2026-03-17T11:31:37.433817+05:30"},{"city":"Vrindavan","state":"Uttar Pradesh","latitude":27.5823,"longitude":77.7027,"temp":29.0,"humidity":43,"rain":0.0,"pressure":989.5,"uv_index":6.35,"wind_gusts":20.2,"aqi":511,"pm10":640.7,"pm2_5":96.6,"mosquito_risk":4,"arthritis_risk":5,"migraine_risk":7,"frizz_risk":0,"updated_at":"2026-03-17T11:31:37.433823+05:30"},{"city":"Ayodhya","state":"Uttar Pradesh","latitude":26.7922,"longitude":82.1998,"temp":32.8,"humidity":33,"rain":0.0,"pressure":997.3,"uv_index":6.85,"wind_gusts":25.9,"aqi":99,"pm10":65.0,"pm2_5":31.4,"mosquito_risk":0,"arthritis_risk":5,"migraine_risk":7,"frizz_risk":0,"updated_at":"2026-03-17T11:31:37.433830+05:30"},{"city":"Ratlam","state":"Madhya Pradesh","latitude":23.3315,"longitude":75.0367,"temp":30.5,"humidity":39,"rain":0.0,"pressure":956.9,"uv_index":7.6,"wind_gusts":35.3,"aqi":55,"pm10":31.4,"pm2_5":11.3,"mosquito_risk":0,"arthritis_risk":5,"migraine_risk":7,"frizz_risk":0,"updated_at":"2026-03-17T11:31:37.433836+05:30"},{"city":"Sagar","state":"Madhya Pradesh","latitude":23.8388,"longitude":78.7378,"temp":32.0,"humidity":23,"rain":0.0,"pressure":952.5,"uv_index":7.65,"wind_gusts":31.7,"aqi":38,"pm10":22.1,"pm2_5":7.6,"mosquito_risk":0,"arthritis_risk":5,"migraine_risk":7,"frizz_risk":0,"updated_at":"2026-03-17T11:31:37.433842+05:30"},{"city":"Satna","state":"Madhya Pradesh","latitude":24.6005,"longitude":80.8322,"temp":34.2,"humidity":22,"rain":0.0,"pressure":973.3,"uv_index":7.55,"wind_gusts":34.9,"aqi":94,"pm10":45.3,"pm2_5":24.6,"mosquito_risk":0,"arthritis_risk":5,"migraine_risk":7,"frizz_risk":0,"updated_at":"2026-03-17T11:31:37.433849+05:30"},{"city":"Akola","state":"Maharashtra","latitude":20.7002,"longitude":77.0082,"temp":34.1,"humidity":29,"rain":0.0,"pressure":977.7,"uv_index":8.1,"wind_gusts":25.6,"aqi":71,"pm10":39.9,"pm2_5":21.7,"mosquito_risk":0,"arthritis_risk":5,"migraine_risk":7,"frizz_risk":0,"updated_at":"2026-03-17T11:31:37.433856+05:30"},{"city":"Amravati","state":"Maharashtra","latitude":20.9374,"longitude":77.7796,"temp":35.0,"humidity":23,"rain":0.0,"pressure":970.0,"uv_index":8.05,"wind_gusts":32.4,"aqi":80,"pm10":30.4,"pm2_5":17.3,"mosquito_risk":0,"arthritis_risk":5,"migraine_risk":7,"frizz_risk":0,"updated_at":"2026-03-17T11:31:37.433863+05:30"},{"city":"Latur","state":"Maharashtra","latitude":18.4088,"longitude":76.5604,"temp":31.8,"humidity":31,"rain":0.0,"pressure":942.4,"uv_index":8.5,"wind_gusts":27.7,"aqi":90,"pm10":47.3,"pm2_5":32.9,"mosquito_risk":0,"arthritis_risk":5,"migraine_risk":7,"frizz_risk":0,"updated_at":"2026-03-17T11:31:37.433871+05:30"},{"city":"Nanded","state":"Maharashtra","latitude":19.1383,"longitude":77.3091,"temp":34.4,"humidity":28,"rain":0.0,"pressure":971.4,"uv_index":8.3,"wind_gusts":20.9,"aqi":100,"pm10":43.5,"pm2_5":25.7,"mosquito_risk":0,"arthritis_risk":5,"migraine_risk":7,"frizz_risk":0,"updated_at":"2026-03-17T11:31:37.433877+05:30"},{"city":"Gulbarga","state":"Karnataka","latitude":17.3297,"longitude":76.8343,"temp":32.1,"humidity":37,"rain":0.0,"pressure":961.4,"uv_index":8.45,"wind_gusts":37.4,"aqi":112,"pm10":36.1,"pm2_5":31.4,"mosquito_risk":0,"arthritis_risk":5,"migraine_risk":7,"frizz_risk":0,"updated_at":"2026-03-17T11:31:37.433883+05:30"},{"city":"Bidar","state":"Karnataka","latitude":17.9104,"longitude":77.5199,"temp":27.8,"humidity":48,"rain":0.0,"pressure":938.6,"uv_index":7.85,"wind_gusts":33.8,"aqi":115,"pm10":29.5,"pm2_5":24.2,"mosquito_risk":4,"arthritis_risk":5,"migraine_risk":7,"frizz_risk":0,"updated_at":"2026-03-17T11:31:37.433890+05:30"},{"city":"Hospet","state":"Karnataka","latitude":15.2689,"longitude":76.3909,"temp":31.3,"humidity":46,"rain":0.0,"pressure":958.2,"uv_index":8.8,"wind_gusts":23.8,"aqi":114,"pm10":38.4,"pm2_5":31.7,"mosquito_risk":0,"arthritis_risk":5,"migraine_risk":7,"frizz_risk":1,"updated_at":"2026-03-17T11:31:37.433896+05:30"},{"city":"Tirupur","state":"Tamil Nadu","latitude":11.1085,"longitude":77.3411,"temp":31.8,"humidity":48,"rain":0.0,"pressure":977.5,"uv_index":9.3,"wind_gusts":32.0,"aqi":75,"pm10":19.8,"pm2_5":17.6,"mosquito_risk":0,"arthritis_risk":5,"migraine_risk":7,"frizz_risk":1,"updated_at":"2026-03-17T11:31:37.433901+05:30"},{"city":"Alappuzha","state":"Kerala","latitude":9.4981,"longitude":76.3388,"temp":28.1,"humidity":80,"rain":0.0,"pressure":1010.2,"uv_index":9.05,"wind_gusts":30.6,"aqi":80,"pm10":30.2,"pm2_5":27.4,"mosquito_risk":7,"arthritis_risk":0,"migraine_risk":4,"frizz_risk":1,"updated_at":"2026-03-17T11:31:37.433907+05:30"},{"city":"Munnar","state":"Kerala","latitude":10.0889,"longitude":77.0595,"temp":28.7,"humidity":46,"rain":0.0,"pressure":860.4,"uv_index":9.6,"wind_gusts":32.4,"aqi":79,"pm10":17.7,"pm2_5":15.7,"mosquito_risk":4,"arthritis_risk":5,"migraine_risk":7,"frizz_risk":0,"updated_at":"2026-03-17T11:31:37.433914+05:30"},{"city":"Silchar","state":"Assam","latitude":24.8333,"longitude":92.7789,"temp":21.1,"humidity":75,"rain":0.0,"pressure":1010.2,"uv_index":7.9,"wind_gusts":49.7,"aqi":83,"pm10":25.8,"pm2_5":19.6,"mosquito_risk":3,"arthritis_risk":0,"migraine_risk":4,"frizz_risk":1,"updated_at":"2026-03-17T11:31:37.433920+05:30"},{"city":"Dibrugarh","state":"Assam","latitude":27.4728,"longitude":94.912,"temp":20.3,"humidity":83,"rain":0.0,"pressure":998.9,"uv_index":7.4,"wind_gusts":51.8,"aqi":95,"pm10":46.1,"pm2_5":33.6,"mosquito_risk":3,"arthritis_risk":5,"migraine_risk":7,"frizz_risk":1,"updated_at":"2026-03-17T11:31:37.433926+05:30"}]