[{"city":"Delhi","state":"Delhi","latitude":28.6139,"longitude":77.209,"temp":32.5,"humidity":30,"rain":0.0,"pressure":986.2,"uv_index":5.85,"wind_gusts":32.8,"aqi":288,"pm10":586.7,"pm2_5":87.1,"mosquito_risk":0,"arthritis_risk":5,"migraine_risk":3,"frizz_risk":0,"updated_at":"2026-03-04T16:10:27.011537+05:30"},{"city":"Mumbai","state":"Maharashtra","latitude":19.076,"longitude":72.8777,"temp":28.3,"humidity":69,"rain":0.0,"pressure":1008.6,"uv_index":7.4,"wind_gusts":24.5,"aqi":166,"pm10":49.2,"pm2_5":46.7,"mosquito_risk":7,"arthritis_risk":0,"migraine_risk":4,"frizz_risk":1,"updated_at":"2026-03-04T16:10:27.011586+05:30"},{"city":"Bangalore","state":"Karnataka","latitude":12.9716,"longitude":77.5946,"temp":31.7,"humidity":23,"rain":0.0,"pressure":912.8,"uv_index":9.1,"wind_gusts":35.3,"aqi":94,"pm10":26.8,"pm2_5":25.8,"mosquito_risk":0,"arthritis_risk":5,"migraine_risk":7,"frizz_risk":0,"updated_at":"2026-03-04T16:10:27.011601+05:30"},{"city":"Hyderabad","state":"Telangana","latitude":17.385,"longitude":78.4867,"temp":34.3,"humidity":24,"rain":0.0,"pressure":954.7,"uv_index":8.4,"wind_gusts":25.6,"aqi":133,"pm10":16.3,"pm2_5":14.3,"mosquito_risk":0,"arthritis_risk":5,"migraine_risk":7,"frizz_risk":0,"updated_at":"2026-03-04T16:10:27.011611+05:30"},{"city":"Chennai","state":"Tamil Nadu","latitude":13.0827,"longitude":80.2707,"temp":32.0,"humidity":41,"rain":0.0,"pressure":1008.6,"uv_index":8.8,"wind_gusts":29.5,"aqi":110,"pm10":19.7,"pm2_5":17.1,"mosquito_risk":0,"arthritis_risk":0,"migraine_risk":4,"frizz_risk":1,"updated_at":"2026-03-04T16:10:27.011620+05:30"},{"city":"Kolkata","state":"West Bengal","latitude":22.5726,"longitude":88.3639,"temp":30.9,"humidity":32,"rain":0.0,"pressure":1006.9,"uv_index":7.75,"wind_gusts":18.7,"aqi":166,"pm10":82.7,"pm2_5":46.8,"mosquito_risk":0,"arthritis_risk":5,"migraine_risk":4,"frizz_risk":0,"updated_at":"2026-03-04T16:10:27.011629+05:30"},{"city":"Pune","state":"Maharashtra","latitude":18.5204,"longitude":73.8567,"temp":36.9,"humidity":21,"rain":0.0,"pressure":949.8,"uv_index":7.95,"wind_gusts":30.2,"aqi":96,"pm10":17.5,"pm2_5":16.7,"mosquito_risk":0,"arthritis_risk":5,"migraine_risk":10,"frizz_risk":0,"updated_at":"2026-03-04T16:10:27.011641+05:30"},{"city":"Ahmedabad","state":"Gujarat","latitude":23.0225,"longitude":72.5714,"temp":38.1,"humidity":18,"rain":0.0,"pressure":1004.6,"uv_index":7.2,"wind_gusts":19.8,"aqi":79,"pm10":20.0,"pm2_5":14.6,"mosquito_risk":0,"arthritis_risk":5,"migraine_risk":7,"frizz_risk":0,"updated_at":"2026-03-04T16:10:27.011649+05:30"},{"city":"Jaipur","state":"Rajasthan","latitude":26.9124,"longitude":75.7873,"temp":35.6,"humidity":12,"rain":0.0,"pressure":963.9,"uv_index":6.6,"wind_gusts":32.0,"aqi":90,"pm10":136.0,"pm2_5":26.8,"mosquito_risk":0,"arthritis_risk":5,"migraine_risk":10,"frizz_risk":0,"updated_at":"2026-03-04T16:10:27.011657+05:30"},{"city":"Lucknow","state":"Uttar Pradesh","latitude":26.8467,"longitude":80.9462,"temp":31.2,"humidity":35,"rain":0.0,"pressure":996.1,"uv_index":6.35,"wind_gusts":24.8,"aqi":166,"pm10":167.6,"pm2_5":59.1,"mosquito_risk":0,"arthritis_risk":5,"migraine_risk":7,"frizz_risk":0,"updated_at":"2026-03-04T16:10:27.011665+05:30"},{"city":"Kanpur","state":"Uttar Pradesh","latitude":26.4499,"longitude":80.3319,"temp":31.7,"humidity":31,"rain":0.0,"pressure":994.7,"uv_index":6.35,"wind_gusts":27.0,"aqi":180,"pm10":277.5,"pm2_5":63.6,"mosquito_risk":0,"arthritis_risk":5,"migraine_risk":7,"frizz_risk":0,"updated_at":"2026-03-04T16:10:27.011673+05:30"},{"city":"Chandigarh","state":"Chandigarh","latitude":30.7333,"longitude":76.7794,"temp":30.5,"humidity":33,"rain":0.0,"pressure":972.1,"uv_index":5.75,"wind_gusts":34.9,"aqi":85,"pm10":31.7,"pm2_5":25.1,"mosquito_risk":0,"arthritis_risk":5,"migraine_risk":3,"frizz_risk":0,"updated_at":"2026-03-04T16:10:27.011680+05:30"},{"city":"Srinagar","state":"Jammu and Kashmir","latitude":34.0837,"longitude":74.7973,"temp":21.1,"humidity":29,"rain":0.0,"pressure":848.2,"uv_index":6.2,"wind_gusts":15.5,"aqi":143,"pm10":46.0,"pm2_5":25.3,"mosquito_risk":0,"arthritis_risk":5,"migraine_risk":7,"frizz_risk":0,"updated_at":"2026-03-04T16:10:27.011688+05:30"},{"city":"Jammu","state":"Jammu and Kashmir","latitude":32.7266,"longitude":74.857,"temp":31.1,"humidity":36,"rain":0.0,"pressure":976.8,"uv_index":6.35,"wind_gusts":22.3,"aqi":97,"pm10":35.3,"pm2_5":25.6,"mosquito_risk":0,"arthritis_risk":5,"migraine_risk":7,"frizz_risk":0,"updated_at":"2026-03-04T16:10:27.011695+05:30"},{"city":"Amritsar","state":"Punjab","latitude":31.634,"longitude":74.8723,"temp":31.1,"humidity":39,"rain":0.0,"pressure":985.1,"uv_index":6.3,"wind_gusts":22.0,"aqi":144,"pm10":55.4,"pm2_5":36.4,"mosquito_risk":0,"arthritis_risk":5,"migraine_risk":7,"frizz_risk":0,"updated_at":"2026-03-04T16:10:27.011702+05:30"},{"city":"Ludhiana","state":"Punjab","latitude":30.901,"longitude":75.8573,"temp":31.2,"humidity":39,"rain":0.0,"pressure":982.5,"uv_index":6.0,"wind_gusts":28.8,"aqi":152,"pm10":72.4,"pm2_5":45.4,"mosquito_risk":0,"arthritis_risk":5,"migraine_risk":3,"frizz_risk":0,"updated_at":"2026-03-04T16:10:27.011709+05:30"},{"city":"Jalandhar","state":"Punjab","latitude":31.326,"longitude":75.5762,"temp":31.2,"humidity":37,"rain":0.0,"pressure":983.8,"uv_index":6.15,"wind_gusts":27.0,"aqi":153,"pm10":81.7,"pm2_5":39.7,"mosquito_risk":0,"arthritis_risk":5,"migraine_risk":7,"frizz_risk":0,"updated_at":"2026-03-04T16:10:27.011718+05:30"},{"city":"Dehradun","state":"Uttarakhand","latitude":30.6284,"longitude":78.0322,"temp":21.3,"humidity":45,"rain":0.0,"pressure":833.8,"uv_index":6.1,"wind_gusts":29.2,"aqi":57,"pm10":18.6,"pm2_5":9.4,"mosquito_risk":0,"arthritis_risk":5,"migraine_risk":7,"frizz_risk":0,"updated_at":"2026-03-04T16:10:27.011727+05:30"},{"city":"Shimla","state":"Himachal Pradesh","latitude":31.1048,"longitude":77.1734,"temp":20.7,"humidity":37,"rain":0.0,"pressure":790.1,"uv_index":6.15,"wind_gusts":50.4,"aqi":67,"pm10":18.5,"pm2_5":8.8,"mosquito_risk":0,"arthritis_risk":5,"migraine_risk":7,"frizz_risk":0,"updated_at":"2026-03-04T16:10:27.011735+05:30"},{"city":"Manali","state":"Himachal Pradesh","latitude":32.2396,"longitude":77.1887,"temp":25.0,"humidity":27,"rain":0.0,"pressure":826.1,"uv_index":7.8,"wind_gusts":32.8,"aqi":60,"pm10":20.2,"pm2_5":8.4,"mosquito_risk":4,"arthritis_risk":5,"migraine_risk":7,"frizz_risk":0,"updated_at":"2026-03-04T16:10:27.011742+05:30"},{"city":"Gurgaon","state":"Haryana","latitude":28.4595,"longitude":77.0266,"temp":32.2,"humidity":31,"rain":0.0,"pressure":984.8,"uv_index":5.95,"wind_gusts":31.0,"aqi":1129,"pm10":1881.3,"pm2_5":195.1,"mosquito_risk":0,"arthritis_risk":5,"migraine_risk":3,"frizz_risk":0,"updated_at":"2026-03-04T16:10:27.011748+05:30"},{"city":"Noida","state":"Uttar Pradesh","latitude":28.5355,"longitude":77.391,"temp":32.8,"humidity":30,"rain":0.0,"pressure":987.6,"uv_index":5.85,"wind_gusts":32.0,"aqi":1129,"pm10":1881.3,"pm2_5":195.1,"mosquito_risk":0,"arthritis_risk":5,"migraine_risk":3,"frizz_risk":0,"updated_at":"2026-03-04T16:10:27.011755+05:30"},{"city":"Ghaziabad","state":"Uttar Pradesh","latitude":28.6692,"longitude":77.4538,"temp":32.0,"humidity":35,"rain":0.0,"pressure":985.6,"uv_index":5.85,"wind_gusts":29.5,"aqi":204,"pm10":400.5,"pm2_5":68.9,"mosquito_risk":0,"arthritis_risk":5,"migraine_risk":3,"frizz_risk":0,"updated_at":"2026-03-04T16:10:27.011761+05:30"},{"city":"Faridabad","state":"Haryana","latitude":28.4089,"longitude":77.3178,"temp":32.0,"humidity":31,"rain":0.0,"pressure":987.0,"uv_index":5.9,"wind_gusts":29.9,"aqi":1129,"pm10":1881.3,"pm2_5":195.1,"mosquito_risk":0,"arthritis_risk":5,"migraine_risk":3,"frizz_risk":0,"updated_at":"2026-03-04T16:10:27.011768+05:30"},{"city":"Meerut","state":"Uttar Pradesh","latitude":28.9845,"longitude":77.7064,"temp":31.8,"humidity":34,"rain":0.0,"pressure":984.2,"uv_index":5.7,"wind_gusts":32.0,"aqi":204,"pm10":400.5,"pm2_5":68.9,"mosquito_risk":0,"arthritis_risk":5,"migraine_risk":3,"frizz_risk":0,"updated_at":"2026-03-04T16:10:27.011775+05:30"},{"city":"Agra","state":"Uttar Pradesh","latitude":27.1767,"longitude":78.0081,"temp":33.9,"humidity":21,"rain":0.0,"pressure":991.0,"uv_index":6.2,"wind_gusts":32.8,"aqi":371,"pm10":728.3,"pm2_5":82.9,"mosquito_risk":0,"arthritis_risk":5,"migraine_risk":7,"frizz_risk":0,"updated_at":"2026-03-04T16:10:27.011782+05:30"},{"city":"Varanasi","state":"Uttar Pradesh","latitude":25.3176,"longitude":82.9739,"temp":30.4,"humidity":38,"rain":0.0,"pressure":1000.2,"uv_index":7.0,"wind_gusts":18.4,"aqi":150,"pm10":195.6,"pm2_5":53.3,"mosquito_risk":0,"arthritis_risk":5,"migraine_risk":4,"frizz_risk":0,"updated_at":"2026-03-04T16:10:27.011791+05:30"},{"city":"Prayagraj","state":"Uttar Pradesh","latitude":25.4358,"longitude":81.8463,"temp":31.1,"humidity":35,"rain":0.0,"pressure":998.7,"uv_index":6.9,"wind_gusts":23.4,"aqi":152,"pm10":161.6,"pm2_5":52.7,"mosquito_risk":0,"arthritis_risk":5,"migraine_risk":7,"frizz_risk":0,"updated_at":"2026-03-04T16:10:27.011798+05:30"},{"city":"Gorakhpur","state":"Uttar Pradesh","latitude":26.7606,"longitude":83.3732,"temp":29.3,"humidity":46,"rain":0.0,"pressure":1000.0,"uv_index":6.75,"wind_gusts":12.2,"aqi":164,"pm10":104.3,"pm2_5":57.6,"mosquito_risk":4,"arthritis_risk":5,"migraine_risk":4,"frizz_risk":1,"updated_at":"2026-03-04T16:10:27.011804+05:30"},{"city":"Bareilly","state":"Uttar Pradesh","latitude":28.367,"longitude":79.4304,"temp":29.6,"humidity":39,"rain":0.0,"pressure":989.7,"uv_index":6.05,"wind_gusts":20.5,"aqi":162,"pm10":92.0,"pm2_5":49.0,"mosquito_risk":4,"arthritis_risk":5,"migraine_risk":7,"frizz_risk":0,"updated_at":"2026-03-04T16:10:27.011812+05:30"},{"city":"Aligarh","state":"Uttar Pradesh","latitude":27.8974,"longitude":78.088,"temp":32.6,"humidity":30,"rain":0.0,"pressure":988.6,"uv_index":5.95,"wind_gusts":28.8,"aqi":606,"pm10":976.0,"pm2_5":130.4,"mosquito_risk":0,"arthritis_risk":5,"migraine_risk":3,"frizz_risk":0,"updated_at":"2026-03-04T16:10:27.011818+05:30"},{"city":"Moradabad","state":"Uttar Pradesh","latitude":28.8386,"longitude":78.7733,"temp":30.2,"humidity":38,"rain":0.0,"pressure":986.4,"uv_index":5.85,"wind_gusts":23.4,"aqi":156,"pm10":73.8,"pm2_5":49.2,"mosquito_risk":0,"arthritis_risk":5,"migraine_risk":3,"frizz_risk":0,"updated_at":"2026-03-04T16:10:27.011827+05:30"},{"city":"Saharanpur","state":"Uttar Pradesh","latitude":29.9637,"longitude":77.546,"temp":30.9,"humidity":31,"rain":0.0,"pressure":978.0,"uv_index":5.5,"wind_gusts":39.2,"aqi":150,"pm10":119.2,"pm2_5":36.8,"mosquito_risk":0,"arthritis_risk":5,"migraine_risk":3,"frizz_risk":0,"updated_at":"2026-03-04T16:10:27.011833+05:30"},{"city":"Jhansi","state":"Uttar Pradesh","latitude":25.4484,"longitude":78.5685,"temp":34.4,"humidity":21,"rain":0.0,"pressure":981.4,"uv_index":6.8,"wind_gusts":31.7,"aqi":59,"pm10":28.9,"pm2_5":16.4,"mosquito_risk":0,"arthritis_risk":5,"migraine_risk":7,"frizz_risk":0,"updated_at":"2026-03-04T16:10:30.231064+05:30"},{"city":"Surat","state":"Gujarat","latitude":21.1702,"longitude":72.8311,"temp":34.8,"humidity":33,"rain":0.0,"pressure":1008.5,"uv_index":7.1,"wind_gusts":27.7,"aqi":150,"pm10":39.2,"pm2_5":35.5,"mosquito_risk":0,"arthritis_risk":0,"migraine_risk":4,"frizz_risk":1,"updated_at":"2026-03-04T16:10:30.231097+05:30"},{"city":"Vadodara","state":"Gujarat","latitude":22.3072,"longitude":73.1812,"temp":38.8,"humidity":19,"rain":0.0,"pressure":1006.2,"uv_index":7.2,"wind_gusts":18.7,"aqi":150,"pm10":22.8,"pm2_5":16.7,"mosquito_risk":0,"arthritis_risk":5,"migraine_risk":7,"frizz_risk":0,"updated_at":"2026-03-04T16:10:30.231109+05:30"},{"city":"Rajkot","state":"Gujarat","latitude":22.3039,"longitude":70.8022,"temp":36.8,"humidity":18,"rain":0.0,"pressure":997.2,"uv_index":7.0,"wind_gusts":25.9,"aqi":65,"pm10":26.7,"pm2_5":23.5,"mosquito_risk":0,"arthritis_risk":5,"migraine_risk":10,"frizz_risk":0,"updated_at":"2026-03-04T16:10:30.231119+05:30"},{"city":"Thane","state":"Maharashtra","latitude":19.2183,"longitude":72.9781,"temp":33.5,"humidity":45,"rain":0.0,"pressure":1008.8,"uv_index":7.35,"wind_gusts":35.3,"aqi":166,"pm10":49.2,"pm2_5":46.7,"mosquito_risk":0,"arthritis_risk":0,"migraine_risk":4,"frizz_risk":1,"updated_at":"2026-03-04T16:10:30.231128+05:30"},{"city":"Nagpur","state":"Maharashtra","latitude":21.1458,"longitude":79.0882,"temp":35.5,"humidity":21,"rain":0.0,"pressure":975.0,"uv_index":7.75,"wind_gusts":23.0,"aqi":72,"pm10":21.4,"pm2_5":15.3,"mosquito_risk":0,"arthritis_risk":5,"migraine_risk":10,"frizz_risk":0,"updated_at":"2026-03-04T16:10:30.231136+05:30"},{"city":"Nashik","state":"Maharashtra","latitude":19.9975,"longitude":73.7898,"temp":35.6,"humidity":18,"rain":0.0,"pressure":947.7,"uv_index":7.55,"wind_gusts":23.4,"aqi":97,"pm10":16.5,"pm2_5":16.0,"mosquito_risk":0,"arthritis_risk":5,"migraine_risk":10,"frizz_risk":0,"updated_at":"2026-03-04T16:10:30.231145+05:30"},{"city":"Aurangabad","state":"Maharashtra","latitude":19.8762,"longitude":75.3433,"temp":35.3,"humidity":21,"rain":0.0,"pressure":946.1,"uv_index":8.1,"wind_gusts":22.7,"aqi":106,"pm10":17.9,"pm2_5":16.7,"mosquito_risk":0,"arthritis_risk":5,"migraine_risk":10,"frizz_risk":0,"updated_at":"2026-03-04T16:10:30.231152+05:30"},{"city":"Solapur","state":"Maharashtra","latitude":17.6599,"longitude":75.9064,"temp":35.0,"humidity":26,"rain":0.0,"pressure":958.4,"uv_index":8.35,"wind_gusts":18.0,"aqi":106,"pm10":16.6,"pm2_5":15.3,"mosquito_risk":0,"arthritis_risk":5,"migraine_risk":7,"frizz_risk":0,"updated_at":"2026-03-04T16:10:30.231159+05:30"},{"city":"Kolhapur","state":"Maharashtra","latitude":16.705,"longitude":74.2433,"temp":34.7,"humidity":25,"rain":0.0,"pressure":948.9,"uv_index":8.45,"wind_gusts":37.8,"aqi":158,"pm10":26.7,"pm2_5":25.9,"mosquito_risk":0,"arthritis_risk":5,"migraine_risk":7,"frizz_risk":0,"updated_at":"2026-03-04T16:10:30.231165+05:30"},{"city":"Goa","state":"Goa","latitude":15.2993,"longitude":74.124,"temp":30.5,"humidity":69,"rain":0.0,"pressure":997.8,"uv_index":8.5,"wind_gusts":35.6,"aqi":111,"pm10":38.9,"pm2_5":35.9,"mosquito_risk":3,"arthritis_risk":5,"migraine_risk":7,"frizz_risk":1,"updated_at":"2026-03-04T16:10:30.231172+05:30"},{"city":"Jodhpur","state":"Rajasthan","latitude":26.2389,"longitude":73.0243,"temp":36.4,"humidity":17,"rain":0.0,"pressure":987.1,"uv_index":6.9,"wind_gusts":18.0,"aqi":80,"pm10":78.5,"pm2_5":20.5,"mosquito_risk":0,"arthritis_risk":5,"migraine_risk":10,"frizz_risk":0,"updated_at":"2026-03-04T16:10:30.231178+05:30"},{"city":"Udaipur","state":"Rajasthan","latitude":24.5854,"longitude":73.7125,"temp":34.4,"humidity":20,"rain":0.0,"pressure":950.8,"uv_index":7.5,"wind_gusts":23.8,"aqi":58,"pm10":29.7,"pm2_5":13.8,"mosquito_risk":0,"arthritis_risk":5,"migraine_risk":7,"frizz_risk":0,"updated_at":"2026-03-04T16:10:30.231185+05:30"},{"city":"Kota","state":"Rajasthan","latitude":25.2138,"longitude":75.8648,"temp":36.1,"humidity":15,"rain":0.0,"pressure":982.4,"uv_index":6.9,"wind_gusts":17.6,"aqi":81,"pm10":29.1,"pm2_5":14.0,"mosquito_risk":0,"arthritis_risk":5,"migraine_risk":10,"frizz_risk":0,"updated_at":"2026-03-04T16:10:30.231191+05:30"},{"city":"Bikaner","state":"Rajasthan","latitude":28.0229,"longitude":73.3119,"temp":35.1,"humidity":19,"rain":0.0,"pressure":986.3,"uv_index":6.6,"wind_gusts":23.8,"aqi":66,"pm10":84.3,"pm2_5":20.6,"mosquito_risk":0,"arthritis_risk":5,"migraine_risk":10,"frizz_risk":0,"updated_at":"2026-03-04T16:10:30.231198+05:30"},{"city":"Ajmer","state":"Rajasthan","latitude":26.4499,"longitude":74.6399,"temp":34.6,"humidity":15,"rain":0.0,"pressure":959.1,"uv_index":6.85,"wind_gusts":23.4,"aqi":69,"pm10":45.1,"pm2_5":15.8,"mosquito_risk":0,"arthritis_risk":5,"migraine_risk":7,"frizz_risk":0,"updated_at":"2026-03-04T16:10:30.231204+05:30"},{"city":"Gwalior","state":"Madhya Pradesh","latitude":26.2183,"longitude":78.1828,"temp":32.6,"humidity":29,"rain":0.0,"pressure":986.8,"uv_index":6.55,"wind_gusts":29.2,"aqi":78,"pm10":39.8,"pm2_5":20.4,"mosquito_risk":0,"arthritis_risk":5,"migraine_risk":7,"frizz_risk":0,"updated_at":"2026-03-04T16:10:30.231210+05:30"},{"city":"Indore","state":"Madhya Pradesh","latitude":22.7196,"longitude":75.8577,"temp":33.3,"humidity":22,"rain":0.0,"pressure":951.5,"uv_index":7.45,"wind_gusts":20.5,"aqi":80,"pm10":22.5,"pm2_5":14.1,"mosquito_risk":0,"arthritis_risk":5,"migraine_risk":7,"frizz_risk":0,"updated_at":"2026-03-04T16:10:30.231216+05:30"},{"city":"Bhopal","state":"Madhya Pradesh","latitude":23.2599,"longitude":77.4126,"temp":33.5,"humidity":19,"rain":0.0,"pressure":957.1,"uv_index":7.35,"wind_gusts":23.0,"aqi":71,"pm10":11.9,"pm2_5":6.6,"mosquito_risk":0,"arthritis_risk":5,"migraine_risk":7,"frizz_risk":0,"updated_at":"2026-03-04T16:10:30.231222+05:30"},{"city":"Jabalpur","state":"Madhya Pradesh","latitude":23.1815,"longitude":79.9864,"temp":33.4,"humidity":20,"rain":0.0,"pressure":964.3,"uv_index":7.45,"wind_gusts":23.4,"aqi":69,"pm10":21.6,"pm2_5":11.7,"mosquito_risk":0,"arthritis_risk":5,"migraine_risk":7,"frizz_risk":0,"updated_at":"2026-03-04T16:10:30.231229+05:30"},{"city":"Ujjain","state":"Madhya Pradesh","latitude":23.1765,"longitude":75.7885,"temp":33.5,"humidity":24,"rain":0.0,"pressure":957.2,"uv_index":7.4,"wind_gusts":19.4,"aqi":105,"pm10":26.0,"pm2_5":16.3,"mosquito_risk":0,"arthritis_risk":5,"migraine_risk":7,"frizz_risk":0,"updated_at":"2026-03-04T16:10:30.231235+05:30"},{"city":"Visakhapatnam","state":"Andhra Pradesh","latitude":17.6868,"longitude":83.2185,"temp":31.7,"humidity":45,"rain":0.0,"pressure":1004.6,"uv_index":8.4,"wind_gusts":36.7,"aqi":138,"pm10":42.7,"pm2_5":38.6,"mosquito_risk":0,"arthritis_risk":5,"migraine_risk":4,"frizz_risk":1,"updated_at":"2026-03-04T16:10:30.231241+05:30"},{"city":"Vijayawada","state":"Andhra Pradesh","latitude":16.5062,"longitude":80.648,"temp":34.4,"humidity":38,"rain":0.0,"pressure":1003.2,"uv_index":8.45,"wind_gusts":22.0,"aqi":127,"pm10":41.3,"pm2_5":38.6,"mosquito_risk":0,"arthritis_risk":5,"migraine_risk":4,"frizz_risk":1,"updated_at":"2026-03-04T16:10:30.231248+05:30"},{"city":"Guntur","state":"Andhra Pradesh","latitude":16.3067,"longitude":80.4365,"temp":35.1,"humidity":33,"rain":0.0,"pressure":1004.4,"uv_index":8.45,"wind_gusts":25.6,"aqi":116,"pm10":33.5,"pm2_5":31.2,"mosquito_risk":0,"arthritis_risk":5,"migraine_risk":7,"frizz_risk":1,"updated_at":"2026-03-04T16:10:30.231254+05:30"},{"city":"Nellore","state":"Andhra Pradesh","latitude":14.4426,"longitude":79.9865,"temp":33.9,"humidity":35,"rain":0.0,"pressure":1007.0,"uv_index":8.65,"wind_gusts":29.9,"aqi":112,"pm10":29.2,"pm2_5":26.9,"mosquito_risk":0,"arthritis_risk":5,"migraine_risk":4,"frizz_risk":1,"updated_at":"2026-03-04T16:10:30.231261+05:30"},{"city":"Kurnool","state":"Andhra Pradesh","latitude":15.8281,"longitude":78.0373,"temp":36.2,"humidity":25,"rain":0.0,"pressure":977.5,"uv_index":8.5,"wind_gusts":27.0,"aqi":96,"pm10":21.7,"pm2_5":20.5,"mosquito_risk":0,"arthritis_risk":5,"migraine_risk":10,"frizz_risk":0,"updated_at":"2026-03-04T16:10:30.231268+05:30"},{"city":"Kakinada","state":"Andhra Pradesh","latitude":16.9891,"longitude":82.2475,"temp":34.2,"humidity":38,"rain":0.0,"pressure":1007.9,"uv_index":8.4,"wind_gusts":33.8,"aqi":103,"pm10":32.2,"pm2_5":27.4,"mosquito_risk":0,"arthritis_risk":5,"migraine_risk":4,"frizz_risk":1,"updated_at":"2026-03-04T16:10:30.231274+05:30"},{"city":"Tirupati","state":"Andhra Pradesh","latitude":13.6288,"longitude":79.4192,"temp":34.6,"humidity":25,"rain":0.0,"pressure":992.2,"uv_index":8.8,"wind_gusts":34.6,"aqi":144,"pm10":32.1,"pm2_5":30.6,"mosquito_risk":0,"arthritis_risk":5,"migraine_risk":7,"frizz_risk":0,"updated_at":"2026-03-04T16:10:30.231280+05:30"},{"city":"Warangal","state":"Telangana","latitude":17.9689,"longitude":79.5941,"temp":34.7,"humidity":25,"rain":0.0,"pressure":980.1,"uv_index":8.25,"wind_gusts":20.5,"aqi":119,"pm10":24.2,"pm2_5":20.8,"mosquito_risk":0,"arthritis_risk":5,"migraine_risk":7,"frizz_risk":0,"updated_at":"2026-03-04T16:10:30.231287+05:30"},{"city":"Nizamabad","state":"Telangana","latitude":18.6725,"longitude":78.0941,"temp":34.8,"humidity":23,"rain":0.0,"pressure":966.5,"uv_index":8.1,"wind_gusts":26.3,"aqi":103,"pm10":20.5,"pm2_5":16.9,"mosquito_risk":0,"arthritis_risk":5,"migraine_risk":7,"frizz_risk":0,"updated_at":"2026-03-04T16:10:30.231293+05:30"},{"city":"Mysore","state":"Karnataka","latitude":12.2958,"longitude":76.6396,"temp":33.1,"humidity":21,"rain":0.0,"pressure":928.8,"uv_index":9.15,"wind_gusts":40.3,"aqi":92,"pm10":25.6,"pm2_5":24.4,"mosquito_risk":0,"arthritis_risk":5,"migraine_risk":7,"frizz_risk":0,"updated_at":"2026-03-04T16:10:30.231300+05:30"},{"city":"Mangalore","state":"Karnataka","latitude":12.9141,"longitude":74.856,"temp":28.5,"humidity":83,"rain":0.0,"pressure":1005.8,"uv_index":8.75,"wind_gusts":29.2,"aqi":89,"pm10":38.8,"pm2_5":34.5,"mosquito_risk":7,"arthritis_risk":5,"migraine_risk":4,"frizz_risk":1,"updated_at":"2026-03-04T16:10:30.231306+05:30"},{"city":"Hubli-Dharwad","state":"Karnataka","latitude":15.3647,"longitude":75.124,"temp":34.6,"humidity":25,"rain":0.0,"pressure":941.5,"uv_index":8.65,"wind_gusts":25.6,"aqi":112,"pm10":22.9,"pm2_5":22.3,"mosquito_risk":0,"arthritis_risk":5,"migraine_risk":7,"frizz_risk":0,"updated_at":"2026-03-04T16:10:30.231313+05:30"},{"city":"Belgaum","state":"Karnataka","latitude":15.8497,"longitude":74.4977,"temp":34.2,"humidity":25,"rain":0.0,"pressure":926.8,"uv_index":8.75,"wind_gusts":32.4,"aqi":128,"pm10":25.0,"pm2_5":24.2,"mosquito_risk":0,"arthritis_risk":5,"migraine_risk":7,"frizz_risk":0,"updated_at":"2026-03-04T16:10:33.446050+05:30"},{"city":"Coimbatore","state":"Tamil Nadu","latitude":11.0168,"longitude":76.9558,"temp":33.7,"humidity":23,"rain":0.0,"pressure":961.9,"uv_index":9.15,"wind_gusts":43.2,"aqi":99,"pm10":26.1,"pm2_5":24.7,"mosquito_risk":0,"arthritis_risk":5,"migraine_risk":7,"frizz_risk":0,"updated_at":"2026-03-04T16:10:33.446084+05:30"},{"city":"Madurai","state":"Tamil Nadu","latitude":9.9252,"longitude":78.1198,"temp":35.6,"humidity":25,"rain":0.0,"pressure":992.4,"uv_index":9.1,"wind_gusts":25.9,"aqi":92,"pm10":14.4,"pm2_5":13.5,"mosquito_risk":0,"arthritis_risk":5,"migraine_risk":10,"frizz_risk":0,"updated_at":"2026-03-04T16:10:33.446095+05:30"},{"city":"Trichy","state":"Tamil Nadu","latitude":10.7905,"longitude":78.7047,"temp":35.1,"humidity":25,"rain":0.0,"pressure":999.7,"uv_index":9.0,"wind_gusts":31.0,"aqi":99,"pm10":18.3,"pm2_5":17.4,"mosquito_risk":0,"arthritis_risk":5,"migraine_risk":10,"frizz_risk":0,"updated_at":"2026-03-04T16:10:33.446105+05:30"},{"city":"Salem","state":"Tamil Nadu","latitude":11.6643,"longitude":78.146,"temp":36.0,"humidity":20,"rain":0.0,"pressure":977.0,"uv_index":9.05,"wind_gusts":37.8,"aqi":111,"pm10":18.7,"pm2_5":17.5,"mosquito_risk":0,"arthritis_risk":5,"migraine_risk":10,"frizz_risk":0,"updated_at":"2026-03-04T16:10:33.446114+05:30"},{"city":"Tirunelveli","state":"Tamil Nadu","latitude":8.7139,"longitude":77.7567,"temp":35.4,"humidity":30,"rain":0.0,"pressure":1002.5,"uv_index":9.15,"wind_gusts":41.4,"aqi":83,"pm10":12.0,"pm2_5":11.1,"mosquito_risk":0,"arthritis_risk":5,"migraine_risk":7,"frizz_risk":0,"updated_at":"2026-03-04T16:10:33.446123+05:30"},{"city":"Vellore","state":"Tamil Nadu","latitude":12.9165,"longitude":79.1325,"temp":33.7,"humidity":27,"rain":0.0,"pressure":985.3,"uv_index":8.9,"wind_gusts":38.9,"aqi":134,"pm10":22.5,"pm2_5":21.0,"mosquito_risk":0,"arthritis_risk":5,"migraine_risk":7,"frizz_risk":0,"updated_at":"2026-03-04T16:10:33.446131+05:30"},{"city":"Erode","state":"Tamil Nadu","latitude":11.341,"longitude":77.7172,"temp":36.6,"humidity":24,"rain":0.0,"pressure":988.4,"uv_index":9.05,"wind_gusts":31.0,"aqi":98,"pm10":24.9,"pm2_5":23.8,"mosquito_risk":0,"arthritis_risk":5,"migraine_risk":10,"frizz_risk":0,"updated_at":"2026-03-04T16:10:33.446139+05:30"},{"city":"Kochi","state":"Kerala","latitude":9.9312,"longitude":76.2673,"temp":28.5,"humidity":76,"rain":0.0,"pressure":1007.9,"uv_index":8.95,"wind_gusts":34.6,"aqi":103,"pm10":32.5,"pm2_5":30.7,"mosquito_risk":7,"arthritis_risk":5,"migraine_risk":4,"frizz_risk":1,"updated_at":"2026-03-04T16:10:33.446147+05:30"},{"city":"Thiruvananthapuram","state":"Kerala","latitude":8.5241,"longitude":76.9366,"temp":28.4,"humidity":69,"rain":0.0,"pressure":1007.9,"uv_index":9.0,"wind_gusts":27.4,"aqi":113,"pm10":32.2,"pm2_5":29.8,"mosquito_risk":7,"arthritis_risk":5,"migraine_risk":4,"frizz_risk":1,"updated_at":"2026-03-04T16:10:33.446156+05:30"},{"city":"Kozhikode","state":"Kerala","latitude":11.2588,"longitude":75.7804,"temp":29.6,"humidity":74,"rain":0.0,"pressure":1007.3,"uv_index":8.85,"wind_gusts":31.0,"aqi":91,"pm10":37.0,"pm2_5":32.8,"mosquito_risk":7,"arthritis_risk":5,"migraine_risk":4,"frizz_risk":1,"updated_at":"2026-03-04T16:10:33.446163+05:30"},{"city":"Thrissur","state":"Kerala","latitude":10.5276,"longitude":76.2144,"temp":31.3,"humidity":63,"rain":0.0,"pressure":1006.4,"uv_index":8.95,"wind_gusts":37.8,"aqi":110,"pm10":30.5,"pm2_5":29.2,"mosquito_risk":3,"arthritis_risk":5,"migraine_risk":4,"frizz_risk":1,"updated_at":"2026-03-04T16:10:33.446172+05:30"},{"city":"Kannur","state":"Kerala","latitude":11.8745,"longitude":75.3704,"temp":30.1,"humidity":71,"rain":0.0,"pressure":1006.9,"uv_index":8.85,"wind_gusts":33.5,"aqi":83,"pm10":37.7,"pm2_5":33.6,"mosquito_risk":3,"arthritis_risk":5,"migraine_risk":4,"frizz_risk":1,"updated_at":"2026-03-04T16:10:33.446180+05:30"},{"city":"Patna","state":"Bihar","latitude":25.5941,"longitude":85.1376,"temp":30.2,"humidity":35,"rain":0.0,"pressure":1003.1,"uv_index":7.2,"wind_gusts":15.5,"aqi":164,"pm10":100.4,"pm2_5":54.8,"mosquito_risk":0,"arthritis_risk":5,"migraine_risk":4,"frizz_risk":0,"updated_at":"2026-03-04T16:10:33.446189+05:30"},{"city":"Gaya","state":"Bihar","latitude":24.7914,"longitude":85.0002,"temp":28.8,"humidity":44,"rain":0.0,"pressure":996.5,"uv_index":7.25,"wind_gusts":17.6,"aqi":144,"pm10":163.9,"pm2_5":51.3,"mosquito_risk":4,"arthritis_risk":5,"migraine_risk":7,"frizz_risk":0,"updated_at":"2026-03-04T16:10:33.446197+05:30"},{"city":"Muzaffarpur","state":"Bihar","latitude":26.1209,"longitude":85.3647,"temp":30.3,"humidity":37,"rain":0.0,"pressure":1003.0,"uv_index":7.15,"wind_gusts":14.0,"aqi":166,"pm10":91.7,"pm2_5":56.9,"mosquito_risk":0,"arthritis_risk":5,"migraine_risk":4,"frizz_risk":0,"updated_at":"2026-03-04T16:10:33.446203+05:30"},{"city":"Bhagalpur","state":"Bihar","latitude":25.2425,"longitude":87.0117,"temp":29.0,"humidity":42,"rain":0.0,"pressure":1003.7,"uv_index":7.2,"wind_gusts":8.3,"aqi":161,"pm10":88.0,"pm2_5":50.1,"mosquito_risk":4,"arthritis_risk":5,"migraine_risk":4,"frizz_risk":0,"updated_at":"2026-03-04T16:10:33.446210+05:30"},{"city":"Ranchi","state":"Jharkhand","latitude":23.3441,"longitude":85.3096,"temp":29.0,"humidity":22,"rain":0.0,"pressure":939.7,"uv_index":7.9,"wind_gusts":30.6,"aqi":113,"pm10":93.1,"pm2_5":25.9,"mosquito_risk":4,"arthritis_risk":5,"migraine_risk":7,"frizz_risk":0,"updated_at":"2026-03-04T16:10:33.446216+05:30"},{"city":"Jamshedpur","state":"Jharkhand","latitude":22.8046,"longitude":86.2029,"temp":32.1,"humidity":25,"rain":0.0,"pressure":992.2,"uv_index":7.85,"wind_gusts":19.1,"aqi":127,"pm10":95.0,"pm2_5":39.2,"mosquito_risk":0,"arthritis_risk":5,"migraine_risk":7,"frizz_risk":0,"updated_at":"2026-03-04T16:10:33.446223+05:30"},{"city":"Dhanbad","state":"Jharkhand","latitude":23.7957,"longitude":86.4304,"temp":32.1,"humidity":22,"rain":0.0,"pressure":981.4,"uv_index":7.7,"wind_gusts":23.4,"aqi":136,"pm10":122.5,"pm2_5":42.4,"mosquito_risk":0,"arthritis_risk":5,"migraine_risk":7,"frizz_risk":0,"updated_at":"2026-03-04T16:10:33.446229+05:30"},{"city":"Bokaro","state":"Jharkhand","latitude":23.6693,"longitude":86.1511,"temp":31.7,"humidity":23,"rain":0.0,"pressure":985.4,"uv_index":7.7,"wind_gusts":23.8,"aqi":144,"pm10":137.4,"pm2_5":43.2,"mosquito_risk":0,"arthritis_risk":5,"migraine_risk":7,"frizz_risk":0,"updated_at":"2026-03-04T16:10:33.446237+05:30"},{"city":"Bhubaneswar","state":"Odisha","latitude":20.2961,"longitude":85.8245,"temp":36.3,"humidity":15,"rain":0.0,"pressure":1002.5,"uv_index":8.15,"wind_gusts":26.6,"aqi":155,"pm10":62.2,"pm2_5":41.9,"mosquito_risk":0,"arthritis_risk":5,"migraine_risk":7,"frizz_risk":0,"updated_at":"2026-03-04T16:10:33.446243+05:30"},{"city":"Cuttack","state":"Odisha","latitude":20.4625,"longitude":85.8828,"temp":35.8,"humidity":18,"rain":0.0,"pressure":1004.6,"uv_index":8.15,"wind_gusts":27.0,"aqi":155,"pm10":62.2,"pm2_5":41.9,"mosquito_risk":0,"arthritis_risk":5,"migraine_risk":7,"frizz_risk":0,"updated_at":"2026-03-04T16:10:33.446249+05:30"},{"city":"Rourkela","state":"Odisha","latitude":22.2604,"longitude":84.8536,"temp":34.1,"humidity":23,"rain":0.0,"pressure":986.2,"uv_index":7.75,"wind_gusts":21.2,"aqi":106,"pm10":48.4,"pm2_5":23.5,"mosquito_risk":0,"arthritis_risk":5,"migraine_risk":7,"frizz_risk":0,"updated_at":"2026-03-04T16:10:33.446255+05:30"},{"city":"Raipur","state":"Chhattisgarh","latitude":21.2514,"longitude":81.6296,"temp":35.2,"humidity":20,"rain":0.0,"pressure":976.4,"uv_index":7.8,"wind_gusts":19.8,"aqi":130,"pm10":22.5,"pm2_5":13.4,"mosquito_risk":0,"arthritis_risk":5,"migraine_risk":10,"frizz_risk":0,"updated_at":"2026-03-04T16:10:33.446262+05:30"},{"city":"Bhilai","state":"Chhattisgarh","latitude":21.1938,"longitude":81.3509,"temp":35.8,"humidity":21,"rain":0.0,"pressure":976.5,"uv_index":7.8,"wind_gusts":16.9,"aqi":115,"pm10":22.0,"pm2_5":13.8,"mosquito_risk":0,"arthritis_risk":5,"migraine_risk":10,"frizz_risk":0,"updated_at":"2026-03-04T16:10:33.446268+05:30"},{"city":"Guwahati","state":"Assam","latitude":26.1158,"longitude":91.7086,"temp":29.1,"humidity":48,"rain":0.0,"pressure":1002.5,"uv_index":7.1,"wind_gusts":18.4,"aqi":152,"pm10":43.8,"pm2_5":36.2,"mosquito_risk":4,"arthritis_risk":5,"migraine_risk":4,"frizz_risk":1,"updated_at":"2026-03-04T16:10:33.446274+05:30"},{"city":"Agartala","state":"Tripura","latitude":23.8315,"longitude":91.2868,"temp":28.8,"humidity":46,"rain":0.0,"pressure":1007.1,"uv_index":7.5,"wind_gusts":20.9,"aqi":164,"pm10":76.1,"pm2_5":52.9,"mosquito_risk":4,"arthritis_risk":5,"migraine_risk":4,"frizz_risk":0,"updated_at":"2026-03-04T16:10:33.446281+05:30"},{"city":"Shillong","state":"Meghalaya","latitude":25.5788,"longitude":91.8933,"temp":17.3,"humidity":53,"rain":0.0,"pressure":857.0,"uv_index":7.5,"wind_gusts":29.9,"aqi":141,"pm10":48.3,"pm2_5":38.3,"mosquito_risk":0,"arthritis_risk":5,"migraine_risk":7,"frizz_risk":0,"updated_at":"2026-03-04T16:10:33.446287+05:30"},{"city":"Imphal","state":"Manipur","latitude":24.817,"longitude":93.9368,"temp":22.3,"humidity":47,"rain":0.0,"pressure":923.6,"uv_index":7.7,"wind_gusts":21.2,"aqi":130,"pm10":44.9,"pm2_5":37.6,"mosquito_risk":0,"arthritis_risk":5,"migraine_risk":7,"frizz_risk":0,"updated_at":"2026-03-04T16:10:33.446293+05:30"},{"city":"Aizawl","state":"Mizoram","latitude":23.7271,"longitude":92.7176,"temp":21.7,"humidity":49,"rain":0.0,"pressure":893.3,"uv_index":7.7,"wind_gusts":22.0,"aqi":158,"pm10":73.8,"pm2_5":59.3,"mosquito_risk":0,"arthritis_risk":5,"migraine_risk":7,"frizz_risk":0,"updated_at":"2026-03-04T16:10:33.446299+05:30"},{"city":"Kohima","state":"Nagaland","latitude":25.6701,"longitude":94.1077,"temp":16.9,"humidity":72,"rain":0.0,"pressure":855.5,"uv_index":7.55,"wind_gusts":38.5,"aqi":147,"pm10":60.5,"pm2_5":50.3,"mosquito_risk":3,"arthritis_risk":5,"migraine_risk":7,"frizz_risk":0,"updated_at":"2026-03-04T16:10:33.446305+05:30"},{"city":"Gangtok","state":"Sikkim","latitude":27.3314,"longitude":88.6138,"temp":18.9,"humidity":54,"rain":0.0,"pressure":839.8,"uv_index":7.45,"wind_gusts":22.7,"aqi":144,"pm10":49.0,"pm2_5":37.4,"mosquito_risk":0,"arthritis_risk":5,"migraine_risk":7,"frizz_risk":0,"updated_at":"2026-03-04T16:10:33.446312+05:30"},{"city":"Siliguri","state":"West Bengal","latitude":26.7271,"longitude":88.3953,"temp":24.5,"humidity":60,"rain":0.0,"pressure":996.1,"uv_index":7.1,"wind_gusts":19.8,"aqi":158,"pm10":53.8,"pm2_5":38.2,"mosquito_risk":0,"arthritis_risk":5,"migraine_risk":7,"frizz_risk":1,"updated_at":"2026-03-04T16:10:36.664324+05:30"},{"city":"Durgapur","state":"West Bengal","latitude":23.5204,"longitude":87.3119,"temp":32.4,"humidity":22,"rain":0.0,"pressure":996.4,"uv_index":7.7,"wind_gusts":20.5,"aqi":115,"pm10":98.0,"pm2_5":41.8,"mosquito_risk":0,"arthritis_risk":5,"migraine_risk":7,"frizz_risk":0,"updated_at":"2026-03-04T16:10:36.664357+05:30"},{"city":"Asansol","state":"West Bengal","latitude":23.6739,"longitude":86.9524,"temp":31.9,"humidity":22,"rain":0.0,"pressure":995.4,"uv_index":7.7,"wind_gusts":20.9,"aqi":104,"pm10":110.8,"pm2_5":42.8,"mosquito_risk":0,"arthritis_risk":5,"migraine_risk":7,"frizz_risk":0,"updated_at":"2026-03-04T16:10:36.664368+05:30"},{"city":"Pondicherry","state":"Puducherry","latitude":11.9139,"longitude":79.8145,"temp":32.6,"humidity":39,"rain":0.0,"pressure":1009.2,"uv_index":8.85,"wind_gusts":29.2,"aqi":96,"pm10":20.0,"pm2_5":17.1,"mosquito_risk":0,"arthritis_risk":0,"migraine_risk":4,"frizz_risk":1,"updated_at":"2026-03-04T16:10:36.664378+05:30"},{"city":"Port Blair","state":"Andaman and Nicobar Islands","latitude":11.6234,"longitude":92.7265,"temp":27.4,"humidity":70,"rain":0.0,"pressure":1006.8,"uv_index":8.85,"wind_gusts":25.6,"aqi":94,"pm10":46.1,"pm2_5":38.1,"mosquito_risk":7,"arthritis_risk":5,"migraine_risk":4,"frizz_risk":1,"updated_at":"2026-03-04T16:10:36.664387+05:30"},{"city":"Haridwar","state":"Uttarakhand","latitude":29.9457,"longitude":78.1642,"temp":29.4,"humidity":46,"rain":0.0,"pressure":977.0,"uv_index":5.6,"wind_gusts":19.8,"aqi":123,"pm10":51.6,"pm2_5":32.1,"mosquito_risk":4,"arthritis_risk":5,"migraine_risk":3,"frizz_risk":1,"updated_at":"2026-03-04T16:10:36.664396+05:30"},{"city":"Rishikesh","state":"Uttarakhand","latitude":30.0869,"longitude":78.2676,"temp":28.7,"humidity":39,"rain":0.0,"pressure":969.9,"uv_index":5.65,"wind_gusts":22.7,"aqi":99,"pm10":36.4,"pm2_5":27.8,"mosquito_risk":4,"arthritis_risk":5,"migraine_risk":3,"frizz_risk":0,"updated_at":"2026-03-04T16:10:36.664404+05:30"},{"city":"Nainital","state":"Uttarakhand","latitude":29.3919,"longitude":79.4542,"temp":19.9,"humidity":66,"rain":0.0,"pressure":808.9,"uv_index":6.45,"wind_gusts":57.2,"aqi":137,"pm10":74.7,"pm2_5":46.3,"mosquito_risk":3,"arthritis_risk":5,"migraine_risk":7,"frizz_risk":0,"updated_at":"2026-03-04T16:10:36.664433+05:30"},{"city":"Mussoorie","state":"Uttarakhand","latitude":30.4599,"longitude":78.0664,"temp":20.8,"humidity":46,"rain":0.0,"pressure":806.4,"uv_index":6.0,"wind_gusts":35.6,"aqi":93,"pm10":36.0,"pm2_5":29.5,"mosquito_risk":0,"arthritis_risk":5,"migraine_risk":3,"frizz_risk":0,"updated_at":"2026-03-04T16:10:36.664441+05:30"},{"city":"Dharamshala","state":"Himachal Pradesh","latitude":32.219,"longitude":76.3234,"temp":25.7,"humidity":43,"rain":0.0,"pressure":874.1,"uv_index":6.25,"wind_gusts":27.7,"aqi":51,"pm10":18.3,"pm2_5":8.6,"mosquito_risk":4,"arthritis_risk":5,"migraine_risk":7,"frizz_risk":0,"updated_at":"2026-03-04T16:10:36.664448+05:30"},{"city":"Dalhousie","state":"Himachal Pradesh","latitude":32.5387,"longitude":75.971,"temp":24.6,"humidity":36,"rain":0.0,"pressure":809.9,"uv_index":6.45,"wind_gusts":22.0,"aqi":83,"pm10":23.6,"pm2_5":16.3,"mosquito_risk":0,"arthritis_risk":5,"migraine_risk":7,"frizz_risk":0,"updated_at":"2026-03-04T16:10:36.664456+05:30"},{"city":"Patiala","state":"Punjab","latitude":30.3398,"longitude":76.3869,"temp":31.3,"humidity":37,"rain":0.0,"pressure":981.7,"uv_index":5.65,"wind_gusts":30.6,"aqi":180,"pm10":523.4,"pm2_5":82.9,"mosquito_risk":0,"arthritis_risk":5,"migraine_risk":3,"frizz_risk":0,"updated_at":"2026-03-04T16:10:36.664462+05:30"},{"city":"Bhatinda","state":"Punjab","latitude":30.211,"longitude":74.9455,"temp":32.3,"humidity":38,"rain":0.0,"pressure":987.9,"uv_index":6.3,"wind_gusts":22.7,"aqi":152,"pm10":66.4,"pm2_5":34.9,"mosquito_risk":0,"arthritis_risk":5,"migraine_risk":7,"frizz_risk":1,"updated_at":"2026-03-04T16:10:36.664468+05:30"},{"city":"Rohtak","state":"Haryana","latitude":28.8955,"longitude":76.6066,"temp":32.0,"humidity":33,"rain":0.0,"pressure":985.3,"uv_index":5.85,"wind_gusts":31.0,"aqi":384,"pm10":800.9,"pm2_5":98.3,"mosquito_risk":0,"arthritis_risk":5,"migraine_risk":3,"frizz_risk":0,"updated_at":"2026-03-04T16:10:36.664474+05:30"},{"city":"Panipat","state":"Haryana","latitude":29.3909,"longitude":76.9635,"temp":31.8,"humidity":34,"rain":0.0,"pressure":983.5,"uv_index":5.65,"wind_gusts":31.0,"aqi":926,"pm10":1471.5,"pm2_5":157.4,"mosquito_risk":0,"arthritis_risk":5,"migraine_risk":3,"frizz_risk":0,"updated_at":"2026-03-04T16:10:36.664481+05:30"},{"city":"Mathura","state":"Uttar Pradesh","latitude":27.4924,"longitude":77.6737,"temp":33.4,"humidity":26,"rain":0.0,"pressure":990.2,"uv_index":6.1,"wind_gusts":29.9,"aqi":432,"pm10":1024.5,"pm2_5":112.9,"mosquito_risk":0,"arthritis_risk":5,"migraine_risk":7,"frizz_risk":0,"updated_at":"2026-03-04T16:10:36.664487+05:30"},{"city":"Vrindavan","state":"Uttar Pradesh","latitude":27.5823,"longitude":77.7027,"temp":33.1,"humidity":27,"rain":0.0,"pressure":990.5,"uv_index":6.1,"wind_gusts":31.7,"aqi":432,"pm10":1024.5,"pm2_5":112.9,"mosquito_risk":0,"arthritis_risk":5,"migraine_risk":7,"frizz_risk":0,"updated_at":"2026-03-04T16:10:36.664493+05:30"},{"city":"Ayodhya","state":"Uttar Pradesh","latitude":26.7922,"longitude":82.1998,"temp":30.2,"humidity":40,"rain":0.0,"pressure":998.0,"uv_index":6.5,"wind_gusts":9.7,"aqi":160,"pm10":220.7,"pm2_5":67.1,"mosquito_risk":0,"arthritis_risk":5,"migraine_risk":7,"frizz_risk":0,"updated_at":"2026-03-04T16:10:36.664500+05:30"},{"city":"Ratlam","state":"Madhya Pradesh","latitude":23.3315,"longitude":75.0367,"temp":34.3,"humidity":25,"rain":0.0,"pressure":958.1,"uv_index":7.35,"wind_gusts":21.2,"aqi":102,"pm10":24.9,"pm2_5":16.4,"mosquito_risk":0,"arthritis_risk":5,"migraine_risk":7,"frizz_risk":0,"updated_at":"2026-03-04T16:10:36.664506+05:30"},{"city":"Sagar","state":"Madhya Pradesh","latitude":23.8388,"longitude":78.7378,"temp":32.9,"humidity":21,"rain":0.0,"pressure":953.6,"uv_index":7.25,"wind_gusts":25.6,"aqi":64,"pm10":20.0,"pm2_5":10.0,"mosquito_risk":0,"arthritis_risk":5,"migraine_risk":7,"frizz_risk":0,"updated_at":"2026-03-04T16:10:36.664513+05:30"},{"city":"Satna","state":"Madhya Pradesh","latitude":24.6005,"longitude":80.8322,"temp":33.9,"humidity":18,"rain":0.0,"pressure":974.1,"uv_index":7.25,"wind_gusts":34.9,"aqi":77,"pm10":43.8,"pm2_5":23.3,"mosquito_risk":0,"arthritis_risk":5,"migraine_risk":7,"frizz_risk":0,"updated_at":"2026-03-04T16:10:36.664520+05:30"},{"city":"Akola","state":"Maharashtra","latitude":20.7002,"longitude":77.0082,"temp":36.9,"humidity":21,"rain":0.0,"pressure":976.7,"uv_index":7.8,"wind_gusts":18.7,"aqi":73,"pm10":20.5,"pm2_5":17.5,"mosquito_risk":0,"arthritis_risk":5,"migraine_risk":10,"frizz_risk":0,"updated_at":"2026-03-04T16:10:36.664527+05:30"},{"city":"Amravati","state":"Maharashtra","latitude":20.9374,"longitude":77.7796,"temp":36.5,"humidity":24,"rain":0.0,"pressure":969.0,"uv_index":7.75,"wind_gusts":16.2,"aqi":75,"pm10":19.3,"pm2_5":15.7,"mosquito_risk":0,"arthritis_risk":5,"migraine_risk":10,"frizz_risk":0,"updated_at":"2026-03-04T16:10:36.664533+05:30"},{"city":"Latur","state":"Maharashtra","latitude":18.4088,"longitude":76.5604,"temp":34.3,"humidity":22,"rain":0.0,"pressure":941.7,"uv_index":8.25,"wind_gusts":19.8,"aqi":102,"pm10":21.0,"pm2_5":18.9,"mosquito_risk":0,"arthritis_risk":5,"migraine_risk":7,"frizz_risk":0,"updated_at":"2026-03-04T16:10:36.664540+05:30"},{"city":"Nanded","state":"Maharashtra","latitude":19.1383,"longitude":77.3091,"temp":36.3,"humidity":24,"rain":0.0,"pressure":970.0,"uv_index":8.0,"wind_gusts":13.0,"aqi":91,"pm10":18.1,"pm2_5":15.3,"mosquito_risk":0,"arthritis_risk":5,"migraine_risk":10,"frizz_risk":0,"updated_at":"2026-03-04T16:10:36.664546+05:30"},{"city":"Gulbarga","state":"Karnataka","latitude":17.3297,"longitude":76.8343,"temp":36.8,"humidity":19,"rain":0.0,"pressure":959.7,"uv_index":8.35,"wind_gusts":23.0,"aqi":113,"pm10":15.9,"pm2_5":14.2,"mosquito_risk":0,"arthritis_risk":5,"migraine_risk":10,"frizz_risk":0,"updated_at":"2026-03-04T16:10:36.664552+05:30"},{"city":"Bidar","state":"Karnataka","latitude":17.9104,"longitude":77.5199,"temp":34.5,"humidity":20,"rain":0.0,"pressure":937.3,"uv_index":8.3,"wind_gusts":25.9,"aqi":118,"pm10":18.3,"pm2_5":15.7,"mosquito_risk":0,"arthritis_risk":5,"migraine_risk":7,"frizz_risk":0,"updated_at":"2026-03-04T16:10:36.664558+05:30"},{"city":"Hospet","state":"Karnataka","latitude":15.2689,"longitude":76.3909,"temp":35.0,"humidity":25,"rain":0.0,"pressure":956.6,"uv_index":8.65,"wind_gusts":25.9,"aqi":123,"pm10":26.7,"pm2_5":25.8,"mosquito_risk":0,"arthritis_risk":5,"migraine_risk":7,"frizz_risk":0,"updated_at":"2026-03-04T16:10:36.664564+05:30"},{"city":"Tirupur","state":"Tamil Nadu","latitude":11.1085,"longitude":77.3411,"temp":35.2,"humidity":22,"rain":0.0,"pressure":975.2,"uv_index":9.15,"wind_gusts":32.4,"aqi":106,"pm10":32.6,"pm2_5":31.3,"mosquito_risk":0,"arthritis_risk":5,"migraine_risk":10,"frizz_risk":0,"updated_at":"2026-03-04T16:10:36.664570+05:30"},{"city":"Alappuzha","state":"Kerala","latitude":9.4981,"longitude":76.3388,"temp":28.5,"humidity":75,"rain":0.0,"pressure":1008.1,"uv_index":8.95,"wind_gusts":30.2,"aqi":99,"pm10":32.4,"pm2_5":30.2,"mosquito_risk":7,"arthritis_risk":0,"migraine_risk":4,"frizz_risk":1,"updated_at":"2026-03-04T16:10:36.664576+05:30"},{"city":"Munnar","state":"Kerala","latitude":10.0889,"longitude":77.0595,"temp":29.6,"humidity":33,"rain":0.0,"pressure":858.8,"uv_index":9.45,"wind_gusts":24.5,"aqi":83,"pm10":14.6,"pm2_5":14.0,"mosquito_risk":4,"arthritis_risk":5,"migraine_risk":7,"frizz_risk":0,"updated_at":"2026-03-04T16:10:36.664583+05:30"},{"city":"Silchar","state":"Assam","latitude":24.8333,"longitude":92.7789,"temp":30.0,"humidity":39,"rain":0.0,"pressure":1005.1,"uv_index":7.45,"wind_gusts":14.4,"aqi":150,"pm10":58.6,"pm2_5":47.5,"mosquito_risk":4,"arthritis_risk":5,"migraine_risk":4,"frizz_risk":0,"updated_at":"2026-03-04T16:10:36.664589+05:30"},{"city":"Dibrugarh","state":"Assam","latitude":27.4728,"longitude":94.912,"temp":27.7,"humidity":50,"rain":0.0,"pressure":996.3,"uv_index":7.15,"wind_gusts":9.0,"aqi":130,"pm10":55.8,"pm2_5":42.8,"mosquito_risk":4,"arthritis_risk":5,"migraine_risk":7,"frizz_risk":1,"updated_at":"2026-03-04T16:10:36.664595+05:30"}]