[{"city":"Delhi","state":"Delhi","latitude":28.6139,"longitude":77.209,"temp":21.1,"humidity":61,"rain":0.0,"pressure":987.4,"uv_index":5.8,"wind_gusts":36.7,"aqi":341,"pm10":568.1,"pm2_5":107.3,"mosquito_risk":3,"arthritis_risk":5,"migraine_risk":3,"frizz_risk":0,"updated_at":"2026-03-03T22:24:07.704777+05:30"},{"city":"Mumbai","state":"Maharashtra","latitude":19.076,"longitude":72.8777,"temp":28.2,"humidity":65,"rain":0.0,"pressure":1011.1,"uv_index":7.35,"wind_gusts":25.9,"aqi":158,"pm10":45.6,"pm2_5":43.7,"mosquito_risk":7,"arthritis_risk":0,"migraine_risk":4,"frizz_risk":1,"updated_at":"2026-03-03T22:24:07.704827+05:30"},{"city":"Bangalore","state":"Karnataka","latitude":12.9716,"longitude":77.5946,"temp":23.7,"humidity":47,"rain":0.0,"pressure":914.6,"uv_index":9.1,"wind_gusts":36.0,"aqi":103,"pm10":32.5,"pm2_5":31.9,"mosquito_risk":0,"arthritis_risk":5,"migraine_risk":7,"frizz_risk":0,"updated_at":"2026-03-03T22:24:07.704841+05:30"},{"city":"Hyderabad","state":"Telangana","latitude":17.385,"longitude":78.4867,"temp":25.3,"humidity":56,"rain":0.0,"pressure":956.8,"uv_index":8.35,"wind_gusts":23.4,"aqi":128,"pm10":43.1,"pm2_5":42.3,"mosquito_risk":4,"arthritis_risk":5,"migraine_risk":7,"frizz_risk":0,"updated_at":"2026-03-03T22:24:07.704851+05:30"},{"city":"Chennai","state":"Tamil Nadu","latitude":13.0827,"longitude":80.2707,"temp":25.5,"humidity":82,"rain":0.0,"pressure":1011.9,"uv_index":8.8,"wind_gusts":30.2,"aqi":109,"pm10":33.1,"pm2_5":29.4,"mosquito_risk":7,"arthritis_risk":0,"migraine_risk":4,"frizz_risk":1,"updated_at":"2026-03-03T22:24:07.704859+05:30"},{"city":"Kolkata","state":"West Bengal","latitude":22.5726,"longitude":88.3639,"temp":24.0,"humidity":58,"rain":0.0,"pressure":1009.8,"uv_index":7.7,"wind_gusts":16.2,"aqi":168,"pm10":118.0,"pm2_5":88.2,"mosquito_risk":0,"arthritis_risk":0,"migraine_risk":4,"frizz_risk":0,"updated_at":"2026-03-03T22:24:07.704866+05:30"},{"city":"Pune","state":"Maharashtra","latitude":18.5204,"longitude":73.8567,"temp":27.3,"humidity":56,"rain":0.0,"pressure":951.7,"uv_index":7.9,"wind_gusts":32.8,"aqi":122,"pm10":30.5,"pm2_5":30.0,"mosquito_risk":4,"arthritis_risk":5,"migraine_risk":7,"frizz_risk":1,"updated_at":"2026-03-03T22:24:07.704876+05:30"},{"city":"Ahmedabad","state":"Gujarat","latitude":23.0225,"longitude":72.5714,"temp":26.7,"humidity":46,"rain":0.0,"pressure":1006.3,"uv_index":7.15,"wind_gusts":15.5,"aqi":95,"pm10":47.3,"pm2_5":38.4,"mosquito_risk":4,"arthritis_risk":5,"migraine_risk":4,"frizz_risk":0,"updated_at":"2026-03-03T22:24:07.704883+05:30"},{"city":"Jaipur","state":"Rajasthan","latitude":26.9124,"longitude":75.7873,"temp":25.9,"humidity":23,"rain":0.0,"pressure":964.8,"uv_index":6.55,"wind_gusts":29.9,"aqi":103,"pm10":80.8,"pm2_5":42.4,"mosquito_risk":4,"arthritis_risk":5,"migraine_risk":7,"frizz_risk":0,"updated_at":"2026-03-03T22:24:07.704890+05:30"},{"city":"Lucknow","state":"Uttar Pradesh","latitude":26.8467,"longitude":80.9462,"temp":22.9,"humidity":56,"rain":0.0,"pressure":998.3,"uv_index":6.3,"wind_gusts":35.6,"aqi":153,"pm10":276.6,"pm2_5":67.1,"mosquito_risk":0,"arthritis_risk":5,"migraine_risk":7,"frizz_risk":0,"updated_at":"2026-03-03T22:24:07.704897+05:30"},{"city":"Kanpur","state":"Uttar Pradesh","latitude":26.4499,"longitude":80.3319,"temp":20.1,"humidity":71,"rain":0.0,"pressure":996.6,"uv_index":6.3,"wind_gusts":28.4,"aqi":185,"pm10":324.1,"pm2_5":67.3,"mosquito_risk":3,"arthritis_risk":5,"migraine_risk":7,"frizz_risk":0,"updated_at":"2026-03-03T22:24:07.704903+05:30"},{"city":"Chandigarh","state":"Chandigarh","latitude":30.7333,"longitude":76.7794,"temp":19.7,"humidity":64,"rain":0.0,"pressure":972.6,"uv_index":5.7,"wind_gusts":33.5,"aqi":129,"pm10":37.1,"pm2_5":35.5,"mosquito_risk":3,"arthritis_risk":5,"migraine_risk":3,"frizz_risk":0,"updated_at":"2026-03-03T22:24:07.704910+05:30"},{"city":"Srinagar","state":"Jammu and Kashmir","latitude":34.0837,"longitude":74.7973,"temp":7.8,"humidity":71,"rain":0.0,"pressure":841.5,"uv_index":6.6,"wind_gusts":16.2,"aqi":138,"pm10":95.5,"pm2_5":84.8,"mosquito_risk":3,"arthritis_risk":5,"migraine_risk":7,"frizz_risk":0,"updated_at":"2026-03-03T22:24:07.704916+05:30"},{"city":"Jammu","state":"Jammu and Kashmir","latitude":32.7266,"longitude":74.857,"temp":20.1,"humidity":69,"rain":0.0,"pressure":976.3,"uv_index":6.3,"wind_gusts":20.9,"aqi":107,"pm10":71.7,"pm2_5":59.8,"mosquito_risk":3,"arthritis_risk":5,"migraine_risk":7,"frizz_risk":0,"updated_at":"2026-03-03T22:24:07.704934+05:30"},{"city":"Amritsar","state":"Punjab","latitude":31.634,"longitude":74.8723,"temp":20.5,"humidity":57,"rain":0.0,"pressure":984.7,"uv_index":6.25,"wind_gusts":25.9,"aqi":90,"pm10":64.0,"pm2_5":54.2,"mosquito_risk":0,"arthritis_risk":5,"migraine_risk":7,"frizz_risk":0,"updated_at":"2026-03-03T22:24:07.704942+05:30"},{"city":"Ludhiana","state":"Punjab","latitude":30.901,"longitude":75.8573,"temp":21.4,"humidity":61,"rain":0.0,"pressure":983.0,"uv_index":5.9,"wind_gusts":29.9,"aqi":139,"pm10":86.8,"pm2_5":66.1,"mosquito_risk":3,"arthritis_risk":5,"migraine_risk":3,"frizz_risk":0,"updated_at":"2026-03-03T22:24:07.704947+05:30"},{"city":"Jalandhar","state":"Punjab","latitude":31.326,"longitude":75.5762,"temp":20.8,"humidity":61,"rain":0.0,"pressure":984.1,"uv_index":6.05,"wind_gusts":25.9,"aqi":138,"pm10":69.6,"pm2_5":60.3,"mosquito_risk":3,"arthritis_risk":5,"migraine_risk":7,"frizz_risk":0,"updated_at":"2026-03-03T22:24:07.704955+05:30"},{"city":"Dehradun","state":"Uttarakhand","latitude":30.6284,"longitude":78.0322,"temp":12.3,"humidity":88,"rain":0.0,"pressure":831.2,"uv_index":6.05,"wind_gusts":31.0,"aqi":102,"pm10":32.8,"pm2_5":29.9,"mosquito_risk":3,"arthritis_risk":10,"migraine_risk":7,"frizz_risk":0,"updated_at":"2026-03-03T22:24:07.704962+05:30"},{"city":"Shimla","state":"Himachal Pradesh","latitude":31.1048,"longitude":77.1734,"temp":11.5,"humidity":63,"rain":0.0,"pressure":785.5,"uv_index":6.1,"wind_gusts":44.6,"aqi":104,"pm10":35.5,"pm2_5":29.2,"mosquito_risk":3,"arthritis_risk":5,"migraine_risk":7,"frizz_risk":0,"updated_at":"2026-03-03T22:24:07.704967+05:30"},{"city":"Manali","state":"Himachal Pradesh","latitude":32.2396,"longitude":77.1887,"temp":16.8,"humidity":21,"rain":0.0,"pressure":822.5,"uv_index":7.7,"wind_gusts":34.6,"aqi":89,"pm10":19.4,"pm2_5":15.9,"mosquito_risk":0,"arthritis_risk":5,"migraine_risk":7,"frizz_risk":1,"updated_at":"2026-03-03T22:24:07.704973+05:30"},{"city":"Gurgaon","state":"Haryana","latitude":28.4595,"longitude":77.0266,"temp":18.2,"humidity":70,"rain":0.0,"pressure":985.8,"uv_index":5.9,"wind_gusts":33.8,"aqi":1190,"pm10":1136.2,"pm2_5":154.1,"mosquito_risk":3,"arthritis_risk":5,"migraine_risk":3,"frizz_risk":0,"updated_at":"2026-03-03T22:24:07.704979+05:30"},{"city":"Noida","state":"Uttar Pradesh","latitude":28.5355,"longitude":77.391,"temp":21.4,"humidity":59,"rain":0.0,"pressure":989.0,"uv_index":5.8,"wind_gusts":36.4,"aqi":1190,"pm10":1136.2,"pm2_5":154.1,"mosquito_risk":0,"arthritis_risk":5,"migraine_risk":3,"frizz_risk":0,"updated_at":"2026-03-03T22:24:07.704985+05:30"},{"city":"Ghaziabad","state":"Uttar Pradesh","latitude":28.6692,"longitude":77.4538,"temp":21.4,"humidity":62,"rain":0.0,"pressure":987.1,"uv_index":5.75,"wind_gusts":36.0,"aqi":254,"pm10":551.3,"pm2_5":108.0,"mosquito_risk":3,"arthritis_risk":5,"migraine_risk":3,"frizz_risk":0,"updated_at":"2026-03-03T22:24:07.704990+05:30"},{"city":"Faridabad","state":"Haryana","latitude":28.4089,"longitude":77.3178,"temp":21.8,"humidity":50,"rain":0.0,"pressure":988.3,"uv_index":5.85,"wind_gusts":32.8,"aqi":1190,"pm10":1136.2,"pm2_5":154.1,"mosquito_risk":0,"arthritis_risk":5,"migraine_risk":3,"frizz_risk":0,"updated_at":"2026-03-03T22:24:07.704995+05:30"},{"city":"Meerut","state":"Uttar Pradesh","latitude":28.9845,"longitude":77.7064,"temp":19.3,"humidity":71,"rain":0.0,"pressure":985.6,"uv_index":5.65,"wind_gusts":41.4,"aqi":254,"pm10":551.3,"pm2_5":108.0,"mosquito_risk":3,"arthritis_risk":5,"migraine_risk":3,"frizz_risk":0,"updated_at":"2026-03-03T22:24:07.705001+05:30"},{"city":"Agra","state":"Uttar Pradesh","latitude":27.1767,"longitude":78.0081,"temp":20.3,"humidity":55,"rain":0.0,"pressure":992.5,"uv_index":6.15,"wind_gusts":30.6,"aqi":465,"pm10":488.0,"pm2_5":78.0,"mosquito_risk":0,"arthritis_risk":5,"migraine_risk":7,"frizz_risk":0,"updated_at":"2026-03-03T22:24:07.705007+05:30"},{"city":"Varanasi","state":"Uttar Pradesh","latitude":25.3176,"longitude":82.9739,"temp":22.0,"humidity":57,"rain":0.0,"pressure":1002.5,"uv_index":6.95,"wind_gusts":23.0,"aqi":116,"pm10":101.5,"pm2_5":76.6,"mosquito_risk":0,"arthritis_risk":5,"migraine_risk":4,"frizz_risk":0,"updated_at":"2026-03-03T22:24:07.705015+05:30"},{"city":"Prayagraj","state":"Uttar Pradesh","latitude":25.4358,"longitude":81.8463,"temp":22.6,"humidity":58,"rain":0.0,"pressure":1001.1,"uv_index":6.8,"wind_gusts":23.0,"aqi":127,"pm10":99.9,"pm2_5":64.7,"mosquito_risk":0,"arthritis_risk":5,"migraine_risk":4,"frizz_risk":0,"updated_at":"2026-03-03T22:24:07.705020+05:30"},{"city":"Gorakhpur","state":"Uttar Pradesh","latitude":26.7606,"longitude":83.3732,"temp":22.2,"humidity":59,"rain":0.0,"pressure":1001.9,"uv_index":6.65,"wind_gusts":16.9,"aqi":150,"pm10":134.1,"pm2_5":102.0,"mosquito_risk":0,"arthritis_risk":5,"migraine_risk":4,"frizz_risk":0,"updated_at":"2026-03-03T22:24:07.705026+05:30"},{"city":"Bareilly","state":"Uttar Pradesh","latitude":28.367,"longitude":79.4304,"temp":19.3,"humidity":80,"rain":0.0,"pressure":991.3,"uv_index":6.0,"wind_gusts":28.8,"aqi":147,"pm10":429.3,"pm2_5":105.0,"mosquito_risk":3,"arthritis_risk":5,"migraine_risk":3,"frizz_risk":0,"updated_at":"2026-03-03T22:24:07.705031+05:30"},{"city":"Aligarh","state":"Uttar Pradesh","latitude":27.8974,"longitude":78.088,"temp":19.3,"humidity":62,"rain":0.0,"pressure":990.0,"uv_index":5.9,"wind_gusts":34.9,"aqi":682,"pm10":795.3,"pm2_5":131.8,"mosquito_risk":3,"arthritis_risk":5,"migraine_risk":3,"frizz_risk":0,"updated_at":"2026-03-03T22:24:07.705037+05:30"},{"city":"Moradabad","state":"Uttar Pradesh","latitude":28.8386,"longitude":78.7733,"temp":20.1,"humidity":67,"rain":0.0,"pressure":988.0,"uv_index":5.8,"wind_gusts":28.8,"aqi":146,"pm10":284.1,"pm2_5":81.0,"mosquito_risk":3,"arthritis_risk":5,"migraine_risk":3,"frizz_risk":0,"updated_at":"2026-03-03T22:24:07.705042+05:30"},{"city":"Saharanpur","state":"Uttar Pradesh","latitude":29.9637,"longitude":77.546,"temp":18.6,"humidity":72,"rain":0.0,"pressure":979.6,"uv_index":5.45,"wind_gusts":43.2,"aqi":137,"pm10":149.0,"pm2_5":58.0,"mosquito_risk":3,"arthritis_risk":5,"migraine_risk":3,"frizz_risk":0,"updated_at":"2026-03-03T22:24:07.705048+05:30"},{"city":"Jhansi","state":"Uttar Pradesh","latitude":25.4484,"longitude":78.5685,"temp":23.8,"humidity":50,"rain":0.0,"pressure":982.9,"uv_index":6.7,"wind_gusts":26.6,"aqi":79,"pm10":43.8,"pm2_5":29.9,"mosquito_risk":0,"arthritis_risk":5,"migraine_risk":7,"frizz_risk":0,"updated_at":"2026-03-03T22:24:10.957631+05:30"},{"city":"Surat","state":"Gujarat","latitude":21.1702,"longitude":72.8311,"temp":26.5,"humidity":53,"rain":0.0,"pressure":1010.1,"uv_index":7.05,"wind_gusts":27.0,"aqi":159,"pm10":72.4,"pm2_5":70.1,"mosquito_risk":4,"arthritis_risk":0,"migraine_risk":4,"frizz_risk":1,"updated_at":"2026-03-03T22:24:10.957660+05:30"},{"city":"Vadodara","state":"Gujarat","latitude":22.3072,"longitude":73.1812,"temp":27.0,"humidity":49,"rain":0.0,"pressure":1008.3,"uv_index":7.15,"wind_gusts":13.3,"aqi":152,"pm10":62.9,"pm2_5":59.5,"mosquito_risk":4,"arthritis_risk":0,"migraine_risk":4,"frizz_risk":0,"updated_at":"2026-03-03T22:24:10.957670+05:30"},{"city":"Rajkot","state":"Gujarat","latitude":22.3039,"longitude":70.8022,"temp":27.2,"humidity":28,"rain":0.0,"pressure":998.7,"uv_index":7.0,"wind_gusts":17.6,"aqi":83,"pm10":25.5,"pm2_5":21.8,"mosquito_risk":4,"arthritis_risk":5,"migraine_risk":7,"frizz_risk":0,"updated_at":"2026-03-03T22:24:10.957678+05:30"},{"city":"Thane","state":"Maharashtra","latitude":19.2183,"longitude":72.9781,"temp":28.0,"humidity":48,"rain":0.0,"pressure":1010.6,"uv_index":7.35,"wind_gusts":36.7,"aqi":158,"pm10":45.6,"pm2_5":43.7,"mosquito_risk":4,"arthritis_risk":0,"migraine_risk":4,"frizz_risk":0,"updated_at":"2026-03-03T22:24:10.957686+05:30"},{"city":"Nagpur","state":"Maharashtra","latitude":21.1458,"longitude":79.0882,"temp":25.6,"humidity":52,"rain":0.0,"pressure":977.5,"uv_index":7.7,"wind_gusts":17.6,"aqi":84,"pm10":33.3,"pm2_5":27.9,"mosquito_risk":4,"arthritis_risk":5,"migraine_risk":7,"frizz_risk":0,"updated_at":"2026-03-03T22:24:10.957694+05:30"},{"city":"Nashik","state":"Maharashtra","latitude":19.9975,"longitude":73.7898,"temp":26.1,"humidity":40,"rain":0.0,"pressure":949.4,"uv_index":7.55,"wind_gusts":28.8,"aqi":126,"pm10":36.1,"pm2_5":35.4,"mosquito_risk":4,"arthritis_risk":5,"migraine_risk":7,"frizz_risk":0,"updated_at":"2026-03-03T22:24:10.957701+05:30"},{"city":"Aurangabad","state":"Maharashtra","latitude":19.8762,"longitude":75.3433,"temp":26.3,"humidity":42,"rain":0.0,"pressure":947.7,"uv_index":8.05,"wind_gusts":25.2,"aqi":117,"pm10":31.0,"pm2_5":30.0,"mosquito_risk":4,"arthritis_risk":5,"migraine_risk":7,"frizz_risk":0,"updated_at":"2026-03-03T22:24:10.957708+05:30"},{"city":"Solapur","state":"Maharashtra","latitude":17.6599,"longitude":75.9064,"temp":26.7,"humidity":57,"rain":0.0,"pressure":960.1,"uv_index":8.25,"wind_gusts":18.0,"aqi":138,"pm10":29.3,"pm2_5":28.8,"mosquito_risk":4,"arthritis_risk":5,"migraine_risk":7,"frizz_risk":1,"updated_at":"2026-03-03T22:24:10.957716+05:30"},{"city":"Kolhapur","state":"Maharashtra","latitude":16.705,"longitude":74.2433,"temp":24.4,"humidity":75,"rain":0.0,"pressure":951.0,"uv_index":8.4,"wind_gusts":39.2,"aqi":144,"pm10":90.1,"pm2_5":89.6,"mosquito_risk":3,"arthritis_risk":5,"migraine_risk":7,"frizz_risk":1,"updated_at":"2026-03-03T22:24:10.957723+05:30"},{"city":"Goa","state":"Goa","latitude":15.2993,"longitude":74.124,"temp":27.4,"humidity":82,"rain":0.0,"pressure":1001.2,"uv_index":8.45,"wind_gusts":34.2,"aqi":77,"pm10":36.2,"pm2_5":30.2,"mosquito_risk":7,"arthritis_risk":5,"migraine_risk":4,"frizz_risk":1,"updated_at":"2026-03-03T22:24:10.957730+05:30"},{"city":"Jodhpur","state":"Rajasthan","latitude":26.2389,"longitude":73.0243,"temp":27.5,"humidity":40,"rain":0.0,"pressure":987.8,"uv_index":6.85,"wind_gusts":15.8,"aqi":71,"pm10":65.9,"pm2_5":30.9,"mosquito_risk":4,"arthritis_risk":5,"migraine_risk":7,"frizz_risk":0,"updated_at":"2026-03-03T22:24:10.957737+05:30"},{"city":"Udaipur","state":"Rajasthan","latitude":24.5854,"longitude":73.7125,"temp":21.7,"humidity":49,"rain":0.0,"pressure":951.4,"uv_index":7.45,"wind_gusts":18.4,"aqi":86,"pm10":39.0,"pm2_5":23.2,"mosquito_risk":0,"arthritis_risk":5,"migraine_risk":7,"frizz_risk":0,"updated_at":"2026-03-03T22:24:10.957744+05:30"},{"city":"Kota","state":"Rajasthan","latitude":25.2138,"longitude":75.8648,"temp":26.2,"humidity":44,"rain":0.0,"pressure":983.7,"uv_index":6.85,"wind_gusts":19.4,"aqi":87,"pm10":57.3,"pm2_5":40.4,"mosquito_risk":4,"arthritis_risk":5,"migraine_risk":7,"frizz_risk":0,"updated_at":"2026-03-03T22:24:10.957751+05:30"},{"city":"Bikaner","state":"Rajasthan","latitude":28.0229,"longitude":73.3119,"temp":25.6,"humidity":38,"rain":0.0,"pressure":986.7,"uv_index":6.55,"wind_gusts":21.6,"aqi":71,"pm10":41.0,"pm2_5":20.1,"mosquito_risk":4,"arthritis_risk":5,"migraine_risk":7,"frizz_risk":0,"updated_at":"2026-03-03T22:24:10.957758+05:30"},{"city":"Ajmer","state":"Rajasthan","latitude":26.4499,"longitude":74.6399,"temp":25.3,"humidity":25,"rain":0.0,"pressure":959.5,"uv_index":6.8,"wind_gusts":25.9,"aqi":74,"pm10":51.9,"pm2_5":32.7,"mosquito_risk":4,"arthritis_risk":5,"migraine_risk":7,"frizz_risk":0,"updated_at":"2026-03-03T22:24:10.957765+05:30"},{"city":"Gwalior","state":"Madhya Pradesh","latitude":26.2183,"longitude":78.1828,"temp":22.2,"humidity":65,"rain":0.0,"pressure":988.1,"uv_index":6.45,"wind_gusts":29.5,"aqi":124,"pm10":78.5,"pm2_5":40.5,"mosquito_risk":3,"arthritis_risk":5,"migraine_risk":7,"frizz_risk":0,"updated_at":"2026-03-03T22:24:10.957772+05:30"},{"city":"Indore","state":"Madhya Pradesh","latitude":22.7196,"longitude":75.8577,"temp":23.5,"humidity":54,"rain":0.0,"pressure":952.2,"uv_index":7.4,"wind_gusts":16.9,"aqi":90,"pm10":36.4,"pm2_5":33.3,"mosquito_risk":0,"arthritis_risk":5,"migraine_risk":7,"frizz_risk":0,"updated_at":"2026-03-03T22:24:10.957778+05:30"},{"city":"Bhopal","state":"Madhya Pradesh","latitude":23.2599,"longitude":77.4126,"temp":23.7,"humidity":51,"rain":0.0,"pressure":958.2,"uv_index":7.3,"wind_gusts":22.3,"aqi":83,"pm10":41.2,"pm2_5":30.9,"mosquito_risk":0,"arthritis_risk":5,"migraine_risk":7,"frizz_risk":0,"updated_at":"2026-03-03T22:24:10.957785+05:30"},{"city":"Jabalpur","state":"Madhya Pradesh","latitude":23.1815,"longitude":79.9864,"temp":24.4,"humidity":45,"rain":0.0,"pressure":965.9,"uv_index":7.4,"wind_gusts":17.6,"aqi":74,"pm10":43.5,"pm2_5":29.8,"mosquito_risk":0,"arthritis_risk":5,"migraine_risk":7,"frizz_risk":0,"updated_at":"2026-03-03T22:24:10.957792+05:30"},{"city":"Ujjain","state":"Madhya Pradesh","latitude":23.1765,"longitude":75.7885,"temp":24.3,"humidity":51,"rain":0.0,"pressure":958.0,"uv_index":7.3,"wind_gusts":15.5,"aqi":107,"pm10":50.2,"pm2_5":46.7,"mosquito_risk":0,"arthritis_risk":5,"migraine_risk":7,"frizz_risk":0,"updated_at":"2026-03-03T22:24:10.957799+05:30"},{"city":"Visakhapatnam","state":"Andhra Pradesh","latitude":17.6868,"longitude":83.2185,"temp":25.4,"humidity":88,"rain":0.0,"pressure":1008.4,"uv_index":8.35,"wind_gusts":34.2,"aqi":131,"pm10":50.3,"pm2_5":44.6,"mosquito_risk":7,"arthritis_risk":0,"migraine_risk":4,"frizz_risk":1,"updated_at":"2026-03-03T22:24:10.957806+05:30"},{"city":"Vijayawada","state":"Andhra Pradesh","latitude":16.5062,"longitude":80.648,"temp":25.6,"humidity":72,"rain":0.0,"pressure":1006.8,"uv_index":8.4,"wind_gusts":26.6,"aqi":141,"pm10":36.1,"pm2_5":33.4,"mosquito_risk":7,"arthritis_risk":5,"migraine_risk":4,"frizz_risk":1,"updated_at":"2026-03-03T22:24:10.957813+05:30"},{"city":"Guntur","state":"Andhra Pradesh","latitude":16.3067,"longitude":80.4365,"temp":25.4,"humidity":75,"rain":0.0,"pressure":1008.1,"uv_index":8.4,"wind_gusts":25.9,"aqi":131,"pm10":38.9,"pm2_5":36.7,"mosquito_risk":7,"arthritis_risk":0,"migraine_risk":4,"frizz_risk":1,"updated_at":"2026-03-03T22:24:10.957821+05:30"},{"city":"Nellore","state":"Andhra Pradesh","latitude":14.4426,"longitude":79.9865,"temp":24.9,"humidity":84,"rain":0.0,"pressure":1010.2,"uv_index":8.6,"wind_gusts":29.2,"aqi":108,"pm10":29.8,"pm2_5":27.0,"mosquito_risk":3,"arthritis_risk":0,"migraine_risk":4,"frizz_risk":1,"updated_at":"2026-03-03T22:24:10.957829+05:30"},{"city":"Kurnool","state":"Andhra Pradesh","latitude":15.8281,"longitude":78.0373,"temp":29.5,"humidity":41,"rain":0.0,"pressure":980.2,"uv_index":8.45,"wind_gusts":29.2,"aqi":113,"pm10":31.7,"pm2_5":31.1,"mosquito_risk":4,"arthritis_risk":5,"migraine_risk":7,"frizz_risk":0,"updated_at":"2026-03-03T22:24:10.957836+05:30"},{"city":"Kakinada","state":"Andhra Pradesh","latitude":16.9891,"longitude":82.2475,"temp":24.5,"humidity":87,"rain":0.0,"pressure":1012.1,"uv_index":8.35,"wind_gusts":34.9,"aqi":123,"pm10":38.2,"pm2_5":31.8,"mosquito_risk":3,"arthritis_risk":0,"migraine_risk":4,"frizz_risk":1,"updated_at":"2026-03-03T22:24:10.957843+05:30"},{"city":"Tirupati","state":"Andhra Pradesh","latitude":13.6288,"longitude":79.4192,"temp":25.1,"humidity":53,"rain":0.0,"pressure":996.2,"uv_index":8.75,"wind_gusts":37.1,"aqi":150,"pm10":49.8,"pm2_5":48.1,"mosquito_risk":4,"arthritis_risk":5,"migraine_risk":7,"frizz_risk":0,"updated_at":"2026-03-03T22:24:10.957850+05:30"},{"city":"Warangal","state":"Telangana","latitude":17.9689,"longitude":79.5941,"temp":29.1,"humidity":42,"rain":0.0,"pressure":982.3,"uv_index":8.2,"wind_gusts":14.0,"aqi":135,"pm10":43.8,"pm2_5":43.0,"mosquito_risk":4,"arthritis_risk":5,"migraine_risk":7,"frizz_risk":0,"updated_at":"2026-03-03T22:24:10.957857+05:30"},{"city":"Nizamabad","state":"Telangana","latitude":18.6725,"longitude":78.0941,"temp":25.7,"humidity":56,"rain":0.0,"pressure":968.3,"uv_index":8.1,"wind_gusts":24.5,"aqi":95,"pm10":34.5,"pm2_5":32.2,"mosquito_risk":4,"arthritis_risk":5,"migraine_risk":7,"frizz_risk":1,"updated_at":"2026-03-03T22:24:10.957863+05:30"},{"city":"Mysore","state":"Karnataka","latitude":12.2958,"longitude":76.6396,"temp":25.5,"humidity":43,"rain":0.0,"pressure":930.9,"uv_index":9.15,"wind_gusts":32.8,"aqi":124,"pm10":32.9,"pm2_5":32.5,"mosquito_risk":4,"arthritis_risk":5,"migraine_risk":7,"frizz_risk":0,"updated_at":"2026-03-03T22:24:10.957870+05:30"},{"city":"Mangalore","state":"Karnataka","latitude":12.9141,"longitude":74.856,"temp":28.6,"humidity":79,"rain":0.0,"pressure":1009.9,"uv_index":8.7,"wind_gusts":29.2,"aqi":65,"pm10":28.2,"pm2_5":21.4,"mosquito_risk":7,"arthritis_risk":0,"migraine_risk":4,"frizz_risk":1,"updated_at":"2026-03-03T22:24:10.957877+05:30"},{"city":"Hubli-Dharwad","state":"Karnataka","latitude":15.3647,"longitude":75.124,"temp":25.1,"humidity":76,"rain":0.0,"pressure":943.6,"uv_index":8.6,"wind_gusts":25.6,"aqi":153,"pm10":34.5,"pm2_5":34.1,"mosquito_risk":7,"arthritis_risk":5,"migraine_risk":7,"frizz_risk":1,"updated_at":"2026-03-03T22:24:10.957884+05:30"},{"city":"Belgaum","state":"Karnataka","latitude":15.8497,"longitude":74.4977,"temp":23.5,"humidity":82,"rain":0.0,"pressure":928.6,"uv_index":8.65,"wind_gusts":32.0,"aqi":160,"pm10":54.6,"pm2_5":53.7,"mosquito_risk":3,"arthritis_risk":5,"migraine_risk":7,"frizz_risk":1,"updated_at":"2026-03-03T22:24:14.215540+05:30"},{"city":"Coimbatore","state":"Tamil Nadu","latitude":11.0168,"longitude":76.9558,"temp":24.4,"humidity":62,"rain":0.0,"pressure":965.0,"uv_index":9.15,"wind_gusts":43.6,"aqi":123,"pm10":41.0,"pm2_5":40.3,"mosquito_risk":3,"arthritis_risk":5,"migraine_risk":7,"frizz_risk":1,"updated_at":"2026-03-03T22:24:14.215568+05:30"},{"city":"Madurai","state":"Tamil Nadu","latitude":9.9252,"longitude":78.1198,"temp":25.2,"humidity":66,"rain":0.0,"pressure":996.8,"uv_index":9.1,"wind_gusts":33.8,"aqi":106,"pm10":31.3,"pm2_5":30.7,"mosquito_risk":7,"arthritis_risk":5,"migraine_risk":7,"frizz_risk":1,"updated_at":"2026-03-03T22:24:14.215578+05:30"},{"city":"Trichy","state":"Tamil Nadu","latitude":10.7905,"longitude":78.7047,"temp":25.3,"humidity":80,"rain":0.0,"pressure":1003.8,"uv_index":9.0,"wind_gusts":31.0,"aqi":104,"pm10":31.8,"pm2_5":30.9,"mosquito_risk":7,"arthritis_risk":5,"migraine_risk":4,"frizz_risk":1,"updated_at":"2026-03-03T22:24:14.215586+05:30"},{"city":"Salem","state":"Tamil Nadu","latitude":11.6643,"longitude":78.146,"temp":27.0,"humidity":55,"rain":0.0,"pressure":980.5,"uv_index":9.0,"wind_gusts":40.7,"aqi":130,"pm10":40.6,"pm2_5":39.7,"mosquito_risk":4,"arthritis_risk":5,"migraine_risk":7,"frizz_risk":1,"updated_at":"2026-03-03T22:24:14.215593+05:30"},{"city":"Tirunelveli","state":"Tamil Nadu","latitude":8.7139,"longitude":77.7567,"temp":25.2,"humidity":73,"rain":0.0,"pressure":1007.0,"uv_index":9.1,"wind_gusts":42.1,"aqi":96,"pm10":21.5,"pm2_5":20.8,"mosquito_risk":7,"arthritis_risk":5,"migraine_risk":4,"frizz_risk":1,"updated_at":"2026-03-03T22:24:14.215600+05:30"},{"city":"Vellore","state":"Tamil Nadu","latitude":12.9165,"longitude":79.1325,"temp":24.8,"humidity":69,"rain":0.0,"pressure":989.1,"uv_index":8.85,"wind_gusts":38.5,"aqi":138,"pm10":46.2,"pm2_5":44.7,"mosquito_risk":3,"arthritis_risk":5,"migraine_risk":7,"frizz_risk":1,"updated_at":"2026-03-03T22:24:14.215608+05:30"},{"city":"Erode","state":"Tamil Nadu","latitude":11.341,"longitude":77.7172,"temp":27.4,"humidity":49,"rain":0.0,"pressure":992.3,"uv_index":9.05,"wind_gusts":33.5,"aqi":128,"pm10":36.8,"pm2_5":36.2,"mosquito_risk":4,"arthritis_risk":5,"migraine_risk":7,"frizz_risk":0,"updated_at":"2026-03-03T22:24:14.215615+05:30"},{"city":"Kochi","state":"Kerala","latitude":9.9312,"longitude":76.2673,"temp":27.3,"humidity":83,"rain":0.0,"pressure":1012.0,"uv_index":8.95,"wind_gusts":33.1,"aqi":103,"pm10":28.3,"pm2_5":27.1,"mosquito_risk":7,"arthritis_risk":0,"migraine_risk":4,"frizz_risk":1,"updated_at":"2026-03-03T22:24:14.215622+05:30"},{"city":"Thiruvananthapuram","state":"Kerala","latitude":8.5241,"longitude":76.9366,"temp":28.4,"humidity":69,"rain":0.0,"pressure":1011.2,"uv_index":8.95,"wind_gusts":27.0,"aqi":136,"pm10":33.6,"pm2_5":31.0,"mosquito_risk":7,"arthritis_risk":0,"migraine_risk":4,"frizz_risk":1,"updated_at":"2026-03-03T22:24:14.215629+05:30"},{"city":"Kozhikode","state":"Kerala","latitude":11.2588,"longitude":75.7804,"temp":28.8,"humidity":80,"rain":0.0,"pressure":1010.6,"uv_index":8.85,"wind_gusts":36.4,"aqi":65,"pm10":27.9,"pm2_5":19.9,"mosquito_risk":7,"arthritis_risk":0,"migraine_risk":4,"frizz_risk":1,"updated_at":"2026-03-03T22:24:14.215637+05:30"},{"city":"Thrissur","state":"Kerala","latitude":10.5276,"longitude":76.2144,"temp":27.0,"humidity":84,"rain":0.0,"pressure":1010.2,"uv_index":8.9,"wind_gusts":38.9,"aqi":103,"pm10":33.5,"pm2_5":30.4,"mosquito_risk":7,"arthritis_risk":0,"migraine_risk":4,"frizz_risk":1,"updated_at":"2026-03-03T22:24:14.215644+05:30"},{"city":"Kannur","state":"Kerala","latitude":11.8745,"longitude":75.3704,"temp":28.0,"humidity":78,"rain":0.0,"pressure":1010.0,"uv_index":8.8,"wind_gusts":38.2,"aqi":64,"pm10":25.8,"pm2_5":19.4,"mosquito_risk":7,"arthritis_risk":0,"migraine_risk":4,"frizz_risk":1,"updated_at":"2026-03-03T22:24:14.215651+05:30"},{"city":"Patna","state":"Bihar","latitude":25.5941,"longitude":85.1376,"temp":23.9,"humidity":52,"rain":0.0,"pressure":1005.5,"uv_index":7.1,"wind_gusts":16.9,"aqi":147,"pm10":89.6,"pm2_5":64.7,"mosquito_risk":0,"arthritis_risk":5,"migraine_risk":4,"frizz_risk":0,"updated_at":"2026-03-03T22:24:14.215658+05:30"},{"city":"Gaya","state":"Bihar","latitude":24.7914,"longitude":85.0002,"temp":20.4,"humidity":53,"rain":0.0,"pressure":999.0,"uv_index":7.2,"wind_gusts":23.0,"aqi":104,"pm10":97.3,"pm2_5":58.7,"mosquito_risk":0,"arthritis_risk":5,"migraine_risk":7,"frizz_risk":0,"updated_at":"2026-03-03T22:24:14.215665+05:30"},{"city":"Muzaffarpur","state":"Bihar","latitude":26.1209,"longitude":85.3647,"temp":22.6,"humidity":52,"rain":0.0,"pressure":1005.5,"uv_index":7.05,"wind_gusts":10.4,"aqi":155,"pm10":109.2,"pm2_5":76.1,"mosquito_risk":0,"arthritis_risk":5,"migraine_risk":4,"frizz_risk":0,"updated_at":"2026-03-03T22:24:14.215671+05:30"},{"city":"Bhagalpur","state":"Bihar","latitude":25.2425,"longitude":87.0117,"temp":21.5,"humidity":55,"rain":0.0,"pressure":1006.4,"uv_index":7.15,"wind_gusts":13.0,"aqi":134,"pm10":119.0,"pm2_5":82.4,"mosquito_risk":0,"arthritis_risk":5,"migraine_risk":4,"frizz_risk":0,"updated_at":"2026-03-03T22:24:14.215678+05:30"},{"city":"Ranchi","state":"Jharkhand","latitude":23.3441,"longitude":85.3096,"temp":19.4,"humidity":49,"rain":0.0,"pressure":941.9,"uv_index":7.9,"wind_gusts":40.7,"aqi":101,"pm10":59.4,"pm2_5":33.1,"mosquito_risk":0,"arthritis_risk":5,"migraine_risk":7,"frizz_risk":0,"updated_at":"2026-03-03T22:24:14.215685+05:30"},{"city":"Jamshedpur","state":"Jharkhand","latitude":22.8046,"longitude":86.2029,"temp":23.3,"humidity":48,"rain":0.0,"pressure":995.0,"uv_index":7.75,"wind_gusts":14.4,"aqi":100,"pm10":67.3,"pm2_5":41.8,"mosquito_risk":0,"arthritis_risk":5,"migraine_risk":7,"frizz_risk":0,"updated_at":"2026-03-03T22:24:14.215692+05:30"},{"city":"Dhanbad","state":"Jharkhand","latitude":23.7957,"longitude":86.4304,"temp":23.9,"humidity":29,"rain":0.0,"pressure":984.6,"uv_index":7.65,"wind_gusts":27.7,"aqi":107,"pm10":59.6,"pm2_5":40.4,"mosquito_risk":0,"arthritis_risk":5,"migraine_risk":7,"frizz_risk":0,"updated_at":"2026-03-03T22:24:14.215699+05:30"},{"city":"Bokaro","state":"Jharkhand","latitude":23.6693,"longitude":86.1511,"temp":22.4,"humidity":36,"rain":0.0,"pressure":989.0,"uv_index":7.65,"wind_gusts":32.8,"aqi":111,"pm10":66.6,"pm2_5":43.9,"mosquito_risk":0,"arthritis_risk":5,"migraine_risk":7,"frizz_risk":0,"updated_at":"2026-03-03T22:24:14.215706+05:30"},{"city":"Bhubaneswar","state":"Odisha","latitude":20.2961,"longitude":85.8245,"temp":24.9,"humidity":91,"rain":0.0,"pressure":1007.1,"uv_index":8.1,"wind_gusts":25.2,"aqi":150,"pm10":48.8,"pm2_5":42.5,"mosquito_risk":3,"arthritis_risk":5,"migraine_risk":4,"frizz_risk":1,"updated_at":"2026-03-03T22:24:14.215713+05:30"},{"city":"Cuttack","state":"Odisha","latitude":20.4625,"longitude":85.8828,"temp":25.0,"humidity":80,"rain":0.0,"pressure":1009.2,"uv_index":8.1,"wind_gusts":26.3,"aqi":150,"pm10":48.8,"pm2_5":42.5,"mosquito_risk":7,"arthritis_risk":0,"migraine_risk":4,"frizz_risk":1,"updated_at":"2026-03-03T22:24:14.215721+05:30"},{"city":"Rourkela","state":"Odisha","latitude":22.2604,"longitude":84.8536,"temp":25.6,"humidity":45,"rain":0.0,"pressure":989.4,"uv_index":7.7,"wind_gusts":27.4,"aqi":87,"pm10":70.1,"pm2_5":43.7,"mosquito_risk":4,"arthritis_risk":5,"migraine_risk":7,"frizz_risk":0,"updated_at":"2026-03-03T22:24:14.215727+05:30"},{"city":"Raipur","state":"Chhattisgarh","latitude":21.2514,"longitude":81.6296,"temp":26.2,"humidity":39,"rain":0.0,"pressure":978.8,"uv_index":7.8,"wind_gusts":14.4,"aqi":127,"pm10":68.5,"pm2_5":58.8,"mosquito_risk":4,"arthritis_risk":5,"migraine_risk":7,"frizz_risk":0,"updated_at":"2026-03-03T22:24:14.215734+05:30"},{"city":"Bhilai","state":"Chhattisgarh","latitude":21.1938,"longitude":81.3509,"temp":26.1,"humidity":41,"rain":0.0,"pressure":979.2,"uv_index":7.8,"wind_gusts":13.7,"aqi":124,"pm10":61.5,"pm2_5":54.1,"mosquito_risk":4,"arthritis_risk":5,"migraine_risk":7,"frizz_risk":0,"updated_at":"2026-03-03T22:24:14.215741+05:30"},{"city":"Guwahati","state":"Assam","latitude":26.1158,"longitude":91.7086,"temp":24.0,"humidity":64,"rain":0.0,"pressure":1006.0,"uv_index":7.1,"wind_gusts":22.0,"aqi":155,"pm10":97.1,"pm2_5":84.3,"mosquito_risk":3,"arthritis_risk":5,"migraine_risk":4,"frizz_risk":1,"updated_at":"2026-03-03T22:24:14.215747+05:30"},{"city":"Agartala","state":"Tripura","latitude":23.8315,"longitude":91.2868,"temp":21.9,"humidity":79,"rain":0.0,"pressure":1010.3,"uv_index":7.45,"wind_gusts":15.8,"aqi":174,"pm10":103.8,"pm2_5":93.4,"mosquito_risk":3,"arthritis_risk":0,"migraine_risk":4,"frizz_risk":1,"updated_at":"2026-03-03T22:24:14.215753+05:30"},{"city":"Shillong","state":"Meghalaya","latitude":25.5788,"longitude":91.8933,"temp":10.6,"humidity":85,"rain":0.0,"pressure":857.5,"uv_index":7.45,"wind_gusts":28.4,"aqi":154,"pm10":99.7,"pm2_5":85.2,"mosquito_risk":3,"arthritis_risk":10,"migraine_risk":7,"frizz_risk":0,"updated_at":"2026-03-03T22:24:14.215760+05:30"},{"city":"Imphal","state":"Manipur","latitude":24.817,"longitude":93.9368,"temp":14.4,"humidity":76,"rain":0.0,"pressure":925.7,"uv_index":7.65,"wind_gusts":32.8,"aqi":157,"pm10":81.3,"pm2_5":72.9,"mosquito_risk":3,"arthritis_risk":5,"migraine_risk":7,"frizz_risk":0,"updated_at":"2026-03-03T22:24:14.215767+05:30"},{"city":"Aizawl","state":"Mizoram","latitude":23.7271,"longitude":92.7176,"temp":16.6,"humidity":63,"rain":0.0,"pressure":894.6,"uv_index":7.65,"wind_gusts":32.8,"aqi":159,"pm10":75.0,"pm2_5":63.6,"mosquito_risk":3,"arthritis_risk":5,"migraine_risk":7,"frizz_risk":0,"updated_at":"2026-03-03T22:24:14.215773+05:30"},{"city":"Kohima","state":"Nagaland","latitude":25.6701,"longitude":94.1077,"temp":12.7,"humidity":78,"rain":0.0,"pressure":856.4,"uv_index":6.65,"wind_gusts":45.0,"aqi":152,"pm10":85.7,"pm2_5":71.0,"mosquito_risk":3,"arthritis_risk":5,"migraine_risk":7,"frizz_risk":0,"updated_at":"2026-03-03T22:24:14.215780+05:30"},{"city":"Gangtok","state":"Sikkim","latitude":27.3314,"longitude":88.6138,"temp":11.5,"humidity":91,"rain":0.0,"pressure":839.2,"uv_index":7.4,"wind_gusts":19.4,"aqi":154,"pm10":107.8,"pm2_5":81.3,"mosquito_risk":3,"arthritis_risk":10,"migraine_risk":7,"frizz_risk":0,"updated_at":"2026-03-03T22:24:14.215786+05:30"},{"city":"Siliguri","state":"West Bengal","latitude":26.7271,"longitude":88.3953,"temp":19.6,"humidity":67,"rain":0.0,"pressure":999.1,"uv_index":7.1,"wind_gusts":20.2,"aqi":164,"pm10":117.6,"pm2_5":82.0,"mosquito_risk":3,"arthritis_risk":5,"migraine_risk":7,"frizz_risk":0,"updated_at":"2026-03-03T22:24:17.472515+05:30"},{"city":"Durgapur","state":"West Bengal","latitude":23.5204,"longitude":87.3119,"temp":24.8,"humidity":49,"rain":0.0,"pressure":999.9,"uv_index":7.65,"wind_gusts":26.6,"aqi":89,"pm10":54.1,"pm2_5":30.9,"mosquito_risk":0,"arthritis_risk":5,"migraine_risk":7,"frizz_risk":0,"updated_at":"2026-03-03T22:24:17.472544+05:30"},{"city":"Asansol","state":"West Bengal","latitude":23.6739,"longitude":86.9524,"temp":24.7,"humidity":48,"rain":0.0,"pressure":998.5,"uv_index":7.65,"wind_gusts":22.7,"aqi":87,"pm10":48.7,"pm2_5":28.9,"mosquito_risk":0,"arthritis_risk":5,"migraine_risk":7,"frizz_risk":0,"updated_at":"2026-03-03T22:24:17.472554+05:30"},{"city":"Pondicherry","state":"Puducherry","latitude":11.9139,"longitude":79.8145,"temp":23.5,"humidity":89,"rain":0.0,"pressure":1012.8,"uv_index":8.85,"wind_gusts":28.1,"aqi":102,"pm10":28.6,"pm2_5":25.1,"mosquito_risk":3,"arthritis_risk":0,"migraine_risk":4,"frizz_risk":1,"updated_at":"2026-03-03T22:24:17.472563+05:30"},{"city":"Port Blair","state":"Andaman and Nicobar Islands","latitude":11.6234,"longitude":92.7265,"temp":27.6,"humidity":72,"rain":0.0,"pressure":1010.2,"uv_index":8.8,"wind_gusts":15.5,"aqi":83,"pm10":33.1,"pm2_5":24.5,"mosquito_risk":7,"arthritis_risk":0,"migraine_risk":4,"frizz_risk":1,"updated_at":"2026-03-03T22:24:17.472571+05:30"},{"city":"Haridwar","state":"Uttarakhand","latitude":29.9457,"longitude":78.1642,"temp":22.0,"humidity":49,"rain":0.0,"pressure":978.3,"uv_index":5.55,"wind_gusts":22.3,"aqi":135,"pm10":119.2,"pm2_5":62.2,"mosquito_risk":0,"arthritis_risk":5,"migraine_risk":3,"frizz_risk":0,"updated_at":"2026-03-03T22:24:17.472578+05:30"},{"city":"Rishikesh","state":"Uttarakhand","latitude":30.0869,"longitude":78.2676,"temp":18.6,"humidity":71,"rain":0.0,"pressure":970.8,"uv_index":5.6,"wind_gusts":23.8,"aqi":154,"pm10":66.6,"pm2_5":47.0,"mosquito_risk":3,"arthritis_risk":5,"migraine_risk":3,"frizz_risk":0,"updated_at":"2026-03-03T22:24:17.472585+05:30"},{"city":"Nainital","state":"Uttarakhand","latitude":29.3919,"longitude":79.4542,"temp":15.7,"humidity":59,"rain":0.0,"pressure":808.0,"uv_index":6.4,"wind_gusts":54.7,"aqi":153,"pm10":71.5,"pm2_5":59.5,"mosquito_risk":0,"arthritis_risk":5,"migraine_risk":7,"frizz_risk":0,"updated_at":"2026-03-03T22:24:17.472593+05:30"},{"city":"Mussoorie","state":"Uttarakhand","latitude":30.4599,"longitude":78.0664,"temp":14.3,"humidity":74,"rain":0.0,"pressure":804.1,"uv_index":5.95,"wind_gusts":41.8,"aqi":152,"pm10":67.5,"pm2_5":50.5,"mosquito_risk":3,"arthritis_risk":5,"migraine_risk":3,"frizz_risk":0,"updated_at":"2026-03-03T22:24:17.472600+05:30"},{"city":"Dharamshala","state":"Himachal Pradesh","latitude":32.219,"longitude":76.3234,"temp":19.5,"humidity":40,"rain":0.0,"pressure":872.3,"uv_index":6.2,"wind_gusts":23.4,"aqi":109,"pm10":26.7,"pm2_5":21.8,"mosquito_risk":0,"arthritis_risk":5,"migraine_risk":7,"frizz_risk":0,"updated_at":"2026-03-03T22:24:17.472607+05:30"},{"city":"Dalhousie","state":"Himachal Pradesh","latitude":32.5387,"longitude":75.971,"temp":15.1,"humidity":55,"rain":0.0,"pressure":805.7,"uv_index":6.4,"wind_gusts":19.8,"aqi":105,"pm10":57.9,"pm2_5":53.4,"mosquito_risk":0,"arthritis_risk":5,"migraine_risk":7,"frizz_risk":0,"updated_at":"2026-03-03T22:24:17.472615+05:30"},{"city":"Patiala","state":"Punjab","latitude":30.3398,"longitude":76.3869,"temp":19.1,"humidity":70,"rain":0.0,"pressure":982.3,"uv_index":5.6,"wind_gusts":34.2,"aqi":256,"pm10":285.9,"pm2_5":75.0,"mosquito_risk":3,"arthritis_risk":5,"migraine_risk":3,"frizz_risk":0,"updated_at":"2026-03-03T22:24:17.472622+05:30"},{"city":"Bhatinda","state":"Punjab","latitude":30.211,"longitude":74.9455,"temp":21.1,"humidity":68,"rain":0.0,"pressure":987.9,"uv_index":6.25,"wind_gusts":28.1,"aqi":136,"pm10":81.7,"pm2_5":61.0,"mosquito_risk":3,"arthritis_risk":5,"migraine_risk":7,"frizz_risk":0,"updated_at":"2026-03-03T22:24:17.472629+05:30"},{"city":"Rohtak","state":"Haryana","latitude":28.8955,"longitude":76.6066,"temp":19.4,"humidity":70,"rain":0.0,"pressure":986.1,"uv_index":5.8,"wind_gusts":33.8,"aqi":471,"pm10":583.0,"pm2_5":102.7,"mosquito_risk":3,"arthritis_risk":5,"migraine_risk":3,"frizz_risk":0,"updated_at":"2026-03-03T22:24:17.472636+05:30"},{"city":"Panipat","state":"Haryana","latitude":29.3909,"longitude":76.9635,"temp":19.0,"humidity":75,"rain":0.0,"pressure":984.5,"uv_index":5.6,"wind_gusts":37.4,"aqi":1068,"pm10":1035.6,"pm2_5":151.8,"mosquito_risk":3,"arthritis_risk":5,"migraine_risk":3,"frizz_risk":0,"updated_at":"2026-03-03T22:24:17.472643+05:30"},{"city":"Mathura","state":"Uttar Pradesh","latitude":27.4924,"longitude":77.6737,"temp":24.6,"humidity":39,"rain":0.0,"pressure":991.6,"uv_index":6.1,"wind_gusts":29.9,"aqi":506,"pm10":502.9,"pm2_5":81.3,"mosquito_risk":0,"arthritis_risk":5,"migraine_risk":7,"frizz_risk":0,"updated_at":"2026-03-03T22:24:17.472650+05:30"},{"city":"Vrindavan","state":"Uttar Pradesh","latitude":27.5823,"longitude":77.7027,"temp":20.1,"humidity":58,"rain":0.0,"pressure":991.8,"uv_index":6.05,"wind_gusts":32.4,"aqi":506,"pm10":502.9,"pm2_5":81.3,"mosquito_risk":0,"arthritis_risk":5,"migraine_risk":7,"frizz_risk":0,"updated_at":"2026-03-03T22:24:17.472657+05:30"},{"city":"Ayodhya","state":"Uttar Pradesh","latitude":26.7922,"longitude":82.1998,"temp":21.4,"humidity":69,"rain":0.0,"pressure":1000.2,"uv_index":6.45,"wind_gusts":25.6,"aqi":149,"pm10":105.9,"pm2_5":71.0,"mosquito_risk":3,"arthritis_risk":5,"migraine_risk":4,"frizz_risk":0,"updated_at":"2026-03-03T22:24:17.472663+05:30"},{"city":"Ratlam","state":"Madhya Pradesh","latitude":23.3315,"longitude":75.0367,"temp":22.5,"humidity":68,"rain":0.0,"pressure":958.5,"uv_index":7.25,"wind_gusts":13.0,"aqi":93,"pm10":40.7,"pm2_5":37.1,"mosquito_risk":3,"arthritis_risk":5,"migraine_risk":7,"frizz_risk":1,"updated_at":"2026-03-03T22:24:17.472669+05:30"},{"city":"Sagar","state":"Madhya Pradesh","latitude":23.8388,"longitude":78.7378,"temp":24.9,"humidity":46,"rain":0.0,"pressure":954.6,"uv_index":7.2,"wind_gusts":25.6,"aqi":87,"pm10":40.3,"pm2_5":26.0,"mosquito_risk":0,"arthritis_risk":5,"migraine_risk":7,"frizz_risk":0,"updated_at":"2026-03-03T22:24:17.472674+05:30"},{"city":"Satna","state":"Madhya Pradesh","latitude":24.6005,"longitude":80.8322,"temp":23.4,"humidity":47,"rain":0.0,"pressure":976.1,"uv_index":7.2,"wind_gusts":30.2,"aqi":77,"pm10":40.4,"pm2_5":23.5,"mosquito_risk":0,"arthritis_risk":5,"migraine_risk":7,"frizz_risk":0,"updated_at":"2026-03-03T22:24:17.472680+05:30"},{"city":"Akola","state":"Maharashtra","latitude":20.7002,"longitude":77.0082,"temp":26.3,"humidity":42,"rain":0.0,"pressure":978.7,"uv_index":7.75,"wind_gusts":19.1,"aqi":98,"pm10":36.7,"pm2_5":34.0,"mosquito_risk":4,"arthritis_risk":5,"migraine_risk":7,"frizz_risk":0,"updated_at":"2026-03-03T22:24:17.472686+05:30"},{"city":"Amravati","state":"Maharashtra","latitude":20.9374,"longitude":77.7796,"temp":25.9,"humidity":57,"rain":0.0,"pressure":971.1,"uv_index":7.75,"wind_gusts":16.6,"aqi":99,"pm10":38.8,"pm2_5":35.2,"mosquito_risk":4,"arthritis_risk":5,"migraine_risk":7,"frizz_risk":1,"updated_at":"2026-03-03T22:24:17.472692+05:30"},{"city":"Latur","state":"Maharashtra","latitude":18.4088,"longitude":76.5604,"temp":25.4,"humidity":55,"rain":0.0,"pressure":943.1,"uv_index":8.2,"wind_gusts":31.0,"aqi":130,"pm10":28.6,"pm2_5":27.2,"mosquito_risk":4,"arthritis_risk":5,"migraine_risk":7,"frizz_risk":0,"updated_at":"2026-03-03T22:24:17.472698+05:30"},{"city":"Nanded","state":"Maharashtra","latitude":19.1383,"longitude":77.3091,"temp":27.8,"humidity":49,"rain":0.0,"pressure":972.0,"uv_index":8.0,"wind_gusts":19.4,"aqi":90,"pm10":31.7,"pm2_5":29.7,"mosquito_risk":4,"arthritis_risk":5,"migraine_risk":7,"frizz_risk":1,"updated_at":"2026-03-03T22:24:17.472703+05:30"},{"city":"Gulbarga","state":"Karnataka","latitude":17.3297,"longitude":76.8343,"temp":27.7,"humidity":46,"rain":0.0,"pressure":961.8,"uv_index":8.3,"wind_gusts":17.3,"aqi":138,"pm10":27.9,"pm2_5":27.5,"mosquito_risk":4,"arthritis_risk":5,"migraine_risk":7,"frizz_risk":0,"updated_at":"2026-03-03T22:24:17.472709+05:30"},{"city":"Bidar","state":"Karnataka","latitude":17.9104,"longitude":77.5199,"temp":25.3,"humidity":45,"rain":0.0,"pressure":938.7,"uv_index":8.25,"wind_gusts":19.8,"aqi":105,"pm10":34.8,"pm2_5":33.4,"mosquito_risk":4,"arthritis_risk":5,"migraine_risk":7,"frizz_risk":0,"updated_at":"2026-03-03T22:24:17.472714+05:30"},{"city":"Hospet","state":"Karnataka","latitude":15.2689,"longitude":76.3909,"temp":29.7,"humidity":42,"rain":0.0,"pressure":958.6,"uv_index":8.6,"wind_gusts":25.6,"aqi":144,"pm10":42.7,"pm2_5":42.0,"mosquito_risk":4,"arthritis_risk":5,"migraine_risk":7,"frizz_risk":0,"updated_at":"2026-03-03T22:24:17.472720+05:30"},{"city":"Tirupur","state":"Tamil Nadu","latitude":11.1085,"longitude":77.3411,"temp":27.5,"humidity":41,"rain":0.0,"pressure":978.5,"uv_index":9.15,"wind_gusts":33.8,"aqi":130,"pm10":42.7,"pm2_5":41.9,"mosquito_risk":4,"arthritis_risk":5,"migraine_risk":7,"frizz_risk":0,"updated_at":"2026-03-03T22:24:17.472725+05:30"},{"city":"Alappuzha","state":"Kerala","latitude":9.4981,"longitude":76.3388,"temp":27.2,"humidity":81,"rain":0.0,"pressure":1012.2,"uv_index":8.95,"wind_gusts":30.6,"aqi":96,"pm10":37.4,"pm2_5":33.8,"mosquito_risk":7,"arthritis_risk":0,"migraine_risk":4,"frizz_risk":1,"updated_at":"2026-03-03T22:24:17.472730+05:30"},{"city":"Munnar","state":"Kerala","latitude":10.0889,"longitude":77.0595,"temp":19.7,"humidity":64,"rain":0.0,"pressure":858.5,"uv_index":9.45,"wind_gusts":20.9,"aqi":102,"pm10":42.0,"pm2_5":40.9,"mosquito_risk":3,"arthritis_risk":5,"migraine_risk":7,"frizz_risk":0,"updated_at":"2026-03-03T22:24:17.472736+05:30"},{"city":"Silchar","state":"Assam","latitude":24.8333,"longitude":92.7789,"temp":22.4,"humidity":73,"rain":0.0,"pressure":1008.9,"uv_index":7.4,"wind_gusts":20.2,"aqi":162,"pm10":103.1,"pm2_5":88.0,"mosquito_risk":3,"arthritis_risk":0,"migraine_risk":4,"frizz_risk":1,"updated_at":"2026-03-03T22:24:17.472741+05:30"},{"city":"Dibrugarh","state":"Assam","latitude":27.4728,"longitude":94.912,"temp":22.7,"humidity":81,"rain":0.0,"pressure":999.7,"uv_index":7.1,"wind_gusts":11.2,"aqi":144,"pm10":77.1,"pm2_5":62.4,"mosquito_risk":3,"arthritis_risk":5,"migraine_risk":7,"frizz_risk":1,"updated_at":"2026-03-03T22:24:17.472747+05:30"}]