[{"city":"Delhi","state":"Delhi","latitude":28.6139,"longitude":77.209,"temp":29.6,"humidity":46,"rain":0.0,"pressure":983.2,"uv_index":5.85,"wind_gusts":34.6,"aqi":418,"pm10":815.8,"pm2_5":129.0,"mosquito_risk":4,"arthritis_risk":5,"migraine_risk":3,"frizz_risk":1,"updated_at":"2026-03-05T18:37:46.047611+05:30"},{"city":"Mumbai","state":"Maharashtra","latitude":19.076,"longitude":72.8777,"temp":29.7,"humidity":54,"rain":0.0,"pressure":1008.0,"uv_index":7.4,"wind_gusts":26.6,"aqi":185,"pm10":36.8,"pm2_5":34.9,"mosquito_risk":4,"arthritis_risk":0,"migraine_risk":4,"frizz_risk":1,"updated_at":"2026-03-05T18:37:46.047657+05:30"},{"city":"Bangalore","state":"Karnataka","latitude":12.9716,"longitude":77.5946,"temp":28.6,"humidity":27,"rain":0.0,"pressure":911.8,"uv_index":9.15,"wind_gusts":31.3,"aqi":152,"pm10":30.5,"pm2_5":29.1,"mosquito_risk":4,"arthritis_risk":5,"migraine_risk":7,"frizz_risk":0,"updated_at":"2026-03-05T18:37:46.047672+05:30"},{"city":"Hyderabad","state":"Telangana","latitude":17.385,"longitude":78.4867,"temp":32.2,"humidity":28,"rain":0.0,"pressure":953.1,"uv_index":8.45,"wind_gusts":27.4,"aqi":159,"pm10":24.6,"pm2_5":23.0,"mosquito_risk":0,"arthritis_risk":5,"migraine_risk":7,"frizz_risk":0,"updated_at":"2026-03-05T18:37:46.047682+05:30"},{"city":"Chennai","state":"Tamil Nadu","latitude":13.0827,"longitude":80.2707,"temp":28.5,"humidity":64,"rain":0.0,"pressure":1007.0,"uv_index":8.85,"wind_gusts":31.3,"aqi":100,"pm10":29.0,"pm2_5":25.0,"mosquito_risk":7,"arthritis_risk":5,"migraine_risk":4,"frizz_risk":1,"updated_at":"2026-03-05T18:37:46.047690+05:30"},{"city":"Kolkata","state":"West Bengal","latitude":22.5726,"longitude":88.3639,"temp":27.2,"humidity":52,"rain":0.0,"pressure":1005.5,"uv_index":7.8,"wind_gusts":10.8,"aqi":215,"pm10":109.7,"pm2_5":93.6,"mosquito_risk":4,"arthritis_risk":5,"migraine_risk":4,"frizz_risk":1,"updated_at":"2026-03-05T18:37:46.047698+05:30"},{"city":"Pune","state":"Maharashtra","latitude":18.5204,"longitude":73.8567,"temp":34.3,"humidity":19,"rain":0.0,"pressure":948.4,"uv_index":7.95,"wind_gusts":31.3,"aqi":123,"pm10":16.1,"pm2_5":14.9,"mosquito_risk":0,"arthritis_risk":5,"migraine_risk":7,"frizz_risk":0,"updated_at":"2026-03-05T18:37:46.047708+05:30"},{"city":"Ahmedabad","state":"Gujarat","latitude":23.0225,"longitude":72.5714,"temp":33.0,"humidity":17,"rain":0.0,"pressure":1003.7,"uv_index":7.15,"wind_gusts":28.4,"aqi":93,"pm10":23.5,"pm2_5":22.6,"mosquito_risk":0,"arthritis_risk":5,"migraine_risk":4,"frizz_risk":0,"updated_at":"2026-03-05T18:37:46.047715+05:30"},{"city":"Jaipur","state":"Rajasthan","latitude":26.9124,"longitude":75.7873,"temp":32.4,"humidity":20,"rain":0.0,"pressure":961.2,"uv_index":6.65,"wind_gusts":34.9,"aqi":94,"pm10":148.1,"pm2_5":32.1,"mosquito_risk":0,"arthritis_risk":5,"migraine_risk":7,"frizz_risk":0,"updated_at":"2026-03-05T18:37:46.047721+05:30"},{"city":"Lucknow","state":"Uttar Pradesh","latitude":26.8467,"longitude":80.9462,"temp":28.9,"humidity":53,"rain":0.0,"pressure":993.4,"uv_index":6.4,"wind_gusts":15.1,"aqi":165,"pm10":199.8,"pm2_5":74.7,"mosquito_risk":4,"arthritis_risk":5,"migraine_risk":7,"frizz_risk":1,"updated_at":"2026-03-05T18:37:46.047727+05:30"},{"city":"Kanpur","state":"Uttar Pradesh","latitude":26.4499,"longitude":80.3319,"temp":27.7,"humidity":49,"rain":0.0,"pressure":991.5,"uv_index":6.4,"wind_gusts":28.4,"aqi":176,"pm10":279.4,"pm2_5":74.5,"mosquito_risk":4,"arthritis_risk":5,"migraine_risk":7,"frizz_risk":0,"updated_at":"2026-03-05T18:37:46.047734+05:30"},{"city":"Chandigarh","state":"Chandigarh","latitude":30.7333,"longitude":76.7794,"temp":25.4,"humidity":58,"rain":0.0,"pressure":969.0,"uv_index":5.75,"wind_gusts":31.0,"aqi":122,"pm10":48.8,"pm2_5":40.9,"mosquito_risk":4,"arthritis_risk":5,"migraine_risk":3,"frizz_risk":1,"updated_at":"2026-03-05T18:37:46.047740+05:30"},{"city":"Srinagar","state":"Jammu and Kashmir","latitude":34.0837,"longitude":74.7973,"temp":19.5,"humidity":57,"rain":0.0,"pressure":843.9,"uv_index":6.75,"wind_gusts":14.4,"aqi":151,"pm10":50.6,"pm2_5":37.4,"mosquito_risk":0,"arthritis_risk":5,"migraine_risk":7,"frizz_risk":0,"updated_at":"2026-03-05T18:37:46.047746+05:30"},{"city":"Jammu","state":"Jammu and Kashmir","latitude":32.7266,"longitude":74.857,"temp":27.2,"humidity":62,"rain":0.0,"pressure":973.1,"uv_index":6.4,"wind_gusts":23.8,"aqi":104,"pm10":62.6,"pm2_5":41.2,"mosquito_risk":7,"arthritis_risk":5,"migraine_risk":7,"frizz_risk":1,"updated_at":"2026-03-05T18:37:46.047753+05:30"},{"city":"Amritsar","state":"Punjab","latitude":31.634,"longitude":74.8723,"temp":25.9,"humidity":60,"rain":0.0,"pressure":981.4,"uv_index":6.35,"wind_gusts":22.7,"aqi":147,"pm10":50.2,"pm2_5":33.8,"mosquito_risk":4,"arthritis_risk":5,"migraine_risk":7,"frizz_risk":1,"updated_at":"2026-03-05T18:37:46.047758+05:30"},{"city":"Ludhiana","state":"Punjab","latitude":30.901,"longitude":75.8573,"temp":27.8,"humidity":57,"rain":0.0,"pressure":979.5,"uv_index":6.0,"wind_gusts":25.6,"aqi":156,"pm10":115.3,"pm2_5":54.7,"mosquito_risk":4,"arthritis_risk":5,"migraine_risk":3,"frizz_risk":1,"updated_at":"2026-03-05T18:37:46.047764+05:30"},{"city":"Jalandhar","state":"Punjab","latitude":31.326,"longitude":75.5762,"temp":27.1,"humidity":58,"rain":0.0,"pressure":980.5,"uv_index":6.2,"wind_gusts":24.1,"aqi":156,"pm10":75.9,"pm2_5":42.7,"mosquito_risk":4,"arthritis_risk":5,"migraine_risk":7,"frizz_risk":1,"updated_at":"2026-03-05T18:37:46.047771+05:30"},{"city":"Dehradun","state":"Uttarakhand","latitude":30.6284,"longitude":78.0322,"temp":17.6,"humidity":84,"rain":0.0,"pressure":830.6,"uv_index":6.15,"wind_gusts":31.7,"aqi":84,"pm10":32.2,"pm2_5":22.8,"mosquito_risk":3,"arthritis_risk":10,"migraine_risk":7,"frizz_risk":0,"updated_at":"2026-03-05T18:37:46.047777+05:30"},{"city":"Shimla","state":"Himachal Pradesh","latitude":31.1048,"longitude":77.1734,"temp":18.2,"humidity":51,"rain":0.0,"pressure":787.0,"uv_index":6.2,"wind_gusts":55.1,"aqi":65,"pm10":30.7,"pm2_5":18.6,"mosquito_risk":0,"arthritis_risk":5,"migraine_risk":7,"frizz_risk":0,"updated_at":"2026-03-05T18:37:46.047784+05:30"},{"city":"Manali","state":"Himachal Pradesh","latitude":32.2396,"longitude":77.1887,"temp":22.0,"humidity":48,"rain":0.0,"pressure":824.0,"uv_index":7.8,"wind_gusts":36.7,"aqi":100,"pm10":25.1,"pm2_5":14.7,"mosquito_risk":0,"arthritis_risk":5,"migraine_risk":7,"frizz_risk":0,"updated_at":"2026-03-05T18:37:46.047790+05:30"},{"city":"Gurgaon","state":"Haryana","latitude":28.4595,"longitude":77.0266,"temp":27.1,"humidity":55,"rain":0.0,"pressure":981.9,"uv_index":5.95,"wind_gusts":33.5,"aqi":1504,"pm10":1866.4,"pm2_5":229.1,"mosquito_risk":4,"arthritis_risk":5,"migraine_risk":3,"frizz_risk":1,"updated_at":"2026-03-05T18:37:46.047796+05:30"},{"city":"Noida","state":"Uttar Pradesh","latitude":28.5355,"longitude":77.391,"temp":29.8,"humidity":44,"rain":0.0,"pressure":984.8,"uv_index":5.85,"wind_gusts":34.6,"aqi":1504,"pm10":1866.4,"pm2_5":229.1,"mosquito_risk":4,"arthritis_risk":5,"migraine_risk":3,"frizz_risk":1,"updated_at":"2026-03-05T18:37:46.047801+05:30"},{"city":"Ghaziabad","state":"Uttar Pradesh","latitude":28.6692,"longitude":77.4538,"temp":29.0,"humidity":49,"rain":0.0,"pressure":982.8,"uv_index":5.8,"wind_gusts":31.7,"aqi":282,"pm10":627.7,"pm2_5":111.3,"mosquito_risk":4,"arthritis_risk":5,"migraine_risk":3,"frizz_risk":1,"updated_at":"2026-03-05T18:37:46.047806+05:30"},{"city":"Faridabad","state":"Haryana","latitude":28.4089,"longitude":77.3178,"temp":28.4,"humidity":47,"rain":0.0,"pressure":984.1,"uv_index":5.9,"wind_gusts":33.1,"aqi":1504,"pm10":1866.4,"pm2_5":229.1,"mosquito_risk":4,"arthritis_risk":5,"migraine_risk":3,"frizz_risk":0,"updated_at":"2026-03-05T18:37:46.047812+05:30"},{"city":"Meerut","state":"Uttar Pradesh","latitude":28.9845,"longitude":77.7064,"temp":27.5,"humidity":54,"rain":0.0,"pressure":981.2,"uv_index":5.7,"wind_gusts":30.6,"aqi":282,"pm10":627.7,"pm2_5":111.3,"mosquito_risk":4,"arthritis_risk":5,"migraine_risk":3,"frizz_risk":1,"updated_at":"2026-03-05T18:37:46.047817+05:30"},{"city":"Agra","state":"Uttar Pradesh","latitude":27.1767,"longitude":78.0081,"temp":28.4,"humidity":43,"rain":0.0,"pressure":988.0,"uv_index":6.2,"wind_gusts":37.8,"aqi":482,"pm10":832.6,"pm2_5":116.9,"mosquito_risk":4,"arthritis_risk":5,"migraine_risk":7,"frizz_risk":0,"updated_at":"2026-03-05T18:37:46.047823+05:30"},{"city":"Varanasi","state":"Uttar Pradesh","latitude":25.3176,"longitude":82.9739,"temp":26.7,"humidity":60,"rain":0.0,"pressure":997.8,"uv_index":7.05,"wind_gusts":16.6,"aqi":160,"pm10":183.0,"pm2_5":80.1,"mosquito_risk":4,"arthritis_risk":5,"migraine_risk":7,"frizz_risk":1,"updated_at":"2026-03-05T18:37:46.047830+05:30"},{"city":"Prayagraj","state":"Uttar Pradesh","latitude":25.4358,"longitude":81.8463,"temp":27.1,"humidity":60,"rain":0.0,"pressure":995.9,"uv_index":6.9,"wind_gusts":19.4,"aqi":156,"pm10":200.7,"pm2_5":75.9,"mosquito_risk":4,"arthritis_risk":5,"migraine_risk":7,"frizz_risk":1,"updated_at":"2026-03-05T18:37:46.047836+05:30"},{"city":"Gorakhpur","state":"Uttar Pradesh","latitude":26.7606,"longitude":83.3732,"temp":26.6,"humidity":59,"rain":0.0,"pressure":997.6,"uv_index":6.75,"wind_gusts":11.2,"aqi":186,"pm10":128.1,"pm2_5":83.8,"mosquito_risk":4,"arthritis_risk":5,"migraine_risk":7,"frizz_risk":1,"updated_at":"2026-03-05T18:37:46.047841+05:30"},{"city":"Bareilly","state":"Uttar Pradesh","latitude":28.367,"longitude":79.4304,"temp":26.6,"humidity":66,"rain":0.0,"pressure":986.9,"uv_index":6.05,"wind_gusts":14.0,"aqi":173,"pm10":145.8,"pm2_5":84.3,"mosquito_risk":7,"arthritis_risk":5,"migraine_risk":7,"frizz_risk":1,"updated_at":"2026-03-05T18:37:46.047846+05:30"},{"city":"Aligarh","state":"Uttar Pradesh","latitude":27.8974,"longitude":78.088,"temp":27.7,"humidity":48,"rain":0.0,"pressure":985.5,"uv_index":5.95,"wind_gusts":35.3,"aqi":723,"pm10":1117.6,"pm2_5":175.1,"mosquito_risk":4,"arthritis_risk":5,"migraine_risk":3,"frizz_risk":0,"updated_at":"2026-03-05T18:37:46.047852+05:30"},{"city":"Moradabad","state":"Uttar Pradesh","latitude":28.8386,"longitude":78.7733,"temp":26.7,"humidity":64,"rain":0.0,"pressure":983.6,"uv_index":5.85,"wind_gusts":18.0,"aqi":174,"pm10":132.2,"pm2_5":89.4,"mosquito_risk":7,"arthritis_risk":5,"migraine_risk":3,"frizz_risk":1,"updated_at":"2026-03-05T18:37:46.047859+05:30"},{"city":"Saharanpur","state":"Uttar Pradesh","latitude":29.9637,"longitude":77.546,"temp":26.2,"humidity":54,"rain":0.0,"pressure":975.1,"uv_index":5.5,"wind_gusts":23.4,"aqi":158,"pm10":297.1,"pm2_5":79.6,"mosquito_risk":4,"arthritis_risk":5,"migraine_risk":3,"frizz_risk":1,"updated_at":"2026-03-05T18:37:46.047864+05:30"},{"city":"Jhansi","state":"Uttar Pradesh","latitude":25.4484,"longitude":78.5685,"temp":30.4,"humidity":34,"rain":0.0,"pressure":978.3,"uv_index":6.85,"wind_gusts":35.3,"aqi":73,"pm10":31.8,"pm2_5":19.4,"mosquito_risk":0,"arthritis_risk":5,"migraine_risk":7,"frizz_risk":0,"updated_at":"2026-03-05T18:37:49.382517+05:30"},{"city":"Surat","state":"Gujarat","latitude":21.1702,"longitude":72.8311,"temp":32.4,"humidity":31,"rain":0.0,"pressure":1007.4,"uv_index":7.1,"wind_gusts":29.5,"aqi":110,"pm10":46.1,"pm2_5":44.4,"mosquito_risk":0,"arthritis_risk":5,"migraine_risk":4,"frizz_risk":0,"updated_at":"2026-03-05T18:37:49.382549+05:30"},{"city":"Vadodara","state":"Gujarat","latitude":22.3072,"longitude":73.1812,"temp":34.9,"humidity":21,"rain":0.0,"pressure":1005.0,"uv_index":7.2,"wind_gusts":24.5,"aqi":117,"pm10":29.8,"pm2_5":28.1,"mosquito_risk":0,"arthritis_risk":5,"migraine_risk":4,"frizz_risk":0,"updated_at":"2026-03-05T18:37:49.382559+05:30"},{"city":"Rajkot","state":"Gujarat","latitude":22.3039,"longitude":70.8022,"temp":31.6,"humidity":28,"rain":0.0,"pressure":996.8,"uv_index":7.05,"wind_gusts":36.4,"aqi":103,"pm10":20.0,"pm2_5":19.5,"mosquito_risk":0,"arthritis_risk":5,"migraine_risk":7,"frizz_risk":0,"updated_at":"2026-03-05T18:37:49.382569+05:30"},{"city":"Thane","state":"Maharashtra","latitude":19.2183,"longitude":72.9781,"temp":32.1,"humidity":32,"rain":0.0,"pressure":1007.6,"uv_index":7.4,"wind_gusts":41.4,"aqi":185,"pm10":36.8,"pm2_5":34.9,"mosquito_risk":0,"arthritis_risk":5,"migraine_risk":4,"frizz_risk":0,"updated_at":"2026-03-05T18:37:49.382597+05:30"},{"city":"Nagpur","state":"Maharashtra","latitude":21.1458,"longitude":79.0882,"temp":32.9,"humidity":23,"rain":0.0,"pressure":973.0,"uv_index":7.8,"wind_gusts":27.0,"aqi":98,"pm10":23.6,"pm2_5":15.8,"mosquito_risk":0,"arthritis_risk":5,"migraine_risk":7,"frizz_risk":0,"updated_at":"2026-03-05T18:37:49.382606+05:30"},{"city":"Nashik","state":"Maharashtra","latitude":19.9975,"longitude":73.7898,"temp":30.9,"humidity":23,"rain":0.0,"pressure":946.4,"uv_index":7.55,"wind_gusts":37.4,"aqi":107,"pm10":20.0,"pm2_5":17.6,"mosquito_risk":0,"arthritis_risk":5,"migraine_risk":7,"frizz_risk":0,"updated_at":"2026-03-05T18:37:49.382616+05:30"},{"city":"Aurangabad","state":"Maharashtra","latitude":19.8762,"longitude":75.3433,"temp":31.6,"humidity":20,"rain":0.0,"pressure":945.0,"uv_index":8.1,"wind_gusts":30.2,"aqi":113,"pm10":19.8,"pm2_5":17.8,"mosquito_risk":0,"arthritis_risk":5,"migraine_risk":7,"frizz_risk":0,"updated_at":"2026-03-05T18:37:49.382624+05:30"},{"city":"Solapur","state":"Maharashtra","latitude":17.6599,"longitude":75.9064,"temp":31.6,"humidity":31,"rain":0.0,"pressure":957.1,"uv_index":8.35,"wind_gusts":19.1,"aqi":149,"pm10":20.7,"pm2_5":19.3,"mosquito_risk":0,"arthritis_risk":5,"migraine_risk":7,"frizz_risk":0,"updated_at":"2026-03-05T18:37:49.382633+05:30"},{"city":"Kolhapur","state":"Maharashtra","latitude":16.705,"longitude":74.2433,"temp":31.8,"humidity":24,"rain":0.0,"pressure":947.8,"uv_index":8.5,"wind_gusts":34.6,"aqi":151,"pm10":33.8,"pm2_5":32.8,"mosquito_risk":0,"arthritis_risk":5,"migraine_risk":7,"frizz_risk":0,"updated_at":"2026-03-05T18:37:49.382643+05:30"},{"city":"Goa","state":"Goa","latitude":15.2993,"longitude":74.124,"temp":28.1,"humidity":77,"rain":0.0,"pressure":997.6,"uv_index":8.55,"wind_gusts":36.0,"aqi":152,"pm10":56.0,"pm2_5":52.3,"mosquito_risk":7,"arthritis_risk":5,"migraine_risk":7,"frizz_risk":1,"updated_at":"2026-03-05T18:37:49.382652+05:30"},{"city":"Jodhpur","state":"Rajasthan","latitude":26.2389,"longitude":73.0243,"temp":32.4,"humidity":19,"rain":0.0,"pressure":985.0,"uv_index":6.9,"wind_gusts":24.1,"aqi":104,"pm10":71.0,"pm2_5":15.2,"mosquito_risk":0,"arthritis_risk":5,"migraine_risk":7,"frizz_risk":0,"updated_at":"2026-03-05T18:37:49.382660+05:30"},{"city":"Udaipur","state":"Rajasthan","latitude":24.5854,"longitude":73.7125,"temp":30.4,"humidity":19,"rain":0.0,"pressure":948.6,"uv_index":7.55,"wind_gusts":25.9,"aqi":89,"pm10":12.5,"pm2_5":11.2,"mosquito_risk":0,"arthritis_risk":5,"migraine_risk":7,"frizz_risk":0,"updated_at":"2026-03-05T18:37:49.382668+05:30"},{"city":"Kota","state":"Rajasthan","latitude":25.2138,"longitude":75.8648,"temp":31.5,"humidity":32,"rain":0.0,"pressure":979.6,"uv_index":6.95,"wind_gusts":28.8,"aqi":83,"pm10":62.9,"pm2_5":24.9,"mosquito_risk":0,"arthritis_risk":5,"migraine_risk":7,"frizz_risk":0,"updated_at":"2026-03-05T18:37:49.382676+05:30"},{"city":"Bikaner","state":"Rajasthan","latitude":28.0229,"longitude":73.3119,"temp":32.6,"humidity":24,"rain":0.0,"pressure":983.7,"uv_index":6.6,"wind_gusts":20.9,"aqi":88,"pm10":31.2,"pm2_5":12.7,"mosquito_risk":0,"arthritis_risk":5,"migraine_risk":7,"frizz_risk":0,"updated_at":"2026-03-05T18:37:49.382685+05:30"},{"city":"Ajmer","state":"Rajasthan","latitude":26.4499,"longitude":74.6399,"temp":31.1,"humidity":25,"rain":0.0,"pressure":956.5,"uv_index":6.9,"wind_gusts":25.6,"aqi":92,"pm10":30.2,"pm2_5":16.1,"mosquito_risk":0,"arthritis_risk":5,"migraine_risk":7,"frizz_risk":0,"updated_at":"2026-03-05T18:37:49.382693+05:30"},{"city":"Gwalior","state":"Madhya Pradesh","latitude":26.2183,"longitude":78.1828,"temp":28.8,"humidity":50,"rain":0.0,"pressure":983.5,"uv_index":6.55,"wind_gusts":32.8,"aqi":81,"pm10":74.0,"pm2_5":25.4,"mosquito_risk":4,"arthritis_risk":5,"migraine_risk":7,"frizz_risk":1,"updated_at":"2026-03-05T18:37:49.382701+05:30"},{"city":"Indore","state":"Madhya Pradesh","latitude":22.7196,"longitude":75.8577,"temp":27.4,"humidity":38,"rain":0.0,"pressure":949.2,"uv_index":7.5,"wind_gusts":25.2,"aqi":102,"pm10":27.3,"pm2_5":18.7,"mosquito_risk":4,"arthritis_risk":5,"migraine_risk":7,"frizz_risk":0,"updated_at":"2026-03-05T18:37:49.382709+05:30"},{"city":"Bhopal","state":"Madhya Pradesh","latitude":23.2599,"longitude":77.4126,"temp":27.4,"humidity":39,"rain":0.0,"pressure":954.8,"uv_index":7.35,"wind_gusts":29.5,"aqi":100,"pm10":29.6,"pm2_5":17.0,"mosquito_risk":4,"arthritis_risk":5,"migraine_risk":7,"frizz_risk":0,"updated_at":"2026-03-05T18:37:49.382717+05:30"},{"city":"Jabalpur","state":"Madhya Pradesh","latitude":23.1815,"longitude":79.9864,"temp":30.2,"humidity":37,"rain":0.0,"pressure":961.6,"uv_index":7.5,"wind_gusts":30.2,"aqi":77,"pm10":31.2,"pm2_5":17.3,"mosquito_risk":0,"arthritis_risk":5,"migraine_risk":7,"frizz_risk":0,"updated_at":"2026-03-05T18:37:49.382725+05:30"},{"city":"Ujjain","state":"Madhya Pradesh","latitude":23.1765,"longitude":75.7885,"temp":27.8,"humidity":44,"rain":0.0,"pressure":955.0,"uv_index":7.4,"wind_gusts":23.0,"aqi":107,"pm10":31.5,"pm2_5":22.9,"mosquito_risk":4,"arthritis_risk":5,"migraine_risk":7,"frizz_risk":0,"updated_at":"2026-03-05T18:37:49.382734+05:30"},{"city":"Visakhapatnam","state":"Andhra Pradesh","latitude":17.6868,"longitude":83.2185,"temp":28.2,"humidity":73,"rain":0.0,"pressure":1001.8,"uv_index":8.45,"wind_gusts":33.1,"aqi":154,"pm10":45.6,"pm2_5":42.4,"mosquito_risk":7,"arthritis_risk":5,"migraine_risk":4,"frizz_risk":1,"updated_at":"2026-03-05T18:37:49.382742+05:30"},{"city":"Vijayawada","state":"Andhra Pradesh","latitude":16.5062,"longitude":80.648,"temp":31.9,"humidity":45,"rain":0.0,"pressure":1001.2,"uv_index":8.5,"wind_gusts":17.3,"aqi":128,"pm10":36.6,"pm2_5":34.9,"mosquito_risk":0,"arthritis_risk":5,"migraine_risk":4,"frizz_risk":1,"updated_at":"2026-03-05T18:37:49.382750+05:30"},{"city":"Guntur","state":"Andhra Pradesh","latitude":16.3067,"longitude":80.4365,"temp":32.0,"humidity":39,"rain":0.0,"pressure":1002.5,"uv_index":8.5,"wind_gusts":20.9,"aqi":141,"pm10":29.8,"pm2_5":28.0,"mosquito_risk":0,"arthritis_risk":5,"migraine_risk":4,"frizz_risk":1,"updated_at":"2026-03-05T18:37:49.382758+05:30"},{"city":"Nellore","state":"Andhra Pradesh","latitude":14.4426,"longitude":79.9865,"temp":30.7,"humidity":43,"rain":0.0,"pressure":1004.9,"uv_index":8.7,"wind_gusts":28.4,"aqi":154,"pm10":30.0,"pm2_5":27.2,"mosquito_risk":0,"arthritis_risk":5,"migraine_risk":4,"frizz_risk":1,"updated_at":"2026-03-05T18:37:49.382767+05:30"},{"city":"Kurnool","state":"Andhra Pradesh","latitude":15.8281,"longitude":78.0373,"temp":34.4,"humidity":20,"rain":0.0,"pressure":976.2,"uv_index":8.5,"wind_gusts":27.0,"aqi":145,"pm10":18.3,"pm2_5":16.9,"mosquito_risk":0,"arthritis_risk":5,"migraine_risk":7,"frizz_risk":0,"updated_at":"2026-03-05T18:37:49.382775+05:30"},{"city":"Kakinada","state":"Andhra Pradesh","latitude":16.9891,"longitude":82.2475,"temp":30.5,"humidity":58,"rain":0.0,"pressure":1005.3,"uv_index":8.45,"wind_gusts":27.4,"aqi":112,"pm10":32.4,"pm2_5":29.2,"mosquito_risk":0,"arthritis_risk":5,"migraine_risk":4,"frizz_risk":1,"updated_at":"2026-03-05T18:37:49.382781+05:30"},{"city":"Tirupati","state":"Andhra Pradesh","latitude":13.6288,"longitude":79.4192,"temp":30.8,"humidity":34,"rain":0.0,"pressure":991.0,"uv_index":8.8,"wind_gusts":29.5,"aqi":127,"pm10":35.0,"pm2_5":31.8,"mosquito_risk":0,"arthritis_risk":5,"migraine_risk":7,"frizz_risk":0,"updated_at":"2026-03-05T18:37:49.382788+05:30"},{"city":"Warangal","state":"Telangana","latitude":17.9689,"longitude":79.5941,"temp":31.4,"humidity":32,"rain":0.0,"pressure":978.3,"uv_index":8.3,"wind_gusts":27.4,"aqi":148,"pm10":26.3,"pm2_5":23.7,"mosquito_risk":0,"arthritis_risk":5,"migraine_risk":7,"frizz_risk":0,"updated_at":"2026-03-05T18:37:49.382794+05:30"},{"city":"Nizamabad","state":"Telangana","latitude":18.6725,"longitude":78.0941,"temp":31.5,"humidity":34,"rain":0.0,"pressure":964.9,"uv_index":8.15,"wind_gusts":22.3,"aqi":114,"pm10":20.7,"pm2_5":18.9,"mosquito_risk":0,"arthritis_risk":5,"migraine_risk":7,"frizz_risk":0,"updated_at":"2026-03-05T18:37:49.382800+05:30"},{"city":"Mysore","state":"Karnataka","latitude":12.2958,"longitude":76.6396,"temp":29.9,"humidity":34,"rain":0.0,"pressure":928.1,"uv_index":9.15,"wind_gusts":24.5,"aqi":169,"pm10":37.3,"pm2_5":36.2,"mosquito_risk":4,"arthritis_risk":5,"migraine_risk":7,"frizz_risk":0,"updated_at":"2026-03-05T18:37:49.382807+05:30"},{"city":"Mangalore","state":"Karnataka","latitude":12.9141,"longitude":74.856,"temp":28.7,"humidity":81,"rain":0.0,"pressure":1006.0,"uv_index":8.75,"wind_gusts":30.2,"aqi":132,"pm10":43.9,"pm2_5":40.0,"mosquito_risk":7,"arthritis_risk":5,"migraine_risk":4,"frizz_risk":1,"updated_at":"2026-03-05T18:37:49.382813+05:30"},{"city":"Hubli-Dharwad","state":"Karnataka","latitude":15.3647,"longitude":75.124,"temp":32.4,"humidity":24,"rain":0.0,"pressure":940.6,"uv_index":8.7,"wind_gusts":29.2,"aqi":168,"pm10":25.1,"pm2_5":23.9,"mosquito_risk":0,"arthritis_risk":5,"migraine_risk":7,"frizz_risk":0,"updated_at":"2026-03-05T18:37:49.382821+05:30"},{"city":"Belgaum","state":"Karnataka","latitude":15.8497,"longitude":74.4977,"temp":31.5,"humidity":26,"rain":0.0,"pressure":926.0,"uv_index":8.75,"wind_gusts":36.7,"aqi":173,"pm10":26.7,"pm2_5":25.4,"mosquito_risk":0,"arthritis_risk":5,"migraine_risk":7,"frizz_risk":0,"updated_at":"2026-03-05T18:37:52.722067+05:30"},{"city":"Coimbatore","state":"Tamil Nadu","latitude":11.0168,"longitude":76.9558,"temp":31.3,"humidity":24,"rain":0.0,"pressure":961.1,"uv_index":9.15,"wind_gusts":34.2,"aqi":145,"pm10":30.7,"pm2_5":30.0,"mosquito_risk":0,"arthritis_risk":5,"migraine_risk":7,"frizz_risk":0,"updated_at":"2026-03-05T18:37:52.722100+05:30"},{"city":"Madurai","state":"Tamil Nadu","latitude":9.9252,"longitude":78.1198,"temp":32.8,"humidity":26,"rain":0.0,"pressure":992.0,"uv_index":9.1,"wind_gusts":29.9,"aqi":126,"pm10":34.7,"pm2_5":32.8,"mosquito_risk":0,"arthritis_risk":5,"migraine_risk":7,"frizz_risk":0,"updated_at":"2026-03-05T18:37:52.722111+05:30"},{"city":"Trichy","state":"Tamil Nadu","latitude":10.7905,"longitude":78.7047,"temp":31.3,"humidity":43,"rain":0.0,"pressure":999.1,"uv_index":9.0,"wind_gusts":33.8,"aqi":94,"pm10":33.3,"pm2_5":31.1,"mosquito_risk":0,"arthritis_risk":5,"migraine_risk":7,"frizz_risk":1,"updated_at":"2026-03-05T18:37:52.722121+05:30"},{"city":"Salem","state":"Tamil Nadu","latitude":11.6643,"longitude":78.146,"temp":33.2,"humidity":29,"rain":0.0,"pressure":976.1,"uv_index":9.05,"wind_gusts":19.8,"aqi":156,"pm10":27.8,"pm2_5":25.8,"mosquito_risk":0,"arthritis_risk":5,"migraine_risk":7,"frizz_risk":0,"updated_at":"2026-03-05T18:37:52.722130+05:30"},{"city":"Tirunelveli","state":"Tamil Nadu","latitude":8.7139,"longitude":77.7567,"temp":29.5,"humidity":58,"rain":0.0,"pressure":1002.8,"uv_index":9.15,"wind_gusts":48.6,"aqi":101,"pm10":18.0,"pm2_5":17.1,"mosquito_risk":4,"arthritis_risk":5,"migraine_risk":4,"frizz_risk":1,"updated_at":"2026-03-05T18:37:52.722140+05:30"},{"city":"Vellore","state":"Tamil Nadu","latitude":12.9165,"longitude":79.1325,"temp":30.3,"humidity":32,"rain":0.0,"pressure":984.1,"uv_index":8.9,"wind_gusts":29.2,"aqi":126,"pm10":40.0,"pm2_5":37.0,"mosquito_risk":0,"arthritis_risk":5,"migraine_risk":7,"frizz_risk":0,"updated_at":"2026-03-05T18:37:52.722149+05:30"},{"city":"Erode","state":"Tamil Nadu","latitude":11.341,"longitude":77.7172,"temp":33.4,"humidity":34,"rain":0.0,"pressure":987.5,"uv_index":9.05,"wind_gusts":19.8,"aqi":155,"pm10":32.2,"pm2_5":30.9,"mosquito_risk":0,"arthritis_risk":5,"migraine_risk":7,"frizz_risk":0,"updated_at":"2026-03-05T18:37:52.722157+05:30"},{"city":"Kochi","state":"Kerala","latitude":9.9312,"longitude":76.2673,"temp":28.4,"humidity":78,"rain":0.0,"pressure":1007.8,"uv_index":8.95,"wind_gusts":38.2,"aqi":145,"pm10":43.4,"pm2_5":40.7,"mosquito_risk":7,"arthritis_risk":5,"migraine_risk":4,"frizz_risk":1,"updated_at":"2026-03-05T18:37:52.722166+05:30"},{"city":"Thiruvananthapuram","state":"Kerala","latitude":8.5241,"longitude":76.9366,"temp":28.3,"humidity":74,"rain":0.0,"pressure":1007.7,"uv_index":9.0,"wind_gusts":32.8,"aqi":127,"pm10":30.6,"pm2_5":27.5,"mosquito_risk":7,"arthritis_risk":5,"migraine_risk":4,"frizz_risk":1,"updated_at":"2026-03-05T18:37:52.722174+05:30"},{"city":"Kozhikode","state":"Kerala","latitude":11.2588,"longitude":75.7804,"temp":28.6,"humidity":80,"rain":0.0,"pressure":1007.4,"uv_index":8.85,"wind_gusts":30.6,"aqi":127,"pm10":44.1,"pm2_5":39.2,"mosquito_risk":7,"arthritis_risk":5,"migraine_risk":4,"frizz_risk":1,"updated_at":"2026-03-05T18:37:52.722183+05:30"},{"city":"Thrissur","state":"Kerala","latitude":10.5276,"longitude":76.2144,"temp":28.5,"humidity":77,"rain":0.0,"pressure":1006.4,"uv_index":8.9,"wind_gusts":36.7,"aqi":141,"pm10":41.0,"pm2_5":38.9,"mosquito_risk":7,"arthritis_risk":5,"migraine_risk":4,"frizz_risk":1,"updated_at":"2026-03-05T18:37:52.722191+05:30"},{"city":"Kannur","state":"Kerala","latitude":11.8745,"longitude":75.3704,"temp":28.8,"humidity":76,"rain":0.0,"pressure":1006.8,"uv_index":8.85,"wind_gusts":37.4,"aqi":134,"pm10":43.0,"pm2_5":39.0,"mosquito_risk":7,"arthritis_risk":5,"migraine_risk":4,"frizz_risk":1,"updated_at":"2026-03-05T18:37:52.722200+05:30"},{"city":"Patna","state":"Bihar","latitude":25.5941,"longitude":85.1376,"temp":28.4,"humidity":49,"rain":0.0,"pressure":1000.8,"uv_index":7.2,"wind_gusts":14.4,"aqi":187,"pm10":126.2,"pm2_5":81.5,"mosquito_risk":4,"arthritis_risk":5,"migraine_risk":4,"frizz_risk":1,"updated_at":"2026-03-05T18:37:52.722208+05:30"},{"city":"Gaya","state":"Bihar","latitude":24.7914,"longitude":85.0002,"temp":25.3,"humidity":65,"rain":0.0,"pressure":994.2,"uv_index":7.3,"wind_gusts":12.6,"aqi":163,"pm10":128.5,"pm2_5":59.4,"mosquito_risk":7,"arthritis_risk":5,"migraine_risk":7,"frizz_risk":1,"updated_at":"2026-03-05T18:37:52.722216+05:30"},{"city":"Muzaffarpur","state":"Bihar","latitude":26.1209,"longitude":85.3647,"temp":26.6,"humidity":55,"rain":0.0,"pressure":1000.8,"uv_index":7.15,"wind_gusts":15.5,"aqi":196,"pm10":98.7,"pm2_5":75.4,"mosquito_risk":4,"arthritis_risk":5,"migraine_risk":4,"frizz_risk":1,"updated_at":"2026-03-05T18:37:52.722224+05:30"},{"city":"Bhagalpur","state":"Bihar","latitude":25.2425,"longitude":87.0117,"temp":25.9,"humidity":57,"rain":0.0,"pressure":1001.7,"uv_index":7.25,"wind_gusts":14.0,"aqi":177,"pm10":82.0,"pm2_5":65.4,"mosquito_risk":4,"arthritis_risk":5,"migraine_risk":4,"frizz_risk":1,"updated_at":"2026-03-05T18:37:52.722232+05:30"},{"city":"Ranchi","state":"Jharkhand","latitude":23.3441,"longitude":85.3096,"temp":24.7,"humidity":44,"rain":0.0,"pressure":937.3,"uv_index":7.95,"wind_gusts":19.1,"aqi":150,"pm10":88.7,"pm2_5":42.5,"mosquito_risk":0,"arthritis_risk":5,"migraine_risk":7,"frizz_risk":0,"updated_at":"2026-03-05T18:37:52.722241+05:30"},{"city":"Jamshedpur","state":"Jharkhand","latitude":22.8046,"longitude":86.2029,"temp":29.6,"humidity":38,"rain":0.0,"pressure":989.9,"uv_index":7.85,"wind_gusts":11.2,"aqi":202,"pm10":116.2,"pm2_5":68.9,"mosquito_risk":4,"arthritis_risk":5,"migraine_risk":7,"frizz_risk":0,"updated_at":"2026-03-05T18:37:52.722250+05:30"},{"city":"Dhanbad","state":"Jharkhand","latitude":23.7957,"longitude":86.4304,"temp":30.0,"humidity":30,"rain":0.0,"pressure":979.4,"uv_index":7.75,"wind_gusts":16.2,"aqi":194,"pm10":160.7,"pm2_5":115.3,"mosquito_risk":4,"arthritis_risk":5,"migraine_risk":7,"frizz_risk":0,"updated_at":"2026-03-05T18:37:52.722258+05:30"},{"city":"Bokaro","state":"Jharkhand","latitude":23.6693,"longitude":86.1511,"temp":28.4,"humidity":37,"rain":0.0,"pressure":983.4,"uv_index":7.75,"wind_gusts":13.3,"aqi":194,"pm10":156.9,"pm2_5":114.6,"mosquito_risk":4,"arthritis_risk":5,"migraine_risk":7,"frizz_risk":0,"updated_at":"2026-03-05T18:37:52.722266+05:30"},{"city":"Bhubaneswar","state":"Odisha","latitude":20.2961,"longitude":85.8245,"temp":31.5,"humidity":25,"rain":0.0,"pressure":1000.7,"uv_index":8.15,"wind_gusts":25.2,"aqi":173,"pm10":75.4,"pm2_5":53.1,"mosquito_risk":0,"arthritis_risk":5,"migraine_risk":4,"frizz_risk":0,"updated_at":"2026-03-05T18:37:52.722275+05:30"},{"city":"Cuttack","state":"Odisha","latitude":20.4625,"longitude":85.8828,"temp":31.2,"humidity":29,"rain":0.0,"pressure":1002.5,"uv_index":8.2,"wind_gusts":26.6,"aqi":173,"pm10":75.4,"pm2_5":53.1,"mosquito_risk":0,"arthritis_risk":5,"migraine_risk":4,"frizz_risk":0,"updated_at":"2026-03-05T18:37:52.722282+05:30"},{"city":"Rourkela","state":"Odisha","latitude":22.2604,"longitude":84.8536,"temp":30.2,"humidity":35,"rain":0.0,"pressure":983.5,"uv_index":7.75,"wind_gusts":23.0,"aqi":140,"pm10":128.1,"pm2_5":51.5,"mosquito_risk":0,"arthritis_risk":5,"migraine_risk":7,"frizz_risk":0,"updated_at":"2026-03-05T18:37:52.722289+05:30"},{"city":"Raipur","state":"Chhattisgarh","latitude":21.2514,"longitude":81.6296,"temp":32.5,"humidity":23,"rain":0.0,"pressure":973.8,"uv_index":7.85,"wind_gusts":27.7,"aqi":116,"pm10":43.8,"pm2_5":32.1,"mosquito_risk":0,"arthritis_risk":5,"migraine_risk":7,"frizz_risk":0,"updated_at":"2026-03-05T18:37:52.722296+05:30"},{"city":"Bhilai","state":"Chhattisgarh","latitude":21.1938,"longitude":81.3509,"temp":31.5,"humidity":24,"rain":0.0,"pressure":974.2,"uv_index":7.85,"wind_gusts":27.7,"aqi":96,"pm10":42.8,"pm2_5":30.4,"mosquito_risk":0,"arthritis_risk":5,"migraine_risk":7,"frizz_risk":0,"updated_at":"2026-03-05T18:37:52.722303+05:30"},{"city":"Guwahati","state":"Assam","latitude":26.1158,"longitude":91.7086,"temp":28.1,"humidity":57,"rain":0.0,"pressure":1001.6,"uv_index":7.15,"wind_gusts":18.0,"aqi":138,"pm10":53.9,"pm2_5":48.7,"mosquito_risk":4,"arthritis_risk":5,"migraine_risk":4,"frizz_risk":1,"updated_at":"2026-03-05T18:37:52.722310+05:30"},{"city":"Agartala","state":"Tripura","latitude":23.8315,"longitude":91.2868,"temp":25.7,"humidity":64,"rain":0.0,"pressure":1006.0,"uv_index":7.55,"wind_gusts":16.2,"aqi":197,"pm10":89.4,"pm2_5":76.1,"mosquito_risk":7,"arthritis_risk":5,"migraine_risk":4,"frizz_risk":1,"updated_at":"2026-03-05T18:37:52.722317+05:30"},{"city":"Shillong","state":"Meghalaya","latitude":25.5788,"longitude":91.8933,"temp":14.7,"humidity":83,"rain":0.0,"pressure":856.2,"uv_index":7.55,"wind_gusts":15.8,"aqi":122,"pm10":49.0,"pm2_5":43.5,"mosquito_risk":3,"arthritis_risk":10,"migraine_risk":7,"frizz_risk":0,"updated_at":"2026-03-05T18:37:52.722324+05:30"},{"city":"Imphal","state":"Manipur","latitude":24.817,"longitude":93.9368,"temp":19.1,"humidity":64,"rain":0.0,"pressure":923.1,"uv_index":7.75,"wind_gusts":23.0,"aqi":148,"pm10":45.1,"pm2_5":40.6,"mosquito_risk":3,"arthritis_risk":5,"migraine_risk":7,"frizz_risk":0,"updated_at":"2026-03-05T18:37:52.722331+05:30"},{"city":"Aizawl","state":"Mizoram","latitude":23.7271,"longitude":92.7176,"temp":20.3,"humidity":55,"rain":0.0,"pressure":892.0,"uv_index":7.7,"wind_gusts":23.8,"aqi":159,"pm10":68.0,"pm2_5":58.8,"mosquito_risk":0,"arthritis_risk":5,"migraine_risk":7,"frizz_risk":0,"updated_at":"2026-03-05T18:37:52.722338+05:30"},{"city":"Kohima","state":"Nagaland","latitude":25.6701,"longitude":94.1077,"temp":15.4,"humidity":85,"rain":0.0,"pressure":854.8,"uv_index":7.6,"wind_gusts":36.7,"aqi":136,"pm10":40.7,"pm2_5":36.1,"mosquito_risk":3,"arthritis_risk":10,"migraine_risk":7,"frizz_risk":0,"updated_at":"2026-03-05T18:37:52.722345+05:30"},{"city":"Gangtok","state":"Sikkim","latitude":27.3314,"longitude":88.6138,"temp":16.4,"humidity":79,"rain":0.0,"pressure":838.2,"uv_index":7.5,"wind_gusts":21.2,"aqi":123,"pm10":32.8,"pm2_5":28.5,"mosquito_risk":3,"arthritis_risk":5,"migraine_risk":7,"frizz_risk":0,"updated_at":"2026-03-05T18:37:52.722352+05:30"},{"city":"Siliguri","state":"West Bengal","latitude":26.7271,"longitude":88.3953,"temp":23.2,"humidity":62,"rain":0.0,"pressure":994.8,"uv_index":7.15,"wind_gusts":22.3,"aqi":140,"pm10":48.5,"pm2_5":41.2,"mosquito_risk":3,"arthritis_risk":5,"migraine_risk":7,"frizz_risk":0,"updated_at":"2026-03-05T18:37:56.068961+05:30"},{"city":"Durgapur","state":"West Bengal","latitude":23.5204,"longitude":87.3119,"temp":28.9,"humidity":35,"rain":0.0,"pressure":994.8,"uv_index":7.7,"wind_gusts":20.2,"aqi":195,"pm10":96.6,"pm2_5":68.0,"mosquito_risk":4,"arthritis_risk":5,"migraine_risk":7,"frizz_risk":0,"updated_at":"2026-03-05T18:37:56.068994+05:30"},{"city":"Asansol","state":"West Bengal","latitude":23.6739,"longitude":86.9524,"temp":29.4,"humidity":37,"rain":0.0,"pressure":993.2,"uv_index":7.7,"wind_gusts":15.1,"aqi":197,"pm10":125.3,"pm2_5":77.5,"mosquito_risk":4,"arthritis_risk":5,"migraine_risk":7,"frizz_risk":0,"updated_at":"2026-03-05T18:37:56.069004+05:30"},{"city":"Pondicherry","state":"Puducherry","latitude":11.9139,"longitude":79.8145,"temp":28.1,"humidity":60,"rain":0.0,"pressure":1008.2,"uv_index":8.85,"wind_gusts":24.5,"aqi":81,"pm10":18.6,"pm2_5":15.9,"mosquito_risk":4,"arthritis_risk":0,"migraine_risk":4,"frizz_risk":1,"updated_at":"2026-03-05T18:37:56.069014+05:30"},{"city":"Port Blair","state":"Andaman and Nicobar Islands","latitude":11.6234,"longitude":92.7265,"temp":27.3,"humidity":69,"rain":0.0,"pressure":1006.8,"uv_index":8.8,"wind_gusts":23.4,"aqi":62,"pm10":19.2,"pm2_5":13.0,"mosquito_risk":7,"arthritis_risk":5,"migraine_risk":4,"frizz_risk":1,"updated_at":"2026-03-05T18:37:56.069025+05:30"},{"city":"Haridwar","state":"Uttarakhand","latitude":29.9457,"longitude":78.1642,"temp":27.1,"humidity":64,"rain":0.0,"pressure":974.2,"uv_index":5.65,"wind_gusts":21.6,"aqi":162,"pm10":102.2,"pm2_5":54.8,"mosquito_risk":7,"arthritis_risk":5,"migraine_risk":3,"frizz_risk":1,"updated_at":"2026-03-05T18:37:56.069034+05:30"},{"city":"Rishikesh","state":"Uttarakhand","latitude":30.0869,"longitude":78.2676,"temp":25.5,"humidity":67,"rain":0.0,"pressure":967.2,"uv_index":5.7,"wind_gusts":20.9,"aqi":164,"pm10":75.7,"pm2_5":48.2,"mosquito_risk":7,"arthritis_risk":5,"migraine_risk":3,"frizz_risk":1,"updated_at":"2026-03-05T18:37:56.069043+05:30"},{"city":"Nainital","state":"Uttarakhand","latitude":29.3919,"longitude":79.4542,"temp":17.7,"humidity":78,"rain":0.0,"pressure":805.9,"uv_index":6.5,"wind_gusts":53.6,"aqi":153,"pm10":105.7,"pm2_5":68.2,"mosquito_risk":3,"arthritis_risk":5,"migraine_risk":7,"frizz_risk":0,"updated_at":"2026-03-05T18:37:56.069052+05:30"},{"city":"Mussoorie","state":"Uttarakhand","latitude":30.4599,"longitude":78.0664,"temp":17.5,"humidity":79,"rain":0.0,"pressure":802.8,"uv_index":6.0,"wind_gusts":37.1,"aqi":173,"pm10":65.9,"pm2_5":46.0,"mosquito_risk":3,"arthritis_risk":5,"migraine_risk":3,"frizz_risk":0,"updated_at":"2026-03-05T18:37:56.069061+05:30"},{"city":"Dharamshala","state":"Himachal Pradesh","latitude":32.219,"longitude":76.3234,"temp":23.0,"humidity":58,"rain":0.0,"pressure":870.9,"uv_index":6.3,"wind_gusts":24.5,"aqi":76,"pm10":31.5,"pm2_5":18.5,"mosquito_risk":0,"arthritis_risk":5,"migraine_risk":7,"frizz_risk":0,"updated_at":"2026-03-05T18:37:56.069070+05:30"},{"city":"Dalhousie","state":"Himachal Pradesh","latitude":32.5387,"longitude":75.971,"temp":21.6,"humidity":51,"rain":0.0,"pressure":806.3,"uv_index":6.45,"wind_gusts":21.2,"aqi":102,"pm10":48.7,"pm2_5":32.2,"mosquito_risk":0,"arthritis_risk":5,"migraine_risk":7,"frizz_risk":0,"updated_at":"2026-03-05T18:37:56.069079+05:30"},{"city":"Patiala","state":"Punjab","latitude":30.3398,"longitude":76.3869,"temp":27.0,"humidity":58,"rain":0.0,"pressure":978.6,"uv_index":5.65,"wind_gusts":28.4,"aqi":352,"pm10":497.3,"pm2_5":91.7,"mosquito_risk":4,"arthritis_risk":5,"migraine_risk":3,"frizz_risk":1,"updated_at":"2026-03-05T18:37:56.069087+05:30"},{"city":"Bhatinda","state":"Punjab","latitude":30.211,"longitude":74.9455,"temp":28.0,"humidity":58,"rain":0.0,"pressure":984.5,"uv_index":6.35,"wind_gusts":27.0,"aqi":138,"pm10":61.5,"pm2_5":43.3,"mosquito_risk":4,"arthritis_risk":5,"migraine_risk":7,"frizz_risk":1,"updated_at":"2026-03-05T18:37:56.069095+05:30"},{"city":"Rohtak","state":"Haryana","latitude":28.8955,"longitude":76.6066,"temp":27.5,"humidity":55,"rain":0.0,"pressure":982.3,"uv_index":5.85,"wind_gusts":33.1,"aqi":573,"pm10":987.2,"pm2_5":143.4,"mosquito_risk":4,"arthritis_risk":5,"migraine_risk":3,"frizz_risk":1,"updated_at":"2026-03-05T18:37:56.069104+05:30"},{"city":"Panipat","state":"Haryana","latitude":29.3909,"longitude":76.9635,"temp":27.2,"humidity":56,"rain":0.0,"pressure":980.6,"uv_index":5.65,"wind_gusts":32.4,"aqi":1259,"pm10":1605.6,"pm2_5":204.4,"mosquito_risk":4,"arthritis_risk":5,"migraine_risk":3,"frizz_risk":1,"updated_at":"2026-03-05T18:37:56.069112+05:30"},{"city":"Mathura","state":"Uttar Pradesh","latitude":27.4924,"longitude":77.6737,"temp":28.3,"humidity":46,"rain":0.0,"pressure":987.1,"uv_index":6.1,"wind_gusts":34.9,"aqi":652,"pm10":1054.3,"pm2_5":142.5,"mosquito_risk":4,"arthritis_risk":5,"migraine_risk":7,"frizz_risk":0,"updated_at":"2026-03-05T18:37:56.069121+05:30"},{"city":"Vrindavan","state":"Uttar Pradesh","latitude":27.5823,"longitude":77.7027,"temp":27.9,"humidity":47,"rain":0.0,"pressure":987.5,"uv_index":6.1,"wind_gusts":37.1,"aqi":652,"pm10":1054.3,"pm2_5":142.5,"mosquito_risk":4,"arthritis_risk":5,"migraine_risk":7,"frizz_risk":0,"updated_at":"2026-03-05T18:37:56.069129+05:30"},{"city":"Ayodhya","state":"Uttar Pradesh","latitude":26.7922,"longitude":82.1998,"temp":27.2,"humidity":59,"rain":0.0,"pressure":995.6,"uv_index":6.55,"wind_gusts":10.1,"aqi":177,"pm10":124.3,"pm2_5":84.5,"mosquito_risk":4,"arthritis_risk":5,"migraine_risk":7,"frizz_risk":1,"updated_at":"2026-03-05T18:37:56.069137+05:30"},{"city":"Ratlam","state":"Madhya Pradesh","latitude":23.3315,"longitude":75.0367,"temp":29.3,"humidity":34,"rain":0.0,"pressure":956.1,"uv_index":7.35,"wind_gusts":23.0,"aqi":104,"pm10":24.3,"pm2_5":17.8,"mosquito_risk":4,"arthritis_risk":5,"migraine_risk":7,"frizz_risk":0,"updated_at":"2026-03-05T18:37:56.069145+05:30"},{"city":"Sagar","state":"Madhya Pradesh","latitude":23.8388,"longitude":78.7378,"temp":28.0,"humidity":38,"rain":0.0,"pressure":950.7,"uv_index":7.3,"wind_gusts":31.7,"aqi":84,"pm10":32.5,"pm2_5":14.1,"mosquito_risk":4,"arthritis_risk":5,"migraine_risk":7,"frizz_risk":0,"updated_at":"2026-03-05T18:37:56.069154+05:30"},{"city":"Satna","state":"Madhya Pradesh","latitude":24.6005,"longitude":80.8322,"temp":29.1,"humidity":31,"rain":0.0,"pressure":971.3,"uv_index":7.3,"wind_gusts":40.0,"aqi":103,"pm10":41.4,"pm2_5":24.7,"mosquito_risk":4,"arthritis_risk":5,"migraine_risk":7,"frizz_risk":0,"updated_at":"2026-03-05T18:37:56.069162+05:30"},{"city":"Akola","state":"Maharashtra","latitude":20.7002,"longitude":77.0082,"temp":32.2,"humidity":23,"rain":0.0,"pressure":975.5,"uv_index":7.8,"wind_gusts":26.6,"aqi":113,"pm10":25.8,"pm2_5":19.2,"mosquito_risk":0,"arthritis_risk":5,"migraine_risk":7,"frizz_risk":0,"updated_at":"2026-03-05T18:37:56.069171+05:30"},{"city":"Amravati","state":"Maharashtra","latitude":20.9374,"longitude":77.7796,"temp":32.4,"humidity":24,"rain":0.0,"pressure":967.1,"uv_index":7.75,"wind_gusts":16.9,"aqi":112,"pm10":25.2,"pm2_5":18.6,"mosquito_risk":0,"arthritis_risk":5,"migraine_risk":7,"frizz_risk":0,"updated_at":"2026-03-05T18:37:56.069181+05:30"},{"city":"Latur","state":"Maharashtra","latitude":18.4088,"longitude":76.5604,"temp":30.3,"humidity":26,"rain":0.0,"pressure":940.2,"uv_index":8.25,"wind_gusts":32.0,"aqi":143,"pm10":21.0,"pm2_5":19.2,"mosquito_risk":0,"arthritis_risk":5,"migraine_risk":7,"frizz_risk":0,"updated_at":"2026-03-05T18:37:56.069189+05:30"},{"city":"Nanded","state":"Maharashtra","latitude":19.1383,"longitude":77.3091,"temp":31.8,"humidity":28,"rain":0.0,"pressure":968.6,"uv_index":8.05,"wind_gusts":25.2,"aqi":125,"pm10":18.1,"pm2_5":16.4,"mosquito_risk":0,"arthritis_risk":5,"migraine_risk":7,"frizz_risk":0,"updated_at":"2026-03-05T18:37:56.069197+05:30"},{"city":"Gulbarga","state":"Karnataka","latitude":17.3297,"longitude":76.8343,"temp":33.8,"humidity":20,"rain":0.0,"pressure":958.6,"uv_index":8.35,"wind_gusts":22.3,"aqi":147,"pm10":15.2,"pm2_5":14.1,"mosquito_risk":0,"arthritis_risk":5,"migraine_risk":7,"frizz_risk":0,"updated_at":"2026-03-05T18:37:56.069205+05:30"},{"city":"Bidar","state":"Karnataka","latitude":17.9104,"longitude":77.5199,"temp":31.4,"humidity":26,"rain":0.0,"pressure":935.8,"uv_index":8.3,"wind_gusts":24.8,"aqi":125,"pm10":17.8,"pm2_5":16.4,"mosquito_risk":0,"arthritis_risk":5,"migraine_risk":7,"frizz_risk":0,"updated_at":"2026-03-05T18:37:56.069213+05:30"},{"city":"Hospet","state":"Karnataka","latitude":15.2689,"longitude":76.3909,"temp":33.8,"humidity":19,"rain":0.0,"pressure":955.6,"uv_index":8.7,"wind_gusts":25.9,"aqi":166,"pm10":26.9,"pm2_5":25.8,"mosquito_risk":0,"arthritis_risk":5,"migraine_risk":7,"frizz_risk":0,"updated_at":"2026-03-05T18:37:56.069221+05:30"},{"city":"Tirupur","state":"Tamil Nadu","latitude":11.1085,"longitude":77.3411,"temp":32.9,"humidity":26,"rain":0.0,"pressure":974.3,"uv_index":9.15,"wind_gusts":29.2,"aqi":155,"pm10":34.7,"pm2_5":33.8,"mosquito_risk":0,"arthritis_risk":5,"migraine_risk":7,"frizz_risk":0,"updated_at":"2026-03-05T18:37:56.069230+05:30"},{"city":"Alappuzha","state":"Kerala","latitude":9.4981,"longitude":76.3388,"temp":28.4,"humidity":75,"rain":0.0,"pressure":1007.9,"uv_index":8.95,"wind_gusts":35.3,"aqi":121,"pm10":41.9,"pm2_5":38.3,"mosquito_risk":7,"arthritis_risk":5,"migraine_risk":4,"frizz_risk":1,"updated_at":"2026-03-05T18:37:56.069238+05:30"},{"city":"Munnar","state":"Kerala","latitude":10.0889,"longitude":77.0595,"temp":24.8,"humidity":63,"rain":0.0,"pressure":857.5,"uv_index":9.45,"wind_gusts":23.4,"aqi":119,"pm10":30.4,"pm2_5":29.6,"mosquito_risk":3,"arthritis_risk":5,"migraine_risk":7,"frizz_risk":1,"updated_at":"2026-03-05T18:37:56.069247+05:30"},{"city":"Silchar","state":"Assam","latitude":24.8333,"longitude":92.7789,"temp":27.6,"humidity":52,"rain":0.0,"pressure":1004.3,"uv_index":7.5,"wind_gusts":13.7,"aqi":150,"pm10":60.5,"pm2_5":53.0,"mosquito_risk":4,"arthritis_risk":5,"migraine_risk":4,"frizz_risk":1,"updated_at":"2026-03-05T18:37:56.069255+05:30"},{"city":"Dibrugarh","state":"Assam","latitude":27.4728,"longitude":94.912,"temp":26.7,"humidity":58,"rain":0.0,"pressure":995.4,"uv_index":7.2,"wind_gusts":14.4,"aqi":115,"pm10":42.5,"pm2_5":38.5,"mosquito_risk":4,"arthritis_risk":5,"migraine_risk":7,"frizz_risk":1,"updated_at":"2026-03-05T18:37:56.069263+05:30"}]