[{"city":"Delhi","state":"Delhi","latitude":28.6139,"longitude":77.209,"temp":29.2,"humidity":33,"rain":0.0,"pressure":977.3,"uv_index":7.45,"wind_gusts":47.2,"aqi":569,"pm10":538.3,"pm2_5":108.3,"mosquito_risk":4,"arthritis_risk":5,"migraine_risk":7,"frizz_risk":0,"updated_at":"2026-04-27T04:12:16.257668+05:30"},{"city":"Mumbai","state":"Maharashtra","latitude":19.076,"longitude":72.8777,"temp":27.5,"humidity":90,"rain":0.0,"pressure":1005.3,"uv_index":8.05,"wind_gusts":40.3,"aqi":91,"pm10":74.0,"pm2_5":30.5,"mosquito_risk":7,"arthritis_risk":5,"migraine_risk":4,"frizz_risk":1,"updated_at":"2026-04-27T04:12:16.257708+05:30"},{"city":"Bangalore","state":"Karnataka","latitude":12.9716,"longitude":77.5946,"temp":24.4,"humidity":51,"rain":0.0,"pressure":909.9,"uv_index":9.55,"wind_gusts":33.8,"aqi":84,"pm10":30.7,"pm2_5":28.6,"mosquito_risk":0,"arthritis_risk":5,"migraine_risk":7,"frizz_risk":0,"updated_at":"2026-04-27T04:12:16.257722+05:30"},{"city":"Hyderabad","state":"Telangana","latitude":17.385,"longitude":78.4867,"temp":27.5,"humidity":62,"rain":0.0,"pressure":950.0,"uv_index":9.2,"wind_gusts":29.9,"aqi":94,"pm10":28.5,"pm2_5":23.3,"mosquito_risk":7,"arthritis_risk":5,"migraine_risk":7,"frizz_risk":1,"updated_at":"2026-04-27T04:12:16.257731+05:30"},{"city":"Chennai","state":"Tamil Nadu","latitude":13.0827,"longitude":80.2707,"temp":27.1,"humidity":93,"rain":0.0,"pressure":1004.9,"uv_index":9.25,"wind_gusts":56.5,"aqi":49,"pm10":20.9,"pm2_5":14.1,"mosquito_risk":7,"arthritis_risk":5,"migraine_risk":4,"frizz_risk":1,"updated_at":"2026-04-27T04:12:16.257738+05:30"},{"city":"Kolkata","state":"West Bengal","latitude":22.5726,"longitude":88.3639,"temp":27.9,"humidity":85,"rain":0.0,"pressure":1000.7,"uv_index":8.8,"wind_gusts":46.8,"aqi":60,"pm10":17.4,"pm2_5":11.7,"mosquito_risk":7,"arthritis_risk":5,"migraine_risk":4,"frizz_risk":1,"updated_at":"2026-04-27T04:12:16.257746+05:30"},{"city":"Pune","state":"Maharashtra","latitude":18.5204,"longitude":73.8567,"temp":25.4,"humidity":66,"rain":0.0,"pressure":944.9,"uv_index":8.1,"wind_gusts":42.5,"aqi":70,"pm10":39.8,"pm2_5":20.8,"mosquito_risk":7,"arthritis_risk":5,"migraine_risk":7,"frizz_risk":1,"updated_at":"2026-04-27T04:12:16.257755+05:30"},{"city":"Ahmedabad","state":"Gujarat","latitude":23.0225,"longitude":72.5714,"temp":31.1,"humidity":32,"rain":0.0,"pressure":997.9,"uv_index":8.2,"wind_gusts":45.4,"aqi":56,"pm10":13.9,"pm2_5":8.3,"mosquito_risk":0,"arthritis_risk":5,"migraine_risk":7,"frizz_risk":0,"updated_at":"2026-04-27T04:12:16.257763+05:30"},{"city":"Jaipur","state":"Rajasthan","latitude":26.9124,"longitude":75.7873,"temp":30.1,"humidity":25,"rain":0.0,"pressure":954.5,"uv_index":8.05,"wind_gusts":39.6,"aqi":138,"pm10":115.5,"pm2_5":26.2,"mosquito_risk":0,"arthritis_risk":5,"migraine_risk":7,"frizz_risk":0,"updated_at":"2026-04-27T04:12:16.257769+05:30"},{"city":"Lucknow","state":"Uttar Pradesh","latitude":26.8467,"longitude":80.9462,"temp":26.7,"humidity":71,"rain":0.0,"pressure":988.2,"uv_index":7.9,"wind_gusts":42.5,"aqi":164,"pm10":94.5,"pm2_5":52.9,"mosquito_risk":7,"arthritis_risk":5,"migraine_risk":7,"frizz_risk":1,"updated_at":"2026-04-27T04:12:16.257776+05:30"},{"city":"Kanpur","state":"Uttar Pradesh","latitude":26.4499,"longitude":80.3319,"temp":28.9,"humidity":39,"rain":0.0,"pressure":986.0,"uv_index":7.95,"wind_gusts":49.3,"aqi":456,"pm10":282.2,"pm2_5":54.2,"mosquito_risk":4,"arthritis_risk":5,"migraine_risk":7,"frizz_risk":0,"updated_at":"2026-04-27T04:12:16.257782+05:30"},{"city":"Chandigarh","state":"Chandigarh","latitude":30.7333,"longitude":76.7794,"temp":25.9,"humidity":29,"rain":0.0,"pressure":962.4,"uv_index":7.3,"wind_gusts":45.4,"aqi":56,"pm10":11.4,"pm2_5":11.1,"mosquito_risk":4,"arthritis_risk":5,"migraine_risk":7,"frizz_risk":0,"updated_at":"2026-04-27T04:12:16.257789+05:30"},{"city":"Srinagar","state":"Jammu and Kashmir","latitude":34.0837,"longitude":74.7973,"temp":9.6,"humidity":88,"rain":0.0,"pressure":837.1,"uv_index":8.3,"wind_gusts":20.2,"aqi":66,"pm10":24.7,"pm2_5":18.3,"mosquito_risk":3,"arthritis_risk":10,"migraine_risk":7,"frizz_risk":0,"updated_at":"2026-04-27T04:12:16.257795+05:30"},{"city":"Jammu","state":"Jammu and Kashmir","latitude":32.7266,"longitude":74.857,"temp":21.5,"humidity":40,"rain":0.0,"pressure":966.3,"uv_index":8.25,"wind_gusts":30.2,"aqi":60,"pm10":16.8,"pm2_5":15.6,"mosquito_risk":0,"arthritis_risk":5,"migraine_risk":7,"frizz_risk":0,"updated_at":"2026-04-27T04:12:16.257802+05:30"},{"city":"Amritsar","state":"Punjab","latitude":31.634,"longitude":74.8723,"temp":24.9,"humidity":41,"rain":0.0,"pressure":974.5,"uv_index":8.15,"wind_gusts":35.6,"aqi":66,"pm10":24.9,"pm2_5":21.3,"mosquito_risk":0,"arthritis_risk":5,"migraine_risk":7,"frizz_risk":0,"updated_at":"2026-04-27T04:12:16.257808+05:30"},{"city":"Ludhiana","state":"Punjab","latitude":30.901,"longitude":75.8573,"temp":25.7,"humidity":38,"rain":0.0,"pressure":972.7,"uv_index":7.7,"wind_gusts":34.6,"aqi":71,"pm10":27.0,"pm2_5":26.0,"mosquito_risk":4,"arthritis_risk":5,"migraine_risk":7,"frizz_risk":0,"updated_at":"2026-04-27T04:12:16.257814+05:30"},{"city":"Jalandhar","state":"Punjab","latitude":31.326,"longitude":75.5762,"temp":24.9,"humidity":41,"rain":0.0,"pressure":973.6,"uv_index":7.9,"wind_gusts":28.1,"aqi":79,"pm10":40.5,"pm2_5":36.9,"mosquito_risk":0,"arthritis_risk":5,"migraine_risk":7,"frizz_risk":0,"updated_at":"2026-04-27T04:12:16.257854+05:30"},{"city":"Dehradun","state":"Uttarakhand","latitude":30.6284,"longitude":78.0322,"temp":11.9,"humidity":55,"rain":0.0,"pressure":823.3,"uv_index":7.9,"wind_gusts":43.9,"aqi":37,"pm10":11.5,"pm2_5":7.8,"mosquito_risk":0,"arthritis_risk":5,"migraine_risk":7,"frizz_risk":0,"updated_at":"2026-04-27T04:12:16.257860+05:30"},{"city":"Shimla","state":"Himachal Pradesh","latitude":31.1048,"longitude":77.1734,"temp":11.5,"humidity":42,"rain":0.0,"pressure":778.5,"uv_index":7.8,"wind_gusts":50.0,"aqi":45,"pm10":12.9,"pm2_5":10.1,"mosquito_risk":0,"arthritis_risk":5,"migraine_risk":7,"frizz_risk":1,"updated_at":"2026-04-27T04:12:16.257866+05:30"},{"city":"Manali","state":"Himachal Pradesh","latitude":32.2396,"longitude":77.1887,"temp":7.2,"humidity":39,"rain":0.0,"pressure":809.6,"uv_index":9.15,"wind_gusts":41.4,"aqi":56,"pm10":11.7,"pm2_5":8.4,"mosquito_risk":0,"arthritis_risk":5,"migraine_risk":7,"frizz_risk":1,"updated_at":"2026-04-27T04:12:16.257872+05:30"},{"city":"Gurgaon","state":"Haryana","latitude":28.4595,"longitude":77.0266,"temp":26.9,"humidity":34,"rain":0.0,"pressure":975.6,"uv_index":7.55,"wind_gusts":36.4,"aqi":1326,"pm10":583.0,"pm2_5":110.4,"mosquito_risk":4,"arthritis_risk":5,"migraine_risk":7,"frizz_risk":0,"updated_at":"2026-04-27T04:12:16.257877+05:30"},{"city":"Noida","state":"Uttar Pradesh","latitude":28.5355,"longitude":77.391,"temp":28.4,"humidity":29,"rain":0.0,"pressure":978.6,"uv_index":7.45,"wind_gusts":43.9,"aqi":1326,"pm10":583.0,"pm2_5":110.4,"mosquito_risk":4,"arthritis_risk":5,"migraine_risk":7,"frizz_risk":0,"updated_at":"2026-04-27T04:12:16.257882+05:30"},{"city":"Ghaziabad","state":"Uttar Pradesh","latitude":28.6692,"longitude":77.4538,"temp":26.9,"humidity":30,"rain":0.0,"pressure":976.8,"uv_index":7.4,"wind_gusts":41.4,"aqi":467,"pm10":519.7,"pm2_5":104.1,"mosquito_risk":4,"arthritis_risk":5,"migraine_risk":7,"frizz_risk":0,"updated_at":"2026-04-27T04:12:16.257890+05:30"},{"city":"Faridabad","state":"Haryana","latitude":28.4089,"longitude":77.3178,"temp":30.8,"humidity":23,"rain":0.0,"pressure":978.1,"uv_index":7.5,"wind_gusts":47.5,"aqi":1326,"pm10":583.0,"pm2_5":110.4,"mosquito_risk":0,"arthritis_risk":5,"migraine_risk":7,"frizz_risk":0,"updated_at":"2026-04-27T04:12:16.257895+05:30"},{"city":"Meerut","state":"Uttar Pradesh","latitude":28.9845,"longitude":77.7064,"temp":26.0,"humidity":34,"rain":0.0,"pressure":975.4,"uv_index":7.35,"wind_gusts":40.3,"aqi":467,"pm10":519.7,"pm2_5":104.1,"mosquito_risk":4,"arthritis_risk":5,"migraine_risk":7,"frizz_risk":0,"updated_at":"2026-04-27T04:12:16.257900+05:30"},{"city":"Agra","state":"Uttar Pradesh","latitude":27.1767,"longitude":78.0081,"temp":29.2,"humidity":32,"rain":0.0,"pressure":981.8,"uv_index":7.8,"wind_gusts":45.4,"aqi":646,"pm10":343.7,"pm2_5":93.4,"mosquito_risk":4,"arthritis_risk":5,"migraine_risk":7,"frizz_risk":0,"updated_at":"2026-04-27T04:12:16.257905+05:30"},{"city":"Varanasi","state":"Uttar Pradesh","latitude":25.3176,"longitude":82.9739,"temp":27.1,"humidity":73,"rain":0.0,"pressure":991.8,"uv_index":8.5,"wind_gusts":44.3,"aqi":135,"pm10":56.0,"pm2_5":53.2,"mosquito_risk":7,"arthritis_risk":5,"migraine_risk":7,"frizz_risk":1,"updated_at":"2026-04-27T04:12:16.257912+05:30"},{"city":"Prayagraj","state":"Uttar Pradesh","latitude":25.4358,"longitude":81.8463,"temp":27.2,"humidity":71,"rain":0.0,"pressure":990.1,"uv_index":8.4,"wind_gusts":43.6,"aqi":131,"pm10":61.5,"pm2_5":52.5,"mosquito_risk":7,"arthritis_risk":5,"migraine_risk":7,"frizz_risk":1,"updated_at":"2026-04-27T04:12:16.257918+05:30"},{"city":"Gorakhpur","state":"Uttar Pradesh","latitude":26.7606,"longitude":83.3732,"temp":24.1,"humidity":73,"rain":0.0,"pressure":993.0,"uv_index":8.35,"wind_gusts":37.1,"aqi":142,"pm10":43.4,"pm2_5":36.4,"mosquito_risk":3,"arthritis_risk":5,"migraine_risk":7,"frizz_risk":1,"updated_at":"2026-04-27T04:12:16.257923+05:30"},{"city":"Bareilly","state":"Uttar Pradesh","latitude":28.367,"longitude":79.4304,"temp":25.8,"humidity":36,"rain":0.0,"pressure":981.2,"uv_index":7.6,"wind_gusts":45.0,"aqi":105,"pm10":123.4,"pm2_5":41.8,"mosquito_risk":4,"arthritis_risk":5,"migraine_risk":7,"frizz_risk":0,"updated_at":"2026-04-27T04:12:16.257930+05:30"},{"city":"Aligarh","state":"Uttar Pradesh","latitude":27.8974,"longitude":78.088,"temp":27.0,"humidity":35,"rain":0.0,"pressure":979.6,"uv_index":7.6,"wind_gusts":46.8,"aqi":883,"pm10":704.1,"pm2_5":118.3,"mosquito_risk":4,"arthritis_risk":5,"migraine_risk":7,"frizz_risk":0,"updated_at":"2026-04-27T04:12:16.257935+05:30"},{"city":"Moradabad","state":"Uttar Pradesh","latitude":28.8386,"longitude":78.7733,"temp":26.6,"humidity":31,"rain":0.0,"pressure":977.7,"uv_index":7.55,"wind_gusts":48.2,"aqi":118,"pm10":255.2,"pm2_5":65.4,"mosquito_risk":4,"arthritis_risk":5,"migraine_risk":7,"frizz_risk":0,"updated_at":"2026-04-27T04:12:16.257941+05:30"},{"city":"Saharanpur","state":"Uttar Pradesh","latitude":29.9637,"longitude":77.546,"temp":25.4,"humidity":32,"rain":0.0,"pressure":969.3,"uv_index":7.05,"wind_gusts":46.8,"aqi":80,"pm10":61.9,"pm2_5":31.7,"mosquito_risk":4,"arthritis_risk":5,"migraine_risk":7,"frizz_risk":0,"updated_at":"2026-04-27T04:12:16.257946+05:30"},{"city":"Jhansi","state":"Uttar Pradesh","latitude":25.4484,"longitude":78.5685,"temp":30.4,"humidity":26,"rain":0.0,"pressure":972.1,"uv_index":8.3,"wind_gusts":43.6,"aqi":86,"pm10":40.6,"pm2_5":20.1,"mosquito_risk":0,"arthritis_risk":5,"migraine_risk":7,"frizz_risk":0,"updated_at":"2026-04-27T04:12:19.570070+05:30"},{"city":"Surat","state":"Gujarat","latitude":21.1702,"longitude":72.8311,"temp":27.9,"humidity":84,"rain":0.0,"pressure":1002.6,"uv_index":7.85,"wind_gusts":40.7,"aqi":120,"pm10":36.6,"pm2_5":25.0,"mosquito_risk":7,"arthritis_risk":5,"migraine_risk":4,"frizz_risk":1,"updated_at":"2026-04-27T04:12:19.570101+05:30"},{"city":"Vadodara","state":"Gujarat","latitude":22.3072,"longitude":73.1812,"temp":29.5,"humidity":42,"rain":0.0,"pressure":999.9,"uv_index":8.15,"wind_gusts":41.4,"aqi":80,"pm10":33.3,"pm2_5":23.1,"mosquito_risk":4,"arthritis_risk":5,"migraine_risk":7,"frizz_risk":0,"updated_at":"2026-04-27T04:12:19.570109+05:30"},{"city":"Rajkot","state":"Gujarat","latitude":22.3039,"longitude":70.8022,"temp":26.3,"humidity":56,"rain":0.0,"pressure":990.9,"uv_index":7.9,"wind_gusts":49.0,"aqi":55,"pm10":25.9,"pm2_5":10.8,"mosquito_risk":4,"arthritis_risk":5,"migraine_risk":7,"frizz_risk":1,"updated_at":"2026-04-27T04:12:19.570116+05:30"},{"city":"Thane","state":"Maharashtra","latitude":19.2183,"longitude":72.9781,"temp":26.9,"humidity":95,"rain":0.0,"pressure":1004.7,"uv_index":8.05,"wind_gusts":37.1,"aqi":91,"pm10":74.0,"pm2_5":30.5,"mosquito_risk":7,"arthritis_risk":5,"migraine_risk":4,"frizz_risk":1,"updated_at":"2026-04-27T04:12:19.570121+05:30"},{"city":"Nagpur","state":"Maharashtra","latitude":21.1458,"longitude":79.0882,"temp":30.2,"humidity":29,"rain":0.0,"pressure":968.7,"uv_index":8.55,"wind_gusts":36.7,"aqi":88,"pm10":51.1,"pm2_5":32.8,"mosquito_risk":0,"arthritis_risk":5,"migraine_risk":7,"frizz_risk":0,"updated_at":"2026-04-27T04:12:19.570127+05:30"},{"city":"Nashik","state":"Maharashtra","latitude":19.9975,"longitude":73.7898,"temp":25.0,"humidity":65,"rain":0.0,"pressure":942.3,"uv_index":8.3,"wind_gusts":37.8,"aqi":78,"pm10":54.0,"pm2_5":30.5,"mosquito_risk":7,"arthritis_risk":5,"migraine_risk":7,"frizz_risk":1,"updated_at":"2026-04-27T04:12:19.570132+05:30"},{"city":"Aurangabad","state":"Maharashtra","latitude":19.8762,"longitude":75.3433,"temp":30.2,"humidity":23,"rain":0.0,"pressure":940.6,"uv_index":9.05,"wind_gusts":32.8,"aqi":58,"pm10":27.9,"pm2_5":23.5,"mosquito_risk":0,"arthritis_risk":5,"migraine_risk":7,"frizz_risk":0,"updated_at":"2026-04-27T04:12:19.570137+05:30"},{"city":"Solapur","state":"Maharashtra","latitude":17.6599,"longitude":75.9064,"temp":28.9,"humidity":50,"rain":0.0,"pressure":954.3,"uv_index":9.1,"wind_gusts":32.8,"aqi":111,"pm10":27.0,"pm2_5":23.8,"mosquito_risk":4,"arthritis_risk":5,"migraine_risk":7,"frizz_risk":1,"updated_at":"2026-04-27T04:12:19.570143+05:30"},{"city":"Kolhapur","state":"Maharashtra","latitude":16.705,"longitude":74.2433,"temp":24.0,"humidity":93,"rain":0.0,"pressure":945.4,"uv_index":9.0,"wind_gusts":49.7,"aqi":97,"pm10":28.5,"pm2_5":20.0,"mosquito_risk":3,"arthritis_risk":5,"migraine_risk":7,"frizz_risk":1,"updated_at":"2026-04-27T04:12:19.570149+05:30"},{"city":"Goa","state":"Goa","latitude":15.2993,"longitude":74.124,"temp":28.0,"humidity":89,"rain":0.0,"pressure":995.4,"uv_index":8.95,"wind_gusts":37.1,"aqi":85,"pm10":39.5,"pm2_5":26.8,"mosquito_risk":7,"arthritis_risk":5,"migraine_risk":7,"frizz_risk":1,"updated_at":"2026-04-27T04:12:19.570154+05:30"},{"city":"Jodhpur","state":"Rajasthan","latitude":26.2389,"longitude":73.0243,"temp":31.4,"humidity":21,"rain":0.0,"pressure":977.7,"uv_index":8.3,"wind_gusts":41.8,"aqi":83,"pm10":138.8,"pm2_5":21.7,"mosquito_risk":0,"arthritis_risk":5,"migraine_risk":7,"frizz_risk":0,"updated_at":"2026-04-27T04:12:19.570160+05:30"},{"city":"Udaipur","state":"Rajasthan","latitude":24.5854,"longitude":73.7125,"temp":29.9,"humidity":20,"rain":0.0,"pressure":942.4,"uv_index":8.75,"wind_gusts":44.3,"aqi":46,"pm10":26.6,"pm2_5":8.7,"mosquito_risk":4,"arthritis_risk":5,"migraine_risk":7,"frizz_risk":0,"updated_at":"2026-04-27T04:12:19.570165+05:30"},{"city":"Kota","state":"Rajasthan","latitude":25.2138,"longitude":75.8648,"temp":30.8,"humidity":23,"rain":0.0,"pressure":973.6,"uv_index":8.25,"wind_gusts":29.9,"aqi":83,"pm10":22.7,"pm2_5":17.2,"mosquito_risk":0,"arthritis_risk":5,"migraine_risk":7,"frizz_risk":0,"updated_at":"2026-04-27T04:12:19.570170+05:30"},{"city":"Bikaner","state":"Rajasthan","latitude":28.0229,"longitude":73.3119,"temp":30.0,"humidity":26,"rain":0.0,"pressure":975.9,"uv_index":8.1,"wind_gusts":52.2,"aqi":67,"pm10":59.8,"pm2_5":17.9,"mosquito_risk":4,"arthritis_risk":5,"migraine_risk":7,"frizz_risk":0,"updated_at":"2026-04-27T04:12:19.570176+05:30"},{"city":"Ajmer","state":"Rajasthan","latitude":26.4499,"longitude":74.6399,"temp":29.2,"humidity":28,"rain":0.0,"pressure":950.3,"uv_index":8.25,"wind_gusts":46.8,"aqi":62,"pm10":43.8,"pm2_5":11.4,"mosquito_risk":4,"arthritis_risk":5,"migraine_risk":7,"frizz_risk":0,"updated_at":"2026-04-27T04:12:19.570181+05:30"},{"city":"Gwalior","state":"Madhya Pradesh","latitude":26.2183,"longitude":78.1828,"temp":30.8,"humidity":26,"rain":0.0,"pressure":977.4,"uv_index":8.05,"wind_gusts":46.8,"aqi":107,"pm10":35.3,"pm2_5":18.3,"mosquito_risk":0,"arthritis_risk":5,"migraine_risk":7,"frizz_risk":0,"updated_at":"2026-04-27T04:12:19.570186+05:30"},{"city":"Indore","state":"Madhya Pradesh","latitude":22.7196,"longitude":75.8577,"temp":29.3,"humidity":19,"rain":0.0,"pressure":944.4,"uv_index":8.6,"wind_gusts":49.0,"aqi":73,"pm10":25.6,"pm2_5":20.0,"mosquito_risk":4,"arthritis_risk":5,"migraine_risk":7,"frizz_risk":0,"updated_at":"2026-04-27T04:12:19.570191+05:30"},{"city":"Bhopal","state":"Madhya Pradesh","latitude":23.2599,"longitude":77.4126,"temp":31.1,"humidity":20,"rain":0.0,"pressure":949.7,"uv_index":8.6,"wind_gusts":44.6,"aqi":74,"pm10":55.9,"pm2_5":28.4,"mosquito_risk":0,"arthritis_risk":5,"migraine_risk":7,"frizz_risk":0,"updated_at":"2026-04-27T04:12:19.570196+05:30"},{"city":"Jabalpur","state":"Madhya Pradesh","latitude":23.1815,"longitude":79.9864,"temp":28.0,"humidity":33,"rain":0.0,"pressure":956.7,"uv_index":8.25,"wind_gusts":40.0,"aqi":80,"pm10":66.4,"pm2_5":33.4,"mosquito_risk":4,"arthritis_risk":5,"migraine_risk":7,"frizz_risk":0,"updated_at":"2026-04-27T04:12:19.570202+05:30"},{"city":"Ujjain","state":"Madhya Pradesh","latitude":23.1765,"longitude":75.7885,"temp":29.0,"humidity":21,"rain":0.0,"pressure":949.9,"uv_index":8.55,"wind_gusts":46.1,"aqi":69,"pm10":17.0,"pm2_5":14.7,"mosquito_risk":4,"arthritis_risk":5,"migraine_risk":7,"frizz_risk":0,"updated_at":"2026-04-27T04:12:19.570208+05:30"},{"city":"Visakhapatnam","state":"Andhra Pradesh","latitude":17.6868,"longitude":83.2185,"temp":26.5,"humidity":91,"rain":0.0,"pressure":1000.6,"uv_index":9.15,"wind_gusts":54.4,"aqi":55,"pm10":17.9,"pm2_5":13.8,"mosquito_risk":7,"arthritis_risk":5,"migraine_risk":4,"frizz_risk":1,"updated_at":"2026-04-27T04:12:19.570213+05:30"},{"city":"Vijayawada","state":"Andhra Pradesh","latitude":16.5062,"longitude":80.648,"temp":27.0,"humidity":95,"rain":0.0,"pressure":999.5,"uv_index":9.2,"wind_gusts":37.1,"aqi":56,"pm10":19.0,"pm2_5":13.8,"mosquito_risk":7,"arthritis_risk":5,"migraine_risk":7,"frizz_risk":1,"updated_at":"2026-04-27T04:12:19.570218+05:30"},{"city":"Guntur","state":"Andhra Pradesh","latitude":16.3067,"longitude":80.4365,"temp":27.1,"humidity":96,"rain":0.0,"pressure":1000.7,"uv_index":9.2,"wind_gusts":42.1,"aqi":57,"pm10":17.9,"pm2_5":12.9,"mosquito_risk":7,"arthritis_risk":5,"migraine_risk":4,"frizz_risk":1,"updated_at":"2026-04-27T04:12:19.570223+05:30"},{"city":"Nellore","state":"Andhra Pradesh","latitude":14.4426,"longitude":79.9865,"temp":25.9,"humidity":91,"rain":0.0,"pressure":1002.8,"uv_index":9.3,"wind_gusts":49.0,"aqi":54,"pm10":16.0,"pm2_5":12.7,"mosquito_risk":7,"arthritis_risk":5,"migraine_risk":4,"frizz_risk":1,"updated_at":"2026-04-27T04:12:19.570229+05:30"},{"city":"Kurnool","state":"Andhra Pradesh","latitude":15.8281,"longitude":78.0373,"temp":30.0,"humidity":52,"rain":0.0,"pressure":973.5,"uv_index":9.2,"wind_gusts":38.2,"aqi":83,"pm10":21.5,"pm2_5":18.6,"mosquito_risk":4,"arthritis_risk":5,"migraine_risk":7,"frizz_risk":1,"updated_at":"2026-04-27T04:12:19.570234+05:30"},{"city":"Kakinada","state":"Andhra Pradesh","latitude":16.9891,"longitude":82.2475,"temp":26.4,"humidity":97,"rain":0.0,"pressure":1004.7,"uv_index":9.2,"wind_gusts":42.5,"aqi":48,"pm10":20.0,"pm2_5":13.0,"mosquito_risk":7,"arthritis_risk":5,"migraine_risk":4,"frizz_risk":1,"updated_at":"2026-04-27T04:12:19.570239+05:30"},{"city":"Tirupati","state":"Andhra Pradesh","latitude":13.6288,"longitude":79.4192,"temp":26.0,"humidity":82,"rain":0.0,"pressure":988.8,"uv_index":9.3,"wind_gusts":46.4,"aqi":63,"pm10":22.4,"pm2_5":19.4,"mosquito_risk":7,"arthritis_risk":5,"migraine_risk":7,"frizz_risk":1,"updated_at":"2026-04-27T04:12:19.570244+05:30"},{"city":"Warangal","state":"Telangana","latitude":17.9689,"longitude":79.5941,"temp":26.2,"humidity":76,"rain":0.0,"pressure":975.1,"uv_index":8.85,"wind_gusts":40.0,"aqi":74,"pm10":17.3,"pm2_5":15.2,"mosquito_risk":7,"arthritis_risk":5,"migraine_risk":7,"frizz_risk":1,"updated_at":"2026-04-27T04:12:19.570249+05:30"},{"city":"Nizamabad","state":"Telangana","latitude":18.6725,"longitude":78.0941,"temp":29.4,"humidity":38,"rain":0.0,"pressure":960.8,"uv_index":9.1,"wind_gusts":29.9,"aqi":114,"pm10":44.5,"pm2_5":41.6,"mosquito_risk":4,"arthritis_risk":5,"migraine_risk":7,"frizz_risk":0,"updated_at":"2026-04-27T04:12:19.570254+05:30"},{"city":"Mysore","state":"Karnataka","latitude":12.2958,"longitude":76.6396,"temp":22.6,"humidity":96,"rain":0.0,"pressure":926.5,"uv_index":9.45,"wind_gusts":44.3,"aqi":95,"pm10":43.8,"pm2_5":40.9,"mosquito_risk":3,"arthritis_risk":5,"migraine_risk":7,"frizz_risk":1,"updated_at":"2026-04-27T04:12:19.570259+05:30"},{"city":"Mangalore","state":"Karnataka","latitude":12.9141,"longitude":74.856,"temp":28.1,"humidity":88,"rain":0.0,"pressure":1004.8,"uv_index":8.45,"wind_gusts":38.9,"aqi":80,"pm10":30.4,"pm2_5":24.0,"mosquito_risk":7,"arthritis_risk":5,"migraine_risk":4,"frizz_risk":1,"updated_at":"2026-04-27T04:12:19.570264+05:30"},{"city":"Hubli-Dharwad","state":"Karnataka","latitude":15.3647,"longitude":75.124,"temp":24.0,"humidity":95,"rain":0.0,"pressure":938.4,"uv_index":9.2,"wind_gusts":48.2,"aqi":90,"pm10":25.1,"pm2_5":21.5,"mosquito_risk":3,"arthritis_risk":5,"migraine_risk":7,"frizz_risk":1,"updated_at":"2026-04-27T04:12:19.570269+05:30"},{"city":"Belgaum","state":"Karnataka","latitude":15.8497,"longitude":74.4977,"temp":22.4,"humidity":98,"rain":0.0,"pressure":923.0,"uv_index":9.25,"wind_gusts":48.2,"aqi":100,"pm10":30.6,"pm2_5":25.4,"mosquito_risk":3,"arthritis_risk":5,"migraine_risk":7,"frizz_risk":1,"updated_at":"2026-04-27T04:12:22.882516+05:30"},{"city":"Coimbatore","state":"Tamil Nadu","latitude":11.0168,"longitude":76.9558,"temp":25.8,"humidity":86,"rain":0.0,"pressure":959.5,"uv_index":9.35,"wind_gusts":46.8,"aqi":81,"pm10":24.8,"pm2_5":23.2,"mosquito_risk":7,"arthritis_risk":5,"migraine_risk":7,"frizz_risk":1,"updated_at":"2026-04-27T04:12:22.882545+05:30"},{"city":"Madurai","state":"Tamil Nadu","latitude":9.9252,"longitude":78.1198,"temp":27.6,"humidity":77,"rain":0.0,"pressure":991.0,"uv_index":9.2,"wind_gusts":46.4,"aqi":47,"pm10":12.9,"pm2_5":12.5,"mosquito_risk":7,"arthritis_risk":5,"migraine_risk":7,"frizz_risk":1,"updated_at":"2026-04-27T04:12:22.882554+05:30"},{"city":"Trichy","state":"Tamil Nadu","latitude":10.7905,"longitude":78.7047,"temp":26.3,"humidity":95,"rain":0.0,"pressure":997.8,"uv_index":9.25,"wind_gusts":41.0,"aqi":53,"pm10":20.7,"pm2_5":17.9,"mosquito_risk":7,"arthritis_risk":5,"migraine_risk":7,"frizz_risk":1,"updated_at":"2026-04-27T04:12:22.882561+05:30"},{"city":"Salem","state":"Tamil Nadu","latitude":11.6643,"longitude":78.146,"temp":26.2,"humidity":74,"rain":0.0,"pressure":975.6,"uv_index":9.3,"wind_gusts":34.2,"aqi":63,"pm10":22.9,"pm2_5":21.5,"mosquito_risk":7,"arthritis_risk":5,"migraine_risk":7,"frizz_risk":1,"updated_at":"2026-04-27T04:12:22.882567+05:30"},{"city":"Tirunelveli","state":"Tamil Nadu","latitude":8.7139,"longitude":77.7567,"temp":27.1,"humidity":77,"rain":0.0,"pressure":1001.1,"uv_index":8.55,"wind_gusts":46.1,"aqi":52,"pm10":20.7,"pm2_5":20.0,"mosquito_risk":7,"arthritis_risk":5,"migraine_risk":4,"frizz_risk":1,"updated_at":"2026-04-27T04:12:22.882573+05:30"},{"city":"Vellore","state":"Tamil Nadu","latitude":12.9165,"longitude":79.1325,"temp":24.6,"humidity":88,"rain":0.0,"pressure":982.2,"uv_index":9.25,"wind_gusts":40.3,"aqi":80,"pm10":41.4,"pm2_5":38.5,"mosquito_risk":3,"arthritis_risk":5,"migraine_risk":7,"frizz_risk":1,"updated_at":"2026-04-27T04:12:22.882579+05:30"},{"city":"Erode","state":"Tamil Nadu","latitude":11.341,"longitude":77.7172,"temp":26.8,"humidity":78,"rain":0.0,"pressure":987.1,"uv_index":9.3,"wind_gusts":45.4,"aqi":53,"pm10":17.7,"pm2_5":16.8,"mosquito_risk":7,"arthritis_risk":5,"migraine_risk":7,"frizz_risk":1,"updated_at":"2026-04-27T04:12:22.882585+05:30"},{"city":"Kochi","state":"Kerala","latitude":9.9312,"longitude":76.2673,"temp":27.2,"humidity":90,"rain":0.0,"pressure":1006.6,"uv_index":9.0,"wind_gusts":35.3,"aqi":79,"pm10":39.1,"pm2_5":37.5,"mosquito_risk":7,"arthritis_risk":5,"migraine_risk":4,"frizz_risk":1,"updated_at":"2026-04-27T04:12:22.882591+05:30"},{"city":"Thiruvananthapuram","state":"Kerala","latitude":8.5241,"longitude":76.9366,"temp":25.1,"humidity":91,"rain":0.0,"pressure":1005.8,"uv_index":8.65,"wind_gusts":34.9,"aqi":44,"pm10":14.3,"pm2_5":12.8,"mosquito_risk":7,"arthritis_risk":5,"migraine_risk":4,"frizz_risk":1,"updated_at":"2026-04-27T04:12:22.882597+05:30"},{"city":"Kozhikode","state":"Kerala","latitude":11.2588,"longitude":75.7804,"temp":25.7,"humidity":92,"rain":0.0,"pressure":1006.0,"uv_index":8.8,"wind_gusts":38.9,"aqi":57,"pm10":19.7,"pm2_5":16.1,"mosquito_risk":7,"arthritis_risk":5,"migraine_risk":4,"frizz_risk":1,"updated_at":"2026-04-27T04:12:22.882603+05:30"},{"city":"Thrissur","state":"Kerala","latitude":10.5276,"longitude":76.2144,"temp":25.8,"humidity":100,"rain":0.0,"pressure":1005.2,"uv_index":9.0,"wind_gusts":33.8,"aqi":76,"pm10":38.0,"pm2_5":35.7,"mosquito_risk":7,"arthritis_risk":5,"migraine_risk":4,"frizz_risk":1,"updated_at":"2026-04-27T04:12:22.882608+05:30"},{"city":"Kannur","state":"Kerala","latitude":11.8745,"longitude":75.3704,"temp":25.2,"humidity":93,"rain":0.0,"pressure":1005.3,"uv_index":9.0,"wind_gusts":37.4,"aqi":71,"pm10":23.8,"pm2_5":19.3,"mosquito_risk":7,"arthritis_risk":5,"migraine_risk":4,"frizz_risk":1,"updated_at":"2026-04-27T04:12:22.882614+05:30"},{"city":"Patna","state":"Bihar","latitude":25.5941,"longitude":85.1376,"temp":23.9,"humidity":83,"rain":0.0,"pressure":995.8,"uv_index":8.6,"wind_gusts":34.9,"aqi":144,"pm10":47.1,"pm2_5":42.7,"mosquito_risk":3,"arthritis_risk":5,"migraine_risk":7,"frizz_risk":1,"updated_at":"2026-04-27T04:12:22.882619+05:30"},{"city":"Gaya","state":"Bihar","latitude":24.7914,"longitude":85.0002,"temp":25.3,"humidity":87,"rain":0.0,"pressure":988.0,"uv_index":8.7,"wind_gusts":31.0,"aqi":131,"pm10":47.6,"pm2_5":45.8,"mosquito_risk":7,"arthritis_risk":5,"migraine_risk":7,"frizz_risk":1,"updated_at":"2026-04-27T04:12:22.882624+05:30"},{"city":"Muzaffarpur","state":"Bihar","latitude":26.1209,"longitude":85.3647,"temp":23.0,"humidity":82,"rain":0.0,"pressure":996.5,"uv_index":8.6,"wind_gusts":36.7,"aqi":148,"pm10":49.1,"pm2_5":44.2,"mosquito_risk":3,"arthritis_risk":5,"migraine_risk":7,"frizz_risk":1,"updated_at":"2026-04-27T04:12:22.882629+05:30"},{"city":"Bhagalpur","state":"Bihar","latitude":25.2425,"longitude":87.0117,"temp":23.5,"humidity":87,"rain":0.0,"pressure":997.3,"uv_index":8.15,"wind_gusts":32.8,"aqi":136,"pm10":50.4,"pm2_5":41.6,"mosquito_risk":3,"arthritis_risk":5,"migraine_risk":7,"frizz_risk":1,"updated_at":"2026-04-27T04:12:22.882634+05:30"},{"city":"Ranchi","state":"Jharkhand","latitude":23.3441,"longitude":85.3096,"temp":24.2,"humidity":69,"rain":0.0,"pressure":932.6,"uv_index":8.55,"wind_gusts":45.4,"aqi":114,"pm10":102.4,"pm2_5":46.1,"mosquito_risk":3,"arthritis_risk":5,"migraine_risk":7,"frizz_risk":1,"updated_at":"2026-04-27T04:12:22.882662+05:30"},{"city":"Jamshedpur","state":"Jharkhand","latitude":22.8046,"longitude":86.2029,"temp":27.2,"humidity":80,"rain":0.0,"pressure":985.4,"uv_index":9.0,"wind_gusts":52.9,"aqi":123,"pm10":41.1,"pm2_5":37.6,"mosquito_risk":7,"arthritis_risk":5,"migraine_risk":7,"frizz_risk":1,"updated_at":"2026-04-27T04:12:22.882667+05:30"},{"city":"Dhanbad","state":"Jharkhand","latitude":23.7957,"longitude":86.4304,"temp":26.3,"humidity":94,"rain":0.0,"pressure":974.3,"uv_index":8.95,"wind_gusts":55.4,"aqi":145,"pm10":53.4,"pm2_5":50.8,"mosquito_risk":7,"arthritis_risk":5,"migraine_risk":7,"frizz_risk":1,"updated_at":"2026-04-27T04:12:22.882673+05:30"},{"city":"Bokaro","state":"Jharkhand","latitude":23.6693,"longitude":86.1511,"temp":25.3,"humidity":100,"rain":0.0,"pressure":978.0,"uv_index":8.95,"wind_gusts":51.1,"aqi":146,"pm10":65.0,"pm2_5":62.6,"mosquito_risk":7,"arthritis_risk":5,"migraine_risk":7,"frizz_risk":1,"updated_at":"2026-04-27T04:12:22.882678+05:30"},{"city":"Bhubaneswar","state":"Odisha","latitude":20.2961,"longitude":85.8245,"temp":26.8,"humidity":91,"rain":0.0,"pressure":997.9,"uv_index":8.9,"wind_gusts":53.3,"aqi":54,"pm10":13.6,"pm2_5":9.8,"mosquito_risk":7,"arthritis_risk":5,"migraine_risk":7,"frizz_risk":1,"updated_at":"2026-04-27T04:12:22.882684+05:30"},{"city":"Cuttack","state":"Odisha","latitude":20.4625,"longitude":85.8828,"temp":26.9,"humidity":91,"rain":0.0,"pressure":999.7,"uv_index":8.9,"wind_gusts":47.2,"aqi":54,"pm10":13.6,"pm2_5":9.8,"mosquito_risk":7,"arthritis_risk":5,"migraine_risk":7,"frizz_risk":1,"updated_at":"2026-04-27T04:12:22.882689+05:30"},{"city":"Rourkela","state":"Odisha","latitude":22.2604,"longitude":84.8536,"temp":26.5,"humidity":85,"rain":0.0,"pressure":980.2,"uv_index":8.95,"wind_gusts":46.8,"aqi":131,"pm10":53.8,"pm2_5":41.0,"mosquito_risk":7,"arthritis_risk":5,"migraine_risk":7,"frizz_risk":1,"updated_at":"2026-04-27T04:12:22.882695+05:30"},{"city":"Raipur","state":"Chhattisgarh","latitude":21.2514,"longitude":81.6296,"temp":29.3,"humidity":32,"rain":0.0,"pressure":970.5,"uv_index":8.4,"wind_gusts":57.2,"aqi":106,"pm10":37.6,"pm2_5":35.5,"mosquito_risk":4,"arthritis_risk":5,"migraine_risk":7,"frizz_risk":0,"updated_at":"2026-04-27T04:12:22.882702+05:30"},{"city":"Bhilai","state":"Chhattisgarh","latitude":21.1938,"longitude":81.3509,"temp":28.7,"humidity":37,"rain":0.0,"pressure":970.9,"uv_index":7.6,"wind_gusts":47.2,"aqi":99,"pm10":36.2,"pm2_5":33.9,"mosquito_risk":4,"arthritis_risk":5,"migraine_risk":7,"frizz_risk":0,"updated_at":"2026-04-27T04:12:22.882707+05:30"},{"city":"Guwahati","state":"Assam","latitude":26.1158,"longitude":91.7086,"temp":20.5,"humidity":97,"rain":0.1,"pressure":999.2,"uv_index":2.45,"wind_gusts":31.0,"aqi":127,"pm10":30.6,"pm2_5":22.2,"mosquito_risk":6,"arthritis_risk":5,"migraine_risk":3,"frizz_risk":1,"updated_at":"2026-04-27T04:12:22.882712+05:30"},{"city":"Agartala","state":"Tripura","latitude":23.8315,"longitude":91.2868,"temp":24.5,"humidity":95,"rain":0.0,"pressure":1003.2,"uv_index":7.8,"wind_gusts":57.6,"aqi":92,"pm10":24.1,"pm2_5":19.6,"mosquito_risk":3,"arthritis_risk":5,"migraine_risk":4,"frizz_risk":1,"updated_at":"2026-04-27T04:12:22.882718+05:30"},{"city":"Shillong","state":"Meghalaya","latitude":25.5788,"longitude":91.8933,"temp":15.0,"humidity":98,"rain":0.1,"pressure":852.4,"uv_index":1.75,"wind_gusts":43.2,"aqi":131,"pm10":44.5,"pm2_5":31.2,"mosquito_risk":6,"arthritis_risk":10,"migraine_risk":3,"frizz_risk":0,"updated_at":"2026-04-27T04:12:22.882724+05:30"},{"city":"Imphal","state":"Manipur","latitude":24.817,"longitude":93.9368,"temp":17.6,"humidity":95,"rain":0.0,"pressure":920.8,"uv_index":8.35,"wind_gusts":32.0,"aqi":160,"pm10":124.3,"pm2_5":78.7,"mosquito_risk":3,"arthritis_risk":10,"migraine_risk":7,"frizz_risk":1,"updated_at":"2026-04-27T04:12:22.882729+05:30"},{"city":"Aizawl","state":"Mizoram","latitude":23.7271,"longitude":92.7176,"temp":17.4,"humidity":98,"rain":0.1,"pressure":889.8,"uv_index":9.0,"wind_gusts":56.2,"aqi":107,"pm10":39.2,"pm2_5":25.3,"mosquito_risk":6,"arthritis_risk":10,"migraine_risk":7,"frizz_risk":1,"updated_at":"2026-04-27T04:12:22.882734+05:30"},{"city":"Kohima","state":"Nagaland","latitude":25.6701,"longitude":94.1077,"temp":14.3,"humidity":96,"rain":0.1,"pressure":851.6,"uv_index":1.2,"wind_gusts":28.8,"aqi":152,"pm10":74.7,"pm2_5":41.7,"mosquito_risk":6,"arthritis_risk":10,"migraine_risk":3,"frizz_risk":0,"updated_at":"2026-04-27T04:12:22.882739+05:30"},{"city":"Gangtok","state":"Sikkim","latitude":27.3314,"longitude":88.6138,"temp":12.5,"humidity":97,"rain":0.0,"pressure":831.8,"uv_index":8.5,"wind_gusts":41.4,"aqi":69,"pm10":13.6,"pm2_5":10.7,"mosquito_risk":3,"arthritis_risk":10,"migraine_risk":7,"frizz_risk":0,"updated_at":"2026-04-27T04:12:22.882745+05:30"},{"city":"Siliguri","state":"West Bengal","latitude":26.7271,"longitude":88.3953,"temp":19.9,"humidity":96,"rain":0.1,"pressure":990.5,"uv_index":8.4,"wind_gusts":32.4,"aqi":123,"pm10":79.4,"pm2_5":54.0,"mosquito_risk":6,"arthritis_risk":10,"migraine_risk":7,"frizz_risk":1,"updated_at":"2026-04-27T04:12:26.202098+05:30"},{"city":"Durgapur","state":"West Bengal","latitude":23.5204,"longitude":87.3119,"temp":26.6,"humidity":94,"rain":0.0,"pressure":989.8,"uv_index":8.8,"wind_gusts":37.4,"aqi":114,"pm10":28.5,"pm2_5":25.1,"mosquito_risk":7,"arthritis_risk":5,"migraine_risk":7,"frizz_risk":1,"updated_at":"2026-04-27T04:12:26.202127+05:30"},{"city":"Asansol","state":"West Bengal","latitude":23.6739,"longitude":86.9524,"temp":27.1,"humidity":92,"rain":0.0,"pressure":988.2,"uv_index":8.75,"wind_gusts":41.0,"aqi":121,"pm10":29.5,"pm2_5":26.8,"mosquito_risk":7,"arthritis_risk":5,"migraine_risk":7,"frizz_risk":1,"updated_at":"2026-04-27T04:12:26.202135+05:30"},{"city":"Pondicherry","state":"Puducherry","latitude":11.9139,"longitude":79.8145,"temp":27.6,"humidity":88,"rain":0.0,"pressure":1006.1,"uv_index":9.2,"wind_gusts":48.6,"aqi":45,"pm10":18.9,"pm2_5":12.9,"mosquito_risk":7,"arthritis_risk":5,"migraine_risk":4,"frizz_risk":1,"updated_at":"2026-04-27T04:12:26.202141+05:30"},{"city":"Port Blair","state":"Andaman and Nicobar Islands","latitude":11.6234,"longitude":92.7265,"temp":26.7,"humidity":88,"rain":0.0,"pressure":1005.0,"uv_index":9.1,"wind_gusts":34.2,"aqi":55,"pm10":19.2,"pm2_5":14.3,"mosquito_risk":7,"arthritis_risk":5,"migraine_risk":4,"frizz_risk":1,"updated_at":"2026-04-27T04:12:26.202147+05:30"},{"city":"Haridwar","state":"Uttarakhand","latitude":29.9457,"longitude":78.1642,"temp":18.7,"humidity":61,"rain":0.0,"pressure":967.1,"uv_index":7.25,"wind_gusts":27.4,"aqi":62,"pm10":20.1,"pm2_5":19.8,"mosquito_risk":3,"arthritis_risk":5,"migraine_risk":7,"frizz_risk":0,"updated_at":"2026-04-27T04:12:26.202153+05:30"},{"city":"Rishikesh","state":"Uttarakhand","latitude":30.0869,"longitude":78.2676,"temp":17.2,"humidity":64,"rain":0.0,"pressure":959.6,"uv_index":7.35,"wind_gusts":26.6,"aqi":59,"pm10":20.5,"pm2_5":18.5,"mosquito_risk":3,"arthritis_risk":5,"migraine_risk":7,"frizz_risk":0,"updated_at":"2026-04-27T04:12:26.202158+05:30"},{"city":"Nainital","state":"Uttarakhand","latitude":29.3919,"longitude":79.4542,"temp":15.4,"humidity":31,"rain":0.0,"pressure":801.3,"uv_index":8.2,"wind_gusts":38.9,"aqi":65,"pm10":19.2,"pm2_5":13.3,"mosquito_risk":0,"arthritis_risk":5,"migraine_risk":7,"frizz_risk":1,"updated_at":"2026-04-27T04:12:26.202164+05:30"},{"city":"Mussoorie","state":"Uttarakhand","latitude":30.4599,"longitude":78.0664,"temp":13.9,"humidity":44,"rain":0.0,"pressure":797.4,"uv_index":7.75,"wind_gusts":54.0,"aqi":54,"pm10":16.2,"pm2_5":14.6,"mosquito_risk":0,"arthritis_risk":5,"migraine_risk":7,"frizz_risk":0,"updated_at":"2026-04-27T04:12:26.202170+05:30"},{"city":"Dharamshala","state":"Himachal Pradesh","latitude":32.219,"longitude":76.3234,"temp":22.2,"humidity":32,"rain":0.0,"pressure":865.3,"uv_index":8.0,"wind_gusts":47.9,"aqi":41,"pm10":6.4,"pm2_5":4.2,"mosquito_risk":0,"arthritis_risk":5,"migraine_risk":7,"frizz_risk":0,"updated_at":"2026-04-27T04:12:26.202176+05:30"},{"city":"Dalhousie","state":"Himachal Pradesh","latitude":32.5387,"longitude":75.971,"temp":10.4,"humidity":69,"rain":0.0,"pressure":796.9,"uv_index":8.25,"wind_gusts":43.9,"aqi":54,"pm10":14.3,"pm2_5":12.3,"mosquito_risk":3,"arthritis_risk":5,"migraine_risk":7,"frizz_risk":0,"updated_at":"2026-04-27T04:12:26.202181+05:30"},{"city":"Patiala","state":"Punjab","latitude":30.3398,"longitude":76.3869,"temp":27.3,"humidity":31,"rain":0.0,"pressure":972.1,"uv_index":7.25,"wind_gusts":40.0,"aqi":417,"pm10":258.0,"pm2_5":51.9,"mosquito_risk":4,"arthritis_risk":5,"migraine_risk":7,"frizz_risk":0,"updated_at":"2026-04-27T04:12:26.202187+05:30"},{"city":"Bhatinda","state":"Punjab","latitude":30.211,"longitude":74.9455,"temp":27.5,"humidity":30,"rain":0.0,"pressure":977.6,"uv_index":7.8,"wind_gusts":64.1,"aqi":77,"pm10":33.4,"pm2_5":23.7,"mosquito_risk":4,"arthritis_risk":5,"migraine_risk":7,"frizz_risk":0,"updated_at":"2026-04-27T04:12:26.202192+05:30"},{"city":"Rohtak","state":"Haryana","latitude":28.8955,"longitude":76.6066,"temp":26.6,"humidity":29,"rain":0.0,"pressure":975.9,"uv_index":7.5,"wind_gusts":40.7,"aqi":726,"pm10":597.9,"pm2_5":105.7,"mosquito_risk":4,"arthritis_risk":5,"migraine_risk":7,"frizz_risk":0,"updated_at":"2026-04-27T04:12:26.202198+05:30"},{"city":"Panipat","state":"Haryana","latitude":29.3909,"longitude":76.9635,"temp":26.8,"humidity":30,"rain":0.0,"pressure":974.4,"uv_index":7.3,"wind_gusts":43.2,"aqi":1389,"pm10":918.3,"pm2_5":137.4,"mosquito_risk":4,"arthritis_risk":5,"migraine_risk":7,"frizz_risk":0,"updated_at":"2026-04-27T04:12:26.202202+05:30"},{"city":"Mathura","state":"Uttar Pradesh","latitude":27.4924,"longitude":77.6737,"temp":27.0,"humidity":37,"rain":0.0,"pressure":981.0,"uv_index":7.75,"wind_gusts":38.2,"aqi":799,"pm10":916.4,"pm2_5":142.0,"mosquito_risk":4,"arthritis_risk":5,"migraine_risk":7,"frizz_risk":0,"updated_at":"2026-04-27T04:12:26.202207+05:30"},{"city":"Vrindavan","state":"Uttar Pradesh","latitude":27.5823,"longitude":77.7027,"temp":26.6,"humidity":38,"rain":0.0,"pressure":981.4,"uv_index":7.7,"wind_gusts":37.8,"aqi":799,"pm10":916.4,"pm2_5":142.0,"mosquito_risk":4,"arthritis_risk":5,"migraine_risk":7,"frizz_risk":0,"updated_at":"2026-04-27T04:12:26.202212+05:30"},{"city":"Ayodhya","state":"Uttar Pradesh","latitude":26.7922,"longitude":82.1998,"temp":24.6,"humidity":76,"rain":0.0,"pressure":990.7,"uv_index":8.1,"wind_gusts":33.5,"aqi":139,"pm10":53.9,"pm2_5":45.6,"mosquito_risk":3,"arthritis_risk":5,"migraine_risk":7,"frizz_risk":1,"updated_at":"2026-04-27T04:12:26.202218+05:30"},{"city":"Ratlam","state":"Madhya Pradesh","latitude":23.3315,"longitude":75.0367,"temp":28.2,"humidity":22,"rain":0.0,"pressure":950.9,"uv_index":8.45,"wind_gusts":44.6,"aqi":59,"pm10":13.8,"pm2_5":10.6,"mosquito_risk":4,"arthritis_risk":5,"migraine_risk":7,"frizz_risk":0,"updated_at":"2026-04-27T04:12:26.202223+05:30"},{"city":"Sagar","state":"Madhya Pradesh","latitude":23.8388,"longitude":78.7378,"temp":27.9,"humidity":32,"rain":0.0,"pressure":945.4,"uv_index":8.65,"wind_gusts":38.5,"aqi":69,"pm10":51.8,"pm2_5":20.0,"mosquito_risk":4,"arthritis_risk":5,"migraine_risk":7,"frizz_risk":0,"updated_at":"2026-04-27T04:12:26.202228+05:30"},{"city":"Satna","state":"Madhya Pradesh","latitude":24.6005,"longitude":80.8322,"temp":29.2,"humidity":29,"rain":0.0,"pressure":965.5,"uv_index":8.65,"wind_gusts":52.2,"aqi":89,"pm10":50.5,"pm2_5":18.6,"mosquito_risk":4,"arthritis_risk":5,"migraine_risk":7,"frizz_risk":0,"updated_at":"2026-04-27T04:12:26.202234+05:30"},{"city":"Akola","state":"Maharashtra","latitude":20.7002,"longitude":77.0082,"temp":31.4,"humidity":22,"rain":0.0,"pressure":970.5,"uv_index":8.9,"wind_gusts":33.8,"aqi":55,"pm10":31.2,"pm2_5":21.7,"mosquito_risk":0,"arthritis_risk":5,"migraine_risk":7,"frizz_risk":0,"updated_at":"2026-04-27T04:12:26.202239+05:30"},{"city":"Amravati","state":"Maharashtra","latitude":20.9374,"longitude":77.7796,"temp":30.3,"humidity":26,"rain":0.0,"pressure":962.7,"uv_index":8.9,"wind_gusts":36.7,"aqi":60,"pm10":35.4,"pm2_5":23.5,"mosquito_risk":0,"arthritis_risk":5,"migraine_risk":7,"frizz_risk":0,"updated_at":"2026-04-27T04:12:26.202245+05:30"},{"city":"Latur","state":"Maharashtra","latitude":18.4088,"longitude":76.5604,"temp":28.8,"humidity":31,"rain":0.0,"pressure":936.4,"uv_index":9.1,"wind_gusts":38.9,"aqi":99,"pm10":44.5,"pm2_5":41.6,"mosquito_risk":4,"arthritis_risk":5,"migraine_risk":7,"frizz_risk":0,"updated_at":"2026-04-27T04:12:26.202250+05:30"},{"city":"Nanded","state":"Maharashtra","latitude":19.1383,"longitude":77.3091,"temp":29.0,"humidity":34,"rain":0.0,"pressure":964.6,"uv_index":9.0,"wind_gusts":36.0,"aqi":90,"pm10":45.1,"pm2_5":40.4,"mosquito_risk":4,"arthritis_risk":5,"migraine_risk":7,"frizz_risk":0,"updated_at":"2026-04-27T04:12:26.202255+05:30"},{"city":"Gulbarga","state":"Karnataka","latitude":17.3297,"longitude":76.8343,"temp":29.1,"humidity":46,"rain":0.0,"pressure":955.5,"uv_index":9.1,"wind_gusts":31.3,"aqi":108,"pm10":33.8,"pm2_5":31.5,"mosquito_risk":4,"arthritis_risk":5,"migraine_risk":7,"frizz_risk":1,"updated_at":"2026-04-27T04:12:26.202260+05:30"},{"city":"Bidar","state":"Karnataka","latitude":17.9104,"longitude":77.5199,"temp":28.2,"humidity":39,"rain":0.0,"pressure":932.0,"uv_index":9.1,"wind_gusts":30.6,"aqi":106,"pm10":36.9,"pm2_5":33.5,"mosquito_risk":4,"arthritis_risk":5,"migraine_risk":7,"frizz_risk":0,"updated_at":"2026-04-27T04:12:26.202265+05:30"},{"city":"Hospet","state":"Karnataka","latitude":15.2689,"longitude":76.3909,"temp":26.0,"humidity":90,"rain":0.0,"pressure":953.6,"uv_index":9.25,"wind_gusts":35.6,"aqi":101,"pm10":29.3,"pm2_5":27.9,"mosquito_risk":7,"arthritis_risk":5,"migraine_risk":7,"frizz_risk":1,"updated_at":"2026-04-27T04:12:26.202269+05:30"},{"city":"Tirupur","state":"Tamil Nadu","latitude":11.1085,"longitude":77.3411,"temp":26.1,"humidity":89,"rain":0.0,"pressure":973.0,"uv_index":9.35,"wind_gusts":31.0,"aqi":64,"pm10":28.5,"pm2_5":27.2,"mosquito_risk":7,"arthritis_risk":5,"migraine_risk":7,"frizz_risk":1,"updated_at":"2026-04-27T04:12:26.202274+05:30"},{"city":"Alappuzha","state":"Kerala","latitude":9.4981,"longitude":76.3388,"temp":26.1,"humidity":96,"rain":0.0,"pressure":1006.6,"uv_index":8.1,"wind_gusts":34.6,"aqi":70,"pm10":32.4,"pm2_5":27.8,"mosquito_risk":7,"arthritis_risk":5,"migraine_risk":4,"frizz_risk":1,"updated_at":"2026-04-27T04:12:26.202279+05:30"},{"city":"Munnar","state":"Kerala","latitude":10.0889,"longitude":77.0595,"temp":15.8,"humidity":77,"rain":0.0,"pressure":853.6,"uv_index":9.6,"wind_gusts":27.0,"aqi":68,"pm10":28.1,"pm2_5":27.5,"mosquito_risk":3,"arthritis_risk":5,"migraine_risk":7,"frizz_risk":0,"updated_at":"2026-04-27T04:12:26.202284+05:30"},{"city":"Silchar","state":"Assam","latitude":24.8333,"longitude":92.7789,"temp":21.9,"humidity":97,"rain":0.1,"pressure":1003.2,"uv_index":8.75,"wind_gusts":26.3,"aqi":161,"pm10":123.9,"pm2_5":78.2,"mosquito_risk":6,"arthritis_risk":5,"migraine_risk":4,"frizz_risk":1,"updated_at":"2026-04-27T04:12:26.202289+05:30"},{"city":"Dibrugarh","state":"Assam","latitude":27.4728,"longitude":94.912,"temp":20.5,"humidity":97,"rain":0.0,"pressure":994.5,"uv_index":4.3,"wind_gusts":25.6,"aqi":85,"pm10":43.8,"pm2_5":28.2,"mosquito_risk":3,"arthritis_risk":5,"migraine_risk":3,"frizz_risk":1,"updated_at":"2026-04-27T04:12:26.202294+05:30"}]