[{"city":"Delhi","state":"Delhi","latitude":28.6139,"longitude":77.209,"temp":20.9,"humidity":94,"rain":0.0,"pressure":988.1,"uv_index":6.1,"wind_gusts":21.2,"aqi":373,"pm10":774.9,"pm2_5":177.9,"mosquito_risk":3,"arthritis_risk":5,"migraine_risk":7,"frizz_risk":1,"updated_at":"2026-03-10T05:01:32.437433+05:30"},{"city":"Mumbai","state":"Maharashtra","latitude":19.076,"longitude":72.8777,"temp":29.0,"humidity":54,"rain":0.0,"pressure":1009.1,"uv_index":7.55,"wind_gusts":16.6,"aqi":107,"pm10":29.9,"pm2_5":29.1,"mosquito_risk":4,"arthritis_risk":0,"migraine_risk":4,"frizz_risk":1,"updated_at":"2026-03-10T05:01:32.437472+05:30"},{"city":"Bangalore","state":"Karnataka","latitude":12.9716,"longitude":77.5946,"temp":18.9,"humidity":89,"rain":0.0,"pressure":912.7,"uv_index":9.25,"wind_gusts":32.4,"aqi":113,"pm10":59.5,"pm2_5":49.2,"mosquito_risk":3,"arthritis_risk":10,"migraine_risk":7,"frizz_risk":1,"updated_at":"2026-03-10T05:01:32.437488+05:30"},{"city":"Hyderabad","state":"Telangana","latitude":17.385,"longitude":78.4867,"temp":21.5,"humidity":91,"rain":0.0,"pressure":956.1,"uv_index":8.6,"wind_gusts":30.2,"aqi":120,"pm10":61.0,"pm2_5":51.8,"mosquito_risk":3,"arthritis_risk":5,"migraine_risk":7,"frizz_risk":1,"updated_at":"2026-03-10T05:01:32.437498+05:30"},{"city":"Chennai","state":"Tamil Nadu","latitude":13.0827,"longitude":80.2707,"temp":24.8,"humidity":77,"rain":0.0,"pressure":1010.9,"uv_index":9.0,"wind_gusts":34.6,"aqi":97,"pm10":42.0,"pm2_5":32.4,"mosquito_risk":3,"arthritis_risk":0,"migraine_risk":4,"frizz_risk":1,"updated_at":"2026-03-10T05:01:32.437507+05:30"},{"city":"Kolkata","state":"West Bengal","latitude":22.5726,"longitude":88.3639,"temp":23.8,"humidity":96,"rain":0.0,"pressure":1012.1,"uv_index":7.75,"wind_gusts":14.8,"aqi":117,"pm10":50.5,"pm2_5":43.9,"mosquito_risk":3,"arthritis_risk":0,"migraine_risk":4,"frizz_risk":1,"updated_at":"2026-03-10T05:01:32.437516+05:30"},{"city":"Pune","state":"Maharashtra","latitude":18.5204,"longitude":73.8567,"temp":22.5,"humidity":49,"rain":0.0,"pressure":950.2,"uv_index":8.1,"wind_gusts":36.7,"aqi":60,"pm10":25.4,"pm2_5":21.4,"mosquito_risk":0,"arthritis_risk":5,"migraine_risk":7,"frizz_risk":0,"updated_at":"2026-03-10T05:01:32.437528+05:30"},{"city":"Ahmedabad","state":"Gujarat","latitude":23.0225,"longitude":72.5714,"temp":23.0,"humidity":35,"rain":0.0,"pressure":1005.2,"uv_index":7.4,"wind_gusts":16.2,"aqi":55,"pm10":13.3,"pm2_5":12.2,"mosquito_risk":0,"arthritis_risk":5,"migraine_risk":4,"frizz_risk":0,"updated_at":"2026-03-10T05:01:32.437535+05:30"},{"city":"Jaipur","state":"Rajasthan","latitude":26.9124,"longitude":75.7873,"temp":22.0,"humidity":51,"rain":0.0,"pressure":964.3,"uv_index":6.85,"wind_gusts":19.1,"aqi":75,"pm10":93.4,"pm2_5":27.6,"mosquito_risk":0,"arthritis_risk":5,"migraine_risk":7,"frizz_risk":0,"updated_at":"2026-03-10T05:01:32.437542+05:30"},{"city":"Lucknow","state":"Uttar Pradesh","latitude":26.8467,"longitude":80.9462,"temp":22.7,"humidity":93,"rain":0.0,"pressure":999.2,"uv_index":6.55,"wind_gusts":20.5,"aqi":173,"pm10":140.2,"pm2_5":134.1,"mosquito_risk":3,"arthritis_risk":5,"migraine_risk":7,"frizz_risk":1,"updated_at":"2026-03-10T05:01:32.437549+05:30"},{"city":"Kanpur","state":"Uttar Pradesh","latitude":26.4499,"longitude":80.3319,"temp":21.5,"humidity":93,"rain":0.0,"pressure":996.9,"uv_index":6.6,"wind_gusts":15.1,"aqi":162,"pm10":188.6,"pm2_5":120.6,"mosquito_risk":3,"arthritis_risk":5,"migraine_risk":7,"frizz_risk":1,"updated_at":"2026-03-10T05:01:32.437556+05:30"},{"city":"Chandigarh","state":"Chandigarh","latitude":30.7333,"longitude":76.7794,"temp":20.8,"humidity":79,"rain":0.0,"pressure":973.1,"uv_index":6.0,"wind_gusts":17.6,"aqi":111,"pm10":54.4,"pm2_5":42.4,"mosquito_risk":3,"arthritis_risk":5,"migraine_risk":3,"frizz_risk":1,"updated_at":"2026-03-10T05:01:32.437564+05:30"},{"city":"Srinagar","state":"Jammu and Kashmir","latitude":34.0837,"longitude":74.7973,"temp":9.5,"humidity":95,"rain":0.9,"pressure":846.1,"uv_index":3.55,"wind_gusts":23.4,"aqi":129,"pm10":45.5,"pm2_5":30.9,"mosquito_risk":6,"arthritis_risk":10,"migraine_risk":3,"frizz_risk":0,"updated_at":"2026-03-10T05:01:32.437571+05:30"},{"city":"Jammu","state":"Jammu and Kashmir","latitude":32.7266,"longitude":74.857,"temp":20.7,"humidity":78,"rain":0.0,"pressure":977.8,"uv_index":6.3,"wind_gusts":38.2,"aqi":96,"pm10":34.2,"pm2_5":27.4,"mosquito_risk":3,"arthritis_risk":5,"migraine_risk":7,"frizz_risk":1,"updated_at":"2026-03-10T05:01:32.437578+05:30"},{"city":"Amritsar","state":"Punjab","latitude":31.634,"longitude":74.8723,"temp":21.2,"humidity":86,"rain":0.0,"pressure":985.5,"uv_index":6.4,"wind_gusts":16.6,"aqi":165,"pm10":121.5,"pm2_5":100.4,"mosquito_risk":3,"arthritis_risk":5,"migraine_risk":7,"frizz_risk":1,"updated_at":"2026-03-10T05:01:32.437585+05:30"},{"city":"Ludhiana","state":"Punjab","latitude":30.901,"longitude":75.8573,"temp":21.2,"humidity":86,"rain":0.0,"pressure":983.3,"uv_index":5.95,"wind_gusts":15.1,"aqi":162,"pm10":153.2,"pm2_5":109.0,"mosquito_risk":3,"arthritis_risk":5,"migraine_risk":3,"frizz_risk":1,"updated_at":"2026-03-10T05:01:32.437591+05:30"},{"city":"Jalandhar","state":"Punjab","latitude":31.326,"longitude":75.5762,"temp":20.0,"humidity":94,"rain":0.0,"pressure":984.6,"uv_index":5.7,"wind_gusts":16.2,"aqi":164,"pm10":131.3,"pm2_5":100.6,"mosquito_risk":3,"arthritis_risk":5,"migraine_risk":3,"frizz_risk":1,"updated_at":"2026-03-10T05:01:32.437599+05:30"},{"city":"Dehradun","state":"Uttarakhand","latitude":30.6284,"longitude":78.0322,"temp":12.4,"humidity":62,"rain":0.0,"pressure":832.1,"uv_index":6.35,"wind_gusts":28.4,"aqi":71,"pm10":30.0,"pm2_5":21.6,"mosquito_risk":3,"arthritis_risk":5,"migraine_risk":7,"frizz_risk":0,"updated_at":"2026-03-10T05:01:32.437606+05:30"},{"city":"Shimla","state":"Himachal Pradesh","latitude":31.1048,"longitude":77.1734,"temp":11.6,"humidity":67,"rain":0.0,"pressure":786.5,"uv_index":6.3,"wind_gusts":40.7,"aqi":74,"pm10":56.0,"pm2_5":34.9,"mosquito_risk":3,"arthritis_risk":5,"migraine_risk":7,"frizz_risk":0,"updated_at":"2026-03-10T05:01:32.437613+05:30"},{"city":"Manali","state":"Himachal Pradesh","latitude":32.2396,"longitude":77.1887,"temp":16.1,"humidity":30,"rain":0.0,"pressure":824.1,"uv_index":6.85,"wind_gusts":34.2,"aqi":46,"pm10":30.0,"pm2_5":14.8,"mosquito_risk":0,"arthritis_risk":5,"migraine_risk":7,"frizz_risk":1,"updated_at":"2026-03-10T05:01:32.437619+05:30"},{"city":"Gurgaon","state":"Haryana","latitude":28.4595,"longitude":77.0266,"temp":17.5,"humidity":99,"rain":0.0,"pressure":986.4,"uv_index":6.1,"wind_gusts":16.6,"aqi":610,"pm10":767.4,"pm2_5":161.1,"mosquito_risk":3,"arthritis_risk":10,"migraine_risk":7,"frizz_risk":1,"updated_at":"2026-03-10T05:01:32.437626+05:30"},{"city":"Noida","state":"Uttar Pradesh","latitude":28.5355,"longitude":77.391,"temp":19.8,"humidity":99,"rain":0.0,"pressure":989.6,"uv_index":6.05,"wind_gusts":20.9,"aqi":610,"pm10":767.4,"pm2_5":161.1,"mosquito_risk":3,"arthritis_risk":10,"migraine_risk":7,"frizz_risk":1,"updated_at":"2026-03-10T05:01:32.437632+05:30"},{"city":"Ghaziabad","state":"Uttar Pradesh","latitude":28.6692,"longitude":77.4538,"temp":19.8,"humidity":95,"rain":0.0,"pressure":987.7,"uv_index":5.95,"wind_gusts":16.9,"aqi":237,"pm10":586.7,"pm2_5":147.6,"mosquito_risk":3,"arthritis_risk":10,"migraine_risk":3,"frizz_risk":1,"updated_at":"2026-03-10T05:01:32.437638+05:30"},{"city":"Faridabad","state":"Haryana","latitude":28.4089,"longitude":77.3178,"temp":17.8,"humidity":100,"rain":0.0,"pressure":988.7,"uv_index":6.1,"wind_gusts":19.8,"aqi":610,"pm10":767.4,"pm2_5":161.1,"mosquito_risk":3,"arthritis_risk":10,"migraine_risk":7,"frizz_risk":1,"updated_at":"2026-03-10T05:01:32.437645+05:30"},{"city":"Meerut","state":"Uttar Pradesh","latitude":28.9845,"longitude":77.7064,"temp":19.7,"humidity":95,"rain":0.0,"pressure":986.1,"uv_index":5.95,"wind_gusts":18.0,"aqi":237,"pm10":586.7,"pm2_5":147.6,"mosquito_risk":3,"arthritis_risk":10,"migraine_risk":3,"frizz_risk":1,"updated_at":"2026-03-10T05:01:32.437651+05:30"},{"city":"Agra","state":"Uttar Pradesh","latitude":27.1767,"longitude":78.0081,"temp":20.1,"humidity":88,"rain":0.0,"pressure":992.6,"uv_index":6.45,"wind_gusts":19.4,"aqi":191,"pm10":357.6,"pm2_5":121.1,"mosquito_risk":3,"arthritis_risk":5,"migraine_risk":7,"frizz_risk":1,"updated_at":"2026-03-10T05:01:32.437658+05:30"},{"city":"Varanasi","state":"Uttar Pradesh","latitude":25.3176,"longitude":82.9739,"temp":21.9,"humidity":95,"rain":0.0,"pressure":1003.3,"uv_index":7.25,"wind_gusts":19.4,"aqi":183,"pm10":137.8,"pm2_5":132.7,"mosquito_risk":3,"arthritis_risk":5,"migraine_risk":4,"frizz_risk":1,"updated_at":"2026-03-10T05:01:32.437667+05:30"},{"city":"Prayagraj","state":"Uttar Pradesh","latitude":25.4358,"longitude":81.8463,"temp":21.7,"humidity":93,"rain":0.0,"pressure":1001.5,"uv_index":7.1,"wind_gusts":13.0,"aqi":184,"pm10":139.7,"pm2_5":135.0,"mosquito_risk":3,"arthritis_risk":5,"migraine_risk":4,"frizz_risk":1,"updated_at":"2026-03-10T05:01:32.437674+05:30"},{"city":"Gorakhpur","state":"Uttar Pradesh","latitude":26.7606,"longitude":83.3732,"temp":21.0,"humidity":92,"rain":0.0,"pressure":1003.5,"uv_index":6.95,"wind_gusts":20.5,"aqi":200,"pm10":125.7,"pm2_5":117.1,"mosquito_risk":3,"arthritis_risk":5,"migraine_risk":4,"frizz_risk":1,"updated_at":"2026-03-10T05:01:32.437681+05:30"},{"city":"Bareilly","state":"Uttar Pradesh","latitude":28.367,"longitude":79.4304,"temp":20.6,"humidity":97,"rain":0.0,"pressure":992.1,"uv_index":5.5,"wind_gusts":17.6,"aqi":171,"pm10":136.0,"pm2_5":118.3,"mosquito_risk":3,"arthritis_risk":5,"migraine_risk":3,"frizz_risk":1,"updated_at":"2026-03-10T05:01:32.437689+05:30"},{"city":"Aligarh","state":"Uttar Pradesh","latitude":27.8974,"longitude":78.088,"temp":18.2,"humidity":97,"rain":0.0,"pressure":990.4,"uv_index":6.1,"wind_gusts":19.8,"aqi":181,"pm10":404.2,"pm2_5":170.0,"mosquito_risk":3,"arthritis_risk":10,"migraine_risk":7,"frizz_risk":1,"updated_at":"2026-03-10T05:01:32.437696+05:30"},{"city":"Moradabad","state":"Uttar Pradesh","latitude":28.8386,"longitude":78.7733,"temp":20.0,"humidity":96,"rain":0.0,"pressure":988.7,"uv_index":6.1,"wind_gusts":20.5,"aqi":176,"pm10":158.8,"pm2_5":109.9,"mosquito_risk":3,"arthritis_risk":5,"migraine_risk":7,"frizz_risk":1,"updated_at":"2026-03-10T05:01:32.437702+05:30"},{"city":"Saharanpur","state":"Uttar Pradesh","latitude":29.9637,"longitude":77.546,"temp":19.0,"humidity":99,"rain":0.0,"pressure":980.2,"uv_index":5.75,"wind_gusts":20.9,"aqi":165,"pm10":124.8,"pm2_5":83.4,"mosquito_risk":3,"arthritis_risk":10,"migraine_risk":3,"frizz_risk":1,"updated_at":"2026-03-10T05:01:32.437708+05:30"},{"city":"Jhansi","state":"Uttar Pradesh","latitude":25.4484,"longitude":78.5685,"temp":20.1,"humidity":68,"rain":0.0,"pressure":982.5,"uv_index":7.05,"wind_gusts":24.8,"aqi":72,"pm10":153.7,"pm2_5":45.8,"mosquito_risk":3,"arthritis_risk":5,"migraine_risk":7,"frizz_risk":0,"updated_at":"2026-03-10T05:01:35.798160+05:30"},{"city":"Surat","state":"Gujarat","latitude":21.1702,"longitude":72.8311,"temp":25.5,"humidity":51,"rain":0.0,"pressure":1008.7,"uv_index":7.3,"wind_gusts":23.8,"aqi":98,"pm10":30.2,"pm2_5":30.0,"mosquito_risk":4,"arthritis_risk":0,"migraine_risk":4,"frizz_risk":0,"updated_at":"2026-03-10T05:01:35.798223+05:30"},{"city":"Vadodara","state":"Gujarat","latitude":22.3072,"longitude":73.1812,"temp":23.7,"humidity":45,"rain":0.0,"pressure":1007.2,"uv_index":7.4,"wind_gusts":13.7,"aqi":68,"pm10":18.6,"pm2_5":17.8,"mosquito_risk":0,"arthritis_risk":5,"migraine_risk":4,"frizz_risk":0,"updated_at":"2026-03-10T05:01:35.798237+05:30"},{"city":"Rajkot","state":"Gujarat","latitude":22.3039,"longitude":70.8022,"temp":23.0,"humidity":70,"rain":0.0,"pressure":997.5,"uv_index":7.25,"wind_gusts":33.5,"aqi":56,"pm10":21.1,"pm2_5":19.7,"mosquito_risk":3,"arthritis_risk":5,"migraine_risk":7,"frizz_risk":1,"updated_at":"2026-03-10T05:01:35.798248+05:30"},{"city":"Thane","state":"Maharashtra","latitude":19.2183,"longitude":72.9781,"temp":25.5,"humidity":51,"rain":0.0,"pressure":1008.7,"uv_index":7.55,"wind_gusts":33.1,"aqi":107,"pm10":29.9,"pm2_5":29.1,"mosquito_risk":4,"arthritis_risk":0,"migraine_risk":4,"frizz_risk":0,"updated_at":"2026-03-10T05:01:35.798257+05:30"},{"city":"Nagpur","state":"Maharashtra","latitude":21.1458,"longitude":79.0882,"temp":17.3,"humidity":68,"rain":0.0,"pressure":975.8,"uv_index":7.95,"wind_gusts":25.6,"aqi":75,"pm10":20.3,"pm2_5":14.0,"mosquito_risk":3,"arthritis_risk":5,"migraine_risk":7,"frizz_risk":0,"updated_at":"2026-03-10T05:01:35.798268+05:30"},{"city":"Nashik","state":"Maharashtra","latitude":19.9975,"longitude":73.7898,"temp":22.5,"humidity":43,"rain":0.0,"pressure":947.4,"uv_index":7.75,"wind_gusts":27.0,"aqi":54,"pm10":16.5,"pm2_5":15.4,"mosquito_risk":0,"arthritis_risk":5,"migraine_risk":7,"frizz_risk":0,"updated_at":"2026-03-10T05:01:35.798277+05:30"},{"city":"Aurangabad","state":"Maharashtra","latitude":19.8762,"longitude":75.3433,"temp":21.1,"humidity":58,"rain":0.0,"pressure":946.2,"uv_index":8.25,"wind_gusts":22.3,"aqi":64,"pm10":36.6,"pm2_5":32.1,"mosquito_risk":0,"arthritis_risk":5,"migraine_risk":7,"frizz_risk":0,"updated_at":"2026-03-10T05:01:35.798285+05:30"},{"city":"Solapur","state":"Maharashtra","latitude":17.6599,"longitude":75.9064,"temp":21.6,"humidity":70,"rain":0.0,"pressure":959.4,"uv_index":8.5,"wind_gusts":27.0,"aqi":77,"pm10":42.6,"pm2_5":38.2,"mosquito_risk":3,"arthritis_risk":5,"migraine_risk":7,"frizz_risk":0,"updated_at":"2026-03-10T05:01:35.798294+05:30"},{"city":"Kolhapur","state":"Maharashtra","latitude":16.705,"longitude":74.2433,"temp":21.5,"humidity":52,"rain":0.0,"pressure":949.1,"uv_index":8.6,"wind_gusts":42.5,"aqi":108,"pm10":44.6,"pm2_5":41.7,"mosquito_risk":0,"arthritis_risk":5,"migraine_risk":7,"frizz_risk":0,"updated_at":"2026-03-10T05:01:35.798302+05:30"},{"city":"Goa","state":"Goa","latitude":15.2993,"longitude":74.124,"temp":24.5,"humidity":96,"rain":0.0,"pressure":998.7,"uv_index":8.65,"wind_gusts":37.1,"aqi":150,"pm10":73.1,"pm2_5":65.7,"mosquito_risk":3,"arthritis_risk":5,"migraine_risk":7,"frizz_risk":1,"updated_at":"2026-03-10T05:01:35.798310+05:30"},{"city":"Jodhpur","state":"Rajasthan","latitude":26.2389,"longitude":73.0243,"temp":21.1,"humidity":39,"rain":0.0,"pressure":987.6,"uv_index":7.15,"wind_gusts":20.5,"aqi":64,"pm10":212.3,"pm2_5":39.0,"mosquito_risk":0,"arthritis_risk":5,"migraine_risk":7,"frizz_risk":0,"updated_at":"2026-03-10T05:01:35.798318+05:30"},{"city":"Udaipur","state":"Rajasthan","latitude":24.5854,"longitude":73.7125,"temp":17.7,"humidity":38,"rain":0.0,"pressure":950.5,"uv_index":7.75,"wind_gusts":21.2,"aqi":36,"pm10":9.9,"pm2_5":7.2,"mosquito_risk":0,"arthritis_risk":5,"migraine_risk":7,"frizz_risk":0,"updated_at":"2026-03-10T05:01:35.798326+05:30"},{"city":"Kota","state":"Rajasthan","latitude":25.2138,"longitude":75.8648,"temp":18.8,"humidity":60,"rain":0.0,"pressure":982.9,"uv_index":7.15,"wind_gusts":16.2,"aqi":65,"pm10":29.6,"pm2_5":21.8,"mosquito_risk":0,"arthritis_risk":5,"migraine_risk":7,"frizz_risk":0,"updated_at":"2026-03-10T05:01:35.798334+05:30"},{"city":"Bikaner","state":"Rajasthan","latitude":28.0229,"longitude":73.3119,"temp":22.8,"humidity":42,"rain":0.0,"pressure":986.3,"uv_index":6.85,"wind_gusts":22.3,"aqi":53,"pm10":97.8,"pm2_5":27.0,"mosquito_risk":0,"arthritis_risk":5,"migraine_risk":7,"frizz_risk":0,"updated_at":"2026-03-10T05:01:35.798342+05:30"},{"city":"Ajmer","state":"Rajasthan","latitude":26.4499,"longitude":74.6399,"temp":21.4,"humidity":34,"rain":0.0,"pressure":958.9,"uv_index":7.15,"wind_gusts":18.7,"aqi":52,"pm10":27.0,"pm2_5":12.7,"mosquito_risk":0,"arthritis_risk":5,"migraine_risk":7,"frizz_risk":0,"updated_at":"2026-03-10T05:01:35.798350+05:30"},{"city":"Gwalior","state":"Madhya Pradesh","latitude":26.2183,"longitude":78.1828,"temp":21.4,"humidity":73,"rain":0.0,"pressure":987.9,"uv_index":6.75,"wind_gusts":23.4,"aqi":92,"pm10":200.2,"pm2_5":53.1,"mosquito_risk":3,"arthritis_risk":5,"migraine_risk":7,"frizz_risk":1,"updated_at":"2026-03-10T05:01:35.798358+05:30"},{"city":"Indore","state":"Madhya Pradesh","latitude":22.7196,"longitude":75.8577,"temp":18.6,"humidity":52,"rain":0.0,"pressure":950.6,"uv_index":7.7,"wind_gusts":24.5,"aqi":73,"pm10":34.2,"pm2_5":28.3,"mosquito_risk":0,"arthritis_risk":5,"migraine_risk":7,"frizz_risk":0,"updated_at":"2026-03-10T05:01:35.798365+05:30"},{"city":"Bhopal","state":"Madhya Pradesh","latitude":23.2599,"longitude":77.4126,"temp":20.0,"humidity":47,"rain":0.0,"pressure":956.7,"uv_index":7.55,"wind_gusts":22.0,"aqi":66,"pm10":19.7,"pm2_5":15.6,"mosquito_risk":0,"arthritis_risk":5,"migraine_risk":7,"frizz_risk":0,"updated_at":"2026-03-10T05:01:35.798373+05:30"},{"city":"Jabalpur","state":"Madhya Pradesh","latitude":23.1815,"longitude":79.9864,"temp":19.5,"humidity":72,"rain":0.0,"pressure":965.0,"uv_index":7.65,"wind_gusts":28.1,"aqi":88,"pm10":49.8,"pm2_5":34.6,"mosquito_risk":3,"arthritis_risk":5,"migraine_risk":7,"frizz_risk":0,"updated_at":"2026-03-10T05:01:35.798381+05:30"},{"city":"Ujjain","state":"Madhya Pradesh","latitude":23.1765,"longitude":75.7885,"temp":20.4,"humidity":43,"rain":0.0,"pressure":956.7,"uv_index":7.55,"wind_gusts":18.7,"aqi":87,"pm10":51.3,"pm2_5":46.6,"mosquito_risk":0,"arthritis_risk":5,"migraine_risk":7,"frizz_risk":0,"updated_at":"2026-03-10T05:01:35.798389+05:30"},{"city":"Visakhapatnam","state":"Andhra Pradesh","latitude":17.6868,"longitude":83.2185,"temp":24.2,"humidity":89,"rain":0.0,"pressure":1008.8,"uv_index":8.55,"wind_gusts":32.8,"aqi":120,"pm10":64.3,"pm2_5":52.6,"mosquito_risk":3,"arthritis_risk":0,"migraine_risk":4,"frizz_risk":1,"updated_at":"2026-03-10T05:01:35.798397+05:30"},{"city":"Vijayawada","state":"Andhra Pradesh","latitude":16.5062,"longitude":80.648,"temp":23.5,"humidity":88,"rain":0.0,"pressure":1007.3,"uv_index":8.6,"wind_gusts":20.2,"aqi":119,"pm10":69.4,"pm2_5":58.2,"mosquito_risk":3,"arthritis_risk":5,"migraine_risk":4,"frizz_risk":1,"updated_at":"2026-03-10T05:01:35.798405+05:30"},{"city":"Guntur","state":"Andhra Pradesh","latitude":16.3067,"longitude":80.4365,"temp":23.2,"humidity":90,"rain":0.0,"pressure":1008.4,"uv_index":8.6,"wind_gusts":22.0,"aqi":114,"pm10":62.9,"pm2_5":53.4,"mosquito_risk":3,"arthritis_risk":0,"migraine_risk":4,"frizz_risk":1,"updated_at":"2026-03-10T05:01:35.798413+05:30"},{"city":"Nellore","state":"Andhra Pradesh","latitude":14.4426,"longitude":79.9865,"temp":24.1,"humidity":84,"rain":0.0,"pressure":1010.0,"uv_index":8.85,"wind_gusts":28.4,"aqi":96,"pm10":49.8,"pm2_5":37.4,"mosquito_risk":3,"arthritis_risk":0,"migraine_risk":4,"frizz_risk":1,"updated_at":"2026-03-10T05:01:35.798422+05:30"},{"city":"Kurnool","state":"Andhra Pradesh","latitude":15.8281,"longitude":78.0373,"temp":23.6,"humidity":81,"rain":0.0,"pressure":979.8,"uv_index":8.65,"wind_gusts":31.7,"aqi":102,"pm10":46.7,"pm2_5":39.7,"mosquito_risk":3,"arthritis_risk":5,"migraine_risk":7,"frizz_risk":1,"updated_at":"2026-03-10T05:01:35.798431+05:30"},{"city":"Kakinada","state":"Andhra Pradesh","latitude":16.9891,"longitude":82.2475,"temp":22.2,"humidity":93,"rain":0.0,"pressure":1012.4,"uv_index":8.55,"wind_gusts":27.4,"aqi":107,"pm10":60.5,"pm2_5":44.7,"mosquito_risk":3,"arthritis_risk":0,"migraine_risk":4,"frizz_risk":1,"updated_at":"2026-03-10T05:01:35.798439+05:30"},{"city":"Tirupati","state":"Andhra Pradesh","latitude":13.6288,"longitude":79.4192,"temp":20.4,"humidity":89,"rain":0.0,"pressure":995.4,"uv_index":8.95,"wind_gusts":32.4,"aqi":126,"pm10":85.4,"pm2_5":70.8,"mosquito_risk":3,"arthritis_risk":5,"migraine_risk":7,"frizz_risk":1,"updated_at":"2026-03-10T05:01:35.798446+05:30"},{"city":"Warangal","state":"Telangana","latitude":17.9689,"longitude":79.5941,"temp":23.8,"humidity":91,"rain":0.0,"pressure":982.2,"uv_index":8.45,"wind_gusts":26.6,"aqi":123,"pm10":49.0,"pm2_5":45.2,"mosquito_risk":3,"arthritis_risk":5,"migraine_risk":7,"frizz_risk":1,"updated_at":"2026-03-10T05:01:35.798454+05:30"},{"city":"Nizamabad","state":"Telangana","latitude":18.6725,"longitude":78.0941,"temp":22.5,"humidity":83,"rain":0.0,"pressure":967.4,"uv_index":8.3,"wind_gusts":30.2,"aqi":122,"pm10":57.3,"pm2_5":51.9,"mosquito_risk":3,"arthritis_risk":5,"migraine_risk":7,"frizz_risk":1,"updated_at":"2026-03-10T05:01:35.798461+05:30"},{"city":"Mysore","state":"Karnataka","latitude":12.2958,"longitude":76.6396,"temp":20.4,"humidity":83,"rain":0.0,"pressure":929.3,"uv_index":9.25,"wind_gusts":36.7,"aqi":124,"pm10":54.1,"pm2_5":45.4,"mosquito_risk":3,"arthritis_risk":5,"migraine_risk":7,"frizz_risk":1,"updated_at":"2026-03-10T05:01:35.798469+05:30"},{"city":"Mangalore","state":"Karnataka","latitude":12.9141,"longitude":74.856,"temp":28.6,"humidity":84,"rain":0.0,"pressure":1007.1,"uv_index":8.9,"wind_gusts":29.5,"aqi":119,"pm10":39.2,"pm2_5":35.6,"mosquito_risk":7,"arthritis_risk":5,"migraine_risk":4,"frizz_risk":1,"updated_at":"2026-03-10T05:01:35.798476+05:30"},{"city":"Hubli-Dharwad","state":"Karnataka","latitude":15.3647,"longitude":75.124,"temp":22.1,"humidity":68,"rain":0.0,"pressure":942.0,"uv_index":8.8,"wind_gusts":46.8,"aqi":91,"pm10":46.6,"pm2_5":41.7,"mosquito_risk":3,"arthritis_risk":5,"migraine_risk":7,"frizz_risk":0,"updated_at":"2026-03-10T05:01:35.798484+05:30"},{"city":"Belgaum","state":"Karnataka","latitude":15.8497,"longitude":74.4977,"temp":21.5,"humidity":50,"rain":0.0,"pressure":926.6,"uv_index":8.85,"wind_gusts":48.6,"aqi":89,"pm10":40.5,"pm2_5":35.4,"mosquito_risk":0,"arthritis_risk":5,"migraine_risk":7,"frizz_risk":0,"updated_at":"2026-03-10T05:01:39.158466+05:30"},{"city":"Coimbatore","state":"Tamil Nadu","latitude":11.0168,"longitude":76.9558,"temp":21.5,"humidity":79,"rain":0.0,"pressure":963.8,"uv_index":9.25,"wind_gusts":43.2,"aqi":118,"pm10":58.3,"pm2_5":49.6,"mosquito_risk":3,"arthritis_risk":5,"migraine_risk":7,"frizz_risk":1,"updated_at":"2026-03-10T05:01:39.158499+05:30"},{"city":"Madurai","state":"Tamil Nadu","latitude":9.9252,"longitude":78.1198,"temp":22.8,"humidity":83,"rain":0.0,"pressure":995.6,"uv_index":9.2,"wind_gusts":38.5,"aqi":107,"pm10":58.9,"pm2_5":50.5,"mosquito_risk":3,"arthritis_risk":5,"migraine_risk":7,"frizz_risk":1,"updated_at":"2026-03-10T05:01:39.158511+05:30"},{"city":"Trichy","state":"Tamil Nadu","latitude":10.7905,"longitude":78.7047,"temp":22.7,"humidity":90,"rain":0.0,"pressure":1002.7,"uv_index":9.1,"wind_gusts":37.8,"aqi":105,"pm10":53.6,"pm2_5":44.5,"mosquito_risk":3,"arthritis_risk":5,"migraine_risk":4,"frizz_risk":1,"updated_at":"2026-03-10T05:01:39.158521+05:30"},{"city":"Salem","state":"Tamil Nadu","latitude":11.6643,"longitude":78.146,"temp":21.6,"humidity":84,"rain":0.0,"pressure":980.0,"uv_index":9.15,"wind_gusts":36.0,"aqi":127,"pm10":71.7,"pm2_5":60.5,"mosquito_risk":3,"arthritis_risk":5,"migraine_risk":7,"frizz_risk":1,"updated_at":"2026-03-10T05:01:39.158529+05:30"},{"city":"Tirunelveli","state":"Tamil Nadu","latitude":8.7139,"longitude":77.7567,"temp":24.3,"humidity":79,"rain":0.0,"pressure":1005.7,"uv_index":9.2,"wind_gusts":42.1,"aqi":96,"pm10":43.3,"pm2_5":36.0,"mosquito_risk":3,"arthritis_risk":5,"migraine_risk":4,"frizz_risk":1,"updated_at":"2026-03-10T05:01:39.158538+05:30"},{"city":"Vellore","state":"Tamil Nadu","latitude":12.9165,"longitude":79.1325,"temp":21.2,"humidity":87,"rain":0.0,"pressure":988.1,"uv_index":9.05,"wind_gusts":35.3,"aqi":134,"pm10":88.5,"pm2_5":75.2,"mosquito_risk":3,"arthritis_risk":5,"migraine_risk":7,"frizz_risk":1,"updated_at":"2026-03-10T05:01:39.158546+05:30"},{"city":"Erode","state":"Tamil Nadu","latitude":11.341,"longitude":77.7172,"temp":22.4,"humidity":88,"rain":0.0,"pressure":991.9,"uv_index":9.15,"wind_gusts":37.8,"aqi":103,"pm10":56.6,"pm2_5":48.0,"mosquito_risk":3,"arthritis_risk":5,"migraine_risk":7,"frizz_risk":1,"updated_at":"2026-03-10T05:01:39.158554+05:30"},{"city":"Kochi","state":"Kerala","latitude":9.9312,"longitude":76.2673,"temp":26.6,"humidity":84,"rain":0.0,"pressure":1009.7,"uv_index":9.05,"wind_gusts":40.3,"aqi":146,"pm10":68.2,"pm2_5":62.2,"mosquito_risk":7,"arthritis_risk":0,"migraine_risk":4,"frizz_risk":1,"updated_at":"2026-03-10T05:01:39.158563+05:30"},{"city":"Thiruvananthapuram","state":"Kerala","latitude":8.5241,"longitude":76.9366,"temp":27.4,"humidity":82,"rain":0.0,"pressure":1008.6,"uv_index":9.1,"wind_gusts":28.4,"aqi":124,"pm10":56.1,"pm2_5":45.4,"mosquito_risk":7,"arthritis_risk":0,"migraine_risk":4,"frizz_risk":1,"updated_at":"2026-03-10T05:01:39.158571+05:30"},{"city":"Kozhikode","state":"Kerala","latitude":11.2588,"longitude":75.7804,"temp":26.6,"humidity":81,"rain":0.0,"pressure":1009.1,"uv_index":8.95,"wind_gusts":24.1,"aqi":102,"pm10":34.7,"pm2_5":31.8,"mosquito_risk":7,"arthritis_risk":0,"migraine_risk":4,"frizz_risk":1,"updated_at":"2026-03-10T05:01:39.158579+05:30"},{"city":"Thrissur","state":"Kerala","latitude":10.5276,"longitude":76.2144,"temp":23.6,"humidity":89,"rain":0.0,"pressure":1008.2,"uv_index":9.0,"wind_gusts":35.3,"aqi":145,"pm10":75.0,"pm2_5":71.9,"mosquito_risk":3,"arthritis_risk":0,"migraine_risk":4,"frizz_risk":1,"updated_at":"2026-03-10T05:01:39.158588+05:30"},{"city":"Kannur","state":"Kerala","latitude":11.8745,"longitude":75.3704,"temp":26.3,"humidity":83,"rain":0.0,"pressure":1008.1,"uv_index":8.95,"wind_gusts":39.2,"aqi":108,"pm10":25.7,"pm2_5":24.0,"mosquito_risk":7,"arthritis_risk":0,"migraine_risk":4,"frizz_risk":1,"updated_at":"2026-03-10T05:01:39.158596+05:30"},{"city":"Patna","state":"Bihar","latitude":25.5941,"longitude":85.1376,"temp":22.4,"humidity":87,"rain":0.0,"pressure":1007.1,"uv_index":7.4,"wind_gusts":25.2,"aqi":181,"pm10":110.8,"pm2_5":105.0,"mosquito_risk":3,"arthritis_risk":5,"migraine_risk":4,"frizz_risk":1,"updated_at":"2026-03-10T05:01:39.158604+05:30"},{"city":"Gaya","state":"Bihar","latitude":24.7914,"longitude":85.0002,"temp":21.8,"humidity":94,"rain":0.0,"pressure":999.7,"uv_index":7.5,"wind_gusts":17.6,"aqi":183,"pm10":108.3,"pm2_5":102.0,"mosquito_risk":3,"arthritis_risk":5,"migraine_risk":7,"frizz_risk":1,"updated_at":"2026-03-10T05:01:39.158612+05:30"},{"city":"Muzaffarpur","state":"Bihar","latitude":26.1209,"longitude":85.3647,"temp":21.7,"humidity":95,"rain":0.0,"pressure":1007.3,"uv_index":7.35,"wind_gusts":24.8,"aqi":183,"pm10":112.2,"pm2_5":105.7,"mosquito_risk":3,"arthritis_risk":5,"migraine_risk":4,"frizz_risk":1,"updated_at":"2026-03-10T05:01:39.158620+05:30"},{"city":"Bhagalpur","state":"Bihar","latitude":25.2425,"longitude":87.0117,"temp":23.0,"humidity":84,"rain":0.0,"pressure":1007.7,"uv_index":7.4,"wind_gusts":19.4,"aqi":170,"pm10":93.8,"pm2_5":84.3,"mosquito_risk":3,"arthritis_risk":5,"migraine_risk":4,"frizz_risk":1,"updated_at":"2026-03-10T05:01:39.158628+05:30"},{"city":"Ranchi","state":"Jharkhand","latitude":23.3441,"longitude":85.3096,"temp":19.3,"humidity":98,"rain":0.0,"pressure":942.1,"uv_index":8.15,"wind_gusts":21.6,"aqi":165,"pm10":83.6,"pm2_5":74.5,"mosquito_risk":3,"arthritis_risk":10,"migraine_risk":7,"frizz_risk":1,"updated_at":"2026-03-10T05:01:39.158636+05:30"},{"city":"Jamshedpur","state":"Jharkhand","latitude":22.8046,"longitude":86.2029,"temp":22.7,"humidity":90,"rain":0.0,"pressure":996.8,"uv_index":8.05,"wind_gusts":31.0,"aqi":154,"pm10":34.0,"pm2_5":29.6,"mosquito_risk":3,"arthritis_risk":5,"migraine_risk":7,"frizz_risk":1,"updated_at":"2026-03-10T05:01:39.158643+05:30"},{"city":"Dhanbad","state":"Jharkhand","latitude":23.7957,"longitude":86.4304,"temp":21.5,"humidity":87,"rain":0.0,"pressure":985.5,"uv_index":7.9,"wind_gusts":18.0,"aqi":176,"pm10":86.1,"pm2_5":80.6,"mosquito_risk":3,"arthritis_risk":5,"migraine_risk":7,"frizz_risk":1,"updated_at":"2026-03-10T05:01:39.158651+05:30"},{"city":"Bokaro","state":"Jharkhand","latitude":23.6693,"longitude":86.1511,"temp":21.0,"humidity":91,"rain":0.0,"pressure":989.5,"uv_index":7.95,"wind_gusts":18.0,"aqi":180,"pm10":120.6,"pm2_5":112.0,"mosquito_risk":3,"arthritis_risk":5,"migraine_risk":7,"frizz_risk":1,"updated_at":"2026-03-10T05:01:39.158659+05:30"},{"city":"Bhubaneswar","state":"Odisha","latitude":20.2961,"longitude":85.8245,"temp":24.0,"humidity":89,"rain":0.0,"pressure":1007.8,"uv_index":8.35,"wind_gusts":29.5,"aqi":95,"pm10":43.8,"pm2_5":38.0,"mosquito_risk":3,"arthritis_risk":5,"migraine_risk":4,"frizz_risk":1,"updated_at":"2026-03-10T05:01:39.158667+05:30"},{"city":"Cuttack","state":"Odisha","latitude":20.4625,"longitude":85.8828,"temp":24.3,"humidity":88,"rain":0.0,"pressure":1010.0,"uv_index":8.4,"wind_gusts":29.2,"aqi":95,"pm10":43.8,"pm2_5":38.0,"mosquito_risk":3,"arthritis_risk":0,"migraine_risk":4,"frizz_risk":1,"updated_at":"2026-03-10T05:01:39.158675+05:30"},{"city":"Rourkela","state":"Odisha","latitude":22.2604,"longitude":84.8536,"temp":23.6,"humidity":83,"rain":0.0,"pressure":990.3,"uv_index":7.95,"wind_gusts":23.0,"aqi":163,"pm10":78.2,"pm2_5":71.9,"mosquito_risk":3,"arthritis_risk":5,"migraine_risk":7,"frizz_risk":1,"updated_at":"2026-03-10T05:01:39.158683+05:30"},{"city":"Raipur","state":"Chhattisgarh","latitude":21.2514,"longitude":81.6296,"temp":22.6,"humidity":61,"rain":0.0,"pressure":978.2,"uv_index":8.05,"wind_gusts":16.2,"aqi":158,"pm10":75.2,"pm2_5":60.1,"mosquito_risk":3,"arthritis_risk":5,"migraine_risk":7,"frizz_risk":0,"updated_at":"2026-03-10T05:01:39.158690+05:30"},{"city":"Bhilai","state":"Chhattisgarh","latitude":21.1938,"longitude":81.3509,"temp":22.0,"humidity":64,"rain":0.0,"pressure":978.5,"uv_index":8.05,"wind_gusts":13.3,"aqi":153,"pm10":62.9,"pm2_5":49.5,"mosquito_risk":3,"arthritis_risk":5,"migraine_risk":7,"frizz_risk":0,"updated_at":"2026-03-10T05:01:39.158698+05:30"},{"city":"Guwahati","state":"Assam","latitude":26.1158,"longitude":91.7086,"temp":23.0,"humidity":78,"rain":0.0,"pressure":1008.1,"uv_index":7.3,"wind_gusts":11.9,"aqi":155,"pm10":65.0,"pm2_5":58.9,"mosquito_risk":3,"arthritis_risk":0,"migraine_risk":4,"frizz_risk":1,"updated_at":"2026-03-10T05:01:39.158706+05:30"},{"city":"Agartala","state":"Tripura","latitude":23.8315,"longitude":91.2868,"temp":21.3,"humidity":88,"rain":0.0,"pressure":1012.3,"uv_index":7.7,"wind_gusts":13.3,"aqi":164,"pm10":120.6,"pm2_5":110.6,"mosquito_risk":3,"arthritis_risk":0,"migraine_risk":4,"frizz_risk":1,"updated_at":"2026-03-10T05:01:39.158714+05:30"},{"city":"Shillong","state":"Meghalaya","latitude":25.5788,"longitude":91.8933,"temp":10.9,"humidity":81,"rain":0.0,"pressure":859.3,"uv_index":5.25,"wind_gusts":19.1,"aqi":154,"pm10":71.2,"pm2_5":63.8,"mosquito_risk":3,"arthritis_risk":10,"migraine_risk":3,"frizz_risk":0,"updated_at":"2026-03-10T05:01:39.158722+05:30"},{"city":"Imphal","state":"Manipur","latitude":24.817,"longitude":93.9368,"temp":14.5,"humidity":90,"rain":0.0,"pressure":927.9,"uv_index":7.95,"wind_gusts":33.1,"aqi":157,"pm10":77.3,"pm2_5":72.9,"mosquito_risk":3,"arthritis_risk":10,"migraine_risk":7,"frizz_risk":0,"updated_at":"2026-03-10T05:01:39.158730+05:30"},{"city":"Aizawl","state":"Mizoram","latitude":23.7271,"longitude":92.7176,"temp":14.4,"humidity":89,"rain":0.0,"pressure":895.9,"uv_index":7.6,"wind_gusts":28.1,"aqi":160,"pm10":63.8,"pm2_5":59.0,"mosquito_risk":3,"arthritis_risk":10,"migraine_risk":7,"frizz_risk":0,"updated_at":"2026-03-10T05:01:39.158738+05:30"},{"city":"Kohima","state":"Nagaland","latitude":25.6701,"longitude":94.1077,"temp":13.8,"humidity":79,"rain":0.0,"pressure":858.8,"uv_index":7.05,"wind_gusts":47.2,"aqi":150,"pm10":50.3,"pm2_5":46.6,"mosquito_risk":3,"arthritis_risk":5,"migraine_risk":7,"frizz_risk":0,"updated_at":"2026-03-10T05:01:39.158745+05:30"},{"city":"Gangtok","state":"Sikkim","latitude":27.3314,"longitude":88.6138,"temp":12.5,"humidity":67,"rain":0.0,"pressure":841.0,"uv_index":5.2,"wind_gusts":19.4,"aqi":158,"pm10":41.2,"pm2_5":34.9,"mosquito_risk":3,"arthritis_risk":5,"migraine_risk":3,"frizz_risk":0,"updated_at":"2026-03-10T05:01:39.158753+05:30"},{"city":"Siliguri","state":"West Bengal","latitude":26.7271,"longitude":88.3953,"temp":20.5,"humidity":61,"rain":0.0,"pressure":1001.0,"uv_index":7.35,"wind_gusts":22.3,"aqi":168,"pm10":90.6,"pm2_5":84.3,"mosquito_risk":3,"arthritis_risk":5,"migraine_risk":4,"frizz_risk":0,"updated_at":"2026-03-10T05:01:42.520611+05:30"},{"city":"Durgapur","state":"West Bengal","latitude":23.5204,"longitude":87.3119,"temp":22.3,"humidity":92,"rain":0.0,"pressure":1001.1,"uv_index":7.85,"wind_gusts":16.2,"aqi":164,"pm10":57.3,"pm2_5":51.8,"mosquito_risk":3,"arthritis_risk":5,"migraine_risk":4,"frizz_risk":1,"updated_at":"2026-03-10T05:01:42.520641+05:30"},{"city":"Asansol","state":"West Bengal","latitude":23.6739,"longitude":86.9524,"temp":22.6,"humidity":92,"rain":0.0,"pressure":999.6,"uv_index":7.9,"wind_gusts":17.6,"aqi":167,"pm10":62.9,"pm2_5":57.5,"mosquito_risk":3,"arthritis_risk":5,"migraine_risk":7,"frizz_risk":1,"updated_at":"2026-03-10T05:01:42.520652+05:30"},{"city":"Pondicherry","state":"Puducherry","latitude":11.9139,"longitude":79.8145,"temp":22.7,"humidity":92,"rain":0.0,"pressure":1011.6,"uv_index":8.95,"wind_gusts":37.8,"aqi":92,"pm10":35.3,"pm2_5":27.2,"mosquito_risk":3,"arthritis_risk":0,"migraine_risk":4,"frizz_risk":1,"updated_at":"2026-03-10T05:01:42.520659+05:30"},{"city":"Port Blair","state":"Andaman and Nicobar Islands","latitude":11.6234,"longitude":92.7265,"temp":27.5,"humidity":82,"rain":0.0,"pressure":1009.3,"uv_index":8.9,"wind_gusts":37.8,"aqi":82,"pm10":28.6,"pm2_5":24.5,"mosquito_risk":7,"arthritis_risk":0,"migraine_risk":4,"frizz_risk":1,"updated_at":"2026-03-10T05:01:42.520666+05:30"},{"city":"Haridwar","state":"Uttarakhand","latitude":29.9457,"longitude":78.1642,"temp":20.6,"humidity":91,"rain":0.0,"pressure":979.1,"uv_index":5.85,"wind_gusts":21.6,"aqi":155,"pm10":67.8,"pm2_5":54.9,"mosquito_risk":3,"arthritis_risk":5,"migraine_risk":3,"frizz_risk":1,"updated_at":"2026-03-10T05:01:42.520672+05:30"},{"city":"Rishikesh","state":"Uttarakhand","latitude":30.0869,"longitude":78.2676,"temp":20.3,"humidity":82,"rain":0.0,"pressure":971.8,"uv_index":5.9,"wind_gusts":23.8,"aqi":150,"pm10":76.8,"pm2_5":59.8,"mosquito_risk":3,"arthritis_risk":5,"migraine_risk":3,"frizz_risk":1,"updated_at":"2026-03-10T05:01:42.520678+05:30"},{"city":"Nainital","state":"Uttarakhand","latitude":29.3919,"longitude":79.4542,"temp":16.4,"humidity":87,"rain":0.0,"pressure":809.2,"uv_index":6.75,"wind_gusts":54.0,"aqi":166,"pm10":148.1,"pm2_5":99.0,"mosquito_risk":3,"arthritis_risk":10,"migraine_risk":7,"frizz_risk":0,"updated_at":"2026-03-10T05:01:42.520684+05:30"},{"city":"Mussoorie","state":"Uttarakhand","latitude":30.4599,"longitude":78.0664,"temp":15.3,"humidity":68,"rain":0.0,"pressure":805.5,"uv_index":6.25,"wind_gusts":38.5,"aqi":136,"pm10":59.8,"pm2_5":48.0,"mosquito_risk":3,"arthritis_risk":5,"migraine_risk":7,"frizz_risk":0,"updated_at":"2026-03-10T05:01:42.520690+05:30"},{"city":"Dharamshala","state":"Himachal Pradesh","latitude":32.219,"longitude":76.3234,"temp":20.9,"humidity":33,"rain":0.0,"pressure":873.6,"uv_index":5.9,"wind_gusts":23.4,"aqi":53,"pm10":31.7,"pm2_5":14.3,"mosquito_risk":0,"arthritis_risk":5,"migraine_risk":3,"frizz_risk":0,"updated_at":"2026-03-10T05:01:42.520696+05:30"},{"city":"Dalhousie","state":"Himachal Pradesh","latitude":32.5387,"longitude":75.971,"temp":17.2,"humidity":37,"rain":0.0,"pressure":807.5,"uv_index":5.8,"wind_gusts":20.2,"aqi":82,"pm10":41.3,"pm2_5":29.2,"mosquito_risk":0,"arthritis_risk":5,"migraine_risk":3,"frizz_risk":0,"updated_at":"2026-03-10T05:01:42.520702+05:30"},{"city":"Patiala","state":"Punjab","latitude":30.3398,"longitude":76.3869,"temp":20.0,"humidity":90,"rain":0.0,"pressure":982.7,"uv_index":5.9,"wind_gusts":15.5,"aqi":166,"pm10":170.0,"pm2_5":102.7,"mosquito_risk":3,"arthritis_risk":5,"migraine_risk":3,"frizz_risk":1,"updated_at":"2026-03-10T05:01:42.520708+05:30"},{"city":"Bhatinda","state":"Punjab","latitude":30.211,"longitude":74.9455,"temp":20.8,"humidity":83,"rain":0.0,"pressure":988.1,"uv_index":6.5,"wind_gusts":14.4,"aqi":157,"pm10":88.9,"pm2_5":72.4,"mosquito_risk":3,"arthritis_risk":5,"migraine_risk":7,"frizz_risk":1,"updated_at":"2026-03-10T05:01:42.520714+05:30"},{"city":"Rohtak","state":"Haryana","latitude":28.8955,"longitude":76.6066,"temp":17.7,"humidity":97,"rain":0.0,"pressure":986.8,"uv_index":6.05,"wind_gusts":15.5,"aqi":380,"pm10":767.4,"pm2_5":168.1,"mosquito_risk":3,"arthritis_risk":10,"migraine_risk":7,"frizz_risk":1,"updated_at":"2026-03-10T05:01:42.520720+05:30"},{"city":"Panipat","state":"Haryana","latitude":29.3909,"longitude":76.9635,"temp":18.7,"humidity":99,"rain":0.0,"pressure":985.0,"uv_index":5.9,"wind_gusts":17.6,"aqi":598,"pm10":614.7,"pm2_5":170.9,"mosquito_risk":3,"arthritis_risk":10,"migraine_risk":3,"frizz_risk":1,"updated_at":"2026-03-10T05:01:42.520725+05:30"},{"city":"Mathura","state":"Uttar Pradesh","latitude":27.4924,"longitude":77.6737,"temp":19.1,"humidity":85,"rain":0.0,"pressure":991.7,"uv_index":6.35,"wind_gusts":21.6,"aqi":225,"pm10":640.7,"pm2_5":149.9,"mosquito_risk":3,"arthritis_risk":10,"migraine_risk":7,"frizz_risk":1,"updated_at":"2026-03-10T05:01:42.520731+05:30"},{"city":"Vrindavan","state":"Uttar Pradesh","latitude":27.5823,"longitude":77.7027,"temp":17.8,"humidity":95,"rain":0.0,"pressure":992.1,"uv_index":6.3,"wind_gusts":22.0,"aqi":225,"pm10":640.7,"pm2_5":149.9,"mosquito_risk":3,"arthritis_risk":10,"migraine_risk":7,"frizz_risk":1,"updated_at":"2026-03-10T05:01:42.520737+05:30"},{"city":"Ayodhya","state":"Uttar Pradesh","latitude":26.7922,"longitude":82.1998,"temp":22.4,"humidity":92,"rain":0.0,"pressure":1001.4,"uv_index":6.75,"wind_gusts":20.2,"aqi":197,"pm10":149.9,"pm2_5":141.6,"mosquito_risk":3,"arthritis_risk":5,"migraine_risk":4,"frizz_risk":1,"updated_at":"2026-03-10T05:01:42.520743+05:30"},{"city":"Ratlam","state":"Madhya Pradesh","latitude":23.3315,"longitude":75.0367,"temp":16.0,"humidity":86,"rain":0.0,"pressure":957.2,"uv_index":7.55,"wind_gusts":18.4,"aqi":73,"pm10":37.8,"pm2_5":35.3,"mosquito_risk":3,"arthritis_risk":10,"migraine_risk":7,"frizz_risk":0,"updated_at":"2026-03-10T05:01:42.520749+05:30"},{"city":"Sagar","state":"Madhya Pradesh","latitude":23.8388,"longitude":78.7378,"temp":20.4,"humidity":58,"rain":0.0,"pressure":953.6,"uv_index":7.5,"wind_gusts":16.2,"aqi":51,"pm10":19.8,"pm2_5":14.8,"mosquito_risk":0,"arthritis_risk":5,"migraine_risk":7,"frizz_risk":0,"updated_at":"2026-03-10T05:01:42.520754+05:30"},{"city":"Satna","state":"Madhya Pradesh","latitude":24.6005,"longitude":80.8322,"temp":20.7,"humidity":81,"rain":0.0,"pressure":976.0,"uv_index":7.5,"wind_gusts":23.4,"aqi":119,"pm10":95.0,"pm2_5":64.3,"mosquito_risk":3,"arthritis_risk":5,"migraine_risk":7,"frizz_risk":1,"updated_at":"2026-03-10T05:01:42.520760+05:30"},{"city":"Akola","state":"Maharashtra","latitude":20.7002,"longitude":77.0082,"temp":21.9,"humidity":66,"rain":0.0,"pressure":978.0,"uv_index":8.0,"wind_gusts":22.7,"aqi":65,"pm10":33.6,"pm2_5":29.5,"mosquito_risk":3,"arthritis_risk":5,"migraine_risk":7,"frizz_risk":0,"updated_at":"2026-03-10T05:01:42.520767+05:30"},{"city":"Amravati","state":"Maharashtra","latitude":20.9374,"longitude":77.7796,"temp":19.5,"humidity":72,"rain":0.0,"pressure":969.6,"uv_index":7.95,"wind_gusts":25.9,"aqi":66,"pm10":36.1,"pm2_5":32.0,"mosquito_risk":3,"arthritis_risk":5,"migraine_risk":7,"frizz_risk":0,"updated_at":"2026-03-10T05:01:42.520773+05:30"},{"city":"Latur","state":"Maharashtra","latitude":18.4088,"longitude":76.5604,"temp":19.6,"humidity":71,"rain":0.0,"pressure":941.6,"uv_index":8.4,"wind_gusts":28.8,"aqi":87,"pm10":50.1,"pm2_5":42.5,"mosquito_risk":3,"arthritis_risk":5,"migraine_risk":7,"frizz_risk":0,"updated_at":"2026-03-10T05:01:42.520779+05:30"},{"city":"Nanded","state":"Maharashtra","latitude":19.1383,"longitude":77.3091,"temp":22.7,"humidity":60,"rain":0.0,"pressure":971.1,"uv_index":8.2,"wind_gusts":22.7,"aqi":96,"pm10":68.7,"pm2_5":59.8,"mosquito_risk":0,"arthritis_risk":5,"migraine_risk":7,"frizz_risk":0,"updated_at":"2026-03-10T05:01:42.520785+05:30"},{"city":"Gulbarga","state":"Karnataka","latitude":17.3297,"longitude":76.8343,"temp":23.2,"humidity":73,"rain":0.0,"pressure":961.4,"uv_index":8.5,"wind_gusts":31.7,"aqi":95,"pm10":53.3,"pm2_5":47.6,"mosquito_risk":3,"arthritis_risk":5,"migraine_risk":7,"frizz_risk":1,"updated_at":"2026-03-10T05:01:42.520791+05:30"},{"city":"Bidar","state":"Karnataka","latitude":17.9104,"longitude":77.5199,"temp":20.8,"humidity":83,"rain":0.0,"pressure":937.5,"uv_index":8.45,"wind_gusts":32.8,"aqi":111,"pm10":62.2,"pm2_5":55.2,"mosquito_risk":3,"arthritis_risk":5,"migraine_risk":7,"frizz_risk":1,"updated_at":"2026-03-10T05:01:42.520797+05:30"},{"city":"Hospet","state":"Karnataka","latitude":15.2689,"longitude":76.3909,"temp":24.1,"humidity":73,"rain":0.0,"pressure":957.7,"uv_index":8.8,"wind_gusts":38.9,"aqi":100,"pm10":47.0,"pm2_5":43.1,"mosquito_risk":3,"arthritis_risk":5,"migraine_risk":7,"frizz_risk":1,"updated_at":"2026-03-10T05:01:42.520802+05:30"},{"city":"Tirupur","state":"Tamil Nadu","latitude":11.1085,"longitude":77.3411,"temp":22.2,"humidity":84,"rain":0.0,"pressure":977.9,"uv_index":9.25,"wind_gusts":43.2,"aqi":111,"pm10":61.0,"pm2_5":51.9,"mosquito_risk":3,"arthritis_risk":5,"migraine_risk":7,"frizz_risk":1,"updated_at":"2026-03-10T05:01:42.520808+05:30"},{"city":"Alappuzha","state":"Kerala","latitude":9.4981,"longitude":76.3388,"temp":26.5,"humidity":82,"rain":0.0,"pressure":1009.8,"uv_index":9.05,"wind_gusts":33.5,"aqi":144,"pm10":63.1,"pm2_5":57.9,"mosquito_risk":7,"arthritis_risk":0,"migraine_risk":4,"frizz_risk":1,"updated_at":"2026-03-10T05:01:42.520814+05:30"},{"city":"Munnar","state":"Kerala","latitude":10.0889,"longitude":77.0595,"temp":15.9,"humidity":78,"rain":0.0,"pressure":855.1,"uv_index":9.55,"wind_gusts":28.8,"aqi":106,"pm10":60.8,"pm2_5":51.7,"mosquito_risk":3,"arthritis_risk":5,"migraine_risk":7,"frizz_risk":0,"updated_at":"2026-03-10T05:01:42.520820+05:30"},{"city":"Silchar","state":"Assam","latitude":24.8333,"longitude":92.7789,"temp":21.4,"humidity":88,"rain":0.0,"pressure":1011.4,"uv_index":7.65,"wind_gusts":12.2,"aqi":171,"pm10":110.1,"pm2_5":102.0,"mosquito_risk":3,"arthritis_risk":0,"migraine_risk":4,"frizz_risk":1,"updated_at":"2026-03-10T05:01:42.520825+05:30"},{"city":"Dibrugarh","state":"Assam","latitude":27.4728,"longitude":94.912,"temp":22.5,"humidity":91,"rain":0.0,"pressure":1002.5,"uv_index":7.4,"wind_gusts":12.2,"aqi":165,"pm10":93.6,"pm2_5":85.9,"mosquito_risk":3,"arthritis_risk":5,"migraine_risk":4,"frizz_risk":1,"updated_at":"2026-03-10T05:01:42.520831+05:30"}]