[{"city":"Delhi","state":"Delhi","latitude":28.6139,"longitude":77.209,"temp":17.2,"humidity":89,"rain":0.0,"pressure":987.4,"uv_index":3.1,"wind_gusts":20.2,"aqi":137,"pm10":66.1,"pm2_5":53.3,"mosquito_risk":3,"arthritis_risk":10,"migraine_risk":3,"frizz_risk":0,"updated_at":"2026-03-20T20:15:45.855589+05:30"},{"city":"Mumbai","state":"Maharashtra","latitude":19.076,"longitude":72.8777,"temp":27.0,"humidity":77,"rain":0.0,"pressure":1009.6,"uv_index":7.8,"wind_gusts":24.5,"aqi":123,"pm10":53.8,"pm2_5":21.9,"mosquito_risk":7,"arthritis_risk":0,"migraine_risk":4,"frizz_risk":1,"updated_at":"2026-03-20T20:15:45.855645+05:30"},{"city":"Bangalore","state":"Karnataka","latitude":12.9716,"longitude":77.5946,"temp":26.0,"humidity":52,"rain":0.0,"pressure":911.7,"uv_index":9.4,"wind_gusts":18.0,"aqi":187,"pm10":48.1,"pm2_5":39.5,"mosquito_risk":4,"arthritis_risk":5,"migraine_risk":7,"frizz_risk":0,"updated_at":"2026-03-20T20:15:45.855661+05:30"},{"city":"Hyderabad","state":"Telangana","latitude":17.385,"longitude":78.4867,"temp":26.7,"humidity":50,"rain":0.0,"pressure":953.7,"uv_index":8.8,"wind_gusts":22.3,"aqi":128,"pm10":59.5,"pm2_5":44.1,"mosquito_risk":4,"arthritis_risk":5,"migraine_risk":7,"frizz_risk":0,"updated_at":"2026-03-20T20:15:45.855673+05:30"},{"city":"Chennai","state":"Tamil Nadu","latitude":13.0827,"longitude":80.2707,"temp":27.5,"humidity":81,"rain":0.0,"pressure":1008.3,"uv_index":9.15,"wind_gusts":31.0,"aqi":46,"pm10":10.0,"pm2_5":7.5,"mosquito_risk":7,"arthritis_risk":0,"migraine_risk":4,"frizz_risk":1,"updated_at":"2026-03-20T20:15:45.855683+05:30"},{"city":"Kolkata","state":"West Bengal","latitude":22.5726,"longitude":88.3639,"temp":22.9,"humidity":85,"rain":0.0,"pressure":1009.5,"uv_index":7.5,"wind_gusts":36.0,"aqi":77,"pm10":21.9,"pm2_5":19.3,"mosquito_risk":3,"arthritis_risk":0,"migraine_risk":4,"frizz_risk":1,"updated_at":"2026-03-20T20:15:45.855693+05:30"},{"city":"Pune","state":"Maharashtra","latitude":18.5204,"longitude":73.8567,"temp":25.4,"humidity":64,"rain":0.0,"pressure":949.0,"uv_index":8.35,"wind_gusts":36.7,"aqi":123,"pm10":48.1,"pm2_5":27.0,"mosquito_risk":7,"arthritis_risk":5,"migraine_risk":7,"frizz_risk":1,"updated_at":"2026-03-20T20:15:45.855708+05:30"},{"city":"Ahmedabad","state":"Gujarat","latitude":23.0225,"longitude":72.5714,"temp":25.6,"humidity":48,"rain":0.0,"pressure":1004.3,"uv_index":7.6,"wind_gusts":33.1,"aqi":74,"pm10":42.8,"pm2_5":21.4,"mosquito_risk":4,"arthritis_risk":5,"migraine_risk":4,"frizz_risk":0,"updated_at":"2026-03-20T20:15:45.855717+05:30"},{"city":"Jaipur","state":"Rajasthan","latitude":26.9124,"longitude":75.7873,"temp":19.9,"humidity":67,"rain":0.0,"pressure":962.9,"uv_index":6.7,"wind_gusts":25.6,"aqi":76,"pm10":25.0,"pm2_5":12.1,"mosquito_risk":3,"arthritis_risk":5,"migraine_risk":7,"frizz_risk":0,"updated_at":"2026-03-20T20:15:45.855726+05:30"},{"city":"Lucknow","state":"Uttar Pradesh","latitude":26.8467,"longitude":80.9462,"temp":22.3,"humidity":78,"rain":0.0,"pressure":997.0,"uv_index":4.95,"wind_gusts":36.0,"aqi":104,"pm10":72.6,"pm2_5":42.5,"mosquito_risk":3,"arthritis_risk":5,"migraine_risk":3,"frizz_risk":1,"updated_at":"2026-03-20T20:15:45.855734+05:30"},{"city":"Kanpur","state":"Uttar Pradesh","latitude":26.4499,"longitude":80.3319,"temp":20.8,"humidity":85,"rain":0.0,"pressure":995.5,"uv_index":2.95,"wind_gusts":37.8,"aqi":128,"pm10":90.3,"pm2_5":47.0,"mosquito_risk":3,"arthritis_risk":5,"migraine_risk":3,"frizz_risk":1,"updated_at":"2026-03-20T20:15:45.855742+05:30"},{"city":"Chandigarh","state":"Chandigarh","latitude":30.7333,"longitude":76.7794,"temp":16.0,"humidity":94,"rain":0.0,"pressure":972.7,"uv_index":1.3,"wind_gusts":25.2,"aqi":89,"pm10":69.6,"pm2_5":48.1,"mosquito_risk":3,"arthritis_risk":10,"migraine_risk":3,"frizz_risk":0,"updated_at":"2026-03-20T20:15:45.855750+05:30"},{"city":"Srinagar","state":"Jammu and Kashmir","latitude":34.0837,"longitude":74.7973,"temp":8.6,"humidity":82,"rain":0.0,"pressure":838.8,"uv_index":4.8,"wind_gusts":18.4,"aqi":117,"pm10":39.7,"pm2_5":37.6,"mosquito_risk":3,"arthritis_risk":10,"migraine_risk":3,"frizz_risk":0,"updated_at":"2026-03-20T20:15:45.855758+05:30"},{"city":"Jammu","state":"Jammu and Kashmir","latitude":32.7266,"longitude":74.857,"temp":16.8,"humidity":91,"rain":0.0,"pressure":976.6,"uv_index":4.95,"wind_gusts":14.4,"aqi":91,"pm10":52.0,"pm2_5":37.6,"mosquito_risk":3,"arthritis_risk":10,"migraine_risk":3,"frizz_risk":0,"updated_at":"2026-03-20T20:15:45.855766+05:30"},{"city":"Amritsar","state":"Punjab","latitude":31.634,"longitude":74.8723,"temp":15.6,"humidity":93,"rain":0.0,"pressure":984.8,"uv_index":5.35,"wind_gusts":16.9,"aqi":93,"pm10":39.5,"pm2_5":27.2,"mosquito_risk":3,"arthritis_risk":10,"migraine_risk":3,"frizz_risk":0,"updated_at":"2026-03-20T20:15:45.855774+05:30"},{"city":"Ludhiana","state":"Punjab","latitude":30.901,"longitude":75.8573,"temp":16.8,"humidity":91,"rain":0.0,"pressure":983.0,"uv_index":3.1,"wind_gusts":16.9,"aqi":95,"pm10":78.5,"pm2_5":53.7,"mosquito_risk":3,"arthritis_risk":10,"migraine_risk":3,"frizz_risk":0,"updated_at":"2026-03-20T20:15:45.855781+05:30"},{"city":"Jalandhar","state":"Punjab","latitude":31.326,"longitude":75.5762,"temp":16.5,"humidity":91,"rain":0.0,"pressure":984.2,"uv_index":4.2,"wind_gusts":16.9,"aqi":80,"pm10":56.2,"pm2_5":38.2,"mosquito_risk":3,"arthritis_risk":10,"migraine_risk":3,"frizz_risk":0,"updated_at":"2026-03-20T20:15:45.855791+05:30"},{"city":"Dehradun","state":"Uttarakhand","latitude":30.6284,"longitude":78.0322,"temp":8.1,"humidity":79,"rain":0.5,"pressure":827.9,"uv_index":0.35,"wind_gusts":34.6,"aqi":58,"pm10":5.4,"pm2_5":5.2,"mosquito_risk":6,"arthritis_risk":5,"migraine_risk":3,"frizz_risk":0,"updated_at":"2026-03-20T20:15:45.855799+05:30"},{"city":"Shimla","state":"Himachal Pradesh","latitude":31.1048,"longitude":77.1734,"temp":6.6,"humidity":90,"rain":0.0,"pressure":780.9,"uv_index":0.5,"wind_gusts":33.5,"aqi":58,"pm10":2.4,"pm2_5":2.4,"mosquito_risk":3,"arthritis_risk":10,"migraine_risk":3,"frizz_risk":0,"updated_at":"2026-03-20T20:15:45.855806+05:30"},{"city":"Manali","state":"Himachal Pradesh","latitude":32.2396,"longitude":77.1887,"temp":9.1,"humidity":93,"rain":0.1,"pressure":814.7,"uv_index":3.15,"wind_gusts":26.6,"aqi":61,"pm10":2.3,"pm2_5":2.2,"mosquito_risk":6,"arthritis_risk":10,"migraine_risk":3,"frizz_risk":0,"updated_at":"2026-03-20T20:15:45.855814+05:30"},{"city":"Gurgaon","state":"Haryana","latitude":28.4595,"longitude":77.0266,"temp":16.2,"humidity":96,"rain":0.0,"pressure":985.9,"uv_index":3.25,"wind_gusts":17.3,"aqi":142,"pm10":71.7,"pm2_5":60.8,"mosquito_risk":3,"arthritis_risk":10,"migraine_risk":3,"frizz_risk":0,"updated_at":"2026-03-20T20:15:45.855821+05:30"},{"city":"Noida","state":"Uttar Pradesh","latitude":28.5355,"longitude":77.391,"temp":17.3,"humidity":90,"rain":0.0,"pressure":988.9,"uv_index":2.6,"wind_gusts":21.2,"aqi":142,"pm10":71.7,"pm2_5":60.8,"mosquito_risk":3,"arthritis_risk":10,"migraine_risk":3,"frizz_risk":0,"updated_at":"2026-03-20T20:15:45.855828+05:30"},{"city":"Ghaziabad","state":"Uttar Pradesh","latitude":28.6692,"longitude":77.4538,"temp":16.9,"humidity":94,"rain":0.0,"pressure":987.0,"uv_index":2.35,"wind_gusts":19.1,"aqi":135,"pm10":60.3,"pm2_5":46.0,"mosquito_risk":3,"arthritis_risk":10,"migraine_risk":3,"frizz_risk":0,"updated_at":"2026-03-20T20:15:45.855836+05:30"},{"city":"Faridabad","state":"Haryana","latitude":28.4089,"longitude":77.3178,"temp":16.5,"humidity":90,"rain":0.0,"pressure":988.1,"uv_index":3.1,"wind_gusts":19.8,"aqi":142,"pm10":71.7,"pm2_5":60.8,"mosquito_risk":3,"arthritis_risk":10,"migraine_risk":3,"frizz_risk":0,"updated_at":"2026-03-20T20:15:45.855843+05:30"},{"city":"Meerut","state":"Uttar Pradesh","latitude":28.9845,"longitude":77.7064,"temp":16.4,"humidity":96,"rain":0.0,"pressure":985.6,"uv_index":1.9,"wind_gusts":24.8,"aqi":135,"pm10":60.3,"pm2_5":46.0,"mosquito_risk":3,"arthritis_risk":10,"migraine_risk":3,"frizz_risk":0,"updated_at":"2026-03-20T20:15:45.855850+05:30"},{"city":"Agra","state":"Uttar Pradesh","latitude":27.1767,"longitude":78.0081,"temp":18.7,"humidity":87,"rain":0.0,"pressure":992.0,"uv_index":5.15,"wind_gusts":25.2,"aqi":486,"pm10":58.1,"pm2_5":37.4,"mosquito_risk":3,"arthritis_risk":10,"migraine_risk":3,"frizz_risk":1,"updated_at":"2026-03-20T20:15:45.855862+05:30"},{"city":"Varanasi","state":"Uttar Pradesh","latitude":25.3176,"longitude":82.9739,"temp":23.3,"humidity":80,"rain":0.0,"pressure":1000.0,"uv_index":7.25,"wind_gusts":50.0,"aqi":96,"pm10":44.1,"pm2_5":39.0,"mosquito_risk":3,"arthritis_risk":5,"migraine_risk":4,"frizz_risk":1,"updated_at":"2026-03-20T20:15:45.855872+05:30"},{"city":"Prayagraj","state":"Uttar Pradesh","latitude":25.4358,"longitude":81.8463,"temp":22.8,"humidity":74,"rain":0.0,"pressure":999.2,"uv_index":4.75,"wind_gusts":56.9,"aqi":87,"pm10":53.6,"pm2_5":38.3,"mosquito_risk":3,"arthritis_risk":5,"migraine_risk":3,"frizz_risk":1,"updated_at":"2026-03-20T20:15:45.855880+05:30"},{"city":"Gorakhpur","state":"Uttar Pradesh","latitude":26.7606,"longitude":83.3732,"temp":22.4,"humidity":81,"rain":0.0,"pressure":999.1,"uv_index":7.0,"wind_gusts":32.4,"aqi":144,"pm10":52.5,"pm2_5":38.0,"mosquito_risk":3,"arthritis_risk":5,"migraine_risk":7,"frizz_risk":1,"updated_at":"2026-03-20T20:15:45.855887+05:30"},{"city":"Bareilly","state":"Uttar Pradesh","latitude":28.367,"longitude":79.4304,"temp":17.9,"humidity":95,"rain":0.0,"pressure":990.5,"uv_index":2.85,"wind_gusts":29.9,"aqi":86,"pm10":51.8,"pm2_5":35.4,"mosquito_risk":3,"arthritis_risk":10,"migraine_risk":3,"frizz_risk":1,"updated_at":"2026-03-20T20:15:45.855894+05:30"},{"city":"Aligarh","state":"Uttar Pradesh","latitude":27.8974,"longitude":78.088,"temp":17.6,"humidity":93,"rain":0.0,"pressure":989.7,"uv_index":3.8,"wind_gusts":23.4,"aqi":116,"pm10":44.6,"pm2_5":32.4,"mosquito_risk":3,"arthritis_risk":10,"migraine_risk":3,"frizz_risk":1,"updated_at":"2026-03-20T20:15:45.855901+05:30"},{"city":"Moradabad","state":"Uttar Pradesh","latitude":28.8386,"longitude":78.7733,"temp":17.0,"humidity":96,"rain":0.0,"pressure":987.5,"uv_index":2.3,"wind_gusts":25.6,"aqi":96,"pm10":68.5,"pm2_5":48.4,"mosquito_risk":3,"arthritis_risk":10,"migraine_risk":3,"frizz_risk":1,"updated_at":"2026-03-20T20:15:45.855907+05:30"},{"city":"Saharanpur","state":"Uttar Pradesh","latitude":29.9637,"longitude":77.546,"temp":15.8,"humidity":96,"rain":0.0,"pressure":980.0,"uv_index":0.6,"wind_gusts":15.8,"aqi":144,"pm10":50.9,"pm2_5":40.3,"mosquito_risk":3,"arthritis_risk":10,"migraine_risk":3,"frizz_risk":0,"updated_at":"2026-03-20T20:15:45.855914+05:30"},{"city":"Jhansi","state":"Uttar Pradesh","latitude":25.4484,"longitude":78.5685,"temp":21.1,"humidity":79,"rain":0.0,"pressure":981.3,"uv_index":5.8,"wind_gusts":30.6,"aqi":105,"pm10":68.0,"pm2_5":36.0,"mosquito_risk":3,"arthritis_risk":5,"migraine_risk":3,"frizz_risk":1,"updated_at":"2026-03-20T20:15:49.208196+05:30"},{"city":"Surat","state":"Gujarat","latitude":21.1702,"longitude":72.8311,"temp":25.4,"humidity":77,"rain":0.0,"pressure":1008.6,"uv_index":7.5,"wind_gusts":24.8,"aqi":109,"pm10":53.7,"pm2_5":36.0,"mosquito_risk":7,"arthritis_risk":0,"migraine_risk":4,"frizz_risk":1,"updated_at":"2026-03-20T20:15:49.208230+05:30"},{"city":"Vadodara","state":"Gujarat","latitude":22.3072,"longitude":73.1812,"temp":27.4,"humidity":48,"rain":0.0,"pressure":1006.1,"uv_index":7.6,"wind_gusts":28.1,"aqi":87,"pm10":59.8,"pm2_5":27.2,"mosquito_risk":4,"arthritis_risk":5,"migraine_risk":4,"frizz_risk":0,"updated_at":"2026-03-20T20:15:49.208243+05:30"},{"city":"Rajkot","state":"Gujarat","latitude":22.3039,"longitude":70.8022,"temp":26.0,"humidity":55,"rain":0.0,"pressure":996.4,"uv_index":7.45,"wind_gusts":30.2,"aqi":83,"pm10":59.6,"pm2_5":22.5,"mosquito_risk":4,"arthritis_risk":5,"migraine_risk":7,"frizz_risk":1,"updated_at":"2026-03-20T20:15:49.208254+05:30"},{"city":"Thane","state":"Maharashtra","latitude":19.2183,"longitude":72.9781,"temp":25.8,"humidity":78,"rain":0.0,"pressure":1009.1,"uv_index":7.8,"wind_gusts":36.4,"aqi":123,"pm10":53.8,"pm2_5":21.9,"mosquito_risk":7,"arthritis_risk":0,"migraine_risk":4,"frizz_risk":1,"updated_at":"2026-03-20T20:15:49.208263+05:30"},{"city":"Nagpur","state":"Maharashtra","latitude":21.1458,"longitude":79.0882,"temp":23.4,"humidity":73,"rain":0.0,"pressure":975.0,"uv_index":8.15,"wind_gusts":37.8,"aqi":104,"pm10":38.3,"pm2_5":22.4,"mosquito_risk":3,"arthritis_risk":5,"migraine_risk":7,"frizz_risk":1,"updated_at":"2026-03-20T20:15:49.208273+05:30"},{"city":"Nashik","state":"Maharashtra","latitude":19.9975,"longitude":73.7898,"temp":23.4,"humidity":62,"rain":0.0,"pressure":946.4,"uv_index":8.0,"wind_gusts":33.8,"aqi":55,"pm10":35.9,"pm2_5":14.8,"mosquito_risk":3,"arthritis_risk":5,"migraine_risk":7,"frizz_risk":0,"updated_at":"2026-03-20T20:15:49.208282+05:30"},{"city":"Aurangabad","state":"Maharashtra","latitude":19.8762,"longitude":75.3433,"temp":26.8,"humidity":39,"rain":0.0,"pressure":944.5,"uv_index":8.5,"wind_gusts":33.8,"aqi":75,"pm10":51.6,"pm2_5":19.2,"mosquito_risk":4,"arthritis_risk":5,"migraine_risk":7,"frizz_risk":0,"updated_at":"2026-03-20T20:15:49.208292+05:30"},{"city":"Solapur","state":"Maharashtra","latitude":17.6599,"longitude":75.9064,"temp":29.7,"humidity":32,"rain":0.0,"pressure":956.6,"uv_index":8.65,"wind_gusts":23.8,"aqi":141,"pm10":44.9,"pm2_5":31.7,"mosquito_risk":4,"arthritis_risk":5,"migraine_risk":7,"frizz_risk":0,"updated_at":"2026-03-20T20:15:49.208302+05:30"},{"city":"Kolhapur","state":"Maharashtra","latitude":16.705,"longitude":74.2433,"temp":23.6,"humidity":55,"rain":0.0,"pressure":947.9,"uv_index":8.8,"wind_gusts":43.2,"aqi":99,"pm10":31.1,"pm2_5":27.1,"mosquito_risk":0,"arthritis_risk":5,"migraine_risk":7,"frizz_risk":0,"updated_at":"2026-03-20T20:15:49.208311+05:30"},{"city":"Goa","state":"Goa","latitude":15.2993,"longitude":74.124,"temp":27.2,"humidity":76,"rain":0.0,"pressure":998.5,"uv_index":8.8,"wind_gusts":35.6,"aqi":61,"pm10":39.9,"pm2_5":19.0,"mosquito_risk":7,"arthritis_risk":5,"migraine_risk":7,"frizz_risk":1,"updated_at":"2026-03-20T20:15:49.208321+05:30"},{"city":"Jodhpur","state":"Rajasthan","latitude":26.2389,"longitude":73.0243,"temp":24.9,"humidity":45,"rain":0.0,"pressure":985.8,"uv_index":7.25,"wind_gusts":19.8,"aqi":68,"pm10":59.0,"pm2_5":20.7,"mosquito_risk":0,"arthritis_risk":5,"migraine_risk":7,"frizz_risk":0,"updated_at":"2026-03-20T20:15:49.208330+05:30"},{"city":"Udaipur","state":"Rajasthan","latitude":24.5854,"longitude":73.7125,"temp":21.3,"humidity":48,"rain":0.0,"pressure":948.2,"uv_index":4.7,"wind_gusts":30.6,"aqi":62,"pm10":29.3,"pm2_5":12.0,"mosquito_risk":0,"arthritis_risk":5,"migraine_risk":3,"frizz_risk":0,"updated_at":"2026-03-20T20:15:49.208339+05:30"},{"city":"Kota","state":"Rajasthan","latitude":25.2138,"longitude":75.8648,"temp":22.4,"humidity":57,"rain":0.0,"pressure":982.1,"uv_index":6.4,"wind_gusts":34.6,"aqi":60,"pm10":31.5,"pm2_5":15.5,"mosquito_risk":0,"arthritis_risk":5,"migraine_risk":7,"frizz_risk":0,"updated_at":"2026-03-20T20:15:49.208348+05:30"},{"city":"Bikaner","state":"Rajasthan","latitude":28.0229,"longitude":73.3119,"temp":24.1,"humidity":49,"rain":0.0,"pressure":984.8,"uv_index":6.95,"wind_gusts":17.6,"aqi":76,"pm10":36.1,"pm2_5":16.2,"mosquito_risk":0,"arthritis_risk":5,"migraine_risk":7,"frizz_risk":0,"updated_at":"2026-03-20T20:15:49.208357+05:30"},{"city":"Ajmer","state":"Rajasthan","latitude":26.4499,"longitude":74.6399,"temp":21.8,"humidity":56,"rain":0.0,"pressure":957.1,"uv_index":7.2,"wind_gusts":27.4,"aqi":58,"pm10":23.3,"pm2_5":13.9,"mosquito_risk":0,"arthritis_risk":5,"migraine_risk":7,"frizz_risk":0,"updated_at":"2026-03-20T20:15:49.208366+05:30"},{"city":"Gwalior","state":"Madhya Pradesh","latitude":26.2183,"longitude":78.1828,"temp":20.1,"humidity":81,"rain":0.0,"pressure":986.9,"uv_index":6.3,"wind_gusts":31.0,"aqi":122,"pm10":60.5,"pm2_5":30.4,"mosquito_risk":3,"arthritis_risk":5,"migraine_risk":7,"frizz_risk":1,"updated_at":"2026-03-20T20:15:49.208374+05:30"},{"city":"Indore","state":"Madhya Pradesh","latitude":22.7196,"longitude":75.8577,"temp":21.6,"humidity":64,"rain":0.0,"pressure":949.4,"uv_index":7.85,"wind_gusts":38.5,"aqi":68,"pm10":43.7,"pm2_5":19.4,"mosquito_risk":3,"arthritis_risk":5,"migraine_risk":7,"frizz_risk":0,"updated_at":"2026-03-20T20:15:49.208384+05:30"},{"city":"Bhopal","state":"Madhya Pradesh","latitude":23.2599,"longitude":77.4126,"temp":20.4,"humidity":77,"rain":0.0,"pressure":955.7,"uv_index":7.75,"wind_gusts":46.1,"aqi":70,"pm10":58.3,"pm2_5":23.5,"mosquito_risk":3,"arthritis_risk":5,"migraine_risk":7,"frizz_risk":1,"updated_at":"2026-03-20T20:15:49.208392+05:30"},{"city":"Jabalpur","state":"Madhya Pradesh","latitude":23.1815,"longitude":79.9864,"temp":23.3,"humidity":61,"rain":0.0,"pressure":963.8,"uv_index":4.9,"wind_gusts":36.0,"aqi":80,"pm10":29.1,"pm2_5":16.7,"mosquito_risk":3,"arthritis_risk":5,"migraine_risk":3,"frizz_risk":0,"updated_at":"2026-03-20T20:15:49.208401+05:30"},{"city":"Ujjain","state":"Madhya Pradesh","latitude":23.1765,"longitude":75.7885,"temp":21.6,"humidity":63,"rain":0.0,"pressure":955.2,"uv_index":7.75,"wind_gusts":39.6,"aqi":67,"pm10":30.9,"pm2_5":15.8,"mosquito_risk":3,"arthritis_risk":5,"migraine_risk":7,"frizz_risk":0,"updated_at":"2026-03-20T20:15:49.208411+05:30"},{"city":"Visakhapatnam","state":"Andhra Pradesh","latitude":17.6868,"longitude":83.2185,"temp":25.5,"humidity":81,"rain":0.0,"pressure":1006.1,"uv_index":8.8,"wind_gusts":39.2,"aqi":65,"pm10":21.7,"pm2_5":17.8,"mosquito_risk":7,"arthritis_risk":5,"migraine_risk":4,"frizz_risk":1,"updated_at":"2026-03-20T20:15:49.208420+05:30"},{"city":"Vijayawada","state":"Andhra Pradesh","latitude":16.5062,"longitude":80.648,"temp":28.2,"humidity":60,"rain":0.0,"pressure":1004.1,"uv_index":8.85,"wind_gusts":19.1,"aqi":64,"pm10":27.1,"pm2_5":24.0,"mosquito_risk":4,"arthritis_risk":5,"migraine_risk":4,"frizz_risk":1,"updated_at":"2026-03-20T20:15:49.208429+05:30"},{"city":"Guntur","state":"Andhra Pradesh","latitude":16.3067,"longitude":80.4365,"temp":27.1,"humidity":70,"rain":0.0,"pressure":1005.2,"uv_index":8.85,"wind_gusts":19.1,"aqi":62,"pm10":29.3,"pm2_5":25.8,"mosquito_risk":7,"arthritis_risk":5,"migraine_risk":4,"frizz_risk":1,"updated_at":"2026-03-20T20:15:49.208438+05:30"},{"city":"Nellore","state":"Andhra Pradesh","latitude":14.4426,"longitude":79.9865,"temp":26.7,"humidity":82,"rain":0.0,"pressure":1007.3,"uv_index":9.0,"wind_gusts":27.4,"aqi":75,"pm10":11.6,"pm2_5":8.9,"mosquito_risk":7,"arthritis_risk":5,"migraine_risk":4,"frizz_risk":1,"updated_at":"2026-03-20T20:15:49.208447+05:30"},{"city":"Kurnool","state":"Andhra Pradesh","latitude":15.8281,"longitude":78.0373,"temp":31.2,"humidity":37,"rain":0.0,"pressure":976.8,"uv_index":8.85,"wind_gusts":19.4,"aqi":114,"pm10":32.4,"pm2_5":23.1,"mosquito_risk":0,"arthritis_risk":5,"migraine_risk":7,"frizz_risk":0,"updated_at":"2026-03-20T20:15:49.208457+05:30"},{"city":"Kakinada","state":"Andhra Pradesh","latitude":16.9891,"longitude":82.2475,"temp":25.3,"humidity":78,"rain":0.0,"pressure":1009.6,"uv_index":8.8,"wind_gusts":27.7,"aqi":49,"pm10":14.6,"pm2_5":11.1,"mosquito_risk":7,"arthritis_risk":0,"migraine_risk":4,"frizz_risk":1,"updated_at":"2026-03-20T20:15:49.208466+05:30"},{"city":"Tirupati","state":"Andhra Pradesh","latitude":13.6288,"longitude":79.4192,"temp":27.2,"humidity":70,"rain":0.0,"pressure":992.6,"uv_index":9.1,"wind_gusts":22.0,"aqi":70,"pm10":26.1,"pm2_5":22.5,"mosquito_risk":7,"arthritis_risk":5,"migraine_risk":7,"frizz_risk":1,"updated_at":"2026-03-20T20:15:49.208475+05:30"},{"city":"Warangal","state":"Telangana","latitude":17.9689,"longitude":79.5941,"temp":25.2,"humidity":73,"rain":0.0,"pressure":980.4,"uv_index":8.65,"wind_gusts":28.4,"aqi":124,"pm10":66.1,"pm2_5":55.5,"mosquito_risk":7,"arthritis_risk":5,"migraine_risk":7,"frizz_risk":1,"updated_at":"2026-03-20T20:15:49.208483+05:30"},{"city":"Nizamabad","state":"Telangana","latitude":18.6725,"longitude":78.0941,"temp":27.7,"humidity":47,"rain":0.0,"pressure":965.4,"uv_index":8.55,"wind_gusts":25.9,"aqi":109,"pm10":52.9,"pm2_5":38.0,"mosquito_risk":4,"arthritis_risk":5,"migraine_risk":7,"frizz_risk":0,"updated_at":"2026-03-20T20:15:49.208492+05:30"},{"city":"Mysore","state":"Karnataka","latitude":12.2958,"longitude":76.6396,"temp":27.3,"humidity":51,"rain":0.0,"pressure":928.4,"uv_index":9.35,"wind_gusts":26.6,"aqi":164,"pm10":43.2,"pm2_5":34.8,"mosquito_risk":4,"arthritis_risk":5,"migraine_risk":7,"frizz_risk":1,"updated_at":"2026-03-20T20:15:49.208500+05:30"},{"city":"Mangalore","state":"Karnataka","latitude":12.9141,"longitude":74.856,"temp":28.9,"humidity":77,"rain":0.0,"pressure":1006.7,"uv_index":9.0,"wind_gusts":27.7,"aqi":92,"pm10":22.6,"pm2_5":16.3,"mosquito_risk":7,"arthritis_risk":5,"migraine_risk":4,"frizz_risk":1,"updated_at":"2026-03-20T20:15:49.208509+05:30"},{"city":"Hubli-Dharwad","state":"Karnataka","latitude":15.3647,"longitude":75.124,"temp":25.9,"humidity":52,"rain":0.0,"pressure":940.8,"uv_index":9.0,"wind_gusts":35.3,"aqi":147,"pm10":44.5,"pm2_5":29.8,"mosquito_risk":4,"arthritis_risk":5,"migraine_risk":7,"frizz_risk":0,"updated_at":"2026-03-20T20:15:49.208518+05:30"},{"city":"Belgaum","state":"Karnataka","latitude":15.8497,"longitude":74.4977,"temp":23.5,"humidity":62,"rain":0.0,"pressure":925.8,"uv_index":9.05,"wind_gusts":41.4,"aqi":99,"pm10":26.5,"pm2_5":21.2,"mosquito_risk":3,"arthritis_risk":5,"migraine_risk":7,"frizz_risk":0,"updated_at":"2026-03-20T20:15:52.553642+05:30"},{"city":"Coimbatore","state":"Tamil Nadu","latitude":11.0168,"longitude":76.9558,"temp":26.9,"humidity":61,"rain":0.0,"pressure":962.0,"uv_index":9.35,"wind_gusts":36.7,"aqi":116,"pm10":23.8,"pm2_5":20.1,"mosquito_risk":7,"arthritis_risk":5,"migraine_risk":7,"frizz_risk":1,"updated_at":"2026-03-20T20:15:52.553677+05:30"},{"city":"Madurai","state":"Tamil Nadu","latitude":9.9252,"longitude":78.1198,"temp":28.8,"humidity":67,"rain":0.0,"pressure":993.8,"uv_index":9.3,"wind_gusts":23.0,"aqi":123,"pm10":23.7,"pm2_5":19.3,"mosquito_risk":7,"arthritis_risk":5,"migraine_risk":7,"frizz_risk":1,"updated_at":"2026-03-20T20:15:52.553690+05:30"},{"city":"Trichy","state":"Tamil Nadu","latitude":10.7905,"longitude":78.7047,"temp":28.6,"humidity":73,"rain":0.0,"pressure":1000.3,"uv_index":9.25,"wind_gusts":24.8,"aqi":128,"pm10":26.4,"pm2_5":23.1,"mosquito_risk":7,"arthritis_risk":5,"migraine_risk":4,"frizz_risk":1,"updated_at":"2026-03-20T20:15:52.553701+05:30"},{"city":"Salem","state":"Tamil Nadu","latitude":11.6643,"longitude":78.146,"temp":29.0,"humidity":60,"rain":0.0,"pressure":977.5,"uv_index":9.3,"wind_gusts":20.9,"aqi":167,"pm10":33.5,"pm2_5":26.9,"mosquito_risk":4,"arthritis_risk":5,"migraine_risk":7,"frizz_risk":1,"updated_at":"2026-03-20T20:15:52.553712+05:30"},{"city":"Tirunelveli","state":"Tamil Nadu","latitude":8.7139,"longitude":77.7567,"temp":27.8,"humidity":78,"rain":0.0,"pressure":1004.4,"uv_index":9.25,"wind_gusts":34.2,"aqi":85,"pm10":22.6,"pm2_5":18.8,"mosquito_risk":7,"arthritis_risk":5,"migraine_risk":4,"frizz_risk":1,"updated_at":"2026-03-20T20:15:52.553722+05:30"},{"city":"Vellore","state":"Tamil Nadu","latitude":12.9165,"longitude":79.1325,"temp":27.6,"humidity":60,"rain":0.0,"pressure":985.4,"uv_index":9.2,"wind_gusts":21.6,"aqi":87,"pm10":23.7,"pm2_5":21.5,"mosquito_risk":4,"arthritis_risk":5,"migraine_risk":7,"frizz_risk":1,"updated_at":"2026-03-20T20:15:52.553732+05:30"},{"city":"Erode","state":"Tamil Nadu","latitude":11.341,"longitude":77.7172,"temp":30.5,"humidity":54,"rain":0.0,"pressure":988.7,"uv_index":9.25,"wind_gusts":26.6,"aqi":142,"pm10":27.9,"pm2_5":23.2,"mosquito_risk":0,"arthritis_risk":5,"migraine_risk":7,"frizz_risk":1,"updated_at":"2026-03-20T20:15:52.553742+05:30"},{"city":"Kochi","state":"Kerala","latitude":9.9312,"longitude":76.2673,"temp":28.7,"humidity":75,"rain":0.0,"pressure":1009.0,"uv_index":9.15,"wind_gusts":38.2,"aqi":80,"pm10":25.7,"pm2_5":21.3,"mosquito_risk":7,"arthritis_risk":0,"migraine_risk":4,"frizz_risk":1,"updated_at":"2026-03-20T20:15:52.553752+05:30"},{"city":"Thiruvananthapuram","state":"Kerala","latitude":8.5241,"longitude":76.9366,"temp":28.5,"humidity":79,"rain":0.0,"pressure":1008.5,"uv_index":9.15,"wind_gusts":30.6,"aqi":104,"pm10":20.7,"pm2_5":14.8,"mosquito_risk":7,"arthritis_risk":0,"migraine_risk":4,"frizz_risk":1,"updated_at":"2026-03-20T20:15:52.553761+05:30"},{"city":"Kozhikode","state":"Kerala","latitude":11.2588,"longitude":75.7804,"temp":28.9,"humidity":77,"rain":0.0,"pressure":1007.9,"uv_index":9.05,"wind_gusts":32.0,"aqi":70,"pm10":19.7,"pm2_5":12.9,"mosquito_risk":7,"arthritis_risk":5,"migraine_risk":4,"frizz_risk":1,"updated_at":"2026-03-20T20:15:52.553769+05:30"},{"city":"Thrissur","state":"Kerala","latitude":10.5276,"longitude":76.2144,"temp":27.9,"humidity":77,"rain":0.0,"pressure":1007.2,"uv_index":9.1,"wind_gusts":39.6,"aqi":83,"pm10":20.0,"pm2_5":16.5,"mosquito_risk":7,"arthritis_risk":5,"migraine_risk":4,"frizz_risk":1,"updated_at":"2026-03-20T20:15:52.553779+05:30"},{"city":"Kannur","state":"Kerala","latitude":11.8745,"longitude":75.3704,"temp":28.5,"humidity":78,"rain":0.0,"pressure":1007.2,"uv_index":9.05,"wind_gusts":40.3,"aqi":78,"pm10":17.6,"pm2_5":12.7,"mosquito_risk":7,"arthritis_risk":5,"migraine_risk":4,"frizz_risk":1,"updated_at":"2026-03-20T20:15:52.553788+05:30"},{"city":"Patna","state":"Bihar","latitude":25.5941,"longitude":85.1376,"temp":23.7,"humidity":75,"rain":0.0,"pressure":1003.5,"uv_index":7.65,"wind_gusts":44.3,"aqi":181,"pm10":57.0,"pm2_5":50.1,"mosquito_risk":3,"arthritis_risk":5,"migraine_risk":4,"frizz_risk":1,"updated_at":"2026-03-20T20:15:52.553797+05:30"},{"city":"Gaya","state":"Bihar","latitude":24.7914,"longitude":85.0002,"temp":23.2,"humidity":82,"rain":0.0,"pressure":997.1,"uv_index":7.8,"wind_gusts":30.6,"aqi":165,"pm10":47.4,"pm2_5":40.7,"mosquito_risk":3,"arthritis_risk":5,"migraine_risk":7,"frizz_risk":1,"updated_at":"2026-03-20T20:15:52.553807+05:30"},{"city":"Muzaffarpur","state":"Bihar","latitude":26.1209,"longitude":85.3647,"temp":23.2,"humidity":81,"rain":0.0,"pressure":1004.0,"uv_index":7.65,"wind_gusts":31.7,"aqi":165,"pm10":61.2,"pm2_5":53.4,"mosquito_risk":3,"arthritis_risk":5,"migraine_risk":4,"frizz_risk":1,"updated_at":"2026-03-20T20:15:52.553815+05:30"},{"city":"Bhagalpur","state":"Bihar","latitude":25.2425,"longitude":87.0117,"temp":23.4,"humidity":85,"rain":0.0,"pressure":1004.3,"uv_index":7.7,"wind_gusts":44.6,"aqi":176,"pm10":60.5,"pm2_5":56.2,"mosquito_risk":3,"arthritis_risk":5,"migraine_risk":4,"frizz_risk":1,"updated_at":"2026-03-20T20:15:52.553824+05:30"},{"city":"Ranchi","state":"Jharkhand","latitude":23.3441,"longitude":85.3096,"temp":20.4,"humidity":74,"rain":0.0,"pressure":939.4,"uv_index":7.7,"wind_gusts":27.4,"aqi":149,"pm10":53.1,"pm2_5":43.9,"mosquito_risk":3,"arthritis_risk":5,"migraine_risk":7,"frizz_risk":0,"updated_at":"2026-03-20T20:15:52.553833+05:30"},{"city":"Jamshedpur","state":"Jharkhand","latitude":22.8046,"longitude":86.2029,"temp":24.5,"humidity":71,"rain":0.0,"pressure":993.7,"uv_index":7.9,"wind_gusts":28.4,"aqi":164,"pm10":39.3,"pm2_5":35.2,"mosquito_risk":3,"arthritis_risk":5,"migraine_risk":7,"frizz_risk":1,"updated_at":"2026-03-20T20:15:52.553841+05:30"},{"city":"Dhanbad","state":"Jharkhand","latitude":23.7957,"longitude":86.4304,"temp":23.4,"humidity":76,"rain":0.0,"pressure":983.3,"uv_index":7.6,"wind_gusts":51.8,"aqi":155,"pm10":71.7,"pm2_5":65.9,"mosquito_risk":3,"arthritis_risk":5,"migraine_risk":7,"frizz_risk":1,"updated_at":"2026-03-20T20:15:52.553851+05:30"},{"city":"Bokaro","state":"Jharkhand","latitude":23.6693,"longitude":86.1511,"temp":23.0,"humidity":79,"rain":0.0,"pressure":987.3,"uv_index":7.7,"wind_gusts":51.8,"aqi":147,"pm10":67.5,"pm2_5":57.7,"mosquito_risk":3,"arthritis_risk":5,"migraine_risk":7,"frizz_risk":1,"updated_at":"2026-03-20T20:15:52.553860+05:30"},{"city":"Bhubaneswar","state":"Odisha","latitude":20.2961,"longitude":85.8245,"temp":25.5,"humidity":80,"rain":0.0,"pressure":1005.2,"uv_index":8.55,"wind_gusts":33.5,"aqi":74,"pm10":25.6,"pm2_5":22.5,"mosquito_risk":7,"arthritis_risk":5,"migraine_risk":4,"frizz_risk":1,"updated_at":"2026-03-20T20:15:52.553869+05:30"},{"city":"Cuttack","state":"Odisha","latitude":20.4625,"longitude":85.8828,"temp":25.4,"humidity":70,"rain":0.0,"pressure":1007.5,"uv_index":8.35,"wind_gusts":34.2,"aqi":74,"pm10":25.6,"pm2_5":22.5,"mosquito_risk":7,"arthritis_risk":5,"migraine_risk":4,"frizz_risk":1,"updated_at":"2026-03-20T20:15:52.553878+05:30"},{"city":"Rourkela","state":"Odisha","latitude":22.2604,"longitude":84.8536,"temp":25.4,"humidity":68,"rain":0.0,"pressure":987.5,"uv_index":7.55,"wind_gusts":37.1,"aqi":186,"pm10":49.2,"pm2_5":41.4,"mosquito_risk":7,"arthritis_risk":5,"migraine_risk":7,"frizz_risk":1,"updated_at":"2026-03-20T20:15:52.553887+05:30"},{"city":"Raipur","state":"Chhattisgarh","latitude":21.2514,"longitude":81.6296,"temp":24.1,"humidity":65,"rain":0.0,"pressure":977.0,"uv_index":7.4,"wind_gusts":45.0,"aqi":130,"pm10":57.0,"pm2_5":49.6,"mosquito_risk":3,"arthritis_risk":5,"migraine_risk":7,"frizz_risk":1,"updated_at":"2026-03-20T20:15:52.553895+05:30"},{"city":"Bhilai","state":"Chhattisgarh","latitude":21.1938,"longitude":81.3509,"temp":24.5,"humidity":64,"rain":0.0,"pressure":977.2,"uv_index":6.9,"wind_gusts":35.3,"aqi":109,"pm10":52.3,"pm2_5":40.6,"mosquito_risk":3,"arthritis_risk":5,"migraine_risk":7,"frizz_risk":1,"updated_at":"2026-03-20T20:15:52.553905+05:30"},{"city":"Guwahati","state":"Assam","latitude":26.1158,"longitude":91.7086,"temp":25.2,"humidity":77,"rain":0.0,"pressure":1006.3,"uv_index":7.1,"wind_gusts":27.4,"aqi":99,"pm10":40.0,"pm2_5":34.9,"mosquito_risk":7,"arthritis_risk":5,"migraine_risk":4,"frizz_risk":1,"updated_at":"2026-03-20T20:15:52.553915+05:30"},{"city":"Agartala","state":"Tripura","latitude":23.8315,"longitude":91.2868,"temp":22.2,"humidity":93,"rain":0.0,"pressure":1009.4,"uv_index":6.4,"wind_gusts":29.2,"aqi":99,"pm10":43.7,"pm2_5":39.9,"mosquito_risk":3,"arthritis_risk":0,"migraine_risk":4,"frizz_risk":1,"updated_at":"2026-03-20T20:15:52.553924+05:30"},{"city":"Shillong","state":"Meghalaya","latitude":25.5788,"longitude":91.8933,"temp":12.8,"humidity":85,"rain":0.0,"pressure":858.1,"uv_index":7.5,"wind_gusts":32.4,"aqi":99,"pm10":34.5,"pm2_5":28.8,"mosquito_risk":3,"arthritis_risk":10,"migraine_risk":7,"frizz_risk":0,"updated_at":"2026-03-20T20:15:52.553934+05:30"},{"city":"Imphal","state":"Manipur","latitude":24.817,"longitude":93.9368,"temp":17.6,"humidity":82,"rain":0.0,"pressure":926.5,"uv_index":7.9,"wind_gusts":44.6,"aqi":89,"pm10":41.6,"pm2_5":33.6,"mosquito_risk":3,"arthritis_risk":10,"migraine_risk":7,"frizz_risk":0,"updated_at":"2026-03-20T20:15:52.553961+05:30"},{"city":"Aizawl","state":"Mizoram","latitude":23.7271,"longitude":92.7176,"temp":18.9,"humidity":70,"rain":0.0,"pressure":895.0,"uv_index":7.6,"wind_gusts":23.8,"aqi":95,"pm10":55.2,"pm2_5":44.5,"mosquito_risk":3,"arthritis_risk":5,"migraine_risk":7,"frizz_risk":0,"updated_at":"2026-03-20T20:15:52.553970+05:30"},{"city":"Kohima","state":"Nagaland","latitude":25.6701,"longitude":94.1077,"temp":14.3,"humidity":89,"rain":0.0,"pressure":857.4,"uv_index":7.7,"wind_gusts":62.3,"aqi":81,"pm10":44.4,"pm2_5":33.1,"mosquito_risk":3,"arthritis_risk":10,"migraine_risk":7,"frizz_risk":0,"updated_at":"2026-03-20T20:15:52.553979+05:30"},{"city":"Gangtok","state":"Sikkim","latitude":27.3314,"longitude":88.6138,"temp":13.3,"humidity":95,"rain":0.0,"pressure":839.3,"uv_index":7.9,"wind_gusts":20.2,"aqi":97,"pm10":45.9,"pm2_5":34.3,"mosquito_risk":3,"arthritis_risk":10,"migraine_risk":7,"frizz_risk":0,"updated_at":"2026-03-20T20:15:52.553989+05:30"},{"city":"Siliguri","state":"West Bengal","latitude":26.7271,"longitude":88.3953,"temp":18.8,"humidity":85,"rain":0.0,"pressure":999.1,"uv_index":7.6,"wind_gusts":23.0,"aqi":151,"pm10":81.3,"pm2_5":61.5,"mosquito_risk":3,"arthritis_risk":10,"migraine_risk":7,"frizz_risk":1,"updated_at":"2026-03-20T20:15:55.900488+05:30"},{"city":"Durgapur","state":"West Bengal","latitude":23.5204,"longitude":87.3119,"temp":23.1,"humidity":81,"rain":0.0,"pressure":998.7,"uv_index":7.0,"wind_gusts":41.0,"aqi":153,"pm10":56.3,"pm2_5":52.5,"mosquito_risk":3,"arthritis_risk":5,"migraine_risk":7,"frizz_risk":1,"updated_at":"2026-03-20T20:15:55.900520+05:30"},{"city":"Asansol","state":"West Bengal","latitude":23.6739,"longitude":86.9524,"temp":24.1,"humidity":77,"rain":0.0,"pressure":997.2,"uv_index":5.4,"wind_gusts":37.4,"aqi":151,"pm10":54.8,"pm2_5":51.0,"mosquito_risk":3,"arthritis_risk":5,"migraine_risk":3,"frizz_risk":1,"updated_at":"2026-03-20T20:15:55.900531+05:30"},{"city":"Pondicherry","state":"Puducherry","latitude":11.9139,"longitude":79.8145,"temp":26.6,"humidity":84,"rain":0.0,"pressure":1009.4,"uv_index":9.1,"wind_gusts":23.0,"aqi":74,"pm10":13.0,"pm2_5":10.2,"mosquito_risk":7,"arthritis_risk":0,"migraine_risk":4,"frizz_risk":1,"updated_at":"2026-03-20T20:15:55.900540+05:30"},{"city":"Port Blair","state":"Andaman and Nicobar Islands","latitude":11.6234,"longitude":92.7265,"temp":28.5,"humidity":74,"rain":0.0,"pressure":1009.1,"uv_index":6.3,"wind_gusts":13.7,"aqi":43,"pm10":14.2,"pm2_5":10.2,"mosquito_risk":7,"arthritis_risk":0,"migraine_risk":4,"frizz_risk":1,"updated_at":"2026-03-20T20:15:55.900548+05:30"},{"city":"Haridwar","state":"Uttarakhand","latitude":29.9457,"longitude":78.1642,"temp":16.6,"humidity":93,"rain":0.2,"pressure":978.1,"uv_index":0.7,"wind_gusts":27.7,"aqi":81,"pm10":34.5,"pm2_5":29.0,"mosquito_risk":6,"arthritis_risk":10,"migraine_risk":3,"frizz_risk":0,"updated_at":"2026-03-20T20:15:55.900557+05:30"},{"city":"Rishikesh","state":"Uttarakhand","latitude":30.0869,"longitude":78.2676,"temp":16.3,"humidity":95,"rain":0.0,"pressure":970.2,"uv_index":0.9,"wind_gusts":27.7,"aqi":67,"pm10":36.8,"pm2_5":25.2,"mosquito_risk":3,"arthritis_risk":10,"migraine_risk":3,"frizz_risk":0,"updated_at":"2026-03-20T20:15:55.900565+05:30"},{"city":"Nainital","state":"Uttarakhand","latitude":29.3919,"longitude":79.4542,"temp":12.1,"humidity":94,"rain":0.0,"pressure":804.2,"uv_index":1.9,"wind_gusts":67.0,"aqi":69,"pm10":26.9,"pm2_5":19.8,"mosquito_risk":3,"arthritis_risk":10,"migraine_risk":3,"frizz_risk":0,"updated_at":"2026-03-20T20:15:55.900573+05:30"},{"city":"Mussoorie","state":"Uttarakhand","latitude":30.4599,"longitude":78.0664,"temp":8.7,"humidity":81,"rain":0.7,"pressure":799.8,"uv_index":0.45,"wind_gusts":46.8,"aqi":65,"pm10":20.1,"pm2_5":19.6,"mosquito_risk":6,"arthritis_risk":10,"migraine_risk":3,"frizz_risk":0,"updated_at":"2026-03-20T20:15:55.900581+05:30"},{"city":"Dharamshala","state":"Himachal Pradesh","latitude":32.219,"longitude":76.3234,"temp":11.9,"humidity":97,"rain":0.0,"pressure":868.2,"uv_index":2.15,"wind_gusts":27.0,"aqi":52,"pm10":14.4,"pm2_5":10.1,"mosquito_risk":3,"arthritis_risk":10,"migraine_risk":3,"frizz_risk":0,"updated_at":"2026-03-20T20:15:55.900589+05:30"},{"city":"Dalhousie","state":"Himachal Pradesh","latitude":32.5387,"longitude":75.971,"temp":8.8,"humidity":92,"rain":0.0,"pressure":801.2,"uv_index":1.7,"wind_gusts":25.9,"aqi":60,"pm10":34.7,"pm2_5":22.6,"mosquito_risk":3,"arthritis_risk":10,"migraine_risk":3,"frizz_risk":0,"updated_at":"2026-03-20T20:15:55.900598+05:30"},{"city":"Patiala","state":"Punjab","latitude":30.3398,"longitude":76.3869,"temp":16.4,"humidity":92,"rain":0.0,"pressure":982.4,"uv_index":2.2,"wind_gusts":17.6,"aqi":96,"pm10":69.6,"pm2_5":46.7,"mosquito_risk":3,"arthritis_risk":10,"migraine_risk":3,"frizz_risk":0,"updated_at":"2026-03-20T20:15:55.900605+05:30"},{"city":"Bhatinda","state":"Punjab","latitude":30.211,"longitude":74.9455,"temp":16.7,"humidity":89,"rain":0.0,"pressure":987.9,"uv_index":5.95,"wind_gusts":25.6,"aqi":109,"pm10":54.8,"pm2_5":43.5,"mosquito_risk":3,"arthritis_risk":10,"migraine_risk":3,"frizz_risk":0,"updated_at":"2026-03-20T20:15:55.900613+05:30"},{"city":"Rohtak","state":"Haryana","latitude":28.8955,"longitude":76.6066,"temp":16.5,"humidity":95,"rain":0.0,"pressure":986.2,"uv_index":3.75,"wind_gusts":18.4,"aqi":124,"pm10":70.5,"pm2_5":55.5,"mosquito_risk":3,"arthritis_risk":10,"migraine_risk":3,"frizz_risk":0,"updated_at":"2026-03-20T20:15:55.900620+05:30"},{"city":"Panipat","state":"Haryana","latitude":29.3909,"longitude":76.9635,"temp":15.5,"humidity":98,"rain":0.0,"pressure":984.8,"uv_index":2.6,"wind_gusts":15.8,"aqi":135,"pm10":67.5,"pm2_5":49.7,"mosquito_risk":3,"arthritis_risk":10,"migraine_risk":3,"frizz_risk":0,"updated_at":"2026-03-20T20:15:55.900628+05:30"},{"city":"Mathura","state":"Uttar Pradesh","latitude":27.4924,"longitude":77.6737,"temp":17.5,"humidity":89,"rain":0.0,"pressure":991.2,"uv_index":5.25,"wind_gusts":22.0,"aqi":123,"pm10":42.8,"pm2_5":35.0,"mosquito_risk":3,"arthritis_risk":10,"migraine_risk":3,"frizz_risk":0,"updated_at":"2026-03-20T20:15:55.900635+05:30"},{"city":"Vrindavan","state":"Uttar Pradesh","latitude":27.5823,"longitude":77.7027,"temp":17.5,"humidity":91,"rain":0.0,"pressure":991.6,"uv_index":5.25,"wind_gusts":22.3,"aqi":123,"pm10":42.8,"pm2_5":35.0,"mosquito_risk":3,"arthritis_risk":10,"migraine_risk":3,"frizz_risk":0,"updated_at":"2026-03-20T20:15:55.900642+05:30"},{"city":"Ayodhya","state":"Uttar Pradesh","latitude":26.7922,"longitude":82.1998,"temp":21.9,"humidity":78,"rain":0.0,"pressure":998.0,"uv_index":6.25,"wind_gusts":34.9,"aqi":130,"pm10":60.1,"pm2_5":41.9,"mosquito_risk":3,"arthritis_risk":5,"migraine_risk":7,"frizz_risk":1,"updated_at":"2026-03-20T20:15:55.900649+05:30"},{"city":"Ratlam","state":"Madhya Pradesh","latitude":23.3315,"longitude":75.0367,"temp":22.9,"humidity":59,"rain":0.0,"pressure":955.9,"uv_index":7.7,"wind_gusts":41.4,"aqi":66,"pm10":28.2,"pm2_5":14.2,"mosquito_risk":0,"arthritis_risk":5,"migraine_risk":7,"frizz_risk":0,"updated_at":"2026-03-20T20:15:55.900657+05:30"},{"city":"Sagar","state":"Madhya Pradesh","latitude":23.8388,"longitude":78.7378,"temp":20.2,"humidity":82,"rain":0.1,"pressure":952.5,"uv_index":7.6,"wind_gusts":36.0,"aqi":66,"pm10":43.1,"pm2_5":20.5,"mosquito_risk":6,"arthritis_risk":5,"migraine_risk":7,"frizz_risk":1,"updated_at":"2026-03-20T20:15:55.900664+05:30"},{"city":"Satna","state":"Madhya Pradesh","latitude":24.6005,"longitude":80.8322,"temp":21.4,"humidity":77,"rain":0.0,"pressure":974.1,"uv_index":4.75,"wind_gusts":50.4,"aqi":69,"pm10":30.6,"pm2_5":19.0,"mosquito_risk":3,"arthritis_risk":5,"migraine_risk":3,"frizz_risk":1,"updated_at":"2026-03-20T20:15:55.900671+05:30"},{"city":"Akola","state":"Maharashtra","latitude":20.7002,"longitude":77.0082,"temp":27.4,"humidity":41,"rain":0.0,"pressure":976.1,"uv_index":8.2,"wind_gusts":29.5,"aqi":90,"pm10":51.7,"pm2_5":22.3,"mosquito_risk":4,"arthritis_risk":5,"migraine_risk":7,"frizz_risk":0,"updated_at":"2026-03-20T20:15:55.900680+05:30"},{"city":"Amravati","state":"Maharashtra","latitude":20.9374,"longitude":77.7796,"temp":26.6,"humidity":42,"rain":0.0,"pressure":968.4,"uv_index":8.15,"wind_gusts":35.6,"aqi":96,"pm10":51.3,"pm2_5":21.1,"mosquito_risk":4,"arthritis_risk":5,"migraine_risk":7,"frizz_risk":0,"updated_at":"2026-03-20T20:15:55.900688+05:30"},{"city":"Latur","state":"Maharashtra","latitude":18.4088,"longitude":76.5604,"temp":26.5,"humidity":38,"rain":0.0,"pressure":939.6,"uv_index":8.6,"wind_gusts":24.1,"aqi":122,"pm10":48.1,"pm2_5":36.2,"mosquito_risk":4,"arthritis_risk":5,"migraine_risk":7,"frizz_risk":0,"updated_at":"2026-03-20T20:15:55.900695+05:30"},{"city":"Nanded","state":"Maharashtra","latitude":19.1383,"longitude":77.3091,"temp":28.0,"humidity":44,"rain":0.0,"pressure":968.8,"uv_index":8.4,"wind_gusts":23.8,"aqi":103,"pm10":31.9,"pm2_5":25.7,"mosquito_risk":4,"arthritis_risk":5,"migraine_risk":7,"frizz_risk":0,"updated_at":"2026-03-20T20:15:55.900703+05:30"},{"city":"Gulbarga","state":"Karnataka","latitude":17.3297,"longitude":76.8343,"temp":30.5,"humidity":26,"rain":0.0,"pressure":958.6,"uv_index":8.7,"wind_gusts":24.5,"aqi":146,"pm10":46.1,"pm2_5":26.6,"mosquito_risk":0,"arthritis_risk":5,"migraine_risk":7,"frizz_risk":0,"updated_at":"2026-03-20T20:15:55.900709+05:30"},{"city":"Bidar","state":"Karnataka","latitude":17.9104,"longitude":77.5199,"temp":27.9,"humidity":36,"rain":0.0,"pressure":935.7,"uv_index":8.65,"wind_gusts":26.3,"aqi":126,"pm10":48.5,"pm2_5":35.4,"mosquito_risk":4,"arthritis_risk":5,"migraine_risk":7,"frizz_risk":0,"updated_at":"2026-03-20T20:15:55.900716+05:30"},{"city":"Hospet","state":"Karnataka","latitude":15.2689,"longitude":76.3909,"temp":29.6,"humidity":45,"rain":0.0,"pressure":955.6,"uv_index":8.95,"wind_gusts":11.5,"aqi":153,"pm10":36.8,"pm2_5":29.0,"mosquito_risk":4,"arthritis_risk":5,"migraine_risk":7,"frizz_risk":1,"updated_at":"2026-03-20T20:15:55.900723+05:30"},{"city":"Tirupur","state":"Tamil Nadu","latitude":11.1085,"longitude":77.3411,"temp":30.6,"humidity":46,"rain":0.0,"pressure":975.2,"uv_index":9.35,"wind_gusts":28.1,"aqi":147,"pm10":34.7,"pm2_5":28.2,"mosquito_risk":0,"arthritis_risk":5,"migraine_risk":7,"frizz_risk":1,"updated_at":"2026-03-20T20:15:55.900730+05:30"},{"city":"Alappuzha","state":"Kerala","latitude":9.4981,"longitude":76.3388,"temp":28.6,"humidity":77,"rain":0.0,"pressure":1009.1,"uv_index":9.1,"wind_gusts":32.8,"aqi":103,"pm10":29.5,"pm2_5":21.5,"mosquito_risk":7,"arthritis_risk":0,"migraine_risk":4,"frizz_risk":1,"updated_at":"2026-03-20T20:15:55.900738+05:30"},{"city":"Munnar","state":"Kerala","latitude":10.0889,"longitude":77.0595,"temp":21.4,"humidity":83,"rain":0.0,"pressure":857.4,"uv_index":9.6,"wind_gusts":37.4,"aqi":55,"pm10":20.9,"pm2_5":16.6,"mosquito_risk":3,"arthritis_risk":5,"migraine_risk":7,"frizz_risk":1,"updated_at":"2026-03-20T20:15:55.900745+05:30"},{"city":"Silchar","state":"Assam","latitude":24.8333,"longitude":92.7789,"temp":25.6,"humidity":77,"rain":0.0,"pressure":1008.5,"uv_index":7.55,"wind_gusts":19.1,"aqi":104,"pm10":63.1,"pm2_5":54.6,"mosquito_risk":7,"arthritis_risk":0,"migraine_risk":4,"frizz_risk":1,"updated_at":"2026-03-20T20:15:55.900753+05:30"},{"city":"Dibrugarh","state":"Assam","latitude":27.4728,"longitude":94.912,"temp":23.4,"humidity":79,"rain":0.0,"pressure":1000.8,"uv_index":7.75,"wind_gusts":14.0,"aqi":90,"pm10":58.9,"pm2_5":47.5,"mosquito_risk":3,"arthritis_risk":5,"migraine_risk":4,"frizz_risk":1,"updated_at":"2026-03-20T20:15:55.900760+05:30"}]