[{"city":"Delhi","state":"Delhi","latitude":28.6139,"longitude":77.209,"temp":30.7,"humidity":32,"rain":0.0,"pressure":975.3,"uv_index":7.75,"wind_gusts":42.8,"aqi":626,"pm10":713.4,"pm2_5":174.2,"no2":21.1,"co":379.0,"o3":59.0,"so2":13.3,"mosquito_risk":0,"arthritis_risk":5,"migraine_risk":7,"frizz_risk":0,"updated_at":"2026-05-18T03:29:58.348458+05:30"},{"city":"Mumbai","state":"Maharashtra","latitude":19.076,"longitude":72.8777,"temp":28.3,"humidity":87,"rain":0.0,"pressure":1003.6,"uv_index":7.65,"wind_gusts":46.4,"aqi":64,"pm10":49.4,"pm2_5":18.5,"no2":7.8,"co":200.0,"o3":58.0,"so2":3.7,"mosquito_risk":7,"arthritis_risk":5,"migraine_risk":4,"frizz_risk":1,"updated_at":"2026-05-18T03:29:58.348510+05:30"},{"city":"Bangalore","state":"Karnataka","latitude":12.9716,"longitude":77.5946,"temp":23.4,"humidity":78,"rain":0.0,"pressure":907.8,"uv_index":6.15,"wind_gusts":42.8,"aqi":89,"pm10":29.3,"pm2_5":23.4,"no2":11.1,"co":312.0,"o3":83.0,"so2":7.6,"mosquito_risk":3,"arthritis_risk":5,"migraine_risk":7,"frizz_risk":1,"updated_at":"2026-05-18T03:29:58.348527+05:30"},{"city":"Hyderabad","state":"Telangana","latitude":17.385,"longitude":78.4867,"temp":28.7,"humidity":58,"rain":0.0,"pressure":948.8,"uv_index":9.25,"wind_gusts":33.5,"aqi":65,"pm10":19.0,"pm2_5":16.2,"no2":9.4,"co":269.0,"o3":70.0,"so2":5.6,"mosquito_risk":4,"arthritis_risk":5,"migraine_risk":7,"frizz_risk":1,"updated_at":"2026-05-18T03:29:58.348537+05:30"},{"city":"Chennai","state":"Tamil Nadu","latitude":13.0827,"longitude":80.2707,"temp":28.5,"humidity":81,"rain":0.0,"pressure":1002.3,"uv_index":8.65,"wind_gusts":46.1,"aqi":71,"pm10":18.9,"pm2_5":13.7,"no2":7.2,"co":198.0,"o3":91.0,"so2":9.8,"mosquito_risk":7,"arthritis_risk":5,"migraine_risk":4,"frizz_risk":1,"updated_at":"2026-05-18T03:29:58.348545+05:30"},{"city":"Kolkata","state":"West Bengal","latitude":22.5726,"longitude":88.3639,"temp":28.6,"humidity":89,"rain":0.0,"pressure":1000.2,"uv_index":8.95,"wind_gusts":35.6,"aqi":62,"pm10":18.0,"pm2_5":12.9,"no2":6.2,"co":206.0,"o3":60.0,"so2":5.2,"mosquito_risk":7,"arthritis_risk":5,"migraine_risk":4,"frizz_risk":1,"updated_at":"2026-05-18T03:29:58.348552+05:30"},{"city":"Pune","state":"Maharashtra","latitude":18.5204,"longitude":73.8567,"temp":24.7,"humidity":85,"rain":0.0,"pressure":943.6,"uv_index":8.45,"wind_gusts":48.6,"aqi":69,"pm10":37.1,"pm2_5":25.8,"no2":18.2,"co":209.0,"o3":64.0,"so2":23.6,"mosquito_risk":3,"arthritis_risk":5,"migraine_risk":7,"frizz_risk":1,"updated_at":"2026-05-18T03:29:58.348559+05:30"},{"city":"Ahmedabad","state":"Gujarat","latitude":23.0225,"longitude":72.5714,"temp":32.3,"humidity":38,"rain":0.0,"pressure":996.8,"uv_index":8.15,"wind_gusts":36.0,"aqi":63,"pm10":23.9,"pm2_5":14.9,"no2":3.8,"co":151.0,"o3":69.0,"so2":3.6,"mosquito_risk":0,"arthritis_risk":5,"migraine_risk":7,"frizz_risk":1,"updated_at":"2026-05-18T03:29:58.348566+05:30"},{"city":"Jaipur","state":"Rajasthan","latitude":26.9124,"longitude":75.7873,"temp":32.2,"humidity":27,"rain":0.0,"pressure":954.0,"uv_index":8.25,"wind_gusts":43.6,"aqi":119,"pm10":152.7,"pm2_5":37.1,"no2":7.7,"co":191.0,"o3":53.0,"so2":4.6,"mosquito_risk":0,"arthritis_risk":5,"migraine_risk":7,"frizz_risk":0,"updated_at":"2026-05-18T03:29:58.348578+05:30"},{"city":"Lucknow","state":"Uttar Pradesh","latitude":26.8467,"longitude":80.9462,"temp":31.5,"humidity":36,"rain":0.0,"pressure":985.7,"uv_index":8.2,"wind_gusts":32.0,"aqi":161,"pm10":297.1,"pm2_5":95.0,"no2":14.0,"co":299.0,"o3":60.0,"so2":8.5,"mosquito_risk":0,"arthritis_risk":5,"migraine_risk":7,"frizz_risk":0,"updated_at":"2026-05-18T03:29:58.348585+05:30"},{"city":"Kanpur","state":"Uttar Pradesh","latitude":26.4499,"longitude":80.3319,"temp":32.0,"humidity":32,"rain":0.0,"pressure":984.4,"uv_index":8.25,"wind_gusts":40.0,"aqi":339,"pm10":271.9,"pm2_5":69.2,"no2":10.7,"co":285.0,"o3":59.0,"so2":6.8,"mosquito_risk":0,"arthritis_risk":5,"migraine_risk":7,"frizz_risk":0,"updated_at":"2026-05-18T03:29:58.348591+05:30"},{"city":"Chandigarh","state":"Chandigarh","latitude":30.7333,"longitude":76.7794,"temp":26.8,"humidity":42,"rain":0.0,"pressure":960.4,"uv_index":7.75,"wind_gusts":37.1,"aqi":66,"pm10":22.8,"pm2_5":21.5,"no2":13.4,"co":344.0,"o3":71.0,"so2":7.7,"mosquito_risk":4,"arthritis_risk":5,"migraine_risk":7,"frizz_risk":0,"updated_at":"2026-05-18T03:29:58.348598+05:30"},{"city":"Srinagar","state":"Jammu and Kashmir","latitude":34.0837,"longitude":74.7973,"temp":12.0,"humidity":88,"rain":0.0,"pressure":837.2,"uv_index":8.95,"wind_gusts":19.1,"aqi":80,"pm10":47.5,"pm2_5":43.9,"no2":23.7,"co":264.0,"o3":32.0,"so2":1.0,"mosquito_risk":3,"arthritis_risk":10,"migraine_risk":7,"frizz_risk":0,"updated_at":"2026-05-18T03:29:58.348604+05:30"},{"city":"Jammu","state":"Jammu and Kashmir","latitude":32.7266,"longitude":74.857,"temp":23.9,"humidity":56,"rain":0.0,"pressure":964.2,"uv_index":8.55,"wind_gusts":29.9,"aqi":68,"pm10":32.9,"pm2_5":30.9,"no2":29.3,"co":400.0,"o3":7.0,"so2":1.9,"mosquito_risk":0,"arthritis_risk":5,"migraine_risk":7,"frizz_risk":0,"updated_at":"2026-05-18T03:29:58.348626+05:30"},{"city":"Amritsar","state":"Punjab","latitude":31.634,"longitude":74.8723,"temp":27.6,"humidity":51,"rain":0.0,"pressure":973.0,"uv_index":8.45,"wind_gusts":24.5,"aqi":91,"pm10":48.9,"pm2_5":38.0,"no2":25.3,"co":475.0,"o3":45.0,"so2":8.2,"mosquito_risk":4,"arthritis_risk":5,"migraine_risk":7,"frizz_risk":1,"updated_at":"2026-05-18T03:29:58.348633+05:30"},{"city":"Ludhiana","state":"Punjab","latitude":30.901,"longitude":75.8573,"temp":27.1,"humidity":50,"rain":0.0,"pressure":970.9,"uv_index":8.0,"wind_gusts":27.4,"aqi":87,"pm10":65.7,"pm2_5":39.6,"no2":12.8,"co":502.0,"o3":65.0,"so2":8.0,"mosquito_risk":4,"arthritis_risk":5,"migraine_risk":7,"frizz_risk":0,"updated_at":"2026-05-18T03:29:58.348639+05:30"},{"city":"Jalandhar","state":"Punjab","latitude":31.326,"longitude":75.5762,"temp":26.9,"humidity":48,"rain":0.0,"pressure":971.9,"uv_index":8.2,"wind_gusts":25.6,"aqi":100,"pm10":78.9,"pm2_5":51.0,"no2":23.3,"co":473.0,"o3":44.0,"so2":9.0,"mosquito_risk":4,"arthritis_risk":5,"migraine_risk":7,"frizz_risk":0,"updated_at":"2026-05-18T03:29:58.348645+05:30"},{"city":"Dehradun","state":"Uttarakhand","latitude":30.6284,"longitude":78.0322,"temp":13.0,"humidity":77,"rain":0.0,"pressure":821.9,"uv_index":8.2,"wind_gusts":38.9,"aqi":50,"pm10":16.1,"pm2_5":13.5,"no2":24.2,"co":246.0,"o3":23.0,"so2":0.7,"mosquito_risk":3,"arthritis_risk":5,"migraine_risk":7,"frizz_risk":0,"updated_at":"2026-05-18T03:29:58.348652+05:30"},{"city":"Shimla","state":"Himachal Pradesh","latitude":31.1048,"longitude":77.1734,"temp":13.1,"humidity":56,"rain":0.0,"pressure":777.6,"uv_index":8.3,"wind_gusts":45.4,"aqi":64,"pm10":26.6,"pm2_5":18.3,"no2":15.2,"co":181.0,"o3":87.0,"so2":2.3,"mosquito_risk":0,"arthritis_risk":5,"migraine_risk":7,"frizz_risk":0,"updated_at":"2026-05-18T03:29:58.348663+05:30"},{"city":"Manali","state":"Himachal Pradesh","latitude":32.2396,"longitude":77.1887,"temp":9.4,"humidity":40,"rain":0.0,"pressure":808.9,"uv_index":9.6,"wind_gusts":47.5,"aqi":71,"pm10":2.7,"pm2_5":2.0,"no2":8.4,"co":180.0,"o3":118.0,"so2":0.0,"mosquito_risk":0,"arthritis_risk":5,"migraine_risk":7,"frizz_risk":1,"updated_at":"2026-05-18T03:29:58.348670+05:30"},{"city":"Gurgaon","state":"Haryana","latitude":28.4595,"longitude":77.0266,"temp":27.8,"humidity":42,"rain":0.0,"pressure":973.8,"uv_index":7.85,"wind_gusts":42.5,"aqi":1039,"pm10":782.3,"pm2_5":158.8,"no2":20.8,"co":400.0,"o3":54.0,"so2":13.6,"mosquito_risk":4,"arthritis_risk":5,"migraine_risk":7,"frizz_risk":0,"updated_at":"2026-05-18T03:29:58.348676+05:30"},{"city":"Noida","state":"Uttar Pradesh","latitude":28.5355,"longitude":77.391,"temp":29.0,"humidity":39,"rain":0.0,"pressure":976.4,"uv_index":7.75,"wind_gusts":33.5,"aqi":1039,"pm10":782.3,"pm2_5":158.8,"no2":20.8,"co":414.0,"o3":54.0,"so2":13.6,"mosquito_risk":4,"arthritis_risk":5,"migraine_risk":7,"frizz_risk":0,"updated_at":"2026-05-18T03:29:58.348683+05:30"},{"city":"Ghaziabad","state":"Uttar Pradesh","latitude":28.6692,"longitude":77.4538,"temp":28.4,"humidity":40,"rain":0.0,"pressure":974.6,"uv_index":7.75,"wind_gusts":35.6,"aqi":508,"pm10":657.5,"pm2_5":167.2,"no2":19.5,"co":361.0,"o3":63.0,"so2":14.9,"mosquito_risk":4,"arthritis_risk":5,"migraine_risk":7,"frizz_risk":0,"updated_at":"2026-05-18T03:29:58.348689+05:30"},{"city":"Faridabad","state":"Haryana","latitude":28.4089,"longitude":77.3178,"temp":30.4,"humidity":33,"rain":0.0,"pressure":975.9,"uv_index":7.8,"wind_gusts":43.6,"aqi":1039,"pm10":782.3,"pm2_5":158.8,"no2":20.8,"co":423.0,"o3":54.0,"so2":13.6,"mosquito_risk":0,"arthritis_risk":5,"migraine_risk":7,"frizz_risk":0,"updated_at":"2026-05-18T03:29:58.348696+05:30"},{"city":"Meerut","state":"Uttar Pradesh","latitude":28.9845,"longitude":77.7064,"temp":29.2,"humidity":36,"rain":0.0,"pressure":973.3,"uv_index":7.65,"wind_gusts":38.5,"aqi":508,"pm10":657.5,"pm2_5":167.2,"no2":19.5,"co":357.0,"o3":63.0,"so2":14.9,"mosquito_risk":4,"arthritis_risk":5,"migraine_risk":7,"frizz_risk":0,"updated_at":"2026-05-18T03:29:58.348702+05:30"},{"city":"Agra","state":"Uttar Pradesh","latitude":27.1767,"longitude":78.0081,"temp":30.2,"humidity":35,"rain":0.0,"pressure":980.2,"uv_index":8.1,"wind_gusts":40.7,"aqi":557,"pm10":362.3,"pm2_5":80.6,"no2":17.0,"co":345.0,"o3":35.0,"so2":7.1,"mosquito_risk":0,"arthritis_risk":5,"migraine_risk":7,"frizz_risk":0,"updated_at":"2026-05-18T03:29:58.348711+05:30"},{"city":"Varanasi","state":"Uttar Pradesh","latitude":25.3176,"longitude":82.9739,"temp":30.7,"humidity":39,"rain":0.0,"pressure":990.2,"uv_index":8.7,"wind_gusts":45.7,"aqi":135,"pm10":128.5,"pm2_5":47.3,"no2":23.1,"co":348.0,"o3":50.0,"so2":11.0,"mosquito_risk":0,"arthritis_risk":5,"migraine_risk":7,"frizz_risk":0,"updated_at":"2026-05-18T03:29:58.348717+05:30"},{"city":"Prayagraj","state":"Uttar Pradesh","latitude":25.4358,"longitude":81.8463,"temp":30.4,"humidity":38,"rain":0.0,"pressure":988.5,"uv_index":8.6,"wind_gusts":46.4,"aqi":144,"pm10":197.4,"pm2_5":62.2,"no2":23.9,"co":275.0,"o3":46.0,"so2":9.8,"mosquito_risk":0,"arthritis_risk":5,"migraine_risk":7,"frizz_risk":0,"updated_at":"2026-05-18T03:29:58.348723+05:30"},{"city":"Gorakhpur","state":"Uttar Pradesh","latitude":26.7606,"longitude":83.3732,"temp":26.0,"humidity":79,"rain":0.0,"pressure":989.8,"uv_index":8.6,"wind_gusts":31.7,"aqi":139,"pm10":164.8,"pm2_5":64.0,"no2":28.7,"co":680.0,"o3":58.0,"so2":12.0,"mosquito_risk":7,"arthritis_risk":5,"migraine_risk":7,"frizz_risk":1,"updated_at":"2026-05-18T03:29:58.348732+05:30"},{"city":"Bareilly","state":"Uttar Pradesh","latitude":28.367,"longitude":79.4304,"temp":26.0,"humidity":62,"rain":0.0,"pressure":978.3,"uv_index":8.05,"wind_gusts":35.6,"aqi":131,"pm10":273.8,"pm2_5":86.1,"no2":20.5,"co":361.0,"o3":52.0,"so2":11.0,"mosquito_risk":7,"arthritis_risk":5,"migraine_risk":7,"frizz_risk":1,"updated_at":"2026-05-18T03:29:58.348738+05:30"},{"city":"Aligarh","state":"Uttar Pradesh","latitude":27.8974,"longitude":78.088,"temp":27.7,"humidity":49,"rain":0.0,"pressure":977.6,"uv_index":7.9,"wind_gusts":37.8,"aqi":653,"pm10":691.0,"pm2_5":155.5,"no2":19.9,"co":384.0,"o3":48.0,"so2":13.6,"mosquito_risk":4,"arthritis_risk":5,"migraine_risk":7,"frizz_risk":0,"updated_at":"2026-05-18T03:29:58.348743+05:30"},{"city":"Moradabad","state":"Uttar Pradesh","latitude":28.8386,"longitude":78.7733,"temp":28.0,"humidity":44,"rain":0.0,"pressure":975.0,"uv_index":7.85,"wind_gusts":38.2,"aqi":155,"pm10":302.7,"pm2_5":103.6,"no2":21.5,"co":387.0,"o3":46.0,"so2":9.7,"mosquito_risk":4,"arthritis_risk":5,"migraine_risk":7,"frizz_risk":0,"updated_at":"2026-05-18T03:29:58.348750+05:30"},{"city":"Saharanpur","state":"Uttar Pradesh","latitude":29.9637,"longitude":77.546,"temp":27.9,"humidity":41,"rain":0.0,"pressure":967.0,"uv_index":7.4,"wind_gusts":36.4,"aqi":97,"pm10":83.8,"pm2_5":37.8,"no2":14.0,"co":337.0,"o3":72.0,"so2":9.0,"mosquito_risk":4,"arthritis_risk":5,"migraine_risk":7,"frizz_risk":0,"updated_at":"2026-05-18T03:29:58.348756+05:30"},{"city":"Jhansi","state":"Uttar Pradesh","latitude":25.4484,"longitude":78.5685,"temp":30.5,"humidity":32,"rain":0.0,"pressure":971.2,"uv_index":8.5,"wind_gusts":44.6,"aqi":120,"pm10":57.6,"pm2_5":24.3,"no2":4.0,"co":213.0,"o3":67.0,"so2":2.5,"mosquito_risk":0,"arthritis_risk":5,"migraine_risk":7,"frizz_risk":0,"updated_at":"2026-05-18T03:30:58.515243+05:30"},{"city":"Surat","state":"Gujarat","latitude":21.1702,"longitude":72.8311,"temp":28.7,"humidity":90,"rain":0.0,"pressure":1001.3,"uv_index":7.25,"wind_gusts":37.4,"aqi":90,"pm10":40.0,"pm2_5":27.0,"no2":28.3,"co":303.0,"o3":29.0,"so2":37.1,"mosquito_risk":7,"arthritis_risk":5,"migraine_risk":4,"frizz_risk":1,"updated_at":"2026-05-18T03:30:58.515278+05:30"},{"city":"Vadodara","state":"Gujarat","latitude":22.3072,"longitude":73.1812,"temp":32.5,"humidity":30,"rain":0.0,"pressure":999.0,"uv_index":8.1,"wind_gusts":35.6,"aqi":73,"pm10":31.2,"pm2_5":20.0,"no2":9.4,"co":182.0,"o3":52.0,"so2":8.1,"mosquito_risk":0,"arthritis_risk":5,"migraine_risk":7,"frizz_risk":0,"updated_at":"2026-05-18T03:30:58.515288+05:30"},{"city":"Rajkot","state":"Gujarat","latitude":22.3039,"longitude":70.8022,"temp":26.0,"humidity":87,"rain":0.0,"pressure":990.2,"uv_index":7.75,"wind_gusts":39.6,"aqi":59,"pm10":23.1,"pm2_5":10.1,"no2":6.3,"co":121.0,"o3":44.0,"so2":4.1,"mosquito_risk":7,"arthritis_risk":5,"migraine_risk":7,"frizz_risk":1,"updated_at":"2026-05-18T03:30:58.515297+05:30"},{"city":"Thane","state":"Maharashtra","latitude":19.2183,"longitude":72.9781,"temp":28.1,"humidity":87,"rain":0.0,"pressure":1003.1,"uv_index":7.55,"wind_gusts":40.3,"aqi":64,"pm10":49.5,"pm2_5":19.0,"no2":8.6,"co":178.0,"o3":56.0,"so2":4.0,"mosquito_risk":7,"arthritis_risk":5,"migraine_risk":4,"frizz_risk":1,"updated_at":"2026-05-18T03:30:58.515305+05:30"},{"city":"Nagpur","state":"Maharashtra","latitude":21.1458,"longitude":79.0882,"temp":32.5,"humidity":37,"rain":0.0,"pressure":967.9,"uv_index":8.95,"wind_gusts":36.4,"aqi":85,"pm10":44.1,"pm2_5":38.8,"no2":41.4,"co":278.0,"o3":29.0,"so2":15.8,"mosquito_risk":0,"arthritis_risk":5,"migraine_risk":7,"frizz_risk":0,"updated_at":"2026-05-18T03:30:58.515313+05:30"},{"city":"Nashik","state":"Maharashtra","latitude":19.9975,"longitude":73.7898,"temp":25.4,"humidity":64,"rain":0.0,"pressure":941.2,"uv_index":7.7,"wind_gusts":42.5,"aqi":62,"pm10":43.7,"pm2_5":24.3,"no2":20.0,"co":174.0,"o3":36.0,"so2":3.4,"mosquito_risk":7,"arthritis_risk":5,"migraine_risk":7,"frizz_risk":1,"updated_at":"2026-05-18T03:30:58.515320+05:30"},{"city":"Aurangabad","state":"Maharashtra","latitude":19.8762,"longitude":75.3433,"temp":29.9,"humidity":32,"rain":0.0,"pressure":939.2,"uv_index":9.05,"wind_gusts":32.4,"aqi":54,"pm10":30.3,"pm2_5":18.0,"no2":11.7,"co":194.0,"o3":77.0,"so2":5.6,"mosquito_risk":4,"arthritis_risk":5,"migraine_risk":7,"frizz_risk":0,"updated_at":"2026-05-18T03:30:58.515328+05:30"},{"city":"Solapur","state":"Maharashtra","latitude":17.6599,"longitude":75.9064,"temp":31.0,"humidity":47,"rain":0.0,"pressure":952.5,"uv_index":9.05,"wind_gusts":51.5,"aqi":73,"pm10":31.3,"pm2_5":26.7,"no2":11.1,"co":233.0,"o3":76.0,"so2":8.1,"mosquito_risk":0,"arthritis_risk":5,"migraine_risk":7,"frizz_risk":1,"updated_at":"2026-05-18T03:30:58.515336+05:30"},{"city":"Kolhapur","state":"Maharashtra","latitude":16.705,"longitude":74.2433,"temp":24.3,"humidity":96,"rain":0.0,"pressure":943.8,"uv_index":8.5,"wind_gusts":44.3,"aqi":57,"pm10":23.9,"pm2_5":15.3,"no2":7.6,"co":155.0,"o3":50.0,"so2":3.4,"mosquito_risk":3,"arthritis_risk":5,"migraine_risk":7,"frizz_risk":1,"updated_at":"2026-05-18T03:30:58.515343+05:30"},{"city":"Goa","state":"Goa","latitude":15.2993,"longitude":74.124,"temp":27.3,"humidity":96,"rain":0.0,"pressure":993.4,"uv_index":6.15,"wind_gusts":33.8,"aqi":59,"pm10":49.4,"pm2_5":26.1,"no2":7.4,"co":336.0,"o3":51.0,"so2":2.2,"mosquito_risk":7,"arthritis_risk":5,"migraine_risk":7,"frizz_risk":1,"updated_at":"2026-05-18T03:30:58.515350+05:30"},{"city":"Jodhpur","state":"Rajasthan","latitude":26.2389,"longitude":73.0243,"temp":32.3,"humidity":24,"rain":0.0,"pressure":977.6,"uv_index":8.35,"wind_gusts":42.8,"aqi":81,"pm10":243.1,"pm2_5":52.2,"no2":3.9,"co":159.0,"o3":62.0,"so2":3.4,"mosquito_risk":0,"arthritis_risk":5,"migraine_risk":7,"frizz_risk":0,"updated_at":"2026-05-18T03:30:58.515358+05:30"},{"city":"Udaipur","state":"Rajasthan","latitude":24.5854,"longitude":73.7125,"temp":31.8,"humidity":22,"rain":0.0,"pressure":942.1,"uv_index":8.85,"wind_gusts":45.0,"aqi":58,"pm10":39.2,"pm2_5":17.3,"no2":3.6,"co":140.0,"o3":59.0,"so2":3.4,"mosquito_risk":0,"arthritis_risk":5,"migraine_risk":7,"frizz_risk":0,"updated_at":"2026-05-18T03:30:58.515365+05:30"},{"city":"Kota","state":"Rajasthan","latitude":25.2138,"longitude":75.8648,"temp":33.5,"humidity":26,"rain":0.0,"pressure":972.5,"uv_index":8.4,"wind_gusts":36.7,"aqi":109,"pm10":129.0,"pm2_5":39.5,"no2":10.1,"co":186.0,"o3":51.0,"so2":4.8,"mosquito_risk":0,"arthritis_risk":5,"migraine_risk":7,"frizz_risk":0,"updated_at":"2026-05-18T03:30:58.515373+05:30"},{"city":"Bikaner","state":"Rajasthan","latitude":28.0229,"longitude":73.3119,"temp":32.9,"humidity":23,"rain":0.0,"pressure":975.6,"uv_index":8.4,"wind_gusts":42.5,"aqi":81,"pm10":215.1,"pm2_5":54.0,"no2":1.5,"co":139.0,"o3":76.0,"so2":2.1,"mosquito_risk":0,"arthritis_risk":5,"migraine_risk":7,"frizz_risk":0,"updated_at":"2026-05-18T03:30:58.515379+05:30"},{"city":"Ajmer","state":"Rajasthan","latitude":26.4499,"longitude":74.6399,"temp":31.0,"humidity":31,"rain":0.0,"pressure":949.6,"uv_index":8.4,"wind_gusts":41.8,"aqi":79,"pm10":67.3,"pm2_5":22.1,"no2":2.8,"co":188.0,"o3":85.0,"so2":5.3,"mosquito_risk":0,"arthritis_risk":5,"migraine_risk":7,"frizz_risk":0,"updated_at":"2026-05-18T03:30:58.515386+05:30"},{"city":"Gwalior","state":"Madhya Pradesh","latitude":26.2183,"longitude":78.1828,"temp":33.0,"humidity":25,"rain":0.0,"pressure":976.1,"uv_index":8.3,"wind_gusts":46.8,"aqi":177,"pm10":52.6,"pm2_5":23.6,"no2":5.7,"co":175.0,"o3":61.0,"so2":3.3,"mosquito_risk":0,"arthritis_risk":5,"migraine_risk":7,"frizz_risk":0,"updated_at":"2026-05-18T03:30:58.515393+05:30"},{"city":"Indore","state":"Madhya Pradesh","latitude":22.7196,"longitude":75.8577,"temp":31.4,"humidity":31,"rain":0.0,"pressure":943.1,"uv_index":8.5,"wind_gusts":37.8,"aqi":65,"pm10":39.3,"pm2_5":24.3,"no2":7.0,"co":236.0,"o3":59.0,"so2":5.6,"mosquito_risk":0,"arthritis_risk":5,"migraine_risk":7,"frizz_risk":0,"updated_at":"2026-05-18T03:30:58.515400+05:30"},{"city":"Bhopal","state":"Madhya Pradesh","latitude":23.2599,"longitude":77.4126,"temp":31.6,"humidity":26,"rain":0.0,"pressure":948.0,"uv_index":8.7,"wind_gusts":46.4,"aqi":60,"pm10":33.6,"pm2_5":27.4,"no2":13.9,"co":344.0,"o3":48.0,"so2":6.0,"mosquito_risk":0,"arthritis_risk":5,"migraine_risk":7,"frizz_risk":0,"updated_at":"2026-05-18T03:30:58.515407+05:30"},{"city":"Jabalpur","state":"Madhya Pradesh","latitude":23.1815,"longitude":79.9864,"temp":30.2,"humidity":40,"rain":0.0,"pressure":956.1,"uv_index":8.85,"wind_gusts":35.3,"aqi":84,"pm10":80.3,"pm2_5":40.9,"no2":34.7,"co":249.0,"o3":31.0,"so2":6.5,"mosquito_risk":0,"arthritis_risk":5,"migraine_risk":7,"frizz_risk":0,"updated_at":"2026-05-18T03:30:58.515414+05:30"},{"city":"Ujjain","state":"Madhya Pradesh","latitude":23.1765,"longitude":75.7885,"temp":30.5,"humidity":31,"rain":0.0,"pressure":948.5,"uv_index":8.6,"wind_gusts":37.8,"aqi":67,"pm10":35.3,"pm2_5":21.7,"no2":5.2,"co":385.0,"o3":58.0,"so2":4.3,"mosquito_risk":0,"arthritis_risk":5,"migraine_risk":7,"frizz_risk":0,"updated_at":"2026-05-18T03:30:58.515422+05:30"},{"city":"Visakhapatnam","state":"Andhra Pradesh","latitude":17.6868,"longitude":83.2185,"temp":28.7,"humidity":87,"rain":0.0,"pressure":999.5,"uv_index":9.0,"wind_gusts":47.5,"aqi":61,"pm10":26.5,"pm2_5":19.0,"no2":15.6,"co":307.0,"o3":59.0,"so2":28.7,"mosquito_risk":7,"arthritis_risk":5,"migraine_risk":7,"frizz_risk":1,"updated_at":"2026-05-18T03:30:58.515428+05:30"},{"city":"Vijayawada","state":"Andhra Pradesh","latitude":16.5062,"longitude":80.648,"temp":29.4,"humidity":81,"rain":0.0,"pressure":998.0,"uv_index":8.5,"wind_gusts":38.9,"aqi":55,"pm10":21.8,"pm2_5":16.2,"no2":5.5,"co":202.0,"o3":74.0,"so2":3.6,"mosquito_risk":7,"arthritis_risk":5,"migraine_risk":7,"frizz_risk":1,"updated_at":"2026-05-18T03:30:58.515435+05:30"},{"city":"Guntur","state":"Andhra Pradesh","latitude":16.3067,"longitude":80.4365,"temp":29.6,"humidity":79,"rain":0.0,"pressure":999.1,"uv_index":8.95,"wind_gusts":34.2,"aqi":52,"pm10":21.5,"pm2_5":16.1,"no2":4.9,"co":204.0,"o3":77.0,"so2":2.1,"mosquito_risk":7,"arthritis_risk":5,"migraine_risk":7,"frizz_risk":1,"updated_at":"2026-05-18T03:30:58.515442+05:30"},{"city":"Nellore","state":"Andhra Pradesh","latitude":14.4426,"longitude":79.9865,"temp":29.2,"humidity":81,"rain":0.0,"pressure":1000.6,"uv_index":9.15,"wind_gusts":41.0,"aqi":66,"pm10":23.6,"pm2_5":19.2,"no2":9.0,"co":215.0,"o3":82.0,"so2":15.9,"mosquito_risk":7,"arthritis_risk":5,"migraine_risk":4,"frizz_risk":1,"updated_at":"2026-05-18T03:30:58.515450+05:30"},{"city":"Kurnool","state":"Andhra Pradesh","latitude":15.8281,"longitude":78.0373,"temp":30.3,"humidity":60,"rain":0.0,"pressure":971.9,"uv_index":9.15,"wind_gusts":36.4,"aqi":59,"pm10":16.2,"pm2_5":14.6,"no2":4.4,"co":208.0,"o3":86.0,"so2":5.5,"mosquito_risk":0,"arthritis_risk":5,"migraine_risk":7,"frizz_risk":1,"updated_at":"2026-05-18T03:30:58.515457+05:30"},{"city":"Kakinada","state":"Andhra Pradesh","latitude":16.9891,"longitude":82.2475,"temp":29.3,"humidity":82,"rain":0.0,"pressure":1003.3,"uv_index":8.7,"wind_gusts":42.1,"aqi":53,"pm10":27.1,"pm2_5":17.0,"no2":1.7,"co":211.0,"o3":85.0,"so2":1.5,"mosquito_risk":7,"arthritis_risk":5,"migraine_risk":4,"frizz_risk":1,"updated_at":"2026-05-18T03:30:58.515465+05:30"},{"city":"Tirupati","state":"Andhra Pradesh","latitude":13.6288,"longitude":79.4192,"temp":27.5,"humidity":84,"rain":0.0,"pressure":986.5,"uv_index":9.1,"wind_gusts":34.2,"aqi":76,"pm10":24.0,"pm2_5":21.1,"no2":12.0,"co":275.0,"o3":69.0,"so2":17.2,"mosquito_risk":7,"arthritis_risk":5,"migraine_risk":7,"frizz_risk":1,"updated_at":"2026-05-18T03:30:58.515471+05:30"},{"city":"Warangal","state":"Telangana","latitude":17.9689,"longitude":79.5941,"temp":28.6,"humidity":69,"rain":0.0,"pressure":973.8,"uv_index":9.15,"wind_gusts":32.4,"aqi":67,"pm10":18.2,"pm2_5":15.9,"no2":9.3,"co":289.0,"o3":58.0,"so2":7.6,"mosquito_risk":7,"arthritis_risk":5,"migraine_risk":7,"frizz_risk":1,"updated_at":"2026-05-18T03:30:58.515478+05:30"},{"city":"Nizamabad","state":"Telangana","latitude":18.6725,"longitude":78.0941,"temp":30.0,"humidity":54,"rain":0.0,"pressure":960.4,"uv_index":9.15,"wind_gusts":32.0,"aqi":85,"pm10":25.8,"pm2_5":21.4,"no2":9.9,"co":262.0,"o3":74.0,"so2":5.4,"mosquito_risk":4,"arthritis_risk":5,"migraine_risk":7,"frizz_risk":1,"updated_at":"2026-05-18T03:30:58.515484+05:30"},{"city":"Mysore","state":"Karnataka","latitude":12.2958,"longitude":76.6396,"temp":23.1,"humidity":93,"rain":0.0,"pressure":924.4,"uv_index":4.15,"wind_gusts":38.9,"aqi":67,"pm10":7.9,"pm2_5":7.1,"no2":7.0,"co":217.0,"o3":58.0,"so2":2.6,"mosquito_risk":3,"arthritis_risk":5,"migraine_risk":3,"frizz_risk":1,"updated_at":"2026-05-18T03:30:58.515490+05:30"},{"city":"Mangalore","state":"Karnataka","latitude":12.9141,"longitude":74.856,"temp":24.7,"humidity":98,"rain":0.1,"pressure":1003.1,"uv_index":6.9,"wind_gusts":40.0,"aqi":58,"pm10":17.8,"pm2_5":12.4,"no2":7.1,"co":309.0,"o3":42.0,"so2":3.0,"mosquito_risk":6,"arthritis_risk":5,"migraine_risk":4,"frizz_risk":1,"updated_at":"2026-05-18T03:30:58.515497+05:30"},{"city":"Hubli-Dharwad","state":"Karnataka","latitude":15.3647,"longitude":75.124,"temp":24.5,"humidity":93,"rain":0.0,"pressure":936.5,"uv_index":8.85,"wind_gusts":40.3,"aqi":55,"pm10":19.8,"pm2_5":10.8,"no2":4.0,"co":158.0,"o3":48.0,"so2":1.8,"mosquito_risk":3,"arthritis_risk":5,"migraine_risk":7,"frizz_risk":1,"updated_at":"2026-05-18T03:30:58.515503+05:30"},{"city":"Belgaum","state":"Karnataka","latitude":15.8497,"longitude":74.4977,"temp":23.2,"humidity":96,"rain":0.0,"pressure":921.2,"uv_index":9.05,"wind_gusts":45.4,"aqi":56,"pm10":24.3,"pm2_5":14.6,"no2":7.1,"co":140.0,"o3":41.0,"so2":2.0,"mosquito_risk":3,"arthritis_risk":5,"migraine_risk":7,"frizz_risk":1,"updated_at":"2026-05-18T03:31:05.674450+05:30"},{"city":"Coimbatore","state":"Tamil Nadu","latitude":11.0168,"longitude":76.9558,"temp":24.0,"humidity":98,"rain":0.0,"pressure":957.7,"uv_index":7.65,"wind_gusts":48.6,"aqi":46,"pm10":3.8,"pm2_5":3.2,"no2":4.9,"co":175.0,"o3":58.0,"so2":2.6,"mosquito_risk":3,"arthritis_risk":5,"migraine_risk":7,"frizz_risk":1,"updated_at":"2026-05-18T03:31:05.674484+05:30"},{"city":"Madurai","state":"Tamil Nadu","latitude":9.9252,"longitude":78.1198,"temp":27.0,"humidity":81,"rain":0.0,"pressure":989.1,"uv_index":7.4,"wind_gusts":42.1,"aqi":83,"pm10":34.0,"pm2_5":30.6,"no2":38.5,"co":204.0,"o3":3.0,"so2":6.8,"mosquito_risk":7,"arthritis_risk":5,"migraine_risk":7,"frizz_risk":1,"updated_at":"2026-05-18T03:31:05.674495+05:30"},{"city":"Trichy","state":"Tamil Nadu","latitude":10.7905,"longitude":78.7047,"temp":26.6,"humidity":94,"rain":0.0,"pressure":995.5,"uv_index":7.7,"wind_gusts":31.0,"aqi":78,"pm10":25.4,"pm2_5":22.5,"no2":16.1,"co":232.0,"o3":52.0,"so2":4.5,"mosquito_risk":7,"arthritis_risk":5,"migraine_risk":7,"frizz_risk":1,"updated_at":"2026-05-18T03:31:05.674504+05:30"},{"city":"Salem","state":"Tamil Nadu","latitude":11.6643,"longitude":78.146,"temp":25.7,"humidity":95,"rain":0.0,"pressure":973.3,"uv_index":7.25,"wind_gusts":35.3,"aqi":82,"pm10":22.6,"pm2_5":19.4,"no2":13.0,"co":225.0,"o3":60.0,"so2":4.9,"mosquito_risk":7,"arthritis_risk":5,"migraine_risk":7,"frizz_risk":1,"updated_at":"2026-05-18T03:31:05.674513+05:30"},{"city":"Tirunelveli","state":"Tamil Nadu","latitude":8.7139,"longitude":77.7567,"temp":27.6,"humidity":79,"rain":0.0,"pressure":999.6,"uv_index":8.85,"wind_gusts":25.6,"aqi":29,"pm10":4.6,"pm2_5":4.2,"no2":4.3,"co":217.0,"o3":53.0,"so2":1.5,"mosquito_risk":7,"arthritis_risk":5,"migraine_risk":7,"frizz_risk":1,"updated_at":"2026-05-18T03:31:05.674520+05:30"},{"city":"Vellore","state":"Tamil Nadu","latitude":12.9165,"longitude":79.1325,"temp":26.8,"humidity":84,"rain":0.0,"pressure":979.7,"uv_index":7.9,"wind_gusts":34.6,"aqi":89,"pm10":27.1,"pm2_5":23.1,"no2":9.3,"co":342.0,"o3":66.0,"so2":7.2,"mosquito_risk":7,"arthritis_risk":5,"migraine_risk":7,"frizz_risk":1,"updated_at":"2026-05-18T03:31:05.674528+05:30"},{"city":"Erode","state":"Tamil Nadu","latitude":11.341,"longitude":77.7172,"temp":26.0,"humidity":94,"rain":0.0,"pressure":985.1,"uv_index":7.9,"wind_gusts":38.9,"aqi":63,"pm10":12.4,"pm2_5":10.8,"no2":12.9,"co":178.0,"o3":41.0,"so2":4.0,"mosquito_risk":7,"arthritis_risk":5,"migraine_risk":7,"frizz_risk":1,"updated_at":"2026-05-18T03:31:05.674537+05:30"},{"city":"Kochi","state":"Kerala","latitude":9.9312,"longitude":76.2673,"temp":25.5,"humidity":96,"rain":0.1,"pressure":1005.6,"uv_index":8.15,"wind_gusts":30.6,"aqi":51,"pm10":13.7,"pm2_5":12.1,"no2":12.5,"co":205.0,"o3":31.0,"so2":3.8,"mosquito_risk":10,"arthritis_risk":5,"migraine_risk":4,"frizz_risk":1,"updated_at":"2026-05-18T03:31:05.674545+05:30"},{"city":"Thiruvananthapuram","state":"Kerala","latitude":8.5241,"longitude":76.9366,"temp":24.0,"humidity":99,"rain":0.0,"pressure":1005.5,"uv_index":6.9,"wind_gusts":34.2,"aqi":34,"pm10":10.4,"pm2_5":6.6,"no2":2.4,"co":242.0,"o3":68.0,"so2":1.1,"mosquito_risk":3,"arthritis_risk":5,"migraine_risk":4,"frizz_risk":1,"updated_at":"2026-05-18T03:31:05.674552+05:30"},{"city":"Kozhikode","state":"Kerala","latitude":11.2588,"longitude":75.7804,"temp":24.3,"humidity":99,"rain":0.1,"pressure":1004.8,"uv_index":3.0,"wind_gusts":27.7,"aqi":47,"pm10":11.8,"pm2_5":7.0,"no2":1.3,"co":177.0,"o3":72.0,"so2":1.0,"mosquito_risk":6,"arthritis_risk":5,"migraine_risk":0,"frizz_risk":1,"updated_at":"2026-05-18T03:31:05.674559+05:30"},{"city":"Thrissur","state":"Kerala","latitude":10.5276,"longitude":76.2144,"temp":24.0,"humidity":99,"rain":0.3,"pressure":1003.9,"uv_index":6.25,"wind_gusts":28.4,"aqi":50,"pm10":12.0,"pm2_5":10.6,"no2":11.4,"co":218.0,"o3":35.0,"so2":3.9,"mosquito_risk":6,"arthritis_risk":5,"migraine_risk":4,"frizz_risk":1,"updated_at":"2026-05-18T03:31:05.674567+05:30"},{"city":"Kannur","state":"Kerala","latitude":11.8745,"longitude":75.3704,"temp":25.2,"humidity":98,"rain":0.1,"pressure":1003.7,"uv_index":2.4,"wind_gusts":31.7,"aqi":55,"pm10":9.8,"pm2_5":7.3,"no2":6.5,"co":232.0,"o3":49.0,"so2":2.2,"mosquito_risk":10,"arthritis_risk":5,"migraine_risk":0,"frizz_risk":1,"updated_at":"2026-05-18T03:31:05.674574+05:30"},{"city":"Patna","state":"Bihar","latitude":25.5941,"longitude":85.1376,"temp":27.4,"humidity":83,"rain":0.0,"pressure":993.6,"uv_index":8.8,"wind_gusts":27.7,"aqi":151,"pm10":81.7,"pm2_5":65.9,"no2":43.0,"co":486.0,"o3":24.0,"so2":16.4,"mosquito_risk":7,"arthritis_risk":5,"migraine_risk":7,"frizz_risk":1,"updated_at":"2026-05-18T03:31:05.674581+05:30"},{"city":"Gaya","state":"Bihar","latitude":24.7914,"longitude":85.0002,"temp":27.2,"humidity":43,"rain":0.0,"pressure":987.1,"uv_index":8.85,"wind_gusts":42.8,"aqi":135,"pm10":80.1,"pm2_5":39.7,"no2":18.4,"co":328.0,"o3":59.0,"so2":10.8,"mosquito_risk":4,"arthritis_risk":5,"migraine_risk":7,"frizz_risk":0,"updated_at":"2026-05-18T03:31:05.674588+05:30"},{"city":"Muzaffarpur","state":"Bihar","latitude":26.1209,"longitude":85.3647,"temp":26.4,"humidity":87,"rain":0.0,"pressure":993.8,"uv_index":8.85,"wind_gusts":35.6,"aqi":155,"pm10":63.3,"pm2_5":56.9,"no2":22.7,"co":488.0,"o3":59.0,"so2":14.3,"mosquito_risk":7,"arthritis_risk":5,"migraine_risk":7,"frizz_risk":1,"updated_at":"2026-05-18T03:31:05.674595+05:30"},{"city":"Bhagalpur","state":"Bihar","latitude":25.2425,"longitude":87.0117,"temp":26.9,"humidity":93,"rain":0.0,"pressure":994.7,"uv_index":8.8,"wind_gusts":34.9,"aqi":141,"pm10":57.2,"pm2_5":53.9,"no2":16.0,"co":527.0,"o3":59.0,"so2":8.0,"mosquito_risk":7,"arthritis_risk":5,"migraine_risk":7,"frizz_risk":1,"updated_at":"2026-05-18T03:31:05.674602+05:30"},{"city":"Ranchi","state":"Jharkhand","latitude":23.3441,"longitude":85.3096,"temp":25.0,"humidity":61,"rain":0.0,"pressure":932.7,"uv_index":9.25,"wind_gusts":39.2,"aqi":134,"pm10":73.6,"pm2_5":59.1,"no2":11.3,"co":330.0,"o3":100.0,"so2":12.4,"mosquito_risk":7,"arthritis_risk":5,"migraine_risk":7,"frizz_risk":1,"updated_at":"2026-05-18T03:31:05.674629+05:30"},{"city":"Jamshedpur","state":"Jharkhand","latitude":22.8046,"longitude":86.2029,"temp":27.4,"humidity":74,"rain":0.0,"pressure":985.4,"uv_index":9.05,"wind_gusts":37.4,"aqi":134,"pm10":60.3,"pm2_5":50.9,"no2":16.3,"co":275.0,"o3":90.0,"so2":27.3,"mosquito_risk":7,"arthritis_risk":5,"migraine_risk":7,"frizz_risk":1,"updated_at":"2026-05-18T03:31:05.674636+05:30"},{"city":"Dhanbad","state":"Jharkhand","latitude":23.7957,"longitude":86.4304,"temp":26.5,"humidity":67,"rain":0.0,"pressure":973.8,"uv_index":9.0,"wind_gusts":36.4,"aqi":152,"pm10":97.3,"pm2_5":81.7,"no2":43.9,"co":246.0,"o3":55.0,"so2":111.7,"mosquito_risk":7,"arthritis_risk":5,"migraine_risk":7,"frizz_risk":1,"updated_at":"2026-05-18T03:31:05.674643+05:30"},{"city":"Bokaro","state":"Jharkhand","latitude":23.6693,"longitude":86.1511,"temp":26.5,"humidity":63,"rain":0.0,"pressure":977.7,"uv_index":9.05,"wind_gusts":37.4,"aqi":147,"pm10":89.4,"pm2_5":70.3,"no2":39.3,"co":285.0,"o3":39.0,"so2":77.3,"mosquito_risk":7,"arthritis_risk":5,"migraine_risk":7,"frizz_risk":1,"updated_at":"2026-05-18T03:31:05.674650+05:30"},{"city":"Bhubaneswar","state":"Odisha","latitude":20.2961,"longitude":85.8245,"temp":28.6,"humidity":88,"rain":0.0,"pressure":997.5,"uv_index":9.1,"wind_gusts":43.6,"aqi":55,"pm10":14.3,"pm2_5":11.8,"no2":5.7,"co":188.0,"o3":61.0,"so2":4.7,"mosquito_risk":7,"arthritis_risk":5,"migraine_risk":7,"frizz_risk":1,"updated_at":"2026-05-18T03:31:05.674656+05:30"},{"city":"Cuttack","state":"Odisha","latitude":20.4625,"longitude":85.8828,"temp":28.7,"humidity":88,"rain":0.0,"pressure":999.2,"uv_index":9.15,"wind_gusts":41.8,"aqi":55,"pm10":14.3,"pm2_5":11.8,"no2":5.7,"co":200.0,"o3":61.0,"so2":4.7,"mosquito_risk":7,"arthritis_risk":5,"migraine_risk":7,"frizz_risk":1,"updated_at":"2026-05-18T03:31:05.674663+05:30"},{"city":"Rourkela","state":"Odisha","latitude":22.2604,"longitude":84.8536,"temp":28.0,"humidity":78,"rain":0.0,"pressure":980.0,"uv_index":8.95,"wind_gusts":38.9,"aqi":152,"pm10":82.4,"pm2_5":65.0,"no2":18.3,"co":262.0,"o3":83.0,"so2":18.8,"mosquito_risk":7,"arthritis_risk":5,"migraine_risk":7,"frizz_risk":1,"updated_at":"2026-05-18T03:31:05.674670+05:30"},{"city":"Raipur","state":"Chhattisgarh","latitude":21.2514,"longitude":81.6296,"temp":30.0,"humidity":52,"rain":0.0,"pressure":969.9,"uv_index":8.95,"wind_gusts":40.7,"aqi":115,"pm10":49.6,"pm2_5":42.0,"no2":28.6,"co":417.0,"o3":50.0,"so2":31.2,"mosquito_risk":4,"arthritis_risk":5,"migraine_risk":7,"frizz_risk":1,"updated_at":"2026-05-18T03:31:05.674676+05:30"},{"city":"Bhilai","state":"Chhattisgarh","latitude":21.1938,"longitude":81.3509,"temp":29.5,"humidity":59,"rain":0.0,"pressure":970.5,"uv_index":9.0,"wind_gusts":39.2,"aqi":100,"pm10":42.0,"pm2_5":36.0,"no2":25.6,"co":640.0,"o3":60.0,"so2":35.4,"mosquito_risk":4,"arthritis_risk":5,"migraine_risk":7,"frizz_risk":1,"updated_at":"2026-05-18T03:31:05.674683+05:30"},{"city":"Guwahati","state":"Assam","latitude":26.1158,"longitude":91.7086,"temp":22.0,"humidity":98,"rain":0.4,"pressure":997.9,"uv_index":8.6,"wind_gusts":33.1,"aqi":65,"pm10":18.8,"pm2_5":15.3,"no2":5.9,"co":289.0,"o3":81.0,"so2":3.0,"mosquito_risk":6,"arthritis_risk":5,"migraine_risk":7,"frizz_risk":1,"updated_at":"2026-05-18T03:31:05.674690+05:30"},{"city":"Agartala","state":"Tripura","latitude":23.8315,"longitude":91.2868,"temp":26.4,"humidity":92,"rain":0.0,"pressure":1002.0,"uv_index":8.9,"wind_gusts":41.4,"aqi":67,"pm10":17.8,"pm2_5":12.7,"no2":8.9,"co":180.0,"o3":37.0,"so2":1.8,"mosquito_risk":7,"arthritis_risk":5,"migraine_risk":4,"frizz_risk":1,"updated_at":"2026-05-18T03:31:05.674697+05:30"},{"city":"Shillong","state":"Meghalaya","latitude":25.5788,"longitude":91.8933,"temp":18.7,"humidity":92,"rain":0.0,"pressure":853.2,"uv_index":5.95,"wind_gusts":40.0,"aqi":48,"pm10":8.1,"pm2_5":5.1,"no2":3.7,"co":230.0,"o3":101.0,"so2":5.0,"mosquito_risk":3,"arthritis_risk":10,"migraine_risk":3,"frizz_risk":1,"updated_at":"2026-05-18T03:31:05.674704+05:30"},{"city":"Imphal","state":"Manipur","latitude":24.817,"longitude":93.9368,"temp":20.5,"humidity":95,"rain":0.0,"pressure":919.7,"uv_index":8.8,"wind_gusts":36.4,"aqi":62,"pm10":16.8,"pm2_5":14.5,"no2":10.8,"co":392.0,"o3":22.0,"so2":2.3,"mosquito_risk":3,"arthritis_risk":5,"migraine_risk":7,"frizz_risk":1,"updated_at":"2026-05-18T03:31:05.674712+05:30"},{"city":"Aizawl","state":"Mizoram","latitude":23.7271,"longitude":92.7176,"temp":17.9,"humidity":98,"rain":0.0,"pressure":888.7,"uv_index":9.05,"wind_gusts":39.6,"aqi":58,"pm10":26.7,"pm2_5":16.9,"no2":4.5,"co":153.0,"o3":55.0,"so2":3.5,"mosquito_risk":3,"arthritis_risk":10,"migraine_risk":7,"frizz_risk":1,"updated_at":"2026-05-18T03:31:05.674718+05:30"},{"city":"Kohima","state":"Nagaland","latitude":25.6701,"longitude":94.1077,"temp":16.2,"humidity":93,"rain":0.1,"pressure":850.7,"uv_index":5.7,"wind_gusts":29.5,"aqi":56,"pm10":17.3,"pm2_5":13.7,"no2":5.3,"co":221.0,"o3":40.0,"so2":1.6,"mosquito_risk":6,"arthritis_risk":10,"migraine_risk":3,"frizz_risk":0,"updated_at":"2026-05-18T03:31:05.674724+05:30"},{"city":"Gangtok","state":"Sikkim","latitude":27.3314,"longitude":88.6138,"temp":14.8,"humidity":87,"rain":0.0,"pressure":832.4,"uv_index":9.15,"wind_gusts":39.2,"aqi":65,"pm10":16.9,"pm2_5":14.9,"no2":11.2,"co":570.0,"o3":64.0,"so2":1.7,"mosquito_risk":3,"arthritis_risk":10,"migraine_risk":7,"frizz_risk":0,"updated_at":"2026-05-18T03:31:05.674731+05:30"},{"city":"Siliguri","state":"West Bengal","latitude":26.7271,"longitude":88.3953,"temp":22.2,"humidity":97,"rain":0.0,"pressure":989.4,"uv_index":8.75,"wind_gusts":29.9,"aqi":95,"pm10":48.7,"pm2_5":40.4,"no2":13.8,"co":335.0,"o3":88.0,"so2":6.7,"mosquito_risk":3,"arthritis_risk":5,"migraine_risk":7,"frizz_risk":1,"updated_at":"2026-05-18T03:31:09.817273+05:30"},{"city":"Durgapur","state":"West Bengal","latitude":23.5204,"longitude":87.3119,"temp":27.8,"humidity":86,"rain":0.0,"pressure":989.0,"uv_index":8.95,"wind_gusts":33.5,"aqi":142,"pm10":64.0,"pm2_5":57.5,"no2":27.6,"co":671.0,"o3":68.0,"so2":45.4,"mosquito_risk":7,"arthritis_risk":5,"migraine_risk":7,"frizz_risk":1,"updated_at":"2026-05-18T03:31:09.817309+05:30"},{"city":"Asansol","state":"West Bengal","latitude":23.6739,"longitude":86.9524,"temp":27.4,"humidity":85,"rain":0.0,"pressure":987.5,"uv_index":9.0,"wind_gusts":34.9,"aqi":142,"pm10":78.0,"pm2_5":67.3,"no2":32.1,"co":483.0,"o3":64.0,"so2":57.6,"mosquito_risk":7,"arthritis_risk":5,"migraine_risk":7,"frizz_risk":1,"updated_at":"2026-05-18T03:31:09.817319+05:30"},{"city":"Pondicherry","state":"Puducherry","latitude":11.9139,"longitude":79.8145,"temp":27.3,"humidity":89,"rain":0.0,"pressure":1003.8,"uv_index":8.4,"wind_gusts":40.0,"aqi":71,"pm10":14.8,"pm2_5":11.9,"no2":8.9,"co":260.0,"o3":72.0,"so2":10.0,"mosquito_risk":7,"arthritis_risk":5,"migraine_risk":4,"frizz_risk":1,"updated_at":"2026-05-18T03:31:09.817327+05:30"},{"city":"Port Blair","state":"Andaman and Nicobar Islands","latitude":11.6234,"longitude":92.7265,"temp":26.8,"humidity":92,"rain":0.0,"pressure":1003.7,"uv_index":8.95,"wind_gusts":45.7,"aqi":21,"pm10":7.0,"pm2_5":4.1,"no2":0.2,"co":95.0,"o3":46.0,"so2":0.2,"mosquito_risk":7,"arthritis_risk":5,"migraine_risk":4,"frizz_risk":1,"updated_at":"2026-05-18T03:31:09.817335+05:30"},{"city":"Haridwar","state":"Uttarakhand","latitude":29.9457,"longitude":78.1642,"temp":22.0,"humidity":74,"rain":0.0,"pressure":964.8,"uv_index":7.55,"wind_gusts":27.4,"aqi":80,"pm10":32.6,"pm2_5":31.8,"no2":32.4,"co":302.0,"o3":19.0,"so2":5.6,"mosquito_risk":3,"arthritis_risk":5,"migraine_risk":7,"frizz_risk":1,"updated_at":"2026-05-18T03:31:09.817343+05:30"},{"city":"Rishikesh","state":"Uttarakhand","latitude":30.0869,"longitude":78.2676,"temp":19.9,"humidity":76,"rain":0.0,"pressure":957.3,"uv_index":7.65,"wind_gusts":28.1,"aqi":68,"pm10":30.0,"pm2_5":26.0,"no2":19.7,"co":323.0,"o3":56.0,"so2":5.0,"mosquito_risk":3,"arthritis_risk":5,"migraine_risk":7,"frizz_risk":0,"updated_at":"2026-05-18T03:31:09.817350+05:30"},{"city":"Nainital","state":"Uttarakhand","latitude":29.3919,"longitude":79.4542,"temp":14.7,"humidity":61,"rain":0.0,"pressure":798.7,"uv_index":8.5,"wind_gusts":29.9,"aqi":77,"pm10":26.7,"pm2_5":20.9,"no2":15.8,"co":253.0,"o3":88.0,"so2":5.3,"mosquito_risk":3,"arthritis_risk":5,"migraine_risk":7,"frizz_risk":0,"updated_at":"2026-05-18T03:31:09.817357+05:30"},{"city":"Mussoorie","state":"Uttarakhand","latitude":30.4599,"longitude":78.0664,"temp":16.2,"humidity":54,"rain":0.0,"pressure":797.0,"uv_index":8.05,"wind_gusts":45.4,"aqi":68,"pm10":27.8,"pm2_5":25.7,"no2":33.3,"co":213.0,"o3":23.0,"so2":4.8,"mosquito_risk":0,"arthritis_risk":5,"migraine_risk":7,"frizz_risk":0,"updated_at":"2026-05-18T03:31:09.817364+05:30"},{"city":"Dharamshala","state":"Himachal Pradesh","latitude":32.219,"longitude":76.3234,"temp":22.0,"humidity":41,"rain":0.0,"pressure":863.3,"uv_index":8.45,"wind_gusts":41.4,"aqi":42,"pm10":5.2,"pm2_5":4.3,"no2":7.1,"co":182.0,"o3":60.0,"so2":0.0,"mosquito_risk":0,"arthritis_risk":5,"migraine_risk":7,"frizz_risk":0,"updated_at":"2026-05-18T03:31:09.817371+05:30"},{"city":"Dalhousie","state":"Himachal Pradesh","latitude":32.5387,"longitude":75.971,"temp":10.7,"humidity":76,"rain":0.0,"pressure":795.3,"uv_index":8.7,"wind_gusts":39.6,"aqi":64,"pm10":17.2,"pm2_5":15.5,"no2":14.2,"co":255.0,"o3":44.0,"so2":0.8,"mosquito_risk":3,"arthritis_risk":5,"migraine_risk":7,"frizz_risk":0,"updated_at":"2026-05-18T03:31:09.817378+05:30"},{"city":"Patiala","state":"Punjab","latitude":30.3398,"longitude":76.3869,"temp":27.6,"humidity":48,"rain":0.0,"pressure":970.3,"uv_index":7.65,"wind_gusts":33.8,"aqi":616,"pm10":711.5,"pm2_5":120.1,"no2":9.1,"co":430.0,"o3":73.0,"so2":8.1,"mosquito_risk":4,"arthritis_risk":5,"migraine_risk":7,"frizz_risk":0,"updated_at":"2026-05-18T03:31:09.817386+05:30"},{"city":"Bhatinda","state":"Punjab","latitude":30.211,"longitude":74.9455,"temp":28.9,"humidity":51,"rain":0.0,"pressure":975.9,"uv_index":8.3,"wind_gusts":40.3,"aqi":85,"pm10":58.7,"pm2_5":32.0,"no2":9.2,"co":394.0,"o3":85.0,"so2":7.3,"mosquito_risk":4,"arthritis_risk":5,"migraine_risk":7,"frizz_risk":1,"updated_at":"2026-05-18T03:31:09.817393+05:30"},{"city":"Rohtak","state":"Haryana","latitude":28.8955,"longitude":76.6066,"temp":27.4,"humidity":45,"rain":0.0,"pressure":974.0,"uv_index":7.75,"wind_gusts":41.8,"aqi":768,"pm10":694.8,"pm2_5":156.9,"no2":17.4,"co":331.0,"o3":52.0,"so2":7.1,"mosquito_risk":4,"arthritis_risk":5,"migraine_risk":7,"frizz_risk":0,"updated_at":"2026-05-18T03:31:09.817399+05:30"},{"city":"Panipat","state":"Haryana","latitude":29.3909,"longitude":76.9635,"temp":28.2,"humidity":43,"rain":0.0,"pressure":972.3,"uv_index":7.6,"wind_gusts":34.6,"aqi":1799,"pm10":1795.6,"pm2_5":300.8,"no2":10.3,"co":379.0,"o3":72.0,"so2":8.7,"mosquito_risk":4,"arthritis_risk":5,"migraine_risk":7,"frizz_risk":0,"updated_at":"2026-05-18T03:31:09.817405+05:30"},{"city":"Mathura","state":"Uttar Pradesh","latitude":27.4924,"longitude":77.6737,"temp":29.5,"humidity":38,"rain":0.0,"pressure":979.2,"uv_index":8.0,"wind_gusts":38.2,"aqi":521,"pm10":236.1,"pm2_5":61.0,"no2":12.9,"co":319.0,"o3":40.0,"so2":5.3,"mosquito_risk":4,"arthritis_risk":5,"migraine_risk":7,"frizz_risk":0,"updated_at":"2026-05-18T03:31:09.817411+05:30"},{"city":"Vrindavan","state":"Uttar Pradesh","latitude":27.5823,"longitude":77.7027,"temp":28.5,"humidity":42,"rain":0.0,"pressure":979.5,"uv_index":8.0,"wind_gusts":36.4,"aqi":521,"pm10":236.1,"pm2_5":61.0,"no2":12.9,"co":291.0,"o3":40.0,"so2":5.3,"mosquito_risk":4,"arthritis_risk":5,"migraine_risk":7,"frizz_risk":0,"updated_at":"2026-05-18T03:31:09.817418+05:30"},{"city":"Ayodhya","state":"Uttar Pradesh","latitude":26.7922,"longitude":82.1998,"temp":28.0,"humidity":58,"rain":0.0,"pressure":987.6,"uv_index":8.35,"wind_gusts":24.8,"aqi":151,"pm10":299.0,"pm2_5":93.8,"no2":22.4,"co":419.0,"o3":49.0,"so2":10.1,"mosquito_risk":4,"arthritis_risk":5,"migraine_risk":7,"frizz_risk":1,"updated_at":"2026-05-18T03:31:09.817424+05:30"},{"city":"Ratlam","state":"Madhya Pradesh","latitude":23.3315,"longitude":75.0367,"temp":29.9,"humidity":36,"rain":0.0,"pressure":949.6,"uv_index":8.55,"wind_gusts":44.6,"aqi":63,"pm10":30.7,"pm2_5":17.8,"no2":3.6,"co":215.0,"o3":63.0,"so2":3.8,"mosquito_risk":4,"arthritis_risk":5,"migraine_risk":7,"frizz_risk":0,"updated_at":"2026-05-18T03:31:09.817431+05:30"},{"city":"Sagar","state":"Madhya Pradesh","latitude":23.8388,"longitude":78.7378,"temp":30.4,"humidity":31,"rain":0.0,"pressure":944.9,"uv_index":8.75,"wind_gusts":42.8,"aqi":85,"pm10":113.4,"pm2_5":34.3,"no2":18.7,"co":265.0,"o3":64.0,"so2":4.2,"mosquito_risk":0,"arthritis_risk":5,"migraine_risk":7,"frizz_risk":0,"updated_at":"2026-05-18T03:31:09.817438+05:30"},{"city":"Satna","state":"Madhya Pradesh","latitude":24.6005,"longitude":80.8322,"temp":30.2,"humidity":32,"rain":0.0,"pressure":965.1,"uv_index":8.8,"wind_gusts":53.6,"aqi":102,"pm10":101.0,"pm2_5":37.0,"no2":26.4,"co":277.0,"o3":40.0,"so2":4.1,"mosquito_risk":0,"arthritis_risk":5,"migraine_risk":7,"frizz_risk":0,"updated_at":"2026-05-18T03:31:09.817444+05:30"},{"city":"Akola","state":"Maharashtra","latitude":20.7002,"longitude":77.0082,"temp":33.5,"humidity":28,"rain":0.0,"pressure":969.1,"uv_index":8.9,"wind_gusts":31.3,"aqi":53,"pm10":20.4,"pm2_5":13.2,"no2":8.5,"co":188.0,"o3":74.0,"so2":9.8,"mosquito_risk":0,"arthritis_risk":5,"migraine_risk":7,"frizz_risk":0,"updated_at":"2026-05-18T03:31:09.817452+05:30"},{"city":"Amravati","state":"Maharashtra","latitude":20.9374,"longitude":77.7796,"temp":32.2,"humidity":25,"rain":0.0,"pressure":962.0,"uv_index":8.9,"wind_gusts":28.4,"aqi":61,"pm10":21.5,"pm2_5":15.2,"no2":14.3,"co":246.0,"o3":60.0,"so2":8.1,"mosquito_risk":0,"arthritis_risk":5,"migraine_risk":7,"frizz_risk":0,"updated_at":"2026-05-18T03:31:09.817460+05:30"},{"city":"Latur","state":"Maharashtra","latitude":18.4088,"longitude":76.5604,"temp":30.1,"humidity":50,"rain":0.0,"pressure":936.0,"uv_index":8.9,"wind_gusts":34.9,"aqi":73,"pm10":31.8,"pm2_5":27.1,"no2":12.4,"co":265.0,"o3":74.0,"so2":7.1,"mosquito_risk":0,"arthritis_risk":5,"migraine_risk":7,"frizz_risk":1,"updated_at":"2026-05-18T03:31:09.817467+05:30"},{"city":"Nanded","state":"Maharashtra","latitude":19.1383,"longitude":77.3091,"temp":32.2,"humidity":45,"rain":0.0,"pressure":964.0,"uv_index":9.0,"wind_gusts":29.5,"aqi":74,"pm10":39.3,"pm2_5":33.6,"no2":20.7,"co":293.0,"o3":55.0,"so2":5.8,"mosquito_risk":0,"arthritis_risk":5,"migraine_risk":7,"frizz_risk":1,"updated_at":"2026-05-18T03:31:09.817474+05:30"},{"city":"Gulbarga","state":"Karnataka","latitude":17.3297,"longitude":76.8343,"temp":30.4,"humidity":54,"rain":0.0,"pressure":954.7,"uv_index":9.1,"wind_gusts":38.5,"aqi":88,"pm10":36.3,"pm2_5":29.3,"no2":13.6,"co":219.0,"o3":71.0,"so2":13.2,"mosquito_risk":0,"arthritis_risk":5,"migraine_risk":7,"frizz_risk":1,"updated_at":"2026-05-18T03:31:09.817480+05:30"},{"city":"Bidar","state":"Karnataka","latitude":17.9104,"longitude":77.5199,"temp":28.9,"humidity":53,"rain":0.0,"pressure":931.5,"uv_index":9.1,"wind_gusts":29.5,"aqi":88,"pm10":25.8,"pm2_5":21.2,"no2":10.4,"co":245.0,"o3":74.0,"so2":5.4,"mosquito_risk":4,"arthritis_risk":5,"migraine_risk":7,"frizz_risk":1,"updated_at":"2026-05-18T03:31:09.817487+05:30"},{"city":"Hospet","state":"Karnataka","latitude":15.2689,"longitude":76.3909,"temp":25.4,"humidity":91,"rain":0.0,"pressure":951.0,"uv_index":8.85,"wind_gusts":49.0,"aqi":69,"pm10":12.0,"pm2_5":9.8,"no2":9.3,"co":208.0,"o3":41.0,"so2":2.1,"mosquito_risk":7,"arthritis_risk":5,"migraine_risk":7,"frizz_risk":1,"updated_at":"2026-05-18T03:31:09.817493+05:30"},{"city":"Tirupur","state":"Tamil Nadu","latitude":11.1085,"longitude":77.3411,"temp":25.0,"humidity":93,"rain":0.1,"pressure":971.0,"uv_index":4.6,"wind_gusts":47.5,"aqi":65,"pm10":13.8,"pm2_5":12.0,"no2":12.6,"co":163.0,"o3":43.0,"so2":4.4,"mosquito_risk":10,"arthritis_risk":5,"migraine_risk":3,"frizz_risk":1,"updated_at":"2026-05-18T03:31:09.817500+05:30"},{"city":"Alappuzha","state":"Kerala","latitude":9.4981,"longitude":76.3388,"temp":25.0,"humidity":99,"rain":0.0,"pressure":1005.9,"uv_index":6.0,"wind_gusts":30.6,"aqi":45,"pm10":10.3,"pm2_5":7.5,"no2":5.7,"co":213.0,"o3":57.0,"so2":1.5,"mosquito_risk":7,"arthritis_risk":5,"migraine_risk":0,"frizz_risk":1,"updated_at":"2026-05-18T03:31:09.817506+05:30"},{"city":"Munnar","state":"Kerala","latitude":10.0889,"longitude":77.0595,"temp":17.9,"humidity":100,"rain":0.0,"pressure":853.8,"uv_index":5.8,"wind_gusts":25.2,"aqi":28,"pm10":5.3,"pm2_5":5.2,"no2":6.0,"co":168.0,"o3":38.0,"so2":1.4,"mosquito_risk":3,"arthritis_risk":10,"migraine_risk":3,"frizz_risk":1,"updated_at":"2026-05-18T03:31:09.817514+05:30"},{"city":"Silchar","state":"Assam","latitude":24.8333,"longitude":92.7789,"temp":24.1,"humidity":98,"rain":0.0,"pressure":1001.7,"uv_index":8.7,"wind_gusts":28.4,"aqi":55,"pm10":12.3,"pm2_5":9.7,"no2":6.8,"co":247.0,"o3":58.0,"so2":2.9,"mosquito_risk":3,"arthritis_risk":5,"migraine_risk":4,"frizz_risk":1,"updated_at":"2026-05-18T03:31:09.817521+05:30"},{"city":"Dibrugarh","state":"Assam","latitude":27.4728,"longitude":94.912,"temp":21.5,"humidity":99,"rain":0.2,"pressure":993.0,"uv_index":7.1,"wind_gusts":24.5,"aqi":68,"pm10":13.5,"pm2_5":11.0,"no2":8.6,"co":248.0,"o3":65.0,"so2":0.9,"mosquito_risk":6,"arthritis_risk":5,"migraine_risk":7,"frizz_risk":1,"updated_at":"2026-05-18T03:31:09.817527+05:30"}]