[{"city":"Delhi","state":"Delhi","latitude":28.6139,"longitude":77.209,"temp":29.5,"humidity":49,"rain":0.0,"pressure":979.9,"uv_index":7.6,"wind_gusts":41.0,"aqi":349,"pm10":461.9,"pm2_5":84.5,"no2":17.8,"co":618.0,"o3":132.0,"so2":25.4,"mosquito_risk":4,"arthritis_risk":5,"migraine_risk":7,"frizz_risk":1,"updated_at":"2026-05-03T09:02:46.146559+05:30"},{"city":"Mumbai","state":"Maharashtra","latitude":19.076,"longitude":72.8777,"temp":30.9,"humidity":66,"rain":0.0,"pressure":1008.0,"uv_index":7.9,"wind_gusts":40.3,"aqi":73,"pm10":48.2,"pm2_5":21.2,"no2":11.7,"co":287.0,"o3":72.0,"so2":22.4,"mosquito_risk":3,"arthritis_risk":0,"migraine_risk":4,"frizz_risk":1,"updated_at":"2026-05-03T09:02:46.146605+05:30"},{"city":"Bangalore","state":"Karnataka","latitude":12.9716,"longitude":77.5946,"temp":26.1,"humidity":64,"rain":0.0,"pressure":913.3,"uv_index":8.0,"wind_gusts":32.8,"aqi":73,"pm10":31.7,"pm2_5":23.5,"no2":12.1,"co":531.0,"o3":80.0,"so2":6.3,"mosquito_risk":7,"arthritis_risk":5,"migraine_risk":7,"frizz_risk":1,"updated_at":"2026-05-03T09:02:46.146628+05:30"},{"city":"Hyderabad","state":"Telangana","latitude":17.385,"longitude":78.4867,"temp":33.5,"humidity":25,"rain":0.0,"pressure":952.6,"uv_index":9.25,"wind_gusts":35.6,"aqi":65,"pm10":28.2,"pm2_5":19.7,"no2":11.4,"co":485.0,"o3":88.0,"so2":9.6,"mosquito_risk":0,"arthritis_risk":5,"migraine_risk":7,"frizz_risk":0,"updated_at":"2026-05-03T09:02:46.146663+05:30"},{"city":"Chennai","state":"Tamil Nadu","latitude":13.0827,"longitude":80.2707,"temp":34.2,"humidity":45,"rain":0.0,"pressure":1006.8,"uv_index":8.2,"wind_gusts":51.5,"aqi":58,"pm10":27.7,"pm2_5":22.8,"no2":11.8,"co":461.0,"o3":93.0,"so2":13.4,"mosquito_risk":0,"arthritis_risk":5,"migraine_risk":4,"frizz_risk":1,"updated_at":"2026-05-03T09:02:46.146674+05:30"},{"city":"Kolkata","state":"West Bengal","latitude":22.5726,"longitude":88.3639,"temp":27.6,"humidity":84,"rain":0.0,"pressure":1005.7,"uv_index":8.95,"wind_gusts":33.1,"aqi":75,"pm10":18.5,"pm2_5":14.4,"no2":10.7,"co":331.0,"o3":90.0,"so2":7.5,"mosquito_risk":7,"arthritis_risk":5,"migraine_risk":4,"frizz_risk":1,"updated_at":"2026-05-03T09:02:46.146683+05:30"},{"city":"Pune","state":"Maharashtra","latitude":18.5204,"longitude":73.8567,"temp":28.5,"humidity":52,"rain":0.0,"pressure":948.3,"uv_index":8.5,"wind_gusts":47.2,"aqi":63,"pm10":53.8,"pm2_5":20.5,"no2":7.6,"co":268.0,"o3":75.0,"so2":8.7,"mosquito_risk":4,"arthritis_risk":5,"migraine_risk":7,"frizz_risk":1,"updated_at":"2026-05-03T09:02:46.146691+05:30"},{"city":"Ahmedabad","state":"Gujarat","latitude":23.0225,"longitude":72.5714,"temp":30.8,"humidity":53,"rain":0.0,"pressure":999.4,"uv_index":8.1,"wind_gusts":46.8,"aqi":63,"pm10":33.8,"pm2_5":15.7,"no2":6.4,"co":238.0,"o3":78.0,"so2":8.5,"mosquito_risk":0,"arthritis_risk":5,"migraine_risk":7,"frizz_risk":1,"updated_at":"2026-05-03T09:02:46.146702+05:30"},{"city":"Jaipur","state":"Rajasthan","latitude":26.9124,"longitude":75.7873,"temp":32.2,"humidity":30,"rain":0.0,"pressure":956.0,"uv_index":8.15,"wind_gusts":49.0,"aqi":108,"pm10":173.2,"pm2_5":37.6,"no2":8.9,"co":434.0,"o3":97.0,"so2":5.8,"mosquito_risk":0,"arthritis_risk":5,"migraine_risk":7,"frizz_risk":0,"updated_at":"2026-05-03T09:02:46.146710+05:30"},{"city":"Lucknow","state":"Uttar Pradesh","latitude":26.8467,"longitude":80.9462,"temp":27.0,"humidity":62,"rain":0.0,"pressure":993.3,"uv_index":8.05,"wind_gusts":51.8,"aqi":90,"pm10":53.9,"pm2_5":38.8,"no2":6.5,"co":409.0,"o3":135.0,"so2":12.6,"mosquito_risk":7,"arthritis_risk":5,"migraine_risk":7,"frizz_risk":1,"updated_at":"2026-05-03T09:02:46.146718+05:30"},{"city":"Kanpur","state":"Uttar Pradesh","latitude":26.4499,"longitude":80.3319,"temp":30.0,"humidity":53,"rain":0.0,"pressure":990.1,"uv_index":8.1,"wind_gusts":47.2,"aqi":130,"pm10":371.6,"pm2_5":63.1,"no2":6.5,"co":409.0,"o3":139.0,"so2":14.8,"mosquito_risk":4,"arthritis_risk":5,"migraine_risk":7,"frizz_risk":1,"updated_at":"2026-05-03T09:02:46.146726+05:30"},{"city":"Chandigarh","state":"Chandigarh","latitude":30.7333,"longitude":76.7794,"temp":29.9,"humidity":42,"rain":0.0,"pressure":965.9,"uv_index":7.45,"wind_gusts":49.3,"aqi":84,"pm10":129.9,"pm2_5":38.1,"no2":6.4,"co":349.0,"o3":168.0,"so2":14.5,"mosquito_risk":4,"arthritis_risk":5,"migraine_risk":7,"frizz_risk":0,"updated_at":"2026-05-03T09:02:46.146734+05:30"},{"city":"Srinagar","state":"Jammu and Kashmir","latitude":34.0837,"longitude":74.7973,"temp":13.9,"humidity":79,"rain":0.0,"pressure":840.9,"uv_index":8.8,"wind_gusts":36.7,"aqi":72,"pm10":28.0,"pm2_5":16.9,"no2":8.0,"co":392.0,"o3":110.0,"so2":3.4,"mosquito_risk":3,"arthritis_risk":5,"migraine_risk":7,"frizz_risk":0,"updated_at":"2026-05-03T09:02:46.146742+05:30"},{"city":"Jammu","state":"Jammu and Kashmir","latitude":32.7266,"longitude":74.857,"temp":30.0,"humidity":33,"rain":0.0,"pressure":968.7,"uv_index":8.35,"wind_gusts":41.4,"aqi":59,"pm10":21.5,"pm2_5":17.9,"no2":11.3,"co":336.0,"o3":98.0,"so2":2.8,"mosquito_risk":4,"arthritis_risk":5,"migraine_risk":7,"frizz_risk":0,"updated_at":"2026-05-03T09:02:46.146750+05:30"},{"city":"Amritsar","state":"Punjab","latitude":31.634,"longitude":74.8723,"temp":29.9,"humidity":47,"rain":0.0,"pressure":975.8,"uv_index":8.25,"wind_gusts":49.7,"aqi":80,"pm10":41.8,"pm2_5":29.7,"no2":6.9,"co":456.0,"o3":117.0,"so2":11.0,"mosquito_risk":4,"arthritis_risk":5,"migraine_risk":7,"frizz_risk":1,"updated_at":"2026-05-03T09:02:46.146759+05:30"},{"city":"Ludhiana","state":"Punjab","latitude":30.901,"longitude":75.8573,"temp":30.0,"humidity":43,"rain":0.0,"pressure":974.2,"uv_index":7.85,"wind_gusts":49.0,"aqi":128,"pm10":343.7,"pm2_5":78.5,"no2":8.6,"co":430.0,"o3":127.0,"so2":15.8,"mosquito_risk":4,"arthritis_risk":5,"migraine_risk":7,"frizz_risk":1,"updated_at":"2026-05-03T09:02:46.146767+05:30"},{"city":"Jalandhar","state":"Punjab","latitude":31.326,"longitude":75.5762,"temp":29.8,"humidity":46,"rain":0.0,"pressure":975.1,"uv_index":8.05,"wind_gusts":47.5,"aqi":105,"pm10":157.9,"pm2_5":49.0,"no2":9.1,"co":455.0,"o3":111.0,"so2":15.4,"mosquito_risk":4,"arthritis_risk":5,"migraine_risk":7,"frizz_risk":1,"updated_at":"2026-05-03T09:02:46.146774+05:30"},{"city":"Dehradun","state":"Uttarakhand","latitude":30.6284,"longitude":78.0322,"temp":19.6,"humidity":61,"rain":0.0,"pressure":830.0,"uv_index":7.4,"wind_gusts":45.0,"aqi":63,"pm10":21.1,"pm2_5":8.9,"no2":2.0,"co":251.0,"o3":138.0,"so2":2.1,"mosquito_risk":3,"arthritis_risk":5,"migraine_risk":7,"frizz_risk":0,"updated_at":"2026-05-03T09:02:46.146783+05:30"},{"city":"Shimla","state":"Himachal Pradesh","latitude":31.1048,"longitude":77.1734,"temp":17.6,"humidity":57,"rain":0.0,"pressure":784.2,"uv_index":8.1,"wind_gusts":41.0,"aqi":66,"pm10":17.9,"pm2_5":12.1,"no2":3.3,"co":186.0,"o3":136.0,"so2":1.6,"mosquito_risk":0,"arthritis_risk":5,"migraine_risk":7,"frizz_risk":0,"updated_at":"2026-05-03T09:02:46.146790+05:30"},{"city":"Manali","state":"Himachal Pradesh","latitude":32.2396,"longitude":77.1887,"temp":18.0,"humidity":41,"rain":0.0,"pressure":816.3,"uv_index":9.3,"wind_gusts":39.6,"aqi":99,"pm10":3.3,"pm2_5":2.3,"no2":8.4,"co":160.0,"o3":143.0,"so2":0.3,"mosquito_risk":0,"arthritis_risk":5,"migraine_risk":7,"frizz_risk":0,"updated_at":"2026-05-03T09:02:46.146797+05:30"},{"city":"Gurgaon","state":"Haryana","latitude":28.4595,"longitude":77.0266,"temp":30.0,"humidity":44,"rain":0.0,"pressure":978.2,"uv_index":7.7,"wind_gusts":45.4,"aqi":937,"pm10":1683.8,"pm2_5":198.4,"no2":14.9,"co":548.0,"o3":126.0,"so2":19.3,"mosquito_risk":4,"arthritis_risk":5,"migraine_risk":7,"frizz_risk":1,"updated_at":"2026-05-03T09:02:46.146804+05:30"},{"city":"Noida","state":"Uttar Pradesh","latitude":28.5355,"longitude":77.391,"temp":29.1,"humidity":57,"rain":0.0,"pressure":981.5,"uv_index":7.6,"wind_gusts":38.2,"aqi":937,"pm10":1683.8,"pm2_5":198.4,"no2":14.9,"co":488.0,"o3":126.0,"so2":19.3,"mosquito_risk":4,"arthritis_risk":5,"migraine_risk":7,"frizz_risk":1,"updated_at":"2026-05-03T09:02:46.146811+05:30"},{"city":"Ghaziabad","state":"Uttar Pradesh","latitude":28.6692,"longitude":77.4538,"temp":29.2,"humidity":56,"rain":0.0,"pressure":979.8,"uv_index":7.6,"wind_gusts":42.1,"aqi":204,"pm10":352.0,"pm2_5":63.8,"no2":7.0,"co":365.0,"o3":133.0,"so2":14.4,"mosquito_risk":4,"arthritis_risk":5,"migraine_risk":7,"frizz_risk":1,"updated_at":"2026-05-03T09:02:46.146817+05:30"},{"city":"Faridabad","state":"Haryana","latitude":28.4089,"longitude":77.3178,"temp":28.9,"humidity":53,"rain":0.0,"pressure":980.6,"uv_index":7.65,"wind_gusts":42.5,"aqi":937,"pm10":1683.8,"pm2_5":198.4,"no2":14.9,"co":496.0,"o3":126.0,"so2":19.3,"mosquito_risk":4,"arthritis_risk":5,"migraine_risk":7,"frizz_risk":1,"updated_at":"2026-05-03T09:02:46.146824+05:30"},{"city":"Meerut","state":"Uttar Pradesh","latitude":28.9845,"longitude":77.7064,"temp":27.5,"humidity":62,"rain":0.0,"pressure":978.9,"uv_index":7.5,"wind_gusts":46.8,"aqi":204,"pm10":352.0,"pm2_5":63.8,"no2":7.0,"co":372.0,"o3":133.0,"so2":14.4,"mosquito_risk":7,"arthritis_risk":5,"migraine_risk":7,"frizz_risk":1,"updated_at":"2026-05-03T09:02:46.146830+05:30"},{"city":"Agra","state":"Uttar Pradesh","latitude":27.1767,"longitude":78.0081,"temp":32.6,"humidity":33,"rain":0.0,"pressure":984.3,"uv_index":7.8,"wind_gusts":58.3,"aqi":687,"pm10":681.7,"pm2_5":87.1,"no2":7.0,"co":352.0,"o3":135.0,"so2":14.0,"mosquito_risk":0,"arthritis_risk":5,"migraine_risk":7,"frizz_risk":0,"updated_at":"2026-05-03T09:02:46.146837+05:30"},{"city":"Varanasi","state":"Uttar Pradesh","latitude":25.3176,"longitude":82.9739,"temp":30.0,"humidity":56,"rain":0.0,"pressure":996.4,"uv_index":8.65,"wind_gusts":38.9,"aqi":108,"pm10":54.9,"pm2_5":43.4,"no2":7.3,"co":417.0,"o3":144.0,"so2":20.8,"mosquito_risk":4,"arthritis_risk":5,"migraine_risk":7,"frizz_risk":1,"updated_at":"2026-05-03T09:02:46.146844+05:30"},{"city":"Prayagraj","state":"Uttar Pradesh","latitude":25.4358,"longitude":81.8463,"temp":31.0,"humidity":53,"rain":0.0,"pressure":994.3,"uv_index":8.5,"wind_gusts":33.5,"aqi":106,"pm10":54.6,"pm2_5":42.5,"no2":8.2,"co":440.0,"o3":141.0,"so2":18.7,"mosquito_risk":0,"arthritis_risk":5,"migraine_risk":7,"frizz_risk":1,"updated_at":"2026-05-03T09:02:46.146854+05:30"},{"city":"Gorakhpur","state":"Uttar Pradesh","latitude":26.7606,"longitude":83.3732,"temp":25.9,"humidity":69,"rain":0.1,"pressure":998.7,"uv_index":8.45,"wind_gusts":40.3,"aqi":93,"pm10":32.2,"pm2_5":23.5,"no2":4.6,"co":383.0,"o3":134.0,"so2":6.2,"mosquito_risk":10,"arthritis_risk":5,"migraine_risk":7,"frizz_risk":1,"updated_at":"2026-05-03T09:02:46.146860+05:30"},{"city":"Bareilly","state":"Uttar Pradesh","latitude":28.367,"longitude":79.4304,"temp":26.3,"humidity":61,"rain":0.0,"pressure":986.0,"uv_index":7.9,"wind_gusts":47.9,"aqi":127,"pm10":102.2,"pm2_5":37.5,"no2":5.9,"co":370.0,"o3":136.0,"so2":9.2,"mosquito_risk":7,"arthritis_risk":5,"migraine_risk":7,"frizz_risk":1,"updated_at":"2026-05-03T09:02:46.146868+05:30"},{"city":"Aligarh","state":"Uttar Pradesh","latitude":27.8974,"longitude":78.088,"temp":29.8,"humidity":52,"rain":0.0,"pressure":982.6,"uv_index":7.75,"wind_gusts":40.7,"aqi":491,"pm10":847.5,"pm2_5":109.7,"no2":5.9,"co":370.0,"o3":128.0,"so2":13.3,"mosquito_risk":4,"arthritis_risk":5,"migraine_risk":7,"frizz_risk":1,"updated_at":"2026-05-03T09:02:46.146875+05:30"},{"city":"Moradabad","state":"Uttar Pradesh","latitude":28.8386,"longitude":78.7733,"temp":27.4,"humidity":56,"rain":0.0,"pressure":982.2,"uv_index":7.7,"wind_gusts":49.0,"aqi":130,"pm10":75.4,"pm2_5":38.3,"no2":6.2,"co":362.0,"o3":136.0,"so2":9.0,"mosquito_risk":4,"arthritis_risk":5,"migraine_risk":7,"frizz_risk":1,"updated_at":"2026-05-03T09:02:46.146881+05:30"},{"city":"Saharanpur","state":"Uttar Pradesh","latitude":29.9637,"longitude":77.546,"temp":27.4,"humidity":59,"rain":0.0,"pressure":973.3,"uv_index":7.1,"wind_gusts":47.9,"aqi":138,"pm10":78.7,"pm2_5":40.7,"no2":8.4,"co":353.0,"o3":140.0,"so2":9.2,"mosquito_risk":4,"arthritis_risk":5,"migraine_risk":7,"frizz_risk":1,"updated_at":"2026-05-03T09:02:46.146887+05:30"},{"city":"Jhansi","state":"Uttar Pradesh","latitude":25.4484,"longitude":78.5685,"temp":34.7,"humidity":27,"rain":0.0,"pressure":974.8,"uv_index":8.4,"wind_gusts":37.1,"aqi":76,"pm10":41.1,"pm2_5":20.4,"no2":3.5,"co":261.0,"o3":97.0,"so2":9.5,"mosquito_risk":0,"arthritis_risk":5,"migraine_risk":7,"frizz_risk":0,"updated_at":"2026-05-03T09:02:49.391876+05:30"},{"city":"Surat","state":"Gujarat","latitude":21.1702,"longitude":72.8311,"temp":31.9,"humidity":63,"rain":0.0,"pressure":1005.2,"uv_index":7.7,"wind_gusts":54.7,"aqi":65,"pm10":33.2,"pm2_5":18.0,"no2":15.1,"co":235.0,"o3":65.0,"so2":32.8,"mosquito_risk":3,"arthritis_risk":5,"migraine_risk":4,"frizz_risk":1,"updated_at":"2026-05-03T09:02:49.391910+05:30"},{"city":"Vadodara","state":"Gujarat","latitude":22.3072,"longitude":73.1812,"temp":31.8,"humidity":59,"rain":0.0,"pressure":1002.2,"uv_index":8.05,"wind_gusts":51.8,"aqi":59,"pm10":28.9,"pm2_5":15.4,"no2":10.4,"co":243.0,"o3":64.0,"so2":17.1,"mosquito_risk":0,"arthritis_risk":5,"migraine_risk":4,"frizz_risk":1,"updated_at":"2026-05-03T09:02:49.391921+05:30"},{"city":"Rajkot","state":"Gujarat","latitude":22.3039,"longitude":70.8022,"temp":31.0,"humidity":57,"rain":0.0,"pressure":991.3,"uv_index":7.7,"wind_gusts":51.5,"aqi":55,"pm10":22.8,"pm2_5":10.2,"no2":2.9,"co":173.0,"o3":78.0,"so2":3.7,"mosquito_risk":0,"arthritis_risk":5,"migraine_risk":7,"frizz_risk":1,"updated_at":"2026-05-03T09:02:49.391929+05:30"},{"city":"Thane","state":"Maharashtra","latitude":19.2183,"longitude":72.9781,"temp":31.1,"humidity":64,"rain":0.0,"pressure":1007.4,"uv_index":7.9,"wind_gusts":40.0,"aqi":73,"pm10":48.2,"pm2_5":21.2,"no2":11.7,"co":269.0,"o3":72.0,"so2":22.4,"mosquito_risk":3,"arthritis_risk":5,"migraine_risk":4,"frizz_risk":1,"updated_at":"2026-05-03T09:02:49.391936+05:30"},{"city":"Nagpur","state":"Maharashtra","latitude":21.1458,"longitude":79.0882,"temp":34.8,"humidity":30,"rain":0.0,"pressure":972.3,"uv_index":8.9,"wind_gusts":38.9,"aqi":70,"pm10":45.3,"pm2_5":26.5,"no2":10.2,"co":329.0,"o3":112.0,"so2":20.0,"mosquito_risk":0,"arthritis_risk":5,"migraine_risk":7,"frizz_risk":0,"updated_at":"2026-05-03T09:02:49.391943+05:30"},{"city":"Nashik","state":"Maharashtra","latitude":19.9975,"longitude":73.7898,"temp":28.5,"humidity":58,"rain":0.0,"pressure":945.3,"uv_index":8.2,"wind_gusts":47.9,"aqi":66,"pm10":39.5,"pm2_5":19.0,"no2":7.3,"co":202.0,"o3":69.0,"so2":7.6,"mosquito_risk":4,"arthritis_risk":5,"migraine_risk":7,"frizz_risk":1,"updated_at":"2026-05-03T09:02:49.391951+05:30"},{"city":"Aurangabad","state":"Maharashtra","latitude":19.8762,"longitude":75.3433,"temp":29.6,"humidity":47,"rain":0.0,"pressure":943.9,"uv_index":9.05,"wind_gusts":49.3,"aqi":58,"pm10":43.7,"pm2_5":18.0,"no2":6.3,"co":199.0,"o3":74.0,"so2":9.8,"mosquito_risk":4,"arthritis_risk":5,"migraine_risk":7,"frizz_risk":1,"updated_at":"2026-05-03T09:02:49.391957+05:30"},{"city":"Solapur","state":"Maharashtra","latitude":17.6599,"longitude":75.9064,"temp":31.1,"humidity":39,"rain":0.0,"pressure":957.3,"uv_index":9.1,"wind_gusts":38.5,"aqi":56,"pm10":41.1,"pm2_5":16.2,"no2":4.5,"co":196.0,"o3":77.0,"so2":5.5,"mosquito_risk":0,"arthritis_risk":5,"migraine_risk":7,"frizz_risk":0,"updated_at":"2026-05-03T09:02:49.391964+05:30"},{"city":"Kolhapur","state":"Maharashtra","latitude":16.705,"longitude":74.2433,"temp":28.2,"humidity":62,"rain":0.0,"pressure":948.4,"uv_index":8.95,"wind_gusts":48.2,"aqi":65,"pm10":51.0,"pm2_5":21.4,"no2":5.9,"co":201.0,"o3":69.0,"so2":1.9,"mosquito_risk":7,"arthritis_risk":5,"migraine_risk":7,"frizz_risk":1,"updated_at":"2026-05-03T09:02:49.391971+05:30"},{"city":"Goa","state":"Goa","latitude":15.2993,"longitude":74.124,"temp":30.8,"humidity":68,"rain":0.0,"pressure":998.6,"uv_index":8.9,"wind_gusts":37.8,"aqi":69,"pm10":60.5,"pm2_5":19.6,"no2":2.7,"co":159.0,"o3":70.0,"so2":2.1,"mosquito_risk":3,"arthritis_risk":5,"migraine_risk":7,"frizz_risk":1,"updated_at":"2026-05-03T09:02:49.391978+05:30"},{"city":"Jodhpur","state":"Rajasthan","latitude":26.2389,"longitude":73.0243,"temp":30.9,"humidity":38,"rain":0.0,"pressure":978.2,"uv_index":8.3,"wind_gusts":58.0,"aqi":133,"pm10":229.6,"pm2_5":41.7,"no2":2.8,"co":164.0,"o3":87.0,"so2":4.8,"mosquito_risk":0,"arthritis_risk":5,"migraine_risk":7,"frizz_risk":0,"updated_at":"2026-05-03T09:02:49.391985+05:30"},{"city":"Udaipur","state":"Rajasthan","latitude":24.5854,"longitude":73.7125,"temp":27.7,"humidity":52,"rain":0.0,"pressure":943.7,"uv_index":8.8,"wind_gusts":39.6,"aqi":64,"pm10":27.0,"pm2_5":12.8,"no2":2.3,"co":180.0,"o3":89.0,"so2":4.2,"mosquito_risk":4,"arthritis_risk":5,"migraine_risk":7,"frizz_risk":1,"updated_at":"2026-05-03T09:02:49.391992+05:30"},{"city":"Kota","state":"Rajasthan","latitude":25.2138,"longitude":75.8648,"temp":32.7,"humidity":49,"rain":0.0,"pressure":975.4,"uv_index":8.35,"wind_gusts":36.7,"aqi":72,"pm10":34.9,"pm2_5":17.3,"no2":4.8,"co":222.0,"o3":82.0,"so2":10.9,"mosquito_risk":0,"arthritis_risk":5,"migraine_risk":7,"frizz_risk":1,"updated_at":"2026-05-03T09:02:49.391999+05:30"},{"city":"Bikaner","state":"Rajasthan","latitude":28.0229,"longitude":73.3119,"temp":33.5,"humidity":27,"rain":0.0,"pressure":975.1,"uv_index":8.25,"wind_gusts":56.5,"aqi":71,"pm10":79.2,"pm2_5":28.0,"no2":1.9,"co":200.0,"o3":91.0,"so2":6.1,"mosquito_risk":0,"arthritis_risk":5,"migraine_risk":7,"frizz_risk":0,"updated_at":"2026-05-03T09:02:49.392006+05:30"},{"city":"Ajmer","state":"Rajasthan","latitude":26.4499,"longitude":74.6399,"temp":31.5,"humidity":32,"rain":0.0,"pressure":951.0,"uv_index":8.3,"wind_gusts":52.9,"aqi":70,"pm10":58.4,"pm2_5":21.0,"no2":3.1,"co":174.0,"o3":91.0,"so2":5.3,"mosquito_risk":0,"arthritis_risk":5,"migraine_risk":7,"frizz_risk":0,"updated_at":"2026-05-03T09:02:49.392012+05:30"},{"city":"Gwalior","state":"Madhya Pradesh","latitude":26.2183,"longitude":78.1828,"temp":33.6,"humidity":28,"rain":0.0,"pressure":979.7,"uv_index":8.15,"wind_gusts":45.0,"aqi":91,"pm10":43.0,"pm2_5":22.1,"no2":3.9,"co":327.0,"o3":113.0,"so2":11.6,"mosquito_risk":0,"arthritis_risk":5,"migraine_risk":7,"frizz_risk":0,"updated_at":"2026-05-03T09:02:49.392018+05:30"},{"city":"Indore","state":"Madhya Pradesh","latitude":22.7196,"longitude":75.8577,"temp":29.9,"humidity":52,"rain":0.0,"pressure":946.8,"uv_index":8.7,"wind_gusts":46.1,"aqi":59,"pm10":27.6,"pm2_5":14.3,"no2":4.9,"co":247.0,"o3":77.0,"so2":11.0,"mosquito_risk":4,"arthritis_risk":5,"migraine_risk":7,"frizz_risk":1,"updated_at":"2026-05-03T09:02:49.392025+05:30"},{"city":"Bhopal","state":"Madhya Pradesh","latitude":23.2599,"longitude":77.4126,"temp":31.7,"humidity":43,"rain":0.0,"pressure":952.2,"uv_index":8.7,"wind_gusts":30.6,"aqi":66,"pm10":41.4,"pm2_5":17.1,"no2":3.0,"co":214.0,"o3":90.0,"so2":9.9,"mosquito_risk":0,"arthritis_risk":5,"migraine_risk":7,"frizz_risk":1,"updated_at":"2026-05-03T09:02:49.392032+05:30"},{"city":"Jabalpur","state":"Madhya Pradesh","latitude":23.1815,"longitude":79.9864,"temp":32.2,"humidity":39,"rain":0.0,"pressure":960.3,"uv_index":8.85,"wind_gusts":32.8,"aqi":65,"pm10":49.2,"pm2_5":23.2,"no2":6.0,"co":223.0,"o3":110.0,"so2":4.5,"mosquito_risk":0,"arthritis_risk":5,"migraine_risk":7,"frizz_risk":1,"updated_at":"2026-05-03T09:02:49.392039+05:30"},{"city":"Ujjain","state":"Madhya Pradesh","latitude":23.1765,"longitude":75.7885,"temp":30.2,"humidity":52,"rain":0.0,"pressure":952.2,"uv_index":8.6,"wind_gusts":42.1,"aqi":58,"pm10":24.4,"pm2_5":13.5,"no2":4.0,"co":194.0,"o3":75.0,"so2":11.0,"mosquito_risk":0,"arthritis_risk":5,"migraine_risk":7,"frizz_risk":1,"updated_at":"2026-05-03T09:02:49.392045+05:30"},{"city":"Visakhapatnam","state":"Andhra Pradesh","latitude":17.6868,"longitude":83.2185,"temp":27.6,"humidity":86,"rain":0.0,"pressure":1004.3,"uv_index":8.75,"wind_gusts":40.0,"aqi":60,"pm10":22.2,"pm2_5":17.1,"no2":11.1,"co":301.0,"o3":73.0,"so2":7.1,"mosquito_risk":7,"arthritis_risk":5,"migraine_risk":4,"frizz_risk":1,"updated_at":"2026-05-03T09:02:49.392053+05:30"},{"city":"Vijayawada","state":"Andhra Pradesh","latitude":16.5062,"longitude":80.648,"temp":33.3,"humidity":62,"rain":0.0,"pressure":1000.8,"uv_index":9.15,"wind_gusts":38.9,"aqi":64,"pm10":25.0,"pm2_5":21.7,"no2":5.4,"co":279.0,"o3":100.0,"so2":13.1,"mosquito_risk":3,"arthritis_risk":5,"migraine_risk":4,"frizz_risk":1,"updated_at":"2026-05-03T09:02:49.392059+05:30"},{"city":"Guntur","state":"Andhra Pradesh","latitude":16.3067,"longitude":80.4365,"temp":35.0,"humidity":51,"rain":0.0,"pressure":1001.9,"uv_index":9.2,"wind_gusts":39.2,"aqi":66,"pm10":30.0,"pm2_5":27.0,"no2":5.7,"co":290.0,"o3":114.0,"so2":12.1,"mosquito_risk":0,"arthritis_risk":5,"migraine_risk":4,"frizz_risk":1,"updated_at":"2026-05-03T09:02:49.392066+05:30"},{"city":"Nellore","state":"Andhra Pradesh","latitude":14.4426,"longitude":79.9865,"temp":36.5,"humidity":36,"rain":0.0,"pressure":1004.1,"uv_index":9.2,"wind_gusts":46.4,"aqi":72,"pm10":34.8,"pm2_5":28.2,"no2":6.8,"co":231.0,"o3":113.0,"so2":11.6,"mosquito_risk":0,"arthritis_risk":5,"migraine_risk":7,"frizz_risk":1,"updated_at":"2026-05-03T09:02:49.392074+05:30"},{"city":"Kurnool","state":"Andhra Pradesh","latitude":15.8281,"longitude":78.0373,"temp":33.4,"humidity":40,"rain":0.0,"pressure":976.6,"uv_index":9.2,"wind_gusts":41.4,"aqi":62,"pm10":32.5,"pm2_5":15.2,"no2":5.1,"co":202.0,"o3":75.0,"so2":5.4,"mosquito_risk":0,"arthritis_risk":5,"migraine_risk":7,"frizz_risk":1,"updated_at":"2026-05-03T09:02:49.392082+05:30"},{"city":"Kakinada","state":"Andhra Pradesh","latitude":16.9891,"longitude":82.2475,"temp":26.5,"humidity":89,"rain":0.3,"pressure":1007.8,"uv_index":8.75,"wind_gusts":37.4,"aqi":54,"pm10":23.2,"pm2_5":16.5,"no2":1.6,"co":199.0,"o3":90.0,"so2":1.7,"mosquito_risk":10,"arthritis_risk":5,"migraine_risk":4,"frizz_risk":1,"updated_at":"2026-05-03T09:02:49.392088+05:30"},{"city":"Tirupati","state":"Andhra Pradesh","latitude":13.6288,"longitude":79.4192,"temp":35.6,"humidity":36,"rain":0.0,"pressure":990.3,"uv_index":7.4,"wind_gusts":42.8,"aqi":86,"pm10":39.0,"pm2_5":31.9,"no2":7.1,"co":209.0,"o3":115.0,"so2":7.5,"mosquito_risk":0,"arthritis_risk":5,"migraine_risk":10,"frizz_risk":1,"updated_at":"2026-05-03T09:02:49.392095+05:30"},{"city":"Warangal","state":"Telangana","latitude":17.9689,"longitude":79.5941,"temp":33.2,"humidity":52,"rain":0.0,"pressure":977.4,"uv_index":9.15,"wind_gusts":38.9,"aqi":75,"pm10":29.6,"pm2_5":25.0,"no2":6.4,"co":275.0,"o3":111.0,"so2":12.0,"mosquito_risk":0,"arthritis_risk":5,"migraine_risk":7,"frizz_risk":1,"updated_at":"2026-05-03T09:02:49.392102+05:30"},{"city":"Nizamabad","state":"Telangana","latitude":18.6725,"longitude":78.0941,"temp":34.5,"humidity":26,"rain":0.0,"pressure":964.3,"uv_index":9.1,"wind_gusts":38.9,"aqi":70,"pm10":30.0,"pm2_5":16.8,"no2":6.1,"co":236.0,"o3":89.0,"so2":8.1,"mosquito_risk":0,"arthritis_risk":5,"migraine_risk":7,"frizz_risk":0,"updated_at":"2026-05-03T09:02:49.392108+05:30"},{"city":"Mysore","state":"Karnataka","latitude":12.2958,"longitude":76.6396,"temp":26.8,"humidity":61,"rain":0.0,"pressure":930.1,"uv_index":8.7,"wind_gusts":41.8,"aqi":68,"pm10":27.5,"pm2_5":16.1,"no2":5.2,"co":209.0,"o3":83.0,"so2":1.7,"mosquito_risk":7,"arthritis_risk":5,"migraine_risk":7,"frizz_risk":1,"updated_at":"2026-05-03T09:02:49.392115+05:30"},{"city":"Mangalore","state":"Karnataka","latitude":12.9141,"longitude":74.856,"temp":30.8,"humidity":66,"rain":0.0,"pressure":1007.6,"uv_index":9.0,"wind_gusts":41.8,"aqi":65,"pm10":67.5,"pm2_5":24.2,"no2":5.5,"co":204.0,"o3":71.0,"so2":2.9,"mosquito_risk":3,"arthritis_risk":5,"migraine_risk":4,"frizz_risk":1,"updated_at":"2026-05-03T09:02:49.392121+05:30"},{"city":"Hubli-Dharwad","state":"Karnataka","latitude":15.3647,"longitude":75.124,"temp":27.5,"humidity":64,"rain":0.0,"pressure":941.8,"uv_index":9.15,"wind_gusts":47.5,"aqi":59,"pm10":49.9,"pm2_5":16.9,"no2":3.8,"co":179.0,"o3":71.0,"so2":1.6,"mosquito_risk":7,"arthritis_risk":5,"migraine_risk":7,"frizz_risk":1,"updated_at":"2026-05-03T09:02:49.392128+05:30"},{"city":"Belgaum","state":"Karnataka","latitude":15.8497,"longitude":74.4977,"temp":26.3,"humidity":67,"rain":0.0,"pressure":926.7,"uv_index":9.15,"wind_gusts":45.4,"aqi":62,"pm10":53.3,"pm2_5":18.3,"no2":4.2,"co":171.0,"o3":75.0,"so2":2.0,"mosquito_risk":7,"arthritis_risk":5,"migraine_risk":7,"frizz_risk":1,"updated_at":"2026-05-03T09:02:52.649135+05:30"},{"city":"Coimbatore","state":"Tamil Nadu","latitude":11.0168,"longitude":76.9558,"temp":29.5,"humidity":66,"rain":0.0,"pressure":962.8,"uv_index":9.3,"wind_gusts":51.1,"aqi":70,"pm10":25.2,"pm2_5":16.5,"no2":4.0,"co":271.0,"o3":93.0,"so2":3.1,"mosquito_risk":7,"arthritis_risk":5,"migraine_risk":7,"frizz_risk":1,"updated_at":"2026-05-03T09:02:52.649170+05:30"},{"city":"Madurai","state":"Tamil Nadu","latitude":9.9252,"longitude":78.1198,"temp":32.6,"humidity":49,"rain":0.0,"pressure":993.8,"uv_index":8.9,"wind_gusts":45.7,"aqi":81,"pm10":31.2,"pm2_5":25.8,"no2":9.8,"co":261.0,"o3":116.0,"so2":7.2,"mosquito_risk":0,"arthritis_risk":5,"migraine_risk":7,"frizz_risk":1,"updated_at":"2026-05-03T09:02:52.649181+05:30"},{"city":"Trichy","state":"Tamil Nadu","latitude":10.7905,"longitude":78.7047,"temp":33.0,"humidity":56,"rain":0.0,"pressure":1000.1,"uv_index":9.2,"wind_gusts":37.1,"aqi":82,"pm10":29.6,"pm2_5":24.7,"no2":8.2,"co":186.0,"o3":99.0,"so2":7.3,"mosquito_risk":0,"arthritis_risk":5,"migraine_risk":4,"frizz_risk":1,"updated_at":"2026-05-03T09:02:52.649190+05:30"},{"city":"Salem","state":"Tamil Nadu","latitude":11.6643,"longitude":78.146,"temp":30.9,"humidity":57,"rain":0.0,"pressure":978.3,"uv_index":9.25,"wind_gusts":31.3,"aqi":87,"pm10":31.9,"pm2_5":26.7,"no2":9.1,"co":243.0,"o3":104.0,"so2":12.3,"mosquito_risk":0,"arthritis_risk":5,"migraine_risk":7,"frizz_risk":1,"updated_at":"2026-05-03T09:02:52.649197+05:30"},{"city":"Tirunelveli","state":"Tamil Nadu","latitude":8.7139,"longitude":77.7567,"temp":33.6,"humidity":48,"rain":0.0,"pressure":1003.8,"uv_index":8.85,"wind_gusts":39.6,"aqi":71,"pm10":27.5,"pm2_5":22.2,"no2":4.5,"co":229.0,"o3":84.0,"so2":1.3,"mosquito_risk":0,"arthritis_risk":5,"migraine_risk":4,"frizz_risk":1,"updated_at":"2026-05-03T09:02:52.649205+05:30"},{"city":"Vellore","state":"Tamil Nadu","latitude":12.9165,"longitude":79.1325,"temp":33.9,"humidity":44,"rain":0.0,"pressure":984.6,"uv_index":9.3,"wind_gusts":38.9,"aqi":99,"pm10":43.1,"pm2_5":35.2,"no2":6.3,"co":207.0,"o3":116.0,"so2":7.2,"mosquito_risk":0,"arthritis_risk":5,"migraine_risk":7,"frizz_risk":1,"updated_at":"2026-05-03T09:02:52.649212+05:30"},{"city":"Erode","state":"Tamil Nadu","latitude":11.341,"longitude":77.7172,"temp":31.8,"humidity":55,"rain":0.0,"pressure":989.9,"uv_index":9.25,"wind_gusts":47.2,"aqi":76,"pm10":28.9,"pm2_5":22.2,"no2":6.7,"co":274.0,"o3":92.0,"so2":2.7,"mosquito_risk":0,"arthritis_risk":5,"migraine_risk":7,"frizz_risk":1,"updated_at":"2026-05-03T09:02:52.649219+05:30"},{"city":"Kochi","state":"Kerala","latitude":9.9312,"longitude":76.2673,"temp":29.5,"humidity":77,"rain":0.0,"pressure":1009.9,"uv_index":8.95,"wind_gusts":31.7,"aqi":88,"pm10":37.3,"pm2_5":26.2,"no2":9.5,"co":295.0,"o3":84.0,"so2":4.7,"mosquito_risk":7,"arthritis_risk":0,"migraine_risk":4,"frizz_risk":1,"updated_at":"2026-05-03T09:02:52.649226+05:30"},{"city":"Thiruvananthapuram","state":"Kerala","latitude":8.5241,"longitude":76.9366,"temp":28.8,"humidity":78,"rain":0.0,"pressure":1009.7,"uv_index":8.95,"wind_gusts":36.4,"aqi":56,"pm10":18.9,"pm2_5":13.9,"no2":4.2,"co":250.0,"o3":81.0,"so2":2.5,"mosquito_risk":7,"arthritis_risk":0,"migraine_risk":4,"frizz_risk":1,"updated_at":"2026-05-03T09:02:52.649232+05:30"},{"city":"Kozhikode","state":"Kerala","latitude":11.2588,"longitude":75.7804,"temp":29.5,"humidity":79,"rain":0.0,"pressure":1008.9,"uv_index":8.25,"wind_gusts":37.8,"aqi":59,"pm10":44.8,"pm2_5":18.8,"no2":2.4,"co":313.0,"o3":72.0,"so2":2.5,"mosquito_risk":7,"arthritis_risk":0,"migraine_risk":4,"frizz_risk":1,"updated_at":"2026-05-03T09:02:52.649239+05:30"},{"city":"Thrissur","state":"Kerala","latitude":10.5276,"longitude":76.2144,"temp":30.0,"humidity":74,"rain":0.0,"pressure":1008.2,"uv_index":8.5,"wind_gusts":32.4,"aqi":86,"pm10":33.2,"pm2_5":21.2,"no2":6.1,"co":243.0,"o3":72.0,"so2":2.9,"mosquito_risk":7,"arthritis_risk":0,"migraine_risk":4,"frizz_risk":1,"updated_at":"2026-05-03T09:02:52.649246+05:30"},{"city":"Kannur","state":"Kerala","latitude":11.8745,"longitude":75.3704,"temp":31.2,"humidity":63,"rain":0.0,"pressure":1008.2,"uv_index":8.65,"wind_gusts":42.1,"aqi":62,"pm10":57.2,"pm2_5":21.4,"no2":4.8,"co":227.0,"o3":67.0,"so2":2.5,"mosquito_risk":3,"arthritis_risk":0,"migraine_risk":4,"frizz_risk":1,"updated_at":"2026-05-03T09:02:52.649253+05:30"},{"city":"Patna","state":"Bihar","latitude":25.5941,"longitude":85.1376,"temp":27.4,"humidity":66,"rain":0.0,"pressure":1000.7,"uv_index":8.3,"wind_gusts":42.1,"aqi":108,"pm10":54.1,"pm2_5":41.9,"no2":7.2,"co":422.0,"o3":132.0,"so2":12.7,"mosquito_risk":7,"arthritis_risk":5,"migraine_risk":4,"frizz_risk":1,"updated_at":"2026-05-03T09:02:52.649261+05:30"},{"city":"Gaya","state":"Bihar","latitude":24.7914,"longitude":85.0002,"temp":29.8,"humidity":60,"rain":0.0,"pressure":992.9,"uv_index":8.8,"wind_gusts":30.2,"aqi":115,"pm10":65.4,"pm2_5":54.1,"no2":5.4,"co":440.0,"o3":150.0,"so2":22.9,"mosquito_risk":4,"arthritis_risk":5,"migraine_risk":7,"frizz_risk":1,"updated_at":"2026-05-03T09:02:52.649269+05:30"},{"city":"Muzaffarpur","state":"Bihar","latitude":26.1209,"longitude":85.3647,"temp":25.9,"humidity":71,"rain":0.0,"pressure":1001.3,"uv_index":8.7,"wind_gusts":42.8,"aqi":98,"pm10":45.5,"pm2_5":35.4,"no2":6.2,"co":385.0,"o3":125.0,"so2":9.6,"mosquito_risk":7,"arthritis_risk":5,"migraine_risk":4,"frizz_risk":1,"updated_at":"2026-05-03T09:02:52.649277+05:30"},{"city":"Bhagalpur","state":"Bihar","latitude":25.2425,"longitude":87.0117,"temp":26.7,"humidity":73,"rain":0.0,"pressure":1002.2,"uv_index":8.6,"wind_gusts":41.8,"aqi":123,"pm10":55.9,"pm2_5":42.5,"no2":8.8,"co":384.0,"o3":109.0,"so2":3.1,"mosquito_risk":7,"arthritis_risk":5,"migraine_risk":4,"frizz_risk":1,"updated_at":"2026-05-03T09:02:52.649283+05:30"},{"city":"Ranchi","state":"Jharkhand","latitude":23.3441,"longitude":85.3096,"temp":29.1,"humidity":47,"rain":0.0,"pressure":937.5,"uv_index":9.25,"wind_gusts":37.4,"aqi":88,"pm10":46.8,"pm2_5":22.8,"no2":4.8,"co":246.0,"o3":134.0,"so2":12.4,"mosquito_risk":4,"arthritis_risk":5,"migraine_risk":7,"frizz_risk":1,"updated_at":"2026-05-03T09:02:52.649289+05:30"},{"city":"Jamshedpur","state":"Jharkhand","latitude":22.8046,"longitude":86.2029,"temp":30.9,"humidity":51,"rain":0.0,"pressure":990.4,"uv_index":9.05,"wind_gusts":31.0,"aqi":111,"pm10":55.5,"pm2_5":46.0,"no2":19.9,"co":526.0,"o3":95.0,"so2":48.1,"mosquito_risk":0,"arthritis_risk":5,"migraine_risk":7,"frizz_risk":1,"updated_at":"2026-05-03T09:02:52.649295+05:30"},{"city":"Dhanbad","state":"Jharkhand","latitude":23.7957,"longitude":86.4304,"temp":27.4,"humidity":73,"rain":0.0,"pressure":979.9,"uv_index":9.0,"wind_gusts":30.6,"aqi":157,"pm10":61.9,"pm2_5":49.2,"no2":24.8,"co":396.0,"o3":105.0,"so2":63.7,"mosquito_risk":7,"arthritis_risk":5,"migraine_risk":7,"frizz_risk":1,"updated_at":"2026-05-03T09:02:52.649302+05:30"},{"city":"Bokaro","state":"Jharkhand","latitude":23.6693,"longitude":86.1511,"temp":28.4,"humidity":69,"rain":0.0,"pressure":983.5,"uv_index":9.0,"wind_gusts":30.2,"aqi":156,"pm10":71.5,"pm2_5":59.6,"no2":33.2,"co":470.0,"o3":84.0,"so2":95.9,"mosquito_risk":7,"arthritis_risk":5,"migraine_risk":7,"frizz_risk":1,"updated_at":"2026-05-03T09:02:52.649309+05:30"},{"city":"Bhubaneswar","state":"Odisha","latitude":20.2961,"longitude":85.8245,"temp":30.5,"humidity":77,"rain":0.0,"pressure":1001.9,"uv_index":9.1,"wind_gusts":37.8,"aqi":61,"pm10":20.5,"pm2_5":17.1,"no2":4.2,"co":204.0,"o3":83.0,"so2":4.9,"mosquito_risk":3,"arthritis_risk":5,"migraine_risk":4,"frizz_risk":1,"updated_at":"2026-05-03T09:02:52.649315+05:30"},{"city":"Cuttack","state":"Odisha","latitude":20.4625,"longitude":85.8828,"temp":30.1,"humidity":76,"rain":0.0,"pressure":1003.7,"uv_index":9.15,"wind_gusts":35.3,"aqi":61,"pm10":20.5,"pm2_5":17.1,"no2":4.2,"co":229.0,"o3":83.0,"so2":4.9,"mosquito_risk":3,"arthritis_risk":5,"migraine_risk":4,"frizz_risk":1,"updated_at":"2026-05-03T09:02:52.649321+05:30"},{"city":"Rourkela","state":"Odisha","latitude":22.2604,"longitude":84.8536,"temp":31.5,"humidity":47,"rain":0.0,"pressure":984.5,"uv_index":8.95,"wind_gusts":38.5,"aqi":99,"pm10":61.7,"pm2_5":35.4,"no2":5.1,"co":434.0,"o3":148.0,"so2":60.4,"mosquito_risk":0,"arthritis_risk":5,"migraine_risk":7,"frizz_risk":1,"updated_at":"2026-05-03T09:02:52.649327+05:30"},{"city":"Raipur","state":"Chhattisgarh","latitude":21.2514,"longitude":81.6296,"temp":35.0,"humidity":29,"rain":0.0,"pressure":973.6,"uv_index":9.0,"wind_gusts":29.9,"aqi":83,"pm10":49.9,"pm2_5":34.5,"no2":25.4,"co":531.0,"o3":108.0,"so2":8.6,"mosquito_risk":0,"arthritis_risk":5,"migraine_risk":7,"frizz_risk":0,"updated_at":"2026-05-03T09:02:52.649333+05:30"},{"city":"Bhilai","state":"Chhattisgarh","latitude":21.1938,"longitude":81.3509,"temp":34.0,"humidity":33,"rain":0.0,"pressure":974.0,"uv_index":9.0,"wind_gusts":37.4,"aqi":81,"pm10":47.5,"pm2_5":32.2,"no2":24.4,"co":824.0,"o3":102.0,"so2":8.2,"mosquito_risk":0,"arthritis_risk":5,"migraine_risk":7,"frizz_risk":0,"updated_at":"2026-05-03T09:02:52.649339+05:30"},{"city":"Guwahati","state":"Assam","latitude":26.1158,"longitude":91.7086,"temp":24.0,"humidity":78,"rain":0.0,"pressure":1003.6,"uv_index":7.15,"wind_gusts":30.6,"aqi":74,"pm10":11.8,"pm2_5":10.9,"no2":1.9,"co":331.0,"o3":98.0,"so2":1.3,"mosquito_risk":3,"arthritis_risk":5,"migraine_risk":4,"frizz_risk":1,"updated_at":"2026-05-03T09:02:52.649346+05:30"},{"city":"Agartala","state":"Tripura","latitude":23.8315,"longitude":91.2868,"temp":24.8,"humidity":85,"rain":0.0,"pressure":1007.7,"uv_index":8.8,"wind_gusts":37.1,"aqi":57,"pm10":8.4,"pm2_5":6.9,"no2":6.1,"co":187.0,"o3":66.0,"so2":1.1,"mosquito_risk":3,"arthritis_risk":5,"migraine_risk":4,"frizz_risk":1,"updated_at":"2026-05-03T09:02:52.649352+05:30"},{"city":"Shillong","state":"Meghalaya","latitude":25.5788,"longitude":91.8933,"temp":19.9,"humidity":67,"rain":0.0,"pressure":857.6,"uv_index":7.75,"wind_gusts":23.4,"aqi":37,"pm10":21.1,"pm2_5":9.2,"no2":1.5,"co":280.0,"o3":116.0,"so2":1.1,"mosquito_risk":3,"arthritis_risk":5,"migraine_risk":7,"frizz_risk":0,"updated_at":"2026-05-03T09:02:52.649358+05:30"},{"city":"Imphal","state":"Manipur","latitude":24.817,"longitude":93.9368,"temp":22.4,"humidity":67,"rain":0.0,"pressure":924.9,"uv_index":9.15,"wind_gusts":29.2,"aqi":59,"pm10":9.3,"pm2_5":6.1,"no2":2.7,"co":282.0,"o3":84.0,"so2":1.1,"mosquito_risk":3,"arthritis_risk":5,"migraine_risk":7,"frizz_risk":0,"updated_at":"2026-05-03T09:02:52.649365+05:30"},{"city":"Aizawl","state":"Mizoram","latitude":23.7271,"longitude":92.7176,"temp":19.9,"humidity":73,"rain":0.0,"pressure":893.9,"uv_index":9.05,"wind_gusts":44.3,"aqi":37,"pm10":5.6,"pm2_5":3.2,"no2":1.3,"co":171.0,"o3":75.0,"so2":0.2,"mosquito_risk":3,"arthritis_risk":5,"migraine_risk":7,"frizz_risk":0,"updated_at":"2026-05-03T09:02:52.649371+05:30"},{"city":"Kohima","state":"Nagaland","latitude":25.6701,"longitude":94.1077,"temp":20.1,"humidity":67,"rain":0.1,"pressure":856.4,"uv_index":6.1,"wind_gusts":26.3,"aqi":31,"pm10":6.0,"pm2_5":4.0,"no2":2.5,"co":257.0,"o3":95.0,"so2":0.8,"mosquito_risk":6,"arthritis_risk":5,"migraine_risk":7,"frizz_risk":0,"updated_at":"2026-05-03T09:02:52.649377+05:30"},{"city":"Gangtok","state":"Sikkim","latitude":27.3314,"longitude":88.6138,"temp":16.3,"humidity":80,"rain":0.0,"pressure":838.1,"uv_index":3.5,"wind_gusts":37.1,"aqi":47,"pm10":7.0,"pm2_5":5.7,"no2":1.7,"co":329.0,"o3":113.0,"so2":0.8,"mosquito_risk":3,"arthritis_risk":5,"migraine_risk":3,"frizz_risk":0,"updated_at":"2026-05-03T09:02:52.649383+05:30"},{"city":"Siliguri","state":"West Bengal","latitude":26.7271,"longitude":88.3953,"temp":25.0,"humidity":73,"rain":0.0,"pressure":995.1,"uv_index":7.9,"wind_gusts":27.0,"aqi":60,"pm10":13.9,"pm2_5":11.2,"no2":3.2,"co":354.0,"o3":122.0,"so2":2.3,"mosquito_risk":7,"arthritis_risk":5,"migraine_risk":7,"frizz_risk":1,"updated_at":"2026-05-03T09:02:55.887467+05:30"},{"city":"Durgapur","state":"West Bengal","latitude":23.5204,"longitude":87.3119,"temp":27.7,"humidity":71,"rain":0.0,"pressure":995.4,"uv_index":8.95,"wind_gusts":25.2,"aqi":151,"pm10":47.8,"pm2_5":38.5,"no2":19.5,"co":386.0,"o3":93.0,"so2":36.2,"mosquito_risk":7,"arthritis_risk":5,"migraine_risk":7,"frizz_risk":1,"updated_at":"2026-05-03T09:02:55.887504+05:30"},{"city":"Asansol","state":"West Bengal","latitude":23.6739,"longitude":86.9524,"temp":28.2,"humidity":66,"rain":0.0,"pressure":993.9,"uv_index":9.0,"wind_gusts":26.6,"aqi":154,"pm10":50.5,"pm2_5":39.1,"no2":17.9,"co":340.0,"o3":109.0,"so2":35.3,"mosquito_risk":7,"arthritis_risk":5,"migraine_risk":7,"frizz_risk":1,"updated_at":"2026-05-03T09:02:55.887516+05:30"},{"city":"Pondicherry","state":"Puducherry","latitude":11.9139,"longitude":79.8145,"temp":31.5,"humidity":60,"rain":0.0,"pressure":1008.5,"uv_index":8.35,"wind_gusts":48.2,"aqi":59,"pm10":22.8,"pm2_5":19.7,"no2":9.7,"co":322.0,"o3":94.0,"so2":10.8,"mosquito_risk":0,"arthritis_risk":0,"migraine_risk":4,"frizz_risk":1,"updated_at":"2026-05-03T09:02:55.887524+05:30"},{"city":"Port Blair","state":"Andaman and Nicobar Islands","latitude":11.6234,"longitude":92.7265,"temp":33.3,"humidity":49,"rain":0.0,"pressure":1008.9,"uv_index":9.0,"wind_gusts":27.4,"aqi":35,"pm10":7.9,"pm2_5":5.8,"no2":0.5,"co":148.0,"o3":61.0,"so2":0.5,"mosquito_risk":0,"arthritis_risk":0,"migraine_risk":4,"frizz_risk":1,"updated_at":"2026-05-03T09:02:55.887532+05:30"},{"city":"Haridwar","state":"Uttarakhand","latitude":29.9457,"longitude":78.1642,"temp":28.6,"humidity":53,"rain":0.0,"pressure":971.9,"uv_index":7.0,"wind_gusts":40.3,"aqi":114,"pm10":60.8,"pm2_5":32.0,"no2":5.6,"co":309.0,"o3":137.0,"so2":5.0,"mosquito_risk":4,"arthritis_risk":5,"migraine_risk":7,"frizz_risk":1,"updated_at":"2026-05-03T09:02:55.887539+05:30"},{"city":"Rishikesh","state":"Uttarakhand","latitude":30.0869,"longitude":78.2676,"temp":27.9,"humidity":50,"rain":0.0,"pressure":964.7,"uv_index":7.45,"wind_gusts":36.0,"aqi":103,"pm10":68.5,"pm2_5":27.4,"no2":2.6,"co":275.0,"o3":148.0,"so2":2.9,"mosquito_risk":4,"arthritis_risk":5,"migraine_risk":7,"frizz_risk":1,"updated_at":"2026-05-03T09:02:55.887546+05:30"},{"city":"Nainital","state":"Uttarakhand","latitude":29.3919,"longitude":79.4542,"temp":17.6,"humidity":67,"rain":0.0,"pressure":805.3,"uv_index":8.35,"wind_gusts":45.4,"aqi":99,"pm10":122.9,"pm2_5":35.2,"no2":1.7,"co":273.0,"o3":171.0,"so2":6.2,"mosquito_risk":3,"arthritis_risk":5,"migraine_risk":7,"frizz_risk":0,"updated_at":"2026-05-03T09:02:55.887553+05:30"},{"city":"Mussoorie","state":"Uttarakhand","latitude":30.4599,"longitude":78.0664,"temp":18.1,"humidity":60,"rain":0.0,"pressure":802.6,"uv_index":7.25,"wind_gusts":50.8,"aqi":105,"pm10":80.3,"pm2_5":23.9,"no2":5.1,"co":245.0,"o3":155.0,"so2":8.2,"mosquito_risk":0,"arthritis_risk":5,"migraine_risk":7,"frizz_risk":0,"updated_at":"2026-05-03T09:02:55.887559+05:30"},{"city":"Dharamshala","state":"Himachal Pradesh","latitude":32.219,"longitude":76.3234,"temp":24.1,"humidity":30,"rain":0.0,"pressure":867.2,"uv_index":8.25,"wind_gusts":46.8,"aqi":43,"pm10":13.6,"pm2_5":7.0,"no2":1.6,"co":213.0,"o3":138.0,"so2":0.5,"mosquito_risk":0,"arthritis_risk":5,"migraine_risk":7,"frizz_risk":0,"updated_at":"2026-05-03T09:02:55.887566+05:30"},{"city":"Dalhousie","state":"Himachal Pradesh","latitude":32.5387,"longitude":75.971,"temp":18.8,"humidity":41,"rain":0.0,"pressure":803.4,"uv_index":8.5,"wind_gusts":45.7,"aqi":54,"pm10":14.9,"pm2_5":9.4,"no2":6.2,"co":271.0,"o3":128.0,"so2":0.7,"mosquito_risk":0,"arthritis_risk":5,"migraine_risk":7,"frizz_risk":0,"updated_at":"2026-05-03T09:02:55.887573+05:30"},{"city":"Patiala","state":"Punjab","latitude":30.3398,"longitude":76.3869,"temp":28.4,"humidity":49,"rain":0.0,"pressure":974.2,"uv_index":7.5,"wind_gusts":53.6,"aqi":396,"pm10":1080.3,"pm2_5":133.2,"no2":5.8,"co":374.0,"o3":149.0,"so2":17.0,"mosquito_risk":4,"arthritis_risk":5,"migraine_risk":7,"frizz_risk":1,"updated_at":"2026-05-03T09:02:55.887580+05:30"},{"city":"Bhatinda","state":"Punjab","latitude":30.211,"longitude":74.9455,"temp":31.3,"humidity":39,"rain":0.0,"pressure":978.0,"uv_index":8.15,"wind_gusts":71.3,"aqi":146,"pm10":625.8,"pm2_5":134.6,"no2":5.8,"co":422.0,"o3":130.0,"so2":19.3,"mosquito_risk":0,"arthritis_risk":5,"migraine_risk":7,"frizz_risk":0,"updated_at":"2026-05-03T09:02:55.887587+05:30"},{"city":"Rohtak","state":"Haryana","latitude":28.8955,"longitude":76.6066,"temp":30.0,"humidity":46,"rain":0.0,"pressure":978.3,"uv_index":7.65,"wind_gusts":52.6,"aqi":560,"pm10":910.8,"pm2_5":136.4,"no2":17.5,"co":485.0,"o3":129.0,"so2":27.1,"mosquito_risk":4,"arthritis_risk":5,"migraine_risk":7,"frizz_risk":1,"updated_at":"2026-05-03T09:02:55.887593+05:30"},{"city":"Panipat","state":"Haryana","latitude":29.3909,"longitude":76.9635,"temp":28.8,"humidity":57,"rain":0.0,"pressure":977.3,"uv_index":7.45,"wind_gusts":51.1,"aqi":827,"pm10":1780.7,"pm2_5":194.6,"no2":10.7,"co":383.0,"o3":135.0,"so2":23.0,"mosquito_risk":4,"arthritis_risk":5,"migraine_risk":7,"frizz_risk":1,"updated_at":"2026-05-03T09:02:55.887600+05:30"},{"city":"Mathura","state":"Uttar Pradesh","latitude":27.4924,"longitude":77.6737,"temp":31.6,"humidity":39,"rain":0.0,"pressure":983.2,"uv_index":7.75,"wind_gusts":63.0,"aqi":663,"pm10":949.9,"pm2_5":116.9,"no2":7.4,"co":360.0,"o3":129.0,"so2":11.4,"mosquito_risk":0,"arthritis_risk":5,"migraine_risk":7,"frizz_risk":0,"updated_at":"2026-05-03T09:02:55.887606+05:30"},{"city":"Vrindavan","state":"Uttar Pradesh","latitude":27.5823,"longitude":77.7027,"temp":31.2,"humidity":40,"rain":0.0,"pressure":983.7,"uv_index":7.8,"wind_gusts":61.6,"aqi":663,"pm10":949.9,"pm2_5":116.9,"no2":7.4,"co":365.0,"o3":129.0,"so2":11.4,"mosquito_risk":0,"arthritis_risk":5,"migraine_risk":7,"frizz_risk":1,"updated_at":"2026-05-03T09:02:55.887613+05:30"},{"city":"Ayodhya","state":"Uttar Pradesh","latitude":26.7922,"longitude":82.1998,"temp":25.7,"humidity":70,"rain":0.0,"pressure":996.3,"uv_index":8.25,"wind_gusts":46.1,"aqi":98,"pm10":40.2,"pm2_5":29.3,"no2":4.4,"co":366.0,"o3":136.0,"so2":6.9,"mosquito_risk":7,"arthritis_risk":5,"migraine_risk":7,"frizz_risk":1,"updated_at":"2026-05-03T09:02:55.887620+05:30"},{"city":"Ratlam","state":"Madhya Pradesh","latitude":23.3315,"longitude":75.0367,"temp":29.1,"humidity":60,"rain":0.0,"pressure":952.9,"uv_index":8.5,"wind_gusts":44.6,"aqi":56,"pm10":24.0,"pm2_5":13.0,"no2":4.0,"co":175.0,"o3":77.0,"so2":11.4,"mosquito_risk":4,"arthritis_risk":5,"migraine_risk":7,"frizz_risk":1,"updated_at":"2026-05-03T09:02:55.887626+05:30"},{"city":"Sagar","state":"Madhya Pradesh","latitude":23.8388,"longitude":78.7378,"temp":32.2,"humidity":37,"rain":0.0,"pressure":948.4,"uv_index":8.7,"wind_gusts":36.7,"aqi":66,"pm10":42.3,"pm2_5":18.2,"no2":2.6,"co":195.0,"o3":95.0,"so2":6.7,"mosquito_risk":0,"arthritis_risk":5,"migraine_risk":7,"frizz_risk":0,"updated_at":"2026-05-03T09:02:55.887650+05:30"},{"city":"Satna","state":"Madhya Pradesh","latitude":24.6005,"longitude":80.8322,"temp":31.8,"humidity":42,"rain":0.0,"pressure":969.2,"uv_index":8.75,"wind_gusts":32.8,"aqi":60,"pm10":61.9,"pm2_5":21.8,"no2":6.9,"co":373.0,"o3":107.0,"so2":7.1,"mosquito_risk":0,"arthritis_risk":5,"migraine_risk":7,"frizz_risk":1,"updated_at":"2026-05-03T09:02:55.887657+05:30"},{"city":"Akola","state":"Maharashtra","latitude":20.7002,"longitude":77.0082,"temp":32.5,"humidity":44,"rain":0.0,"pressure":974.2,"uv_index":8.85,"wind_gusts":38.9,"aqi":58,"pm10":35.6,"pm2_5":15.3,"no2":4.5,"co":188.0,"o3":80.0,"so2":14.2,"mosquito_risk":0,"arthritis_risk":5,"migraine_risk":7,"frizz_risk":1,"updated_at":"2026-05-03T09:02:55.887664+05:30"},{"city":"Amravati","state":"Maharashtra","latitude":20.9374,"longitude":77.7796,"temp":33.1,"humidity":39,"rain":0.0,"pressure":966.3,"uv_index":8.9,"wind_gusts":40.7,"aqi":57,"pm10":34.7,"pm2_5":15.0,"no2":4.6,"co":189.0,"o3":82.0,"so2":11.9,"mosquito_risk":0,"arthritis_risk":5,"migraine_risk":7,"frizz_risk":1,"updated_at":"2026-05-03T09:02:55.887671+05:30"},{"city":"Latur","state":"Maharashtra","latitude":18.4088,"longitude":76.5604,"temp":32.7,"humidity":26,"rain":0.0,"pressure":940.1,"uv_index":9.05,"wind_gusts":42.8,"aqi":59,"pm10":44.4,"pm2_5":17.0,"no2":4.7,"co":187.0,"o3":83.0,"so2":6.8,"mosquito_risk":0,"arthritis_risk":5,"migraine_risk":7,"frizz_risk":0,"updated_at":"2026-05-03T09:02:55.887678+05:30"},{"city":"Nanded","state":"Maharashtra","latitude":19.1383,"longitude":77.3091,"temp":33.1,"humidity":35,"rain":0.0,"pressure":968.4,"uv_index":9.0,"wind_gusts":31.0,"aqi":58,"pm10":34.5,"pm2_5":16.6,"no2":5.4,"co":211.0,"o3":89.0,"so2":7.1,"mosquito_risk":0,"arthritis_risk":5,"migraine_risk":7,"frizz_risk":0,"updated_at":"2026-05-03T09:02:55.887684+05:30"},{"city":"Gulbarga","state":"Karnataka","latitude":17.3297,"longitude":76.8343,"temp":32.9,"humidity":33,"rain":0.0,"pressure":958.6,"uv_index":9.1,"wind_gusts":44.3,"aqi":58,"pm10":31.5,"pm2_5":14.8,"no2":5.6,"co":207.0,"o3":80.0,"so2":6.0,"mosquito_risk":0,"arthritis_risk":5,"migraine_risk":7,"frizz_risk":0,"updated_at":"2026-05-03T09:02:55.887690+05:30"},{"city":"Bidar","state":"Karnataka","latitude":17.9104,"longitude":77.5199,"temp":32.8,"humidity":31,"rain":0.0,"pressure":935.8,"uv_index":9.15,"wind_gusts":37.8,"aqi":68,"pm10":33.1,"pm2_5":16.6,"no2":7.0,"co":211.0,"o3":95.0,"so2":11.7,"mosquito_risk":0,"arthritis_risk":5,"migraine_risk":7,"frizz_risk":0,"updated_at":"2026-05-03T09:02:55.887696+05:30"},{"city":"Hospet","state":"Karnataka","latitude":15.2689,"longitude":76.3909,"temp":28.1,"humidity":64,"rain":0.0,"pressure":956.5,"uv_index":9.2,"wind_gusts":48.6,"aqi":58,"pm10":42.5,"pm2_5":15.9,"no2":4.5,"co":181.0,"o3":66.0,"so2":2.6,"mosquito_risk":7,"arthritis_risk":5,"migraine_risk":7,"frizz_risk":1,"updated_at":"2026-05-03T09:02:55.887702+05:30"},{"city":"Tirupur","state":"Tamil Nadu","latitude":11.1085,"longitude":77.3411,"temp":30.7,"humidity":61,"rain":0.0,"pressure":976.2,"uv_index":9.35,"wind_gusts":50.0,"aqi":77,"pm10":30.7,"pm2_5":23.2,"no2":6.7,"co":245.0,"o3":99.0,"so2":3.8,"mosquito_risk":3,"arthritis_risk":5,"migraine_risk":7,"frizz_risk":1,"updated_at":"2026-05-03T09:02:55.887708+05:30"},{"city":"Alappuzha","state":"Kerala","latitude":9.4981,"longitude":76.3388,"temp":29.1,"humidity":78,"rain":0.0,"pressure":1010.1,"uv_index":8.65,"wind_gusts":34.9,"aqi":81,"pm10":33.2,"pm2_5":23.2,"no2":8.5,"co":169.0,"o3":85.0,"so2":5.7,"mosquito_risk":7,"arthritis_risk":0,"migraine_risk":4,"frizz_risk":1,"updated_at":"2026-05-03T09:02:55.887714+05:30"},{"city":"Munnar","state":"Kerala","latitude":10.0889,"longitude":77.0595,"temp":22.4,"humidity":68,"rain":0.0,"pressure":859.5,"uv_index":5.15,"wind_gusts":29.5,"aqi":67,"pm10":24.1,"pm2_5":17.2,"no2":3.2,"co":202.0,"o3":86.0,"so2":1.0,"mosquito_risk":3,"arthritis_risk":5,"migraine_risk":3,"frizz_risk":0,"updated_at":"2026-05-03T09:02:55.887721+05:30"},{"city":"Silchar","state":"Assam","latitude":24.8333,"longitude":92.7789,"temp":24.5,"humidity":85,"rain":0.1,"pressure":1007.7,"uv_index":8.8,"wind_gusts":30.6,"aqi":51,"pm10":9.6,"pm2_5":7.5,"no2":3.2,"co":217.0,"o3":74.0,"so2":3.4,"mosquito_risk":6,"arthritis_risk":5,"migraine_risk":4,"frizz_risk":1,"updated_at":"2026-05-03T09:02:55.887728+05:30"},{"city":"Dibrugarh","state":"Assam","latitude":27.4728,"longitude":94.912,"temp":22.8,"humidity":83,"rain":0.0,"pressure":998.0,"uv_index":5.15,"wind_gusts":19.1,"aqi":64,"pm10":14.2,"pm2_5":10.3,"no2":1.8,"co":248.0,"o3":107.0,"so2":0.9,"mosquito_risk":3,"arthritis_risk":5,"migraine_risk":3,"frizz_risk":1,"updated_at":"2026-05-03T09:02:55.887734+05:30"}]