[{"city":"Delhi","state":"Delhi","latitude":28.6139,"longitude":77.209,"temp":36.7,"humidity":32,"rain":0.0,"pressure":978.2,"uv_index":7.75,"wind_gusts":40.0,"aqi":171,"pm10":329.7,"pm2_5":79.4,"no2":21.6,"co":522.0,"o3":114.0,"so2":20.0,"mosquito_risk":0,"arthritis_risk":5,"migraine_risk":10,"frizz_risk":1,"updated_at":"2026-06-08T09:47:20.199567+05:30"},{"city":"Mumbai","state":"Maharashtra","latitude":19.076,"longitude":72.8777,"temp":30.7,"humidity":70,"rain":0.0,"pressure":1008.1,"uv_index":7.4,"wind_gusts":40.3,"aqi":83,"pm10":60.8,"pm2_5":23.3,"no2":8.9,"co":230.0,"o3":71.0,"so2":11.9,"mosquito_risk":3,"arthritis_risk":0,"migraine_risk":4,"frizz_risk":1,"updated_at":"2026-06-08T09:47:20.199616+05:30"},{"city":"Bangalore","state":"Karnataka","latitude":12.9716,"longitude":77.5946,"temp":25.0,"humidity":76,"rain":0.0,"pressure":913.7,"uv_index":5.7,"wind_gusts":46.4,"aqi":20,"pm10":6.9,"pm2_5":5.3,"no2":7.5,"co":360.0,"o3":60.0,"so2":4.0,"mosquito_risk":7,"arthritis_risk":5,"migraine_risk":3,"frizz_risk":1,"updated_at":"2026-06-08T09:47:20.199632+05:30"},{"city":"Hyderabad","state":"Telangana","latitude":17.385,"longitude":78.4867,"temp":29.9,"humidity":61,"rain":0.0,"pressure":953.1,"uv_index":6.95,"wind_gusts":41.0,"aqi":78,"pm10":32.1,"pm2_5":18.7,"no2":6.9,"co":316.0,"o3":76.0,"so2":6.3,"mosquito_risk":7,"arthritis_risk":5,"migraine_risk":7,"frizz_risk":1,"updated_at":"2026-06-08T09:47:20.199643+05:30"},{"city":"Chennai","state":"Tamil Nadu","latitude":13.0827,"longitude":80.2707,"temp":33.7,"humidity":50,"rain":0.0,"pressure":1007.2,"uv_index":8.85,"wind_gusts":44.3,"aqi":53,"pm10":8.1,"pm2_5":7.5,"no2":8.9,"co":298.0,"o3":75.0,"so2":12.8,"mosquito_risk":0,"arthritis_risk":5,"migraine_risk":4,"frizz_risk":1,"updated_at":"2026-06-08T09:47:20.199651+05:30"},{"city":"Kolkata","state":"West Bengal","latitude":22.5726,"longitude":88.3639,"temp":32.7,"humidity":71,"rain":0.0,"pressure":1001.8,"uv_index":8.6,"wind_gusts":22.0,"aqi":140,"pm10":62.2,"pm2_5":52.9,"no2":11.2,"co":658.0,"o3":134.0,"so2":18.4,"mosquito_risk":3,"arthritis_risk":5,"migraine_risk":4,"frizz_risk":1,"updated_at":"2026-06-08T09:47:20.199659+05:30"},{"city":"Pune","state":"Maharashtra","latitude":18.5204,"longitude":73.8567,"temp":29.4,"humidity":59,"rain":0.0,"pressure":948.4,"uv_index":8.3,"wind_gusts":42.5,"aqi":71,"pm10":64.0,"pm2_5":22.6,"no2":4.3,"co":151.0,"o3":70.0,"so2":6.6,"mosquito_risk":4,"arthritis_risk":5,"migraine_risk":7,"frizz_risk":1,"updated_at":"2026-06-08T09:47:20.199665+05:30"},{"city":"Ahmedabad","state":"Gujarat","latitude":23.0225,"longitude":72.5714,"temp":34.2,"humidity":52,"rain":0.0,"pressure":1000.1,"uv_index":8.05,"wind_gusts":42.8,"aqi":77,"pm10":67.1,"pm2_5":24.2,"no2":3.4,"co":152.0,"o3":70.0,"so2":5.7,"mosquito_risk":0,"arthritis_risk":5,"migraine_risk":4,"frizz_risk":1,"updated_at":"2026-06-08T09:47:20.199672+05:30"},{"city":"Jaipur","state":"Rajasthan","latitude":26.9124,"longitude":75.7873,"temp":35.5,"humidity":43,"rain":0.0,"pressure":956.6,"uv_index":8.2,"wind_gusts":40.7,"aqi":129,"pm10":327.8,"pm2_5":68.9,"no2":2.9,"co":180.0,"o3":83.0,"so2":4.7,"mosquito_risk":0,"arthritis_risk":5,"migraine_risk":10,"frizz_risk":1,"updated_at":"2026-06-08T09:47:20.199683+05:30"},{"city":"Lucknow","state":"Uttar Pradesh","latitude":26.8467,"longitude":80.9462,"temp":38.0,"humidity":31,"rain":0.0,"pressure":988.0,"uv_index":8.3,"wind_gusts":35.3,"aqi":152,"pm10":128.5,"pm2_5":42.6,"no2":5.3,"co":317.0,"o3":123.0,"so2":6.7,"mosquito_risk":0,"arthritis_risk":5,"migraine_risk":10,"frizz_risk":1,"updated_at":"2026-06-08T09:47:20.199691+05:30"},{"city":"Kanpur","state":"Uttar Pradesh","latitude":26.4499,"longitude":80.3319,"temp":38.3,"humidity":30,"rain":0.0,"pressure":986.6,"uv_index":8.35,"wind_gusts":36.7,"aqi":171,"pm10":314.8,"pm2_5":53.7,"no2":3.9,"co":210.0,"o3":120.0,"so2":5.5,"mosquito_risk":0,"arthritis_risk":5,"migraine_risk":10,"frizz_risk":1,"updated_at":"2026-06-08T09:47:20.199698+05:30"},{"city":"Chandigarh","state":"Chandigarh","latitude":30.7333,"longitude":76.7794,"temp":34.0,"humidity":35,"rain":0.0,"pressure":964.3,"uv_index":7.8,"wind_gusts":30.6,"aqi":86,"pm10":27.8,"pm2_5":21.7,"no2":7.7,"co":667.0,"o3":182.0,"so2":11.4,"mosquito_risk":0,"arthritis_risk":5,"migraine_risk":7,"frizz_risk":1,"updated_at":"2026-06-08T09:47:20.199705+05:30"},{"city":"Srinagar","state":"Jammu and Kashmir","latitude":34.0837,"longitude":74.7973,"temp":20.6,"humidity":58,"rain":0.0,"pressure":842.5,"uv_index":9.0,"wind_gusts":18.4,"aqi":78,"pm10":26.1,"pm2_5":19.8,"no2":4.0,"co":451.0,"o3":129.0,"so2":3.7,"mosquito_risk":0,"arthritis_risk":5,"migraine_risk":7,"frizz_risk":0,"updated_at":"2026-06-08T09:47:20.199713+05:30"},{"city":"Jammu","state":"Jammu and Kashmir","latitude":32.7266,"longitude":74.857,"temp":35.6,"humidity":23,"rain":0.0,"pressure":968.1,"uv_index":8.6,"wind_gusts":36.0,"aqi":72,"pm10":24.2,"pm2_5":18.0,"no2":10.0,"co":275.0,"o3":134.0,"so2":3.8,"mosquito_risk":0,"arthritis_risk":5,"migraine_risk":10,"frizz_risk":0,"updated_at":"2026-06-08T09:47:20.199720+05:30"},{"city":"Amritsar","state":"Punjab","latitude":31.634,"longitude":74.8723,"temp":35.7,"humidity":29,"rain":0.0,"pressure":975.9,"uv_index":8.45,"wind_gusts":26.6,"aqi":132,"pm10":33.1,"pm2_5":27.2,"no2":8.0,"co":431.0,"o3":151.0,"so2":9.4,"mosquito_risk":0,"arthritis_risk":5,"migraine_risk":10,"frizz_risk":0,"updated_at":"2026-06-08T09:47:20.199727+05:30"},{"city":"Ludhiana","state":"Punjab","latitude":30.901,"longitude":75.8573,"temp":36.9,"humidity":23,"rain":0.0,"pressure":973.9,"uv_index":8.05,"wind_gusts":32.0,"aqi":118,"pm10":36.1,"pm2_5":33.6,"no2":12.3,"co":585.0,"o3":163.0,"so2":12.7,"mosquito_risk":0,"arthritis_risk":5,"migraine_risk":10,"frizz_risk":0,"updated_at":"2026-06-08T09:47:20.199734+05:30"},{"city":"Jalandhar","state":"Punjab","latitude":31.326,"longitude":75.5762,"temp":36.5,"humidity":25,"rain":0.0,"pressure":974.8,"uv_index":8.25,"wind_gusts":32.0,"aqi":102,"pm10":30.2,"pm2_5":24.4,"no2":10.2,"co":518.0,"o3":163.0,"so2":6.3,"mosquito_risk":0,"arthritis_risk":5,"migraine_risk":10,"frizz_risk":0,"updated_at":"2026-06-08T09:47:20.199744+05:30"},{"city":"Dehradun","state":"Uttarakhand","latitude":30.6284,"longitude":78.0322,"temp":24.7,"humidity":42,"rain":0.0,"pressure":830.7,"uv_index":8.25,"wind_gusts":36.0,"aqi":64,"pm10":24.4,"pm2_5":15.5,"no2":0.5,"co":228.0,"o3":154.0,"so2":2.6,"mosquito_risk":0,"arthritis_risk":5,"migraine_risk":7,"frizz_risk":0,"updated_at":"2026-06-08T09:47:20.199751+05:30"},{"city":"Shimla","state":"Himachal Pradesh","latitude":31.1048,"longitude":77.1734,"temp":22.6,"humidity":28,"rain":0.0,"pressure":786.3,"uv_index":8.35,"wind_gusts":43.9,"aqi":56,"pm10":15.7,"pm2_5":9.5,"no2":0.5,"co":204.0,"o3":158.0,"so2":2.6,"mosquito_risk":0,"arthritis_risk":5,"migraine_risk":7,"frizz_risk":0,"updated_at":"2026-06-08T09:47:20.199760+05:30"},{"city":"Manali","state":"Himachal Pradesh","latitude":32.2396,"longitude":77.1887,"temp":23.4,"humidity":38,"rain":0.0,"pressure":819.2,"uv_index":9.1,"wind_gusts":35.3,"aqi":79,"pm10":9.3,"pm2_5":6.7,"no2":6.2,"co":147.0,"o3":137.0,"so2":0.4,"mosquito_risk":0,"arthritis_risk":5,"migraine_risk":7,"frizz_risk":0,"updated_at":"2026-06-08T09:47:20.199766+05:30"},{"city":"Gurgaon","state":"Haryana","latitude":28.4595,"longitude":77.0266,"temp":35.9,"humidity":35,"rain":0.0,"pressure":976.8,"uv_index":7.85,"wind_gusts":40.0,"aqi":434,"pm10":1788.1,"pm2_5":240.3,"no2":15.0,"co":371.0,"o3":98.0,"so2":14.0,"mosquito_risk":0,"arthritis_risk":5,"migraine_risk":10,"frizz_risk":1,"updated_at":"2026-06-08T09:47:20.199773+05:30"},{"city":"Noida","state":"Uttar Pradesh","latitude":28.5355,"longitude":77.391,"temp":35.8,"humidity":37,"rain":0.0,"pressure":979.5,"uv_index":7.8,"wind_gusts":28.8,"aqi":434,"pm10":1788.1,"pm2_5":240.3,"no2":15.0,"co":538.0,"o3":98.0,"so2":14.0,"mosquito_risk":0,"arthritis_risk":5,"migraine_risk":10,"frizz_risk":1,"updated_at":"2026-06-08T09:47:20.199780+05:30"},{"city":"Ghaziabad","state":"Uttar Pradesh","latitude":28.6692,"longitude":77.4538,"temp":35.4,"humidity":38,"rain":0.0,"pressure":977.9,"uv_index":7.75,"wind_gusts":35.3,"aqi":163,"pm10":191.4,"pm2_5":75.2,"no2":19.3,"co":523.0,"o3":155.0,"so2":25.6,"mosquito_risk":0,"arthritis_risk":5,"migraine_risk":10,"frizz_risk":1,"updated_at":"2026-06-08T09:47:20.199786+05:30"},{"city":"Faridabad","state":"Haryana","latitude":28.4089,"longitude":77.3178,"temp":34.7,"humidity":42,"rain":0.0,"pressure":978.9,"uv_index":7.85,"wind_gusts":32.4,"aqi":434,"pm10":1788.1,"pm2_5":240.3,"no2":15.0,"co":389.0,"o3":98.0,"so2":14.0,"mosquito_risk":0,"arthritis_risk":5,"migraine_risk":7,"frizz_risk":1,"updated_at":"2026-06-08T09:47:20.199793+05:30"},{"city":"Meerut","state":"Uttar Pradesh","latitude":28.9845,"longitude":77.7064,"temp":34.0,"humidity":44,"rain":0.0,"pressure":976.6,"uv_index":7.7,"wind_gusts":37.1,"aqi":163,"pm10":191.4,"pm2_5":75.2,"no2":19.3,"co":487.0,"o3":155.0,"so2":25.6,"mosquito_risk":0,"arthritis_risk":5,"migraine_risk":7,"frizz_risk":1,"updated_at":"2026-06-08T09:47:20.199799+05:30"},{"city":"Agra","state":"Uttar Pradesh","latitude":27.1767,"longitude":78.0081,"temp":36.7,"humidity":35,"rain":0.0,"pressure":983.1,"uv_index":8.1,"wind_gusts":35.3,"aqi":526,"pm10":1739.7,"pm2_5":204.0,"no2":6.7,"co":195.0,"o3":89.0,"so2":6.7,"mosquito_risk":0,"arthritis_risk":5,"migraine_risk":10,"frizz_risk":1,"updated_at":"2026-06-08T09:47:20.199805+05:30"},{"city":"Varanasi","state":"Uttar Pradesh","latitude":25.3176,"longitude":82.9739,"temp":38.4,"humidity":30,"rain":0.0,"pressure":992.2,"uv_index":8.8,"wind_gusts":36.7,"aqi":145,"pm10":105.9,"pm2_5":40.6,"no2":8.3,"co":322.0,"o3":111.0,"so2":10.2,"mosquito_risk":0,"arthritis_risk":5,"migraine_risk":10,"frizz_risk":1,"updated_at":"2026-06-08T09:47:20.199812+05:30"},{"city":"Prayagraj","state":"Uttar Pradesh","latitude":25.4358,"longitude":81.8463,"temp":38.3,"humidity":31,"rain":0.0,"pressure":990.7,"uv_index":8.7,"wind_gusts":38.5,"aqi":149,"pm10":78.9,"pm2_5":36.3,"no2":7.3,"co":198.0,"o3":116.0,"so2":8.2,"mosquito_risk":0,"arthritis_risk":5,"migraine_risk":10,"frizz_risk":1,"updated_at":"2026-06-08T09:47:20.199819+05:30"},{"city":"Gorakhpur","state":"Uttar Pradesh","latitude":26.7606,"longitude":83.3732,"temp":33.9,"humidity":55,"rain":0.0,"pressure":992.0,"uv_index":8.65,"wind_gusts":32.4,"aqi":139,"pm10":92.2,"pm2_5":55.5,"no2":5.9,"co":531.0,"o3":165.0,"so2":12.0,"mosquito_risk":0,"arthritis_risk":5,"migraine_risk":7,"frizz_risk":1,"updated_at":"2026-06-08T09:47:20.199828+05:30"},{"city":"Bareilly","state":"Uttar Pradesh","latitude":28.367,"longitude":79.4304,"temp":34.8,"humidity":47,"rain":0.0,"pressure":981.6,"uv_index":8.1,"wind_gusts":29.9,"aqi":151,"pm10":155.1,"pm2_5":58.8,"no2":5.7,"co":407.0,"o3":159.0,"so2":14.0,"mosquito_risk":0,"arthritis_risk":5,"migraine_risk":7,"frizz_risk":1,"updated_at":"2026-06-08T09:47:20.199834+05:30"},{"city":"Aligarh","state":"Uttar Pradesh","latitude":27.8974,"longitude":78.088,"temp":35.3,"humidity":37,"rain":0.0,"pressure":981.0,"uv_index":7.55,"wind_gusts":34.2,"aqi":236,"pm10":683.6,"pm2_5":109.4,"no2":11.2,"co":263.0,"o3":89.0,"so2":8.3,"mosquito_risk":0,"arthritis_risk":5,"migraine_risk":10,"frizz_risk":1,"updated_at":"2026-06-08T09:47:20.199840+05:30"},{"city":"Moradabad","state":"Uttar Pradesh","latitude":28.8386,"longitude":78.7733,"temp":34.9,"humidity":44,"rain":0.0,"pressure":978.7,"uv_index":7.9,"wind_gusts":33.8,"aqi":160,"pm10":144.4,"pm2_5":63.3,"no2":9.5,"co":486.0,"o3":173.0,"so2":19.5,"mosquito_risk":0,"arthritis_risk":5,"migraine_risk":7,"frizz_risk":1,"updated_at":"2026-06-08T09:47:20.199846+05:30"},{"city":"Saharanpur","state":"Uttar Pradesh","latitude":29.9637,"longitude":77.546,"temp":33.0,"humidity":48,"rain":0.0,"pressure":971.0,"uv_index":7.45,"wind_gusts":31.0,"aqi":138,"pm10":69.6,"pm2_5":43.7,"no2":7.1,"co":562.0,"o3":179.0,"so2":12.2,"mosquito_risk":0,"arthritis_risk":5,"migraine_risk":7,"frizz_risk":1,"updated_at":"2026-06-08T09:47:20.199852+05:30"},{"city":"Jhansi","state":"Uttar Pradesh","latitude":25.4484,"longitude":78.5685,"temp":36.7,"humidity":38,"rain":0.0,"pressure":974.0,"uv_index":8.3,"wind_gusts":41.4,"aqi":85,"pm10":66.1,"pm2_5":26.4,"no2":2.5,"co":152.0,"o3":96.0,"so2":7.3,"mosquito_risk":0,"arthritis_risk":5,"migraine_risk":10,"frizz_risk":1,"updated_at":"2026-06-08T09:47:23.429331+05:30"},{"city":"Surat","state":"Gujarat","latitude":21.1702,"longitude":72.8311,"temp":33.3,"humidity":60,"rain":0.0,"pressure":1005.4,"uv_index":7.35,"wind_gusts":52.9,"aqi":87,"pm10":66.4,"pm2_5":26.8,"no2":14.0,"co":339.0,"o3":52.0,"so2":37.6,"mosquito_risk":0,"arthritis_risk":5,"migraine_risk":4,"frizz_risk":1,"updated_at":"2026-06-08T09:47:23.429366+05:30"},{"city":"Vadodara","state":"Gujarat","latitude":22.3072,"longitude":73.1812,"temp":33.8,"humidity":55,"rain":0.0,"pressure":1002.6,"uv_index":7.75,"wind_gusts":51.1,"aqi":84,"pm10":54.9,"pm2_5":23.6,"no2":4.0,"co":158.0,"o3":66.0,"so2":4.9,"mosquito_risk":0,"arthritis_risk":5,"migraine_risk":4,"frizz_risk":1,"updated_at":"2026-06-08T09:47:23.429376+05:30"},{"city":"Rajkot","state":"Gujarat","latitude":22.3039,"longitude":70.8022,"temp":33.4,"humidity":52,"rain":0.0,"pressure":992.2,"uv_index":7.6,"wind_gusts":45.7,"aqi":72,"pm10":64.3,"pm2_5":21.2,"no2":2.4,"co":117.0,"o3":72.0,"so2":5.0,"mosquito_risk":0,"arthritis_risk":5,"migraine_risk":7,"frizz_risk":1,"updated_at":"2026-06-08T09:47:23.429384+05:30"},{"city":"Thane","state":"Maharashtra","latitude":19.2183,"longitude":72.9781,"temp":31.4,"humidity":66,"rain":0.1,"pressure":1007.4,"uv_index":7.2,"wind_gusts":37.8,"aqi":83,"pm10":60.8,"pm2_5":23.3,"no2":8.9,"co":203.0,"o3":71.0,"so2":11.9,"mosquito_risk":6,"arthritis_risk":5,"migraine_risk":4,"frizz_risk":1,"updated_at":"2026-06-08T09:47:23.429393+05:30"},{"city":"Nagpur","state":"Maharashtra","latitude":21.1458,"longitude":79.0882,"temp":36.6,"humidity":37,"rain":0.0,"pressure":970.8,"uv_index":8.9,"wind_gusts":37.8,"aqi":90,"pm10":58.4,"pm2_5":33.2,"no2":9.0,"co":217.0,"o3":105.0,"so2":21.3,"mosquito_risk":0,"arthritis_risk":5,"migraine_risk":10,"frizz_risk":1,"updated_at":"2026-06-08T09:47:23.429400+05:30"},{"city":"Nashik","state":"Maharashtra","latitude":19.9975,"longitude":73.7898,"temp":30.3,"humidity":56,"rain":0.0,"pressure":945.6,"uv_index":8.0,"wind_gusts":45.7,"aqi":74,"pm10":65.9,"pm2_5":23.1,"no2":3.0,"co":131.0,"o3":66.0,"so2":3.9,"mosquito_risk":0,"arthritis_risk":5,"migraine_risk":7,"frizz_risk":1,"updated_at":"2026-06-08T09:47:23.429407+05:30"},{"city":"Aurangabad","state":"Maharashtra","latitude":19.8762,"longitude":75.3433,"temp":31.3,"humidity":52,"rain":0.0,"pressure":944.0,"uv_index":3.2,"wind_gusts":46.1,"aqi":75,"pm10":62.6,"pm2_5":23.9,"no2":2.7,"co":136.0,"o3":73.0,"so2":5.2,"mosquito_risk":0,"arthritis_risk":5,"migraine_risk":3,"frizz_risk":1,"updated_at":"2026-06-08T09:47:23.429414+05:30"},{"city":"Solapur","state":"Maharashtra","latitude":17.6599,"longitude":75.9064,"temp":28.9,"humidity":69,"rain":0.0,"pressure":957.6,"uv_index":8.95,"wind_gusts":33.1,"aqi":60,"pm10":52.4,"pm2_5":22.6,"no2":2.4,"co":125.0,"o3":69.0,"so2":2.7,"mosquito_risk":7,"arthritis_risk":5,"migraine_risk":7,"frizz_risk":1,"updated_at":"2026-06-08T09:47:23.429422+05:30"},{"city":"Kolhapur","state":"Maharashtra","latitude":16.705,"longitude":74.2433,"temp":25.6,"humidity":82,"rain":0.0,"pressure":948.7,"uv_index":4.7,"wind_gusts":41.8,"aqi":33,"pm10":17.3,"pm2_5":8.3,"no2":4.4,"co":160.0,"o3":56.0,"so2":2.1,"mosquito_risk":7,"arthritis_risk":5,"migraine_risk":3,"frizz_risk":1,"updated_at":"2026-06-08T09:47:23.429428+05:30"},{"city":"Goa","state":"Goa","latitude":15.2993,"longitude":74.124,"temp":26.4,"humidity":92,"rain":0.0,"pressure":999.9,"uv_index":2.05,"wind_gusts":19.1,"aqi":37,"pm10":12.5,"pm2_5":7.2,"no2":2.6,"co":166.0,"o3":59.0,"so2":0.9,"mosquito_risk":7,"arthritis_risk":5,"migraine_risk":3,"frizz_risk":1,"updated_at":"2026-06-08T09:47:23.429436+05:30"},{"city":"Jodhpur","state":"Rajasthan","latitude":26.2389,"longitude":73.0243,"temp":34.1,"humidity":54,"rain":0.0,"pressure":979.6,"uv_index":8.4,"wind_gusts":40.0,"aqi":139,"pm10":271.0,"pm2_5":67.8,"no2":1.7,"co":124.0,"o3":73.0,"so2":3.4,"mosquito_risk":0,"arthritis_risk":5,"migraine_risk":7,"frizz_risk":1,"updated_at":"2026-06-08T09:47:23.429443+05:30"},{"city":"Udaipur","state":"Rajasthan","latitude":24.5854,"longitude":73.7125,"temp":31.2,"humidity":59,"rain":0.0,"pressure":944.8,"uv_index":8.8,"wind_gusts":39.6,"aqi":71,"pm10":60.1,"pm2_5":25.7,"no2":1.1,"co":131.0,"o3":74.0,"so2":2.6,"mosquito_risk":0,"arthritis_risk":5,"migraine_risk":7,"frizz_risk":1,"updated_at":"2026-06-08T09:47:23.429451+05:30"},{"city":"Kota","state":"Rajasthan","latitude":25.2138,"longitude":75.8648,"temp":35.4,"humidity":49,"rain":0.0,"pressure":975.3,"uv_index":8.4,"wind_gusts":37.8,"aqi":94,"pm10":49.9,"pm2_5":28.0,"no2":3.5,"co":160.0,"o3":88.0,"so2":8.9,"mosquito_risk":0,"arthritis_risk":5,"migraine_risk":10,"frizz_risk":1,"updated_at":"2026-06-08T09:47:23.429458+05:30"},{"city":"Bikaner","state":"Rajasthan","latitude":28.0229,"longitude":73.3119,"temp":36.8,"humidity":42,"rain":0.0,"pressure":977.3,"uv_index":8.45,"wind_gusts":32.8,"aqi":152,"pm10":295.2,"pm2_5":100.1,"no2":0.9,"co":135.0,"o3":82.0,"so2":3.8,"mosquito_risk":0,"arthritis_risk":5,"migraine_risk":10,"frizz_risk":1,"updated_at":"2026-06-08T09:47:23.429465+05:30"},{"city":"Ajmer","state":"Rajasthan","latitude":26.4499,"longitude":74.6399,"temp":32.5,"humidity":56,"rain":0.0,"pressure":951.8,"uv_index":8.35,"wind_gusts":44.6,"aqi":84,"pm10":98.3,"pm2_5":40.5,"no2":1.9,"co":142.0,"o3":80.0,"so2":4.1,"mosquito_risk":0,"arthritis_risk":5,"migraine_risk":7,"frizz_risk":1,"updated_at":"2026-06-08T09:47:23.429472+05:30"},{"city":"Gwalior","state":"Madhya Pradesh","latitude":26.2183,"longitude":78.1828,"temp":36.8,"humidity":38,"rain":0.0,"pressure":978.9,"uv_index":8.25,"wind_gusts":49.7,"aqi":93,"pm10":47.6,"pm2_5":22.5,"no2":2.3,"co":157.0,"o3":90.0,"so2":4.6,"mosquito_risk":0,"arthritis_risk":5,"migraine_risk":10,"frizz_risk":1,"updated_at":"2026-06-08T09:47:23.429479+05:30"},{"city":"Indore","state":"Madhya Pradesh","latitude":22.7196,"longitude":75.8577,"temp":31.2,"humidity":57,"rain":0.0,"pressure":947.3,"uv_index":8.65,"wind_gusts":45.7,"aqi":91,"pm10":51.5,"pm2_5":29.1,"no2":4.3,"co":183.0,"o3":72.0,"so2":10.4,"mosquito_risk":0,"arthritis_risk":5,"migraine_risk":7,"frizz_risk":1,"updated_at":"2026-06-08T09:47:23.429486+05:30"},{"city":"Bhopal","state":"Madhya Pradesh","latitude":23.2599,"longitude":77.4126,"temp":33.4,"humidity":50,"rain":0.0,"pressure":951.9,"uv_index":8.7,"wind_gusts":37.4,"aqi":92,"pm10":53.3,"pm2_5":28.7,"no2":1.9,"co":234.0,"o3":102.0,"so2":8.4,"mosquito_risk":0,"arthritis_risk":5,"migraine_risk":7,"frizz_risk":1,"updated_at":"2026-06-08T09:47:23.429494+05:30"},{"city":"Jabalpur","state":"Madhya Pradesh","latitude":23.1815,"longitude":79.9864,"temp":35.6,"humidity":42,"rain":0.0,"pressure":959.0,"uv_index":8.9,"wind_gusts":37.8,"aqi":92,"pm10":59.8,"pm2_5":30.3,"no2":2.2,"co":200.0,"o3":109.0,"so2":5.5,"mosquito_risk":0,"arthritis_risk":5,"migraine_risk":10,"frizz_risk":1,"updated_at":"2026-06-08T09:47:23.429501+05:30"},{"city":"Ujjain","state":"Madhya Pradesh","latitude":23.1765,"longitude":75.7885,"temp":31.2,"humidity":60,"rain":0.0,"pressure":952.7,"uv_index":8.6,"wind_gusts":42.8,"aqi":87,"pm10":51.0,"pm2_5":29.0,"no2":3.7,"co":150.0,"o3":70.0,"so2":11.0,"mosquito_risk":0,"arthritis_risk":5,"migraine_risk":7,"frizz_risk":1,"updated_at":"2026-06-08T09:47:23.429508+05:30"},{"city":"Visakhapatnam","state":"Andhra Pradesh","latitude":17.6868,"longitude":83.2185,"temp":34.9,"humidity":52,"rain":0.0,"pressure":1000.0,"uv_index":8.3,"wind_gusts":41.8,"aqi":86,"pm10":36.6,"pm2_5":29.6,"no2":15.6,"co":373.0,"o3":118.0,"so2":43.2,"mosquito_risk":0,"arthritis_risk":5,"migraine_risk":4,"frizz_risk":1,"updated_at":"2026-06-08T09:47:23.429516+05:30"},{"city":"Vijayawada","state":"Andhra Pradesh","latitude":16.5062,"longitude":80.648,"temp":28.9,"humidity":81,"rain":0.1,"pressure":1001.6,"uv_index":8.2,"wind_gusts":51.1,"aqi":76,"pm10":28.7,"pm2_5":21.9,"no2":5.7,"co":179.0,"o3":93.0,"so2":10.5,"mosquito_risk":10,"arthritis_risk":5,"migraine_risk":4,"frizz_risk":1,"updated_at":"2026-06-08T09:47:23.429523+05:30"},{"city":"Guntur","state":"Andhra Pradesh","latitude":16.3067,"longitude":80.4365,"temp":29.2,"humidity":78,"rain":0.0,"pressure":1003.1,"uv_index":7.1,"wind_gusts":44.6,"aqi":76,"pm10":29.2,"pm2_5":21.1,"no2":5.3,"co":187.0,"o3":93.0,"so2":9.9,"mosquito_risk":7,"arthritis_risk":5,"migraine_risk":4,"frizz_risk":1,"updated_at":"2026-06-08T09:47:23.429530+05:30"},{"city":"Nellore","state":"Andhra Pradesh","latitude":14.4426,"longitude":79.9865,"temp":33.0,"humidity":53,"rain":0.0,"pressure":1005.6,"uv_index":7.8,"wind_gusts":44.6,"aqi":47,"pm10":4.8,"pm2_5":3.9,"no2":3.9,"co":147.0,"o3":77.0,"so2":4.6,"mosquito_risk":0,"arthritis_risk":5,"migraine_risk":4,"frizz_risk":1,"updated_at":"2026-06-08T09:47:23.429538+05:30"},{"city":"Kurnool","state":"Andhra Pradesh","latitude":15.8281,"longitude":78.0373,"temp":29.5,"humidity":60,"rain":0.0,"pressure":977.6,"uv_index":8.7,"wind_gusts":41.4,"aqi":58,"pm10":18.3,"pm2_5":9.5,"no2":5.0,"co":143.0,"o3":65.0,"so2":6.2,"mosquito_risk":4,"arthritis_risk":5,"migraine_risk":7,"frizz_risk":1,"updated_at":"2026-06-08T09:47:23.429546+05:30"},{"city":"Kakinada","state":"Andhra Pradesh","latitude":16.9891,"longitude":82.2475,"temp":29.1,"humidity":80,"rain":0.1,"pressure":1005.3,"uv_index":8.95,"wind_gusts":37.1,"aqi":72,"pm10":31.8,"pm2_5":25.3,"no2":4.5,"co":250.0,"o3":123.0,"so2":7.1,"mosquito_risk":10,"arthritis_risk":5,"migraine_risk":4,"frizz_risk":1,"updated_at":"2026-06-08T09:47:23.429553+05:30"},{"city":"Tirupati","state":"Andhra Pradesh","latitude":13.6288,"longitude":79.4192,"temp":32.8,"humidity":52,"rain":0.0,"pressure":991.4,"uv_index":8.65,"wind_gusts":37.1,"aqi":34,"pm10":4.1,"pm2_5":3.8,"no2":3.1,"co":148.0,"o3":75.0,"so2":2.0,"mosquito_risk":0,"arthritis_risk":5,"migraine_risk":7,"frizz_risk":1,"updated_at":"2026-06-08T09:47:23.429559+05:30"},{"city":"Warangal","state":"Telangana","latitude":17.9689,"longitude":79.5941,"temp":30.2,"humidity":64,"rain":0.0,"pressure":977.5,"uv_index":8.2,"wind_gusts":35.6,"aqi":91,"pm10":36.8,"pm2_5":22.6,"no2":4.2,"co":188.0,"o3":93.0,"so2":4.4,"mosquito_risk":3,"arthritis_risk":5,"migraine_risk":7,"frizz_risk":1,"updated_at":"2026-06-08T09:47:23.429565+05:30"},{"city":"Nizamabad","state":"Telangana","latitude":18.6725,"longitude":78.0941,"temp":32.4,"humidity":50,"rain":0.0,"pressure":964.2,"uv_index":7.9,"wind_gusts":48.6,"aqi":79,"pm10":57.2,"pm2_5":31.1,"no2":3.9,"co":167.0,"o3":88.0,"so2":6.0,"mosquito_risk":0,"arthritis_risk":5,"migraine_risk":7,"frizz_risk":1,"updated_at":"2026-06-08T09:47:23.429572+05:30"},{"city":"Mysore","state":"Karnataka","latitude":12.2958,"longitude":76.6396,"temp":25.2,"humidity":76,"rain":0.0,"pressure":930.8,"uv_index":6.95,"wind_gusts":52.9,"aqi":19,"pm10":3.8,"pm2_5":2.8,"no2":3.6,"co":139.0,"o3":60.0,"so2":1.7,"mosquito_risk":7,"arthritis_risk":5,"migraine_risk":7,"frizz_risk":1,"updated_at":"2026-06-08T09:47:23.429578+05:30"},{"city":"Mangalore","state":"Karnataka","latitude":12.9141,"longitude":74.856,"temp":26.2,"humidity":93,"rain":0.0,"pressure":1009.8,"uv_index":5.7,"wind_gusts":33.5,"aqi":31,"pm10":12.0,"pm2_5":6.4,"no2":2.9,"co":186.0,"o3":61.0,"so2":1.5,"mosquito_risk":7,"arthritis_risk":0,"migraine_risk":0,"frizz_risk":1,"updated_at":"2026-06-08T09:47:23.429585+05:30"},{"city":"Hubli-Dharwad","state":"Karnataka","latitude":15.3647,"longitude":75.124,"temp":26.4,"humidity":71,"rain":0.0,"pressure":942.4,"uv_index":5.15,"wind_gusts":42.1,"aqi":20,"pm10":3.2,"pm2_5":2.2,"no2":3.3,"co":123.0,"o3":55.0,"so2":1.1,"mosquito_risk":7,"arthritis_risk":5,"migraine_risk":3,"frizz_risk":1,"updated_at":"2026-06-08T09:47:23.429591+05:30"},{"city":"Belgaum","state":"Karnataka","latitude":15.8497,"longitude":74.4977,"temp":25.7,"humidity":73,"rain":0.0,"pressure":927.2,"uv_index":2.55,"wind_gusts":36.7,"aqi":17,"pm10":4.2,"pm2_5":3.5,"no2":6.1,"co":120.0,"o3":51.0,"so2":2.5,"mosquito_risk":7,"arthritis_risk":5,"migraine_risk":3,"frizz_risk":1,"updated_at":"2026-06-08T09:47:26.666829+05:30"},{"city":"Coimbatore","state":"Tamil Nadu","latitude":11.0168,"longitude":76.9558,"temp":24.6,"humidity":84,"rain":0.0,"pressure":963.9,"uv_index":6.8,"wind_gusts":51.1,"aqi":20,"pm10":3.1,"pm2_5":2.7,"no2":3.7,"co":172.0,"o3":54.0,"so2":2.3,"mosquito_risk":3,"arthritis_risk":5,"migraine_risk":7,"frizz_risk":1,"updated_at":"2026-06-08T09:47:26.666863+05:30"},{"city":"Madurai","state":"Tamil Nadu","latitude":9.9252,"longitude":78.1198,"temp":26.9,"humidity":91,"rain":0.2,"pressure":994.8,"uv_index":8.7,"wind_gusts":66.2,"aqi":18,"pm10":5.5,"pm2_5":5.1,"no2":5.0,"co":133.0,"o3":58.0,"so2":3.3,"mosquito_risk":10,"arthritis_risk":5,"migraine_risk":7,"frizz_risk":1,"updated_at":"2026-06-08T09:47:26.666874+05:30"},{"city":"Trichy","state":"Tamil Nadu","latitude":10.7905,"longitude":78.7047,"temp":32.1,"humidity":56,"rain":0.0,"pressure":1001.2,"uv_index":7.3,"wind_gusts":52.2,"aqi":23,"pm10":6.7,"pm2_5":6.0,"no2":6.8,"co":123.0,"o3":48.0,"so2":4.1,"mosquito_risk":0,"arthritis_risk":5,"migraine_risk":4,"frizz_risk":1,"updated_at":"2026-06-08T09:47:26.666883+05:30"},{"city":"Salem","state":"Tamil Nadu","latitude":11.6643,"longitude":78.146,"temp":30.4,"humidity":56,"rain":0.0,"pressure":979.6,"uv_index":7.2,"wind_gusts":43.2,"aqi":25,"pm10":6.6,"pm2_5":5.9,"no2":6.2,"co":183.0,"o3":61.0,"so2":8.4,"mosquito_risk":0,"arthritis_risk":5,"migraine_risk":7,"frizz_risk":1,"updated_at":"2026-06-08T09:47:26.666891+05:30"},{"city":"Tirunelveli","state":"Tamil Nadu","latitude":8.7139,"longitude":77.7567,"temp":31.2,"humidity":59,"rain":0.0,"pressure":1005.7,"uv_index":8.45,"wind_gusts":46.8,"aqi":17,"pm10":4.7,"pm2_5":3.1,"no2":2.7,"co":138.0,"o3":50.0,"so2":1.1,"mosquito_risk":0,"arthritis_risk":5,"migraine_risk":4,"frizz_risk":1,"updated_at":"2026-06-08T09:47:26.666899+05:30"},{"city":"Vellore","state":"Tamil Nadu","latitude":12.9165,"longitude":79.1325,"temp":32.6,"humidity":51,"rain":0.0,"pressure":985.2,"uv_index":8.35,"wind_gusts":42.8,"aqi":26,"pm10":4.7,"pm2_5":4.2,"no2":2.4,"co":141.0,"o3":71.0,"so2":2.9,"mosquito_risk":0,"arthritis_risk":5,"migraine_risk":7,"frizz_risk":1,"updated_at":"2026-06-08T09:47:26.666907+05:30"},{"city":"Erode","state":"Tamil Nadu","latitude":11.341,"longitude":77.7172,"temp":29.0,"humidity":63,"rain":0.0,"pressure":991.2,"uv_index":8.4,"wind_gusts":56.9,"aqi":18,"pm10":4.3,"pm2_5":3.8,"no2":5.1,"co":167.0,"o3":55.0,"so2":2.7,"mosquito_risk":7,"arthritis_risk":5,"migraine_risk":7,"frizz_risk":1,"updated_at":"2026-06-08T09:47:26.666915+05:30"},{"city":"Kochi","state":"Kerala","latitude":9.9312,"longitude":76.2673,"temp":27.3,"humidity":89,"rain":0.2,"pressure":1012.6,"uv_index":4.8,"wind_gusts":40.3,"aqi":28,"pm10":11.7,"pm2_5":7.2,"no2":6.1,"co":139.0,"o3":46.0,"so2":2.4,"mosquito_risk":10,"arthritis_risk":0,"migraine_risk":0,"frizz_risk":1,"updated_at":"2026-06-08T09:47:26.666923+05:30"},{"city":"Thiruvananthapuram","state":"Kerala","latitude":8.5241,"longitude":76.9366,"temp":26.9,"humidity":87,"rain":0.0,"pressure":1012.1,"uv_index":7.5,"wind_gusts":47.5,"aqi":29,"pm10":15.3,"pm2_5":7.0,"no2":1.8,"co":105.0,"o3":48.0,"so2":0.5,"mosquito_risk":7,"arthritis_risk":0,"migraine_risk":4,"frizz_risk":1,"updated_at":"2026-06-08T09:47:26.666930+05:30"},{"city":"Kozhikode","state":"Kerala","latitude":11.2588,"longitude":75.7804,"temp":25.5,"humidity":94,"rain":0.2,"pressure":1012.0,"uv_index":4.45,"wind_gusts":35.3,"aqi":28,"pm10":10.0,"pm2_5":4.8,"no2":0.8,"co":163.0,"o3":63.0,"so2":0.5,"mosquito_risk":10,"arthritis_risk":0,"migraine_risk":0,"frizz_risk":1,"updated_at":"2026-06-08T09:47:26.666937+05:30"},{"city":"Thrissur","state":"Kerala","latitude":10.5276,"longitude":76.2144,"temp":25.3,"humidity":97,"rain":0.2,"pressure":1011.1,"uv_index":3.1,"wind_gusts":32.0,"aqi":28,"pm10":8.6,"pm2_5":6.0,"no2":4.1,"co":164.0,"o3":50.0,"so2":1.9,"mosquito_risk":10,"arthritis_risk":0,"migraine_risk":0,"frizz_risk":1,"updated_at":"2026-06-08T09:47:26.666974+05:30"},{"city":"Kannur","state":"Kerala","latitude":11.8745,"longitude":75.3704,"temp":26.6,"humidity":88,"rain":0.0,"pressure":1010.7,"uv_index":6.1,"wind_gusts":38.9,"aqi":24,"pm10":10.9,"pm2_5":6.5,"no2":3.6,"co":195.0,"o3":54.0,"so2":1.2,"mosquito_risk":7,"arthritis_risk":0,"migraine_risk":4,"frizz_risk":1,"updated_at":"2026-06-08T09:47:26.666985+05:30"},{"city":"Patna","state":"Bihar","latitude":25.5941,"longitude":85.1376,"temp":34.8,"humidity":54,"rain":0.0,"pressure":995.3,"uv_index":8.55,"wind_gusts":26.3,"aqi":165,"pm10":109.7,"pm2_5":75.4,"no2":8.3,"co":484.0,"o3":195.0,"so2":17.0,"mosquito_risk":0,"arthritis_risk":5,"migraine_risk":7,"frizz_risk":1,"updated_at":"2026-06-08T09:47:26.666995+05:30"},{"city":"Gaya","state":"Bihar","latitude":24.7914,"longitude":85.0002,"temp":36.4,"humidity":39,"rain":0.0,"pressure":989.0,"uv_index":8.0,"wind_gusts":31.3,"aqi":156,"pm10":84.8,"pm2_5":47.3,"no2":4.5,"co":344.0,"o3":161.0,"so2":8.9,"mosquito_risk":0,"arthritis_risk":5,"migraine_risk":10,"frizz_risk":1,"updated_at":"2026-06-08T09:47:26.667003+05:30"},{"city":"Muzaffarpur","state":"Bihar","latitude":26.1209,"longitude":85.3647,"temp":33.0,"humidity":63,"rain":0.0,"pressure":995.7,"uv_index":8.9,"wind_gusts":24.1,"aqi":166,"pm10":122.0,"pm2_5":85.4,"no2":7.3,"co":570.0,"o3":202.0,"so2":20.1,"mosquito_risk":3,"arthritis_risk":5,"migraine_risk":7,"frizz_risk":1,"updated_at":"2026-06-08T09:47:26.667010+05:30"},{"city":"Bhagalpur","state":"Bihar","latitude":25.2425,"longitude":87.0117,"temp":33.8,"humidity":60,"rain":0.0,"pressure":996.6,"uv_index":8.85,"wind_gusts":26.6,"aqi":152,"pm10":90.6,"pm2_5":64.5,"no2":6.1,"co":518.0,"o3":165.0,"so2":28.1,"mosquito_risk":0,"arthritis_risk":5,"migraine_risk":7,"frizz_risk":1,"updated_at":"2026-06-08T09:47:26.667016+05:30"},{"city":"Ranchi","state":"Jharkhand","latitude":23.3441,"longitude":85.3096,"temp":32.6,"humidity":44,"rain":0.0,"pressure":935.7,"uv_index":8.8,"wind_gusts":31.0,"aqi":143,"pm10":82.0,"pm2_5":38.4,"no2":2.7,"co":262.0,"o3":155.0,"so2":19.1,"mosquito_risk":0,"arthritis_risk":5,"migraine_risk":7,"frizz_risk":1,"updated_at":"2026-06-08T09:47:26.667024+05:30"},{"city":"Jamshedpur","state":"Jharkhand","latitude":22.8046,"longitude":86.2029,"temp":33.6,"humidity":56,"rain":0.0,"pressure":987.1,"uv_index":9.05,"wind_gusts":29.2,"aqi":157,"pm10":69.2,"pm2_5":48.9,"no2":8.0,"co":424.0,"o3":174.0,"so2":38.3,"mosquito_risk":0,"arthritis_risk":5,"migraine_risk":7,"frizz_risk":1,"updated_at":"2026-06-08T09:47:26.667031+05:30"},{"city":"Dhanbad","state":"Jharkhand","latitude":23.7957,"longitude":86.4304,"temp":35.9,"humidity":42,"rain":0.0,"pressure":975.9,"uv_index":8.8,"wind_gusts":32.8,"aqi":168,"pm10":85.2,"pm2_5":62.2,"no2":30.3,"co":357.0,"o3":134.0,"so2":85.2,"mosquito_risk":0,"arthritis_risk":5,"migraine_risk":10,"frizz_risk":1,"updated_at":"2026-06-08T09:47:26.667038+05:30"},{"city":"Bokaro","state":"Jharkhand","latitude":23.6693,"longitude":86.1511,"temp":35.9,"humidity":40,"rain":0.0,"pressure":979.7,"uv_index":8.85,"wind_gusts":33.8,"aqi":165,"pm10":78.2,"pm2_5":51.7,"no2":18.5,"co":385.0,"o3":147.0,"so2":56.5,"mosquito_risk":0,"arthritis_risk":5,"migraine_risk":10,"frizz_risk":1,"updated_at":"2026-06-08T09:47:26.667045+05:30"},{"city":"Bhubaneswar","state":"Odisha","latitude":20.2961,"longitude":85.8245,"temp":34.9,"humidity":64,"rain":0.0,"pressure":998.7,"uv_index":8.35,"wind_gusts":57.6,"aqi":94,"pm10":39.2,"pm2_5":30.5,"no2":4.1,"co":350.0,"o3":137.0,"so2":12.2,"mosquito_risk":3,"arthritis_risk":5,"migraine_risk":7,"frizz_risk":1,"updated_at":"2026-06-08T09:47:26.667052+05:30"},{"city":"Cuttack","state":"Odisha","latitude":20.4625,"longitude":85.8828,"temp":32.6,"humidity":74,"rain":0.0,"pressure":1000.6,"uv_index":8.55,"wind_gusts":55.8,"aqi":94,"pm10":39.2,"pm2_5":30.5,"no2":4.1,"co":358.0,"o3":137.0,"so2":12.2,"mosquito_risk":3,"arthritis_risk":5,"migraine_risk":4,"frizz_risk":1,"updated_at":"2026-06-08T09:47:26.667059+05:30"},{"city":"Rourkela","state":"Odisha","latitude":22.2604,"longitude":84.8536,"temp":34.8,"humidity":47,"rain":0.0,"pressure":981.7,"uv_index":8.45,"wind_gusts":36.7,"aqi":145,"pm10":70.5,"pm2_5":44.9,"no2":5.5,"co":393.0,"o3":173.0,"so2":32.1,"mosquito_risk":0,"arthritis_risk":5,"migraine_risk":7,"frizz_risk":1,"updated_at":"2026-06-08T09:47:26.667066+05:30"},{"city":"Raipur","state":"Chhattisgarh","latitude":21.2514,"longitude":81.6296,"temp":36.0,"humidity":39,"rain":0.0,"pressure":971.9,"uv_index":8.85,"wind_gusts":43.9,"aqi":126,"pm10":74.3,"pm2_5":43.3,"no2":24.7,"co":466.0,"o3":95.0,"so2":63.2,"mosquito_risk":0,"arthritis_risk":5,"migraine_risk":10,"frizz_risk":1,"updated_at":"2026-06-08T09:47:26.667073+05:30"},{"city":"Bhilai","state":"Chhattisgarh","latitude":21.1938,"longitude":81.3509,"temp":34.7,"humidity":44,"rain":0.0,"pressure":972.5,"uv_index":7.4,"wind_gusts":45.0,"aqi":118,"pm10":62.6,"pm2_5":37.5,"no2":18.8,"co":778.0,"o3":101.0,"so2":50.5,"mosquito_risk":0,"arthritis_risk":5,"migraine_risk":7,"frizz_risk":1,"updated_at":"2026-06-08T09:47:26.667080+05:30"},{"city":"Guwahati","state":"Assam","latitude":26.1158,"longitude":91.7086,"temp":27.6,"humidity":83,"rain":0.0,"pressure":998.2,"uv_index":8.0,"wind_gusts":25.9,"aqi":108,"pm10":13.1,"pm2_5":11.5,"no2":2.6,"co":366.0,"o3":110.0,"so2":2.7,"mosquito_risk":7,"arthritis_risk":5,"migraine_risk":7,"frizz_risk":1,"updated_at":"2026-06-08T09:47:26.667087+05:30"},{"city":"Agartala","state":"Tripura","latitude":23.8315,"longitude":91.2868,"temp":29.6,"humidity":75,"rain":0.1,"pressure":1003.2,"uv_index":7.9,"wind_gusts":41.4,"aqi":83,"pm10":12.6,"pm2_5":11.7,"no2":6.7,"co":218.0,"o3":96.0,"so2":2.9,"mosquito_risk":10,"arthritis_risk":5,"migraine_risk":4,"frizz_risk":1,"updated_at":"2026-06-08T09:47:26.667094+05:30"},{"city":"Shillong","state":"Meghalaya","latitude":25.5788,"longitude":91.8933,"temp":24.2,"humidity":66,"rain":0.1,"pressure":856.1,"uv_index":8.4,"wind_gusts":28.4,"aqi":64,"pm10":4.6,"pm2_5":4.2,"no2":3.3,"co":280.0,"o3":86.0,"so2":2.7,"mosquito_risk":6,"arthritis_risk":5,"migraine_risk":7,"frizz_risk":1,"updated_at":"2026-06-08T09:47:26.667100+05:30"},{"city":"Imphal","state":"Manipur","latitude":24.817,"longitude":93.9368,"temp":27.6,"humidity":68,"rain":0.0,"pressure":921.1,"uv_index":8.05,"wind_gusts":35.6,"aqi":61,"pm10":12.9,"pm2_5":10.2,"no2":1.1,"co":191.0,"o3":105.0,"so2":1.5,"mosquito_risk":7,"arthritis_risk":5,"migraine_risk":7,"frizz_risk":1,"updated_at":"2026-06-08T09:47:26.667107+05:30"},{"city":"Aizawl","state":"Mizoram","latitude":23.7271,"longitude":92.7176,"temp":24.8,"humidity":70,"rain":0.0,"pressure":891.5,"uv_index":8.5,"wind_gusts":36.7,"aqi":48,"pm10":7.1,"pm2_5":6.2,"no2":1.8,"co":162.0,"o3":91.0,"so2":1.0,"mosquito_risk":3,"arthritis_risk":5,"migraine_risk":7,"frizz_risk":1,"updated_at":"2026-06-08T09:47:26.667114+05:30"},{"city":"Kohima","state":"Nagaland","latitude":25.6701,"longitude":94.1077,"temp":20.9,"humidity":99,"rain":0.1,"pressure":853.7,"uv_index":8.25,"wind_gusts":20.9,"aqi":53,"pm10":9.8,"pm2_5":7.3,"no2":0.7,"co":218.0,"o3":111.0,"so2":1.4,"mosquito_risk":6,"arthritis_risk":5,"migraine_risk":7,"frizz_risk":1,"updated_at":"2026-06-08T09:47:26.667121+05:30"},{"city":"Gangtok","state":"Sikkim","latitude":27.3314,"longitude":88.6138,"temp":23.7,"humidity":63,"rain":0.0,"pressure":836.9,"uv_index":9.05,"wind_gusts":36.4,"aqi":80,"pm10":20.0,"pm2_5":17.5,"no2":1.1,"co":271.0,"o3":142.0,"so2":2.3,"mosquito_risk":3,"arthritis_risk":5,"migraine_risk":7,"frizz_risk":1,"updated_at":"2026-06-08T09:47:26.667128+05:30"},{"city":"Siliguri","state":"West Bengal","latitude":26.7271,"longitude":88.3953,"temp":30.1,"humidity":69,"rain":0.0,"pressure":988.9,"uv_index":8.75,"wind_gusts":24.1,"aqi":132,"pm10":51.3,"pm2_5":44.1,"no2":2.7,"co":466.0,"o3":154.0,"so2":5.6,"mosquito_risk":3,"arthritis_risk":5,"migraine_risk":7,"frizz_risk":1,"updated_at":"2026-06-08T09:47:29.901278+05:30"},{"city":"Durgapur","state":"West Bengal","latitude":23.5204,"longitude":87.3119,"temp":33.0,"humidity":65,"rain":0.0,"pressure":990.7,"uv_index":8.9,"wind_gusts":27.7,"aqi":172,"pm10":99.2,"pm2_5":85.9,"no2":35.3,"co":685.0,"o3":135.0,"so2":104.5,"mosquito_risk":3,"arthritis_risk":5,"migraine_risk":7,"frizz_risk":1,"updated_at":"2026-06-08T09:47:29.901338+05:30"},{"city":"Asansol","state":"West Bengal","latitude":23.6739,"longitude":86.9524,"temp":34.7,"humidity":53,"rain":0.0,"pressure":989.2,"uv_index":9.0,"wind_gusts":28.1,"aqi":166,"pm10":89.4,"pm2_5":73.1,"no2":32.8,"co":935.0,"o3":127.0,"so2":91.7,"mosquito_risk":0,"arthritis_risk":5,"migraine_risk":7,"frizz_risk":1,"updated_at":"2026-06-08T09:47:29.901350+05:30"},{"city":"Pondicherry","state":"Puducherry","latitude":11.9139,"longitude":79.8145,"temp":33.0,"humidity":55,"rain":0.0,"pressure":1009.1,"uv_index":7.6,"wind_gusts":45.7,"aqi":41,"pm10":8.5,"pm2_5":7.1,"no2":6.8,"co":185.0,"o3":58.0,"so2":11.5,"mosquito_risk":0,"arthritis_risk":0,"migraine_risk":4,"frizz_risk":1,"updated_at":"2026-06-08T09:47:29.901360+05:30"},{"city":"Port Blair","state":"Andaman and Nicobar Islands","latitude":11.6234,"longitude":92.7265,"temp":30.3,"humidity":76,"rain":0.1,"pressure":1008.8,"uv_index":8.75,"wind_gusts":47.9,"aqi":27,"pm10":11.6,"pm2_5":6.9,"no2":0.4,"co":85.0,"o3":43.0,"so2":0.3,"mosquito_risk":6,"arthritis_risk":0,"migraine_risk":4,"frizz_risk":1,"updated_at":"2026-06-08T09:47:29.901369+05:30"},{"city":"Haridwar","state":"Uttarakhand","latitude":29.9457,"longitude":78.1642,"temp":34.5,"humidity":41,"rain":0.0,"pressure":969.2,"uv_index":7.6,"wind_gusts":33.5,"aqi":108,"pm10":59.6,"pm2_5":33.8,"no2":2.6,"co":316.0,"o3":176.0,"so2":8.9,"mosquito_risk":0,"arthritis_risk":5,"migraine_risk":7,"frizz_risk":1,"updated_at":"2026-06-08T09:47:29.901377+05:30"},{"city":"Rishikesh","state":"Uttarakhand","latitude":30.0869,"longitude":78.2676,"temp":33.8,"humidity":39,"rain":0.0,"pressure":962.3,"uv_index":7.7,"wind_gusts":19.4,"aqi":89,"pm10":36.0,"pm2_5":23.1,"no2":1.0,"co":275.0,"o3":170.0,"so2":6.9,"mosquito_risk":0,"arthritis_risk":5,"migraine_risk":7,"frizz_risk":1,"updated_at":"2026-06-08T09:47:29.901384+05:30"},{"city":"Nainital","state":"Uttarakhand","latitude":29.3919,"longitude":79.4542,"temp":23.5,"humidity":36,"rain":0.0,"pressure":806.6,"uv_index":8.55,"wind_gusts":41.4,"aqi":89,"pm10":69.2,"pm2_5":28.3,"no2":0.3,"co":214.0,"o3":169.0,"so2":9.1,"mosquito_risk":0,"arthritis_risk":5,"migraine_risk":7,"frizz_risk":0,"updated_at":"2026-06-08T09:47:29.901392+05:30"},{"city":"Mussoorie","state":"Uttarakhand","latitude":30.4599,"longitude":78.0664,"temp":23.0,"humidity":38,"rain":0.0,"pressure":803.9,"uv_index":8.1,"wind_gusts":41.4,"aqi":94,"pm10":30.3,"pm2_5":21.1,"no2":2.0,"co":213.0,"o3":175.0,"so2":6.2,"mosquito_risk":0,"arthritis_risk":5,"migraine_risk":7,"frizz_risk":0,"updated_at":"2026-06-08T09:47:29.901400+05:30"},{"city":"Dharamshala","state":"Himachal Pradesh","latitude":32.219,"longitude":76.3234,"temp":26.8,"humidity":35,"rain":0.0,"pressure":868.2,"uv_index":8.5,"wind_gusts":42.8,"aqi":48,"pm10":13.9,"pm2_5":9.9,"no2":0.3,"co":219.0,"o3":152.0,"so2":1.3,"mosquito_risk":4,"arthritis_risk":5,"migraine_risk":7,"frizz_risk":0,"updated_at":"2026-06-08T09:47:29.901408+05:30"},{"city":"Dalhousie","state":"Himachal Pradesh","latitude":32.5387,"longitude":75.971,"temp":23.5,"humidity":34,"rain":0.0,"pressure":805.7,"uv_index":8.75,"wind_gusts":37.4,"aqi":68,"pm10":19.7,"pm2_5":14.1,"no2":1.5,"co":234.0,"o3":167.0,"so2":2.5,"mosquito_risk":0,"arthritis_risk":5,"migraine_risk":7,"frizz_risk":0,"updated_at":"2026-06-08T09:47:29.901416+05:30"},{"city":"Patiala","state":"Punjab","latitude":30.3398,"longitude":76.3869,"temp":35.9,"humidity":32,"rain":0.0,"pressure":973.4,"uv_index":7.7,"wind_gusts":35.3,"aqi":151,"pm10":183.5,"pm2_5":56.5,"no2":7.1,"co":463.0,"o3":164.0,"so2":13.2,"mosquito_risk":0,"arthritis_risk":5,"migraine_risk":10,"frizz_risk":1,"updated_at":"2026-06-08T09:47:29.901423+05:30"},{"city":"Bhatinda","state":"Punjab","latitude":30.211,"longitude":74.9455,"temp":37.8,"humidity":25,"rain":0.0,"pressure":978.8,"uv_index":8.3,"wind_gusts":27.0,"aqi":106,"pm10":46.1,"pm2_5":35.0,"no2":10.9,"co":440.0,"o3":143.0,"so2":13.0,"mosquito_risk":0,"arthritis_risk":5,"migraine_risk":10,"frizz_risk":0,"updated_at":"2026-06-08T09:47:29.901431+05:30"},{"city":"Rohtak","state":"Haryana","latitude":28.8955,"longitude":76.6066,"temp":35.4,"humidity":38,"rain":0.0,"pressure":976.9,"uv_index":7.8,"wind_gusts":32.8,"aqi":178,"pm10":538.3,"pm2_5":92.2,"no2":10.3,"co":340.0,"o3":95.0,"so2":5.8,"mosquito_risk":0,"arthritis_risk":5,"migraine_risk":10,"frizz_risk":1,"updated_at":"2026-06-08T09:47:29.901437+05:30"},{"city":"Panipat","state":"Haryana","latitude":29.3909,"longitude":76.9635,"temp":34.8,"humidity":42,"rain":0.0,"pressure":975.4,"uv_index":7.65,"wind_gusts":28.8,"aqi":308,"pm10":476.8,"pm2_5":97.6,"no2":16.6,"co":431.0,"o3":112.0,"so2":13.6,"mosquito_risk":0,"arthritis_risk":5,"migraine_risk":7,"frizz_risk":1,"updated_at":"2026-06-08T09:47:29.901445+05:30"},{"city":"Mathura","state":"Uttar Pradesh","latitude":27.4924,"longitude":77.6737,"temp":35.4,"humidity":38,"rain":0.0,"pressure":982.2,"uv_index":8.05,"wind_gusts":28.8,"aqi":329,"pm10":1117.6,"pm2_5":135.5,"no2":8.7,"co":216.0,"o3":77.0,"so2":5.7,"mosquito_risk":0,"arthritis_risk":5,"migraine_risk":10,"frizz_risk":1,"updated_at":"2026-06-08T09:47:29.901452+05:30"},{"city":"Vrindavan","state":"Uttar Pradesh","latitude":27.5823,"longitude":77.7027,"temp":35.6,"humidity":37,"rain":0.0,"pressure":982.5,"uv_index":8.0,"wind_gusts":28.8,"aqi":329,"pm10":1117.6,"pm2_5":135.5,"no2":8.7,"co":212.0,"o3":77.0,"so2":5.7,"mosquito_risk":0,"arthritis_risk":5,"migraine_risk":10,"frizz_risk":1,"updated_at":"2026-06-08T09:47:29.901459+05:30"},{"city":"Ayodhya","state":"Uttar Pradesh","latitude":26.7922,"longitude":82.1998,"temp":34.7,"humidity":53,"rain":0.0,"pressure":990.0,"uv_index":8.45,"wind_gusts":28.8,"aqi":151,"pm10":179.7,"pm2_5":70.5,"no2":10.1,"co":373.0,"o3":146.0,"so2":11.6,"mosquito_risk":0,"arthritis_risk":5,"migraine_risk":7,"frizz_risk":1,"updated_at":"2026-06-08T09:47:29.901465+05:30"},{"city":"Ratlam","state":"Madhya Pradesh","latitude":23.3315,"longitude":75.0367,"temp":31.7,"humidity":60,"rain":0.0,"pressure":953.7,"uv_index":8.5,"wind_gusts":44.3,"aqi":84,"pm10":53.2,"pm2_5":29.2,"no2":3.7,"co":133.0,"o3":71.0,"so2":10.5,"mosquito_risk":0,"arthritis_risk":5,"migraine_risk":7,"frizz_risk":1,"updated_at":"2026-06-08T09:47:29.901472+05:30"},{"city":"Sagar","state":"Madhya Pradesh","latitude":23.8388,"longitude":78.7378,"temp":35.3,"humidity":41,"rain":0.0,"pressure":948.1,"uv_index":8.75,"wind_gusts":40.7,"aqi":88,"pm10":68.5,"pm2_5":28.3,"no2":2.0,"co":154.0,"o3":106.0,"so2":8.1,"mosquito_risk":0,"arthritis_risk":5,"migraine_risk":10,"frizz_risk":1,"updated_at":"2026-06-08T09:47:29.901478+05:30"},{"city":"Satna","state":"Madhya Pradesh","latitude":24.6005,"longitude":80.8322,"temp":36.9,"humidity":33,"rain":0.0,"pressure":967.7,"uv_index":8.85,"wind_gusts":49.7,"aqi":97,"pm10":60.1,"pm2_5":24.8,"no2":2.7,"co":182.0,"o3":114.0,"so2":5.4,"mosquito_risk":0,"arthritis_risk":5,"migraine_risk":10,"frizz_risk":1,"updated_at":"2026-06-08T09:47:29.901486+05:30"},{"city":"Akola","state":"Maharashtra","latitude":20.7002,"longitude":77.0082,"temp":34.6,"humidity":46,"rain":0.0,"pressure":973.9,"uv_index":8.85,"wind_gusts":43.2,"aqi":86,"pm10":63.6,"pm2_5":30.4,"no2":3.7,"co":138.0,"o3":81.0,"so2":9.1,"mosquito_risk":0,"arthritis_risk":5,"migraine_risk":7,"frizz_risk":1,"updated_at":"2026-06-08T09:47:29.901493+05:30"},{"city":"Amravati","state":"Maharashtra","latitude":20.9374,"longitude":77.7796,"temp":34.5,"humidity":45,"rain":0.0,"pressure":965.8,"uv_index":8.45,"wind_gusts":41.4,"aqi":89,"pm10":66.1,"pm2_5":32.6,"no2":4.1,"co":132.0,"o3":89.0,"so2":11.3,"mosquito_risk":0,"arthritis_risk":5,"migraine_risk":7,"frizz_risk":1,"updated_at":"2026-06-08T09:47:29.901501+05:30"},{"city":"Latur","state":"Maharashtra","latitude":18.4088,"longitude":76.5604,"temp":25.5,"humidity":91,"rain":0.1,"pressure":939.7,"uv_index":3.65,"wind_gusts":46.4,"aqi":73,"pm10":61.2,"pm2_5":27.5,"no2":2.5,"co":135.0,"o3":73.0,"so2":5.2,"mosquito_risk":10,"arthritis_risk":5,"migraine_risk":3,"frizz_risk":1,"updated_at":"2026-06-08T09:47:29.901508+05:30"},{"city":"Nanded","state":"Maharashtra","latitude":19.1383,"longitude":77.3091,"temp":32.3,"humidity":51,"rain":0.0,"pressure":967.9,"uv_index":8.95,"wind_gusts":52.2,"aqi":83,"pm10":67.5,"pm2_5":29.2,"no2":2.2,"co":156.0,"o3":84.0,"so2":3.8,"mosquito_risk":0,"arthritis_risk":5,"migraine_risk":7,"frizz_risk":1,"updated_at":"2026-06-08T09:47:29.901515+05:30"},{"city":"Gulbarga","state":"Karnataka","latitude":17.3297,"longitude":76.8343,"temp":30.2,"humidity":63,"rain":0.0,"pressure":959.1,"uv_index":8.2,"wind_gusts":40.0,"aqi":59,"pm10":35.4,"pm2_5":16.2,"no2":4.6,"co":142.0,"o3":59.0,"so2":3.2,"mosquito_risk":3,"arthritis_risk":5,"migraine_risk":7,"frizz_risk":1,"updated_at":"2026-06-08T09:47:29.901521+05:30"},{"city":"Bidar","state":"Karnataka","latitude":17.9104,"longitude":77.5199,"temp":28.1,"humidity":68,"rain":0.0,"pressure":935.5,"uv_index":6.95,"wind_gusts":39.2,"aqi":74,"pm10":49.6,"pm2_5":27.0,"no2":4.5,"co":159.0,"o3":77.0,"so2":5.6,"mosquito_risk":7,"arthritis_risk":5,"migraine_risk":7,"frizz_risk":1,"updated_at":"2026-06-08T09:47:29.901527+05:30"},{"city":"Hospet","state":"Karnataka","latitude":15.2689,"longitude":76.3909,"temp":27.5,"humidity":68,"rain":0.0,"pressure":957.4,"uv_index":6.5,"wind_gusts":52.6,"aqi":25,"pm10":8.4,"pm2_5":4.9,"no2":3.9,"co":126.0,"o3":60.0,"so2":1.9,"mosquito_risk":7,"arthritis_risk":5,"migraine_risk":7,"frizz_risk":1,"updated_at":"2026-06-08T09:47:29.901534+05:30"},{"city":"Tirupur","state":"Tamil Nadu","latitude":11.1085,"longitude":77.3411,"temp":25.9,"humidity":78,"rain":0.0,"pressure":977.2,"uv_index":7.8,"wind_gusts":59.0,"aqi":18,"pm10":5.3,"pm2_5":4.6,"no2":5.2,"co":147.0,"o3":58.0,"so2":3.5,"mosquito_risk":7,"arthritis_risk":5,"migraine_risk":7,"frizz_risk":1,"updated_at":"2026-06-08T09:47:29.901541+05:30"},{"city":"Alappuzha","state":"Kerala","latitude":9.4981,"longitude":76.3388,"temp":26.5,"humidity":91,"rain":0.1,"pressure":1012.7,"uv_index":7.85,"wind_gusts":43.6,"aqi":28,"pm10":13.2,"pm2_5":7.0,"no2":2.9,"co":88.0,"o3":53.0,"so2":1.2,"mosquito_risk":10,"arthritis_risk":0,"migraine_risk":4,"frizz_risk":1,"updated_at":"2026-06-08T09:47:29.901548+05:30"},{"city":"Munnar","state":"Kerala","latitude":10.0889,"longitude":77.0595,"temp":18.2,"humidity":99,"rain":0.5,"pressure":859.4,"uv_index":3.2,"wind_gusts":42.8,"aqi":15,"pm10":2.6,"pm2_5":2.3,"no2":4.5,"co":107.0,"o3":46.0,"so2":1.3,"mosquito_risk":6,"arthritis_risk":10,"migraine_risk":3,"frizz_risk":1,"updated_at":"2026-06-08T09:47:29.901555+05:30"},{"city":"Silchar","state":"Assam","latitude":24.8333,"longitude":92.7789,"temp":29.0,"humidity":79,"rain":0.0,"pressure":1002.3,"uv_index":8.8,"wind_gusts":33.1,"aqi":75,"pm10":18.0,"pm2_5":15.3,"no2":1.6,"co":210.0,"o3":100.0,"so2":3.1,"mosquito_risk":7,"arthritis_risk":5,"migraine_risk":4,"frizz_risk":1,"updated_at":"2026-06-08T09:47:29.901561+05:30"},{"city":"Dibrugarh","state":"Assam","latitude":27.4728,"longitude":94.912,"temp":25.7,"humidity":96,"rain":0.1,"pressure":992.0,"uv_index":8.15,"wind_gusts":24.1,"aqi":83,"pm10":22.9,"pm2_5":20.0,"no2":1.7,"co":277.0,"o3":132.0,"so2":2.4,"mosquito_risk":10,"arthritis_risk":5,"migraine_risk":7,"frizz_risk":1,"updated_at":"2026-06-08T09:47:29.901568+05:30"}]