[{"city":"Delhi","state":"Delhi","latitude":28.6139,"longitude":77.209,"temp":24.8,"humidity":60,"rain":0.0,"pressure":986.1,"uv_index":5.8,"wind_gusts":32.8,"aqi":330,"pm10":252.4,"pm2_5":58.3,"mosquito_risk":0,"arthritis_risk":5,"migraine_risk":3,"frizz_risk":1,"updated_at":"2026-04-03T22:15:10.446377+05:30"},{"city":"Mumbai","state":"Maharashtra","latitude":19.076,"longitude":72.8777,"temp":27.9,"humidity":78,"rain":0.0,"pressure":1011.0,"uv_index":7.45,"wind_gusts":24.5,"aqi":78,"pm10":56.6,"pm2_5":22.5,"mosquito_risk":7,"arthritis_risk":0,"migraine_risk":4,"frizz_risk":1,"updated_at":"2026-04-03T22:15:10.446438+05:30"},{"city":"Bangalore","state":"Karnataka","latitude":12.9716,"longitude":77.5946,"temp":26.3,"humidity":56,"rain":0.0,"pressure":913.7,"uv_index":9.6,"wind_gusts":28.8,"aqi":138,"pm10":50.5,"pm2_5":46.8,"mosquito_risk":4,"arthritis_risk":5,"migraine_risk":7,"frizz_risk":1,"updated_at":"2026-04-03T22:15:10.446452+05:30"},{"city":"Hyderabad","state":"Telangana","latitude":17.385,"longitude":78.4867,"temp":29.5,"humidity":45,"rain":0.0,"pressure":954.4,"uv_index":8.85,"wind_gusts":18.7,"aqi":89,"pm10":38.0,"pm2_5":33.4,"mosquito_risk":4,"arthritis_risk":5,"migraine_risk":7,"frizz_risk":1,"updated_at":"2026-04-03T22:15:10.446463+05:30"},{"city":"Chennai","state":"Tamil Nadu","latitude":13.0827,"longitude":80.2707,"temp":28.5,"humidity":78,"rain":0.0,"pressure":1009.4,"uv_index":9.3,"wind_gusts":36.7,"aqi":44,"pm10":11.0,"pm2_5":8.3,"mosquito_risk":7,"arthritis_risk":0,"migraine_risk":4,"frizz_risk":1,"updated_at":"2026-04-03T22:15:10.446471+05:30"},{"city":"Kolkata","state":"West Bengal","latitude":22.5726,"longitude":88.3639,"temp":27.7,"humidity":89,"rain":0.0,"pressure":1006.4,"uv_index":8.65,"wind_gusts":19.8,"aqi":88,"pm10":18.8,"pm2_5":16.8,"mosquito_risk":7,"arthritis_risk":5,"migraine_risk":4,"frizz_risk":1,"updated_at":"2026-04-03T22:15:10.446480+05:30"},{"city":"Pune","state":"Maharashtra","latitude":18.5204,"longitude":73.8567,"temp":24.8,"humidity":67,"rain":0.0,"pressure":950.6,"uv_index":8.5,"wind_gusts":36.4,"aqi":132,"pm10":39.3,"pm2_5":34.1,"mosquito_risk":3,"arthritis_risk":5,"migraine_risk":7,"frizz_risk":1,"updated_at":"2026-04-03T22:15:10.446492+05:30"},{"city":"Ahmedabad","state":"Gujarat","latitude":23.0225,"longitude":72.5714,"temp":27.4,"humidity":56,"rain":0.0,"pressure":1004.1,"uv_index":7.2,"wind_gusts":42.1,"aqi":65,"pm10":31.0,"pm2_5":14.9,"mosquito_risk":4,"arthritis_risk":5,"migraine_risk":4,"frizz_risk":1,"updated_at":"2026-04-03T22:15:10.446500+05:30"},{"city":"Jaipur","state":"Rajasthan","latitude":26.9124,"longitude":75.7873,"temp":23.9,"humidity":72,"rain":0.0,"pressure":962.3,"uv_index":7.45,"wind_gusts":55.8,"aqi":131,"pm10":110.8,"pm2_5":35.4,"mosquito_risk":3,"arthritis_risk":5,"migraine_risk":7,"frizz_risk":1,"updated_at":"2026-04-03T22:15:10.446507+05:30"},{"city":"Lucknow","state":"Uttar Pradesh","latitude":26.8467,"longitude":80.9462,"temp":27.8,"humidity":56,"rain":0.0,"pressure":994.9,"uv_index":6.75,"wind_gusts":28.8,"aqi":110,"pm10":183.9,"pm2_5":49.8,"mosquito_risk":4,"arthritis_risk":5,"migraine_risk":7,"frizz_risk":1,"updated_at":"2026-04-03T22:15:10.446515+05:30"},{"city":"Kanpur","state":"Uttar Pradesh","latitude":26.4499,"longitude":80.3319,"temp":26.2,"humidity":66,"rain":0.0,"pressure":993.7,"uv_index":5.2,"wind_gusts":29.5,"aqi":157,"pm10":286.8,"pm2_5":54.7,"mosquito_risk":7,"arthritis_risk":5,"migraine_risk":3,"frizz_risk":1,"updated_at":"2026-04-03T22:15:10.446522+05:30"},{"city":"Chandigarh","state":"Chandigarh","latitude":30.7333,"longitude":76.7794,"temp":21.1,"humidity":79,"rain":0.0,"pressure":971.8,"uv_index":5.85,"wind_gusts":49.3,"aqi":92,"pm10":52.4,"pm2_5":34.9,"mosquito_risk":3,"arthritis_risk":5,"migraine_risk":3,"frizz_risk":1,"updated_at":"2026-04-03T22:15:10.446529+05:30"},{"city":"Srinagar","state":"Jammu and Kashmir","latitude":34.0837,"longitude":74.7973,"temp":9.5,"humidity":90,"rain":0.6,"pressure":841.2,"uv_index":6.65,"wind_gusts":35.3,"aqi":100,"pm10":42.1,"pm2_5":35.9,"mosquito_risk":6,"arthritis_risk":10,"migraine_risk":7,"frizz_risk":0,"updated_at":"2026-04-03T22:15:10.446537+05:30"},{"city":"Jammu","state":"Jammu and Kashmir","latitude":32.7266,"longitude":74.857,"temp":20.3,"humidity":79,"rain":0.0,"pressure":975.4,"uv_index":5.1,"wind_gusts":35.3,"aqi":70,"pm10":25.3,"pm2_5":15.4,"mosquito_risk":3,"arthritis_risk":5,"migraine_risk":3,"frizz_risk":1,"updated_at":"2026-04-03T22:15:10.446545+05:30"},{"city":"Amritsar","state":"Punjab","latitude":31.634,"longitude":74.8723,"temp":19.0,"humidity":95,"rain":0.0,"pressure":983.6,"uv_index":4.55,"wind_gusts":57.6,"aqi":87,"pm10":62.4,"pm2_5":24.1,"mosquito_risk":3,"arthritis_risk":10,"migraine_risk":3,"frizz_risk":1,"updated_at":"2026-04-03T22:15:10.446552+05:30"},{"city":"Ludhiana","state":"Punjab","latitude":30.901,"longitude":75.8573,"temp":20.1,"humidity":90,"rain":0.0,"pressure":982.1,"uv_index":4.9,"wind_gusts":45.4,"aqi":105,"pm10":129.9,"pm2_5":41.4,"mosquito_risk":3,"arthritis_risk":5,"migraine_risk":3,"frizz_risk":1,"updated_at":"2026-04-03T22:15:10.446558+05:30"},{"city":"Jalandhar","state":"Punjab","latitude":31.326,"longitude":75.5762,"temp":19.9,"humidity":93,"rain":0.0,"pressure":983.1,"uv_index":5.85,"wind_gusts":41.8,"aqi":88,"pm10":72.4,"pm2_5":36.1,"mosquito_risk":3,"arthritis_risk":10,"migraine_risk":3,"frizz_risk":1,"updated_at":"2026-04-03T22:15:10.446567+05:30"},{"city":"Dehradun","state":"Uttarakhand","latitude":30.6284,"longitude":78.0322,"temp":15.6,"humidity":71,"rain":0.0,"pressure":832.4,"uv_index":5.7,"wind_gusts":33.1,"aqi":79,"pm10":33.1,"pm2_5":18.3,"mosquito_risk":3,"arthritis_risk":5,"migraine_risk":3,"frizz_risk":0,"updated_at":"2026-04-03T22:15:10.446574+05:30"},{"city":"Shimla","state":"Himachal Pradesh","latitude":31.1048,"longitude":77.1734,"temp":13.0,"humidity":85,"rain":0.0,"pressure":785.6,"uv_index":5.95,"wind_gusts":48.6,"aqi":81,"pm10":29.7,"pm2_5":18.7,"mosquito_risk":3,"arthritis_risk":10,"migraine_risk":3,"frizz_risk":0,"updated_at":"2026-04-03T22:15:10.446580+05:30"},{"city":"Manali","state":"Himachal Pradesh","latitude":32.2396,"longitude":77.1887,"temp":13.8,"humidity":86,"rain":0.0,"pressure":821.5,"uv_index":7.1,"wind_gusts":46.1,"aqi":54,"pm10":8.5,"pm2_5":4.7,"mosquito_risk":3,"arthritis_risk":10,"migraine_risk":7,"frizz_risk":0,"updated_at":"2026-04-03T22:15:10.446587+05:30"},{"city":"Gurgaon","state":"Haryana","latitude":28.4595,"longitude":77.0266,"temp":23.4,"humidity":65,"rain":0.0,"pressure":984.3,"uv_index":6.45,"wind_gusts":32.0,"aqi":722,"pm10":272.9,"pm2_5":64.0,"mosquito_risk":3,"arthritis_risk":5,"migraine_risk":7,"frizz_risk":1,"updated_at":"2026-04-03T22:15:10.446593+05:30"},{"city":"Noida","state":"Uttar Pradesh","latitude":28.5355,"longitude":77.391,"temp":24.7,"humidity":61,"rain":0.0,"pressure":987.4,"uv_index":6.1,"wind_gusts":29.5,"aqi":722,"pm10":272.9,"pm2_5":64.0,"mosquito_risk":3,"arthritis_risk":5,"migraine_risk":7,"frizz_risk":1,"updated_at":"2026-04-03T22:15:10.446600+05:30"},{"city":"Ghaziabad","state":"Uttar Pradesh","latitude":28.6692,"longitude":77.4538,"temp":24.3,"humidity":64,"rain":0.0,"pressure":985.5,"uv_index":6.25,"wind_gusts":30.6,"aqi":220,"pm10":303.6,"pm2_5":82.4,"mosquito_risk":3,"arthritis_risk":5,"migraine_risk":7,"frizz_risk":1,"updated_at":"2026-04-03T22:15:10.446607+05:30"},{"city":"Faridabad","state":"Haryana","latitude":28.4089,"longitude":77.3178,"temp":24.4,"humidity":59,"rain":0.0,"pressure":986.7,"uv_index":6.5,"wind_gusts":30.2,"aqi":722,"pm10":272.9,"pm2_5":64.0,"mosquito_risk":0,"arthritis_risk":5,"migraine_risk":7,"frizz_risk":0,"updated_at":"2026-04-03T22:15:10.446617+05:30"},{"city":"Meerut","state":"Uttar Pradesh","latitude":28.9845,"longitude":77.7064,"temp":23.3,"humidity":67,"rain":0.0,"pressure":983.9,"uv_index":6.1,"wind_gusts":26.3,"aqi":220,"pm10":303.6,"pm2_5":82.4,"mosquito_risk":3,"arthritis_risk":5,"migraine_risk":7,"frizz_risk":1,"updated_at":"2026-04-03T22:15:10.446624+05:30"},{"city":"Agra","state":"Uttar Pradesh","latitude":27.1767,"longitude":78.0081,"temp":26.5,"humidity":52,"rain":0.0,"pressure":990.4,"uv_index":7.35,"wind_gusts":35.6,"aqi":653,"pm10":765.5,"pm2_5":98.5,"mosquito_risk":4,"arthritis_risk":5,"migraine_risk":7,"frizz_risk":0,"updated_at":"2026-04-03T22:15:10.446630+05:30"},{"city":"Varanasi","state":"Uttar Pradesh","latitude":25.3176,"longitude":82.9739,"temp":26.8,"humidity":69,"rain":0.0,"pressure":999.0,"uv_index":7.8,"wind_gusts":32.0,"aqi":87,"pm10":36.1,"pm2_5":30.9,"mosquito_risk":7,"arthritis_risk":5,"migraine_risk":7,"frizz_risk":1,"updated_at":"2026-04-03T22:15:10.446644+05:30"},{"city":"Prayagraj","state":"Uttar Pradesh","latitude":25.4358,"longitude":81.8463,"temp":28.7,"humidity":60,"rain":0.0,"pressure":997.7,"uv_index":7.25,"wind_gusts":36.7,"aqi":88,"pm10":50.2,"pm2_5":40.0,"mosquito_risk":4,"arthritis_risk":5,"migraine_risk":7,"frizz_risk":1,"updated_at":"2026-04-03T22:15:10.446653+05:30"},{"city":"Gorakhpur","state":"Uttar Pradesh","latitude":26.7606,"longitude":83.3732,"temp":25.9,"humidity":61,"rain":0.0,"pressure":997.8,"uv_index":7.1,"wind_gusts":39.6,"aqi":104,"pm10":45.2,"pm2_5":25.8,"mosquito_risk":7,"arthritis_risk":5,"migraine_risk":7,"frizz_risk":1,"updated_at":"2026-04-03T22:15:10.446660+05:30"},{"city":"Bareilly","state":"Uttar Pradesh","latitude":28.367,"longitude":79.4304,"temp":24.1,"humidity":75,"rain":0.0,"pressure":988.9,"uv_index":6.25,"wind_gusts":19.1,"aqi":135,"pm10":93.1,"pm2_5":51.6,"mosquito_risk":3,"arthritis_risk":5,"migraine_risk":7,"frizz_risk":1,"updated_at":"2026-04-03T22:15:10.446666+05:30"},{"city":"Aligarh","state":"Uttar Pradesh","latitude":27.8974,"longitude":78.088,"temp":24.2,"humidity":62,"rain":0.0,"pressure":988.0,"uv_index":7.1,"wind_gusts":28.1,"aqi":596,"pm10":460.1,"pm2_5":77.1,"mosquito_risk":3,"arthritis_risk":5,"migraine_risk":7,"frizz_risk":1,"updated_at":"2026-04-03T22:15:10.446672+05:30"},{"city":"Moradabad","state":"Uttar Pradesh","latitude":28.8386,"longitude":78.7733,"temp":23.3,"humidity":81,"rain":0.0,"pressure":986.0,"uv_index":6.05,"wind_gusts":20.5,"aqi":147,"pm10":158.3,"pm2_5":59.4,"mosquito_risk":3,"arthritis_risk":5,"migraine_risk":7,"frizz_risk":1,"updated_at":"2026-04-03T22:15:10.446678+05:30"},{"city":"Saharanpur","state":"Uttar Pradesh","latitude":29.9637,"longitude":77.546,"temp":23.0,"humidity":74,"rain":0.0,"pressure":978.7,"uv_index":6.55,"wind_gusts":29.9,"aqi":131,"pm10":163.0,"pm2_5":56.2,"mosquito_risk":3,"arthritis_risk":5,"migraine_risk":7,"frizz_risk":1,"updated_at":"2026-04-03T22:15:10.446685+05:30"},{"city":"Jhansi","state":"Uttar Pradesh","latitude":25.4484,"longitude":78.5685,"temp":26.7,"humidity":54,"rain":0.0,"pressure":980.7,"uv_index":7.7,"wind_gusts":40.3,"aqi":81,"pm10":37.0,"pm2_5":23.3,"mosquito_risk":4,"arthritis_risk":5,"migraine_risk":7,"frizz_risk":1,"updated_at":"2026-04-03T22:15:13.749735+05:30"},{"city":"Surat","state":"Gujarat","latitude":21.1702,"longitude":72.8311,"temp":27.0,"humidity":82,"rain":0.0,"pressure":1009.0,"uv_index":7.65,"wind_gusts":30.6,"aqi":94,"pm10":40.3,"pm2_5":24.9,"mosquito_risk":7,"arthritis_risk":0,"migraine_risk":4,"frizz_risk":1,"updated_at":"2026-04-03T22:15:13.749761+05:30"},{"city":"Vadodara","state":"Gujarat","latitude":22.3072,"longitude":73.1812,"temp":27.3,"humidity":65,"rain":0.0,"pressure":1006.4,"uv_index":7.85,"wind_gusts":33.1,"aqi":77,"pm10":50.4,"pm2_5":27.1,"mosquito_risk":7,"arthritis_risk":5,"migraine_risk":4,"frizz_risk":1,"updated_at":"2026-04-03T22:15:13.749770+05:30"},{"city":"Rajkot","state":"Gujarat","latitude":22.3039,"longitude":70.8022,"temp":25.5,"humidity":69,"rain":0.0,"pressure":996.5,"uv_index":7.15,"wind_gusts":45.4,"aqi":61,"pm10":16.1,"pm2_5":9.0,"mosquito_risk":7,"arthritis_risk":5,"migraine_risk":7,"frizz_risk":1,"updated_at":"2026-04-03T22:15:13.749779+05:30"},{"city":"Thane","state":"Maharashtra","latitude":19.2183,"longitude":72.9781,"temp":26.9,"humidity":79,"rain":0.0,"pressure":1010.5,"uv_index":7.6,"wind_gusts":37.1,"aqi":78,"pm10":56.6,"pm2_5":22.5,"mosquito_risk":7,"arthritis_risk":0,"migraine_risk":4,"frizz_risk":1,"updated_at":"2026-04-03T22:15:13.749786+05:30"},{"city":"Nagpur","state":"Maharashtra","latitude":21.1458,"longitude":79.0882,"temp":27.6,"humidity":70,"rain":0.0,"pressure":975.4,"uv_index":8.7,"wind_gusts":23.4,"aqi":116,"pm10":46.7,"pm2_5":40.4,"mosquito_risk":7,"arthritis_risk":5,"migraine_risk":7,"frizz_risk":1,"updated_at":"2026-04-03T22:15:13.749794+05:30"},{"city":"Nashik","state":"Maharashtra","latitude":19.9975,"longitude":73.7898,"temp":23.1,"humidity":79,"rain":0.0,"pressure":947.9,"uv_index":7.95,"wind_gusts":40.0,"aqi":66,"pm10":34.3,"pm2_5":17.8,"mosquito_risk":3,"arthritis_risk":5,"migraine_risk":7,"frizz_risk":1,"updated_at":"2026-04-03T22:15:13.749802+05:30"},{"city":"Aurangabad","state":"Maharashtra","latitude":19.8762,"longitude":75.3433,"temp":26.4,"humidity":55,"rain":0.0,"pressure":946.2,"uv_index":8.85,"wind_gusts":30.2,"aqi":99,"pm10":46.3,"pm2_5":40.4,"mosquito_risk":4,"arthritis_risk":5,"migraine_risk":7,"frizz_risk":1,"updated_at":"2026-04-03T22:15:13.749809+05:30"},{"city":"Solapur","state":"Maharashtra","latitude":17.6599,"longitude":75.9064,"temp":26.7,"humidity":63,"rain":0.0,"pressure":959.3,"uv_index":8.95,"wind_gusts":31.7,"aqi":130,"pm10":47.7,"pm2_5":41.8,"mosquito_risk":7,"arthritis_risk":5,"migraine_risk":7,"frizz_risk":1,"updated_at":"2026-04-03T22:15:13.749818+05:30"},{"city":"Kolhapur","state":"Maharashtra","latitude":16.705,"longitude":74.2433,"temp":23.4,"humidity":85,"rain":0.0,"pressure":949.9,"uv_index":8.95,"wind_gusts":34.6,"aqi":134,"pm10":39.3,"pm2_5":36.3,"mosquito_risk":3,"arthritis_risk":5,"migraine_risk":7,"frizz_risk":1,"updated_at":"2026-04-03T22:15:13.749825+05:30"},{"city":"Goa","state":"Goa","latitude":15.2993,"longitude":74.124,"temp":28.6,"humidity":73,"rain":0.0,"pressure":1000.4,"uv_index":9.0,"wind_gusts":31.7,"aqi":77,"pm10":30.3,"pm2_5":23.8,"mosquito_risk":7,"arthritis_risk":5,"migraine_risk":4,"frizz_risk":1,"updated_at":"2026-04-03T22:15:13.749833+05:30"},{"city":"Jodhpur","state":"Rajasthan","latitude":26.2389,"longitude":73.0243,"temp":23.5,"humidity":60,"rain":0.0,"pressure":985.4,"uv_index":6.9,"wind_gusts":44.6,"aqi":139,"pm10":206.3,"pm2_5":33.4,"mosquito_risk":0,"arthritis_risk":5,"migraine_risk":7,"frizz_risk":0,"updated_at":"2026-04-03T22:15:13.749840+05:30"},{"city":"Udaipur","state":"Rajasthan","latitude":24.5854,"longitude":73.7125,"temp":22.5,"humidity":59,"rain":0.0,"pressure":948.3,"uv_index":8.1,"wind_gusts":54.7,"aqi":53,"pm10":35.9,"pm2_5":13.7,"mosquito_risk":0,"arthritis_risk":5,"migraine_risk":7,"frizz_risk":0,"updated_at":"2026-04-03T22:15:13.749847+05:30"},{"city":"Kota","state":"Rajasthan","latitude":25.2138,"longitude":75.8648,"temp":27.2,"humidity":56,"rain":0.0,"pressure":981.3,"uv_index":7.85,"wind_gusts":48.2,"aqi":55,"pm10":40.2,"pm2_5":20.5,"mosquito_risk":4,"arthritis_risk":5,"migraine_risk":7,"frizz_risk":1,"updated_at":"2026-04-03T22:15:13.749855+05:30"},{"city":"Bikaner","state":"Rajasthan","latitude":28.0229,"longitude":73.3119,"temp":20.5,"humidity":75,"rain":0.0,"pressure":984.5,"uv_index":7.15,"wind_gusts":54.7,"aqi":65,"pm10":95.2,"pm2_5":25.6,"mosquito_risk":3,"arthritis_risk":5,"migraine_risk":7,"frizz_risk":0,"updated_at":"2026-04-03T22:15:13.749862+05:30"},{"city":"Ajmer","state":"Rajasthan","latitude":26.4499,"longitude":74.6399,"temp":22.9,"humidity":76,"rain":0.0,"pressure":956.8,"uv_index":7.55,"wind_gusts":59.8,"aqi":83,"pm10":48.1,"pm2_5":19.2,"mosquito_risk":3,"arthritis_risk":5,"migraine_risk":7,"frizz_risk":1,"updated_at":"2026-04-03T22:15:13.749870+05:30"},{"city":"Gwalior","state":"Madhya Pradesh","latitude":26.2183,"longitude":78.1828,"temp":25.2,"humidity":67,"rain":0.0,"pressure":986.7,"uv_index":7.65,"wind_gusts":42.1,"aqi":68,"pm10":90.6,"pm2_5":32.6,"mosquito_risk":7,"arthritis_risk":5,"migraine_risk":7,"frizz_risk":1,"updated_at":"2026-04-03T22:15:13.749877+05:30"},{"city":"Indore","state":"Madhya Pradesh","latitude":22.7196,"longitude":75.8577,"temp":24.9,"humidity":62,"rain":0.0,"pressure":950.2,"uv_index":8.3,"wind_gusts":37.1,"aqi":74,"pm10":28.2,"pm2_5":21.2,"mosquito_risk":3,"arthritis_risk":5,"migraine_risk":7,"frizz_risk":1,"updated_at":"2026-04-03T22:15:13.749885+05:30"},{"city":"Bhopal","state":"Madhya Pradesh","latitude":23.2599,"longitude":77.4126,"temp":26.9,"humidity":55,"rain":0.0,"pressure":955.8,"uv_index":7.9,"wind_gusts":31.7,"aqi":72,"pm10":36.8,"pm2_5":32.5,"mosquito_risk":4,"arthritis_risk":5,"migraine_risk":7,"frizz_risk":1,"updated_at":"2026-04-03T22:15:13.749892+05:30"},{"city":"Jabalpur","state":"Madhya Pradesh","latitude":23.1815,"longitude":79.9864,"temp":27.7,"humidity":57,"rain":0.0,"pressure":964.4,"uv_index":8.3,"wind_gusts":29.5,"aqi":89,"pm10":38.3,"pm2_5":33.8,"mosquito_risk":4,"arthritis_risk":5,"migraine_risk":7,"frizz_risk":1,"updated_at":"2026-04-03T22:15:13.749899+05:30"},{"city":"Ujjain","state":"Madhya Pradesh","latitude":23.1765,"longitude":75.7885,"temp":25.0,"humidity":63,"rain":0.0,"pressure":956.0,"uv_index":8.2,"wind_gusts":36.0,"aqi":71,"pm10":26.3,"pm2_5":17.5,"mosquito_risk":7,"arthritis_risk":5,"migraine_risk":7,"frizz_risk":1,"updated_at":"2026-04-03T22:15:13.749907+05:30"},{"city":"Visakhapatnam","state":"Andhra Pradesh","latitude":17.6868,"longitude":83.2185,"temp":27.1,"humidity":89,"rain":0.0,"pressure":1006.3,"uv_index":9.0,"wind_gusts":41.8,"aqi":59,"pm10":14.4,"pm2_5":12.2,"mosquito_risk":7,"arthritis_risk":5,"migraine_risk":4,"frizz_risk":1,"updated_at":"2026-04-03T22:15:13.749919+05:30"},{"city":"Vijayawada","state":"Andhra Pradesh","latitude":16.5062,"longitude":80.648,"temp":27.9,"humidity":75,"rain":0.0,"pressure":1004.5,"uv_index":8.5,"wind_gusts":25.9,"aqi":45,"pm10":10.7,"pm2_5":9.8,"mosquito_risk":7,"arthritis_risk":5,"migraine_risk":4,"frizz_risk":1,"updated_at":"2026-04-03T22:15:13.749926+05:30"},{"city":"Guntur","state":"Andhra Pradesh","latitude":16.3067,"longitude":80.4365,"temp":27.2,"humidity":85,"rain":0.0,"pressure":1005.7,"uv_index":8.45,"wind_gusts":32.8,"aqi":43,"pm10":11.6,"pm2_5":10.8,"mosquito_risk":7,"arthritis_risk":5,"migraine_risk":4,"frizz_risk":1,"updated_at":"2026-04-03T22:15:13.749934+05:30"},{"city":"Nellore","state":"Andhra Pradesh","latitude":14.4426,"longitude":79.9865,"temp":27.5,"humidity":86,"rain":0.0,"pressure":1008.1,"uv_index":9.25,"wind_gusts":34.2,"aqi":62,"pm10":8.7,"pm2_5":6.5,"mosquito_risk":7,"arthritis_risk":0,"migraine_risk":4,"frizz_risk":1,"updated_at":"2026-04-03T22:15:13.749941+05:30"},{"city":"Kurnool","state":"Andhra Pradesh","latitude":15.8281,"longitude":78.0373,"temp":31.9,"humidity":36,"rain":0.0,"pressure":977.3,"uv_index":8.8,"wind_gusts":20.5,"aqi":67,"pm10":35.0,"pm2_5":28.1,"mosquito_risk":0,"arthritis_risk":5,"migraine_risk":7,"frizz_risk":0,"updated_at":"2026-04-03T22:15:13.749950+05:30"},{"city":"Kakinada","state":"Andhra Pradesh","latitude":16.9891,"longitude":82.2475,"temp":26.4,"humidity":89,"rain":0.0,"pressure":1009.8,"uv_index":8.85,"wind_gusts":39.6,"aqi":32,"pm10":6.9,"pm2_5":5.0,"mosquito_risk":7,"arthritis_risk":0,"migraine_risk":4,"frizz_risk":1,"updated_at":"2026-04-03T22:15:13.749957+05:30"},{"city":"Tirupati","state":"Andhra Pradesh","latitude":13.6288,"longitude":79.4192,"temp":27.6,"humidity":61,"rain":0.0,"pressure":994.2,"uv_index":9.35,"wind_gusts":28.1,"aqi":73,"pm10":17.6,"pm2_5":16.7,"mosquito_risk":7,"arthritis_risk":5,"migraine_risk":7,"frizz_risk":1,"updated_at":"2026-04-03T22:15:13.749964+05:30"},{"city":"Warangal","state":"Telangana","latitude":17.9689,"longitude":79.5941,"temp":30.4,"humidity":59,"rain":0.0,"pressure":979.7,"uv_index":8.75,"wind_gusts":17.6,"aqi":71,"pm10":49.4,"pm2_5":45.5,"mosquito_risk":0,"arthritis_risk":5,"migraine_risk":7,"frizz_risk":1,"updated_at":"2026-04-03T22:15:13.749972+05:30"},{"city":"Nizamabad","state":"Telangana","latitude":18.6725,"longitude":78.0941,"temp":29.0,"humidity":60,"rain":0.0,"pressure":966.2,"uv_index":8.4,"wind_gusts":30.6,"aqi":107,"pm10":66.1,"pm2_5":58.7,"mosquito_risk":4,"arthritis_risk":5,"migraine_risk":7,"frizz_risk":1,"updated_at":"2026-04-03T22:15:13.749979+05:30"},{"city":"Mysore","state":"Karnataka","latitude":12.2958,"longitude":76.6396,"temp":24.4,"humidity":81,"rain":0.0,"pressure":930.6,"uv_index":9.5,"wind_gusts":40.0,"aqi":119,"pm10":29.4,"pm2_5":27.0,"mosquito_risk":3,"arthritis_risk":5,"migraine_risk":7,"frizz_risk":1,"updated_at":"2026-04-03T22:15:13.749987+05:30"},{"city":"Mangalore","state":"Karnataka","latitude":12.9141,"longitude":74.856,"temp":29.3,"humidity":82,"rain":0.0,"pressure":1008.9,"uv_index":9.15,"wind_gusts":24.5,"aqi":71,"pm10":22.5,"pm2_5":17.8,"mosquito_risk":7,"arthritis_risk":0,"migraine_risk":4,"frizz_risk":1,"updated_at":"2026-04-03T22:15:13.749994+05:30"},{"city":"Hubli-Dharwad","state":"Karnataka","latitude":15.3647,"longitude":75.124,"temp":24.6,"humidity":84,"rain":0.0,"pressure":942.9,"uv_index":9.2,"wind_gusts":38.9,"aqi":135,"pm10":22.6,"pm2_5":21.4,"mosquito_risk":3,"arthritis_risk":5,"migraine_risk":7,"frizz_risk":1,"updated_at":"2026-04-03T22:15:13.750001+05:30"},{"city":"Belgaum","state":"Karnataka","latitude":15.8497,"longitude":74.4977,"temp":23.0,"humidity":90,"rain":0.0,"pressure":927.6,"uv_index":9.25,"wind_gusts":33.1,"aqi":122,"pm10":27.7,"pm2_5":25.1,"mosquito_risk":3,"arthritis_risk":5,"migraine_risk":7,"frizz_risk":1,"updated_at":"2026-04-03T22:15:16.967927+05:30"},{"city":"Coimbatore","state":"Tamil Nadu","latitude":11.0168,"longitude":76.9558,"temp":26.2,"humidity":74,"rain":0.0,"pressure":963.8,"uv_index":9.45,"wind_gusts":51.1,"aqi":105,"pm10":27.1,"pm2_5":25.4,"mosquito_risk":7,"arthritis_risk":5,"migraine_risk":7,"frizz_risk":1,"updated_at":"2026-04-03T22:15:16.967956+05:30"},{"city":"Madurai","state":"Tamil Nadu","latitude":9.9252,"longitude":78.1198,"temp":25.9,"humidity":80,"rain":0.0,"pressure":996.3,"uv_index":9.2,"wind_gusts":37.1,"aqi":87,"pm10":18.9,"pm2_5":17.9,"mosquito_risk":7,"arthritis_risk":5,"migraine_risk":7,"frizz_risk":1,"updated_at":"2026-04-03T22:15:16.967969+05:30"},{"city":"Trichy","state":"Tamil Nadu","latitude":10.7905,"longitude":78.7047,"temp":28.8,"humidity":76,"rain":0.0,"pressure":1002.5,"uv_index":9.4,"wind_gusts":30.2,"aqi":79,"pm10":14.1,"pm2_5":13.5,"mosquito_risk":7,"arthritis_risk":5,"migraine_risk":4,"frizz_risk":1,"updated_at":"2026-04-03T22:15:16.967980+05:30"},{"city":"Salem","state":"Tamil Nadu","latitude":11.6643,"longitude":78.146,"temp":30.9,"humidity":51,"rain":0.0,"pressure":979.3,"uv_index":9.45,"wind_gusts":38.5,"aqi":114,"pm10":18.9,"pm2_5":17.8,"mosquito_risk":0,"arthritis_risk":5,"migraine_risk":7,"frizz_risk":1,"updated_at":"2026-04-03T22:15:16.967989+05:30"},{"city":"Tirunelveli","state":"Tamil Nadu","latitude":8.7139,"longitude":77.7567,"temp":27.4,"humidity":85,"rain":0.0,"pressure":1006.2,"uv_index":9.35,"wind_gusts":37.1,"aqi":66,"pm10":22.5,"pm2_5":21.0,"mosquito_risk":7,"arthritis_risk":5,"migraine_risk":4,"frizz_risk":1,"updated_at":"2026-04-03T22:15:16.967998+05:30"},{"city":"Vellore","state":"Tamil Nadu","latitude":12.9165,"longitude":79.1325,"temp":27.7,"humidity":68,"rain":0.0,"pressure":987.0,"uv_index":9.4,"wind_gusts":29.5,"aqi":111,"pm10":25.3,"pm2_5":24.6,"mosquito_risk":7,"arthritis_risk":5,"migraine_risk":7,"frizz_risk":1,"updated_at":"2026-04-03T22:15:16.968006+05:30"},{"city":"Erode","state":"Tamil Nadu","latitude":11.341,"longitude":77.7172,"temp":29.7,"humidity":61,"rain":0.0,"pressure":991.3,"uv_index":9.4,"wind_gusts":40.3,"aqi":109,"pm10":25.6,"pm2_5":23.8,"mosquito_risk":7,"arthritis_risk":5,"migraine_risk":7,"frizz_risk":1,"updated_at":"2026-04-03T22:15:16.968012+05:30"},{"city":"Kochi","state":"Kerala","latitude":9.9312,"longitude":76.2673,"temp":28.4,"humidity":82,"rain":0.0,"pressure":1011.3,"uv_index":9.05,"wind_gusts":24.1,"aqi":80,"pm10":26.7,"pm2_5":25.0,"mosquito_risk":7,"arthritis_risk":0,"migraine_risk":4,"frizz_risk":1,"updated_at":"2026-04-03T22:15:16.968019+05:30"},{"city":"Thiruvananthapuram","state":"Kerala","latitude":8.5241,"longitude":76.9366,"temp":28.5,"humidity":79,"rain":0.0,"pressure":1010.6,"uv_index":9.0,"wind_gusts":23.8,"aqi":83,"pm10":22.2,"pm2_5":17.9,"mosquito_risk":7,"arthritis_risk":0,"migraine_risk":4,"frizz_risk":1,"updated_at":"2026-04-03T22:15:16.968025+05:30"},{"city":"Kozhikode","state":"Kerala","latitude":11.2588,"longitude":75.7804,"temp":29.1,"humidity":80,"rain":0.0,"pressure":1010.2,"uv_index":9.15,"wind_gusts":25.2,"aqi":60,"pm10":19.0,"pm2_5":15.7,"mosquito_risk":7,"arthritis_risk":0,"migraine_risk":4,"frizz_risk":1,"updated_at":"2026-04-03T22:15:16.968032+05:30"},{"city":"Thrissur","state":"Kerala","latitude":10.5276,"longitude":76.2144,"temp":28.7,"humidity":83,"rain":0.0,"pressure":1009.4,"uv_index":9.2,"wind_gusts":30.2,"aqi":67,"pm10":27.6,"pm2_5":26.0,"mosquito_risk":7,"arthritis_risk":0,"migraine_risk":4,"frizz_risk":1,"updated_at":"2026-04-03T22:15:16.968039+05:30"},{"city":"Kannur","state":"Kerala","latitude":11.8745,"longitude":75.3704,"temp":29.0,"humidity":77,"rain":0.0,"pressure":1009.5,"uv_index":9.15,"wind_gusts":27.4,"aqi":70,"pm10":33.2,"pm2_5":29.8,"mosquito_risk":7,"arthritis_risk":0,"migraine_risk":4,"frizz_risk":1,"updated_at":"2026-04-03T22:15:16.968046+05:30"},{"city":"Patna","state":"Bihar","latitude":25.5941,"longitude":85.1376,"temp":28.4,"humidity":57,"rain":0.0,"pressure":1000.7,"uv_index":8.3,"wind_gusts":36.4,"aqi":114,"pm10":27.3,"pm2_5":25.9,"mosquito_risk":4,"arthritis_risk":5,"migraine_risk":4,"frizz_risk":1,"updated_at":"2026-04-03T22:15:16.968053+05:30"},{"city":"Gaya","state":"Bihar","latitude":24.7914,"longitude":85.0002,"temp":27.6,"humidity":62,"rain":0.0,"pressure":994.9,"uv_index":8.4,"wind_gusts":27.0,"aqi":117,"pm10":32.0,"pm2_5":29.8,"mosquito_risk":7,"arthritis_risk":5,"migraine_risk":7,"frizz_risk":1,"updated_at":"2026-04-03T22:15:16.968059+05:30"},{"city":"Muzaffarpur","state":"Bihar","latitude":26.1209,"longitude":85.3647,"temp":26.8,"humidity":58,"rain":0.0,"pressure":1000.5,"uv_index":8.25,"wind_gusts":39.2,"aqi":99,"pm10":25.3,"pm2_5":23.2,"mosquito_risk":4,"arthritis_risk":5,"migraine_risk":4,"frizz_risk":1,"updated_at":"2026-04-03T22:15:16.968066+05:30"},{"city":"Bhagalpur","state":"Bihar","latitude":25.2425,"longitude":87.0117,"temp":27.6,"humidity":61,"rain":0.0,"pressure":1000.8,"uv_index":8.3,"wind_gusts":23.8,"aqi":99,"pm10":35.5,"pm2_5":28.2,"mosquito_risk":7,"arthritis_risk":5,"migraine_risk":4,"frizz_risk":1,"updated_at":"2026-04-03T22:15:16.968073+05:30"},{"city":"Ranchi","state":"Jharkhand","latitude":23.3441,"longitude":85.3096,"temp":26.7,"humidity":51,"rain":0.0,"pressure":939.9,"uv_index":8.95,"wind_gusts":26.6,"aqi":101,"pm10":32.1,"pm2_5":26.8,"mosquito_risk":4,"arthritis_risk":5,"migraine_risk":7,"frizz_risk":0,"updated_at":"2026-04-03T22:15:16.968080+05:30"},{"city":"Jamshedpur","state":"Jharkhand","latitude":22.8046,"longitude":86.2029,"temp":29.7,"humidity":58,"rain":0.0,"pressure":991.8,"uv_index":8.8,"wind_gusts":23.4,"aqi":119,"pm10":36.9,"pm2_5":32.2,"mosquito_risk":4,"arthritis_risk":5,"migraine_risk":7,"frizz_risk":1,"updated_at":"2026-04-03T22:15:16.968086+05:30"},{"city":"Dhanbad","state":"Jharkhand","latitude":23.7957,"longitude":86.4304,"temp":30.4,"humidity":46,"rain":0.0,"pressure":980.7,"uv_index":8.7,"wind_gusts":21.6,"aqi":150,"pm10":40.0,"pm2_5":36.7,"mosquito_risk":0,"arthritis_risk":5,"migraine_risk":7,"frizz_risk":1,"updated_at":"2026-04-03T22:15:16.968093+05:30"},{"city":"Bokaro","state":"Jharkhand","latitude":23.6693,"longitude":86.1511,"temp":31.3,"humidity":44,"rain":0.0,"pressure":985.1,"uv_index":8.7,"wind_gusts":19.8,"aqi":147,"pm10":43.3,"pm2_5":39.5,"mosquito_risk":0,"arthritis_risk":5,"migraine_risk":7,"frizz_risk":1,"updated_at":"2026-04-03T22:15:16.968099+05:30"},{"city":"Bhubaneswar","state":"Odisha","latitude":20.2961,"longitude":85.8245,"temp":27.6,"humidity":88,"rain":0.0,"pressure":1004.3,"uv_index":8.95,"wind_gusts":30.2,"aqi":84,"pm10":15.7,"pm2_5":14.2,"mosquito_risk":7,"arthritis_risk":5,"migraine_risk":4,"frizz_risk":1,"updated_at":"2026-04-03T22:15:16.968106+05:30"},{"city":"Cuttack","state":"Odisha","latitude":20.4625,"longitude":85.8828,"temp":28.3,"humidity":83,"rain":0.0,"pressure":1006.1,"uv_index":9.0,"wind_gusts":37.8,"aqi":84,"pm10":15.7,"pm2_5":14.2,"mosquito_risk":7,"arthritis_risk":5,"migraine_risk":4,"frizz_risk":1,"updated_at":"2026-04-03T22:15:16.968113+05:30"},{"city":"Rourkela","state":"Odisha","latitude":22.2604,"longitude":84.8536,"temp":29.7,"humidity":55,"rain":0.0,"pressure":986.4,"uv_index":8.7,"wind_gusts":26.6,"aqi":126,"pm10":49.0,"pm2_5":44.2,"mosquito_risk":4,"arthritis_risk":5,"migraine_risk":7,"frizz_risk":1,"updated_at":"2026-04-03T22:15:16.968119+05:30"},{"city":"Raipur","state":"Chhattisgarh","latitude":21.2514,"longitude":81.6296,"temp":29.5,"humidity":54,"rain":0.0,"pressure":976.6,"uv_index":8.8,"wind_gusts":33.8,"aqi":144,"pm10":85.7,"pm2_5":80.6,"mosquito_risk":4,"arthritis_risk":5,"migraine_risk":7,"frizz_risk":1,"updated_at":"2026-04-03T22:15:16.968126+05:30"},{"city":"Bhilai","state":"Chhattisgarh","latitude":21.1938,"longitude":81.3509,"temp":28.0,"humidity":59,"rain":0.0,"pressure":977.0,"uv_index":8.8,"wind_gusts":27.7,"aqi":118,"pm10":61.7,"pm2_5":57.2,"mosquito_risk":4,"arthritis_risk":5,"migraine_risk":7,"frizz_risk":1,"updated_at":"2026-04-03T22:15:16.968132+05:30"},{"city":"Guwahati","state":"Assam","latitude":26.1158,"longitude":91.7086,"temp":26.4,"humidity":84,"rain":0.0,"pressure":1002.9,"uv_index":8.25,"wind_gusts":43.6,"aqi":143,"pm10":61.5,"pm2_5":55.9,"mosquito_risk":7,"arthritis_risk":5,"migraine_risk":4,"frizz_risk":1,"updated_at":"2026-04-03T22:15:16.968139+05:30"},{"city":"Agartala","state":"Tripura","latitude":23.8315,"longitude":91.2868,"temp":27.5,"humidity":86,"rain":0.0,"pressure":1006.4,"uv_index":8.45,"wind_gusts":23.8,"aqi":70,"pm10":29.5,"pm2_5":26.4,"mosquito_risk":7,"arthritis_risk":5,"migraine_risk":4,"frizz_risk":1,"updated_at":"2026-04-03T22:15:16.968145+05:30"},{"city":"Shillong","state":"Meghalaya","latitude":25.5788,"longitude":91.8933,"temp":15.2,"humidity":87,"rain":0.0,"pressure":857.5,"uv_index":8.55,"wind_gusts":55.1,"aqi":107,"pm10":49.8,"pm2_5":43.9,"mosquito_risk":3,"arthritis_risk":10,"migraine_risk":7,"frizz_risk":0,"updated_at":"2026-04-03T22:15:16.968152+05:30"},{"city":"Imphal","state":"Manipur","latitude":24.817,"longitude":93.9368,"temp":20.0,"humidity":82,"rain":0.0,"pressure":924.8,"uv_index":8.85,"wind_gusts":60.8,"aqi":112,"pm10":73.1,"pm2_5":62.6,"mosquito_risk":3,"arthritis_risk":5,"migraine_risk":7,"frizz_risk":1,"updated_at":"2026-04-03T22:15:16.968159+05:30"},{"city":"Aizawl","state":"Mizoram","latitude":23.7271,"longitude":92.7176,"temp":21.1,"humidity":80,"rain":0.0,"pressure":894.2,"uv_index":8.7,"wind_gusts":52.9,"aqi":117,"pm10":56.3,"pm2_5":42.0,"mosquito_risk":3,"arthritis_risk":5,"migraine_risk":7,"frizz_risk":1,"updated_at":"2026-04-03T22:15:16.968165+05:30"},{"city":"Kohima","state":"Nagaland","latitude":25.6701,"longitude":94.1077,"temp":16.3,"humidity":91,"rain":0.0,"pressure":856.2,"uv_index":8.75,"wind_gusts":80.3,"aqi":100,"pm10":48.3,"pm2_5":41.2,"mosquito_risk":3,"arthritis_risk":10,"migraine_risk":7,"frizz_risk":0,"updated_at":"2026-04-03T22:15:16.968172+05:30"},{"city":"Gangtok","state":"Sikkim","latitude":27.3314,"longitude":88.6138,"temp":16.8,"humidity":91,"rain":0.0,"pressure":838.7,"uv_index":7.55,"wind_gusts":19.1,"aqi":104,"pm10":59.0,"pm2_5":48.7,"mosquito_risk":3,"arthritis_risk":10,"migraine_risk":7,"frizz_risk":0,"updated_at":"2026-04-03T22:15:16.968178+05:30"},{"city":"Siliguri","state":"West Bengal","latitude":26.7271,"longitude":88.3953,"temp":22.9,"humidity":75,"rain":0.0,"pressure":994.5,"uv_index":8.2,"wind_gusts":18.7,"aqi":154,"pm10":85.4,"pm2_5":70.1,"mosquito_risk":3,"arthritis_risk":5,"migraine_risk":7,"frizz_risk":1,"updated_at":"2026-04-03T22:15:20.189259+05:30"},{"city":"Durgapur","state":"West Bengal","latitude":23.5204,"longitude":87.3119,"temp":30.8,"humidity":62,"rain":0.0,"pressure":995.5,"uv_index":8.65,"wind_gusts":17.3,"aqi":158,"pm10":85.7,"pm2_5":79.9,"mosquito_risk":3,"arthritis_risk":5,"migraine_risk":7,"frizz_risk":1,"updated_at":"2026-04-03T22:15:20.189286+05:30"},{"city":"Asansol","state":"West Bengal","latitude":23.6739,"longitude":86.9524,"temp":31.5,"humidity":56,"rain":0.0,"pressure":993.9,"uv_index":8.65,"wind_gusts":16.9,"aqi":139,"pm10":49.5,"pm2_5":44.8,"mosquito_risk":0,"arthritis_risk":5,"migraine_risk":7,"frizz_risk":1,"updated_at":"2026-04-03T22:15:20.189296+05:30"},{"city":"Pondicherry","state":"Puducherry","latitude":11.9139,"longitude":79.8145,"temp":26.8,"humidity":92,"rain":0.0,"pressure":1010.9,"uv_index":9.3,"wind_gusts":34.6,"aqi":47,"pm10":11.4,"pm2_5":8.1,"mosquito_risk":7,"arthritis_risk":0,"migraine_risk":4,"frizz_risk":1,"updated_at":"2026-04-03T22:15:20.189304+05:30"},{"city":"Port Blair","state":"Andaman and Nicobar Islands","latitude":11.6234,"longitude":92.7265,"temp":28.8,"humidity":75,"rain":0.0,"pressure":1009.1,"uv_index":9.2,"wind_gusts":22.7,"aqi":42,"pm10":19.3,"pm2_5":10.4,"mosquito_risk":7,"arthritis_risk":0,"migraine_risk":4,"frizz_risk":1,"updated_at":"2026-04-03T22:15:20.189311+05:30"},{"city":"Haridwar","state":"Uttarakhand","latitude":29.9457,"longitude":78.1642,"temp":22.9,"humidity":79,"rain":0.0,"pressure":977.2,"uv_index":6.15,"wind_gusts":22.0,"aqi":122,"pm10":122.5,"pm2_5":57.6,"mosquito_risk":3,"arthritis_risk":5,"migraine_risk":7,"frizz_risk":1,"updated_at":"2026-04-03T22:15:20.189318+05:30"},{"city":"Rishikesh","state":"Uttarakhand","latitude":30.0869,"longitude":78.2676,"temp":21.9,"humidity":71,"rain":0.0,"pressure":970.0,"uv_index":5.6,"wind_gusts":23.8,"aqi":128,"pm10":93.4,"pm2_5":43.3,"mosquito_risk":3,"arthritis_risk":5,"migraine_risk":3,"frizz_risk":1,"updated_at":"2026-04-03T22:15:20.189325+05:30"},{"city":"Nainital","state":"Uttarakhand","latitude":29.3919,"longitude":79.4542,"temp":19.2,"humidity":50,"rain":0.0,"pressure":808.7,"uv_index":5.0,"wind_gusts":36.4,"aqi":113,"pm10":60.1,"pm2_5":31.4,"mosquito_risk":0,"arthritis_risk":5,"migraine_risk":3,"frizz_risk":0,"updated_at":"2026-04-03T22:15:20.189332+05:30"},{"city":"Mussoorie","state":"Uttarakhand","latitude":30.4599,"longitude":78.0664,"temp":16.7,"humidity":63,"rain":0.0,"pressure":805.0,"uv_index":5.6,"wind_gusts":45.0,"aqi":122,"pm10":69.2,"pm2_5":40.3,"mosquito_risk":3,"arthritis_risk":5,"migraine_risk":3,"frizz_risk":0,"updated_at":"2026-04-03T22:15:20.189339+05:30"},{"city":"Dharamshala","state":"Himachal Pradesh","latitude":32.219,"longitude":76.3234,"temp":16.9,"humidity":78,"rain":0.0,"pressure":870.9,"uv_index":4.55,"wind_gusts":48.6,"aqi":51,"pm10":12.3,"pm2_5":6.8,"mosquito_risk":3,"arthritis_risk":5,"migraine_risk":3,"frizz_risk":0,"updated_at":"2026-04-03T22:15:20.189345+05:30"},{"city":"Dalhousie","state":"Himachal Pradesh","latitude":32.5387,"longitude":75.971,"temp":13.1,"humidity":87,"rain":0.3,"pressure":804.6,"uv_index":4.95,"wind_gusts":43.6,"aqi":57,"pm10":26.2,"pm2_5":19.3,"mosquito_risk":6,"arthritis_risk":10,"migraine_risk":3,"frizz_risk":0,"updated_at":"2026-04-03T22:15:20.189353+05:30"},{"city":"Patiala","state":"Punjab","latitude":30.3398,"longitude":76.3869,"temp":20.7,"humidity":85,"rain":0.0,"pressure":981.5,"uv_index":5.55,"wind_gusts":42.8,"aqi":126,"pm10":176.0,"pm2_5":42.0,"mosquito_risk":3,"arthritis_risk":5,"migraine_risk":3,"frizz_risk":1,"updated_at":"2026-04-03T22:15:20.189360+05:30"},{"city":"Bhatinda","state":"Punjab","latitude":30.211,"longitude":74.9455,"temp":20.3,"humidity":90,"rain":0.0,"pressure":986.6,"uv_index":6.45,"wind_gusts":44.6,"aqi":85,"pm10":119.2,"pm2_5":31.2,"mosquito_risk":3,"arthritis_risk":5,"migraine_risk":7,"frizz_risk":1,"updated_at":"2026-04-03T22:15:20.189367+05:30"},{"city":"Rohtak","state":"Haryana","latitude":28.8955,"longitude":76.6066,"temp":22.3,"humidity":78,"rain":0.0,"pressure":984.6,"uv_index":5.9,"wind_gusts":31.7,"aqi":463,"pm10":221.2,"pm2_5":50.5,"mosquito_risk":3,"arthritis_risk":5,"migraine_risk":3,"frizz_risk":1,"updated_at":"2026-04-03T22:15:20.189374+05:30"},{"city":"Panipat","state":"Haryana","latitude":29.3909,"longitude":76.9635,"temp":21.8,"humidity":78,"rain":0.0,"pressure":983.5,"uv_index":6.2,"wind_gusts":43.9,"aqi":795,"pm10":692.9,"pm2_5":84.1,"mosquito_risk":3,"arthritis_risk":5,"migraine_risk":7,"frizz_risk":1,"updated_at":"2026-04-03T22:15:20.189381+05:30"},{"city":"Mathura","state":"Uttar Pradesh","latitude":27.4924,"longitude":77.6737,"temp":25.7,"humidity":56,"rain":0.0,"pressure":989.6,"uv_index":7.25,"wind_gusts":31.7,"aqi":618,"pm10":201.2,"pm2_5":45.1,"mosquito_risk":4,"arthritis_risk":5,"migraine_risk":7,"frizz_risk":1,"updated_at":"2026-04-03T22:15:20.189422+05:30"},{"city":"Vrindavan","state":"Uttar Pradesh","latitude":27.5823,"longitude":77.7027,"temp":25.0,"humidity":58,"rain":0.0,"pressure":990.0,"uv_index":7.2,"wind_gusts":34.9,"aqi":618,"pm10":201.2,"pm2_5":45.1,"mosquito_risk":4,"arthritis_risk":5,"migraine_risk":7,"frizz_risk":1,"updated_at":"2026-04-03T22:15:20.189434+05:30"},{"city":"Ayodhya","state":"Uttar Pradesh","latitude":26.7922,"longitude":82.1998,"temp":25.7,"humidity":66,"rain":0.0,"pressure":996.5,"uv_index":6.6,"wind_gusts":36.0,"aqi":89,"pm10":82.0,"pm2_5":35.3,"mosquito_risk":7,"arthritis_risk":5,"migraine_risk":7,"frizz_risk":1,"updated_at":"2026-04-03T22:15:20.189441+05:30"},{"city":"Ratlam","state":"Madhya Pradesh","latitude":23.3315,"longitude":75.0367,"temp":25.7,"humidity":57,"rain":0.0,"pressure":956.7,"uv_index":8.15,"wind_gusts":42.8,"aqi":68,"pm10":30.5,"pm2_5":18.2,"mosquito_risk":4,"arthritis_risk":5,"migraine_risk":7,"frizz_risk":1,"updated_at":"2026-04-03T22:15:20.189448+05:30"},{"city":"Sagar","state":"Madhya Pradesh","latitude":23.8388,"longitude":78.7378,"temp":27.4,"humidity":51,"rain":0.0,"pressure":952.3,"uv_index":7.5,"wind_gusts":26.6,"aqi":76,"pm10":27.9,"pm2_5":23.5,"mosquito_risk":4,"arthritis_risk":5,"migraine_risk":7,"frizz_risk":1,"updated_at":"2026-04-03T22:15:20.189455+05:30"},{"city":"Satna","state":"Madhya Pradesh","latitude":24.6005,"longitude":80.8322,"temp":27.4,"humidity":59,"rain":0.0,"pressure":973.9,"uv_index":7.65,"wind_gusts":40.7,"aqi":84,"pm10":28.1,"pm2_5":24.7,"mosquito_risk":4,"arthritis_risk":5,"migraine_risk":7,"frizz_risk":1,"updated_at":"2026-04-03T22:15:20.189462+05:30"},{"city":"Akola","state":"Maharashtra","latitude":20.7002,"longitude":77.0082,"temp":28.4,"humidity":59,"rain":0.0,"pressure":977.4,"uv_index":8.6,"wind_gusts":44.6,"aqi":112,"pm10":36.0,"pm2_5":33.1,"mosquito_risk":4,"arthritis_risk":5,"migraine_risk":7,"frizz_risk":1,"updated_at":"2026-04-03T22:15:20.189469+05:30"},{"city":"Amravati","state":"Maharashtra","latitude":20.9374,"longitude":77.7796,"temp":26.9,"humidity":62,"rain":0.0,"pressure":969.8,"uv_index":8.65,"wind_gusts":43.6,"aqi":116,"pm10":38.8,"pm2_5":35.7,"mosquito_risk":7,"arthritis_risk":5,"migraine_risk":7,"frizz_risk":1,"updated_at":"2026-04-03T22:15:20.189477+05:30"},{"city":"Latur","state":"Maharashtra","latitude":18.4088,"longitude":76.5604,"temp":25.6,"humidity":72,"rain":0.0,"pressure":941.8,"uv_index":8.8,"wind_gusts":33.5,"aqi":107,"pm10":43.3,"pm2_5":38.8,"mosquito_risk":7,"arthritis_risk":5,"migraine_risk":7,"frizz_risk":1,"updated_at":"2026-04-03T22:15:20.189484+05:30"},{"city":"Nanded","state":"Maharashtra","latitude":19.1383,"longitude":77.3091,"temp":26.3,"humidity":69,"rain":0.0,"pressure":970.8,"uv_index":8.3,"wind_gusts":39.6,"aqi":110,"pm10":43.9,"pm2_5":40.2,"mosquito_risk":7,"arthritis_risk":5,"migraine_risk":7,"frizz_risk":1,"updated_at":"2026-04-03T22:15:20.189490+05:30"},{"city":"Gulbarga","state":"Karnataka","latitude":17.3297,"longitude":76.8343,"temp":31.0,"humidity":42,"rain":0.0,"pressure":960.4,"uv_index":8.5,"wind_gusts":37.1,"aqi":145,"pm10":23.9,"pm2_5":21.4,"mosquito_risk":0,"arthritis_risk":5,"migraine_risk":7,"frizz_risk":1,"updated_at":"2026-04-03T22:15:20.189497+05:30"},{"city":"Bidar","state":"Karnataka","latitude":17.9104,"longitude":77.5199,"temp":26.6,"humidity":66,"rain":0.0,"pressure":937.5,"uv_index":8.3,"wind_gusts":33.1,"aqi":89,"pm10":46.7,"pm2_5":41.1,"mosquito_risk":7,"arthritis_risk":5,"migraine_risk":7,"frizz_risk":1,"updated_at":"2026-04-03T22:15:20.189504+05:30"},{"city":"Hospet","state":"Karnataka","latitude":15.2689,"longitude":76.3909,"temp":28.7,"humidity":57,"rain":0.0,"pressure":957.3,"uv_index":9.2,"wind_gusts":32.8,"aqi":157,"pm10":40.6,"pm2_5":37.1,"mosquito_risk":4,"arthritis_risk":5,"migraine_risk":7,"frizz_risk":1,"updated_at":"2026-04-03T22:15:20.189511+05:30"},{"city":"Tirupur","state":"Tamil Nadu","latitude":11.1085,"longitude":77.3411,"temp":28.3,"humidity":66,"rain":0.0,"pressure":976.9,"uv_index":9.5,"wind_gusts":41.4,"aqi":129,"pm10":31.0,"pm2_5":29.2,"mosquito_risk":7,"arthritis_risk":5,"migraine_risk":7,"frizz_risk":1,"updated_at":"2026-04-03T22:15:20.189518+05:30"},{"city":"Alappuzha","state":"Kerala","latitude":9.4981,"longitude":76.3388,"temp":28.3,"humidity":81,"rain":0.0,"pressure":1011.4,"uv_index":9.2,"wind_gusts":23.0,"aqi":65,"pm10":24.7,"pm2_5":20.7,"mosquito_risk":7,"arthritis_risk":0,"migraine_risk":4,"frizz_risk":1,"updated_at":"2026-04-03T22:15:20.189524+05:30"},{"city":"Munnar","state":"Kerala","latitude":10.0889,"longitude":77.0595,"temp":21.4,"humidity":92,"rain":0.0,"pressure":859.1,"uv_index":8.0,"wind_gusts":29.2,"aqi":63,"pm10":23.7,"pm2_5":23.0,"mosquito_risk":3,"arthritis_risk":5,"migraine_risk":7,"frizz_risk":1,"updated_at":"2026-04-03T22:15:20.189532+05:30"},{"city":"Silchar","state":"Assam","latitude":24.8333,"longitude":92.7789,"temp":25.8,"humidity":83,"rain":0.0,"pressure":1006.0,"uv_index":8.5,"wind_gusts":29.2,"aqi":150,"pm10":91.0,"pm2_5":76.4,"mosquito_risk":7,"arthritis_risk":5,"migraine_risk":4,"frizz_risk":1,"updated_at":"2026-04-03T22:15:20.189538+05:30"},{"city":"Dibrugarh","state":"Assam","latitude":27.4728,"longitude":94.912,"temp":23.8,"humidity":90,"rain":0.0,"pressure":997.5,"uv_index":8.3,"wind_gusts":12.6,"aqi":98,"pm10":46.4,"pm2_5":41.3,"mosquito_risk":3,"arthritis_risk":5,"migraine_risk":7,"frizz_risk":1,"updated_at":"2026-04-03T22:15:20.189545+05:30"}]