[{"city":"Delhi","state":"Delhi","latitude":28.6139,"longitude":77.209,"temp":40.7,"humidity":13,"rain":0.0,"pressure":980.2,"uv_index":7.75,"wind_gusts":39.2,"aqi":619,"pm10":957.4,"pm2_5":170.9,"no2":10.1,"co":294.0,"o3":128.0,"so2":13.7,"mosquito_risk":0,"arthritis_risk":5,"migraine_risk":10,"frizz_risk":0,"updated_at":"2026-05-19T10:33:37.062164+05:30"},{"city":"Mumbai","state":"Maharashtra","latitude":19.076,"longitude":72.8777,"temp":32.5,"humidity":58,"rain":0.0,"pressure":1008.0,"uv_index":7.15,"wind_gusts":42.5,"aqi":75,"pm10":65.7,"pm2_5":27.2,"no2":6.6,"co":199.0,"o3":106.0,"so2":9.0,"mosquito_risk":0,"arthritis_risk":0,"migraine_risk":4,"frizz_risk":1,"updated_at":"2026-05-19T10:33:37.062208+05:30"},{"city":"Bangalore","state":"Karnataka","latitude":12.9716,"longitude":77.5946,"temp":26.1,"humidity":69,"rain":0.0,"pressure":912.0,"uv_index":9.3,"wind_gusts":35.6,"aqi":64,"pm10":9.4,"pm2_5":8.1,"no2":5.4,"co":349.0,"o3":103.0,"so2":4.7,"mosquito_risk":7,"arthritis_risk":5,"migraine_risk":7,"frizz_risk":1,"updated_at":"2026-05-19T10:33:37.062224+05:30"},{"city":"Hyderabad","state":"Telangana","latitude":17.385,"longitude":78.4867,"temp":34.7,"humidity":45,"rain":0.0,"pressure":952.5,"uv_index":9.25,"wind_gusts":25.6,"aqi":71,"pm10":29.6,"pm2_5":25.7,"no2":3.7,"co":340.0,"o3":142.0,"so2":9.2,"mosquito_risk":0,"arthritis_risk":5,"migraine_risk":7,"frizz_risk":1,"updated_at":"2026-05-19T10:33:37.062233+05:30"},{"city":"Chennai","state":"Tamil Nadu","latitude":13.0827,"longitude":80.2707,"temp":35.4,"humidity":48,"rain":0.0,"pressure":1004.7,"uv_index":9.15,"wind_gusts":38.9,"aqi":61,"pm10":26.8,"pm2_5":23.1,"no2":7.4,"co":364.0,"o3":150.0,"so2":13.4,"mosquito_risk":0,"arthritis_risk":5,"migraine_risk":7,"frizz_risk":1,"updated_at":"2026-05-19T10:33:37.062241+05:30"},{"city":"Kolkata","state":"West Bengal","latitude":22.5726,"longitude":88.3639,"temp":34.2,"humidity":70,"rain":0.0,"pressure":1002.1,"uv_index":8.95,"wind_gusts":33.1,"aqi":72,"pm10":30.2,"pm2_5":23.4,"no2":2.9,"co":373.0,"o3":127.0,"so2":10.8,"mosquito_risk":3,"arthritis_risk":5,"migraine_risk":4,"frizz_risk":1,"updated_at":"2026-05-19T10:33:37.062248+05:30"},{"city":"Pune","state":"Maharashtra","latitude":18.5204,"longitude":73.8567,"temp":33.0,"humidity":35,"rain":0.0,"pressure":948.2,"uv_index":6.3,"wind_gusts":40.0,"aqi":76,"pm10":55.6,"pm2_5":28.0,"no2":4.6,"co":183.0,"o3":122.0,"so2":12.7,"mosquito_risk":0,"arthritis_risk":5,"migraine_risk":7,"frizz_risk":0,"updated_at":"2026-05-19T10:33:37.062255+05:30"},{"city":"Ahmedabad","state":"Gujarat","latitude":23.0225,"longitude":72.5714,"temp":34.8,"humidity":34,"rain":0.0,"pressure":1000.7,"uv_index":8.15,"wind_gusts":34.2,"aqi":65,"pm10":59.6,"pm2_5":20.3,"no2":2.8,"co":193.0,"o3":88.0,"so2":4.5,"mosquito_risk":0,"arthritis_risk":5,"migraine_risk":4,"frizz_risk":1,"updated_at":"2026-05-19T10:33:37.062261+05:30"},{"city":"Jaipur","state":"Rajasthan","latitude":26.9124,"longitude":75.7873,"temp":38.5,"humidity":16,"rain":0.0,"pressure":958.4,"uv_index":8.25,"wind_gusts":37.8,"aqi":180,"pm10":282.2,"pm2_5":52.0,"no2":2.6,"co":179.0,"o3":114.0,"so2":5.3,"mosquito_risk":0,"arthritis_risk":5,"migraine_risk":10,"frizz_risk":0,"updated_at":"2026-05-19T10:33:37.062273+05:30"},{"city":"Lucknow","state":"Uttar Pradesh","latitude":26.8467,"longitude":80.9462,"temp":37.7,"humidity":42,"rain":0.0,"pressure":990.0,"uv_index":8.25,"wind_gusts":34.6,"aqi":172,"pm10":149.0,"pm2_5":62.9,"no2":5.6,"co":430.0,"o3":193.0,"so2":16.8,"mosquito_risk":0,"arthritis_risk":5,"migraine_risk":10,"frizz_risk":1,"updated_at":"2026-05-19T10:33:37.062281+05:30"},{"city":"Kanpur","state":"Uttar Pradesh","latitude":26.4499,"longitude":80.3319,"temp":40.8,"humidity":21,"rain":0.0,"pressure":987.9,"uv_index":8.25,"wind_gusts":40.7,"aqi":475,"pm10":365.1,"pm2_5":81.7,"no2":6.0,"co":232.0,"o3":185.0,"so2":13.4,"mosquito_risk":0,"arthritis_risk":5,"migraine_risk":10,"frizz_risk":0,"updated_at":"2026-05-19T10:33:37.062287+05:30"},{"city":"Chandigarh","state":"Chandigarh","latitude":30.7333,"longitude":76.7794,"temp":36.6,"humidity":28,"rain":0.0,"pressure":966.7,"uv_index":7.75,"wind_gusts":27.4,"aqi":63,"pm10":54.0,"pm2_5":27.2,"no2":4.9,"co":603.0,"o3":188.0,"so2":14.8,"mosquito_risk":0,"arthritis_risk":5,"migraine_risk":10,"frizz_risk":0,"updated_at":"2026-05-19T10:33:37.062294+05:30"},{"city":"Srinagar","state":"Jammu and Kashmir","latitude":34.0837,"longitude":74.7973,"temp":23.5,"humidity":43,"rain":0.0,"pressure":844.8,"uv_index":8.95,"wind_gusts":35.3,"aqi":74,"pm10":45.1,"pm2_5":21.8,"no2":3.7,"co":293.0,"o3":130.0,"so2":5.1,"mosquito_risk":0,"arthritis_risk":5,"migraine_risk":7,"frizz_risk":0,"updated_at":"2026-05-19T10:33:37.062300+05:30"},{"city":"Jammu","state":"Jammu and Kashmir","latitude":32.7266,"longitude":74.857,"temp":37.8,"humidity":28,"rain":0.0,"pressure":969.2,"uv_index":8.55,"wind_gusts":27.4,"aqi":67,"pm10":48.5,"pm2_5":22.3,"no2":5.4,"co":386.0,"o3":150.0,"so2":5.5,"mosquito_risk":0,"arthritis_risk":5,"migraine_risk":10,"frizz_risk":1,"updated_at":"2026-05-19T10:33:37.062307+05:30"},{"city":"Amritsar","state":"Punjab","latitude":31.634,"longitude":74.8723,"temp":38.7,"humidity":24,"rain":0.0,"pressure":976.9,"uv_index":8.45,"wind_gusts":23.4,"aqi":104,"pm10":41.7,"pm2_5":28.3,"no2":9.0,"co":528.0,"o3":169.0,"so2":14.0,"mosquito_risk":0,"arthritis_risk":5,"migraine_risk":10,"frizz_risk":0,"updated_at":"2026-05-19T10:33:37.062313+05:30"},{"city":"Ludhiana","state":"Punjab","latitude":30.901,"longitude":75.8573,"temp":39.2,"humidity":24,"rain":0.0,"pressure":975.4,"uv_index":8.05,"wind_gusts":24.8,"aqi":98,"pm10":117.1,"pm2_5":36.8,"no2":5.2,"co":406.0,"o3":131.0,"so2":6.4,"mosquito_risk":0,"arthritis_risk":5,"migraine_risk":10,"frizz_risk":0,"updated_at":"2026-05-19T10:33:37.062322+05:30"},{"city":"Jalandhar","state":"Punjab","latitude":31.326,"longitude":75.5762,"temp":39.2,"humidity":25,"rain":0.0,"pressure":976.2,"uv_index":8.25,"wind_gusts":26.6,"aqi":113,"pm10":113.4,"pm2_5":40.3,"no2":5.7,"co":497.0,"o3":152.0,"so2":9.7,"mosquito_risk":0,"arthritis_risk":5,"migraine_risk":10,"frizz_risk":0,"updated_at":"2026-05-19T10:33:37.062328+05:30"},{"city":"Dehradun","state":"Uttarakhand","latitude":30.6284,"longitude":78.0322,"temp":25.9,"humidity":44,"rain":0.0,"pressure":833.6,"uv_index":8.2,"wind_gusts":44.3,"aqi":39,"pm10":22.1,"pm2_5":10.0,"no2":0.6,"co":236.0,"o3":152.0,"so2":2.3,"mosquito_risk":4,"arthritis_risk":5,"migraine_risk":7,"frizz_risk":0,"updated_at":"2026-05-19T10:33:37.062334+05:30"},{"city":"Shimla","state":"Himachal Pradesh","latitude":31.1048,"longitude":77.1734,"temp":25.2,"humidity":27,"rain":0.0,"pressure":789.4,"uv_index":8.3,"wind_gusts":45.4,"aqi":56,"pm10":42.1,"pm2_5":15.7,"no2":0.5,"co":254.0,"o3":148.0,"so2":4.2,"mosquito_risk":4,"arthritis_risk":5,"migraine_risk":7,"frizz_risk":0,"updated_at":"2026-05-19T10:33:37.062343+05:30"},{"city":"Manali","state":"Himachal Pradesh","latitude":32.2396,"longitude":77.1887,"temp":25.3,"humidity":32,"rain":0.1,"pressure":822.0,"uv_index":9.65,"wind_gusts":56.2,"aqi":42,"pm10":16.4,"pm2_5":8.3,"no2":9.7,"co":167.0,"o3":126.0,"so2":0.7,"mosquito_risk":7,"arthritis_risk":5,"migraine_risk":7,"frizz_risk":0,"updated_at":"2026-05-19T10:33:37.062349+05:30"},{"city":"Gurgaon","state":"Haryana","latitude":28.4595,"longitude":77.0266,"temp":39.2,"humidity":16,"rain":0.0,"pressure":978.9,"uv_index":7.85,"wind_gusts":34.2,"aqi":1495,"pm10":2034.0,"pm2_5":282.2,"no2":10.5,"co":237.0,"o3":140.0,"so2":14.6,"mosquito_risk":0,"arthritis_risk":5,"migraine_risk":10,"frizz_risk":0,"updated_at":"2026-05-19T10:33:37.062356+05:30"},{"city":"Noida","state":"Uttar Pradesh","latitude":28.5355,"longitude":77.391,"temp":40.0,"humidity":19,"rain":0.0,"pressure":981.4,"uv_index":7.75,"wind_gusts":28.8,"aqi":1495,"pm10":2034.0,"pm2_5":282.2,"no2":10.5,"co":334.0,"o3":140.0,"so2":14.6,"mosquito_risk":0,"arthritis_risk":5,"migraine_risk":10,"frizz_risk":0,"updated_at":"2026-05-19T10:33:37.062364+05:30"},{"city":"Ghaziabad","state":"Uttar Pradesh","latitude":28.6692,"longitude":77.4538,"temp":39.0,"humidity":22,"rain":0.0,"pressure":979.8,"uv_index":7.75,"wind_gusts":37.1,"aqi":501,"pm10":670.6,"pm2_5":131.8,"no2":9.4,"co":256.0,"o3":158.0,"so2":17.7,"mosquito_risk":0,"arthritis_risk":5,"migraine_risk":10,"frizz_risk":0,"updated_at":"2026-05-19T10:33:37.062370+05:30"},{"city":"Faridabad","state":"Haryana","latitude":28.4089,"longitude":77.3178,"temp":40.6,"humidity":15,"rain":0.0,"pressure":980.8,"uv_index":7.8,"wind_gusts":39.2,"aqi":1495,"pm10":2034.0,"pm2_5":282.2,"no2":10.5,"co":265.0,"o3":140.0,"so2":14.6,"mosquito_risk":0,"arthritis_risk":5,"migraine_risk":10,"frizz_risk":0,"updated_at":"2026-05-19T10:33:37.062376+05:30"},{"city":"Meerut","state":"Uttar Pradesh","latitude":28.9845,"longitude":77.7064,"temp":37.5,"humidity":30,"rain":0.0,"pressure":978.9,"uv_index":7.65,"wind_gusts":27.7,"aqi":501,"pm10":670.6,"pm2_5":131.8,"no2":9.4,"co":233.0,"o3":158.0,"so2":17.7,"mosquito_risk":0,"arthritis_risk":5,"migraine_risk":10,"frizz_risk":1,"updated_at":"2026-05-19T10:33:37.062381+05:30"},{"city":"Agra","state":"Uttar Pradesh","latitude":27.1767,"longitude":78.0081,"temp":39.9,"humidity":17,"rain":0.0,"pressure":984.7,"uv_index":8.1,"wind_gusts":35.6,"aqi":722,"pm10":1348.6,"pm2_5":182.1,"no2":4.5,"co":203.0,"o3":139.0,"so2":8.1,"mosquito_risk":0,"arthritis_risk":5,"migraine_risk":10,"frizz_risk":0,"updated_at":"2026-05-19T10:33:37.062387+05:30"},{"city":"Varanasi","state":"Uttar Pradesh","latitude":25.3176,"longitude":82.9739,"temp":37.3,"humidity":45,"rain":0.0,"pressure":994.0,"uv_index":8.7,"wind_gusts":31.7,"aqi":116,"pm10":109.4,"pm2_5":55.4,"no2":4.6,"co":580.0,"o3":193.0,"so2":19.0,"mosquito_risk":0,"arthritis_risk":5,"migraine_risk":10,"frizz_risk":1,"updated_at":"2026-05-19T10:33:37.062394+05:30"},{"city":"Prayagraj","state":"Uttar Pradesh","latitude":25.4358,"longitude":81.8463,"temp":39.2,"humidity":29,"rain":0.0,"pressure":992.1,"uv_index":8.6,"wind_gusts":35.3,"aqi":143,"pm10":134.1,"pm2_5":58.6,"no2":5.5,"co":251.0,"o3":199.0,"so2":18.5,"mosquito_risk":0,"arthritis_risk":5,"migraine_risk":10,"frizz_risk":1,"updated_at":"2026-05-19T10:33:37.062400+05:30"},{"city":"Gorakhpur","state":"Uttar Pradesh","latitude":26.7606,"longitude":83.3732,"temp":33.8,"humidity":56,"rain":0.0,"pressure":994.8,"uv_index":8.6,"wind_gusts":38.5,"aqi":158,"pm10":88.5,"pm2_5":65.4,"no2":3.1,"co":441.0,"o3":165.0,"so2":12.7,"mosquito_risk":0,"arthritis_risk":5,"migraine_risk":7,"frizz_risk":1,"updated_at":"2026-05-19T10:33:37.062408+05:30"},{"city":"Bareilly","state":"Uttar Pradesh","latitude":28.367,"longitude":79.4304,"temp":35.2,"humidity":45,"rain":0.0,"pressure":983.9,"uv_index":8.05,"wind_gusts":28.4,"aqi":127,"pm10":134.1,"pm2_5":55.6,"no2":4.3,"co":486.0,"o3":202.0,"so2":17.4,"mosquito_risk":0,"arthritis_risk":5,"migraine_risk":10,"frizz_risk":1,"updated_at":"2026-05-19T10:33:37.062414+05:30"},{"city":"Aligarh","state":"Uttar Pradesh","latitude":27.8974,"longitude":78.088,"temp":38.7,"humidity":23,"rain":0.0,"pressure":982.5,"uv_index":7.9,"wind_gusts":30.2,"aqi":801,"pm10":1065.4,"pm2_5":174.2,"no2":8.0,"co":201.0,"o3":149.0,"so2":17.5,"mosquito_risk":0,"arthritis_risk":5,"migraine_risk":10,"frizz_risk":0,"updated_at":"2026-05-19T10:33:37.062420+05:30"},{"city":"Moradabad","state":"Uttar Pradesh","latitude":28.8386,"longitude":78.7733,"temp":35.5,"humidity":43,"rain":0.0,"pressure":981.1,"uv_index":7.85,"wind_gusts":25.6,"aqi":162,"pm10":81.0,"pm2_5":41.3,"no2":4.8,"co":605.0,"o3":210.0,"so2":16.6,"mosquito_risk":0,"arthritis_risk":5,"migraine_risk":10,"frizz_risk":1,"updated_at":"2026-05-19T10:33:37.062426+05:30"},{"city":"Saharanpur","state":"Uttar Pradesh","latitude":29.9637,"longitude":77.546,"temp":34.6,"humidity":39,"rain":0.0,"pressure":973.6,"uv_index":7.4,"wind_gusts":29.5,"aqi":97,"pm10":143.9,"pm2_5":54.8,"no2":7.9,"co":489.0,"o3":184.0,"so2":15.2,"mosquito_risk":0,"arthritis_risk":5,"migraine_risk":7,"frizz_risk":1,"updated_at":"2026-05-19T10:33:37.062432+05:30"},{"city":"Jhansi","state":"Uttar Pradesh","latitude":25.4484,"longitude":78.5685,"temp":39.8,"humidity":19,"rain":0.0,"pressure":975.5,"uv_index":8.5,"wind_gusts":33.8,"aqi":66,"pm10":74.3,"pm2_5":21.4,"no2":2.1,"co":171.0,"o3":121.0,"so2":6.2,"mosquito_risk":0,"arthritis_risk":5,"migraine_risk":10,"frizz_risk":0,"updated_at":"2026-05-19T10:33:40.321002+05:30"},{"city":"Surat","state":"Gujarat","latitude":21.1702,"longitude":72.8311,"temp":36.6,"humidity":27,"rain":0.0,"pressure":1005.1,"uv_index":7.75,"wind_gusts":40.3,"aqi":100,"pm10":89.6,"pm2_5":43.8,"no2":33.4,"co":249.0,"o3":67.0,"so2":90.3,"mosquito_risk":0,"arthritis_risk":5,"migraine_risk":7,"frizz_risk":0,"updated_at":"2026-05-19T10:33:40.321038+05:30"},{"city":"Vadodara","state":"Gujarat","latitude":22.3072,"longitude":73.1812,"temp":36.4,"humidity":26,"rain":0.0,"pressure":1002.7,"uv_index":7.65,"wind_gusts":42.5,"aqi":80,"pm10":72.6,"pm2_5":26.8,"no2":5.1,"co":229.0,"o3":103.0,"so2":11.2,"mosquito_risk":0,"arthritis_risk":5,"migraine_risk":7,"frizz_risk":0,"updated_at":"2026-05-19T10:33:40.321048+05:30"},{"city":"Rajkot","state":"Gujarat","latitude":22.3039,"longitude":70.8022,"temp":34.0,"humidity":46,"rain":0.0,"pressure":992.8,"uv_index":7.7,"wind_gusts":43.9,"aqi":68,"pm10":49.1,"pm2_5":18.7,"no2":2.4,"co":130.0,"o3":90.0,"so2":6.0,"mosquito_risk":0,"arthritis_risk":5,"migraine_risk":7,"frizz_risk":1,"updated_at":"2026-05-19T10:33:40.321056+05:30"},{"city":"Thane","state":"Maharashtra","latitude":19.2183,"longitude":72.9781,"temp":34.5,"humidity":51,"rain":0.0,"pressure":1007.1,"uv_index":7.2,"wind_gusts":40.7,"aqi":75,"pm10":65.7,"pm2_5":27.2,"no2":6.6,"co":193.0,"o3":106.0,"so2":9.0,"mosquito_risk":0,"arthritis_risk":5,"migraine_risk":4,"frizz_risk":1,"updated_at":"2026-05-19T10:33:40.321064+05:30"},{"city":"Nagpur","state":"Maharashtra","latitude":21.1458,"longitude":79.0882,"temp":39.9,"humidity":26,"rain":0.0,"pressure":970.8,"uv_index":8.5,"wind_gusts":37.8,"aqi":74,"pm10":32.8,"pm2_5":25.3,"no2":6.7,"co":282.0,"o3":150.0,"so2":20.5,"mosquito_risk":0,"arthritis_risk":5,"migraine_risk":10,"frizz_risk":1,"updated_at":"2026-05-19T10:33:40.321071+05:30"},{"city":"Nashik","state":"Maharashtra","latitude":19.9975,"longitude":73.7898,"temp":33.4,"humidity":36,"rain":0.0,"pressure":946.0,"uv_index":8.15,"wind_gusts":37.4,"aqi":70,"pm10":57.7,"pm2_5":24.5,"no2":2.7,"co":158.0,"o3":100.0,"so2":5.3,"mosquito_risk":0,"arthritis_risk":5,"migraine_risk":7,"frizz_risk":1,"updated_at":"2026-05-19T10:33:40.321078+05:30"},{"city":"Aurangabad","state":"Maharashtra","latitude":19.8762,"longitude":75.3433,"temp":36.7,"humidity":20,"rain":0.0,"pressure":943.9,"uv_index":9.05,"wind_gusts":42.1,"aqi":68,"pm10":47.5,"pm2_5":23.7,"no2":2.5,"co":176.0,"o3":118.0,"so2":5.6,"mosquito_risk":0,"arthritis_risk":5,"migraine_risk":10,"frizz_risk":0,"updated_at":"2026-05-19T10:33:40.321085+05:30"},{"city":"Solapur","state":"Maharashtra","latitude":17.6599,"longitude":75.9064,"temp":35.6,"humidity":39,"rain":0.0,"pressure":956.3,"uv_index":8.45,"wind_gusts":48.2,"aqi":77,"pm10":37.4,"pm2_5":23.6,"no2":2.4,"co":183.0,"o3":134.0,"so2":8.9,"mosquito_risk":0,"arthritis_risk":5,"migraine_risk":10,"frizz_risk":1,"updated_at":"2026-05-19T10:33:40.321093+05:30"},{"city":"Kolhapur","state":"Maharashtra","latitude":16.705,"longitude":74.2433,"temp":29.5,"humidity":67,"rain":0.0,"pressure":947.9,"uv_index":8.35,"wind_gusts":42.5,"aqi":64,"pm10":44.6,"pm2_5":24.3,"no2":3.1,"co":161.0,"o3":116.0,"so2":4.9,"mosquito_risk":7,"arthritis_risk":5,"migraine_risk":7,"frizz_risk":1,"updated_at":"2026-05-19T10:33:40.321100+05:30"},{"city":"Goa","state":"Goa","latitude":15.2993,"longitude":74.124,"temp":31.1,"humidity":67,"rain":0.0,"pressure":997.8,"uv_index":2.4,"wind_gusts":28.4,"aqi":70,"pm10":55.3,"pm2_5":23.3,"no2":2.4,"co":140.0,"o3":74.0,"so2":2.8,"mosquito_risk":3,"arthritis_risk":5,"migraine_risk":3,"frizz_risk":1,"updated_at":"2026-05-19T10:33:40.321107+05:30"},{"city":"Jodhpur","state":"Rajasthan","latitude":26.2389,"longitude":73.0243,"temp":35.0,"humidity":24,"rain":0.0,"pressure":980.7,"uv_index":8.45,"wind_gusts":37.1,"aqi":129,"pm10":235.2,"pm2_5":51.7,"no2":1.8,"co":138.0,"o3":94.0,"so2":4.3,"mosquito_risk":0,"arthritis_risk":5,"migraine_risk":7,"frizz_risk":0,"updated_at":"2026-05-19T10:33:40.321114+05:30"},{"city":"Udaipur","state":"Rajasthan","latitude":24.5854,"longitude":73.7125,"temp":36.5,"humidity":15,"rain":0.0,"pressure":945.8,"uv_index":8.85,"wind_gusts":39.6,"aqi":54,"pm10":52.2,"pm2_5":17.8,"no2":1.0,"co":132.0,"o3":102.0,"so2":3.2,"mosquito_risk":0,"arthritis_risk":5,"migraine_risk":10,"frizz_risk":0,"updated_at":"2026-05-19T10:33:40.321121+05:30"},{"city":"Kota","state":"Rajasthan","latitude":25.2138,"longitude":75.8648,"temp":39.6,"humidity":17,"rain":0.0,"pressure":976.9,"uv_index":8.4,"wind_gusts":32.4,"aqi":71,"pm10":40.3,"pm2_5":17.8,"no2":1.7,"co":156.0,"o3":105.0,"so2":4.3,"mosquito_risk":0,"arthritis_risk":5,"migraine_risk":10,"frizz_risk":0,"updated_at":"2026-05-19T10:33:40.321127+05:30"},{"city":"Bikaner","state":"Rajasthan","latitude":28.0229,"longitude":73.3119,"temp":37.1,"humidity":14,"rain":0.0,"pressure":978.9,"uv_index":8.4,"wind_gusts":36.4,"aqi":130,"pm10":154.6,"pm2_5":54.1,"no2":0.8,"co":135.0,"o3":102.0,"so2":2.8,"mosquito_risk":0,"arthritis_risk":5,"migraine_risk":10,"frizz_risk":0,"updated_at":"2026-05-19T10:33:40.321134+05:30"},{"city":"Ajmer","state":"Rajasthan","latitude":26.4499,"longitude":74.6399,"temp":35.6,"humidity":21,"rain":0.0,"pressure":953.5,"uv_index":8.4,"wind_gusts":40.3,"aqi":68,"pm10":67.5,"pm2_5":24.9,"no2":1.7,"co":147.0,"o3":101.0,"so2":4.2,"mosquito_risk":0,"arthritis_risk":5,"migraine_risk":10,"frizz_risk":0,"updated_at":"2026-05-19T10:33:40.321140+05:30"},{"city":"Gwalior","state":"Madhya Pradesh","latitude":26.2183,"longitude":78.1828,"temp":39.9,"humidity":17,"rain":0.0,"pressure":980.5,"uv_index":8.3,"wind_gusts":38.5,"aqi":80,"pm10":167.2,"pm2_5":35.4,"no2":2.2,"co":182.0,"o3":123.0,"so2":4.7,"mosquito_risk":0,"arthritis_risk":5,"migraine_risk":10,"frizz_risk":0,"updated_at":"2026-05-19T10:33:40.321147+05:30"},{"city":"Indore","state":"Madhya Pradesh","latitude":22.7196,"longitude":75.8577,"temp":38.7,"humidity":16,"rain":0.0,"pressure":947.4,"uv_index":8.65,"wind_gusts":43.6,"aqi":70,"pm10":38.1,"pm2_5":16.4,"no2":2.0,"co":228.0,"o3":116.0,"so2":4.2,"mosquito_risk":0,"arthritis_risk":5,"migraine_risk":10,"frizz_risk":0,"updated_at":"2026-05-19T10:33:40.321154+05:30"},{"city":"Bhopal","state":"Madhya Pradesh","latitude":23.2599,"longitude":77.4126,"temp":40.2,"humidity":16,"rain":0.0,"pressure":952.1,"uv_index":8.7,"wind_gusts":36.4,"aqi":74,"pm10":48.5,"pm2_5":19.3,"no2":1.9,"co":203.0,"o3":124.0,"so2":6.6,"mosquito_risk":0,"arthritis_risk":5,"migraine_risk":10,"frizz_risk":0,"updated_at":"2026-05-19T10:33:40.321160+05:30"},{"city":"Jabalpur","state":"Madhya Pradesh","latitude":23.1815,"longitude":79.9864,"temp":40.3,"humidity":20,"rain":0.0,"pressure":959.5,"uv_index":8.85,"wind_gusts":32.8,"aqi":79,"pm10":37.4,"pm2_5":25.3,"no2":2.4,"co":207.0,"o3":146.0,"so2":9.2,"mosquito_risk":0,"arthritis_risk":5,"migraine_risk":10,"frizz_risk":0,"updated_at":"2026-05-19T10:33:40.321167+05:30"},{"city":"Ujjain","state":"Madhya Pradesh","latitude":23.1765,"longitude":75.7885,"temp":38.8,"humidity":16,"rain":0.0,"pressure":952.9,"uv_index":8.55,"wind_gusts":42.1,"aqi":65,"pm10":38.0,"pm2_5":17.3,"no2":1.5,"co":182.0,"o3":113.0,"so2":4.5,"mosquito_risk":0,"arthritis_risk":5,"migraine_risk":10,"frizz_risk":0,"updated_at":"2026-05-19T10:33:40.321175+05:30"},{"city":"Visakhapatnam","state":"Andhra Pradesh","latitude":17.6868,"longitude":83.2185,"temp":34.7,"humidity":56,"rain":0.0,"pressure":1000.9,"uv_index":9.1,"wind_gusts":49.0,"aqi":64,"pm10":28.3,"pm2_5":20.8,"no2":7.9,"co":406.0,"o3":108.0,"so2":29.0,"mosquito_risk":0,"arthritis_risk":5,"migraine_risk":4,"frizz_risk":1,"updated_at":"2026-05-19T10:33:40.321181+05:30"},{"city":"Vijayawada","state":"Andhra Pradesh","latitude":16.5062,"longitude":80.648,"temp":37.2,"humidity":48,"rain":0.0,"pressure":1000.0,"uv_index":8.4,"wind_gusts":29.5,"aqi":65,"pm10":21.9,"pm2_5":19.1,"no2":2.4,"co":275.0,"o3":150.0,"so2":10.5,"mosquito_risk":0,"arthritis_risk":5,"migraine_risk":7,"frizz_risk":1,"updated_at":"2026-05-19T10:33:40.321188+05:30"},{"city":"Guntur","state":"Andhra Pradesh","latitude":16.3067,"longitude":80.4365,"temp":37.8,"humidity":46,"rain":0.0,"pressure":1001.1,"uv_index":8.45,"wind_gusts":34.6,"aqi":66,"pm10":21.4,"pm2_5":18.9,"no2":2.1,"co":273.0,"o3":147.0,"so2":8.1,"mosquito_risk":0,"arthritis_risk":5,"migraine_risk":7,"frizz_risk":1,"updated_at":"2026-05-19T10:33:40.321195+05:30"},{"city":"Nellore","state":"Andhra Pradesh","latitude":14.4426,"longitude":79.9865,"temp":37.9,"humidity":38,"rain":0.0,"pressure":1002.8,"uv_index":9.1,"wind_gusts":45.0,"aqi":64,"pm10":24.9,"pm2_5":22.4,"no2":3.6,"co":202.0,"o3":145.0,"so2":7.0,"mosquito_risk":0,"arthritis_risk":5,"migraine_risk":7,"frizz_risk":1,"updated_at":"2026-05-19T10:33:40.321203+05:30"},{"city":"Kurnool","state":"Andhra Pradesh","latitude":15.8281,"longitude":78.0373,"temp":35.7,"humidity":45,"rain":0.0,"pressure":975.8,"uv_index":9.1,"wind_gusts":52.2,"aqi":65,"pm10":27.6,"pm2_5":22.1,"no2":3.0,"co":186.0,"o3":138.0,"so2":7.2,"mosquito_risk":0,"arthritis_risk":5,"migraine_risk":10,"frizz_risk":1,"updated_at":"2026-05-19T10:33:40.321210+05:30"},{"city":"Kakinada","state":"Andhra Pradesh","latitude":16.9891,"longitude":82.2475,"temp":37.5,"humidity":42,"rain":0.0,"pressure":1004.6,"uv_index":8.5,"wind_gusts":33.1,"aqi":53,"pm10":23.9,"pm2_5":17.3,"no2":1.4,"co":267.0,"o3":114.0,"so2":4.5,"mosquito_risk":0,"arthritis_risk":5,"migraine_risk":7,"frizz_risk":1,"updated_at":"2026-05-19T10:33:40.321217+05:30"},{"city":"Tirupati","state":"Andhra Pradesh","latitude":13.6288,"longitude":79.4192,"temp":36.5,"humidity":40,"rain":0.0,"pressure":988.9,"uv_index":9.1,"wind_gusts":33.8,"aqi":67,"pm10":24.0,"pm2_5":21.2,"no2":3.5,"co":201.0,"o3":139.0,"so2":4.9,"mosquito_risk":0,"arthritis_risk":5,"migraine_risk":10,"frizz_risk":1,"updated_at":"2026-05-19T10:33:40.321224+05:30"},{"city":"Warangal","state":"Telangana","latitude":17.9689,"longitude":79.5941,"temp":35.0,"humidity":51,"rain":0.0,"pressure":977.4,"uv_index":9.15,"wind_gusts":36.0,"aqi":80,"pm10":28.1,"pm2_5":24.6,"no2":2.6,"co":265.0,"o3":136.0,"so2":8.7,"mosquito_risk":0,"arthritis_risk":5,"migraine_risk":7,"frizz_risk":1,"updated_at":"2026-05-19T10:33:40.321231+05:30"},{"city":"Nizamabad","state":"Telangana","latitude":18.6725,"longitude":78.0941,"temp":38.3,"humidity":30,"rain":0.0,"pressure":963.2,"uv_index":9.1,"wind_gusts":30.2,"aqi":78,"pm10":34.8,"pm2_5":28.5,"no2":2.9,"co":225.0,"o3":149.0,"so2":8.4,"mosquito_risk":0,"arthritis_risk":5,"migraine_risk":10,"frizz_risk":1,"updated_at":"2026-05-19T10:33:40.321238+05:30"},{"city":"Mysore","state":"Karnataka","latitude":12.2958,"longitude":76.6396,"temp":28.4,"humidity":60,"rain":0.0,"pressure":929.2,"uv_index":7.8,"wind_gusts":42.8,"aqi":52,"pm10":2.1,"pm2_5":2.1,"no2":2.5,"co":176.0,"o3":83.0,"so2":1.7,"mosquito_risk":4,"arthritis_risk":5,"migraine_risk":7,"frizz_risk":1,"updated_at":"2026-05-19T10:33:40.321245+05:30"},{"city":"Mangalore","state":"Karnataka","latitude":12.9141,"longitude":74.856,"temp":27.1,"humidity":86,"rain":0.1,"pressure":1007.7,"uv_index":6.6,"wind_gusts":33.1,"aqi":51,"pm10":7.9,"pm2_5":5.6,"no2":2.4,"co":226.0,"o3":78.0,"so2":1.6,"mosquito_risk":10,"arthritis_risk":5,"migraine_risk":4,"frizz_risk":1,"updated_at":"2026-05-19T10:33:40.321251+05:30"},{"city":"Hubli-Dharwad","state":"Karnataka","latitude":15.3647,"longitude":75.124,"temp":29.1,"humidity":65,"rain":0.0,"pressure":941.1,"uv_index":6.15,"wind_gusts":37.8,"aqi":58,"pm10":27.5,"pm2_5":14.1,"no2":3.4,"co":147.0,"o3":83.0,"so2":2.3,"mosquito_risk":7,"arthritis_risk":5,"migraine_risk":7,"frizz_risk":1,"updated_at":"2026-05-19T10:33:40.321258+05:30"},{"city":"Belgaum","state":"Karnataka","latitude":15.8497,"longitude":74.4977,"temp":30.0,"humidity":55,"rain":0.0,"pressure":926.3,"uv_index":6.45,"wind_gusts":36.0,"aqi":59,"pm10":40.7,"pm2_5":21.2,"no2":2.6,"co":136.0,"o3":108.0,"so2":3.5,"mosquito_risk":4,"arthritis_risk":5,"migraine_risk":7,"frizz_risk":1,"updated_at":"2026-05-19T10:33:43.582696+05:30"},{"city":"Coimbatore","state":"Tamil Nadu","latitude":11.0168,"longitude":76.9558,"temp":30.0,"humidity":61,"rain":0.0,"pressure":961.8,"uv_index":8.45,"wind_gusts":56.5,"aqi":26,"pm10":2.4,"pm2_5":2.1,"no2":2.2,"co":171.0,"o3":78.0,"so2":1.8,"mosquito_risk":7,"arthritis_risk":5,"migraine_risk":7,"frizz_risk":1,"updated_at":"2026-05-19T10:33:43.582733+05:30"},{"city":"Madurai","state":"Tamil Nadu","latitude":9.9252,"longitude":78.1198,"temp":32.5,"humidity":55,"rain":0.0,"pressure":992.4,"uv_index":9.0,"wind_gusts":40.3,"aqi":48,"pm10":7.5,"pm2_5":6.3,"no2":3.0,"co":197.0,"o3":97.0,"so2":2.7,"mosquito_risk":0,"arthritis_risk":5,"migraine_risk":7,"frizz_risk":1,"updated_at":"2026-05-19T10:33:43.582744+05:30"},{"city":"Trichy","state":"Tamil Nadu","latitude":10.7905,"longitude":78.7047,"temp":32.8,"humidity":59,"rain":0.0,"pressure":998.6,"uv_index":9.0,"wind_gusts":28.8,"aqi":49,"pm10":8.8,"pm2_5":8.1,"no2":3.5,"co":226.0,"o3":104.0,"so2":3.9,"mosquito_risk":0,"arthritis_risk":5,"migraine_risk":7,"frizz_risk":1,"updated_at":"2026-05-19T10:33:43.582753+05:30"},{"city":"Salem","state":"Tamil Nadu","latitude":11.6643,"longitude":78.146,"temp":32.5,"humidity":52,"rain":0.0,"pressure":977.0,"uv_index":6.85,"wind_gusts":36.4,"aqi":56,"pm10":7.7,"pm2_5":7.2,"no2":4.1,"co":203.0,"o3":106.0,"so2":8.0,"mosquito_risk":0,"arthritis_risk":5,"migraine_risk":7,"frizz_risk":1,"updated_at":"2026-05-19T10:33:43.582760+05:30"},{"city":"Tirunelveli","state":"Tamil Nadu","latitude":8.7139,"longitude":77.7567,"temp":33.5,"humidity":53,"rain":0.0,"pressure":1003.0,"uv_index":8.8,"wind_gusts":31.7,"aqi":31,"pm10":6.5,"pm2_5":4.5,"no2":1.6,"co":163.0,"o3":66.0,"so2":0.8,"mosquito_risk":0,"arthritis_risk":5,"migraine_risk":4,"frizz_risk":1,"updated_at":"2026-05-19T10:33:43.582768+05:30"},{"city":"Vellore","state":"Tamil Nadu","latitude":12.9165,"longitude":79.1325,"temp":34.2,"humidity":47,"rain":0.0,"pressure":982.8,"uv_index":9.1,"wind_gusts":39.6,"aqi":70,"pm10":17.1,"pm2_5":14.7,"no2":2.7,"co":214.0,"o3":125.0,"so2":4.3,"mosquito_risk":0,"arthritis_risk":5,"migraine_risk":7,"frizz_risk":1,"updated_at":"2026-05-19T10:33:43.582776+05:30"},{"city":"Erode","state":"Tamil Nadu","latitude":11.341,"longitude":77.7172,"temp":33.3,"humidity":48,"rain":0.0,"pressure":988.3,"uv_index":8.75,"wind_gusts":46.8,"aqi":43,"pm10":4.2,"pm2_5":4.0,"no2":2.9,"co":189.0,"o3":93.0,"so2":2.5,"mosquito_risk":0,"arthritis_risk":5,"migraine_risk":7,"frizz_risk":1,"updated_at":"2026-05-19T10:33:43.582783+05:30"},{"city":"Kochi","state":"Kerala","latitude":9.9312,"longitude":76.2673,"temp":28.9,"humidity":78,"rain":0.0,"pressure":1009.9,"uv_index":8.25,"wind_gusts":34.6,"aqi":37,"pm10":8.2,"pm2_5":6.2,"no2":4.5,"co":178.0,"o3":65.0,"so2":2.9,"mosquito_risk":7,"arthritis_risk":0,"migraine_risk":4,"frizz_risk":1,"updated_at":"2026-05-19T10:33:43.582791+05:30"},{"city":"Thiruvananthapuram","state":"Kerala","latitude":8.5241,"longitude":76.9366,"temp":28.4,"humidity":80,"rain":0.2,"pressure":1009.2,"uv_index":8.35,"wind_gusts":37.4,"aqi":40,"pm10":8.9,"pm2_5":5.2,"no2":1.1,"co":123.0,"o3":57.0,"so2":0.4,"mosquito_risk":10,"arthritis_risk":0,"migraine_risk":4,"frizz_risk":1,"updated_at":"2026-05-19T10:33:43.582799+05:30"},{"city":"Kozhikode","state":"Kerala","latitude":11.2588,"longitude":75.7804,"temp":28.3,"humidity":85,"rain":0.1,"pressure":1009.1,"uv_index":7.3,"wind_gusts":32.8,"aqi":34,"pm10":5.0,"pm2_5":3.3,"no2":0.9,"co":195.0,"o3":75.0,"so2":0.4,"mosquito_risk":10,"arthritis_risk":0,"migraine_risk":4,"frizz_risk":1,"updated_at":"2026-05-19T10:33:43.582806+05:30"},{"city":"Thrissur","state":"Kerala","latitude":10.5276,"longitude":76.2144,"temp":28.3,"humidity":80,"rain":0.1,"pressure":1008.2,"uv_index":7.65,"wind_gusts":33.8,"aqi":35,"pm10":7.9,"pm2_5":6.6,"no2":4.8,"co":210.0,"o3":66.0,"so2":2.9,"mosquito_risk":10,"arthritis_risk":0,"migraine_risk":4,"frizz_risk":1,"updated_at":"2026-05-19T10:33:43.582814+05:30"},{"city":"Kannur","state":"Kerala","latitude":11.8745,"longitude":75.3704,"temp":29.4,"humidity":75,"rain":0.1,"pressure":1008.2,"uv_index":8.05,"wind_gusts":34.2,"aqi":29,"pm10":4.6,"pm2_5":3.1,"no2":1.8,"co":175.0,"o3":72.0,"so2":1.0,"mosquito_risk":10,"arthritis_risk":0,"migraine_risk":4,"frizz_risk":1,"updated_at":"2026-05-19T10:33:43.582822+05:30"},{"city":"Patna","state":"Bihar","latitude":25.5941,"longitude":85.1376,"temp":32.9,"humidity":61,"rain":0.0,"pressure":997.6,"uv_index":8.8,"wind_gusts":43.2,"aqi":151,"pm10":61.9,"pm2_5":51.7,"no2":4.3,"co":447.0,"o3":173.0,"so2":16.8,"mosquito_risk":3,"arthritis_risk":5,"migraine_risk":7,"frizz_risk":1,"updated_at":"2026-05-19T10:33:43.582830+05:30"},{"city":"Gaya","state":"Bihar","latitude":24.7914,"longitude":85.0002,"temp":35.2,"humidity":52,"rain":0.0,"pressure":990.3,"uv_index":8.8,"wind_gusts":31.0,"aqi":144,"pm10":73.6,"pm2_5":61.9,"no2":4.2,"co":436.0,"o3":201.0,"so2":21.5,"mosquito_risk":0,"arthritis_risk":5,"migraine_risk":10,"frizz_risk":1,"updated_at":"2026-05-19T10:33:43.582838+05:30"},{"city":"Muzaffarpur","state":"Bihar","latitude":26.1209,"longitude":85.3647,"temp":32.6,"humidity":59,"rain":0.0,"pressure":998.1,"uv_index":8.8,"wind_gusts":47.2,"aqi":152,"pm10":62.9,"pm2_5":49.2,"no2":3.5,"co":424.0,"o3":161.0,"so2":12.9,"mosquito_risk":0,"arthritis_risk":5,"migraine_risk":7,"frizz_risk":1,"updated_at":"2026-05-19T10:33:43.582845+05:30"},{"city":"Bhagalpur","state":"Bihar","latitude":25.2425,"longitude":87.0117,"temp":29.9,"humidity":75,"rain":0.0,"pressure":999.1,"uv_index":8.8,"wind_gusts":40.0,"aqi":147,"pm10":43.7,"pm2_5":36.8,"no2":7.7,"co":458.0,"o3":110.0,"so2":17.0,"mosquito_risk":7,"arthritis_risk":5,"migraine_risk":7,"frizz_risk":1,"updated_at":"2026-05-19T10:33:43.582851+05:30"},{"city":"Ranchi","state":"Jharkhand","latitude":23.3441,"longitude":85.3096,"temp":33.9,"humidity":43,"rain":0.0,"pressure":935.5,"uv_index":9.25,"wind_gusts":45.4,"aqi":103,"pm10":51.9,"pm2_5":32.4,"no2":2.6,"co":250.0,"o3":171.0,"so2":12.9,"mosquito_risk":0,"arthritis_risk":5,"migraine_risk":7,"frizz_risk":1,"updated_at":"2026-05-19T10:33:43.582859+05:30"},{"city":"Jamshedpur","state":"Jharkhand","latitude":22.8046,"longitude":86.2029,"temp":36.8,"humidity":44,"rain":0.0,"pressure":986.6,"uv_index":9.1,"wind_gusts":38.2,"aqi":116,"pm10":40.9,"pm2_5":36.1,"no2":5.5,"co":322.0,"o3":208.0,"so2":28.2,"mosquito_risk":0,"arthritis_risk":5,"migraine_risk":10,"frizz_risk":1,"updated_at":"2026-05-19T10:33:43.582865+05:30"},{"city":"Dhanbad","state":"Jharkhand","latitude":23.7957,"longitude":86.4304,"temp":36.3,"humidity":40,"rain":0.0,"pressure":976.3,"uv_index":9.05,"wind_gusts":33.1,"aqi":160,"pm10":59.6,"pm2_5":54.5,"no2":15.5,"co":281.0,"o3":211.0,"so2":65.4,"mosquito_risk":0,"arthritis_risk":5,"migraine_risk":10,"frizz_risk":1,"updated_at":"2026-05-19T10:33:43.582872+05:30"},{"city":"Bokaro","state":"Jharkhand","latitude":23.6693,"longitude":86.1511,"temp":36.1,"humidity":46,"rain":0.0,"pressure":979.8,"uv_index":9.05,"wind_gusts":32.0,"aqi":157,"pm10":46.2,"pm2_5":40.4,"no2":9.6,"co":297.0,"o3":192.0,"so2":43.7,"mosquito_risk":0,"arthritis_risk":5,"migraine_risk":10,"frizz_risk":1,"updated_at":"2026-05-19T10:33:43.582879+05:30"},{"city":"Bhubaneswar","state":"Odisha","latitude":20.2961,"longitude":85.8245,"temp":36.5,"humidity":53,"rain":0.0,"pressure":999.3,"uv_index":9.15,"wind_gusts":45.4,"aqi":61,"pm10":26.4,"pm2_5":20.6,"no2":3.2,"co":271.0,"o3":118.0,"so2":11.6,"mosquito_risk":0,"arthritis_risk":5,"migraine_risk":10,"frizz_risk":1,"updated_at":"2026-05-19T10:33:43.582886+05:30"},{"city":"Cuttack","state":"Odisha","latitude":20.4625,"longitude":85.8828,"temp":35.6,"humidity":59,"rain":0.0,"pressure":1001.0,"uv_index":9.2,"wind_gusts":32.8,"aqi":61,"pm10":26.4,"pm2_5":20.6,"no2":3.2,"co":282.0,"o3":118.0,"so2":11.6,"mosquito_risk":0,"arthritis_risk":5,"migraine_risk":7,"frizz_risk":1,"updated_at":"2026-05-19T10:33:43.582892+05:30"},{"city":"Rourkela","state":"Odisha","latitude":22.2604,"longitude":84.8536,"temp":36.9,"humidity":40,"rain":0.0,"pressure":981.8,"uv_index":9.0,"wind_gusts":45.7,"aqi":118,"pm10":32.9,"pm2_5":29.9,"no2":3.6,"co":312.0,"o3":212.0,"so2":19.9,"mosquito_risk":0,"arthritis_risk":5,"migraine_risk":10,"frizz_risk":1,"updated_at":"2026-05-19T10:33:43.582898+05:30"},{"city":"Raipur","state":"Chhattisgarh","latitude":21.2514,"longitude":81.6296,"temp":37.7,"humidity":38,"rain":0.0,"pressure":973.0,"uv_index":9.0,"wind_gusts":43.9,"aqi":94,"pm10":36.7,"pm2_5":32.8,"no2":10.9,"co":488.0,"o3":154.0,"so2":39.2,"mosquito_risk":0,"arthritis_risk":5,"migraine_risk":10,"frizz_risk":1,"updated_at":"2026-05-19T10:33:43.582923+05:30"},{"city":"Bhilai","state":"Chhattisgarh","latitude":21.1938,"longitude":81.3509,"temp":36.8,"humidity":39,"rain":0.0,"pressure":973.5,"uv_index":9.0,"wind_gusts":43.2,"aqi":88,"pm10":34.9,"pm2_5":31.0,"no2":8.7,"co":601.0,"o3":150.0,"so2":32.4,"mosquito_risk":0,"arthritis_risk":5,"migraine_risk":10,"frizz_risk":1,"updated_at":"2026-05-19T10:33:43.582930+05:30"},{"city":"Guwahati","state":"Assam","latitude":26.1158,"longitude":91.7086,"temp":29.7,"humidity":66,"rain":0.0,"pressure":1000.3,"uv_index":8.75,"wind_gusts":22.3,"aqi":82,"pm10":41.4,"pm2_5":25.6,"no2":1.5,"co":296.0,"o3":135.0,"so2":4.9,"mosquito_risk":7,"arthritis_risk":5,"migraine_risk":4,"frizz_risk":1,"updated_at":"2026-05-19T10:33:43.582936+05:30"},{"city":"Agartala","state":"Tripura","latitude":23.8315,"longitude":91.2868,"temp":29.6,"humidity":81,"rain":0.0,"pressure":1004.4,"uv_index":8.75,"wind_gusts":28.8,"aqi":91,"pm10":24.7,"pm2_5":14.1,"no2":3.2,"co":229.0,"o3":102.0,"so2":2.1,"mosquito_risk":7,"arthritis_risk":5,"migraine_risk":4,"frizz_risk":1,"updated_at":"2026-05-19T10:33:43.582943+05:30"},{"city":"Shillong","state":"Meghalaya","latitude":25.5788,"longitude":91.8933,"temp":23.9,"humidity":68,"rain":0.0,"pressure":858.1,"uv_index":6.85,"wind_gusts":25.9,"aqi":60,"pm10":54.1,"pm2_5":22.8,"no2":1.0,"co":272.0,"o3":137.0,"so2":5.1,"mosquito_risk":3,"arthritis_risk":5,"migraine_risk":7,"frizz_risk":1,"updated_at":"2026-05-19T10:33:43.582950+05:30"},{"city":"Imphal","state":"Manipur","latitude":24.817,"longitude":93.9368,"temp":27.2,"humidity":64,"rain":0.0,"pressure":922.5,"uv_index":9.2,"wind_gusts":33.1,"aqi":92,"pm10":36.3,"pm2_5":20.4,"no2":0.7,"co":209.0,"o3":122.0,"so2":4.4,"mosquito_risk":7,"arthritis_risk":5,"migraine_risk":7,"frizz_risk":1,"updated_at":"2026-05-19T10:33:43.582957+05:30"},{"city":"Aizawl","state":"Mizoram","latitude":23.7271,"longitude":92.7176,"temp":25.3,"humidity":62,"rain":0.0,"pressure":893.1,"uv_index":9.05,"wind_gusts":28.4,"aqi":98,"pm10":46.8,"pm2_5":22.5,"no2":0.5,"co":176.0,"o3":103.0,"so2":2.8,"mosquito_risk":7,"arthritis_risk":5,"migraine_risk":7,"frizz_risk":1,"updated_at":"2026-05-19T10:33:43.582963+05:30"},{"city":"Kohima","state":"Nagaland","latitude":25.6701,"longitude":94.1077,"temp":21.3,"humidity":87,"rain":0.2,"pressure":855.2,"uv_index":8.65,"wind_gusts":27.0,"aqi":63,"pm10":41.7,"pm2_5":22.9,"no2":0.4,"co":227.0,"o3":129.0,"so2":4.2,"mosquito_risk":6,"arthritis_risk":5,"migraine_risk":7,"frizz_risk":1,"updated_at":"2026-05-19T10:33:43.582970+05:30"},{"city":"Gangtok","state":"Sikkim","latitude":27.3314,"longitude":88.6138,"temp":21.6,"humidity":70,"rain":0.0,"pressure":839.0,"uv_index":9.1,"wind_gusts":38.2,"aqi":91,"pm10":33.2,"pm2_5":23.2,"no2":0.9,"co":356.0,"o3":138.0,"so2":2.8,"mosquito_risk":3,"arthritis_risk":5,"migraine_risk":7,"frizz_risk":0,"updated_at":"2026-05-19T10:33:43.582976+05:30"},{"city":"Siliguri","state":"West Bengal","latitude":26.7271,"longitude":88.3953,"temp":30.2,"humidity":65,"rain":0.0,"pressure":991.9,"uv_index":8.7,"wind_gusts":25.9,"aqi":151,"pm10":49.5,"pm2_5":35.0,"no2":1.8,"co":343.0,"o3":154.0,"so2":5.3,"mosquito_risk":3,"arthritis_risk":5,"migraine_risk":7,"frizz_risk":1,"updated_at":"2026-05-19T10:33:46.844863+05:30"},{"city":"Durgapur","state":"West Bengal","latitude":23.5204,"longitude":87.3119,"temp":35.5,"humidity":56,"rain":0.0,"pressure":991.2,"uv_index":9.0,"wind_gusts":44.6,"aqi":153,"pm10":69.8,"pm2_5":61.7,"no2":17.0,"co":712.0,"o3":201.0,"so2":65.9,"mosquito_risk":0,"arthritis_risk":5,"migraine_risk":10,"frizz_risk":1,"updated_at":"2026-05-19T10:33:46.844900+05:30"},{"city":"Asansol","state":"West Bengal","latitude":23.6739,"longitude":86.9524,"temp":35.7,"humidity":52,"rain":0.0,"pressure":989.7,"uv_index":9.0,"wind_gusts":40.0,"aqi":154,"pm10":70.3,"pm2_5":62.9,"no2":18.2,"co":678.0,"o3":209.0,"so2":70.2,"mosquito_risk":0,"arthritis_risk":5,"migraine_risk":10,"frizz_risk":1,"updated_at":"2026-05-19T10:33:46.844927+05:30"},{"city":"Pondicherry","state":"Puducherry","latitude":11.9139,"longitude":79.8145,"temp":32.3,"humidity":62,"rain":0.0,"pressure":1006.5,"uv_index":8.95,"wind_gusts":36.7,"aqi":59,"pm10":17.3,"pm2_5":15.3,"no2":6.5,"co":222.0,"o3":119.0,"so2":15.7,"mosquito_risk":3,"arthritis_risk":5,"migraine_risk":4,"frizz_risk":1,"updated_at":"2026-05-19T10:33:46.844936+05:30"},{"city":"Port Blair","state":"Andaman and Nicobar Islands","latitude":11.6234,"longitude":92.7265,"temp":30.8,"humidity":72,"rain":0.0,"pressure":1006.0,"uv_index":8.95,"wind_gusts":53.6,"aqi":32,"pm10":9.4,"pm2_5":5.4,"no2":0.2,"co":126.0,"o3":52.0,"so2":0.4,"mosquito_risk":3,"arthritis_risk":5,"migraine_risk":4,"frizz_risk":1,"updated_at":"2026-05-19T10:33:46.844945+05:30"},{"city":"Haridwar","state":"Uttarakhand","latitude":29.9457,"longitude":78.1642,"temp":35.2,"humidity":40,"rain":0.0,"pressure":972.0,"uv_index":7.55,"wind_gusts":36.4,"aqi":75,"pm10":144.4,"pm2_5":60.8,"no2":3.5,"co":345.0,"o3":197.0,"so2":12.6,"mosquito_risk":0,"arthritis_risk":5,"migraine_risk":10,"frizz_risk":1,"updated_at":"2026-05-19T10:33:46.844953+05:30"},{"city":"Rishikesh","state":"Uttarakhand","latitude":30.0869,"longitude":78.2676,"temp":35.0,"humidity":38,"rain":0.0,"pressure":964.9,"uv_index":7.7,"wind_gusts":31.0,"aqi":57,"pm10":67.3,"pm2_5":27.8,"no2":1.6,"co":290.0,"o3":198.0,"so2":13.0,"mosquito_risk":0,"arthritis_risk":5,"migraine_risk":7,"frizz_risk":1,"updated_at":"2026-05-19T10:33:46.844961+05:30"},{"city":"Nainital","state":"Uttarakhand","latitude":29.3919,"longitude":79.4542,"temp":24.4,"humidity":45,"rain":0.0,"pressure":809.3,"uv_index":8.55,"wind_gusts":36.0,"aqi":72,"pm10":39.0,"pm2_5":22.1,"no2":0.8,"co":279.0,"o3":178.0,"so2":9.0,"mosquito_risk":0,"arthritis_risk":5,"migraine_risk":7,"frizz_risk":0,"updated_at":"2026-05-19T10:33:46.844968+05:30"},{"city":"Mussoorie","state":"Uttarakhand","latitude":30.4599,"longitude":78.0664,"temp":24.1,"humidity":46,"rain":0.0,"pressure":806.9,"uv_index":8.1,"wind_gusts":54.0,"aqi":59,"pm10":33.8,"pm2_5":19.0,"no2":1.8,"co":237.0,"o3":194.0,"so2":9.9,"mosquito_risk":0,"arthritis_risk":5,"migraine_risk":7,"frizz_risk":0,"updated_at":"2026-05-19T10:33:46.844976+05:30"},{"city":"Dharamshala","state":"Himachal Pradesh","latitude":32.219,"longitude":76.3234,"temp":29.2,"humidity":37,"rain":0.0,"pressure":870.8,"uv_index":8.45,"wind_gusts":46.8,"aqi":40,"pm10":33.2,"pm2_5":13.0,"no2":0.2,"co":252.0,"o3":145.0,"so2":2.9,"mosquito_risk":4,"arthritis_risk":5,"migraine_risk":7,"frizz_risk":0,"updated_at":"2026-05-19T10:33:46.844983+05:30"},{"city":"Dalhousie","state":"Himachal Pradesh","latitude":32.5387,"longitude":75.971,"temp":26.0,"humidity":34,"rain":0.0,"pressure":808.7,"uv_index":8.7,"wind_gusts":43.9,"aqi":58,"pm10":39.9,"pm2_5":17.3,"no2":1.8,"co":251.0,"o3":166.0,"so2":4.1,"mosquito_risk":4,"arthritis_risk":5,"migraine_risk":7,"frizz_risk":0,"updated_at":"2026-05-19T10:33:46.844991+05:30"},{"city":"Patiala","state":"Punjab","latitude":30.3398,"longitude":76.3869,"temp":39.6,"humidity":23,"rain":0.0,"pressure":975.3,"uv_index":7.65,"wind_gusts":33.5,"aqi":410,"pm10":866.1,"pm2_5":114.6,"no2":4.1,"co":243.0,"o3":128.0,"so2":7.7,"mosquito_risk":0,"arthritis_risk":5,"migraine_risk":10,"frizz_risk":0,"updated_at":"2026-05-19T10:33:46.844998+05:30"},{"city":"Bhatinda","state":"Punjab","latitude":30.211,"longitude":74.9455,"temp":39.8,"humidity":16,"rain":0.0,"pressure":980.3,"uv_index":8.3,"wind_gusts":29.9,"aqi":97,"pm10":122.5,"pm2_5":38.9,"no2":3.9,"co":176.0,"o3":118.0,"so2":6.6,"mosquito_risk":0,"arthritis_risk":5,"migraine_risk":10,"frizz_risk":0,"updated_at":"2026-05-19T10:33:46.845005+05:30"},{"city":"Rohtak","state":"Haryana","latitude":28.8955,"longitude":76.6066,"temp":38.9,"humidity":18,"rain":0.0,"pressure":979.0,"uv_index":7.75,"wind_gusts":30.6,"aqi":791,"pm10":1218.2,"pm2_5":185.8,"no2":4.8,"co":194.0,"o3":121.0,"so2":5.2,"mosquito_risk":0,"arthritis_risk":5,"migraine_risk":10,"frizz_risk":0,"updated_at":"2026-05-19T10:33:46.845012+05:30"},{"city":"Panipat","state":"Haryana","latitude":29.3909,"longitude":76.9635,"temp":39.3,"humidity":18,"rain":0.0,"pressure":977.5,"uv_index":7.6,"wind_gusts":33.1,"aqi":1619,"pm10":2481.0,"pm2_5":331.6,"no2":6.2,"co":192.0,"o3":113.0,"so2":10.4,"mosquito_risk":0,"arthritis_risk":5,"migraine_risk":10,"frizz_risk":0,"updated_at":"2026-05-19T10:33:46.845018+05:30"},{"city":"Mathura","state":"Uttar Pradesh","latitude":27.4924,"longitude":77.6737,"temp":39.7,"humidity":17,"rain":0.0,"pressure":983.8,"uv_index":8.05,"wind_gusts":36.7,"aqi":805,"pm10":1531.1,"pm2_5":208.6,"no2":4.2,"co":195.0,"o3":125.0,"so2":5.7,"mosquito_risk":0,"arthritis_risk":5,"migraine_risk":10,"frizz_risk":0,"updated_at":"2026-05-19T10:33:46.845025+05:30"},{"city":"Vrindavan","state":"Uttar Pradesh","latitude":27.5823,"longitude":77.7027,"temp":39.2,"humidity":19,"rain":0.0,"pressure":984.2,"uv_index":8.0,"wind_gusts":34.2,"aqi":805,"pm10":1531.1,"pm2_5":208.6,"no2":4.2,"co":192.0,"o3":125.0,"so2":5.7,"mosquito_risk":0,"arthritis_risk":5,"migraine_risk":10,"frizz_risk":0,"updated_at":"2026-05-19T10:33:46.845032+05:30"},{"city":"Ayodhya","state":"Uttar Pradesh","latitude":26.7922,"longitude":82.1998,"temp":34.5,"humidity":57,"rain":0.0,"pressure":992.6,"uv_index":8.4,"wind_gusts":36.4,"aqi":158,"pm10":84.5,"pm2_5":59.8,"no2":2.9,"co":535.0,"o3":176.0,"so2":14.4,"mosquito_risk":0,"arthritis_risk":5,"migraine_risk":7,"frizz_risk":1,"updated_at":"2026-05-19T10:33:46.845039+05:30"},{"city":"Ratlam","state":"Madhya Pradesh","latitude":23.3315,"longitude":75.0367,"temp":37.0,"humidity":21,"rain":0.0,"pressure":954.0,"uv_index":8.55,"wind_gusts":41.4,"aqi":64,"pm10":34.5,"pm2_5":17.2,"no2":1.5,"co":156.0,"o3":108.0,"so2":4.5,"mosquito_risk":0,"arthritis_risk":5,"migraine_risk":10,"frizz_risk":0,"updated_at":"2026-05-19T10:33:46.845047+05:30"},{"city":"Sagar","state":"Madhya Pradesh","latitude":23.8388,"longitude":78.7378,"temp":40.8,"humidity":16,"rain":0.0,"pressure":948.9,"uv_index":8.75,"wind_gusts":37.1,"aqi":62,"pm10":80.8,"pm2_5":23.3,"no2":1.7,"co":171.0,"o3":129.0,"so2":5.1,"mosquito_risk":0,"arthritis_risk":5,"migraine_risk":10,"frizz_risk":0,"updated_at":"2026-05-19T10:33:46.845053+05:30"},{"city":"Satna","state":"Madhya Pradesh","latitude":24.6005,"longitude":80.8322,"temp":41.2,"humidity":18,"rain":0.0,"pressure":968.5,"uv_index":8.75,"wind_gusts":43.9,"aqi":110,"pm10":180.2,"pm2_5":42.0,"no2":2.5,"co":173.0,"o3":135.0,"so2":8.4,"mosquito_risk":0,"arthritis_risk":5,"migraine_risk":10,"frizz_risk":0,"updated_at":"2026-05-19T10:33:46.845061+05:30"},{"city":"Akola","state":"Maharashtra","latitude":20.7002,"longitude":77.0082,"temp":39.6,"humidity":20,"rain":0.0,"pressure":973.4,"uv_index":8.85,"wind_gusts":38.5,"aqi":72,"pm10":46.8,"pm2_5":24.7,"no2":3.2,"co":195.0,"o3":143.0,"so2":13.1,"mosquito_risk":0,"arthritis_risk":5,"migraine_risk":10,"frizz_risk":0,"updated_at":"2026-05-19T10:33:46.845070+05:30"},{"city":"Amravati","state":"Maharashtra","latitude":20.9374,"longitude":77.7796,"temp":39.8,"humidity":18,"rain":0.0,"pressure":965.6,"uv_index":8.9,"wind_gusts":44.3,"aqi":72,"pm10":45.6,"pm2_5":23.3,"no2":3.7,"co":214.0,"o3":141.0,"so2":11.5,"mosquito_risk":0,"arthritis_risk":5,"migraine_risk":10,"frizz_risk":0,"updated_at":"2026-05-19T10:33:46.845078+05:30"},{"city":"Latur","state":"Maharashtra","latitude":18.4088,"longitude":76.5604,"temp":37.1,"humidity":30,"rain":0.0,"pressure":939.4,"uv_index":8.1,"wind_gusts":36.7,"aqi":76,"pm10":38.6,"pm2_5":24.0,"no2":2.5,"co":205.0,"o3":145.0,"so2":9.4,"mosquito_risk":0,"arthritis_risk":5,"migraine_risk":10,"frizz_risk":1,"updated_at":"2026-05-19T10:33:46.845085+05:30"},{"city":"Nanded","state":"Maharashtra","latitude":19.1383,"longitude":77.3091,"temp":39.2,"humidity":26,"rain":0.0,"pressure":966.9,"uv_index":7.95,"wind_gusts":38.9,"aqi":77,"pm10":40.6,"pm2_5":27.4,"no2":3.0,"co":236.0,"o3":154.0,"so2":8.5,"mosquito_risk":0,"arthritis_risk":5,"migraine_risk":10,"frizz_risk":1,"updated_at":"2026-05-19T10:33:46.845093+05:30"},{"city":"Gulbarga","state":"Karnataka","latitude":17.3297,"longitude":76.8343,"temp":34.8,"humidity":46,"rain":0.0,"pressure":958.0,"uv_index":9.05,"wind_gusts":34.9,"aqi":83,"pm10":36.1,"pm2_5":24.1,"no2":2.9,"co":201.0,"o3":134.0,"so2":7.5,"mosquito_risk":0,"arthritis_risk":5,"migraine_risk":7,"frizz_risk":1,"updated_at":"2026-05-19T10:33:46.845099+05:30"},{"city":"Bidar","state":"Karnataka","latitude":17.9104,"longitude":77.5199,"temp":35.8,"humidity":37,"rain":0.0,"pressure":935.4,"uv_index":9.15,"wind_gusts":28.8,"aqi":78,"pm10":32.7,"pm2_5":25.9,"no2":3.4,"co":218.0,"o3":145.0,"so2":8.3,"mosquito_risk":0,"arthritis_risk":5,"migraine_risk":10,"frizz_risk":1,"updated_at":"2026-05-19T10:33:46.845106+05:30"},{"city":"Hospet","state":"Karnataka","latitude":15.2689,"longitude":76.3909,"temp":30.6,"humidity":62,"rain":0.0,"pressure":955.9,"uv_index":7.85,"wind_gusts":40.7,"aqi":65,"pm10":18.7,"pm2_5":12.3,"no2":2.7,"co":161.0,"o3":95.0,"so2":3.6,"mosquito_risk":3,"arthritis_risk":5,"migraine_risk":7,"frizz_risk":1,"updated_at":"2026-05-19T10:33:46.845113+05:30"},{"city":"Tirupur","state":"Tamil Nadu","latitude":11.1085,"longitude":77.3411,"temp":32.3,"humidity":52,"rain":0.0,"pressure":974.8,"uv_index":8.75,"wind_gusts":58.0,"aqi":44,"pm10":3.8,"pm2_5":3.7,"no2":2.6,"co":165.0,"o3":90.0,"so2":2.9,"mosquito_risk":0,"arthritis_risk":5,"migraine_risk":7,"frizz_risk":1,"updated_at":"2026-05-19T10:33:46.845119+05:30"},{"city":"Alappuzha","state":"Kerala","latitude":9.4981,"longitude":76.3388,"temp":29.4,"humidity":74,"rain":0.1,"pressure":1010.0,"uv_index":8.6,"wind_gusts":34.2,"aqi":30,"pm10":8.8,"pm2_5":6.0,"no2":2.6,"co":122.0,"o3":64.0,"so2":1.3,"mosquito_risk":10,"arthritis_risk":0,"migraine_risk":4,"frizz_risk":1,"updated_at":"2026-05-19T10:33:46.845126+05:30"},{"city":"Munnar","state":"Kerala","latitude":10.0889,"longitude":77.0595,"temp":18.9,"humidity":92,"rain":0.1,"pressure":857.9,"uv_index":7.6,"wind_gusts":38.5,"aqi":21,"pm10":4.3,"pm2_5":3.1,"no2":1.5,"co":139.0,"o3":67.0,"so2":1.0,"mosquito_risk":6,"arthritis_risk":10,"migraine_risk":7,"frizz_risk":1,"updated_at":"2026-05-19T10:33:46.845134+05:30"},{"city":"Silchar","state":"Assam","latitude":24.8333,"longitude":92.7789,"temp":28.5,"humidity":76,"rain":0.0,"pressure":1004.5,"uv_index":8.9,"wind_gusts":19.1,"aqi":101,"pm10":52.4,"pm2_5":30.2,"no2":1.3,"co":233.0,"o3":120.0,"so2":5.5,"mosquito_risk":7,"arthritis_risk":5,"migraine_risk":4,"frizz_risk":1,"updated_at":"2026-05-19T10:33:46.845141+05:30"},{"city":"Dibrugarh","state":"Assam","latitude":27.4728,"longitude":94.912,"temp":28.9,"humidity":64,"rain":0.0,"pressure":993.9,"uv_index":8.85,"wind_gusts":15.5,"aqi":111,"pm10":37.0,"pm2_5":26.7,"no2":0.3,"co":247.0,"o3":148.0,"so2":2.8,"mosquito_risk":7,"arthritis_risk":5,"migraine_risk":7,"frizz_risk":1,"updated_at":"2026-05-19T10:33:46.845147+05:30"}]