[{"city":"Delhi","state":"Delhi","latitude":28.6139,"longitude":77.209,"temp":34.3,"humidity":56,"rain":0.0,"pressure":976.6,"uv_index":7.65,"wind_gusts":29.5,"aqi":132,"pm10":53.1,"pm2_5":38.4,"no2":18.8,"co":647.0,"o3":147.0,"so2":31.5,"mosquito_risk":0,"arthritis_risk":5,"migraine_risk":7,"frizz_risk":1,"updated_at":"2026-07-04T10:07:09.303095+05:30"},{"city":"Mumbai","state":"Maharashtra","latitude":19.076,"longitude":72.8777,"temp":26.4,"humidity":90,"rain":1.1,"pressure":1003.5,"uv_index":0.35,"wind_gusts":55.1,"aqi":38,"pm10":22.5,"pm2_5":11.8,"no2":10.2,"co":281.0,"o3":49.0,"so2":4.8,"mosquito_risk":10,"arthritis_risk":5,"migraine_risk":0,"frizz_risk":1,"updated_at":"2026-07-04T10:07:09.303171+05:30"},{"city":"Bangalore","state":"Karnataka","latitude":12.9716,"longitude":77.5946,"temp":23.9,"humidity":75,"rain":0.1,"pressure":911.5,"uv_index":5.0,"wind_gusts":77.8,"aqi":19,"pm10":3.2,"pm2_5":2.8,"no2":9.4,"co":311.0,"o3":41.0,"so2":3.1,"mosquito_risk":6,"arthritis_risk":5,"migraine_risk":3,"frizz_risk":1,"updated_at":"2026-07-04T10:07:09.303188+05:30"},{"city":"Hyderabad","state":"Telangana","latitude":17.385,"longitude":78.4867,"temp":24.1,"humidity":87,"rain":0.1,"pressure":948.8,"uv_index":1.0,"wind_gusts":65.9,"aqi":18,"pm10":4.2,"pm2_5":3.7,"no2":5.7,"co":332.0,"o3":46.0,"so2":3.3,"mosquito_risk":6,"arthritis_risk":5,"migraine_risk":3,"frizz_risk":1,"updated_at":"2026-07-04T10:07:09.303199+05:30"},{"city":"Chennai","state":"Tamil Nadu","latitude":13.0827,"longitude":80.2707,"temp":29.9,"humidity":63,"rain":0.0,"pressure":1005.2,"uv_index":5.0,"wind_gusts":48.6,"aqi":44,"pm10":8.6,"pm2_5":6.6,"no2":11.6,"co":377.0,"o3":47.0,"so2":8.9,"mosquito_risk":7,"arthritis_risk":5,"migraine_risk":0,"frizz_risk":1,"updated_at":"2026-07-04T10:07:09.303210+05:30"},{"city":"Kolkata","state":"West Bengal","latitude":22.5726,"longitude":88.3639,"temp":30.9,"humidity":75,"rain":0.0,"pressure":995.9,"uv_index":7.5,"wind_gusts":49.7,"aqi":40,"pm10":10.0,"pm2_5":8.7,"no2":3.4,"co":230.0,"o3":95.0,"so2":7.1,"mosquito_risk":3,"arthritis_risk":5,"migraine_risk":7,"frizz_risk":1,"updated_at":"2026-07-04T10:07:09.303220+05:30"},{"city":"Pune","state":"Maharashtra","latitude":18.5204,"longitude":73.8567,"temp":23.8,"humidity":92,"rain":0.2,"pressure":943.0,"uv_index":0.6,"wind_gusts":55.8,"aqi":21,"pm10":2.3,"pm2_5":2.1,"no2":7.1,"co":174.0,"o3":45.0,"so2":2.9,"mosquito_risk":6,"arthritis_risk":5,"migraine_risk":3,"frizz_risk":1,"updated_at":"2026-07-04T10:07:09.303229+05:30"},{"city":"Ahmedabad","state":"Gujarat","latitude":23.0225,"longitude":72.5714,"temp":29.0,"humidity":82,"rain":0.0,"pressure":995.9,"uv_index":2.25,"wind_gusts":39.6,"aqi":63,"pm10":32.1,"pm2_5":14.9,"no2":6.2,"co":156.0,"o3":52.0,"so2":3.7,"mosquito_risk":7,"arthritis_risk":5,"migraine_risk":3,"frizz_risk":1,"updated_at":"2026-07-04T10:07:09.303237+05:30"},{"city":"Jaipur","state":"Rajasthan","latitude":26.9124,"longitude":75.7873,"temp":31.1,"humidity":64,"rain":0.0,"pressure":954.1,"uv_index":7.95,"wind_gusts":19.8,"aqi":114,"pm10":125.7,"pm2_5":45.4,"no2":8.4,"co":228.0,"o3":93.0,"so2":8.1,"mosquito_risk":3,"arthritis_risk":5,"migraine_risk":7,"frizz_risk":1,"updated_at":"2026-07-04T10:07:09.303245+05:30"},{"city":"Lucknow","state":"Uttar Pradesh","latitude":26.8467,"longitude":80.9462,"temp":33.5,"humidity":65,"rain":0.0,"pressure":986.7,"uv_index":8.2,"wind_gusts":24.1,"aqi":82,"pm10":35.3,"pm2_5":34.5,"no2":5.9,"co":393.0,"o3":136.0,"so2":10.4,"mosquito_risk":3,"arthritis_risk":5,"migraine_risk":7,"frizz_risk":1,"updated_at":"2026-07-04T10:07:09.303258+05:30"},{"city":"Kanpur","state":"Uttar Pradesh","latitude":26.4499,"longitude":80.3319,"temp":33.3,"humidity":67,"rain":0.0,"pressure":984.8,"uv_index":8.2,"wind_gusts":25.2,"aqi":82,"pm10":37.7,"pm2_5":36.2,"no2":6.5,"co":323.0,"o3":138.0,"so2":10.5,"mosquito_risk":3,"arthritis_risk":5,"migraine_risk":7,"frizz_risk":1,"updated_at":"2026-07-04T10:07:09.303267+05:30"},{"city":"Chandigarh","state":"Chandigarh","latitude":30.7333,"longitude":76.7794,"temp":31.5,"humidity":68,"rain":0.0,"pressure":963.7,"uv_index":7.75,"wind_gusts":23.0,"aqi":84,"pm10":22.2,"pm2_5":22.0,"no2":4.7,"co":563.0,"o3":160.0,"so2":9.4,"mosquito_risk":3,"arthritis_risk":5,"migraine_risk":7,"frizz_risk":1,"updated_at":"2026-07-04T10:07:09.303275+05:30"},{"city":"Srinagar","state":"Jammu and Kashmir","latitude":34.0837,"longitude":74.7973,"temp":24.9,"humidity":60,"rain":0.0,"pressure":841.6,"uv_index":9.05,"wind_gusts":20.5,"aqi":77,"pm10":29.0,"pm2_5":22.9,"no2":5.7,"co":487.0,"o3":133.0,"so2":5.6,"mosquito_risk":0,"arthritis_risk":5,"migraine_risk":7,"frizz_risk":1,"updated_at":"2026-07-04T10:07:09.303283+05:30"},{"city":"Jammu","state":"Jammu and Kashmir","latitude":32.7266,"longitude":74.857,"temp":31.4,"humidity":66,"rain":0.0,"pressure":967.5,"uv_index":8.6,"wind_gusts":29.9,"aqi":96,"pm10":36.3,"pm2_5":30.9,"no2":5.0,"co":422.0,"o3":162.0,"so2":7.4,"mosquito_risk":3,"arthritis_risk":5,"migraine_risk":7,"frizz_risk":1,"updated_at":"2026-07-04T10:07:09.303290+05:30"},{"city":"Amritsar","state":"Punjab","latitude":31.634,"longitude":74.8723,"temp":31.5,"humidity":70,"rain":0.0,"pressure":975.4,"uv_index":8.4,"wind_gusts":35.6,"aqi":109,"pm10":49.0,"pm2_5":44.2,"no2":7.0,"co":561.0,"o3":133.0,"so2":9.1,"mosquito_risk":3,"arthritis_risk":5,"migraine_risk":7,"frizz_risk":1,"updated_at":"2026-07-04T10:07:09.303300+05:30"},{"city":"Ludhiana","state":"Punjab","latitude":30.901,"longitude":75.8573,"temp":27.7,"humidity":92,"rain":0.5,"pressure":973.6,"uv_index":7.95,"wind_gusts":33.5,"aqi":122,"pm10":39.5,"pm2_5":38.2,"no2":10.0,"co":677.0,"o3":148.0,"so2":14.3,"mosquito_risk":10,"arthritis_risk":5,"migraine_risk":7,"frizz_risk":1,"updated_at":"2026-07-04T10:07:09.303308+05:30"},{"city":"Jalandhar","state":"Punjab","latitude":31.326,"longitude":75.5762,"temp":29.0,"humidity":81,"rain":0.3,"pressure":974.5,"uv_index":8.2,"wind_gusts":31.7,"aqi":115,"pm10":45.4,"pm2_5":43.0,"no2":8.5,"co":550.0,"o3":151.0,"so2":16.7,"mosquito_risk":10,"arthritis_risk":5,"migraine_risk":7,"frizz_risk":1,"updated_at":"2026-07-04T10:07:09.303315+05:30"},{"city":"Dehradun","state":"Uttarakhand","latitude":30.6284,"longitude":78.0322,"temp":24.2,"humidity":70,"rain":0.0,"pressure":829.9,"uv_index":6.65,"wind_gusts":28.4,"aqi":26,"pm10":3.4,"pm2_5":3.3,"no2":0.6,"co":227.0,"o3":128.0,"so2":0.8,"mosquito_risk":3,"arthritis_risk":5,"migraine_risk":7,"frizz_risk":1,"updated_at":"2026-07-04T10:07:09.303322+05:30"},{"city":"Shimla","state":"Himachal Pradesh","latitude":31.1048,"longitude":77.1734,"temp":22.4,"humidity":65,"rain":0.0,"pressure":785.1,"uv_index":6.85,"wind_gusts":24.5,"aqi":38,"pm10":3.9,"pm2_5":3.8,"no2":2.6,"co":253.0,"o3":127.0,"so2":0.9,"mosquito_risk":3,"arthritis_risk":5,"migraine_risk":7,"frizz_risk":0,"updated_at":"2026-07-04T10:07:09.303329+05:30"},{"city":"Manali","state":"Himachal Pradesh","latitude":32.2396,"longitude":77.1887,"temp":24.0,"humidity":72,"rain":0.0,"pressure":818.7,"uv_index":9.4,"wind_gusts":36.4,"aqi":52,"pm10":2.5,"pm2_5":2.3,"no2":13.8,"co":220.0,"o3":104.0,"so2":0.4,"mosquito_risk":3,"arthritis_risk":5,"migraine_risk":7,"frizz_risk":1,"updated_at":"2026-07-04T10:07:09.303338+05:30"},{"city":"Gurgaon","state":"Haryana","latitude":28.4595,"longitude":77.0266,"temp":33.5,"humidity":59,"rain":0.0,"pressure":975.2,"uv_index":6.6,"wind_gusts":24.8,"aqi":142,"pm10":139.7,"pm2_5":49.2,"no2":16.0,"co":519.0,"o3":130.0,"so2":22.4,"mosquito_risk":0,"arthritis_risk":5,"migraine_risk":7,"frizz_risk":1,"updated_at":"2026-07-04T10:07:09.303345+05:30"},{"city":"Noida","state":"Uttar Pradesh","latitude":28.5355,"longitude":77.391,"temp":33.6,"humidity":62,"rain":0.0,"pressure":978.0,"uv_index":7.7,"wind_gusts":22.7,"aqi":142,"pm10":139.7,"pm2_5":49.2,"no2":16.0,"co":442.0,"o3":130.0,"so2":22.4,"mosquito_risk":3,"arthritis_risk":5,"migraine_risk":7,"frizz_risk":1,"updated_at":"2026-07-04T10:07:09.303353+05:30"},{"city":"Ghaziabad","state":"Uttar Pradesh","latitude":28.6692,"longitude":77.4538,"temp":33.6,"humidity":62,"rain":0.0,"pressure":976.4,"uv_index":7.7,"wind_gusts":21.6,"aqi":115,"pm10":44.1,"pm2_5":30.5,"no2":8.4,"co":362.0,"o3":137.0,"so2":15.7,"mosquito_risk":3,"arthritis_risk":5,"migraine_risk":7,"frizz_risk":1,"updated_at":"2026-07-04T10:07:09.303362+05:30"},{"city":"Faridabad","state":"Haryana","latitude":28.4089,"longitude":77.3178,"temp":34.4,"humidity":55,"rain":0.0,"pressure":977.3,"uv_index":7.15,"wind_gusts":26.3,"aqi":142,"pm10":139.7,"pm2_5":49.2,"no2":16.0,"co":445.0,"o3":130.0,"so2":22.4,"mosquito_risk":0,"arthritis_risk":5,"migraine_risk":7,"frizz_risk":1,"updated_at":"2026-07-04T10:07:09.303370+05:30"},{"city":"Meerut","state":"Uttar Pradesh","latitude":28.9845,"longitude":77.7064,"temp":33.2,"humidity":64,"rain":0.0,"pressure":975.4,"uv_index":7.65,"wind_gusts":22.0,"aqi":115,"pm10":44.1,"pm2_5":30.5,"no2":8.4,"co":476.0,"o3":137.0,"so2":15.7,"mosquito_risk":3,"arthritis_risk":5,"migraine_risk":7,"frizz_risk":1,"updated_at":"2026-07-04T10:07:09.303377+05:30"},{"city":"Agra","state":"Uttar Pradesh","latitude":27.1767,"longitude":78.0081,"temp":31.4,"humidity":73,"rain":0.0,"pressure":981.5,"uv_index":6.85,"wind_gusts":30.6,"aqi":96,"pm10":56.1,"pm2_5":27.5,"no2":7.8,"co":305.0,"o3":132.0,"so2":8.6,"mosquito_risk":3,"arthritis_risk":5,"migraine_risk":7,"frizz_risk":1,"updated_at":"2026-07-04T10:07:09.303384+05:30"},{"city":"Varanasi","state":"Uttar Pradesh","latitude":25.3176,"longitude":82.9739,"temp":34.0,"humidity":62,"rain":0.0,"pressure":990.0,"uv_index":8.65,"wind_gusts":30.2,"aqi":92,"pm10":20.4,"pm2_5":20.0,"no2":4.7,"co":347.0,"o3":124.0,"so2":14.5,"mosquito_risk":3,"arthritis_risk":5,"migraine_risk":7,"frizz_risk":1,"updated_at":"2026-07-04T10:07:09.303392+05:30"},{"city":"Prayagraj","state":"Uttar Pradesh","latitude":25.4358,"longitude":81.8463,"temp":34.1,"humidity":61,"rain":0.0,"pressure":988.6,"uv_index":8.55,"wind_gusts":29.5,"aqi":96,"pm10":27.5,"pm2_5":26.8,"no2":5.7,"co":348.0,"o3":133.0,"so2":13.5,"mosquito_risk":3,"arthritis_risk":5,"migraine_risk":7,"frizz_risk":1,"updated_at":"2026-07-04T10:07:09.303399+05:30"},{"city":"Gorakhpur","state":"Uttar Pradesh","latitude":26.7606,"longitude":83.3732,"temp":34.0,"humidity":64,"rain":0.0,"pressure":990.6,"uv_index":7.7,"wind_gusts":29.9,"aqi":94,"pm10":32.1,"pm2_5":31.4,"no2":5.3,"co":299.0,"o3":138.0,"so2":11.2,"mosquito_risk":3,"arthritis_risk":5,"migraine_risk":7,"frizz_risk":1,"updated_at":"2026-07-04T10:07:09.303406+05:30"},{"city":"Bareilly","state":"Uttar Pradesh","latitude":28.367,"longitude":79.4304,"temp":32.5,"humidity":70,"rain":0.1,"pressure":980.9,"uv_index":8.0,"wind_gusts":24.1,"aqi":80,"pm10":29.9,"pm2_5":26.2,"no2":3.9,"co":414.0,"o3":149.0,"so2":8.5,"mosquito_risk":6,"arthritis_risk":5,"migraine_risk":7,"frizz_risk":1,"updated_at":"2026-07-04T10:07:09.303416+05:30"},{"city":"Aligarh","state":"Uttar Pradesh","latitude":27.8974,"longitude":78.088,"temp":33.7,"humidity":63,"rain":0.0,"pressure":979.1,"uv_index":7.8,"wind_gusts":24.8,"aqi":115,"pm10":32.7,"pm2_5":25.4,"no2":8.3,"co":276.0,"o3":123.0,"so2":10.5,"mosquito_risk":3,"arthritis_risk":5,"migraine_risk":7,"frizz_risk":1,"updated_at":"2026-07-04T10:07:09.303423+05:30"},{"city":"Moradabad","state":"Uttar Pradesh","latitude":28.8386,"longitude":78.7733,"temp":33.0,"humidity":67,"rain":0.0,"pressure":977.8,"uv_index":7.35,"wind_gusts":24.5,"aqi":102,"pm10":21.7,"pm2_5":21.7,"no2":7.2,"co":305.0,"o3":143.0,"so2":14.0,"mosquito_risk":3,"arthritis_risk":5,"migraine_risk":7,"frizz_risk":1,"updated_at":"2026-07-04T10:07:09.303429+05:30"},{"city":"Saharanpur","state":"Uttar Pradesh","latitude":29.9637,"longitude":77.546,"temp":32.7,"humidity":65,"rain":0.0,"pressure":970.3,"uv_index":7.0,"wind_gusts":33.1,"aqi":99,"pm10":25.3,"pm2_5":25.1,"no2":3.8,"co":406.0,"o3":161.0,"so2":11.1,"mosquito_risk":3,"arthritis_risk":5,"migraine_risk":7,"frizz_risk":1,"updated_at":"2026-07-04T10:07:09.303436+05:30"},{"city":"Jhansi","state":"Uttar Pradesh","latitude":25.4484,"longitude":78.5685,"temp":31.5,"humidity":68,"rain":0.0,"pressure":971.3,"uv_index":8.4,"wind_gusts":29.9,"aqi":66,"pm10":21.5,"pm2_5":20.4,"no2":5.3,"co":233.0,"o3":123.0,"so2":10.9,"mosquito_risk":3,"arthritis_risk":5,"migraine_risk":7,"frizz_risk":1,"updated_at":"2026-07-04T10:07:12.590000+05:30"},{"city":"Surat","state":"Gujarat","latitude":21.1702,"longitude":72.8311,"temp":26.9,"humidity":90,"rain":0.1,"pressure":1000.9,"uv_index":0.7,"wind_gusts":27.4,"aqi":64,"pm10":24.4,"pm2_5":19.8,"no2":30.1,"co":395.0,"o3":18.0,"so2":48.3,"mosquito_risk":10,"arthritis_risk":5,"migraine_risk":0,"frizz_risk":1,"updated_at":"2026-07-04T10:07:12.590042+05:30"},{"city":"Vadodara","state":"Gujarat","latitude":22.3072,"longitude":73.1812,"temp":28.6,"humidity":80,"rain":0.0,"pressure":998.3,"uv_index":1.15,"wind_gusts":30.2,"aqi":57,"pm10":18.5,"pm2_5":12.7,"no2":16.4,"co":232.0,"o3":31.0,"so2":4.8,"mosquito_risk":7,"arthritis_risk":5,"migraine_risk":3,"frizz_risk":1,"updated_at":"2026-07-04T10:07:12.590053+05:30"},{"city":"Rajkot","state":"Gujarat","latitude":22.3039,"longitude":70.8022,"temp":29.9,"humidity":76,"rain":0.1,"pressure":988.3,"uv_index":5.1,"wind_gusts":40.3,"aqi":55,"pm10":49.0,"pm2_5":18.9,"no2":2.4,"co":107.0,"o3":66.0,"so2":4.2,"mosquito_risk":10,"arthritis_risk":5,"migraine_risk":3,"frizz_risk":1,"updated_at":"2026-07-04T10:07:12.590063+05:30"},{"city":"Thane","state":"Maharashtra","latitude":19.2183,"longitude":72.9781,"temp":26.0,"humidity":96,"rain":0.7,"pressure":1002.6,"uv_index":0.3,"wind_gusts":42.5,"aqi":38,"pm10":22.5,"pm2_5":11.8,"no2":10.2,"co":264.0,"o3":49.0,"so2":4.8,"mosquito_risk":10,"arthritis_risk":5,"migraine_risk":0,"frizz_risk":1,"updated_at":"2026-07-04T10:07:12.590071+05:30"},{"city":"Nagpur","state":"Maharashtra","latitude":21.1458,"longitude":79.0882,"temp":28.1,"humidity":80,"rain":0.0,"pressure":966.0,"uv_index":7.85,"wind_gusts":28.4,"aqi":36,"pm10":8.1,"pm2_5":7.7,"no2":13.1,"co":307.0,"o3":88.0,"so2":25.2,"mosquito_risk":7,"arthritis_risk":5,"migraine_risk":7,"frizz_risk":1,"updated_at":"2026-07-04T10:07:12.590080+05:30"},{"city":"Nashik","state":"Maharashtra","latitude":19.9975,"longitude":73.7898,"temp":25.2,"humidity":87,"rain":0.0,"pressure":940.1,"uv_index":0.35,"wind_gusts":33.1,"aqi":18,"pm10":1.4,"pm2_5":1.3,"no2":5.7,"co":163.0,"o3":52.0,"so2":1.4,"mosquito_risk":7,"arthritis_risk":5,"migraine_risk":3,"frizz_risk":1,"updated_at":"2026-07-04T10:07:12.590088+05:30"},{"city":"Aurangabad","state":"Maharashtra","latitude":19.8762,"longitude":75.3433,"temp":23.7,"humidity":93,"rain":0.2,"pressure":938.8,"uv_index":0.45,"wind_gusts":36.7,"aqi":19,"pm10":2.7,"pm2_5":2.6,"no2":7.3,"co":186.0,"o3":43.0,"so2":4.6,"mosquito_risk":6,"arthritis_risk":5,"migraine_risk":3,"frizz_risk":1,"updated_at":"2026-07-04T10:07:12.590096+05:30"},{"city":"Solapur","state":"Maharashtra","latitude":17.6599,"longitude":75.9064,"temp":24.1,"humidity":92,"rain":0.3,"pressure":953.4,"uv_index":2.8,"wind_gusts":44.3,"aqi":20,"pm10":2.5,"pm2_5":2.3,"no2":3.5,"co":121.0,"o3":48.0,"so2":1.7,"mosquito_risk":6,"arthritis_risk":5,"migraine_risk":3,"frizz_risk":1,"updated_at":"2026-07-04T10:07:12.590105+05:30"},{"city":"Kolhapur","state":"Maharashtra","latitude":16.705,"longitude":74.2433,"temp":22.4,"humidity":95,"rain":0.6,"pressure":945.0,"uv_index":1.35,"wind_gusts":53.6,"aqi":22,"pm10":2.9,"pm2_5":2.8,"no2":5.3,"co":142.0,"o3":44.0,"so2":1.5,"mosquito_risk":6,"arthritis_risk":5,"migraine_risk":3,"frizz_risk":1,"updated_at":"2026-07-04T10:07:12.590133+05:30"},{"city":"Goa","state":"Goa","latitude":15.2993,"longitude":74.124,"temp":24.2,"humidity":99,"rain":0.4,"pressure":998.5,"uv_index":5.45,"wind_gusts":37.1,"aqi":51,"pm10":23.2,"pm2_5":12.4,"no2":2.1,"co":162.0,"o3":53.0,"so2":0.7,"mosquito_risk":6,"arthritis_risk":5,"migraine_risk":3,"frizz_risk":1,"updated_at":"2026-07-04T10:07:12.590140+05:30"},{"city":"Jodhpur","state":"Rajasthan","latitude":26.2389,"longitude":73.0243,"temp":29.6,"humidity":76,"rain":0.0,"pressure":976.6,"uv_index":7.25,"wind_gusts":27.4,"aqi":146,"pm10":321.3,"pm2_5":72.6,"no2":4.0,"co":144.0,"o3":65.0,"so2":3.3,"mosquito_risk":7,"arthritis_risk":5,"migraine_risk":7,"frizz_risk":1,"updated_at":"2026-07-04T10:07:12.590148+05:30"},{"city":"Udaipur","state":"Rajasthan","latitude":24.5854,"longitude":73.7125,"temp":27.7,"humidity":76,"rain":0.0,"pressure":940.5,"uv_index":3.7,"wind_gusts":32.8,"aqi":60,"pm10":39.2,"pm2_5":18.2,"no2":4.2,"co":121.0,"o3":55.0,"so2":4.5,"mosquito_risk":7,"arthritis_risk":5,"migraine_risk":3,"frizz_risk":1,"updated_at":"2026-07-04T10:07:12.590156+05:30"},{"city":"Kota","state":"Rajasthan","latitude":25.2138,"longitude":75.8648,"temp":30.3,"humidity":70,"rain":0.0,"pressure":972.6,"uv_index":7.45,"wind_gusts":28.1,"aqi":93,"pm10":97.3,"pm2_5":33.9,"no2":6.9,"co":189.0,"o3":71.0,"so2":3.7,"mosquito_risk":3,"arthritis_risk":5,"migraine_risk":7,"frizz_risk":1,"updated_at":"2026-07-04T10:07:12.590164+05:30"},{"city":"Bikaner","state":"Rajasthan","latitude":28.0229,"longitude":73.3119,"temp":36.2,"humidity":41,"rain":0.0,"pressure":975.0,"uv_index":8.45,"wind_gusts":33.5,"aqi":123,"pm10":158.8,"pm2_5":51.1,"no2":2.4,"co":167.0,"o3":91.0,"so2":5.2,"mosquito_risk":0,"arthritis_risk":5,"migraine_risk":10,"frizz_risk":1,"updated_at":"2026-07-04T10:07:12.590171+05:30"},{"city":"Ajmer","state":"Rajasthan","latitude":26.4499,"longitude":74.6399,"temp":29.3,"humidity":68,"rain":0.0,"pressure":949.0,"uv_index":8.2,"wind_gusts":33.5,"aqi":113,"pm10":136.9,"pm2_5":45.9,"no2":3.9,"co":141.0,"o3":76.0,"so2":4.8,"mosquito_risk":7,"arthritis_risk":5,"migraine_risk":7,"frizz_risk":1,"updated_at":"2026-07-04T10:07:12.590179+05:30"},{"city":"Gwalior","state":"Madhya Pradesh","latitude":26.2183,"longitude":78.1828,"temp":30.8,"humidity":75,"rain":0.0,"pressure":976.7,"uv_index":7.5,"wind_gusts":30.2,"aqi":74,"pm10":27.0,"pm2_5":23.4,"no2":3.9,"co":236.0,"o3":123.0,"so2":4.8,"mosquito_risk":3,"arthritis_risk":5,"migraine_risk":7,"frizz_risk":1,"updated_at":"2026-07-04T10:07:12.590186+05:30"},{"city":"Indore","state":"Madhya Pradesh","latitude":22.7196,"longitude":75.8577,"temp":26.5,"humidity":78,"rain":0.0,"pressure":941.7,"uv_index":6.55,"wind_gusts":32.4,"aqi":41,"pm10":22.9,"pm2_5":11.5,"no2":5.5,"co":330.0,"o3":74.0,"so2":3.6,"mosquito_risk":7,"arthritis_risk":5,"migraine_risk":7,"frizz_risk":1,"updated_at":"2026-07-04T10:07:12.590193+05:30"},{"city":"Bhopal","state":"Madhya Pradesh","latitude":23.2599,"longitude":77.4126,"temp":28.2,"humidity":73,"rain":0.1,"pressure":946.8,"uv_index":8.6,"wind_gusts":31.0,"aqi":59,"pm10":6.7,"pm2_5":6.4,"no2":2.5,"co":232.0,"o3":114.0,"so2":2.6,"mosquito_risk":10,"arthritis_risk":5,"migraine_risk":7,"frizz_risk":1,"updated_at":"2026-07-04T10:07:12.590201+05:30"},{"city":"Jabalpur","state":"Madhya Pradesh","latitude":23.1815,"longitude":79.9864,"temp":28.4,"humidity":79,"rain":0.0,"pressure":954.7,"uv_index":8.25,"wind_gusts":25.6,"aqi":59,"pm10":19.0,"pm2_5":18.9,"no2":3.0,"co":238.0,"o3":125.0,"so2":14.0,"mosquito_risk":7,"arthritis_risk":5,"migraine_risk":7,"frizz_risk":1,"updated_at":"2026-07-04T10:07:12.590208+05:30"},{"city":"Ujjain","state":"Madhya Pradesh","latitude":23.1765,"longitude":75.7885,"temp":27.5,"humidity":74,"rain":0.0,"pressure":947.5,"uv_index":7.85,"wind_gusts":30.6,"aqi":45,"pm10":32.7,"pm2_5":12.8,"no2":3.1,"co":240.0,"o3":76.0,"so2":2.5,"mosquito_risk":7,"arthritis_risk":5,"migraine_risk":7,"frizz_risk":1,"updated_at":"2026-07-04T10:07:12.590216+05:30"},{"city":"Visakhapatnam","state":"Andhra Pradesh","latitude":17.6868,"longitude":83.2185,"temp":27.6,"humidity":81,"rain":0.0,"pressure":995.3,"uv_index":6.35,"wind_gusts":54.4,"aqi":43,"pm10":9.4,"pm2_5":8.7,"no2":9.2,"co":264.0,"o3":56.0,"so2":21.5,"mosquito_risk":7,"arthritis_risk":5,"migraine_risk":7,"frizz_risk":1,"updated_at":"2026-07-04T10:07:12.590223+05:30"},{"city":"Vijayawada","state":"Andhra Pradesh","latitude":16.5062,"longitude":80.648,"temp":27.6,"humidity":81,"rain":0.0,"pressure":997.9,"uv_index":1.45,"wind_gusts":61.9,"aqi":38,"pm10":7.9,"pm2_5":6.0,"no2":4.2,"co":152.0,"o3":50.0,"so2":4.7,"mosquito_risk":7,"arthritis_risk":5,"migraine_risk":3,"frizz_risk":1,"updated_at":"2026-07-04T10:07:12.590230+05:30"},{"city":"Guntur","state":"Andhra Pradesh","latitude":16.3067,"longitude":80.4365,"temp":26.2,"humidity":90,"rain":0.0,"pressure":999.5,"uv_index":2.05,"wind_gusts":48.2,"aqi":32,"pm10":7.7,"pm2_5":5.6,"no2":4.3,"co":155.0,"o3":49.0,"so2":4.7,"mosquito_risk":7,"arthritis_risk":5,"migraine_risk":3,"frizz_risk":1,"updated_at":"2026-07-04T10:07:12.590237+05:30"},{"city":"Nellore","state":"Andhra Pradesh","latitude":14.4426,"longitude":79.9865,"temp":29.6,"humidity":64,"rain":0.2,"pressure":1003.0,"uv_index":1.35,"wind_gusts":46.1,"aqi":36,"pm10":8.4,"pm2_5":4.6,"no2":4.1,"co":115.0,"o3":49.0,"so2":3.8,"mosquito_risk":10,"arthritis_risk":5,"migraine_risk":0,"frizz_risk":1,"updated_at":"2026-07-04T10:07:12.590244+05:30"},{"city":"Kurnool","state":"Andhra Pradesh","latitude":15.8281,"longitude":78.0373,"temp":28.6,"humidity":63,"rain":0.0,"pressure":974.3,"uv_index":1.2,"wind_gusts":75.6,"aqi":19,"pm10":3.1,"pm2_5":2.5,"no2":3.9,"co":119.0,"o3":45.0,"so2":2.4,"mosquito_risk":7,"arthritis_risk":5,"migraine_risk":3,"frizz_risk":1,"updated_at":"2026-07-04T10:07:12.590253+05:30"},{"city":"Kakinada","state":"Andhra Pradesh","latitude":16.9891,"longitude":82.2475,"temp":28.8,"humidity":73,"rain":0.0,"pressure":1000.8,"uv_index":1.6,"wind_gusts":67.3,"aqi":40,"pm10":7.2,"pm2_5":6.1,"no2":4.6,"co":184.0,"o3":58.0,"so2":5.2,"mosquito_risk":7,"arthritis_risk":5,"migraine_risk":0,"frizz_risk":1,"updated_at":"2026-07-04T10:07:12.590260+05:30"},{"city":"Tirupati","state":"Andhra Pradesh","latitude":13.6288,"longitude":79.4192,"temp":30.6,"humidity":55,"rain":0.0,"pressure":988.8,"uv_index":3.25,"wind_gusts":48.2,"aqi":34,"pm10":8.4,"pm2_5":5.1,"no2":4.3,"co":116.0,"o3":51.0,"so2":1.8,"mosquito_risk":0,"arthritis_risk":5,"migraine_risk":3,"frizz_risk":1,"updated_at":"2026-07-04T10:07:12.590267+05:30"},{"city":"Warangal","state":"Telangana","latitude":17.9689,"longitude":79.5941,"temp":27.0,"humidity":78,"rain":0.1,"pressure":973.4,"uv_index":3.6,"wind_gusts":52.9,"aqi":21,"pm10":4.9,"pm2_5":4.5,"no2":4.8,"co":149.0,"o3":43.0,"so2":2.2,"mosquito_risk":10,"arthritis_risk":5,"migraine_risk":3,"frizz_risk":1,"updated_at":"2026-07-04T10:07:12.590274+05:30"},{"city":"Nizamabad","state":"Telangana","latitude":18.6725,"longitude":78.0941,"temp":24.4,"humidity":94,"rain":0.4,"pressure":959.8,"uv_index":0.95,"wind_gusts":45.4,"aqi":18,"pm10":3.8,"pm2_5":3.5,"no2":5.3,"co":156.0,"o3":43.0,"so2":3.8,"mosquito_risk":6,"arthritis_risk":5,"migraine_risk":3,"frizz_risk":1,"updated_at":"2026-07-04T10:07:12.590280+05:30"},{"city":"Mysore","state":"Karnataka","latitude":12.2958,"longitude":76.6396,"temp":24.6,"humidity":78,"rain":0.0,"pressure":928.9,"uv_index":6.1,"wind_gusts":64.8,"aqi":21,"pm10":2.9,"pm2_5":1.9,"no2":4.9,"co":128.0,"o3":47.0,"so2":1.4,"mosquito_risk":3,"arthritis_risk":5,"migraine_risk":7,"frizz_risk":1,"updated_at":"2026-07-04T10:07:12.590287+05:30"},{"city":"Mangalore","state":"Karnataka","latitude":12.9141,"longitude":74.856,"temp":26.3,"humidity":90,"rain":0.1,"pressure":1008.4,"uv_index":7.9,"wind_gusts":59.8,"aqi":36,"pm10":17.8,"pm2_5":9.6,"no2":4.3,"co":173.0,"o3":46.0,"so2":1.6,"mosquito_risk":10,"arthritis_risk":0,"migraine_risk":4,"frizz_risk":1,"updated_at":"2026-07-04T10:07:12.590295+05:30"},{"city":"Hubli-Dharwad","state":"Karnataka","latitude":15.3647,"longitude":75.124,"temp":23.3,"humidity":85,"rain":0.0,"pressure":939.6,"uv_index":1.65,"wind_gusts":61.6,"aqi":20,"pm10":3.2,"pm2_5":2.4,"no2":4.7,"co":122.0,"o3":48.0,"so2":1.0,"mosquito_risk":3,"arthritis_risk":5,"migraine_risk":3,"frizz_risk":1,"updated_at":"2026-07-04T10:07:12.590302+05:30"},{"city":"Belgaum","state":"Karnataka","latitude":15.8497,"longitude":74.4977,"temp":21.1,"humidity":97,"rain":0.2,"pressure":923.7,"uv_index":1.35,"wind_gusts":60.1,"aqi":21,"pm10":2.3,"pm2_5":2.1,"no2":4.6,"co":116.0,"o3":46.0,"so2":1.2,"mosquito_risk":6,"arthritis_risk":5,"migraine_risk":3,"frizz_risk":1,"updated_at":"2026-07-04T10:07:15.850475+05:30"},{"city":"Coimbatore","state":"Tamil Nadu","latitude":11.0168,"longitude":76.9558,"temp":23.7,"humidity":90,"rain":0.0,"pressure":962.3,"uv_index":7.4,"wind_gusts":51.8,"aqi":19,"pm10":3.9,"pm2_5":3.2,"no2":5.4,"co":174.0,"o3":44.0,"so2":1.9,"mosquito_risk":3,"arthritis_risk":5,"migraine_risk":7,"frizz_risk":1,"updated_at":"2026-07-04T10:07:15.850514+05:30"},{"city":"Madurai","state":"Tamil Nadu","latitude":9.9252,"longitude":78.1198,"temp":29.5,"humidity":59,"rain":0.0,"pressure":993.7,"uv_index":7.75,"wind_gusts":46.1,"aqi":21,"pm10":8.5,"pm2_5":6.5,"no2":6.2,"co":137.0,"o3":53.0,"so2":3.9,"mosquito_risk":4,"arthritis_risk":5,"migraine_risk":7,"frizz_risk":1,"updated_at":"2026-07-04T10:07:15.850527+05:30"},{"city":"Trichy","state":"Tamil Nadu","latitude":10.7905,"longitude":78.7047,"temp":27.8,"humidity":75,"rain":0.1,"pressure":1000.3,"uv_index":8.5,"wind_gusts":53.3,"aqi":20,"pm10":5.8,"pm2_5":4.3,"no2":4.9,"co":115.0,"o3":51.0,"so2":2.5,"mosquito_risk":10,"arthritis_risk":5,"migraine_risk":4,"frizz_risk":1,"updated_at":"2026-07-04T10:07:15.850535+05:30"},{"city":"Salem","state":"Tamil Nadu","latitude":11.6643,"longitude":78.146,"temp":25.1,"humidity":89,"rain":0.0,"pressure":977.9,"uv_index":8.55,"wind_gusts":38.9,"aqi":32,"pm10":7.6,"pm2_5":6.6,"no2":8.8,"co":185.0,"o3":50.0,"so2":7.4,"mosquito_risk":7,"arthritis_risk":5,"migraine_risk":7,"frizz_risk":1,"updated_at":"2026-07-04T10:07:15.850544+05:30"},{"city":"Tirunelveli","state":"Tamil Nadu","latitude":8.7139,"longitude":77.7567,"temp":32.0,"humidity":51,"rain":0.0,"pressure":1004.6,"uv_index":6.5,"wind_gusts":47.9,"aqi":28,"pm10":5.4,"pm2_5":3.5,"no2":2.8,"co":130.0,"o3":53.0,"so2":1.2,"mosquito_risk":0,"arthritis_risk":5,"migraine_risk":4,"frizz_risk":1,"updated_at":"2026-07-04T10:07:15.850552+05:30"},{"city":"Vellore","state":"Tamil Nadu","latitude":12.9165,"longitude":79.1325,"temp":29.7,"humidity":59,"rain":0.0,"pressure":983.2,"uv_index":2.2,"wind_gusts":51.5,"aqi":24,"pm10":4.9,"pm2_5":3.7,"no2":5.1,"co":127.0,"o3":50.0,"so2":2.5,"mosquito_risk":4,"arthritis_risk":5,"migraine_risk":3,"frizz_risk":1,"updated_at":"2026-07-04T10:07:15.850560+05:30"},{"city":"Erode","state":"Tamil Nadu","latitude":11.341,"longitude":77.7172,"temp":26.1,"humidity":81,"rain":0.0,"pressure":989.7,"uv_index":8.65,"wind_gusts":53.3,"aqi":25,"pm10":7.4,"pm2_5":5.8,"no2":7.4,"co":158.0,"o3":46.0,"so2":2.7,"mosquito_risk":7,"arthritis_risk":5,"migraine_risk":7,"frizz_risk":1,"updated_at":"2026-07-04T10:07:15.850569+05:30"},{"city":"Kochi","state":"Kerala","latitude":9.9312,"longitude":76.2673,"temp":26.7,"humidity":86,"rain":0.1,"pressure":1011.7,"uv_index":5.9,"wind_gusts":46.4,"aqi":42,"pm10":14.3,"pm2_5":8.1,"no2":6.6,"co":140.0,"o3":46.0,"so2":2.8,"mosquito_risk":10,"arthritis_risk":0,"migraine_risk":0,"frizz_risk":1,"updated_at":"2026-07-04T10:07:15.850577+05:30"},{"city":"Thiruvananthapuram","state":"Kerala","latitude":8.5241,"longitude":76.9366,"temp":25.4,"humidity":90,"rain":0.1,"pressure":1011.4,"uv_index":3.95,"wind_gusts":45.7,"aqi":40,"pm10":13.4,"pm2_5":7.0,"no2":1.9,"co":110.0,"o3":50.0,"so2":0.6,"mosquito_risk":10,"arthritis_risk":0,"migraine_risk":0,"frizz_risk":1,"updated_at":"2026-07-04T10:07:15.850584+05:30"},{"city":"Kozhikode","state":"Kerala","latitude":11.2588,"longitude":75.7804,"temp":24.6,"humidity":94,"rain":0.5,"pressure":1010.8,"uv_index":7.5,"wind_gusts":33.8,"aqi":31,"pm10":13.4,"pm2_5":6.0,"no2":0.8,"co":145.0,"o3":56.0,"so2":0.6,"mosquito_risk":6,"arthritis_risk":0,"migraine_risk":4,"frizz_risk":1,"updated_at":"2026-07-04T10:07:15.850591+05:30"},{"city":"Thrissur","state":"Kerala","latitude":10.5276,"longitude":76.2144,"temp":25.7,"humidity":95,"rain":0.1,"pressure":1010.1,"uv_index":8.3,"wind_gusts":42.1,"aqi":36,"pm10":12.4,"pm2_5":8.0,"no2":5.1,"co":144.0,"o3":44.0,"so2":1.8,"mosquito_risk":10,"arthritis_risk":0,"migraine_risk":4,"frizz_risk":1,"updated_at":"2026-07-04T10:07:15.850599+05:30"},{"city":"Kannur","state":"Kerala","latitude":11.8745,"longitude":75.3704,"temp":24.4,"humidity":96,"rain":0.3,"pressure":1009.8,"uv_index":6.55,"wind_gusts":37.8,"aqi":33,"pm10":12.7,"pm2_5":6.4,"no2":3.4,"co":132.0,"o3":49.0,"so2":1.2,"mosquito_risk":6,"arthritis_risk":0,"migraine_risk":4,"frizz_risk":1,"updated_at":"2026-07-04T10:07:15.850607+05:30"},{"city":"Patna","state":"Bihar","latitude":25.5941,"longitude":85.1376,"temp":33.3,"humidity":64,"rain":0.1,"pressure":993.1,"uv_index":8.5,"wind_gusts":35.6,"aqi":77,"pm10":18.3,"pm2_5":17.9,"no2":5.8,"co":256.0,"o3":125.0,"so2":15.1,"mosquito_risk":6,"arthritis_risk":5,"migraine_risk":7,"frizz_risk":1,"updated_at":"2026-07-04T10:07:15.850614+05:30"},{"city":"Gaya","state":"Bihar","latitude":24.7914,"longitude":85.0002,"temp":33.1,"humidity":60,"rain":0.0,"pressure":986.4,"uv_index":8.55,"wind_gusts":36.7,"aqi":63,"pm10":14.8,"pm2_5":12.9,"no2":2.7,"co":201.0,"o3":101.0,"so2":7.8,"mosquito_risk":0,"arthritis_risk":5,"migraine_risk":7,"frizz_risk":1,"updated_at":"2026-07-04T10:07:15.850621+05:30"},{"city":"Muzaffarpur","state":"Bihar","latitude":26.1209,"longitude":85.3647,"temp":33.3,"humidity":66,"rain":0.1,"pressure":993.4,"uv_index":7.5,"wind_gusts":34.2,"aqi":84,"pm10":21.1,"pm2_5":20.8,"no2":5.7,"co":242.0,"o3":134.0,"so2":13.7,"mosquito_risk":6,"arthritis_risk":5,"migraine_risk":7,"frizz_risk":1,"updated_at":"2026-07-04T10:07:15.850628+05:30"},{"city":"Bhagalpur","state":"Bihar","latitude":25.2425,"longitude":87.0117,"temp":32.8,"humidity":68,"rain":0.0,"pressure":993.9,"uv_index":8.5,"wind_gusts":38.5,"aqi":65,"pm10":13.9,"pm2_5":12.3,"no2":4.5,"co":199.0,"o3":104.0,"so2":10.4,"mosquito_risk":3,"arthritis_risk":5,"migraine_risk":7,"frizz_risk":1,"updated_at":"2026-07-04T10:07:15.850635+05:30"},{"city":"Ranchi","state":"Jharkhand","latitude":23.3441,"longitude":85.3096,"temp":27.7,"humidity":74,"rain":0.1,"pressure":930.6,"uv_index":6.75,"wind_gusts":50.0,"aqi":71,"pm10":13.1,"pm2_5":11.8,"no2":10.1,"co":164.0,"o3":62.0,"so2":24.3,"mosquito_risk":10,"arthritis_risk":5,"migraine_risk":7,"frizz_risk":1,"updated_at":"2026-07-04T10:07:15.850642+05:30"},{"city":"Jamshedpur","state":"Jharkhand","latitude":22.8046,"longitude":86.2029,"temp":29.4,"humidity":76,"rain":0.1,"pressure":981.6,"uv_index":6.05,"wind_gusts":46.1,"aqi":62,"pm10":9.1,"pm2_5":8.6,"no2":6.5,"co":263.0,"o3":63.0,"so2":9.0,"mosquito_risk":10,"arthritis_risk":5,"migraine_risk":7,"frizz_risk":1,"updated_at":"2026-07-04T10:07:15.850650+05:30"},{"city":"Dhanbad","state":"Jharkhand","latitude":23.7957,"longitude":86.4304,"temp":31.2,"humidity":67,"rain":0.0,"pressure":972.1,"uv_index":7.45,"wind_gusts":52.6,"aqi":91,"pm10":18.7,"pm2_5":17.1,"no2":10.8,"co":177.0,"o3":63.0,"so2":30.2,"mosquito_risk":3,"arthritis_risk":5,"migraine_risk":7,"frizz_risk":1,"updated_at":"2026-07-04T10:07:15.850657+05:30"},{"city":"Bokaro","state":"Jharkhand","latitude":23.6693,"longitude":86.1511,"temp":30.9,"humidity":69,"rain":0.0,"pressure":976.0,"uv_index":7.55,"wind_gusts":51.8,"aqi":98,"pm10":18.6,"pm2_5":16.9,"no2":11.1,"co":187.0,"o3":64.0,"so2":33.7,"mosquito_risk":3,"arthritis_risk":5,"migraine_risk":7,"frizz_risk":1,"updated_at":"2026-07-04T10:07:15.850664+05:30"},{"city":"Bhubaneswar","state":"Odisha","latitude":20.2961,"longitude":85.8245,"temp":27.1,"humidity":92,"rain":0.0,"pressure":990.9,"uv_index":5.45,"wind_gusts":34.9,"aqi":83,"pm10":14.3,"pm2_5":14.1,"no2":10.0,"co":246.0,"o3":65.0,"so2":9.5,"mosquito_risk":7,"arthritis_risk":5,"migraine_risk":3,"frizz_risk":1,"updated_at":"2026-07-04T10:07:15.850671+05:30"},{"city":"Cuttack","state":"Odisha","latitude":20.4625,"longitude":85.8828,"temp":27.5,"humidity":92,"rain":0.1,"pressure":992.8,"uv_index":3.35,"wind_gusts":32.4,"aqi":83,"pm10":14.3,"pm2_5":14.1,"no2":10.0,"co":218.0,"o3":65.0,"so2":9.5,"mosquito_risk":10,"arthritis_risk":5,"migraine_risk":3,"frizz_risk":1,"updated_at":"2026-07-04T10:07:15.850678+05:30"},{"city":"Rourkela","state":"Odisha","latitude":22.2604,"longitude":84.8536,"temp":31.0,"humidity":67,"rain":0.0,"pressure":975.6,"uv_index":7.35,"wind_gusts":49.7,"aqi":68,"pm10":10.5,"pm2_5":9.7,"no2":7.7,"co":212.0,"o3":76.0,"so2":20.8,"mosquito_risk":3,"arthritis_risk":5,"migraine_risk":7,"frizz_risk":1,"updated_at":"2026-07-04T10:07:15.850685+05:30"},{"city":"Raipur","state":"Chhattisgarh","latitude":21.2514,"longitude":81.6296,"temp":29.6,"humidity":75,"rain":0.0,"pressure":966.7,"uv_index":7.25,"wind_gusts":37.1,"aqi":71,"pm10":22.8,"pm2_5":22.6,"no2":23.2,"co":255.0,"o3":83.0,"so2":55.9,"mosquito_risk":7,"arthritis_risk":5,"migraine_risk":7,"frizz_risk":1,"updated_at":"2026-07-04T10:07:15.850692+05:30"},{"city":"Bhilai","state":"Chhattisgarh","latitude":21.1938,"longitude":81.3509,"temp":29.3,"humidity":76,"rain":0.0,"pressure":967.2,"uv_index":8.25,"wind_gusts":29.9,"aqi":62,"pm10":21.0,"pm2_5":20.7,"no2":21.8,"co":225.0,"o3":81.0,"so2":55.9,"mosquito_risk":7,"arthritis_risk":5,"migraine_risk":7,"frizz_risk":1,"updated_at":"2026-07-04T10:07:15.850698+05:30"},{"city":"Guwahati","state":"Assam","latitude":26.1158,"longitude":91.7086,"temp":33.5,"humidity":63,"rain":0.0,"pressure":994.3,"uv_index":8.7,"wind_gusts":31.7,"aqi":44,"pm10":7.0,"pm2_5":6.9,"no2":1.2,"co":224.0,"o3":99.0,"so2":1.7,"mosquito_risk":3,"arthritis_risk":5,"migraine_risk":7,"frizz_risk":1,"updated_at":"2026-07-04T10:07:15.850705+05:30"},{"city":"Agartala","state":"Tripura","latitude":23.8315,"longitude":91.2868,"temp":31.8,"humidity":71,"rain":0.0,"pressure":999.3,"uv_index":8.25,"wind_gusts":35.6,"aqi":52,"pm10":6.8,"pm2_5":6.7,"no2":2.7,"co":140.0,"o3":111.0,"so2":1.0,"mosquito_risk":3,"arthritis_risk":5,"migraine_risk":7,"frizz_risk":1,"updated_at":"2026-07-04T10:07:15.850712+05:30"},{"city":"Shillong","state":"Meghalaya","latitude":25.5788,"longitude":91.8933,"temp":26.9,"humidity":63,"rain":0.1,"pressure":855.3,"uv_index":8.6,"wind_gusts":32.8,"aqi":26,"pm10":2.7,"pm2_5":2.6,"no2":0.8,"co":145.0,"o3":80.0,"so2":0.8,"mosquito_risk":10,"arthritis_risk":5,"migraine_risk":7,"frizz_risk":1,"updated_at":"2026-07-04T10:07:15.850718+05:30"},{"city":"Imphal","state":"Manipur","latitude":24.817,"longitude":93.9368,"temp":26.7,"humidity":75,"rain":0.1,"pressure":919.7,"uv_index":7.55,"wind_gusts":26.3,"aqi":33,"pm10":1.6,"pm2_5":1.6,"no2":1.1,"co":169.0,"o3":74.0,"so2":0.8,"mosquito_risk":10,"arthritis_risk":5,"migraine_risk":7,"frizz_risk":1,"updated_at":"2026-07-04T10:07:15.850725+05:30"},{"city":"Aizawl","state":"Mizoram","latitude":23.7271,"longitude":92.7176,"temp":26.9,"humidity":68,"rain":0.0,"pressure":888.2,"uv_index":8.1,"wind_gusts":24.5,"aqi":32,"pm10":5.4,"pm2_5":5.3,"no2":0.6,"co":145.0,"o3":80.0,"so2":0.6,"mosquito_risk":7,"arthritis_risk":5,"migraine_risk":7,"frizz_risk":1,"updated_at":"2026-07-04T10:07:15.850732+05:30"},{"city":"Kohima","state":"Nagaland","latitude":25.6701,"longitude":94.1077,"temp":28.4,"humidity":59,"rain":0.0,"pressure":853.9,"uv_index":9.0,"wind_gusts":27.4,"aqi":32,"pm10":3.4,"pm2_5":3.4,"no2":0.6,"co":145.0,"o3":81.0,"so2":0.6,"mosquito_risk":4,"arthritis_risk":5,"migraine_risk":7,"frizz_risk":1,"updated_at":"2026-07-04T10:07:15.850739+05:30"},{"city":"Gangtok","state":"Sikkim","latitude":27.3314,"longitude":88.6138,"temp":23.0,"humidity":78,"rain":0.1,"pressure":836.4,"uv_index":9.15,"wind_gusts":32.0,"aqi":42,"pm10":8.8,"pm2_5":8.2,"no2":1.0,"co":179.0,"o3":115.0,"so2":1.2,"mosquito_risk":6,"arthritis_risk":5,"migraine_risk":7,"frizz_risk":1,"updated_at":"2026-07-04T10:07:15.850746+05:30"},{"city":"Siliguri","state":"West Bengal","latitude":26.7271,"longitude":88.3953,"temp":31.8,"humidity":68,"rain":0.0,"pressure":986.8,"uv_index":8.7,"wind_gusts":28.1,"aqi":68,"pm10":17.4,"pm2_5":16.6,"no2":1.5,"co":299.0,"o3":134.0,"so2":2.7,"mosquito_risk":3,"arthritis_risk":5,"migraine_risk":7,"frizz_risk":1,"updated_at":"2026-07-04T10:07:19.124971+05:30"},{"city":"Durgapur","state":"West Bengal","latitude":23.5204,"longitude":87.3119,"temp":31.1,"humidity":72,"rain":0.0,"pressure":986.6,"uv_index":5.25,"wind_gusts":55.4,"aqi":71,"pm10":15.1,"pm2_5":13.4,"no2":8.1,"co":198.0,"o3":71.0,"so2":16.4,"mosquito_risk":3,"arthritis_risk":5,"migraine_risk":3,"frizz_risk":1,"updated_at":"2026-07-04T10:07:19.125011+05:30"},{"city":"Asansol","state":"West Bengal","latitude":23.6739,"longitude":86.9524,"temp":31.3,"humidity":69,"rain":0.1,"pressure":985.3,"uv_index":6.8,"wind_gusts":49.3,"aqi":71,"pm10":15.9,"pm2_5":14.0,"no2":8.7,"co":198.0,"o3":67.0,"so2":16.7,"mosquito_risk":6,"arthritis_risk":5,"migraine_risk":7,"frizz_risk":1,"updated_at":"2026-07-04T10:07:19.125024+05:30"},{"city":"Pondicherry","state":"Puducherry","latitude":11.9139,"longitude":79.8145,"temp":26.5,"humidity":90,"rain":0.1,"pressure":1008.0,"uv_index":7.1,"wind_gusts":45.0,"aqi":49,"pm10":11.4,"pm2_5":9.3,"no2":13.3,"co":246.0,"o3":37.0,"so2":12.1,"mosquito_risk":10,"arthritis_risk":0,"migraine_risk":4,"frizz_risk":1,"updated_at":"2026-07-04T10:07:19.125033+05:30"},{"city":"Port Blair","state":"Andaman and Nicobar Islands","latitude":11.6234,"longitude":92.7265,"temp":25.2,"humidity":96,"rain":0.3,"pressure":1007.5,"uv_index":6.8,"wind_gusts":51.5,"aqi":47,"pm10":20.7,"pm2_5":9.7,"no2":0.4,"co":100.0,"o3":48.0,"so2":0.4,"mosquito_risk":10,"arthritis_risk":5,"migraine_risk":4,"frizz_risk":1,"updated_at":"2026-07-04T10:07:19.125042+05:30"},{"city":"Haridwar","state":"Uttarakhand","latitude":29.9457,"longitude":78.1642,"temp":33.2,"humidity":61,"rain":0.0,"pressure":968.7,"uv_index":7.5,"wind_gusts":21.6,"aqi":83,"pm10":18.0,"pm2_5":18.0,"no2":1.0,"co":316.0,"o3":153.0,"so2":9.6,"mosquito_risk":3,"arthritis_risk":5,"migraine_risk":7,"frizz_risk":1,"updated_at":"2026-07-04T10:07:19.125050+05:30"},{"city":"Rishikesh","state":"Uttarakhand","latitude":30.0869,"longitude":78.2676,"temp":32.1,"humidity":62,"rain":0.0,"pressure":961.7,"uv_index":6.85,"wind_gusts":19.1,"aqi":59,"pm10":11.2,"pm2_5":11.1,"no2":1.4,"co":294.0,"o3":130.0,"so2":4.3,"mosquito_risk":3,"arthritis_risk":5,"migraine_risk":7,"frizz_risk":1,"updated_at":"2026-07-04T10:07:19.125058+05:30"},{"city":"Nainital","state":"Uttarakhand","latitude":29.3919,"longitude":79.4542,"temp":22.7,"humidity":71,"rain":0.0,"pressure":805.9,"uv_index":6.95,"wind_gusts":28.4,"aqi":64,"pm10":10.4,"pm2_5":10.2,"no2":0.6,"co":279.0,"o3":124.0,"so2":1.6,"mosquito_risk":3,"arthritis_risk":5,"migraine_risk":7,"frizz_risk":1,"updated_at":"2026-07-04T10:07:19.125066+05:30"},{"city":"Mussoorie","state":"Uttarakhand","latitude":30.4599,"longitude":78.0664,"temp":23.0,"humidity":69,"rain":0.1,"pressure":803.4,"uv_index":6.1,"wind_gusts":32.4,"aqi":53,"pm10":8.9,"pm2_5":8.9,"no2":1.6,"co":261.0,"o3":150.0,"so2":4.4,"mosquito_risk":6,"arthritis_risk":5,"migraine_risk":7,"frizz_risk":1,"updated_at":"2026-07-04T10:07:19.125073+05:30"},{"city":"Dharamshala","state":"Himachal Pradesh","latitude":32.219,"longitude":76.3234,"temp":23.6,"humidity":92,"rain":0.1,"pressure":866.8,"uv_index":8.45,"wind_gusts":31.0,"aqi":35,"pm10":6.5,"pm2_5":5.0,"no2":1.3,"co":301.0,"o3":118.0,"so2":0.9,"mosquito_risk":6,"arthritis_risk":5,"migraine_risk":7,"frizz_risk":1,"updated_at":"2026-07-04T10:07:19.125080+05:30"},{"city":"Dalhousie","state":"Himachal Pradesh","latitude":32.5387,"longitude":75.971,"temp":22.8,"humidity":76,"rain":0.0,"pressure":804.5,"uv_index":8.5,"wind_gusts":28.8,"aqi":59,"pm10":13.9,"pm2_5":12.9,"no2":4.5,"co":311.0,"o3":145.0,"so2":2.2,"mosquito_risk":3,"arthritis_risk":5,"migraine_risk":7,"frizz_risk":1,"updated_at":"2026-07-04T10:07:19.125087+05:30"},{"city":"Patiala","state":"Punjab","latitude":30.3398,"longitude":76.3869,"temp":32.5,"humidity":70,"rain":0.0,"pressure":972.6,"uv_index":7.55,"wind_gusts":18.0,"aqi":108,"pm10":32.6,"pm2_5":32.6,"no2":7.9,"co":533.0,"o3":142.0,"so2":11.1,"mosquito_risk":3,"arthritis_risk":5,"migraine_risk":7,"frizz_risk":1,"updated_at":"2026-07-04T10:07:19.125095+05:30"},{"city":"Bhatinda","state":"Punjab","latitude":30.211,"longitude":74.9455,"temp":32.9,"humidity":60,"rain":0.0,"pressure":977.7,"uv_index":8.25,"wind_gusts":29.9,"aqi":113,"pm10":86.1,"pm2_5":46.6,"no2":8.8,"co":428.0,"o3":151.0,"so2":18.7,"mosquito_risk":0,"arthritis_risk":5,"migraine_risk":7,"frizz_risk":1,"updated_at":"2026-07-04T10:07:19.125102+05:30"},{"city":"Rohtak","state":"Haryana","latitude":28.8955,"longitude":76.6066,"temp":33.5,"humidity":61,"rain":0.0,"pressure":975.5,"uv_index":6.8,"wind_gusts":31.7,"aqi":152,"pm10":131.3,"pm2_5":51.5,"no2":16.3,"co":549.0,"o3":147.0,"so2":27.8,"mosquito_risk":3,"arthritis_risk":5,"migraine_risk":7,"frizz_risk":1,"updated_at":"2026-07-04T10:07:19.125126+05:30"},{"city":"Panipat","state":"Haryana","latitude":29.3909,"longitude":76.9635,"temp":32.8,"humidity":67,"rain":0.0,"pressure":974.4,"uv_index":6.85,"wind_gusts":30.6,"aqi":151,"pm10":408.9,"pm2_5":83.6,"no2":13.6,"co":530.0,"o3":147.0,"so2":25.1,"mosquito_risk":3,"arthritis_risk":5,"migraine_risk":7,"frizz_risk":1,"updated_at":"2026-07-04T10:07:19.125134+05:30"},{"city":"Mathura","state":"Uttar Pradesh","latitude":27.4924,"longitude":77.6737,"temp":31.8,"humidity":69,"rain":0.1,"pressure":980.6,"uv_index":7.15,"wind_gusts":22.3,"aqi":107,"pm10":61.2,"pm2_5":32.1,"no2":10.9,"co":298.0,"o3":116.0,"so2":8.1,"mosquito_risk":6,"arthritis_risk":5,"migraine_risk":7,"frizz_risk":1,"updated_at":"2026-07-04T10:07:19.125141+05:30"},{"city":"Vrindavan","state":"Uttar Pradesh","latitude":27.5823,"longitude":77.7027,"temp":31.8,"humidity":68,"rain":0.0,"pressure":981.0,"uv_index":7.1,"wind_gusts":24.1,"aqi":107,"pm10":61.2,"pm2_5":32.1,"no2":10.9,"co":311.0,"o3":116.0,"so2":8.1,"mosquito_risk":3,"arthritis_risk":5,"migraine_risk":7,"frizz_risk":1,"updated_at":"2026-07-04T10:07:19.125149+05:30"},{"city":"Ayodhya","state":"Uttar Pradesh","latitude":26.7922,"longitude":82.1998,"temp":33.9,"humidity":61,"rain":0.0,"pressure":988.6,"uv_index":7.9,"wind_gusts":26.6,"aqi":95,"pm10":33.2,"pm2_5":32.4,"no2":5.0,"co":344.0,"o3":135.0,"so2":9.8,"mosquito_risk":3,"arthritis_risk":5,"migraine_risk":7,"frizz_risk":1,"updated_at":"2026-07-04T10:07:19.125156+05:30"},{"city":"Ratlam","state":"Madhya Pradesh","latitude":23.3315,"longitude":75.0367,"temp":27.2,"humidity":77,"rain":0.0,"pressure":948.6,"uv_index":5.2,"wind_gusts":28.8,"aqi":42,"pm10":18.0,"pm2_5":7.6,"no2":3.4,"co":191.0,"o3":67.0,"so2":3.2,"mosquito_risk":7,"arthritis_risk":5,"migraine_risk":3,"frizz_risk":1,"updated_at":"2026-07-04T10:07:19.125163+05:30"},{"city":"Sagar","state":"Madhya Pradesh","latitude":23.8388,"longitude":78.7378,"temp":29.3,"humidity":72,"rain":0.0,"pressure":943.8,"uv_index":8.0,"wind_gusts":25.6,"aqi":55,"pm10":13.6,"pm2_5":13.5,"no2":1.8,"co":220.0,"o3":115.0,"so2":8.4,"mosquito_risk":7,"arthritis_risk":5,"migraine_risk":7,"frizz_risk":1,"updated_at":"2026-07-04T10:07:19.125170+05:30"},{"city":"Satna","state":"Madhya Pradesh","latitude":24.6005,"longitude":80.8322,"temp":32.4,"humidity":66,"rain":0.0,"pressure":964.4,"uv_index":6.95,"wind_gusts":47.2,"aqi":66,"pm10":29.6,"pm2_5":29.1,"no2":3.8,"co":234.0,"o3":128.0,"so2":9.9,"mosquito_risk":3,"arthritis_risk":5,"migraine_risk":7,"frizz_risk":1,"updated_at":"2026-07-04T10:07:19.125178+05:30"},{"city":"Akola","state":"Maharashtra","latitude":20.7002,"longitude":77.0082,"temp":25.4,"humidity":95,"rain":0.1,"pressure":969.3,"uv_index":1.25,"wind_gusts":38.2,"aqi":21,"pm10":3.0,"pm2_5":2.8,"no2":8.0,"co":156.0,"o3":45.0,"so2":3.6,"mosquito_risk":10,"arthritis_risk":5,"migraine_risk":3,"frizz_risk":1,"updated_at":"2026-07-04T10:07:19.125186+05:30"},{"city":"Amravati","state":"Maharashtra","latitude":20.9374,"longitude":77.7796,"temp":26.3,"humidity":85,"rain":0.1,"pressure":961.1,"uv_index":7.65,"wind_gusts":38.5,"aqi":21,"pm10":3.0,"pm2_5":2.8,"no2":8.1,"co":208.0,"o3":46.0,"so2":5.5,"mosquito_risk":10,"arthritis_risk":5,"migraine_risk":7,"frizz_risk":1,"updated_at":"2026-07-04T10:07:19.125196+05:30"},{"city":"Latur","state":"Maharashtra","latitude":18.4088,"longitude":76.5604,"temp":25.3,"humidity":83,"rain":0.1,"pressure":935.4,"uv_index":0.9,"wind_gusts":46.4,"aqi":19,"pm10":2.8,"pm2_5":2.3,"no2":2.5,"co":127.0,"o3":49.0,"so2":1.5,"mosquito_risk":10,"arthritis_risk":5,"migraine_risk":3,"frizz_risk":1,"updated_at":"2026-07-04T10:07:19.125204+05:30"},{"city":"Nanded","state":"Maharashtra","latitude":19.1383,"longitude":77.3091,"temp":24.5,"humidity":91,"rain":0.1,"pressure":963.7,"uv_index":0.4,"wind_gusts":42.1,"aqi":17,"pm10":3.6,"pm2_5":3.3,"no2":5.5,"co":168.0,"o3":44.0,"so2":3.3,"mosquito_risk":6,"arthritis_risk":5,"migraine_risk":3,"frizz_risk":1,"updated_at":"2026-07-04T10:07:19.125211+05:30"},{"city":"Gulbarga","state":"Karnataka","latitude":17.3297,"longitude":76.8343,"temp":23.6,"humidity":94,"rain":0.8,"pressure":955.0,"uv_index":1.1,"wind_gusts":59.4,"aqi":19,"pm10":2.5,"pm2_5":2.0,"no2":3.9,"co":139.0,"o3":49.0,"so2":2.2,"mosquito_risk":6,"arthritis_risk":5,"migraine_risk":3,"frizz_risk":1,"updated_at":"2026-07-04T10:07:19.125218+05:30"},{"city":"Bidar","state":"Karnataka","latitude":17.9104,"longitude":77.5199,"temp":26.0,"humidity":77,"rain":0.1,"pressure":931.4,"uv_index":0.65,"wind_gusts":56.5,"aqi":19,"pm10":2.7,"pm2_5":2.5,"no2":4.2,"co":139.0,"o3":49.0,"so2":1.7,"mosquito_risk":10,"arthritis_risk":5,"migraine_risk":3,"frizz_risk":1,"updated_at":"2026-07-04T10:07:19.125225+05:30"},{"city":"Hospet","state":"Karnataka","latitude":15.2689,"longitude":76.3909,"temp":25.1,"humidity":77,"rain":0.0,"pressure":954.1,"uv_index":2.15,"wind_gusts":72.4,"aqi":20,"pm10":2.6,"pm2_5":2.3,"no2":4.6,"co":115.0,"o3":47.0,"so2":1.4,"mosquito_risk":7,"arthritis_risk":5,"migraine_risk":3,"frizz_risk":1,"updated_at":"2026-07-04T10:07:19.125232+05:30"},{"city":"Tirupur","state":"Tamil Nadu","latitude":11.1085,"longitude":77.3411,"temp":24.7,"humidity":86,"rain":0.0,"pressure":975.7,"uv_index":8.7,"wind_gusts":64.1,"aqi":26,"pm10":6.8,"pm2_5":5.8,"no2":7.9,"co":141.0,"o3":44.0,"so2":3.1,"mosquito_risk":3,"arthritis_risk":5,"migraine_risk":7,"frizz_risk":1,"updated_at":"2026-07-04T10:07:19.125238+05:30"},{"city":"Alappuzha","state":"Kerala","latitude":9.4981,"longitude":76.3388,"temp":26.2,"humidity":92,"rain":0.0,"pressure":1011.9,"uv_index":5.6,"wind_gusts":47.2,"aqi":42,"pm10":13.5,"pm2_5":7.0,"no2":3.7,"co":89.0,"o3":52.0,"so2":1.5,"mosquito_risk":7,"arthritis_risk":0,"migraine_risk":0,"frizz_risk":1,"updated_at":"2026-07-04T10:07:19.125245+05:30"},{"city":"Munnar","state":"Kerala","latitude":10.0889,"longitude":77.0595,"temp":16.9,"humidity":98,"rain":0.4,"pressure":857.7,"uv_index":6.25,"wind_gusts":54.7,"aqi":15,"pm10":4.6,"pm2_5":2.6,"no2":5.3,"co":105.0,"o3":39.0,"so2":1.5,"mosquito_risk":6,"arthritis_risk":10,"migraine_risk":7,"frizz_risk":1,"updated_at":"2026-07-04T10:07:19.125253+05:30"},{"city":"Silchar","state":"Assam","latitude":24.8333,"longitude":92.7789,"temp":32.9,"humidity":68,"rain":0.0,"pressure":997.3,"uv_index":8.5,"wind_gusts":34.6,"aqi":56,"pm10":11.2,"pm2_5":10.9,"no2":1.7,"co":215.0,"o3":112.0,"so2":3.5,"mosquito_risk":3,"arthritis_risk":5,"migraine_risk":7,"frizz_risk":1,"updated_at":"2026-07-04T10:07:19.125260+05:30"},{"city":"Dibrugarh","state":"Assam","latitude":27.4728,"longitude":94.912,"temp":33.5,"humidity":63,"rain":0.0,"pressure":989.0,"uv_index":8.9,"wind_gusts":24.1,"aqi":56,"pm10":7.6,"pm2_5":7.1,"no2":1.0,"co":193.0,"o3":122.0,"so2":1.6,"mosquito_risk":3,"arthritis_risk":5,"migraine_risk":7,"frizz_risk":1,"updated_at":"2026-07-04T10:07:19.125267+05:30"}]