[{"city":"Delhi","state":"Delhi","latitude":28.6139,"longitude":77.209,"temp":24.2,"humidity":56,"rain":0.0,"pressure":988.7,"uv_index":5.75,"wind_gusts":36.0,"aqi":183,"pm10":221.2,"pm2_5":83.6,"mosquito_risk":0,"arthritis_risk":5,"migraine_risk":3,"frizz_risk":0,"updated_at":"2026-03-02T10:20:33.772561+05:30"},{"city":"Mumbai","state":"Maharashtra","latitude":19.076,"longitude":72.8777,"temp":25.6,"humidity":78,"rain":0.0,"pressure":1013.0,"uv_index":7.35,"wind_gusts":26.6,"aqi":85,"pm10":54.7,"pm2_5":34.1,"mosquito_risk":7,"arthritis_risk":0,"migraine_risk":4,"frizz_risk":1,"updated_at":"2026-03-02T10:20:33.772602+05:30"},{"city":"Bangalore","state":"Karnataka","latitude":12.9716,"longitude":77.5946,"temp":26.1,"humidity":57,"rain":0.0,"pressure":915.5,"uv_index":9.05,"wind_gusts":25.2,"aqi":138,"pm10":50.3,"pm2_5":48.5,"mosquito_risk":4,"arthritis_risk":5,"migraine_risk":7,"frizz_risk":1,"updated_at":"2026-03-02T10:20:33.772617+05:30"},{"city":"Hyderabad","state":"Telangana","latitude":17.385,"longitude":78.4867,"temp":30.6,"humidity":46,"rain":0.0,"pressure":957.7,"uv_index":8.3,"wind_gusts":22.0,"aqi":149,"pm10":53.4,"pm2_5":52.2,"mosquito_risk":0,"arthritis_risk":5,"migraine_risk":7,"frizz_risk":1,"updated_at":"2026-03-02T10:20:33.772628+05:30"},{"city":"Chennai","state":"Tamil Nadu","latitude":13.0827,"longitude":80.2707,"temp":29.9,"humidity":60,"rain":0.0,"pressure":1011.7,"uv_index":8.8,"wind_gusts":30.6,"aqi":134,"pm10":55.8,"pm2_5":51.2,"mosquito_risk":4,"arthritis_risk":0,"migraine_risk":4,"frizz_risk":1,"updated_at":"2026-03-02T10:20:33.772637+05:30"},{"city":"Kolkata","state":"West Bengal","latitude":22.5726,"longitude":88.3639,"temp":28.8,"humidity":73,"rain":0.0,"pressure":1009.7,"uv_index":7.65,"wind_gusts":19.8,"aqi":135,"pm10":53.8,"pm2_5":50.9,"mosquito_risk":7,"arthritis_risk":0,"migraine_risk":4,"frizz_risk":1,"updated_at":"2026-03-02T10:20:33.772646+05:30"},{"city":"Pune","state":"Maharashtra","latitude":18.5204,"longitude":73.8567,"temp":29.1,"humidity":44,"rain":0.0,"pressure":952.9,"uv_index":7.85,"wind_gusts":26.6,"aqi":92,"pm10":29.6,"pm2_5":25.5,"mosquito_risk":4,"arthritis_risk":5,"migraine_risk":7,"frizz_risk":0,"updated_at":"2026-03-02T10:20:33.772658+05:30"},{"city":"Ahmedabad","state":"Gujarat","latitude":23.0225,"longitude":72.5714,"temp":27.5,"humidity":47,"rain":0.0,"pressure":1008.2,"uv_index":7.1,"wind_gusts":16.2,"aqi":103,"pm10":52.4,"pm2_5":39.5,"mosquito_risk":4,"arthritis_risk":0,"migraine_risk":4,"frizz_risk":0,"updated_at":"2026-03-02T10:20:33.772666+05:30"},{"city":"Jaipur","state":"Rajasthan","latitude":26.9124,"longitude":75.7873,"temp":29.1,"humidity":24,"rain":0.0,"pressure":965.7,"uv_index":6.55,"wind_gusts":30.6,"aqi":93,"pm10":112.9,"pm2_5":41.9,"mosquito_risk":4,"arthritis_risk":5,"migraine_risk":7,"frizz_risk":0,"updated_at":"2026-03-02T10:20:33.772673+05:30"},{"city":"Lucknow","state":"Uttar Pradesh","latitude":26.8467,"longitude":80.9462,"temp":24.7,"humidity":48,"rain":0.0,"pressure":998.4,"uv_index":6.25,"wind_gusts":37.1,"aqi":119,"pm10":220.7,"pm2_5":73.8,"mosquito_risk":0,"arthritis_risk":5,"migraine_risk":7,"frizz_risk":0,"updated_at":"2026-03-02T10:20:33.772681+05:30"},{"city":"Kanpur","state":"Uttar Pradesh","latitude":26.4499,"longitude":80.3319,"temp":24.9,"humidity":59,"rain":0.0,"pressure":997.2,"uv_index":6.25,"wind_gusts":32.4,"aqi":139,"pm10":324.1,"pm2_5":75.2,"mosquito_risk":0,"arthritis_risk":5,"migraine_risk":7,"frizz_risk":1,"updated_at":"2026-03-02T10:20:33.772687+05:30"},{"city":"Chandigarh","state":"Chandigarh","latitude":30.7333,"longitude":76.7794,"temp":22.7,"humidity":56,"rain":0.0,"pressure":973.5,"uv_index":5.6,"wind_gusts":39.6,"aqi":87,"pm10":42.5,"pm2_5":31.9,"mosquito_risk":0,"arthritis_risk":5,"migraine_risk":3,"frizz_risk":0,"updated_at":"2026-03-02T10:20:33.772694+05:30"},{"city":"Srinagar","state":"Jammu and Kashmir","latitude":34.0837,"longitude":74.7973,"temp":12.8,"humidity":52,"rain":0.0,"pressure":845.9,"uv_index":6.55,"wind_gusts":18.4,"aqi":143,"pm10":74.0,"pm2_5":58.8,"mosquito_risk":0,"arthritis_risk":5,"migraine_risk":7,"frizz_risk":0,"updated_at":"2026-03-02T10:20:33.772701+05:30"},{"city":"Jammu","state":"Jammu and Kashmir","latitude":32.7266,"longitude":74.857,"temp":23.0,"humidity":58,"rain":0.0,"pressure":977.9,"uv_index":6.25,"wind_gusts":28.4,"aqi":104,"pm10":47.3,"pm2_5":43.8,"mosquito_risk":0,"arthritis_risk":5,"migraine_risk":7,"frizz_risk":0,"updated_at":"2026-03-02T10:20:33.772708+05:30"},{"city":"Amritsar","state":"Punjab","latitude":31.634,"longitude":74.8723,"temp":22.9,"humidity":69,"rain":0.0,"pressure":986.4,"uv_index":6.0,"wind_gusts":26.6,"aqi":138,"pm10":77.8,"pm2_5":65.0,"mosquito_risk":3,"arthritis_risk":5,"migraine_risk":3,"frizz_risk":1,"updated_at":"2026-03-02T10:20:33.772714+05:30"},{"city":"Ludhiana","state":"Punjab","latitude":30.901,"longitude":75.8573,"temp":23.0,"humidity":62,"rain":0.0,"pressure":984.2,"uv_index":5.85,"wind_gusts":33.8,"aqi":159,"pm10":85.9,"pm2_5":74.0,"mosquito_risk":3,"arthritis_risk":5,"migraine_risk":3,"frizz_risk":0,"updated_at":"2026-03-02T10:20:33.772721+05:30"},{"city":"Jalandhar","state":"Punjab","latitude":31.326,"longitude":75.5762,"temp":22.6,"humidity":66,"rain":0.0,"pressure":985.3,"uv_index":6.05,"wind_gusts":31.3,"aqi":160,"pm10":89.9,"pm2_5":80.3,"mosquito_risk":3,"arthritis_risk":5,"migraine_risk":7,"frizz_risk":0,"updated_at":"2026-03-02T10:20:33.772730+05:30"},{"city":"Dehradun","state":"Uttarakhand","latitude":30.6284,"longitude":78.0322,"temp":16.7,"humidity":43,"rain":0.0,"pressure":831.9,"uv_index":6.0,"wind_gusts":26.6,"aqi":59,"pm10":18.2,"pm2_5":10.9,"mosquito_risk":0,"arthritis_risk":5,"migraine_risk":3,"frizz_risk":0,"updated_at":"2026-03-02T10:20:33.772737+05:30"},{"city":"Shimla","state":"Himachal Pradesh","latitude":31.1048,"longitude":77.1734,"temp":14.8,"humidity":45,"rain":0.0,"pressure":787.0,"uv_index":6.05,"wind_gusts":58.0,"aqi":72,"pm10":32.7,"pm2_5":18.8,"mosquito_risk":0,"arthritis_risk":5,"migraine_risk":7,"frizz_risk":0,"updated_at":"2026-03-02T10:20:33.772744+05:30"},{"city":"Manali","state":"Himachal Pradesh","latitude":32.2396,"longitude":77.1887,"temp":17.4,"humidity":12,"rain":0.0,"pressure":821.2,"uv_index":7.45,"wind_gusts":36.7,"aqi":55,"pm10":17.2,"pm2_5":12.7,"mosquito_risk":0,"arthritis_risk":5,"migraine_risk":7,"frizz_risk":1,"updated_at":"2026-03-02T10:20:33.772751+05:30"},{"city":"Gurgaon","state":"Haryana","latitude":28.4595,"longitude":77.0266,"temp":24.4,"humidity":62,"rain":0.0,"pressure":987.3,"uv_index":5.85,"wind_gusts":33.1,"aqi":711,"pm10":907.1,"pm2_5":156.0,"mosquito_risk":3,"arthritis_risk":5,"migraine_risk":3,"frizz_risk":1,"updated_at":"2026-03-02T10:20:33.772758+05:30"},{"city":"Noida","state":"Uttar Pradesh","latitude":28.5355,"longitude":77.391,"temp":24.8,"humidity":54,"rain":0.0,"pressure":990.2,"uv_index":5.75,"wind_gusts":35.6,"aqi":711,"pm10":907.1,"pm2_5":156.0,"mosquito_risk":0,"arthritis_risk":5,"migraine_risk":3,"frizz_risk":0,"updated_at":"2026-03-02T10:20:33.772764+05:30"},{"city":"Ghaziabad","state":"Uttar Pradesh","latitude":28.6692,"longitude":77.4538,"temp":23.2,"humidity":62,"rain":0.0,"pressure":988.1,"uv_index":5.75,"wind_gusts":35.3,"aqi":160,"pm10":230.5,"pm2_5":83.4,"mosquito_risk":3,"arthritis_risk":5,"migraine_risk":3,"frizz_risk":0,"updated_at":"2026-03-02T10:20:33.772771+05:30"},{"city":"Faridabad","state":"Haryana","latitude":28.4089,"longitude":77.3178,"temp":24.3,"humidity":62,"rain":0.0,"pressure":989.5,"uv_index":5.8,"wind_gusts":32.0,"aqi":711,"pm10":907.1,"pm2_5":156.0,"mosquito_risk":3,"arthritis_risk":5,"migraine_risk":3,"frizz_risk":1,"updated_at":"2026-03-02T10:20:33.772777+05:30"},{"city":"Meerut","state":"Uttar Pradesh","latitude":28.9845,"longitude":77.7064,"temp":23.0,"humidity":59,"rain":0.0,"pressure":986.7,"uv_index":5.6,"wind_gusts":38.9,"aqi":160,"pm10":230.5,"pm2_5":83.4,"mosquito_risk":0,"arthritis_risk":5,"migraine_risk":3,"frizz_risk":0,"updated_at":"2026-03-02T10:20:33.772786+05:30"},{"city":"Agra","state":"Uttar Pradesh","latitude":27.1767,"longitude":78.0081,"temp":25.8,"humidity":55,"rain":0.0,"pressure":993.8,"uv_index":6.1,"wind_gusts":28.8,"aqi":319,"pm10":389.3,"pm2_5":84.1,"mosquito_risk":4,"arthritis_risk":5,"migraine_risk":7,"frizz_risk":1,"updated_at":"2026-03-02T10:20:33.772792+05:30"},{"city":"Varanasi","state":"Uttar Pradesh","latitude":25.3176,"longitude":82.9739,"temp":25.6,"humidity":57,"rain":0.0,"pressure":1002.7,"uv_index":6.9,"wind_gusts":33.1,"aqi":97,"pm10":51.8,"pm2_5":26.2,"mosquito_risk":4,"arthritis_risk":5,"migraine_risk":4,"frizz_risk":1,"updated_at":"2026-03-02T10:20:33.772801+05:30"},{"city":"Prayagraj","state":"Uttar Pradesh","latitude":25.4358,"longitude":81.8463,"temp":25.8,"humidity":54,"rain":0.0,"pressure":1001.4,"uv_index":6.8,"wind_gusts":31.0,"aqi":100,"pm10":108.7,"pm2_5":37.4,"mosquito_risk":4,"arthritis_risk":5,"migraine_risk":4,"frizz_risk":0,"updated_at":"2026-03-02T10:20:33.772808+05:30"},{"city":"Gorakhpur","state":"Uttar Pradesh","latitude":26.7606,"longitude":83.3732,"temp":23.4,"humidity":61,"rain":0.0,"pressure":1001.7,"uv_index":6.6,"wind_gusts":25.9,"aqi":104,"pm10":157.9,"pm2_5":56.2,"mosquito_risk":3,"arthritis_risk":5,"migraine_risk":4,"frizz_risk":0,"updated_at":"2026-03-02T10:20:33.772814+05:30"},{"city":"Bareilly","state":"Uttar Pradesh","latitude":28.367,"longitude":79.4304,"temp":22.0,"humidity":59,"rain":0.0,"pressure":991.4,"uv_index":5.9,"wind_gusts":31.7,"aqi":128,"pm10":73.3,"pm2_5":56.5,"mosquito_risk":0,"arthritis_risk":5,"migraine_risk":3,"frizz_risk":0,"updated_at":"2026-03-02T10:20:33.772820+05:30"},{"city":"Aligarh","state":"Uttar Pradesh","latitude":27.8974,"longitude":78.088,"temp":24.6,"humidity":60,"rain":0.0,"pressure":991.3,"uv_index":5.85,"wind_gusts":32.8,"aqi":413,"pm10":510.4,"pm2_5":116.2,"mosquito_risk":0,"arthritis_risk":5,"migraine_risk":3,"frizz_risk":1,"updated_at":"2026-03-02T10:20:33.772826+05:30"},{"city":"Moradabad","state":"Uttar Pradesh","latitude":28.8386,"longitude":78.7733,"temp":22.0,"humidity":59,"rain":0.0,"pressure":988.3,"uv_index":5.75,"wind_gusts":35.3,"aqi":138,"pm10":74.5,"pm2_5":56.7,"mosquito_risk":0,"arthritis_risk":5,"migraine_risk":3,"frizz_risk":0,"updated_at":"2026-03-02T10:20:33.772834+05:30"},{"city":"Saharanpur","state":"Uttar Pradesh","latitude":29.9637,"longitude":77.546,"temp":21.7,"humidity":57,"rain":0.0,"pressure":980.0,"uv_index":5.4,"wind_gusts":52.9,"aqi":118,"pm10":60.1,"pm2_5":46.3,"mosquito_risk":0,"arthritis_risk":5,"migraine_risk":3,"frizz_risk":0,"updated_at":"2026-03-02T10:20:33.772840+05:30"},{"city":"Jhansi","state":"Uttar Pradesh","latitude":25.4484,"longitude":78.5685,"temp":27.7,"humidity":43,"rain":0.0,"pressure":984.1,"uv_index":6.7,"wind_gusts":28.1,"aqi":80,"pm10":39.8,"pm2_5":21.7,"mosquito_risk":4,"arthritis_risk":5,"migraine_risk":7,"frizz_risk":0,"updated_at":"2026-03-02T10:20:36.985146+05:30"},{"city":"Surat","state":"Gujarat","latitude":21.1702,"longitude":72.8311,"temp":27.2,"humidity":72,"rain":0.0,"pressure":1012.0,"uv_index":7.0,"wind_gusts":23.4,"aqi":135,"pm10":86.4,"pm2_5":67.8,"mosquito_risk":7,"arthritis_risk":0,"migraine_risk":4,"frizz_risk":1,"updated_at":"2026-03-02T10:20:36.985176+05:30"},{"city":"Vadodara","state":"Gujarat","latitude":22.3072,"longitude":73.1812,"temp":28.7,"humidity":51,"rain":0.0,"pressure":1010.1,"uv_index":7.1,"wind_gusts":11.9,"aqi":142,"pm10":64.5,"pm2_5":52.5,"mosquito_risk":4,"arthritis_risk":0,"migraine_risk":4,"frizz_risk":1,"updated_at":"2026-03-02T10:20:36.985185+05:30"},{"city":"Rajkot","state":"Gujarat","latitude":22.3039,"longitude":70.8022,"temp":25.9,"humidity":64,"rain":0.0,"pressure":1000.1,"uv_index":6.95,"wind_gusts":21.2,"aqi":69,"pm10":51.8,"pm2_5":20.6,"mosquito_risk":7,"arthritis_risk":5,"migraine_risk":4,"frizz_risk":1,"updated_at":"2026-03-02T10:20:36.985193+05:30"},{"city":"Thane","state":"Maharashtra","latitude":19.2183,"longitude":72.9781,"temp":27.4,"humidity":63,"rain":0.0,"pressure":1012.6,"uv_index":7.3,"wind_gusts":37.4,"aqi":85,"pm10":54.7,"pm2_5":34.1,"mosquito_risk":7,"arthritis_risk":0,"migraine_risk":4,"frizz_risk":1,"updated_at":"2026-03-02T10:20:36.985200+05:30"},{"city":"Nagpur","state":"Maharashtra","latitude":21.1458,"longitude":79.0882,"temp":29.3,"humidity":40,"rain":0.0,"pressure":978.6,"uv_index":7.7,"wind_gusts":22.7,"aqi":63,"pm10":30.9,"pm2_5":22.0,"mosquito_risk":4,"arthritis_risk":5,"migraine_risk":7,"frizz_risk":0,"updated_at":"2026-03-02T10:20:36.985207+05:30"},{"city":"Nashik","state":"Maharashtra","latitude":19.9975,"longitude":73.7898,"temp":27.7,"humidity":44,"rain":0.0,"pressure":950.2,"uv_index":7.5,"wind_gusts":28.1,"aqi":87,"pm10":38.0,"pm2_5":34.0,"mosquito_risk":4,"arthritis_risk":5,"migraine_risk":7,"frizz_risk":0,"updated_at":"2026-03-02T10:20:36.985214+05:30"},{"city":"Aurangabad","state":"Maharashtra","latitude":19.8762,"longitude":75.3433,"temp":28.7,"humidity":36,"rain":0.0,"pressure":949.1,"uv_index":8.0,"wind_gusts":21.2,"aqi":74,"pm10":22.8,"pm2_5":20.5,"mosquito_risk":4,"arthritis_risk":5,"migraine_risk":7,"frizz_risk":0,"updated_at":"2026-03-02T10:20:36.985221+05:30"},{"city":"Solapur","state":"Maharashtra","latitude":17.6599,"longitude":75.9064,"temp":27.8,"humidity":51,"rain":0.0,"pressure":961.4,"uv_index":8.25,"wind_gusts":14.0,"aqi":108,"pm10":44.7,"pm2_5":44.4,"mosquito_risk":4,"arthritis_risk":5,"migraine_risk":7,"frizz_risk":1,"updated_at":"2026-03-02T10:20:36.985228+05:30"},{"city":"Kolhapur","state":"Maharashtra","latitude":16.705,"longitude":74.2433,"temp":27.9,"humidity":42,"rain":0.0,"pressure":952.0,"uv_index":8.35,"wind_gusts":37.1,"aqi":85,"pm10":38.6,"pm2_5":33.2,"mosquito_risk":4,"arthritis_risk":5,"migraine_risk":7,"frizz_risk":0,"updated_at":"2026-03-02T10:20:36.985235+05:30"},{"city":"Goa","state":"Goa","latitude":15.2993,"longitude":74.124,"temp":28.3,"humidity":59,"rain":0.0,"pressure":1002.1,"uv_index":8.45,"wind_gusts":30.6,"aqi":67,"pm10":30.5,"pm2_5":21.5,"mosquito_risk":4,"arthritis_risk":5,"migraine_risk":4,"frizz_risk":1,"updated_at":"2026-03-02T10:20:36.985242+05:30"},{"city":"Jodhpur","state":"Rajasthan","latitude":26.2389,"longitude":73.0243,"temp":27.3,"humidity":45,"rain":0.0,"pressure":989.0,"uv_index":6.8,"wind_gusts":12.6,"aqi":82,"pm10":94.1,"pm2_5":32.0,"mosquito_risk":4,"arthritis_risk":5,"migraine_risk":7,"frizz_risk":0,"updated_at":"2026-03-02T10:20:36.985249+05:30"},{"city":"Udaipur","state":"Rajasthan","latitude":24.5854,"longitude":73.7125,"temp":27.7,"humidity":38,"rain":0.0,"pressure":952.3,"uv_index":7.4,"wind_gusts":15.5,"aqi":65,"pm10":27.9,"pm2_5":17.5,"mosquito_risk":4,"arthritis_risk":5,"migraine_risk":7,"frizz_risk":0,"updated_at":"2026-03-02T10:20:36.985255+05:30"},{"city":"Kota","state":"Rajasthan","latitude":25.2138,"longitude":75.8648,"temp":27.3,"humidity":48,"rain":0.0,"pressure":985.0,"uv_index":6.8,"wind_gusts":18.7,"aqi":85,"pm10":40.2,"pm2_5":32.2,"mosquito_risk":4,"arthritis_risk":5,"migraine_risk":7,"frizz_risk":0,"updated_at":"2026-03-02T10:20:36.985262+05:30"},{"city":"Bikaner","state":"Rajasthan","latitude":28.0229,"longitude":73.3119,"temp":27.0,"humidity":35,"rain":0.0,"pressure":987.5,"uv_index":6.5,"wind_gusts":19.4,"aqi":67,"pm10":39.5,"pm2_5":21.9,"mosquito_risk":4,"arthritis_risk":5,"migraine_risk":7,"frizz_risk":0,"updated_at":"2026-03-02T10:20:36.985269+05:30"},{"city":"Ajmer","state":"Rajasthan","latitude":26.4499,"longitude":74.6399,"temp":27.3,"humidity":39,"rain":0.0,"pressure":960.5,"uv_index":6.75,"wind_gusts":22.7,"aqi":81,"pm10":41.1,"pm2_5":25.4,"mosquito_risk":4,"arthritis_risk":5,"migraine_risk":7,"frizz_risk":0,"updated_at":"2026-03-02T10:20:36.985276+05:30"},{"city":"Gwalior","state":"Madhya Pradesh","latitude":26.2183,"longitude":78.1828,"temp":27.8,"humidity":45,"rain":0.0,"pressure":989.0,"uv_index":6.45,"wind_gusts":31.0,"aqi":92,"pm10":134.6,"pm2_5":36.8,"mosquito_risk":4,"arthritis_risk":5,"migraine_risk":7,"frizz_risk":0,"updated_at":"2026-03-02T10:20:36.985282+05:30"},{"city":"Indore","state":"Madhya Pradesh","latitude":22.7196,"longitude":75.8577,"temp":27.2,"humidity":49,"rain":0.0,"pressure":953.6,"uv_index":7.4,"wind_gusts":12.6,"aqi":92,"pm10":43.8,"pm2_5":34.6,"mosquito_risk":4,"arthritis_risk":5,"migraine_risk":7,"frizz_risk":0,"updated_at":"2026-03-02T10:20:36.985288+05:30"},{"city":"Bhopal","state":"Madhya Pradesh","latitude":23.2599,"longitude":77.4126,"temp":27.9,"humidity":43,"rain":0.0,"pressure":959.4,"uv_index":7.25,"wind_gusts":18.4,"aqi":81,"pm10":27.6,"pm2_5":23.0,"mosquito_risk":4,"arthritis_risk":5,"migraine_risk":7,"frizz_risk":0,"updated_at":"2026-03-02T10:20:36.985295+05:30"},{"city":"Jabalpur","state":"Madhya Pradesh","latitude":23.1815,"longitude":79.9864,"temp":27.6,"humidity":43,"rain":0.0,"pressure":967.3,"uv_index":7.35,"wind_gusts":19.4,"aqi":69,"pm10":38.3,"pm2_5":22.1,"mosquito_risk":4,"arthritis_risk":5,"migraine_risk":7,"frizz_risk":0,"updated_at":"2026-03-02T10:20:36.985301+05:30"},{"city":"Ujjain","state":"Madhya Pradesh","latitude":23.1765,"longitude":75.7885,"temp":26.5,"humidity":55,"rain":0.0,"pressure":959.5,"uv_index":7.3,"wind_gusts":11.5,"aqi":114,"pm10":54.8,"pm2_5":48.3,"mosquito_risk":4,"arthritis_risk":5,"migraine_risk":7,"frizz_risk":1,"updated_at":"2026-03-02T10:20:36.985309+05:30"},{"city":"Visakhapatnam","state":"Andhra Pradesh","latitude":17.6868,"longitude":83.2185,"temp":30.8,"humidity":50,"rain":0.0,"pressure":1007.9,"uv_index":8.35,"wind_gusts":41.0,"aqi":151,"pm10":66.8,"pm2_5":63.8,"mosquito_risk":0,"arthritis_risk":5,"migraine_risk":4,"frizz_risk":1,"updated_at":"2026-03-02T10:20:36.985316+05:30"},{"city":"Vijayawada","state":"Andhra Pradesh","latitude":16.5062,"longitude":80.648,"temp":28.9,"humidity":67,"rain":0.0,"pressure":1007.4,"uv_index":8.4,"wind_gusts":25.9,"aqi":145,"pm10":60.3,"pm2_5":56.0,"mosquito_risk":7,"arthritis_risk":5,"migraine_risk":4,"frizz_risk":1,"updated_at":"2026-03-02T10:20:36.985322+05:30"},{"city":"Guntur","state":"Andhra Pradesh","latitude":16.3067,"longitude":80.4365,"temp":29.2,"humidity":65,"rain":0.0,"pressure":1008.5,"uv_index":8.45,"wind_gusts":31.0,"aqi":136,"pm10":56.8,"pm2_5":53.6,"mosquito_risk":7,"arthritis_risk":0,"migraine_risk":4,"frizz_risk":1,"updated_at":"2026-03-02T10:20:36.985329+05:30"},{"city":"Nellore","state":"Andhra Pradesh","latitude":14.4426,"longitude":79.9865,"temp":30.3,"humidity":51,"rain":0.0,"pressure":1010.3,"uv_index":8.65,"wind_gusts":29.5,"aqi":129,"pm10":51.7,"pm2_5":48.7,"mosquito_risk":0,"arthritis_risk":0,"migraine_risk":4,"frizz_risk":1,"updated_at":"2026-03-02T10:20:36.985336+05:30"},{"city":"Kurnool","state":"Andhra Pradesh","latitude":15.8281,"longitude":78.0373,"temp":31.4,"humidity":43,"rain":0.0,"pressure":981.2,"uv_index":8.45,"wind_gusts":22.3,"aqi":122,"pm10":48.8,"pm2_5":47.6,"mosquito_risk":0,"arthritis_risk":5,"migraine_risk":7,"frizz_risk":1,"updated_at":"2026-03-02T10:20:36.985343+05:30"},{"city":"Kakinada","state":"Andhra Pradesh","latitude":16.9891,"longitude":82.2475,"temp":30.2,"humidity":59,"rain":0.0,"pressure":1012.1,"uv_index":8.35,"wind_gusts":30.6,"aqi":149,"pm10":61.2,"pm2_5":56.8,"mosquito_risk":0,"arthritis_risk":0,"migraine_risk":4,"frizz_risk":1,"updated_at":"2026-03-02T10:20:36.985350+05:30"},{"city":"Tirupati","state":"Andhra Pradesh","latitude":13.6288,"longitude":79.4192,"temp":30.8,"humidity":37,"rain":0.0,"pressure":995.9,"uv_index":8.75,"wind_gusts":27.7,"aqi":135,"pm10":49.0,"pm2_5":46.0,"mosquito_risk":0,"arthritis_risk":5,"migraine_risk":7,"frizz_risk":0,"updated_at":"2026-03-02T10:20:36.985356+05:30"},{"city":"Warangal","state":"Telangana","latitude":17.9689,"longitude":79.5941,"temp":28.6,"humidity":62,"rain":0.0,"pressure":983.6,"uv_index":8.15,"wind_gusts":17.3,"aqi":145,"pm10":49.0,"pm2_5":47.5,"mosquito_risk":7,"arthritis_risk":5,"migraine_risk":7,"frizz_risk":1,"updated_at":"2026-03-02T10:20:36.985362+05:30"},{"city":"Nizamabad","state":"Telangana","latitude":18.6725,"longitude":78.0941,"temp":29.8,"humidity":47,"rain":0.0,"pressure":969.6,"uv_index":8.05,"wind_gusts":27.0,"aqi":125,"pm10":57.4,"pm2_5":56.8,"mosquito_risk":4,"arthritis_risk":5,"migraine_risk":7,"frizz_risk":1,"updated_at":"2026-03-02T10:20:36.985369+05:30"},{"city":"Mysore","state":"Karnataka","latitude":12.2958,"longitude":76.6396,"temp":26.9,"humidity":55,"rain":0.0,"pressure":932.2,"uv_index":9.1,"wind_gusts":27.0,"aqi":152,"pm10":52.4,"pm2_5":50.8,"mosquito_risk":4,"arthritis_risk":5,"migraine_risk":7,"frizz_risk":1,"updated_at":"2026-03-02T10:20:36.985375+05:30"},{"city":"Mangalore","state":"Karnataka","latitude":12.9141,"longitude":74.856,"temp":27.7,"humidity":75,"rain":0.0,"pressure":1010.6,"uv_index":8.65,"wind_gusts":30.2,"aqi":52,"pm10":18.7,"pm2_5":14.4,"mosquito_risk":7,"arthritis_risk":0,"migraine_risk":4,"frizz_risk":1,"updated_at":"2026-03-02T10:20:36.985381+05:30"},{"city":"Hubli-Dharwad","state":"Karnataka","latitude":15.3647,"longitude":75.124,"temp":26.8,"humidity":57,"rain":0.0,"pressure":944.7,"uv_index":8.65,"wind_gusts":27.0,"aqi":64,"pm10":20.3,"pm2_5":18.9,"mosquito_risk":4,"arthritis_risk":5,"migraine_risk":7,"frizz_risk":1,"updated_at":"2026-03-02T10:20:36.985388+05:30"},{"city":"Belgaum","state":"Karnataka","latitude":15.8497,"longitude":74.4977,"temp":28.6,"humidity":33,"rain":0.0,"pressure":929.6,"uv_index":8.65,"wind_gusts":39.2,"aqi":67,"pm10":19.4,"pm2_5":16.7,"mosquito_risk":4,"arthritis_risk":5,"migraine_risk":7,"frizz_risk":0,"updated_at":"2026-03-02T10:20:40.198249+05:30"},{"city":"Coimbatore","state":"Tamil Nadu","latitude":11.0168,"longitude":76.9558,"temp":28.6,"humidity":56,"rain":0.0,"pressure":965.6,"uv_index":9.1,"wind_gusts":27.4,"aqi":150,"pm10":50.5,"pm2_5":48.9,"mosquito_risk":4,"arthritis_risk":5,"migraine_risk":7,"frizz_risk":1,"updated_at":"2026-03-02T10:20:40.198279+05:30"},{"city":"Madurai","state":"Tamil Nadu","latitude":9.9252,"longitude":78.1198,"temp":29.9,"humidity":47,"rain":0.0,"pressure":997.0,"uv_index":9.05,"wind_gusts":32.4,"aqi":128,"pm10":48.3,"pm2_5":45.4,"mosquito_risk":4,"arthritis_risk":5,"migraine_risk":7,"frizz_risk":1,"updated_at":"2026-03-02T10:20:40.198289+05:30"},{"city":"Trichy","state":"Tamil Nadu","latitude":10.7905,"longitude":78.7047,"temp":30.6,"humidity":52,"rain":0.0,"pressure":1003.6,"uv_index":8.95,"wind_gusts":29.9,"aqi":135,"pm10":47.0,"pm2_5":43.9,"mosquito_risk":0,"arthritis_risk":5,"migraine_risk":4,"frizz_risk":1,"updated_at":"2026-03-02T10:20:40.198296+05:30"},{"city":"Salem","state":"Tamil Nadu","latitude":11.6643,"longitude":78.146,"temp":30.9,"humidity":47,"rain":0.0,"pressure":981.2,"uv_index":9.0,"wind_gusts":31.7,"aqi":136,"pm10":51.6,"pm2_5":48.4,"mosquito_risk":0,"arthritis_risk":5,"migraine_risk":7,"frizz_risk":1,"updated_at":"2026-03-02T10:20:40.198303+05:30"},{"city":"Tirunelveli","state":"Tamil Nadu","latitude":8.7139,"longitude":77.7567,"temp":30.9,"humidity":40,"rain":0.0,"pressure":1007.1,"uv_index":9.1,"wind_gusts":39.6,"aqi":142,"pm10":46.6,"pm2_5":43.1,"mosquito_risk":0,"arthritis_risk":5,"migraine_risk":4,"frizz_risk":0,"updated_at":"2026-03-02T10:20:40.198310+05:30"},{"city":"Vellore","state":"Tamil Nadu","latitude":12.9165,"longitude":79.1325,"temp":30.6,"humidity":43,"rain":0.0,"pressure":988.7,"uv_index":8.85,"wind_gusts":34.6,"aqi":147,"pm10":55.6,"pm2_5":52.7,"mosquito_risk":0,"arthritis_risk":5,"migraine_risk":7,"frizz_risk":1,"updated_at":"2026-03-02T10:20:40.198316+05:30"},{"city":"Erode","state":"Tamil Nadu","latitude":11.341,"longitude":77.7172,"temp":31.0,"humidity":52,"rain":0.0,"pressure":992.8,"uv_index":9.0,"wind_gusts":30.2,"aqi":125,"pm10":48.2,"pm2_5":45.2,"mosquito_risk":0,"arthritis_risk":5,"migraine_risk":7,"frizz_risk":1,"updated_at":"2026-03-02T10:20:40.198323+05:30"},{"city":"Kochi","state":"Kerala","latitude":9.9312,"longitude":76.2673,"temp":27.2,"humidity":81,"rain":0.0,"pressure":1012.1,"uv_index":8.9,"wind_gusts":32.4,"aqi":89,"pm10":32.6,"pm2_5":31.1,"mosquito_risk":7,"arthritis_risk":0,"migraine_risk":4,"frizz_risk":1,"updated_at":"2026-03-02T10:20:40.198330+05:30"},{"city":"Thiruvananthapuram","state":"Kerala","latitude":8.5241,"longitude":76.9366,"temp":27.0,"humidity":79,"rain":0.0,"pressure":1011.2,"uv_index":8.95,"wind_gusts":27.0,"aqi":65,"pm10":24.0,"pm2_5":22.9,"mosquito_risk":7,"arthritis_risk":0,"migraine_risk":4,"frizz_risk":1,"updated_at":"2026-03-02T10:20:40.198336+05:30"},{"city":"Kozhikode","state":"Kerala","latitude":11.2588,"longitude":75.7804,"temp":28.8,"humidity":70,"rain":0.0,"pressure":1011.6,"uv_index":8.8,"wind_gusts":28.8,"aqi":56,"pm10":23.2,"pm2_5":18.7,"mosquito_risk":7,"arthritis_risk":0,"migraine_risk":4,"frizz_risk":1,"updated_at":"2026-03-02T10:20:40.198343+05:30"},{"city":"Thrissur","state":"Kerala","latitude":10.5276,"longitude":76.2144,"temp":29.7,"humidity":66,"rain":0.0,"pressure":1010.5,"uv_index":8.85,"wind_gusts":36.7,"aqi":98,"pm10":26.5,"pm2_5":24.2,"mosquito_risk":7,"arthritis_risk":0,"migraine_risk":4,"frizz_risk":1,"updated_at":"2026-03-02T10:20:40.198350+05:30"},{"city":"Kannur","state":"Kerala","latitude":11.8745,"longitude":75.3704,"temp":29.9,"humidity":60,"rain":0.0,"pressure":1010.8,"uv_index":8.75,"wind_gusts":33.8,"aqi":52,"pm10":17.2,"pm2_5":13.1,"mosquito_risk":4,"arthritis_risk":0,"migraine_risk":4,"frizz_risk":1,"updated_at":"2026-03-02T10:20:40.198356+05:30"},{"city":"Patna","state":"Bihar","latitude":25.5941,"longitude":85.1376,"temp":26.4,"humidity":49,"rain":0.0,"pressure":1005.2,"uv_index":7.05,"wind_gusts":29.2,"aqi":132,"pm10":80.8,"pm2_5":42.4,"mosquito_risk":4,"arthritis_risk":5,"migraine_risk":4,"frizz_risk":0,"updated_at":"2026-03-02T10:20:40.198363+05:30"},{"city":"Gaya","state":"Bihar","latitude":24.7914,"longitude":85.0002,"temp":28.2,"humidity":50,"rain":0.0,"pressure":998.6,"uv_index":7.15,"wind_gusts":27.4,"aqi":131,"pm10":68.7,"pm2_5":34.7,"mosquito_risk":4,"arthritis_risk":5,"migraine_risk":7,"frizz_risk":1,"updated_at":"2026-03-02T10:20:40.198369+05:30"},{"city":"Muzaffarpur","state":"Bihar","latitude":26.1209,"longitude":85.3647,"temp":26.2,"humidity":50,"rain":0.0,"pressure":1005.0,"uv_index":7.0,"wind_gusts":27.0,"aqi":124,"pm10":87.8,"pm2_5":47.8,"mosquito_risk":4,"arthritis_risk":5,"migraine_risk":4,"frizz_risk":0,"updated_at":"2026-03-02T10:20:40.198375+05:30"},{"city":"Bhagalpur","state":"Bihar","latitude":25.2425,"longitude":87.0117,"temp":26.5,"humidity":65,"rain":0.0,"pressure":1006.0,"uv_index":7.1,"wind_gusts":22.7,"aqi":150,"pm10":94.8,"pm2_5":61.9,"mosquito_risk":7,"arthritis_risk":5,"migraine_risk":4,"frizz_risk":1,"updated_at":"2026-03-02T10:20:40.198381+05:30"},{"city":"Ranchi","state":"Jharkhand","latitude":23.3441,"longitude":85.3096,"temp":27.5,"humidity":27,"rain":0.0,"pressure":942.3,"uv_index":7.8,"wind_gusts":42.8,"aqi":98,"pm10":90.1,"pm2_5":23.8,"mosquito_risk":4,"arthritis_risk":5,"migraine_risk":7,"frizz_risk":0,"updated_at":"2026-03-02T10:20:40.198387+05:30"},{"city":"Jamshedpur","state":"Jharkhand","latitude":22.8046,"longitude":86.2029,"temp":30.6,"humidity":36,"rain":0.0,"pressure":995.2,"uv_index":7.75,"wind_gusts":26.3,"aqi":154,"pm10":90.3,"pm2_5":52.9,"mosquito_risk":0,"arthritis_risk":5,"migraine_risk":7,"frizz_risk":0,"updated_at":"2026-03-02T10:20:40.198393+05:30"},{"city":"Dhanbad","state":"Jharkhand","latitude":23.7957,"longitude":86.4304,"temp":31.1,"humidity":27,"rain":0.0,"pressure":984.2,"uv_index":7.6,"wind_gusts":36.4,"aqi":144,"pm10":73.6,"pm2_5":38.9,"mosquito_risk":0,"arthritis_risk":5,"migraine_risk":7,"frizz_risk":0,"updated_at":"2026-03-02T10:20:40.198399+05:30"},{"city":"Bokaro","state":"Jharkhand","latitude":23.6693,"longitude":86.1511,"temp":30.4,"humidity":31,"rain":0.0,"pressure":988.3,"uv_index":7.6,"wind_gusts":40.7,"aqi":148,"pm10":80.1,"pm2_5":37.8,"mosquito_risk":0,"arthritis_risk":5,"migraine_risk":7,"frizz_risk":0,"updated_at":"2026-03-02T10:20:40.198405+05:30"},{"city":"Bhubaneswar","state":"Odisha","latitude":20.2961,"longitude":85.8245,"temp":30.3,"humidity":63,"rain":0.0,"pressure":1006.3,"uv_index":8.05,"wind_gusts":29.9,"aqi":135,"pm10":67.3,"pm2_5":65.2,"mosquito_risk":3,"arthritis_risk":5,"migraine_risk":4,"frizz_risk":1,"updated_at":"2026-03-02T10:20:40.198412+05:30"},{"city":"Cuttack","state":"Odisha","latitude":20.4625,"longitude":85.8828,"temp":30.5,"humidity":64,"rain":0.0,"pressure":1008.1,"uv_index":8.1,"wind_gusts":20.9,"aqi":135,"pm10":67.3,"pm2_5":65.2,"mosquito_risk":3,"arthritis_risk":0,"migraine_risk":4,"frizz_risk":1,"updated_at":"2026-03-02T10:20:40.198417+05:30"},{"city":"Rourkela","state":"Odisha","latitude":22.2604,"longitude":84.8536,"temp":30.5,"humidity":34,"rain":0.0,"pressure":989.8,"uv_index":7.65,"wind_gusts":27.4,"aqi":151,"pm10":69.4,"pm2_5":31.7,"mosquito_risk":0,"arthritis_risk":5,"migraine_risk":7,"frizz_risk":0,"updated_at":"2026-03-02T10:20:40.198423+05:30"},{"city":"Raipur","state":"Chhattisgarh","latitude":21.2514,"longitude":81.6296,"temp":30.0,"humidity":36,"rain":0.0,"pressure":980.1,"uv_index":7.75,"wind_gusts":24.1,"aqi":113,"pm10":47.7,"pm2_5":31.9,"mosquito_risk":4,"arthritis_risk":5,"migraine_risk":7,"frizz_risk":0,"updated_at":"2026-03-02T10:20:40.198429+05:30"},{"city":"Bhilai","state":"Chhattisgarh","latitude":21.1938,"longitude":81.3509,"temp":30.2,"humidity":37,"rain":0.0,"pressure":980.4,"uv_index":7.8,"wind_gusts":22.7,"aqi":92,"pm10":49.6,"pm2_5":37.5,"mosquito_risk":0,"arthritis_risk":5,"migraine_risk":7,"frizz_risk":0,"updated_at":"2026-03-02T10:20:40.198435+05:30"},{"city":"Guwahati","state":"Assam","latitude":26.1158,"longitude":91.7086,"temp":24.1,"humidity":69,"rain":0.0,"pressure":1007.1,"uv_index":7.0,"wind_gusts":28.4,"aqi":155,"pm10":78.7,"pm2_5":59.5,"mosquito_risk":3,"arthritis_risk":5,"migraine_risk":4,"frizz_risk":1,"updated_at":"2026-03-02T10:20:40.198441+05:30"},{"city":"Agartala","state":"Tripura","latitude":23.8315,"longitude":91.2868,"temp":27.4,"humidity":70,"rain":0.0,"pressure":1010.3,"uv_index":7.3,"wind_gusts":18.0,"aqi":109,"pm10":54.8,"pm2_5":49.8,"mosquito_risk":7,"arthritis_risk":0,"migraine_risk":4,"frizz_risk":1,"updated_at":"2026-03-02T10:20:40.198447+05:30"},{"city":"Shillong","state":"Meghalaya","latitude":25.5788,"longitude":91.8933,"temp":17.1,"humidity":41,"rain":0.0,"pressure":859.0,"uv_index":7.25,"wind_gusts":66.2,"aqi":120,"pm10":60.5,"pm2_5":39.6,"mosquito_risk":0,"arthritis_risk":5,"migraine_risk":7,"frizz_risk":0,"updated_at":"2026-03-02T10:20:40.198453+05:30"},{"city":"Imphal","state":"Manipur","latitude":24.817,"longitude":93.9368,"temp":20.1,"humidity":62,"rain":0.0,"pressure":927.1,"uv_index":7.45,"wind_gusts":72.4,"aqi":150,"pm10":63.8,"pm2_5":46.2,"mosquito_risk":3,"arthritis_risk":5,"migraine_risk":7,"frizz_risk":0,"updated_at":"2026-03-02T10:20:40.198459+05:30"},{"city":"Aizawl","state":"Mizoram","latitude":23.7271,"longitude":92.7176,"temp":20.7,"humidity":63,"rain":0.0,"pressure":896.7,"uv_index":6.75,"wind_gusts":41.8,"aqi":123,"pm10":66.1,"pm2_5":51.0,"mosquito_risk":3,"arthritis_risk":5,"migraine_risk":7,"frizz_risk":0,"updated_at":"2026-03-02T10:20:40.198465+05:30"},{"city":"Kohima","state":"Nagaland","latitude":25.6701,"longitude":94.1077,"temp":16.8,"humidity":58,"rain":0.0,"pressure":858.3,"uv_index":7.45,"wind_gusts":86.0,"aqi":151,"pm10":59.6,"pm2_5":40.2,"mosquito_risk":0,"arthritis_risk":5,"migraine_risk":7,"frizz_risk":0,"updated_at":"2026-03-02T10:20:40.198471+05:30"},{"city":"Gangtok","state":"Sikkim","latitude":27.3314,"longitude":88.6138,"temp":15.8,"humidity":63,"rain":0.0,"pressure":839.4,"uv_index":5.1,"wind_gusts":19.4,"aqi":137,"pm10":55.4,"pm2_5":37.7,"mosquito_risk":3,"arthritis_risk":5,"migraine_risk":3,"frizz_risk":0,"updated_at":"2026-03-02T10:20:40.198494+05:30"},{"city":"Siliguri","state":"West Bengal","latitude":26.7271,"longitude":88.3953,"temp":21.7,"humidity":64,"rain":0.0,"pressure":998.4,"uv_index":7.0,"wind_gusts":20.5,"aqi":172,"pm10":127.1,"pm2_5":85.9,"mosquito_risk":3,"arthritis_risk":5,"migraine_risk":7,"frizz_risk":0,"updated_at":"2026-03-02T10:20:43.418070+05:30"},{"city":"Durgapur","state":"West Bengal","latitude":23.5204,"longitude":87.3119,"temp":31.8,"humidity":31,"rain":0.0,"pressure":999.1,"uv_index":7.6,"wind_gusts":26.6,"aqi":142,"pm10":89.6,"pm2_5":52.9,"mosquito_risk":0,"arthritis_risk":5,"migraine_risk":7,"frizz_risk":0,"updated_at":"2026-03-02T10:20:43.418110+05:30"},{"city":"Asansol","state":"West Bengal","latitude":23.6739,"longitude":86.9524,"temp":31.6,"humidity":34,"rain":0.0,"pressure":997.9,"uv_index":7.6,"wind_gusts":29.2,"aqi":120,"pm10":78.7,"pm2_5":44.0,"mosquito_risk":0,"arthritis_risk":5,"migraine_risk":7,"frizz_risk":0,"updated_at":"2026-03-02T10:20:43.418123+05:30"},{"city":"Pondicherry","state":"Puducherry","latitude":11.9139,"longitude":79.8145,"temp":29.0,"humidity":68,"rain":0.0,"pressure":1012.8,"uv_index":8.8,"wind_gusts":27.7,"aqi":130,"pm10":57.0,"pm2_5":53.0,"mosquito_risk":7,"arthritis_risk":0,"migraine_risk":4,"frizz_risk":1,"updated_at":"2026-03-02T10:20:43.418133+05:30"},{"city":"Port Blair","state":"Andaman and Nicobar Islands","latitude":11.6234,"longitude":92.7265,"temp":27.6,"humidity":72,"rain":0.0,"pressure":1009.9,"uv_index":8.8,"wind_gusts":18.0,"aqi":72,"pm10":29.1,"pm2_5":23.7,"mosquito_risk":7,"arthritis_risk":0,"migraine_risk":4,"frizz_risk":1,"updated_at":"2026-03-02T10:20:43.418142+05:30"},{"city":"Haridwar","state":"Uttarakhand","latitude":29.9457,"longitude":78.1642,"temp":23.7,"humidity":58,"rain":0.0,"pressure":978.2,"uv_index":5.55,"wind_gusts":43.9,"aqi":96,"pm10":33.4,"pm2_5":29.0,"mosquito_risk":0,"arthritis_risk":5,"migraine_risk":3,"frizz_risk":0,"updated_at":"2026-03-02T10:20:43.418151+05:30"},{"city":"Rishikesh","state":"Uttarakhand","latitude":30.0869,"longitude":78.2676,"temp":24.4,"humidity":52,"rain":0.0,"pressure":970.7,"uv_index":5.6,"wind_gusts":34.2,"aqi":78,"pm10":28.8,"pm2_5":21.7,"mosquito_risk":0,"arthritis_risk":5,"migraine_risk":3,"frizz_risk":0,"updated_at":"2026-03-02T10:20:43.418160+05:30"},{"city":"Nainital","state":"Uttarakhand","latitude":29.3919,"longitude":79.4542,"temp":19.0,"humidity":54,"rain":0.0,"pressure":808.3,"uv_index":6.4,"wind_gusts":48.6,"aqi":80,"pm10":29.9,"pm2_5":23.0,"mosquito_risk":0,"arthritis_risk":5,"migraine_risk":7,"frizz_risk":0,"updated_at":"2026-03-02T10:20:43.418169+05:30"},{"city":"Mussoorie","state":"Uttarakhand","latitude":30.4599,"longitude":78.0664,"temp":17.3,"humidity":48,"rain":0.0,"pressure":804.7,"uv_index":5.9,"wind_gusts":32.8,"aqi":81,"pm10":27.0,"pm2_5":20.0,"mosquito_risk":0,"arthritis_risk":5,"migraine_risk":3,"frizz_risk":0,"updated_at":"2026-03-02T10:20:43.418178+05:30"},{"city":"Dharamshala","state":"Himachal Pradesh","latitude":32.219,"longitude":76.3234,"temp":20.0,"humidity":52,"rain":0.0,"pressure":872.3,"uv_index":6.15,"wind_gusts":27.4,"aqi":58,"pm10":10.7,"pm2_5":6.0,"mosquito_risk":0,"arthritis_risk":5,"migraine_risk":7,"frizz_risk":0,"updated_at":"2026-03-02T10:20:43.418186+05:30"},{"city":"Dalhousie","state":"Himachal Pradesh","latitude":32.5387,"longitude":75.971,"temp":18.7,"humidity":25,"rain":0.0,"pressure":807.3,"uv_index":6.35,"wind_gusts":23.8,"aqi":101,"pm10":28.6,"pm2_5":21.1,"mosquito_risk":0,"arthritis_risk":5,"migraine_risk":7,"frizz_risk":1,"updated_at":"2026-03-02T10:20:43.418195+05:30"},{"city":"Patiala","state":"Punjab","latitude":30.3398,"longitude":76.3869,"temp":23.0,"humidity":61,"rain":0.0,"pressure":983.5,"uv_index":5.55,"wind_gusts":37.1,"aqi":157,"pm10":74.7,"pm2_5":65.4,"mosquito_risk":3,"arthritis_risk":5,"migraine_risk":3,"frizz_risk":0,"updated_at":"2026-03-02T10:20:43.418204+05:30"},{"city":"Bhatinda","state":"Punjab","latitude":30.211,"longitude":74.9455,"temp":24.8,"humidity":62,"rain":0.0,"pressure":989.5,"uv_index":6.2,"wind_gusts":24.8,"aqi":158,"pm10":104.5,"pm2_5":80.6,"mosquito_risk":3,"arthritis_risk":5,"migraine_risk":7,"frizz_risk":1,"updated_at":"2026-03-02T10:20:43.418211+05:30"},{"city":"Rohtak","state":"Haryana","latitude":28.8955,"longitude":76.6066,"temp":24.3,"humidity":60,"rain":0.0,"pressure":987.6,"uv_index":5.75,"wind_gusts":33.8,"aqi":199,"pm10":239.3,"pm2_5":80.3,"mosquito_risk":0,"arthritis_risk":5,"migraine_risk":3,"frizz_risk":0,"updated_at":"2026-03-02T10:20:43.418220+05:30"},{"city":"Panipat","state":"Haryana","latitude":29.3909,"longitude":76.9635,"temp":23.1,"humidity":62,"rain":0.0,"pressure":985.8,"uv_index":5.55,"wind_gusts":34.6,"aqi":514,"pm10":642.6,"pm2_5":123.9,"mosquito_risk":3,"arthritis_risk":5,"migraine_risk":3,"frizz_risk":0,"updated_at":"2026-03-02T10:20:43.418228+05:30"},{"city":"Mathura","state":"Uttar Pradesh","latitude":27.4924,"longitude":77.6737,"temp":25.8,"humidity":56,"rain":0.0,"pressure":992.8,"uv_index":6.0,"wind_gusts":26.3,"aqi":344,"pm10":382.8,"pm2_5":80.8,"mosquito_risk":4,"arthritis_risk":5,"migraine_risk":3,"frizz_risk":1,"updated_at":"2026-03-02T10:20:43.418236+05:30"},{"city":"Vrindavan","state":"Uttar Pradesh","latitude":27.5823,"longitude":77.7027,"temp":25.3,"humidity":58,"rain":0.0,"pressure":993.2,"uv_index":6.0,"wind_gusts":29.9,"aqi":344,"pm10":382.8,"pm2_5":80.8,"mosquito_risk":4,"arthritis_risk":5,"migraine_risk":3,"frizz_risk":1,"updated_at":"2026-03-02T10:20:43.418244+05:30"},{"city":"Ayodhya","state":"Uttar Pradesh","latitude":26.7922,"longitude":82.1998,"temp":24.2,"humidity":51,"rain":0.0,"pressure":1000.0,"uv_index":6.4,"wind_gusts":35.6,"aqi":104,"pm10":184.9,"pm2_5":63.1,"mosquito_risk":0,"arthritis_risk":5,"migraine_risk":4,"frizz_risk":0,"updated_at":"2026-03-02T10:20:43.418251+05:30"},{"city":"Ratlam","state":"Madhya Pradesh","latitude":23.3315,"longitude":75.0367,"temp":26.7,"humidity":49,"rain":0.0,"pressure":960.2,"uv_index":7.25,"wind_gusts":7.6,"aqi":105,"pm10":41.1,"pm2_5":34.9,"mosquito_risk":4,"arthritis_risk":5,"migraine_risk":7,"frizz_risk":0,"updated_at":"2026-03-02T10:20:43.418260+05:30"},{"city":"Sagar","state":"Madhya Pradesh","latitude":23.8388,"longitude":78.7378,"temp":28.1,"humidity":34,"rain":0.0,"pressure":956.0,"uv_index":7.2,"wind_gusts":24.5,"aqi":66,"pm10":28.8,"pm2_5":20.4,"mosquito_risk":4,"arthritis_risk":5,"migraine_risk":7,"frizz_risk":0,"updated_at":"2026-03-02T10:20:43.418268+05:30"},{"city":"Satna","state":"Madhya Pradesh","latitude":24.6005,"longitude":80.8322,"temp":28.6,"humidity":30,"rain":0.0,"pressure":977.1,"uv_index":7.15,"wind_gusts":36.7,"aqi":64,"pm10":35.6,"pm2_5":17.5,"mosquito_risk":4,"arthritis_risk":5,"migraine_risk":7,"frizz_risk":0,"updated_at":"2026-03-02T10:20:43.418276+05:30"},{"city":"Akola","state":"Maharashtra","latitude":20.7002,"longitude":77.0082,"temp":30.2,"humidity":37,"rain":0.0,"pressure":980.6,"uv_index":7.75,"wind_gusts":23.8,"aqi":69,"pm10":24.1,"pm2_5":22.7,"mosquito_risk":0,"arthritis_risk":5,"migraine_risk":7,"frizz_risk":0,"updated_at":"2026-03-02T10:20:43.418285+05:30"},{"city":"Amravati","state":"Maharashtra","latitude":20.9374,"longitude":77.7796,"temp":31.1,"humidity":32,"rain":0.0,"pressure":972.8,"uv_index":7.7,"wind_gusts":22.7,"aqi":67,"pm10":25.0,"pm2_5":22.8,"mosquito_risk":0,"arthritis_risk":5,"migraine_risk":7,"frizz_risk":0,"updated_at":"2026-03-02T10:20:43.418294+05:30"},{"city":"Latur","state":"Maharashtra","latitude":18.4088,"longitude":76.5604,"temp":28.9,"humidity":38,"rain":0.0,"pressure":944.4,"uv_index":8.15,"wind_gusts":26.3,"aqi":79,"pm10":22.4,"pm2_5":22.1,"mosquito_risk":4,"arthritis_risk":5,"migraine_risk":7,"frizz_risk":0,"updated_at":"2026-03-02T10:20:43.418302+05:30"},{"city":"Nanded","state":"Maharashtra","latitude":19.1383,"longitude":77.3091,"temp":29.9,"humidity":38,"rain":0.0,"pressure":973.9,"uv_index":7.95,"wind_gusts":18.7,"aqi":76,"pm10":27.4,"pm2_5":26.9,"mosquito_risk":4,"arthritis_risk":5,"migraine_risk":7,"frizz_risk":0,"updated_at":"2026-03-02T10:20:43.418309+05:30"},{"city":"Gulbarga","state":"Karnataka","latitude":17.3297,"longitude":76.8343,"temp":30.6,"humidity":42,"rain":0.0,"pressure":963.1,"uv_index":8.25,"wind_gusts":19.4,"aqi":121,"pm10":48.1,"pm2_5":47.5,"mosquito_risk":0,"arthritis_risk":5,"migraine_risk":7,"frizz_risk":1,"updated_at":"2026-03-02T10:20:43.418316+05:30"},{"city":"Bidar","state":"Karnataka","latitude":17.9104,"longitude":77.5199,"temp":29.4,"humidity":47,"rain":0.0,"pressure":939.9,"uv_index":8.2,"wind_gusts":17.3,"aqi":150,"pm10":59.6,"pm2_5":58.9,"mosquito_risk":4,"arthritis_risk":5,"migraine_risk":7,"frizz_risk":1,"updated_at":"2026-03-02T10:20:43.418324+05:30"},{"city":"Hospet","state":"Karnataka","latitude":15.2689,"longitude":76.3909,"temp":27.2,"humidity":57,"rain":0.0,"pressure":960.0,"uv_index":8.6,"wind_gusts":21.2,"aqi":112,"pm10":26.7,"pm2_5":26.3,"mosquito_risk":4,"arthritis_risk":5,"migraine_risk":7,"frizz_risk":1,"updated_at":"2026-03-02T10:20:43.418331+05:30"},{"city":"Tirupur","state":"Tamil Nadu","latitude":11.1085,"longitude":77.3411,"temp":29.7,"humidity":53,"rain":0.0,"pressure":979.2,"uv_index":9.1,"wind_gusts":32.0,"aqi":151,"pm10":52.6,"pm2_5":50.4,"mosquito_risk":4,"arthritis_risk":5,"migraine_risk":7,"frizz_risk":1,"updated_at":"2026-03-02T10:20:43.418338+05:30"},{"city":"Alappuzha","state":"Kerala","latitude":9.4981,"longitude":76.3388,"temp":27.1,"humidity":79,"rain":0.0,"pressure":1012.1,"uv_index":8.9,"wind_gusts":29.5,"aqi":87,"pm10":35.0,"pm2_5":33.8,"mosquito_risk":7,"arthritis_risk":0,"migraine_risk":4,"frizz_risk":1,"updated_at":"2026-03-02T10:20:43.418346+05:30"},{"city":"Munnar","state":"Kerala","latitude":10.0889,"longitude":77.0595,"temp":26.1,"humidity":48,"rain":0.0,"pressure":861.0,"uv_index":9.4,"wind_gusts":23.8,"aqi":133,"pm10":41.7,"pm2_5":39.3,"mosquito_risk":4,"arthritis_risk":5,"migraine_risk":7,"frizz_risk":0,"updated_at":"2026-03-02T10:20:43.418355+05:30"},{"city":"Silchar","state":"Assam","latitude":24.8333,"longitude":92.7789,"temp":25.0,"humidity":66,"rain":0.0,"pressure":1010.4,"uv_index":7.35,"wind_gusts":18.7,"aqi":153,"pm10":72.4,"pm2_5":54.6,"mosquito_risk":7,"arthritis_risk":0,"migraine_risk":4,"frizz_risk":1,"updated_at":"2026-03-02T10:20:43.418363+05:30"},{"city":"Dibrugarh","state":"Assam","latitude":27.4728,"longitude":94.912,"temp":22.8,"humidity":69,"rain":0.0,"pressure":1001.4,"uv_index":7.05,"wind_gusts":11.9,"aqi":152,"pm10":83.6,"pm2_5":63.1,"mosquito_risk":3,"arthritis_risk":5,"migraine_risk":4,"frizz_risk":1,"updated_at":"2026-03-02T10:20:43.418370+05:30"}]