[{"city":"Delhi","state":"Delhi","latitude":28.6139,"longitude":77.209,"temp":24.2,"humidity":47,"rain":0.0,"pressure":984.4,"uv_index":5.7,"wind_gusts":31.7,"aqi":157,"pm10":362.3,"pm2_5":69.8,"mosquito_risk":0,"arthritis_risk":5,"migraine_risk":3,"frizz_risk":0,"updated_at":"2026-03-01T19:11:06.580397+05:30"},{"city":"Mumbai","state":"Maharashtra","latitude":19.076,"longitude":72.8777,"temp":26.3,"humidity":71,"rain":0.0,"pressure":1008.8,"uv_index":7.25,"wind_gusts":24.1,"aqi":93,"pm10":54.6,"pm2_5":27.2,"mosquito_risk":7,"arthritis_risk":0,"migraine_risk":4,"frizz_risk":1,"updated_at":"2026-03-01T19:11:06.580439+05:30"},{"city":"Bangalore","state":"Karnataka","latitude":12.9716,"longitude":77.5946,"temp":27.5,"humidity":41,"rain":0.0,"pressure":911.6,"uv_index":9.05,"wind_gusts":22.7,"aqi":157,"pm10":52.9,"pm2_5":51.9,"mosquito_risk":4,"arthritis_risk":5,"migraine_risk":7,"frizz_risk":0,"updated_at":"2026-03-01T19:11:06.580455+05:30"},{"city":"Hyderabad","state":"Telangana","latitude":17.385,"longitude":78.4867,"temp":29.8,"humidity":48,"rain":0.0,"pressure":953.2,"uv_index":8.3,"wind_gusts":27.4,"aqi":130,"pm10":47.6,"pm2_5":47.1,"mosquito_risk":4,"arthritis_risk":5,"migraine_risk":7,"frizz_risk":1,"updated_at":"2026-03-01T19:11:06.580464+05:30"},{"city":"Chennai","state":"Tamil Nadu","latitude":13.0827,"longitude":80.2707,"temp":27.2,"humidity":68,"rain":0.0,"pressure":1008.6,"uv_index":8.75,"wind_gusts":33.1,"aqi":141,"pm10":44.5,"pm2_5":40.6,"mosquito_risk":7,"arthritis_risk":0,"migraine_risk":4,"frizz_risk":1,"updated_at":"2026-03-01T19:11:06.580472+05:30"},{"city":"Kolkata","state":"West Bengal","latitude":22.5726,"longitude":88.3639,"temp":26.5,"humidity":72,"rain":0.0,"pressure":1006.5,"uv_index":7.6,"wind_gusts":25.2,"aqi":113,"pm10":57.2,"pm2_5":55.8,"mosquito_risk":7,"arthritis_risk":5,"migraine_risk":4,"frizz_risk":1,"updated_at":"2026-03-01T19:11:06.580481+05:30"},{"city":"Pune","state":"Maharashtra","latitude":18.5204,"longitude":73.8567,"temp":27.7,"humidity":48,"rain":0.0,"pressure":948.0,"uv_index":7.8,"wind_gusts":34.2,"aqi":152,"pm10":28.3,"pm2_5":26.5,"mosquito_risk":4,"arthritis_risk":5,"migraine_risk":7,"frizz_risk":0,"updated_at":"2026-03-01T19:11:06.580493+05:30"},{"city":"Ahmedabad","state":"Gujarat","latitude":23.0225,"longitude":72.5714,"temp":30.8,"humidity":38,"rain":0.0,"pressure":1002.4,"uv_index":7.05,"wind_gusts":21.2,"aqi":95,"pm10":33.8,"pm2_5":20.2,"mosquito_risk":0,"arthritis_risk":5,"migraine_risk":4,"frizz_risk":0,"updated_at":"2026-03-01T19:11:06.580501+05:30"},{"city":"Jaipur","state":"Rajasthan","latitude":26.9124,"longitude":75.7873,"temp":28.4,"humidity":24,"rain":0.0,"pressure":961.0,"uv_index":6.45,"wind_gusts":25.2,"aqi":92,"pm10":71.5,"pm2_5":24.5,"mosquito_risk":4,"arthritis_risk":5,"migraine_risk":7,"frizz_risk":0,"updated_at":"2026-03-01T19:11:06.580509+05:30"},{"city":"Lucknow","state":"Uttar Pradesh","latitude":26.8467,"longitude":80.9462,"temp":24.9,"humidity":31,"rain":0.0,"pressure":994.6,"uv_index":6.2,"wind_gusts":38.5,"aqi":128,"pm10":108.3,"pm2_5":33.4,"mosquito_risk":0,"arthritis_risk":5,"migraine_risk":7,"frizz_risk":0,"updated_at":"2026-03-01T19:11:06.580517+05:30"},{"city":"Kanpur","state":"Uttar Pradesh","latitude":26.4499,"longitude":80.3319,"temp":22.8,"humidity":43,"rain":0.0,"pressure":993.1,"uv_index":6.2,"wind_gusts":31.3,"aqi":152,"pm10":216.5,"pm2_5":44.0,"mosquito_risk":0,"arthritis_risk":5,"migraine_risk":7,"frizz_risk":0,"updated_at":"2026-03-01T19:11:06.580524+05:30"},{"city":"Chandigarh","state":"Chandigarh","latitude":30.7333,"longitude":76.7794,"temp":19.9,"humidity":52,"rain":0.0,"pressure":969.8,"uv_index":5.6,"wind_gusts":31.0,"aqi":105,"pm10":31.4,"pm2_5":26.5,"mosquito_risk":0,"arthritis_risk":5,"migraine_risk":3,"frizz_risk":0,"updated_at":"2026-03-01T19:11:06.580532+05:30"},{"city":"Srinagar","state":"Jammu and Kashmir","latitude":34.0837,"longitude":74.7973,"temp":13.3,"humidity":36,"rain":0.0,"pressure":840.3,"uv_index":6.45,"wind_gusts":15.1,"aqi":150,"pm10":50.4,"pm2_5":41.8,"mosquito_risk":0,"arthritis_risk":5,"migraine_risk":7,"frizz_risk":1,"updated_at":"2026-03-01T19:11:06.580539+05:30"},{"city":"Jammu","state":"Jammu and Kashmir","latitude":32.7266,"longitude":74.857,"temp":22.2,"humidity":58,"rain":0.0,"pressure":973.9,"uv_index":6.15,"wind_gusts":25.2,"aqi":98,"pm10":41.3,"pm2_5":31.1,"mosquito_risk":0,"arthritis_risk":5,"migraine_risk":7,"frizz_risk":0,"updated_at":"2026-03-01T19:11:06.580546+05:30"},{"city":"Amritsar","state":"Punjab","latitude":31.634,"longitude":74.8723,"temp":22.0,"humidity":59,"rain":0.0,"pressure":982.5,"uv_index":6.1,"wind_gusts":20.5,"aqi":127,"pm10":50.4,"pm2_5":33.3,"mosquito_risk":0,"arthritis_risk":5,"migraine_risk":7,"frizz_risk":0,"updated_at":"2026-03-01T19:11:06.580554+05:30"},{"city":"Ludhiana","state":"Punjab","latitude":30.901,"longitude":75.8573,"temp":22.6,"humidity":50,"rain":0.0,"pressure":980.4,"uv_index":5.8,"wind_gusts":25.9,"aqi":153,"pm10":72.4,"pm2_5":47.8,"mosquito_risk":0,"arthritis_risk":5,"migraine_risk":3,"frizz_risk":0,"updated_at":"2026-03-01T19:11:06.580560+05:30"},{"city":"Jalandhar","state":"Punjab","latitude":31.326,"longitude":75.5762,"temp":22.2,"humidity":51,"rain":0.0,"pressure":981.5,"uv_index":5.95,"wind_gusts":23.0,"aqi":155,"pm10":57.7,"pm2_5":41.4,"mosquito_risk":0,"arthritis_risk":5,"migraine_risk":3,"frizz_risk":0,"updated_at":"2026-03-01T19:11:06.580568+05:30"},{"city":"Dehradun","state":"Uttarakhand","latitude":30.6284,"longitude":78.0322,"temp":13.1,"humidity":54,"rain":0.0,"pressure":827.8,"uv_index":5.95,"wind_gusts":32.4,"aqi":98,"pm10":19.7,"pm2_5":14.5,"mosquito_risk":0,"arthritis_risk":5,"migraine_risk":3,"frizz_risk":0,"updated_at":"2026-03-01T19:11:06.580575+05:30"},{"city":"Shimla","state":"Himachal Pradesh","latitude":31.1048,"longitude":77.1734,"temp":11.3,"humidity":50,"rain":0.0,"pressure":782.8,"uv_index":6.0,"wind_gusts":50.4,"aqi":95,"pm10":18.8,"pm2_5":13.3,"mosquito_risk":0,"arthritis_risk":5,"migraine_risk":3,"frizz_risk":0,"updated_at":"2026-03-01T19:11:06.580582+05:30"},{"city":"Manali","state":"Himachal Pradesh","latitude":32.2396,"longitude":77.1887,"temp":13.0,"humidity":75,"rain":0.0,"pressure":817.7,"uv_index":7.6,"wind_gusts":34.9,"aqi":94,"pm10":19.2,"pm2_5":11.8,"mosquito_risk":3,"arthritis_risk":5,"migraine_risk":7,"frizz_risk":0,"updated_at":"2026-03-01T19:11:06.580591+05:30"},{"city":"Gurgaon","state":"Haryana","latitude":28.4595,"longitude":77.0266,"temp":21.9,"humidity":53,"rain":0.0,"pressure":982.8,"uv_index":5.8,"wind_gusts":31.0,"aqi":511,"pm10":851.2,"pm2_5":120.6,"mosquito_risk":0,"arthritis_risk":5,"migraine_risk":3,"frizz_risk":0,"updated_at":"2026-03-01T19:11:06.580597+05:30"},{"city":"Noida","state":"Uttar Pradesh","latitude":28.5355,"longitude":77.391,"temp":24.6,"humidity":44,"rain":0.0,"pressure":986.0,"uv_index":5.75,"wind_gusts":31.3,"aqi":511,"pm10":851.2,"pm2_5":120.6,"mosquito_risk":0,"arthritis_risk":5,"migraine_risk":3,"frizz_risk":0,"updated_at":"2026-03-01T19:11:06.580604+05:30"},{"city":"Ghaziabad","state":"Uttar Pradesh","latitude":28.6692,"longitude":77.4538,"temp":23.5,"humidity":51,"rain":0.0,"pressure":984.0,"uv_index":5.7,"wind_gusts":28.1,"aqi":153,"pm10":285.9,"pm2_5":57.7,"mosquito_risk":0,"arthritis_risk":5,"migraine_risk":3,"frizz_risk":0,"updated_at":"2026-03-01T19:11:06.580610+05:30"},{"city":"Faridabad","state":"Haryana","latitude":28.4089,"longitude":77.3178,"temp":23.3,"humidity":44,"rain":0.0,"pressure":985.2,"uv_index":5.75,"wind_gusts":28.8,"aqi":511,"pm10":851.2,"pm2_5":120.6,"mosquito_risk":0,"arthritis_risk":5,"migraine_risk":3,"frizz_risk":0,"updated_at":"2026-03-01T19:11:06.580620+05:30"},{"city":"Meerut","state":"Uttar Pradesh","latitude":28.9845,"longitude":77.7064,"temp":21.3,"humidity":56,"rain":0.0,"pressure":982.5,"uv_index":5.6,"wind_gusts":31.7,"aqi":153,"pm10":285.9,"pm2_5":57.7,"mosquito_risk":0,"arthritis_risk":5,"migraine_risk":3,"frizz_risk":0,"updated_at":"2026-03-01T19:11:06.580627+05:30"},{"city":"Agra","state":"Uttar Pradesh","latitude":27.1767,"longitude":78.0081,"temp":23.7,"humidity":44,"rain":0.0,"pressure":989.1,"uv_index":6.05,"wind_gusts":27.4,"aqi":188,"pm10":367.9,"pm2_5":60.8,"mosquito_risk":0,"arthritis_risk":5,"migraine_risk":7,"frizz_risk":0,"updated_at":"2026-03-01T19:11:06.580634+05:30"},{"city":"Varanasi","state":"Uttar Pradesh","latitude":25.3176,"longitude":82.9739,"temp":23.4,"humidity":65,"rain":0.0,"pressure":998.3,"uv_index":6.85,"wind_gusts":26.6,"aqi":142,"pm10":49.7,"pm2_5":36.2,"mosquito_risk":3,"arthritis_risk":5,"migraine_risk":7,"frizz_risk":1,"updated_at":"2026-03-01T19:11:06.580643+05:30"},{"city":"Prayagraj","state":"Uttar Pradesh","latitude":25.4358,"longitude":81.8463,"temp":23.9,"humidity":47,"rain":0.0,"pressure":996.9,"uv_index":6.7,"wind_gusts":28.1,"aqi":141,"pm10":48.1,"pm2_5":26.4,"mosquito_risk":0,"arthritis_risk":5,"migraine_risk":7,"frizz_risk":0,"updated_at":"2026-03-01T19:11:06.580651+05:30"},{"city":"Gorakhpur","state":"Uttar Pradesh","latitude":26.7606,"longitude":83.3732,"temp":22.3,"humidity":47,"rain":0.0,"pressure":997.4,"uv_index":6.55,"wind_gusts":32.4,"aqi":110,"pm10":35.0,"pm2_5":28.2,"mosquito_risk":0,"arthritis_risk":5,"migraine_risk":7,"frizz_risk":0,"updated_at":"2026-03-01T19:11:06.580658+05:30"},{"city":"Bareilly","state":"Uttar Pradesh","latitude":28.367,"longitude":79.4304,"temp":21.6,"humidity":53,"rain":0.0,"pressure":987.5,"uv_index":5.9,"wind_gusts":35.6,"aqi":124,"pm10":60.8,"pm2_5":35.5,"mosquito_risk":0,"arthritis_risk":5,"migraine_risk":3,"frizz_risk":0,"updated_at":"2026-03-01T19:11:06.580665+05:30"},{"city":"Aligarh","state":"Uttar Pradesh","latitude":27.8974,"longitude":78.088,"temp":22.4,"humidity":45,"rain":0.0,"pressure":986.7,"uv_index":5.8,"wind_gusts":31.3,"aqi":216,"pm10":570.0,"pm2_5":90.8,"mosquito_risk":0,"arthritis_risk":5,"migraine_risk":3,"frizz_risk":0,"updated_at":"2026-03-01T19:11:06.580672+05:30"},{"city":"Moradabad","state":"Uttar Pradesh","latitude":28.8386,"longitude":78.7733,"temp":21.2,"humidity":54,"rain":0.0,"pressure":984.4,"uv_index":5.7,"wind_gusts":33.8,"aqi":131,"pm10":55.3,"pm2_5":30.5,"mosquito_risk":0,"arthritis_risk":5,"migraine_risk":3,"frizz_risk":0,"updated_at":"2026-03-01T19:11:06.580678+05:30"},{"city":"Saharanpur","state":"Uttar Pradesh","latitude":29.9637,"longitude":77.546,"temp":20.6,"humidity":51,"rain":0.0,"pressure":976.3,"uv_index":5.35,"wind_gusts":38.2,"aqi":136,"pm10":78.7,"pm2_5":32.0,"mosquito_risk":0,"arthritis_risk":5,"migraine_risk":3,"frizz_risk":0,"updated_at":"2026-03-01T19:11:06.580685+05:30"},{"city":"Jhansi","state":"Uttar Pradesh","latitude":25.4484,"longitude":78.5685,"temp":24.1,"humidity":49,"rain":0.0,"pressure":979.3,"uv_index":6.65,"wind_gusts":24.5,"aqi":85,"pm10":46.4,"pm2_5":23.2,"mosquito_risk":0,"arthritis_risk":5,"migraine_risk":7,"frizz_risk":0,"updated_at":"2026-03-01T19:11:09.928383+05:30"},{"city":"Surat","state":"Gujarat","latitude":21.1702,"longitude":72.8311,"temp":27.0,"humidity":58,"rain":0.0,"pressure":1006.9,"uv_index":6.95,"wind_gusts":28.4,"aqi":105,"pm10":63.6,"pm2_5":53.8,"mosquito_risk":4,"arthritis_risk":5,"migraine_risk":4,"frizz_risk":1,"updated_at":"2026-03-01T19:11:09.928416+05:30"},{"city":"Vadodara","state":"Gujarat","latitude":22.3072,"longitude":73.1812,"temp":30.1,"humidity":44,"rain":0.0,"pressure":1004.4,"uv_index":7.05,"wind_gusts":11.9,"aqi":119,"pm10":44.0,"pm2_5":35.9,"mosquito_risk":0,"arthritis_risk":5,"migraine_risk":4,"frizz_risk":1,"updated_at":"2026-03-01T19:11:09.928428+05:30"},{"city":"Rajkot","state":"Gujarat","latitude":22.3039,"longitude":70.8022,"temp":29.9,"humidity":35,"rain":0.0,"pressure":994.7,"uv_index":6.9,"wind_gusts":23.4,"aqi":89,"pm10":40.6,"pm2_5":22.6,"mosquito_risk":4,"arthritis_risk":5,"migraine_risk":7,"frizz_risk":0,"updated_at":"2026-03-01T19:11:09.928437+05:30"},{"city":"Thane","state":"Maharashtra","latitude":19.2183,"longitude":72.9781,"temp":25.7,"humidity":68,"rain":0.0,"pressure":1008.2,"uv_index":7.25,"wind_gusts":36.4,"aqi":93,"pm10":54.6,"pm2_5":27.2,"mosquito_risk":7,"arthritis_risk":0,"migraine_risk":4,"frizz_risk":1,"updated_at":"2026-03-01T19:11:09.928446+05:30"},{"city":"Nagpur","state":"Maharashtra","latitude":21.1458,"longitude":79.0882,"temp":28.5,"humidity":48,"rain":0.0,"pressure":972.9,"uv_index":7.65,"wind_gusts":30.6,"aqi":106,"pm10":19.2,"pm2_5":18.5,"mosquito_risk":4,"arthritis_risk":5,"migraine_risk":7,"frizz_risk":1,"updated_at":"2026-03-01T19:11:09.928455+05:30"},{"city":"Nashik","state":"Maharashtra","latitude":19.9975,"longitude":73.7898,"temp":27.1,"humidity":40,"rain":0.0,"pressure":945.3,"uv_index":7.45,"wind_gusts":28.8,"aqi":92,"pm10":20.5,"pm2_5":16.2,"mosquito_risk":4,"arthritis_risk":5,"migraine_risk":7,"frizz_risk":0,"updated_at":"2026-03-01T19:11:09.928463+05:30"},{"city":"Aurangabad","state":"Maharashtra","latitude":19.8762,"longitude":75.3433,"temp":29.6,"humidity":32,"rain":0.0,"pressure":943.6,"uv_index":7.95,"wind_gusts":28.8,"aqi":121,"pm10":22.4,"pm2_5":21.5,"mosquito_risk":4,"arthritis_risk":5,"migraine_risk":7,"frizz_risk":0,"updated_at":"2026-03-01T19:11:09.928471+05:30"},{"city":"Solapur","state":"Maharashtra","latitude":17.6599,"longitude":75.9064,"temp":29.3,"humidity":45,"rain":0.0,"pressure":956.5,"uv_index":8.25,"wind_gusts":19.8,"aqi":150,"pm10":28.1,"pm2_5":27.5,"mosquito_risk":4,"arthritis_risk":5,"migraine_risk":7,"frizz_risk":1,"updated_at":"2026-03-01T19:11:09.928480+05:30"},{"city":"Kolhapur","state":"Maharashtra","latitude":16.705,"longitude":74.2433,"temp":25.4,"humidity":55,"rain":0.0,"pressure":947.3,"uv_index":8.35,"wind_gusts":38.2,"aqi":121,"pm10":28.8,"pm2_5":28.2,"mosquito_risk":4,"arthritis_risk":5,"migraine_risk":7,"frizz_risk":0,"updated_at":"2026-03-01T19:11:09.928489+05:30"},{"city":"Goa","state":"Goa","latitude":15.2993,"longitude":74.124,"temp":26.6,"humidity":70,"rain":0.0,"pressure":998.4,"uv_index":8.4,"wind_gusts":35.3,"aqi":65,"pm10":21.3,"pm2_5":17.1,"mosquito_risk":7,"arthritis_risk":5,"migraine_risk":7,"frizz_risk":1,"updated_at":"2026-03-01T19:11:09.928497+05:30"},{"city":"Jodhpur","state":"Rajasthan","latitude":26.2389,"longitude":73.0243,"temp":28.8,"humidity":33,"rain":0.0,"pressure":983.7,"uv_index":6.75,"wind_gusts":18.0,"aqi":92,"pm10":38.8,"pm2_5":18.4,"mosquito_risk":4,"arthritis_risk":5,"migraine_risk":7,"frizz_risk":0,"updated_at":"2026-03-01T19:11:09.928506+05:30"},{"city":"Udaipur","state":"Rajasthan","latitude":24.5854,"longitude":73.7125,"temp":26.3,"humidity":41,"rain":0.0,"pressure":947.4,"uv_index":7.35,"wind_gusts":25.2,"aqi":83,"pm10":25.3,"pm2_5":14.2,"mosquito_risk":4,"arthritis_risk":5,"migraine_risk":7,"frizz_risk":0,"updated_at":"2026-03-01T19:11:09.928514+05:30"},{"city":"Kota","state":"Rajasthan","latitude":25.2138,"longitude":75.8648,"temp":28.1,"humidity":42,"rain":0.0,"pressure":979.7,"uv_index":6.8,"wind_gusts":20.2,"aqi":85,"pm10":34.1,"pm2_5":22.7,"mosquito_risk":4,"arthritis_risk":5,"migraine_risk":7,"frizz_risk":0,"updated_at":"2026-03-01T19:11:09.928522+05:30"},{"city":"Bikaner","state":"Rajasthan","latitude":28.0229,"longitude":73.3119,"temp":29.8,"humidity":29,"rain":0.0,"pressure":983.0,"uv_index":6.45,"wind_gusts":16.2,"aqi":81,"pm10":33.1,"pm2_5":18.7,"mosquito_risk":4,"arthritis_risk":5,"migraine_risk":7,"frizz_risk":0,"updated_at":"2026-03-01T19:11:09.928529+05:30"},{"city":"Ajmer","state":"Rajasthan","latitude":26.4499,"longitude":74.6399,"temp":27.3,"humidity":37,"rain":0.0,"pressure":955.5,"uv_index":6.7,"wind_gusts":17.6,"aqi":94,"pm10":40.2,"pm2_5":20.8,"mosquito_risk":4,"arthritis_risk":5,"migraine_risk":7,"frizz_risk":0,"updated_at":"2026-03-01T19:11:09.928537+05:30"},{"city":"Gwalior","state":"Madhya Pradesh","latitude":26.2183,"longitude":78.1828,"temp":24.6,"humidity":51,"rain":0.0,"pressure":984.7,"uv_index":6.35,"wind_gusts":28.8,"aqi":99,"pm10":58.3,"pm2_5":21.2,"mosquito_risk":0,"arthritis_risk":5,"migraine_risk":7,"frizz_risk":0,"updated_at":"2026-03-01T19:11:09.928545+05:30"},{"city":"Indore","state":"Madhya Pradesh","latitude":22.7196,"longitude":75.8577,"temp":24.9,"humidity":52,"rain":0.0,"pressure":948.4,"uv_index":7.35,"wind_gusts":22.3,"aqi":87,"pm10":25.8,"pm2_5":21.8,"mosquito_risk":0,"arthritis_risk":5,"migraine_risk":7,"frizz_risk":0,"updated_at":"2026-03-01T19:11:09.928553+05:30"},{"city":"Bhopal","state":"Madhya Pradesh","latitude":23.2599,"longitude":77.4126,"temp":24.6,"humidity":50,"rain":0.0,"pressure":954.5,"uv_index":7.2,"wind_gusts":25.9,"aqi":85,"pm10":21.9,"pm2_5":18.3,"mosquito_risk":0,"arthritis_risk":5,"migraine_risk":7,"frizz_risk":0,"updated_at":"2026-03-01T19:11:09.928560+05:30"},{"city":"Jabalpur","state":"Madhya Pradesh","latitude":23.1815,"longitude":79.9864,"temp":24.5,"humidity":49,"rain":0.0,"pressure":961.8,"uv_index":7.3,"wind_gusts":39.2,"aqi":80,"pm10":18.1,"pm2_5":17.2,"mosquito_risk":0,"arthritis_risk":5,"migraine_risk":7,"frizz_risk":0,"updated_at":"2026-03-01T19:11:09.928568+05:30"},{"city":"Ujjain","state":"Madhya Pradesh","latitude":23.1765,"longitude":75.7885,"temp":25.0,"humidity":57,"rain":0.0,"pressure":954.3,"uv_index":7.2,"wind_gusts":20.5,"aqi":85,"pm10":31.7,"pm2_5":25.9,"mosquito_risk":4,"arthritis_risk":5,"migraine_risk":7,"frizz_risk":0,"updated_at":"2026-03-01T19:11:09.928576+05:30"},{"city":"Visakhapatnam","state":"Andhra Pradesh","latitude":17.6868,"longitude":83.2185,"temp":26.3,"humidity":74,"rain":0.0,"pressure":1005.1,"uv_index":8.3,"wind_gusts":39.2,"aqi":151,"pm10":53.3,"pm2_5":49.8,"mosquito_risk":7,"arthritis_risk":5,"migraine_risk":4,"frizz_risk":1,"updated_at":"2026-03-01T19:11:09.928584+05:30"},{"city":"Vijayawada","state":"Andhra Pradesh","latitude":16.5062,"longitude":80.648,"temp":28.3,"humidity":55,"rain":0.0,"pressure":1003.3,"uv_index":8.4,"wind_gusts":28.1,"aqi":150,"pm10":46.4,"pm2_5":45.1,"mosquito_risk":4,"arthritis_risk":5,"migraine_risk":4,"frizz_risk":1,"updated_at":"2026-03-01T19:11:09.928592+05:30"},{"city":"Guntur","state":"Andhra Pradesh","latitude":16.3067,"longitude":80.4365,"temp":27.5,"humidity":61,"rain":0.0,"pressure":1004.7,"uv_index":8.4,"wind_gusts":28.4,"aqi":145,"pm10":46.3,"pm2_5":45.3,"mosquito_risk":7,"arthritis_risk":5,"migraine_risk":4,"frizz_risk":1,"updated_at":"2026-03-01T19:11:09.928600+05:30"},{"city":"Nellore","state":"Andhra Pradesh","latitude":14.4426,"longitude":79.9865,"temp":27.5,"humidity":63,"rain":0.0,"pressure":1007.0,"uv_index":8.6,"wind_gusts":31.0,"aqi":140,"pm10":39.7,"pm2_5":37.3,"mosquito_risk":7,"arthritis_risk":5,"migraine_risk":4,"frizz_risk":1,"updated_at":"2026-03-01T19:11:09.928608+05:30"},{"city":"Kurnool","state":"Andhra Pradesh","latitude":15.8281,"longitude":78.0373,"temp":32.1,"humidity":32,"rain":0.0,"pressure":976.4,"uv_index":8.4,"wind_gusts":20.5,"aqi":139,"pm10":33.9,"pm2_5":33.4,"mosquito_risk":0,"arthritis_risk":5,"migraine_risk":7,"frizz_risk":0,"updated_at":"2026-03-01T19:11:09.928617+05:30"},{"city":"Kakinada","state":"Andhra Pradesh","latitude":16.9891,"longitude":82.2475,"temp":26.7,"humidity":67,"rain":0.0,"pressure":1008.4,"uv_index":8.3,"wind_gusts":33.5,"aqi":151,"pm10":44.8,"pm2_5":41.3,"mosquito_risk":7,"arthritis_risk":0,"migraine_risk":4,"frizz_risk":1,"updated_at":"2026-03-01T19:11:09.928625+05:30"},{"city":"Tirupati","state":"Andhra Pradesh","latitude":13.6288,"longitude":79.4192,"temp":28.5,"humidity":51,"rain":0.0,"pressure":992.2,"uv_index":8.7,"wind_gusts":28.4,"aqi":152,"pm10":43.1,"pm2_5":42.0,"mosquito_risk":4,"arthritis_risk":5,"migraine_risk":7,"frizz_risk":1,"updated_at":"2026-03-01T19:11:09.928632+05:30"},{"city":"Warangal","state":"Telangana","latitude":17.9689,"longitude":79.5941,"temp":29.2,"humidity":55,"rain":0.0,"pressure":978.8,"uv_index":8.1,"wind_gusts":27.7,"aqi":137,"pm10":59.6,"pm2_5":59.1,"mosquito_risk":4,"arthritis_risk":5,"migraine_risk":7,"frizz_risk":1,"updated_at":"2026-03-01T19:11:09.928640+05:30"},{"city":"Nizamabad","state":"Telangana","latitude":18.6725,"longitude":78.0941,"temp":30.3,"humidity":40,"rain":0.0,"pressure":964.6,"uv_index":8.0,"wind_gusts":20.9,"aqi":116,"pm10":28.6,"pm2_5":28.3,"mosquito_risk":0,"arthritis_risk":5,"migraine_risk":7,"frizz_risk":0,"updated_at":"2026-03-01T19:11:09.928648+05:30"},{"city":"Mysore","state":"Karnataka","latitude":12.2958,"longitude":76.6396,"temp":28.8,"humidity":37,"rain":0.0,"pressure":927.6,"uv_index":9.05,"wind_gusts":36.0,"aqi":157,"pm10":55.1,"pm2_5":53.8,"mosquito_risk":4,"arthritis_risk":5,"migraine_risk":7,"frizz_risk":0,"updated_at":"2026-03-01T19:11:09.928654+05:30"},{"city":"Mangalore","state":"Karnataka","latitude":12.9141,"longitude":74.856,"temp":28.2,"humidity":72,"rain":0.0,"pressure":1006.8,"uv_index":8.65,"wind_gusts":32.0,"aqi":49,"pm10":15.7,"pm2_5":11.0,"mosquito_risk":7,"arthritis_risk":5,"migraine_risk":4,"frizz_risk":1,"updated_at":"2026-03-01T19:11:09.928661+05:30"},{"city":"Hubli-Dharwad","state":"Karnataka","latitude":15.3647,"longitude":75.124,"temp":27.9,"humidity":44,"rain":0.0,"pressure":940.1,"uv_index":8.55,"wind_gusts":33.5,"aqi":135,"pm10":33.3,"pm2_5":32.5,"mosquito_risk":4,"arthritis_risk":5,"migraine_risk":7,"frizz_risk":0,"updated_at":"2026-03-01T19:11:09.928668+05:30"},{"city":"Belgaum","state":"Karnataka","latitude":15.8497,"longitude":74.4977,"temp":24.4,"humidity":62,"rain":0.0,"pressure":925.3,"uv_index":8.6,"wind_gusts":38.5,"aqi":134,"pm10":20.3,"pm2_5":19.4,"mosquito_risk":3,"arthritis_risk":5,"migraine_risk":7,"frizz_risk":1,"updated_at":"2026-03-01T19:11:13.274524+05:30"},{"city":"Coimbatore","state":"Tamil Nadu","latitude":11.0168,"longitude":76.9558,"temp":28.6,"humidity":50,"rain":0.0,"pressure":961.4,"uv_index":9.05,"wind_gusts":34.9,"aqi":157,"pm10":47.1,"pm2_5":46.1,"mosquito_risk":4,"arthritis_risk":5,"migraine_risk":7,"frizz_risk":1,"updated_at":"2026-03-01T19:11:13.274555+05:30"},{"city":"Madurai","state":"Tamil Nadu","latitude":9.9252,"longitude":78.1198,"temp":30.1,"humidity":45,"rain":0.0,"pressure":992.7,"uv_index":9.0,"wind_gusts":26.3,"aqi":150,"pm10":35.9,"pm2_5":34.8,"mosquito_risk":0,"arthritis_risk":5,"migraine_risk":7,"frizz_risk":1,"updated_at":"2026-03-01T19:11:13.274565+05:30"},{"city":"Trichy","state":"Tamil Nadu","latitude":10.7905,"longitude":78.7047,"temp":29.9,"humidity":49,"rain":0.0,"pressure":999.8,"uv_index":8.9,"wind_gusts":27.7,"aqi":149,"pm10":40.7,"pm2_5":39.1,"mosquito_risk":4,"arthritis_risk":5,"migraine_risk":7,"frizz_risk":1,"updated_at":"2026-03-01T19:11:13.274573+05:30"},{"city":"Salem","state":"Tamil Nadu","latitude":11.6643,"longitude":78.146,"temp":31.5,"humidity":37,"rain":0.0,"pressure":976.8,"uv_index":8.95,"wind_gusts":26.3,"aqi":151,"pm10":41.6,"pm2_5":40.5,"mosquito_risk":0,"arthritis_risk":5,"migraine_risk":7,"frizz_risk":0,"updated_at":"2026-03-01T19:11:13.274581+05:30"},{"city":"Tirunelveli","state":"Tamil Nadu","latitude":8.7139,"longitude":77.7567,"temp":28.2,"humidity":66,"rain":0.0,"pressure":1003.3,"uv_index":9.05,"wind_gusts":43.6,"aqi":136,"pm10":36.9,"pm2_5":35.9,"mosquito_risk":7,"arthritis_risk":5,"migraine_risk":4,"frizz_risk":1,"updated_at":"2026-03-01T19:11:13.274589+05:30"},{"city":"Vellore","state":"Tamil Nadu","latitude":12.9165,"longitude":79.1325,"temp":28.4,"humidity":49,"rain":0.0,"pressure":985.0,"uv_index":8.8,"wind_gusts":36.7,"aqi":155,"pm10":40.4,"pm2_5":39.2,"mosquito_risk":4,"arthritis_risk":5,"migraine_risk":7,"frizz_risk":1,"updated_at":"2026-03-01T19:11:13.274597+05:30"},{"city":"Erode","state":"Tamil Nadu","latitude":11.341,"longitude":77.7172,"temp":32.5,"humidity":35,"rain":0.0,"pressure":987.8,"uv_index":8.95,"wind_gusts":27.7,"aqi":142,"pm10":38.9,"pm2_5":37.7,"mosquito_risk":0,"arthritis_risk":5,"migraine_risk":7,"frizz_risk":0,"updated_at":"2026-03-01T19:11:13.274604+05:30"},{"city":"Kochi","state":"Kerala","latitude":9.9312,"longitude":76.2673,"temp":28.5,"humidity":76,"rain":0.0,"pressure":1008.3,"uv_index":8.9,"wind_gusts":36.4,"aqi":126,"pm10":29.2,"pm2_5":27.4,"mosquito_risk":7,"arthritis_risk":0,"migraine_risk":4,"frizz_risk":1,"updated_at":"2026-03-01T19:11:13.274612+05:30"},{"city":"Thiruvananthapuram","state":"Kerala","latitude":8.5241,"longitude":76.9366,"temp":28.0,"humidity":78,"rain":0.0,"pressure":1008.1,"uv_index":8.95,"wind_gusts":24.1,"aqi":152,"pm10":22.8,"pm2_5":19.4,"mosquito_risk":7,"arthritis_risk":0,"migraine_risk":4,"frizz_risk":1,"updated_at":"2026-03-01T19:11:13.274619+05:30"},{"city":"Kozhikode","state":"Kerala","latitude":11.2588,"longitude":75.7804,"temp":28.5,"humidity":74,"rain":0.0,"pressure":1007.6,"uv_index":8.75,"wind_gusts":31.3,"aqi":70,"pm10":15.9,"pm2_5":11.1,"mosquito_risk":7,"arthritis_risk":5,"migraine_risk":4,"frizz_risk":1,"updated_at":"2026-03-01T19:11:13.274626+05:30"},{"city":"Thrissur","state":"Kerala","latitude":10.5276,"longitude":76.2144,"temp":28.1,"humidity":75,"rain":0.0,"pressure":1006.7,"uv_index":8.85,"wind_gusts":40.3,"aqi":111,"pm10":22.6,"pm2_5":20.3,"mosquito_risk":7,"arthritis_risk":5,"migraine_risk":4,"frizz_risk":1,"updated_at":"2026-03-01T19:11:13.274634+05:30"},{"city":"Kannur","state":"Kerala","latitude":11.8745,"longitude":75.3704,"temp":28.1,"humidity":72,"rain":0.0,"pressure":1007.1,"uv_index":8.75,"wind_gusts":38.2,"aqi":59,"pm10":17.0,"pm2_5":12.2,"mosquito_risk":7,"arthritis_risk":5,"migraine_risk":4,"frizz_risk":1,"updated_at":"2026-03-01T19:11:13.274641+05:30"},{"city":"Patna","state":"Bihar","latitude":25.5941,"longitude":85.1376,"temp":25.8,"humidity":50,"rain":0.0,"pressure":1000.6,"uv_index":7.0,"wind_gusts":28.8,"aqi":141,"pm10":77.3,"pm2_5":48.1,"mosquito_risk":4,"arthritis_risk":5,"migraine_risk":4,"frizz_risk":0,"updated_at":"2026-03-01T19:11:13.274648+05:30"},{"city":"Gaya","state":"Bihar","latitude":24.7914,"longitude":85.0002,"temp":25.2,"humidity":57,"rain":0.0,"pressure":994.4,"uv_index":7.1,"wind_gusts":19.1,"aqi":119,"pm10":70.8,"pm2_5":43.8,"mosquito_risk":4,"arthritis_risk":5,"migraine_risk":7,"frizz_risk":1,"updated_at":"2026-03-01T19:11:13.274655+05:30"},{"city":"Muzaffarpur","state":"Bihar","latitude":26.1209,"longitude":85.3647,"temp":24.2,"humidity":49,"rain":0.0,"pressure":1000.5,"uv_index":6.95,"wind_gusts":31.0,"aqi":134,"pm10":69.2,"pm2_5":42.5,"mosquito_risk":0,"arthritis_risk":5,"migraine_risk":4,"frizz_risk":0,"updated_at":"2026-03-01T19:11:13.274662+05:30"},{"city":"Bhagalpur","state":"Bihar","latitude":25.2425,"longitude":87.0117,"temp":23.1,"humidity":64,"rain":0.0,"pressure":1001.5,"uv_index":7.05,"wind_gusts":22.3,"aqi":148,"pm10":78.9,"pm2_5":47.6,"mosquito_risk":3,"arthritis_risk":5,"migraine_risk":4,"frizz_risk":0,"updated_at":"2026-03-01T19:11:13.274669+05:30"},{"city":"Ranchi","state":"Jharkhand","latitude":23.3441,"longitude":85.3096,"temp":24.0,"humidity":47,"rain":0.0,"pressure":938.3,"uv_index":7.75,"wind_gusts":24.5,"aqi":103,"pm10":37.8,"pm2_5":36.3,"mosquito_risk":0,"arthritis_risk":5,"migraine_risk":7,"frizz_risk":0,"updated_at":"2026-03-01T19:11:13.274676+05:30"},{"city":"Jamshedpur","state":"Jharkhand","latitude":22.8046,"longitude":86.2029,"temp":28.8,"humidity":41,"rain":0.0,"pressure":991.2,"uv_index":7.7,"wind_gusts":10.8,"aqi":151,"pm10":62.6,"pm2_5":59.0,"mosquito_risk":4,"arthritis_risk":5,"migraine_risk":7,"frizz_risk":0,"updated_at":"2026-03-01T19:11:13.274683+05:30"},{"city":"Dhanbad","state":"Jharkhand","latitude":23.7957,"longitude":86.4304,"temp":28.9,"humidity":29,"rain":0.0,"pressure":980.2,"uv_index":7.55,"wind_gusts":24.1,"aqi":154,"pm10":56.1,"pm2_5":51.3,"mosquito_risk":4,"arthritis_risk":5,"migraine_risk":7,"frizz_risk":0,"updated_at":"2026-03-01T19:11:13.274690+05:30"},{"city":"Bokaro","state":"Jharkhand","latitude":23.6693,"longitude":86.1511,"temp":26.2,"humidity":37,"rain":0.0,"pressure":984.4,"uv_index":7.55,"wind_gusts":22.0,"aqi":154,"pm10":52.4,"pm2_5":48.9,"mosquito_risk":4,"arthritis_risk":5,"migraine_risk":7,"frizz_risk":0,"updated_at":"2026-03-01T19:11:13.274697+05:30"},{"city":"Bhubaneswar","state":"Odisha","latitude":20.2961,"longitude":85.8245,"temp":26.6,"humidity":72,"rain":0.0,"pressure":1003.6,"uv_index":8.05,"wind_gusts":27.0,"aqi":122,"pm10":53.3,"pm2_5":51.9,"mosquito_risk":7,"arthritis_risk":5,"migraine_risk":4,"frizz_risk":1,"updated_at":"2026-03-01T19:11:13.274704+05:30"},{"city":"Cuttack","state":"Odisha","latitude":20.4625,"longitude":85.8828,"temp":28.3,"humidity":57,"rain":0.0,"pressure":1005.0,"uv_index":8.05,"wind_gusts":27.0,"aqi":122,"pm10":53.3,"pm2_5":51.9,"mosquito_risk":4,"arthritis_risk":5,"migraine_risk":4,"frizz_risk":1,"updated_at":"2026-03-01T19:11:13.274710+05:30"},{"city":"Rourkela","state":"Odisha","latitude":22.2604,"longitude":84.8536,"temp":28.3,"humidity":45,"rain":0.0,"pressure":984.9,"uv_index":7.6,"wind_gusts":18.0,"aqi":142,"pm10":76.8,"pm2_5":75.7,"mosquito_risk":4,"arthritis_risk":5,"migraine_risk":7,"frizz_risk":0,"updated_at":"2026-03-01T19:11:13.274717+05:30"},{"city":"Raipur","state":"Chhattisgarh","latitude":21.2514,"longitude":81.6296,"temp":29.4,"humidity":35,"rain":0.0,"pressure":974.5,"uv_index":7.75,"wind_gusts":27.4,"aqi":155,"pm10":41.1,"pm2_5":40.6,"mosquito_risk":4,"arthritis_risk":5,"migraine_risk":7,"frizz_risk":0,"updated_at":"2026-03-01T19:11:13.274723+05:30"},{"city":"Bhilai","state":"Chhattisgarh","latitude":21.1938,"longitude":81.3509,"temp":28.1,"humidity":39,"rain":0.0,"pressure":974.7,"uv_index":7.75,"wind_gusts":28.1,"aqi":155,"pm10":31.0,"pm2_5":30.6,"mosquito_risk":4,"arthritis_risk":5,"migraine_risk":7,"frizz_risk":0,"updated_at":"2026-03-01T19:11:13.274730+05:30"},{"city":"Guwahati","state":"Assam","latitude":26.1158,"longitude":91.7086,"temp":22.1,"humidity":81,"rain":0.0,"pressure":1002.8,"uv_index":7.0,"wind_gusts":32.0,"aqi":162,"pm10":80.1,"pm2_5":68.2,"mosquito_risk":3,"arthritis_risk":5,"migraine_risk":4,"frizz_risk":1,"updated_at":"2026-03-01T19:11:13.274737+05:30"},{"city":"Agartala","state":"Tripura","latitude":23.8315,"longitude":91.2868,"temp":24.4,"humidity":69,"rain":0.0,"pressure":1006.7,"uv_index":7.35,"wind_gusts":27.4,"aqi":123,"pm10":53.8,"pm2_5":49.6,"mosquito_risk":3,"arthritis_risk":5,"migraine_risk":4,"frizz_risk":1,"updated_at":"2026-03-01T19:11:13.274744+05:30"},{"city":"Shillong","state":"Meghalaya","latitude":25.5788,"longitude":91.8933,"temp":11.3,"humidity":83,"rain":0.0,"pressure":854.1,"uv_index":6.8,"wind_gusts":56.9,"aqi":149,"pm10":73.1,"pm2_5":56.5,"mosquito_risk":3,"arthritis_risk":10,"migraine_risk":7,"frizz_risk":0,"updated_at":"2026-03-01T19:11:13.274750+05:30"},{"city":"Imphal","state":"Manipur","latitude":24.817,"longitude":93.9368,"temp":15.4,"humidity":67,"rain":0.0,"pressure":922.6,"uv_index":7.55,"wind_gusts":49.3,"aqi":153,"pm10":69.4,"pm2_5":54.5,"mosquito_risk":3,"arthritis_risk":5,"migraine_risk":7,"frizz_risk":0,"updated_at":"2026-03-01T19:11:13.274758+05:30"},{"city":"Aizawl","state":"Mizoram","latitude":23.7271,"longitude":92.7176,"temp":17.4,"humidity":64,"rain":0.0,"pressure":892.2,"uv_index":7.55,"wind_gusts":40.3,"aqi":128,"pm10":62.6,"pm2_5":49.2,"mosquito_risk":3,"arthritis_risk":5,"migraine_risk":7,"frizz_risk":0,"updated_at":"2026-03-01T19:11:13.274764+05:30"},{"city":"Kohima","state":"Nagaland","latitude":25.6701,"longitude":94.1077,"temp":12.6,"humidity":84,"rain":0.0,"pressure":853.1,"uv_index":7.4,"wind_gusts":70.9,"aqi":153,"pm10":95.7,"pm2_5":72.6,"mosquito_risk":3,"arthritis_risk":10,"migraine_risk":7,"frizz_risk":0,"updated_at":"2026-03-01T19:11:13.274771+05:30"},{"city":"Gangtok","state":"Sikkim","latitude":27.3314,"longitude":88.6138,"temp":11.5,"humidity":88,"rain":0.0,"pressure":834.8,"uv_index":5.3,"wind_gusts":12.6,"aqi":137,"pm10":75.2,"pm2_5":53.4,"mosquito_risk":3,"arthritis_risk":10,"migraine_risk":3,"frizz_risk":0,"updated_at":"2026-03-01T19:11:13.274777+05:30"},{"city":"Siliguri","state":"West Bengal","latitude":26.7271,"longitude":88.3953,"temp":19.5,"humidity":68,"rain":0.0,"pressure":994.3,"uv_index":7.0,"wind_gusts":31.0,"aqi":173,"pm10":119.2,"pm2_5":87.1,"mosquito_risk":3,"arthritis_risk":5,"migraine_risk":7,"frizz_risk":0,"updated_at":"2026-03-01T19:11:16.621907+05:30"},{"city":"Durgapur","state":"West Bengal","latitude":23.5204,"longitude":87.3119,"temp":29.7,"humidity":32,"rain":0.0,"pressure":995.1,"uv_index":7.55,"wind_gusts":26.3,"aqi":140,"pm10":56.2,"pm2_5":49.0,"mosquito_risk":4,"arthritis_risk":5,"migraine_risk":7,"frizz_risk":0,"updated_at":"2026-03-01T19:11:16.621941+05:30"},{"city":"Asansol","state":"West Bengal","latitude":23.6739,"longitude":86.9524,"temp":29.9,"humidity":31,"rain":0.0,"pressure":993.7,"uv_index":7.5,"wind_gusts":22.7,"aqi":124,"pm10":51.7,"pm2_5":45.3,"mosquito_risk":4,"arthritis_risk":5,"migraine_risk":7,"frizz_risk":0,"updated_at":"2026-03-01T19:11:16.621953+05:30"},{"city":"Pondicherry","state":"Puducherry","latitude":11.9139,"longitude":79.8145,"temp":26.0,"humidity":77,"rain":0.0,"pressure":1009.6,"uv_index":8.8,"wind_gusts":28.1,"aqi":137,"pm10":43.4,"pm2_5":39.1,"mosquito_risk":7,"arthritis_risk":0,"migraine_risk":4,"frizz_risk":1,"updated_at":"2026-03-01T19:11:16.621983+05:30"},{"city":"Port Blair","state":"Andaman and Nicobar Islands","latitude":11.6234,"longitude":92.7265,"temp":28.2,"humidity":67,"rain":0.0,"pressure":1007.0,"uv_index":8.75,"wind_gusts":25.6,"aqi":82,"pm10":24.2,"pm2_5":21.2,"mosquito_risk":7,"arthritis_risk":5,"migraine_risk":4,"frizz_risk":1,"updated_at":"2026-03-01T19:11:16.621993+05:30"},{"city":"Haridwar","state":"Uttarakhand","latitude":29.9457,"longitude":78.1642,"temp":22.0,"humidity":48,"rain":0.0,"pressure":974.9,"uv_index":5.4,"wind_gusts":37.1,"aqi":114,"pm10":32.6,"pm2_5":22.2,"mosquito_risk":0,"arthritis_risk":5,"migraine_risk":3,"frizz_risk":0,"updated_at":"2026-03-01T19:11:16.622002+05:30"},{"city":"Rishikesh","state":"Uttarakhand","latitude":30.0869,"longitude":78.2676,"temp":21.2,"humidity":49,"rain":0.0,"pressure":967.5,"uv_index":5.5,"wind_gusts":34.9,"aqi":116,"pm10":21.3,"pm2_5":17.2,"mosquito_risk":0,"arthritis_risk":5,"migraine_risk":3,"frizz_risk":0,"updated_at":"2026-03-01T19:11:16.622012+05:30"},{"city":"Nainital","state":"Uttarakhand","latitude":29.3919,"longitude":79.4542,"temp":15.1,"humidity":46,"rain":0.0,"pressure":804.3,"uv_index":6.3,"wind_gusts":40.0,"aqi":119,"pm10":28.6,"pm2_5":22.0,"mosquito_risk":0,"arthritis_risk":5,"migraine_risk":7,"frizz_risk":0,"updated_at":"2026-03-01T19:11:16.622021+05:30"},{"city":"Mussoorie","state":"Uttarakhand","latitude":30.4599,"longitude":78.0664,"temp":13.6,"humidity":53,"rain":0.0,"pressure":800.5,"uv_index":5.85,"wind_gusts":39.6,"aqi":116,"pm10":22.0,"pm2_5":18.3,"mosquito_risk":0,"arthritis_risk":5,"migraine_risk":3,"frizz_risk":0,"updated_at":"2026-03-01T19:11:16.622029+05:30"},{"city":"Dharamshala","state":"Himachal Pradesh","latitude":32.219,"longitude":76.3234,"temp":17.5,"humidity":48,"rain":0.0,"pressure":868.8,"uv_index":6.05,"wind_gusts":27.4,"aqi":101,"pm10":34.3,"pm2_5":23.2,"mosquito_risk":0,"arthritis_risk":5,"migraine_risk":7,"frizz_risk":0,"updated_at":"2026-03-01T19:11:16.622039+05:30"},{"city":"Dalhousie","state":"Himachal Pradesh","latitude":32.5387,"longitude":75.971,"temp":15.9,"humidity":35,"rain":0.0,"pressure":803.2,"uv_index":6.25,"wind_gusts":30.2,"aqi":109,"pm10":42.1,"pm2_5":32.2,"mosquito_risk":0,"arthritis_risk":5,"migraine_risk":7,"frizz_risk":0,"updated_at":"2026-03-01T19:11:16.622049+05:30"},{"city":"Patiala","state":"Punjab","latitude":30.3398,"longitude":76.3869,"temp":20.9,"humidity":55,"rain":0.0,"pressure":979.6,"uv_index":5.5,"wind_gusts":28.4,"aqi":154,"pm10":282.2,"pm2_5":65.0,"mosquito_risk":0,"arthritis_risk":5,"migraine_risk":3,"frizz_risk":0,"updated_at":"2026-03-01T19:11:16.622057+05:30"},{"city":"Bhatinda","state":"Punjab","latitude":30.211,"longitude":74.9455,"temp":23.1,"humidity":56,"rain":0.0,"pressure":985.3,"uv_index":6.2,"wind_gusts":21.2,"aqi":152,"pm10":79.4,"pm2_5":57.6,"mosquito_risk":0,"arthritis_risk":5,"migraine_risk":7,"frizz_risk":0,"updated_at":"2026-03-01T19:11:16.622066+05:30"},{"city":"Rohtak","state":"Haryana","latitude":28.8955,"longitude":76.6066,"temp":22.8,"humidity":53,"rain":0.0,"pressure":983.2,"uv_index":5.7,"wind_gusts":30.6,"aqi":159,"pm10":391.2,"pm2_5":75.9,"mosquito_risk":0,"arthritis_risk":5,"migraine_risk":3,"frizz_risk":0,"updated_at":"2026-03-01T19:11:16.622074+05:30"},{"city":"Panipat","state":"Haryana","latitude":29.3909,"longitude":76.9635,"temp":21.2,"humidity":54,"rain":0.0,"pressure":981.7,"uv_index":5.5,"wind_gusts":29.9,"aqi":312,"pm10":774.9,"pm2_5":109.7,"mosquito_risk":0,"arthritis_risk":5,"migraine_risk":3,"frizz_risk":0,"updated_at":"2026-03-01T19:11:16.622083+05:30"},{"city":"Mathura","state":"Uttar Pradesh","latitude":27.4924,"longitude":77.6737,"temp":24.1,"humidity":39,"rain":0.0,"pressure":988.2,"uv_index":5.95,"wind_gusts":25.6,"aqi":194,"pm10":460.1,"pm2_5":70.3,"mosquito_risk":0,"arthritis_risk":5,"migraine_risk":3,"frizz_risk":0,"updated_at":"2026-03-01T19:11:16.622091+05:30"},{"city":"Vrindavan","state":"Uttar Pradesh","latitude":27.5823,"longitude":77.7027,"temp":23.0,"humidity":45,"rain":0.0,"pressure":988.7,"uv_index":5.95,"wind_gusts":28.4,"aqi":194,"pm10":460.1,"pm2_5":70.3,"mosquito_risk":0,"arthritis_risk":5,"migraine_risk":3,"frizz_risk":0,"updated_at":"2026-03-01T19:11:16.622100+05:30"},{"city":"Ayodhya","state":"Uttar Pradesh","latitude":26.7922,"longitude":82.1998,"temp":23.2,"humidity":41,"rain":0.0,"pressure":996.0,"uv_index":6.35,"wind_gusts":36.4,"aqi":113,"pm10":35.0,"pm2_5":24.4,"mosquito_risk":0,"arthritis_risk":5,"migraine_risk":7,"frizz_risk":0,"updated_at":"2026-03-01T19:11:16.622108+05:30"},{"city":"Ratlam","state":"Madhya Pradesh","latitude":23.3315,"longitude":75.0367,"temp":26.3,"humidity":50,"rain":0.0,"pressure":955.2,"uv_index":7.2,"wind_gusts":27.7,"aqi":83,"pm10":27.7,"pm2_5":21.8,"mosquito_risk":4,"arthritis_risk":5,"migraine_risk":7,"frizz_risk":0,"updated_at":"2026-03-01T19:11:16.622117+05:30"},{"city":"Sagar","state":"Madhya Pradesh","latitude":23.8388,"longitude":78.7378,"temp":24.6,"humidity":50,"rain":0.0,"pressure":950.8,"uv_index":7.15,"wind_gusts":20.2,"aqi":95,"pm10":21.0,"pm2_5":17.0,"mosquito_risk":0,"arthritis_risk":5,"migraine_risk":7,"frizz_risk":0,"updated_at":"2026-03-01T19:11:16.622125+05:30"},{"city":"Satna","state":"Madhya Pradesh","latitude":24.6005,"longitude":80.8322,"temp":25.2,"humidity":40,"rain":0.0,"pressure":972.2,"uv_index":7.1,"wind_gusts":31.7,"aqi":94,"pm10":33.9,"pm2_5":21.4,"mosquito_risk":4,"arthritis_risk":5,"migraine_risk":7,"frizz_risk":0,"updated_at":"2026-03-01T19:11:16.622134+05:30"},{"city":"Akola","state":"Maharashtra","latitude":20.7002,"longitude":77.0082,"temp":29.8,"humidity":31,"rain":0.0,"pressure":975.0,"uv_index":7.7,"wind_gusts":28.4,"aqi":108,"pm10":21.3,"pm2_5":20.5,"mosquito_risk":4,"arthritis_risk":5,"migraine_risk":7,"frizz_risk":0,"updated_at":"2026-03-01T19:11:16.622143+05:30"},{"city":"Amravati","state":"Maharashtra","latitude":20.9374,"longitude":77.7796,"temp":29.0,"humidity":39,"rain":0.0,"pressure":967.2,"uv_index":7.65,"wind_gusts":27.4,"aqi":107,"pm10":18.7,"pm2_5":18.2,"mosquito_risk":4,"arthritis_risk":5,"migraine_risk":7,"frizz_risk":0,"updated_at":"2026-03-01T19:11:16.622153+05:30"},{"city":"Latur","state":"Maharashtra","latitude":18.4088,"longitude":76.5604,"temp":29.2,"humidity":43,"rain":0.0,"pressure":939.5,"uv_index":8.15,"wind_gusts":25.6,"aqi":126,"pm10":24.9,"pm2_5":24.4,"mosquito_risk":4,"arthritis_risk":5,"migraine_risk":7,"frizz_risk":0,"updated_at":"2026-03-01T19:11:16.622160+05:30"},{"city":"Nanded","state":"Maharashtra","latitude":19.1383,"longitude":77.3091,"temp":30.2,"humidity":42,"rain":0.0,"pressure":968.2,"uv_index":7.9,"wind_gusts":15.5,"aqi":116,"pm10":18.0,"pm2_5":17.6,"mosquito_risk":0,"arthritis_risk":5,"migraine_risk":7,"frizz_risk":0,"updated_at":"2026-03-01T19:11:16.622167+05:30"},{"city":"Gulbarga","state":"Karnataka","latitude":17.3297,"longitude":76.8343,"temp":31.5,"humidity":39,"rain":0.0,"pressure":958.2,"uv_index":8.25,"wind_gusts":17.6,"aqi":154,"pm10":39.9,"pm2_5":39.3,"mosquito_risk":0,"arthritis_risk":5,"migraine_risk":7,"frizz_risk":0,"updated_at":"2026-03-01T19:11:16.622174+05:30"},{"city":"Bidar","state":"Karnataka","latitude":17.9104,"longitude":77.5199,"temp":29.5,"humidity":46,"rain":0.0,"pressure":935.5,"uv_index":8.2,"wind_gusts":20.5,"aqi":153,"pm10":34.1,"pm2_5":33.8,"mosquito_risk":4,"arthritis_risk":5,"migraine_risk":7,"frizz_risk":1,"updated_at":"2026-03-01T19:11:16.622181+05:30"},{"city":"Hospet","state":"Karnataka","latitude":15.2689,"longitude":76.3909,"temp":32.0,"humidity":30,"rain":0.0,"pressure":955.2,"uv_index":8.55,"wind_gusts":24.5,"aqi":161,"pm10":44.8,"pm2_5":44.2,"mosquito_risk":0,"arthritis_risk":5,"migraine_risk":7,"frizz_risk":0,"updated_at":"2026-03-01T19:11:16.622187+05:30"},{"city":"Tirupur","state":"Tamil Nadu","latitude":11.1085,"longitude":77.3411,"temp":32.0,"humidity":34,"rain":0.0,"pressure":974.2,"uv_index":9.05,"wind_gusts":21.2,"aqi":159,"pm10":49.6,"pm2_5":48.5,"mosquito_risk":0,"arthritis_risk":5,"migraine_risk":7,"frizz_risk":0,"updated_at":"2026-03-01T19:11:16.622195+05:30"},{"city":"Alappuzha","state":"Kerala","latitude":9.4981,"longitude":76.3388,"temp":28.6,"humidity":75,"rain":0.0,"pressure":1008.4,"uv_index":8.9,"wind_gusts":34.9,"aqi":136,"pm10":23.4,"pm2_5":19.4,"mosquito_risk":7,"arthritis_risk":0,"migraine_risk":4,"frizz_risk":1,"updated_at":"2026-03-01T19:11:16.622202+05:30"},{"city":"Munnar","state":"Kerala","latitude":10.0889,"longitude":77.0595,"temp":22.5,"humidity":83,"rain":0.0,"pressure":857.2,"uv_index":9.35,"wind_gusts":25.2,"aqi":132,"pm10":43.7,"pm2_5":42.7,"mosquito_risk":3,"arthritis_risk":5,"migraine_risk":7,"frizz_risk":1,"updated_at":"2026-03-01T19:11:16.622209+05:30"},{"city":"Silchar","state":"Assam","latitude":24.8333,"longitude":92.7789,"temp":24.7,"humidity":64,"rain":0.0,"pressure":1005.3,"uv_index":7.3,"wind_gusts":20.5,"aqi":157,"pm10":87.5,"pm2_5":66.6,"mosquito_risk":3,"arthritis_risk":5,"migraine_risk":4,"frizz_risk":1,"updated_at":"2026-03-01T19:11:16.622216+05:30"},{"city":"Dibrugarh","state":"Assam","latitude":27.4728,"longitude":94.912,"temp":20.6,"humidity":79,"rain":0.0,"pressure":997.7,"uv_index":7.0,"wind_gusts":13.7,"aqi":159,"pm10":95.7,"pm2_5":80.8,"mosquito_risk":3,"arthritis_risk":5,"migraine_risk":7,"frizz_risk":1,"updated_at":"2026-03-01T19:11:16.622222+05:30"}]