[{"city":"Delhi","state":"Delhi","latitude":28.6139,"longitude":77.209,"temp":30.0,"humidity":54,"rain":0.0,"pressure":988.1,"uv_index":5.35,"wind_gusts":27.7,"aqi":163,"pm10":215.1,"pm2_5":69.6,"mosquito_risk":4,"arthritis_risk":5,"migraine_risk":3,"frizz_risk":1,"updated_at":"2026-03-09T11:30:34.006592+05:30"},{"city":"Mumbai","state":"Maharashtra","latitude":19.076,"longitude":72.8777,"temp":30.0,"humidity":57,"rain":0.0,"pressure":1010.5,"uv_index":7.55,"wind_gusts":24.1,"aqi":116,"pm10":54.2,"pm2_5":53.8,"mosquito_risk":4,"arthritis_risk":0,"migraine_risk":4,"frizz_risk":1,"updated_at":"2026-03-09T11:30:34.006632+05:30"},{"city":"Bangalore","state":"Karnataka","latitude":12.9716,"longitude":77.5946,"temp":28.8,"humidity":46,"rain":0.0,"pressure":914.9,"uv_index":9.25,"wind_gusts":37.4,"aqi":100,"pm10":44.1,"pm2_5":33.6,"mosquito_risk":4,"arthritis_risk":5,"migraine_risk":7,"frizz_risk":1,"updated_at":"2026-03-09T11:30:34.006648+05:30"},{"city":"Hyderabad","state":"Telangana","latitude":17.385,"longitude":78.4867,"temp":32.5,"humidity":37,"rain":0.0,"pressure":957.9,"uv_index":8.55,"wind_gusts":30.2,"aqi":97,"pm10":41.8,"pm2_5":33.4,"mosquito_risk":0,"arthritis_risk":5,"migraine_risk":7,"frizz_risk":0,"updated_at":"2026-03-09T11:30:34.006658+05:30"},{"city":"Chennai","state":"Tamil Nadu","latitude":13.0827,"longitude":80.2707,"temp":30.4,"humidity":57,"rain":0.0,"pressure":1011.8,"uv_index":8.95,"wind_gusts":33.1,"aqi":81,"pm10":57.5,"pm2_5":41.7,"mosquito_risk":0,"arthritis_risk":0,"migraine_risk":4,"frizz_risk":1,"updated_at":"2026-03-09T11:30:34.006667+05:30"},{"city":"Kolkata","state":"West Bengal","latitude":22.5726,"longitude":88.3639,"temp":29.7,"humidity":63,"rain":0.0,"pressure":1012.3,"uv_index":7.9,"wind_gusts":16.6,"aqi":146,"pm10":58.1,"pm2_5":45.4,"mosquito_risk":7,"arthritis_risk":0,"migraine_risk":4,"frizz_risk":1,"updated_at":"2026-03-09T11:30:34.006675+05:30"},{"city":"Pune","state":"Maharashtra","latitude":18.5204,"longitude":73.8567,"temp":34.7,"humidity":20,"rain":0.0,"pressure":952.7,"uv_index":8.1,"wind_gusts":31.0,"aqi":69,"pm10":19.8,"pm2_5":15.8,"mosquito_risk":0,"arthritis_risk":5,"migraine_risk":7,"frizz_risk":0,"updated_at":"2026-03-09T11:30:34.006688+05:30"},{"city":"Ahmedabad","state":"Gujarat","latitude":23.0225,"longitude":72.5714,"temp":34.3,"humidity":27,"rain":0.0,"pressure":1007.5,"uv_index":7.4,"wind_gusts":18.4,"aqi":62,"pm10":22.1,"pm2_5":14.1,"mosquito_risk":0,"arthritis_risk":5,"migraine_risk":4,"frizz_risk":0,"updated_at":"2026-03-09T11:30:34.006696+05:30"},{"city":"Jaipur","state":"Rajasthan","latitude":26.9124,"longitude":75.7873,"temp":35.4,"humidity":18,"rain":0.0,"pressure":965.6,"uv_index":6.8,"wind_gusts":29.2,"aqi":80,"pm10":98.7,"pm2_5":21.9,"mosquito_risk":0,"arthritis_risk":5,"migraine_risk":10,"frizz_risk":0,"updated_at":"2026-03-09T11:30:34.006703+05:30"},{"city":"Lucknow","state":"Uttar Pradesh","latitude":26.8467,"longitude":80.9462,"temp":31.5,"humidity":49,"rain":0.0,"pressure":999.0,"uv_index":6.55,"wind_gusts":20.5,"aqi":178,"pm10":150.9,"pm2_5":64.0,"mosquito_risk":0,"arthritis_risk":5,"migraine_risk":7,"frizz_risk":1,"updated_at":"2026-03-09T11:30:34.006711+05:30"},{"city":"Kanpur","state":"Uttar Pradesh","latitude":26.4499,"longitude":80.3319,"temp":31.5,"humidity":52,"rain":0.0,"pressure":997.1,"uv_index":6.55,"wind_gusts":18.0,"aqi":165,"pm10":151.8,"pm2_5":47.7,"mosquito_risk":0,"arthritis_risk":5,"migraine_risk":7,"frizz_risk":1,"updated_at":"2026-03-09T11:30:34.006718+05:30"},{"city":"Chandigarh","state":"Chandigarh","latitude":30.7333,"longitude":76.7794,"temp":29.1,"humidity":46,"rain":0.0,"pressure":973.3,"uv_index":5.95,"wind_gusts":28.1,"aqi":121,"pm10":44.4,"pm2_5":23.6,"mosquito_risk":4,"arthritis_risk":5,"migraine_risk":3,"frizz_risk":1,"updated_at":"2026-03-09T11:30:34.006725+05:30"},{"city":"Srinagar","state":"Jammu and Kashmir","latitude":34.0837,"longitude":74.7973,"temp":17.2,"humidity":48,"rain":0.0,"pressure":848.2,"uv_index":6.3,"wind_gusts":25.9,"aqi":134,"pm10":47.1,"pm2_5":27.9,"mosquito_risk":0,"arthritis_risk":5,"migraine_risk":7,"frizz_risk":0,"updated_at":"2026-03-09T11:30:34.006732+05:30"},{"city":"Jammu","state":"Jammu and Kashmir","latitude":32.7266,"longitude":74.857,"temp":27.5,"humidity":58,"rain":0.0,"pressure":977.3,"uv_index":6.55,"wind_gusts":20.9,"aqi":89,"pm10":46.6,"pm2_5":29.9,"mosquito_risk":4,"arthritis_risk":5,"migraine_risk":7,"frizz_risk":1,"updated_at":"2026-03-09T11:30:34.006739+05:30"},{"city":"Amritsar","state":"Punjab","latitude":31.634,"longitude":74.8723,"temp":29.6,"humidity":59,"rain":0.0,"pressure":985.8,"uv_index":6.5,"wind_gusts":16.9,"aqi":159,"pm10":90.1,"pm2_5":60.5,"mosquito_risk":4,"arthritis_risk":5,"migraine_risk":7,"frizz_risk":1,"updated_at":"2026-03-09T11:30:34.006746+05:30"},{"city":"Ludhiana","state":"Punjab","latitude":30.901,"longitude":75.8573,"temp":29.6,"humidity":52,"rain":0.0,"pressure":983.7,"uv_index":6.1,"wind_gusts":22.7,"aqi":155,"pm10":74.5,"pm2_5":54.9,"mosquito_risk":4,"arthritis_risk":5,"migraine_risk":7,"frizz_risk":1,"updated_at":"2026-03-09T11:30:34.006753+05:30"},{"city":"Jalandhar","state":"Punjab","latitude":31.326,"longitude":75.5762,"temp":29.1,"humidity":57,"rain":0.0,"pressure":984.9,"uv_index":6.35,"wind_gusts":20.9,"aqi":158,"pm10":79.4,"pm2_5":54.5,"mosquito_risk":4,"arthritis_risk":5,"migraine_risk":7,"frizz_risk":1,"updated_at":"2026-03-09T11:30:34.006761+05:30"},{"city":"Dehradun","state":"Uttarakhand","latitude":30.6284,"longitude":78.0322,"temp":23.3,"humidity":35,"rain":0.0,"pressure":836.0,"uv_index":6.3,"wind_gusts":29.9,"aqi":74,"pm10":35.6,"pm2_5":14.0,"mosquito_risk":0,"arthritis_risk":5,"migraine_risk":7,"frizz_risk":0,"updated_at":"2026-03-09T11:30:34.006768+05:30"},{"city":"Shimla","state":"Himachal Pradesh","latitude":31.1048,"longitude":77.1734,"temp":22.1,"humidity":25,"rain":0.0,"pressure":791.8,"uv_index":6.35,"wind_gusts":50.4,"aqi":73,"pm10":27.9,"pm2_5":10.2,"mosquito_risk":0,"arthritis_risk":5,"migraine_risk":7,"frizz_risk":0,"updated_at":"2026-03-09T11:30:34.006776+05:30"},{"city":"Manali","state":"Himachal Pradesh","latitude":32.2396,"longitude":77.1887,"temp":24.6,"humidity":13,"rain":0.0,"pressure":827.3,"uv_index":8.05,"wind_gusts":35.6,"aqi":50,"pm10":16.9,"pm2_5":6.8,"mosquito_risk":0,"arthritis_risk":5,"migraine_risk":7,"frizz_risk":1,"updated_at":"2026-03-09T11:30:34.006782+05:30"},{"city":"Gurgaon","state":"Haryana","latitude":28.4595,"longitude":77.0266,"temp":29.8,"humidity":57,"rain":0.0,"pressure":986.7,"uv_index":5.85,"wind_gusts":26.3,"aqi":631,"pm10":605.4,"pm2_5":104.1,"mosquito_risk":4,"arthritis_risk":5,"migraine_risk":3,"frizz_risk":1,"updated_at":"2026-03-09T11:30:34.006789+05:30"},{"city":"Noida","state":"Uttar Pradesh","latitude":28.5355,"longitude":77.391,"temp":30.6,"humidity":52,"rain":0.0,"pressure":989.6,"uv_index":5.55,"wind_gusts":27.0,"aqi":631,"pm10":605.4,"pm2_5":104.1,"mosquito_risk":0,"arthritis_risk":5,"migraine_risk":3,"frizz_risk":1,"updated_at":"2026-03-09T11:30:34.006796+05:30"},{"city":"Ghaziabad","state":"Uttar Pradesh","latitude":28.6692,"longitude":77.4538,"temp":29.8,"humidity":58,"rain":0.0,"pressure":987.7,"uv_index":5.3,"wind_gusts":27.4,"aqi":157,"pm10":189.1,"pm2_5":70.1,"mosquito_risk":4,"arthritis_risk":5,"migraine_risk":3,"frizz_risk":1,"updated_at":"2026-03-09T11:30:34.006803+05:30"},{"city":"Faridabad","state":"Haryana","latitude":28.4089,"longitude":77.3178,"temp":29.8,"humidity":56,"rain":0.0,"pressure":989.0,"uv_index":6.05,"wind_gusts":24.5,"aqi":631,"pm10":605.4,"pm2_5":104.1,"mosquito_risk":4,"arthritis_risk":5,"migraine_risk":7,"frizz_risk":1,"updated_at":"2026-03-09T11:30:34.006810+05:30"},{"city":"Meerut","state":"Uttar Pradesh","latitude":28.9845,"longitude":77.7064,"temp":29.9,"humidity":54,"rain":0.0,"pressure":986.4,"uv_index":5.5,"wind_gusts":28.4,"aqi":157,"pm10":189.1,"pm2_5":70.1,"mosquito_risk":4,"arthritis_risk":5,"migraine_risk":3,"frizz_risk":1,"updated_at":"2026-03-09T11:30:34.006816+05:30"},{"city":"Agra","state":"Uttar Pradesh","latitude":27.1767,"longitude":78.0081,"temp":33.8,"humidity":37,"rain":0.0,"pressure":993.0,"uv_index":6.4,"wind_gusts":22.3,"aqi":186,"pm10":282.2,"pm2_5":78.2,"mosquito_risk":0,"arthritis_risk":5,"migraine_risk":7,"frizz_risk":1,"updated_at":"2026-03-09T11:30:34.006822+05:30"},{"city":"Varanasi","state":"Uttar Pradesh","latitude":25.3176,"longitude":82.9739,"temp":31.1,"humidity":50,"rain":0.0,"pressure":1003.5,"uv_index":7.2,"wind_gusts":15.8,"aqi":182,"pm10":124.3,"pm2_5":90.8,"mosquito_risk":0,"arthritis_risk":5,"migraine_risk":4,"frizz_risk":1,"updated_at":"2026-03-09T11:30:34.006831+05:30"},{"city":"Prayagraj","state":"Uttar Pradesh","latitude":25.4358,"longitude":81.8463,"temp":31.0,"humidity":53,"rain":0.0,"pressure":1002.0,"uv_index":7.1,"wind_gusts":14.8,"aqi":188,"pm10":133.6,"pm2_5":91.0,"mosquito_risk":0,"arthritis_risk":5,"migraine_risk":4,"frizz_risk":1,"updated_at":"2026-03-09T11:30:34.006838+05:30"},{"city":"Gorakhpur","state":"Uttar Pradesh","latitude":26.7606,"longitude":83.3732,"temp":28.0,"humidity":66,"rain":0.0,"pressure":1004.0,"uv_index":6.9,"wind_gusts":27.0,"aqi":185,"pm10":127.1,"pm2_5":113.6,"mosquito_risk":7,"arthritis_risk":5,"migraine_risk":4,"frizz_risk":1,"updated_at":"2026-03-09T11:30:34.006845+05:30"},{"city":"Bareilly","state":"Uttar Pradesh","latitude":28.367,"longitude":79.4304,"temp":29.1,"humidity":68,"rain":0.0,"pressure":991.8,"uv_index":6.25,"wind_gusts":18.4,"aqi":166,"pm10":159.7,"pm2_5":85.2,"mosquito_risk":7,"arthritis_risk":5,"migraine_risk":7,"frizz_risk":1,"updated_at":"2026-03-09T11:30:34.006852+05:30"},{"city":"Aligarh","state":"Uttar Pradesh","latitude":27.8974,"longitude":78.088,"temp":31.9,"humidity":47,"rain":0.0,"pressure":990.5,"uv_index":6.15,"wind_gusts":24.8,"aqi":234,"pm10":271.0,"pm2_5":81.3,"mosquito_risk":0,"arthritis_risk":5,"migraine_risk":7,"frizz_risk":1,"updated_at":"2026-03-09T11:30:34.006860+05:30"},{"city":"Moradabad","state":"Uttar Pradesh","latitude":28.8386,"longitude":78.7733,"temp":28.5,"humidity":70,"rain":0.0,"pressure":988.6,"uv_index":6.05,"wind_gusts":19.1,"aqi":171,"pm10":140.6,"pm2_5":89.2,"mosquito_risk":7,"arthritis_risk":5,"migraine_risk":7,"frizz_risk":1,"updated_at":"2026-03-09T11:30:34.006866+05:30"},{"city":"Saharanpur","state":"Uttar Pradesh","latitude":29.9637,"longitude":77.546,"temp":28.4,"humidity":56,"rain":0.0,"pressure":980.2,"uv_index":5.7,"wind_gusts":28.4,"aqi":160,"pm10":101.5,"pm2_5":66.4,"mosquito_risk":4,"arthritis_risk":5,"migraine_risk":3,"frizz_risk":1,"updated_at":"2026-03-09T11:30:34.006872+05:30"},{"city":"Jhansi","state":"Uttar Pradesh","latitude":25.4484,"longitude":78.5685,"temp":34.5,"humidity":27,"rain":0.0,"pressure":983.4,"uv_index":7.0,"wind_gusts":25.6,"aqi":72,"pm10":35.2,"pm2_5":16.5,"mosquito_risk":0,"arthritis_risk":5,"migraine_risk":7,"frizz_risk":0,"updated_at":"2026-03-09T11:30:39.811773+05:30"},{"city":"Surat","state":"Gujarat","latitude":21.1702,"longitude":72.8311,"temp":33.5,"humidity":30,"rain":0.0,"pressure":1010.9,"uv_index":7.25,"wind_gusts":24.8,"aqi":101,"pm10":36.2,"pm2_5":33.6,"mosquito_risk":0,"arthritis_risk":0,"migraine_risk":4,"frizz_risk":0,"updated_at":"2026-03-09T11:30:39.811805+05:30"},{"city":"Vadodara","state":"Gujarat","latitude":22.3072,"longitude":73.1812,"temp":35.2,"humidity":25,"rain":0.0,"pressure":1009.2,"uv_index":7.4,"wind_gusts":15.5,"aqi":67,"pm10":20.7,"pm2_5":19.0,"mosquito_risk":0,"arthritis_risk":0,"migraine_risk":7,"frizz_risk":0,"updated_at":"2026-03-09T11:30:39.811815+05:30"},{"city":"Rajkot","state":"Gujarat","latitude":22.3039,"longitude":70.8022,"temp":33.1,"humidity":35,"rain":0.0,"pressure":999.6,"uv_index":7.2,"wind_gusts":24.1,"aqi":64,"pm10":21.6,"pm2_5":13.2,"mosquito_risk":0,"arthritis_risk":5,"migraine_risk":7,"frizz_risk":0,"updated_at":"2026-03-09T11:30:39.811824+05:30"},{"city":"Thane","state":"Maharashtra","latitude":19.2183,"longitude":72.9781,"temp":36.9,"humidity":22,"rain":0.0,"pressure":1010.1,"uv_index":7.55,"wind_gusts":33.8,"aqi":116,"pm10":54.2,"pm2_5":53.8,"mosquito_risk":0,"arthritis_risk":0,"migraine_risk":7,"frizz_risk":0,"updated_at":"2026-03-09T11:30:39.811832+05:30"},{"city":"Nagpur","state":"Maharashtra","latitude":21.1458,"longitude":79.0882,"temp":34.3,"humidity":26,"rain":0.0,"pressure":978.6,"uv_index":7.95,"wind_gusts":28.8,"aqi":80,"pm10":30.4,"pm2_5":17.8,"mosquito_risk":0,"arthritis_risk":5,"migraine_risk":7,"frizz_risk":0,"updated_at":"2026-03-09T11:30:39.811840+05:30"},{"city":"Nashik","state":"Maharashtra","latitude":19.9975,"longitude":73.7898,"temp":33.7,"humidity":24,"rain":0.0,"pressure":950.2,"uv_index":7.75,"wind_gusts":31.0,"aqi":53,"pm10":14.3,"pm2_5":12.8,"mosquito_risk":0,"arthritis_risk":5,"migraine_risk":7,"frizz_risk":0,"updated_at":"2026-03-09T11:30:39.811847+05:30"},{"city":"Aurangabad","state":"Maharashtra","latitude":19.8762,"longitude":75.3433,"temp":33.9,"humidity":18,"rain":0.0,"pressure":949.1,"uv_index":8.25,"wind_gusts":34.2,"aqi":64,"pm10":12.8,"pm2_5":8.2,"mosquito_risk":0,"arthritis_risk":5,"migraine_risk":7,"frizz_risk":0,"updated_at":"2026-03-09T11:30:39.811856+05:30"},{"city":"Solapur","state":"Maharashtra","latitude":17.6599,"longitude":75.9064,"temp":32.5,"humidity":33,"rain":0.0,"pressure":961.5,"uv_index":8.5,"wind_gusts":26.6,"aqi":76,"pm10":23.9,"pm2_5":18.2,"mosquito_risk":0,"arthritis_risk":5,"migraine_risk":7,"frizz_risk":0,"updated_at":"2026-03-09T11:30:39.811863+05:30"},{"city":"Kolhapur","state":"Maharashtra","latitude":16.705,"longitude":74.2433,"temp":31.9,"humidity":35,"rain":0.0,"pressure":951.6,"uv_index":8.6,"wind_gusts":40.0,"aqi":140,"pm10":36.8,"pm2_5":29.5,"mosquito_risk":0,"arthritis_risk":5,"migraine_risk":7,"frizz_risk":0,"updated_at":"2026-03-09T11:30:39.811871+05:30"},{"city":"Goa","state":"Goa","latitude":15.2993,"longitude":74.124,"temp":31.7,"humidity":61,"rain":0.0,"pressure":1000.2,"uv_index":8.65,"wind_gusts":34.2,"aqi":137,"pm10":51.3,"pm2_5":45.4,"mosquito_risk":3,"arthritis_risk":5,"migraine_risk":4,"frizz_risk":1,"updated_at":"2026-03-09T11:30:39.811878+05:30"},{"city":"Jodhpur","state":"Rajasthan","latitude":26.2389,"longitude":73.0243,"temp":33.4,"humidity":25,"rain":0.0,"pressure":989.3,"uv_index":7.1,"wind_gusts":22.7,"aqi":58,"pm10":58.2,"pm2_5":18.3,"mosquito_risk":0,"arthritis_risk":5,"migraine_risk":7,"frizz_risk":0,"updated_at":"2026-03-09T11:30:39.811887+05:30"},{"city":"Udaipur","state":"Rajasthan","latitude":24.5854,"longitude":73.7125,"temp":33.7,"humidity":17,"rain":0.0,"pressure":952.8,"uv_index":7.7,"wind_gusts":14.4,"aqi":38,"pm10":12.0,"pm2_5":6.0,"mosquito_risk":0,"arthritis_risk":5,"migraine_risk":7,"frizz_risk":0,"updated_at":"2026-03-09T11:30:39.811894+05:30"},{"city":"Kota","state":"Rajasthan","latitude":25.2138,"longitude":75.8648,"temp":33.6,"humidity":27,"rain":0.0,"pressure":984.7,"uv_index":7.1,"wind_gusts":17.3,"aqi":75,"pm10":17.0,"pm2_5":12.1,"mosquito_risk":0,"arthritis_risk":5,"migraine_risk":7,"frizz_risk":0,"updated_at":"2026-03-09T11:30:39.811902+05:30"},{"city":"Bikaner","state":"Rajasthan","latitude":28.0229,"longitude":73.3119,"temp":31.9,"humidity":31,"rain":0.0,"pressure":987.9,"uv_index":6.8,"wind_gusts":22.3,"aqi":55,"pm10":49.6,"pm2_5":22.2,"mosquito_risk":0,"arthritis_risk":5,"migraine_risk":7,"frizz_risk":0,"updated_at":"2026-03-09T11:30:39.811909+05:30"},{"city":"Ajmer","state":"Rajasthan","latitude":26.4499,"longitude":74.6399,"temp":32.4,"humidity":29,"rain":0.0,"pressure":961.1,"uv_index":7.1,"wind_gusts":22.3,"aqi":44,"pm10":58.3,"pm2_5":13.2,"mosquito_risk":0,"arthritis_risk":5,"migraine_risk":7,"frizz_risk":0,"updated_at":"2026-03-09T11:30:39.811916+05:30"},{"city":"Gwalior","state":"Madhya Pradesh","latitude":26.2183,"longitude":78.1828,"temp":33.0,"humidity":39,"rain":0.0,"pressure":988.5,"uv_index":6.75,"wind_gusts":23.0,"aqi":73,"pm10":115.7,"pm2_5":34.7,"mosquito_risk":0,"arthritis_risk":5,"migraine_risk":7,"frizz_risk":1,"updated_at":"2026-03-09T11:30:39.811923+05:30"},{"city":"Indore","state":"Madhya Pradesh","latitude":22.7196,"longitude":75.8577,"temp":34.1,"humidity":17,"rain":0.0,"pressure":954.0,"uv_index":7.65,"wind_gusts":24.5,"aqi":81,"pm10":13.6,"pm2_5":6.5,"mosquito_risk":0,"arthritis_risk":5,"migraine_risk":7,"frizz_risk":0,"updated_at":"2026-03-09T11:30:39.811930+05:30"},{"city":"Bhopal","state":"Madhya Pradesh","latitude":23.2599,"longitude":77.4126,"temp":34.2,"humidity":21,"rain":0.0,"pressure":959.6,"uv_index":7.55,"wind_gusts":15.8,"aqi":68,"pm10":24.4,"pm2_5":11.0,"mosquito_risk":0,"arthritis_risk":5,"migraine_risk":7,"frizz_risk":0,"updated_at":"2026-03-09T11:30:39.811938+05:30"},{"city":"Jabalpur","state":"Madhya Pradesh","latitude":23.1815,"longitude":79.9864,"temp":32.5,"humidity":30,"rain":0.0,"pressure":967.4,"uv_index":7.65,"wind_gusts":21.2,"aqi":110,"pm10":47.3,"pm2_5":22.1,"mosquito_risk":0,"arthritis_risk":5,"migraine_risk":7,"frizz_risk":0,"updated_at":"2026-03-09T11:30:39.811946+05:30"},{"city":"Ujjain","state":"Madhya Pradesh","latitude":23.1765,"longitude":75.7885,"temp":32.4,"humidity":30,"rain":0.0,"pressure":959.8,"uv_index":7.55,"wind_gusts":14.8,"aqi":99,"pm10":12.4,"pm2_5":10.1,"mosquito_risk":0,"arthritis_risk":5,"migraine_risk":7,"frizz_risk":0,"updated_at":"2026-03-09T11:30:39.811954+05:30"},{"city":"Visakhapatnam","state":"Andhra Pradesh","latitude":17.6868,"longitude":83.2185,"temp":30.9,"humidity":58,"rain":0.0,"pressure":1009.1,"uv_index":8.55,"wind_gusts":33.8,"aqi":94,"pm10":54.6,"pm2_5":43.3,"mosquito_risk":0,"arthritis_risk":0,"migraine_risk":4,"frizz_risk":1,"updated_at":"2026-03-09T11:30:39.811962+05:30"},{"city":"Vijayawada","state":"Andhra Pradesh","latitude":16.5062,"longitude":80.648,"temp":30.0,"humidity":63,"rain":0.0,"pressure":1007.9,"uv_index":8.65,"wind_gusts":26.3,"aqi":92,"pm10":47.3,"pm2_5":37.1,"mosquito_risk":7,"arthritis_risk":5,"migraine_risk":4,"frizz_risk":1,"updated_at":"2026-03-09T11:30:39.811970+05:30"},{"city":"Guntur","state":"Andhra Pradesh","latitude":16.3067,"longitude":80.4365,"temp":30.1,"humidity":61,"rain":0.0,"pressure":1009.0,"uv_index":8.65,"wind_gusts":27.0,"aqi":87,"pm10":44.9,"pm2_5":35.0,"mosquito_risk":3,"arthritis_risk":0,"migraine_risk":4,"frizz_risk":1,"updated_at":"2026-03-09T11:30:39.811977+05:30"},{"city":"Nellore","state":"Andhra Pradesh","latitude":14.4426,"longitude":79.9865,"temp":30.5,"humidity":59,"rain":0.0,"pressure":1010.7,"uv_index":8.8,"wind_gusts":33.8,"aqi":77,"pm10":47.1,"pm2_5":35.9,"mosquito_risk":0,"arthritis_risk":0,"migraine_risk":4,"frizz_risk":1,"updated_at":"2026-03-09T11:30:39.811985+05:30"},{"city":"Kurnool","state":"Andhra Pradesh","latitude":15.8281,"longitude":78.0373,"temp":33.1,"humidity":38,"rain":0.0,"pressure":981.0,"uv_index":8.65,"wind_gusts":38.5,"aqi":84,"pm10":39.1,"pm2_5":30.4,"mosquito_risk":0,"arthritis_risk":5,"migraine_risk":7,"frizz_risk":1,"updated_at":"2026-03-09T11:30:39.811993+05:30"},{"city":"Kakinada","state":"Andhra Pradesh","latitude":16.9891,"longitude":82.2475,"temp":30.0,"humidity":62,"rain":0.0,"pressure":1013.0,"uv_index":8.55,"wind_gusts":31.7,"aqi":84,"pm10":51.9,"pm2_5":39.0,"mosquito_risk":7,"arthritis_risk":0,"migraine_risk":4,"frizz_risk":1,"updated_at":"2026-03-09T11:30:39.812000+05:30"},{"city":"Tirupati","state":"Andhra Pradesh","latitude":13.6288,"longitude":79.4192,"temp":30.1,"humidity":53,"rain":0.0,"pressure":996.0,"uv_index":8.95,"wind_gusts":38.5,"aqi":90,"pm10":45.3,"pm2_5":33.5,"mosquito_risk":0,"arthritis_risk":5,"migraine_risk":7,"frizz_risk":1,"updated_at":"2026-03-09T11:30:39.812007+05:30"},{"city":"Warangal","state":"Telangana","latitude":17.9689,"longitude":79.5941,"temp":30.8,"humidity":59,"rain":0.0,"pressure":983.7,"uv_index":8.4,"wind_gusts":28.1,"aqi":111,"pm10":41.9,"pm2_5":34.8,"mosquito_risk":0,"arthritis_risk":5,"migraine_risk":7,"frizz_risk":1,"updated_at":"2026-03-09T11:30:39.812031+05:30"},{"city":"Nizamabad","state":"Telangana","latitude":18.6725,"longitude":78.0941,"temp":33.3,"humidity":32,"rain":0.0,"pressure":969.6,"uv_index":8.3,"wind_gusts":31.7,"aqi":115,"pm10":48.1,"pm2_5":32.7,"mosquito_risk":0,"arthritis_risk":5,"migraine_risk":7,"frizz_risk":0,"updated_at":"2026-03-09T11:30:39.812039+05:30"},{"city":"Mysore","state":"Karnataka","latitude":12.2958,"longitude":76.6396,"temp":29.8,"humidity":48,"rain":0.0,"pressure":931.5,"uv_index":9.25,"wind_gusts":41.0,"aqi":128,"pm10":42.8,"pm2_5":34.3,"mosquito_risk":4,"arthritis_risk":5,"migraine_risk":7,"frizz_risk":1,"updated_at":"2026-03-09T11:30:39.812047+05:30"},{"city":"Mangalore","state":"Karnataka","latitude":12.9141,"longitude":74.856,"temp":28.8,"humidity":81,"rain":0.0,"pressure":1008.6,"uv_index":8.85,"wind_gusts":23.8,"aqi":127,"pm10":53.6,"pm2_5":48.8,"mosquito_risk":7,"arthritis_risk":0,"migraine_risk":4,"frizz_risk":1,"updated_at":"2026-03-09T11:30:39.812054+05:30"},{"city":"Hubli-Dharwad","state":"Karnataka","latitude":15.3647,"longitude":75.124,"temp":32.6,"humidity":36,"rain":0.0,"pressure":944.1,"uv_index":8.85,"wind_gusts":36.7,"aqi":88,"pm10":34.8,"pm2_5":28.1,"mosquito_risk":0,"arthritis_risk":5,"migraine_risk":7,"frizz_risk":0,"updated_at":"2026-03-09T11:30:39.812062+05:30"},{"city":"Belgaum","state":"Karnataka","latitude":15.8497,"longitude":74.4977,"temp":33.0,"humidity":25,"rain":0.0,"pressure":929.2,"uv_index":8.85,"wind_gusts":45.0,"aqi":119,"pm10":26.7,"pm2_5":20.7,"mosquito_risk":0,"arthritis_risk":5,"migraine_risk":7,"frizz_risk":0,"updated_at":"2026-03-09T11:30:43.626724+05:30"},{"city":"Coimbatore","state":"Tamil Nadu","latitude":11.0168,"longitude":76.9558,"temp":29.9,"humidity":53,"rain":0.0,"pressure":965.0,"uv_index":9.25,"wind_gusts":47.9,"aqi":108,"pm10":36.6,"pm2_5":25.7,"mosquito_risk":4,"arthritis_risk":5,"migraine_risk":7,"frizz_risk":1,"updated_at":"2026-03-09T11:30:43.626754+05:30"},{"city":"Madurai","state":"Tamil Nadu","latitude":9.9252,"longitude":78.1198,"temp":31.5,"humidity":49,"rain":0.0,"pressure":996.1,"uv_index":9.2,"wind_gusts":36.7,"aqi":93,"pm10":34.7,"pm2_5":23.2,"mosquito_risk":0,"arthritis_risk":5,"migraine_risk":7,"frizz_risk":1,"updated_at":"2026-03-09T11:30:43.626765+05:30"},{"city":"Trichy","state":"Tamil Nadu","latitude":10.7905,"longitude":78.7047,"temp":31.0,"humidity":53,"rain":0.0,"pressure":1003.4,"uv_index":9.1,"wind_gusts":32.4,"aqi":79,"pm10":46.9,"pm2_5":34.7,"mosquito_risk":0,"arthritis_risk":5,"migraine_risk":4,"frizz_risk":1,"updated_at":"2026-03-09T11:30:43.626773+05:30"},{"city":"Salem","state":"Tamil Nadu","latitude":11.6643,"longitude":78.146,"temp":30.6,"humidity":49,"rain":0.0,"pressure":980.9,"uv_index":9.15,"wind_gusts":34.9,"aqi":107,"pm10":51.3,"pm2_5":37.4,"mosquito_risk":0,"arthritis_risk":5,"migraine_risk":7,"frizz_risk":1,"updated_at":"2026-03-09T11:30:43.626780+05:30"},{"city":"Tirunelveli","state":"Tamil Nadu","latitude":8.7139,"longitude":77.7567,"temp":33.4,"humidity":41,"rain":0.0,"pressure":1006.2,"uv_index":9.2,"wind_gusts":31.7,"aqi":101,"pm10":26.5,"pm2_5":18.5,"mosquito_risk":0,"arthritis_risk":5,"migraine_risk":4,"frizz_risk":1,"updated_at":"2026-03-09T11:30:43.626787+05:30"},{"city":"Vellore","state":"Tamil Nadu","latitude":12.9165,"longitude":79.1325,"temp":30.6,"humidity":49,"rain":0.0,"pressure":988.6,"uv_index":9.0,"wind_gusts":41.8,"aqi":109,"pm10":44.7,"pm2_5":32.8,"mosquito_risk":0,"arthritis_risk":5,"migraine_risk":7,"frizz_risk":1,"updated_at":"2026-03-09T11:30:43.626794+05:30"},{"city":"Erode","state":"Tamil Nadu","latitude":11.341,"longitude":77.7172,"temp":30.9,"humidity":55,"rain":0.0,"pressure":992.6,"uv_index":9.15,"wind_gusts":28.8,"aqi":83,"pm10":40.6,"pm2_5":26.5,"mosquito_risk":0,"arthritis_risk":5,"migraine_risk":7,"frizz_risk":1,"updated_at":"2026-03-09T11:30:43.626801+05:30"},{"city":"Kochi","state":"Kerala","latitude":9.9312,"longitude":76.2673,"temp":27.5,"humidity":81,"rain":0.0,"pressure":1010.8,"uv_index":8.95,"wind_gusts":29.9,"aqi":149,"pm10":55.9,"pm2_5":49.8,"mosquito_risk":7,"arthritis_risk":0,"migraine_risk":4,"frizz_risk":1,"updated_at":"2026-03-09T11:30:43.626808+05:30"},{"city":"Thiruvananthapuram","state":"Kerala","latitude":8.5241,"longitude":76.9366,"temp":27.6,"humidity":85,"rain":0.0,"pressure":1010.1,"uv_index":9.05,"wind_gusts":26.6,"aqi":110,"pm10":50.8,"pm2_5":43.9,"mosquito_risk":7,"arthritis_risk":0,"migraine_risk":4,"frizz_risk":1,"updated_at":"2026-03-09T11:30:43.626815+05:30"},{"city":"Kozhikode","state":"Kerala","latitude":11.2588,"longitude":75.7804,"temp":29.5,"humidity":75,"rain":0.0,"pressure":1010.1,"uv_index":8.45,"wind_gusts":24.5,"aqi":107,"pm10":25.5,"pm2_5":24.2,"mosquito_risk":7,"arthritis_risk":0,"migraine_risk":4,"frizz_risk":1,"updated_at":"2026-03-09T11:30:43.626822+05:30"},{"city":"Thrissur","state":"Kerala","latitude":10.5276,"longitude":76.2144,"temp":33.4,"humidity":54,"rain":0.0,"pressure":1008.8,"uv_index":9.05,"wind_gusts":41.4,"aqi":129,"pm10":42.8,"pm2_5":38.6,"mosquito_risk":0,"arthritis_risk":0,"migraine_risk":4,"frizz_risk":1,"updated_at":"2026-03-09T11:30:43.626829+05:30"},{"city":"Kannur","state":"Kerala","latitude":11.8745,"longitude":75.3704,"temp":30.7,"humidity":69,"rain":0.0,"pressure":1009.2,"uv_index":8.95,"wind_gusts":27.0,"aqi":125,"pm10":44.0,"pm2_5":40.9,"mosquito_risk":3,"arthritis_risk":0,"migraine_risk":4,"frizz_risk":1,"updated_at":"2026-03-09T11:30:43.626837+05:30"},{"city":"Patna","state":"Bihar","latitude":25.5941,"longitude":85.1376,"temp":28.3,"humidity":66,"rain":0.0,"pressure":1007.3,"uv_index":7.4,"wind_gusts":30.6,"aqi":170,"pm10":93.1,"pm2_5":85.7,"mosquito_risk":7,"arthritis_risk":5,"migraine_risk":4,"frizz_risk":1,"updated_at":"2026-03-09T11:30:43.626844+05:30"},{"city":"Gaya","state":"Bihar","latitude":24.7914,"longitude":85.0002,"temp":30.3,"humidity":64,"rain":0.0,"pressure":999.5,"uv_index":7.5,"wind_gusts":27.0,"aqi":163,"pm10":105.0,"pm2_5":92.0,"mosquito_risk":3,"arthritis_risk":5,"migraine_risk":7,"frizz_risk":1,"updated_at":"2026-03-09T11:30:43.626851+05:30"},{"city":"Muzaffarpur","state":"Bihar","latitude":26.1209,"longitude":85.3647,"temp":27.5,"humidity":65,"rain":0.0,"pressure":1007.8,"uv_index":7.3,"wind_gusts":34.2,"aqi":173,"pm10":101.0,"pm2_5":93.1,"mosquito_risk":7,"arthritis_risk":5,"migraine_risk":4,"frizz_risk":1,"updated_at":"2026-03-09T11:30:43.626858+05:30"},{"city":"Bhagalpur","state":"Bihar","latitude":25.2425,"longitude":87.0117,"temp":28.2,"humidity":70,"rain":0.0,"pressure":1008.3,"uv_index":4.8,"wind_gusts":25.9,"aqi":162,"pm10":82.4,"pm2_5":69.4,"mosquito_risk":7,"arthritis_risk":0,"migraine_risk":0,"frizz_risk":1,"updated_at":"2026-03-09T11:30:43.626864+05:30"},{"city":"Ranchi","state":"Jharkhand","latitude":23.3441,"longitude":85.3096,"temp":29.8,"humidity":48,"rain":0.0,"pressure":943.4,"uv_index":8.15,"wind_gusts":33.5,"aqi":162,"pm10":94.3,"pm2_5":75.7,"mosquito_risk":4,"arthritis_risk":5,"migraine_risk":7,"frizz_risk":1,"updated_at":"2026-03-09T11:30:43.626871+05:30"},{"city":"Jamshedpur","state":"Jharkhand","latitude":22.8046,"longitude":86.2029,"temp":30.6,"humidity":61,"rain":0.0,"pressure":996.5,"uv_index":8.0,"wind_gusts":28.8,"aqi":157,"pm10":82.2,"pm2_5":68.5,"mosquito_risk":3,"arthritis_risk":5,"migraine_risk":7,"frizz_risk":1,"updated_at":"2026-03-09T11:30:43.626877+05:30"},{"city":"Dhanbad","state":"Jharkhand","latitude":23.7957,"longitude":86.4304,"temp":31.2,"humidity":53,"rain":0.0,"pressure":985.5,"uv_index":7.65,"wind_gusts":32.8,"aqi":168,"pm10":96.6,"pm2_5":84.8,"mosquito_risk":0,"arthritis_risk":5,"migraine_risk":7,"frizz_risk":1,"updated_at":"2026-03-09T11:30:43.626884+05:30"},{"city":"Bokaro","state":"Jharkhand","latitude":23.6693,"longitude":86.1511,"temp":31.0,"humidity":54,"rain":0.0,"pressure":989.5,"uv_index":7.6,"wind_gusts":35.6,"aqi":173,"pm10":102.4,"pm2_5":86.1,"mosquito_risk":0,"arthritis_risk":5,"migraine_risk":7,"frizz_risk":1,"updated_at":"2026-03-09T11:30:43.626890+05:30"},{"city":"Bhubaneswar","state":"Odisha","latitude":20.2961,"longitude":85.8245,"temp":31.4,"humidity":53,"rain":0.0,"pressure":1008.4,"uv_index":8.3,"wind_gusts":31.3,"aqi":96,"pm10":54.4,"pm2_5":40.4,"mosquito_risk":0,"arthritis_risk":0,"migraine_risk":4,"frizz_risk":1,"updated_at":"2026-03-09T11:30:43.626896+05:30"},{"city":"Cuttack","state":"Odisha","latitude":20.4625,"longitude":85.8828,"temp":32.0,"humidity":51,"rain":0.0,"pressure":1010.1,"uv_index":8.35,"wind_gusts":30.2,"aqi":96,"pm10":54.4,"pm2_5":40.4,"mosquito_risk":0,"arthritis_risk":0,"migraine_risk":4,"frizz_risk":1,"updated_at":"2026-03-09T11:30:43.626902+05:30"},{"city":"Rourkela","state":"Odisha","latitude":22.2604,"longitude":84.8536,"temp":32.4,"humidity":52,"rain":0.0,"pressure":990.5,"uv_index":7.9,"wind_gusts":22.7,"aqi":166,"pm10":93.8,"pm2_5":75.9,"mosquito_risk":0,"arthritis_risk":5,"migraine_risk":7,"frizz_risk":1,"updated_at":"2026-03-09T11:30:43.626909+05:30"},{"city":"Raipur","state":"Chhattisgarh","latitude":21.2514,"longitude":81.6296,"temp":33.6,"humidity":34,"rain":0.0,"pressure":980.0,"uv_index":8.0,"wind_gusts":24.8,"aqi":161,"pm10":85.9,"pm2_5":72.2,"mosquito_risk":0,"arthritis_risk":5,"migraine_risk":7,"frizz_risk":0,"updated_at":"2026-03-09T11:30:43.626915+05:30"},{"city":"Bhilai","state":"Chhattisgarh","latitude":21.1938,"longitude":81.3509,"temp":34.0,"humidity":32,"rain":0.0,"pressure":980.4,"uv_index":8.05,"wind_gusts":24.5,"aqi":155,"pm10":82.7,"pm2_5":66.4,"mosquito_risk":0,"arthritis_risk":5,"migraine_risk":7,"frizz_risk":0,"updated_at":"2026-03-09T11:30:43.626922+05:30"},{"city":"Guwahati","state":"Assam","latitude":26.1158,"longitude":91.7086,"temp":30.3,"humidity":56,"rain":0.0,"pressure":1008.4,"uv_index":7.3,"wind_gusts":11.5,"aqi":154,"pm10":79.6,"pm2_5":64.5,"mosquito_risk":0,"arthritis_risk":0,"migraine_risk":4,"frizz_risk":1,"updated_at":"2026-03-09T11:30:43.626928+05:30"},{"city":"Agartala","state":"Tripura","latitude":23.8315,"longitude":91.2868,"temp":30.2,"humidity":52,"rain":0.0,"pressure":1012.6,"uv_index":7.7,"wind_gusts":10.8,"aqi":160,"pm10":74.7,"pm2_5":60.5,"mosquito_risk":0,"arthritis_risk":0,"migraine_risk":4,"frizz_risk":1,"updated_at":"2026-03-09T11:30:43.626934+05:30"},{"city":"Shillong","state":"Meghalaya","latitude":25.5788,"longitude":91.8933,"temp":19.1,"humidity":55,"rain":0.0,"pressure":862.6,"uv_index":6.45,"wind_gusts":26.6,"aqi":139,"pm10":63.1,"pm2_5":51.7,"mosquito_risk":0,"arthritis_risk":5,"migraine_risk":7,"frizz_risk":0,"updated_at":"2026-03-09T11:30:43.626941+05:30"},{"city":"Imphal","state":"Manipur","latitude":24.817,"longitude":93.9368,"temp":24.7,"humidity":53,"rain":0.0,"pressure":929.3,"uv_index":7.95,"wind_gusts":27.0,"aqi":160,"pm10":59.6,"pm2_5":53.1,"mosquito_risk":0,"arthritis_risk":5,"migraine_risk":7,"frizz_risk":0,"updated_at":"2026-03-09T11:30:43.626948+05:30"},{"city":"Aizawl","state":"Mizoram","latitude":23.7271,"longitude":92.7176,"temp":24.8,"humidity":46,"rain":0.0,"pressure":899.1,"uv_index":7.85,"wind_gusts":27.4,"aqi":163,"pm10":71.0,"pm2_5":58.9,"mosquito_risk":0,"arthritis_risk":5,"migraine_risk":7,"frizz_risk":0,"updated_at":"2026-03-09T11:30:43.626954+05:30"},{"city":"Kohima","state":"Nagaland","latitude":25.6701,"longitude":94.1077,"temp":17.6,"humidity":82,"rain":0.0,"pressure":860.6,"uv_index":7.0,"wind_gusts":55.1,"aqi":155,"pm10":65.9,"pm2_5":58.0,"mosquito_risk":3,"arthritis_risk":10,"migraine_risk":7,"frizz_risk":0,"updated_at":"2026-03-09T11:30:43.626961+05:30"},{"city":"Gangtok","state":"Sikkim","latitude":27.3314,"longitude":88.6138,"temp":17.2,"humidity":75,"rain":0.0,"pressure":844.0,"uv_index":4.8,"wind_gusts":18.4,"aqi":152,"pm10":69.8,"pm2_5":51.6,"mosquito_risk":3,"arthritis_risk":5,"migraine_risk":3,"frizz_risk":0,"updated_at":"2026-03-09T11:30:43.626968+05:30"},{"city":"Siliguri","state":"West Bengal","latitude":26.7271,"longitude":88.3953,"temp":24.5,"humidity":59,"rain":0.0,"pressure":1001.9,"uv_index":7.35,"wind_gusts":18.4,"aqi":155,"pm10":73.3,"pm2_5":53.0,"mosquito_risk":0,"arthritis_risk":5,"migraine_risk":4,"frizz_risk":0,"updated_at":"2026-03-09T11:30:47.137345+05:30"},{"city":"Durgapur","state":"West Bengal","latitude":23.5204,"longitude":87.3119,"temp":31.6,"humidity":53,"rain":0.0,"pressure":1001.0,"uv_index":7.6,"wind_gusts":23.4,"aqi":159,"pm10":78.5,"pm2_5":68.5,"mosquito_risk":0,"arthritis_risk":5,"migraine_risk":4,"frizz_risk":1,"updated_at":"2026-03-09T11:30:47.137375+05:30"},{"city":"Asansol","state":"West Bengal","latitude":23.6739,"longitude":86.9524,"temp":31.4,"humidity":55,"rain":0.0,"pressure":999.6,"uv_index":7.55,"wind_gusts":27.0,"aqi":159,"pm10":79.9,"pm2_5":70.1,"mosquito_risk":0,"arthritis_risk":5,"migraine_risk":7,"frizz_risk":1,"updated_at":"2026-03-09T11:30:47.137385+05:30"},{"city":"Pondicherry","state":"Puducherry","latitude":11.9139,"longitude":79.8145,"temp":30.9,"humidity":57,"rain":0.0,"pressure":1012.4,"uv_index":8.95,"wind_gusts":32.4,"aqi":74,"pm10":54.8,"pm2_5":39.2,"mosquito_risk":0,"arthritis_risk":0,"migraine_risk":4,"frizz_risk":1,"updated_at":"2026-03-09T11:30:47.137394+05:30"},{"city":"Port Blair","state":"Andaman and Nicobar Islands","latitude":11.6234,"longitude":92.7265,"temp":28.1,"humidity":71,"rain":0.0,"pressure":1010.0,"uv_index":8.9,"wind_gusts":27.4,"aqi":84,"pm10":30.2,"pm2_5":25.5,"mosquito_risk":7,"arthritis_risk":0,"migraine_risk":4,"frizz_risk":1,"updated_at":"2026-03-09T11:30:47.137402+05:30"},{"city":"Haridwar","state":"Uttarakhand","latitude":29.9457,"longitude":78.1642,"temp":28.9,"humidity":62,"rain":0.0,"pressure":978.9,"uv_index":5.8,"wind_gusts":25.6,"aqi":159,"pm10":114.8,"pm2_5":65.9,"mosquito_risk":7,"arthritis_risk":5,"migraine_risk":3,"frizz_risk":1,"updated_at":"2026-03-09T11:30:47.137410+05:30"},{"city":"Rishikesh","state":"Uttarakhand","latitude":30.0869,"longitude":78.2676,"temp":29.5,"humidity":56,"rain":0.0,"pressure":971.5,"uv_index":5.85,"wind_gusts":27.0,"aqi":154,"pm10":94.5,"pm2_5":54.9,"mosquito_risk":4,"arthritis_risk":5,"migraine_risk":3,"frizz_risk":1,"updated_at":"2026-03-09T11:30:47.137418+05:30"},{"city":"Nainital","state":"Uttarakhand","latitude":29.3919,"longitude":79.4542,"temp":22.1,"humidity":69,"rain":0.0,"pressure":811.5,"uv_index":6.7,"wind_gusts":55.8,"aqi":158,"pm10":104.5,"pm2_5":64.7,"mosquito_risk":3,"arthritis_risk":5,"migraine_risk":7,"frizz_risk":1,"updated_at":"2026-03-09T11:30:47.137426+05:30"},{"city":"Mussoorie","state":"Uttarakhand","latitude":30.4599,"longitude":78.0664,"temp":22.3,"humidity":52,"rain":0.0,"pressure":808.6,"uv_index":6.2,"wind_gusts":41.0,"aqi":151,"pm10":75.4,"pm2_5":47.1,"mosquito_risk":0,"arthritis_risk":5,"migraine_risk":7,"frizz_risk":0,"updated_at":"2026-03-09T11:30:47.137434+05:30"},{"city":"Dharamshala","state":"Himachal Pradesh","latitude":32.219,"longitude":76.3234,"temp":25.2,"humidity":36,"rain":0.0,"pressure":874.5,"uv_index":6.45,"wind_gusts":26.6,"aqi":54,"pm10":31.4,"pm2_5":10.8,"mosquito_risk":4,"arthritis_risk":5,"migraine_risk":7,"frizz_risk":0,"updated_at":"2026-03-09T11:30:47.137442+05:30"},{"city":"Dalhousie","state":"Himachal Pradesh","latitude":32.5387,"longitude":75.971,"temp":25.1,"humidity":22,"rain":0.0,"pressure":810.4,"uv_index":6.65,"wind_gusts":21.6,"aqi":82,"pm10":41.8,"pm2_5":17.9,"mosquito_risk":4,"arthritis_risk":5,"migraine_risk":7,"frizz_risk":0,"updated_at":"2026-03-09T11:30:47.137450+05:30"},{"city":"Patiala","state":"Punjab","latitude":30.3398,"longitude":76.3869,"temp":30.0,"humidity":51,"rain":0.0,"pressure":982.9,"uv_index":5.35,"wind_gusts":25.6,"aqi":170,"pm10":193.2,"pm2_5":63.6,"mosquito_risk":4,"arthritis_risk":5,"migraine_risk":3,"frizz_risk":1,"updated_at":"2026-03-09T11:30:47.137457+05:30"},{"city":"Bhatinda","state":"Punjab","latitude":30.211,"longitude":74.9455,"temp":30.2,"humidity":55,"rain":0.0,"pressure":988.7,"uv_index":6.2,"wind_gusts":21.6,"aqi":154,"pm10":94.8,"pm2_5":65.4,"mosquito_risk":0,"arthritis_risk":5,"migraine_risk":7,"frizz_risk":1,"updated_at":"2026-03-09T11:30:47.137465+05:30"},{"city":"Rohtak","state":"Haryana","latitude":28.8955,"longitude":76.6066,"temp":30.6,"humidity":55,"rain":0.0,"pressure":986.9,"uv_index":6.0,"wind_gusts":28.4,"aqi":174,"pm10":266.4,"pm2_5":65.9,"mosquito_risk":0,"arthritis_risk":5,"migraine_risk":3,"frizz_risk":1,"updated_at":"2026-03-09T11:30:47.137472+05:30"},{"city":"Panipat","state":"Haryana","latitude":29.3909,"longitude":76.9635,"temp":30.6,"humidity":55,"rain":0.0,"pressure":985.3,"uv_index":5.8,"wind_gusts":28.8,"aqi":542,"pm10":493.6,"pm2_5":98.3,"mosquito_risk":0,"arthritis_risk":5,"migraine_risk":3,"frizz_risk":1,"updated_at":"2026-03-09T11:30:47.137480+05:30"},{"city":"Mathura","state":"Uttar Pradesh","latitude":27.4924,"longitude":77.6737,"temp":33.8,"humidity":37,"rain":0.0,"pressure":991.9,"uv_index":6.3,"wind_gusts":24.1,"aqi":194,"pm10":244.0,"pm2_5":65.9,"mosquito_risk":0,"arthritis_risk":5,"migraine_risk":7,"frizz_risk":1,"updated_at":"2026-03-09T11:30:47.137487+05:30"},{"city":"Vrindavan","state":"Uttar Pradesh","latitude":27.5823,"longitude":77.7027,"temp":33.1,"humidity":41,"rain":0.0,"pressure":992.3,"uv_index":6.25,"wind_gusts":26.3,"aqi":194,"pm10":244.0,"pm2_5":65.9,"mosquito_risk":0,"arthritis_risk":5,"migraine_risk":7,"frizz_risk":1,"updated_at":"2026-03-09T11:30:47.137494+05:30"},{"city":"Ayodhya","state":"Uttar Pradesh","latitude":26.7922,"longitude":82.1998,"temp":29.1,"humidity":65,"rain":0.0,"pressure":1001.6,"uv_index":6.7,"wind_gusts":17.3,"aqi":191,"pm10":127.6,"pm2_5":112.5,"mosquito_risk":7,"arthritis_risk":5,"migraine_risk":4,"frizz_risk":1,"updated_at":"2026-03-09T11:30:47.137501+05:30"},{"city":"Ratlam","state":"Madhya Pradesh","latitude":23.3315,"longitude":75.0367,"temp":33.0,"humidity":32,"rain":0.0,"pressure":960.4,"uv_index":7.5,"wind_gusts":11.9,"aqi":81,"pm10":10.2,"pm2_5":9.9,"mosquito_risk":0,"arthritis_risk":5,"migraine_risk":7,"frizz_risk":0,"updated_at":"2026-03-09T11:30:47.137509+05:30"},{"city":"Sagar","state":"Madhya Pradesh","latitude":23.8388,"longitude":78.7378,"temp":33.1,"humidity":26,"rain":0.0,"pressure":956.2,"uv_index":7.5,"wind_gusts":16.9,"aqi":65,"pm10":30.5,"pm2_5":11.4,"mosquito_risk":0,"arthritis_risk":5,"migraine_risk":7,"frizz_risk":0,"updated_at":"2026-03-09T11:30:47.137516+05:30"},{"city":"Satna","state":"Madhya Pradesh","latitude":24.6005,"longitude":80.8322,"temp":33.0,"humidity":34,"rain":0.0,"pressure":977.1,"uv_index":7.45,"wind_gusts":24.1,"aqi":149,"pm10":104.3,"pm2_5":37.8,"mosquito_risk":0,"arthritis_risk":5,"migraine_risk":7,"frizz_risk":0,"updated_at":"2026-03-09T11:30:47.137523+05:30"},{"city":"Akola","state":"Maharashtra","latitude":20.7002,"longitude":77.0082,"temp":35.1,"humidity":22,"rain":0.0,"pressure":980.4,"uv_index":7.95,"wind_gusts":19.1,"aqi":69,"pm10":27.8,"pm2_5":16.2,"mosquito_risk":0,"arthritis_risk":5,"migraine_risk":10,"frizz_risk":0,"updated_at":"2026-03-09T11:30:47.137531+05:30"},{"city":"Amravati","state":"Maharashtra","latitude":20.9374,"longitude":77.7796,"temp":35.9,"humidity":22,"rain":0.0,"pressure":972.6,"uv_index":7.9,"wind_gusts":26.6,"aqi":63,"pm10":26.8,"pm2_5":14.9,"mosquito_risk":0,"arthritis_risk":5,"migraine_risk":10,"frizz_risk":0,"updated_at":"2026-03-09T11:30:47.137539+05:30"},{"city":"Latur","state":"Maharashtra","latitude":18.4088,"longitude":76.5604,"temp":33.3,"humidity":22,"rain":0.0,"pressure":944.5,"uv_index":8.4,"wind_gusts":29.5,"aqi":96,"pm10":26.5,"pm2_5":19.6,"mosquito_risk":0,"arthritis_risk":5,"migraine_risk":7,"frizz_risk":0,"updated_at":"2026-03-09T11:30:47.137546+05:30"},{"city":"Nanded","state":"Maharashtra","latitude":19.1383,"longitude":77.3091,"temp":35.8,"humidity":19,"rain":0.0,"pressure":973.4,"uv_index":8.15,"wind_gusts":29.9,"aqi":77,"pm10":35.5,"pm2_5":22.5,"mosquito_risk":0,"arthritis_risk":5,"migraine_risk":10,"frizz_risk":0,"updated_at":"2026-03-09T11:30:47.137553+05:30"},{"city":"Gulbarga","state":"Karnataka","latitude":17.3297,"longitude":76.8343,"temp":35.2,"humidity":20,"rain":0.0,"pressure":962.8,"uv_index":8.5,"wind_gusts":32.0,"aqi":83,"pm10":29.3,"pm2_5":22.9,"mosquito_risk":0,"arthritis_risk":5,"migraine_risk":10,"frizz_risk":0,"updated_at":"2026-03-09T11:30:47.137560+05:30"},{"city":"Bidar","state":"Karnataka","latitude":17.9104,"longitude":77.5199,"temp":33.4,"humidity":22,"rain":0.0,"pressure":940.2,"uv_index":8.45,"wind_gusts":31.7,"aqi":101,"pm10":34.9,"pm2_5":25.1,"mosquito_risk":0,"arthritis_risk":5,"migraine_risk":7,"frizz_risk":0,"updated_at":"2026-03-09T11:30:47.137567+05:30"},{"city":"Hospet","state":"Karnataka","latitude":15.2689,"longitude":76.3909,"temp":31.4,"humidity":45,"rain":0.0,"pressure":959.4,"uv_index":8.8,"wind_gusts":36.7,"aqi":88,"pm10":38.1,"pm2_5":29.3,"mosquito_risk":0,"arthritis_risk":5,"migraine_risk":7,"frizz_risk":1,"updated_at":"2026-03-09T11:30:47.137574+05:30"},{"city":"Tirupur","state":"Tamil Nadu","latitude":11.1085,"longitude":77.3411,"temp":31.1,"humidity":48,"rain":0.0,"pressure":978.7,"uv_index":9.25,"wind_gusts":39.2,"aqi":97,"pm10":38.0,"pm2_5":24.6,"mosquito_risk":0,"arthritis_risk":5,"migraine_risk":7,"frizz_risk":1,"updated_at":"2026-03-09T11:30:47.137580+05:30"},{"city":"Alappuzha","state":"Kerala","latitude":9.4981,"longitude":76.3388,"temp":27.1,"humidity":82,"rain":0.0,"pressure":1011.0,"uv_index":8.95,"wind_gusts":25.6,"aqi":130,"pm10":47.3,"pm2_5":43.1,"mosquito_risk":7,"arthritis_risk":0,"migraine_risk":4,"frizz_risk":1,"updated_at":"2026-03-09T11:30:47.137587+05:30"},{"city":"Munnar","state":"Kerala","latitude":10.0889,"longitude":77.0595,"temp":27.8,"humidity":44,"rain":0.0,"pressure":860.5,"uv_index":9.55,"wind_gusts":19.1,"aqi":102,"pm10":40.9,"pm2_5":24.7,"mosquito_risk":4,"arthritis_risk":5,"migraine_risk":7,"frizz_risk":0,"updated_at":"2026-03-09T11:30:47.137595+05:30"},{"city":"Silchar","state":"Assam","latitude":24.8333,"longitude":92.7789,"temp":29.8,"humidity":61,"rain":0.0,"pressure":1011.4,"uv_index":7.65,"wind_gusts":12.6,"aqi":167,"pm10":87.5,"pm2_5":72.9,"mosquito_risk":7,"arthritis_risk":0,"migraine_risk":4,"frizz_risk":1,"updated_at":"2026-03-09T11:30:47.137601+05:30"},{"city":"Dibrugarh","state":"Assam","latitude":27.4728,"longitude":94.912,"temp":28.9,"humidity":57,"rain":0.0,"pressure":1001.7,"uv_index":7.4,"wind_gusts":14.0,"aqi":160,"pm10":101.5,"pm2_5":81.3,"mosquito_risk":4,"arthritis_risk":5,"migraine_risk":4,"frizz_risk":1,"updated_at":"2026-03-09T11:30:47.137608+05:30"}]