[{"city":"Delhi","state":"Delhi","latitude":28.6139,"longitude":77.209,"temp":37.4,"humidity":21,"rain":0.0,"pressure":976.3,"uv_index":7.75,"wind_gusts":32.8,"aqi":264,"pm10":230.5,"pm2_5":69.8,"no2":53.3,"co":600.0,"o3":44.0,"so2":21.7,"mosquito_risk":0,"arthritis_risk":5,"migraine_risk":10,"frizz_risk":0,"updated_at":"2026-05-20T22:23:47.537951+05:30"},{"city":"Mumbai","state":"Maharashtra","latitude":19.076,"longitude":72.8777,"temp":29.9,"humidity":72,"rain":0.0,"pressure":1007.3,"uv_index":7.6,"wind_gusts":39.2,"aqi":63,"pm10":19.8,"pm2_5":12.0,"no2":10.2,"co":192.0,"o3":42.0,"so2":6.5,"mosquito_risk":7,"arthritis_risk":5,"migraine_risk":4,"frizz_risk":1,"updated_at":"2026-05-20T22:23:47.537990+05:30"},{"city":"Bangalore","state":"Karnataka","latitude":12.9716,"longitude":77.5946,"temp":23.0,"humidity":91,"rain":0.0,"pressure":911.6,"uv_index":6.15,"wind_gusts":42.8,"aqi":37,"pm10":15.3,"pm2_5":14.2,"no2":35.4,"co":658.0,"o3":38.0,"so2":8.0,"mosquito_risk":3,"arthritis_risk":5,"migraine_risk":7,"frizz_risk":1,"updated_at":"2026-05-20T22:23:47.538005+05:30"},{"city":"Hyderabad","state":"Telangana","latitude":17.385,"longitude":78.4867,"temp":32.5,"humidity":43,"rain":0.0,"pressure":950.7,"uv_index":8.85,"wind_gusts":34.6,"aqi":98,"pm10":70.3,"pm2_5":53.8,"no2":42.7,"co":682.0,"o3":60.0,"so2":12.3,"mosquito_risk":0,"arthritis_risk":5,"migraine_risk":7,"frizz_risk":1,"updated_at":"2026-05-20T22:23:47.538015+05:30"},{"city":"Chennai","state":"Tamil Nadu","latitude":13.0827,"longitude":80.2707,"temp":34.2,"humidity":47,"rain":0.0,"pressure":1003.7,"uv_index":9.1,"wind_gusts":42.5,"aqi":119,"pm10":23.3,"pm2_5":20.7,"no2":23.8,"co":430.0,"o3":81.0,"so2":10.4,"mosquito_risk":0,"arthritis_risk":5,"migraine_risk":4,"frizz_risk":1,"updated_at":"2026-05-20T22:23:47.538031+05:30"},{"city":"Kolkata","state":"West Bengal","latitude":22.5726,"longitude":88.3639,"temp":29.9,"humidity":88,"rain":0.0,"pressure":1000.3,"uv_index":8.95,"wind_gusts":24.5,"aqi":91,"pm10":43.7,"pm2_5":36.2,"no2":15.3,"co":386.0,"o3":64.0,"so2":12.0,"mosquito_risk":7,"arthritis_risk":5,"migraine_risk":4,"frizz_risk":1,"updated_at":"2026-05-20T22:23:47.538039+05:30"},{"city":"Pune","state":"Maharashtra","latitude":18.5204,"longitude":73.8567,"temp":26.4,"humidity":74,"rain":0.0,"pressure":947.5,"uv_index":8.45,"wind_gusts":41.4,"aqi":68,"pm10":24.3,"pm2_5":16.2,"no2":8.6,"co":165.0,"o3":70.0,"so2":8.7,"mosquito_risk":7,"arthritis_risk":5,"migraine_risk":7,"frizz_risk":1,"updated_at":"2026-05-20T22:23:47.538047+05:30"},{"city":"Ahmedabad","state":"Gujarat","latitude":23.0225,"longitude":72.5714,"temp":32.0,"humidity":68,"rain":0.0,"pressure":998.7,"uv_index":8.15,"wind_gusts":35.6,"aqi":65,"pm10":52.5,"pm2_5":23.7,"no2":10.8,"co":194.0,"o3":60.0,"so2":4.5,"mosquito_risk":3,"arthritis_risk":5,"migraine_risk":7,"frizz_risk":1,"updated_at":"2026-05-20T22:23:47.538053+05:30"},{"city":"Jaipur","state":"Rajasthan","latitude":26.9124,"longitude":75.7873,"temp":33.8,"humidity":24,"rain":0.0,"pressure":955.7,"uv_index":8.3,"wind_gusts":38.2,"aqi":115,"pm10":209.1,"pm2_5":45.9,"no2":11.8,"co":209.0,"o3":69.0,"so2":5.7,"mosquito_risk":0,"arthritis_risk":5,"migraine_risk":7,"frizz_risk":0,"updated_at":"2026-05-20T22:23:47.538062+05:30"},{"city":"Lucknow","state":"Uttar Pradesh","latitude":26.8467,"longitude":80.9462,"temp":36.4,"humidity":29,"rain":0.0,"pressure":986.7,"uv_index":8.25,"wind_gusts":38.2,"aqi":147,"pm10":241.2,"pm2_5":66.6,"no2":22.2,"co":335.0,"o3":91.0,"so2":12.5,"mosquito_risk":0,"arthritis_risk":5,"migraine_risk":10,"frizz_risk":0,"updated_at":"2026-05-20T22:23:47.538070+05:30"},{"city":"Kanpur","state":"Uttar Pradesh","latitude":26.4499,"longitude":80.3319,"temp":35.8,"humidity":35,"rain":0.0,"pressure":985.2,"uv_index":8.25,"wind_gusts":43.6,"aqi":162,"pm10":427.5,"pm2_5":88.0,"no2":24.1,"co":467.0,"o3":84.0,"so2":13.8,"mosquito_risk":0,"arthritis_risk":5,"migraine_risk":10,"frizz_risk":1,"updated_at":"2026-05-20T22:23:47.538077+05:30"},{"city":"Chandigarh","state":"Chandigarh","latitude":30.7333,"longitude":76.7794,"temp":30.6,"humidity":26,"rain":0.0,"pressure":961.8,"uv_index":7.8,"wind_gusts":26.3,"aqi":107,"pm10":71.9,"pm2_5":47.7,"no2":41.6,"co":929.0,"o3":72.0,"so2":15.7,"mosquito_risk":0,"arthritis_risk":5,"migraine_risk":7,"frizz_risk":0,"updated_at":"2026-05-20T22:23:47.538084+05:30"},{"city":"Srinagar","state":"Jammu and Kashmir","latitude":34.0837,"longitude":74.7973,"temp":17.4,"humidity":76,"rain":0.0,"pressure":841.9,"uv_index":9.05,"wind_gusts":25.9,"aqi":88,"pm10":44.2,"pm2_5":22.5,"no2":26.8,"co":923.0,"o3":46.0,"so2":3.4,"mosquito_risk":3,"arthritis_risk":5,"migraine_risk":7,"frizz_risk":0,"updated_at":"2026-05-20T22:23:47.538091+05:30"},{"city":"Jammu","state":"Jammu and Kashmir","latitude":32.7266,"longitude":74.857,"temp":33.3,"humidity":21,"rain":0.0,"pressure":966.3,"uv_index":8.6,"wind_gusts":29.9,"aqi":88,"pm10":73.8,"pm2_5":46.1,"no2":42.9,"co":306.0,"o3":64.0,"so2":7.5,"mosquito_risk":0,"arthritis_risk":5,"migraine_risk":7,"frizz_risk":0,"updated_at":"2026-05-20T22:23:47.538097+05:30"},{"city":"Amritsar","state":"Punjab","latitude":31.634,"longitude":74.8723,"temp":33.4,"humidity":30,"rain":0.0,"pressure":974.0,"uv_index":8.45,"wind_gusts":24.8,"aqi":127,"pm10":55.1,"pm2_5":37.4,"no2":32.0,"co":519.0,"o3":71.0,"so2":13.0,"mosquito_risk":0,"arthritis_risk":5,"migraine_risk":7,"frizz_risk":0,"updated_at":"2026-05-20T22:23:47.538104+05:30"},{"city":"Ludhiana","state":"Punjab","latitude":30.901,"longitude":75.8573,"temp":32.7,"humidity":33,"rain":0.0,"pressure":972.0,"uv_index":8.05,"wind_gusts":22.0,"aqi":156,"pm10":98.7,"pm2_5":54.1,"no2":29.4,"co":1105.0,"o3":56.0,"so2":10.1,"mosquito_risk":0,"arthritis_risk":5,"migraine_risk":7,"frizz_risk":0,"updated_at":"2026-05-20T22:23:47.538110+05:30"},{"city":"Jalandhar","state":"Punjab","latitude":31.326,"longitude":75.5762,"temp":33.4,"humidity":28,"rain":0.0,"pressure":972.9,"uv_index":8.25,"wind_gusts":28.4,"aqi":141,"pm10":78.7,"pm2_5":39.1,"no2":22.9,"co":837.0,"o3":67.0,"so2":7.3,"mosquito_risk":0,"arthritis_risk":5,"migraine_risk":7,"frizz_risk":0,"updated_at":"2026-05-20T22:23:47.538116+05:30"},{"city":"Dehradun","state":"Uttarakhand","latitude":30.6284,"longitude":78.0322,"temp":17.8,"humidity":50,"rain":0.0,"pressure":826.9,"uv_index":8.2,"wind_gusts":45.0,"aqi":105,"pm10":49.9,"pm2_5":26.0,"no2":28.0,"co":205.0,"o3":96.0,"so2":5.8,"mosquito_risk":0,"arthritis_risk":5,"migraine_risk":7,"frizz_risk":0,"updated_at":"2026-05-20T22:23:47.538122+05:30"},{"city":"Shimla","state":"Himachal Pradesh","latitude":31.1048,"longitude":77.1734,"temp":18.8,"humidity":32,"rain":0.0,"pressure":783.7,"uv_index":8.3,"wind_gusts":43.9,"aqi":130,"pm10":42.8,"pm2_5":22.5,"no2":16.3,"co":269.0,"o3":124.0,"so2":12.7,"mosquito_risk":0,"arthritis_risk":5,"migraine_risk":7,"frizz_risk":0,"updated_at":"2026-05-20T22:23:47.538130+05:30"},{"city":"Manali","state":"Himachal Pradesh","latitude":32.2396,"longitude":77.1887,"temp":14.2,"humidity":59,"rain":0.0,"pressure":816.1,"uv_index":10.0,"wind_gusts":38.9,"aqi":95,"pm10":17.2,"pm2_5":8.5,"no2":55.9,"co":362.0,"o3":74.0,"so2":0.4,"mosquito_risk":0,"arthritis_risk":5,"migraine_risk":7,"frizz_risk":0,"updated_at":"2026-05-20T22:23:47.538137+05:30"},{"city":"Gurgaon","state":"Haryana","latitude":28.4595,"longitude":77.0266,"temp":33.3,"humidity":27,"rain":0.0,"pressure":974.7,"uv_index":7.85,"wind_gusts":39.6,"aqi":786,"pm10":309.2,"pm2_5":100.6,"no2":81.3,"co":515.0,"o3":13.0,"so2":22.3,"mosquito_risk":0,"arthritis_risk":5,"migraine_risk":7,"frizz_risk":0,"updated_at":"2026-05-20T22:23:47.538145+05:30"},{"city":"Noida","state":"Uttar Pradesh","latitude":28.5355,"longitude":77.391,"temp":34.0,"humidity":28,"rain":0.0,"pressure":977.6,"uv_index":7.8,"wind_gusts":28.4,"aqi":786,"pm10":309.2,"pm2_5":100.6,"no2":81.3,"co":692.0,"o3":13.0,"so2":22.3,"mosquito_risk":0,"arthritis_risk":5,"migraine_risk":7,"frizz_risk":0,"updated_at":"2026-05-20T22:23:47.538151+05:30"},{"city":"Ghaziabad","state":"Uttar Pradesh","latitude":28.6692,"longitude":77.4538,"temp":32.2,"humidity":46,"rain":0.0,"pressure":975.6,"uv_index":7.75,"wind_gusts":31.0,"aqi":205,"pm10":374.4,"pm2_5":105.0,"no2":55.5,"co":707.0,"o3":52.0,"so2":27.7,"mosquito_risk":0,"arthritis_risk":5,"migraine_risk":7,"frizz_risk":1,"updated_at":"2026-05-20T22:23:47.538158+05:30"},{"city":"Faridabad","state":"Haryana","latitude":28.4089,"longitude":77.3178,"temp":35.5,"humidity":23,"rain":0.0,"pressure":977.2,"uv_index":7.8,"wind_gusts":37.8,"aqi":786,"pm10":309.2,"pm2_5":100.6,"no2":81.3,"co":536.0,"o3":13.0,"so2":22.3,"mosquito_risk":0,"arthritis_risk":5,"migraine_risk":10,"frizz_risk":0,"updated_at":"2026-05-20T22:23:47.538165+05:30"},{"city":"Meerut","state":"Uttar Pradesh","latitude":28.9845,"longitude":77.7064,"temp":32.8,"humidity":49,"rain":0.0,"pressure":974.9,"uv_index":7.7,"wind_gusts":27.7,"aqi":205,"pm10":374.4,"pm2_5":105.0,"no2":55.5,"co":392.0,"o3":52.0,"so2":27.7,"mosquito_risk":0,"arthritis_risk":5,"migraine_risk":7,"frizz_risk":1,"updated_at":"2026-05-20T22:23:47.538171+05:30"},{"city":"Agra","state":"Uttar Pradesh","latitude":27.1767,"longitude":78.0081,"temp":35.3,"humidity":21,"rain":0.0,"pressure":981.8,"uv_index":8.1,"wind_gusts":38.2,"aqi":433,"pm10":1553.4,"pm2_5":191.9,"no2":11.6,"co":228.0,"o3":78.0,"so2":5.6,"mosquito_risk":0,"arthritis_risk":5,"migraine_risk":10,"frizz_risk":0,"updated_at":"2026-05-20T22:23:47.538178+05:30"},{"city":"Varanasi","state":"Uttar Pradesh","latitude":25.3176,"longitude":82.9739,"temp":34.7,"humidity":44,"rain":0.0,"pressure":990.8,"uv_index":8.75,"wind_gusts":42.5,"aqi":151,"pm10":164.4,"pm2_5":82.0,"no2":42.0,"co":914.0,"o3":78.0,"so2":23.2,"mosquito_risk":0,"arthritis_risk":5,"migraine_risk":7,"frizz_risk":1,"updated_at":"2026-05-20T22:23:47.538185+05:30"},{"city":"Prayagraj","state":"Uttar Pradesh","latitude":25.4358,"longitude":81.8463,"temp":37.2,"humidity":32,"rain":0.0,"pressure":989.3,"uv_index":8.6,"wind_gusts":37.1,"aqi":142,"pm10":112.2,"pm2_5":54.5,"no2":28.0,"co":757.0,"o3":63.0,"so2":14.6,"mosquito_risk":0,"arthritis_risk":5,"migraine_risk":10,"frizz_risk":1,"updated_at":"2026-05-20T22:23:47.538191+05:30"},{"city":"Gorakhpur","state":"Uttar Pradesh","latitude":26.7606,"longitude":83.3732,"temp":30.8,"humidity":71,"rain":0.0,"pressure":991.3,"uv_index":8.65,"wind_gusts":29.9,"aqi":156,"pm10":87.8,"pm2_5":63.3,"no2":16.8,"co":476.0,"o3":103.0,"so2":13.1,"mosquito_risk":3,"arthritis_risk":5,"migraine_risk":7,"frizz_risk":1,"updated_at":"2026-05-20T22:23:47.538200+05:30"},{"city":"Bareilly","state":"Uttar Pradesh","latitude":28.367,"longitude":79.4304,"temp":32.0,"humidity":50,"rain":0.0,"pressure":979.7,"uv_index":8.05,"wind_gusts":33.1,"aqi":151,"pm10":140.6,"pm2_5":66.8,"no2":34.2,"co":509.0,"o3":88.0,"so2":16.3,"mosquito_risk":0,"arthritis_risk":5,"migraine_risk":7,"frizz_risk":1,"updated_at":"2026-05-20T22:23:47.538206+05:30"},{"city":"Aligarh","state":"Uttar Pradesh","latitude":27.8974,"longitude":78.088,"temp":33.6,"humidity":23,"rain":0.0,"pressure":979.3,"uv_index":7.9,"wind_gusts":28.8,"aqi":425,"pm10":502.9,"pm2_5":97.3,"no2":40.1,"co":365.0,"o3":42.0,"so2":11.1,"mosquito_risk":0,"arthritis_risk":5,"migraine_risk":7,"frizz_risk":0,"updated_at":"2026-05-20T22:23:47.538213+05:30"},{"city":"Moradabad","state":"Uttar Pradesh","latitude":28.8386,"longitude":78.7733,"temp":33.5,"humidity":50,"rain":0.0,"pressure":976.8,"uv_index":7.9,"wind_gusts":36.4,"aqi":170,"pm10":199.3,"pm2_5":111.8,"no2":72.3,"co":832.0,"o3":54.0,"so2":25.5,"mosquito_risk":0,"arthritis_risk":5,"migraine_risk":7,"frizz_risk":1,"updated_at":"2026-05-20T22:23:47.538219+05:30"},{"city":"Saharanpur","state":"Uttar Pradesh","latitude":29.9637,"longitude":77.546,"temp":31.3,"humidity":54,"rain":0.0,"pressure":969.0,"uv_index":7.4,"wind_gusts":22.3,"aqi":152,"pm10":144.4,"pm2_5":83.6,"no2":49.9,"co":555.0,"o3":42.0,"so2":17.9,"mosquito_risk":0,"arthritis_risk":5,"migraine_risk":7,"frizz_risk":1,"updated_at":"2026-05-20T22:23:47.538225+05:30"},{"city":"Jhansi","state":"Uttar Pradesh","latitude":25.4484,"longitude":78.5685,"temp":35.7,"humidity":21,"rain":0.0,"pressure":972.8,"uv_index":8.5,"wind_gusts":40.7,"aqi":56,"pm10":27.7,"pm2_5":18.9,"no2":6.0,"co":174.0,"o3":75.0,"so2":4.0,"mosquito_risk":0,"arthritis_risk":5,"migraine_risk":10,"frizz_risk":0,"updated_at":"2026-05-20T22:23:50.780715+05:30"},{"city":"Surat","state":"Gujarat","latitude":21.1702,"longitude":72.8311,"temp":29.5,"humidity":79,"rain":0.0,"pressure":1004.8,"uv_index":7.7,"wind_gusts":47.2,"aqi":68,"pm10":25.8,"pm2_5":15.8,"no2":21.0,"co":230.0,"o3":35.0,"so2":34.1,"mosquito_risk":7,"arthritis_risk":5,"migraine_risk":4,"frizz_risk":1,"updated_at":"2026-05-20T22:23:50.780751+05:30"},{"city":"Vadodara","state":"Gujarat","latitude":22.3072,"longitude":73.1812,"temp":30.3,"humidity":71,"rain":0.0,"pressure":1001.6,"uv_index":8.1,"wind_gusts":47.5,"aqi":69,"pm10":32.9,"pm2_5":20.2,"no2":20.7,"co":240.0,"o3":52.0,"so2":23.4,"mosquito_risk":3,"arthritis_risk":5,"migraine_risk":4,"frizz_risk":1,"updated_at":"2026-05-20T22:23:50.780765+05:30"},{"city":"Rajkot","state":"Gujarat","latitude":22.3039,"longitude":70.8022,"temp":31.2,"humidity":57,"rain":0.0,"pressure":991.6,"uv_index":7.75,"wind_gusts":41.4,"aqi":59,"pm10":48.2,"pm2_5":21.4,"no2":7.1,"co":153.0,"o3":60.0,"so2":7.2,"mosquito_risk":0,"arthritis_risk":5,"migraine_risk":7,"frizz_risk":1,"updated_at":"2026-05-20T22:23:50.780775+05:30"},{"city":"Thane","state":"Maharashtra","latitude":19.2183,"longitude":72.9781,"temp":30.2,"humidity":70,"rain":0.0,"pressure":1006.7,"uv_index":7.65,"wind_gusts":40.7,"aqi":63,"pm10":19.8,"pm2_5":12.0,"no2":10.2,"co":199.0,"o3":42.0,"so2":6.5,"mosquito_risk":3,"arthritis_risk":5,"migraine_risk":4,"frizz_risk":1,"updated_at":"2026-05-20T22:23:50.780785+05:30"},{"city":"Nagpur","state":"Maharashtra","latitude":21.1458,"longitude":79.0882,"temp":37.3,"humidity":21,"rain":0.0,"pressure":968.7,"uv_index":8.9,"wind_gusts":39.6,"aqi":107,"pm10":22.8,"pm2_5":17.2,"no2":9.5,"co":449.0,"o3":98.0,"so2":11.5,"mosquito_risk":0,"arthritis_risk":5,"migraine_risk":10,"frizz_risk":0,"updated_at":"2026-05-20T22:23:50.780795+05:30"},{"city":"Nashik","state":"Maharashtra","latitude":19.9975,"longitude":73.7898,"temp":26.3,"humidity":76,"rain":0.0,"pressure":944.5,"uv_index":8.15,"wind_gusts":40.3,"aqi":59,"pm10":16.8,"pm2_5":10.8,"no2":5.5,"co":156.0,"o3":58.0,"so2":2.1,"mosquito_risk":7,"arthritis_risk":5,"migraine_risk":7,"frizz_risk":1,"updated_at":"2026-05-20T22:23:50.780804+05:30"},{"city":"Aurangabad","state":"Maharashtra","latitude":19.8762,"longitude":75.3433,"temp":32.2,"humidity":41,"rain":0.0,"pressure":942.9,"uv_index":9.05,"wind_gusts":51.1,"aqi":69,"pm10":29.4,"pm2_5":20.1,"no2":6.0,"co":174.0,"o3":85.0,"so2":3.7,"mosquito_risk":0,"arthritis_risk":5,"migraine_risk":7,"frizz_risk":1,"updated_at":"2026-05-20T22:23:50.780813+05:30"},{"city":"Solapur","state":"Maharashtra","latitude":17.6599,"longitude":75.9064,"temp":31.8,"humidity":49,"rain":0.0,"pressure":956.0,"uv_index":6.45,"wind_gusts":50.0,"aqi":104,"pm10":38.6,"pm2_5":27.5,"no2":9.6,"co":206.0,"o3":98.0,"so2":6.1,"mosquito_risk":0,"arthritis_risk":5,"migraine_risk":7,"frizz_risk":1,"updated_at":"2026-05-20T22:23:50.780822+05:30"},{"city":"Kolhapur","state":"Maharashtra","latitude":16.705,"longitude":74.2433,"temp":25.3,"humidity":77,"rain":0.0,"pressure":947.5,"uv_index":8.85,"wind_gusts":41.4,"aqi":74,"pm10":33.2,"pm2_5":21.0,"no2":5.4,"co":174.0,"o3":57.0,"so2":2.4,"mosquito_risk":7,"arthritis_risk":5,"migraine_risk":7,"frizz_risk":1,"updated_at":"2026-05-20T22:23:50.780832+05:30"},{"city":"Goa","state":"Goa","latitude":15.2993,"longitude":74.124,"temp":26.8,"humidity":97,"rain":0.0,"pressure":998.0,"uv_index":6.6,"wind_gusts":23.8,"aqi":43,"pm10":14.8,"pm2_5":12.3,"no2":6.2,"co":446.0,"o3":61.0,"so2":1.5,"mosquito_risk":7,"arthritis_risk":5,"migraine_risk":7,"frizz_risk":1,"updated_at":"2026-05-20T22:23:50.780842+05:30"},{"city":"Jodhpur","state":"Rajasthan","latitude":26.2389,"longitude":73.0243,"temp":35.5,"humidity":22,"rain":0.0,"pressure":977.9,"uv_index":8.45,"wind_gusts":43.9,"aqi":143,"pm10":248.7,"pm2_5":51.1,"no2":9.2,"co":174.0,"o3":66.0,"so2":3.6,"mosquito_risk":0,"arthritis_risk":5,"migraine_risk":10,"frizz_risk":0,"updated_at":"2026-05-20T22:23:50.780851+05:30"},{"city":"Udaipur","state":"Rajasthan","latitude":24.5854,"longitude":73.7125,"temp":30.9,"humidity":25,"rain":0.0,"pressure":943.8,"uv_index":8.85,"wind_gusts":50.0,"aqi":66,"pm10":45.3,"pm2_5":18.3,"no2":3.5,"co":212.0,"o3":73.0,"so2":2.4,"mosquito_risk":0,"arthritis_risk":5,"migraine_risk":7,"frizz_risk":0,"updated_at":"2026-05-20T22:23:50.780887+05:30"},{"city":"Kota","state":"Rajasthan","latitude":25.2138,"longitude":75.8648,"temp":35.0,"humidity":19,"rain":0.0,"pressure":974.7,"uv_index":8.4,"wind_gusts":38.5,"aqi":55,"pm10":43.0,"pm2_5":24.3,"no2":10.5,"co":173.0,"o3":66.0,"so2":4.6,"mosquito_risk":0,"arthritis_risk":5,"migraine_risk":7,"frizz_risk":0,"updated_at":"2026-05-20T22:23:50.780897+05:30"},{"city":"Bikaner","state":"Rajasthan","latitude":28.0229,"longitude":73.3119,"temp":35.8,"humidity":24,"rain":0.0,"pressure":975.7,"uv_index":8.4,"wind_gusts":34.6,"aqi":96,"pm10":78.2,"pm2_5":29.7,"no2":3.7,"co":159.0,"o3":75.0,"so2":2.6,"mosquito_risk":0,"arthritis_risk":5,"migraine_risk":10,"frizz_risk":0,"updated_at":"2026-05-20T22:23:50.780907+05:30"},{"city":"Ajmer","state":"Rajasthan","latitude":26.4499,"longitude":74.6399,"temp":31.9,"humidity":31,"rain":0.0,"pressure":950.9,"uv_index":8.4,"wind_gusts":44.3,"aqi":61,"pm10":112.5,"pm2_5":32.0,"no2":6.0,"co":192.0,"o3":75.0,"so2":4.1,"mosquito_risk":0,"arthritis_risk":5,"migraine_risk":7,"frizz_risk":0,"updated_at":"2026-05-20T22:23:50.780916+05:30"},{"city":"Gwalior","state":"Madhya Pradesh","latitude":26.2183,"longitude":78.1828,"temp":35.5,"humidity":23,"rain":0.0,"pressure":977.9,"uv_index":8.3,"wind_gusts":44.6,"aqi":67,"pm10":23.5,"pm2_5":15.3,"no2":5.4,"co":161.0,"o3":80.0,"so2":3.2,"mosquito_risk":0,"arthritis_risk":5,"migraine_risk":10,"frizz_risk":0,"updated_at":"2026-05-20T22:23:50.780925+05:30"},{"city":"Indore","state":"Madhya Pradesh","latitude":22.7196,"longitude":75.8577,"temp":33.8,"humidity":25,"rain":0.0,"pressure":946.2,"uv_index":8.1,"wind_gusts":43.9,"aqi":63,"pm10":41.0,"pm2_5":22.5,"no2":6.0,"co":262.0,"o3":87.0,"so2":4.8,"mosquito_risk":0,"arthritis_risk":5,"migraine_risk":7,"frizz_risk":0,"updated_at":"2026-05-20T22:23:50.780933+05:30"},{"city":"Bhopal","state":"Madhya Pradesh","latitude":23.2599,"longitude":77.4126,"temp":35.7,"humidity":22,"rain":0.0,"pressure":950.6,"uv_index":8.7,"wind_gusts":46.4,"aqi":59,"pm10":34.5,"pm2_5":25.4,"no2":7.9,"co":228.0,"o3":77.0,"so2":5.0,"mosquito_risk":0,"arthritis_risk":5,"migraine_risk":10,"frizz_risk":0,"updated_at":"2026-05-20T22:23:50.780942+05:30"},{"city":"Jabalpur","state":"Madhya Pradesh","latitude":23.1815,"longitude":79.9864,"temp":35.8,"humidity":24,"rain":0.0,"pressure":956.8,"uv_index":8.85,"wind_gusts":29.5,"aqi":85,"pm10":51.7,"pm2_5":25.9,"no2":17.6,"co":233.0,"o3":78.0,"so2":7.6,"mosquito_risk":0,"arthritis_risk":5,"migraine_risk":10,"frizz_risk":0,"updated_at":"2026-05-20T22:23:50.780951+05:30"},{"city":"Ujjain","state":"Madhya Pradesh","latitude":23.1765,"longitude":75.7885,"temp":33.3,"humidity":27,"rain":0.0,"pressure":951.5,"uv_index":8.4,"wind_gusts":45.0,"aqi":63,"pm10":46.6,"pm2_5":24.7,"no2":4.2,"co":217.0,"o3":86.0,"so2":4.1,"mosquito_risk":0,"arthritis_risk":5,"migraine_risk":7,"frizz_risk":0,"updated_at":"2026-05-20T22:23:50.780961+05:30"},{"city":"Visakhapatnam","state":"Andhra Pradesh","latitude":17.6868,"longitude":83.2185,"temp":30.8,"humidity":86,"rain":0.0,"pressure":999.2,"uv_index":8.65,"wind_gusts":35.6,"aqi":115,"pm10":54.4,"pm2_5":44.7,"no2":46.3,"co":625.0,"o3":72.0,"so2":62.7,"mosquito_risk":3,"arthritis_risk":5,"migraine_risk":7,"frizz_risk":1,"updated_at":"2026-05-20T22:23:50.780970+05:30"},{"city":"Vijayawada","state":"Andhra Pradesh","latitude":16.5062,"longitude":80.648,"temp":35.5,"humidity":43,"rain":0.0,"pressure":997.7,"uv_index":8.8,"wind_gusts":39.6,"aqi":106,"pm10":97.1,"pm2_5":83.1,"no2":37.7,"co":739.0,"o3":57.0,"so2":12.4,"mosquito_risk":0,"arthritis_risk":5,"migraine_risk":10,"frizz_risk":1,"updated_at":"2026-05-20T22:23:50.780978+05:30"},{"city":"Guntur","state":"Andhra Pradesh","latitude":16.3067,"longitude":80.4365,"temp":36.4,"humidity":34,"rain":0.0,"pressure":999.0,"uv_index":8.55,"wind_gusts":42.1,"aqi":104,"pm10":91.0,"pm2_5":74.5,"no2":34.2,"co":693.0,"o3":58.0,"so2":11.2,"mosquito_risk":0,"arthritis_risk":5,"migraine_risk":10,"frizz_risk":1,"updated_at":"2026-05-20T22:23:50.780988+05:30"},{"city":"Nellore","state":"Andhra Pradesh","latitude":14.4426,"longitude":79.9865,"temp":33.5,"humidity":52,"rain":0.0,"pressure":1002.1,"uv_index":8.9,"wind_gusts":46.4,"aqi":132,"pm10":31.7,"pm2_5":25.3,"no2":5.4,"co":277.0,"o3":141.0,"so2":5.7,"mosquito_risk":0,"arthritis_risk":5,"migraine_risk":4,"frizz_risk":1,"updated_at":"2026-05-20T22:23:50.780997+05:30"},{"city":"Kurnool","state":"Andhra Pradesh","latitude":15.8281,"longitude":78.0373,"temp":33.2,"humidity":47,"rain":0.0,"pressure":974.8,"uv_index":8.45,"wind_gusts":38.9,"aqi":122,"pm10":43.4,"pm2_5":32.8,"no2":10.1,"co":218.0,"o3":107.0,"so2":8.4,"mosquito_risk":0,"arthritis_risk":5,"migraine_risk":7,"frizz_risk":1,"updated_at":"2026-05-20T22:23:50.781007+05:30"},{"city":"Kakinada","state":"Andhra Pradesh","latitude":16.9891,"longitude":82.2475,"temp":32.0,"humidity":76,"rain":0.0,"pressure":1003.2,"uv_index":8.5,"wind_gusts":41.4,"aqi":94,"pm10":39.0,"pm2_5":31.4,"no2":4.2,"co":487.0,"o3":135.0,"so2":5.2,"mosquito_risk":3,"arthritis_risk":5,"migraine_risk":4,"frizz_risk":1,"updated_at":"2026-05-20T22:23:50.781015+05:30"},{"city":"Tirupati","state":"Andhra Pradesh","latitude":13.6288,"longitude":79.4192,"temp":28.9,"humidity":69,"rain":0.0,"pressure":988.6,"uv_index":9.0,"wind_gusts":34.6,"aqi":62,"pm10":23.7,"pm2_5":22.3,"no2":21.8,"co":283.0,"o3":56.0,"so2":3.8,"mosquito_risk":7,"arthritis_risk":5,"migraine_risk":7,"frizz_risk":1,"updated_at":"2026-05-20T22:23:50.781024+05:30"},{"city":"Warangal","state":"Telangana","latitude":17.9689,"longitude":79.5941,"temp":33.2,"humidity":39,"rain":0.0,"pressure":974.5,"uv_index":8.1,"wind_gusts":28.8,"aqi":123,"pm10":103.4,"pm2_5":84.3,"no2":47.0,"co":446.0,"o3":49.0,"so2":12.9,"mosquito_risk":0,"arthritis_risk":5,"migraine_risk":7,"frizz_risk":1,"updated_at":"2026-05-20T22:23:50.781032+05:30"},{"city":"Nizamabad","state":"Telangana","latitude":18.6725,"longitude":78.0941,"temp":33.7,"humidity":33,"rain":0.0,"pressure":961.3,"uv_index":8.85,"wind_gusts":32.0,"aqi":92,"pm10":61.2,"pm2_5":42.8,"no2":21.6,"co":513.0,"o3":71.0,"so2":7.5,"mosquito_risk":0,"arthritis_risk":5,"migraine_risk":7,"frizz_risk":0,"updated_at":"2026-05-20T22:23:50.781040+05:30"},{"city":"Mysore","state":"Karnataka","latitude":12.2958,"longitude":76.6396,"temp":23.7,"humidity":86,"rain":0.0,"pressure":928.9,"uv_index":4.8,"wind_gusts":43.6,"aqi":38,"pm10":9.0,"pm2_5":8.3,"no2":11.9,"co":212.0,"o3":53.0,"so2":2.8,"mosquito_risk":3,"arthritis_risk":5,"migraine_risk":3,"frizz_risk":1,"updated_at":"2026-05-20T22:23:50.781049+05:30"},{"city":"Mangalore","state":"Karnataka","latitude":12.9141,"longitude":74.856,"temp":27.7,"humidity":89,"rain":0.0,"pressure":1007.0,"uv_index":4.9,"wind_gusts":31.7,"aqi":37,"pm10":12.0,"pm2_5":9.6,"no2":8.1,"co":437.0,"o3":50.0,"so2":2.8,"mosquito_risk":7,"arthritis_risk":5,"migraine_risk":0,"frizz_risk":1,"updated_at":"2026-05-20T22:23:50.781058+05:30"},{"city":"Hubli-Dharwad","state":"Karnataka","latitude":15.3647,"longitude":75.124,"temp":24.2,"humidity":92,"rain":0.0,"pressure":940.7,"uv_index":9.0,"wind_gusts":40.0,"aqi":38,"pm10":5.3,"pm2_5":4.4,"no2":5.8,"co":190.0,"o3":59.0,"so2":1.0,"mosquito_risk":3,"arthritis_risk":5,"migraine_risk":7,"frizz_risk":1,"updated_at":"2026-05-20T22:23:50.781067+05:30"},{"city":"Belgaum","state":"Karnataka","latitude":15.8497,"longitude":74.4977,"temp":23.5,"humidity":91,"rain":0.0,"pressure":925.6,"uv_index":9.1,"wind_gusts":35.3,"aqi":66,"pm10":18.5,"pm2_5":11.6,"no2":7.4,"co":146.0,"o3":62.0,"so2":2.6,"mosquito_risk":3,"arthritis_risk":5,"migraine_risk":7,"frizz_risk":1,"updated_at":"2026-05-20T22:23:54.028732+05:30"},{"city":"Coimbatore","state":"Tamil Nadu","latitude":11.0168,"longitude":76.9558,"temp":25.9,"humidity":86,"rain":0.0,"pressure":961.5,"uv_index":7.7,"wind_gusts":56.9,"aqi":34,"pm10":9.3,"pm2_5":8.4,"no2":8.5,"co":197.0,"o3":52.0,"so2":3.1,"mosquito_risk":7,"arthritis_risk":5,"migraine_risk":7,"frizz_risk":1,"updated_at":"2026-05-20T22:23:54.028767+05:30"},{"city":"Madurai","state":"Tamil Nadu","latitude":9.9252,"longitude":78.1198,"temp":29.9,"humidity":64,"rain":0.0,"pressure":991.8,"uv_index":8.85,"wind_gusts":57.2,"aqi":70,"pm10":22.2,"pm2_5":21.3,"no2":37.9,"co":182.0,"o3":17.0,"so2":8.4,"mosquito_risk":7,"arthritis_risk":5,"migraine_risk":7,"frizz_risk":1,"updated_at":"2026-05-20T22:23:54.028779+05:30"},{"city":"Trichy","state":"Tamil Nadu","latitude":10.7905,"longitude":78.7047,"temp":30.0,"humidity":66,"rain":0.0,"pressure":998.2,"uv_index":8.25,"wind_gusts":46.8,"aqi":38,"pm10":23.7,"pm2_5":22.8,"no2":27.0,"co":185.0,"o3":37.0,"so2":6.7,"mosquito_risk":7,"arthritis_risk":5,"migraine_risk":7,"frizz_risk":1,"updated_at":"2026-05-20T22:23:54.028788+05:30"},{"city":"Salem","state":"Tamil Nadu","latitude":11.6643,"longitude":78.146,"temp":30.0,"humidity":61,"rain":0.0,"pressure":976.6,"uv_index":7.15,"wind_gusts":32.0,"aqi":49,"pm10":13.6,"pm2_5":12.8,"no2":17.8,"co":251.0,"o3":65.0,"so2":10.5,"mosquito_risk":7,"arthritis_risk":5,"migraine_risk":7,"frizz_risk":1,"updated_at":"2026-05-20T22:23:54.028797+05:30"},{"city":"Tirunelveli","state":"Tamil Nadu","latitude":8.7139,"longitude":77.7567,"temp":30.0,"humidity":65,"rain":0.0,"pressure":1002.9,"uv_index":8.7,"wind_gusts":38.2,"aqi":29,"pm10":7.9,"pm2_5":6.5,"no2":6.6,"co":172.0,"o3":43.0,"so2":1.6,"mosquito_risk":7,"arthritis_risk":5,"migraine_risk":4,"frizz_risk":1,"updated_at":"2026-05-20T22:23:54.028805+05:30"},{"city":"Vellore","state":"Tamil Nadu","latitude":12.9165,"longitude":79.1325,"temp":30.1,"humidity":59,"rain":0.0,"pressure":982.4,"uv_index":8.75,"wind_gusts":47.9,"aqi":48,"pm10":20.6,"pm2_5":19.7,"no2":15.9,"co":263.0,"o3":56.0,"so2":5.7,"mosquito_risk":0,"arthritis_risk":5,"migraine_risk":7,"frizz_risk":1,"updated_at":"2026-05-20T22:23:54.028814+05:30"},{"city":"Erode","state":"Tamil Nadu","latitude":11.341,"longitude":77.7172,"temp":28.5,"humidity":71,"rain":0.0,"pressure":988.1,"uv_index":8.0,"wind_gusts":39.6,"aqi":40,"pm10":14.0,"pm2_5":12.9,"no2":19.2,"co":203.0,"o3":47.0,"so2":3.9,"mosquito_risk":7,"arthritis_risk":5,"migraine_risk":7,"frizz_risk":1,"updated_at":"2026-05-20T22:23:54.028822+05:30"},{"city":"Kochi","state":"Kerala","latitude":9.9312,"longitude":76.2673,"temp":28.0,"humidity":89,"rain":0.0,"pressure":1009.3,"uv_index":6.75,"wind_gusts":29.2,"aqi":51,"pm10":28.0,"pm2_5":26.2,"no2":40.2,"co":322.0,"o3":3.0,"so2":8.6,"mosquito_risk":7,"arthritis_risk":0,"migraine_risk":4,"frizz_risk":1,"updated_at":"2026-05-20T22:23:54.028830+05:30"},{"city":"Thiruvananthapuram","state":"Kerala","latitude":8.5241,"longitude":76.9366,"temp":27.1,"humidity":86,"rain":0.0,"pressure":1008.9,"uv_index":7.8,"wind_gusts":39.6,"aqi":27,"pm10":9.2,"pm2_5":5.4,"no2":1.8,"co":121.0,"o3":50.0,"so2":0.6,"mosquito_risk":7,"arthritis_risk":0,"migraine_risk":4,"frizz_risk":1,"updated_at":"2026-05-20T22:23:54.028838+05:30"},{"city":"Kozhikode","state":"Kerala","latitude":11.2588,"longitude":75.7804,"temp":27.0,"humidity":94,"rain":0.0,"pressure":1008.6,"uv_index":6.4,"wind_gusts":26.3,"aqi":31,"pm10":9.7,"pm2_5":6.7,"no2":2.3,"co":462.0,"o3":64.0,"so2":0.8,"mosquito_risk":7,"arthritis_risk":0,"migraine_risk":4,"frizz_risk":1,"updated_at":"2026-05-20T22:23:54.028846+05:30"},{"city":"Thrissur","state":"Kerala","latitude":10.5276,"longitude":76.2144,"temp":26.1,"humidity":97,"rain":0.1,"pressure":1007.9,"uv_index":4.7,"wind_gusts":31.3,"aqi":43,"pm10":23.7,"pm2_5":22.2,"no2":23.9,"co":496.0,"o3":18.0,"so2":5.7,"mosquito_risk":10,"arthritis_risk":5,"migraine_risk":0,"frizz_risk":1,"updated_at":"2026-05-20T22:23:54.028879+05:30"},{"city":"Kannur","state":"Kerala","latitude":11.8745,"longitude":75.3704,"temp":26.4,"humidity":90,"rain":0.0,"pressure":1007.7,"uv_index":8.45,"wind_gusts":29.5,"aqi":33,"pm10":13.0,"pm2_5":10.8,"no2":13.0,"co":419.0,"o3":39.0,"so2":2.7,"mosquito_risk":7,"arthritis_risk":5,"migraine_risk":4,"frizz_risk":1,"updated_at":"2026-05-20T22:23:54.028888+05:30"},{"city":"Patna","state":"Bihar","latitude":25.5941,"longitude":85.1376,"temp":30.0,"humidity":78,"rain":0.0,"pressure":994.7,"uv_index":8.85,"wind_gusts":26.3,"aqi":156,"pm10":82.7,"pm2_5":70.1,"no2":21.0,"co":508.0,"o3":103.0,"so2":19.7,"mosquito_risk":7,"arthritis_risk":5,"migraine_risk":7,"frizz_risk":1,"updated_at":"2026-05-20T22:23:54.028896+05:30"},{"city":"Gaya","state":"Bihar","latitude":24.7914,"longitude":85.0002,"temp":30.5,"humidity":69,"rain":0.0,"pressure":988.1,"uv_index":8.9,"wind_gusts":29.9,"aqi":157,"pm10":109.4,"pm2_5":79.6,"no2":24.1,"co":541.0,"o3":88.0,"so2":18.0,"mosquito_risk":3,"arthritis_risk":5,"migraine_risk":7,"frizz_risk":1,"updated_at":"2026-05-20T22:23:54.028903+05:30"},{"city":"Muzaffarpur","state":"Bihar","latitude":26.1209,"longitude":85.3647,"temp":29.2,"humidity":78,"rain":0.0,"pressure":995.0,"uv_index":8.85,"wind_gusts":27.0,"aqi":154,"pm10":88.0,"pm2_5":72.9,"no2":30.0,"co":495.0,"o3":78.0,"so2":18.6,"mosquito_risk":7,"arthritis_risk":5,"migraine_risk":7,"frizz_risk":1,"updated_at":"2026-05-20T22:23:54.028910+05:30"},{"city":"Bhagalpur","state":"Bihar","latitude":25.2425,"longitude":87.0117,"temp":29.1,"humidity":86,"rain":0.0,"pressure":996.0,"uv_index":8.7,"wind_gusts":31.7,"aqi":162,"pm10":58.0,"pm2_5":50.3,"no2":18.4,"co":415.0,"o3":103.0,"so2":17.9,"mosquito_risk":7,"arthritis_risk":5,"migraine_risk":7,"frizz_risk":1,"updated_at":"2026-05-20T22:23:54.028918+05:30"},{"city":"Ranchi","state":"Jharkhand","latitude":23.3441,"longitude":85.3096,"temp":26.8,"humidity":62,"rain":0.0,"pressure":933.2,"uv_index":9.3,"wind_gusts":46.8,"aqi":142,"pm10":151.8,"pm2_5":60.1,"no2":22.0,"co":496.0,"o3":85.0,"so2":12.0,"mosquito_risk":7,"arthritis_risk":5,"migraine_risk":7,"frizz_risk":1,"updated_at":"2026-05-20T22:23:54.028925+05:30"},{"city":"Jamshedpur","state":"Jharkhand","latitude":22.8046,"longitude":86.2029,"temp":30.4,"humidity":66,"rain":0.0,"pressure":985.0,"uv_index":9.1,"wind_gusts":31.0,"aqi":150,"pm10":156.9,"pm2_5":89.2,"no2":46.7,"co":896.0,"o3":65.0,"so2":60.0,"mosquito_risk":3,"arthritis_risk":5,"migraine_risk":7,"frizz_risk":1,"updated_at":"2026-05-20T22:23:54.028932+05:30"},{"city":"Dhanbad","state":"Jharkhand","latitude":23.7957,"longitude":86.4304,"temp":30.2,"humidity":70,"rain":0.0,"pressure":974.9,"uv_index":9.05,"wind_gusts":37.4,"aqi":166,"pm10":177.0,"pm2_5":109.9,"no2":62.3,"co":445.0,"o3":49.0,"so2":144.6,"mosquito_risk":3,"arthritis_risk":5,"migraine_risk":7,"frizz_risk":1,"updated_at":"2026-05-20T22:23:54.028941+05:30"},{"city":"Bokaro","state":"Jharkhand","latitude":23.6693,"longitude":86.1511,"temp":30.2,"humidity":67,"rain":0.0,"pressure":978.6,"uv_index":9.1,"wind_gusts":42.1,"aqi":168,"pm10":193.2,"pm2_5":98.3,"no2":51.6,"co":627.0,"o3":54.0,"so2":139.6,"mosquito_risk":3,"arthritis_risk":5,"migraine_risk":7,"frizz_risk":1,"updated_at":"2026-05-20T22:23:54.028948+05:30"},{"city":"Bhubaneswar","state":"Odisha","latitude":20.2961,"longitude":85.8245,"temp":30.6,"humidity":74,"rain":0.0,"pressure":996.4,"uv_index":9.15,"wind_gusts":42.8,"aqi":144,"pm10":65.0,"pm2_5":49.6,"no2":15.8,"co":441.0,"o3":111.0,"so2":15.2,"mosquito_risk":3,"arthritis_risk":5,"migraine_risk":7,"frizz_risk":1,"updated_at":"2026-05-20T22:23:54.028956+05:30"},{"city":"Cuttack","state":"Odisha","latitude":20.4625,"longitude":85.8828,"temp":30.5,"humidity":76,"rain":0.0,"pressure":998.2,"uv_index":9.2,"wind_gusts":49.0,"aqi":144,"pm10":65.0,"pm2_5":49.6,"no2":15.8,"co":501.0,"o3":111.0,"so2":15.2,"mosquito_risk":3,"arthritis_risk":5,"migraine_risk":7,"frizz_risk":1,"updated_at":"2026-05-20T22:23:54.028964+05:30"},{"city":"Rourkela","state":"Odisha","latitude":22.2604,"longitude":84.8536,"temp":31.5,"humidity":45,"rain":0.0,"pressure":979.4,"uv_index":9.0,"wind_gusts":32.4,"aqi":152,"pm10":136.0,"pm2_5":53.1,"no2":26.2,"co":647.0,"o3":65.0,"so2":13.0,"mosquito_risk":0,"arthritis_risk":5,"migraine_risk":7,"frizz_risk":1,"updated_at":"2026-05-20T22:23:54.028972+05:30"},{"city":"Raipur","state":"Chhattisgarh","latitude":21.2514,"longitude":81.6296,"temp":34.5,"humidity":33,"rain":0.0,"pressure":969.3,"uv_index":9.0,"wind_gusts":33.1,"aqi":148,"pm10":99.9,"pm2_5":80.1,"no2":58.3,"co":511.0,"o3":43.0,"so2":47.0,"mosquito_risk":0,"arthritis_risk":5,"migraine_risk":7,"frizz_risk":0,"updated_at":"2026-05-20T22:23:54.028979+05:30"},{"city":"Bhilai","state":"Chhattisgarh","latitude":21.1938,"longitude":81.3509,"temp":34.2,"humidity":35,"rain":0.0,"pressure":969.6,"uv_index":8.85,"wind_gusts":34.9,"aqi":136,"pm10":81.7,"pm2_5":60.8,"no2":49.7,"co":698.0,"o3":55.0,"so2":49.2,"mosquito_risk":0,"arthritis_risk":5,"migraine_risk":7,"frizz_risk":1,"updated_at":"2026-05-20T22:23:54.028986+05:30"},{"city":"Guwahati","state":"Assam","latitude":26.1158,"longitude":91.7086,"temp":26.9,"humidity":91,"rain":0.0,"pressure":997.1,"uv_index":8.2,"wind_gusts":22.7,"aqi":137,"pm10":41.6,"pm2_5":35.9,"no2":14.1,"co":473.0,"o3":39.0,"so2":3.2,"mosquito_risk":7,"arthritis_risk":5,"migraine_risk":7,"frizz_risk":1,"updated_at":"2026-05-20T22:23:54.028997+05:30"},{"city":"Agartala","state":"Tripura","latitude":23.8315,"longitude":91.2868,"temp":27.7,"humidity":82,"rain":0.0,"pressure":1002.0,"uv_index":8.85,"wind_gusts":28.4,"aqi":82,"pm10":34.9,"pm2_5":31.2,"no2":22.3,"co":259.0,"o3":42.0,"so2":5.1,"mosquito_risk":7,"arthritis_risk":5,"migraine_risk":4,"frizz_risk":1,"updated_at":"2026-05-20T22:23:54.029006+05:30"},{"city":"Shillong","state":"Meghalaya","latitude":25.5788,"longitude":91.8933,"temp":18.4,"humidity":97,"rain":0.0,"pressure":854.4,"uv_index":8.5,"wind_gusts":19.4,"aqi":86,"pm10":30.9,"pm2_5":25.8,"no2":14.3,"co":602.0,"o3":46.0,"so2":3.4,"mosquito_risk":3,"arthritis_risk":10,"migraine_risk":7,"frizz_risk":1,"updated_at":"2026-05-20T22:23:54.029013+05:30"},{"city":"Imphal","state":"Manipur","latitude":24.817,"longitude":93.9368,"temp":23.0,"humidity":95,"rain":0.0,"pressure":920.0,"uv_index":9.25,"wind_gusts":28.8,"aqi":112,"pm10":63.6,"pm2_5":49.0,"no2":27.1,"co":729.0,"o3":30.0,"so2":6.2,"mosquito_risk":3,"arthritis_risk":5,"migraine_risk":7,"frizz_risk":1,"updated_at":"2026-05-20T22:23:54.029020+05:30"},{"city":"Aizawl","state":"Mizoram","latitude":23.7271,"longitude":92.7176,"temp":21.3,"humidity":89,"rain":0.0,"pressure":889.8,"uv_index":9.1,"wind_gusts":21.6,"aqi":85,"pm10":43.7,"pm2_5":32.0,"no2":12.9,"co":223.0,"o3":44.0,"so2":2.9,"mosquito_risk":3,"arthritis_risk":5,"migraine_risk":7,"frizz_risk":1,"updated_at":"2026-05-20T22:23:54.029027+05:30"},{"city":"Kohima","state":"Nagaland","latitude":25.6701,"longitude":94.1077,"temp":19.0,"humidity":95,"rain":0.0,"pressure":852.8,"uv_index":8.65,"wind_gusts":30.6,"aqi":105,"pm10":43.8,"pm2_5":29.8,"no2":17.4,"co":442.0,"o3":47.0,"so2":2.7,"mosquito_risk":3,"arthritis_risk":10,"migraine_risk":7,"frizz_risk":1,"updated_at":"2026-05-20T22:23:54.029035+05:30"},{"city":"Gangtok","state":"Sikkim","latitude":27.3314,"longitude":88.6138,"temp":15.6,"humidity":97,"rain":0.0,"pressure":834.4,"uv_index":9.15,"wind_gusts":37.4,"aqi":80,"pm10":33.1,"pm2_5":24.4,"no2":18.2,"co":669.0,"o3":85.0,"so2":2.9,"mosquito_risk":3,"arthritis_risk":10,"migraine_risk":7,"frizz_risk":0,"updated_at":"2026-05-20T22:23:54.029042+05:30"},{"city":"Siliguri","state":"West Bengal","latitude":26.7271,"longitude":88.3953,"temp":26.8,"humidity":87,"rain":0.0,"pressure":988.5,"uv_index":8.7,"wind_gusts":23.4,"aqi":131,"pm10":85.0,"pm2_5":61.0,"no2":24.1,"co":1341.0,"o3":90.0,"so2":8.0,"mosquito_risk":7,"arthritis_risk":5,"migraine_risk":7,"frizz_risk":1,"updated_at":"2026-05-20T22:23:57.288076+05:30"},{"city":"Durgapur","state":"West Bengal","latitude":23.5204,"longitude":87.3119,"temp":30.9,"humidity":77,"rain":0.0,"pressure":989.7,"uv_index":8.95,"wind_gusts":22.7,"aqi":181,"pm10":127.6,"pm2_5":102.7,"no2":38.7,"co":894.0,"o3":91.0,"so2":46.4,"mosquito_risk":3,"arthritis_risk":5,"migraine_risk":7,"frizz_risk":1,"updated_at":"2026-05-20T22:23:57.288107+05:30"},{"city":"Asansol","state":"West Bengal","latitude":23.6739,"longitude":86.9524,"temp":31.0,"humidity":74,"rain":0.0,"pressure":988.3,"uv_index":9.05,"wind_gusts":26.6,"aqi":162,"pm10":139.7,"pm2_5":109.0,"no2":53.4,"co":582.0,"o3":75.0,"so2":47.5,"mosquito_risk":3,"arthritis_risk":5,"migraine_risk":7,"frizz_risk":1,"updated_at":"2026-05-20T22:23:57.288118+05:30"},{"city":"Pondicherry","state":"Puducherry","latitude":11.9139,"longitude":79.8145,"temp":30.5,"humidity":64,"rain":0.0,"pressure":1005.8,"uv_index":3.4,"wind_gusts":29.9,"aqi":112,"pm10":23.7,"pm2_5":20.9,"no2":20.1,"co":351.0,"o3":85.0,"so2":10.8,"mosquito_risk":3,"arthritis_risk":5,"migraine_risk":0,"frizz_risk":1,"updated_at":"2026-05-20T22:23:57.288128+05:30"},{"city":"Port Blair","state":"Andaman and Nicobar Islands","latitude":11.6234,"longitude":92.7265,"temp":25.2,"humidity":96,"rain":0.1,"pressure":1006.2,"uv_index":8.75,"wind_gusts":46.4,"aqi":25,"pm10":9.5,"pm2_5":5.7,"no2":0.4,"co":102.0,"o3":49.0,"so2":0.4,"mosquito_risk":10,"arthritis_risk":5,"migraine_risk":4,"frizz_risk":1,"updated_at":"2026-05-20T22:23:57.288137+05:30"},{"city":"Haridwar","state":"Uttarakhand","latitude":29.9457,"longitude":78.1642,"temp":30.8,"humidity":38,"rain":0.0,"pressure":967.4,"uv_index":7.6,"wind_gusts":28.8,"aqi":108,"pm10":111.3,"pm2_5":59.3,"no2":29.0,"co":427.0,"o3":75.0,"so2":13.4,"mosquito_risk":0,"arthritis_risk":5,"migraine_risk":7,"frizz_risk":0,"updated_at":"2026-05-20T22:23:57.288145+05:30"},{"city":"Rishikesh","state":"Uttarakhand","latitude":30.0869,"longitude":78.2676,"temp":25.6,"humidity":50,"rain":0.0,"pressure":959.9,"uv_index":7.7,"wind_gusts":26.6,"aqi":95,"pm10":78.5,"pm2_5":34.8,"no2":14.1,"co":400.0,"o3":99.0,"so2":7.8,"mosquito_risk":4,"arthritis_risk":5,"migraine_risk":7,"frizz_risk":0,"updated_at":"2026-05-20T22:23:57.288153+05:30"},{"city":"Nainital","state":"Uttarakhand","latitude":29.3919,"longitude":79.4542,"temp":17.9,"humidity":59,"rain":0.0,"pressure":803.2,"uv_index":8.55,"wind_gusts":60.5,"aqi":123,"pm10":77.8,"pm2_5":33.5,"no2":10.2,"co":355.0,"o3":116.0,"so2":6.6,"mosquito_risk":0,"arthritis_risk":5,"migraine_risk":7,"frizz_risk":0,"updated_at":"2026-05-20T22:23:57.288160+05:30"},{"city":"Mussoorie","state":"Uttarakhand","latitude":30.4599,"longitude":78.0664,"temp":19.6,"humidity":37,"rain":0.0,"pressure":801.9,"uv_index":8.1,"wind_gusts":54.4,"aqi":103,"pm10":87.5,"pm2_5":46.8,"no2":33.0,"co":241.0,"o3":90.0,"so2":12.5,"mosquito_risk":0,"arthritis_risk":5,"migraine_risk":7,"frizz_risk":0,"updated_at":"2026-05-20T22:23:57.288168+05:30"},{"city":"Dharamshala","state":"Himachal Pradesh","latitude":32.219,"longitude":76.3234,"temp":26.1,"humidity":30,"rain":0.0,"pressure":867.2,"uv_index":8.5,"wind_gusts":48.6,"aqi":87,"pm10":36.9,"pm2_5":18.4,"no2":16.2,"co":296.0,"o3":53.0,"so2":2.4,"mosquito_risk":4,"arthritis_risk":5,"migraine_risk":7,"frizz_risk":0,"updated_at":"2026-05-20T22:23:57.288177+05:30"},{"city":"Dalhousie","state":"Himachal Pradesh","latitude":32.5387,"longitude":75.971,"temp":16.9,"humidity":61,"rain":0.0,"pressure":802.1,"uv_index":8.75,"wind_gusts":42.8,"aqi":109,"pm10":63.3,"pm2_5":33.9,"no2":49.6,"co":482.0,"o3":54.0,"so2":4.7,"mosquito_risk":3,"arthritis_risk":5,"migraine_risk":7,"frizz_risk":0,"updated_at":"2026-05-20T22:23:57.288185+05:30"},{"city":"Patiala","state":"Punjab","latitude":30.3398,"longitude":76.3869,"temp":34.5,"humidity":23,"rain":0.0,"pressure":971.2,"uv_index":7.7,"wind_gusts":25.6,"aqi":461,"pm10":345.5,"pm2_5":101.0,"no2":31.2,"co":462.0,"o3":53.0,"so2":12.1,"mosquito_risk":0,"arthritis_risk":5,"migraine_risk":7,"frizz_risk":0,"updated_at":"2026-05-20T22:23:57.288192+05:30"},{"city":"Bhatinda","state":"Punjab","latitude":30.211,"longitude":74.9455,"temp":34.6,"humidity":32,"rain":0.0,"pressure":977.0,"uv_index":8.35,"wind_gusts":30.6,"aqi":110,"pm10":54.7,"pm2_5":33.4,"no2":17.9,"co":290.0,"o3":49.0,"so2":5.5,"mosquito_risk":0,"arthritis_risk":5,"migraine_risk":7,"frizz_risk":0,"updated_at":"2026-05-20T22:23:57.288200+05:30"},{"city":"Rohtak","state":"Haryana","latitude":28.8955,"longitude":76.6066,"temp":34.2,"humidity":31,"rain":0.0,"pressure":974.9,"uv_index":7.8,"wind_gusts":29.2,"aqi":385,"pm10":312.0,"pm2_5":79.9,"no2":54.3,"co":540.0,"o3":30.0,"so2":9.5,"mosquito_risk":0,"arthritis_risk":5,"migraine_risk":7,"frizz_risk":0,"updated_at":"2026-05-20T22:23:57.288207+05:30"},{"city":"Panipat","state":"Haryana","latitude":29.3909,"longitude":76.9635,"temp":33.7,"humidity":25,"rain":0.0,"pressure":973.4,"uv_index":7.65,"wind_gusts":34.6,"aqi":840,"pm10":391.2,"pm2_5":93.1,"no2":36.2,"co":542.0,"o3":41.0,"so2":7.9,"mosquito_risk":0,"arthritis_risk":5,"migraine_risk":7,"frizz_risk":0,"updated_at":"2026-05-20T22:23:57.288214+05:30"},{"city":"Mathura","state":"Uttar Pradesh","latitude":27.4924,"longitude":77.6737,"temp":34.2,"humidity":22,"rain":0.0,"pressure":980.6,"uv_index":8.05,"wind_gusts":44.6,"aqi":385,"pm10":1180.9,"pm2_5":143.4,"no2":15.8,"co":263.0,"o3":72.0,"so2":4.3,"mosquito_risk":0,"arthritis_risk":5,"migraine_risk":7,"frizz_risk":0,"updated_at":"2026-05-20T22:23:57.288222+05:30"},{"city":"Vrindavan","state":"Uttar Pradesh","latitude":27.5823,"longitude":77.7027,"temp":34.2,"humidity":22,"rain":0.0,"pressure":981.0,"uv_index":8.0,"wind_gusts":29.9,"aqi":385,"pm10":1180.9,"pm2_5":143.4,"no2":15.8,"co":231.0,"o3":72.0,"so2":4.3,"mosquito_risk":0,"arthritis_risk":5,"migraine_risk":7,"frizz_risk":0,"updated_at":"2026-05-20T22:23:57.288229+05:30"},{"city":"Ayodhya","state":"Uttar Pradesh","latitude":26.7922,"longitude":82.1998,"temp":32.2,"humidity":64,"rain":0.0,"pressure":988.8,"uv_index":8.35,"wind_gusts":22.7,"aqi":154,"pm10":114.8,"pm2_5":58.7,"no2":23.7,"co":563.0,"o3":83.0,"so2":13.2,"mosquito_risk":3,"arthritis_risk":5,"migraine_risk":7,"frizz_risk":1,"updated_at":"2026-05-20T22:23:57.288236+05:30"},{"city":"Ratlam","state":"Madhya Pradesh","latitude":23.3315,"longitude":75.0367,"temp":32.1,"humidity":29,"rain":0.0,"pressure":952.2,"uv_index":8.55,"wind_gusts":46.4,"aqi":64,"pm10":48.5,"pm2_5":24.8,"no2":3.6,"co":171.0,"o3":84.0,"so2":3.9,"mosquito_risk":0,"arthritis_risk":5,"migraine_risk":7,"frizz_risk":0,"updated_at":"2026-05-20T22:23:57.288244+05:30"},{"city":"Sagar","state":"Madhya Pradesh","latitude":23.8388,"longitude":78.7378,"temp":34.2,"humidity":22,"rain":0.0,"pressure":946.5,"uv_index":8.75,"wind_gusts":38.2,"aqi":68,"pm10":25.1,"pm2_5":18.1,"no2":8.1,"co":167.0,"o3":80.0,"so2":3.4,"mosquito_risk":0,"arthritis_risk":5,"migraine_risk":7,"frizz_risk":0,"updated_at":"2026-05-20T22:23:57.288251+05:30"},{"city":"Satna","state":"Madhya Pradesh","latitude":24.6005,"longitude":80.8322,"temp":34.0,"humidity":28,"rain":0.0,"pressure":965.9,"uv_index":8.8,"wind_gusts":46.8,"aqi":104,"pm10":65.0,"pm2_5":26.5,"no2":15.5,"co":252.0,"o3":72.0,"so2":4.6,"mosquito_risk":0,"arthritis_risk":5,"migraine_risk":7,"frizz_risk":0,"updated_at":"2026-05-20T22:23:57.288258+05:30"},{"city":"Akola","state":"Maharashtra","latitude":20.7002,"longitude":77.0082,"temp":36.6,"humidity":29,"rain":0.0,"pressure":971.8,"uv_index":8.9,"wind_gusts":40.3,"aqi":81,"pm10":39.6,"pm2_5":26.5,"no2":9.7,"co":188.0,"o3":91.0,"so2":6.8,"mosquito_risk":0,"arthritis_risk":5,"migraine_risk":10,"frizz_risk":0,"updated_at":"2026-05-20T22:23:57.288267+05:30"},{"city":"Amravati","state":"Maharashtra","latitude":20.9374,"longitude":77.7796,"temp":36.7,"humidity":23,"rain":0.0,"pressure":963.7,"uv_index":8.9,"wind_gusts":41.0,"aqi":83,"pm10":38.4,"pm2_5":26.0,"no2":10.6,"co":212.0,"o3":87.0,"so2":6.3,"mosquito_risk":0,"arthritis_risk":5,"migraine_risk":10,"frizz_risk":0,"updated_at":"2026-05-20T22:23:57.288276+05:30"},{"city":"Latur","state":"Maharashtra","latitude":18.4088,"longitude":76.5604,"temp":32.4,"humidity":39,"rain":0.0,"pressure":938.4,"uv_index":7.5,"wind_gusts":31.3,"aqi":96,"pm10":56.3,"pm2_5":38.4,"no2":18.3,"co":271.0,"o3":79.0,"so2":7.1,"mosquito_risk":0,"arthritis_risk":5,"migraine_risk":7,"frizz_risk":1,"updated_at":"2026-05-20T22:23:57.288283+05:30"},{"city":"Nanded","state":"Maharashtra","latitude":19.1383,"longitude":77.3091,"temp":35.5,"humidity":29,"rain":0.0,"pressure":965.0,"uv_index":8.65,"wind_gusts":35.3,"aqi":90,"pm10":45.8,"pm2_5":32.2,"no2":19.0,"co":363.0,"o3":70.0,"so2":6.5,"mosquito_risk":0,"arthritis_risk":5,"migraine_risk":10,"frizz_risk":0,"updated_at":"2026-05-20T22:23:57.288290+05:30"},{"city":"Gulbarga","state":"Karnataka","latitude":17.3297,"longitude":76.8343,"temp":31.6,"humidity":45,"rain":0.0,"pressure":957.3,"uv_index":8.75,"wind_gusts":37.1,"aqi":107,"pm10":39.9,"pm2_5":29.7,"no2":13.4,"co":329.0,"o3":98.0,"so2":6.3,"mosquito_risk":0,"arthritis_risk":5,"migraine_risk":7,"frizz_risk":1,"updated_at":"2026-05-20T22:23:57.288297+05:30"},{"city":"Bidar","state":"Karnataka","latitude":17.9104,"longitude":77.5199,"temp":30.1,"humidity":50,"rain":0.0,"pressure":933.5,"uv_index":8.65,"wind_gusts":39.2,"aqi":109,"pm10":64.3,"pm2_5":48.4,"no2":41.5,"co":368.0,"o3":61.0,"so2":8.9,"mosquito_risk":0,"arthritis_risk":5,"migraine_risk":7,"frizz_risk":1,"updated_at":"2026-05-20T22:23:57.288304+05:30"},{"city":"Hospet","state":"Karnataka","latitude":15.2689,"longitude":76.3909,"temp":27.9,"humidity":71,"rain":0.0,"pressure":955.4,"uv_index":8.45,"wind_gusts":39.6,"aqi":46,"pm10":13.0,"pm2_5":11.5,"no2":10.8,"co":277.0,"o3":70.0,"so2":2.0,"mosquito_risk":7,"arthritis_risk":5,"migraine_risk":7,"frizz_risk":1,"updated_at":"2026-05-20T22:23:57.288312+05:30"},{"city":"Tirupur","state":"Tamil Nadu","latitude":11.1085,"longitude":77.3411,"temp":26.8,"humidity":81,"rain":0.0,"pressure":974.7,"uv_index":8.1,"wind_gusts":50.8,"aqi":43,"pm10":16.4,"pm2_5":15.2,"no2":22.5,"co":192.0,"o3":41.0,"so2":4.6,"mosquito_risk":7,"arthritis_risk":5,"migraine_risk":7,"frizz_risk":1,"updated_at":"2026-05-20T22:23:57.288319+05:30"},{"city":"Alappuzha","state":"Kerala","latitude":9.4981,"longitude":76.3388,"temp":28.2,"humidity":88,"rain":0.0,"pressure":1009.3,"uv_index":7.3,"wind_gusts":31.0,"aqi":33,"pm10":19.2,"pm2_5":16.7,"no2":14.1,"co":89.0,"o3":36.0,"so2":3.1,"mosquito_risk":7,"arthritis_risk":0,"migraine_risk":4,"frizz_risk":1,"updated_at":"2026-05-20T22:23:57.288327+05:30"},{"city":"Munnar","state":"Kerala","latitude":10.0889,"longitude":77.0595,"temp":17.5,"humidity":98,"rain":0.0,"pressure":857.3,"uv_index":8.75,"wind_gusts":43.6,"aqi":31,"pm10":9.3,"pm2_5":8.4,"no2":11.0,"co":134.0,"o3":42.0,"so2":2.3,"mosquito_risk":3,"arthritis_risk":10,"migraine_risk":7,"frizz_risk":1,"updated_at":"2026-05-20T22:23:57.288334+05:30"},{"city":"Silchar","state":"Assam","latitude":24.8333,"longitude":92.7789,"temp":25.9,"humidity":95,"rain":0.2,"pressure":1001.4,"uv_index":8.9,"wind_gusts":27.0,"aqi":151,"pm10":82.0,"pm2_5":57.4,"no2":18.3,"co":586.0,"o3":85.0,"so2":12.1,"mosquito_risk":10,"arthritis_risk":5,"migraine_risk":4,"frizz_risk":1,"updated_at":"2026-05-20T22:23:57.288342+05:30"},{"city":"Dibrugarh","state":"Assam","latitude":27.4728,"longitude":94.912,"temp":27.9,"humidity":85,"rain":0.0,"pressure":991.0,"uv_index":8.9,"wind_gusts":16.9,"aqi":82,"pm10":33.2,"pm2_5":29.1,"no2":21.8,"co":725.0,"o3":26.0,"so2":2.8,"mosquito_risk":7,"arthritis_risk":5,"migraine_risk":7,"frizz_risk":1,"updated_at":"2026-05-20T22:23:57.288349+05:30"}]