[{"city":"Delhi","state":"Delhi","latitude":28.6139,"longitude":77.209,"temp":32.2,"humidity":41,"rain":0.0,"pressure":984.7,"uv_index":7.65,"wind_gusts":28.1,"aqi":156,"pm10":311.1,"pm2_5":75.4,"no2":21.7,"co":686.0,"o3":133.0,"so2":25.9,"mosquito_risk":0,"arthritis_risk":5,"migraine_risk":7,"frizz_risk":1,"updated_at":"2026-05-11T09:19:58.425022+05:30"},{"city":"Mumbai","state":"Maharashtra","latitude":19.076,"longitude":72.8777,"temp":33.8,"humidity":53,"rain":0.0,"pressure":1006.9,"uv_index":7.9,"wind_gusts":52.9,"aqi":90,"pm10":60.8,"pm2_5":36.7,"no2":30.5,"co":625.0,"o3":80.0,"so2":38.2,"mosquito_risk":0,"arthritis_risk":5,"migraine_risk":4,"frizz_risk":1,"updated_at":"2026-05-11T09:19:58.425070+05:30"},{"city":"Bangalore","state":"Karnataka","latitude":12.9716,"longitude":77.5946,"temp":26.7,"humidity":63,"rain":0.0,"pressure":913.0,"uv_index":8.0,"wind_gusts":43.9,"aqi":64,"pm10":30.6,"pm2_5":24.5,"no2":17.2,"co":747.0,"o3":70.0,"so2":11.7,"mosquito_risk":7,"arthritis_risk":5,"migraine_risk":7,"frizz_risk":1,"updated_at":"2026-05-11T09:19:58.425087+05:30"},{"city":"Hyderabad","state":"Telangana","latitude":17.385,"longitude":78.4867,"temp":29.2,"humidity":59,"rain":0.0,"pressure":954.8,"uv_index":9.25,"wind_gusts":35.6,"aqi":58,"pm10":13.7,"pm2_5":8.6,"no2":5.6,"co":394.0,"o3":59.0,"so2":4.3,"mosquito_risk":4,"arthritis_risk":5,"migraine_risk":7,"frizz_risk":1,"updated_at":"2026-05-11T09:19:58.425098+05:30"},{"city":"Chennai","state":"Tamil Nadu","latitude":13.0827,"longitude":80.2707,"temp":31.5,"humidity":61,"rain":0.0,"pressure":1007.1,"uv_index":8.6,"wind_gusts":43.2,"aqi":20,"pm10":6.5,"pm2_5":5.2,"no2":7.0,"co":225.0,"o3":46.0,"so2":10.1,"mosquito_risk":3,"arthritis_risk":5,"migraine_risk":4,"frizz_risk":1,"updated_at":"2026-05-11T09:19:58.425111+05:30"},{"city":"Kolkata","state":"West Bengal","latitude":22.5726,"longitude":88.3639,"temp":27.9,"humidity":74,"rain":0.0,"pressure":1009.6,"uv_index":8.8,"wind_gusts":42.8,"aqi":156,"pm10":39.0,"pm2_5":34.0,"no2":11.2,"co":435.0,"o3":107.0,"so2":16.6,"mosquito_risk":7,"arthritis_risk":0,"migraine_risk":4,"frizz_risk":1,"updated_at":"2026-05-11T09:19:58.425121+05:30"},{"city":"Pune","state":"Maharashtra","latitude":18.5204,"longitude":73.8567,"temp":33.5,"humidity":28,"rain":0.0,"pressure":948.6,"uv_index":8.5,"wind_gusts":38.2,"aqi":68,"pm10":42.6,"pm2_5":26.4,"no2":14.5,"co":425.0,"o3":130.0,"so2":21.7,"mosquito_risk":0,"arthritis_risk":5,"migraine_risk":7,"frizz_risk":0,"updated_at":"2026-05-11T09:19:58.425130+05:30"},{"city":"Ahmedabad","state":"Gujarat","latitude":23.0225,"longitude":72.5714,"temp":34.5,"humidity":31,"rain":0.0,"pressure":1001.3,"uv_index":8.15,"wind_gusts":33.5,"aqi":62,"pm10":43.8,"pm2_5":18.3,"no2":6.6,"co":287.0,"o3":73.0,"so2":6.4,"mosquito_risk":0,"arthritis_risk":5,"migraine_risk":4,"frizz_risk":0,"updated_at":"2026-05-11T09:19:58.425141+05:30"},{"city":"Jaipur","state":"Rajasthan","latitude":26.9124,"longitude":75.7873,"temp":32.1,"humidity":39,"rain":0.0,"pressure":961.7,"uv_index":8.2,"wind_gusts":35.6,"aqi":172,"pm10":257.0,"pm2_5":56.7,"no2":5.0,"co":405.0,"o3":134.0,"so2":9.7,"mosquito_risk":0,"arthritis_risk":5,"migraine_risk":7,"frizz_risk":1,"updated_at":"2026-05-11T09:19:58.425149+05:30"},{"city":"Lucknow","state":"Uttar Pradesh","latitude":26.8467,"longitude":80.9462,"temp":31.4,"humidity":45,"rain":0.0,"pressure":995.9,"uv_index":8.15,"wind_gusts":28.8,"aqi":111,"pm10":58.3,"pm2_5":48.9,"no2":8.7,"co":457.0,"o3":141.0,"so2":15.4,"mosquito_risk":0,"arthritis_risk":5,"migraine_risk":7,"frizz_risk":1,"updated_at":"2026-05-11T09:19:58.425158+05:30"},{"city":"Kanpur","state":"Uttar Pradesh","latitude":26.4499,"longitude":80.3319,"temp":32.4,"humidity":38,"rain":0.0,"pressure":993.8,"uv_index":8.15,"wind_gusts":34.6,"aqi":129,"pm10":206.8,"pm2_5":53.3,"no2":7.5,"co":424.0,"o3":144.0,"so2":15.6,"mosquito_risk":0,"arthritis_risk":5,"migraine_risk":7,"frizz_risk":1,"updated_at":"2026-05-11T09:19:58.425166+05:30"},{"city":"Chandigarh","state":"Chandigarh","latitude":30.7333,"longitude":76.7794,"temp":31.4,"humidity":42,"rain":0.0,"pressure":971.4,"uv_index":7.65,"wind_gusts":37.1,"aqi":150,"pm10":91.0,"pm2_5":49.1,"no2":5.5,"co":387.0,"o3":175.0,"so2":9.9,"mosquito_risk":0,"arthritis_risk":5,"migraine_risk":7,"frizz_risk":1,"updated_at":"2026-05-11T09:19:58.425175+05:30"},{"city":"Srinagar","state":"Jammu and Kashmir","latitude":34.0837,"longitude":74.7973,"temp":17.9,"humidity":74,"rain":0.0,"pressure":845.7,"uv_index":8.85,"wind_gusts":37.4,"aqi":100,"pm10":47.8,"pm2_5":28.6,"no2":6.4,"co":499.0,"o3":116.0,"so2":5.5,"mosquito_risk":3,"arthritis_risk":5,"migraine_risk":7,"frizz_risk":0,"updated_at":"2026-05-11T09:19:58.425184+05:30"},{"city":"Jammu","state":"Jammu and Kashmir","latitude":32.7266,"longitude":74.857,"temp":29.5,"humidity":53,"rain":0.0,"pressure":975.6,"uv_index":8.45,"wind_gusts":45.4,"aqi":156,"pm10":72.6,"pm2_5":43.7,"no2":16.5,"co":393.0,"o3":88.0,"so2":4.9,"mosquito_risk":4,"arthritis_risk":5,"migraine_risk":7,"frizz_risk":1,"updated_at":"2026-05-11T09:19:58.425194+05:30"},{"city":"Amritsar","state":"Punjab","latitude":31.634,"longitude":74.8723,"temp":29.7,"humidity":56,"rain":0.0,"pressure":983.0,"uv_index":8.35,"wind_gusts":44.3,"aqi":169,"pm10":339.0,"pm2_5":89.6,"no2":5.5,"co":475.0,"o3":131.0,"so2":16.0,"mosquito_risk":4,"arthritis_risk":5,"migraine_risk":7,"frizz_risk":1,"updated_at":"2026-05-11T09:19:58.425201+05:30"},{"city":"Ludhiana","state":"Punjab","latitude":30.901,"longitude":75.8573,"temp":31.5,"humidity":46,"rain":0.0,"pressure":980.7,"uv_index":7.9,"wind_gusts":36.4,"aqi":179,"pm10":241.2,"pm2_5":68.9,"no2":7.6,"co":521.0,"o3":132.0,"so2":9.8,"mosquito_risk":0,"arthritis_risk":5,"migraine_risk":7,"frizz_risk":1,"updated_at":"2026-05-11T09:19:58.425209+05:30"},{"city":"Jalandhar","state":"Punjab","latitude":31.326,"longitude":75.5762,"temp":31.1,"humidity":48,"rain":0.0,"pressure":981.5,"uv_index":8.1,"wind_gusts":36.0,"aqi":161,"pm10":220.3,"pm2_5":71.7,"no2":7.7,"co":505.0,"o3":126.0,"so2":13.1,"mosquito_risk":0,"arthritis_risk":5,"migraine_risk":7,"frizz_risk":1,"updated_at":"2026-05-11T09:19:58.425215+05:30"},{"city":"Dehradun","state":"Uttarakhand","latitude":30.6284,"longitude":78.0322,"temp":16.2,"humidity":90,"rain":0.1,"pressure":833.6,"uv_index":5.55,"wind_gusts":30.2,"aqi":105,"pm10":93.8,"pm2_5":45.9,"no2":2.1,"co":284.0,"o3":156.0,"so2":4.7,"mosquito_risk":6,"arthritis_risk":10,"migraine_risk":3,"frizz_risk":0,"updated_at":"2026-05-11T09:19:58.425226+05:30"},{"city":"Shimla","state":"Himachal Pradesh","latitude":31.1048,"longitude":77.1734,"temp":17.4,"humidity":69,"rain":0.0,"pressure":788.6,"uv_index":6.35,"wind_gusts":47.2,"aqi":154,"pm10":144.4,"pm2_5":59.6,"no2":2.5,"co":325.0,"o3":178.0,"so2":11.1,"mosquito_risk":3,"arthritis_risk":5,"migraine_risk":7,"frizz_risk":0,"updated_at":"2026-05-11T09:19:58.425233+05:30"},{"city":"Manali","state":"Himachal Pradesh","latitude":32.2396,"longitude":77.1887,"temp":18.6,"humidity":48,"rain":0.0,"pressure":821.4,"uv_index":9.5,"wind_gusts":36.7,"aqi":60,"pm10":17.2,"pm2_5":7.1,"no2":16.3,"co":183.0,"o3":132.0,"so2":0.9,"mosquito_risk":0,"arthritis_risk":5,"migraine_risk":7,"frizz_risk":0,"updated_at":"2026-05-11T09:19:58.425240+05:30"},{"city":"Gurgaon","state":"Haryana","latitude":28.4595,"longitude":77.0266,"temp":31.8,"humidity":43,"rain":0.0,"pressure":983.0,"uv_index":7.75,"wind_gusts":32.4,"aqi":753,"pm10":1002.1,"pm2_5":140.2,"no2":16.6,"co":526.0,"o3":129.0,"so2":20.4,"mosquito_risk":0,"arthritis_risk":5,"migraine_risk":7,"frizz_risk":1,"updated_at":"2026-05-11T09:19:58.425248+05:30"},{"city":"Noida","state":"Uttar Pradesh","latitude":28.5355,"longitude":77.391,"temp":31.5,"humidity":46,"rain":0.0,"pressure":986.3,"uv_index":7.65,"wind_gusts":26.3,"aqi":753,"pm10":1002.1,"pm2_5":140.2,"no2":16.6,"co":588.0,"o3":129.0,"so2":20.4,"mosquito_risk":0,"arthritis_risk":5,"migraine_risk":7,"frizz_risk":1,"updated_at":"2026-05-11T09:19:58.425254+05:30"},{"city":"Ghaziabad","state":"Uttar Pradesh","latitude":28.6692,"longitude":77.4538,"temp":31.6,"humidity":45,"rain":0.0,"pressure":984.6,"uv_index":7.65,"wind_gusts":29.9,"aqi":144,"pm10":211.9,"pm2_5":54.6,"no2":8.5,"co":394.0,"o3":125.0,"so2":11.5,"mosquito_risk":0,"arthritis_risk":5,"migraine_risk":7,"frizz_risk":1,"updated_at":"2026-05-11T09:19:58.425262+05:30"},{"city":"Faridabad","state":"Haryana","latitude":28.4089,"longitude":77.3178,"temp":31.2,"humidity":44,"rain":0.0,"pressure":985.5,"uv_index":7.7,"wind_gusts":25.9,"aqi":753,"pm10":1002.1,"pm2_5":140.2,"no2":16.6,"co":519.0,"o3":129.0,"so2":20.4,"mosquito_risk":0,"arthritis_risk":5,"migraine_risk":7,"frizz_risk":1,"updated_at":"2026-05-11T09:19:58.425268+05:30"},{"city":"Meerut","state":"Uttar Pradesh","latitude":28.9845,"longitude":77.7064,"temp":30.2,"humidity":55,"rain":0.0,"pressure":983.8,"uv_index":7.55,"wind_gusts":30.6,"aqi":144,"pm10":211.9,"pm2_5":54.6,"no2":8.5,"co":428.0,"o3":125.0,"so2":11.5,"mosquito_risk":0,"arthritis_risk":5,"migraine_risk":7,"frizz_risk":1,"updated_at":"2026-05-11T09:19:58.425275+05:30"},{"city":"Agra","state":"Uttar Pradesh","latitude":27.1767,"longitude":78.0081,"temp":32.0,"humidity":43,"rain":0.0,"pressure":989.5,"uv_index":8.0,"wind_gusts":26.6,"aqi":409,"pm10":564.4,"pm2_5":83.6,"no2":7.1,"co":426.0,"o3":135.0,"so2":15.6,"mosquito_risk":0,"arthritis_risk":5,"migraine_risk":7,"frizz_risk":1,"updated_at":"2026-05-11T09:19:58.425282+05:30"},{"city":"Varanasi","state":"Uttar Pradesh","latitude":25.3176,"longitude":82.9739,"temp":31.5,"humidity":48,"rain":0.0,"pressure":999.4,"uv_index":8.65,"wind_gusts":28.4,"aqi":115,"pm10":67.8,"pm2_5":53.0,"no2":8.5,"co":519.0,"o3":154.0,"so2":23.5,"mosquito_risk":0,"arthritis_risk":5,"migraine_risk":7,"frizz_risk":1,"updated_at":"2026-05-11T09:19:58.425290+05:30"},{"city":"Prayagraj","state":"Uttar Pradesh","latitude":25.4358,"longitude":81.8463,"temp":31.9,"humidity":46,"rain":0.0,"pressure":997.5,"uv_index":8.55,"wind_gusts":28.1,"aqi":117,"pm10":64.0,"pm2_5":52.9,"no2":9.0,"co":478.0,"o3":152.0,"so2":21.2,"mosquito_risk":0,"arthritis_risk":5,"migraine_risk":7,"frizz_risk":1,"updated_at":"2026-05-11T09:19:58.425299+05:30"},{"city":"Gorakhpur","state":"Uttar Pradesh","latitude":26.7606,"longitude":83.3732,"temp":30.1,"humidity":54,"rain":0.0,"pressure":1000.3,"uv_index":8.5,"wind_gusts":32.8,"aqi":105,"pm10":58.2,"pm2_5":46.4,"no2":5.9,"co":549.0,"o3":157.0,"so2":13.7,"mosquito_risk":0,"arthritis_risk":5,"migraine_risk":4,"frizz_risk":1,"updated_at":"2026-05-11T09:19:58.425306+05:30"},{"city":"Bareilly","state":"Uttar Pradesh","latitude":28.367,"longitude":79.4304,"temp":30.1,"humidity":51,"rain":0.0,"pressure":989.4,"uv_index":7.95,"wind_gusts":27.4,"aqi":106,"pm10":55.6,"pm2_5":36.4,"no2":8.8,"co":405.0,"o3":128.0,"so2":9.9,"mosquito_risk":0,"arthritis_risk":5,"migraine_risk":7,"frizz_risk":1,"updated_at":"2026-05-11T09:19:58.425312+05:30"},{"city":"Aligarh","state":"Uttar Pradesh","latitude":27.8974,"longitude":78.088,"temp":31.7,"humidity":45,"rain":0.0,"pressure":987.6,"uv_index":7.8,"wind_gusts":29.2,"aqi":195,"pm10":403.3,"pm2_5":75.9,"no2":7.0,"co":390.0,"o3":129.0,"so2":14.2,"mosquito_risk":0,"arthritis_risk":5,"migraine_risk":7,"frizz_risk":1,"updated_at":"2026-05-11T09:19:58.425320+05:30"},{"city":"Moradabad","state":"Uttar Pradesh","latitude":28.8386,"longitude":78.7733,"temp":29.6,"humidity":56,"rain":0.0,"pressure":986.4,"uv_index":7.75,"wind_gusts":28.1,"aqi":123,"pm10":45.3,"pm2_5":35.6,"no2":8.1,"co":442.0,"o3":131.0,"so2":7.7,"mosquito_risk":4,"arthritis_risk":5,"migraine_risk":7,"frizz_risk":1,"updated_at":"2026-05-11T09:19:58.425326+05:30"},{"city":"Saharanpur","state":"Uttar Pradesh","latitude":29.9637,"longitude":77.546,"temp":29.5,"humidity":54,"rain":0.0,"pressure":978.6,"uv_index":7.35,"wind_gusts":30.2,"aqi":151,"pm10":75.7,"pm2_5":51.8,"no2":9.7,"co":422.0,"o3":145.0,"so2":9.4,"mosquito_risk":4,"arthritis_risk":5,"migraine_risk":7,"frizz_risk":1,"updated_at":"2026-05-11T09:19:58.425333+05:30"},{"city":"Jhansi","state":"Uttar Pradesh","latitude":25.4484,"longitude":78.5685,"temp":32.8,"humidity":38,"rain":0.0,"pressure":979.5,"uv_index":8.45,"wind_gusts":31.0,"aqi":110,"pm10":47.8,"pm2_5":33.4,"no2":3.3,"co":352.0,"o3":140.0,"so2":13.2,"mosquito_risk":0,"arthritis_risk":5,"migraine_risk":7,"frizz_risk":1,"updated_at":"2026-05-11T09:20:19.563637+05:30"},{"city":"Surat","state":"Gujarat","latitude":21.1702,"longitude":72.8311,"temp":35.5,"humidity":28,"rain":0.0,"pressure":1005.6,"uv_index":7.75,"wind_gusts":35.3,"aqi":101,"pm10":49.7,"pm2_5":36.0,"no2":32.1,"co":250.0,"o3":50.0,"so2":78.8,"mosquito_risk":0,"arthritis_risk":5,"migraine_risk":7,"frizz_risk":0,"updated_at":"2026-05-11T09:20:19.563668+05:30"},{"city":"Vadodara","state":"Gujarat","latitude":22.3072,"longitude":73.1812,"temp":35.5,"humidity":24,"rain":0.0,"pressure":1003.5,"uv_index":8.1,"wind_gusts":33.5,"aqi":71,"pm10":34.9,"pm2_5":19.7,"no2":8.7,"co":309.0,"o3":80.0,"so2":8.6,"mosquito_risk":0,"arthritis_risk":5,"migraine_risk":7,"frizz_risk":0,"updated_at":"2026-05-11T09:20:19.563679+05:30"},{"city":"Rajkot","state":"Gujarat","latitude":22.3039,"longitude":70.8022,"temp":32.0,"humidity":57,"rain":0.0,"pressure":994.0,"uv_index":7.7,"wind_gusts":42.8,"aqi":53,"pm10":42.8,"pm2_5":13.5,"no2":5.0,"co":161.0,"o3":69.0,"so2":4.5,"mosquito_risk":0,"arthritis_risk":5,"migraine_risk":7,"frizz_risk":1,"updated_at":"2026-05-11T09:20:19.563687+05:30"},{"city":"Thane","state":"Maharashtra","latitude":19.2183,"longitude":72.9781,"temp":34.5,"humidity":45,"rain":0.0,"pressure":1006.4,"uv_index":7.9,"wind_gusts":52.9,"aqi":90,"pm10":60.8,"pm2_5":36.7,"no2":30.5,"co":482.0,"o3":80.0,"so2":38.2,"mosquito_risk":0,"arthritis_risk":5,"migraine_risk":4,"frizz_risk":1,"updated_at":"2026-05-11T09:20:19.563695+05:30"},{"city":"Nagpur","state":"Maharashtra","latitude":21.1458,"longitude":79.0882,"temp":33.6,"humidity":41,"rain":0.0,"pressure":974.6,"uv_index":8.95,"wind_gusts":36.0,"aqi":101,"pm10":34.3,"pm2_5":27.9,"no2":12.8,"co":295.0,"o3":113.0,"so2":27.2,"mosquito_risk":0,"arthritis_risk":5,"migraine_risk":7,"frizz_risk":1,"updated_at":"2026-05-11T09:20:19.563703+05:30"},{"city":"Nashik","state":"Maharashtra","latitude":19.9975,"longitude":73.7898,"temp":35.6,"humidity":21,"rain":0.0,"pressure":945.9,"uv_index":8.2,"wind_gusts":43.2,"aqi":68,"pm10":41.9,"pm2_5":19.9,"no2":10.6,"co":204.0,"o3":106.0,"so2":26.2,"mosquito_risk":0,"arthritis_risk":5,"migraine_risk":10,"frizz_risk":0,"updated_at":"2026-05-11T09:20:19.563711+05:30"},{"city":"Aurangabad","state":"Maharashtra","latitude":19.8762,"longitude":75.3433,"temp":35.0,"humidity":20,"rain":0.0,"pressure":944.7,"uv_index":9.05,"wind_gusts":45.0,"aqi":59,"pm10":41.7,"pm2_5":17.5,"no2":5.0,"co":239.0,"o3":127.0,"so2":10.7,"mosquito_risk":0,"arthritis_risk":5,"migraine_risk":7,"frizz_risk":0,"updated_at":"2026-05-11T09:20:19.563718+05:30"},{"city":"Solapur","state":"Maharashtra","latitude":17.6599,"longitude":75.9064,"temp":33.8,"humidity":37,"rain":0.0,"pressure":957.9,"uv_index":9.05,"wind_gusts":33.5,"aqi":70,"pm10":32.7,"pm2_5":22.6,"no2":5.9,"co":301.0,"o3":103.0,"so2":8.7,"mosquito_risk":0,"arthritis_risk":5,"migraine_risk":7,"frizz_risk":1,"updated_at":"2026-05-11T09:20:19.563726+05:30"},{"city":"Kolhapur","state":"Maharashtra","latitude":16.705,"longitude":74.2433,"temp":31.0,"humidity":53,"rain":0.0,"pressure":948.5,"uv_index":7.75,"wind_gusts":50.8,"aqi":97,"pm10":44.2,"pm2_5":28.5,"no2":9.8,"co":255.0,"o3":99.0,"so2":7.1,"mosquito_risk":0,"arthritis_risk":5,"migraine_risk":7,"frizz_risk":1,"updated_at":"2026-05-11T09:20:19.563733+05:30"},{"city":"Goa","state":"Goa","latitude":15.2993,"longitude":74.124,"temp":32.2,"humidity":65,"rain":0.0,"pressure":997.3,"uv_index":8.9,"wind_gusts":37.4,"aqi":88,"pm10":42.6,"pm2_5":20.7,"no2":2.5,"co":241.0,"o3":83.0,"so2":1.7,"mosquito_risk":3,"arthritis_risk":5,"migraine_risk":7,"frizz_risk":1,"updated_at":"2026-05-11T09:20:19.563741+05:30"},{"city":"Jodhpur","state":"Rajasthan","latitude":26.2389,"longitude":73.0243,"temp":34.3,"humidity":20,"rain":0.0,"pressure":983.5,"uv_index":8.4,"wind_gusts":38.9,"aqi":87,"pm10":309.2,"pm2_5":53.1,"no2":5.9,"co":258.0,"o3":98.0,"so2":4.1,"mosquito_risk":0,"arthritis_risk":5,"migraine_risk":7,"frizz_risk":0,"updated_at":"2026-05-11T09:20:19.563748+05:30"},{"city":"Udaipur","state":"Rajasthan","latitude":24.5854,"longitude":73.7125,"temp":34.8,"humidity":23,"rain":0.0,"pressure":947.4,"uv_index":8.85,"wind_gusts":38.9,"aqi":48,"pm10":53.2,"pm2_5":14.6,"no2":3.3,"co":176.0,"o3":104.0,"so2":6.6,"mosquito_risk":0,"arthritis_risk":5,"migraine_risk":7,"frizz_risk":0,"updated_at":"2026-05-11T09:20:19.563755+05:30"},{"city":"Kota","state":"Rajasthan","latitude":25.2138,"longitude":75.8648,"temp":34.5,"humidity":34,"rain":0.0,"pressure":979.7,"uv_index":8.4,"wind_gusts":31.3,"aqi":100,"pm10":82.9,"pm2_5":37.5,"no2":3.7,"co":359.0,"o3":123.0,"so2":12.0,"mosquito_risk":0,"arthritis_risk":5,"migraine_risk":7,"frizz_risk":1,"updated_at":"2026-05-11T09:20:19.563762+05:30"},{"city":"Bikaner","state":"Rajasthan","latitude":28.0229,"longitude":73.3119,"temp":35.8,"humidity":18,"rain":0.0,"pressure":981.1,"uv_index":8.3,"wind_gusts":47.9,"aqi":97,"pm10":83.1,"pm2_5":31.3,"no2":3.6,"co":378.0,"o3":108.0,"so2":5.9,"mosquito_risk":0,"arthritis_risk":5,"migraine_risk":10,"frizz_risk":0,"updated_at":"2026-05-11T09:20:19.563769+05:30"},{"city":"Ajmer","state":"Rajasthan","latitude":26.4499,"longitude":74.6399,"temp":32.5,"humidity":34,"rain":0.0,"pressure":956.0,"uv_index":8.35,"wind_gusts":40.3,"aqi":100,"pm10":92.7,"pm2_5":36.3,"no2":3.5,"co":361.0,"o3":115.0,"so2":9.8,"mosquito_risk":0,"arthritis_risk":5,"migraine_risk":7,"frizz_risk":0,"updated_at":"2026-05-11T09:20:19.563776+05:30"},{"city":"Gwalior","state":"Madhya Pradesh","latitude":26.2183,"longitude":78.1828,"temp":32.2,"humidity":41,"rain":0.0,"pressure":984.9,"uv_index":8.2,"wind_gusts":26.6,"aqi":116,"pm10":47.8,"pm2_5":34.9,"no2":3.6,"co":354.0,"o3":132.0,"so2":12.7,"mosquito_risk":0,"arthritis_risk":5,"migraine_risk":7,"frizz_risk":1,"updated_at":"2026-05-11T09:20:19.563783+05:30"},{"city":"Indore","state":"Madhya Pradesh","latitude":22.7196,"longitude":75.8577,"temp":35.8,"humidity":22,"rain":0.0,"pressure":949.0,"uv_index":8.7,"wind_gusts":45.0,"aqi":79,"pm10":88.0,"pm2_5":33.3,"no2":4.5,"co":420.0,"o3":129.0,"so2":7.0,"mosquito_risk":0,"arthritis_risk":5,"migraine_risk":10,"frizz_risk":0,"updated_at":"2026-05-11T09:20:19.563790+05:30"},{"city":"Bhopal","state":"Madhya Pradesh","latitude":23.2599,"longitude":77.4126,"temp":35.0,"humidity":29,"rain":0.0,"pressure":954.6,"uv_index":8.7,"wind_gusts":35.6,"aqi":80,"pm10":47.8,"pm2_5":28.2,"no2":3.3,"co":421.0,"o3":139.0,"so2":9.1,"mosquito_risk":0,"arthritis_risk":5,"migraine_risk":7,"frizz_risk":0,"updated_at":"2026-05-11T09:20:19.563797+05:30"},{"city":"Jabalpur","state":"Madhya Pradesh","latitude":23.1815,"longitude":79.9864,"temp":33.6,"humidity":33,"rain":0.0,"pressure":962.4,"uv_index":8.85,"wind_gusts":37.1,"aqi":85,"pm10":47.8,"pm2_5":32.8,"no2":4.2,"co":318.0,"o3":139.0,"so2":11.9,"mosquito_risk":0,"arthritis_risk":5,"migraine_risk":7,"frizz_risk":0,"updated_at":"2026-05-11T09:20:19.563803+05:30"},{"city":"Ujjain","state":"Madhya Pradesh","latitude":23.1765,"longitude":75.7885,"temp":36.2,"humidity":23,"rain":0.0,"pressure":954.6,"uv_index":8.65,"wind_gusts":41.4,"aqi":83,"pm10":85.7,"pm2_5":37.7,"no2":4.7,"co":324.0,"o3":116.0,"so2":15.3,"mosquito_risk":0,"arthritis_risk":5,"migraine_risk":10,"frizz_risk":0,"updated_at":"2026-05-11T09:20:19.563811+05:30"},{"city":"Visakhapatnam","state":"Andhra Pradesh","latitude":17.6868,"longitude":83.2185,"temp":31.2,"humidity":61,"rain":0.0,"pressure":1005.2,"uv_index":9.1,"wind_gusts":39.2,"aqi":75,"pm10":27.1,"pm2_5":23.7,"no2":33.3,"co":906.0,"o3":26.0,"so2":28.2,"mosquito_risk":3,"arthritis_risk":5,"migraine_risk":4,"frizz_risk":1,"updated_at":"2026-05-11T09:20:19.563819+05:30"},{"city":"Vijayawada","state":"Andhra Pradesh","latitude":16.5062,"longitude":80.648,"temp":32.2,"humidity":59,"rain":0.0,"pressure":1003.5,"uv_index":9.0,"wind_gusts":34.6,"aqi":48,"pm10":10.9,"pm2_5":8.4,"no2":4.3,"co":161.0,"o3":57.0,"so2":6.9,"mosquito_risk":0,"arthritis_risk":5,"migraine_risk":4,"frizz_risk":1,"updated_at":"2026-05-11T09:20:19.563825+05:30"},{"city":"Guntur","state":"Andhra Pradesh","latitude":16.3067,"longitude":80.4365,"temp":33.0,"humidity":55,"rain":0.0,"pressure":1004.5,"uv_index":9.1,"wind_gusts":32.4,"aqi":48,"pm10":10.4,"pm2_5":8.0,"no2":4.1,"co":163.0,"o3":55.0,"so2":7.0,"mosquito_risk":0,"arthritis_risk":5,"migraine_risk":4,"frizz_risk":1,"updated_at":"2026-05-11T09:20:19.563832+05:30"},{"city":"Nellore","state":"Andhra Pradesh","latitude":14.4426,"longitude":79.9865,"temp":32.2,"humidity":61,"rain":0.0,"pressure":1006.2,"uv_index":9.15,"wind_gusts":38.9,"aqi":20,"pm10":6.1,"pm2_5":4.6,"no2":3.8,"co":145.0,"o3":50.0,"so2":4.7,"mosquito_risk":3,"arthritis_risk":5,"migraine_risk":4,"frizz_risk":1,"updated_at":"2026-05-11T09:20:19.563839+05:30"},{"city":"Kurnool","state":"Andhra Pradesh","latitude":15.8281,"longitude":78.0373,"temp":32.4,"humidity":47,"rain":0.0,"pressure":978.1,"uv_index":8.15,"wind_gusts":39.2,"aqi":49,"pm10":7.4,"pm2_5":5.4,"no2":2.6,"co":160.0,"o3":53.0,"so2":3.1,"mosquito_risk":0,"arthritis_risk":5,"migraine_risk":7,"frizz_risk":1,"updated_at":"2026-05-11T09:20:19.563847+05:30"},{"city":"Kakinada","state":"Andhra Pradesh","latitude":16.9891,"longitude":82.2475,"temp":30.5,"humidity":67,"rain":0.0,"pressure":1008.6,"uv_index":9.05,"wind_gusts":40.0,"aqi":26,"pm10":11.0,"pm2_5":7.7,"no2":5.9,"co":181.0,"o3":57.0,"so2":4.6,"mosquito_risk":3,"arthritis_risk":0,"migraine_risk":4,"frizz_risk":1,"updated_at":"2026-05-11T09:20:19.563854+05:30"},{"city":"Tirupati","state":"Andhra Pradesh","latitude":13.6288,"longitude":79.4192,"temp":31.4,"humidity":54,"rain":0.0,"pressure":991.6,"uv_index":9.2,"wind_gusts":45.7,"aqi":39,"pm10":8.4,"pm2_5":6.7,"no2":4.0,"co":181.0,"o3":53.0,"so2":4.5,"mosquito_risk":0,"arthritis_risk":5,"migraine_risk":7,"frizz_risk":1,"updated_at":"2026-05-11T09:20:19.563860+05:30"},{"city":"Warangal","state":"Telangana","latitude":17.9689,"longitude":79.5941,"temp":30.5,"humidity":60,"rain":0.0,"pressure":980.2,"uv_index":9.15,"wind_gusts":43.6,"aqi":61,"pm10":10.4,"pm2_5":8.2,"no2":4.7,"co":172.0,"o3":49.0,"so2":8.8,"mosquito_risk":0,"arthritis_risk":5,"migraine_risk":7,"frizz_risk":1,"updated_at":"2026-05-11T09:20:19.563867+05:30"},{"city":"Nizamabad","state":"Telangana","latitude":18.6725,"longitude":78.0941,"temp":32.1,"humidity":50,"rain":0.0,"pressure":965.9,"uv_index":9.15,"wind_gusts":32.0,"aqi":73,"pm10":16.3,"pm2_5":12.4,"no2":4.5,"co":209.0,"o3":80.0,"so2":4.7,"mosquito_risk":0,"arthritis_risk":5,"migraine_risk":7,"frizz_risk":1,"updated_at":"2026-05-11T09:20:19.563874+05:30"},{"city":"Mysore","state":"Karnataka","latitude":12.2958,"longitude":76.6396,"temp":27.5,"humidity":68,"rain":0.0,"pressure":929.4,"uv_index":9.3,"wind_gusts":37.8,"aqi":65,"pm10":28.2,"pm2_5":24.9,"no2":10.2,"co":266.0,"o3":107.0,"so2":8.1,"mosquito_risk":7,"arthritis_risk":5,"migraine_risk":7,"frizz_risk":1,"updated_at":"2026-05-11T09:20:19.563881+05:30"},{"city":"Mangalore","state":"Karnataka","latitude":12.9141,"longitude":74.856,"temp":29.0,"humidity":81,"rain":0.0,"pressure":1006.9,"uv_index":8.45,"wind_gusts":36.0,"aqi":65,"pm10":23.8,"pm2_5":17.4,"no2":5.3,"co":286.0,"o3":95.0,"so2":4.6,"mosquito_risk":7,"arthritis_risk":5,"migraine_risk":4,"frizz_risk":1,"updated_at":"2026-05-11T09:20:19.563888+05:30"},{"city":"Hubli-Dharwad","state":"Karnataka","latitude":15.3647,"longitude":75.124,"temp":33.0,"humidity":35,"rain":0.0,"pressure":941.2,"uv_index":9.1,"wind_gusts":46.4,"aqi":76,"pm10":41.2,"pm2_5":27.8,"no2":4.9,"co":277.0,"o3":119.0,"so2":3.5,"mosquito_risk":0,"arthritis_risk":5,"migraine_risk":7,"frizz_risk":0,"updated_at":"2026-05-11T09:20:19.563894+05:30"},{"city":"Belgaum","state":"Karnataka","latitude":15.8497,"longitude":74.4977,"temp":30.9,"humidity":38,"rain":0.0,"pressure":926.5,"uv_index":8.8,"wind_gusts":51.1,"aqi":83,"pm10":38.0,"pm2_5":21.3,"no2":5.0,"co":213.0,"o3":110.0,"so2":6.6,"mosquito_risk":0,"arthritis_risk":5,"migraine_risk":7,"frizz_risk":0,"updated_at":"2026-05-11T09:20:22.787979+05:30"},{"city":"Coimbatore","state":"Tamil Nadu","latitude":11.0168,"longitude":76.9558,"temp":27.6,"humidity":75,"rain":0.0,"pressure":962.3,"uv_index":9.25,"wind_gusts":30.2,"aqi":70,"pm10":28.4,"pm2_5":22.2,"no2":6.2,"co":441.0,"o3":125.0,"so2":10.7,"mosquito_risk":7,"arthritis_risk":5,"migraine_risk":7,"frizz_risk":1,"updated_at":"2026-05-11T09:20:22.788012+05:30"},{"city":"Madurai","state":"Tamil Nadu","latitude":9.9252,"longitude":78.1198,"temp":30.3,"humidity":67,"rain":0.0,"pressure":993.0,"uv_index":9.1,"wind_gusts":34.9,"aqi":66,"pm10":22.1,"pm2_5":20.9,"no2":12.1,"co":334.0,"o3":101.0,"so2":10.4,"mosquito_risk":3,"arthritis_risk":5,"migraine_risk":7,"frizz_risk":1,"updated_at":"2026-05-11T09:20:22.788022+05:30"},{"city":"Trichy","state":"Tamil Nadu","latitude":10.7905,"longitude":78.7047,"temp":30.2,"humidity":68,"rain":0.0,"pressure":1000.0,"uv_index":9.15,"wind_gusts":29.5,"aqi":74,"pm10":14.7,"pm2_5":14.0,"no2":13.7,"co":260.0,"o3":46.0,"so2":25.8,"mosquito_risk":3,"arthritis_risk":5,"migraine_risk":4,"frizz_risk":1,"updated_at":"2026-05-11T09:20:22.788030+05:30"},{"city":"Salem","state":"Tamil Nadu","latitude":11.6643,"longitude":78.146,"temp":29.2,"humidity":70,"rain":0.0,"pressure":977.8,"uv_index":9.2,"wind_gusts":32.4,"aqi":67,"pm10":21.2,"pm2_5":20.1,"no2":13.5,"co":252.0,"o3":87.0,"so2":29.1,"mosquito_risk":7,"arthritis_risk":5,"migraine_risk":7,"frizz_risk":1,"updated_at":"2026-05-11T09:20:22.788038+05:30"},{"city":"Tirunelveli","state":"Tamil Nadu","latitude":8.7139,"longitude":77.7567,"temp":31.8,"humidity":58,"rain":0.0,"pressure":1002.8,"uv_index":9.05,"wind_gusts":31.3,"aqi":50,"pm10":11.5,"pm2_5":11.4,"no2":5.8,"co":327.0,"o3":100.0,"so2":1.7,"mosquito_risk":0,"arthritis_risk":5,"migraine_risk":4,"frizz_risk":1,"updated_at":"2026-05-11T09:20:22.788045+05:30"},{"city":"Vellore","state":"Tamil Nadu","latitude":12.9165,"longitude":79.1325,"temp":29.8,"humidity":64,"rain":0.0,"pressure":984.9,"uv_index":9.1,"wind_gusts":32.4,"aqi":54,"pm10":12.4,"pm2_5":11.6,"no2":6.2,"co":186.0,"o3":47.0,"so2":11.9,"mosquito_risk":7,"arthritis_risk":5,"migraine_risk":7,"frizz_risk":1,"updated_at":"2026-05-11T09:20:22.788053+05:30"},{"city":"Erode","state":"Tamil Nadu","latitude":11.341,"longitude":77.7172,"temp":29.7,"humidity":69,"rain":0.0,"pressure":989.5,"uv_index":9.15,"wind_gusts":24.1,"aqi":68,"pm10":23.5,"pm2_5":21.8,"no2":9.4,"co":397.0,"o3":94.0,"so2":11.4,"mosquito_risk":7,"arthritis_risk":5,"migraine_risk":7,"frizz_risk":1,"updated_at":"2026-05-11T09:20:22.788060+05:30"},{"city":"Kochi","state":"Kerala","latitude":9.9312,"longitude":76.2673,"temp":28.5,"humidity":82,"rain":0.0,"pressure":1008.9,"uv_index":8.95,"wind_gusts":31.7,"aqi":66,"pm10":19.0,"pm2_5":18.2,"no2":9.3,"co":359.0,"o3":101.0,"so2":6.2,"mosquito_risk":7,"arthritis_risk":0,"migraine_risk":4,"frizz_risk":1,"updated_at":"2026-05-11T09:20:22.788067+05:30"},{"city":"Thiruvananthapuram","state":"Kerala","latitude":8.5241,"longitude":76.9366,"temp":28.5,"humidity":79,"rain":0.0,"pressure":1008.0,"uv_index":8.85,"wind_gusts":36.7,"aqi":40,"pm10":10.8,"pm2_5":10.0,"no2":5.6,"co":338.0,"o3":86.0,"so2":4.0,"mosquito_risk":7,"arthritis_risk":0,"migraine_risk":4,"frizz_risk":1,"updated_at":"2026-05-11T09:20:22.788074+05:30"},{"city":"Kozhikode","state":"Kerala","latitude":11.2588,"longitude":75.7804,"temp":28.6,"humidity":82,"rain":0.0,"pressure":1008.2,"uv_index":8.95,"wind_gusts":33.1,"aqi":47,"pm10":12.8,"pm2_5":11.1,"no2":3.4,"co":372.0,"o3":109.0,"so2":4.5,"mosquito_risk":7,"arthritis_risk":0,"migraine_risk":4,"frizz_risk":1,"updated_at":"2026-05-11T09:20:22.788081+05:30"},{"city":"Thrissur","state":"Kerala","latitude":10.5276,"longitude":76.2144,"temp":29.0,"humidity":77,"rain":0.0,"pressure":1007.3,"uv_index":8.95,"wind_gusts":27.7,"aqi":68,"pm10":17.0,"pm2_5":16.3,"no2":5.9,"co":382.0,"o3":104.0,"so2":3.5,"mosquito_risk":7,"arthritis_risk":5,"migraine_risk":4,"frizz_risk":1,"updated_at":"2026-05-11T09:20:22.788089+05:30"},{"city":"Kannur","state":"Kerala","latitude":11.8745,"longitude":75.3704,"temp":29.2,"humidity":72,"rain":0.0,"pressure":1007.5,"uv_index":8.85,"wind_gusts":30.2,"aqi":53,"pm10":17.7,"pm2_5":13.4,"no2":4.4,"co":268.0,"o3":101.0,"so2":2.6,"mosquito_risk":7,"arthritis_risk":5,"migraine_risk":4,"frizz_risk":1,"updated_at":"2026-05-11T09:20:22.788096+05:30"},{"city":"Patna","state":"Bihar","latitude":25.5941,"longitude":85.1376,"temp":29.5,"humidity":58,"rain":0.0,"pressure":1003.5,"uv_index":8.7,"wind_gusts":27.4,"aqi":136,"pm10":75.4,"pm2_5":63.6,"no2":8.6,"co":554.0,"o3":171.0,"so2":31.9,"mosquito_risk":4,"arthritis_risk":5,"migraine_risk":4,"frizz_risk":1,"updated_at":"2026-05-11T09:20:22.788104+05:30"},{"city":"Gaya","state":"Bihar","latitude":24.7914,"longitude":85.0002,"temp":31.0,"humidity":56,"rain":0.0,"pressure":996.4,"uv_index":8.8,"wind_gusts":28.4,"aqi":126,"pm10":71.5,"pm2_5":54.2,"no2":6.4,"co":465.0,"o3":165.0,"so2":35.8,"mosquito_risk":0,"arthritis_risk":5,"migraine_risk":7,"frizz_risk":1,"updated_at":"2026-05-11T09:20:22.788112+05:30"},{"city":"Muzaffarpur","state":"Bihar","latitude":26.1209,"longitude":85.3647,"temp":28.9,"humidity":64,"rain":0.0,"pressure":1003.8,"uv_index":8.7,"wind_gusts":27.0,"aqi":135,"pm10":71.7,"pm2_5":61.0,"no2":8.4,"co":503.0,"o3":165.0,"so2":23.0,"mosquito_risk":7,"arthritis_risk":5,"migraine_risk":4,"frizz_risk":1,"updated_at":"2026-05-11T09:20:22.788119+05:30"},{"city":"Bhagalpur","state":"Bihar","latitude":25.2425,"longitude":87.0117,"temp":29.0,"humidity":61,"rain":0.0,"pressure":1004.8,"uv_index":8.6,"wind_gusts":27.0,"aqi":141,"pm10":70.8,"pm2_5":59.8,"no2":9.1,"co":407.0,"o3":174.0,"so2":26.9,"mosquito_risk":7,"arthritis_risk":5,"migraine_risk":4,"frizz_risk":1,"updated_at":"2026-05-11T09:20:22.788126+05:30"},{"city":"Ranchi","state":"Jharkhand","latitude":23.3441,"longitude":85.3096,"temp":27.9,"humidity":60,"rain":0.0,"pressure":940.5,"uv_index":9.25,"wind_gusts":32.4,"aqi":95,"pm10":43.1,"pm2_5":27.8,"no2":3.5,"co":200.0,"o3":142.0,"so2":31.8,"mosquito_risk":4,"arthritis_risk":5,"migraine_risk":7,"frizz_risk":1,"updated_at":"2026-05-11T09:20:22.788132+05:30"},{"city":"Jamshedpur","state":"Jharkhand","latitude":22.8046,"longitude":86.2029,"temp":28.9,"humidity":64,"rain":0.0,"pressure":994.1,"uv_index":9.0,"wind_gusts":29.2,"aqi":119,"pm10":34.1,"pm2_5":28.0,"no2":12.5,"co":214.0,"o3":124.0,"so2":38.9,"mosquito_risk":7,"arthritis_risk":5,"migraine_risk":7,"frizz_risk":1,"updated_at":"2026-05-11T09:20:22.788139+05:30"},{"city":"Dhanbad","state":"Jharkhand","latitude":23.7957,"longitude":86.4304,"temp":28.5,"humidity":61,"rain":0.0,"pressure":983.0,"uv_index":8.95,"wind_gusts":28.8,"aqi":162,"pm10":75.2,"pm2_5":63.8,"no2":41.4,"co":851.0,"o3":111.0,"so2":100.0,"mosquito_risk":7,"arthritis_risk":5,"migraine_risk":7,"frizz_risk":1,"updated_at":"2026-05-11T09:20:22.788146+05:30"},{"city":"Bokaro","state":"Jharkhand","latitude":23.6693,"longitude":86.1511,"temp":28.9,"humidity":63,"rain":0.0,"pressure":986.7,"uv_index":9.0,"wind_gusts":31.3,"aqi":159,"pm10":71.7,"pm2_5":55.5,"no2":33.1,"co":1247.0,"o3":133.0,"so2":86.4,"mosquito_risk":7,"arthritis_risk":5,"migraine_risk":7,"frizz_risk":1,"updated_at":"2026-05-11T09:20:22.788152+05:30"},{"city":"Bhubaneswar","state":"Odisha","latitude":20.2961,"longitude":85.8245,"temp":30.8,"humidity":65,"rain":0.0,"pressure":1005.1,"uv_index":9.1,"wind_gusts":35.6,"aqi":81,"pm10":20.6,"pm2_5":15.3,"no2":5.7,"co":205.0,"o3":80.0,"so2":9.2,"mosquito_risk":3,"arthritis_risk":5,"migraine_risk":4,"frizz_risk":1,"updated_at":"2026-05-11T09:20:22.788159+05:30"},{"city":"Cuttack","state":"Odisha","latitude":20.4625,"longitude":85.8828,"temp":30.5,"humidity":67,"rain":0.0,"pressure":1006.9,"uv_index":9.15,"wind_gusts":37.1,"aqi":81,"pm10":20.6,"pm2_5":15.3,"no2":5.7,"co":197.0,"o3":80.0,"so2":9.2,"mosquito_risk":3,"arthritis_risk":5,"migraine_risk":4,"frizz_risk":1,"updated_at":"2026-05-11T09:20:22.788166+05:30"},{"city":"Rourkela","state":"Odisha","latitude":22.2604,"longitude":84.8536,"temp":30.2,"humidity":61,"rain":0.0,"pressure":987.7,"uv_index":8.95,"wind_gusts":33.8,"aqi":117,"pm10":39.1,"pm2_5":31.1,"no2":9.3,"co":215.0,"o3":116.0,"so2":85.9,"mosquito_risk":3,"arthritis_risk":5,"migraine_risk":7,"frizz_risk":1,"updated_at":"2026-05-11T09:20:22.788172+05:30"},{"city":"Raipur","state":"Chhattisgarh","latitude":21.2514,"longitude":81.6296,"temp":32.3,"humidity":45,"rain":0.0,"pressure":976.7,"uv_index":9.0,"wind_gusts":29.9,"aqi":103,"pm10":50.3,"pm2_5":35.9,"no2":21.8,"co":375.0,"o3":121.0,"so2":8.8,"mosquito_risk":0,"arthritis_risk":5,"migraine_risk":7,"frizz_risk":1,"updated_at":"2026-05-11T09:20:22.788179+05:30"},{"city":"Bhilai","state":"Chhattisgarh","latitude":21.1938,"longitude":81.3509,"temp":31.2,"humidity":53,"rain":0.0,"pressure":977.1,"uv_index":9.0,"wind_gusts":30.2,"aqi":114,"pm10":55.9,"pm2_5":40.5,"no2":33.2,"co":1098.0,"o3":112.0,"so2":8.5,"mosquito_risk":0,"arthritis_risk":5,"migraine_risk":7,"frizz_risk":1,"updated_at":"2026-05-11T09:20:22.788185+05:30"},{"city":"Guwahati","state":"Assam","latitude":26.1158,"longitude":91.7086,"temp":26.4,"humidity":72,"rain":0.0,"pressure":1005.8,"uv_index":8.2,"wind_gusts":30.2,"aqi":94,"pm10":38.0,"pm2_5":25.8,"no2":1.8,"co":356.0,"o3":133.0,"so2":1.9,"mosquito_risk":7,"arthritis_risk":5,"migraine_risk":4,"frizz_risk":1,"updated_at":"2026-05-11T09:20:22.788192+05:30"},{"city":"Agartala","state":"Tripura","latitude":23.8315,"longitude":91.2868,"temp":26.8,"humidity":75,"rain":0.0,"pressure":1010.1,"uv_index":8.8,"wind_gusts":21.6,"aqi":126,"pm10":42.8,"pm2_5":36.7,"no2":7.8,"co":330.0,"o3":131.0,"so2":2.7,"mosquito_risk":7,"arthritis_risk":0,"migraine_risk":4,"frizz_risk":1,"updated_at":"2026-05-11T09:20:22.788200+05:30"},{"city":"Shillong","state":"Meghalaya","latitude":25.5788,"longitude":91.8933,"temp":19.9,"humidity":65,"rain":0.1,"pressure":860.3,"uv_index":8.4,"wind_gusts":23.4,"aqi":85,"pm10":38.9,"pm2_5":24.2,"no2":1.4,"co":269.0,"o3":145.0,"so2":3.2,"mosquito_risk":6,"arthritis_risk":5,"migraine_risk":7,"frizz_risk":0,"updated_at":"2026-05-11T09:20:22.788207+05:30"},{"city":"Imphal","state":"Manipur","latitude":24.817,"longitude":93.9368,"temp":21.0,"humidity":79,"rain":0.0,"pressure":926.8,"uv_index":8.65,"wind_gusts":33.8,"aqi":96,"pm10":40.5,"pm2_5":28.5,"no2":1.6,"co":312.0,"o3":131.0,"so2":5.2,"mosquito_risk":3,"arthritis_risk":5,"migraine_risk":7,"frizz_risk":1,"updated_at":"2026-05-11T09:20:22.788214+05:30"},{"city":"Aizawl","state":"Mizoram","latitude":23.7271,"longitude":92.7176,"temp":21.6,"humidity":67,"rain":0.0,"pressure":896.1,"uv_index":9.0,"wind_gusts":41.4,"aqi":93,"pm10":30.3,"pm2_5":23.6,"no2":1.0,"co":322.0,"o3":139.0,"so2":1.1,"mosquito_risk":3,"arthritis_risk":5,"migraine_risk":7,"frizz_risk":0,"updated_at":"2026-05-11T09:20:22.788221+05:30"},{"city":"Kohima","state":"Nagaland","latitude":25.6701,"longitude":94.1077,"temp":17.4,"humidity":90,"rain":0.1,"pressure":858.4,"uv_index":6.15,"wind_gusts":18.7,"aqi":63,"pm10":28.4,"pm2_5":18.3,"no2":1.7,"co":253.0,"o3":127.0,"so2":1.7,"mosquito_risk":6,"arthritis_risk":10,"migraine_risk":7,"frizz_risk":0,"updated_at":"2026-05-11T09:20:22.788228+05:30"},{"city":"Gangtok","state":"Sikkim","latitude":27.3314,"longitude":88.6138,"temp":21.1,"humidity":40,"rain":0.0,"pressure":841.4,"uv_index":8.95,"wind_gusts":46.1,"aqi":51,"pm10":18.2,"pm2_5":8.1,"no2":1.1,"co":199.0,"o3":129.0,"so2":0.9,"mosquito_risk":0,"arthritis_risk":5,"migraine_risk":7,"frizz_risk":0,"updated_at":"2026-05-11T09:20:22.788235+05:30"},{"city":"Siliguri","state":"West Bengal","latitude":26.7271,"longitude":88.3953,"temp":26.9,"humidity":70,"rain":0.0,"pressure":996.9,"uv_index":8.55,"wind_gusts":24.5,"aqi":94,"pm10":43.3,"pm2_5":28.3,"no2":4.4,"co":508.0,"o3":135.0,"so2":3.6,"mosquito_risk":7,"arthritis_risk":5,"migraine_risk":7,"frizz_risk":1,"updated_at":"2026-05-11T09:20:26.012882+05:30"},{"city":"Durgapur","state":"West Bengal","latitude":23.5204,"longitude":87.3119,"temp":27.5,"humidity":73,"rain":0.0,"pressure":998.5,"uv_index":8.9,"wind_gusts":31.7,"aqi":175,"pm10":80.8,"pm2_5":73.1,"no2":28.3,"co":634.0,"o3":118.0,"so2":71.3,"mosquito_risk":7,"arthritis_risk":5,"migraine_risk":7,"frizz_risk":1,"updated_at":"2026-05-11T09:20:26.012914+05:30"},{"city":"Asansol","state":"West Bengal","latitude":23.6739,"longitude":86.9524,"temp":28.6,"humidity":64,"rain":0.0,"pressure":997.1,"uv_index":8.95,"wind_gusts":26.6,"aqi":165,"pm10":72.4,"pm2_5":64.3,"no2":30.8,"co":312.0,"o3":110.0,"so2":82.7,"mosquito_risk":7,"arthritis_risk":5,"migraine_risk":7,"frizz_risk":1,"updated_at":"2026-05-11T09:20:26.012925+05:30"},{"city":"Pondicherry","state":"Puducherry","latitude":11.9139,"longitude":79.8145,"temp":29.5,"humidity":75,"rain":0.0,"pressure":1008.3,"uv_index":9.1,"wind_gusts":32.4,"aqi":20,"pm10":6.7,"pm2_5":5.3,"no2":4.4,"co":233.0,"o3":46.0,"so2":1.8,"mosquito_risk":7,"arthritis_risk":0,"migraine_risk":4,"frizz_risk":1,"updated_at":"2026-05-11T09:20:26.012935+05:30"},{"city":"Port Blair","state":"Andaman and Nicobar Islands","latitude":11.6234,"longitude":92.7265,"temp":28.8,"humidity":80,"rain":0.0,"pressure":1008.1,"uv_index":8.85,"wind_gusts":32.4,"aqi":31,"pm10":3.8,"pm2_5":2.5,"no2":0.5,"co":142.0,"o3":68.0,"so2":0.1,"mosquito_risk":7,"arthritis_risk":0,"migraine_risk":4,"frizz_risk":1,"updated_at":"2026-05-11T09:20:26.012942+05:30"},{"city":"Haridwar","state":"Uttarakhand","latitude":29.9457,"longitude":78.1642,"temp":30.9,"humidity":47,"rain":0.0,"pressure":976.8,"uv_index":7.45,"wind_gusts":35.3,"aqi":138,"pm10":71.0,"pm2_5":43.3,"no2":4.5,"co":330.0,"o3":155.0,"so2":6.3,"mosquito_risk":0,"arthritis_risk":5,"migraine_risk":7,"frizz_risk":1,"updated_at":"2026-05-11T09:20:26.012951+05:30"},{"city":"Rishikesh","state":"Uttarakhand","latitude":30.0869,"longitude":78.2676,"temp":29.8,"humidity":51,"rain":0.0,"pressure":969.5,"uv_index":6.15,"wind_gusts":25.2,"aqi":117,"pm10":71.9,"pm2_5":38.4,"no2":2.0,"co":340.0,"o3":170.0,"so2":5.6,"mosquito_risk":4,"arthritis_risk":5,"migraine_risk":7,"frizz_risk":1,"updated_at":"2026-05-11T09:20:26.012959+05:30"},{"city":"Nainital","state":"Uttarakhand","latitude":29.3919,"longitude":79.4542,"temp":18.4,"humidity":67,"rain":0.1,"pressure":809.6,"uv_index":4.4,"wind_gusts":32.8,"aqi":101,"pm10":68.0,"pm2_5":34.1,"no2":1.7,"co":257.0,"o3":162.0,"so2":4.4,"mosquito_risk":6,"arthritis_risk":5,"migraine_risk":3,"frizz_risk":0,"updated_at":"2026-05-11T09:20:26.012967+05:30"},{"city":"Mussoorie","state":"Uttarakhand","latitude":30.4599,"longitude":78.0664,"temp":15.6,"humidity":81,"rain":0.1,"pressure":806.2,"uv_index":4.85,"wind_gusts":41.0,"aqi":131,"pm10":81.0,"pm2_5":42.0,"no2":2.9,"co":304.0,"o3":168.0,"so2":7.0,"mosquito_risk":6,"arthritis_risk":10,"migraine_risk":3,"frizz_risk":0,"updated_at":"2026-05-11T09:20:26.012975+05:30"},{"city":"Dharamshala","state":"Himachal Pradesh","latitude":32.219,"longitude":76.3234,"temp":22.6,"humidity":56,"rain":0.0,"pressure":872.7,"uv_index":8.35,"wind_gusts":37.8,"aqi":102,"pm10":108.3,"pm2_5":35.6,"no2":1.9,"co":337.0,"o3":143.0,"so2":3.2,"mosquito_risk":0,"arthritis_risk":5,"migraine_risk":7,"frizz_risk":0,"updated_at":"2026-05-11T09:20:26.012984+05:30"},{"city":"Dalhousie","state":"Himachal Pradesh","latitude":32.5387,"longitude":75.971,"temp":18.4,"humidity":68,"rain":0.0,"pressure":808.1,"uv_index":8.6,"wind_gusts":32.8,"aqi":153,"pm10":154.1,"pm2_5":52.5,"no2":12.1,"co":333.0,"o3":125.0,"so2":4.6,"mosquito_risk":3,"arthritis_risk":5,"migraine_risk":7,"frizz_risk":0,"updated_at":"2026-05-11T09:20:26.012992+05:30"},{"city":"Patiala","state":"Punjab","latitude":30.3398,"longitude":76.3869,"temp":31.0,"humidity":47,"rain":0.0,"pressure":980.3,"uv_index":7.55,"wind_gusts":52.6,"aqi":513,"pm10":629.6,"pm2_5":96.4,"no2":6.4,"co":441.0,"o3":139.0,"so2":11.9,"mosquito_risk":0,"arthritis_risk":5,"migraine_risk":7,"frizz_risk":1,"updated_at":"2026-05-11T09:20:26.012999+05:30"},{"city":"Bhatinda","state":"Punjab","latitude":30.211,"longitude":74.9455,"temp":33.8,"humidity":37,"rain":0.0,"pressure":985.1,"uv_index":8.2,"wind_gusts":59.4,"aqi":461,"pm10":763.7,"pm2_5":151.8,"no2":6.8,"co":421.0,"o3":133.0,"so2":22.6,"mosquito_risk":0,"arthritis_risk":5,"migraine_risk":7,"frizz_risk":1,"updated_at":"2026-05-11T09:20:26.013006+05:30"},{"city":"Rohtak","state":"Haryana","latitude":28.8955,"longitude":76.6066,"temp":32.8,"humidity":40,"rain":0.0,"pressure":983.3,"uv_index":7.65,"wind_gusts":31.3,"aqi":382,"pm10":579.3,"pm2_5":105.5,"no2":16.5,"co":446.0,"o3":139.0,"so2":27.6,"mosquito_risk":0,"arthritis_risk":5,"migraine_risk":7,"frizz_risk":1,"updated_at":"2026-05-11T09:20:26.013013+05:30"},{"city":"Panipat","state":"Haryana","latitude":29.3909,"longitude":76.9635,"temp":31.2,"humidity":47,"rain":0.0,"pressure":982.6,"uv_index":7.5,"wind_gusts":29.5,"aqi":671,"pm10":1013.3,"pm2_5":132.7,"no2":12.8,"co":434.0,"o3":137.0,"so2":24.3,"mosquito_risk":0,"arthritis_risk":5,"migraine_risk":7,"frizz_risk":1,"updated_at":"2026-05-11T09:20:26.013021+05:30"},{"city":"Mathura","state":"Uttar Pradesh","latitude":27.4924,"longitude":77.6737,"temp":32.0,"humidity":44,"rain":0.0,"pressure":988.5,"uv_index":7.95,"wind_gusts":27.7,"aqi":420,"pm10":542.0,"pm2_5":83.6,"no2":7.6,"co":423.0,"o3":131.0,"so2":12.2,"mosquito_risk":0,"arthritis_risk":5,"migraine_risk":7,"frizz_risk":1,"updated_at":"2026-05-11T09:20:26.013028+05:30"},{"city":"Vrindavan","state":"Uttar Pradesh","latitude":27.5823,"longitude":77.7027,"temp":32.2,"humidity":43,"rain":0.0,"pressure":989.0,"uv_index":7.9,"wind_gusts":28.8,"aqi":420,"pm10":542.0,"pm2_5":83.6,"no2":7.6,"co":421.0,"o3":131.0,"so2":12.2,"mosquito_risk":0,"arthritis_risk":5,"migraine_risk":7,"frizz_risk":1,"updated_at":"2026-05-11T09:20:26.013035+05:30"},{"city":"Ayodhya","state":"Uttar Pradesh","latitude":26.7922,"longitude":82.1998,"temp":30.4,"humidity":50,"rain":0.0,"pressure":998.1,"uv_index":8.3,"wind_gusts":32.8,"aqi":119,"pm10":62.2,"pm2_5":52.9,"no2":7.1,"co":451.0,"o3":146.0,"so2":15.0,"mosquito_risk":0,"arthritis_risk":5,"migraine_risk":7,"frizz_risk":1,"updated_at":"2026-05-11T09:20:26.013042+05:30"},{"city":"Ratlam","state":"Madhya Pradesh","latitude":23.3315,"longitude":75.0367,"temp":35.7,"humidity":19,"rain":0.0,"pressure":955.3,"uv_index":8.55,"wind_gusts":34.2,"aqi":77,"pm10":88.5,"pm2_5":37.5,"no2":3.2,"co":293.0,"o3":137.0,"so2":21.4,"mosquito_risk":0,"arthritis_risk":5,"migraine_risk":10,"frizz_risk":0,"updated_at":"2026-05-11T09:20:26.013050+05:30"},{"city":"Sagar","state":"Madhya Pradesh","latitude":23.8388,"longitude":78.7378,"temp":33.5,"humidity":30,"rain":0.0,"pressure":951.6,"uv_index":8.75,"wind_gusts":40.0,"aqi":82,"pm10":49.2,"pm2_5":28.0,"no2":3.5,"co":315.0,"o3":147.0,"so2":13.2,"mosquito_risk":0,"arthritis_risk":5,"migraine_risk":7,"frizz_risk":0,"updated_at":"2026-05-11T09:20:26.013058+05:30"},{"city":"Satna","state":"Madhya Pradesh","latitude":24.6005,"longitude":80.8322,"temp":32.2,"humidity":37,"rain":0.0,"pressure":972.4,"uv_index":8.75,"wind_gusts":31.3,"aqi":85,"pm10":53.9,"pm2_5":35.3,"no2":5.3,"co":287.0,"o3":156.0,"so2":18.7,"mosquito_risk":0,"arthritis_risk":5,"migraine_risk":7,"frizz_risk":0,"updated_at":"2026-05-11T09:20:26.013066+05:30"},{"city":"Akola","state":"Maharashtra","latitude":20.7002,"longitude":77.0082,"temp":35.7,"humidity":30,"rain":0.0,"pressure":975.1,"uv_index":8.9,"wind_gusts":36.4,"aqi":87,"pm10":37.5,"pm2_5":28.9,"no2":11.7,"co":312.0,"o3":110.0,"so2":7.7,"mosquito_risk":0,"arthritis_risk":5,"migraine_risk":10,"frizz_risk":0,"updated_at":"2026-05-11T09:20:26.013073+05:30"},{"city":"Amravati","state":"Maharashtra","latitude":20.9374,"longitude":77.7796,"temp":34.4,"humidity":34,"rain":0.0,"pressure":968.0,"uv_index":8.9,"wind_gusts":42.1,"aqi":89,"pm10":35.2,"pm2_5":27.6,"no2":10.2,"co":285.0,"o3":107.0,"so2":6.9,"mosquito_risk":0,"arthritis_risk":5,"migraine_risk":7,"frizz_risk":1,"updated_at":"2026-05-11T09:20:26.013081+05:30"},{"city":"Latur","state":"Maharashtra","latitude":18.4088,"longitude":76.5604,"temp":33.7,"humidity":34,"rain":0.0,"pressure":941.0,"uv_index":9.05,"wind_gusts":38.2,"aqi":75,"pm10":28.8,"pm2_5":20.1,"no2":4.5,"co":226.0,"o3":99.0,"so2":7.5,"mosquito_risk":0,"arthritis_risk":5,"migraine_risk":7,"frizz_risk":0,"updated_at":"2026-05-11T09:20:26.013089+05:30"},{"city":"Nanded","state":"Maharashtra","latitude":19.1383,"longitude":77.3091,"temp":34.0,"humidity":38,"rain":0.0,"pressure":969.4,"uv_index":9.0,"wind_gusts":32.0,"aqi":79,"pm10":27.1,"pm2_5":20.7,"no2":5.6,"co":255.0,"o3":105.0,"so2":6.2,"mosquito_risk":0,"arthritis_risk":5,"migraine_risk":7,"frizz_risk":1,"updated_at":"2026-05-11T09:20:26.013095+05:30"},{"city":"Gulbarga","state":"Karnataka","latitude":17.3297,"longitude":76.8343,"temp":33.5,"humidity":36,"rain":0.0,"pressure":959.7,"uv_index":9.1,"wind_gusts":31.0,"aqi":63,"pm10":12.3,"pm2_5":9.1,"no2":4.9,"co":210.0,"o3":77.0,"so2":9.4,"mosquito_risk":0,"arthritis_risk":5,"migraine_risk":7,"frizz_risk":1,"updated_at":"2026-05-11T09:20:26.013102+05:30"},{"city":"Bidar","state":"Karnataka","latitude":17.9104,"longitude":77.5199,"temp":31.1,"humidity":45,"rain":0.0,"pressure":937.1,"uv_index":9.15,"wind_gusts":32.4,"aqi":66,"pm10":13.9,"pm2_5":9.6,"no2":4.4,"co":192.0,"o3":81.0,"so2":3.4,"mosquito_risk":0,"arthritis_risk":5,"migraine_risk":7,"frizz_risk":1,"updated_at":"2026-05-11T09:20:26.013108+05:30"},{"city":"Hospet","state":"Karnataka","latitude":15.2689,"longitude":76.3909,"temp":30.9,"humidity":49,"rain":0.0,"pressure":956.6,"uv_index":9.15,"wind_gusts":32.4,"aqi":72,"pm10":36.1,"pm2_5":26.1,"no2":9.6,"co":208.0,"o3":96.0,"so2":7.5,"mosquito_risk":0,"arthritis_risk":5,"migraine_risk":7,"frizz_risk":1,"updated_at":"2026-05-11T09:20:26.013115+05:30"},{"city":"Tirupur","state":"Tamil Nadu","latitude":11.1085,"longitude":77.3411,"temp":29.8,"humidity":66,"rain":0.0,"pressure":975.7,"uv_index":9.25,"wind_gusts":31.3,"aqi":79,"pm10":29.9,"pm2_5":26.2,"no2":9.8,"co":430.0,"o3":114.0,"so2":13.0,"mosquito_risk":7,"arthritis_risk":5,"migraine_risk":7,"frizz_risk":1,"updated_at":"2026-05-11T09:20:26.013121+05:30"},{"city":"Alappuzha","state":"Kerala","latitude":9.4981,"longitude":76.3388,"temp":29.0,"humidity":77,"rain":0.0,"pressure":1009.0,"uv_index":8.8,"wind_gusts":34.2,"aqi":56,"pm10":14.7,"pm2_5":13.9,"no2":7.4,"co":321.0,"o3":101.0,"so2":7.1,"mosquito_risk":7,"arthritis_risk":0,"migraine_risk":4,"frizz_risk":1,"updated_at":"2026-05-11T09:20:26.013127+05:30"},{"city":"Munnar","state":"Kerala","latitude":10.0889,"longitude":77.0595,"temp":21.7,"humidity":70,"rain":0.0,"pressure":858.0,"uv_index":9.45,"wind_gusts":19.4,"aqi":48,"pm10":13.2,"pm2_5":12.0,"no2":3.2,"co":195.0,"o3":104.0,"so2":2.3,"mosquito_risk":3,"arthritis_risk":5,"migraine_risk":7,"frizz_risk":0,"updated_at":"2026-05-11T09:20:26.013135+05:30"},{"city":"Silchar","state":"Assam","latitude":24.8333,"longitude":92.7789,"temp":25.9,"humidity":78,"rain":0.0,"pressure":1009.3,"uv_index":8.8,"wind_gusts":24.8,"aqi":142,"pm10":31.4,"pm2_5":25.3,"no2":2.4,"co":382.0,"o3":146.0,"so2":4.8,"mosquito_risk":7,"arthritis_risk":0,"migraine_risk":4,"frizz_risk":1,"updated_at":"2026-05-11T09:20:26.013142+05:30"},{"city":"Dibrugarh","state":"Assam","latitude":27.4728,"longitude":94.912,"temp":22.3,"humidity":92,"rain":0.1,"pressure":1001.2,"uv_index":4.35,"wind_gusts":22.0,"aqi":70,"pm10":26.4,"pm2_5":17.1,"no2":3.8,"co":306.0,"o3":107.0,"so2":1.7,"mosquito_risk":6,"arthritis_risk":5,"migraine_risk":0,"frizz_risk":1,"updated_at":"2026-05-11T09:20:26.013148+05:30"}]