[{"city":"Delhi","state":"Delhi","latitude":28.6139,"longitude":77.209,"temp":28.6,"humidity":32,"rain":0.0,"pressure":986.0,"uv_index":7.15,"wind_gusts":38.5,"aqi":514,"pm10":1385.8,"pm2_5":176.5,"mosquito_risk":4,"arthritis_risk":5,"migraine_risk":7,"frizz_risk":0,"updated_at":"2026-04-10T18:48:42.838792+05:30"},{"city":"Mumbai","state":"Maharashtra","latitude":19.076,"longitude":72.8777,"temp":28.5,"humidity":74,"rain":0.0,"pressure":1009.3,"uv_index":7.95,"wind_gusts":25.2,"aqi":96,"pm10":66.1,"pm2_5":34.3,"mosquito_risk":7,"arthritis_risk":0,"migraine_risk":4,"frizz_risk":1,"updated_at":"2026-04-10T18:48:42.838858+05:30"},{"city":"Bangalore","state":"Karnataka","latitude":12.9716,"longitude":77.5946,"temp":30.2,"humidity":49,"rain":0.0,"pressure":913.1,"uv_index":9.65,"wind_gusts":42.8,"aqi":188,"pm10":39.6,"pm2_5":33.1,"mosquito_risk":0,"arthritis_risk":5,"migraine_risk":7,"frizz_risk":1,"updated_at":"2026-04-10T18:48:42.838876+05:30"},{"city":"Hyderabad","state":"Telangana","latitude":17.385,"longitude":78.4867,"temp":35.4,"humidity":25,"rain":0.0,"pressure":954.1,"uv_index":9.15,"wind_gusts":19.4,"aqi":153,"pm10":58.8,"pm2_5":30.3,"mosquito_risk":0,"arthritis_risk":5,"migraine_risk":10,"frizz_risk":0,"updated_at":"2026-04-10T18:48:42.838887+05:30"},{"city":"Chennai","state":"Tamil Nadu","latitude":13.0827,"longitude":80.2707,"temp":30.1,"humidity":74,"rain":0.0,"pressure":1008.4,"uv_index":9.4,"wind_gusts":36.4,"aqi":66,"pm10":22.4,"pm2_5":16.3,"mosquito_risk":3,"arthritis_risk":0,"migraine_risk":4,"frizz_risk":1,"updated_at":"2026-04-10T18:48:42.838896+05:30"},{"city":"Kolkata","state":"West Bengal","latitude":22.5726,"longitude":88.3639,"temp":27.8,"humidity":68,"rain":0.0,"pressure":1007.4,"uv_index":8.7,"wind_gusts":21.2,"aqi":161,"pm10":104.1,"pm2_5":74.0,"mosquito_risk":7,"arthritis_risk":5,"migraine_risk":4,"frizz_risk":1,"updated_at":"2026-04-10T18:48:42.838906+05:30"},{"city":"Pune","state":"Maharashtra","latitude":18.5204,"longitude":73.8567,"temp":33.4,"humidity":43,"rain":0.0,"pressure":949.4,"uv_index":8.5,"wind_gusts":31.3,"aqi":123,"pm10":38.6,"pm2_5":19.4,"mosquito_risk":0,"arthritis_risk":5,"migraine_risk":7,"frizz_risk":1,"updated_at":"2026-04-10T18:48:42.838917+05:30"},{"city":"Ahmedabad","state":"Gujarat","latitude":23.0225,"longitude":72.5714,"temp":35.5,"humidity":16,"rain":0.0,"pressure":1004.7,"uv_index":8.0,"wind_gusts":36.7,"aqi":138,"pm10":39.6,"pm2_5":16.6,"mosquito_risk":0,"arthritis_risk":5,"migraine_risk":7,"frizz_risk":0,"updated_at":"2026-04-10T18:48:42.838926+05:30"},{"city":"Jaipur","state":"Rajasthan","latitude":26.9124,"longitude":75.7873,"temp":30.5,"humidity":22,"rain":0.0,"pressure":964.0,"uv_index":7.75,"wind_gusts":28.4,"aqi":158,"pm10":232.8,"pm2_5":35.4,"mosquito_risk":0,"arthritis_risk":5,"migraine_risk":7,"frizz_risk":0,"updated_at":"2026-04-10T18:48:42.838933+05:30"},{"city":"Lucknow","state":"Uttar Pradesh","latitude":26.8467,"longitude":80.9462,"temp":28.6,"humidity":29,"rain":0.0,"pressure":995.7,"uv_index":7.65,"wind_gusts":40.0,"aqi":132,"pm10":527.1,"pm2_5":80.6,"mosquito_risk":4,"arthritis_risk":5,"migraine_risk":7,"frizz_risk":0,"updated_at":"2026-04-10T18:48:42.838941+05:30"},{"city":"Kanpur","state":"Uttar Pradesh","latitude":26.4499,"longitude":80.3319,"temp":27.0,"humidity":43,"rain":0.0,"pressure":994.4,"uv_index":7.65,"wind_gusts":35.3,"aqi":217,"pm10":856.8,"pm2_5":107.1,"mosquito_risk":4,"arthritis_risk":5,"migraine_risk":7,"frizz_risk":0,"updated_at":"2026-04-10T18:48:42.838949+05:30"},{"city":"Chandigarh","state":"Chandigarh","latitude":30.7333,"longitude":76.7794,"temp":25.8,"humidity":38,"rain":0.0,"pressure":972.1,"uv_index":7.15,"wind_gusts":42.1,"aqi":136,"pm10":12.3,"pm2_5":10.9,"mosquito_risk":4,"arthritis_risk":5,"migraine_risk":7,"frizz_risk":0,"updated_at":"2026-04-10T18:48:42.838957+05:30"},{"city":"Srinagar","state":"Jammu and Kashmir","latitude":34.0837,"longitude":74.7973,"temp":16.0,"humidity":52,"rain":0.0,"pressure":843.5,"uv_index":8.1,"wind_gusts":12.6,"aqi":127,"pm10":38.9,"pm2_5":20.5,"mosquito_risk":0,"arthritis_risk":5,"migraine_risk":7,"frizz_risk":0,"updated_at":"2026-04-10T18:48:42.838964+05:30"},{"city":"Jammu","state":"Jammu and Kashmir","latitude":32.7266,"longitude":74.857,"temp":26.1,"humidity":36,"rain":0.0,"pressure":976.6,"uv_index":7.75,"wind_gusts":34.2,"aqi":109,"pm10":23.8,"pm2_5":15.0,"mosquito_risk":4,"arthritis_risk":5,"migraine_risk":7,"frizz_risk":0,"updated_at":"2026-04-10T18:48:42.838972+05:30"},{"city":"Amritsar","state":"Punjab","latitude":31.634,"longitude":74.8723,"temp":26.2,"humidity":38,"rain":0.0,"pressure":985.2,"uv_index":7.7,"wind_gusts":29.2,"aqi":140,"pm10":20.5,"pm2_5":15.9,"mosquito_risk":4,"arthritis_risk":5,"migraine_risk":7,"frizz_risk":0,"updated_at":"2026-04-10T18:48:42.838979+05:30"},{"city":"Ludhiana","state":"Punjab","latitude":30.901,"longitude":75.8573,"temp":27.9,"humidity":31,"rain":0.0,"pressure":982.7,"uv_index":7.3,"wind_gusts":32.8,"aqi":118,"pm10":52.9,"pm2_5":19.1,"mosquito_risk":4,"arthritis_risk":5,"migraine_risk":7,"frizz_risk":0,"updated_at":"2026-04-10T18:48:42.838987+05:30"},{"city":"Jalandhar","state":"Punjab","latitude":31.326,"longitude":75.5762,"temp":27.3,"humidity":32,"rain":0.0,"pressure":983.9,"uv_index":7.5,"wind_gusts":29.9,"aqi":130,"pm10":66.4,"pm2_5":20.5,"mosquito_risk":4,"arthritis_risk":5,"migraine_risk":7,"frizz_risk":0,"updated_at":"2026-04-10T18:48:42.838996+05:30"},{"city":"Dehradun","state":"Uttarakhand","latitude":30.6284,"longitude":78.0322,"temp":16.3,"humidity":52,"rain":0.0,"pressure":830.3,"uv_index":7.55,"wind_gusts":29.5,"aqi":142,"pm10":8.1,"pm2_5":6.0,"mosquito_risk":0,"arthritis_risk":5,"migraine_risk":7,"frizz_risk":0,"updated_at":"2026-04-10T18:48:42.839003+05:30"},{"city":"Shimla","state":"Himachal Pradesh","latitude":31.1048,"longitude":77.1734,"temp":13.2,"humidity":47,"rain":0.0,"pressure":785.6,"uv_index":7.6,"wind_gusts":50.8,"aqi":123,"pm10":9.5,"pm2_5":7.1,"mosquito_risk":0,"arthritis_risk":5,"migraine_risk":7,"frizz_risk":0,"updated_at":"2026-04-10T18:48:42.839011+05:30"},{"city":"Manali","state":"Himachal Pradesh","latitude":32.2396,"longitude":77.1887,"temp":15.2,"humidity":78,"rain":0.0,"pressure":820.8,"uv_index":9.9,"wind_gusts":32.4,"aqi":176,"pm10":13.3,"pm2_5":6.6,"mosquito_risk":3,"arthritis_risk":5,"migraine_risk":7,"frizz_risk":0,"updated_at":"2026-04-10T18:48:42.839018+05:30"},{"city":"Gurgaon","state":"Haryana","latitude":28.4595,"longitude":77.0266,"temp":26.8,"humidity":41,"rain":0.0,"pressure":984.6,"uv_index":7.25,"wind_gusts":35.6,"aqi":1564,"pm10":3211.2,"pm2_5":349.2,"mosquito_risk":4,"arthritis_risk":5,"migraine_risk":7,"frizz_risk":0,"updated_at":"2026-04-10T18:48:42.839026+05:30"},{"city":"Noida","state":"Uttar Pradesh","latitude":28.5355,"longitude":77.391,"temp":28.3,"humidity":33,"rain":0.0,"pressure":987.4,"uv_index":7.15,"wind_gusts":37.8,"aqi":1564,"pm10":3211.2,"pm2_5":349.2,"mosquito_risk":4,"arthritis_risk":5,"migraine_risk":7,"frizz_risk":0,"updated_at":"2026-04-10T18:48:42.839033+05:30"},{"city":"Ghaziabad","state":"Uttar Pradesh","latitude":28.6692,"longitude":77.4538,"temp":27.5,"humidity":36,"rain":0.0,"pressure":985.5,"uv_index":7.15,"wind_gusts":37.8,"aqi":320,"pm10":1173.5,"pm2_5":157.9,"mosquito_risk":4,"arthritis_risk":5,"migraine_risk":7,"frizz_risk":0,"updated_at":"2026-04-10T18:48:42.839040+05:30"},{"city":"Faridabad","state":"Haryana","latitude":28.4089,"longitude":77.3178,"temp":27.9,"humidity":34,"rain":0.0,"pressure":986.8,"uv_index":7.2,"wind_gusts":36.4,"aqi":1564,"pm10":3211.2,"pm2_5":349.2,"mosquito_risk":4,"arthritis_risk":5,"migraine_risk":7,"frizz_risk":0,"updated_at":"2026-04-10T18:48:42.839046+05:30"},{"city":"Meerut","state":"Uttar Pradesh","latitude":28.9845,"longitude":77.7064,"temp":26.3,"humidity":38,"rain":0.0,"pressure":983.9,"uv_index":7.05,"wind_gusts":42.5,"aqi":320,"pm10":1173.5,"pm2_5":157.9,"mosquito_risk":4,"arthritis_risk":5,"migraine_risk":7,"frizz_risk":0,"updated_at":"2026-04-10T18:48:42.839053+05:30"},{"city":"Agra","state":"Uttar Pradesh","latitude":27.1767,"longitude":78.0081,"temp":27.7,"humidity":35,"rain":0.0,"pressure":991.0,"uv_index":7.5,"wind_gusts":36.0,"aqi":847,"pm10":1687.6,"pm2_5":176.0,"mosquito_risk":4,"arthritis_risk":5,"migraine_risk":7,"frizz_risk":0,"updated_at":"2026-04-10T18:48:42.839060+05:30"},{"city":"Varanasi","state":"Uttar Pradesh","latitude":25.3176,"longitude":82.9739,"temp":28.4,"humidity":32,"rain":0.0,"pressure":999.6,"uv_index":8.2,"wind_gusts":39.2,"aqi":158,"pm10":63.6,"pm2_5":23.7,"mosquito_risk":4,"arthritis_risk":5,"migraine_risk":7,"frizz_risk":0,"updated_at":"2026-04-10T18:48:42.839070+05:30"},{"city":"Prayagraj","state":"Uttar Pradesh","latitude":25.4358,"longitude":81.8463,"temp":29.0,"humidity":34,"rain":0.0,"pressure":998.4,"uv_index":8.05,"wind_gusts":31.7,"aqi":152,"pm10":92.2,"pm2_5":27.5,"mosquito_risk":4,"arthritis_risk":5,"migraine_risk":7,"frizz_risk":0,"updated_at":"2026-04-10T18:48:42.839080+05:30"},{"city":"Gorakhpur","state":"Uttar Pradesh","latitude":26.7606,"longitude":83.3732,"temp":28.8,"humidity":20,"rain":0.0,"pressure":998.2,"uv_index":8.05,"wind_gusts":43.2,"aqi":136,"pm10":42.3,"pm2_5":16.2,"mosquito_risk":4,"arthritis_risk":5,"migraine_risk":7,"frizz_risk":0,"updated_at":"2026-04-10T18:48:42.839087+05:30"},{"city":"Bareilly","state":"Uttar Pradesh","latitude":28.367,"longitude":79.4304,"temp":25.7,"humidity":43,"rain":0.0,"pressure":988.7,"uv_index":7.4,"wind_gusts":38.2,"aqi":130,"pm10":172.3,"pm2_5":43.0,"mosquito_risk":4,"arthritis_risk":5,"migraine_risk":7,"frizz_risk":0,"updated_at":"2026-04-10T18:48:42.839094+05:30"},{"city":"Aligarh","state":"Uttar Pradesh","latitude":27.8974,"longitude":78.088,"temp":27.1,"humidity":35,"rain":0.0,"pressure":988.3,"uv_index":7.3,"wind_gusts":38.9,"aqi":750,"pm10":2071.3,"pm2_5":252.4,"mosquito_risk":4,"arthritis_risk":5,"migraine_risk":7,"frizz_risk":0,"updated_at":"2026-04-10T18:48:42.839100+05:30"},{"city":"Moradabad","state":"Uttar Pradesh","latitude":28.8386,"longitude":78.7733,"temp":25.4,"humidity":43,"rain":0.0,"pressure":985.6,"uv_index":7.25,"wind_gusts":38.2,"aqi":116,"pm10":367.9,"pm2_5":71.0,"mosquito_risk":4,"arthritis_risk":5,"migraine_risk":7,"frizz_risk":0,"updated_at":"2026-04-10T18:48:42.839106+05:30"},{"city":"Saharanpur","state":"Uttar Pradesh","latitude":29.9637,"longitude":77.546,"temp":26.0,"humidity":34,"rain":0.0,"pressure":977.8,"uv_index":6.85,"wind_gusts":50.4,"aqi":126,"pm10":205.4,"pm2_5":37.1,"mosquito_risk":4,"arthritis_risk":5,"migraine_risk":7,"frizz_risk":0,"updated_at":"2026-04-10T18:48:42.839113+05:30"},{"city":"Jhansi","state":"Uttar Pradesh","latitude":25.4484,"longitude":78.5685,"temp":29.7,"humidity":24,"rain":0.0,"pressure":981.9,"uv_index":8.0,"wind_gusts":33.5,"aqi":139,"pm10":22.4,"pm2_5":12.0,"mosquito_risk":4,"arthritis_risk":5,"migraine_risk":7,"frizz_risk":0,"updated_at":"2026-04-10T18:48:46.055635+05:30"},{"city":"Surat","state":"Gujarat","latitude":21.1702,"longitude":72.8311,"temp":31.9,"humidity":53,"rain":0.0,"pressure":1008.0,"uv_index":7.75,"wind_gusts":19.4,"aqi":137,"pm10":67.3,"pm2_5":51.8,"mosquito_risk":0,"arthritis_risk":0,"migraine_risk":4,"frizz_risk":1,"updated_at":"2026-04-10T18:48:46.055668+05:30"},{"city":"Vadodara","state":"Gujarat","latitude":22.3072,"longitude":73.1812,"temp":35.1,"humidity":22,"rain":0.0,"pressure":1006.1,"uv_index":8.0,"wind_gusts":31.7,"aqi":131,"pm10":32.7,"pm2_5":17.6,"mosquito_risk":0,"arthritis_risk":5,"migraine_risk":7,"frizz_risk":0,"updated_at":"2026-04-10T18:48:46.055678+05:30"},{"city":"Rajkot","state":"Gujarat","latitude":22.3039,"longitude":70.8022,"temp":36.1,"humidity":20,"rain":0.0,"pressure":996.3,"uv_index":7.7,"wind_gusts":25.9,"aqi":146,"pm10":36.3,"pm2_5":16.8,"mosquito_risk":0,"arthritis_risk":5,"migraine_risk":10,"frizz_risk":0,"updated_at":"2026-04-10T18:48:46.055686+05:30"},{"city":"Thane","state":"Maharashtra","latitude":19.2183,"longitude":72.9781,"temp":28.9,"humidity":67,"rain":0.0,"pressure":1008.6,"uv_index":7.95,"wind_gusts":37.8,"aqi":96,"pm10":66.1,"pm2_5":34.3,"mosquito_risk":7,"arthritis_risk":0,"migraine_risk":4,"frizz_risk":1,"updated_at":"2026-04-10T18:48:46.055693+05:30"},{"city":"Nagpur","state":"Maharashtra","latitude":21.1458,"longitude":79.0882,"temp":31.3,"humidity":47,"rain":0.0,"pressure":974.5,"uv_index":8.75,"wind_gusts":24.1,"aqi":160,"pm10":55.2,"pm2_5":26.1,"mosquito_risk":0,"arthritis_risk":5,"migraine_risk":7,"frizz_risk":1,"updated_at":"2026-04-10T18:48:46.055701+05:30"},{"city":"Nashik","state":"Maharashtra","latitude":19.9975,"longitude":73.7898,"temp":32.6,"humidity":29,"rain":0.0,"pressure":947.2,"uv_index":8.2,"wind_gusts":28.1,"aqi":156,"pm10":35.5,"pm2_5":24.0,"mosquito_risk":0,"arthritis_risk":5,"migraine_risk":7,"frizz_risk":0,"updated_at":"2026-04-10T18:48:46.055708+05:30"},{"city":"Aurangabad","state":"Maharashtra","latitude":19.8762,"longitude":75.3433,"temp":34.4,"humidity":24,"rain":0.0,"pressure":945.5,"uv_index":8.85,"wind_gusts":28.4,"aqi":143,"pm10":31.7,"pm2_5":19.3,"mosquito_risk":0,"arthritis_risk":5,"migraine_risk":7,"frizz_risk":0,"updated_at":"2026-04-10T18:48:46.055715+05:30"},{"city":"Solapur","state":"Maharashtra","latitude":17.6599,"longitude":75.9064,"temp":36.6,"humidity":23,"rain":0.0,"pressure":957.4,"uv_index":9.0,"wind_gusts":23.4,"aqi":128,"pm10":40.7,"pm2_5":19.4,"mosquito_risk":0,"arthritis_risk":5,"migraine_risk":10,"frizz_risk":0,"updated_at":"2026-04-10T18:48:46.055722+05:30"},{"city":"Kolhapur","state":"Maharashtra","latitude":16.705,"longitude":74.2433,"temp":30.4,"humidity":53,"rain":0.0,"pressure":948.6,"uv_index":9.0,"wind_gusts":34.6,"aqi":103,"pm10":44.7,"pm2_5":27.4,"mosquito_risk":0,"arthritis_risk":5,"migraine_risk":7,"frizz_risk":1,"updated_at":"2026-04-10T18:48:46.055729+05:30"},{"city":"Goa","state":"Goa","latitude":15.2993,"longitude":74.124,"temp":29.0,"humidity":73,"rain":0.0,"pressure":998.2,"uv_index":9.0,"wind_gusts":37.1,"aqi":75,"pm10":99.4,"pm2_5":36.3,"mosquito_risk":7,"arthritis_risk":5,"migraine_risk":7,"frizz_risk":1,"updated_at":"2026-04-10T18:48:46.055737+05:30"},{"city":"Jodhpur","state":"Rajasthan","latitude":26.2389,"longitude":73.0243,"temp":31.8,"humidity":24,"rain":0.0,"pressure":986.9,"uv_index":8.0,"wind_gusts":22.7,"aqi":116,"pm10":68.5,"pm2_5":15.7,"mosquito_risk":0,"arthritis_risk":5,"migraine_risk":7,"frizz_risk":0,"updated_at":"2026-04-10T18:48:46.055744+05:30"},{"city":"Udaipur","state":"Rajasthan","latitude":24.5854,"longitude":73.7125,"temp":30.4,"humidity":19,"rain":0.0,"pressure":950.7,"uv_index":8.55,"wind_gusts":29.9,"aqi":115,"pm10":26.8,"pm2_5":9.3,"mosquito_risk":0,"arthritis_risk":5,"migraine_risk":7,"frizz_risk":0,"updated_at":"2026-04-10T18:48:46.055750+05:30"},{"city":"Kota","state":"Rajasthan","latitude":25.2138,"longitude":75.8648,"temp":29.9,"humidity":35,"rain":0.0,"pressure":983.2,"uv_index":8.0,"wind_gusts":23.8,"aqi":121,"pm10":49.6,"pm2_5":19.5,"mosquito_risk":4,"arthritis_risk":5,"migraine_risk":7,"frizz_risk":0,"updated_at":"2026-04-10T18:48:46.055757+05:30"},{"city":"Bikaner","state":"Rajasthan","latitude":28.0229,"longitude":73.3119,"temp":32.8,"humidity":20,"rain":0.0,"pressure":985.9,"uv_index":7.8,"wind_gusts":19.8,"aqi":134,"pm10":57.7,"pm2_5":14.5,"mosquito_risk":0,"arthritis_risk":5,"migraine_risk":7,"frizz_risk":0,"updated_at":"2026-04-10T18:48:46.055764+05:30"},{"city":"Ajmer","state":"Rajasthan","latitude":26.4499,"longitude":74.6399,"temp":29.8,"humidity":28,"rain":0.0,"pressure":958.8,"uv_index":7.95,"wind_gusts":20.2,"aqi":111,"pm10":41.2,"pm2_5":13.4,"mosquito_risk":4,"arthritis_risk":5,"migraine_risk":7,"frizz_risk":0,"updated_at":"2026-04-10T18:48:46.055770+05:30"},{"city":"Gwalior","state":"Madhya Pradesh","latitude":26.2183,"longitude":78.1828,"temp":28.4,"humidity":34,"rain":0.0,"pressure":987.0,"uv_index":7.75,"wind_gusts":33.1,"aqi":129,"pm10":37.3,"pm2_5":12.9,"mosquito_risk":4,"arthritis_risk":5,"migraine_risk":7,"frizz_risk":0,"updated_at":"2026-04-10T18:48:46.055777+05:30"},{"city":"Indore","state":"Madhya Pradesh","latitude":22.7196,"longitude":75.8577,"temp":30.3,"humidity":28,"rain":0.0,"pressure":951.1,"uv_index":8.45,"wind_gusts":31.0,"aqi":138,"pm10":21.9,"pm2_5":11.1,"mosquito_risk":0,"arthritis_risk":5,"migraine_risk":7,"frizz_risk":0,"updated_at":"2026-04-10T18:48:46.055784+05:30"},{"city":"Bhopal","state":"Madhya Pradesh","latitude":23.2599,"longitude":77.4126,"temp":31.8,"humidity":16,"rain":0.0,"pressure":956.8,"uv_index":8.45,"wind_gusts":30.2,"aqi":128,"pm10":18.7,"pm2_5":8.2,"mosquito_risk":0,"arthritis_risk":5,"migraine_risk":7,"frizz_risk":0,"updated_at":"2026-04-10T18:48:46.055792+05:30"},{"city":"Jabalpur","state":"Madhya Pradesh","latitude":23.1815,"longitude":79.9864,"temp":31.0,"humidity":28,"rain":0.0,"pressure":964.0,"uv_index":8.55,"wind_gusts":24.5,"aqi":129,"pm10":54.8,"pm2_5":20.0,"mosquito_risk":0,"arthritis_risk":5,"migraine_risk":7,"frizz_risk":0,"updated_at":"2026-04-10T18:48:46.055798+05:30"},{"city":"Ujjain","state":"Madhya Pradesh","latitude":23.1765,"longitude":75.7885,"temp":31.0,"humidity":26,"rain":0.0,"pressure":957.1,"uv_index":8.35,"wind_gusts":29.5,"aqi":132,"pm10":28.8,"pm2_5":13.3,"mosquito_risk":0,"arthritis_risk":5,"migraine_risk":7,"frizz_risk":0,"updated_at":"2026-04-10T18:48:46.055805+05:30"},{"city":"Visakhapatnam","state":"Andhra Pradesh","latitude":17.6868,"longitude":83.2185,"temp":28.8,"humidity":81,"rain":0.0,"pressure":1005.4,"uv_index":9.1,"wind_gusts":37.1,"aqi":98,"pm10":30.5,"pm2_5":23.8,"mosquito_risk":7,"arthritis_risk":5,"migraine_risk":4,"frizz_risk":1,"updated_at":"2026-04-10T18:48:46.055811+05:30"},{"city":"Vijayawada","state":"Andhra Pradesh","latitude":16.5062,"longitude":80.648,"temp":32.7,"humidity":60,"rain":0.0,"pressure":1003.1,"uv_index":9.2,"wind_gusts":35.6,"aqi":89,"pm10":30.2,"pm2_5":26.4,"mosquito_risk":0,"arthritis_risk":5,"migraine_risk":4,"frizz_risk":1,"updated_at":"2026-04-10T18:48:46.055818+05:30"},{"city":"Guntur","state":"Andhra Pradesh","latitude":16.3067,"longitude":80.4365,"temp":30.6,"humidity":69,"rain":0.0,"pressure":1004.5,"uv_index":9.2,"wind_gusts":33.8,"aqi":97,"pm10":37.7,"pm2_5":30.0,"mosquito_risk":3,"arthritis_risk":5,"migraine_risk":4,"frizz_risk":1,"updated_at":"2026-04-10T18:48:46.055825+05:30"},{"city":"Nellore","state":"Andhra Pradesh","latitude":14.4426,"longitude":79.9865,"temp":30.0,"humidity":74,"rain":0.0,"pressure":1006.9,"uv_index":9.3,"wind_gusts":34.9,"aqi":105,"pm10":25.3,"pm2_5":20.1,"mosquito_risk":7,"arthritis_risk":5,"migraine_risk":4,"frizz_risk":1,"updated_at":"2026-04-10T18:48:46.055832+05:30"},{"city":"Kurnool","state":"Andhra Pradesh","latitude":15.8281,"longitude":78.0373,"temp":37.6,"humidity":30,"rain":0.0,"pressure":976.3,"uv_index":9.15,"wind_gusts":25.2,"aqi":129,"pm10":41.8,"pm2_5":26.3,"mosquito_risk":0,"arthritis_risk":5,"migraine_risk":10,"frizz_risk":1,"updated_at":"2026-04-10T18:48:46.055860+05:30"},{"city":"Kakinada","state":"Andhra Pradesh","latitude":16.9891,"longitude":82.2475,"temp":30.2,"humidity":72,"rain":0.0,"pressure":1008.4,"uv_index":9.15,"wind_gusts":37.1,"aqi":75,"pm10":23.7,"pm2_5":16.8,"mosquito_risk":3,"arthritis_risk":0,"migraine_risk":4,"frizz_risk":1,"updated_at":"2026-04-10T18:48:46.055869+05:30"},{"city":"Tirupati","state":"Andhra Pradesh","latitude":13.6288,"longitude":79.4192,"temp":32.4,"humidity":52,"rain":0.0,"pressure":992.4,"uv_index":9.05,"wind_gusts":30.6,"aqi":140,"pm10":37.1,"pm2_5":32.9,"mosquito_risk":0,"arthritis_risk":5,"migraine_risk":7,"frizz_risk":1,"updated_at":"2026-04-10T18:48:46.055876+05:30"},{"city":"Warangal","state":"Telangana","latitude":17.9689,"longitude":79.5941,"temp":35.2,"humidity":35,"rain":0.0,"pressure":979.0,"uv_index":9.0,"wind_gusts":23.4,"aqi":144,"pm10":58.4,"pm2_5":34.8,"mosquito_risk":0,"arthritis_risk":5,"migraine_risk":10,"frizz_risk":1,"updated_at":"2026-04-10T18:48:46.055883+05:30"},{"city":"Nizamabad","state":"Telangana","latitude":18.6725,"longitude":78.0941,"temp":33.4,"humidity":35,"rain":0.0,"pressure":965.8,"uv_index":8.95,"wind_gusts":29.5,"aqi":143,"pm10":42.4,"pm2_5":25.5,"mosquito_risk":0,"arthritis_risk":5,"migraine_risk":7,"frizz_risk":0,"updated_at":"2026-04-10T18:48:46.055890+05:30"},{"city":"Mysore","state":"Karnataka","latitude":12.2958,"longitude":76.6396,"temp":33.0,"humidity":35,"rain":0.0,"pressure":928.9,"uv_index":9.55,"wind_gusts":37.4,"aqi":156,"pm10":49.6,"pm2_5":37.0,"mosquito_risk":0,"arthritis_risk":5,"migraine_risk":7,"frizz_risk":0,"updated_at":"2026-04-10T18:48:46.055896+05:30"},{"city":"Mangalore","state":"Karnataka","latitude":12.9141,"longitude":74.856,"temp":29.4,"humidity":80,"rain":0.0,"pressure":1006.6,"uv_index":9.15,"wind_gusts":32.4,"aqi":66,"pm10":70.1,"pm2_5":23.1,"mosquito_risk":7,"arthritis_risk":5,"migraine_risk":4,"frizz_risk":1,"updated_at":"2026-04-10T18:48:46.055903+05:30"},{"city":"Hubli-Dharwad","state":"Karnataka","latitude":15.3647,"longitude":75.124,"temp":34.5,"humidity":28,"rain":0.0,"pressure":941.0,"uv_index":9.2,"wind_gusts":36.0,"aqi":127,"pm10":48.0,"pm2_5":23.8,"mosquito_risk":0,"arthritis_risk":5,"migraine_risk":7,"frizz_risk":0,"updated_at":"2026-04-10T18:48:46.055910+05:30"},{"city":"Belgaum","state":"Karnataka","latitude":15.8497,"longitude":74.4977,"temp":29.5,"humidity":58,"rain":0.0,"pressure":926.6,"uv_index":9.25,"wind_gusts":35.3,"aqi":124,"pm10":50.9,"pm2_5":26.4,"mosquito_risk":4,"arthritis_risk":5,"migraine_risk":7,"frizz_risk":1,"updated_at":"2026-04-10T18:48:49.273217+05:30"},{"city":"Coimbatore","state":"Tamil Nadu","latitude":11.0168,"longitude":76.9558,"temp":29.4,"humidity":70,"rain":0.0,"pressure":962.1,"uv_index":9.5,"wind_gusts":36.7,"aqi":145,"pm10":29.4,"pm2_5":23.1,"mosquito_risk":7,"arthritis_risk":5,"migraine_risk":7,"frizz_risk":1,"updated_at":"2026-04-10T18:48:49.273249+05:30"},{"city":"Madurai","state":"Tamil Nadu","latitude":9.9252,"longitude":78.1198,"temp":33.1,"humidity":51,"rain":0.0,"pressure":993.3,"uv_index":9.4,"wind_gusts":41.0,"aqi":134,"pm10":23.9,"pm2_5":21.1,"mosquito_risk":0,"arthritis_risk":5,"migraine_risk":7,"frizz_risk":1,"updated_at":"2026-04-10T18:48:49.273259+05:30"},{"city":"Trichy","state":"Tamil Nadu","latitude":10.7905,"longitude":78.7047,"temp":33.5,"humidity":52,"rain":0.0,"pressure":999.8,"uv_index":9.4,"wind_gusts":31.7,"aqi":110,"pm10":22.5,"pm2_5":19.5,"mosquito_risk":0,"arthritis_risk":5,"migraine_risk":7,"frizz_risk":1,"updated_at":"2026-04-10T18:48:49.273266+05:30"},{"city":"Salem","state":"Tamil Nadu","latitude":11.6643,"longitude":78.146,"temp":33.9,"humidity":50,"rain":0.0,"pressure":977.4,"uv_index":9.3,"wind_gusts":24.1,"aqi":162,"pm10":35.5,"pm2_5":31.5,"mosquito_risk":0,"arthritis_risk":5,"migraine_risk":7,"frizz_risk":1,"updated_at":"2026-04-10T18:48:49.273273+05:30"},{"city":"Tirunelveli","state":"Tamil Nadu","latitude":8.7139,"longitude":77.7567,"temp":31.3,"humidity":63,"rain":0.0,"pressure":1003.9,"uv_index":9.35,"wind_gusts":38.2,"aqi":143,"pm10":26.2,"pm2_5":22.8,"mosquito_risk":3,"arthritis_risk":5,"migraine_risk":4,"frizz_risk":1,"updated_at":"2026-04-10T18:48:49.273280+05:30"},{"city":"Vellore","state":"Tamil Nadu","latitude":12.9165,"longitude":79.1325,"temp":32.1,"humidity":51,"rain":0.0,"pressure":985.4,"uv_index":9.45,"wind_gusts":35.3,"aqi":139,"pm10":34.0,"pm2_5":31.1,"mosquito_risk":0,"arthritis_risk":5,"migraine_risk":7,"frizz_risk":1,"updated_at":"2026-04-10T18:48:49.273288+05:30"},{"city":"Erode","state":"Tamil Nadu","latitude":11.341,"longitude":77.7172,"temp":35.3,"humidity":42,"rain":0.0,"pressure":988.7,"uv_index":9.45,"wind_gusts":34.9,"aqi":152,"pm10":33.6,"pm2_5":29.0,"mosquito_risk":0,"arthritis_risk":5,"migraine_risk":10,"frizz_risk":1,"updated_at":"2026-04-10T18:48:49.273295+05:30"},{"city":"Kochi","state":"Kerala","latitude":9.9312,"longitude":76.2673,"temp":29.8,"humidity":80,"rain":0.0,"pressure":1008.9,"uv_index":9.25,"wind_gusts":31.7,"aqi":87,"pm10":43.1,"pm2_5":23.7,"mosquito_risk":7,"arthritis_risk":0,"migraine_risk":4,"frizz_risk":1,"updated_at":"2026-04-10T18:48:49.273302+05:30"},{"city":"Thiruvananthapuram","state":"Kerala","latitude":8.5241,"longitude":76.9366,"temp":27.8,"humidity":85,"rain":0.0,"pressure":1009.2,"uv_index":9.2,"wind_gusts":28.1,"aqi":73,"pm10":38.9,"pm2_5":19.3,"mosquito_risk":7,"arthritis_risk":0,"migraine_risk":4,"frizz_risk":1,"updated_at":"2026-04-10T18:48:49.273310+05:30"},{"city":"Kozhikode","state":"Kerala","latitude":11.2588,"longitude":75.7804,"temp":30.0,"humidity":78,"rain":0.0,"pressure":1007.9,"uv_index":9.15,"wind_gusts":30.2,"aqi":68,"pm10":51.9,"pm2_5":16.4,"mosquito_risk":7,"arthritis_risk":5,"migraine_risk":4,"frizz_risk":1,"updated_at":"2026-04-10T18:48:49.273318+05:30"},{"city":"Thrissur","state":"Kerala","latitude":10.5276,"longitude":76.2144,"temp":30.1,"humidity":77,"rain":0.0,"pressure":1007.2,"uv_index":9.2,"wind_gusts":36.0,"aqi":97,"pm10":39.0,"pm2_5":20.0,"mosquito_risk":3,"arthritis_risk":5,"migraine_risk":4,"frizz_risk":1,"updated_at":"2026-04-10T18:48:49.273325+05:30"},{"city":"Kannur","state":"Kerala","latitude":11.8745,"longitude":75.3704,"temp":29.8,"humidity":76,"rain":0.0,"pressure":1007.2,"uv_index":9.15,"wind_gusts":36.4,"aqi":68,"pm10":59.0,"pm2_5":18.8,"mosquito_risk":7,"arthritis_risk":5,"migraine_risk":4,"frizz_risk":1,"updated_at":"2026-04-10T18:48:49.273333+05:30"},{"city":"Patna","state":"Bihar","latitude":25.5941,"longitude":85.1376,"temp":29.3,"humidity":29,"rain":0.0,"pressure":1001.4,"uv_index":8.35,"wind_gusts":38.9,"aqi":138,"pm10":45.1,"pm2_5":20.6,"mosquito_risk":4,"arthritis_risk":5,"migraine_risk":4,"frizz_risk":0,"updated_at":"2026-04-10T18:48:49.273340+05:30"},{"city":"Gaya","state":"Bihar","latitude":24.7914,"longitude":85.0002,"temp":27.8,"humidity":35,"rain":0.0,"pressure":995.4,"uv_index":8.45,"wind_gusts":37.8,"aqi":150,"pm10":43.8,"pm2_5":20.8,"mosquito_risk":4,"arthritis_risk":5,"migraine_risk":7,"frizz_risk":0,"updated_at":"2026-04-10T18:48:49.273347+05:30"},{"city":"Muzaffarpur","state":"Bihar","latitude":26.1209,"longitude":85.3647,"temp":28.1,"humidity":33,"rain":0.0,"pressure":1001.0,"uv_index":8.35,"wind_gusts":36.0,"aqi":134,"pm10":39.6,"pm2_5":19.2,"mosquito_risk":4,"arthritis_risk":5,"migraine_risk":4,"frizz_risk":0,"updated_at":"2026-04-10T18:48:49.273354+05:30"},{"city":"Bhagalpur","state":"Bihar","latitude":25.2425,"longitude":87.0117,"temp":27.1,"humidity":46,"rain":0.0,"pressure":1002.1,"uv_index":8.35,"wind_gusts":34.2,"aqi":150,"pm10":30.6,"pm2_5":18.1,"mosquito_risk":4,"arthritis_risk":5,"migraine_risk":4,"frizz_risk":0,"updated_at":"2026-04-10T18:48:49.273360+05:30"},{"city":"Ranchi","state":"Jharkhand","latitude":23.3441,"longitude":85.3096,"temp":27.4,"humidity":28,"rain":0.0,"pressure":939.8,"uv_index":9.0,"wind_gusts":37.4,"aqi":125,"pm10":39.2,"pm2_5":18.1,"mosquito_risk":4,"arthritis_risk":5,"migraine_risk":7,"frizz_risk":0,"updated_at":"2026-04-10T18:48:49.273366+05:30"},{"city":"Jamshedpur","state":"Jharkhand","latitude":22.8046,"longitude":86.2029,"temp":28.4,"humidity":52,"rain":0.0,"pressure":992.1,"uv_index":8.85,"wind_gusts":16.9,"aqi":149,"pm10":63.8,"pm2_5":27.4,"mosquito_risk":4,"arthritis_risk":5,"migraine_risk":7,"frizz_risk":1,"updated_at":"2026-04-10T18:48:49.273373+05:30"},{"city":"Dhanbad","state":"Jharkhand","latitude":23.7957,"longitude":86.4304,"temp":28.6,"humidity":32,"rain":0.0,"pressure":981.2,"uv_index":8.75,"wind_gusts":31.0,"aqi":150,"pm10":51.3,"pm2_5":30.5,"mosquito_risk":4,"arthritis_risk":5,"migraine_risk":7,"frizz_risk":0,"updated_at":"2026-04-10T18:48:49.273381+05:30"},{"city":"Bokaro","state":"Jharkhand","latitude":23.6693,"longitude":86.1511,"temp":28.2,"humidity":30,"rain":0.0,"pressure":985.3,"uv_index":8.8,"wind_gusts":32.8,"aqi":138,"pm10":52.5,"pm2_5":28.5,"mosquito_risk":4,"arthritis_risk":5,"migraine_risk":7,"frizz_risk":0,"updated_at":"2026-04-10T18:48:49.273387+05:30"},{"city":"Bhubaneswar","state":"Odisha","latitude":20.2961,"longitude":85.8245,"temp":29.0,"humidity":79,"rain":0.0,"pressure":1004.4,"uv_index":9.0,"wind_gusts":24.5,"aqi":154,"pm10":61.0,"pm2_5":46.2,"mosquito_risk":7,"arthritis_risk":5,"migraine_risk":4,"frizz_risk":1,"updated_at":"2026-04-10T18:48:49.273394+05:30"},{"city":"Cuttack","state":"Odisha","latitude":20.4625,"longitude":85.8828,"temp":31.2,"humidity":61,"rain":0.0,"pressure":1005.7,"uv_index":9.0,"wind_gusts":22.7,"aqi":154,"pm10":61.0,"pm2_5":46.2,"mosquito_risk":3,"arthritis_risk":5,"migraine_risk":4,"frizz_risk":1,"updated_at":"2026-04-10T18:48:49.273400+05:30"},{"city":"Rourkela","state":"Odisha","latitude":22.2604,"longitude":84.8536,"temp":29.4,"humidity":45,"rain":0.0,"pressure":986.4,"uv_index":8.75,"wind_gusts":20.2,"aqi":122,"pm10":58.4,"pm2_5":27.4,"mosquito_risk":4,"arthritis_risk":5,"migraine_risk":7,"frizz_risk":1,"updated_at":"2026-04-10T18:48:49.273407+05:30"},{"city":"Raipur","state":"Chhattisgarh","latitude":21.2514,"longitude":81.6296,"temp":34.2,"humidity":28,"rain":0.0,"pressure":975.7,"uv_index":8.8,"wind_gusts":24.1,"aqi":174,"pm10":83.8,"pm2_5":48.9,"mosquito_risk":0,"arthritis_risk":5,"migraine_risk":7,"frizz_risk":0,"updated_at":"2026-04-10T18:48:49.273413+05:30"},{"city":"Bhilai","state":"Chhattisgarh","latitude":21.1938,"longitude":81.3509,"temp":33.7,"humidity":30,"rain":0.0,"pressure":975.8,"uv_index":8.8,"wind_gusts":22.3,"aqi":172,"pm10":80.3,"pm2_5":46.9,"mosquito_risk":0,"arthritis_risk":5,"migraine_risk":7,"frizz_risk":0,"updated_at":"2026-04-10T18:48:49.273420+05:30"},{"city":"Guwahati","state":"Assam","latitude":26.1158,"longitude":91.7086,"temp":24.0,"humidity":78,"rain":0.0,"pressure":1002.9,"uv_index":8.2,"wind_gusts":32.4,"aqi":114,"pm10":40.6,"pm2_5":33.6,"mosquito_risk":3,"arthritis_risk":5,"migraine_risk":4,"frizz_risk":1,"updated_at":"2026-04-10T18:48:49.273428+05:30"},{"city":"Agartala","state":"Tripura","latitude":23.8315,"longitude":91.2868,"temp":25.6,"humidity":75,"rain":0.0,"pressure":1007.1,"uv_index":8.55,"wind_gusts":28.8,"aqi":174,"pm10":63.3,"pm2_5":48.7,"mosquito_risk":7,"arthritis_risk":5,"migraine_risk":4,"frizz_risk":1,"updated_at":"2026-04-10T18:48:49.273435+05:30"},{"city":"Shillong","state":"Meghalaya","latitude":25.5788,"longitude":91.8933,"temp":12.1,"humidity":83,"rain":0.0,"pressure":854.7,"uv_index":7.05,"wind_gusts":50.4,"aqi":114,"pm10":34.0,"pm2_5":27.0,"mosquito_risk":3,"arthritis_risk":10,"migraine_risk":7,"frizz_risk":0,"updated_at":"2026-04-10T18:48:49.273442+05:30"},{"city":"Imphal","state":"Manipur","latitude":24.817,"longitude":93.9368,"temp":16.1,"humidity":74,"rain":0.0,"pressure":923.1,"uv_index":8.9,"wind_gusts":57.6,"aqi":106,"pm10":37.0,"pm2_5":26.0,"mosquito_risk":3,"arthritis_risk":5,"migraine_risk":7,"frizz_risk":0,"updated_at":"2026-04-10T18:48:49.273449+05:30"},{"city":"Aizawl","state":"Mizoram","latitude":23.7271,"longitude":92.7176,"temp":18.3,"humidity":73,"rain":0.0,"pressure":893.1,"uv_index":8.8,"wind_gusts":58.0,"aqi":88,"pm10":49.8,"pm2_5":26.2,"mosquito_risk":3,"arthritis_risk":5,"migraine_risk":7,"frizz_risk":0,"updated_at":"2026-04-10T18:48:49.273455+05:30"},{"city":"Kohima","state":"Nagaland","latitude":25.6701,"longitude":94.1077,"temp":12.9,"humidity":90,"rain":0.0,"pressure":853.8,"uv_index":8.4,"wind_gusts":72.0,"aqi":96,"pm10":29.2,"pm2_5":21.5,"mosquito_risk":3,"arthritis_risk":10,"migraine_risk":7,"frizz_risk":0,"updated_at":"2026-04-10T18:48:49.273462+05:30"},{"city":"Gangtok","state":"Sikkim","latitude":27.3314,"longitude":88.6138,"temp":13.3,"humidity":89,"rain":0.1,"pressure":836.0,"uv_index":8.5,"wind_gusts":15.1,"aqi":103,"pm10":39.2,"pm2_5":28.9,"mosquito_risk":6,"arthritis_risk":10,"migraine_risk":7,"frizz_risk":0,"updated_at":"2026-04-10T18:48:49.273470+05:30"},{"city":"Siliguri","state":"West Bengal","latitude":26.7271,"longitude":88.3953,"temp":21.3,"humidity":63,"rain":0.0,"pressure":994.7,"uv_index":8.2,"wind_gusts":26.6,"aqi":115,"pm10":49.0,"pm2_5":38.3,"mosquito_risk":3,"arthritis_risk":5,"migraine_risk":7,"frizz_risk":0,"updated_at":"2026-04-10T18:48:52.489475+05:30"},{"city":"Durgapur","state":"West Bengal","latitude":23.5204,"longitude":87.3119,"temp":27.7,"humidity":54,"rain":0.0,"pressure":996.4,"uv_index":8.7,"wind_gusts":20.9,"aqi":149,"pm10":47.6,"pm2_5":27.2,"mosquito_risk":4,"arthritis_risk":5,"migraine_risk":7,"frizz_risk":1,"updated_at":"2026-04-10T18:48:52.489505+05:30"},{"city":"Asansol","state":"West Bengal","latitude":23.6739,"longitude":86.9524,"temp":29.0,"humidity":41,"rain":0.0,"pressure":994.9,"uv_index":8.75,"wind_gusts":23.0,"aqi":136,"pm10":45.2,"pm2_5":24.4,"mosquito_risk":4,"arthritis_risk":5,"migraine_risk":7,"frizz_risk":0,"updated_at":"2026-04-10T18:48:52.489515+05:30"},{"city":"Pondicherry","state":"Puducherry","latitude":11.9139,"longitude":79.8145,"temp":29.9,"humidity":76,"rain":0.0,"pressure":1009.3,"uv_index":8.85,"wind_gusts":33.8,"aqi":62,"pm10":20.7,"pm2_5":14.6,"mosquito_risk":7,"arthritis_risk":0,"migraine_risk":4,"frizz_risk":1,"updated_at":"2026-04-10T18:48:52.489523+05:30"},{"city":"Port Blair","state":"Andaman and Nicobar Islands","latitude":11.6234,"longitude":92.7265,"temp":29.0,"humidity":76,"rain":0.0,"pressure":1009.1,"uv_index":9.15,"wind_gusts":16.6,"aqi":39,"pm10":3.2,"pm2_5":2.6,"mosquito_risk":7,"arthritis_risk":0,"migraine_risk":4,"frizz_risk":1,"updated_at":"2026-04-10T18:48:52.489531+05:30"},{"city":"Haridwar","state":"Uttarakhand","latitude":29.9457,"longitude":78.1642,"temp":25.4,"humidity":37,"rain":0.0,"pressure":975.7,"uv_index":6.95,"wind_gusts":45.4,"aqi":140,"pm10":86.6,"pm2_5":21.9,"mosquito_risk":4,"arthritis_risk":5,"migraine_risk":7,"frizz_risk":0,"updated_at":"2026-04-10T18:48:52.489538+05:30"},{"city":"Rishikesh","state":"Uttarakhand","latitude":30.0869,"longitude":78.2676,"temp":24.1,"humidity":44,"rain":0.0,"pressure":968.5,"uv_index":7.0,"wind_gusts":37.1,"aqi":149,"pm10":25.3,"pm2_5":12.4,"mosquito_risk":0,"arthritis_risk":5,"migraine_risk":7,"frizz_risk":0,"updated_at":"2026-04-10T18:48:52.489545+05:30"},{"city":"Nainital","state":"Uttarakhand","latitude":29.3919,"longitude":79.4542,"temp":17.9,"humidity":47,"rain":0.0,"pressure":806.8,"uv_index":7.9,"wind_gusts":57.2,"aqi":139,"pm10":53.1,"pm2_5":19.6,"mosquito_risk":0,"arthritis_risk":5,"migraine_risk":7,"frizz_risk":0,"updated_at":"2026-04-10T18:48:52.489551+05:30"},{"city":"Mussoorie","state":"Uttarakhand","latitude":30.4599,"longitude":78.0664,"temp":16.1,"humidity":55,"rain":0.0,"pressure":802.7,"uv_index":7.4,"wind_gusts":37.8,"aqi":145,"pm10":13.1,"pm2_5":11.3,"mosquito_risk":0,"arthritis_risk":5,"migraine_risk":7,"frizz_risk":0,"updated_at":"2026-04-10T18:48:52.489558+05:30"},{"city":"Dharamshala","state":"Himachal Pradesh","latitude":32.219,"longitude":76.3234,"temp":19.1,"humidity":53,"rain":0.0,"pressure":871.8,"uv_index":7.6,"wind_gusts":24.8,"aqi":153,"pm10":14.4,"pm2_5":9.6,"mosquito_risk":0,"arthritis_risk":5,"migraine_risk":7,"frizz_risk":0,"updated_at":"2026-04-10T18:48:52.489564+05:30"},{"city":"Dalhousie","state":"Himachal Pradesh","latitude":32.5387,"longitude":75.971,"temp":17.1,"humidity":48,"rain":0.0,"pressure":805.9,"uv_index":7.85,"wind_gusts":19.4,"aqi":133,"pm10":15.9,"pm2_5":12.3,"mosquito_risk":0,"arthritis_risk":5,"migraine_risk":7,"frizz_risk":0,"updated_at":"2026-04-10T18:48:52.489572+05:30"},{"city":"Patiala","state":"Punjab","latitude":30.3398,"longitude":76.3869,"temp":27.8,"humidity":30,"rain":0.0,"pressure":981.7,"uv_index":7.0,"wind_gusts":38.5,"aqi":633,"pm10":1102.7,"pm2_5":112.2,"mosquito_risk":4,"arthritis_risk":5,"migraine_risk":7,"frizz_risk":0,"updated_at":"2026-04-10T18:48:52.489579+05:30"},{"city":"Bhatinda","state":"Punjab","latitude":30.211,"longitude":74.9455,"temp":28.4,"humidity":32,"rain":0.0,"pressure":988.0,"uv_index":7.65,"wind_gusts":31.7,"aqi":142,"pm10":48.4,"pm2_5":16.6,"mosquito_risk":4,"arthritis_risk":5,"migraine_risk":7,"frizz_risk":0,"updated_at":"2026-04-10T18:48:52.489586+05:30"},{"city":"Rohtak","state":"Haryana","latitude":28.8955,"longitude":76.6066,"temp":28.2,"humidity":31,"rain":0.0,"pressure":985.1,"uv_index":7.15,"wind_gusts":38.5,"aqi":848,"pm10":1799.3,"pm2_5":203.0,"mosquito_risk":4,"arthritis_risk":5,"migraine_risk":7,"frizz_risk":0,"updated_at":"2026-04-10T18:48:52.489593+05:30"},{"city":"Panipat","state":"Haryana","latitude":29.3909,"longitude":76.9635,"temp":27.3,"humidity":32,"rain":0.0,"pressure":983.3,"uv_index":7.0,"wind_gusts":41.0,"aqi":1659,"pm10":2913.2,"pm2_5":304.5,"mosquito_risk":4,"arthritis_risk":5,"migraine_risk":7,"frizz_risk":0,"updated_at":"2026-04-10T18:48:52.489600+05:30"},{"city":"Mathura","state":"Uttar Pradesh","latitude":27.4924,"longitude":77.6737,"temp":28.4,"humidity":33,"rain":0.0,"pressure":990.1,"uv_index":7.45,"wind_gusts":34.2,"aqi":914,"pm10":1944.6,"pm2_5":207.7,"mosquito_risk":4,"arthritis_risk":5,"migraine_risk":7,"frizz_risk":0,"updated_at":"2026-04-10T18:48:52.489606+05:30"},{"city":"Vrindavan","state":"Uttar Pradesh","latitude":27.5823,"longitude":77.7027,"temp":27.2,"humidity":37,"rain":0.0,"pressure":990.3,"uv_index":7.4,"wind_gusts":37.4,"aqi":914,"pm10":1944.6,"pm2_5":207.7,"mosquito_risk":4,"arthritis_risk":5,"migraine_risk":7,"frizz_risk":0,"updated_at":"2026-04-10T18:48:52.489613+05:30"},{"city":"Ayodhya","state":"Uttar Pradesh","latitude":26.7922,"longitude":82.1998,"temp":28.5,"humidity":29,"rain":0.0,"pressure":996.9,"uv_index":7.8,"wind_gusts":49.7,"aqi":129,"pm10":146.7,"pm2_5":31.0,"mosquito_risk":4,"arthritis_risk":5,"migraine_risk":7,"frizz_risk":0,"updated_at":"2026-04-10T18:48:52.489619+05:30"},{"city":"Ratlam","state":"Madhya Pradesh","latitude":23.3315,"longitude":75.0367,"temp":30.2,"humidity":35,"rain":0.0,"pressure":957.9,"uv_index":8.3,"wind_gusts":32.4,"aqi":129,"pm10":25.9,"pm2_5":11.1,"mosquito_risk":0,"arthritis_risk":5,"migraine_risk":7,"frizz_risk":0,"updated_at":"2026-04-10T18:48:52.489626+05:30"},{"city":"Sagar","state":"Madhya Pradesh","latitude":23.8388,"longitude":78.7378,"temp":31.0,"humidity":18,"rain":0.0,"pressure":953.3,"uv_index":8.4,"wind_gusts":29.9,"aqi":126,"pm10":26.0,"pm2_5":9.6,"mosquito_risk":0,"arthritis_risk":5,"migraine_risk":7,"frizz_risk":0,"updated_at":"2026-04-10T18:48:52.489632+05:30"},{"city":"Satna","state":"Madhya Pradesh","latitude":24.6005,"longitude":80.8322,"temp":30.4,"humidity":22,"rain":0.0,"pressure":974.2,"uv_index":8.45,"wind_gusts":34.6,"aqi":132,"pm10":31.1,"pm2_5":13.7,"mosquito_risk":0,"arthritis_risk":5,"migraine_risk":7,"frizz_risk":0,"updated_at":"2026-04-10T18:48:52.489639+05:30"},{"city":"Akola","state":"Maharashtra","latitude":20.7002,"longitude":77.0082,"temp":36.2,"humidity":20,"rain":0.0,"pressure":975.9,"uv_index":8.7,"wind_gusts":24.5,"aqi":151,"pm10":56.6,"pm2_5":27.1,"mosquito_risk":0,"arthritis_risk":5,"migraine_risk":10,"frizz_risk":0,"updated_at":"2026-04-10T18:48:52.489647+05:30"},{"city":"Amravati","state":"Maharashtra","latitude":20.9374,"longitude":77.7796,"temp":34.2,"humidity":34,"rain":0.0,"pressure":968.3,"uv_index":8.7,"wind_gusts":28.4,"aqi":145,"pm10":54.0,"pm2_5":25.2,"mosquito_risk":0,"arthritis_risk":5,"migraine_risk":7,"frizz_risk":1,"updated_at":"2026-04-10T18:48:52.489654+05:30"},{"city":"Latur","state":"Maharashtra","latitude":18.4088,"longitude":76.5604,"temp":32.2,"humidity":39,"rain":0.0,"pressure":941.2,"uv_index":8.95,"wind_gusts":30.2,"aqi":133,"pm10":36.7,"pm2_5":22.6,"mosquito_risk":0,"arthritis_risk":5,"migraine_risk":7,"frizz_risk":1,"updated_at":"2026-04-10T18:48:52.489660+05:30"},{"city":"Nanded","state":"Maharashtra","latitude":19.1383,"longitude":77.3091,"temp":33.9,"humidity":33,"rain":0.0,"pressure":969.7,"uv_index":8.85,"wind_gusts":19.4,"aqi":136,"pm10":37.5,"pm2_5":21.4,"mosquito_risk":0,"arthritis_risk":5,"migraine_risk":7,"frizz_risk":0,"updated_at":"2026-04-10T18:48:52.489667+05:30"},{"city":"Gulbarga","state":"Karnataka","latitude":17.3297,"longitude":76.8343,"temp":36.4,"humidity":25,"rain":0.0,"pressure":959.2,"uv_index":9.05,"wind_gusts":26.3,"aqi":132,"pm10":38.1,"pm2_5":19.6,"mosquito_risk":0,"arthritis_risk":5,"migraine_risk":10,"frizz_risk":0,"updated_at":"2026-04-10T18:48:52.489673+05:30"},{"city":"Bidar","state":"Karnataka","latitude":17.9104,"longitude":77.5199,"temp":33.7,"humidity":29,"rain":0.0,"pressure":936.9,"uv_index":9.05,"wind_gusts":28.8,"aqi":133,"pm10":34.7,"pm2_5":20.9,"mosquito_risk":0,"arthritis_risk":5,"migraine_risk":7,"frizz_risk":0,"updated_at":"2026-04-10T18:48:52.489679+05:30"},{"city":"Hospet","state":"Karnataka","latitude":15.2689,"longitude":76.3909,"temp":36.5,"humidity":28,"rain":0.0,"pressure":955.7,"uv_index":9.25,"wind_gusts":23.4,"aqi":171,"pm10":38.3,"pm2_5":26.4,"mosquito_risk":0,"arthritis_risk":5,"migraine_risk":10,"frizz_risk":0,"updated_at":"2026-04-10T18:48:52.489685+05:30"},{"city":"Tirupur","state":"Tamil Nadu","latitude":11.1085,"longitude":77.3411,"temp":35.5,"humidity":34,"rain":0.0,"pressure":975.0,"uv_index":9.5,"wind_gusts":30.2,"aqi":166,"pm10":35.9,"pm2_5":29.3,"mosquito_risk":0,"arthritis_risk":5,"migraine_risk":10,"frizz_risk":1,"updated_at":"2026-04-10T18:48:52.489691+05:30"},{"city":"Alappuzha","state":"Kerala","latitude":9.4981,"longitude":76.3388,"temp":28.6,"humidity":80,"rain":0.0,"pressure":1009.2,"uv_index":9.2,"wind_gusts":26.6,"aqi":75,"pm10":45.5,"pm2_5":22.2,"mosquito_risk":7,"arthritis_risk":0,"migraine_risk":4,"frizz_risk":1,"updated_at":"2026-04-10T18:48:52.489698+05:30"},{"city":"Munnar","state":"Kerala","latitude":10.0889,"longitude":77.0595,"temp":25.1,"humidity":76,"rain":0.0,"pressure":858.7,"uv_index":8.1,"wind_gusts":31.3,"aqi":121,"pm10":34.3,"pm2_5":31.0,"mosquito_risk":7,"arthritis_risk":5,"migraine_risk":7,"frizz_risk":1,"updated_at":"2026-04-10T18:48:52.489704+05:30"},{"city":"Silchar","state":"Assam","latitude":24.8333,"longitude":92.7789,"temp":23.8,"humidity":73,"rain":0.0,"pressure":1006.3,"uv_index":8.55,"wind_gusts":25.9,"aqi":128,"pm10":63.3,"pm2_5":50.6,"mosquito_risk":3,"arthritis_risk":5,"migraine_risk":4,"frizz_risk":1,"updated_at":"2026-04-10T18:48:52.489711+05:30"},{"city":"Dibrugarh","state":"Assam","latitude":27.4728,"longitude":94.912,"temp":21.2,"humidity":86,"rain":0.0,"pressure":997.7,"uv_index":8.35,"wind_gusts":16.2,"aqi":97,"pm10":41.1,"pm2_5":34.3,"mosquito_risk":3,"arthritis_risk":5,"migraine_risk":7,"frizz_risk":1,"updated_at":"2026-04-10T18:48:52.489717+05:30"}]