[{"city":"Delhi","state":"Delhi","latitude":28.6139,"longitude":77.209,"temp":19.7,"humidity":71,"rain":0.0,"pressure":984.0,"uv_index":6.9,"wind_gusts":28.1,"aqi":179,"pm10":421.9,"pm2_5":94.3,"mosquito_risk":3,"arthritis_risk":5,"migraine_risk":7,"frizz_risk":0,"updated_at":"2026-04-06T05:07:46.838020+05:30"},{"city":"Mumbai","state":"Maharashtra","latitude":19.076,"longitude":72.8777,"temp":27.8,"humidity":62,"rain":0.0,"pressure":1010.2,"uv_index":7.95,"wind_gusts":23.4,"aqi":64,"pm10":27.0,"pm2_5":15.9,"mosquito_risk":7,"arthritis_risk":0,"migraine_risk":4,"frizz_risk":1,"updated_at":"2026-04-06T05:07:46.838063+05:30"},{"city":"Bangalore","state":"Karnataka","latitude":12.9716,"longitude":77.5946,"temp":22.4,"humidity":84,"rain":0.0,"pressure":911.3,"uv_index":9.65,"wind_gusts":29.9,"aqi":89,"pm10":22.4,"pm2_5":20.8,"mosquito_risk":3,"arthritis_risk":5,"migraine_risk":7,"frizz_risk":1,"updated_at":"2026-04-06T05:07:46.838078+05:30"},{"city":"Hyderabad","state":"Telangana","latitude":17.385,"longitude":78.4867,"temp":25.9,"humidity":67,"rain":0.0,"pressure":952.5,"uv_index":9.15,"wind_gusts":33.5,"aqi":122,"pm10":63.6,"pm2_5":54.4,"mosquito_risk":7,"arthritis_risk":5,"migraine_risk":7,"frizz_risk":1,"updated_at":"2026-04-06T05:07:46.838088+05:30"},{"city":"Chennai","state":"Tamil Nadu","latitude":13.0827,"longitude":80.2707,"temp":27.3,"humidity":88,"rain":0.0,"pressure":1007.0,"uv_index":9.35,"wind_gusts":26.6,"aqi":60,"pm10":17.4,"pm2_5":12.9,"mosquito_risk":7,"arthritis_risk":5,"migraine_risk":4,"frizz_risk":1,"updated_at":"2026-04-06T05:07:46.838097+05:30"},{"city":"Kolkata","state":"West Bengal","latitude":22.5726,"longitude":88.3639,"temp":23.2,"humidity":93,"rain":0.0,"pressure":1006.3,"uv_index":8.65,"wind_gusts":17.6,"aqi":137,"pm10":49.9,"pm2_5":46.2,"mosquito_risk":3,"arthritis_risk":5,"migraine_risk":4,"frizz_risk":1,"updated_at":"2026-04-06T05:07:46.838106+05:30"},{"city":"Pune","state":"Maharashtra","latitude":18.5204,"longitude":73.8567,"temp":19.6,"humidity":78,"rain":0.0,"pressure":948.9,"uv_index":8.55,"wind_gusts":32.0,"aqi":67,"pm10":31.0,"pm2_5":21.4,"mosquito_risk":3,"arthritis_risk":5,"migraine_risk":7,"frizz_risk":0,"updated_at":"2026-04-06T05:07:46.838117+05:30"},{"city":"Ahmedabad","state":"Gujarat","latitude":23.0225,"longitude":72.5714,"temp":23.4,"humidity":55,"rain":0.0,"pressure":1003.5,"uv_index":7.95,"wind_gusts":28.4,"aqi":65,"pm10":32.2,"pm2_5":26.1,"mosquito_risk":0,"arthritis_risk":5,"migraine_risk":4,"frizz_risk":0,"updated_at":"2026-04-06T05:07:46.838125+05:30"},{"city":"Jaipur","state":"Rajasthan","latitude":26.9124,"longitude":75.7873,"temp":21.3,"humidity":56,"rain":0.0,"pressure":960.3,"uv_index":7.55,"wind_gusts":30.6,"aqi":106,"pm10":185.8,"pm2_5":33.9,"mosquito_risk":0,"arthritis_risk":5,"migraine_risk":7,"frizz_risk":0,"updated_at":"2026-04-06T05:07:46.838132+05:30"},{"city":"Lucknow","state":"Uttar Pradesh","latitude":26.8467,"longitude":80.9462,"temp":20.4,"humidity":77,"rain":0.0,"pressure":994.4,"uv_index":7.45,"wind_gusts":32.0,"aqi":91,"pm10":95.7,"pm2_5":37.4,"mosquito_risk":3,"arthritis_risk":5,"migraine_risk":7,"frizz_risk":1,"updated_at":"2026-04-06T05:07:46.838140+05:30"},{"city":"Kanpur","state":"Uttar Pradesh","latitude":26.4499,"longitude":80.3319,"temp":20.1,"humidity":83,"rain":0.0,"pressure":992.6,"uv_index":7.5,"wind_gusts":33.1,"aqi":117,"pm10":201.6,"pm2_5":49.6,"mosquito_risk":3,"arthritis_risk":5,"migraine_risk":7,"frizz_risk":1,"updated_at":"2026-04-06T05:07:46.838147+05:30"},{"city":"Chandigarh","state":"Chandigarh","latitude":30.7333,"longitude":76.7794,"temp":18.0,"humidity":68,"rain":0.0,"pressure":969.6,"uv_index":6.85,"wind_gusts":17.3,"aqi":66,"pm10":25.0,"pm2_5":22.2,"mosquito_risk":3,"arthritis_risk":5,"migraine_risk":7,"frizz_risk":0,"updated_at":"2026-04-06T05:07:46.838154+05:30"},{"city":"Srinagar","state":"Jammu and Kashmir","latitude":34.0837,"longitude":74.7973,"temp":5.2,"humidity":84,"rain":0.0,"pressure":836.7,"uv_index":7.95,"wind_gusts":22.7,"aqi":87,"pm10":37.7,"pm2_5":32.4,"mosquito_risk":3,"arthritis_risk":10,"migraine_risk":7,"frizz_risk":0,"updated_at":"2026-04-06T05:07:46.838161+05:30"},{"city":"Jammu","state":"Jammu and Kashmir","latitude":32.7266,"longitude":74.857,"temp":16.1,"humidity":71,"rain":0.0,"pressure":973.2,"uv_index":7.55,"wind_gusts":21.6,"aqi":71,"pm10":40.2,"pm2_5":33.5,"mosquito_risk":3,"arthritis_risk":5,"migraine_risk":7,"frizz_risk":0,"updated_at":"2026-04-06T05:07:46.838168+05:30"},{"city":"Amritsar","state":"Punjab","latitude":31.634,"longitude":74.8723,"temp":16.6,"humidity":82,"rain":0.0,"pressure":981.6,"uv_index":7.5,"wind_gusts":14.8,"aqi":102,"pm10":86.6,"pm2_5":68.5,"mosquito_risk":3,"arthritis_risk":10,"migraine_risk":7,"frizz_risk":0,"updated_at":"2026-04-06T05:07:46.838175+05:30"},{"city":"Ludhiana","state":"Punjab","latitude":30.901,"longitude":75.8573,"temp":18.2,"humidity":74,"rain":0.0,"pressure":979.9,"uv_index":7.1,"wind_gusts":19.4,"aqi":99,"pm10":66.8,"pm2_5":57.3,"mosquito_risk":3,"arthritis_risk":5,"migraine_risk":7,"frizz_risk":0,"updated_at":"2026-04-06T05:07:46.838181+05:30"},{"city":"Jalandhar","state":"Punjab","latitude":31.326,"longitude":75.5762,"temp":16.4,"humidity":90,"rain":0.0,"pressure":981.0,"uv_index":7.25,"wind_gusts":15.8,"aqi":85,"pm10":58.6,"pm2_5":44.6,"mosquito_risk":3,"arthritis_risk":10,"migraine_risk":7,"frizz_risk":0,"updated_at":"2026-04-06T05:07:46.838190+05:30"},{"city":"Dehradun","state":"Uttarakhand","latitude":30.6284,"longitude":78.0322,"temp":8.9,"humidity":79,"rain":0.0,"pressure":826.9,"uv_index":6.65,"wind_gusts":28.1,"aqi":40,"pm10":15.1,"pm2_5":9.0,"mosquito_risk":3,"arthritis_risk":5,"migraine_risk":7,"frizz_risk":0,"updated_at":"2026-04-06T05:07:46.838196+05:30"},{"city":"Shimla","state":"Himachal Pradesh","latitude":31.1048,"longitude":77.1734,"temp":7.7,"humidity":73,"rain":0.0,"pressure":780.3,"uv_index":6.3,"wind_gusts":28.4,"aqi":43,"pm10":23.7,"pm2_5":14.5,"mosquito_risk":3,"arthritis_risk":5,"migraine_risk":7,"frizz_risk":0,"updated_at":"2026-04-06T05:07:46.838203+05:30"},{"city":"Manali","state":"Himachal Pradesh","latitude":32.2396,"longitude":77.1887,"temp":10.7,"humidity":63,"rain":0.0,"pressure":815.4,"uv_index":9.6,"wind_gusts":25.9,"aqi":37,"pm10":23.4,"pm2_5":16.6,"mosquito_risk":3,"arthritis_risk":5,"migraine_risk":7,"frizz_risk":0,"updated_at":"2026-04-06T05:07:46.838210+05:30"},{"city":"Gurgaon","state":"Haryana","latitude":28.4595,"longitude":77.0266,"temp":17.5,"humidity":79,"rain":0.0,"pressure":982.4,"uv_index":7.05,"wind_gusts":27.7,"aqi":584,"pm10":529.0,"pm2_5":107.1,"mosquito_risk":3,"arthritis_risk":5,"migraine_risk":7,"frizz_risk":0,"updated_at":"2026-04-06T05:07:46.838217+05:30"},{"city":"Noida","state":"Uttar Pradesh","latitude":28.5355,"longitude":77.391,"temp":20.1,"humidity":70,"rain":0.0,"pressure":985.5,"uv_index":6.95,"wind_gusts":28.4,"aqi":584,"pm10":529.0,"pm2_5":107.1,"mosquito_risk":3,"arthritis_risk":5,"migraine_risk":7,"frizz_risk":0,"updated_at":"2026-04-06T05:07:46.838223+05:30"},{"city":"Ghaziabad","state":"Uttar Pradesh","latitude":28.6692,"longitude":77.4538,"temp":19.1,"humidity":75,"rain":0.0,"pressure":983.6,"uv_index":6.9,"wind_gusts":28.4,"aqi":129,"pm10":270.1,"pm2_5":67.8,"mosquito_risk":3,"arthritis_risk":5,"migraine_risk":7,"frizz_risk":0,"updated_at":"2026-04-06T05:07:46.838229+05:30"},{"city":"Faridabad","state":"Haryana","latitude":28.4089,"longitude":77.3178,"temp":18.3,"humidity":75,"rain":0.0,"pressure":984.7,"uv_index":7.0,"wind_gusts":27.4,"aqi":584,"pm10":529.0,"pm2_5":107.1,"mosquito_risk":3,"arthritis_risk":5,"migraine_risk":7,"frizz_risk":0,"updated_at":"2026-04-06T05:07:46.838236+05:30"},{"city":"Meerut","state":"Uttar Pradesh","latitude":28.9845,"longitude":77.7064,"temp":17.4,"humidity":81,"rain":0.0,"pressure":982.3,"uv_index":6.8,"wind_gusts":24.8,"aqi":129,"pm10":270.1,"pm2_5":67.8,"mosquito_risk":3,"arthritis_risk":10,"migraine_risk":7,"frizz_risk":0,"updated_at":"2026-04-06T05:07:46.838243+05:30"},{"city":"Agra","state":"Uttar Pradesh","latitude":27.1767,"longitude":78.0081,"temp":18.9,"humidity":80,"rain":0.0,"pressure":988.9,"uv_index":7.3,"wind_gusts":27.4,"aqi":174,"pm10":476.8,"pm2_5":90.6,"mosquito_risk":3,"arthritis_risk":5,"migraine_risk":7,"frizz_risk":0,"updated_at":"2026-04-06T05:07:46.838250+05:30"},{"city":"Varanasi","state":"Uttar Pradesh","latitude":25.3176,"longitude":82.9739,"temp":22.1,"humidity":76,"rain":0.0,"pressure":998.4,"uv_index":7.7,"wind_gusts":24.8,"aqi":89,"pm10":38.6,"pm2_5":30.7,"mosquito_risk":3,"arthritis_risk":5,"migraine_risk":7,"frizz_risk":1,"updated_at":"2026-04-06T05:07:46.838260+05:30"},{"city":"Prayagraj","state":"Uttar Pradesh","latitude":25.4358,"longitude":81.8463,"temp":23.1,"humidity":75,"rain":0.0,"pressure":996.8,"uv_index":7.3,"wind_gusts":23.8,"aqi":71,"pm10":69.6,"pm2_5":29.1,"mosquito_risk":3,"arthritis_risk":5,"migraine_risk":7,"frizz_risk":1,"updated_at":"2026-04-06T05:07:46.838267+05:30"},{"city":"Gorakhpur","state":"Uttar Pradesh","latitude":26.7606,"longitude":83.3732,"temp":21.4,"humidity":68,"rain":0.0,"pressure":997.2,"uv_index":7.8,"wind_gusts":31.7,"aqi":68,"pm10":37.4,"pm2_5":25.1,"mosquito_risk":3,"arthritis_risk":5,"migraine_risk":7,"frizz_risk":0,"updated_at":"2026-04-06T05:07:46.838273+05:30"},{"city":"Bareilly","state":"Uttar Pradesh","latitude":28.367,"longitude":79.4304,"temp":17.7,"humidity":88,"rain":0.0,"pressure":987.7,"uv_index":7.2,"wind_gusts":27.7,"aqi":85,"pm10":50.2,"pm2_5":35.4,"mosquito_risk":3,"arthritis_risk":10,"migraine_risk":7,"frizz_risk":0,"updated_at":"2026-04-06T05:07:46.838279+05:30"},{"city":"Aligarh","state":"Uttar Pradesh","latitude":27.8974,"longitude":78.088,"temp":17.4,"humidity":81,"rain":0.0,"pressure":986.5,"uv_index":7.1,"wind_gusts":27.4,"aqi":188,"pm10":516.0,"pm2_5":110.6,"mosquito_risk":3,"arthritis_risk":10,"migraine_risk":7,"frizz_risk":0,"updated_at":"2026-04-06T05:07:46.838285+05:30"},{"city":"Moradabad","state":"Uttar Pradesh","latitude":28.8386,"longitude":78.7733,"temp":17.8,"humidity":87,"rain":0.0,"pressure":984.5,"uv_index":7.0,"wind_gusts":27.4,"aqi":100,"pm10":73.1,"pm2_5":53.7,"mosquito_risk":3,"arthritis_risk":10,"migraine_risk":7,"frizz_risk":0,"updated_at":"2026-04-06T05:07:46.838291+05:30"},{"city":"Saharanpur","state":"Uttar Pradesh","latitude":29.9637,"longitude":77.546,"temp":17.5,"humidity":76,"rain":0.0,"pressure":976.5,"uv_index":6.6,"wind_gusts":22.3,"aqi":84,"pm10":87.5,"pm2_5":60.3,"mosquito_risk":3,"arthritis_risk":5,"migraine_risk":7,"frizz_risk":0,"updated_at":"2026-04-06T05:07:46.838297+05:30"},{"city":"Jhansi","state":"Uttar Pradesh","latitude":25.4484,"longitude":78.5685,"temp":20.9,"humidity":79,"rain":0.0,"pressure":978.5,"uv_index":7.85,"wind_gusts":24.1,"aqi":57,"pm10":132.2,"pm2_5":31.8,"mosquito_risk":3,"arthritis_risk":5,"migraine_risk":7,"frizz_risk":1,"updated_at":"2026-04-06T05:07:50.132203+05:30"},{"city":"Surat","state":"Gujarat","latitude":21.1702,"longitude":72.8311,"temp":25.7,"humidity":75,"rain":0.0,"pressure":1008.2,"uv_index":7.7,"wind_gusts":28.8,"aqi":79,"pm10":27.2,"pm2_5":19.1,"mosquito_risk":7,"arthritis_risk":0,"migraine_risk":4,"frizz_risk":1,"updated_at":"2026-04-06T05:07:50.132239+05:30"},{"city":"Vadodara","state":"Gujarat","latitude":22.3072,"longitude":73.1812,"temp":24.6,"humidity":79,"rain":0.0,"pressure":1005.6,"uv_index":7.95,"wind_gusts":29.2,"aqi":75,"pm10":24.3,"pm2_5":19.3,"mosquito_risk":3,"arthritis_risk":5,"migraine_risk":4,"frizz_risk":1,"updated_at":"2026-04-06T05:07:50.132252+05:30"},{"city":"Rajkot","state":"Gujarat","latitude":22.3039,"longitude":70.8022,"temp":22.2,"humidity":87,"rain":0.0,"pressure":996.2,"uv_index":7.7,"wind_gusts":38.9,"aqi":43,"pm10":25.1,"pm2_5":10.2,"mosquito_risk":3,"arthritis_risk":5,"migraine_risk":7,"frizz_risk":1,"updated_at":"2026-04-06T05:07:50.132264+05:30"},{"city":"Thane","state":"Maharashtra","latitude":19.2183,"longitude":72.9781,"temp":26.2,"humidity":65,"rain":0.0,"pressure":1009.6,"uv_index":7.9,"wind_gusts":37.8,"aqi":64,"pm10":27.0,"pm2_5":15.9,"mosquito_risk":7,"arthritis_risk":0,"migraine_risk":4,"frizz_risk":1,"updated_at":"2026-04-06T05:07:50.132275+05:30"},{"city":"Nagpur","state":"Maharashtra","latitude":21.1458,"longitude":79.0882,"temp":24.1,"humidity":57,"rain":0.0,"pressure":972.5,"uv_index":8.5,"wind_gusts":24.1,"aqi":71,"pm10":22.8,"pm2_5":18.5,"mosquito_risk":0,"arthritis_risk":5,"migraine_risk":7,"frizz_risk":0,"updated_at":"2026-04-06T05:07:50.132287+05:30"},{"city":"Nashik","state":"Maharashtra","latitude":19.9975,"longitude":73.7898,"temp":18.4,"humidity":88,"rain":0.0,"pressure":946.1,"uv_index":8.2,"wind_gusts":32.8,"aqi":57,"pm10":30.0,"pm2_5":16.8,"mosquito_risk":3,"arthritis_risk":10,"migraine_risk":7,"frizz_risk":1,"updated_at":"2026-04-06T05:07:50.132298+05:30"},{"city":"Aurangabad","state":"Maharashtra","latitude":19.8762,"longitude":75.3433,"temp":21.5,"humidity":68,"rain":0.0,"pressure":944.4,"uv_index":8.9,"wind_gusts":28.1,"aqi":53,"pm10":16.5,"pm2_5":10.1,"mosquito_risk":3,"arthritis_risk":5,"migraine_risk":7,"frizz_risk":0,"updated_at":"2026-04-06T05:07:50.132309+05:30"},{"city":"Solapur","state":"Maharashtra","latitude":17.6599,"longitude":75.9064,"temp":23.2,"humidity":68,"rain":0.0,"pressure":957.4,"uv_index":9.0,"wind_gusts":34.9,"aqi":51,"pm10":18.5,"pm2_5":14.3,"mosquito_risk":3,"arthritis_risk":5,"migraine_risk":7,"frizz_risk":1,"updated_at":"2026-04-06T05:07:50.132321+05:30"},{"city":"Kolhapur","state":"Maharashtra","latitude":16.705,"longitude":74.2433,"temp":17.4,"humidity":84,"rain":0.0,"pressure":948.0,"uv_index":9.0,"wind_gusts":39.6,"aqi":68,"pm10":37.5,"pm2_5":25.3,"mosquito_risk":3,"arthritis_risk":10,"migraine_risk":7,"frizz_risk":0,"updated_at":"2026-04-06T05:07:50.132332+05:30"},{"city":"Goa","state":"Goa","latitude":15.2993,"longitude":74.124,"temp":25.0,"humidity":85,"rain":0.0,"pressure":999.0,"uv_index":9.0,"wind_gusts":38.9,"aqi":67,"pm10":46.8,"pm2_5":26.0,"mosquito_risk":7,"arthritis_risk":5,"migraine_risk":7,"frizz_risk":1,"updated_at":"2026-04-06T05:07:50.132363+05:30"},{"city":"Jodhpur","state":"Rajasthan","latitude":26.2389,"longitude":73.0243,"temp":23.3,"humidity":47,"rain":0.0,"pressure":983.6,"uv_index":7.85,"wind_gusts":34.9,"aqi":68,"pm10":153.2,"pm2_5":23.6,"mosquito_risk":0,"arthritis_risk":5,"migraine_risk":7,"frizz_risk":0,"updated_at":"2026-04-06T05:07:50.132377+05:30"},{"city":"Udaipur","state":"Rajasthan","latitude":24.5854,"longitude":73.7125,"temp":18.7,"humidity":53,"rain":0.0,"pressure":946.6,"uv_index":8.4,"wind_gusts":34.9,"aqi":40,"pm10":16.5,"pm2_5":8.4,"mosquito_risk":0,"arthritis_risk":5,"migraine_risk":7,"frizz_risk":0,"updated_at":"2026-04-06T05:07:50.132388+05:30"},{"city":"Kota","state":"Rajasthan","latitude":25.2138,"longitude":75.8648,"temp":21.7,"humidity":48,"rain":0.0,"pressure":979.1,"uv_index":7.85,"wind_gusts":26.3,"aqi":65,"pm10":44.8,"pm2_5":18.3,"mosquito_risk":0,"arthritis_risk":5,"migraine_risk":7,"frizz_risk":0,"updated_at":"2026-04-06T05:07:50.132399+05:30"},{"city":"Bikaner","state":"Rajasthan","latitude":28.0229,"longitude":73.3119,"temp":22.1,"humidity":54,"rain":0.0,"pressure":982.5,"uv_index":7.65,"wind_gusts":27.4,"aqi":43,"pm10":43.0,"pm2_5":12.2,"mosquito_risk":0,"arthritis_risk":5,"migraine_risk":7,"frizz_risk":0,"updated_at":"2026-04-06T05:07:50.132410+05:30"},{"city":"Ajmer","state":"Rajasthan","latitude":26.4499,"longitude":74.6399,"temp":20.6,"humidity":57,"rain":0.0,"pressure":954.7,"uv_index":7.8,"wind_gusts":27.4,"aqi":52,"pm10":23.5,"pm2_5":14.1,"mosquito_risk":0,"arthritis_risk":5,"migraine_risk":7,"frizz_risk":0,"updated_at":"2026-04-06T05:07:50.132420+05:30"},{"city":"Gwalior","state":"Madhya Pradesh","latitude":26.2183,"longitude":78.1828,"temp":20.6,"humidity":83,"rain":0.0,"pressure":984.3,"uv_index":7.6,"wind_gusts":25.9,"aqi":71,"pm10":145.3,"pm2_5":32.9,"mosquito_risk":3,"arthritis_risk":5,"migraine_risk":7,"frizz_risk":1,"updated_at":"2026-04-06T05:07:50.132431+05:30"},{"city":"Indore","state":"Madhya Pradesh","latitude":22.7196,"longitude":75.8577,"temp":20.9,"humidity":58,"rain":0.0,"pressure":948.0,"uv_index":8.35,"wind_gusts":28.1,"aqi":56,"pm10":11.2,"pm2_5":9.7,"mosquito_risk":0,"arthritis_risk":5,"migraine_risk":7,"frizz_risk":0,"updated_at":"2026-04-06T05:07:50.132442+05:30"},{"city":"Bhopal","state":"Madhya Pradesh","latitude":23.2599,"longitude":77.4126,"temp":21.2,"humidity":56,"rain":0.0,"pressure":953.4,"uv_index":8.3,"wind_gusts":29.9,"aqi":44,"pm10":19.6,"pm2_5":9.5,"mosquito_risk":0,"arthritis_risk":5,"migraine_risk":7,"frizz_risk":0,"updated_at":"2026-04-06T05:07:50.132452+05:30"},{"city":"Jabalpur","state":"Madhya Pradesh","latitude":23.1815,"longitude":79.9864,"temp":25.4,"humidity":45,"rain":0.0,"pressure":960.9,"uv_index":7.95,"wind_gusts":27.4,"aqi":67,"pm10":18.2,"pm2_5":14.1,"mosquito_risk":4,"arthritis_risk":5,"migraine_risk":7,"frizz_risk":0,"updated_at":"2026-04-06T05:07:50.132463+05:30"},{"city":"Ujjain","state":"Madhya Pradesh","latitude":23.1765,"longitude":75.7885,"temp":21.1,"humidity":58,"rain":0.0,"pressure":954.0,"uv_index":8.2,"wind_gusts":28.4,"aqi":45,"pm10":10.2,"pm2_5":8.6,"mosquito_risk":0,"arthritis_risk":5,"migraine_risk":7,"frizz_risk":0,"updated_at":"2026-04-06T05:07:50.132474+05:30"},{"city":"Visakhapatnam","state":"Andhra Pradesh","latitude":17.6868,"longitude":83.2185,"temp":25.2,"humidity":90,"rain":0.0,"pressure":1004.4,"uv_index":9.1,"wind_gusts":37.1,"aqi":100,"pm10":59.0,"pm2_5":53.4,"mosquito_risk":7,"arthritis_risk":5,"migraine_risk":4,"frizz_risk":1,"updated_at":"2026-04-06T05:07:50.132485+05:30"},{"city":"Vijayawada","state":"Andhra Pradesh","latitude":16.5062,"longitude":80.648,"temp":27.1,"humidity":93,"rain":0.0,"pressure":1002.3,"uv_index":9.15,"wind_gusts":31.3,"aqi":84,"pm10":17.8,"pm2_5":15.6,"mosquito_risk":7,"arthritis_risk":5,"migraine_risk":4,"frizz_risk":1,"updated_at":"2026-04-06T05:07:50.132495+05:30"},{"city":"Guntur","state":"Andhra Pradesh","latitude":16.3067,"longitude":80.4365,"temp":27.4,"humidity":92,"rain":0.0,"pressure":1003.3,"uv_index":9.2,"wind_gusts":32.0,"aqi":90,"pm10":18.0,"pm2_5":15.5,"mosquito_risk":7,"arthritis_risk":5,"migraine_risk":4,"frizz_risk":1,"updated_at":"2026-04-06T05:07:50.132506+05:30"},{"city":"Nellore","state":"Andhra Pradesh","latitude":14.4426,"longitude":79.9865,"temp":27.4,"humidity":89,"rain":0.0,"pressure":1005.5,"uv_index":9.3,"wind_gusts":33.1,"aqi":63,"pm10":15.5,"pm2_5":13.0,"mosquito_risk":7,"arthritis_risk":5,"migraine_risk":4,"frizz_risk":1,"updated_at":"2026-04-06T05:07:50.132517+05:30"},{"city":"Kurnool","state":"Andhra Pradesh","latitude":15.8281,"longitude":78.0373,"temp":28.6,"humidity":46,"rain":0.0,"pressure":976.2,"uv_index":9.2,"wind_gusts":36.4,"aqi":110,"pm10":46.2,"pm2_5":41.3,"mosquito_risk":4,"arthritis_risk":5,"migraine_risk":7,"frizz_risk":0,"updated_at":"2026-04-06T05:07:50.132529+05:30"},{"city":"Kakinada","state":"Andhra Pradesh","latitude":16.9891,"longitude":82.2475,"temp":25.6,"humidity":93,"rain":0.0,"pressure":1007.9,"uv_index":9.1,"wind_gusts":24.8,"aqi":64,"pm10":21.1,"pm2_5":14.8,"mosquito_risk":7,"arthritis_risk":5,"migraine_risk":4,"frizz_risk":1,"updated_at":"2026-04-06T05:07:50.132539+05:30"},{"city":"Tirupati","state":"Andhra Pradesh","latitude":13.6288,"longitude":79.4192,"temp":26.0,"humidity":91,"rain":0.0,"pressure":991.2,"uv_index":8.7,"wind_gusts":23.8,"aqi":86,"pm10":29.4,"pm2_5":28.3,"mosquito_risk":7,"arthritis_risk":5,"migraine_risk":7,"frizz_risk":1,"updated_at":"2026-04-06T05:07:50.132549+05:30"},{"city":"Warangal","state":"Telangana","latitude":17.9689,"longitude":79.5941,"temp":26.4,"humidity":74,"rain":0.0,"pressure":977.4,"uv_index":9.05,"wind_gusts":36.7,"aqi":151,"pm10":66.6,"pm2_5":58.7,"mosquito_risk":7,"arthritis_risk":5,"migraine_risk":7,"frizz_risk":1,"updated_at":"2026-04-06T05:07:50.132560+05:30"},{"city":"Nizamabad","state":"Telangana","latitude":18.6725,"longitude":78.0941,"temp":25.4,"humidity":58,"rain":0.0,"pressure":964.7,"uv_index":8.95,"wind_gusts":29.2,"aqi":100,"pm10":31.8,"pm2_5":26.4,"mosquito_risk":4,"arthritis_risk":5,"migraine_risk":7,"frizz_risk":1,"updated_at":"2026-04-06T05:07:50.132570+05:30"},{"city":"Mysore","state":"Karnataka","latitude":12.2958,"longitude":76.6396,"temp":22.3,"humidity":86,"rain":0.0,"pressure":928.3,"uv_index":9.55,"wind_gusts":38.5,"aqi":75,"pm10":24.2,"pm2_5":21.6,"mosquito_risk":3,"arthritis_risk":5,"migraine_risk":7,"frizz_risk":1,"updated_at":"2026-04-06T05:07:50.132580+05:30"},{"city":"Mangalore","state":"Karnataka","latitude":12.9141,"longitude":74.856,"temp":29.2,"humidity":72,"rain":0.0,"pressure":1007.2,"uv_index":9.2,"wind_gusts":41.0,"aqi":59,"pm10":36.4,"pm2_5":20.1,"mosquito_risk":7,"arthritis_risk":5,"migraine_risk":4,"frizz_risk":1,"updated_at":"2026-04-06T05:07:50.132591+05:30"},{"city":"Hubli-Dharwad","state":"Karnataka","latitude":15.3647,"longitude":75.124,"temp":19.4,"humidity":86,"rain":0.0,"pressure":940.3,"uv_index":9.2,"wind_gusts":34.9,"aqi":56,"pm10":24.4,"pm2_5":14.8,"mosquito_risk":3,"arthritis_risk":10,"migraine_risk":7,"frizz_risk":1,"updated_at":"2026-04-06T05:07:50.132605+05:30"},{"city":"Belgaum","state":"Karnataka","latitude":15.8497,"longitude":74.4977,"temp":18.0,"humidity":76,"rain":0.0,"pressure":925.0,"uv_index":9.25,"wind_gusts":36.0,"aqi":59,"pm10":35.9,"pm2_5":19.9,"mosquito_risk":3,"arthritis_risk":5,"migraine_risk":7,"frizz_risk":0,"updated_at":"2026-04-06T05:07:53.422864+05:30"},{"city":"Coimbatore","state":"Tamil Nadu","latitude":11.0168,"longitude":76.9558,"temp":24.8,"humidity":81,"rain":0.0,"pressure":961.7,"uv_index":9.5,"wind_gusts":51.1,"aqi":73,"pm10":28.6,"pm2_5":24.6,"mosquito_risk":3,"arthritis_risk":5,"migraine_risk":7,"frizz_risk":1,"updated_at":"2026-04-06T05:07:53.422893+05:30"},{"city":"Madurai","state":"Tamil Nadu","latitude":9.9252,"longitude":78.1198,"temp":27.2,"humidity":80,"rain":0.0,"pressure":992.5,"uv_index":9.4,"wind_gusts":27.7,"aqi":91,"pm10":46.4,"pm2_5":43.3,"mosquito_risk":7,"arthritis_risk":5,"migraine_risk":7,"frizz_risk":1,"updated_at":"2026-04-06T05:07:53.422903+05:30"},{"city":"Trichy","state":"Tamil Nadu","latitude":10.7905,"longitude":78.7047,"temp":26.7,"humidity":86,"rain":0.0,"pressure":999.7,"uv_index":9.25,"wind_gusts":24.1,"aqi":93,"pm10":31.1,"pm2_5":29.1,"mosquito_risk":7,"arthritis_risk":5,"migraine_risk":7,"frizz_risk":1,"updated_at":"2026-04-06T05:07:53.422911+05:30"},{"city":"Salem","state":"Tamil Nadu","latitude":11.6643,"longitude":78.146,"temp":26.5,"humidity":80,"rain":0.0,"pressure":977.3,"uv_index":8.7,"wind_gusts":38.9,"aqi":85,"pm10":22.6,"pm2_5":21.1,"mosquito_risk":7,"arthritis_risk":5,"migraine_risk":7,"frizz_risk":1,"updated_at":"2026-04-06T05:07:53.422918+05:30"},{"city":"Tirunelveli","state":"Tamil Nadu","latitude":8.7139,"longitude":77.7567,"temp":27.4,"humidity":71,"rain":0.0,"pressure":1002.3,"uv_index":6.8,"wind_gusts":23.4,"aqi":59,"pm10":16.5,"pm2_5":14.1,"mosquito_risk":7,"arthritis_risk":5,"migraine_risk":4,"frizz_risk":1,"updated_at":"2026-04-06T05:07:53.422926+05:30"},{"city":"Vellore","state":"Tamil Nadu","latitude":12.9165,"longitude":79.1325,"temp":25.7,"humidity":83,"rain":0.0,"pressure":984.2,"uv_index":9.45,"wind_gusts":25.2,"aqi":111,"pm10":30.2,"pm2_5":28.6,"mosquito_risk":7,"arthritis_risk":5,"migraine_risk":7,"frizz_risk":1,"updated_at":"2026-04-06T05:07:53.422933+05:30"},{"city":"Erode","state":"Tamil Nadu","latitude":11.341,"longitude":77.7172,"temp":27.0,"humidity":84,"rain":0.0,"pressure":989.0,"uv_index":9.45,"wind_gusts":32.4,"aqi":76,"pm10":25.9,"pm2_5":23.0,"mosquito_risk":7,"arthritis_risk":5,"migraine_risk":7,"frizz_risk":1,"updated_at":"2026-04-06T05:07:53.422940+05:30"},{"city":"Kochi","state":"Kerala","latitude":9.9312,"longitude":76.2673,"temp":28.6,"humidity":81,"rain":0.0,"pressure":1008.8,"uv_index":8.9,"wind_gusts":37.8,"aqi":65,"pm10":28.9,"pm2_5":24.4,"mosquito_risk":7,"arthritis_risk":0,"migraine_risk":4,"frizz_risk":1,"updated_at":"2026-04-06T05:07:53.422947+05:30"},{"city":"Thiruvananthapuram","state":"Kerala","latitude":8.5241,"longitude":76.9366,"temp":28.1,"humidity":85,"rain":0.0,"pressure":1008.0,"uv_index":3.45,"wind_gusts":39.6,"aqi":52,"pm10":23.8,"pm2_5":16.4,"mosquito_risk":7,"arthritis_risk":0,"migraine_risk":0,"frizz_risk":1,"updated_at":"2026-04-06T05:07:53.422953+05:30"},{"city":"Kozhikode","state":"Kerala","latitude":11.2588,"longitude":75.7804,"temp":28.8,"humidity":80,"rain":0.0,"pressure":1008.0,"uv_index":9.15,"wind_gusts":40.3,"aqi":59,"pm10":29.4,"pm2_5":15.5,"mosquito_risk":7,"arthritis_risk":0,"migraine_risk":4,"frizz_risk":1,"updated_at":"2026-04-06T05:07:53.422960+05:30"},{"city":"Thrissur","state":"Kerala","latitude":10.5276,"longitude":76.2144,"temp":27.4,"humidity":85,"rain":0.0,"pressure":1007.2,"uv_index":9.2,"wind_gusts":40.7,"aqi":66,"pm10":33.4,"pm2_5":25.8,"mosquito_risk":7,"arthritis_risk":5,"migraine_risk":4,"frizz_risk":1,"updated_at":"2026-04-06T05:07:53.422967+05:30"},{"city":"Kannur","state":"Kerala","latitude":11.8745,"longitude":75.3704,"temp":27.5,"humidity":84,"rain":0.0,"pressure":1007.4,"uv_index":9.2,"wind_gusts":48.2,"aqi":59,"pm10":27.3,"pm2_5":14.8,"mosquito_risk":7,"arthritis_risk":5,"migraine_risk":4,"frizz_risk":1,"updated_at":"2026-04-06T05:07:53.422974+05:30"},{"city":"Patna","state":"Bihar","latitude":25.5941,"longitude":85.1376,"temp":23.9,"humidity":63,"rain":0.0,"pressure":1000.9,"uv_index":6.3,"wind_gusts":30.2,"aqi":62,"pm10":27.0,"pm2_5":23.2,"mosquito_risk":3,"arthritis_risk":5,"migraine_risk":4,"frizz_risk":1,"updated_at":"2026-04-06T05:07:53.422980+05:30"},{"city":"Gaya","state":"Bihar","latitude":24.7914,"longitude":85.0002,"temp":24.1,"humidity":70,"rain":0.0,"pressure":995.0,"uv_index":5.45,"wind_gusts":21.6,"aqi":65,"pm10":30.0,"pm2_5":23.3,"mosquito_risk":3,"arthritis_risk":5,"migraine_risk":3,"frizz_risk":1,"updated_at":"2026-04-06T05:07:53.422986+05:30"},{"city":"Muzaffarpur","state":"Bihar","latitude":26.1209,"longitude":85.3647,"temp":22.6,"humidity":62,"rain":0.0,"pressure":1000.2,"uv_index":7.65,"wind_gusts":24.5,"aqi":62,"pm10":32.5,"pm2_5":27.9,"mosquito_risk":3,"arthritis_risk":5,"migraine_risk":4,"frizz_risk":0,"updated_at":"2026-04-06T05:07:53.422993+05:30"},{"city":"Bhagalpur","state":"Bihar","latitude":25.2425,"longitude":87.0117,"temp":24.2,"humidity":62,"rain":0.0,"pressure":1001.1,"uv_index":6.6,"wind_gusts":28.8,"aqi":60,"pm10":20.0,"pm2_5":16.1,"mosquito_risk":3,"arthritis_risk":5,"migraine_risk":4,"frizz_risk":1,"updated_at":"2026-04-06T05:07:53.422998+05:30"},{"city":"Ranchi","state":"Jharkhand","latitude":23.3441,"longitude":85.3096,"temp":21.0,"humidity":83,"rain":0.0,"pressure":937.8,"uv_index":8.2,"wind_gusts":27.4,"aqi":82,"pm10":52.3,"pm2_5":46.4,"mosquito_risk":3,"arthritis_risk":5,"migraine_risk":7,"frizz_risk":1,"updated_at":"2026-04-06T05:07:53.423005+05:30"},{"city":"Jamshedpur","state":"Jharkhand","latitude":22.8046,"longitude":86.2029,"temp":24.0,"humidity":90,"rain":0.0,"pressure":991.1,"uv_index":8.5,"wind_gusts":35.6,"aqi":112,"pm10":55.4,"pm2_5":51.2,"mosquito_risk":3,"arthritis_risk":5,"migraine_risk":7,"frizz_risk":1,"updated_at":"2026-04-06T05:07:53.423011+05:30"},{"city":"Dhanbad","state":"Jharkhand","latitude":23.7957,"longitude":86.4304,"temp":24.8,"humidity":64,"rain":0.0,"pressure":979.9,"uv_index":8.35,"wind_gusts":35.6,"aqi":101,"pm10":64.3,"pm2_5":56.2,"mosquito_risk":3,"arthritis_risk":5,"migraine_risk":7,"frizz_risk":1,"updated_at":"2026-04-06T05:07:53.423018+05:30"},{"city":"Bokaro","state":"Jharkhand","latitude":23.6693,"longitude":86.1511,"temp":24.0,"humidity":69,"rain":0.0,"pressure":984.3,"uv_index":8.05,"wind_gusts":35.6,"aqi":92,"pm10":64.5,"pm2_5":55.5,"mosquito_risk":3,"arthritis_risk":5,"migraine_risk":7,"frizz_risk":1,"updated_at":"2026-04-06T05:07:53.423024+05:30"},{"city":"Bhubaneswar","state":"Odisha","latitude":20.2961,"longitude":85.8245,"temp":25.5,"humidity":97,"rain":0.0,"pressure":1003.0,"uv_index":8.95,"wind_gusts":34.6,"aqi":87,"pm10":19.3,"pm2_5":15.4,"mosquito_risk":7,"arthritis_risk":5,"migraine_risk":4,"frizz_risk":1,"updated_at":"2026-04-06T05:07:53.423030+05:30"},{"city":"Cuttack","state":"Odisha","latitude":20.4625,"longitude":85.8828,"temp":25.0,"humidity":94,"rain":0.0,"pressure":1005.0,"uv_index":8.95,"wind_gusts":31.0,"aqi":87,"pm10":19.3,"pm2_5":15.4,"mosquito_risk":7,"arthritis_risk":5,"migraine_risk":4,"frizz_risk":1,"updated_at":"2026-04-06T05:07:53.423037+05:30"},{"city":"Rourkela","state":"Odisha","latitude":22.2604,"longitude":84.8536,"temp":24.7,"humidity":91,"rain":0.0,"pressure":985.7,"uv_index":7.85,"wind_gusts":38.5,"aqi":111,"pm10":68.7,"pm2_5":62.4,"mosquito_risk":3,"arthritis_risk":5,"migraine_risk":7,"frizz_risk":1,"updated_at":"2026-04-06T05:07:53.423044+05:30"},{"city":"Raipur","state":"Chhattisgarh","latitude":21.2514,"longitude":81.6296,"temp":24.5,"humidity":73,"rain":0.0,"pressure":974.6,"uv_index":8.75,"wind_gusts":26.6,"aqi":124,"pm10":46.1,"pm2_5":42.4,"mosquito_risk":3,"arthritis_risk":5,"migraine_risk":7,"frizz_risk":1,"updated_at":"2026-04-06T05:07:53.423050+05:30"},{"city":"Bhilai","state":"Chhattisgarh","latitude":21.1938,"longitude":81.3509,"temp":24.3,"humidity":73,"rain":0.0,"pressure":974.8,"uv_index":8.8,"wind_gusts":25.6,"aqi":126,"pm10":57.7,"pm2_5":53.0,"mosquito_risk":3,"arthritis_risk":5,"migraine_risk":7,"frizz_risk":1,"updated_at":"2026-04-06T05:07:53.423056+05:30"},{"city":"Guwahati","state":"Assam","latitude":26.1158,"longitude":91.7086,"temp":23.2,"humidity":86,"rain":0.0,"pressure":1000.9,"uv_index":8.25,"wind_gusts":41.0,"aqi":101,"pm10":47.4,"pm2_5":41.4,"mosquito_risk":3,"arthritis_risk":5,"migraine_risk":4,"frizz_risk":1,"updated_at":"2026-04-06T05:07:53.423063+05:30"},{"city":"Agartala","state":"Tripura","latitude":23.8315,"longitude":91.2868,"temp":23.0,"humidity":96,"rain":0.0,"pressure":1006.7,"uv_index":8.5,"wind_gusts":16.2,"aqi":129,"pm10":78.0,"pm2_5":73.1,"mosquito_risk":3,"arthritis_risk":5,"migraine_risk":4,"frizz_risk":1,"updated_at":"2026-04-06T05:07:53.423069+05:30"},{"city":"Shillong","state":"Meghalaya","latitude":25.5788,"longitude":91.8933,"temp":12.7,"humidity":83,"rain":0.0,"pressure":854.5,"uv_index":8.65,"wind_gusts":54.4,"aqi":93,"pm10":30.6,"pm2_5":25.7,"mosquito_risk":3,"arthritis_risk":10,"migraine_risk":7,"frizz_risk":0,"updated_at":"2026-04-06T05:07:53.423076+05:30"},{"city":"Imphal","state":"Manipur","latitude":24.817,"longitude":93.9368,"temp":17.3,"humidity":83,"rain":0.0,"pressure":923.1,"uv_index":8.85,"wind_gusts":52.6,"aqi":148,"pm10":74.5,"pm2_5":65.4,"mosquito_risk":3,"arthritis_risk":10,"migraine_risk":7,"frizz_risk":0,"updated_at":"2026-04-06T05:07:53.423082+05:30"},{"city":"Aizawl","state":"Mizoram","latitude":23.7271,"longitude":92.7176,"temp":15.8,"humidity":90,"rain":0.0,"pressure":891.8,"uv_index":8.75,"wind_gusts":33.1,"aqi":149,"pm10":63.8,"pm2_5":57.0,"mosquito_risk":3,"arthritis_risk":10,"migraine_risk":7,"frizz_risk":0,"updated_at":"2026-04-06T05:07:53.423089+05:30"},{"city":"Kohima","state":"Nagaland","latitude":25.6701,"longitude":94.1077,"temp":15.1,"humidity":59,"rain":0.0,"pressure":853.9,"uv_index":8.75,"wind_gusts":76.0,"aqi":110,"pm10":44.5,"pm2_5":37.4,"mosquito_risk":0,"arthritis_risk":5,"migraine_risk":7,"frizz_risk":0,"updated_at":"2026-04-06T05:07:53.423096+05:30"},{"city":"Gangtok","state":"Sikkim","latitude":27.3314,"longitude":88.6138,"temp":12.5,"humidity":81,"rain":0.0,"pressure":835.4,"uv_index":8.4,"wind_gusts":18.7,"aqi":82,"pm10":17.2,"pm2_5":13.7,"mosquito_risk":3,"arthritis_risk":10,"migraine_risk":7,"frizz_risk":0,"updated_at":"2026-04-06T05:07:53.423103+05:30"},{"city":"Siliguri","state":"West Bengal","latitude":26.7271,"longitude":88.3953,"temp":20.8,"humidity":55,"rain":0.0,"pressure":993.3,"uv_index":8.1,"wind_gusts":29.5,"aqi":121,"pm10":25.3,"pm2_5":23.3,"mosquito_risk":0,"arthritis_risk":5,"migraine_risk":7,"frizz_risk":0,"updated_at":"2026-04-06T05:07:56.720927+05:30"},{"city":"Durgapur","state":"West Bengal","latitude":23.5204,"longitude":87.3119,"temp":23.9,"humidity":86,"rain":0.0,"pressure":995.2,"uv_index":8.45,"wind_gusts":25.9,"aqi":101,"pm10":64.3,"pm2_5":59.3,"mosquito_risk":3,"arthritis_risk":5,"migraine_risk":7,"frizz_risk":1,"updated_at":"2026-04-06T05:07:56.720957+05:30"},{"city":"Asansol","state":"West Bengal","latitude":23.6739,"longitude":86.9524,"temp":24.4,"humidity":81,"rain":0.0,"pressure":993.7,"uv_index":8.45,"wind_gusts":23.4,"aqi":94,"pm10":57.0,"pm2_5":50.5,"mosquito_risk":3,"arthritis_risk":5,"migraine_risk":7,"frizz_risk":1,"updated_at":"2026-04-06T05:07:56.720966+05:30"},{"city":"Pondicherry","state":"Puducherry","latitude":11.9139,"longitude":79.8145,"temp":25.8,"humidity":92,"rain":0.0,"pressure":1008.4,"uv_index":9.3,"wind_gusts":24.8,"aqi":64,"pm10":23.9,"pm2_5":20.5,"mosquito_risk":7,"arthritis_risk":0,"migraine_risk":4,"frizz_risk":1,"updated_at":"2026-04-06T05:07:56.720974+05:30"},{"city":"Port Blair","state":"Andaman and Nicobar Islands","latitude":11.6234,"longitude":92.7265,"temp":28.7,"humidity":73,"rain":0.0,"pressure":1007.0,"uv_index":9.2,"wind_gusts":19.4,"aqi":28,"pm10":10.5,"pm2_5":6.7,"mosquito_risk":7,"arthritis_risk":5,"migraine_risk":4,"frizz_risk":1,"updated_at":"2026-04-06T05:07:56.720981+05:30"},{"city":"Haridwar","state":"Uttarakhand","latitude":29.9457,"longitude":78.1642,"temp":17.8,"humidity":73,"rain":0.0,"pressure":975.2,"uv_index":6.7,"wind_gusts":23.4,"aqi":68,"pm10":30.2,"pm2_5":25.6,"mosquito_risk":3,"arthritis_risk":5,"migraine_risk":7,"frizz_risk":0,"updated_at":"2026-04-06T05:07:56.720988+05:30"},{"city":"Rishikesh","state":"Uttarakhand","latitude":30.0869,"longitude":78.2676,"temp":17.5,"humidity":69,"rain":0.0,"pressure":967.9,"uv_index":6.8,"wind_gusts":25.6,"aqi":53,"pm10":18.9,"pm2_5":13.5,"mosquito_risk":3,"arthritis_risk":5,"migraine_risk":7,"frizz_risk":0,"updated_at":"2026-04-06T05:07:56.720995+05:30"},{"city":"Nainital","state":"Uttarakhand","latitude":29.3919,"longitude":79.4542,"temp":13.9,"humidity":68,"rain":0.0,"pressure":803.9,"uv_index":5.85,"wind_gusts":31.0,"aqi":58,"pm10":20.4,"pm2_5":14.7,"mosquito_risk":3,"arthritis_risk":5,"migraine_risk":3,"frizz_risk":0,"updated_at":"2026-04-06T05:07:56.721002+05:30"},{"city":"Mussoorie","state":"Uttarakhand","latitude":30.4599,"longitude":78.0664,"temp":11.5,"humidity":66,"rain":0.0,"pressure":800.1,"uv_index":5.35,"wind_gusts":29.9,"aqi":58,"pm10":24.8,"pm2_5":20.0,"mosquito_risk":3,"arthritis_risk":5,"migraine_risk":3,"frizz_risk":0,"updated_at":"2026-04-06T05:07:56.721009+05:30"},{"city":"Dharamshala","state":"Himachal Pradesh","latitude":32.219,"longitude":76.3234,"temp":15.0,"humidity":54,"rain":0.0,"pressure":867.4,"uv_index":7.45,"wind_gusts":23.8,"aqi":41,"pm10":14.5,"pm2_5":7.5,"mosquito_risk":0,"arthritis_risk":5,"migraine_risk":7,"frizz_risk":0,"updated_at":"2026-04-06T05:07:56.721016+05:30"},{"city":"Dalhousie","state":"Himachal Pradesh","latitude":32.5387,"longitude":75.971,"temp":10.9,"humidity":56,"rain":0.0,"pressure":800.4,"uv_index":6.9,"wind_gusts":20.9,"aqi":60,"pm10":23.1,"pm2_5":17.3,"mosquito_risk":0,"arthritis_risk":5,"migraine_risk":7,"frizz_risk":0,"updated_at":"2026-04-06T05:07:56.721023+05:30"},{"city":"Patiala","state":"Punjab","latitude":30.3398,"longitude":76.3869,"temp":16.7,"humidity":84,"rain":0.0,"pressure":979.2,"uv_index":6.75,"wind_gusts":20.9,"aqi":118,"pm10":51.5,"pm2_5":45.4,"mosquito_risk":3,"arthritis_risk":10,"migraine_risk":7,"frizz_risk":0,"updated_at":"2026-04-06T05:07:56.721030+05:30"},{"city":"Bhatinda","state":"Punjab","latitude":30.211,"longitude":74.9455,"temp":18.1,"humidity":76,"rain":0.0,"pressure":984.6,"uv_index":7.45,"wind_gusts":23.8,"aqi":96,"pm10":61.5,"pm2_5":56.8,"mosquito_risk":3,"arthritis_risk":5,"migraine_risk":7,"frizz_risk":0,"updated_at":"2026-04-06T05:07:56.721036+05:30"},{"city":"Rohtak","state":"Haryana","latitude":28.8955,"longitude":76.6066,"temp":17.1,"humidity":79,"rain":0.0,"pressure":982.6,"uv_index":6.95,"wind_gusts":29.5,"aqi":322,"pm10":506.6,"pm2_5":99.9,"mosquito_risk":3,"arthritis_risk":5,"migraine_risk":7,"frizz_risk":0,"updated_at":"2026-04-06T05:07:56.721043+05:30"},{"city":"Panipat","state":"Haryana","latitude":29.3909,"longitude":76.9635,"temp":16.4,"humidity":85,"rain":0.0,"pressure":981.2,"uv_index":6.75,"wind_gusts":22.7,"aqi":460,"pm10":369.7,"pm2_5":84.8,"mosquito_risk":3,"arthritis_risk":10,"migraine_risk":7,"frizz_risk":0,"updated_at":"2026-04-06T05:07:56.721050+05:30"},{"city":"Mathura","state":"Uttar Pradesh","latitude":27.4924,"longitude":77.6737,"temp":19.5,"humidity":76,"rain":0.0,"pressure":987.8,"uv_index":7.25,"wind_gusts":26.6,"aqi":271,"pm10":774.9,"pm2_5":128.5,"mosquito_risk":3,"arthritis_risk":5,"migraine_risk":7,"frizz_risk":0,"updated_at":"2026-04-06T05:07:56.721056+05:30"},{"city":"Vrindavan","state":"Uttar Pradesh","latitude":27.5823,"longitude":77.7027,"temp":18.3,"humidity":81,"rain":0.0,"pressure":988.2,"uv_index":7.2,"wind_gusts":26.6,"aqi":271,"pm10":774.9,"pm2_5":128.5,"mosquito_risk":3,"arthritis_risk":10,"migraine_risk":7,"frizz_risk":0,"updated_at":"2026-04-06T05:07:56.721063+05:30"},{"city":"Ayodhya","state":"Uttar Pradesh","latitude":26.7922,"longitude":82.1998,"temp":20.6,"humidity":73,"rain":0.0,"pressure":995.8,"uv_index":7.6,"wind_gusts":32.4,"aqi":78,"pm10":72.6,"pm2_5":37.7,"mosquito_risk":3,"arthritis_risk":5,"migraine_risk":7,"frizz_risk":0,"updated_at":"2026-04-06T05:07:56.721070+05:30"},{"city":"Ratlam","state":"Madhya Pradesh","latitude":23.3315,"longitude":75.0367,"temp":23.2,"humidity":51,"rain":0.0,"pressure":954.8,"uv_index":8.2,"wind_gusts":31.3,"aqi":47,"pm10":8.8,"pm2_5":6.6,"mosquito_risk":0,"arthritis_risk":5,"migraine_risk":7,"frizz_risk":0,"updated_at":"2026-04-06T05:07:56.721076+05:30"},{"city":"Sagar","state":"Madhya Pradesh","latitude":23.8388,"longitude":78.7378,"temp":22.7,"humidity":57,"rain":0.0,"pressure":949.8,"uv_index":8.3,"wind_gusts":21.2,"aqi":44,"pm10":36.4,"pm2_5":12.8,"mosquito_risk":0,"arthritis_risk":5,"migraine_risk":7,"frizz_risk":0,"updated_at":"2026-04-06T05:07:56.721082+05:30"},{"city":"Satna","state":"Madhya Pradesh","latitude":24.6005,"longitude":80.8322,"temp":24.2,"humidity":69,"rain":0.0,"pressure":971.8,"uv_index":8.25,"wind_gusts":25.2,"aqi":56,"pm10":79.9,"pm2_5":22.2,"mosquito_risk":3,"arthritis_risk":5,"migraine_risk":7,"frizz_risk":1,"updated_at":"2026-04-06T05:07:56.721088+05:30"},{"city":"Akola","state":"Maharashtra","latitude":20.7002,"longitude":77.0082,"temp":23.0,"humidity":63,"rain":0.0,"pressure":975.4,"uv_index":8.6,"wind_gusts":29.2,"aqi":57,"pm10":21.0,"pm2_5":16.0,"mosquito_risk":3,"arthritis_risk":5,"migraine_risk":7,"frizz_risk":0,"updated_at":"2026-04-06T05:07:56.721095+05:30"},{"city":"Amravati","state":"Maharashtra","latitude":20.9374,"longitude":77.7796,"temp":22.8,"humidity":63,"rain":0.0,"pressure":967.1,"uv_index":8.6,"wind_gusts":27.0,"aqi":56,"pm10":19.2,"pm2_5":14.0,"mosquito_risk":3,"arthritis_risk":5,"migraine_risk":7,"frizz_risk":0,"updated_at":"2026-04-06T05:07:56.721103+05:30"},{"city":"Latur","state":"Maharashtra","latitude":18.4088,"longitude":76.5604,"temp":21.7,"humidity":68,"rain":0.0,"pressure":939.7,"uv_index":9.0,"wind_gusts":29.9,"aqi":64,"pm10":26.3,"pm2_5":19.0,"mosquito_risk":3,"arthritis_risk":5,"migraine_risk":7,"frizz_risk":0,"updated_at":"2026-04-06T05:07:56.721109+05:30"},{"city":"Nanded","state":"Maharashtra","latitude":19.1383,"longitude":77.3091,"temp":23.5,"humidity":67,"rain":0.0,"pressure":968.9,"uv_index":8.85,"wind_gusts":24.8,"aqi":68,"pm10":19.3,"pm2_5":15.5,"mosquito_risk":3,"arthritis_risk":5,"migraine_risk":7,"frizz_risk":1,"updated_at":"2026-04-06T05:07:56.721115+05:30"},{"city":"Gulbarga","state":"Karnataka","latitude":17.3297,"longitude":76.8343,"temp":26.1,"humidity":51,"rain":0.0,"pressure":958.7,"uv_index":9.0,"wind_gusts":32.0,"aqi":62,"pm10":11.1,"pm2_5":9.6,"mosquito_risk":4,"arthritis_risk":5,"migraine_risk":7,"frizz_risk":0,"updated_at":"2026-04-06T05:07:56.721121+05:30"},{"city":"Bidar","state":"Karnataka","latitude":17.9104,"longitude":77.5199,"temp":24.8,"humidity":52,"rain":0.0,"pressure":935.2,"uv_index":9.05,"wind_gusts":28.4,"aqi":90,"pm10":43.9,"pm2_5":33.6,"mosquito_risk":0,"arthritis_risk":5,"migraine_risk":7,"frizz_risk":0,"updated_at":"2026-04-06T05:07:56.721128+05:30"},{"city":"Hospet","state":"Karnataka","latitude":15.2689,"longitude":76.3909,"temp":25.0,"humidity":66,"rain":0.0,"pressure":955.9,"uv_index":9.25,"wind_gusts":31.3,"aqi":56,"pm10":15.7,"pm2_5":12.5,"mosquito_risk":7,"arthritis_risk":5,"migraine_risk":7,"frizz_risk":1,"updated_at":"2026-04-06T05:07:56.721134+05:30"},{"city":"Tirupur","state":"Tamil Nadu","latitude":11.1085,"longitude":77.3411,"temp":25.8,"humidity":85,"rain":0.0,"pressure":975.2,"uv_index":9.55,"wind_gusts":40.0,"aqi":77,"pm10":30.6,"pm2_5":27.9,"mosquito_risk":7,"arthritis_risk":5,"migraine_risk":7,"frizz_risk":1,"updated_at":"2026-04-06T05:07:56.721140+05:30"},{"city":"Alappuzha","state":"Kerala","latitude":9.4981,"longitude":76.3388,"temp":28.5,"humidity":82,"rain":0.0,"pressure":1009.0,"uv_index":7.8,"wind_gusts":34.2,"aqi":61,"pm10":27.0,"pm2_5":19.9,"mosquito_risk":7,"arthritis_risk":0,"migraine_risk":4,"frizz_risk":1,"updated_at":"2026-04-06T05:07:56.721146+05:30"},{"city":"Munnar","state":"Kerala","latitude":10.0889,"longitude":77.0595,"temp":19.7,"humidity":94,"rain":0.0,"pressure":856.3,"uv_index":8.65,"wind_gusts":34.9,"aqi":65,"pm10":21.9,"pm2_5":19.2,"mosquito_risk":3,"arthritis_risk":10,"migraine_risk":7,"frizz_risk":1,"updated_at":"2026-04-06T05:07:56.721153+05:30"},{"city":"Silchar","state":"Assam","latitude":24.8333,"longitude":92.7789,"temp":22.1,"humidity":97,"rain":0.0,"pressure":1006.1,"uv_index":8.5,"wind_gusts":20.5,"aqi":155,"pm10":78.9,"pm2_5":65.7,"mosquito_risk":3,"arthritis_risk":5,"migraine_risk":4,"frizz_risk":1,"updated_at":"2026-04-06T05:07:56.721160+05:30"},{"city":"Dibrugarh","state":"Assam","latitude":27.4728,"longitude":94.912,"temp":21.4,"humidity":90,"rain":0.0,"pressure":995.4,"uv_index":8.3,"wind_gusts":38.2,"aqi":111,"pm10":50.5,"pm2_5":37.6,"mosquito_risk":3,"arthritis_risk":5,"migraine_risk":7,"frizz_risk":1,"updated_at":"2026-04-06T05:07:56.721166+05:30"}]