[{"city":"Delhi","state":"Delhi","latitude":28.6139,"longitude":77.209,"temp":30.8,"humidity":46,"rain":0.0,"pressure":977.7,"uv_index":7.6,"wind_gusts":34.2,"aqi":204,"pm10":238.0,"pm2_5":80.1,"no2":47.7,"co":571.0,"o3":96.0,"so2":31.5,"mosquito_risk":0,"arthritis_risk":5,"migraine_risk":7,"frizz_risk":1,"updated_at":"2026-05-02T21:21:05.192096+05:30"},{"city":"Mumbai","state":"Maharashtra","latitude":19.076,"longitude":72.8777,"temp":29.5,"humidity":73,"rain":0.0,"pressure":1007.3,"uv_index":7.9,"wind_gusts":42.1,"aqi":74,"pm10":45.8,"pm2_5":19.0,"no2":10.4,"co":225.0,"o3":66.0,"so2":18.2,"mosquito_risk":7,"arthritis_risk":5,"migraine_risk":4,"frizz_risk":1,"updated_at":"2026-05-02T21:21:05.192152+05:30"},{"city":"Bangalore","state":"Karnataka","latitude":12.9716,"longitude":77.5946,"temp":28.1,"humidity":44,"rain":0.0,"pressure":910.8,"uv_index":9.5,"wind_gusts":34.6,"aqi":121,"pm10":36.9,"pm2_5":29.3,"no2":48.2,"co":1130.0,"o3":73.0,"so2":12.5,"mosquito_risk":4,"arthritis_risk":5,"migraine_risk":7,"frizz_risk":0,"updated_at":"2026-05-02T21:21:05.192168+05:30"},{"city":"Hyderabad","state":"Telangana","latitude":17.385,"longitude":78.4867,"temp":34.2,"humidity":22,"rain":0.0,"pressure":951.2,"uv_index":9.25,"wind_gusts":34.6,"aqi":77,"pm10":60.8,"pm2_5":40.9,"no2":49.4,"co":735.0,"o3":45.0,"so2":14.9,"mosquito_risk":0,"arthritis_risk":5,"migraine_risk":7,"frizz_risk":0,"updated_at":"2026-05-02T21:21:05.192177+05:30"},{"city":"Chennai","state":"Tamil Nadu","latitude":13.0827,"longitude":80.2707,"temp":31.0,"humidity":73,"rain":0.0,"pressure":1005.2,"uv_index":9.2,"wind_gusts":55.8,"aqi":80,"pm10":16.1,"pm2_5":11.8,"no2":7.6,"co":208.0,"o3":80.0,"so2":3.1,"mosquito_risk":3,"arthritis_risk":5,"migraine_risk":4,"frizz_risk":1,"updated_at":"2026-05-02T21:21:05.192185+05:30"},{"city":"Kolkata","state":"West Bengal","latitude":22.5726,"longitude":88.3639,"temp":25.0,"humidity":90,"rain":0.0,"pressure":1003.9,"uv_index":8.85,"wind_gusts":49.3,"aqi":68,"pm10":26.5,"pm2_5":23.1,"no2":14.0,"co":372.0,"o3":72.0,"so2":9.0,"mosquito_risk":7,"arthritis_risk":5,"migraine_risk":4,"frizz_risk":1,"updated_at":"2026-05-02T21:21:05.192193+05:30"},{"city":"Pune","state":"Maharashtra","latitude":18.5204,"longitude":73.8567,"temp":26.0,"humidity":74,"rain":0.0,"pressure":947.5,"uv_index":8.5,"wind_gusts":48.6,"aqi":61,"pm10":34.1,"pm2_5":14.5,"no2":8.1,"co":207.0,"o3":71.0,"so2":6.4,"mosquito_risk":7,"arthritis_risk":5,"migraine_risk":7,"frizz_risk":1,"updated_at":"2026-05-02T21:21:05.192200+05:30"},{"city":"Ahmedabad","state":"Gujarat","latitude":23.0225,"longitude":72.5714,"temp":32.1,"humidity":64,"rain":0.0,"pressure":997.1,"uv_index":8.1,"wind_gusts":52.2,"aqi":67,"pm10":60.1,"pm2_5":21.0,"no2":5.2,"co":233.0,"o3":97.0,"so2":5.4,"mosquito_risk":3,"arthritis_risk":5,"migraine_risk":7,"frizz_risk":1,"updated_at":"2026-05-02T21:21:05.192209+05:30"},{"city":"Jaipur","state":"Rajasthan","latitude":26.9124,"longitude":75.7873,"temp":33.2,"humidity":25,"rain":0.0,"pressure":955.0,"uv_index":8.15,"wind_gusts":39.2,"aqi":115,"pm10":146.2,"pm2_5":40.3,"no2":31.5,"co":221.0,"o3":57.0,"so2":7.4,"mosquito_risk":0,"arthritis_risk":5,"migraine_risk":7,"frizz_risk":0,"updated_at":"2026-05-02T21:21:05.192216+05:30"},{"city":"Lucknow","state":"Uttar Pradesh","latitude":26.8467,"longitude":80.9462,"temp":26.6,"humidity":65,"rain":0.0,"pressure":990.3,"uv_index":8.1,"wind_gusts":35.3,"aqi":155,"pm10":81.7,"pm2_5":42.8,"no2":18.1,"co":376.0,"o3":104.0,"so2":12.9,"mosquito_risk":7,"arthritis_risk":5,"migraine_risk":7,"frizz_risk":1,"updated_at":"2026-05-02T21:21:05.192222+05:30"},{"city":"Kanpur","state":"Uttar Pradesh","latitude":26.4499,"longitude":80.3319,"temp":29.0,"humidity":55,"rain":0.0,"pressure":987.8,"uv_index":8.1,"wind_gusts":35.3,"aqi":161,"pm10":177.4,"pm2_5":53.2,"no2":19.3,"co":372.0,"o3":100.0,"so2":11.8,"mosquito_risk":4,"arthritis_risk":5,"migraine_risk":7,"frizz_risk":1,"updated_at":"2026-05-02T21:21:05.192229+05:30"},{"city":"Chandigarh","state":"Chandigarh","latitude":30.7333,"longitude":76.7794,"temp":27.1,"humidity":43,"rain":0.0,"pressure":963.3,"uv_index":7.6,"wind_gusts":33.8,"aqi":153,"pm10":45.3,"pm2_5":31.1,"no2":19.6,"co":916.0,"o3":117.0,"so2":18.2,"mosquito_risk":4,"arthritis_risk":5,"migraine_risk":7,"frizz_risk":0,"updated_at":"2026-05-02T21:21:05.192235+05:30"},{"city":"Srinagar","state":"Jammu and Kashmir","latitude":34.0837,"longitude":74.7973,"temp":13.8,"humidity":83,"rain":0.0,"pressure":838.5,"uv_index":8.8,"wind_gusts":36.4,"aqi":89,"pm10":23.0,"pm2_5":19.0,"no2":18.4,"co":811.0,"o3":88.0,"so2":4.5,"mosquito_risk":3,"arthritis_risk":10,"migraine_risk":7,"frizz_risk":0,"updated_at":"2026-05-02T21:21:05.192243+05:30"},{"city":"Jammu","state":"Jammu and Kashmir","latitude":32.7266,"longitude":74.857,"temp":25.5,"humidity":50,"rain":0.0,"pressure":967.4,"uv_index":8.4,"wind_gusts":31.7,"aqi":126,"pm10":32.9,"pm2_5":24.4,"no2":20.6,"co":371.0,"o3":93.0,"so2":5.3,"mosquito_risk":4,"arthritis_risk":5,"migraine_risk":7,"frizz_risk":0,"updated_at":"2026-05-02T21:21:05.192250+05:30"},{"city":"Amritsar","state":"Punjab","latitude":31.634,"longitude":74.8723,"temp":29.2,"humidity":35,"rain":0.0,"pressure":975.0,"uv_index":8.25,"wind_gusts":32.8,"aqi":169,"pm10":29.5,"pm2_5":20.8,"no2":6.0,"co":652.0,"o3":150.0,"so2":7.7,"mosquito_risk":4,"arthritis_risk":5,"migraine_risk":7,"frizz_risk":0,"updated_at":"2026-05-02T21:21:05.192256+05:30"},{"city":"Ludhiana","state":"Punjab","latitude":30.901,"longitude":75.8573,"temp":29.9,"humidity":39,"rain":0.0,"pressure":973.0,"uv_index":7.85,"wind_gusts":31.7,"aqi":150,"pm10":50.6,"pm2_5":38.8,"no2":22.1,"co":617.0,"o3":87.0,"so2":8.8,"mosquito_risk":4,"arthritis_risk":5,"migraine_risk":7,"frizz_risk":0,"updated_at":"2026-05-02T21:21:05.192262+05:30"},{"city":"Jalandhar","state":"Punjab","latitude":31.326,"longitude":75.5762,"temp":28.0,"humidity":43,"rain":0.0,"pressure":973.9,"uv_index":8.05,"wind_gusts":27.0,"aqi":134,"pm10":49.1,"pm2_5":31.4,"no2":16.1,"co":1168.0,"o3":111.0,"so2":8.1,"mosquito_risk":4,"arthritis_risk":5,"migraine_risk":7,"frizz_risk":0,"updated_at":"2026-05-02T21:21:05.192268+05:30"},{"city":"Dehradun","state":"Uttarakhand","latitude":30.6284,"longitude":78.0322,"temp":13.0,"humidity":95,"rain":0.0,"pressure":824.8,"uv_index":8.05,"wind_gusts":38.2,"aqi":135,"pm10":39.5,"pm2_5":25.9,"no2":25.5,"co":274.0,"o3":99.0,"so2":5.1,"mosquito_risk":3,"arthritis_risk":10,"migraine_risk":7,"frizz_risk":0,"updated_at":"2026-05-02T21:21:05.192278+05:30"},{"city":"Shimla","state":"Himachal Pradesh","latitude":31.1048,"longitude":77.1734,"temp":13.0,"humidity":61,"rain":0.0,"pressure":780.3,"uv_index":8.1,"wind_gusts":46.8,"aqi":148,"pm10":39.6,"pm2_5":23.2,"no2":15.1,"co":244.0,"o3":125.0,"so2":8.6,"mosquito_risk":3,"arthritis_risk":5,"migraine_risk":7,"frizz_risk":0,"updated_at":"2026-05-02T21:21:05.192285+05:30"},{"city":"Manali","state":"Himachal Pradesh","latitude":32.2396,"longitude":77.1887,"temp":9.5,"humidity":80,"rain":0.0,"pressure":812.2,"uv_index":10.3,"wind_gusts":42.8,"aqi":145,"pm10":11.7,"pm2_5":8.9,"no2":32.6,"co":255.0,"o3":122.0,"so2":0.6,"mosquito_risk":3,"arthritis_risk":5,"migraine_risk":7,"frizz_risk":0,"updated_at":"2026-05-02T21:21:05.192291+05:30"},{"city":"Gurgaon","state":"Haryana","latitude":28.4595,"longitude":77.0266,"temp":30.0,"humidity":42,"rain":0.0,"pressure":976.0,"uv_index":7.7,"wind_gusts":36.4,"aqi":807,"pm10":461.0,"pm2_5":110.4,"no2":60.4,"co":698.0,"o3":91.0,"so2":31.8,"mosquito_risk":4,"arthritis_risk":5,"migraine_risk":7,"frizz_risk":0,"updated_at":"2026-05-02T21:21:05.192297+05:30"},{"city":"Noida","state":"Uttar Pradesh","latitude":28.5355,"longitude":77.391,"temp":28.0,"humidity":55,"rain":0.0,"pressure":979.1,"uv_index":7.65,"wind_gusts":26.3,"aqi":807,"pm10":461.0,"pm2_5":110.4,"no2":60.4,"co":566.0,"o3":91.0,"so2":31.8,"mosquito_risk":4,"arthritis_risk":5,"migraine_risk":7,"frizz_risk":1,"updated_at":"2026-05-02T21:21:05.192303+05:30"},{"city":"Ghaziabad","state":"Uttar Pradesh","latitude":28.6692,"longitude":77.4538,"temp":29.4,"humidity":51,"rain":0.0,"pressure":977.4,"uv_index":7.6,"wind_gusts":33.1,"aqi":185,"pm10":259.8,"pm2_5":70.8,"no2":17.1,"co":407.0,"o3":122.0,"so2":14.0,"mosquito_risk":4,"arthritis_risk":5,"migraine_risk":7,"frizz_risk":1,"updated_at":"2026-05-02T21:21:05.192309+05:30"},{"city":"Faridabad","state":"Haryana","latitude":28.4089,"longitude":77.3178,"temp":30.4,"humidity":45,"rain":0.0,"pressure":978.6,"uv_index":7.65,"wind_gusts":32.4,"aqi":807,"pm10":461.0,"pm2_5":110.4,"no2":60.4,"co":745.0,"o3":91.0,"so2":31.8,"mosquito_risk":0,"arthritis_risk":5,"migraine_risk":7,"frizz_risk":1,"updated_at":"2026-05-02T21:21:05.192315+05:30"},{"city":"Meerut","state":"Uttar Pradesh","latitude":28.9845,"longitude":77.7064,"temp":28.2,"humidity":56,"rain":0.0,"pressure":976.3,"uv_index":7.5,"wind_gusts":29.5,"aqi":185,"pm10":259.8,"pm2_5":70.8,"no2":17.1,"co":476.0,"o3":122.0,"so2":14.0,"mosquito_risk":4,"arthritis_risk":5,"migraine_risk":7,"frizz_risk":1,"updated_at":"2026-05-02T21:21:05.192321+05:30"},{"city":"Agra","state":"Uttar Pradesh","latitude":27.1767,"longitude":78.0081,"temp":31.0,"humidity":39,"rain":0.0,"pressure":982.5,"uv_index":7.95,"wind_gusts":43.6,"aqi":725,"pm10":687.3,"pm2_5":96.2,"no2":18.4,"co":537.0,"o3":96.0,"so2":15.1,"mosquito_risk":0,"arthritis_risk":5,"migraine_risk":7,"frizz_risk":0,"updated_at":"2026-05-02T21:21:05.192327+05:30"},{"city":"Varanasi","state":"Uttar Pradesh","latitude":25.3176,"longitude":82.9739,"temp":30.0,"humidity":50,"rain":0.0,"pressure":993.5,"uv_index":8.6,"wind_gusts":34.2,"aqi":188,"pm10":66.6,"pm2_5":43.4,"no2":14.0,"co":518.0,"o3":131.0,"so2":16.6,"mosquito_risk":4,"arthritis_risk":5,"migraine_risk":7,"frizz_risk":1,"updated_at":"2026-05-02T21:21:05.192333+05:30"},{"city":"Prayagraj","state":"Uttar Pradesh","latitude":25.4358,"longitude":81.8463,"temp":25.0,"humidity":90,"rain":0.0,"pressure":992.4,"uv_index":8.5,"wind_gusts":51.5,"aqi":183,"pm10":64.7,"pm2_5":42.1,"no2":15.0,"co":330.0,"o3":114.0,"so2":12.7,"mosquito_risk":7,"arthritis_risk":5,"migraine_risk":7,"frizz_risk":1,"updated_at":"2026-05-02T21:21:05.192344+05:30"},{"city":"Gorakhpur","state":"Uttar Pradesh","latitude":26.7606,"longitude":83.3732,"temp":25.9,"humidity":63,"rain":0.0,"pressure":994.5,"uv_index":8.45,"wind_gusts":31.3,"aqi":159,"pm10":59.6,"pm2_5":37.4,"no2":10.9,"co":399.0,"o3":122.0,"so2":8.0,"mosquito_risk":7,"arthritis_risk":5,"migraine_risk":7,"frizz_risk":1,"updated_at":"2026-05-02T21:21:05.192351+05:30"},{"city":"Bareilly","state":"Uttar Pradesh","latitude":28.367,"longitude":79.4304,"temp":28.4,"humidity":51,"rain":0.0,"pressure":982.5,"uv_index":7.9,"wind_gusts":29.2,"aqi":171,"pm10":129.5,"pm2_5":53.1,"no2":15.2,"co":386.0,"o3":110.0,"so2":11.9,"mosquito_risk":4,"arthritis_risk":5,"migraine_risk":7,"frizz_risk":1,"updated_at":"2026-05-02T21:21:05.192357+05:30"},{"city":"Aligarh","state":"Uttar Pradesh","latitude":27.8974,"longitude":78.088,"temp":29.4,"humidity":51,"rain":0.0,"pressure":980.5,"uv_index":7.75,"wind_gusts":28.4,"aqi":409,"pm10":314.8,"pm2_5":77.1,"no2":22.5,"co":489.0,"o3":90.0,"so2":18.8,"mosquito_risk":4,"arthritis_risk":5,"migraine_risk":7,"frizz_risk":1,"updated_at":"2026-05-02T21:21:05.192363+05:30"},{"city":"Moradabad","state":"Uttar Pradesh","latitude":28.8386,"longitude":78.7733,"temp":27.3,"humidity":56,"rain":0.0,"pressure":979.1,"uv_index":7.7,"wind_gusts":31.0,"aqi":180,"pm10":138.3,"pm2_5":59.6,"no2":16.6,"co":507.0,"o3":134.0,"so2":20.9,"mosquito_risk":4,"arthritis_risk":5,"migraine_risk":7,"frizz_risk":1,"updated_at":"2026-05-02T21:21:05.192369+05:30"},{"city":"Saharanpur","state":"Uttar Pradesh","latitude":29.9637,"longitude":77.546,"temp":25.5,"humidity":68,"rain":0.0,"pressure":970.6,"uv_index":7.35,"wind_gusts":31.7,"aqi":152,"pm10":165.3,"pm2_5":66.4,"no2":33.3,"co":630.0,"o3":106.0,"so2":19.0,"mosquito_risk":7,"arthritis_risk":5,"migraine_risk":7,"frizz_risk":1,"updated_at":"2026-05-02T21:21:05.192375+05:30"},{"city":"Jhansi","state":"Uttar Pradesh","latitude":25.4484,"longitude":78.5685,"temp":29.0,"humidity":52,"rain":0.0,"pressure":973.4,"uv_index":8.4,"wind_gusts":49.0,"aqi":76,"pm10":76.8,"pm2_5":28.1,"no2":7.1,"co":281.0,"o3":89.0,"so2":8.0,"mosquito_risk":4,"arthritis_risk":5,"migraine_risk":7,"frizz_risk":1,"updated_at":"2026-05-02T21:21:08.528088+05:30"},{"city":"Surat","state":"Gujarat","latitude":21.1702,"longitude":72.8311,"temp":29.2,"humidity":83,"rain":0.0,"pressure":1003.5,"uv_index":7.7,"wind_gusts":52.2,"aqi":65,"pm10":29.0,"pm2_5":17.5,"no2":17.7,"co":214.0,"o3":59.0,"so2":29.7,"mosquito_risk":7,"arthritis_risk":5,"migraine_risk":4,"frizz_risk":1,"updated_at":"2026-05-02T21:21:08.528119+05:30"},{"city":"Vadodara","state":"Gujarat","latitude":22.3072,"longitude":73.1812,"temp":30.6,"humidity":67,"rain":0.0,"pressure":1000.0,"uv_index":8.05,"wind_gusts":50.8,"aqi":60,"pm10":21.1,"pm2_5":15.6,"no2":15.2,"co":266.0,"o3":67.0,"so2":21.8,"mosquito_risk":3,"arthritis_risk":5,"migraine_risk":4,"frizz_risk":1,"updated_at":"2026-05-02T21:21:08.528129+05:30"},{"city":"Rajkot","state":"Gujarat","latitude":22.3039,"longitude":70.8022,"temp":32.0,"humidity":43,"rain":0.0,"pressure":990.1,"uv_index":7.75,"wind_gusts":56.5,"aqi":56,"pm10":40.3,"pm2_5":17.0,"no2":5.4,"co":171.0,"o3":83.0,"so2":7.7,"mosquito_risk":0,"arthritis_risk":5,"migraine_risk":7,"frizz_risk":1,"updated_at":"2026-05-02T21:21:08.528139+05:30"},{"city":"Thane","state":"Maharashtra","latitude":19.2183,"longitude":72.9781,"temp":29.8,"humidity":71,"rain":0.0,"pressure":1006.6,"uv_index":7.9,"wind_gusts":40.0,"aqi":74,"pm10":45.8,"pm2_5":19.0,"no2":10.4,"co":238.0,"o3":66.0,"so2":18.2,"mosquito_risk":7,"arthritis_risk":5,"migraine_risk":4,"frizz_risk":1,"updated_at":"2026-05-02T21:21:08.528147+05:30"},{"city":"Nagpur","state":"Maharashtra","latitude":21.1458,"longitude":79.0882,"temp":35.2,"humidity":24,"rain":0.0,"pressure":970.2,"uv_index":8.95,"wind_gusts":46.4,"aqi":78,"pm10":42.8,"pm2_5":23.5,"no2":15.9,"co":200.0,"o3":70.0,"so2":12.3,"mosquito_risk":0,"arthritis_risk":5,"migraine_risk":10,"frizz_risk":0,"updated_at":"2026-05-02T21:21:08.528156+05:30"},{"city":"Nashik","state":"Maharashtra","latitude":19.9975,"longitude":73.7898,"temp":25.9,"humidity":77,"rain":0.0,"pressure":944.2,"uv_index":8.25,"wind_gusts":45.7,"aqi":65,"pm10":31.9,"pm2_5":15.0,"no2":6.1,"co":185.0,"o3":79.0,"so2":7.4,"mosquito_risk":7,"arthritis_risk":5,"migraine_risk":7,"frizz_risk":1,"updated_at":"2026-05-02T21:21:08.528164+05:30"},{"city":"Aurangabad","state":"Maharashtra","latitude":19.8762,"longitude":75.3433,"temp":32.6,"humidity":29,"rain":0.0,"pressure":942.4,"uv_index":9.05,"wind_gusts":39.2,"aqi":58,"pm10":31.1,"pm2_5":14.0,"no2":5.0,"co":177.0,"o3":82.0,"so2":3.6,"mosquito_risk":0,"arthritis_risk":5,"migraine_risk":7,"frizz_risk":0,"updated_at":"2026-05-02T21:21:08.528172+05:30"},{"city":"Solapur","state":"Maharashtra","latitude":17.6599,"longitude":75.9064,"temp":34.7,"humidity":21,"rain":0.0,"pressure":954.4,"uv_index":9.05,"wind_gusts":43.6,"aqi":54,"pm10":40.5,"pm2_5":18.2,"no2":9.7,"co":390.0,"o3":79.0,"so2":3.1,"mosquito_risk":0,"arthritis_risk":5,"migraine_risk":7,"frizz_risk":0,"updated_at":"2026-05-02T21:21:08.528180+05:30"},{"city":"Kolhapur","state":"Maharashtra","latitude":16.705,"longitude":74.2433,"temp":24.9,"humidity":82,"rain":0.0,"pressure":947.2,"uv_index":8.95,"wind_gusts":49.0,"aqi":66,"pm10":39.2,"pm2_5":17.2,"no2":7.9,"co":188.0,"o3":62.0,"so2":2.6,"mosquito_risk":3,"arthritis_risk":5,"migraine_risk":7,"frizz_risk":1,"updated_at":"2026-05-02T21:21:08.528188+05:30"},{"city":"Goa","state":"Goa","latitude":15.2993,"longitude":74.124,"temp":28.8,"humidity":76,"rain":0.0,"pressure":997.8,"uv_index":8.95,"wind_gusts":38.5,"aqi":72,"pm10":67.3,"pm2_5":19.3,"no2":3.5,"co":188.0,"o3":62.0,"so2":1.3,"mosquito_risk":7,"arthritis_risk":5,"migraine_risk":7,"frizz_risk":1,"updated_at":"2026-05-02T21:21:08.528196+05:30"},{"city":"Jodhpur","state":"Rajasthan","latitude":26.2389,"longitude":73.0243,"temp":36.0,"humidity":19,"rain":0.0,"pressure":976.1,"uv_index":8.3,"wind_gusts":37.8,"aqi":122,"pm10":298.0,"pm2_5":46.1,"no2":4.2,"co":224.0,"o3":102.0,"so2":3.0,"mosquito_risk":0,"arthritis_risk":5,"migraine_risk":10,"frizz_risk":0,"updated_at":"2026-05-02T21:21:08.528204+05:30"},{"city":"Udaipur","state":"Rajasthan","latitude":24.5854,"longitude":73.7125,"temp":33.0,"humidity":19,"rain":0.0,"pressure":942.0,"uv_index":8.8,"wind_gusts":38.2,"aqi":76,"pm10":100.8,"pm2_5":24.9,"no2":2.5,"co":202.0,"o3":115.0,"so2":3.7,"mosquito_risk":0,"arthritis_risk":5,"migraine_risk":7,"frizz_risk":0,"updated_at":"2026-05-02T21:21:08.528211+05:30"},{"city":"Kota","state":"Rajasthan","latitude":25.2138,"longitude":75.8648,"temp":34.1,"humidity":27,"rain":0.0,"pressure":973.0,"uv_index":8.35,"wind_gusts":40.3,"aqi":68,"pm10":71.9,"pm2_5":29.8,"no2":12.6,"co":288.0,"o3":76.0,"so2":4.9,"mosquito_risk":0,"arthritis_risk":5,"migraine_risk":7,"frizz_risk":0,"updated_at":"2026-05-02T21:21:08.528219+05:30"},{"city":"Bikaner","state":"Rajasthan","latitude":28.0229,"longitude":73.3119,"temp":35.5,"humidity":20,"rain":0.0,"pressure":975.0,"uv_index":8.25,"wind_gusts":34.6,"aqi":68,"pm10":84.3,"pm2_5":25.1,"no2":5.3,"co":449.0,"o3":91.0,"so2":5.9,"mosquito_risk":0,"arthritis_risk":5,"migraine_risk":10,"frizz_risk":0,"updated_at":"2026-05-02T21:21:08.528227+05:30"},{"city":"Ajmer","state":"Rajasthan","latitude":26.4499,"longitude":74.6399,"temp":32.2,"humidity":26,"rain":0.0,"pressure":950.0,"uv_index":8.3,"wind_gusts":55.8,"aqi":67,"pm10":81.0,"pm2_5":23.9,"no2":9.1,"co":221.0,"o3":81.0,"so2":4.3,"mosquito_risk":0,"arthritis_risk":5,"migraine_risk":7,"frizz_risk":0,"updated_at":"2026-05-02T21:21:08.528234+05:30"},{"city":"Gwalior","state":"Madhya Pradesh","latitude":26.2183,"longitude":78.1828,"temp":32.0,"humidity":28,"rain":0.0,"pressure":978.1,"uv_index":8.15,"wind_gusts":45.4,"aqi":111,"pm10":139.7,"pm2_5":37.1,"no2":4.7,"co":334.0,"o3":121.0,"so2":6.7,"mosquito_risk":0,"arthritis_risk":5,"migraine_risk":7,"frizz_risk":0,"updated_at":"2026-05-02T21:21:08.528241+05:30"},{"city":"Indore","state":"Madhya Pradesh","latitude":22.7196,"longitude":75.8577,"temp":33.2,"humidity":22,"rain":0.0,"pressure":945.0,"uv_index":8.65,"wind_gusts":53.6,"aqi":59,"pm10":37.0,"pm2_5":17.3,"no2":7.5,"co":256.0,"o3":86.0,"so2":4.5,"mosquito_risk":0,"arthritis_risk":5,"migraine_risk":7,"frizz_risk":0,"updated_at":"2026-05-02T21:21:08.528249+05:30"},{"city":"Bhopal","state":"Madhya Pradesh","latitude":23.2599,"longitude":77.4126,"temp":31.1,"humidity":33,"rain":0.0,"pressure":950.2,"uv_index":8.7,"wind_gusts":60.8,"aqi":65,"pm10":52.9,"pm2_5":23.1,"no2":7.4,"co":576.0,"o3":80.0,"so2":4.2,"mosquito_risk":0,"arthritis_risk":5,"migraine_risk":7,"frizz_risk":0,"updated_at":"2026-05-02T21:21:08.528256+05:30"},{"city":"Jabalpur","state":"Madhya Pradesh","latitude":23.1815,"longitude":79.9864,"temp":26.8,"humidity":61,"rain":0.0,"pressure":958.4,"uv_index":8.85,"wind_gusts":72.0,"aqi":72,"pm10":72.6,"pm2_5":26.7,"no2":14.2,"co":303.0,"o3":74.0,"so2":5.1,"mosquito_risk":7,"arthritis_risk":5,"migraine_risk":7,"frizz_risk":1,"updated_at":"2026-05-02T21:21:08.528263+05:30"},{"city":"Ujjain","state":"Madhya Pradesh","latitude":23.1765,"longitude":75.7885,"temp":33.0,"humidity":23,"rain":0.0,"pressure":950.1,"uv_index":8.6,"wind_gusts":51.5,"aqi":57,"pm10":46.8,"pm2_5":19.2,"no2":4.1,"co":230.0,"o3":91.0,"so2":3.6,"mosquito_risk":0,"arthritis_risk":5,"migraine_risk":7,"frizz_risk":0,"updated_at":"2026-05-02T21:21:08.528272+05:30"},{"city":"Visakhapatnam","state":"Andhra Pradesh","latitude":17.6868,"longitude":83.2185,"temp":28.5,"humidity":89,"rain":0.0,"pressure":1002.2,"uv_index":8.85,"wind_gusts":55.4,"aqi":60,"pm10":23.6,"pm2_5":18.8,"no2":20.5,"co":312.0,"o3":69.0,"so2":4.2,"mosquito_risk":7,"arthritis_risk":5,"migraine_risk":4,"frizz_risk":1,"updated_at":"2026-05-02T21:21:08.528279+05:30"},{"city":"Vijayawada","state":"Andhra Pradesh","latitude":16.5062,"longitude":80.648,"temp":31.1,"humidity":69,"rain":0.0,"pressure":1000.4,"uv_index":9.2,"wind_gusts":40.0,"aqi":138,"pm10":26.2,"pm2_5":24.0,"no2":6.5,"co":388.0,"o3":132.0,"so2":8.7,"mosquito_risk":3,"arthritis_risk":5,"migraine_risk":4,"frizz_risk":1,"updated_at":"2026-05-02T21:21:08.528286+05:30"},{"city":"Guntur","state":"Andhra Pradesh","latitude":16.3067,"longitude":80.4365,"temp":30.3,"humidity":81,"rain":0.0,"pressure":1001.6,"uv_index":9.2,"wind_gusts":41.0,"aqi":118,"pm10":40.0,"pm2_5":32.6,"no2":13.1,"co":273.0,"o3":111.0,"so2":9.1,"mosquito_risk":3,"arthritis_risk":5,"migraine_risk":4,"frizz_risk":1,"updated_at":"2026-05-02T21:21:08.528294+05:30"},{"city":"Nellore","state":"Andhra Pradesh","latitude":14.4426,"longitude":79.9865,"temp":31.2,"humidity":72,"rain":0.0,"pressure":1002.9,"uv_index":9.2,"wind_gusts":50.0,"aqi":133,"pm10":20.6,"pm2_5":16.8,"no2":6.1,"co":252.0,"o3":117.0,"so2":7.7,"mosquito_risk":3,"arthritis_risk":5,"migraine_risk":4,"frizz_risk":1,"updated_at":"2026-05-02T21:21:08.528301+05:30"},{"city":"Kurnool","state":"Andhra Pradesh","latitude":15.8281,"longitude":78.0373,"temp":33.8,"humidity":23,"rain":0.0,"pressure":973.5,"uv_index":9.2,"wind_gusts":32.8,"aqi":105,"pm10":51.0,"pm2_5":29.7,"no2":19.2,"co":260.0,"o3":89.0,"so2":9.1,"mosquito_risk":0,"arthritis_risk":5,"migraine_risk":7,"frizz_risk":0,"updated_at":"2026-05-02T21:21:08.528307+05:30"},{"city":"Kakinada","state":"Andhra Pradesh","latitude":16.9891,"longitude":82.2475,"temp":29.0,"humidity":88,"rain":0.0,"pressure":1005.7,"uv_index":9.15,"wind_gusts":43.6,"aqi":52,"pm10":19.4,"pm2_5":14.0,"no2":3.2,"co":249.0,"o3":86.0,"so2":2.5,"mosquito_risk":7,"arthritis_risk":5,"migraine_risk":4,"frizz_risk":1,"updated_at":"2026-05-02T21:21:08.528313+05:30"},{"city":"Tirupati","state":"Andhra Pradesh","latitude":13.6288,"longitude":79.4192,"temp":32.0,"humidity":61,"rain":0.0,"pressure":989.3,"uv_index":9.3,"wind_gusts":48.2,"aqi":128,"pm10":30.3,"pm2_5":26.7,"no2":13.4,"co":331.0,"o3":124.0,"so2":8.3,"mosquito_risk":3,"arthritis_risk":5,"migraine_risk":7,"frizz_risk":1,"updated_at":"2026-05-02T21:21:08.528319+05:30"},{"city":"Warangal","state":"Telangana","latitude":17.9689,"longitude":79.5941,"temp":32.5,"humidity":32,"rain":0.0,"pressure":975.2,"uv_index":9.15,"wind_gusts":31.0,"aqi":90,"pm10":70.1,"pm2_5":46.7,"no2":29.5,"co":476.0,"o3":66.0,"so2":11.2,"mosquito_risk":0,"arthritis_risk":5,"migraine_risk":7,"frizz_risk":0,"updated_at":"2026-05-02T21:21:08.528324+05:30"},{"city":"Nizamabad","state":"Telangana","latitude":18.6725,"longitude":78.0941,"temp":33.8,"humidity":20,"rain":0.0,"pressure":961.0,"uv_index":9.1,"wind_gusts":31.7,"aqi":74,"pm10":55.4,"pm2_5":31.7,"no2":17.8,"co":373.0,"o3":77.0,"so2":5.1,"mosquito_risk":0,"arthritis_risk":5,"migraine_risk":7,"frizz_risk":0,"updated_at":"2026-05-02T21:21:08.528330+05:30"},{"city":"Mysore","state":"Karnataka","latitude":12.2958,"longitude":76.6396,"temp":25.2,"humidity":80,"rain":0.0,"pressure":928.9,"uv_index":9.4,"wind_gusts":45.7,"aqi":93,"pm10":22.5,"pm2_5":17.9,"no2":9.9,"co":199.0,"o3":85.0,"so2":2.5,"mosquito_risk":7,"arthritis_risk":5,"migraine_risk":7,"frizz_risk":1,"updated_at":"2026-05-02T21:21:08.528335+05:30"},{"city":"Mangalore","state":"Karnataka","latitude":12.9141,"longitude":74.856,"temp":29.4,"humidity":74,"rain":0.0,"pressure":1007.2,"uv_index":9.05,"wind_gusts":44.3,"aqi":64,"pm10":34.7,"pm2_5":14.9,"no2":3.1,"co":170.0,"o3":69.0,"so2":1.4,"mosquito_risk":7,"arthritis_risk":5,"migraine_risk":4,"frizz_risk":1,"updated_at":"2026-05-02T21:21:08.528341+05:30"},{"city":"Hubli-Dharwad","state":"Karnataka","latitude":15.3647,"longitude":75.124,"temp":25.2,"humidity":77,"rain":0.0,"pressure":940.2,"uv_index":9.2,"wind_gusts":51.5,"aqi":61,"pm10":36.3,"pm2_5":15.7,"no2":5.9,"co":184.0,"o3":66.0,"so2":1.7,"mosquito_risk":7,"arthritis_risk":5,"migraine_risk":7,"frizz_risk":1,"updated_at":"2026-05-02T21:21:08.528348+05:30"},{"city":"Belgaum","state":"Karnataka","latitude":15.8497,"longitude":74.4977,"temp":23.0,"humidity":90,"rain":0.0,"pressure":924.9,"uv_index":9.2,"wind_gusts":48.6,"aqi":63,"pm10":40.0,"pm2_5":15.7,"no2":6.8,"co":170.0,"o3":55.0,"so2":2.2,"mosquito_risk":3,"arthritis_risk":5,"migraine_risk":7,"frizz_risk":1,"updated_at":"2026-05-02T21:21:11.854489+05:30"},{"city":"Coimbatore","state":"Tamil Nadu","latitude":11.0168,"longitude":76.9558,"temp":26.5,"humidity":82,"rain":0.0,"pressure":961.6,"uv_index":9.1,"wind_gusts":48.6,"aqi":73,"pm10":23.5,"pm2_5":20.7,"no2":9.4,"co":226.0,"o3":76.0,"so2":3.4,"mosquito_risk":7,"arthritis_risk":5,"migraine_risk":7,"frizz_risk":1,"updated_at":"2026-05-02T21:21:11.854519+05:30"},{"city":"Madurai","state":"Tamil Nadu","latitude":9.9252,"longitude":78.1198,"temp":30.7,"humidity":60,"rain":0.0,"pressure":992.4,"uv_index":9.2,"wind_gusts":40.0,"aqi":133,"pm10":26.3,"pm2_5":22.7,"no2":12.4,"co":414.0,"o3":105.0,"so2":6.3,"mosquito_risk":0,"arthritis_risk":5,"migraine_risk":7,"frizz_risk":1,"updated_at":"2026-05-02T21:21:11.854527+05:30"},{"city":"Trichy","state":"Tamil Nadu","latitude":10.7905,"longitude":78.7047,"temp":29.8,"humidity":59,"rain":0.0,"pressure":999.1,"uv_index":9.2,"wind_gusts":44.3,"aqi":120,"pm10":21.0,"pm2_5":19.1,"no2":8.5,"co":372.0,"o3":101.0,"so2":4.6,"mosquito_risk":4,"arthritis_risk":5,"migraine_risk":7,"frizz_risk":1,"updated_at":"2026-05-02T21:21:11.854535+05:30"},{"city":"Salem","state":"Tamil Nadu","latitude":11.6643,"longitude":78.146,"temp":30.7,"humidity":51,"rain":0.0,"pressure":977.1,"uv_index":9.25,"wind_gusts":44.3,"aqi":165,"pm10":30.7,"pm2_5":26.6,"no2":11.0,"co":320.0,"o3":125.0,"so2":8.7,"mosquito_risk":0,"arthritis_risk":5,"migraine_risk":7,"frizz_risk":1,"updated_at":"2026-05-02T21:21:11.854542+05:30"},{"city":"Tirunelveli","state":"Tamil Nadu","latitude":8.7139,"longitude":77.7567,"temp":30.9,"humidity":60,"rain":0.0,"pressure":1002.6,"uv_index":9.1,"wind_gusts":34.6,"aqi":61,"pm10":18.1,"pm2_5":16.2,"no2":7.4,"co":268.0,"o3":73.0,"so2":1.9,"mosquito_risk":0,"arthritis_risk":5,"migraine_risk":4,"frizz_risk":1,"updated_at":"2026-05-02T21:21:11.854549+05:30"},{"city":"Vellore","state":"Tamil Nadu","latitude":12.9165,"longitude":79.1325,"temp":31.8,"humidity":60,"rain":0.0,"pressure":983.0,"uv_index":9.3,"wind_gusts":46.1,"aqi":135,"pm10":39.0,"pm2_5":34.5,"no2":10.0,"co":319.0,"o3":135.0,"so2":8.4,"mosquito_risk":0,"arthritis_risk":5,"migraine_risk":7,"frizz_risk":1,"updated_at":"2026-05-02T21:21:11.854555+05:30"},{"city":"Erode","state":"Tamil Nadu","latitude":11.341,"longitude":77.7172,"temp":30.1,"humidity":65,"rain":0.0,"pressure":988.7,"uv_index":9.25,"wind_gusts":54.4,"aqi":125,"pm10":25.8,"pm2_5":23.1,"no2":15.8,"co":251.0,"o3":92.0,"so2":3.0,"mosquito_risk":3,"arthritis_risk":5,"migraine_risk":7,"frizz_risk":1,"updated_at":"2026-05-02T21:21:11.854561+05:30"},{"city":"Kochi","state":"Kerala","latitude":9.9312,"longitude":76.2673,"temp":27.5,"humidity":90,"rain":0.0,"pressure":1009.4,"uv_index":8.1,"wind_gusts":31.7,"aqi":74,"pm10":32.9,"pm2_5":28.3,"no2":29.8,"co":384.0,"o3":33.0,"so2":5.8,"mosquito_risk":7,"arthritis_risk":0,"migraine_risk":4,"frizz_risk":1,"updated_at":"2026-05-02T21:21:11.854568+05:30"},{"city":"Thiruvananthapuram","state":"Kerala","latitude":8.5241,"longitude":76.9366,"temp":25.8,"humidity":95,"rain":0.0,"pressure":1008.7,"uv_index":7.1,"wind_gusts":35.3,"aqi":53,"pm10":16.4,"pm2_5":11.1,"no2":3.2,"co":309.0,"o3":81.0,"so2":1.4,"mosquito_risk":7,"arthritis_risk":0,"migraine_risk":4,"frizz_risk":1,"updated_at":"2026-05-02T21:21:11.854591+05:30"},{"city":"Kozhikode","state":"Kerala","latitude":11.2588,"longitude":75.7804,"temp":26.6,"humidity":94,"rain":0.0,"pressure":1008.6,"uv_index":8.7,"wind_gusts":40.0,"aqi":58,"pm10":30.0,"pm2_5":17.6,"no2":2.0,"co":436.0,"o3":70.0,"so2":0.8,"mosquito_risk":7,"arthritis_risk":0,"migraine_risk":4,"frizz_risk":1,"updated_at":"2026-05-02T21:21:11.854598+05:30"},{"city":"Thrissur","state":"Kerala","latitude":10.5276,"longitude":76.2144,"temp":26.9,"humidity":93,"rain":0.0,"pressure":1007.8,"uv_index":7.8,"wind_gusts":38.2,"aqi":68,"pm10":32.5,"pm2_5":26.9,"no2":20.3,"co":419.0,"o3":41.0,"so2":3.7,"mosquito_risk":7,"arthritis_risk":5,"migraine_risk":4,"frizz_risk":1,"updated_at":"2026-05-02T21:21:11.854605+05:30"},{"city":"Kannur","state":"Kerala","latitude":11.8745,"longitude":75.3704,"temp":29.4,"humidity":77,"rain":0.0,"pressure":1007.7,"uv_index":9.0,"wind_gusts":50.0,"aqi":74,"pm10":27.8,"pm2_5":16.8,"no2":6.4,"co":197.0,"o3":59.0,"so2":1.4,"mosquito_risk":7,"arthritis_risk":5,"migraine_risk":4,"frizz_risk":1,"updated_at":"2026-05-02T21:21:11.854611+05:30"},{"city":"Patna","state":"Bihar","latitude":25.5941,"longitude":85.1376,"temp":25.8,"humidity":68,"rain":0.0,"pressure":998.2,"uv_index":8.65,"wind_gusts":30.2,"aqi":172,"pm10":61.5,"pm2_5":46.2,"no2":11.9,"co":357.0,"o3":135.0,"so2":14.3,"mosquito_risk":7,"arthritis_risk":5,"migraine_risk":7,"frizz_risk":1,"updated_at":"2026-05-02T21:21:11.854618+05:30"},{"city":"Gaya","state":"Bihar","latitude":24.7914,"longitude":85.0002,"temp":27.0,"humidity":63,"rain":0.0,"pressure":990.8,"uv_index":8.75,"wind_gusts":29.5,"aqi":173,"pm10":66.8,"pm2_5":42.4,"no2":8.6,"co":443.0,"o3":144.0,"so2":15.7,"mosquito_risk":7,"arthritis_risk":5,"migraine_risk":7,"frizz_risk":1,"updated_at":"2026-05-02T21:21:11.854624+05:30"},{"city":"Muzaffarpur","state":"Bihar","latitude":26.1209,"longitude":85.3647,"temp":24.7,"humidity":71,"rain":0.0,"pressure":999.0,"uv_index":8.65,"wind_gusts":30.6,"aqi":160,"pm10":57.2,"pm2_5":43.9,"no2":12.0,"co":355.0,"o3":126.0,"so2":11.2,"mosquito_risk":3,"arthritis_risk":5,"migraine_risk":7,"frizz_risk":1,"updated_at":"2026-05-02T21:21:11.854630+05:30"},{"city":"Bhagalpur","state":"Bihar","latitude":25.2425,"longitude":87.0117,"temp":24.5,"humidity":75,"rain":0.0,"pressure":1000.1,"uv_index":8.65,"wind_gusts":31.0,"aqi":171,"pm10":55.5,"pm2_5":43.9,"no2":11.0,"co":325.0,"o3":120.0,"so2":7.0,"mosquito_risk":3,"arthritis_risk":5,"migraine_risk":4,"frizz_risk":1,"updated_at":"2026-05-02T21:21:11.854636+05:30"},{"city":"Ranchi","state":"Jharkhand","latitude":23.3441,"longitude":85.3096,"temp":24.1,"humidity":61,"rain":0.0,"pressure":934.6,"uv_index":9.2,"wind_gusts":45.4,"aqi":138,"pm10":78.9,"pm2_5":44.6,"no2":17.9,"co":345.0,"o3":100.0,"so2":13.1,"mosquito_risk":3,"arthritis_risk":5,"migraine_risk":7,"frizz_risk":1,"updated_at":"2026-05-02T21:21:11.854642+05:30"},{"city":"Jamshedpur","state":"Jharkhand","latitude":22.8046,"longitude":86.2029,"temp":26.4,"humidity":76,"rain":0.0,"pressure":988.3,"uv_index":9.0,"wind_gusts":60.1,"aqi":183,"pm10":86.1,"pm2_5":68.9,"no2":19.9,"co":436.0,"o3":151.0,"so2":48.0,"mosquito_risk":7,"arthritis_risk":5,"migraine_risk":7,"frizz_risk":1,"updated_at":"2026-05-02T21:21:11.854648+05:30"},{"city":"Dhanbad","state":"Jharkhand","latitude":23.7957,"longitude":86.4304,"temp":24.7,"humidity":82,"rain":0.0,"pressure":977.6,"uv_index":9.0,"wind_gusts":29.9,"aqi":206,"pm10":107.8,"pm2_5":94.1,"no2":45.4,"co":635.0,"o3":145.0,"so2":81.6,"mosquito_risk":3,"arthritis_risk":5,"migraine_risk":7,"frizz_risk":1,"updated_at":"2026-05-02T21:21:11.854655+05:30"},{"city":"Bokaro","state":"Jharkhand","latitude":23.6693,"longitude":86.1511,"temp":25.0,"humidity":77,"rain":0.0,"pressure":981.5,"uv_index":8.85,"wind_gusts":25.6,"aqi":168,"pm10":108.3,"pm2_5":87.8,"no2":47.2,"co":932.0,"o3":138.0,"so2":89.3,"mosquito_risk":7,"arthritis_risk":5,"migraine_risk":7,"frizz_risk":1,"updated_at":"2026-05-02T21:21:11.854662+05:30"},{"city":"Bhubaneswar","state":"Odisha","latitude":20.2961,"longitude":85.8245,"temp":28.0,"humidity":86,"rain":0.0,"pressure":999.9,"uv_index":9.05,"wind_gusts":54.7,"aqi":83,"pm10":15.7,"pm2_5":14.1,"no2":6.1,"co":263.0,"o3":88.0,"so2":4.7,"mosquito_risk":7,"arthritis_risk":5,"migraine_risk":7,"frizz_risk":1,"updated_at":"2026-05-02T21:21:11.854668+05:30"},{"city":"Cuttack","state":"Odisha","latitude":20.4625,"longitude":85.8828,"temp":28.4,"humidity":84,"rain":0.0,"pressure":1001.5,"uv_index":9.1,"wind_gusts":52.2,"aqi":83,"pm10":15.7,"pm2_5":14.1,"no2":6.1,"co":315.0,"o3":88.0,"so2":4.7,"mosquito_risk":7,"arthritis_risk":5,"migraine_risk":4,"frizz_risk":1,"updated_at":"2026-05-02T21:21:11.854674+05:30"},{"city":"Rourkela","state":"Odisha","latitude":22.2604,"longitude":84.8536,"temp":28.2,"humidity":50,"rain":0.0,"pressure":981.4,"uv_index":8.95,"wind_gusts":51.1,"aqi":155,"pm10":70.3,"pm2_5":42.8,"no2":12.1,"co":706.0,"o3":114.0,"so2":26.2,"mosquito_risk":4,"arthritis_risk":5,"migraine_risk":7,"frizz_risk":1,"updated_at":"2026-05-02T21:21:11.854680+05:30"},{"city":"Raipur","state":"Chhattisgarh","latitude":21.2514,"longitude":81.6296,"temp":31.9,"humidity":35,"rain":0.0,"pressure":971.5,"uv_index":9.0,"wind_gusts":51.1,"aqi":141,"pm10":49.5,"pm2_5":33.2,"no2":31.0,"co":306.0,"o3":85.0,"so2":8.7,"mosquito_risk":0,"arthritis_risk":5,"migraine_risk":7,"frizz_risk":0,"updated_at":"2026-05-02T21:21:11.854686+05:30"},{"city":"Bhilai","state":"Chhattisgarh","latitude":21.1938,"longitude":81.3509,"temp":32.3,"humidity":32,"rain":0.0,"pressure":972.2,"uv_index":9.0,"wind_gusts":51.5,"aqi":131,"pm10":44.8,"pm2_5":26.2,"no2":19.3,"co":247.0,"o3":105.0,"so2":6.5,"mosquito_risk":0,"arthritis_risk":5,"migraine_risk":7,"frizz_risk":0,"updated_at":"2026-05-02T21:21:11.854692+05:30"},{"city":"Guwahati","state":"Assam","latitude":26.1158,"longitude":91.7086,"temp":20.2,"humidity":99,"rain":0.5,"pressure":1002.5,"uv_index":4.3,"wind_gusts":21.6,"aqi":64,"pm10":29.6,"pm2_5":25.9,"no2":11.7,"co":386.0,"o3":69.0,"so2":3.0,"mosquito_risk":6,"arthritis_risk":5,"migraine_risk":0,"frizz_risk":1,"updated_at":"2026-05-02T21:21:11.854698+05:30"},{"city":"Agartala","state":"Tripura","latitude":23.8315,"longitude":91.2868,"temp":22.9,"humidity":94,"rain":0.0,"pressure":1005.5,"uv_index":8.8,"wind_gusts":36.0,"aqi":41,"pm10":12.9,"pm2_5":11.9,"no2":10.4,"co":224.0,"o3":46.0,"so2":1.8,"mosquito_risk":3,"arthritis_risk":5,"migraine_risk":4,"frizz_risk":1,"updated_at":"2026-05-02T21:21:11.854704+05:30"},{"city":"Shillong","state":"Meghalaya","latitude":25.5788,"longitude":91.8933,"temp":14.5,"humidity":95,"rain":0.0,"pressure":854.6,"uv_index":5.85,"wind_gusts":31.0,"aqi":48,"pm10":4.9,"pm2_5":3.5,"no2":5.5,"co":345.0,"o3":89.0,"so2":1.3,"mosquito_risk":3,"arthritis_risk":10,"migraine_risk":3,"frizz_risk":0,"updated_at":"2026-05-02T21:21:11.854710+05:30"},{"city":"Imphal","state":"Manipur","latitude":24.817,"longitude":93.9368,"temp":17.2,"humidity":96,"rain":0.0,"pressure":922.6,"uv_index":6.3,"wind_gusts":25.2,"aqi":53,"pm10":21.2,"pm2_5":18.3,"no2":16.7,"co":990.0,"o3":43.0,"so2":3.0,"mosquito_risk":3,"arthritis_risk":10,"migraine_risk":7,"frizz_risk":1,"updated_at":"2026-05-02T21:21:11.854715+05:30"},{"city":"Aizawl","state":"Mizoram","latitude":23.7271,"longitude":92.7176,"temp":15.4,"humidity":92,"rain":0.0,"pressure":890.8,"uv_index":9.0,"wind_gusts":46.8,"aqi":36,"pm10":10.4,"pm2_5":7.6,"no2":4.8,"co":206.0,"o3":52.0,"so2":0.4,"mosquito_risk":3,"arthritis_risk":10,"migraine_risk":7,"frizz_risk":0,"updated_at":"2026-05-02T21:21:11.854721+05:30"},{"city":"Kohima","state":"Nagaland","latitude":25.6701,"longitude":94.1077,"temp":14.4,"humidity":89,"rain":0.0,"pressure":853.1,"uv_index":6.0,"wind_gusts":28.4,"aqi":40,"pm10":13.2,"pm2_5":10.0,"no2":7.8,"co":413.0,"o3":62.0,"so2":1.2,"mosquito_risk":3,"arthritis_risk":10,"migraine_risk":3,"frizz_risk":0,"updated_at":"2026-05-02T21:21:11.854727+05:30"},{"city":"Gangtok","state":"Sikkim","latitude":27.3314,"longitude":88.6138,"temp":11.7,"humidity":91,"rain":0.0,"pressure":833.9,"uv_index":4.0,"wind_gusts":25.9,"aqi":63,"pm10":15.4,"pm2_5":14.3,"no2":15.2,"co":631.0,"o3":93.0,"so2":1.7,"mosquito_risk":3,"arthritis_risk":10,"migraine_risk":3,"frizz_risk":0,"updated_at":"2026-05-02T21:21:11.854732+05:30"},{"city":"Siliguri","state":"West Bengal","latitude":26.7271,"longitude":88.3953,"temp":20.3,"humidity":95,"rain":0.0,"pressure":993.3,"uv_index":2.75,"wind_gusts":22.0,"aqi":75,"pm10":24.9,"pm2_5":23.9,"no2":21.2,"co":669.0,"o3":89.0,"so2":4.4,"mosquito_risk":3,"arthritis_risk":5,"migraine_risk":3,"frizz_risk":1,"updated_at":"2026-05-02T21:21:15.196209+05:30"},{"city":"Durgapur","state":"West Bengal","latitude":23.5204,"longitude":87.3119,"temp":24.2,"humidity":89,"rain":0.0,"pressure":993.0,"uv_index":8.9,"wind_gusts":26.3,"aqi":206,"pm10":61.0,"pm2_5":55.1,"no2":22.1,"co":469.0,"o3":126.0,"so2":33.7,"mosquito_risk":3,"arthritis_risk":5,"migraine_risk":7,"frizz_risk":1,"updated_at":"2026-05-02T21:21:15.196241+05:30"},{"city":"Asansol","state":"West Bengal","latitude":23.6739,"longitude":86.9524,"temp":24.5,"humidity":86,"rain":0.0,"pressure":991.6,"uv_index":8.95,"wind_gusts":27.7,"aqi":212,"pm10":79.4,"pm2_5":70.8,"no2":26.1,"co":533.0,"o3":150.0,"so2":51.9,"mosquito_risk":3,"arthritis_risk":5,"migraine_risk":7,"frizz_risk":1,"updated_at":"2026-05-02T21:21:15.196252+05:30"},{"city":"Pondicherry","state":"Puducherry","latitude":11.9139,"longitude":79.8145,"temp":31.5,"humidity":68,"rain":0.0,"pressure":1006.7,"uv_index":9.15,"wind_gusts":52.2,"aqi":83,"pm10":16.4,"pm2_5":13.0,"no2":7.8,"co":280.0,"o3":87.0,"so2":4.4,"mosquito_risk":3,"arthritis_risk":5,"migraine_risk":4,"frizz_risk":1,"updated_at":"2026-05-02T21:21:15.196260+05:30"},{"city":"Port Blair","state":"Andaman and Nicobar Islands","latitude":11.6234,"longitude":92.7265,"temp":28.9,"humidity":74,"rain":0.0,"pressure":1008.5,"uv_index":9.0,"wind_gusts":32.4,"aqi":35,"pm10":12.5,"pm2_5":9.0,"no2":0.4,"co":171.0,"o3":59.0,"so2":0.3,"mosquito_risk":7,"arthritis_risk":0,"migraine_risk":4,"frizz_risk":1,"updated_at":"2026-05-02T21:21:15.196268+05:30"},{"city":"Haridwar","state":"Uttarakhand","latitude":29.9457,"longitude":78.1642,"temp":23.5,"humidity":70,"rain":0.0,"pressure":968.8,"uv_index":7.4,"wind_gusts":27.4,"aqi":154,"pm10":87.8,"pm2_5":43.7,"no2":15.4,"co":367.0,"o3":117.0,"so2":8.8,"mosquito_risk":3,"arthritis_risk":5,"migraine_risk":7,"frizz_risk":1,"updated_at":"2026-05-02T21:21:15.196277+05:30"},{"city":"Rishikesh","state":"Uttarakhand","latitude":30.0869,"longitude":78.2676,"temp":21.7,"humidity":75,"rain":0.0,"pressure":961.6,"uv_index":7.5,"wind_gusts":24.5,"aqi":156,"pm10":79.4,"pm2_5":37.5,"no2":9.1,"co":361.0,"o3":129.0,"so2":5.7,"mosquito_risk":3,"arthritis_risk":5,"migraine_risk":7,"frizz_risk":1,"updated_at":"2026-05-02T21:21:15.196285+05:30"},{"city":"Nainital","state":"Uttarakhand","latitude":29.3919,"longitude":79.4542,"temp":11.7,"humidity":91,"rain":0.0,"pressure":800.7,"uv_index":8.1,"wind_gusts":38.5,"aqi":153,"pm10":85.9,"pm2_5":40.5,"no2":12.0,"co":368.0,"o3":120.0,"so2":8.0,"mosquito_risk":3,"arthritis_risk":10,"migraine_risk":7,"frizz_risk":0,"updated_at":"2026-05-02T21:21:15.196293+05:30"},{"city":"Mussoorie","state":"Uttarakhand","latitude":30.4599,"longitude":78.0664,"temp":11.7,"humidity":93,"rain":0.0,"pressure":797.3,"uv_index":7.9,"wind_gusts":52.6,"aqi":166,"pm10":89.6,"pm2_5":38.2,"no2":21.5,"co":333.0,"o3":126.0,"so2":14.1,"mosquito_risk":3,"arthritis_risk":10,"migraine_risk":7,"frizz_risk":0,"updated_at":"2026-05-02T21:21:15.196300+05:30"},{"city":"Dharamshala","state":"Himachal Pradesh","latitude":32.219,"longitude":76.3234,"temp":17.9,"humidity":52,"rain":0.0,"pressure":864.2,"uv_index":8.25,"wind_gusts":50.0,"aqi":117,"pm10":19.5,"pm2_5":13.8,"no2":10.6,"co":293.0,"o3":106.0,"so2":1.5,"mosquito_risk":0,"arthritis_risk":5,"migraine_risk":7,"frizz_risk":0,"updated_at":"2026-05-02T21:21:15.196308+05:30"},{"city":"Dalhousie","state":"Himachal Pradesh","latitude":32.5387,"longitude":75.971,"temp":10.9,"humidity":84,"rain":0.0,"pressure":798.6,"uv_index":8.5,"wind_gusts":37.4,"aqi":129,"pm10":33.4,"pm2_5":24.7,"no2":35.5,"co":420.0,"o3":93.0,"so2":3.5,"mosquito_risk":3,"arthritis_risk":10,"migraine_risk":7,"frizz_risk":0,"updated_at":"2026-05-02T21:21:15.196316+05:30"},{"city":"Patiala","state":"Punjab","latitude":30.3398,"longitude":76.3869,"temp":29.0,"humidity":40,"rain":0.0,"pressure":972.7,"uv_index":7.5,"wind_gusts":30.6,"aqi":242,"pm10":301.7,"pm2_5":53.8,"no2":10.3,"co":296.0,"o3":113.0,"so2":14.7,"mosquito_risk":4,"arthritis_risk":5,"migraine_risk":7,"frizz_risk":0,"updated_at":"2026-05-02T21:21:15.196324+05:30"},{"city":"Bhatinda","state":"Punjab","latitude":30.211,"longitude":74.9455,"temp":31.5,"humidity":27,"rain":0.0,"pressure":977.5,"uv_index":8.15,"wind_gusts":38.9,"aqi":160,"pm10":55.8,"pm2_5":29.2,"no2":10.1,"co":313.0,"o3":104.0,"so2":8.5,"mosquito_risk":0,"arthritis_risk":5,"migraine_risk":7,"frizz_risk":0,"updated_at":"2026-05-02T21:21:15.196331+05:30"},{"city":"Rohtak","state":"Haryana","latitude":28.8955,"longitude":76.6066,"temp":29.4,"humidity":48,"rain":0.0,"pressure":975.9,"uv_index":7.65,"wind_gusts":28.1,"aqi":382,"pm10":351.1,"pm2_5":102.2,"no2":54.4,"co":457.0,"o3":78.0,"so2":28.1,"mosquito_risk":4,"arthritis_risk":5,"migraine_risk":7,"frizz_risk":1,"updated_at":"2026-05-02T21:21:15.196339+05:30"},{"city":"Panipat","state":"Haryana","latitude":29.3909,"longitude":76.9635,"temp":28.0,"humidity":56,"rain":0.0,"pressure":975.1,"uv_index":7.45,"wind_gusts":25.9,"aqi":468,"pm10":465.7,"pm2_5":110.6,"no2":37.3,"co":554.0,"o3":92.0,"so2":22.8,"mosquito_risk":4,"arthritis_risk":5,"migraine_risk":7,"frizz_risk":1,"updated_at":"2026-05-02T21:21:15.196346+05:30"},{"city":"Mathura","state":"Uttar Pradesh","latitude":27.4924,"longitude":77.6737,"temp":29.3,"humidity":44,"rain":0.0,"pressure":981.2,"uv_index":7.9,"wind_gusts":30.2,"aqi":670,"pm10":756.2,"pm2_5":96.4,"no2":16.5,"co":474.0,"o3":107.0,"so2":10.1,"mosquito_risk":4,"arthritis_risk":5,"migraine_risk":7,"frizz_risk":0,"updated_at":"2026-05-02T21:21:15.196353+05:30"},{"city":"Vrindavan","state":"Uttar Pradesh","latitude":27.5823,"longitude":77.7027,"temp":29.6,"humidity":43,"rain":0.0,"pressure":981.7,"uv_index":7.85,"wind_gusts":29.9,"aqi":670,"pm10":756.2,"pm2_5":96.4,"no2":16.5,"co":436.0,"o3":107.0,"so2":10.1,"mosquito_risk":4,"arthritis_risk":5,"migraine_risk":7,"frizz_risk":0,"updated_at":"2026-05-02T21:21:15.196360+05:30"},{"city":"Ayodhya","state":"Uttar Pradesh","latitude":26.7922,"longitude":82.1998,"temp":28.0,"humidity":54,"rain":0.0,"pressure":992.2,"uv_index":8.25,"wind_gusts":41.0,"aqi":151,"pm10":96.6,"pm2_5":44.2,"no2":19.9,"co":421.0,"o3":103.0,"so2":9.6,"mosquito_risk":4,"arthritis_risk":5,"migraine_risk":7,"frizz_risk":1,"updated_at":"2026-05-02T21:21:15.196368+05:30"},{"city":"Ratlam","state":"Madhya Pradesh","latitude":23.3315,"longitude":75.0367,"temp":32.0,"humidity":30,"rain":0.0,"pressure":950.7,"uv_index":8.55,"wind_gusts":50.0,"aqi":55,"pm10":62.4,"pm2_5":21.0,"no2":1.9,"co":162.0,"o3":108.0,"so2":4.3,"mosquito_risk":0,"arthritis_risk":5,"migraine_risk":7,"frizz_risk":0,"updated_at":"2026-05-02T21:21:15.196375+05:30"},{"city":"Sagar","state":"Madhya Pradesh","latitude":23.8388,"longitude":78.7378,"temp":25.6,"humidity":60,"rain":0.0,"pressure":945.8,"uv_index":8.7,"wind_gusts":73.1,"aqi":70,"pm10":60.8,"pm2_5":22.3,"no2":7.4,"co":221.0,"o3":85.0,"so2":4.1,"mosquito_risk":4,"arthritis_risk":5,"migraine_risk":7,"frizz_risk":1,"updated_at":"2026-05-02T21:21:15.196382+05:30"},{"city":"Satna","state":"Madhya Pradesh","latitude":24.6005,"longitude":80.8322,"temp":26.6,"humidity":63,"rain":0.0,"pressure":967.6,"uv_index":8.7,"wind_gusts":51.5,"aqi":98,"pm10":40.5,"pm2_5":19.0,"no2":12.1,"co":277.0,"o3":94.0,"so2":5.0,"mosquito_risk":7,"arthritis_risk":5,"migraine_risk":7,"frizz_risk":1,"updated_at":"2026-05-02T21:21:15.196389+05:30"},{"city":"Akola","state":"Maharashtra","latitude":20.7002,"longitude":77.0082,"temp":35.6,"humidity":23,"rain":0.0,"pressure":971.5,"uv_index":8.9,"wind_gusts":46.8,"aqi":58,"pm10":39.2,"pm2_5":17.9,"no2":6.4,"co":171.0,"o3":86.0,"so2":8.6,"mosquito_risk":0,"arthritis_risk":5,"migraine_risk":10,"frizz_risk":0,"updated_at":"2026-05-02T21:21:15.196397+05:30"},{"city":"Amravati","state":"Maharashtra","latitude":20.9374,"longitude":77.7796,"temp":34.8,"humidity":22,"rain":0.0,"pressure":963.8,"uv_index":8.9,"wind_gusts":42.8,"aqi":57,"pm10":56.9,"pm2_5":22.5,"no2":9.4,"co":267.0,"o3":77.0,"so2":7.5,"mosquito_risk":0,"arthritis_risk":5,"migraine_risk":7,"frizz_risk":0,"updated_at":"2026-05-02T21:21:15.196406+05:30"},{"city":"Latur","state":"Maharashtra","latitude":18.4088,"longitude":76.5604,"temp":33.8,"humidity":17,"rain":0.0,"pressure":936.9,"uv_index":9.05,"wind_gusts":32.8,"aqi":57,"pm10":44.5,"pm2_5":20.4,"no2":10.8,"co":300.0,"o3":77.0,"so2":7.3,"mosquito_risk":0,"arthritis_risk":5,"migraine_risk":7,"frizz_risk":0,"updated_at":"2026-05-02T21:21:15.196414+05:30"},{"city":"Nanded","state":"Maharashtra","latitude":19.1383,"longitude":77.3091,"temp":34.1,"humidity":19,"rain":0.0,"pressure":964.9,"uv_index":8.95,"wind_gusts":31.3,"aqi":64,"pm10":59.5,"pm2_5":24.9,"no2":14.1,"co":511.0,"o3":69.0,"so2":3.3,"mosquito_risk":0,"arthritis_risk":5,"migraine_risk":7,"frizz_risk":0,"updated_at":"2026-05-02T21:21:15.196421+05:30"},{"city":"Gulbarga","state":"Karnataka","latitude":17.3297,"longitude":76.8343,"temp":34.9,"humidity":15,"rain":0.0,"pressure":955.3,"uv_index":9.1,"wind_gusts":41.8,"aqi":58,"pm10":57.9,"pm2_5":29.1,"no2":37.0,"co":192.0,"o3":52.0,"so2":5.7,"mosquito_risk":0,"arthritis_risk":5,"migraine_risk":7,"frizz_risk":0,"updated_at":"2026-05-02T21:21:15.196428+05:30"},{"city":"Bidar","state":"Karnataka","latitude":17.9104,"longitude":77.5199,"temp":31.4,"humidity":21,"rain":0.0,"pressure":932.5,"uv_index":9.1,"wind_gusts":34.6,"aqi":67,"pm10":49.4,"pm2_5":28.9,"no2":22.4,"co":403.0,"o3":68.0,"so2":5.4,"mosquito_risk":0,"arthritis_risk":5,"migraine_risk":7,"frizz_risk":0,"updated_at":"2026-05-02T21:21:15.196435+05:30"},{"city":"Hospet","state":"Karnataka","latitude":15.2689,"longitude":76.3909,"temp":29.9,"humidity":56,"rain":0.0,"pressure":954.7,"uv_index":9.2,"wind_gusts":41.8,"aqi":72,"pm10":37.7,"pm2_5":21.4,"no2":18.7,"co":206.0,"o3":78.0,"so2":2.9,"mosquito_risk":4,"arthritis_risk":5,"migraine_risk":7,"frizz_risk":1,"updated_at":"2026-05-02T21:21:15.196442+05:30"},{"city":"Tirupur","state":"Tamil Nadu","latitude":11.1085,"longitude":77.3411,"temp":27.4,"humidity":79,"rain":0.0,"pressure":974.6,"uv_index":9.3,"wind_gusts":55.8,"aqi":108,"pm10":27.0,"pm2_5":23.4,"no2":17.1,"co":222.0,"o3":78.0,"so2":4.9,"mosquito_risk":7,"arthritis_risk":5,"migraine_risk":7,"frizz_risk":1,"updated_at":"2026-05-02T21:21:15.196449+05:30"},{"city":"Alappuzha","state":"Kerala","latitude":9.4981,"longitude":76.3388,"temp":26.8,"humidity":91,"rain":0.0,"pressure":1009.4,"uv_index":8.2,"wind_gusts":29.9,"aqi":72,"pm10":31.0,"pm2_5":22.3,"no2":14.5,"co":153.0,"o3":62.0,"so2":4.6,"mosquito_risk":7,"arthritis_risk":0,"migraine_risk":4,"frizz_risk":1,"updated_at":"2026-05-02T21:21:15.196456+05:30"},{"city":"Munnar","state":"Kerala","latitude":10.0889,"longitude":77.0595,"temp":17.8,"humidity":96,"rain":0.0,"pressure":857.1,"uv_index":9.2,"wind_gusts":24.8,"aqi":57,"pm10":15.5,"pm2_5":14.1,"no2":9.7,"co":247.0,"o3":61.0,"so2":1.7,"mosquito_risk":3,"arthritis_risk":10,"migraine_risk":7,"frizz_risk":1,"updated_at":"2026-05-02T21:21:15.196463+05:30"},{"city":"Silchar","state":"Assam","latitude":24.8333,"longitude":92.7789,"temp":20.3,"humidity":100,"rain":0.0,"pressure":1005.7,"uv_index":6.75,"wind_gusts":32.8,"aqi":53,"pm10":30.3,"pm2_5":24.2,"no2":12.1,"co":362.0,"o3":51.0,"so2":5.7,"mosquito_risk":3,"arthritis_risk":5,"migraine_risk":4,"frizz_risk":1,"updated_at":"2026-05-02T21:21:15.196470+05:30"},{"city":"Dibrugarh","state":"Assam","latitude":27.4728,"longitude":94.912,"temp":21.2,"humidity":93,"rain":0.2,"pressure":996.6,"uv_index":7.3,"wind_gusts":22.7,"aqi":59,"pm10":22.2,"pm2_5":19.2,"no2":11.1,"co":330.0,"o3":67.0,"so2":1.9,"mosquito_risk":6,"arthritis_risk":5,"migraine_risk":7,"frizz_risk":1,"updated_at":"2026-05-02T21:21:15.196478+05:30"}]