[{"city":"Delhi","state":"Delhi","latitude":28.6139,"longitude":77.209,"temp":31.1,"humidity":41,"rain":0.0,"pressure":983.1,"uv_index":7.55,"wind_gusts":28.4,"aqi":206,"pm10":179.7,"pm2_5":51.5,"no2":20.8,"co":506.0,"o3":152.0,"so2":23.8,"mosquito_risk":0,"arthritis_risk":5,"migraine_risk":7,"frizz_risk":1,"updated_at":"2026-05-09T20:24:22.163122+05:30"},{"city":"Mumbai","state":"Maharashtra","latitude":19.076,"longitude":72.8777,"temp":31.0,"humidity":65,"rain":0.0,"pressure":1006.3,"uv_index":7.85,"wind_gusts":48.2,"aqi":117,"pm10":45.4,"pm2_5":23.0,"no2":14.8,"co":325.0,"o3":96.0,"so2":9.9,"mosquito_risk":3,"arthritis_risk":5,"migraine_risk":4,"frizz_risk":1,"updated_at":"2026-05-09T20:24:22.163169+05:30"},{"city":"Bangalore","state":"Karnataka","latitude":12.9716,"longitude":77.5946,"temp":23.6,"humidity":81,"rain":0.0,"pressure":911.4,"uv_index":9.45,"wind_gusts":44.3,"aqi":49,"pm10":12.0,"pm2_5":11.9,"no2":27.7,"co":381.0,"o3":40.0,"so2":7.2,"mosquito_risk":3,"arthritis_risk":5,"migraine_risk":7,"frizz_risk":1,"updated_at":"2026-05-09T20:24:22.163201+05:30"},{"city":"Hyderabad","state":"Telangana","latitude":17.385,"longitude":78.4867,"temp":32.5,"humidity":35,"rain":0.0,"pressure":953.7,"uv_index":9.05,"wind_gusts":28.1,"aqi":115,"pm10":22.8,"pm2_5":18.2,"no2":13.1,"co":364.0,"o3":111.0,"so2":6.8,"mosquito_risk":0,"arthritis_risk":5,"migraine_risk":7,"frizz_risk":0,"updated_at":"2026-05-09T20:24:22.163212+05:30"},{"city":"Chennai","state":"Tamil Nadu","latitude":13.0827,"longitude":80.2707,"temp":28.0,"humidity":82,"rain":0.0,"pressure":1007.3,"uv_index":8.35,"wind_gusts":34.9,"aqi":24,"pm10":6.2,"pm2_5":4.4,"no2":6.1,"co":251.0,"o3":42.0,"so2":3.0,"mosquito_risk":7,"arthritis_risk":5,"migraine_risk":4,"frizz_risk":1,"updated_at":"2026-05-09T20:24:22.163222+05:30"},{"city":"Kolkata","state":"West Bengal","latitude":22.5726,"longitude":88.3639,"temp":26.2,"humidity":86,"rain":0.0,"pressure":1008.2,"uv_index":8.9,"wind_gusts":49.3,"aqi":188,"pm10":70.3,"pm2_5":65.2,"no2":23.6,"co":721.0,"o3":119.0,"so2":18.6,"mosquito_risk":7,"arthritis_risk":0,"migraine_risk":4,"frizz_risk":1,"updated_at":"2026-05-09T20:24:22.163235+05:30"},{"city":"Pune","state":"Maharashtra","latitude":18.5204,"longitude":73.8567,"temp":31.9,"humidity":34,"rain":0.0,"pressure":947.4,"uv_index":8.5,"wind_gusts":32.4,"aqi":154,"pm10":47.5,"pm2_5":31.0,"no2":14.2,"co":306.0,"o3":137.0,"so2":9.9,"mosquito_risk":0,"arthritis_risk":5,"migraine_risk":7,"frizz_risk":0,"updated_at":"2026-05-09T20:24:22.163243+05:30"},{"city":"Ahmedabad","state":"Gujarat","latitude":23.0225,"longitude":72.5714,"temp":40.0,"humidity":12,"rain":0.0,"pressure":999.2,"uv_index":8.1,"wind_gusts":32.0,"aqi":87,"pm10":37.0,"pm2_5":20.7,"no2":17.2,"co":285.0,"o3":93.0,"so2":6.3,"mosquito_risk":0,"arthritis_risk":5,"migraine_risk":10,"frizz_risk":0,"updated_at":"2026-05-09T20:24:22.163253+05:30"},{"city":"Jaipur","state":"Rajasthan","latitude":26.9124,"longitude":75.7873,"temp":32.1,"humidity":32,"rain":0.0,"pressure":959.4,"uv_index":8.15,"wind_gusts":29.9,"aqi":157,"pm10":143.0,"pm2_5":40.7,"no2":17.8,"co":472.0,"o3":111.0,"so2":7.3,"mosquito_risk":0,"arthritis_risk":5,"migraine_risk":7,"frizz_risk":0,"updated_at":"2026-05-09T20:24:22.163264+05:30"},{"city":"Lucknow","state":"Uttar Pradesh","latitude":26.8467,"longitude":80.9462,"temp":27.0,"humidity":59,"rain":0.0,"pressure":994.5,"uv_index":8.0,"wind_gusts":35.3,"aqi":162,"pm10":58.4,"pm2_5":41.0,"no2":15.3,"co":433.0,"o3":123.0,"so2":14.0,"mosquito_risk":4,"arthritis_risk":5,"migraine_risk":7,"frizz_risk":1,"updated_at":"2026-05-09T20:24:22.163272+05:30"},{"city":"Kanpur","state":"Uttar Pradesh","latitude":26.4499,"longitude":80.3319,"temp":28.1,"humidity":57,"rain":0.0,"pressure":992.3,"uv_index":8.05,"wind_gusts":37.1,"aqi":195,"pm10":253.3,"pm2_5":54.7,"no2":8.1,"co":345.0,"o3":142.0,"so2":9.8,"mosquito_risk":4,"arthritis_risk":5,"migraine_risk":7,"frizz_risk":1,"updated_at":"2026-05-09T20:24:22.163279+05:30"},{"city":"Chandigarh","state":"Chandigarh","latitude":30.7333,"longitude":76.7794,"temp":28.5,"humidity":43,"rain":0.0,"pressure":969.0,"uv_index":7.6,"wind_gusts":28.4,"aqi":184,"pm10":160.2,"pm2_5":47.4,"no2":23.1,"co":1090.0,"o3":141.0,"so2":14.5,"mosquito_risk":4,"arthritis_risk":5,"migraine_risk":7,"frizz_risk":0,"updated_at":"2026-05-09T20:24:22.163288+05:30"},{"city":"Srinagar","state":"Jammu and Kashmir","latitude":34.0837,"longitude":74.7973,"temp":16.6,"humidity":72,"rain":0.0,"pressure":839.6,"uv_index":8.85,"wind_gusts":18.0,"aqi":122,"pm10":54.7,"pm2_5":22.5,"no2":23.9,"co":1026.0,"o3":111.0,"so2":5.2,"mosquito_risk":3,"arthritis_risk":5,"migraine_risk":7,"frizz_risk":0,"updated_at":"2026-05-09T20:24:22.163295+05:30"},{"city":"Jammu","state":"Jammu and Kashmir","latitude":32.7266,"longitude":74.857,"temp":30.0,"humidity":40,"rain":0.0,"pressure":972.1,"uv_index":8.4,"wind_gusts":32.4,"aqi":172,"pm10":126.2,"pm2_5":53.9,"no2":24.6,"co":573.0,"o3":128.0,"so2":8.4,"mosquito_risk":4,"arthritis_risk":5,"migraine_risk":7,"frizz_risk":0,"updated_at":"2026-05-09T20:24:22.163303+05:30"},{"city":"Amritsar","state":"Punjab","latitude":31.634,"longitude":74.8723,"temp":31.0,"humidity":44,"rain":0.0,"pressure":980.0,"uv_index":8.3,"wind_gusts":24.8,"aqi":188,"pm10":263.6,"pm2_5":73.6,"no2":14.6,"co":561.0,"o3":145.0,"so2":12.1,"mosquito_risk":0,"arthritis_risk":5,"migraine_risk":7,"frizz_risk":1,"updated_at":"2026-05-09T20:24:22.163311+05:30"},{"city":"Ludhiana","state":"Punjab","latitude":30.901,"longitude":75.8573,"temp":29.8,"humidity":49,"rain":0.0,"pressure":978.4,"uv_index":7.9,"wind_gusts":34.2,"aqi":169,"pm10":206.3,"pm2_5":64.7,"no2":16.2,"co":421.0,"o3":117.0,"so2":7.0,"mosquito_risk":4,"arthritis_risk":5,"migraine_risk":7,"frizz_risk":1,"updated_at":"2026-05-09T20:24:22.163317+05:30"},{"city":"Jalandhar","state":"Punjab","latitude":31.326,"longitude":75.5762,"temp":29.4,"humidity":50,"rain":0.0,"pressure":979.1,"uv_index":8.05,"wind_gusts":25.9,"aqi":173,"pm10":243.1,"pm2_5":71.5,"no2":19.8,"co":710.0,"o3":122.0,"so2":9.3,"mosquito_risk":4,"arthritis_risk":5,"migraine_risk":7,"frizz_risk":1,"updated_at":"2026-05-09T20:24:22.163324+05:30"},{"city":"Dehradun","state":"Uttarakhand","latitude":30.6284,"longitude":78.0322,"temp":15.1,"humidity":81,"rain":0.0,"pressure":830.7,"uv_index":8.0,"wind_gusts":28.8,"aqi":135,"pm10":52.7,"pm2_5":26.4,"no2":12.0,"co":257.0,"o3":143.0,"so2":3.4,"mosquito_risk":3,"arthritis_risk":10,"migraine_risk":7,"frizz_risk":0,"updated_at":"2026-05-09T20:24:22.163335+05:30"},{"city":"Shimla","state":"Himachal Pradesh","latitude":31.1048,"longitude":77.1734,"temp":13.6,"humidity":74,"rain":0.0,"pressure":784.8,"uv_index":8.05,"wind_gusts":37.1,"aqi":163,"pm10":122.0,"pm2_5":43.7,"no2":10.1,"co":307.0,"o3":167.0,"so2":16.6,"mosquito_risk":3,"arthritis_risk":5,"migraine_risk":7,"frizz_risk":0,"updated_at":"2026-05-09T20:24:22.163343+05:30"},{"city":"Manali","state":"Himachal Pradesh","latitude":32.2396,"longitude":77.1887,"temp":12.3,"humidity":86,"rain":0.0,"pressure":817.6,"uv_index":10.1,"wind_gusts":39.2,"aqi":144,"pm10":40.3,"pm2_5":11.2,"no2":19.8,"co":354.0,"o3":139.0,"so2":1.0,"mosquito_risk":3,"arthritis_risk":10,"migraine_risk":7,"frizz_risk":0,"updated_at":"2026-05-09T20:24:22.163350+05:30"},{"city":"Gurgaon","state":"Haryana","latitude":28.4595,"longitude":77.0266,"temp":30.0,"humidity":46,"rain":0.0,"pressure":981.3,"uv_index":7.65,"wind_gusts":27.4,"aqi":904,"pm10":562.5,"pm2_5":90.3,"no2":23.5,"co":552.0,"o3":152.0,"so2":24.8,"mosquito_risk":4,"arthritis_risk":5,"migraine_risk":7,"frizz_risk":1,"updated_at":"2026-05-09T20:24:22.163357+05:30"},{"city":"Noida","state":"Uttar Pradesh","latitude":28.5355,"longitude":77.391,"temp":28.1,"humidity":54,"rain":0.0,"pressure":984.5,"uv_index":7.6,"wind_gusts":25.9,"aqi":904,"pm10":562.5,"pm2_5":90.3,"no2":23.5,"co":488.0,"o3":152.0,"so2":24.8,"mosquito_risk":4,"arthritis_risk":5,"migraine_risk":7,"frizz_risk":1,"updated_at":"2026-05-09T20:24:22.163363+05:30"},{"city":"Ghaziabad","state":"Uttar Pradesh","latitude":28.6692,"longitude":77.4538,"temp":28.2,"humidity":55,"rain":0.0,"pressure":982.9,"uv_index":7.55,"wind_gusts":28.1,"aqi":169,"pm10":163.0,"pm2_5":45.6,"no2":9.5,"co":390.0,"o3":137.0,"so2":9.5,"mosquito_risk":4,"arthritis_risk":5,"migraine_risk":7,"frizz_risk":1,"updated_at":"2026-05-09T20:24:22.163369+05:30"},{"city":"Faridabad","state":"Haryana","latitude":28.4089,"longitude":77.3178,"temp":29.9,"humidity":48,"rain":0.0,"pressure":983.7,"uv_index":7.6,"wind_gusts":27.4,"aqi":904,"pm10":562.5,"pm2_5":90.3,"no2":23.5,"co":607.0,"o3":152.0,"so2":24.8,"mosquito_risk":4,"arthritis_risk":5,"migraine_risk":7,"frizz_risk":1,"updated_at":"2026-05-09T20:24:22.163376+05:30"},{"city":"Meerut","state":"Uttar Pradesh","latitude":28.9845,"longitude":77.7064,"temp":26.4,"humidity":65,"rain":0.0,"pressure":981.7,"uv_index":7.45,"wind_gusts":30.2,"aqi":169,"pm10":163.0,"pm2_5":45.6,"no2":9.5,"co":433.0,"o3":137.0,"so2":9.5,"mosquito_risk":7,"arthritis_risk":5,"migraine_risk":7,"frizz_risk":1,"updated_at":"2026-05-09T20:24:22.163383+05:30"},{"city":"Agra","state":"Uttar Pradesh","latitude":27.1767,"longitude":78.0081,"temp":28.8,"humidity":48,"rain":0.0,"pressure":987.8,"uv_index":7.9,"wind_gusts":25.6,"aqi":946,"pm10":1050.5,"pm2_5":126.2,"no2":9.0,"co":474.0,"o3":138.0,"so2":11.5,"mosquito_risk":4,"arthritis_risk":5,"migraine_risk":7,"frizz_risk":1,"updated_at":"2026-05-09T20:24:22.163389+05:30"},{"city":"Varanasi","state":"Uttar Pradesh","latitude":25.3176,"longitude":82.9739,"temp":26.8,"humidity":63,"rain":0.0,"pressure":998.4,"uv_index":8.55,"wind_gusts":41.4,"aqi":203,"pm10":63.8,"pm2_5":50.1,"no2":12.2,"co":627.0,"o3":158.0,"so2":19.8,"mosquito_risk":7,"arthritis_risk":5,"migraine_risk":7,"frizz_risk":1,"updated_at":"2026-05-09T20:24:22.163396+05:30"},{"city":"Prayagraj","state":"Uttar Pradesh","latitude":25.4358,"longitude":81.8463,"temp":27.3,"humidity":59,"rain":0.0,"pressure":996.5,"uv_index":8.35,"wind_gusts":38.2,"aqi":199,"pm10":59.1,"pm2_5":46.9,"no2":11.1,"co":432.0,"o3":150.0,"so2":14.0,"mosquito_risk":4,"arthritis_risk":5,"migraine_risk":7,"frizz_risk":1,"updated_at":"2026-05-09T20:24:22.163406+05:30"},{"city":"Gorakhpur","state":"Uttar Pradesh","latitude":26.7606,"longitude":83.3732,"temp":25.6,"humidity":67,"rain":0.0,"pressure":998.9,"uv_index":8.4,"wind_gusts":37.4,"aqi":174,"pm10":60.3,"pm2_5":48.3,"no2":13.4,"co":433.0,"o3":132.0,"so2":10.4,"mosquito_risk":7,"arthritis_risk":5,"migraine_risk":7,"frizz_risk":1,"updated_at":"2026-05-09T20:24:22.163412+05:30"},{"city":"Bareilly","state":"Uttar Pradesh","latitude":28.367,"longitude":79.4304,"temp":26.5,"humidity":57,"rain":0.0,"pressure":987.6,"uv_index":7.75,"wind_gusts":33.5,"aqi":160,"pm10":67.5,"pm2_5":34.9,"no2":17.6,"co":446.0,"o3":116.0,"so2":10.9,"mosquito_risk":4,"arthritis_risk":5,"migraine_risk":7,"frizz_risk":1,"updated_at":"2026-05-09T20:24:22.163419+05:30"},{"city":"Aligarh","state":"Uttar Pradesh","latitude":27.8974,"longitude":78.088,"temp":28.5,"humidity":53,"rain":0.0,"pressure":985.9,"uv_index":7.7,"wind_gusts":32.0,"aqi":447,"pm10":435.9,"pm2_5":71.9,"no2":7.6,"co":369.0,"o3":145.0,"so2":11.8,"mosquito_risk":4,"arthritis_risk":5,"migraine_risk":7,"frizz_risk":1,"updated_at":"2026-05-09T20:24:22.163425+05:30"},{"city":"Moradabad","state":"Uttar Pradesh","latitude":28.8386,"longitude":78.7733,"temp":27.0,"humidity":58,"rain":0.0,"pressure":984.5,"uv_index":7.65,"wind_gusts":32.8,"aqi":178,"pm10":115.9,"pm2_5":48.2,"no2":18.2,"co":478.0,"o3":128.0,"so2":13.6,"mosquito_risk":4,"arthritis_risk":5,"migraine_risk":7,"frizz_risk":1,"updated_at":"2026-05-09T20:24:22.163432+05:30"},{"city":"Saharanpur","state":"Uttar Pradesh","latitude":29.9637,"longitude":77.546,"temp":26.6,"humidity":57,"rain":0.0,"pressure":976.0,"uv_index":7.3,"wind_gusts":33.5,"aqi":163,"pm10":64.3,"pm2_5":44.4,"no2":25.8,"co":639.0,"o3":108.0,"so2":13.2,"mosquito_risk":4,"arthritis_risk":5,"migraine_risk":7,"frizz_risk":1,"updated_at":"2026-05-09T20:24:22.163438+05:30"},{"city":"Jhansi","state":"Uttar Pradesh","latitude":25.4484,"longitude":78.5685,"temp":28.9,"humidity":48,"rain":0.0,"pressure":977.2,"uv_index":8.35,"wind_gusts":47.5,"aqi":167,"pm10":110.1,"pm2_5":36.0,"no2":4.4,"co":275.0,"o3":133.0,"so2":10.2,"mosquito_risk":4,"arthritis_risk":5,"migraine_risk":7,"frizz_risk":1,"updated_at":"2026-05-09T20:24:25.446671+05:30"},{"city":"Surat","state":"Gujarat","latitude":21.1702,"longitude":72.8311,"temp":31.0,"humidity":65,"rain":0.0,"pressure":1004.3,"uv_index":7.7,"wind_gusts":37.4,"aqi":106,"pm10":60.1,"pm2_5":42.3,"no2":63.3,"co":504.0,"o3":48.0,"so2":77.1,"mosquito_risk":3,"arthritis_risk":5,"migraine_risk":4,"frizz_risk":1,"updated_at":"2026-05-09T20:24:25.446706+05:30"},{"city":"Vadodara","state":"Gujarat","latitude":22.3072,"longitude":73.1812,"temp":39.2,"humidity":14,"rain":0.0,"pressure":1001.1,"uv_index":8.05,"wind_gusts":32.4,"aqi":138,"pm10":45.1,"pm2_5":29.3,"no2":29.5,"co":662.0,"o3":113.0,"so2":11.6,"mosquito_risk":0,"arthritis_risk":5,"migraine_risk":7,"frizz_risk":0,"updated_at":"2026-05-09T20:24:25.446717+05:30"},{"city":"Rajkot","state":"Gujarat","latitude":22.3039,"longitude":70.8022,"temp":33.3,"humidity":27,"rain":0.0,"pressure":992.9,"uv_index":7.7,"wind_gusts":40.7,"aqi":92,"pm10":34.8,"pm2_5":14.1,"no2":4.7,"co":189.0,"o3":108.0,"so2":6.9,"mosquito_risk":0,"arthritis_risk":5,"migraine_risk":7,"frizz_risk":0,"updated_at":"2026-05-09T20:24:25.446726+05:30"},{"city":"Thane","state":"Maharashtra","latitude":19.2183,"longitude":72.9781,"temp":31.3,"humidity":61,"rain":0.0,"pressure":1005.8,"uv_index":7.85,"wind_gusts":46.8,"aqi":117,"pm10":45.4,"pm2_5":23.0,"no2":14.8,"co":271.0,"o3":96.0,"so2":9.9,"mosquito_risk":3,"arthritis_risk":5,"migraine_risk":4,"frizz_risk":1,"updated_at":"2026-05-09T20:24:25.446734+05:30"},{"city":"Nagpur","state":"Maharashtra","latitude":21.1458,"longitude":79.0882,"temp":30.1,"humidity":41,"rain":0.0,"pressure":972.8,"uv_index":8.9,"wind_gusts":73.4,"aqi":159,"pm10":62.6,"pm2_5":35.9,"no2":27.8,"co":283.0,"o3":106.0,"so2":22.6,"mosquito_risk":0,"arthritis_risk":5,"migraine_risk":7,"frizz_risk":0,"updated_at":"2026-05-09T20:24:25.446742+05:30"},{"city":"Nashik","state":"Maharashtra","latitude":19.9975,"longitude":73.7898,"temp":32.9,"humidity":23,"rain":0.0,"pressure":944.5,"uv_index":8.15,"wind_gusts":50.4,"aqi":122,"pm10":32.6,"pm2_5":22.0,"no2":4.6,"co":208.0,"o3":146.0,"so2":9.9,"mosquito_risk":0,"arthritis_risk":5,"migraine_risk":7,"frizz_risk":0,"updated_at":"2026-05-09T20:24:25.446749+05:30"},{"city":"Aurangabad","state":"Maharashtra","latitude":19.8762,"longitude":75.3433,"temp":33.5,"humidity":18,"rain":0.0,"pressure":943.4,"uv_index":9.05,"wind_gusts":34.2,"aqi":136,"pm10":29.8,"pm2_5":15.2,"no2":4.8,"co":355.0,"o3":130.0,"so2":5.5,"mosquito_risk":0,"arthritis_risk":5,"migraine_risk":7,"frizz_risk":0,"updated_at":"2026-05-09T20:24:25.446756+05:30"},{"city":"Solapur","state":"Maharashtra","latitude":17.6599,"longitude":75.9064,"temp":34.7,"humidity":23,"rain":0.0,"pressure":956.1,"uv_index":9.05,"wind_gusts":32.0,"aqi":141,"pm10":35.9,"pm2_5":24.3,"no2":4.8,"co":306.0,"o3":143.0,"so2":6.1,"mosquito_risk":0,"arthritis_risk":5,"migraine_risk":7,"frizz_risk":0,"updated_at":"2026-05-09T20:24:25.446764+05:30"},{"city":"Kolhapur","state":"Maharashtra","latitude":16.705,"longitude":74.2433,"temp":29.5,"humidity":54,"rain":0.0,"pressure":947.0,"uv_index":8.9,"wind_gusts":40.0,"aqi":123,"pm10":54.1,"pm2_5":46.7,"no2":28.9,"co":300.0,"o3":98.0,"so2":7.6,"mosquito_risk":4,"arthritis_risk":5,"migraine_risk":7,"frizz_risk":1,"updated_at":"2026-05-09T20:24:25.446771+05:30"},{"city":"Goa","state":"Goa","latitude":15.2993,"longitude":74.124,"temp":30.2,"humidity":73,"rain":0.0,"pressure":995.9,"uv_index":8.75,"wind_gusts":42.1,"aqi":82,"pm10":38.2,"pm2_5":24.3,"no2":4.3,"co":227.0,"o3":113.0,"so2":4.2,"mosquito_risk":3,"arthritis_risk":5,"migraine_risk":7,"frizz_risk":1,"updated_at":"2026-05-09T20:24:25.446779+05:30"},{"city":"Jodhpur","state":"Rajasthan","latitude":26.2389,"longitude":73.0243,"temp":38.3,"humidity":15,"rain":0.0,"pressure":980.6,"uv_index":8.35,"wind_gusts":42.8,"aqi":127,"pm10":93.1,"pm2_5":25.4,"no2":12.6,"co":238.0,"o3":106.0,"so2":4.9,"mosquito_risk":0,"arthritis_risk":5,"migraine_risk":10,"frizz_risk":0,"updated_at":"2026-05-09T20:24:25.446786+05:30"},{"city":"Udaipur","state":"Rajasthan","latitude":24.5854,"longitude":73.7125,"temp":32.8,"humidity":19,"rain":0.0,"pressure":945.7,"uv_index":8.8,"wind_gusts":44.3,"aqi":75,"pm10":34.5,"pm2_5":11.7,"no2":4.0,"co":178.0,"o3":111.0,"so2":3.0,"mosquito_risk":0,"arthritis_risk":5,"migraine_risk":7,"frizz_risk":0,"updated_at":"2026-05-09T20:24:25.446793+05:30"},{"city":"Kota","state":"Rajasthan","latitude":25.2138,"longitude":75.8648,"temp":33.0,"humidity":31,"rain":0.0,"pressure":976.8,"uv_index":8.35,"wind_gusts":46.1,"aqi":134,"pm10":51.3,"pm2_5":24.0,"no2":6.1,"co":422.0,"o3":127.0,"so2":5.9,"mosquito_risk":0,"arthritis_risk":5,"migraine_risk":7,"frizz_risk":0,"updated_at":"2026-05-09T20:24:25.446800+05:30"},{"city":"Bikaner","state":"Rajasthan","latitude":28.0229,"longitude":73.3119,"temp":35.4,"humidity":20,"rain":0.0,"pressure":980.1,"uv_index":8.25,"wind_gusts":26.3,"aqi":155,"pm10":122.0,"pm2_5":36.2,"no2":3.4,"co":449.0,"o3":134.0,"so2":8.2,"mosquito_risk":0,"arthritis_risk":5,"migraine_risk":10,"frizz_risk":0,"updated_at":"2026-05-09T20:24:25.446807+05:30"},{"city":"Ajmer","state":"Rajasthan","latitude":26.4499,"longitude":74.6399,"temp":32.5,"humidity":22,"rain":0.0,"pressure":953.7,"uv_index":8.3,"wind_gusts":45.7,"aqi":141,"pm10":66.4,"pm2_5":24.9,"no2":5.2,"co":295.0,"o3":129.0,"so2":4.2,"mosquito_risk":0,"arthritis_risk":5,"migraine_risk":7,"frizz_risk":0,"updated_at":"2026-05-09T20:24:25.446814+05:30"},{"city":"Gwalior","state":"Madhya Pradesh","latitude":26.2183,"longitude":78.1828,"temp":29.6,"humidity":40,"rain":0.0,"pressure":982.7,"uv_index":8.1,"wind_gusts":25.9,"aqi":161,"pm10":230.5,"pm2_5":53.6,"no2":4.1,"co":303.0,"o3":142.0,"so2":7.5,"mosquito_risk":4,"arthritis_risk":5,"migraine_risk":7,"frizz_risk":0,"updated_at":"2026-05-09T20:24:25.446821+05:30"},{"city":"Indore","state":"Madhya Pradesh","latitude":22.7196,"longitude":75.8577,"temp":34.7,"humidity":14,"rain":0.0,"pressure":947.2,"uv_index":8.6,"wind_gusts":45.4,"aqi":97,"pm10":29.3,"pm2_5":12.1,"no2":4.7,"co":278.0,"o3":113.0,"so2":3.8,"mosquito_risk":0,"arthritis_risk":5,"migraine_risk":7,"frizz_risk":0,"updated_at":"2026-05-09T20:24:25.446827+05:30"},{"city":"Bhopal","state":"Madhya Pradesh","latitude":23.2599,"longitude":77.4126,"temp":33.7,"humidity":22,"rain":0.0,"pressure":952.9,"uv_index":8.65,"wind_gusts":43.6,"aqi":103,"pm10":34.5,"pm2_5":13.2,"no2":3.6,"co":294.0,"o3":114.0,"so2":3.9,"mosquito_risk":0,"arthritis_risk":5,"migraine_risk":7,"frizz_risk":0,"updated_at":"2026-05-09T20:24:25.446834+05:30"},{"city":"Jabalpur","state":"Madhya Pradesh","latitude":23.1815,"longitude":79.9864,"temp":30.1,"humidity":33,"rain":0.0,"pressure":961.2,"uv_index":8.8,"wind_gusts":39.2,"aqi":135,"pm10":37.3,"pm2_5":21.2,"no2":7.1,"co":206.0,"o3":120.0,"so2":5.7,"mosquito_risk":0,"arthritis_risk":5,"migraine_risk":7,"frizz_risk":0,"updated_at":"2026-05-09T20:24:25.446841+05:30"},{"city":"Ujjain","state":"Madhya Pradesh","latitude":23.1765,"longitude":75.7885,"temp":33.0,"humidity":19,"rain":0.0,"pressure":952.7,"uv_index":8.55,"wind_gusts":45.7,"aqi":88,"pm10":34.2,"pm2_5":15.3,"no2":4.1,"co":259.0,"o3":105.0,"so2":3.8,"mosquito_risk":0,"arthritis_risk":5,"migraine_risk":7,"frizz_risk":0,"updated_at":"2026-05-09T20:24:25.446848+05:30"},{"city":"Visakhapatnam","state":"Andhra Pradesh","latitude":17.6868,"longitude":83.2185,"temp":29.0,"humidity":72,"rain":0.0,"pressure":1005.1,"uv_index":9.1,"wind_gusts":33.8,"aqi":76,"pm10":14.3,"pm2_5":12.6,"no2":20.3,"co":383.0,"o3":27.0,"so2":9.9,"mosquito_risk":7,"arthritis_risk":5,"migraine_risk":4,"frizz_risk":1,"updated_at":"2026-05-09T20:24:25.446854+05:30"},{"city":"Vijayawada","state":"Andhra Pradesh","latitude":16.5062,"longitude":80.648,"temp":29.8,"humidity":71,"rain":0.0,"pressure":1003.2,"uv_index":9.2,"wind_gusts":40.3,"aqi":46,"pm10":8.0,"pm2_5":6.8,"no2":5.4,"co":151.0,"o3":52.0,"so2":6.3,"mosquito_risk":7,"arthritis_risk":5,"migraine_risk":4,"frizz_risk":1,"updated_at":"2026-05-09T20:24:25.446861+05:30"},{"city":"Guntur","state":"Andhra Pradesh","latitude":16.3067,"longitude":80.4365,"temp":30.2,"humidity":67,"rain":0.0,"pressure":1004.4,"uv_index":9.2,"wind_gusts":33.1,"aqi":45,"pm10":10.2,"pm2_5":9.0,"no2":5.4,"co":162.0,"o3":66.0,"so2":6.5,"mosquito_risk":3,"arthritis_risk":5,"migraine_risk":4,"frizz_risk":1,"updated_at":"2026-05-09T20:24:25.446868+05:30"},{"city":"Nellore","state":"Andhra Pradesh","latitude":14.4426,"longitude":79.9865,"temp":28.8,"humidity":76,"rain":0.0,"pressure":1006.3,"uv_index":9.2,"wind_gusts":39.6,"aqi":27,"pm10":5.6,"pm2_5":3.9,"no2":2.5,"co":131.0,"o3":46.0,"so2":1.9,"mosquito_risk":7,"arthritis_risk":5,"migraine_risk":4,"frizz_risk":1,"updated_at":"2026-05-09T20:24:25.446875+05:30"},{"city":"Kurnool","state":"Andhra Pradesh","latitude":15.8281,"longitude":78.0373,"temp":33.5,"humidity":37,"rain":0.0,"pressure":976.3,"uv_index":9.15,"wind_gusts":36.0,"aqi":54,"pm10":15.3,"pm2_5":11.7,"no2":6.3,"co":170.0,"o3":93.0,"so2":2.3,"mosquito_risk":0,"arthritis_risk":5,"migraine_risk":7,"frizz_risk":1,"updated_at":"2026-05-09T20:24:25.446883+05:30"},{"city":"Kakinada","state":"Andhra Pradesh","latitude":16.9891,"longitude":82.2475,"temp":28.5,"humidity":79,"rain":0.0,"pressure":1008.6,"uv_index":9.15,"wind_gusts":36.7,"aqi":25,"pm10":6.3,"pm2_5":4.3,"no2":1.2,"co":180.0,"o3":47.0,"so2":0.5,"mosquito_risk":7,"arthritis_risk":0,"migraine_risk":4,"frizz_risk":1,"updated_at":"2026-05-09T20:24:25.446889+05:30"},{"city":"Tirupati","state":"Andhra Pradesh","latitude":13.6288,"longitude":79.4192,"temp":27.9,"humidity":72,"rain":0.0,"pressure":991.4,"uv_index":7.35,"wind_gusts":40.3,"aqi":26,"pm10":9.2,"pm2_5":8.2,"no2":12.2,"co":202.0,"o3":35.0,"so2":2.2,"mosquito_risk":7,"arthritis_risk":5,"migraine_risk":7,"frizz_risk":1,"updated_at":"2026-05-09T20:24:25.446896+05:30"},{"city":"Warangal","state":"Telangana","latitude":17.9689,"longitude":79.5941,"temp":32.0,"humidity":42,"rain":0.0,"pressure":978.4,"uv_index":9.15,"wind_gusts":32.0,"aqi":110,"pm10":42.0,"pm2_5":33.3,"no2":14.0,"co":257.0,"o3":106.0,"so2":7.8,"mosquito_risk":0,"arthritis_risk":5,"migraine_risk":7,"frizz_risk":1,"updated_at":"2026-05-09T20:24:25.446902+05:30"},{"city":"Nizamabad","state":"Telangana","latitude":18.6725,"longitude":78.0941,"temp":31.7,"humidity":34,"rain":0.0,"pressure":964.1,"uv_index":9.1,"wind_gusts":31.0,"aqi":136,"pm10":54.7,"pm2_5":35.7,"no2":19.7,"co":226.0,"o3":116.0,"so2":7.0,"mosquito_risk":0,"arthritis_risk":5,"migraine_risk":7,"frizz_risk":0,"updated_at":"2026-05-09T20:24:25.446909+05:30"},{"city":"Mysore","state":"Karnataka","latitude":12.2958,"longitude":76.6396,"temp":22.6,"humidity":92,"rain":0.1,"pressure":928.3,"uv_index":9.4,"wind_gusts":42.8,"aqi":59,"pm10":14.1,"pm2_5":13.3,"no2":8.3,"co":229.0,"o3":79.0,"so2":3.9,"mosquito_risk":6,"arthritis_risk":5,"migraine_risk":7,"frizz_risk":1,"updated_at":"2026-05-09T20:24:25.446916+05:30"},{"city":"Mangalore","state":"Karnataka","latitude":12.9141,"longitude":74.856,"temp":27.5,"humidity":93,"rain":0.0,"pressure":1005.6,"uv_index":8.0,"wind_gusts":37.4,"aqi":74,"pm10":31.3,"pm2_5":18.7,"no2":8.7,"co":319.0,"o3":85.0,"so2":3.0,"mosquito_risk":7,"arthritis_risk":5,"migraine_risk":4,"frizz_risk":1,"updated_at":"2026-05-09T20:24:25.446923+05:30"},{"city":"Hubli-Dharwad","state":"Karnataka","latitude":15.3647,"longitude":75.124,"temp":29.0,"humidity":52,"rain":0.0,"pressure":939.7,"uv_index":9.15,"wind_gusts":45.0,"aqi":117,"pm10":16.1,"pm2_5":12.8,"no2":11.8,"co":267.0,"o3":124.0,"so2":3.5,"mosquito_risk":4,"arthritis_risk":5,"migraine_risk":7,"frizz_risk":1,"updated_at":"2026-05-09T20:24:25.446930+05:30"},{"city":"Belgaum","state":"Karnataka","latitude":15.8497,"longitude":74.4977,"temp":26.4,"humidity":62,"rain":0.1,"pressure":924.9,"uv_index":9.15,"wind_gusts":36.4,"aqi":128,"pm10":40.3,"pm2_5":30.7,"no2":17.9,"co":226.0,"o3":109.0,"so2":5.5,"mosquito_risk":10,"arthritis_risk":5,"migraine_risk":7,"frizz_risk":1,"updated_at":"2026-05-09T20:24:28.730853+05:30"},{"city":"Coimbatore","state":"Tamil Nadu","latitude":11.0168,"longitude":76.9558,"temp":24.5,"humidity":89,"rain":0.0,"pressure":961.7,"uv_index":7.75,"wind_gusts":28.8,"aqi":63,"pm10":16.8,"pm2_5":16.0,"no2":11.1,"co":507.0,"o3":80.0,"so2":4.9,"mosquito_risk":3,"arthritis_risk":5,"migraine_risk":7,"frizz_risk":1,"updated_at":"2026-05-09T20:24:28.730887+05:30"},{"city":"Madurai","state":"Tamil Nadu","latitude":9.9252,"longitude":78.1198,"temp":26.2,"humidity":92,"rain":0.0,"pressure":992.7,"uv_index":4.7,"wind_gusts":44.3,"aqi":66,"pm10":15.5,"pm2_5":15.3,"no2":19.8,"co":381.0,"o3":62.0,"so2":10.9,"mosquito_risk":7,"arthritis_risk":5,"migraine_risk":3,"frizz_risk":1,"updated_at":"2026-05-09T20:24:28.730899+05:30"},{"city":"Trichy","state":"Tamil Nadu","latitude":10.7905,"longitude":78.7047,"temp":26.2,"humidity":89,"rain":0.0,"pressure":999.4,"uv_index":3.2,"wind_gusts":33.8,"aqi":39,"pm10":13.1,"pm2_5":12.9,"no2":23.3,"co":399.0,"o3":48.0,"so2":25.9,"mosquito_risk":7,"arthritis_risk":5,"migraine_risk":3,"frizz_risk":1,"updated_at":"2026-05-09T20:24:28.730908+05:30"},{"city":"Salem","state":"Tamil Nadu","latitude":11.6643,"longitude":78.146,"temp":25.9,"humidity":83,"rain":0.0,"pressure":977.1,"uv_index":8.25,"wind_gusts":33.1,"aqi":49,"pm10":13.8,"pm2_5":13.6,"no2":14.0,"co":523.0,"o3":73.0,"so2":9.2,"mosquito_risk":7,"arthritis_risk":5,"migraine_risk":7,"frizz_risk":1,"updated_at":"2026-05-09T20:24:28.730916+05:30"},{"city":"Tirunelveli","state":"Tamil Nadu","latitude":8.7139,"longitude":77.7567,"temp":26.9,"humidity":90,"rain":0.0,"pressure":1002.5,"uv_index":4.75,"wind_gusts":29.2,"aqi":58,"pm10":13.4,"pm2_5":13.0,"no2":11.7,"co":190.0,"o3":64.0,"so2":4.3,"mosquito_risk":7,"arthritis_risk":5,"migraine_risk":0,"frizz_risk":1,"updated_at":"2026-05-09T20:24:28.730925+05:30"},{"city":"Vellore","state":"Tamil Nadu","latitude":12.9165,"longitude":79.1325,"temp":24.4,"humidity":94,"rain":0.0,"pressure":984.6,"uv_index":6.85,"wind_gusts":37.4,"aqi":45,"pm10":15.4,"pm2_5":15.1,"no2":17.2,"co":223.0,"o3":55.0,"so2":11.8,"mosquito_risk":3,"arthritis_risk":5,"migraine_risk":7,"frizz_risk":1,"updated_at":"2026-05-09T20:24:28.730932+05:30"},{"city":"Erode","state":"Tamil Nadu","latitude":11.341,"longitude":77.7172,"temp":25.2,"humidity":93,"rain":0.0,"pressure":989.4,"uv_index":8.1,"wind_gusts":41.8,"aqi":59,"pm10":15.9,"pm2_5":15.4,"no2":16.4,"co":571.0,"o3":66.0,"so2":6.2,"mosquito_risk":7,"arthritis_risk":5,"migraine_risk":7,"frizz_risk":1,"updated_at":"2026-05-09T20:24:28.730941+05:30"},{"city":"Kochi","state":"Kerala","latitude":9.9312,"longitude":76.2673,"temp":25.8,"humidity":93,"rain":0.0,"pressure":1008.4,"uv_index":7.85,"wind_gusts":29.9,"aqi":74,"pm10":25.4,"pm2_5":24.3,"no2":18.5,"co":328.0,"o3":65.0,"so2":3.7,"mosquito_risk":7,"arthritis_risk":0,"migraine_risk":4,"frizz_risk":1,"updated_at":"2026-05-09T20:24:28.730948+05:30"},{"city":"Thiruvananthapuram","state":"Kerala","latitude":8.5241,"longitude":76.9366,"temp":26.4,"humidity":88,"rain":0.1,"pressure":1006.9,"uv_index":4.7,"wind_gusts":28.4,"aqi":68,"pm10":10.6,"pm2_5":8.1,"no2":4.3,"co":351.0,"o3":109.0,"so2":1.9,"mosquito_risk":10,"arthritis_risk":5,"migraine_risk":0,"frizz_risk":1,"updated_at":"2026-05-09T20:24:28.730955+05:30"},{"city":"Kozhikode","state":"Kerala","latitude":11.2588,"longitude":75.7804,"temp":25.2,"humidity":97,"rain":0.1,"pressure":1007.8,"uv_index":8.5,"wind_gusts":34.9,"aqi":60,"pm10":13.8,"pm2_5":8.9,"no2":1.9,"co":550.0,"o3":105.0,"so2":1.0,"mosquito_risk":10,"arthritis_risk":5,"migraine_risk":4,"frizz_risk":1,"updated_at":"2026-05-09T20:24:28.730963+05:30"},{"city":"Thrissur","state":"Kerala","latitude":10.5276,"longitude":76.2144,"temp":25.1,"humidity":99,"rain":0.1,"pressure":1007.0,"uv_index":8.25,"wind_gusts":25.9,"aqi":72,"pm10":25.8,"pm2_5":24.8,"no2":12.8,"co":778.0,"o3":75.0,"so2":3.0,"mosquito_risk":10,"arthritis_risk":5,"migraine_risk":4,"frizz_risk":1,"updated_at":"2026-05-09T20:24:28.730971+05:30"},{"city":"Kannur","state":"Kerala","latitude":11.8745,"longitude":75.3704,"temp":26.2,"humidity":91,"rain":0.0,"pressure":1006.7,"uv_index":8.95,"wind_gusts":34.2,"aqi":66,"pm10":26.5,"pm2_5":19.2,"no2":18.1,"co":449.0,"o3":70.0,"so2":2.9,"mosquito_risk":7,"arthritis_risk":5,"migraine_risk":4,"frizz_risk":1,"updated_at":"2026-05-09T20:24:28.730978+05:30"},{"city":"Patna","state":"Bihar","latitude":25.5941,"longitude":85.1376,"temp":26.0,"humidity":77,"rain":0.0,"pressure":1002.2,"uv_index":8.4,"wind_gusts":35.6,"aqi":201,"pm10":64.5,"pm2_5":57.7,"no2":15.9,"co":492.0,"o3":150.0,"so2":20.1,"mosquito_risk":7,"arthritis_risk":5,"migraine_risk":4,"frizz_risk":1,"updated_at":"2026-05-09T20:24:28.730985+05:30"},{"city":"Gaya","state":"Bihar","latitude":24.7914,"longitude":85.0002,"temp":24.7,"humidity":68,"rain":0.0,"pressure":995.2,"uv_index":8.55,"wind_gusts":34.2,"aqi":201,"pm10":58.6,"pm2_5":44.5,"no2":8.2,"co":504.0,"o3":153.0,"so2":17.1,"mosquito_risk":3,"arthritis_risk":5,"migraine_risk":7,"frizz_risk":1,"updated_at":"2026-05-09T20:24:28.730993+05:30"},{"city":"Muzaffarpur","state":"Bihar","latitude":26.1209,"longitude":85.3647,"temp":26.0,"humidity":70,"rain":0.0,"pressure":1002.3,"uv_index":8.65,"wind_gusts":34.9,"aqi":187,"pm10":71.2,"pm2_5":63.3,"no2":19.1,"co":428.0,"o3":129.0,"so2":17.6,"mosquito_risk":7,"arthritis_risk":5,"migraine_risk":4,"frizz_risk":1,"updated_at":"2026-05-09T20:24:28.731000+05:30"},{"city":"Bhagalpur","state":"Bihar","latitude":25.2425,"longitude":87.0117,"temp":23.0,"humidity":91,"rain":0.0,"pressure":1003.9,"uv_index":8.7,"wind_gusts":43.2,"aqi":202,"pm10":71.9,"pm2_5":55.4,"no2":10.8,"co":405.0,"o3":164.0,"so2":13.7,"mosquito_risk":3,"arthritis_risk":5,"migraine_risk":4,"frizz_risk":1,"updated_at":"2026-05-09T20:24:28.731007+05:30"},{"city":"Ranchi","state":"Jharkhand","latitude":23.3441,"longitude":85.3096,"temp":21.5,"humidity":84,"rain":0.0,"pressure":938.8,"uv_index":9.2,"wind_gusts":45.0,"aqi":153,"pm10":74.7,"pm2_5":46.2,"no2":17.1,"co":303.0,"o3":108.0,"so2":9.9,"mosquito_risk":3,"arthritis_risk":5,"migraine_risk":7,"frizz_risk":1,"updated_at":"2026-05-09T20:24:28.731013+05:30"},{"city":"Jamshedpur","state":"Jharkhand","latitude":22.8046,"longitude":86.2029,"temp":24.3,"humidity":85,"rain":0.0,"pressure":993.0,"uv_index":8.85,"wind_gusts":37.1,"aqi":183,"pm10":53.7,"pm2_5":43.0,"no2":16.2,"co":392.0,"o3":139.0,"so2":31.3,"mosquito_risk":3,"arthritis_risk":5,"migraine_risk":7,"frizz_risk":1,"updated_at":"2026-05-09T20:24:28.731019+05:30"},{"city":"Dhanbad","state":"Jharkhand","latitude":23.7957,"longitude":86.4304,"temp":23.0,"humidity":93,"rain":0.0,"pressure":982.6,"uv_index":8.95,"wind_gusts":29.5,"aqi":193,"pm10":82.2,"pm2_5":67.5,"no2":31.9,"co":893.0,"o3":156.0,"so2":56.6,"mosquito_risk":3,"arthritis_risk":5,"migraine_risk":7,"frizz_risk":1,"updated_at":"2026-05-09T20:24:28.731026+05:30"},{"city":"Bokaro","state":"Jharkhand","latitude":23.6693,"longitude":86.1511,"temp":23.0,"humidity":92,"rain":0.0,"pressure":986.3,"uv_index":9.0,"wind_gusts":52.2,"aqi":203,"pm10":88.7,"pm2_5":68.2,"no2":29.0,"co":457.0,"o3":144.0,"so2":50.6,"mosquito_risk":3,"arthritis_risk":5,"migraine_risk":7,"frizz_risk":1,"updated_at":"2026-05-09T20:24:28.731032+05:30"},{"city":"Bhubaneswar","state":"Odisha","latitude":20.2961,"longitude":85.8245,"temp":27.6,"humidity":82,"rain":0.0,"pressure":1004.7,"uv_index":9.1,"wind_gusts":33.8,"aqi":49,"pm10":23.5,"pm2_5":19.5,"no2":16.0,"co":241.0,"o3":60.0,"so2":6.2,"mosquito_risk":7,"arthritis_risk":5,"migraine_risk":4,"frizz_risk":1,"updated_at":"2026-05-09T20:24:28.731039+05:30"},{"city":"Cuttack","state":"Odisha","latitude":20.4625,"longitude":85.8828,"temp":28.4,"humidity":78,"rain":0.0,"pressure":1006.5,"uv_index":9.15,"wind_gusts":42.5,"aqi":49,"pm10":23.5,"pm2_5":19.5,"no2":16.0,"co":259.0,"o3":60.0,"so2":6.2,"mosquito_risk":7,"arthritis_risk":5,"migraine_risk":4,"frizz_risk":1,"updated_at":"2026-05-09T20:24:28.731045+05:30"},{"city":"Rourkela","state":"Odisha","latitude":22.2604,"longitude":84.8536,"temp":27.1,"humidity":64,"rain":0.0,"pressure":986.5,"uv_index":8.7,"wind_gusts":38.9,"aqi":183,"pm10":75.7,"pm2_5":50.3,"no2":21.9,"co":388.0,"o3":127.0,"so2":29.2,"mosquito_risk":7,"arthritis_risk":5,"migraine_risk":7,"frizz_risk":1,"updated_at":"2026-05-09T20:24:28.731051+05:30"},{"city":"Raipur","state":"Chhattisgarh","latitude":21.2514,"longitude":81.6296,"temp":30.2,"humidity":39,"rain":0.0,"pressure":975.1,"uv_index":8.95,"wind_gusts":40.0,"aqi":179,"pm10":47.4,"pm2_5":34.2,"no2":29.6,"co":355.0,"o3":112.0,"so2":8.7,"mosquito_risk":0,"arthritis_risk":5,"migraine_risk":7,"frizz_risk":0,"updated_at":"2026-05-09T20:24:28.731058+05:30"},{"city":"Bhilai","state":"Chhattisgarh","latitude":21.1938,"longitude":81.3509,"temp":30.8,"humidity":39,"rain":0.0,"pressure":975.4,"uv_index":8.95,"wind_gusts":42.8,"aqi":155,"pm10":48.4,"pm2_5":34.8,"no2":35.5,"co":285.0,"o3":98.0,"so2":8.0,"mosquito_risk":0,"arthritis_risk":5,"migraine_risk":7,"frizz_risk":0,"updated_at":"2026-05-09T20:24:28.731063+05:30"},{"city":"Guwahati","state":"Assam","latitude":26.1158,"longitude":91.7086,"temp":24.0,"humidity":88,"rain":0.0,"pressure":1003.7,"uv_index":8.65,"wind_gusts":24.1,"aqi":103,"pm10":31.9,"pm2_5":27.5,"no2":9.1,"co":391.0,"o3":76.0,"so2":2.3,"mosquito_risk":3,"arthritis_risk":5,"migraine_risk":4,"frizz_risk":1,"updated_at":"2026-05-09T20:24:28.731070+05:30"},{"city":"Agartala","state":"Tripura","latitude":23.8315,"longitude":91.2868,"temp":26.5,"humidity":79,"rain":0.0,"pressure":1007.9,"uv_index":8.8,"wind_gusts":20.2,"aqi":190,"pm10":87.3,"pm2_5":76.1,"no2":33.7,"co":705.0,"o3":108.0,"so2":7.6,"mosquito_risk":7,"arthritis_risk":5,"migraine_risk":4,"frizz_risk":1,"updated_at":"2026-05-09T20:24:28.731076+05:30"},{"city":"Shillong","state":"Meghalaya","latitude":25.5788,"longitude":91.8933,"temp":17.4,"humidity":73,"rain":0.0,"pressure":858.9,"uv_index":8.4,"wind_gusts":24.1,"aqi":103,"pm10":35.7,"pm2_5":26.6,"no2":12.7,"co":529.0,"o3":83.0,"so2":2.7,"mosquito_risk":3,"arthritis_risk":5,"migraine_risk":7,"frizz_risk":0,"updated_at":"2026-05-09T20:24:28.731082+05:30"},{"city":"Imphal","state":"Manipur","latitude":24.817,"longitude":93.9368,"temp":21.1,"humidity":77,"rain":0.0,"pressure":924.7,"uv_index":9.2,"wind_gusts":28.1,"aqi":96,"pm10":43.1,"pm2_5":33.3,"no2":20.0,"co":728.0,"o3":72.0,"so2":4.8,"mosquito_risk":3,"arthritis_risk":5,"migraine_risk":7,"frizz_risk":1,"updated_at":"2026-05-09T20:24:28.731088+05:30"},{"city":"Aizawl","state":"Mizoram","latitude":23.7271,"longitude":92.7176,"temp":20.3,"humidity":64,"rain":0.0,"pressure":894.0,"uv_index":9.0,"wind_gusts":27.4,"aqi":103,"pm10":54.8,"pm2_5":35.9,"no2":9.4,"co":373.0,"o3":98.0,"so2":4.9,"mosquito_risk":3,"arthritis_risk":5,"migraine_risk":7,"frizz_risk":0,"updated_at":"2026-05-09T20:24:28.731095+05:30"},{"city":"Kohima","state":"Nagaland","latitude":25.6701,"longitude":94.1077,"temp":16.2,"humidity":87,"rain":0.0,"pressure":856.6,"uv_index":9.15,"wind_gusts":32.4,"aqi":87,"pm10":36.8,"pm2_5":27.4,"no2":13.0,"co":445.0,"o3":75.0,"so2":2.2,"mosquito_risk":3,"arthritis_risk":10,"migraine_risk":7,"frizz_risk":0,"updated_at":"2026-05-09T20:24:28.731102+05:30"},{"city":"Gangtok","state":"Sikkim","latitude":27.3314,"longitude":88.6138,"temp":13.5,"humidity":82,"rain":0.0,"pressure":837.9,"uv_index":8.95,"wind_gusts":41.8,"aqi":87,"pm10":31.7,"pm2_5":21.1,"no2":12.8,"co":351.0,"o3":103.0,"so2":2.0,"mosquito_risk":3,"arthritis_risk":10,"migraine_risk":7,"frizz_risk":0,"updated_at":"2026-05-09T20:24:28.731108+05:30"},{"city":"Siliguri","state":"West Bengal","latitude":26.7271,"longitude":88.3953,"temp":24.0,"humidity":72,"rain":0.0,"pressure":995.4,"uv_index":8.55,"wind_gusts":29.5,"aqi":118,"pm10":58.3,"pm2_5":42.4,"no2":18.5,"co":1787.0,"o3":120.0,"so2":5.6,"mosquito_risk":3,"arthritis_risk":5,"migraine_risk":7,"frizz_risk":1,"updated_at":"2026-05-09T20:24:32.017109+05:30"},{"city":"Durgapur","state":"West Bengal","latitude":23.5204,"longitude":87.3119,"temp":22.5,"humidity":94,"rain":0.4,"pressure":998.7,"uv_index":8.9,"wind_gusts":43.9,"aqi":155,"pm10":61.9,"pm2_5":52.7,"no2":24.6,"co":597.0,"o3":135.0,"so2":44.4,"mosquito_risk":6,"arthritis_risk":5,"migraine_risk":7,"frizz_risk":1,"updated_at":"2026-05-09T20:24:32.017145+05:30"},{"city":"Asansol","state":"West Bengal","latitude":23.6739,"longitude":86.9524,"temp":22.7,"humidity":92,"rain":0.1,"pressure":996.7,"uv_index":8.9,"wind_gusts":38.9,"aqi":152,"pm10":65.4,"pm2_5":55.6,"no2":25.4,"co":567.0,"o3":140.0,"so2":48.0,"mosquito_risk":6,"arthritis_risk":5,"migraine_risk":7,"frizz_risk":1,"updated_at":"2026-05-09T20:24:32.017156+05:30"},{"city":"Pondicherry","state":"Puducherry","latitude":11.9139,"longitude":79.8145,"temp":26.5,"humidity":93,"rain":0.1,"pressure":1008.2,"uv_index":2.2,"wind_gusts":38.2,"aqi":25,"pm10":4.9,"pm2_5":3.4,"no2":2.9,"co":230.0,"o3":46.0,"so2":0.4,"mosquito_risk":10,"arthritis_risk":0,"migraine_risk":0,"frizz_risk":1,"updated_at":"2026-05-09T20:24:32.017166+05:30"},{"city":"Port Blair","state":"Andaman and Nicobar Islands","latitude":11.6234,"longitude":92.7265,"temp":25.2,"humidity":96,"rain":0.0,"pressure":1008.0,"uv_index":8.1,"wind_gusts":43.6,"aqi":26,"pm10":2.4,"pm2_5":1.7,"no2":0.6,"co":305.0,"o3":55.0,"so2":0.1,"mosquito_risk":7,"arthritis_risk":0,"migraine_risk":4,"frizz_risk":1,"updated_at":"2026-05-09T20:24:32.017174+05:30"},{"city":"Haridwar","state":"Uttarakhand","latitude":29.9457,"longitude":78.1642,"temp":26.1,"humidity":63,"rain":0.0,"pressure":974.7,"uv_index":7.4,"wind_gusts":28.1,"aqi":162,"pm10":70.5,"pm2_5":41.6,"no2":18.3,"co":357.0,"o3":127.0,"so2":10.3,"mosquito_risk":7,"arthritis_risk":5,"migraine_risk":7,"frizz_risk":1,"updated_at":"2026-05-09T20:24:32.017201+05:30"},{"city":"Rishikesh","state":"Uttarakhand","latitude":30.0869,"longitude":78.2676,"temp":24.3,"humidity":65,"rain":0.0,"pressure":967.3,"uv_index":7.5,"wind_gusts":26.6,"aqi":163,"pm10":59.5,"pm2_5":29.3,"no2":7.1,"co":366.0,"o3":155.0,"so2":7.0,"mosquito_risk":3,"arthritis_risk":5,"migraine_risk":7,"frizz_risk":1,"updated_at":"2026-05-09T20:24:32.017208+05:30"},{"city":"Nainital","state":"Uttarakhand","latitude":29.3919,"longitude":79.4542,"temp":12.3,"humidity":90,"rain":0.0,"pressure":805.1,"uv_index":7.9,"wind_gusts":31.3,"aqi":136,"pm10":43.0,"pm2_5":25.8,"no2":10.8,"co":309.0,"o3":126.0,"so2":5.0,"mosquito_risk":3,"arthritis_risk":10,"migraine_risk":7,"frizz_risk":0,"updated_at":"2026-05-09T20:24:32.017216+05:30"},{"city":"Mussoorie","state":"Uttarakhand","latitude":30.4599,"longitude":78.0664,"temp":12.7,"humidity":91,"rain":0.0,"pressure":802.5,"uv_index":7.85,"wind_gusts":41.4,"aqi":159,"pm10":51.7,"pm2_5":29.8,"no2":11.8,"co":327.0,"o3":155.0,"so2":11.4,"mosquito_risk":3,"arthritis_risk":10,"migraine_risk":7,"frizz_risk":0,"updated_at":"2026-05-09T20:24:32.017223+05:30"},{"city":"Dharamshala","state":"Himachal Pradesh","latitude":32.219,"longitude":76.3234,"temp":20.0,"humidity":69,"rain":0.0,"pressure":869.8,"uv_index":8.25,"wind_gusts":36.7,"aqi":150,"pm10":68.0,"pm2_5":37.7,"no2":8.5,"co":330.0,"o3":148.0,"so2":4.9,"mosquito_risk":3,"arthritis_risk":5,"migraine_risk":7,"frizz_risk":0,"updated_at":"2026-05-09T20:24:32.017230+05:30"},{"city":"Dalhousie","state":"Himachal Pradesh","latitude":32.5387,"longitude":75.971,"temp":14.3,"humidity":83,"rain":0.0,"pressure":804.6,"uv_index":8.5,"wind_gusts":36.7,"aqi":171,"pm10":99.7,"pm2_5":51.1,"no2":19.7,"co":545.0,"o3":140.0,"so2":7.0,"mosquito_risk":3,"arthritis_risk":10,"migraine_risk":7,"frizz_risk":0,"updated_at":"2026-05-09T20:24:32.017238+05:30"},{"city":"Patiala","state":"Punjab","latitude":30.3398,"longitude":76.3869,"temp":29.4,"humidity":45,"rain":0.0,"pressure":977.9,"uv_index":7.5,"wind_gusts":29.2,"aqi":199,"pm10":354.8,"pm2_5":65.9,"no2":9.5,"co":332.0,"o3":137.0,"so2":6.9,"mosquito_risk":4,"arthritis_risk":5,"migraine_risk":7,"frizz_risk":1,"updated_at":"2026-05-09T20:24:32.017245+05:30"},{"city":"Bhatinda","state":"Punjab","latitude":30.211,"longitude":74.9455,"temp":32.5,"humidity":35,"rain":0.0,"pressure":982.6,"uv_index":8.2,"wind_gusts":25.6,"aqi":444,"pm10":356.7,"pm2_5":83.4,"no2":14.1,"co":380.0,"o3":154.0,"so2":19.1,"mosquito_risk":0,"arthritis_risk":5,"migraine_risk":7,"frizz_risk":0,"updated_at":"2026-05-09T20:24:32.017252+05:30"},{"city":"Rohtak","state":"Haryana","latitude":28.8955,"longitude":76.6066,"temp":29.1,"humidity":46,"rain":0.0,"pressure":981.5,"uv_index":7.6,"wind_gusts":27.4,"aqi":290,"pm10":418.2,"pm2_5":73.6,"no2":16.7,"co":428.0,"o3":170.0,"so2":23.5,"mosquito_risk":4,"arthritis_risk":5,"migraine_risk":7,"frizz_risk":1,"updated_at":"2026-05-09T20:24:32.017259+05:30"},{"city":"Panipat","state":"Haryana","latitude":29.3909,"longitude":76.9635,"temp":27.5,"humidity":62,"rain":0.0,"pressure":980.3,"uv_index":7.45,"wind_gusts":33.1,"aqi":543,"pm10":743.2,"pm2_5":96.6,"no2":10.0,"co":450.0,"o3":163.0,"so2":16.6,"mosquito_risk":7,"arthritis_risk":5,"migraine_risk":7,"frizz_risk":1,"updated_at":"2026-05-09T20:24:32.017265+05:30"},{"city":"Mathura","state":"Uttar Pradesh","latitude":27.4924,"longitude":77.6737,"temp":29.0,"humidity":45,"rain":0.0,"pressure":986.6,"uv_index":7.85,"wind_gusts":27.0,"aqi":768,"pm10":750.6,"pm2_5":96.9,"no2":9.7,"co":355.0,"o3":142.0,"so2":9.8,"mosquito_risk":4,"arthritis_risk":5,"migraine_risk":7,"frizz_risk":0,"updated_at":"2026-05-09T20:24:32.017271+05:30"},{"city":"Vrindavan","state":"Uttar Pradesh","latitude":27.5823,"longitude":77.7027,"temp":29.0,"humidity":43,"rain":0.0,"pressure":987.0,"uv_index":7.8,"wind_gusts":27.4,"aqi":768,"pm10":750.6,"pm2_5":96.9,"no2":9.7,"co":382.0,"o3":142.0,"so2":9.8,"mosquito_risk":4,"arthritis_risk":5,"migraine_risk":7,"frizz_risk":0,"updated_at":"2026-05-09T20:24:32.017278+05:30"},{"city":"Ayodhya","state":"Uttar Pradesh","latitude":26.7922,"longitude":82.1998,"temp":26.3,"humidity":60,"rain":0.0,"pressure":996.6,"uv_index":8.15,"wind_gusts":38.9,"aqi":152,"pm10":75.9,"pm2_5":51.7,"no2":22.3,"co":405.0,"o3":116.0,"so2":11.1,"mosquito_risk":4,"arthritis_risk":5,"migraine_risk":7,"frizz_risk":1,"updated_at":"2026-05-09T20:24:32.017285+05:30"},{"city":"Ratlam","state":"Madhya Pradesh","latitude":23.3315,"longitude":75.0367,"temp":32.3,"humidity":22,"rain":0.0,"pressure":953.0,"uv_index":8.5,"wind_gusts":38.2,"aqi":88,"pm10":29.3,"pm2_5":12.6,"no2":2.9,"co":232.0,"o3":106.0,"so2":3.5,"mosquito_risk":0,"arthritis_risk":5,"migraine_risk":7,"frizz_risk":0,"updated_at":"2026-05-09T20:24:32.017292+05:30"},{"city":"Sagar","state":"Madhya Pradesh","latitude":23.8388,"longitude":78.7378,"temp":30.8,"humidity":28,"rain":0.0,"pressure":949.3,"uv_index":8.65,"wind_gusts":43.9,"aqi":127,"pm10":39.2,"pm2_5":19.6,"no2":2.0,"co":230.0,"o3":151.0,"so2":7.1,"mosquito_risk":0,"arthritis_risk":5,"migraine_risk":7,"frizz_risk":0,"updated_at":"2026-05-09T20:24:32.017299+05:30"},{"city":"Satna","state":"Madhya Pradesh","latitude":24.6005,"longitude":80.8322,"temp":28.3,"humidity":44,"rain":0.0,"pressure":971.2,"uv_index":8.65,"wind_gusts":55.8,"aqi":178,"pm10":45.8,"pm2_5":32.1,"no2":4.5,"co":287.0,"o3":180.0,"so2":10.2,"mosquito_risk":4,"arthritis_risk":5,"migraine_risk":7,"frizz_risk":0,"updated_at":"2026-05-09T20:24:32.017305+05:30"},{"city":"Akola","state":"Maharashtra","latitude":20.7002,"longitude":77.0082,"temp":33.7,"humidity":21,"rain":0.0,"pressure":973.1,"uv_index":8.85,"wind_gusts":36.0,"aqi":152,"pm10":66.4,"pm2_5":27.8,"no2":15.5,"co":223.0,"o3":122.0,"so2":13.1,"mosquito_risk":0,"arthritis_risk":5,"migraine_risk":7,"frizz_risk":0,"updated_at":"2026-05-09T20:24:32.017313+05:30"},{"city":"Amravati","state":"Maharashtra","latitude":20.9374,"longitude":77.7796,"temp":34.2,"humidity":25,"rain":0.0,"pressure":965.9,"uv_index":8.85,"wind_gusts":32.8,"aqi":149,"pm10":65.7,"pm2_5":28.5,"no2":19.8,"co":261.0,"o3":118.0,"so2":8.4,"mosquito_risk":0,"arthritis_risk":5,"migraine_risk":7,"frizz_risk":0,"updated_at":"2026-05-09T20:24:32.017321+05:30"},{"city":"Latur","state":"Maharashtra","latitude":18.4088,"longitude":76.5604,"temp":31.2,"humidity":28,"rain":0.0,"pressure":939.4,"uv_index":9.05,"wind_gusts":35.3,"aqi":146,"pm10":45.4,"pm2_5":31.3,"no2":9.1,"co":221.0,"o3":134.0,"so2":14.4,"mosquito_risk":0,"arthritis_risk":5,"migraine_risk":7,"frizz_risk":0,"updated_at":"2026-05-09T20:24:32.017328+05:30"},{"city":"Nanded","state":"Maharashtra","latitude":19.1383,"longitude":77.3091,"temp":32.8,"humidity":29,"rain":0.0,"pressure":967.5,"uv_index":9.0,"wind_gusts":25.9,"aqi":145,"pm10":55.8,"pm2_5":31.9,"no2":7.8,"co":313.0,"o3":135.0,"so2":5.8,"mosquito_risk":0,"arthritis_risk":5,"migraine_risk":7,"frizz_risk":0,"updated_at":"2026-05-09T20:24:32.017334+05:30"},{"city":"Gulbarga","state":"Karnataka","latitude":17.3297,"longitude":76.8343,"temp":33.5,"humidity":28,"rain":0.0,"pressure":958.0,"uv_index":8.9,"wind_gusts":36.0,"aqi":130,"pm10":22.4,"pm2_5":16.1,"no2":8.7,"co":243.0,"o3":134.0,"so2":4.4,"mosquito_risk":0,"arthritis_risk":5,"migraine_risk":7,"frizz_risk":0,"updated_at":"2026-05-09T20:24:32.017341+05:30"},{"city":"Bidar","state":"Karnataka","latitude":17.9104,"longitude":77.5199,"temp":30.8,"humidity":34,"rain":0.0,"pressure":935.3,"uv_index":8.75,"wind_gusts":35.3,"aqi":128,"pm10":32.0,"pm2_5":22.9,"no2":13.9,"co":278.0,"o3":116.0,"so2":3.9,"mosquito_risk":0,"arthritis_risk":5,"migraine_risk":7,"frizz_risk":0,"updated_at":"2026-05-09T20:24:32.017347+05:30"},{"city":"Hospet","state":"Karnataka","latitude":15.2689,"longitude":76.3909,"temp":31.2,"humidity":35,"rain":0.0,"pressure":954.4,"uv_index":9.2,"wind_gusts":36.0,"aqi":99,"pm10":15.9,"pm2_5":13.0,"no2":12.7,"co":367.0,"o3":114.0,"so2":7.0,"mosquito_risk":0,"arthritis_risk":5,"migraine_risk":7,"frizz_risk":0,"updated_at":"2026-05-09T20:24:32.017353+05:30"},{"city":"Tirupur","state":"Tamil Nadu","latitude":11.1085,"longitude":77.3411,"temp":24.9,"humidity":91,"rain":0.2,"pressure":975.2,"uv_index":7.95,"wind_gusts":39.2,"aqi":79,"pm10":20.8,"pm2_5":20.1,"no2":14.1,"co":440.0,"o3":84.0,"so2":6.7,"mosquito_risk":6,"arthritis_risk":5,"migraine_risk":7,"frizz_risk":1,"updated_at":"2026-05-09T20:24:32.017360+05:30"},{"city":"Alappuzha","state":"Kerala","latitude":9.4981,"longitude":76.3388,"temp":26.8,"humidity":86,"rain":0.0,"pressure":1008.2,"uv_index":7.8,"wind_gusts":30.6,"aqi":99,"pm10":20.0,"pm2_5":17.5,"no2":13.5,"co":179.0,"o3":91.0,"so2":4.0,"mosquito_risk":7,"arthritis_risk":0,"migraine_risk":4,"frizz_risk":1,"updated_at":"2026-05-09T20:24:32.017367+05:30"},{"city":"Munnar","state":"Kerala","latitude":10.0889,"longitude":77.0595,"temp":18.1,"humidity":95,"rain":0.0,"pressure":855.9,"uv_index":5.9,"wind_gusts":21.2,"aqi":51,"pm10":13.4,"pm2_5":12.9,"no2":7.8,"co":287.0,"o3":68.0,"so2":2.2,"mosquito_risk":3,"arthritis_risk":10,"migraine_risk":3,"frizz_risk":1,"updated_at":"2026-05-09T20:24:32.017373+05:30"},{"city":"Silchar","state":"Assam","latitude":24.8333,"longitude":92.7789,"temp":25.2,"humidity":78,"rain":0.0,"pressure":1006.4,"uv_index":8.7,"wind_gusts":16.9,"aqi":125,"pm10":73.8,"pm2_5":55.6,"no2":16.2,"co":523.0,"o3":93.0,"so2":11.3,"mosquito_risk":7,"arthritis_risk":5,"migraine_risk":4,"frizz_risk":1,"updated_at":"2026-05-09T20:24:32.017380+05:30"},{"city":"Dibrugarh","state":"Assam","latitude":27.4728,"longitude":94.912,"temp":25.4,"humidity":81,"rain":0.0,"pressure":997.4,"uv_index":8.7,"wind_gusts":19.4,"aqi":107,"pm10":56.1,"pm2_5":48.9,"no2":20.6,"co":548.0,"o3":100.0,"so2":5.5,"mosquito_risk":7,"arthritis_risk":5,"migraine_risk":7,"frizz_risk":1,"updated_at":"2026-05-09T20:24:32.017386+05:30"}]