[{"city":"Delhi","state":"Delhi","latitude":28.6139,"longitude":77.209,"temp":25.9,"humidity":63,"rain":0.0,"pressure":988.3,"uv_index":6.5,"wind_gusts":25.2,"aqi":157,"pm10":268.2,"pm2_5":84.5,"mosquito_risk":7,"arthritis_risk":5,"migraine_risk":7,"frizz_risk":1,"updated_at":"2026-03-24T10:26:41.005671+05:30"},{"city":"Mumbai","state":"Maharashtra","latitude":19.076,"longitude":72.8777,"temp":29.6,"humidity":61,"rain":0.0,"pressure":1010.3,"uv_index":7.8,"wind_gusts":27.0,"aqi":102,"pm10":66.8,"pm2_5":45.4,"mosquito_risk":7,"arthritis_risk":0,"migraine_risk":4,"frizz_risk":1,"updated_at":"2026-03-24T10:26:41.005714+05:30"},{"city":"Bangalore","state":"Karnataka","latitude":12.9716,"longitude":77.5946,"temp":27.9,"humidity":51,"rain":0.0,"pressure":915.0,"uv_index":9.5,"wind_gusts":35.6,"aqi":79,"pm10":29.6,"pm2_5":23.6,"mosquito_risk":4,"arthritis_risk":5,"migraine_risk":7,"frizz_risk":1,"updated_at":"2026-03-24T10:26:41.005730+05:30"},{"city":"Hyderabad","state":"Telangana","latitude":17.385,"longitude":78.4867,"temp":31.8,"humidity":44,"rain":0.0,"pressure":956.6,"uv_index":8.95,"wind_gusts":21.6,"aqi":84,"pm10":25.9,"pm2_5":18.5,"mosquito_risk":0,"arthritis_risk":5,"migraine_risk":7,"frizz_risk":1,"updated_at":"2026-03-24T10:26:41.005739+05:30"},{"city":"Chennai","state":"Tamil Nadu","latitude":13.0827,"longitude":80.2707,"temp":31.5,"humidity":56,"rain":0.0,"pressure":1010.9,"uv_index":9.2,"wind_gusts":33.5,"aqi":35,"pm10":15.4,"pm2_5":8.9,"mosquito_risk":0,"arthritis_risk":0,"migraine_risk":4,"frizz_risk":1,"updated_at":"2026-03-24T10:26:41.005748+05:30"},{"city":"Kolkata","state":"West Bengal","latitude":22.5726,"longitude":88.3639,"temp":28.7,"humidity":68,"rain":0.0,"pressure":1010.9,"uv_index":8.3,"wind_gusts":22.0,"aqi":151,"pm10":49.6,"pm2_5":39.1,"mosquito_risk":7,"arthritis_risk":0,"migraine_risk":4,"frizz_risk":1,"updated_at":"2026-03-24T10:26:41.005757+05:30"},{"city":"Pune","state":"Maharashtra","latitude":18.5204,"longitude":73.8567,"temp":32.5,"humidity":35,"rain":0.0,"pressure":951.4,"uv_index":8.5,"wind_gusts":26.3,"aqi":92,"pm10":44.9,"pm2_5":22.1,"mosquito_risk":0,"arthritis_risk":5,"migraine_risk":7,"frizz_risk":0,"updated_at":"2026-03-24T10:26:41.005768+05:30"},{"city":"Ahmedabad","state":"Gujarat","latitude":23.0225,"longitude":72.5714,"temp":30.0,"humidity":48,"rain":0.0,"pressure":1006.2,"uv_index":7.35,"wind_gusts":15.1,"aqi":77,"pm10":17.8,"pm2_5":14.2,"mosquito_risk":4,"arthritis_risk":5,"migraine_risk":4,"frizz_risk":1,"updated_at":"2026-03-24T10:26:41.005776+05:30"},{"city":"Jaipur","state":"Rajasthan","latitude":26.9124,"longitude":75.7873,"temp":26.7,"humidity":54,"rain":0.0,"pressure":964.7,"uv_index":7.25,"wind_gusts":18.7,"aqi":140,"pm10":146.7,"pm2_5":44.5,"mosquito_risk":4,"arthritis_risk":5,"migraine_risk":7,"frizz_risk":1,"updated_at":"2026-03-24T10:26:41.005784+05:30"},{"city":"Lucknow","state":"Uttar Pradesh","latitude":26.8467,"longitude":80.9462,"temp":27.5,"humidity":54,"rain":0.0,"pressure":998.5,"uv_index":7.05,"wind_gusts":28.8,"aqi":131,"pm10":68.7,"pm2_5":34.0,"mosquito_risk":4,"arthritis_risk":5,"migraine_risk":7,"frizz_risk":1,"updated_at":"2026-03-24T10:26:41.005791+05:30"},{"city":"Kanpur","state":"Uttar Pradesh","latitude":26.4499,"longitude":80.3319,"temp":26.5,"humidity":60,"rain":0.0,"pressure":996.9,"uv_index":7.05,"wind_gusts":25.6,"aqi":150,"pm10":125.3,"pm2_5":37.4,"mosquito_risk":4,"arthritis_risk":5,"migraine_risk":7,"frizz_risk":1,"updated_at":"2026-03-24T10:26:41.005798+05:30"},{"city":"Chandigarh","state":"Chandigarh","latitude":30.7333,"longitude":76.7794,"temp":24.5,"humidity":56,"rain":0.0,"pressure":973.8,"uv_index":6.5,"wind_gusts":33.8,"aqi":105,"pm10":36.2,"pm2_5":29.5,"mosquito_risk":0,"arthritis_risk":5,"migraine_risk":7,"frizz_risk":0,"updated_at":"2026-03-24T10:26:41.005806+05:30"},{"city":"Srinagar","state":"Jammu and Kashmir","latitude":34.0837,"longitude":74.7973,"temp":11.5,"humidity":71,"rain":0.0,"pressure":845.2,"uv_index":7.55,"wind_gusts":15.8,"aqi":73,"pm10":23.6,"pm2_5":19.9,"mosquito_risk":3,"arthritis_risk":5,"migraine_risk":7,"frizz_risk":0,"updated_at":"2026-03-24T10:26:41.005813+05:30"},{"city":"Jammu","state":"Jammu and Kashmir","latitude":32.7266,"longitude":74.857,"temp":25.0,"humidity":48,"rain":0.0,"pressure":978.0,"uv_index":7.15,"wind_gusts":30.6,"aqi":74,"pm10":17.9,"pm2_5":15.8,"mosquito_risk":4,"arthritis_risk":5,"migraine_risk":7,"frizz_risk":0,"updated_at":"2026-03-24T10:26:41.005820+05:30"},{"city":"Amritsar","state":"Punjab","latitude":31.634,"longitude":74.8723,"temp":24.4,"humidity":67,"rain":0.0,"pressure":986.5,"uv_index":7.15,"wind_gusts":24.8,"aqi":129,"pm10":63.6,"pm2_5":53.7,"mosquito_risk":3,"arthritis_risk":5,"migraine_risk":7,"frizz_risk":1,"updated_at":"2026-03-24T10:26:41.005827+05:30"},{"city":"Ludhiana","state":"Punjab","latitude":30.901,"longitude":75.8573,"temp":25.1,"humidity":61,"rain":0.0,"pressure":984.2,"uv_index":6.75,"wind_gusts":33.1,"aqi":156,"pm10":73.1,"pm2_5":63.8,"mosquito_risk":7,"arthritis_risk":5,"migraine_risk":7,"frizz_risk":1,"updated_at":"2026-03-24T10:26:41.005848+05:30"},{"city":"Jalandhar","state":"Punjab","latitude":31.326,"longitude":75.5762,"temp":24.6,"humidity":66,"rain":0.0,"pressure":985.3,"uv_index":6.95,"wind_gusts":28.8,"aqi":148,"pm10":63.1,"pm2_5":54.5,"mosquito_risk":3,"arthritis_risk":5,"migraine_risk":7,"frizz_risk":1,"updated_at":"2026-03-24T10:26:41.005860+05:30"},{"city":"Dehradun","state":"Uttarakhand","latitude":30.6284,"longitude":78.0322,"temp":15.5,"humidity":59,"rain":0.0,"pressure":832.1,"uv_index":6.9,"wind_gusts":31.3,"aqi":49,"pm10":4.1,"pm2_5":2.5,"mosquito_risk":0,"arthritis_risk":5,"migraine_risk":7,"frizz_risk":0,"updated_at":"2026-03-24T10:26:41.005867+05:30"},{"city":"Shimla","state":"Himachal Pradesh","latitude":31.1048,"longitude":77.1734,"temp":14.5,"humidity":60,"rain":0.0,"pressure":786.8,"uv_index":7.0,"wind_gusts":48.2,"aqi":59,"pm10":14.6,"pm2_5":7.0,"mosquito_risk":0,"arthritis_risk":5,"migraine_risk":7,"frizz_risk":0,"updated_at":"2026-03-24T10:26:41.005874+05:30"},{"city":"Manali","state":"Himachal Pradesh","latitude":32.2396,"longitude":77.1887,"temp":16.4,"humidity":22,"rain":0.0,"pressure":820.5,"uv_index":9.15,"wind_gusts":28.4,"aqi":90,"pm10":5.2,"pm2_5":3.3,"mosquito_risk":0,"arthritis_risk":5,"migraine_risk":7,"frizz_risk":1,"updated_at":"2026-03-24T10:26:41.005881+05:30"},{"city":"Gurgaon","state":"Haryana","latitude":28.4595,"longitude":77.0266,"temp":26.1,"humidity":66,"rain":0.0,"pressure":986.7,"uv_index":6.65,"wind_gusts":22.3,"aqi":219,"pm10":248.7,"pm2_5":71.9,"mosquito_risk":7,"arthritis_risk":5,"migraine_risk":7,"frizz_risk":1,"updated_at":"2026-03-24T10:26:41.005887+05:30"},{"city":"Noida","state":"Uttar Pradesh","latitude":28.5355,"longitude":77.391,"temp":26.1,"humidity":65,"rain":0.0,"pressure":989.8,"uv_index":6.5,"wind_gusts":23.8,"aqi":219,"pm10":248.7,"pm2_5":71.9,"mosquito_risk":7,"arthritis_risk":5,"migraine_risk":7,"frizz_risk":1,"updated_at":"2026-03-24T10:26:41.005893+05:30"},{"city":"Ghaziabad","state":"Uttar Pradesh","latitude":28.6692,"longitude":77.4538,"temp":25.4,"humidity":70,"rain":0.0,"pressure":987.9,"uv_index":6.35,"wind_gusts":25.2,"aqi":153,"pm10":247.7,"pm2_5":80.6,"mosquito_risk":7,"arthritis_risk":5,"migraine_risk":7,"frizz_risk":1,"updated_at":"2026-03-24T10:26:41.005900+05:30"},{"city":"Faridabad","state":"Haryana","latitude":28.4089,"longitude":77.3178,"temp":26.1,"humidity":66,"rain":0.0,"pressure":989.1,"uv_index":6.6,"wind_gusts":22.3,"aqi":219,"pm10":248.7,"pm2_5":71.9,"mosquito_risk":7,"arthritis_risk":5,"migraine_risk":7,"frizz_risk":1,"updated_at":"2026-03-24T10:26:41.005907+05:30"},{"city":"Meerut","state":"Uttar Pradesh","latitude":28.9845,"longitude":77.7064,"temp":25.2,"humidity":74,"rain":0.0,"pressure":986.6,"uv_index":6.3,"wind_gusts":27.0,"aqi":153,"pm10":247.7,"pm2_5":80.6,"mosquito_risk":7,"arthritis_risk":5,"migraine_risk":7,"frizz_risk":1,"updated_at":"2026-03-24T10:26:41.005913+05:30"},{"city":"Agra","state":"Uttar Pradesh","latitude":27.1767,"longitude":78.0081,"temp":28.3,"humidity":48,"rain":0.0,"pressure":993.2,"uv_index":6.55,"wind_gusts":22.7,"aqi":156,"pm10":214.2,"pm2_5":59.1,"mosquito_risk":4,"arthritis_risk":5,"migraine_risk":7,"frizz_risk":1,"updated_at":"2026-03-24T10:26:41.005919+05:30"},{"city":"Varanasi","state":"Uttar Pradesh","latitude":25.3176,"longitude":82.9739,"temp":28.5,"humidity":49,"rain":0.0,"pressure":1002.7,"uv_index":7.75,"wind_gusts":27.7,"aqi":142,"pm10":103.1,"pm2_5":50.5,"mosquito_risk":4,"arthritis_risk":5,"migraine_risk":4,"frizz_risk":1,"updated_at":"2026-03-24T10:26:41.005928+05:30"},{"city":"Prayagraj","state":"Uttar Pradesh","latitude":25.4358,"longitude":81.8463,"temp":26.8,"humidity":56,"rain":0.0,"pressure":1001.2,"uv_index":7.6,"wind_gusts":22.0,"aqi":118,"pm10":80.8,"pm2_5":32.0,"mosquito_risk":4,"arthritis_risk":5,"migraine_risk":4,"frizz_risk":1,"updated_at":"2026-03-24T10:26:41.005935+05:30"},{"city":"Gorakhpur","state":"Uttar Pradesh","latitude":26.7606,"longitude":83.3732,"temp":27.2,"humidity":56,"rain":0.0,"pressure":1001.9,"uv_index":7.45,"wind_gusts":31.7,"aqi":153,"pm10":74.7,"pm2_5":47.5,"mosquito_risk":4,"arthritis_risk":5,"migraine_risk":4,"frizz_risk":1,"updated_at":"2026-03-24T10:26:41.005941+05:30"},{"city":"Bareilly","state":"Uttar Pradesh","latitude":28.367,"longitude":79.4304,"temp":25.4,"humidity":72,"rain":0.0,"pressure":991.8,"uv_index":6.8,"wind_gusts":26.6,"aqi":114,"pm10":86.6,"pm2_5":53.3,"mosquito_risk":7,"arthritis_risk":5,"migraine_risk":7,"frizz_risk":1,"updated_at":"2026-03-24T10:26:41.005948+05:30"},{"city":"Aligarh","state":"Uttar Pradesh","latitude":27.8974,"longitude":78.088,"temp":26.0,"humidity":67,"rain":0.0,"pressure":991.0,"uv_index":6.55,"wind_gusts":23.8,"aqi":156,"pm10":234.7,"pm2_5":61.0,"mosquito_risk":7,"arthritis_risk":5,"migraine_risk":7,"frizz_risk":1,"updated_at":"2026-03-24T10:26:41.005958+05:30"},{"city":"Moradabad","state":"Uttar Pradesh","latitude":28.8386,"longitude":78.7733,"temp":25.2,"humidity":72,"rain":0.0,"pressure":988.7,"uv_index":6.6,"wind_gusts":27.7,"aqi":139,"pm10":116.4,"pm2_5":61.5,"mosquito_risk":7,"arthritis_risk":5,"migraine_risk":7,"frizz_risk":1,"updated_at":"2026-03-24T10:26:41.005965+05:30"},{"city":"Saharanpur","state":"Uttar Pradesh","latitude":29.9637,"longitude":77.546,"temp":24.4,"humidity":69,"rain":0.0,"pressure":980.7,"uv_index":6.25,"wind_gusts":33.5,"aqi":160,"pm10":100.1,"pm2_5":92.4,"mosquito_risk":3,"arthritis_risk":5,"migraine_risk":7,"frizz_risk":1,"updated_at":"2026-03-24T10:26:41.005971+05:30"},{"city":"Jhansi","state":"Uttar Pradesh","latitude":25.4484,"longitude":78.5685,"temp":27.9,"humidity":46,"rain":0.0,"pressure":982.9,"uv_index":7.3,"wind_gusts":26.6,"aqi":125,"pm10":253.3,"pm2_5":56.5,"mosquito_risk":4,"arthritis_risk":5,"migraine_risk":7,"frizz_risk":0,"updated_at":"2026-03-24T10:26:44.266546+05:30"},{"city":"Surat","state":"Gujarat","latitude":21.1702,"longitude":72.8311,"temp":29.3,"humidity":49,"rain":0.0,"pressure":1010.1,"uv_index":7.15,"wind_gusts":26.6,"aqi":139,"pm10":69.2,"pm2_5":58.7,"mosquito_risk":4,"arthritis_risk":0,"migraine_risk":4,"frizz_risk":1,"updated_at":"2026-03-24T10:26:44.266576+05:30"},{"city":"Vadodara","state":"Gujarat","latitude":22.3072,"longitude":73.1812,"temp":31.2,"humidity":45,"rain":0.0,"pressure":1008.1,"uv_index":7.85,"wind_gusts":19.4,"aqi":91,"pm10":34.6,"pm2_5":28.2,"mosquito_risk":0,"arthritis_risk":0,"migraine_risk":4,"frizz_risk":1,"updated_at":"2026-03-24T10:26:44.266586+05:30"},{"city":"Rajkot","state":"Gujarat","latitude":22.3039,"longitude":70.8022,"temp":27.2,"humidity":68,"rain":0.0,"pressure":998.3,"uv_index":7.1,"wind_gusts":20.2,"aqi":49,"pm10":16.1,"pm2_5":7.8,"mosquito_risk":7,"arthritis_risk":5,"migraine_risk":7,"frizz_risk":1,"updated_at":"2026-03-24T10:26:44.266594+05:30"},{"city":"Thane","state":"Maharashtra","latitude":19.2183,"longitude":72.9781,"temp":33.4,"humidity":36,"rain":0.0,"pressure":1009.9,"uv_index":7.85,"wind_gusts":40.3,"aqi":102,"pm10":66.8,"pm2_5":45.4,"mosquito_risk":0,"arthritis_risk":0,"migraine_risk":4,"frizz_risk":1,"updated_at":"2026-03-24T10:26:44.266600+05:30"},{"city":"Nagpur","state":"Maharashtra","latitude":21.1458,"longitude":79.0882,"temp":31.5,"humidity":36,"rain":0.0,"pressure":976.7,"uv_index":8.45,"wind_gusts":22.7,"aqi":88,"pm10":45.8,"pm2_5":34.6,"mosquito_risk":0,"arthritis_risk":5,"migraine_risk":7,"frizz_risk":0,"updated_at":"2026-03-24T10:26:44.266608+05:30"},{"city":"Nashik","state":"Maharashtra","latitude":19.9975,"longitude":73.7898,"temp":29.0,"humidity":42,"rain":0.0,"pressure":948.8,"uv_index":8.0,"wind_gusts":33.8,"aqi":68,"pm10":48.8,"pm2_5":22.9,"mosquito_risk":4,"arthritis_risk":5,"migraine_risk":7,"frizz_risk":0,"updated_at":"2026-03-24T10:26:44.266615+05:30"},{"city":"Aurangabad","state":"Maharashtra","latitude":19.8762,"longitude":75.3433,"temp":31.6,"humidity":34,"rain":0.0,"pressure":947.5,"uv_index":8.6,"wind_gusts":24.8,"aqi":56,"pm10":40.5,"pm2_5":18.3,"mosquito_risk":0,"arthritis_risk":5,"migraine_risk":7,"frizz_risk":0,"updated_at":"2026-03-24T10:26:44.266622+05:30"},{"city":"Solapur","state":"Maharashtra","latitude":17.6599,"longitude":75.9064,"temp":32.2,"humidity":36,"rain":0.0,"pressure":960.1,"uv_index":8.8,"wind_gusts":20.2,"aqi":91,"pm10":37.4,"pm2_5":30.3,"mosquito_risk":0,"arthritis_risk":5,"migraine_risk":7,"frizz_risk":0,"updated_at":"2026-03-24T10:26:44.266629+05:30"},{"city":"Kolhapur","state":"Maharashtra","latitude":16.705,"longitude":74.2433,"temp":29.8,"humidity":44,"rain":0.0,"pressure":950.9,"uv_index":8.95,"wind_gusts":44.6,"aqi":113,"pm10":54.2,"pm2_5":44.2,"mosquito_risk":4,"arthritis_risk":5,"migraine_risk":7,"frizz_risk":1,"updated_at":"2026-03-24T10:26:44.266635+05:30"},{"city":"Goa","state":"Goa","latitude":15.2993,"longitude":74.124,"temp":31.3,"humidity":64,"rain":0.0,"pressure":1000.3,"uv_index":8.9,"wind_gusts":29.9,"aqi":98,"pm10":44.2,"pm2_5":32.5,"mosquito_risk":3,"arthritis_risk":5,"migraine_risk":4,"frizz_risk":1,"updated_at":"2026-03-24T10:26:44.266642+05:30"},{"city":"Jodhpur","state":"Rajasthan","latitude":26.2389,"longitude":73.0243,"temp":31.1,"humidity":33,"rain":0.0,"pressure":987.5,"uv_index":7.55,"wind_gusts":16.2,"aqi":72,"pm10":44.6,"pm2_5":20.0,"mosquito_risk":0,"arthritis_risk":5,"migraine_risk":7,"frizz_risk":0,"updated_at":"2026-03-24T10:26:44.266649+05:30"},{"city":"Udaipur","state":"Rajasthan","latitude":24.5854,"longitude":73.7125,"temp":29.4,"humidity":34,"rain":0.0,"pressure":950.7,"uv_index":7.6,"wind_gusts":18.7,"aqi":57,"pm10":80.6,"pm2_5":18.2,"mosquito_risk":4,"arthritis_risk":5,"migraine_risk":7,"frizz_risk":0,"updated_at":"2026-03-24T10:26:44.266656+05:30"},{"city":"Kota","state":"Rajasthan","latitude":25.2138,"longitude":75.8648,"temp":30.5,"humidity":44,"rain":0.0,"pressure":983.4,"uv_index":7.65,"wind_gusts":14.4,"aqi":110,"pm10":96.6,"pm2_5":38.3,"mosquito_risk":0,"arthritis_risk":5,"migraine_risk":7,"frizz_risk":1,"updated_at":"2026-03-24T10:26:44.266663+05:30"},{"city":"Bikaner","state":"Rajasthan","latitude":28.0229,"longitude":73.3119,"temp":30.3,"humidity":35,"rain":0.0,"pressure":986.5,"uv_index":7.2,"wind_gusts":16.9,"aqi":64,"pm10":67.8,"pm2_5":24.2,"mosquito_risk":0,"arthritis_risk":5,"migraine_risk":7,"frizz_risk":0,"updated_at":"2026-03-24T10:26:44.266670+05:30"},{"city":"Ajmer","state":"Rajasthan","latitude":26.4499,"longitude":74.6399,"temp":27.9,"humidity":47,"rain":0.0,"pressure":959.1,"uv_index":7.55,"wind_gusts":17.3,"aqi":101,"pm10":114.1,"pm2_5":35.2,"mosquito_risk":4,"arthritis_risk":5,"migraine_risk":7,"frizz_risk":0,"updated_at":"2026-03-24T10:26:44.266677+05:30"},{"city":"Gwalior","state":"Madhya Pradesh","latitude":26.2183,"longitude":78.1828,"temp":28.5,"humidity":47,"rain":0.0,"pressure":988.2,"uv_index":7.3,"wind_gusts":26.6,"aqi":127,"pm10":196.0,"pm2_5":49.4,"mosquito_risk":4,"arthritis_risk":5,"migraine_risk":7,"frizz_risk":1,"updated_at":"2026-03-24T10:26:44.266683+05:30"},{"city":"Indore","state":"Madhya Pradesh","latitude":22.7196,"longitude":75.8577,"temp":28.8,"humidity":43,"rain":0.0,"pressure":951.9,"uv_index":8.15,"wind_gusts":22.7,"aqi":59,"pm10":41.4,"pm2_5":21.5,"mosquito_risk":4,"arthritis_risk":5,"migraine_risk":7,"frizz_risk":0,"updated_at":"2026-03-24T10:26:44.266689+05:30"},{"city":"Bhopal","state":"Madhya Pradesh","latitude":23.2599,"longitude":77.4126,"temp":31.0,"humidity":37,"rain":0.0,"pressure":957.5,"uv_index":8.05,"wind_gusts":28.1,"aqi":69,"pm10":67.8,"pm2_5":28.1,"mosquito_risk":0,"arthritis_risk":5,"migraine_risk":7,"frizz_risk":0,"updated_at":"2026-03-24T10:26:44.266695+05:30"},{"city":"Jabalpur","state":"Madhya Pradesh","latitude":23.1815,"longitude":79.9864,"temp":31.2,"humidity":37,"rain":0.0,"pressure":965.0,"uv_index":8.15,"wind_gusts":28.1,"aqi":75,"pm10":44.5,"pm2_5":24.7,"mosquito_risk":0,"arthritis_risk":5,"migraine_risk":7,"frizz_risk":0,"updated_at":"2026-03-24T10:26:44.266701+05:30"},{"city":"Ujjain","state":"Madhya Pradesh","latitude":23.1765,"longitude":75.7885,"temp":28.3,"humidity":49,"rain":0.0,"pressure":957.7,"uv_index":8.05,"wind_gusts":18.4,"aqi":61,"pm10":45.5,"pm2_5":24.2,"mosquito_risk":4,"arthritis_risk":5,"migraine_risk":7,"frizz_risk":1,"updated_at":"2026-03-24T10:26:44.266708+05:30"},{"city":"Visakhapatnam","state":"Andhra Pradesh","latitude":17.6868,"longitude":83.2185,"temp":30.7,"humidity":59,"rain":0.0,"pressure":1007.8,"uv_index":8.95,"wind_gusts":34.6,"aqi":88,"pm10":37.8,"pm2_5":30.3,"mosquito_risk":0,"arthritis_risk":5,"migraine_risk":4,"frizz_risk":1,"updated_at":"2026-03-24T10:26:44.266714+05:30"},{"city":"Vijayawada","state":"Andhra Pradesh","latitude":16.5062,"longitude":80.648,"temp":29.9,"humidity":68,"rain":0.0,"pressure":1006.5,"uv_index":9.0,"wind_gusts":25.9,"aqi":63,"pm10":21.8,"pm2_5":14.1,"mosquito_risk":7,"arthritis_risk":5,"migraine_risk":4,"frizz_risk":1,"updated_at":"2026-03-24T10:26:44.266720+05:30"},{"city":"Guntur","state":"Andhra Pradesh","latitude":16.3067,"longitude":80.4365,"temp":30.4,"humidity":65,"rain":0.0,"pressure":1007.6,"uv_index":9.0,"wind_gusts":29.5,"aqi":60,"pm10":21.0,"pm2_5":13.4,"mosquito_risk":3,"arthritis_risk":5,"migraine_risk":4,"frizz_risk":1,"updated_at":"2026-03-24T10:26:44.266727+05:30"},{"city":"Nellore","state":"Andhra Pradesh","latitude":14.4426,"longitude":79.9865,"temp":31.4,"humidity":59,"rain":0.0,"pressure":1009.4,"uv_index":9.1,"wind_gusts":29.9,"aqi":41,"pm10":18.6,"pm2_5":11.7,"mosquito_risk":0,"arthritis_risk":0,"migraine_risk":4,"frizz_risk":1,"updated_at":"2026-03-24T10:26:44.266734+05:30"},{"city":"Kurnool","state":"Andhra Pradesh","latitude":15.8281,"longitude":78.0373,"temp":33.1,"humidity":43,"rain":0.0,"pressure":980.1,"uv_index":9.0,"wind_gusts":23.0,"aqi":61,"pm10":15.1,"pm2_5":11.3,"mosquito_risk":0,"arthritis_risk":5,"migraine_risk":7,"frizz_risk":1,"updated_at":"2026-03-24T10:26:44.266741+05:30"},{"city":"Kakinada","state":"Andhra Pradesh","latitude":16.9891,"longitude":82.2475,"temp":31.6,"humidity":57,"rain":0.0,"pressure":1011.4,"uv_index":8.95,"wind_gusts":27.4,"aqi":51,"pm10":21.4,"pm2_5":12.8,"mosquito_risk":0,"arthritis_risk":0,"migraine_risk":4,"frizz_risk":1,"updated_at":"2026-03-24T10:26:44.266747+05:30"},{"city":"Tirupati","state":"Andhra Pradesh","latitude":13.6288,"longitude":79.4192,"temp":29.5,"humidity":61,"rain":0.0,"pressure":995.5,"uv_index":9.25,"wind_gusts":29.9,"aqi":62,"pm10":19.0,"pm2_5":13.7,"mosquito_risk":7,"arthritis_risk":5,"migraine_risk":7,"frizz_risk":1,"updated_at":"2026-03-24T10:26:44.266753+05:30"},{"city":"Warangal","state":"Telangana","latitude":17.9689,"longitude":79.5941,"temp":30.4,"humidity":61,"rain":0.0,"pressure":982.3,"uv_index":8.8,"wind_gusts":28.8,"aqi":93,"pm10":20.5,"pm2_5":15.8,"mosquito_risk":3,"arthritis_risk":5,"migraine_risk":7,"frizz_risk":1,"updated_at":"2026-03-24T10:26:44.266760+05:30"},{"city":"Nizamabad","state":"Telangana","latitude":18.6725,"longitude":78.0941,"temp":33.6,"humidity":38,"rain":0.0,"pressure":968.0,"uv_index":8.75,"wind_gusts":41.0,"aqi":95,"pm10":41.4,"pm2_5":35.4,"mosquito_risk":0,"arthritis_risk":5,"migraine_risk":7,"frizz_risk":1,"updated_at":"2026-03-24T10:26:44.266767+05:30"},{"city":"Mysore","state":"Karnataka","latitude":12.2958,"longitude":76.6396,"temp":28.5,"humidity":56,"rain":0.0,"pressure":931.5,"uv_index":9.4,"wind_gusts":39.2,"aqi":93,"pm10":36.2,"pm2_5":30.0,"mosquito_risk":4,"arthritis_risk":5,"migraine_risk":7,"frizz_risk":1,"updated_at":"2026-03-24T10:26:44.266773+05:30"},{"city":"Mangalore","state":"Karnataka","latitude":12.9141,"longitude":74.856,"temp":28.5,"humidity":80,"rain":0.0,"pressure":1009.3,"uv_index":9.1,"wind_gusts":25.6,"aqi":77,"pm10":46.8,"pm2_5":33.3,"mosquito_risk":7,"arthritis_risk":0,"migraine_risk":4,"frizz_risk":1,"updated_at":"2026-03-24T10:26:44.266779+05:30"},{"city":"Hubli-Dharwad","state":"Karnataka","latitude":15.3647,"longitude":75.124,"temp":28.1,"humidity":65,"rain":0.0,"pressure":943.8,"uv_index":9.1,"wind_gusts":30.2,"aqi":96,"pm10":37.4,"pm2_5":28.5,"mosquito_risk":7,"arthritis_risk":5,"migraine_risk":7,"frizz_risk":1,"updated_at":"2026-03-24T10:26:44.266786+05:30"},{"city":"Belgaum","state":"Karnataka","latitude":15.8497,"longitude":74.4977,"temp":30.6,"humidity":36,"rain":0.0,"pressure":928.7,"uv_index":9.05,"wind_gusts":40.3,"aqi":96,"pm10":35.2,"pm2_5":22.2,"mosquito_risk":0,"arthritis_risk":5,"migraine_risk":7,"frizz_risk":0,"updated_at":"2026-03-24T10:26:47.528329+05:30"},{"city":"Coimbatore","state":"Tamil Nadu","latitude":11.0168,"longitude":76.9558,"temp":29.3,"humidity":59,"rain":0.0,"pressure":965.2,"uv_index":9.4,"wind_gusts":33.1,"aqi":65,"pm10":13.4,"pm2_5":11.1,"mosquito_risk":4,"arthritis_risk":5,"migraine_risk":7,"frizz_risk":1,"updated_at":"2026-03-24T10:26:47.528362+05:30"},{"city":"Madurai","state":"Tamil Nadu","latitude":9.9252,"longitude":78.1198,"temp":30.1,"humidity":58,"rain":0.0,"pressure":996.5,"uv_index":9.35,"wind_gusts":29.5,"aqi":57,"pm10":12.7,"pm2_5":9.3,"mosquito_risk":0,"arthritis_risk":5,"migraine_risk":7,"frizz_risk":1,"updated_at":"2026-03-24T10:26:47.528374+05:30"},{"city":"Trichy","state":"Tamil Nadu","latitude":10.7905,"longitude":78.7047,"temp":29.4,"humidity":64,"rain":0.0,"pressure":1003.5,"uv_index":9.3,"wind_gusts":23.4,"aqi":55,"pm10":13.9,"pm2_5":10.7,"mosquito_risk":7,"arthritis_risk":5,"migraine_risk":4,"frizz_risk":1,"updated_at":"2026-03-24T10:26:47.528383+05:30"},{"city":"Salem","state":"Tamil Nadu","latitude":11.6643,"longitude":78.146,"temp":29.9,"humidity":58,"rain":0.0,"pressure":981.0,"uv_index":9.35,"wind_gusts":27.7,"aqi":75,"pm10":27.2,"pm2_5":23.8,"mosquito_risk":4,"arthritis_risk":5,"migraine_risk":7,"frizz_risk":1,"updated_at":"2026-03-24T10:26:47.528392+05:30"},{"city":"Tirunelveli","state":"Tamil Nadu","latitude":8.7139,"longitude":77.7567,"temp":31.5,"humidity":54,"rain":0.0,"pressure":1006.4,"uv_index":9.35,"wind_gusts":37.8,"aqi":54,"pm10":8.1,"pm2_5":5.7,"mosquito_risk":0,"arthritis_risk":5,"migraine_risk":4,"frizz_risk":1,"updated_at":"2026-03-24T10:26:47.528401+05:30"},{"city":"Vellore","state":"Tamil Nadu","latitude":12.9165,"longitude":79.1325,"temp":29.5,"humidity":57,"rain":0.0,"pressure":988.4,"uv_index":9.3,"wind_gusts":33.1,"aqi":69,"pm10":16.3,"pm2_5":10.8,"mosquito_risk":4,"arthritis_risk":5,"migraine_risk":7,"frizz_risk":1,"updated_at":"2026-03-24T10:26:47.528409+05:30"},{"city":"Erode","state":"Tamil Nadu","latitude":11.341,"longitude":77.7172,"temp":29.9,"humidity":62,"rain":0.0,"pressure":992.7,"uv_index":9.35,"wind_gusts":20.9,"aqi":56,"pm10":14.4,"pm2_5":10.6,"mosquito_risk":7,"arthritis_risk":5,"migraine_risk":7,"frizz_risk":1,"updated_at":"2026-03-24T10:26:47.528418+05:30"},{"city":"Kochi","state":"Kerala","latitude":9.9312,"longitude":76.2673,"temp":28.1,"humidity":82,"rain":0.0,"pressure":1011.2,"uv_index":9.15,"wind_gusts":38.5,"aqi":89,"pm10":43.5,"pm2_5":31.2,"mosquito_risk":7,"arthritis_risk":0,"migraine_risk":4,"frizz_risk":1,"updated_at":"2026-03-24T10:26:47.528426+05:30"},{"city":"Thiruvananthapuram","state":"Kerala","latitude":8.5241,"longitude":76.9366,"temp":28.7,"humidity":79,"rain":0.0,"pressure":1010.2,"uv_index":9.2,"wind_gusts":31.3,"aqi":62,"pm10":27.8,"pm2_5":20.2,"mosquito_risk":7,"arthritis_risk":0,"migraine_risk":4,"frizz_risk":1,"updated_at":"2026-03-24T10:26:47.528435+05:30"},{"city":"Kozhikode","state":"Kerala","latitude":11.2588,"longitude":75.7804,"temp":29.6,"humidity":71,"rain":0.0,"pressure":1010.6,"uv_index":9.05,"wind_gusts":30.6,"aqi":72,"pm10":41.2,"pm2_5":28.0,"mosquito_risk":7,"arthritis_risk":0,"migraine_risk":4,"frizz_risk":1,"updated_at":"2026-03-24T10:26:47.528443+05:30"},{"city":"Thrissur","state":"Kerala","latitude":10.5276,"longitude":76.2144,"temp":31.9,"humidity":60,"rain":0.0,"pressure":1009.5,"uv_index":9.15,"wind_gusts":42.1,"aqi":89,"pm10":41.2,"pm2_5":28.1,"mosquito_risk":0,"arthritis_risk":0,"migraine_risk":4,"frizz_risk":1,"updated_at":"2026-03-24T10:26:47.528451+05:30"},{"city":"Kannur","state":"Kerala","latitude":11.8745,"longitude":75.3704,"temp":31.1,"humidity":61,"rain":0.0,"pressure":1009.8,"uv_index":9.1,"wind_gusts":29.9,"aqi":70,"pm10":41.7,"pm2_5":29.0,"mosquito_risk":3,"arthritis_risk":0,"migraine_risk":4,"frizz_risk":1,"updated_at":"2026-03-24T10:26:47.528460+05:30"},{"city":"Patna","state":"Bihar","latitude":25.5941,"longitude":85.1376,"temp":28.9,"humidity":49,"rain":0.0,"pressure":1005.0,"uv_index":7.9,"wind_gusts":33.1,"aqi":156,"pm10":129.9,"pm2_5":74.3,"mosquito_risk":4,"arthritis_risk":5,"migraine_risk":4,"frizz_risk":1,"updated_at":"2026-03-24T10:26:47.528468+05:30"},{"city":"Gaya","state":"Bihar","latitude":24.7914,"longitude":85.0002,"temp":28.3,"humidity":54,"rain":0.0,"pressure":998.8,"uv_index":7.85,"wind_gusts":24.8,"aqi":109,"pm10":138.8,"pm2_5":44.8,"mosquito_risk":4,"arthritis_risk":5,"migraine_risk":7,"frizz_risk":1,"updated_at":"2026-03-24T10:26:47.528475+05:30"},{"city":"Muzaffarpur","state":"Bihar","latitude":26.1209,"longitude":85.3647,"temp":27.9,"humidity":62,"rain":0.0,"pressure":1005.0,"uv_index":7.85,"wind_gusts":35.6,"aqi":157,"pm10":113.2,"pm2_5":85.0,"mosquito_risk":7,"arthritis_risk":5,"migraine_risk":4,"frizz_risk":1,"updated_at":"2026-03-24T10:26:47.528483+05:30"},{"city":"Bhagalpur","state":"Bihar","latitude":25.2425,"longitude":87.0117,"temp":27.8,"humidity":63,"rain":0.0,"pressure":1005.8,"uv_index":7.85,"wind_gusts":27.0,"aqi":138,"pm10":63.8,"pm2_5":57.4,"mosquito_risk":7,"arthritis_risk":5,"migraine_risk":4,"frizz_risk":1,"updated_at":"2026-03-24T10:26:47.528490+05:30"},{"city":"Ranchi","state":"Jharkhand","latitude":23.3441,"longitude":85.3096,"temp":26.4,"humidity":48,"rain":0.0,"pressure":942.1,"uv_index":8.6,"wind_gusts":32.8,"aqi":67,"pm10":57.0,"pm2_5":24.6,"mosquito_risk":4,"arthritis_risk":5,"migraine_risk":7,"frizz_risk":0,"updated_at":"2026-03-24T10:26:47.528497+05:30"},{"city":"Jamshedpur","state":"Jharkhand","latitude":22.8046,"longitude":86.2029,"temp":29.0,"humidity":62,"rain":0.0,"pressure":995.5,"uv_index":8.45,"wind_gusts":20.5,"aqi":128,"pm10":58.9,"pm2_5":49.2,"mosquito_risk":7,"arthritis_risk":5,"migraine_risk":7,"frizz_risk":1,"updated_at":"2026-03-24T10:26:47.528505+05:30"},{"city":"Dhanbad","state":"Jharkhand","latitude":23.7957,"longitude":86.4304,"temp":28.8,"humidity":49,"rain":0.0,"pressure":984.5,"uv_index":8.35,"wind_gusts":29.9,"aqi":162,"pm10":95.2,"pm2_5":86.6,"mosquito_risk":4,"arthritis_risk":5,"migraine_risk":7,"frizz_risk":1,"updated_at":"2026-03-24T10:26:47.528513+05:30"},{"city":"Bokaro","state":"Jharkhand","latitude":23.6693,"longitude":86.1511,"temp":28.8,"humidity":50,"rain":0.0,"pressure":988.5,"uv_index":8.35,"wind_gusts":25.9,"aqi":153,"pm10":84.1,"pm2_5":63.6,"mosquito_risk":4,"arthritis_risk":5,"migraine_risk":7,"frizz_risk":1,"updated_at":"2026-03-24T10:26:47.528520+05:30"},{"city":"Bhubaneswar","state":"Odisha","latitude":20.2961,"longitude":85.8245,"temp":30.7,"humidity":63,"rain":0.0,"pressure":1007.0,"uv_index":8.7,"wind_gusts":30.6,"aqi":92,"pm10":33.3,"pm2_5":22.9,"mosquito_risk":3,"arthritis_risk":5,"migraine_risk":4,"frizz_risk":1,"updated_at":"2026-03-24T10:26:47.528528+05:30"},{"city":"Cuttack","state":"Odisha","latitude":20.4625,"longitude":85.8828,"temp":30.8,"humidity":62,"rain":0.0,"pressure":1008.9,"uv_index":8.75,"wind_gusts":27.0,"aqi":92,"pm10":33.3,"pm2_5":22.9,"mosquito_risk":3,"arthritis_risk":0,"migraine_risk":4,"frizz_risk":1,"updated_at":"2026-03-24T10:26:47.528536+05:30"},{"city":"Rourkela","state":"Odisha","latitude":22.2604,"longitude":84.8536,"temp":30.3,"humidity":46,"rain":0.0,"pressure":989.6,"uv_index":8.4,"wind_gusts":25.6,"aqi":86,"pm10":55.9,"pm2_5":40.0,"mosquito_risk":0,"arthritis_risk":5,"migraine_risk":7,"frizz_risk":1,"updated_at":"2026-03-24T10:26:47.528543+05:30"},{"city":"Raipur","state":"Chhattisgarh","latitude":21.2514,"longitude":81.6296,"temp":31.8,"humidity":32,"rain":0.0,"pressure":978.6,"uv_index":8.45,"wind_gusts":26.6,"aqi":106,"pm10":53.7,"pm2_5":43.2,"mosquito_risk":0,"arthritis_risk":5,"migraine_risk":7,"frizz_risk":0,"updated_at":"2026-03-24T10:26:47.528550+05:30"},{"city":"Bhilai","state":"Chhattisgarh","latitude":21.1938,"longitude":81.3509,"temp":31.5,"humidity":36,"rain":0.0,"pressure":979.0,"uv_index":8.5,"wind_gusts":25.2,"aqi":116,"pm10":60.8,"pm2_5":51.2,"mosquito_risk":0,"arthritis_risk":5,"migraine_risk":7,"frizz_risk":0,"updated_at":"2026-03-24T10:26:47.528558+05:30"},{"city":"Guwahati","state":"Assam","latitude":26.1158,"longitude":91.7086,"temp":25.8,"humidity":71,"rain":0.0,"pressure":1006.7,"uv_index":7.7,"wind_gusts":27.4,"aqi":92,"pm10":31.3,"pm2_5":28.9,"mosquito_risk":7,"arthritis_risk":5,"migraine_risk":4,"frizz_risk":1,"updated_at":"2026-03-24T10:26:47.528565+05:30"},{"city":"Agartala","state":"Tripura","latitude":23.8315,"longitude":91.2868,"temp":27.7,"humidity":62,"rain":0.0,"pressure":1011.2,"uv_index":8.05,"wind_gusts":15.1,"aqi":156,"pm10":61.9,"pm2_5":54.4,"mosquito_risk":7,"arthritis_risk":0,"migraine_risk":4,"frizz_risk":1,"updated_at":"2026-03-24T10:26:47.528573+05:30"},{"city":"Shillong","state":"Meghalaya","latitude":25.5788,"longitude":91.8933,"temp":16.9,"humidity":50,"rain":0.0,"pressure":859.0,"uv_index":7.8,"wind_gusts":38.5,"aqi":79,"pm10":20.4,"pm2_5":18.9,"mosquito_risk":0,"arthritis_risk":5,"migraine_risk":7,"frizz_risk":0,"updated_at":"2026-03-24T10:26:47.528580+05:30"},{"city":"Imphal","state":"Manipur","latitude":24.817,"longitude":93.9368,"temp":20.1,"humidity":60,"rain":0.0,"pressure":926.6,"uv_index":7.8,"wind_gusts":39.2,"aqi":87,"pm10":28.4,"pm2_5":23.2,"mosquito_risk":0,"arthritis_risk":5,"migraine_risk":7,"frizz_risk":0,"updated_at":"2026-03-24T10:26:47.528588+05:30"},{"city":"Aizawl","state":"Mizoram","latitude":23.7271,"longitude":92.7176,"temp":21.9,"humidity":49,"rain":0.0,"pressure":896.7,"uv_index":8.35,"wind_gusts":32.4,"aqi":95,"pm10":45.2,"pm2_5":37.0,"mosquito_risk":0,"arthritis_risk":5,"migraine_risk":7,"frizz_risk":0,"updated_at":"2026-03-24T10:26:47.528596+05:30"},{"city":"Kohima","state":"Nagaland","latitude":25.6701,"longitude":94.1077,"temp":16.6,"humidity":66,"rain":0.0,"pressure":857.4,"uv_index":7.55,"wind_gusts":56.2,"aqi":70,"pm10":18.3,"pm2_5":15.3,"mosquito_risk":3,"arthritis_risk":5,"migraine_risk":7,"frizz_risk":0,"updated_at":"2026-03-24T10:26:47.528604+05:30"},{"city":"Gangtok","state":"Sikkim","latitude":27.3314,"longitude":88.6138,"temp":13.2,"humidity":87,"rain":0.1,"pressure":838.6,"uv_index":2.05,"wind_gusts":16.6,"aqi":82,"pm10":16.8,"pm2_5":15.2,"mosquito_risk":6,"arthritis_risk":10,"migraine_risk":3,"frizz_risk":0,"updated_at":"2026-03-24T10:26:47.528613+05:30"},{"city":"Siliguri","state":"West Bengal","latitude":26.7271,"longitude":88.3953,"temp":19.3,"humidity":91,"rain":0.0,"pressure":998.9,"uv_index":4.65,"wind_gusts":35.6,"aqi":103,"pm10":57.4,"pm2_5":48.7,"mosquito_risk":3,"arthritis_risk":10,"migraine_risk":3,"frizz_risk":1,"updated_at":"2026-03-24T10:26:50.787955+05:30"},{"city":"Durgapur","state":"West Bengal","latitude":23.5204,"longitude":87.3119,"temp":28.8,"humidity":66,"rain":0.0,"pressure":999.8,"uv_index":8.05,"wind_gusts":24.5,"aqi":156,"pm10":75.7,"pm2_5":65.7,"mosquito_risk":7,"arthritis_risk":5,"migraine_risk":7,"frizz_risk":1,"updated_at":"2026-03-24T10:26:50.787989+05:30"},{"city":"Asansol","state":"West Bengal","latitude":23.6739,"longitude":86.9524,"temp":29.1,"humidity":61,"rain":0.0,"pressure":998.4,"uv_index":7.75,"wind_gusts":24.8,"aqi":153,"pm10":77.1,"pm2_5":68.5,"mosquito_risk":7,"arthritis_risk":5,"migraine_risk":7,"frizz_risk":1,"updated_at":"2026-03-24T10:26:50.787999+05:30"},{"city":"Pondicherry","state":"Puducherry","latitude":11.9139,"longitude":79.8145,"temp":30.5,"humidity":65,"rain":0.0,"pressure":1012.1,"uv_index":9.2,"wind_gusts":29.9,"aqi":29,"pm10":11.8,"pm2_5":7.9,"mosquito_risk":3,"arthritis_risk":0,"migraine_risk":4,"frizz_risk":1,"updated_at":"2026-03-24T10:26:50.788007+05:30"},{"city":"Port Blair","state":"Andaman and Nicobar Islands","latitude":11.6234,"longitude":92.7265,"temp":28.3,"humidity":66,"rain":0.0,"pressure":1009.0,"uv_index":9.15,"wind_gusts":24.8,"aqi":49,"pm10":21.5,"pm2_5":13.4,"mosquito_risk":7,"arthritis_risk":0,"migraine_risk":4,"frizz_risk":1,"updated_at":"2026-03-24T10:26:50.788015+05:30"},{"city":"Haridwar","state":"Uttarakhand","latitude":29.9457,"longitude":78.1642,"temp":25.1,"humidity":61,"rain":0.0,"pressure":979.0,"uv_index":6.4,"wind_gusts":33.1,"aqi":113,"pm10":25.2,"pm2_5":22.8,"mosquito_risk":7,"arthritis_risk":5,"migraine_risk":7,"frizz_risk":1,"updated_at":"2026-03-24T10:26:50.788022+05:30"},{"city":"Rishikesh","state":"Uttarakhand","latitude":30.0869,"longitude":78.2676,"temp":24.4,"humidity":58,"rain":0.0,"pressure":971.4,"uv_index":6.45,"wind_gusts":29.2,"aqi":88,"pm10":21.1,"pm2_5":18.0,"mosquito_risk":0,"arthritis_risk":5,"migraine_risk":7,"frizz_risk":0,"updated_at":"2026-03-24T10:26:50.788029+05:30"},{"city":"Nainital","state":"Uttarakhand","latitude":29.3919,"longitude":79.4542,"temp":17.7,"humidity":68,"rain":0.0,"pressure":808.4,"uv_index":7.3,"wind_gusts":46.1,"aqi":96,"pm10":38.2,"pm2_5":25.4,"mosquito_risk":3,"arthritis_risk":5,"migraine_risk":7,"frizz_risk":0,"updated_at":"2026-03-24T10:26:50.788036+05:30"},{"city":"Mussoorie","state":"Uttarakhand","latitude":30.4599,"longitude":78.0664,"temp":16.0,"humidity":67,"rain":0.0,"pressure":804.7,"uv_index":6.8,"wind_gusts":40.7,"aqi":80,"pm10":21.1,"pm2_5":15.3,"mosquito_risk":3,"arthritis_risk":5,"migraine_risk":7,"frizz_risk":0,"updated_at":"2026-03-24T10:26:50.788042+05:30"},{"city":"Dharamshala","state":"Himachal Pradesh","latitude":32.219,"longitude":76.3234,"temp":19.1,"humidity":54,"rain":0.0,"pressure":872.0,"uv_index":7.05,"wind_gusts":25.2,"aqi":63,"pm10":17.4,"pm2_5":5.6,"mosquito_risk":0,"arthritis_risk":5,"migraine_risk":7,"frizz_risk":0,"updated_at":"2026-03-24T10:26:50.788049+05:30"},{"city":"Dalhousie","state":"Himachal Pradesh","latitude":32.5387,"longitude":75.971,"temp":17.3,"humidity":43,"rain":0.0,"pressure":806.4,"uv_index":7.3,"wind_gusts":25.6,"aqi":73,"pm10":21.4,"pm2_5":9.2,"mosquito_risk":0,"arthritis_risk":5,"migraine_risk":7,"frizz_risk":0,"updated_at":"2026-03-24T10:26:50.788057+05:30"},{"city":"Patiala","state":"Punjab","latitude":30.3398,"longitude":76.3869,"temp":25.4,"humidity":61,"rain":0.0,"pressure":983.5,"uv_index":6.4,"wind_gusts":29.9,"aqi":157,"pm10":86.8,"pm2_5":72.2,"mosquito_risk":7,"arthritis_risk":5,"migraine_risk":7,"frizz_risk":1,"updated_at":"2026-03-24T10:26:50.788063+05:30"},{"city":"Bhatinda","state":"Punjab","latitude":30.211,"longitude":74.9455,"temp":26.6,"humidity":60,"rain":0.0,"pressure":989.2,"uv_index":7.1,"wind_gusts":23.0,"aqi":136,"pm10":125.7,"pm2_5":54.1,"mosquito_risk":4,"arthritis_risk":5,"migraine_risk":7,"frizz_risk":1,"updated_at":"2026-03-24T10:26:50.788069+05:30"},{"city":"Rohtak","state":"Haryana","latitude":28.8955,"longitude":76.6066,"temp":26.2,"humidity":67,"rain":0.0,"pressure":987.2,"uv_index":6.55,"wind_gusts":23.4,"aqi":155,"pm10":251.5,"pm2_5":77.1,"mosquito_risk":7,"arthritis_risk":5,"migraine_risk":7,"frizz_risk":1,"updated_at":"2026-03-24T10:26:50.788076+05:30"},{"city":"Panipat","state":"Haryana","latitude":29.3909,"longitude":76.9635,"temp":25.8,"humidity":65,"rain":0.0,"pressure":985.6,"uv_index":6.35,"wind_gusts":27.7,"aqi":152,"pm10":185.8,"pm2_5":65.4,"mosquito_risk":7,"arthritis_risk":5,"migraine_risk":7,"frizz_risk":1,"updated_at":"2026-03-24T10:26:50.788082+05:30"},{"city":"Mathura","state":"Uttar Pradesh","latitude":27.4924,"longitude":77.6737,"temp":26.9,"humidity":59,"rain":0.0,"pressure":992.3,"uv_index":6.4,"wind_gusts":21.6,"aqi":150,"pm10":172.8,"pm2_5":56.0,"mosquito_risk":4,"arthritis_risk":5,"migraine_risk":7,"frizz_risk":1,"updated_at":"2026-03-24T10:26:50.788088+05:30"},{"city":"Vrindavan","state":"Uttar Pradesh","latitude":27.5823,"longitude":77.7027,"temp":26.5,"humidity":62,"rain":0.0,"pressure":992.6,"uv_index":6.45,"wind_gusts":23.8,"aqi":150,"pm10":172.8,"pm2_5":56.0,"mosquito_risk":7,"arthritis_risk":5,"migraine_risk":7,"frizz_risk":1,"updated_at":"2026-03-24T10:26:50.788094+05:30"},{"city":"Ayodhya","state":"Uttar Pradesh","latitude":26.7922,"longitude":82.1998,"temp":28.1,"humidity":52,"rain":0.0,"pressure":1000.1,"uv_index":7.25,"wind_gusts":33.1,"aqi":135,"pm10":51.5,"pm2_5":35.3,"mosquito_risk":4,"arthritis_risk":5,"migraine_risk":4,"frizz_risk":1,"updated_at":"2026-03-24T10:26:50.788100+05:30"},{"city":"Ratlam","state":"Madhya Pradesh","latitude":23.3315,"longitude":75.0367,"temp":29.3,"humidity":45,"rain":0.0,"pressure":958.5,"uv_index":8.0,"wind_gusts":20.2,"aqi":55,"pm10":42.3,"pm2_5":19.4,"mosquito_risk":4,"arthritis_risk":5,"migraine_risk":7,"frizz_risk":1,"updated_at":"2026-03-24T10:26:50.788106+05:30"},{"city":"Sagar","state":"Madhya Pradesh","latitude":23.8388,"longitude":78.7378,"temp":30.2,"humidity":38,"rain":0.0,"pressure":954.2,"uv_index":8.05,"wind_gusts":25.6,"aqi":69,"pm10":80.6,"pm2_5":28.7,"mosquito_risk":0,"arthritis_risk":5,"migraine_risk":7,"frizz_risk":0,"updated_at":"2026-03-24T10:26:50.788113+05:30"},{"city":"Satna","state":"Madhya Pradesh","latitude":24.6005,"longitude":80.8322,"temp":27.8,"humidity":48,"rain":0.0,"pressure":975.8,"uv_index":7.6,"wind_gusts":29.2,"aqi":80,"pm10":102.2,"pm2_5":35.5,"mosquito_risk":4,"arthritis_risk":5,"migraine_risk":7,"frizz_risk":0,"updated_at":"2026-03-24T10:26:50.788119+05:30"},{"city":"Akola","state":"Maharashtra","latitude":20.7002,"longitude":77.0082,"temp":32.0,"humidity":37,"rain":0.0,"pressure":978.7,"uv_index":8.4,"wind_gusts":22.3,"aqi":76,"pm10":30.4,"pm2_5":17.5,"mosquito_risk":0,"arthritis_risk":5,"migraine_risk":7,"frizz_risk":0,"updated_at":"2026-03-24T10:26:50.788126+05:30"},{"city":"Amravati","state":"Maharashtra","latitude":20.9374,"longitude":77.7796,"temp":32.0,"humidity":34,"rain":0.0,"pressure":970.8,"uv_index":8.4,"wind_gusts":23.8,"aqi":86,"pm10":29.0,"pm2_5":20.7,"mosquito_risk":0,"arthritis_risk":5,"migraine_risk":7,"frizz_risk":0,"updated_at":"2026-03-24T10:26:50.788133+05:30"},{"city":"Latur","state":"Maharashtra","latitude":18.4088,"longitude":76.5604,"temp":30.2,"humidity":38,"rain":0.0,"pressure":943.1,"uv_index":8.75,"wind_gusts":19.8,"aqi":96,"pm10":45.8,"pm2_5":33.4,"mosquito_risk":0,"arthritis_risk":5,"migraine_risk":7,"frizz_risk":0,"updated_at":"2026-03-24T10:26:50.788139+05:30"},{"city":"Nanded","state":"Maharashtra","latitude":19.1383,"longitude":77.3091,"temp":32.4,"humidity":40,"rain":0.0,"pressure":972.1,"uv_index":8.6,"wind_gusts":21.6,"aqi":103,"pm10":40.9,"pm2_5":34.0,"mosquito_risk":0,"arthritis_risk":5,"migraine_risk":7,"frizz_risk":1,"updated_at":"2026-03-24T10:26:50.788146+05:30"},{"city":"Gulbarga","state":"Karnataka","latitude":17.3297,"longitude":76.8343,"temp":32.8,"humidity":40,"rain":0.0,"pressure":961.8,"uv_index":8.8,"wind_gusts":39.6,"aqi":85,"pm10":20.5,"pm2_5":17.1,"mosquito_risk":0,"arthritis_risk":5,"migraine_risk":7,"frizz_risk":1,"updated_at":"2026-03-24T10:26:50.788152+05:30"},{"city":"Bidar","state":"Karnataka","latitude":17.9104,"longitude":77.5199,"temp":31.5,"humidity":41,"rain":0.0,"pressure":938.8,"uv_index":8.85,"wind_gusts":36.7,"aqi":93,"pm10":28.4,"pm2_5":22.2,"mosquito_risk":0,"arthritis_risk":5,"migraine_risk":7,"frizz_risk":1,"updated_at":"2026-03-24T10:26:50.788158+05:30"},{"city":"Hospet","state":"Karnataka","latitude":15.2689,"longitude":76.3909,"temp":28.5,"humidity":67,"rain":0.0,"pressure":958.9,"uv_index":9.05,"wind_gusts":24.8,"aqi":102,"pm10":29.2,"pm2_5":25.6,"mosquito_risk":7,"arthritis_risk":5,"migraine_risk":7,"frizz_risk":1,"updated_at":"2026-03-24T10:26:50.788164+05:30"},{"city":"Tirupur","state":"Tamil Nadu","latitude":11.1085,"longitude":77.3411,"temp":30.0,"humidity":58,"rain":0.0,"pressure":978.9,"uv_index":9.4,"wind_gusts":27.7,"aqi":64,"pm10":14.6,"pm2_5":11.6,"mosquito_risk":4,"arthritis_risk":5,"migraine_risk":7,"frizz_risk":1,"updated_at":"2026-03-24T10:26:50.788170+05:30"},{"city":"Alappuzha","state":"Kerala","latitude":9.4981,"longitude":76.3388,"temp":28.3,"humidity":78,"rain":0.0,"pressure":1011.3,"uv_index":9.15,"wind_gusts":34.6,"aqi":82,"pm10":40.7,"pm2_5":29.3,"mosquito_risk":7,"arthritis_risk":0,"migraine_risk":4,"frizz_risk":1,"updated_at":"2026-03-24T10:26:50.788176+05:30"},{"city":"Munnar","state":"Kerala","latitude":10.0889,"longitude":77.0595,"temp":28.1,"humidity":47,"rain":0.0,"pressure":861.2,"uv_index":9.65,"wind_gusts":29.9,"aqi":65,"pm10":15.3,"pm2_5":10.8,"mosquito_risk":4,"arthritis_risk":5,"migraine_risk":7,"frizz_risk":0,"updated_at":"2026-03-24T10:26:50.788182+05:30"},{"city":"Silchar","state":"Assam","latitude":24.8333,"longitude":92.7789,"temp":26.7,"humidity":64,"rain":0.0,"pressure":1010.1,"uv_index":8.1,"wind_gusts":22.7,"aqi":122,"pm10":38.6,"pm2_5":33.3,"mosquito_risk":7,"arthritis_risk":0,"migraine_risk":4,"frizz_risk":1,"updated_at":"2026-03-24T10:26:50.788189+05:30"},{"city":"Dibrugarh","state":"Assam","latitude":27.4728,"longitude":94.912,"temp":21.3,"humidity":86,"rain":0.0,"pressure":1000.9,"uv_index":6.95,"wind_gusts":14.4,"aqi":75,"pm10":19.1,"pm2_5":17.5,"mosquito_risk":3,"arthritis_risk":5,"migraine_risk":4,"frizz_risk":1,"updated_at":"2026-03-24T10:26:50.788195+05:30"}]