[{"city":"Delhi","state":"Delhi","latitude":28.6139,"longitude":77.209,"temp":34.0,"humidity":24,"rain":0.0,"pressure":979.1,"uv_index":7.75,"wind_gusts":48.2,"aqi":581,"pm10":737.6,"pm2_5":157.9,"no2":20.4,"co":423.0,"o3":71.0,"so2":13.9,"mosquito_risk":0,"arthritis_risk":5,"migraine_risk":7,"frizz_risk":0,"updated_at":"2026-05-23T01:21:11.293735+05:30"},{"city":"Mumbai","state":"Maharashtra","latitude":19.076,"longitude":72.8777,"temp":30.0,"humidity":77,"rain":0.0,"pressure":1008.9,"uv_index":7.8,"wind_gusts":38.5,"aqi":63,"pm10":19.7,"pm2_5":13.6,"no2":12.0,"co":245.0,"o3":48.0,"so2":11.9,"mosquito_risk":7,"arthritis_risk":0,"migraine_risk":4,"frizz_risk":1,"updated_at":"2026-05-23T01:21:11.293776+05:30"},{"city":"Bangalore","state":"Karnataka","latitude":12.9716,"longitude":77.5946,"temp":22.1,"humidity":87,"rain":0.0,"pressure":912.9,"uv_index":6.4,"wind_gusts":34.2,"aqi":38,"pm10":13.2,"pm2_5":12.3,"no2":27.5,"co":532.0,"o3":39.0,"so2":6.5,"mosquito_risk":3,"arthritis_risk":5,"migraine_risk":7,"frizz_risk":1,"updated_at":"2026-05-23T01:21:11.293791+05:30"},{"city":"Hyderabad","state":"Telangana","latitude":17.385,"longitude":78.4867,"temp":29.3,"humidity":56,"rain":0.0,"pressure":951.9,"uv_index":9.1,"wind_gusts":56.5,"aqi":77,"pm10":31.1,"pm2_5":25.9,"no2":6.6,"co":257.0,"o3":109.0,"so2":7.4,"mosquito_risk":4,"arthritis_risk":5,"migraine_risk":7,"frizz_risk":1,"updated_at":"2026-05-23T01:21:11.293800+05:30"},{"city":"Chennai","state":"Tamil Nadu","latitude":13.0827,"longitude":80.2707,"temp":31.0,"humidity":79,"rain":0.0,"pressure":1005.2,"uv_index":7.8,"wind_gusts":33.5,"aqi":79,"pm10":27.0,"pm2_5":20.4,"no2":15.3,"co":213.0,"o3":85.0,"so2":8.8,"mosquito_risk":3,"arthritis_risk":5,"migraine_risk":4,"frizz_risk":1,"updated_at":"2026-05-23T01:21:11.293808+05:30"},{"city":"Kolkata","state":"West Bengal","latitude":22.5726,"longitude":88.3639,"temp":29.3,"humidity":92,"rain":0.0,"pressure":1002.1,"uv_index":9.0,"wind_gusts":36.4,"aqi":102,"pm10":35.0,"pm2_5":26.8,"no2":5.9,"co":291.0,"o3":77.0,"so2":4.9,"mosquito_risk":7,"arthritis_risk":5,"migraine_risk":4,"frizz_risk":1,"updated_at":"2026-05-23T01:21:11.293816+05:30"},{"city":"Pune","state":"Maharashtra","latitude":18.5204,"longitude":73.8567,"temp":24.8,"humidity":88,"rain":0.0,"pressure":949.0,"uv_index":8.45,"wind_gusts":37.8,"aqi":49,"pm10":9.6,"pm2_5":8.8,"no2":15.8,"co":208.0,"o3":43.0,"so2":10.0,"mosquito_risk":3,"arthritis_risk":5,"migraine_risk":7,"frizz_risk":1,"updated_at":"2026-05-23T01:21:11.293823+05:30"},{"city":"Ahmedabad","state":"Gujarat","latitude":23.0225,"longitude":72.5714,"temp":33.0,"humidity":50,"rain":0.0,"pressure":1001.3,"uv_index":8.15,"wind_gusts":35.3,"aqi":75,"pm10":29.6,"pm2_5":19.7,"no2":10.2,"co":180.0,"o3":57.0,"so2":5.3,"mosquito_risk":0,"arthritis_risk":5,"migraine_risk":4,"frizz_risk":1,"updated_at":"2026-05-23T01:21:11.293830+05:30"},{"city":"Jaipur","state":"Rajasthan","latitude":26.9124,"longitude":75.7873,"temp":32.5,"humidity":22,"rain":0.0,"pressure":957.6,"uv_index":8.25,"wind_gusts":47.5,"aqi":166,"pm10":330.6,"pm2_5":73.3,"no2":7.9,"co":190.0,"o3":67.0,"so2":5.1,"mosquito_risk":0,"arthritis_risk":5,"migraine_risk":7,"frizz_risk":0,"updated_at":"2026-05-23T01:21:11.293841+05:30"},{"city":"Lucknow","state":"Uttar Pradesh","latitude":26.8467,"longitude":80.9462,"temp":33.5,"humidity":24,"rain":0.0,"pressure":988.2,"uv_index":8.2,"wind_gusts":51.5,"aqi":161,"pm10":387.4,"pm2_5":97.8,"no2":33.1,"co":287.0,"o3":40.0,"so2":10.2,"mosquito_risk":0,"arthritis_risk":5,"migraine_risk":7,"frizz_risk":0,"updated_at":"2026-05-23T01:21:11.293849+05:30"},{"city":"Kanpur","state":"Uttar Pradesh","latitude":26.4499,"longitude":80.3319,"temp":33.7,"humidity":26,"rain":0.0,"pressure":986.8,"uv_index":8.2,"wind_gusts":46.8,"aqi":317,"pm10":376.3,"pm2_5":97.1,"no2":36.7,"co":371.0,"o3":31.0,"so2":12.6,"mosquito_risk":0,"arthritis_risk":5,"migraine_risk":7,"frizz_risk":0,"updated_at":"2026-05-23T01:21:11.293855+05:30"},{"city":"Chandigarh","state":"Chandigarh","latitude":30.7333,"longitude":76.7794,"temp":29.8,"humidity":33,"rain":0.0,"pressure":965.2,"uv_index":7.75,"wind_gusts":44.3,"aqi":90,"pm10":46.2,"pm2_5":27.8,"no2":18.4,"co":422.0,"o3":61.0,"so2":9.4,"mosquito_risk":4,"arthritis_risk":5,"migraine_risk":7,"frizz_risk":0,"updated_at":"2026-05-23T01:21:11.293862+05:30"},{"city":"Srinagar","state":"Jammu and Kashmir","latitude":34.0837,"longitude":74.7973,"temp":11.9,"humidity":99,"rain":0.0,"pressure":843.4,"uv_index":8.75,"wind_gusts":26.6,"aqi":59,"pm10":29.2,"pm2_5":26.0,"no2":28.1,"co":575.0,"o3":8.0,"so2":0.0,"mosquito_risk":3,"arthritis_risk":10,"migraine_risk":7,"frizz_risk":0,"updated_at":"2026-05-23T01:21:11.293869+05:30"},{"city":"Jammu","state":"Jammu and Kashmir","latitude":32.7266,"longitude":74.857,"temp":27.3,"humidity":35,"rain":0.0,"pressure":969.6,"uv_index":8.5,"wind_gusts":36.0,"aqi":78,"pm10":40.6,"pm2_5":22.8,"no2":9.6,"co":205.0,"o3":75.0,"so2":2.1,"mosquito_risk":4,"arthritis_risk":5,"migraine_risk":7,"frizz_risk":0,"updated_at":"2026-05-23T01:21:11.293876+05:30"},{"city":"Amritsar","state":"Punjab","latitude":31.634,"longitude":74.8723,"temp":29.1,"humidity":49,"rain":0.0,"pressure":977.2,"uv_index":8.4,"wind_gusts":26.6,"aqi":93,"pm10":90.6,"pm2_5":52.6,"no2":32.2,"co":557.0,"o3":44.0,"so2":9.0,"mosquito_risk":4,"arthritis_risk":5,"migraine_risk":7,"frizz_risk":1,"updated_at":"2026-05-23T01:21:11.293885+05:30"},{"city":"Ludhiana","state":"Punjab","latitude":30.901,"longitude":75.8573,"temp":29.5,"humidity":43,"rain":0.0,"pressure":975.0,"uv_index":8.0,"wind_gusts":42.1,"aqi":87,"pm10":51.5,"pm2_5":33.4,"no2":15.1,"co":413.0,"o3":66.0,"so2":5.8,"mosquito_risk":4,"arthritis_risk":5,"migraine_risk":7,"frizz_risk":0,"updated_at":"2026-05-23T01:21:11.293891+05:30"},{"city":"Jalandhar","state":"Punjab","latitude":31.326,"longitude":75.5762,"temp":29.3,"humidity":42,"rain":0.0,"pressure":976.1,"uv_index":8.2,"wind_gusts":37.8,"aqi":93,"pm10":57.9,"pm2_5":31.3,"no2":14.9,"co":653.0,"o3":69.0,"so2":5.5,"mosquito_risk":4,"arthritis_risk":5,"migraine_risk":7,"frizz_risk":0,"updated_at":"2026-05-23T01:21:11.293897+05:30"},{"city":"Dehradun","state":"Uttarakhand","latitude":30.6284,"longitude":78.0322,"temp":14.4,"humidity":70,"rain":0.0,"pressure":826.4,"uv_index":8.2,"wind_gusts":46.4,"aqi":76,"pm10":63.8,"pm2_5":27.6,"no2":39.3,"co":208.0,"o3":26.0,"so2":1.5,"mosquito_risk":3,"arthritis_risk":5,"migraine_risk":7,"frizz_risk":0,"updated_at":"2026-05-23T01:21:11.293903+05:30"},{"city":"Shimla","state":"Himachal Pradesh","latitude":31.1048,"longitude":77.1734,"temp":13.9,"humidity":54,"rain":0.0,"pressure":782.3,"uv_index":7.75,"wind_gusts":52.6,"aqi":76,"pm10":43.1,"pm2_5":22.1,"no2":22.8,"co":191.0,"o3":54.0,"so2":2.3,"mosquito_risk":0,"arthritis_risk":5,"migraine_risk":7,"frizz_risk":0,"updated_at":"2026-05-23T01:21:11.293911+05:30"},{"city":"Manali","state":"Himachal Pradesh","latitude":32.2396,"longitude":77.1887,"temp":11.3,"humidity":53,"rain":0.0,"pressure":815.8,"uv_index":9.1,"wind_gusts":45.4,"aqi":44,"pm10":2.2,"pm2_5":1.9,"no2":26.0,"co":177.0,"o3":85.0,"so2":0.0,"mosquito_risk":0,"arthritis_risk":5,"migraine_risk":7,"frizz_risk":0,"updated_at":"2026-05-23T01:21:11.293920+05:30"},{"city":"Gurgaon","state":"Haryana","latitude":28.4595,"longitude":77.0266,"temp":31.3,"humidity":28,"rain":0.0,"pressure":977.5,"uv_index":7.85,"wind_gusts":45.4,"aqi":1484,"pm10":1233.1,"pm2_5":217.0,"no2":32.5,"co":541.0,"o3":55.0,"so2":21.8,"mosquito_risk":0,"arthritis_risk":5,"migraine_risk":7,"frizz_risk":0,"updated_at":"2026-05-23T01:21:11.293926+05:30"},{"city":"Noida","state":"Uttar Pradesh","latitude":28.5355,"longitude":77.391,"temp":32.2,"humidity":33,"rain":0.0,"pressure":980.3,"uv_index":7.75,"wind_gusts":42.8,"aqi":1484,"pm10":1233.1,"pm2_5":217.0,"no2":32.5,"co":598.0,"o3":55.0,"so2":21.8,"mosquito_risk":0,"arthritis_risk":5,"migraine_risk":7,"frizz_risk":0,"updated_at":"2026-05-23T01:21:11.293933+05:30"},{"city":"Ghaziabad","state":"Uttar Pradesh","latitude":28.6692,"longitude":77.4538,"temp":31.1,"humidity":32,"rain":0.0,"pressure":978.5,"uv_index":7.75,"wind_gusts":43.6,"aqi":404,"pm10":583.0,"pm2_5":125.3,"no2":17.8,"co":432.0,"o3":72.0,"so2":14.9,"mosquito_risk":0,"arthritis_risk":5,"migraine_risk":7,"frizz_risk":0,"updated_at":"2026-05-23T01:21:11.293939+05:30"},{"city":"Faridabad","state":"Haryana","latitude":28.4089,"longitude":77.3178,"temp":33.8,"humidity":25,"rain":0.0,"pressure":979.7,"uv_index":7.8,"wind_gusts":50.8,"aqi":1484,"pm10":1233.1,"pm2_5":217.0,"no2":32.5,"co":641.0,"o3":55.0,"so2":21.8,"mosquito_risk":0,"arthritis_risk":5,"migraine_risk":7,"frizz_risk":0,"updated_at":"2026-05-23T01:21:11.293945+05:30"},{"city":"Meerut","state":"Uttar Pradesh","latitude":28.9845,"longitude":77.7064,"temp":32.0,"humidity":27,"rain":0.0,"pressure":977.1,"uv_index":7.65,"wind_gusts":51.8,"aqi":404,"pm10":583.0,"pm2_5":125.3,"no2":17.8,"co":289.0,"o3":72.0,"so2":14.9,"mosquito_risk":0,"arthritis_risk":5,"migraine_risk":7,"frizz_risk":0,"updated_at":"2026-05-23T01:21:11.293951+05:30"},{"city":"Agra","state":"Uttar Pradesh","latitude":27.1767,"longitude":78.0081,"temp":32.2,"humidity":30,"rain":0.0,"pressure":983.7,"uv_index":8.1,"wind_gusts":39.2,"aqi":906,"pm10":823.3,"pm2_5":165.8,"no2":24.8,"co":360.0,"o3":50.0,"so2":11.5,"mosquito_risk":0,"arthritis_risk":5,"migraine_risk":7,"frizz_risk":0,"updated_at":"2026-05-23T01:21:11.293957+05:30"},{"city":"Varanasi","state":"Uttar Pradesh","latitude":25.3176,"longitude":82.9739,"temp":34.3,"humidity":42,"rain":0.0,"pressure":992.5,"uv_index":8.75,"wind_gusts":51.1,"aqi":154,"pm10":109.4,"pm2_5":49.9,"no2":27.9,"co":886.0,"o3":48.0,"so2":11.7,"mosquito_risk":0,"arthritis_risk":5,"migraine_risk":7,"frizz_risk":1,"updated_at":"2026-05-23T01:21:11.293963+05:30"},{"city":"Prayagraj","state":"Uttar Pradesh","latitude":25.4358,"longitude":81.8463,"temp":33.1,"humidity":30,"rain":0.0,"pressure":990.9,"uv_index":8.65,"wind_gusts":43.6,"aqi":146,"pm10":146.2,"pm2_5":65.7,"no2":40.9,"co":286.0,"o3":33.0,"so2":13.5,"mosquito_risk":0,"arthritis_risk":5,"migraine_risk":7,"frizz_risk":0,"updated_at":"2026-05-23T01:21:11.293970+05:30"},{"city":"Gorakhpur","state":"Uttar Pradesh","latitude":26.7606,"longitude":83.3732,"temp":29.3,"humidity":77,"rain":0.0,"pressure":992.8,"uv_index":8.6,"wind_gusts":33.5,"aqi":153,"pm10":85.4,"pm2_5":62.9,"no2":15.8,"co":507.0,"o3":96.0,"so2":12.2,"mosquito_risk":7,"arthritis_risk":5,"migraine_risk":7,"frizz_risk":1,"updated_at":"2026-05-23T01:21:11.293978+05:30"},{"city":"Bareilly","state":"Uttar Pradesh","latitude":28.367,"longitude":79.4304,"temp":29.8,"humidity":41,"rain":0.0,"pressure":981.7,"uv_index":8.05,"wind_gusts":46.4,"aqi":165,"pm10":156.9,"pm2_5":79.6,"no2":23.0,"co":338.0,"o3":76.0,"so2":14.9,"mosquito_risk":4,"arthritis_risk":5,"migraine_risk":7,"frizz_risk":0,"updated_at":"2026-05-23T01:21:11.293984+05:30"},{"city":"Aligarh","state":"Uttar Pradesh","latitude":27.8974,"longitude":78.088,"temp":31.7,"humidity":33,"rain":0.0,"pressure":981.3,"uv_index":7.9,"wind_gusts":42.8,"aqi":862,"pm10":853.1,"pm2_5":180.2,"no2":27.1,"co":419.0,"o3":58.0,"so2":19.4,"mosquito_risk":0,"arthritis_risk":5,"migraine_risk":7,"frizz_risk":0,"updated_at":"2026-05-23T01:21:11.293990+05:30"},{"city":"Moradabad","state":"Uttar Pradesh","latitude":28.8386,"longitude":78.7733,"temp":31.2,"humidity":30,"rain":0.0,"pressure":978.9,"uv_index":7.85,"wind_gusts":53.3,"aqi":180,"pm10":143.0,"pm2_5":83.6,"no2":32.0,"co":310.0,"o3":53.0,"so2":11.8,"mosquito_risk":0,"arthritis_risk":5,"migraine_risk":7,"frizz_risk":0,"updated_at":"2026-05-23T01:21:11.293997+05:30"},{"city":"Saharanpur","state":"Uttar Pradesh","latitude":29.9637,"longitude":77.546,"temp":30.1,"humidity":32,"rain":0.0,"pressure":971.6,"uv_index":7.4,"wind_gusts":49.7,"aqi":165,"pm10":91.3,"pm2_5":42.5,"no2":13.8,"co":276.0,"o3":72.0,"so2":10.3,"mosquito_risk":0,"arthritis_risk":5,"migraine_risk":7,"frizz_risk":0,"updated_at":"2026-05-23T01:21:11.294003+05:30"},{"city":"Jhansi","state":"Uttar Pradesh","latitude":25.4484,"longitude":78.5685,"temp":33.0,"humidity":18,"rain":0.0,"pressure":974.5,"uv_index":8.5,"wind_gusts":45.0,"aqi":70,"pm10":30.3,"pm2_5":17.1,"no2":4.1,"co":154.0,"o3":70.0,"so2":1.9,"mosquito_risk":0,"arthritis_risk":5,"migraine_risk":7,"frizz_risk":0,"updated_at":"2026-05-23T01:21:14.656983+05:30"},{"city":"Surat","state":"Gujarat","latitude":21.1702,"longitude":72.8311,"temp":29.8,"humidity":81,"rain":0.0,"pressure":1006.9,"uv_index":7.65,"wind_gusts":38.9,"aqi":72,"pm10":19.5,"pm2_5":14.7,"no2":17.3,"co":238.0,"o3":36.0,"so2":29.4,"mosquito_risk":7,"arthritis_risk":5,"migraine_risk":4,"frizz_risk":1,"updated_at":"2026-05-23T01:21:14.657015+05:30"},{"city":"Vadodara","state":"Gujarat","latitude":22.3072,"longitude":73.1812,"temp":30.5,"humidity":72,"rain":0.0,"pressure":1003.5,"uv_index":8.1,"wind_gusts":41.0,"aqi":73,"pm10":21.9,"pm2_5":17.3,"no2":20.6,"co":156.0,"o3":26.0,"so2":23.3,"mosquito_risk":3,"arthritis_risk":5,"migraine_risk":4,"frizz_risk":1,"updated_at":"2026-05-23T01:21:14.657025+05:30"},{"city":"Rajkot","state":"Gujarat","latitude":22.3039,"longitude":70.8022,"temp":29.0,"humidity":75,"rain":0.0,"pressure":994.3,"uv_index":7.75,"wind_gusts":45.0,"aqi":74,"pm10":28.6,"pm2_5":17.3,"no2":5.1,"co":127.0,"o3":49.0,"so2":4.8,"mosquito_risk":7,"arthritis_risk":5,"migraine_risk":7,"frizz_risk":1,"updated_at":"2026-05-23T01:21:14.657034+05:30"},{"city":"Thane","state":"Maharashtra","latitude":19.2183,"longitude":72.9781,"temp":29.0,"humidity":87,"rain":0.0,"pressure":1008.3,"uv_index":7.05,"wind_gusts":31.7,"aqi":63,"pm10":19.7,"pm2_5":13.6,"no2":12.0,"co":287.0,"o3":48.0,"so2":11.9,"mosquito_risk":7,"arthritis_risk":0,"migraine_risk":4,"frizz_risk":1,"updated_at":"2026-05-23T01:21:14.657042+05:30"},{"city":"Nagpur","state":"Maharashtra","latitude":21.1458,"longitude":79.0882,"temp":36.3,"humidity":20,"rain":0.0,"pressure":970.1,"uv_index":8.3,"wind_gusts":56.5,"aqi":63,"pm10":23.1,"pm2_5":18.8,"no2":10.4,"co":234.0,"o3":83.0,"so2":9.0,"mosquito_risk":0,"arthritis_risk":5,"migraine_risk":10,"frizz_risk":0,"updated_at":"2026-05-23T01:21:14.657050+05:30"},{"city":"Nashik","state":"Maharashtra","latitude":19.9975,"longitude":73.7898,"temp":25.5,"humidity":85,"rain":0.0,"pressure":946.3,"uv_index":8.15,"wind_gusts":47.2,"aqi":51,"pm10":16.9,"pm2_5":12.3,"no2":9.2,"co":177.0,"o3":48.0,"so2":8.0,"mosquito_risk":7,"arthritis_risk":5,"migraine_risk":7,"frizz_risk":1,"updated_at":"2026-05-23T01:21:14.657058+05:30"},{"city":"Aurangabad","state":"Maharashtra","latitude":19.8762,"longitude":75.3433,"temp":29.0,"humidity":62,"rain":0.0,"pressure":944.6,"uv_index":9.05,"wind_gusts":40.0,"aqi":61,"pm10":17.3,"pm2_5":13.4,"no2":9.3,"co":183.0,"o3":59.0,"so2":6.7,"mosquito_risk":7,"arthritis_risk":5,"migraine_risk":7,"frizz_risk":1,"updated_at":"2026-05-23T01:21:14.657065+05:30"},{"city":"Solapur","state":"Maharashtra","latitude":17.6599,"longitude":75.9064,"temp":28.1,"humidity":68,"rain":0.0,"pressure":957.8,"uv_index":9.0,"wind_gusts":43.6,"aqi":61,"pm10":20.7,"pm2_5":17.7,"no2":9.0,"co":218.0,"o3":75.0,"so2":2.8,"mosquito_risk":7,"arthritis_risk":5,"migraine_risk":7,"frizz_risk":1,"updated_at":"2026-05-23T01:21:14.657072+05:30"},{"city":"Kolhapur","state":"Maharashtra","latitude":16.705,"longitude":74.2433,"temp":24.6,"humidity":91,"rain":0.0,"pressure":949.0,"uv_index":8.8,"wind_gusts":36.4,"aqi":34,"pm10":10.9,"pm2_5":9.3,"no2":7.9,"co":207.0,"o3":45.0,"so2":3.1,"mosquito_risk":3,"arthritis_risk":5,"migraine_risk":7,"frizz_risk":1,"updated_at":"2026-05-23T01:21:14.657079+05:30"},{"city":"Goa","state":"Goa","latitude":15.2993,"longitude":74.124,"temp":26.8,"humidity":91,"rain":0.0,"pressure":999.3,"uv_index":8.75,"wind_gusts":32.8,"aqi":36,"pm10":15.8,"pm2_5":13.8,"no2":6.7,"co":268.0,"o3":46.0,"so2":1.2,"mosquito_risk":7,"arthritis_risk":5,"migraine_risk":7,"frizz_risk":1,"updated_at":"2026-05-23T01:21:14.657087+05:30"},{"city":"Jodhpur","state":"Rajasthan","latitude":26.2389,"longitude":73.0243,"temp":32.7,"humidity":32,"rain":0.0,"pressure":980.5,"uv_index":8.4,"wind_gusts":42.1,"aqi":158,"pm10":228.2,"pm2_5":58.6,"no2":10.7,"co":213.0,"o3":51.0,"so2":3.7,"mosquito_risk":0,"arthritis_risk":5,"migraine_risk":7,"frizz_risk":0,"updated_at":"2026-05-23T01:21:14.657094+05:30"},{"city":"Udaipur","state":"Rajasthan","latitude":24.5854,"longitude":73.7125,"temp":30.0,"humidity":29,"rain":0.0,"pressure":946.0,"uv_index":8.85,"wind_gusts":42.8,"aqi":73,"pm10":97.8,"pm2_5":33.1,"no2":3.2,"co":177.0,"o3":72.0,"so2":2.5,"mosquito_risk":4,"arthritis_risk":5,"migraine_risk":7,"frizz_risk":0,"updated_at":"2026-05-23T01:21:14.657101+05:30"},{"city":"Kota","state":"Rajasthan","latitude":25.2138,"longitude":75.8648,"temp":32.9,"humidity":20,"rain":0.0,"pressure":976.8,"uv_index":8.4,"wind_gusts":46.1,"aqi":66,"pm10":85.9,"pm2_5":36.2,"no2":7.7,"co":199.0,"o3":61.0,"so2":3.1,"mosquito_risk":0,"arthritis_risk":5,"migraine_risk":7,"frizz_risk":0,"updated_at":"2026-05-23T01:21:14.657108+05:30"},{"city":"Bikaner","state":"Rajasthan","latitude":28.0229,"longitude":73.3119,"temp":33.4,"humidity":26,"rain":0.0,"pressure":978.7,"uv_index":8.35,"wind_gusts":42.5,"aqi":162,"pm10":129.0,"pm2_5":48.2,"no2":3.2,"co":157.0,"o3":62.0,"so2":2.2,"mosquito_risk":0,"arthritis_risk":5,"migraine_risk":7,"frizz_risk":0,"updated_at":"2026-05-23T01:21:14.657115+05:30"},{"city":"Ajmer","state":"Rajasthan","latitude":26.4499,"longitude":74.6399,"temp":30.3,"humidity":29,"rain":0.0,"pressure":952.9,"uv_index":8.4,"wind_gusts":51.5,"aqi":89,"pm10":187.2,"pm2_5":53.2,"no2":5.5,"co":191.0,"o3":75.0,"so2":5.3,"mosquito_risk":0,"arthritis_risk":5,"migraine_risk":7,"frizz_risk":0,"updated_at":"2026-05-23T01:21:14.657121+05:30"},{"city":"Gwalior","state":"Madhya Pradesh","latitude":26.2183,"longitude":78.1828,"temp":33.5,"humidity":18,"rain":0.0,"pressure":979.6,"uv_index":8.25,"wind_gusts":45.0,"aqi":93,"pm10":44.9,"pm2_5":21.7,"no2":5.6,"co":167.0,"o3":66.0,"so2":2.9,"mosquito_risk":0,"arthritis_risk":5,"migraine_risk":7,"frizz_risk":0,"updated_at":"2026-05-23T01:21:14.657129+05:30"},{"city":"Indore","state":"Madhya Pradesh","latitude":22.7196,"longitude":75.8577,"temp":31.8,"humidity":34,"rain":0.0,"pressure":947.8,"uv_index":8.7,"wind_gusts":53.3,"aqi":67,"pm10":38.2,"pm2_5":25.3,"no2":4.5,"co":245.0,"o3":96.0,"so2":6.5,"mosquito_risk":0,"arthritis_risk":5,"migraine_risk":7,"frizz_risk":0,"updated_at":"2026-05-23T01:21:14.657136+05:30"},{"city":"Bhopal","state":"Madhya Pradesh","latitude":23.2599,"longitude":77.4126,"temp":33.7,"humidity":24,"rain":0.0,"pressure":952.2,"uv_index":8.75,"wind_gusts":47.2,"aqi":58,"pm10":26.7,"pm2_5":22.0,"no2":9.1,"co":287.0,"o3":61.0,"so2":4.7,"mosquito_risk":0,"arthritis_risk":5,"migraine_risk":7,"frizz_risk":0,"updated_at":"2026-05-23T01:21:14.657143+05:30"},{"city":"Jabalpur","state":"Madhya Pradesh","latitude":23.1815,"longitude":79.9864,"temp":31.5,"humidity":24,"rain":0.0,"pressure":958.5,"uv_index":8.9,"wind_gusts":41.4,"aqi":56,"pm10":54.2,"pm2_5":25.7,"no2":21.8,"co":336.0,"o3":54.0,"so2":4.6,"mosquito_risk":0,"arthritis_risk":5,"migraine_risk":7,"frizz_risk":0,"updated_at":"2026-05-23T01:21:14.657150+05:30"},{"city":"Ujjain","state":"Madhya Pradesh","latitude":23.1765,"longitude":75.7885,"temp":32.5,"humidity":29,"rain":0.0,"pressure":953.2,"uv_index":8.65,"wind_gusts":50.8,"aqi":69,"pm10":40.2,"pm2_5":26.5,"no2":3.7,"co":213.0,"o3":96.0,"so2":7.2,"mosquito_risk":0,"arthritis_risk":5,"migraine_risk":7,"frizz_risk":0,"updated_at":"2026-05-23T01:21:14.657157+05:30"},{"city":"Visakhapatnam","state":"Andhra Pradesh","latitude":17.6868,"longitude":83.2185,"temp":31.5,"humidity":71,"rain":0.0,"pressure":998.7,"uv_index":9.05,"wind_gusts":33.8,"aqi":131,"pm10":71.0,"pm2_5":60.1,"no2":46.1,"co":597.0,"o3":66.0,"so2":45.1,"mosquito_risk":3,"arthritis_risk":5,"migraine_risk":7,"frizz_risk":1,"updated_at":"2026-05-23T01:21:14.657164+05:30"},{"city":"Vijayawada","state":"Andhra Pradesh","latitude":16.5062,"longitude":80.648,"temp":33.6,"humidity":42,"rain":0.0,"pressure":998.5,"uv_index":8.75,"wind_gusts":49.7,"aqi":86,"pm10":29.6,"pm2_5":26.8,"no2":10.1,"co":324.0,"o3":89.0,"so2":5.8,"mosquito_risk":0,"arthritis_risk":5,"migraine_risk":7,"frizz_risk":1,"updated_at":"2026-05-23T01:21:14.657171+05:30"},{"city":"Guntur","state":"Andhra Pradesh","latitude":16.3067,"longitude":80.4365,"temp":33.8,"humidity":42,"rain":0.0,"pressure":1000.0,"uv_index":8.7,"wind_gusts":50.8,"aqi":83,"pm10":30.3,"pm2_5":26.7,"no2":8.8,"co":296.0,"o3":98.0,"so2":6.6,"mosquito_risk":0,"arthritis_risk":5,"migraine_risk":4,"frizz_risk":1,"updated_at":"2026-05-23T01:21:14.657178+05:30"},{"city":"Nellore","state":"Andhra Pradesh","latitude":14.4426,"longitude":79.9865,"temp":31.5,"humidity":58,"rain":0.0,"pressure":1003.6,"uv_index":9.1,"wind_gusts":60.5,"aqi":79,"pm10":39.8,"pm2_5":32.1,"no2":9.1,"co":283.0,"o3":89.0,"so2":9.7,"mosquito_risk":0,"arthritis_risk":5,"migraine_risk":4,"frizz_risk":1,"updated_at":"2026-05-23T01:21:14.657185+05:30"},{"city":"Kurnool","state":"Andhra Pradesh","latitude":15.8281,"longitude":78.0373,"temp":28.7,"humidity":62,"rain":0.0,"pressure":976.6,"uv_index":9.05,"wind_gusts":46.4,"aqi":61,"pm10":13.7,"pm2_5":11.8,"no2":7.4,"co":204.0,"o3":84.0,"so2":3.7,"mosquito_risk":7,"arthritis_risk":5,"migraine_risk":7,"frizz_risk":1,"updated_at":"2026-05-23T01:21:14.657193+05:30"},{"city":"Kakinada","state":"Andhra Pradesh","latitude":16.9891,"longitude":82.2475,"temp":30.9,"humidity":77,"rain":0.0,"pressure":1002.7,"uv_index":9.05,"wind_gusts":47.9,"aqi":95,"pm10":43.0,"pm2_5":34.6,"no2":10.5,"co":445.0,"o3":94.0,"so2":5.9,"mosquito_risk":3,"arthritis_risk":5,"migraine_risk":4,"frizz_risk":1,"updated_at":"2026-05-23T01:21:14.657200+05:30"},{"city":"Tirupati","state":"Andhra Pradesh","latitude":13.6288,"longitude":79.4192,"temp":29.1,"humidity":68,"rain":0.0,"pressure":989.9,"uv_index":8.3,"wind_gusts":37.1,"aqi":61,"pm10":21.0,"pm2_5":17.1,"no2":11.7,"co":215.0,"o3":67.0,"so2":2.6,"mosquito_risk":7,"arthritis_risk":5,"migraine_risk":7,"frizz_risk":1,"updated_at":"2026-05-23T01:21:14.657207+05:30"},{"city":"Warangal","state":"Telangana","latitude":17.9689,"longitude":79.5941,"temp":33.3,"humidity":42,"rain":0.0,"pressure":975.2,"uv_index":9.15,"wind_gusts":57.2,"aqi":102,"pm10":36.1,"pm2_5":30.6,"no2":12.9,"co":525.0,"o3":83.0,"so2":5.8,"mosquito_risk":0,"arthritis_risk":5,"migraine_risk":7,"frizz_risk":1,"updated_at":"2026-05-23T01:21:14.657214+05:30"},{"city":"Nizamabad","state":"Telangana","latitude":18.6725,"longitude":78.0941,"temp":33.4,"humidity":38,"rain":0.0,"pressure":963.2,"uv_index":9.1,"wind_gusts":49.3,"aqi":83,"pm10":39.3,"pm2_5":32.7,"no2":11.6,"co":193.0,"o3":81.0,"so2":7.6,"mosquito_risk":0,"arthritis_risk":5,"migraine_risk":7,"frizz_risk":1,"updated_at":"2026-05-23T01:21:14.657220+05:30"},{"city":"Mysore","state":"Karnataka","latitude":12.2958,"longitude":76.6396,"temp":22.4,"humidity":87,"rain":0.0,"pressure":929.8,"uv_index":8.0,"wind_gusts":36.0,"aqi":30,"pm10":6.9,"pm2_5":6.3,"no2":9.8,"co":163.0,"o3":45.0,"so2":2.4,"mosquito_risk":3,"arthritis_risk":5,"migraine_risk":7,"frizz_risk":1,"updated_at":"2026-05-23T01:21:14.657227+05:30"},{"city":"Mangalore","state":"Karnataka","latitude":12.9141,"longitude":74.856,"temp":24.8,"humidity":96,"rain":0.0,"pressure":1008.8,"uv_index":8.3,"wind_gusts":25.2,"aqi":35,"pm10":13.0,"pm2_5":10.7,"no2":8.7,"co":327.0,"o3":44.0,"so2":2.7,"mosquito_risk":3,"arthritis_risk":0,"migraine_risk":4,"frizz_risk":1,"updated_at":"2026-05-23T01:21:14.657234+05:30"},{"city":"Hubli-Dharwad","state":"Karnataka","latitude":15.3647,"longitude":75.124,"temp":23.8,"humidity":94,"rain":0.0,"pressure":941.9,"uv_index":9.05,"wind_gusts":37.8,"aqi":26,"pm10":5.6,"pm2_5":4.9,"no2":7.3,"co":137.0,"o3":42.0,"so2":1.2,"mosquito_risk":3,"arthritis_risk":5,"migraine_risk":7,"frizz_risk":1,"updated_at":"2026-05-23T01:21:14.657241+05:30"},{"city":"Belgaum","state":"Karnataka","latitude":15.8497,"longitude":74.4977,"temp":23.0,"humidity":96,"rain":0.0,"pressure":926.9,"uv_index":8.85,"wind_gusts":36.0,"aqi":27,"pm10":12.6,"pm2_5":11.0,"no2":12.1,"co":143.0,"o3":32.0,"so2":2.3,"mosquito_risk":3,"arthritis_risk":5,"migraine_risk":7,"frizz_risk":1,"updated_at":"2026-05-23T01:21:18.022518+05:30"},{"city":"Coimbatore","state":"Tamil Nadu","latitude":11.0168,"longitude":76.9558,"temp":24.1,"humidity":91,"rain":0.0,"pressure":962.7,"uv_index":8.5,"wind_gusts":50.8,"aqi":29,"pm10":6.4,"pm2_5":5.7,"no2":7.6,"co":154.0,"o3":44.0,"so2":2.9,"mosquito_risk":3,"arthritis_risk":5,"migraine_risk":7,"frizz_risk":1,"updated_at":"2026-05-23T01:21:18.022549+05:30"},{"city":"Madurai","state":"Tamil Nadu","latitude":9.9252,"longitude":78.1198,"temp":28.5,"humidity":63,"rain":0.0,"pressure":992.7,"uv_index":8.9,"wind_gusts":42.8,"aqi":55,"pm10":16.8,"pm2_5":16.0,"no2":30.0,"co":150.0,"o3":16.0,"so2":6.2,"mosquito_risk":7,"arthritis_risk":5,"migraine_risk":7,"frizz_risk":1,"updated_at":"2026-05-23T01:21:18.022560+05:30"},{"city":"Trichy","state":"Tamil Nadu","latitude":10.7905,"longitude":78.7047,"temp":28.5,"humidity":68,"rain":0.0,"pressure":999.2,"uv_index":8.25,"wind_gusts":42.5,"aqi":33,"pm10":8.7,"pm2_5":6.9,"no2":7.5,"co":158.0,"o3":50.0,"so2":2.9,"mosquito_risk":7,"arthritis_risk":5,"migraine_risk":7,"frizz_risk":1,"updated_at":"2026-05-23T01:21:18.022569+05:30"},{"city":"Salem","state":"Tamil Nadu","latitude":11.6643,"longitude":78.146,"temp":28.5,"humidity":65,"rain":0.0,"pressure":978.0,"uv_index":7.95,"wind_gusts":35.3,"aqi":53,"pm10":22.2,"pm2_5":17.5,"no2":22.5,"co":184.0,"o3":34.0,"so2":6.5,"mosquito_risk":7,"arthritis_risk":5,"migraine_risk":7,"frizz_risk":1,"updated_at":"2026-05-23T01:21:18.022578+05:30"},{"city":"Tirunelveli","state":"Tamil Nadu","latitude":8.7139,"longitude":77.7567,"temp":28.3,"humidity":71,"rain":0.0,"pressure":1003.3,"uv_index":7.3,"wind_gusts":42.1,"aqi":27,"pm10":8.2,"pm2_5":6.8,"no2":6.9,"co":179.0,"o3":43.0,"so2":1.8,"mosquito_risk":7,"arthritis_risk":5,"migraine_risk":4,"frizz_risk":1,"updated_at":"2026-05-23T01:21:18.022605+05:30"},{"city":"Vellore","state":"Tamil Nadu","latitude":12.9165,"longitude":79.1325,"temp":27.0,"humidity":75,"rain":0.0,"pressure":983.8,"uv_index":5.4,"wind_gusts":40.0,"aqi":60,"pm10":28.5,"pm2_5":23.3,"no2":14.8,"co":205.0,"o3":52.0,"so2":4.3,"mosquito_risk":7,"arthritis_risk":5,"migraine_risk":3,"frizz_risk":1,"updated_at":"2026-05-23T01:21:18.022615+05:30"},{"city":"Erode","state":"Tamil Nadu","latitude":11.341,"longitude":77.7172,"temp":27.4,"humidity":73,"rain":0.0,"pressure":989.6,"uv_index":8.25,"wind_gusts":40.3,"aqi":34,"pm10":10.6,"pm2_5":9.1,"no2":13.6,"co":197.0,"o3":38.0,"so2":3.5,"mosquito_risk":7,"arthritis_risk":5,"migraine_risk":7,"frizz_risk":1,"updated_at":"2026-05-23T01:21:18.022623+05:30"},{"city":"Kochi","state":"Kerala","latitude":9.9312,"longitude":76.2673,"temp":25.8,"humidity":98,"rain":0.1,"pressure":1011.0,"uv_index":8.2,"wind_gusts":31.7,"aqi":51,"pm10":27.0,"pm2_5":25.7,"no2":31.3,"co":356.0,"o3":9.0,"so2":7.6,"mosquito_risk":10,"arthritis_risk":0,"migraine_risk":4,"frizz_risk":1,"updated_at":"2026-05-23T01:21:18.022632+05:30"},{"city":"Thiruvananthapuram","state":"Kerala","latitude":8.5241,"longitude":76.9366,"temp":25.4,"humidity":94,"rain":0.0,"pressure":1009.9,"uv_index":7.85,"wind_gusts":43.9,"aqi":30,"pm10":12.0,"pm2_5":7.8,"no2":2.9,"co":241.0,"o3":60.0,"so2":1.2,"mosquito_risk":7,"arthritis_risk":0,"migraine_risk":4,"frizz_risk":1,"updated_at":"2026-05-23T01:21:18.022639+05:30"},{"city":"Kozhikode","state":"Kerala","latitude":11.2588,"longitude":75.7804,"temp":25.4,"humidity":99,"rain":0.0,"pressure":1010.0,"uv_index":7.55,"wind_gusts":33.5,"aqi":29,"pm10":8.5,"pm2_5":5.7,"no2":2.0,"co":540.0,"o3":66.0,"so2":0.9,"mosquito_risk":7,"arthritis_risk":0,"migraine_risk":4,"frizz_risk":1,"updated_at":"2026-05-23T01:21:18.022647+05:30"},{"city":"Thrissur","state":"Kerala","latitude":10.5276,"longitude":76.2144,"temp":24.8,"humidity":99,"rain":0.1,"pressure":1009.2,"uv_index":8.4,"wind_gusts":34.2,"aqi":49,"pm10":31.3,"pm2_5":30.5,"no2":27.3,"co":391.0,"o3":8.0,"so2":5.9,"mosquito_risk":6,"arthritis_risk":0,"migraine_risk":4,"frizz_risk":1,"updated_at":"2026-05-23T01:21:18.022656+05:30"},{"city":"Kannur","state":"Kerala","latitude":11.8745,"longitude":75.3704,"temp":25.4,"humidity":95,"rain":0.0,"pressure":1009.2,"uv_index":7.95,"wind_gusts":33.5,"aqi":31,"pm10":12.4,"pm2_5":10.3,"no2":12.5,"co":350.0,"o3":35.0,"so2":2.9,"mosquito_risk":7,"arthritis_risk":0,"migraine_risk":4,"frizz_risk":1,"updated_at":"2026-05-23T01:21:18.022663+05:30"},{"city":"Patna","state":"Bihar","latitude":25.5941,"longitude":85.1376,"temp":29.5,"humidity":81,"rain":0.0,"pressure":996.0,"uv_index":8.85,"wind_gusts":29.9,"aqi":152,"pm10":48.8,"pm2_5":44.2,"no2":13.0,"co":496.0,"o3":118.0,"so2":20.0,"mosquito_risk":7,"arthritis_risk":5,"migraine_risk":7,"frizz_risk":1,"updated_at":"2026-05-23T01:21:18.022670+05:30"},{"city":"Gaya","state":"Bihar","latitude":24.7914,"longitude":85.0002,"temp":29.1,"humidity":77,"rain":0.0,"pressure":989.1,"uv_index":8.9,"wind_gusts":34.9,"aqi":156,"pm10":70.3,"pm2_5":59.8,"no2":15.1,"co":595.0,"o3":105.0,"so2":18.5,"mosquito_risk":7,"arthritis_risk":5,"migraine_risk":7,"frizz_risk":1,"updated_at":"2026-05-23T01:21:18.022678+05:30"},{"city":"Muzaffarpur","state":"Bihar","latitude":26.1209,"longitude":85.3647,"temp":28.1,"humidity":88,"rain":0.0,"pressure":996.4,"uv_index":8.85,"wind_gusts":28.1,"aqi":150,"pm10":56.8,"pm2_5":51.2,"no2":15.4,"co":496.0,"o3":99.0,"so2":17.9,"mosquito_risk":7,"arthritis_risk":5,"migraine_risk":7,"frizz_risk":1,"updated_at":"2026-05-23T01:21:18.022684+05:30"},{"city":"Bhagalpur","state":"Bihar","latitude":25.2425,"longitude":87.0117,"temp":28.5,"humidity":89,"rain":0.0,"pressure":996.9,"uv_index":8.8,"wind_gusts":31.7,"aqi":123,"pm10":54.1,"pm2_5":47.6,"no2":13.6,"co":469.0,"o3":97.0,"so2":16.1,"mosquito_risk":7,"arthritis_risk":5,"migraine_risk":7,"frizz_risk":1,"updated_at":"2026-05-23T01:21:18.022691+05:30"},{"city":"Ranchi","state":"Jharkhand","latitude":23.3441,"longitude":85.3096,"temp":25.0,"humidity":72,"rain":0.0,"pressure":934.1,"uv_index":9.3,"wind_gusts":36.0,"aqi":147,"pm10":237.0,"pm2_5":66.4,"no2":30.7,"co":373.0,"o3":59.0,"so2":7.5,"mosquito_risk":7,"arthritis_risk":5,"migraine_risk":7,"frizz_risk":1,"updated_at":"2026-05-23T01:21:18.022698+05:30"},{"city":"Jamshedpur","state":"Jharkhand","latitude":22.8046,"longitude":86.2029,"temp":29.4,"humidity":89,"rain":0.0,"pressure":987.0,"uv_index":9.1,"wind_gusts":26.6,"aqi":152,"pm10":72.9,"pm2_5":61.0,"no2":23.9,"co":545.0,"o3":68.0,"so2":24.3,"mosquito_risk":7,"arthritis_risk":5,"migraine_risk":7,"frizz_risk":1,"updated_at":"2026-05-23T01:21:18.022705+05:30"},{"city":"Dhanbad","state":"Jharkhand","latitude":23.7957,"longitude":86.4304,"temp":29.3,"humidity":74,"rain":0.0,"pressure":976.1,"uv_index":9.05,"wind_gusts":45.7,"aqi":162,"pm10":95.9,"pm2_5":87.5,"no2":58.0,"co":577.0,"o3":40.0,"so2":135.2,"mosquito_risk":7,"arthritis_risk":5,"migraine_risk":7,"frizz_risk":1,"updated_at":"2026-05-23T01:21:18.022712+05:30"},{"city":"Bokaro","state":"Jharkhand","latitude":23.6693,"longitude":86.1511,"temp":28.8,"humidity":77,"rain":0.0,"pressure":979.8,"uv_index":9.1,"wind_gusts":40.3,"aqi":160,"pm10":122.5,"pm2_5":89.9,"no2":62.9,"co":946.0,"o3":27.0,"so2":116.8,"mosquito_risk":7,"arthritis_risk":5,"migraine_risk":7,"frizz_risk":1,"updated_at":"2026-05-23T01:21:18.022720+05:30"},{"city":"Bhubaneswar","state":"Odisha","latitude":20.2961,"longitude":85.8245,"temp":29.5,"humidity":94,"rain":0.0,"pressure":998.4,"uv_index":8.4,"wind_gusts":34.9,"aqi":96,"pm10":34.9,"pm2_5":25.7,"no2":5.7,"co":345.0,"o3":94.0,"so2":4.9,"mosquito_risk":7,"arthritis_risk":5,"migraine_risk":7,"frizz_risk":1,"updated_at":"2026-05-23T01:21:18.022726+05:30"},{"city":"Cuttack","state":"Odisha","latitude":20.4625,"longitude":85.8828,"temp":29.6,"humidity":93,"rain":0.0,"pressure":1000.2,"uv_index":8.55,"wind_gusts":31.7,"aqi":96,"pm10":34.9,"pm2_5":25.7,"no2":5.7,"co":343.0,"o3":94.0,"so2":4.9,"mosquito_risk":7,"arthritis_risk":5,"migraine_risk":4,"frizz_risk":1,"updated_at":"2026-05-23T01:21:18.022733+05:30"},{"city":"Rourkela","state":"Odisha","latitude":22.2604,"longitude":84.8536,"temp":30.5,"humidity":73,"rain":0.0,"pressure":980.8,"uv_index":9.0,"wind_gusts":28.1,"aqi":163,"pm10":123.9,"pm2_5":92.2,"no2":39.3,"co":575.0,"o3":57.0,"so2":26.8,"mosquito_risk":3,"arthritis_risk":5,"migraine_risk":7,"frizz_risk":1,"updated_at":"2026-05-23T01:21:18.022740+05:30"},{"city":"Raipur","state":"Chhattisgarh","latitude":21.2514,"longitude":81.6296,"temp":33.5,"humidity":27,"rain":0.0,"pressure":970.3,"uv_index":8.95,"wind_gusts":36.4,"aqi":136,"pm10":63.6,"pm2_5":58.2,"no2":62.2,"co":402.0,"o3":17.0,"so2":42.9,"mosquito_risk":0,"arthritis_risk":5,"migraine_risk":7,"frizz_risk":0,"updated_at":"2026-05-23T01:21:18.022748+05:30"},{"city":"Bhilai","state":"Chhattisgarh","latitude":21.1938,"longitude":81.3509,"temp":33.0,"humidity":29,"rain":0.0,"pressure":971.1,"uv_index":9.0,"wind_gusts":48.2,"aqi":89,"pm10":28.3,"pm2_5":24.9,"no2":29.4,"co":401.0,"o3":55.0,"so2":34.9,"mosquito_risk":0,"arthritis_risk":5,"migraine_risk":7,"frizz_risk":0,"updated_at":"2026-05-23T01:21:18.022755+05:30"},{"city":"Guwahati","state":"Assam","latitude":26.1158,"longitude":91.7086,"temp":23.6,"humidity":99,"rain":0.1,"pressure":998.9,"uv_index":8.75,"wind_gusts":25.6,"aqi":79,"pm10":25.3,"pm2_5":19.0,"no2":7.9,"co":312.0,"o3":69.0,"so2":2.5,"mosquito_risk":6,"arthritis_risk":5,"migraine_risk":7,"frizz_risk":1,"updated_at":"2026-05-23T01:21:18.022762+05:30"},{"city":"Agartala","state":"Tripura","latitude":23.8315,"longitude":91.2868,"temp":26.4,"humidity":94,"rain":0.1,"pressure":1003.7,"uv_index":8.65,"wind_gusts":35.6,"aqi":84,"pm10":27.0,"pm2_5":21.0,"no2":11.7,"co":253.0,"o3":47.0,"so2":3.1,"mosquito_risk":10,"arthritis_risk":5,"migraine_risk":4,"frizz_risk":1,"updated_at":"2026-05-23T01:21:18.022770+05:30"},{"city":"Shillong","state":"Meghalaya","latitude":25.5788,"longitude":91.8933,"temp":19.9,"humidity":93,"rain":0.0,"pressure":855.2,"uv_index":9.1,"wind_gusts":44.6,"aqi":58,"pm10":6.3,"pm2_5":4.7,"no2":5.4,"co":262.0,"o3":84.0,"so2":2.9,"mosquito_risk":3,"arthritis_risk":10,"migraine_risk":7,"frizz_risk":1,"updated_at":"2026-05-23T01:21:18.022777+05:30"},{"city":"Imphal","state":"Manipur","latitude":24.817,"longitude":93.9368,"temp":22.6,"humidity":92,"rain":0.0,"pressure":921.6,"uv_index":9.3,"wind_gusts":37.4,"aqi":73,"pm10":13.4,"pm2_5":10.8,"no2":8.5,"co":293.0,"o3":56.0,"so2":2.4,"mosquito_risk":3,"arthritis_risk":5,"migraine_risk":7,"frizz_risk":1,"updated_at":"2026-05-23T01:21:18.022784+05:30"},{"city":"Aizawl","state":"Mizoram","latitude":23.7271,"longitude":92.7176,"temp":19.3,"humidity":96,"rain":0.0,"pressure":890.6,"uv_index":9.1,"wind_gusts":37.4,"aqi":59,"pm10":12.6,"pm2_5":9.4,"no2":5.0,"co":199.0,"o3":52.0,"so2":1.2,"mosquito_risk":3,"arthritis_risk":10,"migraine_risk":7,"frizz_risk":1,"updated_at":"2026-05-23T01:21:18.022791+05:30"},{"city":"Kohima","state":"Nagaland","latitude":25.6701,"longitude":94.1077,"temp":17.5,"humidity":95,"rain":0.0,"pressure":852.3,"uv_index":9.25,"wind_gusts":26.3,"aqi":72,"pm10":18.0,"pm2_5":14.1,"no2":7.7,"co":333.0,"o3":59.0,"so2":1.4,"mosquito_risk":3,"arthritis_risk":10,"migraine_risk":7,"frizz_risk":1,"updated_at":"2026-05-23T01:21:18.022798+05:30"},{"city":"Gangtok","state":"Sikkim","latitude":27.3314,"longitude":88.6138,"temp":15.9,"humidity":95,"rain":0.0,"pressure":834.8,"uv_index":9.15,"wind_gusts":37.8,"aqi":56,"pm10":17.9,"pm2_5":12.8,"no2":9.6,"co":588.0,"o3":109.0,"so2":2.7,"mosquito_risk":3,"arthritis_risk":10,"migraine_risk":7,"frizz_risk":0,"updated_at":"2026-05-23T01:21:18.022805+05:30"},{"city":"Siliguri","state":"West Bengal","latitude":26.7271,"longitude":88.3953,"temp":23.0,"humidity":98,"rain":0.1,"pressure":990.0,"uv_index":8.75,"wind_gusts":22.0,"aqi":88,"pm10":39.5,"pm2_5":26.7,"no2":8.8,"co":475.0,"o3":111.0,"so2":4.0,"mosquito_risk":6,"arthritis_risk":5,"migraine_risk":7,"frizz_risk":1,"updated_at":"2026-05-23T01:21:21.396282+05:30"},{"city":"Durgapur","state":"West Bengal","latitude":23.5204,"longitude":87.3119,"temp":28.6,"humidity":95,"rain":0.0,"pressure":991.0,"uv_index":9.0,"wind_gusts":32.0,"aqi":154,"pm10":47.1,"pm2_5":43.2,"no2":25.0,"co":440.0,"o3":47.0,"so2":29.7,"mosquito_risk":7,"arthritis_risk":5,"migraine_risk":7,"frizz_risk":1,"updated_at":"2026-05-23T01:21:21.396319+05:30"},{"city":"Asansol","state":"West Bengal","latitude":23.6739,"longitude":86.9524,"temp":28.5,"humidity":93,"rain":0.0,"pressure":989.6,"uv_index":9.05,"wind_gusts":37.1,"aqi":154,"pm10":52.7,"pm2_5":47.4,"no2":28.3,"co":543.0,"o3":49.0,"so2":37.7,"mosquito_risk":7,"arthritis_risk":5,"migraine_risk":7,"frizz_risk":1,"updated_at":"2026-05-23T01:21:21.396333+05:30"},{"city":"Pondicherry","state":"Puducherry","latitude":11.9139,"longitude":79.8145,"temp":29.3,"humidity":78,"rain":0.0,"pressure":1006.6,"uv_index":8.3,"wind_gusts":31.7,"aqi":62,"pm10":35.5,"pm2_5":26.0,"no2":18.4,"co":234.0,"o3":67.0,"so2":6.1,"mosquito_risk":7,"arthritis_risk":5,"migraine_risk":4,"frizz_risk":1,"updated_at":"2026-05-23T01:21:21.396344+05:30"},{"city":"Port Blair","state":"Andaman and Nicobar Islands","latitude":11.6234,"longitude":92.7265,"temp":25.5,"humidity":96,"rain":0.2,"pressure":1005.9,"uv_index":8.2,"wind_gusts":38.5,"aqi":29,"pm10":4.9,"pm2_5":3.1,"no2":0.3,"co":106.0,"o3":71.0,"so2":0.3,"mosquito_risk":10,"arthritis_risk":5,"migraine_risk":4,"frizz_risk":1,"updated_at":"2026-05-23T01:21:21.396354+05:30"},{"city":"Haridwar","state":"Uttarakhand","latitude":29.9457,"longitude":78.1642,"temp":25.6,"humidity":59,"rain":0.0,"pressure":969.4,"uv_index":7.55,"wind_gusts":47.5,"aqi":152,"pm10":66.6,"pm2_5":37.0,"no2":17.1,"co":371.0,"o3":69.0,"so2":10.4,"mosquito_risk":4,"arthritis_risk":5,"migraine_risk":7,"frizz_risk":1,"updated_at":"2026-05-23T01:21:21.396365+05:30"},{"city":"Rishikesh","state":"Uttarakhand","latitude":30.0869,"longitude":78.2676,"temp":22.4,"humidity":60,"rain":0.0,"pressure":961.8,"uv_index":7.65,"wind_gusts":36.4,"aqi":132,"pm10":116.4,"pm2_5":38.2,"no2":9.7,"co":498.0,"o3":100.0,"so2":8.5,"mosquito_risk":0,"arthritis_risk":5,"migraine_risk":7,"frizz_risk":0,"updated_at":"2026-05-23T01:21:21.396374+05:30"},{"city":"Nainital","state":"Uttarakhand","latitude":29.3919,"longitude":79.4542,"temp":16.1,"humidity":53,"rain":0.0,"pressure":803.0,"uv_index":8.5,"wind_gusts":49.7,"aqi":157,"pm10":172.3,"pm2_5":65.7,"no2":14.5,"co":296.0,"o3":102.0,"so2":6.5,"mosquito_risk":0,"arthritis_risk":5,"migraine_risk":7,"frizz_risk":0,"updated_at":"2026-05-23T01:21:21.396383+05:30"},{"city":"Mussoorie","state":"Uttarakhand","latitude":30.4599,"longitude":78.0664,"temp":17.7,"humidity":46,"rain":0.0,"pressure":801.8,"uv_index":8.05,"wind_gusts":65.2,"aqi":108,"pm10":106.6,"pm2_5":42.7,"no2":31.8,"co":203.0,"o3":56.0,"so2":7.6,"mosquito_risk":0,"arthritis_risk":5,"migraine_risk":7,"frizz_risk":0,"updated_at":"2026-05-23T01:21:21.396390+05:30"},{"city":"Dharamshala","state":"Himachal Pradesh","latitude":32.219,"longitude":76.3234,"temp":21.5,"humidity":45,"rain":0.0,"pressure":867.6,"uv_index":7.2,"wind_gusts":51.1,"aqi":49,"pm10":20.1,"pm2_5":10.7,"no2":15.7,"co":187.0,"o3":31.0,"so2":0.2,"mosquito_risk":0,"arthritis_risk":5,"migraine_risk":7,"frizz_risk":0,"updated_at":"2026-05-23T01:21:21.396398+05:30"},{"city":"Dalhousie","state":"Himachal Pradesh","latitude":32.5387,"longitude":75.971,"temp":12.3,"humidity":70,"rain":0.0,"pressure":800.7,"uv_index":7.75,"wind_gusts":42.1,"aqi":63,"pm10":37.3,"pm2_5":21.7,"no2":34.5,"co":265.0,"o3":22.0,"so2":1.7,"mosquito_risk":3,"arthritis_risk":5,"migraine_risk":7,"frizz_risk":0,"updated_at":"2026-05-23T01:21:21.396406+05:30"},{"city":"Patiala","state":"Punjab","latitude":30.3398,"longitude":76.3869,"temp":30.0,"humidity":37,"rain":0.0,"pressure":974.6,"uv_index":7.65,"wind_gusts":51.1,"aqi":678,"pm10":823.3,"pm2_5":126.7,"no2":11.7,"co":314.0,"o3":70.0,"so2":5.4,"mosquito_risk":4,"arthritis_risk":5,"migraine_risk":7,"frizz_risk":0,"updated_at":"2026-05-23T01:21:21.396414+05:30"},{"city":"Bhatinda","state":"Punjab","latitude":30.211,"longitude":74.9455,"temp":31.6,"humidity":36,"rain":0.0,"pressure":980.1,"uv_index":8.3,"wind_gusts":34.9,"aqi":92,"pm10":67.1,"pm2_5":37.1,"no2":15.5,"co":301.0,"o3":73.0,"so2":8.0,"mosquito_risk":0,"arthritis_risk":5,"migraine_risk":7,"frizz_risk":0,"updated_at":"2026-05-23T01:21:21.396421+05:30"},{"city":"Rohtak","state":"Haryana","latitude":28.8955,"longitude":76.6066,"temp":30.9,"humidity":31,"rain":0.0,"pressure":978.0,"uv_index":7.6,"wind_gusts":43.9,"aqi":795,"pm10":922.0,"pm2_5":182.5,"no2":20.2,"co":269.0,"o3":64.0,"so2":7.5,"mosquito_risk":0,"arthritis_risk":5,"migraine_risk":7,"frizz_risk":0,"updated_at":"2026-05-23T01:21:21.396428+05:30"},{"city":"Panipat","state":"Haryana","latitude":29.3909,"longitude":76.9635,"temp":31.4,"humidity":29,"rain":0.0,"pressure":976.5,"uv_index":7.45,"wind_gusts":47.5,"aqi":1705,"pm10":2101.1,"pm2_5":322.2,"no2":11.9,"co":326.0,"o3":80.0,"so2":5.8,"mosquito_risk":0,"arthritis_risk":5,"migraine_risk":7,"frizz_risk":0,"updated_at":"2026-05-23T01:21:21.396435+05:30"},{"city":"Mathura","state":"Uttar Pradesh","latitude":27.4924,"longitude":77.6737,"temp":32.0,"humidity":31,"rain":0.0,"pressure":982.7,"uv_index":8.0,"wind_gusts":42.1,"aqi":850,"pm10":1147.4,"pm2_5":217.5,"no2":21.9,"co":282.0,"o3":64.0,"so2":13.2,"mosquito_risk":0,"arthritis_risk":5,"migraine_risk":7,"frizz_risk":0,"updated_at":"2026-05-23T01:21:21.396442+05:30"},{"city":"Vrindavan","state":"Uttar Pradesh","latitude":27.5823,"longitude":77.7027,"temp":31.9,"humidity":32,"rain":0.0,"pressure":983.2,"uv_index":8.0,"wind_gusts":41.0,"aqi":850,"pm10":1147.4,"pm2_5":217.5,"no2":21.9,"co":320.0,"o3":64.0,"so2":13.2,"mosquito_risk":0,"arthritis_risk":5,"migraine_risk":7,"frizz_risk":0,"updated_at":"2026-05-23T01:21:21.396450+05:30"},{"city":"Ayodhya","state":"Uttar Pradesh","latitude":26.7922,"longitude":82.1998,"temp":30.5,"humidity":69,"rain":0.0,"pressure":990.1,"uv_index":8.4,"wind_gusts":45.4,"aqi":153,"pm10":173.7,"pm2_5":68.5,"no2":21.9,"co":765.0,"o3":72.0,"so2":11.5,"mosquito_risk":3,"arthritis_risk":5,"migraine_risk":7,"frizz_risk":1,"updated_at":"2026-05-23T01:21:21.396457+05:30"},{"city":"Ratlam","state":"Madhya Pradesh","latitude":23.3315,"longitude":75.0367,"temp":30.5,"humidity":40,"rain":0.0,"pressure":954.5,"uv_index":8.55,"wind_gusts":47.9,"aqi":71,"pm10":38.5,"pm2_5":26.4,"no2":4.3,"co":187.0,"o3":90.0,"so2":8.8,"mosquito_risk":0,"arthritis_risk":5,"migraine_risk":7,"frizz_risk":0,"updated_at":"2026-05-23T01:21:21.396465+05:30"},{"city":"Sagar","state":"Madhya Pradesh","latitude":23.8388,"longitude":78.7378,"temp":31.4,"humidity":24,"rain":0.0,"pressure":947.8,"uv_index":8.75,"wind_gusts":48.6,"aqi":51,"pm10":21.5,"pm2_5":16.2,"no2":10.2,"co":216.0,"o3":64.0,"so2":4.3,"mosquito_risk":0,"arthritis_risk":5,"migraine_risk":7,"frizz_risk":0,"updated_at":"2026-05-23T01:21:21.396471+05:30"},{"city":"Satna","state":"Madhya Pradesh","latitude":24.6005,"longitude":80.8322,"temp":31.6,"humidity":26,"rain":0.0,"pressure":967.6,"uv_index":8.8,"wind_gusts":48.6,"aqi":54,"pm10":46.7,"pm2_5":20.7,"no2":15.2,"co":211.0,"o3":59.0,"so2":3.8,"mosquito_risk":0,"arthritis_risk":5,"migraine_risk":7,"frizz_risk":0,"updated_at":"2026-05-23T01:21:21.396479+05:30"},{"city":"Akola","state":"Maharashtra","latitude":20.7002,"longitude":77.0082,"temp":34.5,"humidity":39,"rain":0.0,"pressure":973.4,"uv_index":8.9,"wind_gusts":50.0,"aqi":70,"pm10":28.8,"pm2_5":22.2,"no2":9.8,"co":184.0,"o3":80.0,"so2":8.7,"mosquito_risk":0,"arthritis_risk":5,"migraine_risk":7,"frizz_risk":1,"updated_at":"2026-05-23T01:21:21.396486+05:30"},{"city":"Amravati","state":"Maharashtra","latitude":20.9374,"longitude":77.7796,"temp":35.5,"humidity":31,"rain":0.0,"pressure":965.3,"uv_index":8.8,"wind_gusts":51.5,"aqi":68,"pm10":28.2,"pm2_5":22.3,"no2":11.3,"co":203.0,"o3":74.0,"so2":7.5,"mosquito_risk":0,"arthritis_risk":5,"migraine_risk":10,"frizz_risk":0,"updated_at":"2026-05-23T01:21:21.396494+05:30"},{"city":"Latur","state":"Maharashtra","latitude":18.4088,"longitude":76.5604,"temp":29.4,"humidity":57,"rain":0.0,"pressure":939.7,"uv_index":9.05,"wind_gusts":54.4,"aqi":75,"pm10":24.7,"pm2_5":21.5,"no2":6.5,"co":193.0,"o3":97.0,"so2":2.3,"mosquito_risk":4,"arthritis_risk":5,"migraine_risk":7,"frizz_risk":1,"updated_at":"2026-05-23T01:21:21.396502+05:30"},{"city":"Nanded","state":"Maharashtra","latitude":19.1383,"longitude":77.3091,"temp":33.2,"humidity":42,"rain":0.0,"pressure":967.3,"uv_index":9.0,"wind_gusts":46.8,"aqi":85,"pm10":26.3,"pm2_5":21.7,"no2":5.1,"co":181.0,"o3":104.0,"so2":3.5,"mosquito_risk":0,"arthritis_risk":5,"migraine_risk":7,"frizz_risk":1,"updated_at":"2026-05-23T01:21:21.396509+05:30"},{"city":"Gulbarga","state":"Karnataka","latitude":17.3297,"longitude":76.8343,"temp":27.8,"humidity":66,"rain":0.0,"pressure":958.5,"uv_index":9.05,"wind_gusts":52.9,"aqi":61,"pm10":19.6,"pm2_5":17.1,"no2":8.0,"co":213.0,"o3":87.0,"so2":3.1,"mosquito_risk":7,"arthritis_risk":5,"migraine_risk":7,"frizz_risk":1,"updated_at":"2026-05-23T01:21:21.396517+05:30"},{"city":"Bidar","state":"Karnataka","latitude":17.9104,"longitude":77.5199,"temp":28.1,"humidity":60,"rain":0.0,"pressure":935.0,"uv_index":9.05,"wind_gusts":45.7,"aqi":80,"pm10":33.4,"pm2_5":27.3,"no2":7.1,"co":205.0,"o3":103.0,"so2":4.1,"mosquito_risk":4,"arthritis_risk":5,"migraine_risk":7,"frizz_risk":1,"updated_at":"2026-05-23T01:21:21.396524+05:30"},{"city":"Hospet","state":"Karnataka","latitude":15.2689,"longitude":76.3909,"temp":25.2,"humidity":88,"rain":0.0,"pressure":956.8,"uv_index":8.95,"wind_gusts":49.3,"aqi":34,"pm10":5.8,"pm2_5":5.3,"no2":8.6,"co":193.0,"o3":44.0,"so2":1.6,"mosquito_risk":7,"arthritis_risk":5,"migraine_risk":7,"frizz_risk":1,"updated_at":"2026-05-23T01:21:21.396531+05:30"},{"city":"Tirupur","state":"Tamil Nadu","latitude":11.1085,"longitude":77.3411,"temp":25.4,"humidity":86,"rain":0.0,"pressure":976.1,"uv_index":8.8,"wind_gusts":50.4,"aqi":37,"pm10":12.4,"pm2_5":10.9,"no2":15.6,"co":151.0,"o3":36.0,"so2":4.2,"mosquito_risk":7,"arthritis_risk":5,"migraine_risk":7,"frizz_risk":1,"updated_at":"2026-05-23T01:21:21.396538+05:30"},{"city":"Alappuzha","state":"Kerala","latitude":9.4981,"longitude":76.3388,"temp":26.5,"humidity":93,"rain":0.1,"pressure":1010.9,"uv_index":7.9,"wind_gusts":33.1,"aqi":34,"pm10":16.4,"pm2_5":13.0,"no2":12.3,"co":183.0,"o3":47.0,"so2":3.3,"mosquito_risk":10,"arthritis_risk":0,"migraine_risk":4,"frizz_risk":1,"updated_at":"2026-05-23T01:21:21.396545+05:30"},{"city":"Munnar","state":"Kerala","latitude":10.0889,"longitude":77.0595,"temp":17.0,"humidity":98,"rain":0.0,"pressure":857.9,"uv_index":8.95,"wind_gusts":31.7,"aqi":27,"pm10":7.5,"pm2_5":6.7,"no2":9.0,"co":121.0,"o3":34.0,"so2":2.0,"mosquito_risk":3,"arthritis_risk":10,"migraine_risk":7,"frizz_risk":1,"updated_at":"2026-05-23T01:21:21.396552+05:30"},{"city":"Silchar","state":"Assam","latitude":24.8333,"longitude":92.7789,"temp":24.4,"humidity":99,"rain":0.3,"pressure":1003.6,"uv_index":8.95,"wind_gusts":28.8,"aqi":75,"pm10":26.0,"pm2_5":16.6,"no2":5.4,"co":275.0,"o3":90.0,"so2":3.2,"mosquito_risk":6,"arthritis_risk":5,"migraine_risk":4,"frizz_risk":1,"updated_at":"2026-05-23T01:21:21.396560+05:30"},{"city":"Dibrugarh","state":"Assam","latitude":27.4728,"longitude":94.912,"temp":23.7,"humidity":98,"rain":0.1,"pressure":993.0,"uv_index":8.9,"wind_gusts":28.8,"aqi":84,"pm10":27.0,"pm2_5":22.7,"no2":10.1,"co":256.0,"o3":61.0,"so2":0.8,"mosquito_risk":6,"arthritis_risk":5,"migraine_risk":7,"frizz_risk":1,"updated_at":"2026-05-23T01:21:21.396567+05:30"}]