[{"city":"Delhi","state":"Delhi","latitude":28.6139,"longitude":77.209,"temp":24.4,"humidity":80,"rain":0.0,"pressure":982.6,"uv_index":7.65,"wind_gusts":24.5,"aqi":154,"pm10":108.5,"pm2_5":45.8,"no2":24.0,"co":497.0,"o3":74.0,"so2":18.1,"mosquito_risk":3,"arthritis_risk":5,"migraine_risk":7,"frizz_risk":1,"updated_at":"2026-06-01T01:43:05.234915+05:30"},{"city":"Mumbai","state":"Maharashtra","latitude":19.076,"longitude":72.8777,"temp":30.0,"humidity":74,"rain":0.0,"pressure":1008.4,"uv_index":7.7,"wind_gusts":40.0,"aqi":60,"pm10":19.2,"pm2_5":11.2,"no2":4.9,"co":201.0,"o3":42.0,"so2":3.9,"mosquito_risk":7,"arthritis_risk":0,"migraine_risk":4,"frizz_risk":1,"updated_at":"2026-06-01T01:43:05.234968+05:30"},{"city":"Bangalore","state":"Karnataka","latitude":12.9716,"longitude":77.5946,"temp":21.5,"humidity":96,"rain":0.0,"pressure":912.2,"uv_index":9.25,"wind_gusts":32.8,"aqi":70,"pm10":21.7,"pm2_5":19.2,"no2":17.1,"co":455.0,"o3":64.0,"so2":6.9,"mosquito_risk":3,"arthritis_risk":5,"migraine_risk":7,"frizz_risk":1,"updated_at":"2026-06-01T01:43:05.234984+05:30"},{"city":"Hyderabad","state":"Telangana","latitude":17.385,"longitude":78.4867,"temp":29.4,"humidity":44,"rain":0.0,"pressure":952.1,"uv_index":9.15,"wind_gusts":33.1,"aqi":85,"pm10":62.4,"pm2_5":33.2,"no2":19.9,"co":443.0,"o3":54.0,"so2":8.2,"mosquito_risk":4,"arthritis_risk":5,"migraine_risk":7,"frizz_risk":0,"updated_at":"2026-06-01T01:43:05.234995+05:30"},{"city":"Chennai","state":"Tamil Nadu","latitude":13.0827,"longitude":80.2707,"temp":30.6,"humidity":72,"rain":0.0,"pressure":1006.2,"uv_index":8.6,"wind_gusts":34.2,"aqi":83,"pm10":23.2,"pm2_5":18.5,"no2":12.4,"co":266.0,"o3":74.0,"so2":12.6,"mosquito_risk":3,"arthritis_risk":5,"migraine_risk":4,"frizz_risk":1,"updated_at":"2026-06-01T01:43:05.235003+05:30"},{"city":"Kolkata","state":"West Bengal","latitude":22.5726,"longitude":88.3639,"temp":28.4,"humidity":87,"rain":0.0,"pressure":1005.1,"uv_index":8.95,"wind_gusts":22.0,"aqi":147,"pm10":62.9,"pm2_5":52.4,"no2":23.2,"co":491.0,"o3":30.0,"so2":7.4,"mosquito_risk":7,"arthritis_risk":5,"migraine_risk":4,"frizz_risk":1,"updated_at":"2026-06-01T01:43:05.235012+05:30"},{"city":"Pune","state":"Maharashtra","latitude":18.5204,"longitude":73.8567,"temp":25.2,"humidity":85,"rain":0.0,"pressure":948.8,"uv_index":8.3,"wind_gusts":40.0,"aqi":53,"pm10":23.8,"pm2_5":14.4,"no2":7.8,"co":165.0,"o3":47.0,"so2":8.2,"mosquito_risk":7,"arthritis_risk":5,"migraine_risk":7,"frizz_risk":1,"updated_at":"2026-06-01T01:43:05.235020+05:30"},{"city":"Ahmedabad","state":"Gujarat","latitude":23.0225,"longitude":72.5714,"temp":30.0,"humidity":79,"rain":0.0,"pressure":1000.8,"uv_index":8.05,"wind_gusts":31.3,"aqi":73,"pm10":34.0,"pm2_5":20.2,"no2":4.2,"co":199.0,"o3":59.0,"so2":4.2,"mosquito_risk":7,"arthritis_risk":5,"migraine_risk":4,"frizz_risk":1,"updated_at":"2026-06-01T01:43:05.235027+05:30"},{"city":"Jaipur","state":"Rajasthan","latitude":26.9124,"longitude":75.7873,"temp":26.4,"humidity":60,"rain":0.0,"pressure":958.8,"uv_index":8.15,"wind_gusts":29.9,"aqi":95,"pm10":126.2,"pm2_5":52.2,"no2":26.2,"co":240.0,"o3":34.0,"so2":12.6,"mosquito_risk":4,"arthritis_risk":5,"migraine_risk":7,"frizz_risk":1,"updated_at":"2026-06-01T01:43:05.235038+05:30"},{"city":"Lucknow","state":"Uttar Pradesh","latitude":26.8467,"longitude":80.9462,"temp":24.9,"humidity":90,"rain":0.0,"pressure":993.0,"uv_index":8.3,"wind_gusts":24.8,"aqi":84,"pm10":72.2,"pm2_5":54.2,"no2":45.3,"co":439.0,"o3":32.0,"so2":15.4,"mosquito_risk":3,"arthritis_risk":5,"migraine_risk":7,"frizz_risk":1,"updated_at":"2026-06-01T01:43:05.235045+05:30"},{"city":"Kanpur","state":"Uttar Pradesh","latitude":26.4499,"longitude":80.3319,"temp":25.4,"humidity":77,"rain":0.0,"pressure":991.1,"uv_index":8.3,"wind_gusts":22.3,"aqi":95,"pm10":100.4,"pm2_5":34.7,"no2":18.9,"co":315.0,"o3":63.0,"so2":7.2,"mosquito_risk":7,"arthritis_risk":5,"migraine_risk":7,"frizz_risk":1,"updated_at":"2026-06-01T01:43:05.235051+05:30"},{"city":"Chandigarh","state":"Chandigarh","latitude":30.7333,"longitude":76.7794,"temp":23.2,"humidity":84,"rain":0.0,"pressure":968.2,"uv_index":7.45,"wind_gusts":32.4,"aqi":84,"pm10":52.0,"pm2_5":49.4,"no2":41.9,"co":991.0,"o3":14.0,"so2":4.2,"mosquito_risk":3,"arthritis_risk":5,"migraine_risk":7,"frizz_risk":1,"updated_at":"2026-06-01T01:43:05.235058+05:30"},{"city":"Srinagar","state":"Jammu and Kashmir","latitude":34.0837,"longitude":74.7973,"temp":15.1,"humidity":83,"rain":0.0,"pressure":839.7,"uv_index":9.05,"wind_gusts":21.2,"aqi":113,"pm10":68.5,"pm2_5":48.7,"no2":28.9,"co":491.0,"o3":17.0,"so2":1.9,"mosquito_risk":3,"arthritis_risk":10,"migraine_risk":7,"frizz_risk":0,"updated_at":"2026-06-01T01:43:05.235066+05:30"},{"city":"Jammu","state":"Jammu and Kashmir","latitude":32.7266,"longitude":74.857,"temp":24.5,"humidity":67,"rain":0.0,"pressure":972.5,"uv_index":8.6,"wind_gusts":25.2,"aqi":110,"pm10":57.2,"pm2_5":44.0,"no2":33.7,"co":391.0,"o3":24.0,"so2":3.8,"mosquito_risk":3,"arthritis_risk":5,"migraine_risk":7,"frizz_risk":1,"updated_at":"2026-06-01T01:43:05.235073+05:30"},{"city":"Amritsar","state":"Punjab","latitude":31.634,"longitude":74.8723,"temp":25.1,"humidity":69,"rain":0.0,"pressure":980.6,"uv_index":8.45,"wind_gusts":18.0,"aqi":100,"pm10":37.5,"pm2_5":31.4,"no2":13.0,"co":394.0,"o3":85.0,"so2":7.5,"mosquito_risk":7,"arthritis_risk":5,"migraine_risk":7,"frizz_risk":1,"updated_at":"2026-06-01T01:43:05.235079+05:30"},{"city":"Ludhiana","state":"Punjab","latitude":30.901,"longitude":75.8573,"temp":24.5,"humidity":73,"rain":0.0,"pressure":978.5,"uv_index":8.0,"wind_gusts":27.7,"aqi":106,"pm10":41.2,"pm2_5":37.4,"no2":15.5,"co":472.0,"o3":82.0,"so2":11.4,"mosquito_risk":3,"arthritis_risk":5,"migraine_risk":7,"frizz_risk":1,"updated_at":"2026-06-01T01:43:05.235087+05:30"},{"city":"Jalandhar","state":"Punjab","latitude":31.326,"longitude":75.5762,"temp":24.2,"humidity":73,"rain":0.0,"pressure":979.6,"uv_index":8.2,"wind_gusts":20.9,"aqi":96,"pm10":51.7,"pm2_5":46.8,"no2":22.6,"co":472.0,"o3":67.0,"so2":13.1,"mosquito_risk":3,"arthritis_risk":5,"migraine_risk":7,"frizz_risk":1,"updated_at":"2026-06-01T01:43:05.235097+05:30"},{"city":"Dehradun","state":"Uttarakhand","latitude":30.6284,"longitude":78.0322,"temp":14.8,"humidity":78,"rain":0.0,"pressure":829.1,"uv_index":7.65,"wind_gusts":29.9,"aqi":44,"pm10":13.0,"pm2_5":11.5,"no2":27.4,"co":243.0,"o3":33.0,"so2":0.7,"mosquito_risk":3,"arthritis_risk":5,"migraine_risk":7,"frizz_risk":0,"updated_at":"2026-06-01T01:43:05.235103+05:30"},{"city":"Shimla","state":"Himachal Pradesh","latitude":31.1048,"longitude":77.1734,"temp":11.4,"humidity":76,"rain":0.0,"pressure":782.4,"uv_index":8.05,"wind_gusts":33.5,"aqi":53,"pm10":25.5,"pm2_5":22.6,"no2":22.5,"co":376.0,"o3":53.0,"so2":0.1,"mosquito_risk":3,"arthritis_risk":5,"migraine_risk":7,"frizz_risk":0,"updated_at":"2026-06-01T01:43:05.235112+05:30"},{"city":"Manali","state":"Himachal Pradesh","latitude":32.2396,"longitude":77.1887,"temp":12.9,"humidity":87,"rain":0.1,"pressure":817.5,"uv_index":7.8,"wind_gusts":30.2,"aqi":65,"pm10":1.9,"pm2_5":1.5,"no2":17.3,"co":257.0,"o3":96.0,"so2":0.0,"mosquito_risk":6,"arthritis_risk":10,"migraine_risk":7,"frizz_risk":0,"updated_at":"2026-06-01T01:43:05.235118+05:30"},{"city":"Gurgaon","state":"Haryana","latitude":28.4595,"longitude":77.0266,"temp":24.2,"humidity":83,"rain":0.0,"pressure":981.0,"uv_index":7.6,"wind_gusts":25.9,"aqi":555,"pm10":140.6,"pm2_5":46.6,"no2":17.7,"co":538.0,"o3":94.0,"so2":16.5,"mosquito_risk":3,"arthritis_risk":5,"migraine_risk":7,"frizz_risk":1,"updated_at":"2026-06-01T01:43:05.235125+05:30"},{"city":"Noida","state":"Uttar Pradesh","latitude":28.5355,"longitude":77.391,"temp":23.6,"humidity":86,"rain":0.0,"pressure":983.8,"uv_index":7.65,"wind_gusts":23.0,"aqi":555,"pm10":140.6,"pm2_5":46.6,"no2":17.7,"co":471.0,"o3":94.0,"so2":16.5,"mosquito_risk":3,"arthritis_risk":5,"migraine_risk":7,"frizz_risk":1,"updated_at":"2026-06-01T01:43:05.235131+05:30"},{"city":"Ghaziabad","state":"Uttar Pradesh","latitude":28.6692,"longitude":77.4538,"temp":22.9,"humidity":95,"rain":0.0,"pressure":982.1,"uv_index":7.7,"wind_gusts":23.8,"aqi":105,"pm10":58.9,"pm2_5":42.3,"no2":17.9,"co":494.0,"o3":75.0,"so2":7.3,"mosquito_risk":3,"arthritis_risk":5,"migraine_risk":7,"frizz_risk":1,"updated_at":"2026-06-01T01:43:05.235138+05:30"},{"city":"Faridabad","state":"Haryana","latitude":28.4089,"longitude":77.3178,"temp":23.8,"humidity":85,"rain":0.0,"pressure":983.2,"uv_index":7.75,"wind_gusts":24.5,"aqi":555,"pm10":140.6,"pm2_5":46.6,"no2":17.7,"co":486.0,"o3":94.0,"so2":16.5,"mosquito_risk":3,"arthritis_risk":5,"migraine_risk":7,"frizz_risk":1,"updated_at":"2026-06-01T01:43:05.235145+05:30"},{"city":"Meerut","state":"Uttar Pradesh","latitude":28.9845,"longitude":77.7064,"temp":23.5,"humidity":92,"rain":0.0,"pressure":980.9,"uv_index":7.25,"wind_gusts":32.8,"aqi":105,"pm10":58.9,"pm2_5":42.3,"no2":17.9,"co":509.0,"o3":75.0,"so2":7.3,"mosquito_risk":3,"arthritis_risk":5,"migraine_risk":7,"frizz_risk":1,"updated_at":"2026-06-01T01:43:05.235151+05:30"},{"city":"Agra","state":"Uttar Pradesh","latitude":27.1767,"longitude":78.0081,"temp":26.2,"humidity":73,"rain":0.0,"pressure":987.4,"uv_index":8.05,"wind_gusts":19.4,"aqi":315,"pm10":1136.2,"pm2_5":139.7,"no2":11.2,"co":318.0,"o3":92.0,"so2":6.8,"mosquito_risk":7,"arthritis_risk":5,"migraine_risk":7,"frizz_risk":1,"updated_at":"2026-06-01T01:43:05.235158+05:30"},{"city":"Varanasi","state":"Uttar Pradesh","latitude":25.3176,"longitude":82.9739,"temp":28.2,"humidity":69,"rain":0.0,"pressure":996.6,"uv_index":8.75,"wind_gusts":20.2,"aqi":130,"pm10":55.5,"pm2_5":45.2,"no2":22.0,"co":543.0,"o3":68.0,"so2":11.4,"mosquito_risk":7,"arthritis_risk":5,"migraine_risk":7,"frizz_risk":1,"updated_at":"2026-06-01T01:43:05.235164+05:30"},{"city":"Prayagraj","state":"Uttar Pradesh","latitude":25.4358,"longitude":81.8463,"temp":27.1,"humidity":77,"rain":0.0,"pressure":995.3,"uv_index":8.65,"wind_gusts":27.7,"aqi":102,"pm10":45.8,"pm2_5":34.9,"no2":20.0,"co":366.0,"o3":66.0,"so2":7.9,"mosquito_risk":7,"arthritis_risk":5,"migraine_risk":7,"frizz_risk":1,"updated_at":"2026-06-01T01:43:05.235171+05:30"},{"city":"Gorakhpur","state":"Uttar Pradesh","latitude":26.7606,"longitude":83.3732,"temp":26.9,"humidity":78,"rain":0.0,"pressure":996.5,"uv_index":8.6,"wind_gusts":15.5,"aqi":119,"pm10":88.0,"pm2_5":78.5,"no2":43.7,"co":448.0,"o3":41.0,"so2":12.7,"mosquito_risk":7,"arthritis_risk":5,"migraine_risk":7,"frizz_risk":1,"updated_at":"2026-06-01T01:43:05.235180+05:30"},{"city":"Bareilly","state":"Uttar Pradesh","latitude":28.367,"longitude":79.4304,"temp":24.2,"humidity":90,"rain":0.0,"pressure":986.4,"uv_index":7.65,"wind_gusts":33.1,"aqi":88,"pm10":53.7,"pm2_5":46.8,"no2":36.7,"co":439.0,"o3":50.0,"so2":8.2,"mosquito_risk":3,"arthritis_risk":5,"migraine_risk":7,"frizz_risk":1,"updated_at":"2026-06-01T01:43:05.235186+05:30"},{"city":"Aligarh","state":"Uttar Pradesh","latitude":27.8974,"longitude":78.088,"temp":24.2,"humidity":77,"rain":0.0,"pressure":985.1,"uv_index":7.45,"wind_gusts":30.2,"aqi":119,"pm10":42.1,"pm2_5":29.0,"no2":10.2,"co":307.0,"o3":102.0,"so2":6.5,"mosquito_risk":3,"arthritis_risk":5,"migraine_risk":7,"frizz_risk":1,"updated_at":"2026-06-01T01:43:05.235191+05:30"},{"city":"Moradabad","state":"Uttar Pradesh","latitude":28.8386,"longitude":78.7733,"temp":24.1,"humidity":86,"rain":0.0,"pressure":983.1,"uv_index":7.8,"wind_gusts":38.5,"aqi":102,"pm10":63.1,"pm2_5":56.0,"no2":36.4,"co":377.0,"o3":43.0,"so2":10.8,"mosquito_risk":3,"arthritis_risk":5,"migraine_risk":7,"frizz_risk":1,"updated_at":"2026-06-01T01:43:05.235198+05:30"},{"city":"Saharanpur","state":"Uttar Pradesh","latitude":29.9637,"longitude":77.546,"temp":23.2,"humidity":83,"rain":0.0,"pressure":975.2,"uv_index":7.5,"wind_gusts":34.6,"aqi":106,"pm10":78.2,"pm2_5":72.9,"no2":59.2,"co":793.0,"o3":10.0,"so2":12.8,"mosquito_risk":3,"arthritis_risk":5,"migraine_risk":7,"frizz_risk":1,"updated_at":"2026-06-01T01:43:05.235204+05:30"},{"city":"Jhansi","state":"Uttar Pradesh","latitude":25.4484,"longitude":78.5685,"temp":27.5,"humidity":60,"rain":0.0,"pressure":977.1,"uv_index":8.45,"wind_gusts":51.1,"aqi":70,"pm10":29.9,"pm2_5":21.0,"no2":11.4,"co":280.0,"o3":67.0,"so2":5.0,"mosquito_risk":4,"arthritis_risk":5,"migraine_risk":7,"frizz_risk":1,"updated_at":"2026-06-01T01:43:08.517503+05:30"},{"city":"Surat","state":"Gujarat","latitude":21.1702,"longitude":72.8311,"temp":29.8,"humidity":81,"rain":0.0,"pressure":1006.1,"uv_index":7.55,"wind_gusts":41.0,"aqi":73,"pm10":25.0,"pm2_5":17.5,"no2":15.7,"co":216.0,"o3":31.0,"so2":26.4,"mosquito_risk":7,"arthritis_risk":5,"migraine_risk":4,"frizz_risk":1,"updated_at":"2026-06-01T01:43:08.517538+05:30"},{"city":"Vadodara","state":"Gujarat","latitude":22.3072,"longitude":73.1812,"temp":30.0,"humidity":77,"rain":0.0,"pressure":1003.0,"uv_index":7.95,"wind_gusts":37.8,"aqi":68,"pm10":24.6,"pm2_5":17.5,"no2":14.0,"co":144.0,"o3":32.0,"so2":16.5,"mosquito_risk":7,"arthritis_risk":5,"migraine_risk":4,"frizz_risk":1,"updated_at":"2026-06-01T01:43:08.517549+05:30"},{"city":"Rajkot","state":"Gujarat","latitude":22.3039,"longitude":70.8022,"temp":28.9,"humidity":76,"rain":0.0,"pressure":993.1,"uv_index":7.55,"wind_gusts":43.2,"aqi":63,"pm10":24.1,"pm2_5":13.9,"no2":3.8,"co":107.0,"o3":42.0,"so2":4.4,"mosquito_risk":7,"arthritis_risk":5,"migraine_risk":7,"frizz_risk":1,"updated_at":"2026-06-01T01:43:08.517558+05:30"},{"city":"Thane","state":"Maharashtra","latitude":19.2183,"longitude":72.9781,"temp":30.1,"humidity":72,"rain":0.0,"pressure":1007.8,"uv_index":7.7,"wind_gusts":34.9,"aqi":60,"pm10":19.2,"pm2_5":11.2,"no2":4.9,"co":144.0,"o3":42.0,"so2":3.9,"mosquito_risk":3,"arthritis_risk":5,"migraine_risk":4,"frizz_risk":1,"updated_at":"2026-06-01T01:43:08.517582+05:30"},{"city":"Nagpur","state":"Maharashtra","latitude":21.1458,"longitude":79.0882,"temp":32.5,"humidity":32,"rain":0.0,"pressure":972.0,"uv_index":8.85,"wind_gusts":43.6,"aqi":82,"pm10":27.2,"pm2_5":20.2,"no2":15.1,"co":263.0,"o3":62.0,"so2":7.6,"mosquito_risk":0,"arthritis_risk":5,"migraine_risk":7,"frizz_risk":0,"updated_at":"2026-06-01T01:43:08.517590+05:30"},{"city":"Nashik","state":"Maharashtra","latitude":19.9975,"longitude":73.7898,"temp":25.1,"humidity":88,"rain":0.0,"pressure":945.7,"uv_index":8.0,"wind_gusts":40.3,"aqi":51,"pm10":14.0,"pm2_5":8.9,"no2":4.7,"co":134.0,"o3":43.0,"so2":2.3,"mosquito_risk":7,"arthritis_risk":5,"migraine_risk":7,"frizz_risk":1,"updated_at":"2026-06-01T01:43:08.517598+05:30"},{"city":"Aurangabad","state":"Maharashtra","latitude":19.8762,"longitude":75.3433,"temp":27.5,"humidity":64,"rain":0.0,"pressure":944.5,"uv_index":8.95,"wind_gusts":54.4,"aqi":60,"pm10":16.7,"pm2_5":10.9,"no2":6.3,"co":134.0,"o3":47.0,"so2":5.0,"mosquito_risk":7,"arthritis_risk":5,"migraine_risk":7,"frizz_risk":1,"updated_at":"2026-06-01T01:43:08.517607+05:30"},{"city":"Solapur","state":"Maharashtra","latitude":17.6599,"longitude":75.9064,"temp":30.7,"humidity":51,"rain":0.0,"pressure":957.4,"uv_index":8.95,"wind_gusts":35.6,"aqi":61,"pm10":34.1,"pm2_5":19.0,"no2":9.9,"co":175.0,"o3":69.0,"so2":3.6,"mosquito_risk":0,"arthritis_risk":5,"migraine_risk":7,"frizz_risk":1,"updated_at":"2026-06-01T01:43:08.517615+05:30"},{"city":"Kolhapur","state":"Maharashtra","latitude":16.705,"longitude":74.2433,"temp":25.1,"humidity":87,"rain":0.0,"pressure":948.8,"uv_index":8.75,"wind_gusts":50.8,"aqi":36,"pm10":14.8,"pm2_5":10.8,"no2":6.5,"co":150.0,"o3":44.0,"so2":2.8,"mosquito_risk":7,"arthritis_risk":5,"migraine_risk":7,"frizz_risk":1,"updated_at":"2026-06-01T01:43:08.517622+05:30"},{"city":"Goa","state":"Goa","latitude":15.2993,"longitude":74.124,"temp":27.8,"humidity":90,"rain":0.0,"pressure":998.6,"uv_index":8.5,"wind_gusts":28.8,"aqi":50,"pm10":24.0,"pm2_5":18.2,"no2":7.2,"co":452.0,"o3":45.0,"so2":2.2,"mosquito_risk":7,"arthritis_risk":5,"migraine_risk":7,"frizz_risk":1,"updated_at":"2026-06-01T01:43:08.517629+05:30"},{"city":"Jodhpur","state":"Rajasthan","latitude":26.2389,"longitude":73.0243,"temp":30.6,"humidity":60,"rain":0.0,"pressure":980.9,"uv_index":8.15,"wind_gusts":35.3,"aqi":104,"pm10":203.0,"pm2_5":46.4,"no2":18.8,"co":169.0,"o3":36.0,"so2":4.6,"mosquito_risk":0,"arthritis_risk":5,"migraine_risk":7,"frizz_risk":1,"updated_at":"2026-06-01T01:43:08.517637+05:30"},{"city":"Udaipur","state":"Rajasthan","latitude":24.5854,"longitude":73.7125,"temp":27.2,"humidity":69,"rain":0.0,"pressure":945.3,"uv_index":8.8,"wind_gusts":38.9,"aqi":71,"pm10":76.4,"pm2_5":24.3,"no2":5.4,"co":158.0,"o3":58.0,"so2":2.8,"mosquito_risk":7,"arthritis_risk":5,"migraine_risk":7,"frizz_risk":1,"updated_at":"2026-06-01T01:43:08.517644+05:30"},{"city":"Kota","state":"Rajasthan","latitude":25.2138,"longitude":75.8648,"temp":27.6,"humidity":72,"rain":0.0,"pressure":977.6,"uv_index":8.35,"wind_gusts":49.0,"aqi":69,"pm10":76.4,"pm2_5":42.8,"no2":16.1,"co":453.0,"o3":45.0,"so2":8.1,"mosquito_risk":7,"arthritis_risk":5,"migraine_risk":7,"frizz_risk":1,"updated_at":"2026-06-01T01:43:08.517652+05:30"},{"city":"Bikaner","state":"Rajasthan","latitude":28.0229,"longitude":73.3119,"temp":29.0,"humidity":50,"rain":0.0,"pressure":980.2,"uv_index":8.15,"wind_gusts":28.8,"aqi":87,"pm10":132.7,"pm2_5":44.0,"no2":8.9,"co":213.0,"o3":36.0,"so2":4.2,"mosquito_risk":4,"arthritis_risk":5,"migraine_risk":7,"frizz_risk":1,"updated_at":"2026-06-01T01:43:08.517659+05:30"},{"city":"Ajmer","state":"Rajasthan","latitude":26.4499,"longitude":74.6399,"temp":28.2,"humidity":63,"rain":0.0,"pressure":953.3,"uv_index":8.3,"wind_gusts":72.4,"aqi":69,"pm10":123.4,"pm2_5":45.1,"no2":18.6,"co":293.0,"o3":44.0,"so2":6.1,"mosquito_risk":7,"arthritis_risk":5,"migraine_risk":7,"frizz_risk":1,"updated_at":"2026-06-01T01:43:08.517666+05:30"},{"city":"Gwalior","state":"Madhya Pradesh","latitude":26.2183,"longitude":78.1828,"temp":26.5,"humidity":71,"rain":0.0,"pressure":982.9,"uv_index":8.2,"wind_gusts":46.4,"aqi":87,"pm10":60.8,"pm2_5":31.1,"no2":13.2,"co":268.0,"o3":62.0,"so2":5.9,"mosquito_risk":7,"arthritis_risk":5,"migraine_risk":7,"frizz_risk":1,"updated_at":"2026-06-01T01:43:08.517673+05:30"},{"city":"Indore","state":"Madhya Pradesh","latitude":22.7196,"longitude":75.8577,"temp":29.4,"humidity":47,"rain":0.0,"pressure":947.7,"uv_index":8.6,"wind_gusts":43.6,"aqi":71,"pm10":67.5,"pm2_5":42.7,"no2":17.4,"co":236.0,"o3":49.0,"so2":9.4,"mosquito_risk":4,"arthritis_risk":5,"migraine_risk":7,"frizz_risk":1,"updated_at":"2026-06-01T01:43:08.517680+05:30"},{"city":"Bhopal","state":"Madhya Pradesh","latitude":23.2599,"longitude":77.4126,"temp":28.2,"humidity":47,"rain":0.0,"pressure":952.7,"uv_index":8.65,"wind_gusts":61.2,"aqi":53,"pm10":35.3,"pm2_5":21.5,"no2":6.7,"co":369.0,"o3":70.0,"so2":4.2,"mosquito_risk":4,"arthritis_risk":5,"migraine_risk":7,"frizz_risk":0,"updated_at":"2026-06-01T01:43:08.517687+05:30"},{"city":"Jabalpur","state":"Madhya Pradesh","latitude":23.1815,"longitude":79.9864,"temp":28.4,"humidity":51,"rain":0.0,"pressure":960.8,"uv_index":8.85,"wind_gusts":39.6,"aqi":78,"pm10":57.3,"pm2_5":40.9,"no2":28.8,"co":271.0,"o3":35.0,"so2":5.7,"mosquito_risk":4,"arthritis_risk":5,"migraine_risk":7,"frizz_risk":1,"updated_at":"2026-06-01T01:43:08.517694+05:30"},{"city":"Ujjain","state":"Madhya Pradesh","latitude":23.1765,"longitude":75.7885,"temp":28.2,"humidity":52,"rain":0.0,"pressure":952.9,"uv_index":8.55,"wind_gusts":38.9,"aqi":70,"pm10":60.1,"pm2_5":31.8,"no2":6.3,"co":238.0,"o3":59.0,"so2":5.1,"mosquito_risk":4,"arthritis_risk":5,"migraine_risk":7,"frizz_risk":1,"updated_at":"2026-06-01T01:43:08.517702+05:30"},{"city":"Visakhapatnam","state":"Andhra Pradesh","latitude":17.6868,"longitude":83.2185,"temp":29.5,"humidity":89,"rain":0.0,"pressure":1002.0,"uv_index":9.0,"wind_gusts":37.4,"aqi":120,"pm10":42.3,"pm2_5":34.6,"no2":23.0,"co":324.0,"o3":82.0,"so2":35.1,"mosquito_risk":7,"arthritis_risk":5,"migraine_risk":4,"frizz_risk":1,"updated_at":"2026-06-01T01:43:08.517709+05:30"},{"city":"Vijayawada","state":"Andhra Pradesh","latitude":16.5062,"longitude":80.648,"temp":30.8,"humidity":70,"rain":0.0,"pressure":1000.3,"uv_index":9.0,"wind_gusts":28.1,"aqi":95,"pm10":30.6,"pm2_5":26.7,"no2":8.0,"co":314.0,"o3":92.0,"so2":4.8,"mosquito_risk":3,"arthritis_risk":5,"migraine_risk":4,"frizz_risk":1,"updated_at":"2026-06-01T01:43:08.517716+05:30"},{"city":"Guntur","state":"Andhra Pradesh","latitude":16.3067,"longitude":80.4365,"temp":30.1,"humidity":75,"rain":0.0,"pressure":1001.7,"uv_index":9.05,"wind_gusts":30.6,"aqi":89,"pm10":27.6,"pm2_5":23.4,"no2":8.6,"co":300.0,"o3":84.0,"so2":4.6,"mosquito_risk":3,"arthritis_risk":5,"migraine_risk":4,"frizz_risk":1,"updated_at":"2026-06-01T01:43:08.517724+05:30"},{"city":"Nellore","state":"Andhra Pradesh","latitude":14.4426,"longitude":79.9865,"temp":30.4,"humidity":71,"rain":0.0,"pressure":1004.4,"uv_index":8.7,"wind_gusts":38.2,"aqi":84,"pm10":27.9,"pm2_5":24.0,"no2":7.0,"co":292.0,"o3":93.0,"so2":6.0,"mosquito_risk":3,"arthritis_risk":5,"migraine_risk":4,"frizz_risk":1,"updated_at":"2026-06-01T01:43:08.517732+05:30"},{"city":"Kurnool","state":"Andhra Pradesh","latitude":15.8281,"longitude":78.0373,"temp":29.2,"humidity":51,"rain":0.0,"pressure":975.7,"uv_index":8.9,"wind_gusts":40.3,"aqi":72,"pm10":32.4,"pm2_5":20.7,"no2":16.2,"co":156.0,"o3":60.0,"so2":6.0,"mosquito_risk":4,"arthritis_risk":5,"migraine_risk":7,"frizz_risk":1,"updated_at":"2026-06-01T01:43:08.517740+05:30"},{"city":"Kakinada","state":"Andhra Pradesh","latitude":16.9891,"longitude":82.2475,"temp":29.8,"humidity":80,"rain":0.0,"pressure":1005.6,"uv_index":9.0,"wind_gusts":28.1,"aqi":91,"pm10":36.8,"pm2_5":28.9,"no2":3.2,"co":271.0,"o3":116.0,"so2":3.2,"mosquito_risk":7,"arthritis_risk":5,"migraine_risk":4,"frizz_risk":1,"updated_at":"2026-06-01T01:43:08.517748+05:30"},{"city":"Tirupati","state":"Andhra Pradesh","latitude":13.6288,"longitude":79.4192,"temp":28.0,"humidity":70,"rain":0.0,"pressure":990.6,"uv_index":9.0,"wind_gusts":25.9,"aqi":71,"pm10":21.0,"pm2_5":17.9,"no2":13.8,"co":200.0,"o3":53.0,"so2":2.4,"mosquito_risk":7,"arthritis_risk":5,"migraine_risk":7,"frizz_risk":1,"updated_at":"2026-06-01T01:43:08.517755+05:30"},{"city":"Warangal","state":"Telangana","latitude":17.9689,"longitude":79.5941,"temp":29.4,"humidity":52,"rain":0.0,"pressure":976.7,"uv_index":9.05,"wind_gusts":28.4,"aqi":107,"pm10":103.1,"pm2_5":77.3,"no2":46.9,"co":538.0,"o3":10.0,"so2":9.0,"mosquito_risk":4,"arthritis_risk":5,"migraine_risk":7,"frizz_risk":1,"updated_at":"2026-06-01T01:43:08.517763+05:30"},{"city":"Nizamabad","state":"Telangana","latitude":18.6725,"longitude":78.0941,"temp":29.0,"humidity":50,"rain":0.0,"pressure":963.3,"uv_index":9.0,"wind_gusts":31.0,"aqi":87,"pm10":44.2,"pm2_5":23.1,"no2":6.5,"co":249.0,"o3":78.0,"so2":2.8,"mosquito_risk":4,"arthritis_risk":5,"migraine_risk":7,"frizz_risk":1,"updated_at":"2026-06-01T01:43:08.517770+05:30"},{"city":"Mysore","state":"Karnataka","latitude":12.2958,"longitude":76.6396,"temp":23.6,"humidity":88,"rain":0.0,"pressure":929.9,"uv_index":8.2,"wind_gusts":44.3,"aqi":48,"pm10":9.6,"pm2_5":8.6,"no2":7.4,"co":168.0,"o3":61.0,"so2":1.8,"mosquito_risk":3,"arthritis_risk":5,"migraine_risk":7,"frizz_risk":1,"updated_at":"2026-06-01T01:43:08.517777+05:30"},{"city":"Mangalore","state":"Karnataka","latitude":12.9141,"longitude":74.856,"temp":27.2,"humidity":88,"rain":0.0,"pressure":1007.9,"uv_index":6.9,"wind_gusts":33.5,"aqi":51,"pm10":14.4,"pm2_5":11.0,"no2":7.0,"co":214.0,"o3":54.0,"so2":2.5,"mosquito_risk":7,"arthritis_risk":5,"migraine_risk":4,"frizz_risk":1,"updated_at":"2026-06-01T01:43:08.517784+05:30"},{"city":"Hubli-Dharwad","state":"Karnataka","latitude":15.3647,"longitude":75.124,"temp":24.6,"humidity":90,"rain":0.0,"pressure":941.6,"uv_index":8.95,"wind_gusts":41.8,"aqi":28,"pm10":8.8,"pm2_5":6.8,"no2":4.5,"co":152.0,"o3":40.0,"so2":1.6,"mosquito_risk":3,"arthritis_risk":5,"migraine_risk":7,"frizz_risk":1,"updated_at":"2026-06-01T01:43:08.517791+05:30"},{"city":"Belgaum","state":"Karnataka","latitude":15.8497,"longitude":74.4977,"temp":23.0,"humidity":94,"rain":0.0,"pressure":926.3,"uv_index":8.95,"wind_gusts":44.3,"aqi":33,"pm10":15.7,"pm2_5":11.9,"no2":7.7,"co":146.0,"o3":35.0,"so2":1.4,"mosquito_risk":3,"arthritis_risk":5,"migraine_risk":7,"frizz_risk":1,"updated_at":"2026-06-01T01:43:11.798926+05:30"},{"city":"Coimbatore","state":"Tamil Nadu","latitude":11.0168,"longitude":76.9558,"temp":25.6,"humidity":83,"rain":0.0,"pressure":962.8,"uv_index":7.15,"wind_gusts":48.2,"aqi":33,"pm10":3.7,"pm2_5":3.0,"no2":4.1,"co":183.0,"o3":62.0,"so2":2.4,"mosquito_risk":7,"arthritis_risk":5,"migraine_risk":7,"frizz_risk":1,"updated_at":"2026-06-01T01:43:11.798962+05:30"},{"city":"Madurai","state":"Tamil Nadu","latitude":9.9252,"longitude":78.1198,"temp":30.3,"humidity":65,"rain":0.0,"pressure":993.3,"uv_index":8.5,"wind_gusts":30.6,"aqi":74,"pm10":33.9,"pm2_5":27.7,"no2":28.3,"co":231.0,"o3":19.0,"so2":5.2,"mosquito_risk":3,"arthritis_risk":5,"migraine_risk":7,"frizz_risk":1,"updated_at":"2026-06-01T01:43:11.798974+05:30"},{"city":"Trichy","state":"Tamil Nadu","latitude":10.7905,"longitude":78.7047,"temp":29.3,"humidity":68,"rain":0.0,"pressure":1000.1,"uv_index":7.8,"wind_gusts":37.1,"aqi":51,"pm10":19.1,"pm2_5":14.4,"no2":10.4,"co":178.0,"o3":55.0,"so2":3.9,"mosquito_risk":7,"arthritis_risk":5,"migraine_risk":4,"frizz_risk":1,"updated_at":"2026-06-01T01:43:11.798983+05:30"},{"city":"Salem","state":"Tamil Nadu","latitude":11.6643,"longitude":78.146,"temp":27.4,"humidity":74,"rain":0.0,"pressure":978.3,"uv_index":8.7,"wind_gusts":36.4,"aqi":71,"pm10":21.8,"pm2_5":18.3,"no2":15.6,"co":197.0,"o3":53.0,"so2":6.8,"mosquito_risk":7,"arthritis_risk":5,"migraine_risk":7,"frizz_risk":1,"updated_at":"2026-06-01T01:43:11.798991+05:30"},{"city":"Tirunelveli","state":"Tamil Nadu","latitude":8.7139,"longitude":77.7567,"temp":28.7,"humidity":70,"rain":0.0,"pressure":1003.7,"uv_index":8.65,"wind_gusts":38.5,"aqi":27,"pm10":9.9,"pm2_5":7.7,"no2":5.7,"co":163.0,"o3":44.0,"so2":1.7,"mosquito_risk":7,"arthritis_risk":5,"migraine_risk":4,"frizz_risk":1,"updated_at":"2026-06-01T01:43:11.798999+05:30"},{"city":"Vellore","state":"Tamil Nadu","latitude":12.9165,"longitude":79.1325,"temp":27.9,"humidity":71,"rain":0.0,"pressure":984.2,"uv_index":5.85,"wind_gusts":29.5,"aqi":90,"pm10":32.9,"pm2_5":28.2,"no2":16.3,"co":231.0,"o3":47.0,"so2":4.8,"mosquito_risk":7,"arthritis_risk":5,"migraine_risk":3,"frizz_risk":1,"updated_at":"2026-06-01T01:43:11.799006+05:30"},{"city":"Erode","state":"Tamil Nadu","latitude":11.341,"longitude":77.7172,"temp":28.5,"humidity":70,"rain":0.0,"pressure":989.8,"uv_index":3.8,"wind_gusts":46.1,"aqi":50,"pm10":10.8,"pm2_5":9.7,"no2":11.4,"co":233.0,"o3":44.0,"so2":3.2,"mosquito_risk":7,"arthritis_risk":5,"migraine_risk":3,"frizz_risk":1,"updated_at":"2026-06-01T01:43:11.799013+05:30"},{"city":"Kochi","state":"Kerala","latitude":9.9312,"longitude":76.2673,"temp":26.6,"humidity":92,"rain":0.1,"pressure":1010.3,"uv_index":8.1,"wind_gusts":31.0,"aqi":56,"pm10":16.6,"pm2_5":14.1,"no2":15.2,"co":211.0,"o3":24.0,"so2":4.4,"mosquito_risk":10,"arthritis_risk":0,"migraine_risk":4,"frizz_risk":1,"updated_at":"2026-06-01T01:43:11.799020+05:30"},{"city":"Thiruvananthapuram","state":"Kerala","latitude":8.5241,"longitude":76.9366,"temp":24.9,"humidity":99,"rain":0.0,"pressure":1009.7,"uv_index":6.9,"wind_gusts":35.3,"aqi":28,"pm10":11.9,"pm2_5":7.9,"no2":4.3,"co":212.0,"o3":53.0,"so2":2.1,"mosquito_risk":3,"arthritis_risk":0,"migraine_risk":4,"frizz_risk":1,"updated_at":"2026-06-01T01:43:11.799027+05:30"},{"city":"Kozhikode","state":"Kerala","latitude":11.2588,"longitude":75.7804,"temp":25.6,"humidity":99,"rain":0.2,"pressure":1009.2,"uv_index":6.8,"wind_gusts":28.8,"aqi":32,"pm10":8.0,"pm2_5":4.5,"no2":1.7,"co":338.0,"o3":69.0,"so2":1.1,"mosquito_risk":10,"arthritis_risk":0,"migraine_risk":4,"frizz_risk":1,"updated_at":"2026-06-01T01:43:11.799034+05:30"},{"city":"Thrissur","state":"Kerala","latitude":10.5276,"longitude":76.2144,"temp":24.9,"humidity":96,"rain":0.0,"pressure":1008.6,"uv_index":8.05,"wind_gusts":27.7,"aqi":51,"pm10":13.0,"pm2_5":11.3,"no2":12.0,"co":212.0,"o3":32.0,"so2":4.1,"mosquito_risk":3,"arthritis_risk":0,"migraine_risk":4,"frizz_risk":1,"updated_at":"2026-06-01T01:43:11.799043+05:30"},{"city":"Kannur","state":"Kerala","latitude":11.8745,"longitude":75.3704,"temp":26.9,"humidity":86,"rain":0.0,"pressure":1008.3,"uv_index":5.95,"wind_gusts":25.2,"aqi":39,"pm10":9.6,"pm2_5":7.1,"no2":4.6,"co":202.0,"o3":52.0,"so2":1.6,"mosquito_risk":7,"arthritis_risk":0,"migraine_risk":0,"frizz_risk":1,"updated_at":"2026-06-01T01:43:11.799050+05:30"},{"city":"Patna","state":"Bihar","latitude":25.5941,"longitude":85.1376,"temp":28.1,"humidity":85,"rain":0.0,"pressure":999.6,"uv_index":8.9,"wind_gusts":15.1,"aqi":156,"pm10":121.1,"pm2_5":104.1,"no2":37.0,"co":718.0,"o3":72.0,"so2":24.3,"mosquito_risk":7,"arthritis_risk":5,"migraine_risk":7,"frizz_risk":1,"updated_at":"2026-06-01T01:43:11.799057+05:30"},{"city":"Gaya","state":"Bihar","latitude":24.7914,"longitude":85.0002,"temp":26.0,"humidity":80,"rain":0.0,"pressure":993.1,"uv_index":8.7,"wind_gusts":21.2,"aqi":135,"pm10":74.7,"pm2_5":67.8,"no2":36.0,"co":440.0,"o3":31.0,"so2":12.0,"mosquito_risk":7,"arthritis_risk":5,"migraine_risk":7,"frizz_risk":1,"updated_at":"2026-06-01T01:43:11.799064+05:30"},{"city":"Muzaffarpur","state":"Bihar","latitude":26.1209,"longitude":85.3647,"temp":27.0,"humidity":81,"rain":0.0,"pressure":999.7,"uv_index":8.65,"wind_gusts":18.7,"aqi":158,"pm10":140.2,"pm2_5":123.4,"no2":53.2,"co":900.0,"o3":51.0,"so2":26.1,"mosquito_risk":7,"arthritis_risk":5,"migraine_risk":7,"frizz_risk":1,"updated_at":"2026-06-01T01:43:11.799071+05:30"},{"city":"Bhagalpur","state":"Bihar","latitude":25.2425,"longitude":87.0117,"temp":27.8,"humidity":83,"rain":0.0,"pressure":1000.4,"uv_index":8.8,"wind_gusts":13.7,"aqi":157,"pm10":78.9,"pm2_5":68.0,"no2":24.6,"co":377.0,"o3":76.0,"so2":15.1,"mosquito_risk":7,"arthritis_risk":5,"migraine_risk":4,"frizz_risk":1,"updated_at":"2026-06-01T01:43:11.799078+05:30"},{"city":"Ranchi","state":"Jharkhand","latitude":23.3441,"longitude":85.3096,"temp":23.4,"humidity":83,"rain":0.0,"pressure":936.9,"uv_index":9.25,"wind_gusts":40.0,"aqi":116,"pm10":69.2,"pm2_5":55.2,"no2":27.1,"co":429.0,"o3":65.0,"so2":5.8,"mosquito_risk":3,"arthritis_risk":5,"migraine_risk":7,"frizz_risk":1,"updated_at":"2026-06-01T01:43:11.799085+05:30"},{"city":"Jamshedpur","state":"Jharkhand","latitude":22.8046,"longitude":86.2029,"temp":26.0,"humidity":97,"rain":0.0,"pressure":990.3,"uv_index":9.05,"wind_gusts":19.1,"aqi":144,"pm10":112.0,"pm2_5":100.8,"no2":48.9,"co":734.0,"o3":40.0,"so2":26.6,"mosquito_risk":7,"arthritis_risk":5,"migraine_risk":7,"frizz_risk":1,"updated_at":"2026-06-01T01:43:11.799092+05:30"},{"city":"Dhanbad","state":"Jharkhand","latitude":23.7957,"longitude":86.4304,"temp":26.0,"humidity":90,"rain":0.0,"pressure":979.4,"uv_index":9.05,"wind_gusts":18.4,"aqi":165,"pm10":184.9,"pm2_5":170.4,"no2":64.0,"co":1103.0,"o3":47.0,"so2":209.8,"mosquito_risk":7,"arthritis_risk":5,"migraine_risk":7,"frizz_risk":1,"updated_at":"2026-06-01T01:43:11.799098+05:30"},{"city":"Bokaro","state":"Jharkhand","latitude":23.6693,"longitude":86.1511,"temp":25.2,"humidity":95,"rain":0.0,"pressure":983.0,"uv_index":9.05,"wind_gusts":20.9,"aqi":171,"pm10":196.5,"pm2_5":181.1,"no2":62.3,"co":849.0,"o3":61.0,"so2":220.6,"mosquito_risk":7,"arthritis_risk":5,"migraine_risk":7,"frizz_risk":1,"updated_at":"2026-06-01T01:43:11.799105+05:30"},{"city":"Bhubaneswar","state":"Odisha","latitude":20.2961,"longitude":85.8245,"temp":27.7,"humidity":91,"rain":0.0,"pressure":1001.4,"uv_index":9.05,"wind_gusts":33.5,"aqi":116,"pm10":48.0,"pm2_5":44.7,"no2":13.0,"co":325.0,"o3":72.0,"so2":8.2,"mosquito_risk":7,"arthritis_risk":5,"migraine_risk":4,"frizz_risk":1,"updated_at":"2026-06-01T01:43:11.799112+05:30"},{"city":"Cuttack","state":"Odisha","latitude":20.4625,"longitude":85.8828,"temp":27.8,"humidity":94,"rain":0.0,"pressure":1003.2,"uv_index":9.1,"wind_gusts":27.0,"aqi":116,"pm10":48.0,"pm2_5":44.7,"no2":13.0,"co":358.0,"o3":72.0,"so2":8.2,"mosquito_risk":7,"arthritis_risk":5,"migraine_risk":4,"frizz_risk":1,"updated_at":"2026-06-01T01:43:11.799118+05:30"},{"city":"Rourkela","state":"Odisha","latitude":22.2604,"longitude":84.8536,"temp":27.4,"humidity":73,"rain":0.0,"pressure":984.2,"uv_index":9.0,"wind_gusts":38.5,"aqi":120,"pm10":62.6,"pm2_5":53.8,"no2":24.5,"co":480.0,"o3":55.0,"so2":17.7,"mosquito_risk":7,"arthritis_risk":5,"migraine_risk":7,"frizz_risk":1,"updated_at":"2026-06-01T01:43:11.799125+05:30"},{"city":"Raipur","state":"Chhattisgarh","latitude":21.2514,"longitude":81.6296,"temp":30.0,"humidity":53,"rain":0.0,"pressure":973.6,"uv_index":7.7,"wind_gusts":29.2,"aqi":126,"pm10":44.7,"pm2_5":34.0,"no2":23.4,"co":353.0,"o3":76.0,"so2":26.2,"mosquito_risk":4,"arthritis_risk":5,"migraine_risk":7,"frizz_risk":1,"updated_at":"2026-06-01T01:43:11.799132+05:30"},{"city":"Bhilai","state":"Chhattisgarh","latitude":21.1938,"longitude":81.3509,"temp":29.9,"humidity":54,"rain":0.0,"pressure":974.2,"uv_index":8.6,"wind_gusts":31.3,"aqi":139,"pm10":52.9,"pm2_5":42.4,"no2":39.7,"co":332.0,"o3":52.0,"so2":48.9,"mosquito_risk":4,"arthritis_risk":5,"migraine_risk":7,"frizz_risk":1,"updated_at":"2026-06-01T01:43:11.799138+05:30"},{"city":"Guwahati","state":"Assam","latitude":26.1158,"longitude":91.7086,"temp":26.0,"humidity":96,"rain":0.0,"pressure":1001.0,"uv_index":8.35,"wind_gusts":23.0,"aqi":69,"pm10":28.2,"pm2_5":24.3,"no2":14.9,"co":373.0,"o3":18.0,"so2":1.3,"mosquito_risk":7,"arthritis_risk":5,"migraine_risk":4,"frizz_risk":1,"updated_at":"2026-06-01T01:43:11.799145+05:30"},{"city":"Agartala","state":"Tripura","latitude":23.8315,"longitude":91.2868,"temp":26.4,"humidity":89,"rain":0.0,"pressure":1005.3,"uv_index":8.9,"wind_gusts":19.4,"aqi":151,"pm10":72.4,"pm2_5":66.1,"no2":28.7,"co":637.0,"o3":52.0,"so2":8.7,"mosquito_risk":7,"arthritis_risk":5,"migraine_risk":4,"frizz_risk":1,"updated_at":"2026-06-01T01:43:11.799151+05:30"},{"city":"Shillong","state":"Meghalaya","latitude":25.5788,"longitude":91.8933,"temp":18.5,"humidity":93,"rain":0.0,"pressure":857.1,"uv_index":6.8,"wind_gusts":23.4,"aqi":60,"pm10":7.9,"pm2_5":5.6,"no2":6.6,"co":236.0,"o3":52.0,"so2":0.7,"mosquito_risk":3,"arthritis_risk":10,"migraine_risk":7,"frizz_risk":1,"updated_at":"2026-06-01T01:43:11.799158+05:30"},{"city":"Imphal","state":"Manipur","latitude":24.817,"longitude":93.9368,"temp":22.0,"humidity":98,"rain":0.0,"pressure":923.1,"uv_index":9.3,"wind_gusts":21.6,"aqi":49,"pm10":12.9,"pm2_5":12.6,"no2":15.6,"co":547.0,"o3":19.0,"so2":3.0,"mosquito_risk":3,"arthritis_risk":5,"migraine_risk":7,"frizz_risk":1,"updated_at":"2026-06-01T01:43:11.799165+05:30"},{"city":"Aizawl","state":"Mizoram","latitude":23.7271,"longitude":92.7176,"temp":19.6,"humidity":98,"rain":0.0,"pressure":891.9,"uv_index":8.4,"wind_gusts":22.0,"aqi":32,"pm10":8.9,"pm2_5":6.0,"no2":3.3,"co":193.0,"o3":45.0,"so2":0.6,"mosquito_risk":3,"arthritis_risk":10,"migraine_risk":7,"frizz_risk":1,"updated_at":"2026-06-01T01:43:11.799171+05:30"},{"city":"Kohima","state":"Nagaland","latitude":25.6701,"longitude":94.1077,"temp":18.6,"humidity":97,"rain":0.1,"pressure":855.2,"uv_index":8.6,"wind_gusts":20.5,"aqi":40,"pm10":4.6,"pm2_5":4.3,"no2":6.2,"co":227.0,"o3":29.0,"so2":0.6,"mosquito_risk":6,"arthritis_risk":10,"migraine_risk":7,"frizz_risk":1,"updated_at":"2026-06-01T01:43:11.799178+05:30"},{"city":"Gangtok","state":"Sikkim","latitude":27.3314,"longitude":88.6138,"temp":14.3,"humidity":92,"rain":0.0,"pressure":836.9,"uv_index":9.25,"wind_gusts":37.8,"aqi":64,"pm10":23.3,"pm2_5":16.8,"no2":8.6,"co":429.0,"o3":97.0,"so2":1.6,"mosquito_risk":3,"arthritis_risk":10,"migraine_risk":7,"frizz_risk":0,"updated_at":"2026-06-01T01:43:11.799184+05:30"},{"city":"Siliguri","state":"West Bengal","latitude":26.7271,"longitude":88.3953,"temp":26.7,"humidity":79,"rain":0.0,"pressure":992.5,"uv_index":8.7,"wind_gusts":27.0,"aqi":129,"pm10":84.1,"pm2_5":63.1,"no2":25.4,"co":679.0,"o3":85.0,"so2":8.0,"mosquito_risk":7,"arthritis_risk":5,"migraine_risk":7,"frizz_risk":1,"updated_at":"2026-06-01T01:43:15.144180+05:30"},{"city":"Durgapur","state":"West Bengal","latitude":23.5204,"longitude":87.3119,"temp":26.9,"humidity":92,"rain":0.0,"pressure":994.4,"uv_index":8.95,"wind_gusts":19.1,"aqi":164,"pm10":150.4,"pm2_5":141.6,"no2":53.3,"co":705.0,"o3":41.0,"so2":40.4,"mosquito_risk":7,"arthritis_risk":5,"migraine_risk":7,"frizz_risk":1,"updated_at":"2026-06-01T01:43:15.144217+05:30"},{"city":"Asansol","state":"West Bengal","latitude":23.6739,"longitude":86.9524,"temp":26.1,"humidity":92,"rain":0.0,"pressure":993.1,"uv_index":9.0,"wind_gusts":20.5,"aqi":157,"pm10":134.1,"pm2_5":122.9,"no2":53.6,"co":929.0,"o3":48.0,"so2":38.9,"mosquito_risk":7,"arthritis_risk":5,"migraine_risk":7,"frizz_risk":1,"updated_at":"2026-06-01T01:43:15.144228+05:30"},{"city":"Pondicherry","state":"Puducherry","latitude":11.9139,"longitude":79.8145,"temp":29.0,"humidity":77,"rain":0.0,"pressure":1008.2,"uv_index":6.0,"wind_gusts":38.5,"aqi":66,"pm10":11.3,"pm2_5":8.5,"no2":11.3,"co":176.0,"o3":48.0,"so2":10.3,"mosquito_risk":7,"arthritis_risk":0,"migraine_risk":0,"frizz_risk":1,"updated_at":"2026-06-01T01:43:15.144238+05:30"},{"city":"Port Blair","state":"Andaman and Nicobar Islands","latitude":11.6234,"longitude":92.7265,"temp":26.0,"humidity":91,"rain":0.0,"pressure":1006.4,"uv_index":7.25,"wind_gusts":36.7,"aqi":37,"pm10":13.2,"pm2_5":6.7,"no2":0.2,"co":114.0,"o3":84.0,"so2":0.4,"mosquito_risk":7,"arthritis_risk":5,"migraine_risk":4,"frizz_risk":1,"updated_at":"2026-06-01T01:43:15.144247+05:30"},{"city":"Haridwar","state":"Uttarakhand","latitude":29.9457,"longitude":78.1642,"temp":23.5,"humidity":85,"rain":0.0,"pressure":973.4,"uv_index":7.55,"wind_gusts":28.1,"aqi":82,"pm10":48.9,"pm2_5":44.5,"no2":40.0,"co":339.0,"o3":25.0,"so2":7.1,"mosquito_risk":3,"arthritis_risk":5,"migraine_risk":7,"frizz_risk":1,"updated_at":"2026-06-01T01:43:15.144255+05:30"},{"city":"Rishikesh","state":"Uttarakhand","latitude":30.0869,"longitude":78.2676,"temp":22.0,"humidity":90,"rain":0.0,"pressure":966.0,"uv_index":7.65,"wind_gusts":24.1,"aqi":59,"pm10":18.6,"pm2_5":14.3,"no2":10.6,"co":424.0,"o3":94.0,"so2":2.4,"mosquito_risk":3,"arthritis_risk":5,"migraine_risk":7,"frizz_risk":1,"updated_at":"2026-06-01T01:43:15.144262+05:30"},{"city":"Nainital","state":"Uttarakhand","latitude":29.3919,"longitude":79.4542,"temp":10.9,"humidity":96,"rain":0.0,"pressure":802.7,"uv_index":6.6,"wind_gusts":45.7,"aqi":60,"pm10":33.5,"pm2_5":26.7,"no2":22.4,"co":290.0,"o3":51.0,"so2":1.7,"mosquito_risk":3,"arthritis_risk":10,"migraine_risk":7,"frizz_risk":0,"updated_at":"2026-06-01T01:43:15.144270+05:30"},{"city":"Mussoorie","state":"Uttarakhand","latitude":30.4599,"longitude":78.0664,"temp":13.2,"humidity":79,"rain":0.0,"pressure":801.3,"uv_index":8.05,"wind_gusts":43.9,"aqi":62,"pm10":26.0,"pm2_5":23.5,"no2":36.7,"co":313.0,"o3":33.0,"so2":5.7,"mosquito_risk":3,"arthritis_risk":5,"migraine_risk":7,"frizz_risk":0,"updated_at":"2026-06-01T01:43:15.144278+05:30"},{"city":"Dharamshala","state":"Himachal Pradesh","latitude":32.219,"longitude":76.3234,"temp":19.0,"humidity":67,"rain":0.0,"pressure":868.9,"uv_index":8.15,"wind_gusts":37.8,"aqi":47,"pm10":16.8,"pm2_5":13.5,"no2":15.8,"co":204.0,"o3":28.0,"so2":0.0,"mosquito_risk":3,"arthritis_risk":5,"migraine_risk":7,"frizz_risk":0,"updated_at":"2026-06-01T01:43:15.144286+05:30"},{"city":"Dalhousie","state":"Himachal Pradesh","latitude":32.5387,"longitude":75.971,"temp":12.2,"humidity":92,"rain":0.0,"pressure":802.9,"uv_index":8.7,"wind_gusts":33.5,"aqi":73,"pm10":47.3,"pm2_5":31.4,"no2":31.5,"co":341.0,"o3":45.0,"so2":2.0,"mosquito_risk":3,"arthritis_risk":10,"migraine_risk":7,"frizz_risk":0,"updated_at":"2026-06-01T01:43:15.144293+05:30"},{"city":"Patiala","state":"Punjab","latitude":30.3398,"longitude":76.3869,"temp":24.2,"humidity":69,"rain":0.0,"pressure":977.8,"uv_index":7.6,"wind_gusts":33.8,"aqi":296,"pm10":119.7,"pm2_5":44.9,"no2":12.8,"co":485.0,"o3":79.0,"so2":6.9,"mosquito_risk":3,"arthritis_risk":5,"migraine_risk":7,"frizz_risk":1,"updated_at":"2026-06-01T01:43:15.144301+05:30"},{"city":"Bhatinda","state":"Punjab","latitude":30.211,"longitude":74.9455,"temp":25.6,"humidity":69,"rain":0.0,"pressure":983.4,"uv_index":8.3,"wind_gusts":31.3,"aqi":542,"pm10":413.5,"pm2_5":102.9,"no2":11.0,"co":318.0,"o3":90.0,"so2":7.4,"mosquito_risk":7,"arthritis_risk":5,"migraine_risk":7,"frizz_risk":1,"updated_at":"2026-06-01T01:43:15.144308+05:30"},{"city":"Rohtak","state":"Haryana","latitude":28.8955,"longitude":76.6066,"temp":24.6,"humidity":72,"rain":0.0,"pressure":981.4,"uv_index":7.35,"wind_gusts":25.6,"aqi":422,"pm10":232.8,"pm2_5":60.8,"no2":22.1,"co":430.0,"o3":78.0,"so2":20.5,"mosquito_risk":3,"arthritis_risk":5,"migraine_risk":7,"frizz_risk":1,"updated_at":"2026-06-01T01:43:15.144315+05:30"},{"city":"Panipat","state":"Haryana","latitude":29.3909,"longitude":76.9635,"temp":24.1,"humidity":82,"rain":0.0,"pressure":980.0,"uv_index":7.2,"wind_gusts":29.9,"aqi":451,"pm10":292.4,"pm2_5":76.4,"no2":16.6,"co":469.0,"o3":75.0,"so2":7.1,"mosquito_risk":3,"arthritis_risk":5,"migraine_risk":7,"frizz_risk":1,"updated_at":"2026-06-01T01:43:15.144322+05:30"},{"city":"Mathura","state":"Uttar Pradesh","latitude":27.4924,"longitude":77.6737,"temp":24.8,"humidity":84,"rain":0.0,"pressure":986.3,"uv_index":8.0,"wind_gusts":23.8,"aqi":211,"pm10":696.6,"pm2_5":89.4,"no2":8.5,"co":321.0,"o3":107.0,"so2":6.4,"mosquito_risk":3,"arthritis_risk":5,"migraine_risk":7,"frizz_risk":1,"updated_at":"2026-06-01T01:43:15.144329+05:30"},{"city":"Vrindavan","state":"Uttar Pradesh","latitude":27.5823,"longitude":77.7027,"temp":25.0,"humidity":82,"rain":0.0,"pressure":986.8,"uv_index":7.95,"wind_gusts":24.8,"aqi":211,"pm10":696.6,"pm2_5":89.4,"no2":8.5,"co":332.0,"o3":107.0,"so2":6.4,"mosquito_risk":7,"arthritis_risk":5,"migraine_risk":7,"frizz_risk":1,"updated_at":"2026-06-01T01:43:15.144336+05:30"},{"city":"Ayodhya","state":"Uttar Pradesh","latitude":26.7922,"longitude":82.1998,"temp":26.2,"humidity":89,"rain":0.0,"pressure":994.6,"uv_index":8.4,"wind_gusts":20.5,"aqi":99,"pm10":87.8,"pm2_5":70.5,"no2":61.4,"co":411.0,"o3":33.0,"so2":13.1,"mosquito_risk":7,"arthritis_risk":5,"migraine_risk":7,"frizz_risk":1,"updated_at":"2026-06-01T01:43:15.144342+05:30"},{"city":"Ratlam","state":"Madhya Pradesh","latitude":23.3315,"longitude":75.0367,"temp":28.0,"humidity":58,"rain":0.0,"pressure":954.1,"uv_index":8.45,"wind_gusts":43.2,"aqi":71,"pm10":58.7,"pm2_5":29.2,"no2":5.6,"co":204.0,"o3":61.0,"so2":6.4,"mosquito_risk":4,"arthritis_risk":5,"migraine_risk":7,"frizz_risk":1,"updated_at":"2026-06-01T01:43:15.144349+05:30"},{"city":"Sagar","state":"Madhya Pradesh","latitude":23.8388,"longitude":78.7378,"temp":26.2,"humidity":59,"rain":0.0,"pressure":949.1,"uv_index":8.15,"wind_gusts":39.6,"aqi":47,"pm10":17.6,"pm2_5":14.2,"no2":8.9,"co":246.0,"o3":87.0,"so2":3.9,"mosquito_risk":4,"arthritis_risk":5,"migraine_risk":7,"frizz_risk":1,"updated_at":"2026-06-01T01:43:15.144356+05:30"},{"city":"Satna","state":"Madhya Pradesh","latitude":24.6005,"longitude":80.8322,"temp":26.5,"humidity":65,"rain":0.0,"pressure":970.9,"uv_index":8.75,"wind_gusts":37.1,"aqi":73,"pm10":34.9,"pm2_5":24.6,"no2":13.7,"co":379.0,"o3":77.0,"so2":4.9,"mosquito_risk":7,"arthritis_risk":5,"migraine_risk":7,"frizz_risk":1,"updated_at":"2026-06-01T01:43:15.144363+05:30"},{"city":"Akola","state":"Maharashtra","latitude":20.7002,"longitude":77.0082,"temp":31.6,"humidity":38,"rain":0.0,"pressure":974.4,"uv_index":8.8,"wind_gusts":54.0,"aqi":74,"pm10":43.3,"pm2_5":23.2,"no2":9.7,"co":189.0,"o3":71.0,"so2":6.8,"mosquito_risk":0,"arthritis_risk":5,"migraine_risk":7,"frizz_risk":0,"updated_at":"2026-06-01T01:43:15.144371+05:30"},{"city":"Amravati","state":"Maharashtra","latitude":20.9374,"longitude":77.7796,"temp":31.3,"humidity":34,"rain":0.0,"pressure":966.4,"uv_index":8.8,"wind_gusts":63.0,"aqi":75,"pm10":41.6,"pm2_5":23.4,"no2":13.0,"co":214.0,"o3":63.0,"so2":5.9,"mosquito_risk":0,"arthritis_risk":5,"migraine_risk":7,"frizz_risk":0,"updated_at":"2026-06-01T01:43:15.144379+05:30"},{"city":"Latur","state":"Maharashtra","latitude":18.4088,"longitude":76.5604,"temp":29.6,"humidity":39,"rain":0.0,"pressure":939.9,"uv_index":9.0,"wind_gusts":36.7,"aqi":69,"pm10":32.8,"pm2_5":18.3,"no2":8.5,"co":196.0,"o3":73.0,"so2":2.6,"mosquito_risk":4,"arthritis_risk":5,"migraine_risk":7,"frizz_risk":0,"updated_at":"2026-06-01T01:43:15.144386+05:30"},{"city":"Nanded","state":"Maharashtra","latitude":19.1383,"longitude":77.3091,"temp":30.4,"humidity":42,"rain":0.0,"pressure":967.8,"uv_index":8.9,"wind_gusts":51.5,"aqi":76,"pm10":38.9,"pm2_5":20.4,"no2":6.9,"co":194.0,"o3":73.0,"so2":2.2,"mosquito_risk":0,"arthritis_risk":5,"migraine_risk":7,"frizz_risk":1,"updated_at":"2026-06-01T01:43:15.144393+05:30"},{"city":"Gulbarga","state":"Karnataka","latitude":17.3297,"longitude":76.8343,"temp":31.1,"humidity":38,"rain":0.0,"pressure":958.2,"uv_index":8.95,"wind_gusts":34.6,"aqi":61,"pm10":33.9,"pm2_5":17.1,"no2":6.0,"co":167.0,"o3":78.0,"so2":2.3,"mosquito_risk":0,"arthritis_risk":5,"migraine_risk":7,"frizz_risk":0,"updated_at":"2026-06-01T01:43:15.144399+05:30"},{"city":"Bidar","state":"Karnataka","latitude":17.9104,"longitude":77.5199,"temp":28.3,"humidity":41,"rain":0.0,"pressure":935.0,"uv_index":9.0,"wind_gusts":33.1,"aqi":83,"pm10":44.5,"pm2_5":23.8,"no2":10.2,"co":163.0,"o3":69.0,"so2":4.3,"mosquito_risk":4,"arthritis_risk":5,"migraine_risk":7,"frizz_risk":0,"updated_at":"2026-06-01T01:43:15.144406+05:30"},{"city":"Hospet","state":"Karnataka","latitude":15.2689,"longitude":76.3909,"temp":26.1,"humidity":82,"rain":0.0,"pressure":956.5,"uv_index":9.0,"wind_gusts":49.3,"aqi":39,"pm10":10.1,"pm2_5":8.1,"no2":5.1,"co":162.0,"o3":47.0,"so2":1.6,"mosquito_risk":7,"arthritis_risk":5,"migraine_risk":7,"frizz_risk":1,"updated_at":"2026-06-01T01:43:15.144413+05:30"},{"city":"Tirupur","state":"Tamil Nadu","latitude":11.1085,"longitude":77.3411,"temp":26.3,"humidity":82,"rain":0.0,"pressure":976.1,"uv_index":5.8,"wind_gusts":37.8,"aqi":51,"pm10":11.0,"pm2_5":9.7,"no2":11.4,"co":157.0,"o3":46.0,"so2":3.4,"mosquito_risk":7,"arthritis_risk":5,"migraine_risk":3,"frizz_risk":1,"updated_at":"2026-06-01T01:43:15.144419+05:30"},{"city":"Alappuzha","state":"Kerala","latitude":9.4981,"longitude":76.3388,"temp":26.1,"humidity":98,"rain":0.0,"pressure":1010.4,"uv_index":7.9,"wind_gusts":31.7,"aqi":43,"pm10":15.3,"pm2_5":10.8,"no2":9.1,"co":146.0,"o3":45.0,"so2":2.8,"mosquito_risk":7,"arthritis_risk":0,"migraine_risk":4,"frizz_risk":1,"updated_at":"2026-06-01T01:43:15.144425+05:30"},{"city":"Munnar","state":"Kerala","latitude":10.0889,"longitude":77.0595,"temp":18.2,"humidity":98,"rain":0.0,"pressure":857.7,"uv_index":8.9,"wind_gusts":26.3,"aqi":32,"pm10":3.8,"pm2_5":3.6,"no2":6.1,"co":153.0,"o3":41.0,"so2":1.1,"mosquito_risk":3,"arthritis_risk":10,"migraine_risk":7,"frizz_risk":1,"updated_at":"2026-06-01T01:43:15.144432+05:30"},{"city":"Silchar","state":"Assam","latitude":24.8333,"longitude":92.7789,"temp":25.6,"humidity":99,"rain":0.0,"pressure":1004.8,"uv_index":8.95,"wind_gusts":16.9,"aqi":97,"pm10":42.8,"pm2_5":36.1,"no2":13.8,"co":221.0,"o3":38.0,"so2":6.1,"mosquito_risk":7,"arthritis_risk":5,"migraine_risk":4,"frizz_risk":1,"updated_at":"2026-06-01T01:43:15.144439+05:30"},{"city":"Dibrugarh","state":"Assam","latitude":27.4728,"longitude":94.912,"temp":26.2,"humidity":95,"rain":0.0,"pressure":994.8,"uv_index":8.85,"wind_gusts":21.6,"aqi":90,"pm10":34.9,"pm2_5":32.9,"no2":28.7,"co":333.0,"o3":2.0,"so2":2.0,"mosquito_risk":7,"arthritis_risk":5,"migraine_risk":7,"frizz_risk":1,"updated_at":"2026-06-01T01:43:15.144445+05:30"}]