[{"city":"Delhi","state":"Delhi","latitude":28.6139,"longitude":77.209,"temp":20.7,"humidity":65,"rain":0.0,"pressure":985.2,"uv_index":6.15,"wind_gusts":34.9,"aqi":182,"pm10":418.2,"pm2_5":81.7,"mosquito_risk":3,"arthritis_risk":5,"migraine_risk":7,"frizz_risk":0,"updated_at":"2026-03-15T08:12:32.635483+05:30"},{"city":"Mumbai","state":"Maharashtra","latitude":19.076,"longitude":72.8777,"temp":27.0,"humidity":84,"rain":0.0,"pressure":1011.5,"uv_index":7.7,"wind_gusts":23.8,"aqi":111,"pm10":70.5,"pm2_5":34.1,"mosquito_risk":7,"arthritis_risk":0,"migraine_risk":4,"frizz_risk":1,"updated_at":"2026-03-15T08:12:32.635524+05:30"},{"city":"Bangalore","state":"Karnataka","latitude":12.9716,"longitude":77.5946,"temp":20.9,"humidity":72,"rain":0.0,"pressure":914.7,"uv_index":9.3,"wind_gusts":18.4,"aqi":86,"pm10":51.2,"pm2_5":49.5,"mosquito_risk":3,"arthritis_risk":5,"migraine_risk":7,"frizz_risk":0,"updated_at":"2026-03-15T08:12:32.635539+05:30"},{"city":"Hyderabad","state":"Telangana","latitude":17.385,"longitude":78.4867,"temp":23.4,"humidity":82,"rain":0.0,"pressure":957.6,"uv_index":8.7,"wind_gusts":23.0,"aqi":96,"pm10":39.0,"pm2_5":30.5,"mosquito_risk":3,"arthritis_risk":5,"migraine_risk":7,"frizz_risk":1,"updated_at":"2026-03-15T08:12:32.635549+05:30"},{"city":"Chennai","state":"Tamil Nadu","latitude":13.0827,"longitude":80.2707,"temp":27.0,"humidity":77,"rain":0.0,"pressure":1012.3,"uv_index":9.05,"wind_gusts":30.6,"aqi":50,"pm10":19.3,"pm2_5":16.0,"mosquito_risk":7,"arthritis_risk":0,"migraine_risk":4,"frizz_risk":1,"updated_at":"2026-03-15T08:12:32.635557+05:30"},{"city":"Kolkata","state":"West Bengal","latitude":22.5726,"longitude":88.3639,"temp":26.2,"humidity":82,"rain":0.0,"pressure":1010.7,"uv_index":8.1,"wind_gusts":36.7,"aqi":70,"pm10":20.2,"pm2_5":14.8,"mosquito_risk":7,"arthritis_risk":0,"migraine_risk":4,"frizz_risk":1,"updated_at":"2026-03-15T08:12:32.635565+05:30"},{"city":"Pune","state":"Maharashtra","latitude":18.5204,"longitude":73.8567,"temp":25.0,"humidity":27,"rain":0.0,"pressure":950.9,"uv_index":8.25,"wind_gusts":40.3,"aqi":97,"pm10":54.9,"pm2_5":45.5,"mosquito_risk":4,"arthritis_risk":5,"migraine_risk":7,"frizz_risk":0,"updated_at":"2026-03-15T08:12:32.635576+05:30"},{"city":"Ahmedabad","state":"Gujarat","latitude":23.0225,"longitude":72.5714,"temp":22.5,"humidity":83,"rain":0.0,"pressure":1005.1,"uv_index":7.45,"wind_gusts":24.8,"aqi":77,"pm10":50.9,"pm2_5":23.6,"mosquito_risk":3,"arthritis_risk":5,"migraine_risk":4,"frizz_risk":1,"updated_at":"2026-03-15T08:12:32.635584+05:30"},{"city":"Jaipur","state":"Rajasthan","latitude":26.9124,"longitude":75.7873,"temp":23.1,"humidity":50,"rain":0.0,"pressure":961.3,"uv_index":7.0,"wind_gusts":44.6,"aqi":120,"pm10":285.0,"pm2_5":54.7,"mosquito_risk":0,"arthritis_risk":5,"migraine_risk":7,"frizz_risk":0,"updated_at":"2026-03-15T08:12:32.635591+05:30"},{"city":"Lucknow","state":"Uttar Pradesh","latitude":26.8467,"longitude":80.9462,"temp":20.6,"humidity":76,"rain":0.0,"pressure":998.1,"uv_index":6.7,"wind_gusts":49.3,"aqi":154,"pm10":105.5,"pm2_5":47.4,"mosquito_risk":3,"arthritis_risk":5,"migraine_risk":7,"frizz_risk":1,"updated_at":"2026-03-15T08:12:32.635599+05:30"},{"city":"Kanpur","state":"Uttar Pradesh","latitude":26.4499,"longitude":80.3319,"temp":21.0,"humidity":74,"rain":0.0,"pressure":995.7,"uv_index":6.65,"wind_gusts":45.0,"aqi":180,"pm10":222.6,"pm2_5":71.5,"mosquito_risk":3,"arthritis_risk":5,"migraine_risk":7,"frizz_risk":1,"updated_at":"2026-03-15T08:12:32.635606+05:30"},{"city":"Chandigarh","state":"Chandigarh","latitude":30.7333,"longitude":76.7794,"temp":16.9,"humidity":74,"rain":0.0,"pressure":970.2,"uv_index":5.95,"wind_gusts":47.5,"aqi":79,"pm10":26.7,"pm2_5":25.1,"mosquito_risk":3,"arthritis_risk":5,"migraine_risk":3,"frizz_risk":0,"updated_at":"2026-03-15T08:12:32.635614+05:30"},{"city":"Srinagar","state":"Jammu and Kashmir","latitude":34.0837,"longitude":74.7973,"temp":7.0,"humidity":87,"rain":0.0,"pressure":838.0,"uv_index":4.95,"wind_gusts":31.0,"aqi":94,"pm10":62.9,"pm2_5":39.1,"mosquito_risk":3,"arthritis_risk":10,"migraine_risk":3,"frizz_risk":0,"updated_at":"2026-03-15T08:12:32.635621+05:30"},{"city":"Jammu","state":"Jammu and Kashmir","latitude":32.7266,"longitude":74.857,"temp":17.9,"humidity":63,"rain":0.0,"pressure":972.5,"uv_index":3.35,"wind_gusts":59.4,"aqi":82,"pm10":40.3,"pm2_5":33.9,"mosquito_risk":3,"arthritis_risk":5,"migraine_risk":3,"frizz_risk":0,"updated_at":"2026-03-15T08:12:32.635629+05:30"},{"city":"Amritsar","state":"Punjab","latitude":31.634,"longitude":74.8723,"temp":16.8,"humidity":78,"rain":0.0,"pressure":982.0,"uv_index":3.5,"wind_gusts":42.8,"aqi":101,"pm10":37.1,"pm2_5":31.1,"mosquito_risk":3,"arthritis_risk":5,"migraine_risk":3,"frizz_risk":0,"updated_at":"2026-03-15T08:12:32.635635+05:30"},{"city":"Ludhiana","state":"Punjab","latitude":30.901,"longitude":75.8573,"temp":16.4,"humidity":77,"rain":0.0,"pressure":980.3,"uv_index":6.25,"wind_gusts":36.4,"aqi":119,"pm10":56.5,"pm2_5":36.9,"mosquito_risk":3,"arthritis_risk":5,"migraine_risk":7,"frizz_risk":0,"updated_at":"2026-03-15T08:12:32.635657+05:30"},{"city":"Jalandhar","state":"Punjab","latitude":31.326,"longitude":75.5762,"temp":16.0,"humidity":78,"rain":0.0,"pressure":980.9,"uv_index":5.4,"wind_gusts":35.6,"aqi":111,"pm10":80.6,"pm2_5":43.5,"mosquito_risk":3,"arthritis_risk":5,"migraine_risk":3,"frizz_risk":0,"updated_at":"2026-03-15T08:12:32.635667+05:30"},{"city":"Dehradun","state":"Uttarakhand","latitude":30.6284,"longitude":78.0322,"temp":9.7,"humidity":72,"rain":0.0,"pressure":829.2,"uv_index":6.1,"wind_gusts":31.3,"aqi":52,"pm10":27.9,"pm2_5":12.6,"mosquito_risk":3,"arthritis_risk":5,"migraine_risk":7,"frizz_risk":0,"updated_at":"2026-03-15T08:12:32.635674+05:30"},{"city":"Shimla","state":"Himachal Pradesh","latitude":31.1048,"longitude":77.1734,"temp":11.0,"humidity":53,"rain":0.0,"pressure":782.9,"uv_index":5.9,"wind_gusts":46.8,"aqi":62,"pm10":35.3,"pm2_5":22.0,"mosquito_risk":0,"arthritis_risk":5,"migraine_risk":3,"frizz_risk":0,"updated_at":"2026-03-15T08:12:32.635681+05:30"},{"city":"Manali","state":"Himachal Pradesh","latitude":32.2396,"longitude":77.1887,"temp":12.5,"humidity":44,"rain":0.0,"pressure":818.2,"uv_index":5.85,"wind_gusts":32.0,"aqi":47,"pm10":19.8,"pm2_5":8.1,"mosquito_risk":0,"arthritis_risk":5,"migraine_risk":3,"frizz_risk":0,"updated_at":"2026-03-15T08:12:32.635688+05:30"},{"city":"Gurgaon","state":"Haryana","latitude":28.4595,"longitude":77.0266,"temp":19.8,"humidity":71,"rain":0.0,"pressure":983.3,"uv_index":6.25,"wind_gusts":37.4,"aqi":450,"pm10":365.1,"pm2_5":85.7,"mosquito_risk":3,"arthritis_risk":5,"migraine_risk":7,"frizz_risk":0,"updated_at":"2026-03-15T08:12:32.635694+05:30"},{"city":"Noida","state":"Uttar Pradesh","latitude":28.5355,"longitude":77.391,"temp":20.4,"humidity":70,"rain":0.0,"pressure":987.0,"uv_index":6.15,"wind_gusts":36.0,"aqi":450,"pm10":365.1,"pm2_5":85.7,"mosquito_risk":3,"arthritis_risk":5,"migraine_risk":7,"frizz_risk":0,"updated_at":"2026-03-15T08:12:32.635701+05:30"},{"city":"Ghaziabad","state":"Uttar Pradesh","latitude":28.6692,"longitude":77.4538,"temp":19.5,"humidity":72,"rain":0.0,"pressure":985.0,"uv_index":6.15,"wind_gusts":30.6,"aqi":169,"pm10":252.4,"pm2_5":66.6,"mosquito_risk":3,"arthritis_risk":5,"migraine_risk":7,"frizz_risk":0,"updated_at":"2026-03-15T08:12:32.635707+05:30"},{"city":"Faridabad","state":"Haryana","latitude":28.4089,"longitude":77.3178,"temp":19.7,"humidity":74,"rain":0.0,"pressure":986.1,"uv_index":6.2,"wind_gusts":35.3,"aqi":450,"pm10":365.1,"pm2_5":85.7,"mosquito_risk":3,"arthritis_risk":5,"migraine_risk":7,"frizz_risk":0,"updated_at":"2026-03-15T08:12:32.635713+05:30"},{"city":"Meerut","state":"Uttar Pradesh","latitude":28.9845,"longitude":77.7064,"temp":18.2,"humidity":81,"rain":0.0,"pressure":984.1,"uv_index":6.05,"wind_gusts":28.8,"aqi":169,"pm10":252.4,"pm2_5":66.6,"mosquito_risk":3,"arthritis_risk":10,"migraine_risk":7,"frizz_risk":0,"updated_at":"2026-03-15T08:12:32.635720+05:30"},{"city":"Agra","state":"Uttar Pradesh","latitude":27.1767,"longitude":78.0081,"temp":20.5,"humidity":65,"rain":0.0,"pressure":990.5,"uv_index":6.6,"wind_gusts":35.6,"aqi":426,"pm10":1598.1,"pm2_5":170.0,"mosquito_risk":3,"arthritis_risk":5,"migraine_risk":7,"frizz_risk":0,"updated_at":"2026-03-15T08:12:32.635726+05:30"},{"city":"Varanasi","state":"Uttar Pradesh","latitude":25.3176,"longitude":82.9739,"temp":22.6,"humidity":78,"rain":0.0,"pressure":1001.1,"uv_index":7.35,"wind_gusts":38.9,"aqi":151,"pm10":123.4,"pm2_5":80.8,"mosquito_risk":3,"arthritis_risk":5,"migraine_risk":4,"frizz_risk":1,"updated_at":"2026-03-15T08:12:32.635735+05:30"},{"city":"Prayagraj","state":"Uttar Pradesh","latitude":25.4358,"longitude":81.8463,"temp":22.6,"humidity":79,"rain":0.0,"pressure":999.3,"uv_index":7.25,"wind_gusts":37.8,"aqi":142,"pm10":86.8,"pm2_5":59.1,"mosquito_risk":3,"arthritis_risk":5,"migraine_risk":7,"frizz_risk":1,"updated_at":"2026-03-15T08:12:32.635742+05:30"},{"city":"Gorakhpur","state":"Uttar Pradesh","latitude":26.7606,"longitude":83.3732,"temp":21.0,"humidity":77,"rain":0.0,"pressure":1001.3,"uv_index":7.1,"wind_gusts":37.1,"aqi":154,"pm10":100.6,"pm2_5":80.1,"mosquito_risk":3,"arthritis_risk":5,"migraine_risk":4,"frizz_risk":1,"updated_at":"2026-03-15T08:12:32.635748+05:30"},{"city":"Bareilly","state":"Uttar Pradesh","latitude":28.367,"longitude":79.4304,"temp":19.0,"humidity":85,"rain":0.0,"pressure":990.4,"uv_index":6.15,"wind_gusts":23.4,"aqi":148,"pm10":145.8,"pm2_5":69.4,"mosquito_risk":3,"arthritis_risk":10,"migraine_risk":7,"frizz_risk":1,"updated_at":"2026-03-15T08:12:32.635753+05:30"},{"city":"Aligarh","state":"Uttar Pradesh","latitude":27.8974,"longitude":78.088,"temp":18.9,"humidity":79,"rain":0.0,"pressure":988.3,"uv_index":6.25,"wind_gusts":37.1,"aqi":216,"pm10":100.1,"pm2_5":56.2,"mosquito_risk":3,"arthritis_risk":5,"migraine_risk":7,"frizz_risk":0,"updated_at":"2026-03-15T08:12:32.635760+05:30"},{"city":"Moradabad","state":"Uttar Pradesh","latitude":28.8386,"longitude":78.7733,"temp":17.6,"humidity":82,"rain":0.0,"pressure":987.1,"uv_index":5.4,"wind_gusts":23.4,"aqi":155,"pm10":117.3,"pm2_5":64.0,"mosquito_risk":3,"arthritis_risk":10,"migraine_risk":3,"frizz_risk":0,"updated_at":"2026-03-15T08:12:32.635766+05:30"},{"city":"Saharanpur","state":"Uttar Pradesh","latitude":29.9637,"longitude":77.546,"temp":16.1,"humidity":80,"rain":0.0,"pressure":978.1,"uv_index":5.8,"wind_gusts":33.5,"aqi":143,"pm10":47.7,"pm2_5":33.6,"mosquito_risk":3,"arthritis_risk":5,"migraine_risk":3,"frizz_risk":0,"updated_at":"2026-03-15T08:12:32.635774+05:30"},{"city":"Jhansi","state":"Uttar Pradesh","latitude":25.4484,"longitude":78.5685,"temp":22.3,"humidity":64,"rain":0.0,"pressure":980.5,"uv_index":7.2,"wind_gusts":38.2,"aqi":129,"pm10":108.3,"pm2_5":38.3,"mosquito_risk":3,"arthritis_risk":5,"migraine_risk":7,"frizz_risk":0,"updated_at":"2026-03-15T08:12:35.973315+05:30"},{"city":"Surat","state":"Gujarat","latitude":21.1702,"longitude":72.8311,"temp":25.9,"humidity":85,"rain":0.0,"pressure":1009.9,"uv_index":7.4,"wind_gusts":23.4,"aqi":138,"pm10":85.9,"pm2_5":52.4,"mosquito_risk":7,"arthritis_risk":0,"migraine_risk":4,"frizz_risk":1,"updated_at":"2026-03-15T08:12:35.973342+05:30"},{"city":"Vadodara","state":"Gujarat","latitude":22.3072,"longitude":73.1812,"temp":24.5,"humidity":62,"rain":0.0,"pressure":1007.6,"uv_index":7.5,"wind_gusts":22.7,"aqi":94,"pm10":79.6,"pm2_5":36.9,"mosquito_risk":3,"arthritis_risk":5,"migraine_risk":4,"frizz_risk":1,"updated_at":"2026-03-15T08:12:35.973351+05:30"},{"city":"Rajkot","state":"Gujarat","latitude":22.3039,"longitude":70.8022,"temp":23.2,"humidity":83,"rain":0.0,"pressure":997.3,"uv_index":7.35,"wind_gusts":34.9,"aqi":79,"pm10":44.1,"pm2_5":19.7,"mosquito_risk":3,"arthritis_risk":5,"migraine_risk":7,"frizz_risk":1,"updated_at":"2026-03-15T08:12:35.973358+05:30"},{"city":"Thane","state":"Maharashtra","latitude":19.2183,"longitude":72.9781,"temp":24.9,"humidity":88,"rain":0.0,"pressure":1010.9,"uv_index":7.7,"wind_gusts":35.6,"aqi":111,"pm10":70.5,"pm2_5":34.1,"mosquito_risk":3,"arthritis_risk":0,"migraine_risk":4,"frizz_risk":1,"updated_at":"2026-03-15T08:12:35.973365+05:30"},{"city":"Nagpur","state":"Maharashtra","latitude":21.1458,"longitude":79.0882,"temp":24.6,"humidity":68,"rain":0.0,"pressure":976.3,"uv_index":8.15,"wind_gusts":29.5,"aqi":129,"pm10":54.4,"pm2_5":49.0,"mosquito_risk":3,"arthritis_risk":5,"migraine_risk":7,"frizz_risk":1,"updated_at":"2026-03-15T08:12:35.973371+05:30"},{"city":"Nashik","state":"Maharashtra","latitude":19.9975,"longitude":73.7898,"temp":21.8,"humidity":47,"rain":0.0,"pressure":948.0,"uv_index":7.9,"wind_gusts":40.3,"aqi":78,"pm10":61.2,"pm2_5":30.2,"mosquito_risk":0,"arthritis_risk":5,"migraine_risk":7,"frizz_risk":0,"updated_at":"2026-03-15T08:12:35.973378+05:30"},{"city":"Aurangabad","state":"Maharashtra","latitude":19.8762,"longitude":75.3433,"temp":23.2,"humidity":38,"rain":0.0,"pressure":946.4,"uv_index":8.4,"wind_gusts":26.6,"aqi":74,"pm10":33.2,"pm2_5":23.7,"mosquito_risk":0,"arthritis_risk":5,"migraine_risk":7,"frizz_risk":0,"updated_at":"2026-03-15T08:12:35.973385+05:30"},{"city":"Solapur","state":"Maharashtra","latitude":17.6599,"longitude":75.9064,"temp":23.4,"humidity":58,"rain":0.0,"pressure":960.3,"uv_index":8.65,"wind_gusts":27.7,"aqi":118,"pm10":52.9,"pm2_5":50.4,"mosquito_risk":0,"arthritis_risk":5,"migraine_risk":7,"frizz_risk":0,"updated_at":"2026-03-15T08:12:35.973392+05:30"},{"city":"Kolhapur","state":"Maharashtra","latitude":16.705,"longitude":74.2433,"temp":22.5,"humidity":87,"rain":0.0,"pressure":950.5,"uv_index":8.75,"wind_gusts":41.8,"aqi":153,"pm10":94.5,"pm2_5":90.1,"mosquito_risk":3,"arthritis_risk":5,"migraine_risk":7,"frizz_risk":1,"updated_at":"2026-03-15T08:12:35.973399+05:30"},{"city":"Goa","state":"Goa","latitude":15.2993,"longitude":74.124,"temp":27.4,"humidity":85,"rain":0.0,"pressure":1001.1,"uv_index":8.75,"wind_gusts":32.8,"aqi":124,"pm10":58.4,"pm2_5":53.9,"mosquito_risk":7,"arthritis_risk":5,"migraine_risk":4,"frizz_risk":1,"updated_at":"2026-03-15T08:12:35.973405+05:30"},{"city":"Jodhpur","state":"Rajasthan","latitude":26.2389,"longitude":73.0243,"temp":23.3,"humidity":41,"rain":0.0,"pressure":984.2,"uv_index":7.25,"wind_gusts":30.2,"aqi":112,"pm10":187.7,"pm2_5":56.3,"mosquito_risk":0,"arthritis_risk":5,"migraine_risk":7,"frizz_risk":0,"updated_at":"2026-03-15T08:12:35.973412+05:30"},{"city":"Udaipur","state":"Rajasthan","latitude":24.5854,"longitude":73.7125,"temp":22.8,"humidity":51,"rain":0.0,"pressure":948.3,"uv_index":7.85,"wind_gusts":34.6,"aqi":62,"pm10":61.2,"pm2_5":23.2,"mosquito_risk":0,"arthritis_risk":5,"migraine_risk":7,"frizz_risk":0,"updated_at":"2026-03-15T08:12:35.973419+05:30"},{"city":"Kota","state":"Rajasthan","latitude":25.2138,"longitude":75.8648,"temp":22.2,"humidity":61,"rain":0.0,"pressure":980.7,"uv_index":7.3,"wind_gusts":32.4,"aqi":70,"pm10":35.7,"pm2_5":20.7,"mosquito_risk":3,"arthritis_risk":5,"migraine_risk":7,"frizz_risk":0,"updated_at":"2026-03-15T08:12:35.973427+05:30"},{"city":"Bikaner","state":"Rajasthan","latitude":28.0229,"longitude":73.3119,"temp":22.6,"humidity":55,"rain":0.0,"pressure":982.8,"uv_index":6.9,"wind_gusts":46.1,"aqi":74,"pm10":26.5,"pm2_5":14.8,"mosquito_risk":0,"arthritis_risk":5,"migraine_risk":7,"frizz_risk":0,"updated_at":"2026-03-15T08:12:35.973434+05:30"},{"city":"Ajmer","state":"Rajasthan","latitude":26.4499,"longitude":74.6399,"temp":21.4,"humidity":54,"rain":0.0,"pressure":955.7,"uv_index":7.25,"wind_gusts":38.2,"aqi":75,"pm10":99.0,"pm2_5":32.7,"mosquito_risk":0,"arthritis_risk":5,"migraine_risk":7,"frizz_risk":0,"updated_at":"2026-03-15T08:12:35.973440+05:30"},{"city":"Gwalior","state":"Madhya Pradesh","latitude":26.2183,"longitude":78.1828,"temp":22.3,"humidity":68,"rain":0.0,"pressure":986.0,"uv_index":6.9,"wind_gusts":34.9,"aqi":143,"pm10":122.5,"pm2_5":40.0,"mosquito_risk":3,"arthritis_risk":5,"migraine_risk":7,"frizz_risk":1,"updated_at":"2026-03-15T08:12:35.973446+05:30"},{"city":"Indore","state":"Madhya Pradesh","latitude":22.7196,"longitude":75.8577,"temp":21.9,"humidity":55,"rain":0.0,"pressure":950.4,"uv_index":7.8,"wind_gusts":33.5,"aqi":67,"pm10":38.4,"pm2_5":22.7,"mosquito_risk":0,"arthritis_risk":5,"migraine_risk":7,"frizz_risk":0,"updated_at":"2026-03-15T08:12:35.973453+05:30"},{"city":"Bhopal","state":"Madhya Pradesh","latitude":23.2599,"longitude":77.4126,"temp":22.2,"humidity":51,"rain":0.0,"pressure":956.0,"uv_index":7.7,"wind_gusts":39.2,"aqi":71,"pm10":22.8,"pm2_5":17.1,"mosquito_risk":0,"arthritis_risk":5,"migraine_risk":7,"frizz_risk":0,"updated_at":"2026-03-15T08:12:35.973459+05:30"},{"city":"Jabalpur","state":"Madhya Pradesh","latitude":23.1815,"longitude":79.9864,"temp":24.7,"humidity":52,"rain":0.0,"pressure":963.8,"uv_index":7.8,"wind_gusts":32.0,"aqi":67,"pm10":25.0,"pm2_5":23.6,"mosquito_risk":0,"arthritis_risk":5,"migraine_risk":7,"frizz_risk":0,"updated_at":"2026-03-15T08:12:35.973465+05:30"},{"city":"Ujjain","state":"Madhya Pradesh","latitude":23.1765,"longitude":75.7885,"temp":21.2,"humidity":63,"rain":0.0,"pressure":956.1,"uv_index":7.7,"wind_gusts":30.6,"aqi":67,"pm10":40.9,"pm2_5":24.7,"mosquito_risk":3,"arthritis_risk":5,"migraine_risk":7,"frizz_risk":0,"updated_at":"2026-03-15T08:12:35.973472+05:30"},{"city":"Visakhapatnam","state":"Andhra Pradesh","latitude":17.6868,"longitude":83.2185,"temp":26.2,"humidity":78,"rain":0.0,"pressure":1009.6,"uv_index":8.65,"wind_gusts":39.2,"aqi":61,"pm10":27.5,"pm2_5":23.1,"mosquito_risk":7,"arthritis_risk":0,"migraine_risk":4,"frizz_risk":1,"updated_at":"2026-03-15T08:12:35.973478+05:30"},{"city":"Vijayawada","state":"Andhra Pradesh","latitude":16.5062,"longitude":80.648,"temp":25.6,"humidity":83,"rain":0.0,"pressure":1008.1,"uv_index":8.75,"wind_gusts":27.0,"aqi":60,"pm10":23.3,"pm2_5":20.4,"mosquito_risk":7,"arthritis_risk":0,"migraine_risk":4,"frizz_risk":1,"updated_at":"2026-03-15T08:12:35.973485+05:30"},{"city":"Guntur","state":"Andhra Pradesh","latitude":16.3067,"longitude":80.4365,"temp":26.1,"humidity":83,"rain":0.0,"pressure":1009.1,"uv_index":8.75,"wind_gusts":27.7,"aqi":57,"pm10":18.0,"pm2_5":15.0,"mosquito_risk":7,"arthritis_risk":0,"migraine_risk":4,"frizz_risk":1,"updated_at":"2026-03-15T08:12:35.973491+05:30"},{"city":"Nellore","state":"Andhra Pradesh","latitude":14.4426,"longitude":79.9865,"temp":25.6,"humidity":83,"rain":0.0,"pressure":1011.2,"uv_index":8.95,"wind_gusts":28.4,"aqi":55,"pm10":17.3,"pm2_5":14.7,"mosquito_risk":7,"arthritis_risk":0,"migraine_risk":4,"frizz_risk":1,"updated_at":"2026-03-15T08:12:35.973498+05:30"},{"city":"Kurnool","state":"Andhra Pradesh","latitude":15.8281,"longitude":78.0373,"temp":26.7,"humidity":64,"rain":0.0,"pressure":980.8,"uv_index":8.75,"wind_gusts":20.2,"aqi":87,"pm10":26.6,"pm2_5":23.9,"mosquito_risk":7,"arthritis_risk":5,"migraine_risk":7,"frizz_risk":1,"updated_at":"2026-03-15T08:12:35.973505+05:30"},{"city":"Kakinada","state":"Andhra Pradesh","latitude":16.9891,"longitude":82.2475,"temp":26.2,"humidity":82,"rain":0.0,"pressure":1013.4,"uv_index":8.7,"wind_gusts":27.7,"aqi":54,"pm10":29.3,"pm2_5":23.9,"mosquito_risk":7,"arthritis_risk":0,"migraine_risk":4,"frizz_risk":1,"updated_at":"2026-03-15T08:12:35.973511+05:30"},{"city":"Tirupati","state":"Andhra Pradesh","latitude":13.6288,"longitude":79.4192,"temp":23.7,"humidity":86,"rain":0.0,"pressure":996.8,"uv_index":9.05,"wind_gusts":27.7,"aqi":70,"pm10":37.8,"pm2_5":37.0,"mosquito_risk":3,"arthritis_risk":5,"migraine_risk":7,"frizz_risk":1,"updated_at":"2026-03-15T08:12:35.973518+05:30"},{"city":"Warangal","state":"Telangana","latitude":17.9689,"longitude":79.5941,"temp":23.7,"humidity":85,"rain":0.0,"pressure":983.5,"uv_index":8.55,"wind_gusts":33.8,"aqi":80,"pm10":16.4,"pm2_5":14.8,"mosquito_risk":3,"arthritis_risk":5,"migraine_risk":7,"frizz_risk":1,"updated_at":"2026-03-15T08:12:35.973524+05:30"},{"city":"Nizamabad","state":"Telangana","latitude":18.6725,"longitude":78.0941,"temp":25.9,"humidity":68,"rain":0.0,"pressure":968.8,"uv_index":8.45,"wind_gusts":29.9,"aqi":122,"pm10":39.6,"pm2_5":35.7,"mosquito_risk":7,"arthritis_risk":5,"migraine_risk":7,"frizz_risk":1,"updated_at":"2026-03-15T08:12:35.973530+05:30"},{"city":"Mysore","state":"Karnataka","latitude":12.2958,"longitude":76.6396,"temp":22.2,"humidity":87,"rain":0.0,"pressure":931.7,"uv_index":9.3,"wind_gusts":30.6,"aqi":94,"pm10":53.4,"pm2_5":51.0,"mosquito_risk":3,"arthritis_risk":5,"migraine_risk":7,"frizz_risk":1,"updated_at":"2026-03-15T08:12:35.973537+05:30"},{"city":"Mangalore","state":"Karnataka","latitude":12.9141,"longitude":74.856,"temp":27.2,"humidity":82,"rain":0.0,"pressure":1010.4,"uv_index":8.95,"wind_gusts":27.7,"aqi":93,"pm10":34.7,"pm2_5":30.4,"mosquito_risk":7,"arthritis_risk":0,"migraine_risk":4,"frizz_risk":1,"updated_at":"2026-03-15T08:12:35.973543+05:30"},{"city":"Hubli-Dharwad","state":"Karnataka","latitude":15.3647,"longitude":75.124,"temp":23.2,"humidity":89,"rain":0.0,"pressure":944.4,"uv_index":8.95,"wind_gusts":41.0,"aqi":111,"pm10":48.2,"pm2_5":44.9,"mosquito_risk":3,"arthritis_risk":5,"migraine_risk":7,"frizz_risk":1,"updated_at":"2026-03-15T08:12:35.973550+05:30"},{"city":"Belgaum","state":"Karnataka","latitude":15.8497,"longitude":74.4977,"temp":22.3,"humidity":87,"rain":0.0,"pressure":928.3,"uv_index":9.0,"wind_gusts":45.4,"aqi":135,"pm10":71.7,"pm2_5":66.4,"mosquito_risk":3,"arthritis_risk":5,"migraine_risk":7,"frizz_risk":1,"updated_at":"2026-03-15T08:12:39.311311+05:30"},{"city":"Coimbatore","state":"Tamil Nadu","latitude":11.0168,"longitude":76.9558,"temp":23.7,"humidity":70,"rain":0.0,"pressure":965.8,"uv_index":9.3,"wind_gusts":33.5,"aqi":68,"pm10":29.9,"pm2_5":28.6,"mosquito_risk":3,"arthritis_risk":5,"migraine_risk":7,"frizz_risk":1,"updated_at":"2026-03-15T08:12:39.311342+05:30"},{"city":"Madurai","state":"Tamil Nadu","latitude":9.9252,"longitude":78.1198,"temp":25.6,"humidity":82,"rain":0.0,"pressure":997.7,"uv_index":9.25,"wind_gusts":24.1,"aqi":52,"pm10":34.6,"pm2_5":32.6,"mosquito_risk":7,"arthritis_risk":5,"migraine_risk":7,"frizz_risk":1,"updated_at":"2026-03-15T08:12:39.311355+05:30"},{"city":"Trichy","state":"Tamil Nadu","latitude":10.7905,"longitude":78.7047,"temp":25.7,"humidity":87,"rain":0.0,"pressure":1004.8,"uv_index":9.15,"wind_gusts":19.8,"aqi":58,"pm10":22.7,"pm2_5":20.5,"mosquito_risk":7,"arthritis_risk":5,"migraine_risk":4,"frizz_risk":1,"updated_at":"2026-03-15T08:12:39.311365+05:30"},{"city":"Salem","state":"Tamil Nadu","latitude":11.6643,"longitude":78.146,"temp":24.1,"humidity":89,"rain":0.0,"pressure":982.0,"uv_index":9.2,"wind_gusts":12.6,"aqi":73,"pm10":36.3,"pm2_5":34.6,"mosquito_risk":3,"arthritis_risk":5,"migraine_risk":7,"frizz_risk":1,"updated_at":"2026-03-15T08:12:39.311374+05:30"},{"city":"Tirunelveli","state":"Tamil Nadu","latitude":8.7139,"longitude":77.7567,"temp":25.9,"humidity":78,"rain":0.0,"pressure":1007.7,"uv_index":9.25,"wind_gusts":35.3,"aqi":50,"pm10":21.7,"pm2_5":21.5,"mosquito_risk":7,"arthritis_risk":5,"migraine_risk":4,"frizz_risk":1,"updated_at":"2026-03-15T08:12:39.311383+05:30"},{"city":"Vellore","state":"Tamil Nadu","latitude":12.9165,"longitude":79.1325,"temp":22.9,"humidity":87,"rain":0.0,"pressure":989.6,"uv_index":9.1,"wind_gusts":29.9,"aqi":93,"pm10":56.7,"pm2_5":55.8,"mosquito_risk":3,"arthritis_risk":5,"migraine_risk":7,"frizz_risk":1,"updated_at":"2026-03-15T08:12:39.311392+05:30"},{"city":"Erode","state":"Tamil Nadu","latitude":11.341,"longitude":77.7172,"temp":25.4,"humidity":84,"rain":0.0,"pressure":993.9,"uv_index":9.2,"wind_gusts":19.4,"aqi":50,"pm10":19.2,"pm2_5":17.2,"mosquito_risk":7,"arthritis_risk":5,"migraine_risk":7,"frizz_risk":1,"updated_at":"2026-03-15T08:12:39.311400+05:30"},{"city":"Kochi","state":"Kerala","latitude":9.9312,"longitude":76.2673,"temp":27.0,"humidity":82,"rain":0.0,"pressure":1012.3,"uv_index":9.1,"wind_gusts":34.2,"aqi":79,"pm10":32.4,"pm2_5":31.9,"mosquito_risk":7,"arthritis_risk":0,"migraine_risk":4,"frizz_risk":1,"updated_at":"2026-03-15T08:12:39.311409+05:30"},{"city":"Thiruvananthapuram","state":"Kerala","latitude":8.5241,"longitude":76.9366,"temp":27.1,"humidity":84,"rain":0.0,"pressure":1011.3,"uv_index":9.1,"wind_gusts":28.1,"aqi":42,"pm10":14.1,"pm2_5":12.8,"mosquito_risk":7,"arthritis_risk":0,"migraine_risk":4,"frizz_risk":1,"updated_at":"2026-03-15T08:12:39.311417+05:30"},{"city":"Kozhikode","state":"Kerala","latitude":11.2588,"longitude":75.7804,"temp":26.8,"humidity":81,"rain":0.0,"pressure":1011.6,"uv_index":9.0,"wind_gusts":29.2,"aqi":77,"pm10":31.7,"pm2_5":28.9,"mosquito_risk":7,"arthritis_risk":0,"migraine_risk":4,"frizz_risk":1,"updated_at":"2026-03-15T08:12:39.311425+05:30"},{"city":"Thrissur","state":"Kerala","latitude":10.5276,"longitude":76.2144,"temp":26.2,"humidity":87,"rain":0.0,"pressure":1010.8,"uv_index":9.05,"wind_gusts":38.5,"aqi":76,"pm10":38.9,"pm2_5":38.1,"mosquito_risk":7,"arthritis_risk":0,"migraine_risk":4,"frizz_risk":1,"updated_at":"2026-03-15T08:12:39.311434+05:30"},{"city":"Kannur","state":"Kerala","latitude":11.8745,"longitude":75.3704,"temp":26.9,"humidity":87,"rain":0.0,"pressure":1010.8,"uv_index":9.0,"wind_gusts":31.0,"aqi":86,"pm10":32.0,"pm2_5":29.8,"mosquito_risk":7,"arthritis_risk":0,"migraine_risk":4,"frizz_risk":1,"updated_at":"2026-03-15T08:12:39.311442+05:30"},{"city":"Patna","state":"Bihar","latitude":25.5941,"longitude":85.1376,"temp":23.9,"humidity":71,"rain":0.0,"pressure":1003.9,"uv_index":7.4,"wind_gusts":32.8,"aqi":157,"pm10":124.8,"pm2_5":99.0,"mosquito_risk":3,"arthritis_risk":5,"migraine_risk":4,"frizz_risk":1,"updated_at":"2026-03-15T08:12:39.311450+05:30"},{"city":"Gaya","state":"Bihar","latitude":24.7914,"longitude":85.0002,"temp":23.7,"humidity":81,"rain":0.0,"pressure":997.2,"uv_index":7.65,"wind_gusts":33.1,"aqi":134,"pm10":85.4,"pm2_5":60.5,"mosquito_risk":3,"arthritis_risk":5,"migraine_risk":7,"frizz_risk":1,"updated_at":"2026-03-15T08:12:39.311458+05:30"},{"city":"Muzaffarpur","state":"Bihar","latitude":26.1209,"longitude":85.3647,"temp":22.0,"humidity":84,"rain":0.0,"pressure":1004.6,"uv_index":7.5,"wind_gusts":34.2,"aqi":160,"pm10":99.7,"pm2_5":83.4,"mosquito_risk":3,"arthritis_risk":5,"migraine_risk":4,"frizz_risk":1,"updated_at":"2026-03-15T08:12:39.311466+05:30"},{"city":"Bhagalpur","state":"Bihar","latitude":25.2425,"longitude":87.0117,"temp":23.9,"humidity":90,"rain":0.0,"pressure":1005.8,"uv_index":7.6,"wind_gusts":33.5,"aqi":150,"pm10":81.0,"pm2_5":71.0,"mosquito_risk":3,"arthritis_risk":5,"migraine_risk":4,"frizz_risk":1,"updated_at":"2026-03-15T08:12:39.311476+05:30"},{"city":"Ranchi","state":"Jharkhand","latitude":23.3441,"longitude":85.3096,"temp":24.0,"humidity":52,"rain":0.0,"pressure":941.1,"uv_index":8.3,"wind_gusts":49.0,"aqi":73,"pm10":53.4,"pm2_5":38.4,"mosquito_risk":0,"arthritis_risk":5,"migraine_risk":7,"frizz_risk":0,"updated_at":"2026-03-15T08:12:39.311484+05:30"},{"city":"Jamshedpur","state":"Jharkhand","latitude":22.8046,"longitude":86.2029,"temp":26.1,"humidity":74,"rain":0.0,"pressure":995.1,"uv_index":8.2,"wind_gusts":49.7,"aqi":132,"pm10":44.9,"pm2_5":40.4,"mosquito_risk":7,"arthritis_risk":5,"migraine_risk":7,"frizz_risk":1,"updated_at":"2026-03-15T08:12:39.311491+05:30"},{"city":"Dhanbad","state":"Jharkhand","latitude":23.7957,"longitude":86.4304,"temp":25.8,"humidity":79,"rain":0.0,"pressure":983.4,"uv_index":8.05,"wind_gusts":43.6,"aqi":157,"pm10":103.8,"pm2_5":96.9,"mosquito_risk":7,"arthritis_risk":5,"migraine_risk":7,"frizz_risk":1,"updated_at":"2026-03-15T08:12:39.311499+05:30"},{"city":"Bokaro","state":"Jharkhand","latitude":23.6693,"longitude":86.1511,"temp":25.6,"humidity":71,"rain":0.0,"pressure":987.4,"uv_index":8.05,"wind_gusts":43.6,"aqi":150,"pm10":94.3,"pm2_5":74.5,"mosquito_risk":7,"arthritis_risk":5,"migraine_risk":7,"frizz_risk":1,"updated_at":"2026-03-15T08:12:39.311507+05:30"},{"city":"Bhubaneswar","state":"Odisha","latitude":20.2961,"longitude":85.8245,"temp":27.0,"humidity":80,"rain":0.0,"pressure":1007.6,"uv_index":8.5,"wind_gusts":41.8,"aqi":58,"pm10":20.5,"pm2_5":15.1,"mosquito_risk":7,"arthritis_risk":5,"migraine_risk":4,"frizz_risk":1,"updated_at":"2026-03-15T08:12:39.311514+05:30"},{"city":"Cuttack","state":"Odisha","latitude":20.4625,"longitude":85.8828,"temp":26.9,"humidity":79,"rain":0.0,"pressure":1009.6,"uv_index":8.5,"wind_gusts":33.8,"aqi":58,"pm10":20.5,"pm2_5":15.1,"mosquito_risk":7,"arthritis_risk":0,"migraine_risk":4,"frizz_risk":1,"updated_at":"2026-03-15T08:12:39.311522+05:30"},{"city":"Rourkela","state":"Odisha","latitude":22.2604,"longitude":84.8536,"temp":26.7,"humidity":76,"rain":0.0,"pressure":989.2,"uv_index":8.1,"wind_gusts":47.9,"aqi":126,"pm10":63.6,"pm2_5":56.2,"mosquito_risk":7,"arthritis_risk":5,"migraine_risk":7,"frizz_risk":1,"updated_at":"2026-03-15T08:12:39.311530+05:30"},{"city":"Raipur","state":"Chhattisgarh","latitude":21.2514,"longitude":81.6296,"temp":24.9,"humidity":70,"rain":0.0,"pressure":979.4,"uv_index":8.2,"wind_gusts":44.3,"aqi":151,"pm10":54.5,"pm2_5":51.6,"mosquito_risk":3,"arthritis_risk":5,"migraine_risk":7,"frizz_risk":1,"updated_at":"2026-03-15T08:12:39.311537+05:30"},{"city":"Bhilai","state":"Chhattisgarh","latitude":21.1938,"longitude":81.3509,"temp":24.4,"humidity":74,"rain":0.0,"pressure":979.5,"uv_index":8.2,"wind_gusts":41.4,"aqi":139,"pm10":46.8,"pm2_5":44.0,"mosquito_risk":3,"arthritis_risk":5,"migraine_risk":7,"frizz_risk":1,"updated_at":"2026-03-15T08:12:39.311545+05:30"},{"city":"Guwahati","state":"Assam","latitude":26.1158,"longitude":91.7086,"temp":21.1,"humidity":91,"rain":0.0,"pressure":1007.7,"uv_index":7.45,"wind_gusts":34.9,"aqi":77,"pm10":27.8,"pm2_5":20.6,"mosquito_risk":3,"arthritis_risk":5,"migraine_risk":4,"frizz_risk":1,"updated_at":"2026-03-15T08:12:39.311552+05:30"},{"city":"Agartala","state":"Tripura","latitude":23.8315,"longitude":91.2868,"temp":22.9,"humidity":86,"rain":0.0,"pressure":1012.3,"uv_index":7.9,"wind_gusts":41.4,"aqi":67,"pm10":13.2,"pm2_5":9.9,"mosquito_risk":3,"arthritis_risk":0,"migraine_risk":4,"frizz_risk":1,"updated_at":"2026-03-15T08:12:39.311560+05:30"},{"city":"Shillong","state":"Meghalaya","latitude":25.5788,"longitude":91.8933,"temp":14.3,"humidity":83,"rain":0.0,"pressure":859.4,"uv_index":7.8,"wind_gusts":78.5,"aqi":64,"pm10":9.3,"pm2_5":7.5,"mosquito_risk":3,"arthritis_risk":10,"migraine_risk":7,"frizz_risk":0,"updated_at":"2026-03-15T08:12:39.311568+05:30"},{"city":"Imphal","state":"Manipur","latitude":24.817,"longitude":93.9368,"temp":17.9,"humidity":83,"rain":0.0,"pressure":928.4,"uv_index":8.15,"wind_gusts":79.6,"aqi":99,"pm10":22.7,"pm2_5":17.1,"mosquito_risk":3,"arthritis_risk":10,"migraine_risk":7,"frizz_risk":0,"updated_at":"2026-03-15T08:12:39.311576+05:30"},{"city":"Aizawl","state":"Mizoram","latitude":23.7271,"longitude":92.7176,"temp":18.7,"humidity":79,"rain":0.0,"pressure":897.8,"uv_index":8.1,"wind_gusts":64.1,"aqi":98,"pm10":42.4,"pm2_5":27.7,"mosquito_risk":3,"arthritis_risk":5,"migraine_risk":7,"frizz_risk":0,"updated_at":"2026-03-15T08:12:39.311584+05:30"},{"city":"Kohima","state":"Nagaland","latitude":25.6701,"longitude":94.1077,"temp":16.8,"humidity":70,"rain":0.0,"pressure":858.7,"uv_index":7.3,"wind_gusts":106.6,"aqi":81,"pm10":20.3,"pm2_5":15.3,"mosquito_risk":3,"arthritis_risk":5,"migraine_risk":7,"frizz_risk":0,"updated_at":"2026-03-15T08:12:39.311592+05:30"},{"city":"Gangtok","state":"Sikkim","latitude":27.3314,"longitude":88.6138,"temp":14.7,"humidity":84,"rain":0.0,"pressure":839.3,"uv_index":7.5,"wind_gusts":19.4,"aqi":98,"pm10":81.7,"pm2_5":45.3,"mosquito_risk":3,"arthritis_risk":10,"migraine_risk":7,"frizz_risk":0,"updated_at":"2026-03-15T08:12:39.311600+05:30"},{"city":"Siliguri","state":"West Bengal","latitude":26.7271,"longitude":88.3953,"temp":19.6,"humidity":86,"rain":0.0,"pressure":999.0,"uv_index":7.45,"wind_gusts":28.8,"aqi":124,"pm10":71.0,"pm2_5":48.4,"mosquito_risk":3,"arthritis_risk":10,"migraine_risk":7,"frizz_risk":1,"updated_at":"2026-03-15T08:12:42.652984+05:30"},{"city":"Durgapur","state":"West Bengal","latitude":23.5204,"longitude":87.3119,"temp":26.0,"humidity":80,"rain":0.0,"pressure":999.0,"uv_index":8.05,"wind_gusts":45.7,"aqi":126,"pm10":43.0,"pm2_5":40.5,"mosquito_risk":7,"arthritis_risk":5,"migraine_risk":7,"frizz_risk":1,"updated_at":"2026-03-15T08:12:42.653012+05:30"},{"city":"Asansol","state":"West Bengal","latitude":23.6739,"longitude":86.9524,"temp":26.0,"humidity":83,"rain":0.0,"pressure":997.5,"uv_index":8.05,"wind_gusts":48.2,"aqi":132,"pm10":60.5,"pm2_5":57.5,"mosquito_risk":7,"arthritis_risk":5,"migraine_risk":7,"frizz_risk":1,"updated_at":"2026-03-15T08:12:42.653022+05:30"},{"city":"Pondicherry","state":"Puducherry","latitude":11.9139,"longitude":79.8145,"temp":26.4,"humidity":86,"rain":0.0,"pressure":1013.6,"uv_index":9.0,"wind_gusts":27.4,"aqi":43,"pm10":16.3,"pm2_5":12.7,"mosquito_risk":7,"arthritis_risk":0,"migraine_risk":4,"frizz_risk":1,"updated_at":"2026-03-15T08:12:42.653030+05:30"},{"city":"Port Blair","state":"Andaman and Nicobar Islands","latitude":11.6234,"longitude":92.7265,"temp":27.9,"humidity":77,"rain":0.0,"pressure":1012.0,"uv_index":8.95,"wind_gusts":23.4,"aqi":58,"pm10":15.1,"pm2_5":11.4,"mosquito_risk":7,"arthritis_risk":0,"migraine_risk":4,"frizz_risk":1,"updated_at":"2026-03-15T08:12:42.653037+05:30"},{"city":"Haridwar","state":"Uttarakhand","latitude":29.9457,"longitude":78.1642,"temp":19.0,"humidity":81,"rain":0.0,"pressure":977.2,"uv_index":5.75,"wind_gusts":33.1,"aqi":92,"pm10":45.5,"pm2_5":32.9,"mosquito_risk":3,"arthritis_risk":10,"migraine_risk":3,"frizz_risk":0,"updated_at":"2026-03-15T08:12:42.653045+05:30"},{"city":"Rishikesh","state":"Uttarakhand","latitude":30.0869,"longitude":78.2676,"temp":19.9,"humidity":67,"rain":0.0,"pressure":969.5,"uv_index":5.55,"wind_gusts":26.3,"aqi":65,"pm10":31.7,"pm2_5":25.6,"mosquito_risk":3,"arthritis_risk":5,"migraine_risk":3,"frizz_risk":0,"updated_at":"2026-03-15T08:12:42.653052+05:30"},{"city":"Nainital","state":"Uttarakhand","latitude":29.3919,"longitude":79.4542,"temp":16.3,"humidity":56,"rain":0.0,"pressure":807.0,"uv_index":4.8,"wind_gusts":36.4,"aqi":85,"pm10":50.3,"pm2_5":34.5,"mosquito_risk":0,"arthritis_risk":5,"migraine_risk":3,"frizz_risk":0,"updated_at":"2026-03-15T08:12:42.653059+05:30"},{"city":"Mussoorie","state":"Uttarakhand","latitude":30.4599,"longitude":78.0664,"temp":11.8,"humidity":68,"rain":0.0,"pressure":801.9,"uv_index":5.8,"wind_gusts":46.4,"aqi":74,"pm10":27.1,"pm2_5":23.2,"mosquito_risk":3,"arthritis_risk":5,"migraine_risk":3,"frizz_risk":0,"updated_at":"2026-03-15T08:12:42.653066+05:30"},{"city":"Dharamshala","state":"Himachal Pradesh","latitude":32.219,"longitude":76.3234,"temp":18.9,"humidity":32,"rain":0.0,"pressure":868.1,"uv_index":5.15,"wind_gusts":44.3,"aqi":48,"pm10":38.6,"pm2_5":11.7,"mosquito_risk":0,"arthritis_risk":5,"migraine_risk":3,"frizz_risk":0,"updated_at":"2026-03-15T08:12:42.653072+05:30"},{"city":"Dalhousie","state":"Himachal Pradesh","latitude":32.5387,"longitude":75.971,"temp":15.5,"humidity":32,"rain":0.0,"pressure":802.0,"uv_index":5.05,"wind_gusts":42.5,"aqi":68,"pm10":33.3,"pm2_5":18.6,"mosquito_risk":0,"arthritis_risk":5,"migraine_risk":3,"frizz_risk":1,"updated_at":"2026-03-15T08:12:42.653081+05:30"},{"city":"Patiala","state":"Punjab","latitude":30.3398,"longitude":76.3869,"temp":16.4,"humidity":86,"rain":0.0,"pressure":979.9,"uv_index":5.95,"wind_gusts":30.6,"aqi":133,"pm10":58.7,"pm2_5":37.4,"mosquito_risk":3,"arthritis_risk":10,"migraine_risk":3,"frizz_risk":0,"updated_at":"2026-03-15T08:12:42.653088+05:30"},{"city":"Bhatinda","state":"Punjab","latitude":30.211,"longitude":74.9455,"temp":18.1,"humidity":88,"rain":0.0,"pressure":985.5,"uv_index":6.5,"wind_gusts":36.7,"aqi":91,"pm10":36.6,"pm2_5":25.1,"mosquito_risk":3,"arthritis_risk":10,"migraine_risk":7,"frizz_risk":1,"updated_at":"2026-03-15T08:12:42.653094+05:30"},{"city":"Rohtak","state":"Haryana","latitude":28.8955,"longitude":76.6066,"temp":18.6,"humidity":82,"rain":0.0,"pressure":983.8,"uv_index":6.15,"wind_gusts":39.2,"aqi":181,"pm10":204.4,"pm2_5":60.5,"mosquito_risk":3,"arthritis_risk":10,"migraine_risk":7,"frizz_risk":0,"updated_at":"2026-03-15T08:12:42.653101+05:30"},{"city":"Panipat","state":"Haryana","latitude":29.3909,"longitude":76.9635,"temp":18.3,"humidity":83,"rain":0.0,"pressure":982.2,"uv_index":5.95,"wind_gusts":29.5,"aqi":366,"pm10":91.3,"pm2_5":40.0,"mosquito_risk":3,"arthritis_risk":10,"migraine_risk":3,"frizz_risk":0,"updated_at":"2026-03-15T08:12:42.653109+05:30"},{"city":"Mathura","state":"Uttar Pradesh","latitude":27.4924,"longitude":77.6737,"temp":20.3,"humidity":63,"rain":0.0,"pressure":989.1,"uv_index":6.5,"wind_gusts":38.5,"aqi":209,"pm10":968.6,"pm2_5":115.9,"mosquito_risk":3,"arthritis_risk":5,"migraine_risk":7,"frizz_risk":0,"updated_at":"2026-03-15T08:12:42.653115+05:30"},{"city":"Vrindavan","state":"Uttar Pradesh","latitude":27.5823,"longitude":77.7027,"temp":20.1,"humidity":66,"rain":0.0,"pressure":989.8,"uv_index":6.45,"wind_gusts":33.5,"aqi":209,"pm10":968.6,"pm2_5":115.9,"mosquito_risk":3,"arthritis_risk":5,"migraine_risk":7,"frizz_risk":0,"updated_at":"2026-03-15T08:12:42.653122+05:30"},{"city":"Ayodhya","state":"Uttar Pradesh","latitude":26.7922,"longitude":82.1998,"temp":20.7,"humidity":74,"rain":0.0,"pressure":1000.1,"uv_index":6.9,"wind_gusts":38.9,"aqi":151,"pm10":105.5,"pm2_5":62.4,"mosquito_risk":3,"arthritis_risk":5,"migraine_risk":4,"frizz_risk":0,"updated_at":"2026-03-15T08:12:42.653128+05:30"},{"city":"Ratlam","state":"Madhya Pradesh","latitude":23.3315,"longitude":75.0367,"temp":22.2,"humidity":60,"rain":0.0,"pressure":956.9,"uv_index":7.65,"wind_gusts":33.8,"aqi":64,"pm10":45.6,"pm2_5":25.8,"mosquito_risk":0,"arthritis_risk":5,"migraine_risk":7,"frizz_risk":0,"updated_at":"2026-03-15T08:12:42.653135+05:30"},{"city":"Sagar","state":"Madhya Pradesh","latitude":23.8388,"longitude":78.7378,"temp":22.4,"humidity":49,"rain":0.0,"pressure":952.2,"uv_index":7.65,"wind_gusts":33.8,"aqi":60,"pm10":15.7,"pm2_5":11.8,"mosquito_risk":0,"arthritis_risk":5,"migraine_risk":7,"frizz_risk":0,"updated_at":"2026-03-15T08:12:42.653141+05:30"},{"city":"Satna","state":"Madhya Pradesh","latitude":24.6005,"longitude":80.8322,"temp":23.7,"humidity":62,"rain":0.0,"pressure":973.5,"uv_index":7.6,"wind_gusts":26.6,"aqi":96,"pm10":78.7,"pm2_5":36.1,"mosquito_risk":3,"arthritis_risk":5,"migraine_risk":7,"frizz_risk":0,"updated_at":"2026-03-15T08:12:42.653148+05:30"},{"city":"Akola","state":"Maharashtra","latitude":20.7002,"longitude":77.0082,"temp":24.7,"humidity":49,"rain":0.0,"pressure":978.2,"uv_index":8.15,"wind_gusts":23.4,"aqi":81,"pm10":35.3,"pm2_5":30.9,"mosquito_risk":0,"arthritis_risk":5,"migraine_risk":7,"frizz_risk":0,"updated_at":"2026-03-15T08:12:42.653155+05:30"},{"city":"Amravati","state":"Maharashtra","latitude":20.9374,"longitude":77.7796,"temp":23.5,"humidity":56,"rain":0.0,"pressure":970.2,"uv_index":8.1,"wind_gusts":23.8,"aqi":93,"pm10":34.0,"pm2_5":31.5,"mosquito_risk":0,"arthritis_risk":5,"migraine_risk":7,"frizz_risk":0,"updated_at":"2026-03-15T08:12:42.653163+05:30"},{"city":"Latur","state":"Maharashtra","latitude":18.4088,"longitude":76.5604,"temp":25.0,"humidity":46,"rain":0.0,"pressure":943.0,"uv_index":8.55,"wind_gusts":27.0,"aqi":133,"pm10":53.2,"pm2_5":48.5,"mosquito_risk":4,"arthritis_risk":5,"migraine_risk":7,"frizz_risk":0,"updated_at":"2026-03-15T08:12:42.653170+05:30"},{"city":"Nanded","state":"Maharashtra","latitude":19.1383,"longitude":77.3091,"temp":25.7,"humidity":62,"rain":0.0,"pressure":972.1,"uv_index":8.35,"wind_gusts":22.3,"aqi":140,"pm10":66.6,"pm2_5":61.2,"mosquito_risk":7,"arthritis_risk":5,"migraine_risk":7,"frizz_risk":1,"updated_at":"2026-03-15T08:12:42.653176+05:30"},{"city":"Gulbarga","state":"Karnataka","latitude":17.3297,"longitude":76.8343,"temp":25.9,"humidity":61,"rain":0.0,"pressure":962.0,"uv_index":8.6,"wind_gusts":23.0,"aqi":102,"pm10":35.7,"pm2_5":32.7,"mosquito_risk":7,"arthritis_risk":5,"migraine_risk":7,"frizz_risk":1,"updated_at":"2026-03-15T08:12:42.653183+05:30"},{"city":"Bidar","state":"Karnataka","latitude":17.9104,"longitude":77.5199,"temp":24.4,"humidity":67,"rain":0.0,"pressure":939.0,"uv_index":8.6,"wind_gusts":28.1,"aqi":105,"pm10":34.0,"pm2_5":29.9,"mosquito_risk":3,"arthritis_risk":5,"migraine_risk":7,"frizz_risk":1,"updated_at":"2026-03-15T08:12:42.653189+05:30"},{"city":"Hospet","state":"Karnataka","latitude":15.2689,"longitude":76.3909,"temp":24.5,"humidity":83,"rain":0.0,"pressure":959.8,"uv_index":8.9,"wind_gusts":27.4,"aqi":113,"pm10":43.4,"pm2_5":41.3,"mosquito_risk":3,"arthritis_risk":5,"migraine_risk":7,"frizz_risk":1,"updated_at":"2026-03-15T08:12:42.653195+05:30"},{"city":"Tirupur","state":"Tamil Nadu","latitude":11.1085,"longitude":77.3411,"temp":24.1,"humidity":81,"rain":0.0,"pressure":979.9,"uv_index":9.3,"wind_gusts":27.0,"aqi":56,"pm10":25.8,"pm2_5":24.2,"mosquito_risk":3,"arthritis_risk":5,"migraine_risk":7,"frizz_risk":1,"updated_at":"2026-03-15T08:12:42.653201+05:30"},{"city":"Alappuzha","state":"Kerala","latitude":9.4981,"longitude":76.3388,"temp":26.6,"humidity":82,"rain":0.0,"pressure":1012.4,"uv_index":9.1,"wind_gusts":29.2,"aqi":70,"pm10":24.6,"pm2_5":23.7,"mosquito_risk":7,"arthritis_risk":0,"migraine_risk":4,"frizz_risk":1,"updated_at":"2026-03-15T08:12:42.653207+05:30"},{"city":"Munnar","state":"Kerala","latitude":10.0889,"longitude":77.0595,"temp":21.4,"humidity":65,"rain":0.0,"pressure":859.6,"uv_index":9.55,"wind_gusts":33.5,"aqi":57,"pm10":23.3,"pm2_5":22.5,"mosquito_risk":3,"arthritis_risk":5,"migraine_risk":7,"frizz_risk":0,"updated_at":"2026-03-15T08:12:42.653214+05:30"},{"city":"Silchar","state":"Assam","latitude":24.8333,"longitude":92.7789,"temp":20.9,"humidity":90,"rain":0.0,"pressure":1012.9,"uv_index":7.85,"wind_gusts":40.3,"aqi":117,"pm10":30.6,"pm2_5":26.1,"mosquito_risk":3,"arthritis_risk":0,"migraine_risk":4,"frizz_risk":1,"updated_at":"2026-03-15T08:12:42.653220+05:30"},{"city":"Dibrugarh","state":"Assam","latitude":27.4728,"longitude":94.912,"temp":19.4,"humidity":94,"rain":0.0,"pressure":1001.6,"uv_index":4.65,"wind_gusts":27.4,"aqi":71,"pm10":24.5,"pm2_5":18.9,"mosquito_risk":3,"arthritis_risk":10,"migraine_risk":0,"frizz_risk":1,"updated_at":"2026-03-15T08:12:42.653227+05:30"}]