[{"city":"Delhi","state":"Delhi","latitude":28.6139,"longitude":77.209,"temp":22.0,"humidity":66,"rain":0.0,"pressure":987.0,"uv_index":6.45,"wind_gusts":23.8,"aqi":179,"pm10":549.5,"pm2_5":111.5,"mosquito_risk":3,"arthritis_risk":5,"migraine_risk":7,"frizz_risk":0,"updated_at":"2026-03-23T00:59:38.374431+05:30"},{"city":"Mumbai","state":"Maharashtra","latitude":19.076,"longitude":72.8777,"temp":29.1,"humidity":58,"rain":0.0,"pressure":1009.8,"uv_index":7.95,"wind_gusts":27.0,"aqi":129,"pm10":51.0,"pm2_5":37.4,"mosquito_risk":4,"arthritis_risk":0,"migraine_risk":4,"frizz_risk":1,"updated_at":"2026-03-23T00:59:38.374474+05:30"},{"city":"Bangalore","state":"Karnataka","latitude":12.9716,"longitude":77.5946,"temp":23.5,"humidity":75,"rain":0.0,"pressure":913.2,"uv_index":9.45,"wind_gusts":25.9,"aqi":118,"pm10":80.6,"pm2_5":69.2,"mosquito_risk":3,"arthritis_risk":5,"migraine_risk":7,"frizz_risk":1,"updated_at":"2026-03-23T00:59:38.374489+05:30"},{"city":"Hyderabad","state":"Telangana","latitude":17.385,"longitude":78.4867,"temp":24.5,"humidity":77,"rain":0.0,"pressure":955.5,"uv_index":8.95,"wind_gusts":22.7,"aqi":100,"pm10":34.6,"pm2_5":28.5,"mosquito_risk":3,"arthritis_risk":5,"migraine_risk":7,"frizz_risk":1,"updated_at":"2026-03-23T00:59:38.374499+05:30"},{"city":"Chennai","state":"Tamil Nadu","latitude":13.0827,"longitude":80.2707,"temp":26.6,"humidity":81,"rain":0.0,"pressure":1009.8,"uv_index":9.2,"wind_gusts":32.8,"aqi":36,"pm10":12.4,"pm2_5":8.3,"mosquito_risk":7,"arthritis_risk":0,"migraine_risk":4,"frizz_risk":1,"updated_at":"2026-03-23T00:59:38.374508+05:30"},{"city":"Kolkata","state":"West Bengal","latitude":22.5726,"longitude":88.3639,"temp":22.3,"humidity":81,"rain":0.0,"pressure":1010.3,"uv_index":8.3,"wind_gusts":19.1,"aqi":145,"pm10":85.9,"pm2_5":82.9,"mosquito_risk":3,"arthritis_risk":0,"migraine_risk":4,"frizz_risk":1,"updated_at":"2026-03-23T00:59:38.374517+05:30"},{"city":"Pune","state":"Maharashtra","latitude":18.5204,"longitude":73.8567,"temp":25.6,"humidity":56,"rain":0.0,"pressure":950.4,"uv_index":8.45,"wind_gusts":38.5,"aqi":74,"pm10":39.6,"pm2_5":28.6,"mosquito_risk":4,"arthritis_risk":5,"migraine_risk":7,"frizz_risk":1,"updated_at":"2026-03-23T00:59:38.374529+05:30"},{"city":"Ahmedabad","state":"Gujarat","latitude":23.0225,"longitude":72.5714,"temp":24.7,"humidity":58,"rain":0.0,"pressure":1005.3,"uv_index":7.85,"wind_gusts":29.2,"aqi":76,"pm10":82.4,"pm2_5":50.6,"mosquito_risk":0,"arthritis_risk":5,"migraine_risk":4,"frizz_risk":0,"updated_at":"2026-03-23T00:59:38.374537+05:30"},{"city":"Jaipur","state":"Rajasthan","latitude":26.9124,"longitude":75.7873,"temp":22.6,"humidity":54,"rain":0.0,"pressure":962.9,"uv_index":6.8,"wind_gusts":24.5,"aqi":91,"pm10":87.8,"pm2_5":39.8,"mosquito_risk":0,"arthritis_risk":5,"migraine_risk":7,"frizz_risk":0,"updated_at":"2026-03-23T00:59:38.374545+05:30"},{"city":"Lucknow","state":"Uttar Pradesh","latitude":26.8467,"longitude":80.9462,"temp":21.4,"humidity":64,"rain":0.0,"pressure":997.7,"uv_index":6.3,"wind_gusts":37.8,"aqi":126,"pm10":387.4,"pm2_5":72.9,"mosquito_risk":3,"arthritis_risk":5,"migraine_risk":7,"frizz_risk":0,"updated_at":"2026-03-23T00:59:38.374553+05:30"},{"city":"Kanpur","state":"Uttar Pradesh","latitude":26.4499,"longitude":80.3319,"temp":21.6,"humidity":71,"rain":0.0,"pressure":995.9,"uv_index":6.4,"wind_gusts":28.4,"aqi":166,"pm10":512.2,"pm2_5":86.1,"mosquito_risk":3,"arthritis_risk":5,"migraine_risk":7,"frizz_risk":1,"updated_at":"2026-03-23T00:59:38.374560+05:30"},{"city":"Chandigarh","state":"Chandigarh","latitude":30.7333,"longitude":76.7794,"temp":18.2,"humidity":80,"rain":0.0,"pressure":972.4,"uv_index":6.4,"wind_gusts":25.9,"aqi":96,"pm10":58.6,"pm2_5":51.9,"mosquito_risk":3,"arthritis_risk":5,"migraine_risk":7,"frizz_risk":0,"updated_at":"2026-03-23T00:59:38.374568+05:30"},{"city":"Srinagar","state":"Jammu and Kashmir","latitude":34.0837,"longitude":74.7973,"temp":7.7,"humidity":89,"rain":0.0,"pressure":839.8,"uv_index":5.85,"wind_gusts":17.3,"aqi":119,"pm10":82.7,"pm2_5":75.4,"mosquito_risk":3,"arthritis_risk":10,"migraine_risk":3,"frizz_risk":0,"updated_at":"2026-03-23T00:59:38.374576+05:30"},{"city":"Jammu","state":"Jammu and Kashmir","latitude":32.7266,"longitude":74.857,"temp":18.4,"humidity":88,"rain":0.0,"pressure":976.4,"uv_index":7.05,"wind_gusts":20.5,"aqi":104,"pm10":58.1,"pm2_5":53.9,"mosquito_risk":3,"arthritis_risk":10,"migraine_risk":7,"frizz_risk":1,"updated_at":"2026-03-23T00:59:38.374584+05:30"},{"city":"Amritsar","state":"Punjab","latitude":31.634,"longitude":74.8723,"temp":19.3,"humidity":72,"rain":0.0,"pressure":984.9,"uv_index":7.05,"wind_gusts":22.0,"aqi":154,"pm10":97.3,"pm2_5":72.4,"mosquito_risk":3,"arthritis_risk":5,"migraine_risk":7,"frizz_risk":0,"updated_at":"2026-03-23T00:59:38.374590+05:30"},{"city":"Ludhiana","state":"Punjab","latitude":30.901,"longitude":75.8573,"temp":20.0,"humidity":72,"rain":0.0,"pressure":982.9,"uv_index":6.65,"wind_gusts":25.2,"aqi":141,"pm10":113.2,"pm2_5":65.0,"mosquito_risk":3,"arthritis_risk":5,"migraine_risk":7,"frizz_risk":0,"updated_at":"2026-03-23T00:59:38.374597+05:30"},{"city":"Jalandhar","state":"Punjab","latitude":31.326,"longitude":75.5762,"temp":19.2,"humidity":76,"rain":0.0,"pressure":983.9,"uv_index":6.85,"wind_gusts":27.0,"aqi":152,"pm10":96.4,"pm2_5":69.6,"mosquito_risk":3,"arthritis_risk":5,"migraine_risk":7,"frizz_risk":0,"updated_at":"2026-03-23T00:59:38.374606+05:30"},{"city":"Dehradun","state":"Uttarakhand","latitude":30.6284,"longitude":78.0322,"temp":11.1,"humidity":90,"rain":0.0,"pressure":830.1,"uv_index":6.8,"wind_gusts":23.4,"aqi":83,"pm10":35.6,"pm2_5":31.1,"mosquito_risk":3,"arthritis_risk":10,"migraine_risk":7,"frizz_risk":0,"updated_at":"2026-03-23T00:59:38.374613+05:30"},{"city":"Shimla","state":"Himachal Pradesh","latitude":31.1048,"longitude":77.1734,"temp":9.1,"humidity":89,"rain":0.0,"pressure":783.3,"uv_index":6.9,"wind_gusts":31.7,"aqi":76,"pm10":41.0,"pm2_5":35.9,"mosquito_risk":3,"arthritis_risk":10,"migraine_risk":7,"frizz_risk":0,"updated_at":"2026-03-23T00:59:38.374621+05:30"},{"city":"Manali","state":"Himachal Pradesh","latitude":32.2396,"longitude":77.1887,"temp":11.6,"humidity":39,"rain":0.0,"pressure":818.0,"uv_index":8.25,"wind_gusts":26.6,"aqi":82,"pm10":25.9,"pm2_5":16.8,"mosquito_risk":0,"arthritis_risk":5,"migraine_risk":7,"frizz_risk":1,"updated_at":"2026-03-23T00:59:38.374628+05:30"},{"city":"Gurgaon","state":"Haryana","latitude":28.4595,"longitude":77.0266,"temp":19.8,"humidity":77,"rain":0.0,"pressure":985.3,"uv_index":6.55,"wind_gusts":20.2,"aqi":471,"pm10":553.2,"pm2_5":112.0,"mosquito_risk":3,"arthritis_risk":5,"migraine_risk":7,"frizz_risk":0,"updated_at":"2026-03-23T00:59:38.374635+05:30"},{"city":"Noida","state":"Uttar Pradesh","latitude":28.5355,"longitude":77.391,"temp":21.9,"humidity":66,"rain":0.0,"pressure":988.5,"uv_index":6.45,"wind_gusts":22.7,"aqi":471,"pm10":553.2,"pm2_5":112.0,"mosquito_risk":3,"arthritis_risk":5,"migraine_risk":7,"frizz_risk":0,"updated_at":"2026-03-23T00:59:38.374642+05:30"},{"city":"Ghaziabad","state":"Uttar Pradesh","latitude":28.6692,"longitude":77.4538,"temp":20.0,"humidity":75,"rain":0.0,"pressure":986.6,"uv_index":6.35,"wind_gusts":23.8,"aqi":158,"pm10":534.6,"pm2_5":105.9,"mosquito_risk":3,"arthritis_risk":5,"migraine_risk":7,"frizz_risk":0,"updated_at":"2026-03-23T00:59:38.374649+05:30"},{"city":"Faridabad","state":"Haryana","latitude":28.4089,"longitude":77.3178,"temp":20.3,"humidity":72,"rain":0.0,"pressure":987.7,"uv_index":6.45,"wind_gusts":19.4,"aqi":471,"pm10":553.2,"pm2_5":112.0,"mosquito_risk":3,"arthritis_risk":5,"migraine_risk":7,"frizz_risk":0,"updated_at":"2026-03-23T00:59:38.374656+05:30"},{"city":"Meerut","state":"Uttar Pradesh","latitude":28.9845,"longitude":77.7064,"temp":18.7,"humidity":80,"rain":0.0,"pressure":985.3,"uv_index":6.35,"wind_gusts":24.8,"aqi":158,"pm10":534.6,"pm2_5":105.9,"mosquito_risk":3,"arthritis_risk":5,"migraine_risk":7,"frizz_risk":0,"updated_at":"2026-03-23T00:59:38.374662+05:30"},{"city":"Agra","state":"Uttar Pradesh","latitude":27.1767,"longitude":78.0081,"temp":21.7,"humidity":63,"rain":0.0,"pressure":991.7,"uv_index":5.2,"wind_gusts":28.1,"aqi":472,"pm10":495.5,"pm2_5":88.9,"mosquito_risk":3,"arthritis_risk":5,"migraine_risk":3,"frizz_risk":0,"updated_at":"2026-03-23T00:59:38.374669+05:30"},{"city":"Varanasi","state":"Uttar Pradesh","latitude":25.3176,"longitude":82.9739,"temp":20.0,"humidity":76,"rain":0.0,"pressure":1001.8,"uv_index":7.65,"wind_gusts":25.9,"aqi":107,"pm10":68.0,"pm2_5":47.1,"mosquito_risk":3,"arthritis_risk":5,"migraine_risk":4,"frizz_risk":0,"updated_at":"2026-03-23T00:59:38.374678+05:30"},{"city":"Prayagraj","state":"Uttar Pradesh","latitude":25.4358,"longitude":81.8463,"temp":21.9,"humidity":59,"rain":0.0,"pressure":1000.3,"uv_index":7.55,"wind_gusts":20.5,"aqi":114,"pm10":168.6,"pm2_5":49.6,"mosquito_risk":0,"arthritis_risk":5,"migraine_risk":4,"frizz_risk":0,"updated_at":"2026-03-23T00:59:38.374686+05:30"},{"city":"Gorakhpur","state":"Uttar Pradesh","latitude":26.7606,"longitude":83.3732,"temp":19.1,"humidity":85,"rain":0.0,"pressure":1001.5,"uv_index":7.4,"wind_gusts":20.5,"aqi":156,"pm10":48.9,"pm2_5":46.8,"mosquito_risk":3,"arthritis_risk":10,"migraine_risk":4,"frizz_risk":1,"updated_at":"2026-03-23T00:59:38.374693+05:30"},{"city":"Bareilly","state":"Uttar Pradesh","latitude":28.367,"longitude":79.4304,"temp":18.3,"humidity":83,"rain":0.0,"pressure":990.8,"uv_index":6.5,"wind_gusts":28.1,"aqi":118,"pm10":164.4,"pm2_5":54.7,"mosquito_risk":3,"arthritis_risk":10,"migraine_risk":7,"frizz_risk":0,"updated_at":"2026-03-23T00:59:38.374700+05:30"},{"city":"Aligarh","state":"Uttar Pradesh","latitude":27.8974,"longitude":78.088,"temp":19.3,"humidity":75,"rain":0.0,"pressure":989.4,"uv_index":6.0,"wind_gusts":23.8,"aqi":365,"pm10":469.4,"pm2_5":99.7,"mosquito_risk":3,"arthritis_risk":5,"migraine_risk":3,"frizz_risk":0,"updated_at":"2026-03-23T00:59:38.374706+05:30"},{"city":"Moradabad","state":"Uttar Pradesh","latitude":28.8386,"longitude":78.7733,"temp":18.4,"humidity":79,"rain":0.0,"pressure":987.5,"uv_index":6.5,"wind_gusts":27.0,"aqi":137,"pm10":308.3,"pm2_5":75.4,"mosquito_risk":3,"arthritis_risk":5,"migraine_risk":7,"frizz_risk":0,"updated_at":"2026-03-23T00:59:38.374713+05:30"},{"city":"Saharanpur","state":"Uttar Pradesh","latitude":29.9637,"longitude":77.546,"temp":17.9,"humidity":82,"rain":0.0,"pressure":979.5,"uv_index":6.15,"wind_gusts":28.1,"aqi":152,"pm10":249.6,"pm2_5":81.3,"mosquito_risk":3,"arthritis_risk":10,"migraine_risk":7,"frizz_risk":0,"updated_at":"2026-03-23T00:59:38.374720+05:30"},{"city":"Jhansi","state":"Uttar Pradesh","latitude":25.4484,"longitude":78.5685,"temp":23.2,"humidity":51,"rain":0.0,"pressure":981.5,"uv_index":7.4,"wind_gusts":20.2,"aqi":80,"pm10":59.1,"pm2_5":31.1,"mosquito_risk":0,"arthritis_risk":5,"migraine_risk":7,"frizz_risk":0,"updated_at":"2026-03-23T00:59:41.666678+05:30"},{"city":"Surat","state":"Gujarat","latitude":21.1702,"longitude":72.8311,"temp":26.9,"humidity":53,"rain":0.0,"pressure":1009.2,"uv_index":7.65,"wind_gusts":25.2,"aqi":115,"pm10":68.7,"pm2_5":51.2,"mosquito_risk":4,"arthritis_risk":0,"migraine_risk":4,"frizz_risk":1,"updated_at":"2026-03-23T00:59:41.666708+05:30"},{"city":"Vadodara","state":"Gujarat","latitude":22.3072,"longitude":73.1812,"temp":26.5,"humidity":51,"rain":0.0,"pressure":1007.3,"uv_index":7.8,"wind_gusts":23.0,"aqi":82,"pm10":53.2,"pm2_5":34.9,"mosquito_risk":4,"arthritis_risk":5,"migraine_risk":4,"frizz_risk":0,"updated_at":"2026-03-23T00:59:41.666718+05:30"},{"city":"Rajkot","state":"Gujarat","latitude":22.3039,"longitude":70.8022,"temp":23.9,"humidity":79,"rain":0.0,"pressure":997.8,"uv_index":7.65,"wind_gusts":30.6,"aqi":66,"pm10":33.4,"pm2_5":20.4,"mosquito_risk":3,"arthritis_risk":5,"migraine_risk":7,"frizz_risk":1,"updated_at":"2026-03-23T00:59:41.666727+05:30"},{"city":"Thane","state":"Maharashtra","latitude":19.2183,"longitude":72.9781,"temp":28.1,"humidity":46,"rain":0.0,"pressure":1009.3,"uv_index":7.9,"wind_gusts":41.4,"aqi":129,"pm10":51.0,"pm2_5":37.4,"mosquito_risk":4,"arthritis_risk":0,"migraine_risk":4,"frizz_risk":0,"updated_at":"2026-03-23T00:59:41.666734+05:30"},{"city":"Nagpur","state":"Maharashtra","latitude":21.1458,"longitude":79.0882,"temp":24.6,"humidity":50,"rain":0.0,"pressure":976.5,"uv_index":7.95,"wind_gusts":22.7,"aqi":57,"pm10":32.2,"pm2_5":25.5,"mosquito_risk":0,"arthritis_risk":5,"migraine_risk":7,"frizz_risk":0,"updated_at":"2026-03-23T00:59:41.666741+05:30"},{"city":"Nashik","state":"Maharashtra","latitude":19.9975,"longitude":73.7898,"temp":23.4,"humidity":60,"rain":0.0,"pressure":947.9,"uv_index":8.15,"wind_gusts":35.6,"aqi":81,"pm10":34.2,"pm2_5":20.9,"mosquito_risk":0,"arthritis_risk":5,"migraine_risk":7,"frizz_risk":0,"updated_at":"2026-03-23T00:59:41.666748+05:30"},{"city":"Aurangabad","state":"Maharashtra","latitude":19.8762,"longitude":75.3433,"temp":23.8,"humidity":48,"rain":0.0,"pressure":946.0,"uv_index":8.6,"wind_gusts":19.8,"aqi":58,"pm10":44.7,"pm2_5":34.1,"mosquito_risk":0,"arthritis_risk":5,"migraine_risk":7,"frizz_risk":0,"updated_at":"2026-03-23T00:59:41.666755+05:30"},{"city":"Solapur","state":"Maharashtra","latitude":17.6599,"longitude":75.9064,"temp":24.9,"humidity":51,"rain":0.0,"pressure":958.3,"uv_index":8.75,"wind_gusts":22.0,"aqi":60,"pm10":17.6,"pm2_5":15.0,"mosquito_risk":0,"arthritis_risk":5,"migraine_risk":7,"frizz_risk":0,"updated_at":"2026-03-23T00:59:41.666763+05:30"},{"city":"Kolhapur","state":"Maharashtra","latitude":16.705,"longitude":74.2433,"temp":19.9,"humidity":74,"rain":0.0,"pressure":949.0,"uv_index":8.9,"wind_gusts":38.5,"aqi":88,"pm10":33.5,"pm2_5":30.0,"mosquito_risk":3,"arthritis_risk":5,"migraine_risk":7,"frizz_risk":0,"updated_at":"2026-03-23T00:59:41.666770+05:30"},{"city":"Goa","state":"Goa","latitude":15.2993,"longitude":74.124,"temp":27.6,"humidity":83,"rain":0.0,"pressure":999.4,"uv_index":8.9,"wind_gusts":34.2,"aqi":88,"pm10":52.2,"pm2_5":42.8,"mosquito_risk":7,"arthritis_risk":5,"migraine_risk":7,"frizz_risk":1,"updated_at":"2026-03-23T00:59:41.666777+05:30"},{"city":"Jodhpur","state":"Rajasthan","latitude":26.2389,"longitude":73.0243,"temp":23.9,"humidity":70,"rain":0.0,"pressure":986.9,"uv_index":7.4,"wind_gusts":18.7,"aqi":69,"pm10":108.0,"pm2_5":23.8,"mosquito_risk":3,"arthritis_risk":5,"migraine_risk":7,"frizz_risk":1,"updated_at":"2026-03-23T00:59:41.666783+05:30"},{"city":"Udaipur","state":"Rajasthan","latitude":24.5854,"longitude":73.7125,"temp":22.6,"humidity":53,"rain":0.0,"pressure":949.5,"uv_index":8.05,"wind_gusts":30.6,"aqi":58,"pm10":47.7,"pm2_5":17.5,"mosquito_risk":0,"arthritis_risk":5,"migraine_risk":7,"frizz_risk":0,"updated_at":"2026-03-23T00:59:41.666789+05:30"},{"city":"Kota","state":"Rajasthan","latitude":25.2138,"longitude":75.8648,"temp":25.1,"humidity":50,"rain":0.0,"pressure":981.8,"uv_index":7.45,"wind_gusts":22.7,"aqi":89,"pm10":40.9,"pm2_5":28.6,"mosquito_risk":4,"arthritis_risk":5,"migraine_risk":7,"frizz_risk":0,"updated_at":"2026-03-23T00:59:41.666796+05:30"},{"city":"Bikaner","state":"Rajasthan","latitude":28.0229,"longitude":73.3119,"temp":23.1,"humidity":65,"rain":0.0,"pressure":986.2,"uv_index":7.25,"wind_gusts":15.1,"aqi":69,"pm10":51.2,"pm2_5":19.3,"mosquito_risk":3,"arthritis_risk":5,"migraine_risk":7,"frizz_risk":1,"updated_at":"2026-03-23T00:59:41.666803+05:30"},{"city":"Ajmer","state":"Rajasthan","latitude":26.4499,"longitude":74.6399,"temp":23.6,"humidity":53,"rain":0.0,"pressure":957.9,"uv_index":7.2,"wind_gusts":25.2,"aqi":67,"pm10":43.5,"pm2_5":17.2,"mosquito_risk":0,"arthritis_risk":5,"migraine_risk":7,"frizz_risk":0,"updated_at":"2026-03-23T00:59:41.666810+05:30"},{"city":"Gwalior","state":"Madhya Pradesh","latitude":26.2183,"longitude":78.1828,"temp":22.9,"humidity":62,"rain":0.0,"pressure":986.8,"uv_index":6.95,"wind_gusts":25.6,"aqi":130,"pm10":134.1,"pm2_5":35.5,"mosquito_risk":3,"arthritis_risk":5,"migraine_risk":7,"frizz_risk":0,"updated_at":"2026-03-23T00:59:41.666817+05:30"},{"city":"Indore","state":"Madhya Pradesh","latitude":22.7196,"longitude":75.8577,"temp":22.0,"humidity":58,"rain":0.0,"pressure":950.5,"uv_index":8.1,"wind_gusts":22.3,"aqi":63,"pm10":36.1,"pm2_5":24.7,"mosquito_risk":0,"arthritis_risk":5,"migraine_risk":7,"frizz_risk":0,"updated_at":"2026-03-23T00:59:41.666824+05:30"},{"city":"Bhopal","state":"Madhya Pradesh","latitude":23.2599,"longitude":77.4126,"temp":23.2,"humidity":44,"rain":0.0,"pressure":956.4,"uv_index":8.0,"wind_gusts":30.2,"aqi":55,"pm10":25.2,"pm2_5":15.4,"mosquito_risk":0,"arthritis_risk":5,"migraine_risk":7,"frizz_risk":0,"updated_at":"2026-03-23T00:59:41.666830+05:30"},{"city":"Jabalpur","state":"Madhya Pradesh","latitude":23.1815,"longitude":79.9864,"temp":22.8,"humidity":53,"rain":0.0,"pressure":964.6,"uv_index":8.1,"wind_gusts":21.2,"aqi":61,"pm10":62.2,"pm2_5":27.4,"mosquito_risk":0,"arthritis_risk":5,"migraine_risk":7,"frizz_risk":0,"updated_at":"2026-03-23T00:59:41.666837+05:30"},{"city":"Ujjain","state":"Madhya Pradesh","latitude":23.1765,"longitude":75.7885,"temp":22.6,"humidity":56,"rain":0.0,"pressure":956.3,"uv_index":8.0,"wind_gusts":20.5,"aqi":72,"pm10":64.3,"pm2_5":53.4,"mosquito_risk":0,"arthritis_risk":5,"migraine_risk":7,"frizz_risk":0,"updated_at":"2026-03-23T00:59:41.666844+05:30"},{"city":"Visakhapatnam","state":"Andhra Pradesh","latitude":17.6868,"longitude":83.2185,"temp":24.6,"humidity":87,"rain":0.0,"pressure":1006.8,"uv_index":8.9,"wind_gusts":36.0,"aqi":77,"pm10":26.0,"pm2_5":21.4,"mosquito_risk":3,"arthritis_risk":5,"migraine_risk":4,"frizz_risk":1,"updated_at":"2026-03-23T00:59:41.666851+05:30"},{"city":"Vijayawada","state":"Andhra Pradesh","latitude":16.5062,"longitude":80.648,"temp":25.7,"humidity":87,"rain":0.0,"pressure":1005.8,"uv_index":8.95,"wind_gusts":25.6,"aqi":66,"pm10":27.4,"pm2_5":23.5,"mosquito_risk":7,"arthritis_risk":5,"migraine_risk":4,"frizz_risk":1,"updated_at":"2026-03-23T00:59:41.666858+05:30"},{"city":"Guntur","state":"Andhra Pradesh","latitude":16.3067,"longitude":80.4365,"temp":25.3,"humidity":92,"rain":0.0,"pressure":1006.9,"uv_index":8.95,"wind_gusts":29.2,"aqi":66,"pm10":27.8,"pm2_5":24.2,"mosquito_risk":7,"arthritis_risk":5,"migraine_risk":4,"frizz_risk":1,"updated_at":"2026-03-23T00:59:41.666865+05:30"},{"city":"Nellore","state":"Andhra Pradesh","latitude":14.4426,"longitude":79.9865,"temp":25.7,"humidity":86,"rain":0.0,"pressure":1008.7,"uv_index":9.1,"wind_gusts":28.8,"aqi":46,"pm10":10.5,"pm2_5":6.7,"mosquito_risk":7,"arthritis_risk":0,"migraine_risk":4,"frizz_risk":1,"updated_at":"2026-03-23T00:59:41.666872+05:30"},{"city":"Kurnool","state":"Andhra Pradesh","latitude":15.8281,"longitude":78.0373,"temp":28.1,"humidity":63,"rain":0.0,"pressure":978.8,"uv_index":8.95,"wind_gusts":25.2,"aqi":78,"pm10":30.6,"pm2_5":25.2,"mosquito_risk":7,"arthritis_risk":5,"migraine_risk":7,"frizz_risk":1,"updated_at":"2026-03-23T00:59:41.666880+05:30"},{"city":"Kakinada","state":"Andhra Pradesh","latitude":16.9891,"longitude":82.2475,"temp":23.1,"humidity":96,"rain":0.0,"pressure":1010.6,"uv_index":8.9,"wind_gusts":31.3,"aqi":44,"pm10":17.2,"pm2_5":12.0,"mosquito_risk":3,"arthritis_risk":0,"migraine_risk":4,"frizz_risk":1,"updated_at":"2026-03-23T00:59:41.666887+05:30"},{"city":"Tirupati","state":"Andhra Pradesh","latitude":13.6288,"longitude":79.4192,"temp":24.4,"humidity":81,"rain":0.0,"pressure":994.6,"uv_index":9.2,"wind_gusts":30.6,"aqi":68,"pm10":26.0,"pm2_5":22.1,"mosquito_risk":3,"arthritis_risk":5,"migraine_risk":7,"frizz_risk":1,"updated_at":"2026-03-23T00:59:41.666894+05:30"},{"city":"Warangal","state":"Telangana","latitude":17.9689,"longitude":79.5941,"temp":25.7,"humidity":75,"rain":0.0,"pressure":981.2,"uv_index":8.8,"wind_gusts":22.3,"aqi":122,"pm10":62.2,"pm2_5":53.9,"mosquito_risk":7,"arthritis_risk":5,"migraine_risk":7,"frizz_risk":1,"updated_at":"2026-03-23T00:59:41.666901+05:30"},{"city":"Nizamabad","state":"Telangana","latitude":18.6725,"longitude":78.0941,"temp":25.3,"humidity":70,"rain":0.0,"pressure":967.4,"uv_index":8.7,"wind_gusts":20.9,"aqi":80,"pm10":57.5,"pm2_5":51.3,"mosquito_risk":7,"arthritis_risk":5,"migraine_risk":7,"frizz_risk":1,"updated_at":"2026-03-23T00:59:41.666907+05:30"},{"city":"Mysore","state":"Karnataka","latitude":12.2958,"longitude":76.6396,"temp":23.6,"humidity":80,"rain":0.0,"pressure":929.7,"uv_index":9.4,"wind_gusts":33.5,"aqi":98,"pm10":53.6,"pm2_5":42.7,"mosquito_risk":3,"arthritis_risk":5,"migraine_risk":7,"frizz_risk":1,"updated_at":"2026-03-23T00:59:41.666913+05:30"},{"city":"Mangalore","state":"Karnataka","latitude":12.9141,"longitude":74.856,"temp":29.4,"humidity":76,"rain":0.0,"pressure":1008.3,"uv_index":9.1,"wind_gusts":24.5,"aqi":75,"pm10":36.2,"pm2_5":25.5,"mosquito_risk":7,"arthritis_risk":0,"migraine_risk":4,"frizz_risk":1,"updated_at":"2026-03-23T00:59:41.666919+05:30"},{"city":"Hubli-Dharwad","state":"Karnataka","latitude":15.3647,"longitude":75.124,"temp":23.1,"humidity":76,"rain":0.0,"pressure":942.1,"uv_index":9.1,"wind_gusts":40.3,"aqi":69,"pm10":28.1,"pm2_5":21.1,"mosquito_risk":3,"arthritis_risk":5,"migraine_risk":7,"frizz_risk":1,"updated_at":"2026-03-23T00:59:41.666926+05:30"},{"city":"Belgaum","state":"Karnataka","latitude":15.8497,"longitude":74.4977,"temp":22.4,"humidity":73,"rain":0.0,"pressure":927.0,"uv_index":9.15,"wind_gusts":38.9,"aqi":82,"pm10":37.3,"pm2_5":29.9,"mosquito_risk":3,"arthritis_risk":5,"migraine_risk":7,"frizz_risk":1,"updated_at":"2026-03-23T00:59:44.942538+05:30"},{"city":"Coimbatore","state":"Tamil Nadu","latitude":11.0168,"longitude":76.9558,"temp":24.3,"humidity":87,"rain":0.0,"pressure":963.4,"uv_index":9.4,"wind_gusts":34.6,"aqi":86,"pm10":42.6,"pm2_5":34.8,"mosquito_risk":3,"arthritis_risk":5,"migraine_risk":7,"frizz_risk":1,"updated_at":"2026-03-23T00:59:44.942568+05:30"},{"city":"Madurai","state":"Tamil Nadu","latitude":9.9252,"longitude":78.1198,"temp":26.1,"humidity":81,"rain":0.0,"pressure":995.4,"uv_index":9.35,"wind_gusts":26.3,"aqi":65,"pm10":26.0,"pm2_5":22.9,"mosquito_risk":7,"arthritis_risk":5,"migraine_risk":7,"frizz_risk":1,"updated_at":"2026-03-23T00:59:44.942578+05:30"},{"city":"Trichy","state":"Tamil Nadu","latitude":10.7905,"longitude":78.7047,"temp":25.5,"humidity":90,"rain":0.0,"pressure":1002.2,"uv_index":9.3,"wind_gusts":22.7,"aqi":65,"pm10":20.6,"pm2_5":17.2,"mosquito_risk":7,"arthritis_risk":5,"migraine_risk":4,"frizz_risk":1,"updated_at":"2026-03-23T00:59:44.942586+05:30"},{"city":"Salem","state":"Tamil Nadu","latitude":11.6643,"longitude":78.146,"temp":26.3,"humidity":74,"rain":0.0,"pressure":979.2,"uv_index":9.35,"wind_gusts":22.3,"aqi":84,"pm10":35.6,"pm2_5":30.5,"mosquito_risk":7,"arthritis_risk":5,"migraine_risk":7,"frizz_risk":1,"updated_at":"2026-03-23T00:59:44.942594+05:30"},{"city":"Tirunelveli","state":"Tamil Nadu","latitude":8.7139,"longitude":77.7567,"temp":26.3,"humidity":74,"rain":0.0,"pressure":1005.4,"uv_index":9.3,"wind_gusts":34.2,"aqi":69,"pm10":36.0,"pm2_5":33.2,"mosquito_risk":7,"arthritis_risk":5,"migraine_risk":4,"frizz_risk":1,"updated_at":"2026-03-23T00:59:44.942602+05:30"},{"city":"Vellore","state":"Tamil Nadu","latitude":12.9165,"longitude":79.1325,"temp":24.2,"humidity":77,"rain":0.0,"pressure":987.3,"uv_index":9.3,"wind_gusts":34.2,"aqi":83,"pm10":33.6,"pm2_5":29.3,"mosquito_risk":3,"arthritis_risk":5,"migraine_risk":7,"frizz_risk":1,"updated_at":"2026-03-23T00:59:44.942610+05:30"},{"city":"Erode","state":"Tamil Nadu","latitude":11.341,"longitude":77.7172,"temp":27.3,"humidity":77,"rain":0.0,"pressure":991.1,"uv_index":9.35,"wind_gusts":20.9,"aqi":66,"pm10":20.7,"pm2_5":17.7,"mosquito_risk":7,"arthritis_risk":5,"migraine_risk":7,"frizz_risk":1,"updated_at":"2026-03-23T00:59:44.942617+05:30"},{"city":"Kochi","state":"Kerala","latitude":9.9312,"longitude":76.2673,"temp":27.3,"humidity":81,"rain":0.0,"pressure":1010.7,"uv_index":9.15,"wind_gusts":28.8,"aqi":78,"pm10":43.8,"pm2_5":40.5,"mosquito_risk":7,"arthritis_risk":0,"migraine_risk":4,"frizz_risk":1,"updated_at":"2026-03-23T00:59:44.942625+05:30"},{"city":"Thiruvananthapuram","state":"Kerala","latitude":8.5241,"longitude":76.9366,"temp":27.7,"humidity":78,"rain":0.0,"pressure":1009.3,"uv_index":9.15,"wind_gusts":26.3,"aqi":92,"pm10":19.4,"pm2_5":14.7,"mosquito_risk":7,"arthritis_risk":0,"migraine_risk":4,"frizz_risk":1,"updated_at":"2026-03-23T00:59:44.942633+05:30"},{"city":"Kozhikode","state":"Kerala","latitude":11.2588,"longitude":75.7804,"temp":28.2,"humidity":81,"rain":0.0,"pressure":1009.2,"uv_index":9.05,"wind_gusts":25.2,"aqi":66,"pm10":39.5,"pm2_5":21.1,"mosquito_risk":7,"arthritis_risk":0,"migraine_risk":4,"frizz_risk":1,"updated_at":"2026-03-23T00:59:44.942641+05:30"},{"city":"Thrissur","state":"Kerala","latitude":10.5276,"longitude":76.2144,"temp":27.1,"humidity":83,"rain":0.0,"pressure":1008.7,"uv_index":9.15,"wind_gusts":35.6,"aqi":78,"pm10":53.0,"pm2_5":47.6,"mosquito_risk":7,"arthritis_risk":0,"migraine_risk":4,"frizz_risk":1,"updated_at":"2026-03-23T00:59:44.942649+05:30"},{"city":"Kannur","state":"Kerala","latitude":11.8745,"longitude":75.3704,"temp":28.6,"humidity":78,"rain":0.0,"pressure":1008.4,"uv_index":9.1,"wind_gusts":27.0,"aqi":69,"pm10":37.1,"pm2_5":24.2,"mosquito_risk":7,"arthritis_risk":0,"migraine_risk":4,"frizz_risk":1,"updated_at":"2026-03-23T00:59:44.942656+05:30"},{"city":"Patna","state":"Bihar","latitude":25.5941,"longitude":85.1376,"temp":20.5,"humidity":81,"rain":0.0,"pressure":1005.2,"uv_index":7.85,"wind_gusts":22.0,"aqi":160,"pm10":62.2,"pm2_5":59.4,"mosquito_risk":3,"arthritis_risk":5,"migraine_risk":4,"frizz_risk":1,"updated_at":"2026-03-23T00:59:44.942663+05:30"},{"city":"Gaya","state":"Bihar","latitude":24.7914,"longitude":85.0002,"temp":19.5,"humidity":85,"rain":0.0,"pressure":998.4,"uv_index":7.95,"wind_gusts":18.7,"aqi":136,"pm10":63.6,"pm2_5":56.8,"mosquito_risk":3,"arthritis_risk":10,"migraine_risk":7,"frizz_risk":1,"updated_at":"2026-03-23T00:59:44.942669+05:30"},{"city":"Muzaffarpur","state":"Bihar","latitude":26.1209,"longitude":85.3647,"temp":19.1,"humidity":80,"rain":0.0,"pressure":1005.1,"uv_index":7.8,"wind_gusts":19.8,"aqi":162,"pm10":61.0,"pm2_5":58.8,"mosquito_risk":3,"arthritis_risk":5,"migraine_risk":4,"frizz_risk":0,"updated_at":"2026-03-23T00:59:44.942675+05:30"},{"city":"Bhagalpur","state":"Bihar","latitude":25.2425,"longitude":87.0117,"temp":20.3,"humidity":80,"rain":0.0,"pressure":1005.9,"uv_index":7.85,"wind_gusts":12.6,"aqi":157,"pm10":86.6,"pm2_5":80.1,"mosquito_risk":3,"arthritis_risk":5,"migraine_risk":4,"frizz_risk":1,"updated_at":"2026-03-23T00:59:44.942681+05:30"},{"city":"Ranchi","state":"Jharkhand","latitude":23.3441,"longitude":85.3096,"temp":18.0,"humidity":69,"rain":0.0,"pressure":940.6,"uv_index":8.55,"wind_gusts":27.0,"aqi":87,"pm10":63.8,"pm2_5":31.7,"mosquito_risk":3,"arthritis_risk":5,"migraine_risk":7,"frizz_risk":0,"updated_at":"2026-03-23T00:59:44.942688+05:30"},{"city":"Jamshedpur","state":"Jharkhand","latitude":22.8046,"longitude":86.2029,"temp":23.7,"humidity":56,"rain":0.0,"pressure":995.0,"uv_index":8.4,"wind_gusts":16.6,"aqi":122,"pm10":81.3,"pm2_5":66.4,"mosquito_risk":0,"arthritis_risk":5,"migraine_risk":7,"frizz_risk":0,"updated_at":"2026-03-23T00:59:44.942694+05:30"},{"city":"Dhanbad","state":"Jharkhand","latitude":23.7957,"longitude":86.4304,"temp":20.6,"humidity":74,"rain":0.0,"pressure":984.1,"uv_index":8.3,"wind_gusts":19.1,"aqi":144,"pm10":101.3,"pm2_5":90.3,"mosquito_risk":3,"arthritis_risk":5,"migraine_risk":7,"frizz_risk":0,"updated_at":"2026-03-23T00:59:44.942701+05:30"},{"city":"Bokaro","state":"Jharkhand","latitude":23.6693,"longitude":86.1511,"temp":21.0,"humidity":72,"rain":0.0,"pressure":988.4,"uv_index":8.3,"wind_gusts":16.2,"aqi":144,"pm10":111.3,"pm2_5":92.0,"mosquito_risk":3,"arthritis_risk":5,"migraine_risk":7,"frizz_risk":0,"updated_at":"2026-03-23T00:59:44.942707+05:30"},{"city":"Bhubaneswar","state":"Odisha","latitude":20.2961,"longitude":85.8245,"temp":24.0,"humidity":92,"rain":0.0,"pressure":1006.3,"uv_index":8.7,"wind_gusts":31.3,"aqi":92,"pm10":48.4,"pm2_5":40.9,"mosquito_risk":3,"arthritis_risk":5,"migraine_risk":4,"frizz_risk":1,"updated_at":"2026-03-23T00:59:44.942714+05:30"},{"city":"Cuttack","state":"Odisha","latitude":20.4625,"longitude":85.8828,"temp":23.8,"humidity":91,"rain":0.0,"pressure":1008.3,"uv_index":8.75,"wind_gusts":27.4,"aqi":92,"pm10":48.4,"pm2_5":40.9,"mosquito_risk":3,"arthritis_risk":0,"migraine_risk":4,"frizz_risk":1,"updated_at":"2026-03-23T00:59:44.942720+05:30"},{"city":"Rourkela","state":"Odisha","latitude":22.2604,"longitude":84.8536,"temp":19.9,"humidity":83,"rain":0.0,"pressure":988.5,"uv_index":8.3,"wind_gusts":20.5,"aqi":82,"pm10":50.2,"pm2_5":35.2,"mosquito_risk":3,"arthritis_risk":10,"migraine_risk":7,"frizz_risk":1,"updated_at":"2026-03-23T00:59:44.942726+05:30"},{"city":"Raipur","state":"Chhattisgarh","latitude":21.2514,"longitude":81.6296,"temp":22.4,"humidity":46,"rain":0.0,"pressure":977.9,"uv_index":8.45,"wind_gusts":21.6,"aqi":82,"pm10":80.3,"pm2_5":71.7,"mosquito_risk":0,"arthritis_risk":5,"migraine_risk":7,"frizz_risk":0,"updated_at":"2026-03-23T00:59:44.942733+05:30"},{"city":"Bhilai","state":"Chhattisgarh","latitude":21.1938,"longitude":81.3509,"temp":21.9,"humidity":47,"rain":0.0,"pressure":978.3,"uv_index":8.45,"wind_gusts":20.5,"aqi":88,"pm10":86.1,"pm2_5":72.9,"mosquito_risk":0,"arthritis_risk":5,"migraine_risk":7,"frizz_risk":0,"updated_at":"2026-03-23T00:59:44.942739+05:30"},{"city":"Guwahati","state":"Assam","latitude":26.1158,"longitude":91.7086,"temp":21.2,"humidity":89,"rain":0.0,"pressure":1005.7,"uv_index":7.6,"wind_gusts":19.8,"aqi":80,"pm10":28.2,"pm2_5":25.0,"mosquito_risk":3,"arthritis_risk":5,"migraine_risk":4,"frizz_risk":1,"updated_at":"2026-03-23T00:59:44.942746+05:30"},{"city":"Agartala","state":"Tripura","latitude":23.8315,"longitude":91.2868,"temp":20.1,"humidity":87,"rain":0.0,"pressure":1010.6,"uv_index":8.05,"wind_gusts":16.6,"aqi":146,"pm10":91.7,"pm2_5":87.1,"mosquito_risk":3,"arthritis_risk":0,"migraine_risk":4,"frizz_risk":1,"updated_at":"2026-03-23T00:59:44.942752+05:30"},{"city":"Shillong","state":"Meghalaya","latitude":25.5788,"longitude":91.8933,"temp":8.8,"humidity":92,"rain":0.0,"pressure":855.0,"uv_index":7.25,"wind_gusts":25.6,"aqi":60,"pm10":23.0,"pm2_5":20.6,"mosquito_risk":3,"arthritis_risk":10,"migraine_risk":7,"frizz_risk":0,"updated_at":"2026-03-23T00:59:44.942758+05:30"},{"city":"Imphal","state":"Manipur","latitude":24.817,"longitude":93.9368,"temp":13.3,"humidity":91,"rain":0.0,"pressure":924.9,"uv_index":8.35,"wind_gusts":31.0,"aqi":60,"pm10":26.5,"pm2_5":24.8,"mosquito_risk":3,"arthritis_risk":10,"migraine_risk":7,"frizz_risk":0,"updated_at":"2026-03-23T00:59:44.942765+05:30"},{"city":"Aizawl","state":"Mizoram","latitude":23.7271,"longitude":92.7176,"temp":14.4,"humidity":85,"rain":0.0,"pressure":893.8,"uv_index":8.3,"wind_gusts":30.6,"aqi":47,"pm10":22.1,"pm2_5":20.5,"mosquito_risk":3,"arthritis_risk":10,"migraine_risk":7,"frizz_risk":0,"updated_at":"2026-03-23T00:59:44.942772+05:30"},{"city":"Kohima","state":"Nagaland","latitude":25.6701,"longitude":94.1077,"temp":11.0,"humidity":85,"rain":0.0,"pressure":854.4,"uv_index":6.85,"wind_gusts":41.4,"aqi":53,"pm10":17.7,"pm2_5":16.3,"mosquito_risk":3,"arthritis_risk":10,"migraine_risk":7,"frizz_risk":0,"updated_at":"2026-03-23T00:59:44.942778+05:30"},{"city":"Gangtok","state":"Sikkim","latitude":27.3314,"longitude":88.6138,"temp":11.0,"humidity":93,"rain":0.0,"pressure":836.8,"uv_index":7.35,"wind_gusts":19.4,"aqi":55,"pm10":20.3,"pm2_5":19.8,"mosquito_risk":3,"arthritis_risk":10,"migraine_risk":7,"frizz_risk":0,"updated_at":"2026-03-23T00:59:44.942784+05:30"},{"city":"Siliguri","state":"West Bengal","latitude":26.7271,"longitude":88.3953,"temp":17.3,"humidity":75,"rain":0.0,"pressure":997.7,"uv_index":7.05,"wind_gusts":22.3,"aqi":101,"pm10":51.7,"pm2_5":49.8,"mosquito_risk":3,"arthritis_risk":5,"migraine_risk":7,"frizz_risk":0,"updated_at":"2026-03-23T00:59:48.225413+05:30"},{"city":"Durgapur","state":"West Bengal","latitude":23.5204,"longitude":87.3119,"temp":21.9,"humidity":75,"rain":0.0,"pressure":999.6,"uv_index":8.25,"wind_gusts":16.6,"aqi":136,"pm10":93.6,"pm2_5":89.9,"mosquito_risk":3,"arthritis_risk":5,"migraine_risk":7,"frizz_risk":1,"updated_at":"2026-03-23T00:59:48.225443+05:30"},{"city":"Asansol","state":"West Bengal","latitude":23.6739,"longitude":86.9524,"temp":22.2,"humidity":71,"rain":0.0,"pressure":998.1,"uv_index":8.3,"wind_gusts":16.9,"aqi":120,"pm10":60.5,"pm2_5":56.2,"mosquito_risk":3,"arthritis_risk":5,"migraine_risk":7,"frizz_risk":1,"updated_at":"2026-03-23T00:59:48.225452+05:30"},{"city":"Pondicherry","state":"Puducherry","latitude":11.9139,"longitude":79.8145,"temp":24.9,"humidity":92,"rain":0.0,"pressure":1011.1,"uv_index":9.2,"wind_gusts":29.9,"aqi":34,"pm10":12.4,"pm2_5":7.5,"mosquito_risk":3,"arthritis_risk":0,"migraine_risk":4,"frizz_risk":1,"updated_at":"2026-03-23T00:59:48.225460+05:30"},{"city":"Port Blair","state":"Andaman and Nicobar Islands","latitude":11.6234,"longitude":92.7265,"temp":27.9,"humidity":81,"rain":0.0,"pressure":1008.4,"uv_index":9.1,"wind_gusts":25.2,"aqi":41,"pm10":10.1,"pm2_5":7.4,"mosquito_risk":7,"arthritis_risk":0,"migraine_risk":4,"frizz_risk":1,"updated_at":"2026-03-23T00:59:48.225469+05:30"},{"city":"Haridwar","state":"Uttarakhand","latitude":29.9457,"longitude":78.1642,"temp":17.1,"humidity":90,"rain":0.0,"pressure":977.9,"uv_index":6.3,"wind_gusts":26.3,"aqi":121,"pm10":168.6,"pm2_5":65.9,"mosquito_risk":3,"arthritis_risk":10,"migraine_risk":7,"frizz_risk":0,"updated_at":"2026-03-23T00:59:48.225477+05:30"},{"city":"Rishikesh","state":"Uttarakhand","latitude":30.0869,"longitude":78.2676,"temp":17.9,"humidity":74,"rain":0.0,"pressure":970.5,"uv_index":6.4,"wind_gusts":22.7,"aqi":99,"pm10":91.0,"pm2_5":46.1,"mosquito_risk":3,"arthritis_risk":5,"migraine_risk":7,"frizz_risk":0,"updated_at":"2026-03-23T00:59:48.225485+05:30"},{"city":"Nainital","state":"Uttarakhand","latitude":29.3919,"longitude":79.4542,"temp":13.9,"humidity":71,"rain":0.0,"pressure":806.2,"uv_index":7.2,"wind_gusts":37.1,"aqi":91,"pm10":55.4,"pm2_5":36.4,"mosquito_risk":3,"arthritis_risk":5,"migraine_risk":7,"frizz_risk":0,"updated_at":"2026-03-23T00:59:48.225492+05:30"},{"city":"Mussoorie","state":"Uttarakhand","latitude":30.4599,"longitude":78.0664,"temp":12.5,"humidity":76,"rain":0.0,"pressure":802.7,"uv_index":6.75,"wind_gusts":27.7,"aqi":90,"pm10":99.7,"pm2_5":55.5,"mosquito_risk":3,"arthritis_risk":5,"migraine_risk":7,"frizz_risk":0,"updated_at":"2026-03-23T00:59:48.225499+05:30"},{"city":"Dharamshala","state":"Himachal Pradesh","latitude":32.219,"longitude":76.3234,"temp":15.9,"humidity":69,"rain":0.0,"pressure":870.3,"uv_index":6.95,"wind_gusts":19.1,"aqi":103,"pm10":26.9,"pm2_5":19.1,"mosquito_risk":3,"arthritis_risk":5,"migraine_risk":7,"frizz_risk":0,"updated_at":"2026-03-23T00:59:48.225505+05:30"},{"city":"Dalhousie","state":"Himachal Pradesh","latitude":32.5387,"longitude":75.971,"temp":11.7,"humidity":80,"rain":0.0,"pressure":803.2,"uv_index":7.1,"wind_gusts":21.2,"aqi":90,"pm10":52.5,"pm2_5":48.3,"mosquito_risk":3,"arthritis_risk":5,"migraine_risk":7,"frizz_risk":0,"updated_at":"2026-03-23T00:59:48.225514+05:30"},{"city":"Patiala","state":"Punjab","latitude":30.3398,"longitude":76.3869,"temp":18.0,"humidity":84,"rain":0.0,"pressure":982.1,"uv_index":6.3,"wind_gusts":24.5,"aqi":158,"pm10":183.5,"pm2_5":66.6,"mosquito_risk":3,"arthritis_risk":10,"migraine_risk":7,"frizz_risk":0,"updated_at":"2026-03-23T00:59:48.225521+05:30"},{"city":"Bhatinda","state":"Punjab","latitude":30.211,"longitude":74.9455,"temp":19.7,"humidity":80,"rain":0.0,"pressure":988.1,"uv_index":7.0,"wind_gusts":20.9,"aqi":151,"pm10":142.5,"pm2_5":74.0,"mosquito_risk":3,"arthritis_risk":5,"migraine_risk":7,"frizz_risk":1,"updated_at":"2026-03-23T00:59:48.225528+05:30"},{"city":"Rohtak","state":"Haryana","latitude":28.8955,"longitude":76.6066,"temp":19.0,"humidity":81,"rain":0.0,"pressure":985.6,"uv_index":6.5,"wind_gusts":21.2,"aqi":195,"pm10":488.0,"pm2_5":101.3,"mosquito_risk":3,"arthritis_risk":10,"migraine_risk":7,"frizz_risk":0,"updated_at":"2026-03-23T00:59:48.225534+05:30"},{"city":"Panipat","state":"Haryana","latitude":29.3909,"longitude":76.9635,"temp":17.9,"humidity":81,"rain":0.0,"pressure":984.3,"uv_index":6.3,"wind_gusts":22.7,"aqi":451,"pm10":461.0,"pm2_5":101.7,"mosquito_risk":3,"arthritis_risk":10,"migraine_risk":7,"frizz_risk":0,"updated_at":"2026-03-23T00:59:48.225541+05:30"},{"city":"Mathura","state":"Uttar Pradesh","latitude":27.4924,"longitude":77.6737,"temp":19.6,"humidity":74,"rain":0.0,"pressure":990.6,"uv_index":4.7,"wind_gusts":20.5,"aqi":307,"pm10":434.9,"pm2_5":89.9,"mosquito_risk":3,"arthritis_risk":5,"migraine_risk":3,"frizz_risk":0,"updated_at":"2026-03-23T00:59:48.225547+05:30"},{"city":"Vrindavan","state":"Uttar Pradesh","latitude":27.5823,"longitude":77.7027,"temp":19.8,"humidity":72,"rain":0.0,"pressure":991.1,"uv_index":5.05,"wind_gusts":20.5,"aqi":307,"pm10":434.9,"pm2_5":89.9,"mosquito_risk":3,"arthritis_risk":5,"migraine_risk":3,"frizz_risk":0,"updated_at":"2026-03-23T00:59:48.225554+05:30"},{"city":"Ayodhya","state":"Uttar Pradesh","latitude":26.7922,"longitude":82.1998,"temp":20.0,"humidity":81,"rain":0.0,"pressure":999.5,"uv_index":6.8,"wind_gusts":27.0,"aqi":105,"pm10":125.3,"pm2_5":43.1,"mosquito_risk":3,"arthritis_risk":5,"migraine_risk":7,"frizz_risk":1,"updated_at":"2026-03-23T00:59:48.225560+05:30"},{"city":"Ratlam","state":"Madhya Pradesh","latitude":23.3315,"longitude":75.0367,"temp":24.3,"humidity":48,"rain":0.0,"pressure":956.9,"uv_index":7.95,"wind_gusts":24.1,"aqi":68,"pm10":54.2,"pm2_5":42.3,"mosquito_risk":0,"arthritis_risk":5,"migraine_risk":7,"frizz_risk":0,"updated_at":"2026-03-23T00:59:48.225567+05:30"},{"city":"Sagar","state":"Madhya Pradesh","latitude":23.8388,"longitude":78.7378,"temp":22.6,"humidity":51,"rain":0.0,"pressure":953.0,"uv_index":8.0,"wind_gusts":28.8,"aqi":59,"pm10":45.5,"pm2_5":22.5,"mosquito_risk":0,"arthritis_risk":5,"migraine_risk":7,"frizz_risk":0,"updated_at":"2026-03-23T00:59:48.225573+05:30"},{"city":"Satna","state":"Madhya Pradesh","latitude":24.6005,"longitude":80.8322,"temp":21.6,"humidity":53,"rain":0.0,"pressure":975.0,"uv_index":7.95,"wind_gusts":19.1,"aqi":75,"pm10":91.7,"pm2_5":29.1,"mosquito_risk":0,"arthritis_risk":5,"migraine_risk":7,"frizz_risk":0,"updated_at":"2026-03-23T00:59:48.225580+05:30"},{"city":"Akola","state":"Maharashtra","latitude":20.7002,"longitude":77.0082,"temp":25.2,"humidity":47,"rain":0.0,"pressure":977.8,"uv_index":8.0,"wind_gusts":16.6,"aqi":55,"pm10":35.3,"pm2_5":29.8,"mosquito_risk":4,"arthritis_risk":5,"migraine_risk":7,"frizz_risk":0,"updated_at":"2026-03-23T00:59:48.225588+05:30"},{"city":"Amravati","state":"Maharashtra","latitude":20.9374,"longitude":77.7796,"temp":24.0,"humidity":52,"rain":0.0,"pressure":970.0,"uv_index":8.35,"wind_gusts":16.9,"aqi":60,"pm10":32.6,"pm2_5":26.5,"mosquito_risk":0,"arthritis_risk":5,"migraine_risk":7,"frizz_risk":0,"updated_at":"2026-03-23T00:59:48.225595+05:30"},{"city":"Latur","state":"Maharashtra","latitude":18.4088,"longitude":76.5604,"temp":23.2,"humidity":51,"rain":0.0,"pressure":941.4,"uv_index":8.5,"wind_gusts":18.4,"aqi":79,"pm10":27.1,"pm2_5":20.0,"mosquito_risk":0,"arthritis_risk":5,"migraine_risk":7,"frizz_risk":0,"updated_at":"2026-03-23T00:59:48.225601+05:30"},{"city":"Nanded","state":"Maharashtra","latitude":19.1383,"longitude":77.3091,"temp":25.5,"humidity":48,"rain":0.0,"pressure":971.0,"uv_index":8.55,"wind_gusts":18.7,"aqi":58,"pm10":21.2,"pm2_5":19.7,"mosquito_risk":4,"arthritis_risk":5,"migraine_risk":7,"frizz_risk":0,"updated_at":"2026-03-23T00:59:48.225608+05:30"},{"city":"Gulbarga","state":"Karnataka","latitude":17.3297,"longitude":76.8343,"temp":27.7,"humidity":42,"rain":0.0,"pressure":960.7,"uv_index":8.8,"wind_gusts":31.7,"aqi":81,"pm10":33.1,"pm2_5":27.4,"mosquito_risk":4,"arthritis_risk":5,"migraine_risk":7,"frizz_risk":0,"updated_at":"2026-03-23T00:59:48.225614+05:30"},{"city":"Bidar","state":"Karnataka","latitude":17.9104,"longitude":77.5199,"temp":25.5,"humidity":68,"rain":0.0,"pressure":937.6,"uv_index":8.8,"wind_gusts":21.2,"aqi":84,"pm10":30.4,"pm2_5":25.2,"mosquito_risk":7,"arthritis_risk":5,"migraine_risk":7,"frizz_risk":1,"updated_at":"2026-03-23T00:59:48.225620+05:30"},{"city":"Hospet","state":"Karnataka","latitude":15.2689,"longitude":76.3909,"temp":27.7,"humidity":61,"rain":0.0,"pressure":957.2,"uv_index":9.05,"wind_gusts":43.2,"aqi":115,"pm10":39.9,"pm2_5":32.0,"mosquito_risk":7,"arthritis_risk":5,"migraine_risk":7,"frizz_risk":1,"updated_at":"2026-03-23T00:59:48.225626+05:30"},{"city":"Tirupur","state":"Tamil Nadu","latitude":11.1085,"longitude":77.3411,"temp":27.1,"humidity":71,"rain":0.0,"pressure":977.3,"uv_index":9.45,"wind_gusts":32.4,"aqi":82,"pm10":36.1,"pm2_5":30.4,"mosquito_risk":7,"arthritis_risk":5,"migraine_risk":7,"frizz_risk":1,"updated_at":"2026-03-23T00:59:48.225633+05:30"},{"city":"Alappuzha","state":"Kerala","latitude":9.4981,"longitude":76.3388,"temp":27.0,"humidity":82,"rain":0.0,"pressure":1010.8,"uv_index":9.15,"wind_gusts":29.5,"aqi":66,"pm10":42.0,"pm2_5":34.7,"mosquito_risk":7,"arthritis_risk":0,"migraine_risk":4,"frizz_risk":1,"updated_at":"2026-03-23T00:59:48.225639+05:30"},{"city":"Munnar","state":"Kerala","latitude":10.0889,"longitude":77.0595,"temp":20.5,"humidity":86,"rain":0.0,"pressure":858.0,"uv_index":9.65,"wind_gusts":25.6,"aqi":70,"pm10":36.4,"pm2_5":29.0,"mosquito_risk":3,"arthritis_risk":5,"migraine_risk":7,"frizz_risk":1,"updated_at":"2026-03-23T00:59:48.225645+05:30"},{"city":"Silchar","state":"Assam","latitude":24.8333,"longitude":92.7789,"temp":19.7,"humidity":92,"rain":0.0,"pressure":1009.9,"uv_index":8.0,"wind_gusts":13.7,"aqi":85,"pm10":52.9,"pm2_5":47.7,"mosquito_risk":3,"arthritis_risk":5,"migraine_risk":4,"frizz_risk":1,"updated_at":"2026-03-23T00:59:48.225652+05:30"},{"city":"Dibrugarh","state":"Assam","latitude":27.4728,"longitude":94.912,"temp":20.4,"humidity":93,"rain":0.0,"pressure":999.8,"uv_index":7.6,"wind_gusts":14.4,"aqi":108,"pm10":18.3,"pm2_5":17.1,"mosquito_risk":3,"arthritis_risk":5,"migraine_risk":7,"frizz_risk":1,"updated_at":"2026-03-23T00:59:48.225659+05:30"}]