[{"city":"Delhi","state":"Delhi","latitude":28.6139,"longitude":77.209,"temp":30.0,"humidity":75,"rain":0.0,"pressure":975.1,"uv_index":7.55,"wind_gusts":29.5,"aqi":399,"pm10":331.6,"pm2_5":116.9,"no2":58.7,"co":801.0,"o3":23.0,"so2":21.0,"mosquito_risk":7,"arthritis_risk":5,"migraine_risk":7,"frizz_risk":1,"updated_at":"2026-07-14T00:14:59.216570+05:30"},{"city":"Mumbai","state":"Maharashtra","latitude":19.076,"longitude":72.8777,"temp":27.7,"humidity":84,"rain":0.0,"pressure":1008.0,"uv_index":6.6,"wind_gusts":50.0,"aqi":59,"pm10":28.6,"pm2_5":15.8,"no2":6.1,"co":168.0,"o3":45.0,"so2":5.2,"mosquito_risk":7,"arthritis_risk":0,"migraine_risk":4,"frizz_risk":1,"updated_at":"2026-07-14T00:14:59.216621+05:30"},{"city":"Bangalore","state":"Karnataka","latitude":12.9716,"longitude":77.5946,"temp":22.7,"humidity":74,"rain":0.0,"pressure":911.7,"uv_index":8.55,"wind_gusts":46.4,"aqi":57,"pm10":14.6,"pm2_5":10.7,"no2":15.1,"co":289.0,"o3":42.0,"so2":5.1,"mosquito_risk":3,"arthritis_risk":5,"migraine_risk":7,"frizz_risk":1,"updated_at":"2026-07-14T00:14:59.216636+05:30"},{"city":"Hyderabad","state":"Telangana","latitude":17.385,"longitude":78.4867,"temp":29.0,"humidity":55,"rain":0.0,"pressure":950.5,"uv_index":9.05,"wind_gusts":46.4,"aqi":58,"pm10":15.8,"pm2_5":12.5,"no2":9.7,"co":315.0,"o3":61.0,"so2":5.0,"mosquito_risk":4,"arthritis_risk":5,"migraine_risk":7,"frizz_risk":1,"updated_at":"2026-07-14T00:14:59.216645+05:30"},{"city":"Chennai","state":"Tamil Nadu","latitude":13.0827,"longitude":80.2707,"temp":30.6,"humidity":69,"rain":0.0,"pressure":1003.6,"uv_index":8.55,"wind_gusts":42.5,"aqi":75,"pm10":37.3,"pm2_5":21.9,"no2":8.5,"co":248.0,"o3":93.0,"so2":6.6,"mosquito_risk":3,"arthritis_risk":5,"migraine_risk":4,"frizz_risk":1,"updated_at":"2026-07-14T00:14:59.216654+05:30"},{"city":"Kolkata","state":"West Bengal","latitude":22.5726,"longitude":88.3639,"temp":27.2,"humidity":98,"rain":0.1,"pressure":999.0,"uv_index":7.4,"wind_gusts":25.6,"aqi":152,"pm10":69.4,"pm2_5":57.7,"no2":16.0,"co":663.0,"o3":74.0,"so2":13.5,"mosquito_risk":10,"arthritis_risk":5,"migraine_risk":7,"frizz_risk":1,"updated_at":"2026-07-14T00:14:59.216661+05:30"},{"city":"Pune","state":"Maharashtra","latitude":18.5204,"longitude":73.8567,"temp":23.4,"humidity":88,"rain":0.0,"pressure":947.3,"uv_index":8.3,"wind_gusts":50.8,"aqi":45,"pm10":13.4,"pm2_5":9.6,"no2":10.0,"co":154.0,"o3":34.0,"so2":6.9,"mosquito_risk":3,"arthritis_risk":5,"migraine_risk":7,"frizz_risk":1,"updated_at":"2026-07-14T00:14:59.216668+05:30"},{"city":"Ahmedabad","state":"Gujarat","latitude":23.0225,"longitude":72.5714,"temp":29.5,"humidity":65,"rain":0.0,"pressure":998.7,"uv_index":8.15,"wind_gusts":50.8,"aqi":62,"pm10":30.6,"pm2_5":17.0,"no2":6.7,"co":139.0,"o3":44.0,"so2":4.1,"mosquito_risk":7,"arthritis_risk":5,"migraine_risk":7,"frizz_risk":1,"updated_at":"2026-07-14T00:14:59.216675+05:30"},{"city":"Jaipur","state":"Rajasthan","latitude":26.9124,"longitude":75.7873,"temp":29.5,"humidity":62,"rain":0.0,"pressure":953.6,"uv_index":8.15,"wind_gusts":32.8,"aqi":389,"pm10":410.7,"pm2_5":84.1,"no2":14.9,"co":185.0,"o3":49.0,"so2":5.9,"mosquito_risk":7,"arthritis_risk":5,"migraine_risk":7,"frizz_risk":1,"updated_at":"2026-07-14T00:14:59.216681+05:30"},{"city":"Lucknow","state":"Uttar Pradesh","latitude":26.8467,"longitude":80.9462,"temp":29.6,"humidity":73,"rain":0.0,"pressure":986.1,"uv_index":7.9,"wind_gusts":37.1,"aqi":125,"pm10":75.2,"pm2_5":40.5,"no2":13.9,"co":218.0,"o3":63.0,"so2":8.0,"mosquito_risk":7,"arthritis_risk":5,"migraine_risk":7,"frizz_risk":1,"updated_at":"2026-07-14T00:14:59.216691+05:30"},{"city":"Kanpur","state":"Uttar Pradesh","latitude":26.4499,"longitude":80.3319,"temp":30.1,"humidity":72,"rain":0.0,"pressure":984.7,"uv_index":8.15,"wind_gusts":39.2,"aqi":113,"pm10":85.9,"pm2_5":38.6,"no2":12.6,"co":198.0,"o3":66.0,"so2":8.8,"mosquito_risk":3,"arthritis_risk":5,"migraine_risk":7,"frizz_risk":1,"updated_at":"2026-07-14T00:14:59.216698+05:30"},{"city":"Chandigarh","state":"Chandigarh","latitude":30.7333,"longitude":76.7794,"temp":27.4,"humidity":88,"rain":0.0,"pressure":960.6,"uv_index":7.7,"wind_gusts":32.8,"aqi":163,"pm10":185.8,"pm2_5":111.5,"no2":58.1,"co":846.0,"o3":51.0,"so2":22.5,"mosquito_risk":7,"arthritis_risk":5,"migraine_risk":7,"frizz_risk":1,"updated_at":"2026-07-14T00:14:59.216704+05:30"},{"city":"Srinagar","state":"Jammu and Kashmir","latitude":34.0837,"longitude":74.7973,"temp":18.8,"humidity":88,"rain":0.0,"pressure":836.9,"uv_index":8.9,"wind_gusts":17.3,"aqi":79,"pm10":35.5,"pm2_5":31.8,"no2":28.9,"co":1162.0,"o3":49.0,"so2":3.3,"mosquito_risk":3,"arthritis_risk":10,"migraine_risk":7,"frizz_risk":1,"updated_at":"2026-07-14T00:14:59.216711+05:30"},{"city":"Jammu","state":"Jammu and Kashmir","latitude":32.7266,"longitude":74.857,"temp":26.9,"humidity":85,"rain":0.0,"pressure":964.6,"uv_index":8.55,"wind_gusts":18.0,"aqi":152,"pm10":115.0,"pm2_5":90.8,"no2":66.1,"co":921.0,"o3":30.0,"so2":10.2,"mosquito_risk":7,"arthritis_risk":5,"migraine_risk":7,"frizz_risk":1,"updated_at":"2026-07-14T00:14:59.216717+05:30"},{"city":"Amritsar","state":"Punjab","latitude":31.634,"longitude":74.8723,"temp":27.3,"humidity":92,"rain":0.0,"pressure":972.3,"uv_index":8.4,"wind_gusts":19.8,"aqi":183,"pm10":258.0,"pm2_5":171.8,"no2":97.1,"co":1125.0,"o3":22.0,"so2":23.3,"mosquito_risk":7,"arthritis_risk":5,"migraine_risk":7,"frizz_risk":1,"updated_at":"2026-07-14T00:14:59.216723+05:30"},{"city":"Ludhiana","state":"Punjab","latitude":30.901,"longitude":75.8573,"temp":28.1,"humidity":94,"rain":0.0,"pressure":970.4,"uv_index":7.9,"wind_gusts":27.7,"aqi":169,"pm10":152.3,"pm2_5":113.2,"no2":47.4,"co":1830.0,"o3":38.0,"so2":10.6,"mosquito_risk":7,"arthritis_risk":5,"migraine_risk":7,"frizz_risk":1,"updated_at":"2026-07-14T00:14:59.216728+05:30"},{"city":"Jalandhar","state":"Punjab","latitude":31.326,"longitude":75.5762,"temp":27.4,"humidity":95,"rain":0.0,"pressure":971.4,"uv_index":8.15,"wind_gusts":24.1,"aqi":171,"pm10":164.8,"pm2_5":120.6,"no2":48.7,"co":1521.0,"o3":46.0,"so2":11.9,"mosquito_risk":7,"arthritis_risk":5,"migraine_risk":7,"frizz_risk":1,"updated_at":"2026-07-14T00:14:59.216734+05:30"},{"city":"Dehradun","state":"Uttarakhand","latitude":30.6284,"longitude":78.0322,"temp":18.5,"humidity":99,"rain":0.0,"pressure":825.9,"uv_index":8.15,"wind_gusts":33.8,"aqi":99,"pm10":115.0,"pm2_5":51.6,"no2":17.0,"co":220.0,"o3":115.0,"so2":5.4,"mosquito_risk":3,"arthritis_risk":10,"migraine_risk":7,"frizz_risk":1,"updated_at":"2026-07-14T00:14:59.216739+05:30"},{"city":"Shimla","state":"Himachal Pradesh","latitude":31.1048,"longitude":77.1734,"temp":14.9,"humidity":97,"rain":0.0,"pressure":779.4,"uv_index":8.25,"wind_gusts":37.1,"aqi":113,"pm10":142.0,"pm2_5":78.5,"no2":19.5,"co":479.0,"o3":117.0,"so2":5.9,"mosquito_risk":3,"arthritis_risk":10,"migraine_risk":7,"frizz_risk":0,"updated_at":"2026-07-14T00:14:59.216745+05:30"},{"city":"Manali","state":"Himachal Pradesh","latitude":32.2396,"longitude":77.1887,"temp":18.5,"humidity":85,"rain":0.0,"pressure":815.0,"uv_index":9.55,"wind_gusts":34.9,"aqi":51,"pm10":42.4,"pm2_5":30.9,"no2":66.5,"co":289.0,"o3":45.0,"so2":0.4,"mosquito_risk":3,"arthritis_risk":10,"migraine_risk":7,"frizz_risk":0,"updated_at":"2026-07-14T00:14:59.216754+05:30"},{"city":"Gurgaon","state":"Haryana","latitude":28.4595,"longitude":77.0266,"temp":30.3,"humidity":69,"rain":0.0,"pressure":973.7,"uv_index":7.7,"wind_gusts":33.5,"aqi":566,"pm10":972.3,"pm2_5":204.0,"no2":32.7,"co":525.0,"o3":41.0,"so2":12.4,"mosquito_risk":3,"arthritis_risk":5,"migraine_risk":7,"frizz_risk":1,"updated_at":"2026-07-14T00:14:59.216760+05:30"},{"city":"Noida","state":"Uttar Pradesh","latitude":28.5355,"longitude":77.391,"temp":30.0,"humidity":76,"rain":0.0,"pressure":976.5,"uv_index":7.65,"wind_gusts":28.4,"aqi":566,"pm10":972.3,"pm2_5":204.0,"no2":32.7,"co":676.0,"o3":41.0,"so2":12.4,"mosquito_risk":7,"arthritis_risk":5,"migraine_risk":7,"frizz_risk":1,"updated_at":"2026-07-14T00:14:59.216766+05:30"},{"city":"Ghaziabad","state":"Uttar Pradesh","latitude":28.6692,"longitude":77.4538,"temp":30.0,"humidity":75,"rain":0.0,"pressure":974.6,"uv_index":7.6,"wind_gusts":26.3,"aqi":316,"pm10":339.9,"pm2_5":127.6,"no2":58.5,"co":1271.0,"o3":28.0,"so2":23.2,"mosquito_risk":7,"arthritis_risk":5,"migraine_risk":7,"frizz_risk":1,"updated_at":"2026-07-14T00:14:59.216772+05:30"},{"city":"Faridabad","state":"Haryana","latitude":28.4089,"longitude":77.3178,"temp":30.2,"humidity":75,"rain":0.0,"pressure":975.8,"uv_index":7.7,"wind_gusts":32.0,"aqi":566,"pm10":972.3,"pm2_5":204.0,"no2":32.7,"co":488.0,"o3":41.0,"so2":12.4,"mosquito_risk":3,"arthritis_risk":5,"migraine_risk":7,"frizz_risk":1,"updated_at":"2026-07-14T00:14:59.216778+05:30"},{"city":"Meerut","state":"Uttar Pradesh","latitude":28.9845,"longitude":77.7064,"temp":30.0,"humidity":81,"rain":0.0,"pressure":973.4,"uv_index":7.55,"wind_gusts":31.3,"aqi":316,"pm10":339.9,"pm2_5":127.6,"no2":58.5,"co":561.0,"o3":28.0,"so2":23.2,"mosquito_risk":7,"arthritis_risk":5,"migraine_risk":7,"frizz_risk":1,"updated_at":"2026-07-14T00:14:59.216784+05:30"},{"city":"Agra","state":"Uttar Pradesh","latitude":27.1767,"longitude":78.0081,"temp":30.2,"humidity":71,"rain":0.0,"pressure":980.5,"uv_index":7.45,"wind_gusts":39.6,"aqi":136,"pm10":215.6,"pm2_5":62.9,"no2":15.0,"co":263.0,"o3":57.0,"so2":5.9,"mosquito_risk":3,"arthritis_risk":5,"migraine_risk":7,"frizz_risk":1,"updated_at":"2026-07-14T00:14:59.216791+05:30"},{"city":"Varanasi","state":"Uttar Pradesh","latitude":25.3176,"longitude":82.9739,"temp":30.1,"humidity":79,"rain":0.0,"pressure":990.4,"uv_index":5.05,"wind_gusts":33.5,"aqi":116,"pm10":71.7,"pm2_5":44.5,"no2":17.2,"co":417.0,"o3":54.0,"so2":9.8,"mosquito_risk":3,"arthritis_risk":5,"migraine_risk":3,"frizz_risk":1,"updated_at":"2026-07-14T00:14:59.216797+05:30"},{"city":"Prayagraj","state":"Uttar Pradesh","latitude":25.4358,"longitude":81.8463,"temp":30.1,"humidity":71,"rain":0.0,"pressure":989.1,"uv_index":6.0,"wind_gusts":37.8,"aqi":108,"pm10":57.3,"pm2_5":34.7,"no2":11.5,"co":195.0,"o3":68.0,"so2":8.2,"mosquito_risk":3,"arthritis_risk":5,"migraine_risk":3,"frizz_risk":1,"updated_at":"2026-07-14T00:14:59.216803+05:30"},{"city":"Gorakhpur","state":"Uttar Pradesh","latitude":26.7606,"longitude":83.3732,"temp":25.7,"humidity":98,"rain":0.0,"pressure":990.7,"uv_index":3.25,"wind_gusts":39.6,"aqi":151,"pm10":91.0,"pm2_5":55.4,"no2":15.8,"co":329.0,"o3":78.0,"so2":7.7,"mosquito_risk":7,"arthritis_risk":5,"migraine_risk":3,"frizz_risk":1,"updated_at":"2026-07-14T00:14:59.216809+05:30"},{"city":"Bareilly","state":"Uttar Pradesh","latitude":28.367,"longitude":79.4304,"temp":29.6,"humidity":76,"rain":0.0,"pressure":979.0,"uv_index":8.0,"wind_gusts":36.0,"aqi":178,"pm10":183.5,"pm2_5":84.1,"no2":23.9,"co":306.0,"o3":55.0,"so2":9.6,"mosquito_risk":7,"arthritis_risk":5,"migraine_risk":7,"frizz_risk":1,"updated_at":"2026-07-14T00:14:59.216817+05:30"},{"city":"Aligarh","state":"Uttar Pradesh","latitude":27.8974,"longitude":78.088,"temp":30.2,"humidity":71,"rain":0.0,"pressure":978.0,"uv_index":7.6,"wind_gusts":35.3,"aqi":511,"pm10":607.2,"pm2_5":136.4,"no2":15.5,"co":242.0,"o3":59.0,"so2":5.9,"mosquito_risk":3,"arthritis_risk":5,"migraine_risk":7,"frizz_risk":1,"updated_at":"2026-07-14T00:14:59.216822+05:30"},{"city":"Moradabad","state":"Uttar Pradesh","latitude":28.8386,"longitude":78.7733,"temp":29.3,"humidity":81,"rain":0.0,"pressure":975.8,"uv_index":7.8,"wind_gusts":35.3,"aqi":197,"pm10":257.0,"pm2_5":123.4,"no2":45.3,"co":432.0,"o3":36.0,"so2":15.4,"mosquito_risk":7,"arthritis_risk":5,"migraine_risk":7,"frizz_risk":1,"updated_at":"2026-07-14T00:14:59.216828+05:30"},{"city":"Saharanpur","state":"Uttar Pradesh","latitude":29.9637,"longitude":77.546,"temp":28.8,"humidity":86,"rain":0.0,"pressure":967.8,"uv_index":7.35,"wind_gusts":34.2,"aqi":189,"pm10":382.8,"pm2_5":160.2,"no2":74.3,"co":495.0,"o3":24.0,"so2":26.2,"mosquito_risk":7,"arthritis_risk":5,"migraine_risk":7,"frizz_risk":1,"updated_at":"2026-07-14T00:14:59.216833+05:30"},{"city":"Jhansi","state":"Uttar Pradesh","latitude":25.4484,"longitude":78.5685,"temp":29.4,"humidity":65,"rain":0.0,"pressure":971.8,"uv_index":8.0,"wind_gusts":40.0,"aqi":100,"pm10":86.6,"pm2_5":42.4,"no2":9.1,"co":191.0,"o3":68.0,"so2":7.7,"mosquito_risk":7,"arthritis_risk":5,"migraine_risk":7,"frizz_risk":1,"updated_at":"2026-07-14T00:15:02.582217+05:30"},{"city":"Surat","state":"Gujarat","latitude":21.1702,"longitude":72.8311,"temp":28.4,"humidity":79,"rain":0.0,"pressure":1004.7,"uv_index":6.75,"wind_gusts":63.7,"aqi":64,"pm10":33.3,"pm2_5":21.1,"no2":15.2,"co":243.0,"o3":34.0,"so2":25.5,"mosquito_risk":7,"arthritis_risk":5,"migraine_risk":4,"frizz_risk":1,"updated_at":"2026-07-14T00:15:02.582252+05:30"},{"city":"Vadodara","state":"Gujarat","latitude":22.3072,"longitude":73.1812,"temp":28.2,"humidity":78,"rain":0.0,"pressure":1001.4,"uv_index":7.8,"wind_gusts":56.5,"aqi":59,"pm10":27.7,"pm2_5":17.5,"no2":9.3,"co":130.0,"o3":40.0,"so2":7.7,"mosquito_risk":7,"arthritis_risk":5,"migraine_risk":4,"frizz_risk":1,"updated_at":"2026-07-14T00:15:02.582264+05:30"},{"city":"Rajkot","state":"Gujarat","latitude":22.3039,"longitude":70.8022,"temp":27.2,"humidity":82,"rain":0.0,"pressure":991.0,"uv_index":7.15,"wind_gusts":56.9,"aqi":59,"pm10":26.5,"pm2_5":14.4,"no2":4.2,"co":106.0,"o3":42.0,"so2":3.3,"mosquito_risk":7,"arthritis_risk":5,"migraine_risk":7,"frizz_risk":1,"updated_at":"2026-07-14T00:15:02.582274+05:30"},{"city":"Thane","state":"Maharashtra","latitude":19.2183,"longitude":72.9781,"temp":27.0,"humidity":87,"rain":0.0,"pressure":1007.2,"uv_index":7.75,"wind_gusts":46.1,"aqi":59,"pm10":28.6,"pm2_5":15.8,"no2":6.1,"co":203.0,"o3":45.0,"so2":5.2,"mosquito_risk":7,"arthritis_risk":5,"migraine_risk":4,"frizz_risk":1,"updated_at":"2026-07-14T00:15:02.582283+05:30"},{"city":"Nagpur","state":"Maharashtra","latitude":21.1458,"longitude":79.0882,"temp":27.8,"humidity":71,"rain":0.0,"pressure":969.0,"uv_index":7.95,"wind_gusts":42.1,"aqi":87,"pm10":52.5,"pm2_5":33.2,"no2":20.2,"co":304.0,"o3":33.0,"so2":9.7,"mosquito_risk":7,"arthritis_risk":5,"migraine_risk":7,"frizz_risk":1,"updated_at":"2026-07-14T00:15:02.582293+05:30"},{"city":"Nashik","state":"Maharashtra","latitude":19.9975,"longitude":73.7898,"temp":23.0,"humidity":93,"rain":0.0,"pressure":943.9,"uv_index":8.1,"wind_gusts":58.7,"aqi":49,"pm10":11.1,"pm2_5":8.2,"no2":10.7,"co":162.0,"o3":33.0,"so2":7.8,"mosquito_risk":3,"arthritis_risk":5,"migraine_risk":7,"frizz_risk":1,"updated_at":"2026-07-14T00:15:02.582302+05:30"},{"city":"Aurangabad","state":"Maharashtra","latitude":19.8762,"longitude":75.3433,"temp":23.6,"humidity":84,"rain":0.0,"pressure":942.4,"uv_index":8.9,"wind_gusts":52.9,"aqi":53,"pm10":16.7,"pm2_5":12.2,"no2":9.2,"co":170.0,"o3":50.0,"so2":10.3,"mosquito_risk":3,"arthritis_risk":5,"migraine_risk":7,"frizz_risk":1,"updated_at":"2026-07-14T00:15:02.582311+05:30"},{"city":"Solapur","state":"Maharashtra","latitude":17.6599,"longitude":75.9064,"temp":25.2,"humidity":72,"rain":0.0,"pressure":956.6,"uv_index":8.9,"wind_gusts":45.4,"aqi":50,"pm10":14.6,"pm2_5":10.6,"no2":5.9,"co":154.0,"o3":45.0,"so2":2.5,"mosquito_risk":7,"arthritis_risk":5,"migraine_risk":7,"frizz_risk":1,"updated_at":"2026-07-14T00:15:02.582320+05:30"},{"city":"Kolhapur","state":"Maharashtra","latitude":16.705,"longitude":74.2433,"temp":22.6,"humidity":93,"rain":0.0,"pressure":947.8,"uv_index":8.9,"wind_gusts":50.0,"aqi":44,"pm10":13.6,"pm2_5":10.2,"no2":7.4,"co":133.0,"o3":35.0,"so2":3.2,"mosquito_risk":3,"arthritis_risk":5,"migraine_risk":7,"frizz_risk":1,"updated_at":"2026-07-14T00:15:02.582329+05:30"},{"city":"Goa","state":"Goa","latitude":15.2993,"longitude":74.124,"temp":25.6,"humidity":93,"rain":0.0,"pressure":999.0,"uv_index":7.2,"wind_gusts":33.8,"aqi":57,"pm10":31.7,"pm2_5":22.6,"no2":8.2,"co":338.0,"o3":39.0,"so2":2.6,"mosquito_risk":7,"arthritis_risk":5,"migraine_risk":7,"frizz_risk":1,"updated_at":"2026-07-14T00:15:02.582339+05:30"},{"city":"Jodhpur","state":"Rajasthan","latitude":26.2389,"longitude":73.0243,"temp":31.7,"humidity":54,"rain":0.0,"pressure":976.6,"uv_index":8.4,"wind_gusts":49.3,"aqi":185,"pm10":372.5,"pm2_5":88.2,"no2":4.2,"co":109.0,"o3":55.0,"so2":2.5,"mosquito_risk":0,"arthritis_risk":5,"migraine_risk":7,"frizz_risk":1,"updated_at":"2026-07-14T00:15:02.582348+05:30"},{"city":"Udaipur","state":"Rajasthan","latitude":24.5854,"longitude":73.7125,"temp":25.6,"humidity":68,"rain":0.0,"pressure":941.6,"uv_index":8.7,"wind_gusts":50.0,"aqi":69,"pm10":34.5,"pm2_5":18.9,"no2":4.1,"co":108.0,"o3":64.0,"so2":3.4,"mosquito_risk":7,"arthritis_risk":5,"migraine_risk":7,"frizz_risk":1,"updated_at":"2026-07-14T00:15:02.582356+05:30"},{"city":"Kota","state":"Rajasthan","latitude":25.2138,"longitude":75.8648,"temp":29.8,"humidity":61,"rain":0.0,"pressure":973.3,"uv_index":8.3,"wind_gusts":38.5,"aqi":92,"pm10":43.5,"pm2_5":25.6,"no2":8.1,"co":172.0,"o3":70.0,"so2":6.7,"mosquito_risk":7,"arthritis_risk":5,"migraine_risk":7,"frizz_risk":1,"updated_at":"2026-07-14T00:15:02.582363+05:30"},{"city":"Bikaner","state":"Rajasthan","latitude":28.0229,"longitude":73.3119,"temp":32.5,"humidity":51,"rain":0.0,"pressure":973.5,"uv_index":8.45,"wind_gusts":35.6,"aqi":164,"pm10":222.6,"pm2_5":66.4,"no2":3.4,"co":119.0,"o3":67.0,"so2":4.0,"mosquito_risk":0,"arthritis_risk":5,"migraine_risk":7,"frizz_risk":1,"updated_at":"2026-07-14T00:15:02.582370+05:30"},{"city":"Ajmer","state":"Rajasthan","latitude":26.4499,"longitude":74.6399,"temp":28.2,"humidity":63,"rain":0.0,"pressure":948.6,"uv_index":8.35,"wind_gusts":47.9,"aqi":99,"pm10":67.3,"pm2_5":28.5,"no2":8.2,"co":157.0,"o3":57.0,"so2":4.1,"mosquito_risk":7,"arthritis_risk":5,"migraine_risk":7,"frizz_risk":1,"updated_at":"2026-07-14T00:15:02.582377+05:30"},{"city":"Gwalior","state":"Madhya Pradesh","latitude":26.2183,"longitude":78.1828,"temp":29.5,"humidity":66,"rain":0.0,"pressure":976.3,"uv_index":8.2,"wind_gusts":43.2,"aqi":102,"pm10":128.5,"pm2_5":52.4,"no2":9.8,"co":150.0,"o3":61.0,"so2":5.0,"mosquito_risk":7,"arthritis_risk":5,"migraine_risk":7,"frizz_risk":1,"updated_at":"2026-07-14T00:15:02.582384+05:30"},{"city":"Indore","state":"Madhya Pradesh","latitude":22.7196,"longitude":75.8577,"temp":25.0,"humidity":83,"rain":0.0,"pressure":944.6,"uv_index":8.05,"wind_gusts":52.6,"aqi":66,"pm10":23.8,"pm2_5":17.2,"no2":7.3,"co":204.0,"o3":60.0,"so2":8.7,"mosquito_risk":7,"arthritis_risk":5,"migraine_risk":7,"frizz_risk":1,"updated_at":"2026-07-14T00:15:02.582391+05:30"},{"city":"Bhopal","state":"Madhya Pradesh","latitude":23.2599,"longitude":77.4126,"temp":26.5,"humidity":74,"rain":0.0,"pressure":949.5,"uv_index":7.9,"wind_gusts":42.5,"aqi":76,"pm10":44.4,"pm2_5":27.7,"no2":8.4,"co":260.0,"o3":62.0,"so2":5.1,"mosquito_risk":7,"arthritis_risk":5,"migraine_risk":7,"frizz_risk":1,"updated_at":"2026-07-14T00:15:02.582398+05:30"},{"city":"Jabalpur","state":"Madhya Pradesh","latitude":23.1815,"longitude":79.9864,"temp":27.0,"humidity":75,"rain":0.0,"pressure":956.6,"uv_index":8.05,"wind_gusts":38.2,"aqi":90,"pm10":57.4,"pm2_5":30.6,"no2":7.1,"co":218.0,"o3":64.0,"so2":4.9,"mosquito_risk":7,"arthritis_risk":5,"migraine_risk":7,"frizz_risk":1,"updated_at":"2026-07-14T00:15:02.582405+05:30"},{"city":"Ujjain","state":"Madhya Pradesh","latitude":23.1765,"longitude":75.7885,"temp":25.5,"humidity":83,"rain":0.0,"pressure":950.0,"uv_index":8.5,"wind_gusts":51.8,"aqi":65,"pm10":22.0,"pm2_5":15.9,"no2":6.3,"co":193.0,"o3":57.0,"so2":8.5,"mosquito_risk":7,"arthritis_risk":5,"migraine_risk":7,"frizz_risk":1,"updated_at":"2026-07-14T00:15:02.582413+05:30"},{"city":"Visakhapatnam","state":"Andhra Pradesh","latitude":17.6868,"longitude":83.2185,"temp":29.7,"humidity":68,"rain":0.0,"pressure":997.3,"uv_index":8.35,"wind_gusts":32.4,"aqi":109,"pm10":55.5,"pm2_5":34.8,"no2":29.9,"co":325.0,"o3":44.0,"so2":42.7,"mosquito_risk":7,"arthritis_risk":5,"migraine_risk":7,"frizz_risk":1,"updated_at":"2026-07-14T00:15:02.582420+05:30"},{"city":"Vijayawada","state":"Andhra Pradesh","latitude":16.5062,"longitude":80.648,"temp":30.8,"humidity":63,"rain":0.0,"pressure":997.7,"uv_index":8.9,"wind_gusts":50.8,"aqi":82,"pm10":44.7,"pm2_5":34.0,"no2":21.8,"co":326.0,"o3":38.0,"so2":9.0,"mosquito_risk":3,"arthritis_risk":5,"migraine_risk":7,"frizz_risk":1,"updated_at":"2026-07-14T00:15:02.582427+05:30"},{"city":"Guntur","state":"Andhra Pradesh","latitude":16.3067,"longitude":80.4365,"temp":31.8,"humidity":52,"rain":0.0,"pressure":999.1,"uv_index":8.65,"wind_gusts":49.7,"aqi":79,"pm10":36.7,"pm2_5":29.5,"no2":21.1,"co":342.0,"o3":39.0,"so2":8.4,"mosquito_risk":0,"arthritis_risk":5,"migraine_risk":7,"frizz_risk":1,"updated_at":"2026-07-14T00:15:02.582434+05:30"},{"city":"Nellore","state":"Andhra Pradesh","latitude":14.4426,"longitude":79.9865,"temp":30.6,"humidity":60,"rain":0.0,"pressure":1001.7,"uv_index":8.75,"wind_gusts":51.1,"aqi":71,"pm10":36.1,"pm2_5":24.0,"no2":13.1,"co":229.0,"o3":64.0,"so2":5.1,"mosquito_risk":0,"arthritis_risk":5,"migraine_risk":4,"frizz_risk":1,"updated_at":"2026-07-14T00:15:02.582442+05:30"},{"city":"Kurnool","state":"Andhra Pradesh","latitude":15.8281,"longitude":78.0373,"temp":29.7,"humidity":47,"rain":0.0,"pressure":975.1,"uv_index":8.85,"wind_gusts":48.2,"aqi":57,"pm10":14.2,"pm2_5":10.0,"no2":7.0,"co":139.0,"o3":65.0,"so2":5.8,"mosquito_risk":4,"arthritis_risk":5,"migraine_risk":7,"frizz_risk":1,"updated_at":"2026-07-14T00:15:02.582450+05:30"},{"city":"Kakinada","state":"Andhra Pradesh","latitude":16.9891,"longitude":82.2475,"temp":29.6,"humidity":67,"rain":0.0,"pressure":1001.7,"uv_index":7.25,"wind_gusts":39.2,"aqi":83,"pm10":51.8,"pm2_5":28.5,"no2":10.0,"co":268.0,"o3":65.0,"so2":6.4,"mosquito_risk":7,"arthritis_risk":5,"migraine_risk":4,"frizz_risk":1,"updated_at":"2026-07-14T00:15:02.582457+05:30"},{"city":"Tirupati","state":"Andhra Pradesh","latitude":13.6288,"longitude":79.4192,"temp":31.1,"humidity":45,"rain":0.0,"pressure":988.2,"uv_index":8.75,"wind_gusts":44.3,"aqi":85,"pm10":65.0,"pm2_5":48.4,"no2":51.6,"co":156.0,"o3":10.0,"so2":6.1,"mosquito_risk":0,"arthritis_risk":5,"migraine_risk":7,"frizz_risk":1,"updated_at":"2026-07-14T00:15:02.582463+05:30"},{"city":"Warangal","state":"Telangana","latitude":17.9689,"longitude":79.5941,"temp":28.2,"humidity":69,"rain":0.0,"pressure":974.7,"uv_index":8.7,"wind_gusts":43.6,"aqi":72,"pm10":24.9,"pm2_5":20.8,"no2":13.0,"co":268.0,"o3":49.0,"so2":5.0,"mosquito_risk":7,"arthritis_risk":5,"migraine_risk":7,"frizz_risk":1,"updated_at":"2026-07-14T00:15:02.582470+05:30"},{"city":"Nizamabad","state":"Telangana","latitude":18.6725,"longitude":78.0941,"temp":28.0,"humidity":63,"rain":0.0,"pressure":961.9,"uv_index":8.9,"wind_gusts":46.1,"aqi":60,"pm10":21.0,"pm2_5":16.2,"no2":7.8,"co":179.0,"o3":68.0,"so2":6.4,"mosquito_risk":7,"arthritis_risk":5,"migraine_risk":7,"frizz_risk":1,"updated_at":"2026-07-14T00:15:02.582477+05:30"},{"city":"Mysore","state":"Karnataka","latitude":12.2958,"longitude":76.6396,"temp":21.0,"humidity":90,"rain":0.0,"pressure":928.6,"uv_index":8.5,"wind_gusts":42.5,"aqi":51,"pm10":11.6,"pm2_5":8.8,"no2":12.3,"co":186.0,"o3":37.0,"so2":3.0,"mosquito_risk":3,"arthritis_risk":5,"migraine_risk":7,"frizz_risk":1,"updated_at":"2026-07-14T00:15:02.582483+05:30"},{"city":"Mangalore","state":"Karnataka","latitude":12.9141,"longitude":74.856,"temp":26.1,"humidity":89,"rain":0.0,"pressure":1008.3,"uv_index":8.1,"wind_gusts":44.3,"aqi":55,"pm10":20.5,"pm2_5":13.7,"no2":8.6,"co":181.0,"o3":32.0,"so2":3.0,"mosquito_risk":7,"arthritis_risk":0,"migraine_risk":4,"frizz_risk":1,"updated_at":"2026-07-14T00:15:02.582490+05:30"},{"city":"Hubli-Dharwad","state":"Karnataka","latitude":15.3647,"longitude":75.124,"temp":21.2,"humidity":97,"rain":0.0,"pressure":940.9,"uv_index":8.95,"wind_gusts":47.9,"aqi":41,"pm10":11.9,"pm2_5":8.1,"no2":7.1,"co":147.0,"o3":36.0,"so2":2.1,"mosquito_risk":3,"arthritis_risk":5,"migraine_risk":7,"frizz_risk":1,"updated_at":"2026-07-14T00:15:02.582497+05:30"},{"city":"Belgaum","state":"Karnataka","latitude":15.8497,"longitude":74.4977,"temp":20.8,"humidity":97,"rain":0.0,"pressure":925.6,"uv_index":9.0,"wind_gusts":46.4,"aqi":40,"pm10":11.3,"pm2_5":8.1,"no2":6.6,"co":121.0,"o3":35.0,"so2":2.1,"mosquito_risk":3,"arthritis_risk":5,"migraine_risk":7,"frizz_risk":1,"updated_at":"2026-07-14T00:15:05.874656+05:30"},{"city":"Coimbatore","state":"Tamil Nadu","latitude":11.0168,"longitude":76.9558,"temp":24.2,"humidity":92,"rain":0.0,"pressure":961.6,"uv_index":8.1,"wind_gusts":55.1,"aqi":52,"pm10":13.5,"pm2_5":11.1,"no2":12.5,"co":190.0,"o3":26.0,"so2":4.0,"mosquito_risk":3,"arthritis_risk":5,"migraine_risk":7,"frizz_risk":1,"updated_at":"2026-07-14T00:15:05.874689+05:30"},{"city":"Madurai","state":"Tamil Nadu","latitude":9.9252,"longitude":78.1198,"temp":29.5,"humidity":62,"rain":0.0,"pressure":991.9,"uv_index":8.2,"wind_gusts":40.0,"aqi":65,"pm10":30.9,"pm2_5":21.2,"no2":24.6,"co":150.0,"o3":31.0,"so2":7.2,"mosquito_risk":7,"arthritis_risk":5,"migraine_risk":7,"frizz_risk":1,"updated_at":"2026-07-14T00:15:05.874700+05:30"},{"city":"Trichy","state":"Tamil Nadu","latitude":10.7905,"longitude":78.7047,"temp":29.4,"humidity":62,"rain":0.0,"pressure":998.3,"uv_index":7.95,"wind_gusts":50.0,"aqi":64,"pm10":26.9,"pm2_5":21.1,"no2":23.0,"co":132.0,"o3":29.0,"so2":6.1,"mosquito_risk":7,"arthritis_risk":5,"migraine_risk":7,"frizz_risk":1,"updated_at":"2026-07-14T00:15:05.874711+05:30"},{"city":"Salem","state":"Tamil Nadu","latitude":11.6643,"longitude":78.146,"temp":26.1,"humidity":82,"rain":0.0,"pressure":976.7,"uv_index":8.35,"wind_gusts":29.2,"aqi":68,"pm10":20.5,"pm2_5":15.1,"no2":14.8,"co":404.0,"o3":40.0,"so2":6.1,"mosquito_risk":7,"arthritis_risk":5,"migraine_risk":7,"frizz_risk":1,"updated_at":"2026-07-14T00:15:05.874721+05:30"},{"city":"Tirunelveli","state":"Tamil Nadu","latitude":8.7139,"longitude":77.7567,"temp":29.3,"humidity":61,"rain":0.0,"pressure":1002.5,"uv_index":8.45,"wind_gusts":43.9,"aqi":47,"pm10":12.4,"pm2_5":8.4,"no2":6.3,"co":153.0,"o3":40.0,"so2":2.4,"mosquito_risk":7,"arthritis_risk":5,"migraine_risk":4,"frizz_risk":1,"updated_at":"2026-07-14T00:15:05.874730+05:30"},{"city":"Vellore","state":"Tamil Nadu","latitude":12.9165,"longitude":79.1325,"temp":31.4,"humidity":44,"rain":0.0,"pressure":982.0,"uv_index":8.65,"wind_gusts":42.5,"aqi":73,"pm10":31.4,"pm2_5":22.0,"no2":16.5,"co":173.0,"o3":46.0,"so2":4.7,"mosquito_risk":0,"arthritis_risk":5,"migraine_risk":7,"frizz_risk":1,"updated_at":"2026-07-14T00:15:05.874739+05:30"},{"city":"Erode","state":"Tamil Nadu","latitude":11.341,"longitude":77.7172,"temp":27.1,"humidity":75,"rain":0.0,"pressure":988.5,"uv_index":8.45,"wind_gusts":50.0,"aqi":60,"pm10":24.2,"pm2_5":17.7,"no2":19.9,"co":170.0,"o3":28.0,"so2":4.8,"mosquito_risk":7,"arthritis_risk":5,"migraine_risk":7,"frizz_risk":1,"updated_at":"2026-07-14T00:15:05.874748+05:30"},{"city":"Kochi","state":"Kerala","latitude":9.9312,"longitude":76.2673,"temp":27.4,"humidity":84,"rain":0.0,"pressure":1010.5,"uv_index":8.55,"wind_gusts":42.1,"aqi":55,"pm10":21.2,"pm2_5":16.0,"no2":13.8,"co":119.0,"o3":24.0,"so2":4.5,"mosquito_risk":7,"arthritis_risk":0,"migraine_risk":4,"frizz_risk":1,"updated_at":"2026-07-14T00:15:05.874758+05:30"},{"city":"Thiruvananthapuram","state":"Kerala","latitude":8.5241,"longitude":76.9366,"temp":25.9,"humidity":90,"rain":0.0,"pressure":1009.7,"uv_index":8.35,"wind_gusts":51.5,"aqi":53,"pm10":17.3,"pm2_5":10.0,"no2":4.7,"co":132.0,"o3":42.0,"so2":1.9,"mosquito_risk":7,"arthritis_risk":0,"migraine_risk":4,"frizz_risk":1,"updated_at":"2026-07-14T00:15:05.874766+05:30"},{"city":"Kozhikode","state":"Kerala","latitude":11.2588,"longitude":75.7804,"temp":25.7,"humidity":93,"rain":0.0,"pressure":1009.4,"uv_index":8.55,"wind_gusts":48.2,"aqi":52,"pm10":21.4,"pm2_5":11.1,"no2":2.5,"co":169.0,"o3":47.0,"so2":1.6,"mosquito_risk":7,"arthritis_risk":0,"migraine_risk":4,"frizz_risk":1,"updated_at":"2026-07-14T00:15:05.874775+05:30"},{"city":"Thrissur","state":"Kerala","latitude":10.5276,"longitude":76.2144,"temp":26.0,"humidity":88,"rain":0.0,"pressure":1008.7,"uv_index":8.3,"wind_gusts":41.0,"aqi":54,"pm10":20.5,"pm2_5":15.0,"no2":9.7,"co":162.0,"o3":28.0,"so2":3.6,"mosquito_risk":7,"arthritis_risk":0,"migraine_risk":4,"frizz_risk":1,"updated_at":"2026-07-14T00:15:05.874785+05:30"},{"city":"Kannur","state":"Kerala","latitude":11.8745,"longitude":75.3704,"temp":26.2,"humidity":90,"rain":0.0,"pressure":1008.7,"uv_index":8.45,"wind_gusts":47.5,"aqi":52,"pm10":17.7,"pm2_5":11.0,"no2":8.1,"co":213.0,"o3":32.0,"so2":2.5,"mosquito_risk":7,"arthritis_risk":0,"migraine_risk":4,"frizz_risk":1,"updated_at":"2026-07-14T00:15:05.874794+05:30"},{"city":"Patna","state":"Bihar","latitude":25.5941,"longitude":85.1376,"temp":27.5,"humidity":97,"rain":0.1,"pressure":993.6,"uv_index":7.55,"wind_gusts":32.0,"aqi":151,"pm10":67.8,"pm2_5":47.4,"no2":22.4,"co":391.0,"o3":62.0,"so2":10.5,"mosquito_risk":10,"arthritis_risk":5,"migraine_risk":7,"frizz_risk":1,"updated_at":"2026-07-14T00:15:05.874803+05:30"},{"city":"Gaya","state":"Bihar","latitude":24.7914,"longitude":85.0002,"temp":26.4,"humidity":95,"rain":0.1,"pressure":987.5,"uv_index":5.15,"wind_gusts":35.6,"aqi":128,"pm10":82.4,"pm2_5":54.7,"no2":20.6,"co":612.0,"o3":43.0,"so2":8.4,"mosquito_risk":10,"arthritis_risk":5,"migraine_risk":3,"frizz_risk":1,"updated_at":"2026-07-14T00:15:05.874812+05:30"},{"city":"Muzaffarpur","state":"Bihar","latitude":26.1209,"longitude":85.3647,"temp":26.4,"humidity":97,"rain":0.2,"pressure":993.8,"uv_index":8.05,"wind_gusts":24.1,"aqi":151,"pm10":70.3,"pm2_5":48.1,"no2":21.2,"co":482.0,"o3":67.0,"so2":10.5,"mosquito_risk":10,"arthritis_risk":5,"migraine_risk":7,"frizz_risk":1,"updated_at":"2026-07-14T00:15:05.874819+05:30"},{"city":"Bhagalpur","state":"Bihar","latitude":25.2425,"longitude":87.0117,"temp":27.7,"humidity":97,"rain":0.0,"pressure":994.5,"uv_index":5.25,"wind_gusts":27.0,"aqi":149,"pm10":92.0,"pm2_5":65.7,"no2":30.8,"co":332.0,"o3":33.0,"so2":17.5,"mosquito_risk":7,"arthritis_risk":5,"migraine_risk":3,"frizz_risk":1,"updated_at":"2026-07-14T00:15:05.874826+05:30"},{"city":"Ranchi","state":"Jharkhand","latitude":23.3441,"longitude":85.3096,"temp":24.7,"humidity":94,"rain":0.0,"pressure":931.7,"uv_index":8.3,"wind_gusts":33.1,"aqi":122,"pm10":116.4,"pm2_5":66.4,"no2":28.6,"co":379.0,"o3":40.0,"so2":10.0,"mosquito_risk":3,"arthritis_risk":5,"migraine_risk":7,"frizz_risk":1,"updated_at":"2026-07-14T00:15:05.874833+05:30"},{"city":"Jamshedpur","state":"Jharkhand","latitude":22.8046,"longitude":86.2029,"temp":27.1,"humidity":92,"rain":0.0,"pressure":984.5,"uv_index":8.45,"wind_gusts":29.5,"aqi":140,"pm10":108.5,"pm2_5":68.7,"no2":31.0,"co":571.0,"o3":50.0,"so2":36.9,"mosquito_risk":7,"arthritis_risk":5,"migraine_risk":7,"frizz_risk":1,"updated_at":"2026-07-14T00:15:05.874840+05:30"},{"city":"Dhanbad","state":"Jharkhand","latitude":23.7957,"longitude":86.4304,"temp":26.8,"humidity":95,"rain":0.0,"pressure":973.6,"uv_index":6.1,"wind_gusts":29.5,"aqi":159,"pm10":124.8,"pm2_5":98.3,"no2":70.5,"co":1773.0,"o3":13.0,"so2":179.6,"mosquito_risk":7,"arthritis_risk":5,"migraine_risk":7,"frizz_risk":1,"updated_at":"2026-07-14T00:15:05.874847+05:30"},{"city":"Bokaro","state":"Jharkhand","latitude":23.6693,"longitude":86.1511,"temp":27.0,"humidity":95,"rain":0.0,"pressure":977.3,"uv_index":8.05,"wind_gusts":26.6,"aqi":158,"pm10":132.2,"pm2_5":96.9,"no2":53.9,"co":2315.0,"o3":22.0,"so2":155.2,"mosquito_risk":7,"arthritis_risk":5,"migraine_risk":7,"frizz_risk":1,"updated_at":"2026-07-14T00:15:05.874853+05:30"},{"city":"Bhubaneswar","state":"Odisha","latitude":20.2961,"longitude":85.8245,"temp":28.2,"humidity":90,"rain":0.0,"pressure":995.4,"uv_index":6.75,"wind_gusts":34.9,"aqi":118,"pm10":103.6,"pm2_5":73.3,"no2":40.5,"co":493.0,"o3":27.0,"so2":20.7,"mosquito_risk":7,"arthritis_risk":5,"migraine_risk":7,"frizz_risk":1,"updated_at":"2026-07-14T00:15:05.874860+05:30"},{"city":"Cuttack","state":"Odisha","latitude":20.4625,"longitude":85.8828,"temp":28.4,"humidity":87,"rain":0.0,"pressure":997.3,"uv_index":7.9,"wind_gusts":36.0,"aqi":118,"pm10":103.6,"pm2_5":73.3,"no2":40.5,"co":685.0,"o3":27.0,"so2":20.7,"mosquito_risk":7,"arthritis_risk":5,"migraine_risk":7,"frizz_risk":1,"updated_at":"2026-07-14T00:15:05.874867+05:30"},{"city":"Rourkela","state":"Odisha","latitude":22.2604,"longitude":84.8536,"temp":28.6,"humidity":87,"rain":0.0,"pressure":978.1,"uv_index":8.4,"wind_gusts":25.9,"aqi":110,"pm10":101.3,"pm2_5":56.7,"no2":17.7,"co":521.0,"o3":67.0,"so2":12.4,"mosquito_risk":7,"arthritis_risk":5,"migraine_risk":7,"frizz_risk":1,"updated_at":"2026-07-14T00:15:05.874874+05:30"},{"city":"Raipur","state":"Chhattisgarh","latitude":21.2514,"longitude":81.6296,"temp":28.2,"humidity":72,"rain":0.0,"pressure":969.4,"uv_index":7.0,"wind_gusts":39.2,"aqi":118,"pm10":75.7,"pm2_5":43.3,"no2":27.4,"co":542.0,"o3":56.0,"so2":49.3,"mosquito_risk":7,"arthritis_risk":5,"migraine_risk":7,"frizz_risk":1,"updated_at":"2026-07-14T00:15:05.874881+05:30"},{"city":"Bhilai","state":"Chhattisgarh","latitude":21.1938,"longitude":81.3509,"temp":27.8,"humidity":74,"rain":0.0,"pressure":970.0,"uv_index":6.45,"wind_gusts":42.5,"aqi":110,"pm10":71.0,"pm2_5":39.5,"no2":21.2,"co":660.0,"o3":59.0,"so2":37.4,"mosquito_risk":7,"arthritis_risk":5,"migraine_risk":7,"frizz_risk":1,"updated_at":"2026-07-14T00:15:05.874888+05:30"},{"city":"Guwahati","state":"Assam","latitude":26.1158,"longitude":91.7086,"temp":25.5,"humidity":99,"rain":0.1,"pressure":995.4,"uv_index":2.1,"wind_gusts":20.5,"aqi":58,"pm10":14.9,"pm2_5":14.2,"no2":9.4,"co":323.0,"o3":39.0,"so2":1.8,"mosquito_risk":10,"arthritis_risk":5,"migraine_risk":3,"frizz_risk":1,"updated_at":"2026-07-14T00:15:05.874895+05:30"},{"city":"Agartala","state":"Tripura","latitude":23.8315,"longitude":91.2868,"temp":25.9,"humidity":99,"rain":0.0,"pressure":999.5,"uv_index":1.0,"wind_gusts":30.6,"aqi":58,"pm10":10.0,"pm2_5":9.5,"no2":7.8,"co":220.0,"o3":58.0,"so2":2.6,"mosquito_risk":7,"arthritis_risk":5,"migraine_risk":3,"frizz_risk":1,"updated_at":"2026-07-14T00:15:05.874902+05:30"},{"city":"Shillong","state":"Meghalaya","latitude":25.5788,"longitude":91.8933,"temp":19.2,"humidity":97,"rain":0.0,"pressure":852.3,"uv_index":2.2,"wind_gusts":25.6,"aqi":36,"pm10":15.3,"pm2_5":12.7,"no2":9.9,"co":338.0,"o3":53.0,"so2":3.8,"mosquito_risk":3,"arthritis_risk":10,"migraine_risk":3,"frizz_risk":1,"updated_at":"2026-07-14T00:15:05.874909+05:30"},{"city":"Imphal","state":"Manipur","latitude":24.817,"longitude":93.9368,"temp":23.4,"humidity":97,"rain":0.0,"pressure":918.0,"uv_index":7.65,"wind_gusts":26.3,"aqi":51,"pm10":28.2,"pm2_5":27.2,"no2":28.1,"co":445.0,"o3":18.0,"so2":4.7,"mosquito_risk":3,"arthritis_risk":5,"migraine_risk":7,"frizz_risk":1,"updated_at":"2026-07-14T00:15:05.874916+05:30"},{"city":"Aizawl","state":"Mizoram","latitude":23.7271,"longitude":92.7176,"temp":20.3,"humidity":98,"rain":0.0,"pressure":886.8,"uv_index":2.25,"wind_gusts":21.6,"aqi":54,"pm10":7.3,"pm2_5":7.0,"no2":9.5,"co":212.0,"o3":27.0,"so2":0.8,"mosquito_risk":3,"arthritis_risk":5,"migraine_risk":3,"frizz_risk":1,"updated_at":"2026-07-14T00:15:05.874923+05:30"},{"city":"Kohima","state":"Nagaland","latitude":25.6701,"longitude":94.1077,"temp":19.6,"humidity":95,"rain":0.0,"pressure":850.3,"uv_index":8.05,"wind_gusts":27.7,"aqi":33,"pm10":9.2,"pm2_5":9.0,"no2":13.3,"co":249.0,"o3":21.0,"so2":1.1,"mosquito_risk":3,"arthritis_risk":10,"migraine_risk":7,"frizz_risk":1,"updated_at":"2026-07-14T00:15:05.874930+05:30"},{"city":"Gangtok","state":"Sikkim","latitude":27.3314,"longitude":88.6138,"temp":18.9,"humidity":98,"rain":0.2,"pressure":834.4,"uv_index":1.65,"wind_gusts":25.2,"aqi":47,"pm10":5.2,"pm2_5":5.1,"no2":8.4,"co":295.0,"o3":94.0,"so2":1.3,"mosquito_risk":6,"arthritis_risk":10,"migraine_risk":3,"frizz_risk":1,"updated_at":"2026-07-14T00:15:05.874937+05:30"},{"city":"Siliguri","state":"West Bengal","latitude":26.7271,"longitude":88.3953,"temp":26.3,"humidity":90,"rain":0.0,"pressure":986.5,"uv_index":3.95,"wind_gusts":37.1,"aqi":53,"pm10":14.5,"pm2_5":14.1,"no2":15.5,"co":447.0,"o3":82.0,"so2":3.6,"mosquito_risk":7,"arthritis_risk":5,"migraine_risk":3,"frizz_risk":1,"updated_at":"2026-07-14T00:15:09.151011+05:30"},{"city":"Durgapur","state":"West Bengal","latitude":23.5204,"longitude":87.3119,"temp":26.7,"humidity":97,"rain":0.1,"pressure":988.6,"uv_index":6.45,"wind_gusts":34.6,"aqi":152,"pm10":98.3,"pm2_5":78.0,"no2":49.2,"co":1330.0,"o3":25.0,"so2":48.7,"mosquito_risk":10,"arthritis_risk":5,"migraine_risk":7,"frizz_risk":1,"updated_at":"2026-07-14T00:15:09.151057+05:30"},{"city":"Asansol","state":"West Bengal","latitude":23.6739,"longitude":86.9524,"temp":26.9,"humidity":98,"rain":0.1,"pressure":987.2,"uv_index":2.55,"wind_gusts":29.9,"aqi":142,"pm10":87.5,"pm2_5":65.9,"no2":51.4,"co":368.0,"o3":24.0,"so2":56.5,"mosquito_risk":10,"arthritis_risk":5,"migraine_risk":3,"frizz_risk":1,"updated_at":"2026-07-14T00:15:09.151069+05:30"},{"city":"Pondicherry","state":"Puducherry","latitude":11.9139,"longitude":79.8145,"temp":29.5,"humidity":72,"rain":0.0,"pressure":1005.4,"uv_index":8.6,"wind_gusts":47.2,"aqi":69,"pm10":35.0,"pm2_5":20.8,"no2":12.0,"co":186.0,"o3":65.0,"so2":7.2,"mosquito_risk":7,"arthritis_risk":5,"migraine_risk":4,"frizz_risk":1,"updated_at":"2026-07-14T00:15:09.151078+05:30"},{"city":"Port Blair","state":"Andaman and Nicobar Islands","latitude":11.6234,"longitude":92.7265,"temp":28.0,"humidity":78,"rain":0.1,"pressure":1004.4,"uv_index":8.6,"wind_gusts":59.0,"aqi":49,"pm10":24.3,"pm2_5":9.9,"no2":0.2,"co":83.0,"o3":48.0,"so2":0.4,"mosquito_risk":10,"arthritis_risk":5,"migraine_risk":4,"frizz_risk":1,"updated_at":"2026-07-14T00:15:09.151088+05:30"},{"city":"Haridwar","state":"Uttarakhand","latitude":29.9457,"longitude":78.1642,"temp":27.7,"humidity":86,"rain":0.0,"pressure":966.3,"uv_index":7.5,"wind_gusts":30.6,"aqi":190,"pm10":284.1,"pm2_5":132.7,"no2":44.1,"co":460.0,"o3":63.0,"so2":21.2,"mosquito_risk":7,"arthritis_risk":5,"migraine_risk":7,"frizz_risk":1,"updated_at":"2026-07-14T00:15:09.151096+05:30"},{"city":"Rishikesh","state":"Uttarakhand","latitude":30.0869,"longitude":78.2676,"temp":26.6,"humidity":93,"rain":0.0,"pressure":959.3,"uv_index":7.6,"wind_gusts":29.2,"aqi":167,"pm10":229.1,"pm2_5":94.3,"no2":12.7,"co":353.0,"o3":113.0,"so2":12.6,"mosquito_risk":7,"arthritis_risk":5,"migraine_risk":7,"frizz_risk":1,"updated_at":"2026-07-14T00:15:09.151104+05:30"},{"city":"Nainital","state":"Uttarakhand","latitude":29.3919,"longitude":79.4542,"temp":16.9,"humidity":100,"rain":0.0,"pressure":801.2,"uv_index":8.5,"wind_gusts":35.3,"aqi":163,"pm10":157.9,"pm2_5":72.6,"no2":13.1,"co":265.0,"o3":79.0,"so2":7.1,"mosquito_risk":3,"arthritis_risk":10,"migraine_risk":7,"frizz_risk":1,"updated_at":"2026-07-14T00:15:09.151112+05:30"},{"city":"Mussoorie","state":"Uttarakhand","latitude":30.4599,"longitude":78.0664,"temp":17.5,"humidity":99,"rain":0.0,"pressure":799.2,"uv_index":8.0,"wind_gusts":44.6,"aqi":166,"pm10":212.8,"pm2_5":90.8,"no2":23.4,"co":335.0,"o3":110.0,"so2":14.3,"mosquito_risk":3,"arthritis_risk":10,"migraine_risk":7,"frizz_risk":1,"updated_at":"2026-07-14T00:15:09.151119+05:30"},{"city":"Dharamshala","state":"Himachal Pradesh","latitude":32.219,"longitude":76.3234,"temp":21.9,"humidity":75,"rain":0.0,"pressure":863.7,"uv_index":8.4,"wind_gusts":31.3,"aqi":75,"pm10":59.5,"pm2_5":32.2,"no2":19.6,"co":406.0,"o3":69.0,"so2":2.3,"mosquito_risk":3,"arthritis_risk":5,"migraine_risk":7,"frizz_risk":1,"updated_at":"2026-07-14T00:15:09.151127+05:30"},{"city":"Dalhousie","state":"Himachal Pradesh","latitude":32.5387,"longitude":75.971,"temp":16.1,"humidity":94,"rain":0.0,"pressure":799.2,"uv_index":8.65,"wind_gusts":28.1,"aqi":119,"pm10":120.6,"pm2_5":72.2,"no2":53.9,"co":617.0,"o3":72.0,"so2":6.9,"mosquito_risk":3,"arthritis_risk":10,"migraine_risk":7,"frizz_risk":0,"updated_at":"2026-07-14T00:15:09.151135+05:30"},{"city":"Patiala","state":"Punjab","latitude":30.3398,"longitude":76.3869,"temp":28.6,"humidity":87,"rain":0.0,"pressure":969.8,"uv_index":7.5,"wind_gusts":37.1,"aqi":175,"pm10":244.0,"pm2_5":147.6,"no2":70.9,"co":889.0,"o3":15.0,"so2":14.1,"mosquito_risk":7,"arthritis_risk":5,"migraine_risk":7,"frizz_risk":1,"updated_at":"2026-07-14T00:15:09.151143+05:30"},{"city":"Bhatinda","state":"Punjab","latitude":30.211,"longitude":74.9455,"temp":30.5,"humidity":77,"rain":0.0,"pressure":975.3,"uv_index":8.25,"wind_gusts":27.0,"aqi":177,"pm10":311.1,"pm2_5":148.1,"no2":71.8,"co":352.0,"o3":23.0,"so2":18.1,"mosquito_risk":3,"arthritis_risk":5,"migraine_risk":7,"frizz_risk":1,"updated_at":"2026-07-14T00:15:09.151151+05:30"},{"city":"Rohtak","state":"Haryana","latitude":28.8955,"longitude":76.6066,"temp":30.2,"humidity":65,"rain":0.0,"pressure":974.0,"uv_index":7.55,"wind_gusts":27.7,"aqi":535,"pm10":434.0,"pm2_5":110.4,"no2":22.6,"co":427.0,"o3":52.0,"so2":4.4,"mosquito_risk":3,"arthritis_risk":5,"migraine_risk":7,"frizz_risk":1,"updated_at":"2026-07-14T00:15:09.151159+05:30"},{"city":"Panipat","state":"Haryana","latitude":29.3909,"longitude":76.9635,"temp":29.0,"humidity":85,"rain":0.0,"pressure":972.2,"uv_index":7.5,"wind_gusts":32.0,"aqi":475,"pm10":931.3,"pm2_5":171.8,"no2":28.3,"co":347.0,"o3":48.0,"so2":6.7,"mosquito_risk":7,"arthritis_risk":5,"migraine_risk":7,"frizz_risk":1,"updated_at":"2026-07-14T00:15:09.151166+05:30"},{"city":"Mathura","state":"Uttar Pradesh","latitude":27.4924,"longitude":77.6737,"temp":30.9,"humidity":65,"rain":0.0,"pressure":979.3,"uv_index":7.2,"wind_gusts":37.4,"aqi":738,"pm10":1389.5,"pm2_5":205.4,"no2":13.9,"co":220.0,"o3":63.0,"so2":4.9,"mosquito_risk":3,"arthritis_risk":5,"migraine_risk":7,"frizz_risk":1,"updated_at":"2026-07-14T00:15:09.151174+05:30"},{"city":"Vrindavan","state":"Uttar Pradesh","latitude":27.5823,"longitude":77.7027,"temp":31.1,"humidity":65,"rain":0.0,"pressure":979.8,"uv_index":7.3,"wind_gusts":36.7,"aqi":738,"pm10":1389.5,"pm2_5":205.4,"no2":13.9,"co":214.0,"o3":63.0,"so2":4.9,"mosquito_risk":3,"arthritis_risk":5,"migraine_risk":7,"frizz_risk":1,"updated_at":"2026-07-14T00:15:09.151181+05:30"},{"city":"Ayodhya","state":"Uttar Pradesh","latitude":26.7922,"longitude":82.1998,"temp":26.8,"humidity":91,"rain":0.0,"pressure":988.4,"uv_index":7.9,"wind_gusts":28.1,"aqi":140,"pm10":84.5,"pm2_5":56.9,"no2":20.1,"co":386.0,"o3":55.0,"so2":6.4,"mosquito_risk":7,"arthritis_risk":5,"migraine_risk":7,"frizz_risk":1,"updated_at":"2026-07-14T00:15:09.151189+05:30"},{"city":"Ratlam","state":"Madhya Pradesh","latitude":23.3315,"longitude":75.0367,"temp":25.2,"humidity":87,"rain":0.0,"pressure":950.8,"uv_index":8.5,"wind_gusts":53.3,"aqi":63,"pm10":18.7,"pm2_5":13.4,"no2":6.7,"co":161.0,"o3":51.0,"so2":9.3,"mosquito_risk":7,"arthritis_risk":5,"migraine_risk":7,"frizz_risk":1,"updated_at":"2026-07-14T00:15:09.151197+05:30"},{"city":"Sagar","state":"Madhya Pradesh","latitude":23.8388,"longitude":78.7378,"temp":27.2,"humidity":68,"rain":0.0,"pressure":945.4,"uv_index":6.95,"wind_gusts":43.6,"aqi":89,"pm10":47.7,"pm2_5":26.4,"no2":6.1,"co":170.0,"o3":67.0,"so2":3.9,"mosquito_risk":7,"arthritis_risk":5,"migraine_risk":7,"frizz_risk":1,"updated_at":"2026-07-14T00:15:09.151205+05:30"},{"city":"Satna","state":"Madhya Pradesh","latitude":24.6005,"longitude":80.8322,"temp":28.9,"humidity":67,"rain":0.0,"pressure":965.4,"uv_index":8.0,"wind_gusts":42.5,"aqi":95,"pm10":73.1,"pm2_5":34.7,"no2":7.5,"co":176.0,"o3":63.0,"so2":4.3,"mosquito_risk":7,"arthritis_risk":5,"migraine_risk":7,"frizz_risk":1,"updated_at":"2026-07-14T00:15:09.151212+05:30"},{"city":"Akola","state":"Maharashtra","latitude":20.7002,"longitude":77.0082,"temp":28.1,"humidity":67,"rain":0.0,"pressure":972.4,"uv_index":8.7,"wind_gusts":47.5,"aqi":59,"pm10":18.9,"pm2_5":13.1,"no2":8.1,"co":164.0,"o3":50.0,"so2":7.6,"mosquito_risk":7,"arthritis_risk":5,"migraine_risk":7,"frizz_risk":1,"updated_at":"2026-07-14T00:15:09.151221+05:30"},{"city":"Amravati","state":"Maharashtra","latitude":20.9374,"longitude":77.7796,"temp":28.0,"humidity":66,"rain":0.0,"pressure":964.2,"uv_index":7.7,"wind_gusts":53.6,"aqi":62,"pm10":18.6,"pm2_5":12.8,"no2":8.3,"co":140.0,"o3":54.0,"so2":8.9,"mosquito_risk":7,"arthritis_risk":5,"migraine_risk":7,"frizz_risk":1,"updated_at":"2026-07-14T00:15:09.151229+05:30"},{"city":"Latur","state":"Maharashtra","latitude":18.4088,"longitude":76.5604,"temp":24.9,"humidity":71,"rain":0.0,"pressure":938.4,"uv_index":8.85,"wind_gusts":47.5,"aqi":52,"pm10":16.6,"pm2_5":11.8,"no2":5.0,"co":152.0,"o3":57.0,"so2":3.0,"mosquito_risk":3,"arthritis_risk":5,"migraine_risk":7,"frizz_risk":1,"updated_at":"2026-07-14T00:15:09.151237+05:30"},{"city":"Nanded","state":"Maharashtra","latitude":19.1383,"longitude":77.3091,"temp":27.8,"humidity":61,"rain":0.0,"pressure":966.3,"uv_index":8.55,"wind_gusts":43.9,"aqi":57,"pm10":21.6,"pm2_5":16.2,"no2":5.8,"co":159.0,"o3":77.0,"so2":5.3,"mosquito_risk":7,"arthritis_risk":5,"migraine_risk":7,"frizz_risk":1,"updated_at":"2026-07-14T00:15:09.151245+05:30"},{"city":"Gulbarga","state":"Karnataka","latitude":17.3297,"longitude":76.8343,"temp":25.8,"humidity":66,"rain":0.0,"pressure":957.6,"uv_index":8.8,"wind_gusts":48.6,"aqi":52,"pm10":13.9,"pm2_5":10.1,"no2":6.5,"co":131.0,"o3":52.0,"so2":2.9,"mosquito_risk":7,"arthritis_risk":5,"migraine_risk":7,"frizz_risk":1,"updated_at":"2026-07-14T00:15:09.151252+05:30"},{"city":"Bidar","state":"Karnataka","latitude":17.9104,"longitude":77.5199,"temp":26.0,"humidity":61,"rain":0.0,"pressure":933.6,"uv_index":8.95,"wind_gusts":46.1,"aqi":55,"pm10":16.0,"pm2_5":11.7,"no2":5.9,"co":133.0,"o3":65.0,"so2":2.6,"mosquito_risk":7,"arthritis_risk":5,"migraine_risk":7,"frizz_risk":1,"updated_at":"2026-07-14T00:15:09.151259+05:30"},{"city":"Hospet","state":"Karnataka","latitude":15.2689,"longitude":76.3909,"temp":24.1,"humidity":77,"rain":0.0,"pressure":955.9,"uv_index":8.9,"wind_gusts":47.5,"aqi":47,"pm10":12.6,"pm2_5":8.8,"no2":6.1,"co":143.0,"o3":42.0,"so2":2.1,"mosquito_risk":3,"arthritis_risk":5,"migraine_risk":7,"frizz_risk":1,"updated_at":"2026-07-14T00:15:09.151266+05:30"},{"city":"Tirupur","state":"Tamil Nadu","latitude":11.1085,"longitude":77.3411,"temp":24.8,"humidity":88,"rain":0.0,"pressure":975.1,"uv_index":8.15,"wind_gusts":57.2,"aqi":62,"pm10":28.6,"pm2_5":21.6,"no2":25.8,"co":166.0,"o3":20.0,"so2":6.3,"mosquito_risk":3,"arthritis_risk":5,"migraine_risk":7,"frizz_risk":1,"updated_at":"2026-07-14T00:15:09.151273+05:30"},{"city":"Alappuzha","state":"Kerala","latitude":9.4981,"longitude":76.3388,"temp":27.6,"humidity":84,"rain":0.0,"pressure":1010.7,"uv_index":8.5,"wind_gusts":43.6,"aqi":55,"pm10":20.8,"pm2_5":12.5,"no2":7.9,"co":84.0,"o3":39.0,"so2":3.2,"mosquito_risk":7,"arthritis_risk":0,"migraine_risk":4,"frizz_risk":1,"updated_at":"2026-07-14T00:15:09.151281+05:30"},{"city":"Munnar","state":"Kerala","latitude":10.0889,"longitude":77.0595,"temp":16.9,"humidity":99,"rain":0.0,"pressure":857.3,"uv_index":8.7,"wind_gusts":35.3,"aqi":38,"pm10":10.5,"pm2_5":8.5,"no2":10.4,"co":111.0,"o3":25.0,"so2":2.2,"mosquito_risk":3,"arthritis_risk":10,"migraine_risk":7,"frizz_risk":1,"updated_at":"2026-07-14T00:15:09.151288+05:30"},{"city":"Silchar","state":"Assam","latitude":24.8333,"longitude":92.7789,"temp":26.0,"humidity":99,"rain":0.1,"pressure":998.7,"uv_index":4.2,"wind_gusts":19.4,"aqi":74,"pm10":18.7,"pm2_5":16.1,"no2":7.5,"co":201.0,"o3":67.0,"so2":3.3,"mosquito_risk":10,"arthritis_risk":5,"migraine_risk":3,"frizz_risk":1,"updated_at":"2026-07-14T00:15:09.151296+05:30"},{"city":"Dibrugarh","state":"Assam","latitude":27.4728,"longitude":94.912,"temp":27.0,"humidity":89,"rain":0.0,"pressure":988.2,"uv_index":8.9,"wind_gusts":20.2,"aqi":53,"pm10":34.8,"pm2_5":34.0,"no2":29.9,"co":476.0,"o3":24.0,"so2":4.1,"mosquito_risk":7,"arthritis_risk":5,"migraine_risk":7,"frizz_risk":1,"updated_at":"2026-07-14T00:15:09.151303+05:30"}]