[{"city":"Delhi","state":"Delhi","latitude":28.6139,"longitude":77.209,"temp":16.4,"humidity":76,"rain":0.0,"pressure":987.7,"uv_index":5.5,"aqi":164,"mosquito_risk":3,"arthritis_risk":5,"migraine_risk":3,"frizz_risk":0,"updated_at":"2026-02-25T03:09:06.994470+05:30"},{"city":"Mumbai","state":"Maharashtra","latitude":19.076,"longitude":72.8777,"temp":26.5,"humidity":80,"rain":0.0,"pressure":1009.0,"uv_index":7.25,"aqi":153,"mosquito_risk":7,"arthritis_risk":0,"migraine_risk":4,"frizz_risk":1,"updated_at":"2026-02-25T03:09:06.994514+05:30"},{"city":"Bangalore","state":"Karnataka","latitude":12.9716,"longitude":77.5946,"temp":20.1,"humidity":82,"rain":0.0,"pressure":911.4,"uv_index":8.8,"aqi":79,"mosquito_risk":3,"arthritis_risk":5,"migraine_risk":7,"frizz_risk":1,"updated_at":"2026-02-25T03:09:06.994529+05:30"},{"city":"Hyderabad","state":"Telangana","latitude":17.385,"longitude":78.4867,"temp":20.7,"humidity":86,"rain":0.0,"pressure":954.1,"uv_index":8.05,"aqi":126,"mosquito_risk":3,"arthritis_risk":5,"migraine_risk":7,"frizz_risk":1,"updated_at":"2026-02-25T03:09:06.994539+05:30"},{"city":"Chennai","state":"Tamil Nadu","latitude":13.0827,"longitude":80.2707,"temp":25.7,"humidity":85,"rain":0.0,"pressure":1008.5,"uv_index":8.6,"aqi":44,"mosquito_risk":7,"arthritis_risk":0,"migraine_risk":4,"frizz_risk":1,"updated_at":"2026-02-25T03:09:06.994548+05:30"},{"city":"Kolkata","state":"West Bengal","latitude":22.5726,"longitude":88.3639,"temp":20.0,"humidity":100,"rain":0.0,"pressure":1010.2,"uv_index":7.35,"aqi":177,"mosquito_risk":3,"arthritis_risk":0,"migraine_risk":4,"frizz_risk":1,"updated_at":"2026-02-25T03:09:06.994556+05:30"},{"city":"Pune","state":"Maharashtra","latitude":18.5204,"longitude":73.8567,"temp":21.7,"humidity":59,"rain":0.0,"pressure":948.9,"uv_index":7.75,"aqi":150,"mosquito_risk":0,"arthritis_risk":5,"migraine_risk":7,"frizz_risk":0,"updated_at":"2026-02-25T03:09:06.994564+05:30"},{"city":"Ahmedabad","state":"Gujarat","latitude":23.0225,"longitude":72.5714,"temp":21.1,"humidity":61,"rain":0.0,"pressure":1004.1,"uv_index":7.05,"aqi":85,"mosquito_risk":3,"arthritis_risk":5,"migraine_risk":4,"frizz_risk":0,"updated_at":"2026-02-25T03:09:06.994571+05:30"},{"city":"Jaipur","state":"Rajasthan","latitude":26.9124,"longitude":75.7873,"temp":19.1,"humidity":50,"rain":0.0,"pressure":963.4,"uv_index":6.35,"aqi":137,"mosquito_risk":0,"arthritis_risk":5,"migraine_risk":7,"frizz_risk":0,"updated_at":"2026-02-25T03:09:06.994578+05:30"},{"city":"Lucknow","state":"Uttar Pradesh","latitude":26.8467,"longitude":80.9462,"temp":17.4,"humidity":73,"rain":0.0,"pressure":998.4,"uv_index":5.95,"aqi":164,"mosquito_risk":3,"arthritis_risk":5,"migraine_risk":3,"frizz_risk":0,"updated_at":"2026-02-25T03:09:06.994589+05:30"},{"city":"Kanpur","state":"Uttar Pradesh","latitude":26.4499,"longitude":80.3319,"temp":17.3,"humidity":76,"rain":0.0,"pressure":996.6,"uv_index":6.0,"aqi":160,"mosquito_risk":3,"arthritis_risk":5,"migraine_risk":3,"frizz_risk":0,"updated_at":"2026-02-25T03:09:06.994596+05:30"},{"city":"Chandigarh","state":"Chandigarh","latitude":30.7333,"longitude":76.7794,"temp":15.1,"humidity":93,"rain":0.0,"pressure":973.0,"uv_index":5.45,"aqi":153,"mosquito_risk":3,"arthritis_risk":10,"migraine_risk":3,"frizz_risk":0,"updated_at":"2026-02-25T03:09:06.994604+05:30"},{"city":"Srinagar","state":"Jammu and Kashmir","latitude":34.0837,"longitude":74.7973,"temp":2.6,"humidity":91,"rain":0.0,"pressure":838.3,"uv_index":6.3,"aqi":153,"mosquito_risk":3,"arthritis_risk":10,"migraine_risk":7,"frizz_risk":0,"updated_at":"2026-02-25T03:09:06.994612+05:30"},{"city":"Jammu","state":"Jammu and Kashmir","latitude":32.7266,"longitude":74.857,"temp":15.5,"humidity":91,"rain":0.0,"pressure":976.9,"uv_index":6.0,"aqi":151,"mosquito_risk":3,"arthritis_risk":10,"migraine_risk":3,"frizz_risk":0,"updated_at":"2026-02-25T03:09:06.994622+05:30"},{"city":"Amritsar","state":"Punjab","latitude":31.634,"longitude":74.8723,"temp":15.0,"humidity":91,"rain":0.0,"pressure":985.2,"uv_index":6.0,"aqi":182,"mosquito_risk":3,"arthritis_risk":10,"migraine_risk":3,"frizz_risk":0,"updated_at":"2026-02-25T03:09:06.994628+05:30"},{"city":"Ludhiana","state":"Punjab","latitude":30.901,"longitude":75.8573,"temp":16.4,"humidity":87,"rain":0.0,"pressure":983.4,"uv_index":5.65,"aqi":184,"mosquito_risk":3,"arthritis_risk":10,"migraine_risk":3,"frizz_risk":0,"updated_at":"2026-02-25T03:09:06.994635+05:30"},{"city":"Jalandhar","state":"Punjab","latitude":31.326,"longitude":75.5762,"temp":15.4,"humidity":91,"rain":0.0,"pressure":984.4,"uv_index":5.8,"aqi":184,"mosquito_risk":3,"arthritis_risk":10,"migraine_risk":3,"frizz_risk":0,"updated_at":"2026-02-25T03:09:06.994642+05:30"},{"city":"Dehradun","state":"Uttarakhand","latitude":30.6284,"longitude":78.0322,"temp":8.6,"humidity":89,"rain":0.0,"pressure":829.2,"uv_index":5.75,"aqi":82,"mosquito_risk":3,"arthritis_risk":10,"migraine_risk":3,"frizz_risk":0,"updated_at":"2026-02-25T03:09:06.994649+05:30"},{"city":"Shimla","state":"Himachal Pradesh","latitude":31.1048,"longitude":77.1734,"temp":7.0,"humidity":88,"rain":0.0,"pressure":782.2,"uv_index":5.85,"aqi":105,"mosquito_risk":3,"arthritis_risk":10,"migraine_risk":3,"frizz_risk":0,"updated_at":"2026-02-25T03:09:06.994655+05:30"},{"city":"Manali","state":"Himachal Pradesh","latitude":32.2396,"longitude":77.1887,"temp":10.6,"humidity":20,"rain":0.0,"pressure":817.7,"uv_index":7.2,"aqi":54,"mosquito_risk":0,"arthritis_risk":5,"migraine_risk":7,"frizz_risk":1,"updated_at":"2026-02-25T03:09:06.994665+05:30"},{"city":"Gurgaon","state":"Haryana","latitude":28.4595,"longitude":77.0266,"temp":12.6,"humidity":93,"rain":0.0,"pressure":986.0,"uv_index":5.65,"aqi":165,"mosquito_risk":3,"arthritis_risk":10,"migraine_risk":3,"frizz_risk":0,"updated_at":"2026-02-25T03:09:06.994672+05:30"},{"city":"Noida","state":"Uttar Pradesh","latitude":28.5355,"longitude":77.391,"temp":15.8,"humidity":79,"rain":0.0,"pressure":989.3,"uv_index":5.55,"aqi":165,"mosquito_risk":3,"arthritis_risk":5,"migraine_risk":3,"frizz_risk":0,"updated_at":"2026-02-25T03:09:06.994678+05:30"},{"city":"Ghaziabad","state":"Uttar Pradesh","latitude":28.6692,"longitude":77.4538,"temp":14.8,"humidity":79,"rain":0.0,"pressure":987.2,"uv_index":5.5,"aqi":163,"mosquito_risk":3,"arthritis_risk":5,"migraine_risk":3,"frizz_risk":0,"updated_at":"2026-02-25T03:09:06.994684+05:30"},{"city":"Faridabad","state":"Haryana","latitude":28.4089,"longitude":77.3178,"temp":13.9,"humidity":86,"rain":0.0,"pressure":988.5,"uv_index":5.55,"aqi":165,"mosquito_risk":3,"arthritis_risk":10,"migraine_risk":3,"frizz_risk":0,"updated_at":"2026-02-25T03:09:06.994691+05:30"},{"city":"Meerut","state":"Uttar Pradesh","latitude":28.9845,"longitude":77.7064,"temp":14.3,"humidity":79,"rain":0.0,"pressure":985.9,"uv_index":5.4,"aqi":163,"mosquito_risk":3,"arthritis_risk":5,"migraine_risk":3,"frizz_risk":0,"updated_at":"2026-02-25T03:09:06.994697+05:30"},{"city":"Agra","state":"Uttar Pradesh","latitude":27.1767,"longitude":78.0081,"temp":13.9,"humidity":86,"rain":0.0,"pressure":992.6,"uv_index":5.85,"aqi":174,"mosquito_risk":3,"arthritis_risk":10,"migraine_risk":3,"frizz_risk":0,"updated_at":"2026-02-25T03:09:06.994703+05:30"},{"city":"Varanasi","state":"Uttar Pradesh","latitude":25.3176,"longitude":82.9739,"temp":14.9,"humidity":83,"rain":0.0,"pressure":1002.6,"uv_index":6.65,"aqi":161,"mosquito_risk":3,"arthritis_risk":10,"migraine_risk":4,"frizz_risk":0,"updated_at":"2026-02-25T03:09:06.994710+05:30"},{"city":"Prayagraj","state":"Uttar Pradesh","latitude":25.4358,"longitude":81.8463,"temp":15.2,"humidity":80,"rain":0.0,"pressure":1001.1,"uv_index":6.5,"aqi":165,"mosquito_risk":3,"arthritis_risk":5,"migraine_risk":4,"frizz_risk":0,"updated_at":"2026-02-25T03:09:06.994717+05:30"},{"city":"Gorakhpur","state":"Uttar Pradesh","latitude":26.7606,"longitude":83.3732,"temp":14.9,"humidity":89,"rain":0.0,"pressure":1002.1,"uv_index":6.35,"aqi":165,"mosquito_risk":3,"arthritis_risk":10,"migraine_risk":4,"frizz_risk":0,"updated_at":"2026-02-25T03:09:06.994723+05:30"},{"city":"Bareilly","state":"Uttar Pradesh","latitude":28.367,"longitude":79.4304,"temp":15.0,"humidity":96,"rain":0.0,"pressure":991.6,"uv_index":5.65,"aqi":168,"mosquito_risk":3,"arthritis_risk":10,"migraine_risk":3,"frizz_risk":0,"updated_at":"2026-02-25T03:09:06.994733+05:30"},{"city":"Aligarh","state":"Uttar Pradesh","latitude":27.8974,"longitude":78.088,"temp":14.1,"humidity":86,"rain":0.0,"pressure":990.2,"uv_index":5.6,"aqi":170,"mosquito_risk":3,"arthritis_risk":10,"migraine_risk":3,"frizz_risk":0,"updated_at":"2026-02-25T03:09:06.994740+05:30"},{"city":"Moradabad","state":"Uttar Pradesh","latitude":28.8386,"longitude":78.7733,"temp":15.0,"humidity":94,"rain":0.0,"pressure":988.3,"uv_index":5.5,"aqi":176,"mosquito_risk":3,"arthritis_risk":10,"migraine_risk":3,"frizz_risk":0,"updated_at":"2026-02-25T03:09:06.994746+05:30"},{"city":"Saharanpur","state":"Uttar Pradesh","latitude":29.9637,"longitude":77.546,"temp":15.8,"humidity":88,"rain":0.0,"pressure":980.3,"uv_index":5.2,"aqi":164,"mosquito_risk":3,"arthritis_risk":10,"migraine_risk":3,"frizz_risk":0,"updated_at":"2026-02-25T03:09:06.994752+05:30"},{"city":"Jhansi","state":"Uttar Pradesh","latitude":25.4484,"longitude":78.5685,"temp":17.3,"humidity":65,"rain":0.0,"pressure":982.2,"uv_index":6.45,"aqi":142,"mosquito_risk":3,"arthritis_risk":5,"migraine_risk":7,"frizz_risk":0,"updated_at":"2026-02-25T03:09:10.327333+05:30"},{"city":"Surat","state":"Gujarat","latitude":21.1702,"longitude":72.8311,"temp":22.9,"humidity":77,"rain":0.0,"pressure":1008.1,"uv_index":7.0,"aqi":162,"mosquito_risk":3,"arthritis_risk":0,"migraine_risk":4,"frizz_risk":1,"updated_at":"2026-02-25T03:09:10.327365+05:30"},{"city":"Vadodara","state":"Gujarat","latitude":22.3072,"longitude":73.1812,"temp":21.5,"humidity":58,"rain":0.0,"pressure":1005.9,"uv_index":7.05,"aqi":96,"mosquito_risk":0,"arthritis_risk":5,"migraine_risk":4,"frizz_risk":0,"updated_at":"2026-02-25T03:09:10.327374+05:30"},{"city":"Rajkot","state":"Gujarat","latitude":22.3039,"longitude":70.8022,"temp":23.5,"humidity":68,"rain":0.0,"pressure":996.2,"uv_index":6.95,"aqi":95,"mosquito_risk":3,"arthritis_risk":5,"migraine_risk":7,"frizz_risk":1,"updated_at":"2026-02-25T03:09:10.327382+05:30"},{"city":"Thane","state":"Maharashtra","latitude":19.2183,"longitude":72.9781,"temp":23.2,"humidity":76,"rain":0.0,"pressure":1008.6,"uv_index":7.25,"aqi":153,"mosquito_risk":3,"arthritis_risk":0,"migraine_risk":4,"frizz_risk":1,"updated_at":"2026-02-25T03:09:10.327390+05:30"},{"city":"Nagpur","state":"Maharashtra","latitude":21.1458,"longitude":79.0882,"temp":18.6,"humidity":91,"rain":0.0,"pressure":975.3,"uv_index":7.35,"aqi":158,"mosquito_risk":3,"arthritis_risk":10,"migraine_risk":7,"frizz_risk":1,"updated_at":"2026-02-25T03:09:10.327397+05:30"},{"city":"Nashik","state":"Maharashtra","latitude":19.9975,"longitude":73.7898,"temp":21.6,"humidity":52,"rain":0.0,"pressure":946.2,"uv_index":7.45,"aqi":90,"mosquito_risk":0,"arthritis_risk":5,"migraine_risk":7,"frizz_risk":0,"updated_at":"2026-02-25T03:09:10.327403+05:30"},{"city":"Aurangabad","state":"Maharashtra","latitude":19.8762,"longitude":75.3433,"temp":20.1,"humidity":58,"rain":0.0,"pressure":944.6,"uv_index":7.75,"aqi":101,"mosquito_risk":0,"arthritis_risk":5,"migraine_risk":7,"frizz_risk":0,"updated_at":"2026-02-25T03:09:10.327410+05:30"},{"city":"Solapur","state":"Maharashtra","latitude":17.6599,"longitude":75.9064,"temp":22.7,"humidity":76,"rain":0.0,"pressure":957.7,"uv_index":8.0,"aqi":122,"mosquito_risk":3,"arthritis_risk":5,"migraine_risk":7,"frizz_risk":1,"updated_at":"2026-02-25T03:09:10.327417+05:30"},{"city":"Kolhapur","state":"Maharashtra","latitude":16.705,"longitude":74.2433,"temp":20.1,"humidity":86,"rain":0.0,"pressure":948.1,"uv_index":8.2,"aqi":151,"mosquito_risk":3,"arthritis_risk":5,"migraine_risk":7,"frizz_risk":1,"updated_at":"2026-02-25T03:09:10.327423+05:30"},{"city":"Goa","state":"Goa","latitude":15.2993,"longitude":74.124,"temp":27.1,"humidity":86,"rain":0.0,"pressure":998.1,"uv_index":8.2,"aqi":151,"mosquito_risk":7,"arthritis_risk":5,"migraine_risk":7,"frizz_risk":1,"updated_at":"2026-02-25T03:09:10.327430+05:30"},{"city":"Jodhpur","state":"Rajasthan","latitude":26.2389,"longitude":73.0243,"temp":20.0,"humidity":47,"rain":0.0,"pressure":985.7,"uv_index":6.6,"aqi":71,"mosquito_risk":0,"arthritis_risk":5,"migraine_risk":7,"frizz_risk":0,"updated_at":"2026-02-25T03:09:10.327438+05:30"},{"city":"Udaipur","state":"Rajasthan","latitude":24.5854,"longitude":73.7125,"temp":18.4,"humidity":47,"rain":0.0,"pressure":948.6,"uv_index":7.25,"aqi":41,"mosquito_risk":0,"arthritis_risk":5,"migraine_risk":7,"frizz_risk":0,"updated_at":"2026-02-25T03:09:10.327445+05:30"},{"city":"Kota","state":"Rajasthan","latitude":25.2138,"longitude":75.8648,"temp":15.9,"humidity":79,"rain":0.0,"pressure":982.0,"uv_index":6.65,"aqi":118,"mosquito_risk":3,"arthritis_risk":5,"migraine_risk":7,"frizz_risk":0,"updated_at":"2026-02-25T03:09:10.327451+05:30"},{"city":"Bikaner","state":"Rajasthan","latitude":28.0229,"longitude":73.3119,"temp":20.5,"humidity":45,"rain":0.0,"pressure":985.5,"uv_index":6.25,"aqi":70,"mosquito_risk":0,"arthritis_risk":5,"migraine_risk":7,"frizz_risk":0,"updated_at":"2026-02-25T03:09:10.327458+05:30"},{"city":"Ajmer","state":"Rajasthan","latitude":26.4499,"longitude":74.6399,"temp":19.9,"humidity":47,"rain":0.0,"pressure":957.1,"uv_index":6.6,"aqi":102,"mosquito_risk":0,"arthritis_risk":5,"migraine_risk":7,"frizz_risk":0,"updated_at":"2026-02-25T03:09:10.327464+05:30"},{"city":"Gwalior","state":"Madhya Pradesh","latitude":26.2183,"longitude":78.1828,"temp":17.9,"humidity":66,"rain":0.0,"pressure":987.6,"uv_index":6.2,"aqi":129,"mosquito_risk":3,"arthritis_risk":5,"migraine_risk":7,"frizz_risk":0,"updated_at":"2026-02-25T03:09:10.327471+05:30"},{"city":"Indore","state":"Madhya Pradesh","latitude":22.7196,"longitude":75.8577,"temp":16.9,"humidity":67,"rain":0.0,"pressure":949.1,"uv_index":7.2,"aqi":93,"mosquito_risk":3,"arthritis_risk":5,"migraine_risk":7,"frizz_risk":0,"updated_at":"2026-02-25T03:09:10.327477+05:30"},{"city":"Bhopal","state":"Madhya Pradesh","latitude":23.2599,"longitude":77.4126,"temp":17.7,"humidity":61,"rain":0.0,"pressure":955.5,"uv_index":7.05,"aqi":86,"mosquito_risk":3,"arthritis_risk":5,"migraine_risk":7,"frizz_risk":0,"updated_at":"2026-02-25T03:09:10.327483+05:30"},{"city":"Jabalpur","state":"Madhya Pradesh","latitude":23.1815,"longitude":79.9864,"temp":16.6,"humidity":71,"rain":0.0,"pressure":964.2,"uv_index":7.1,"aqi":92,"mosquito_risk":3,"arthritis_risk":5,"migraine_risk":7,"frizz_risk":0,"updated_at":"2026-02-25T03:09:10.327489+05:30"},{"city":"Ujjain","state":"Madhya Pradesh","latitude":23.1765,"longitude":75.7885,"temp":17.9,"humidity":65,"rain":0.0,"pressure":955.5,"uv_index":7.1,"aqi":105,"mosquito_risk":3,"arthritis_risk":5,"migraine_risk":7,"frizz_risk":0,"updated_at":"2026-02-25T03:09:10.327496+05:30"},{"city":"Visakhapatnam","state":"Andhra Pradesh","latitude":17.6868,"longitude":83.2185,"temp":22.0,"humidity":95,"rain":0.0,"pressure":1006.5,"uv_index":7.6,"aqi":114,"mosquito_risk":3,"arthritis_risk":5,"migraine_risk":4,"frizz_risk":1,"updated_at":"2026-02-25T03:09:10.327502+05:30"},{"city":"Vijayawada","state":"Andhra Pradesh","latitude":16.5062,"longitude":80.648,"temp":23.9,"humidity":89,"rain":0.0,"pressure":1004.9,"uv_index":8.15,"aqi":115,"mosquito_risk":3,"arthritis_risk":5,"migraine_risk":4,"frizz_risk":1,"updated_at":"2026-02-25T03:09:10.327508+05:30"},{"city":"Guntur","state":"Andhra Pradesh","latitude":16.3067,"longitude":80.4365,"temp":23.5,"humidity":93,"rain":0.0,"pressure":1006.1,"uv_index":8.15,"aqi":111,"mosquito_risk":3,"arthritis_risk":5,"migraine_risk":4,"frizz_risk":1,"updated_at":"2026-02-25T03:09:10.327515+05:30"},{"city":"Nellore","state":"Andhra Pradesh","latitude":14.4426,"longitude":79.9865,"temp":23.6,"humidity":89,"rain":0.0,"pressure":1007.7,"uv_index":8.4,"aqi":45,"mosquito_risk":3,"arthritis_risk":5,"migraine_risk":4,"frizz_risk":1,"updated_at":"2026-02-25T03:09:10.327522+05:30"},{"city":"Kurnool","state":"Andhra Pradesh","latitude":15.8281,"longitude":78.0373,"temp":23.5,"humidity":75,"rain":0.0,"pressure":977.9,"uv_index":8.2,"aqi":98,"mosquito_risk":3,"arthritis_risk":5,"migraine_risk":7,"frizz_risk":1,"updated_at":"2026-02-25T03:09:10.327529+05:30"},{"city":"Kakinada","state":"Andhra Pradesh","latitude":16.9891,"longitude":82.2475,"temp":20.9,"humidity":94,"rain":0.0,"pressure":1010.1,"uv_index":8.1,"aqi":59,"mosquito_risk":3,"arthritis_risk":0,"migraine_risk":4,"frizz_risk":1,"updated_at":"2026-02-25T03:09:10.327536+05:30"},{"city":"Tirupati","state":"Andhra Pradesh","latitude":13.6288,"longitude":79.4192,"temp":20.4,"humidity":91,"rain":0.0,"pressure":993.1,"uv_index":8.55,"aqi":58,"mosquito_risk":3,"arthritis_risk":5,"migraine_risk":7,"frizz_risk":1,"updated_at":"2026-02-25T03:09:10.327542+05:30"},{"city":"Warangal","state":"Telangana","latitude":17.9689,"longitude":79.5941,"temp":22.2,"humidity":86,"rain":0.0,"pressure":980.4,"uv_index":7.9,"aqi":152,"mosquito_risk":3,"arthritis_risk":5,"migraine_risk":7,"frizz_risk":1,"updated_at":"2026-02-25T03:09:10.327548+05:30"},{"city":"Nizamabad","state":"Telangana","latitude":18.6725,"longitude":78.0941,"temp":20.8,"humidity":80,"rain":0.0,"pressure":965.8,"uv_index":7.7,"aqi":155,"mosquito_risk":3,"arthritis_risk":5,"migraine_risk":7,"frizz_risk":1,"updated_at":"2026-02-25T03:09:10.327555+05:30"},{"city":"Mysore","state":"Karnataka","latitude":12.2958,"longitude":76.6396,"temp":20.9,"humidity":89,"rain":0.0,"pressure":928.4,"uv_index":8.75,"aqi":96,"mosquito_risk":3,"arthritis_risk":5,"migraine_risk":7,"frizz_risk":1,"updated_at":"2026-02-25T03:09:10.327561+05:30"},{"city":"Mangalore","state":"Karnataka","latitude":12.9141,"longitude":74.856,"temp":28.0,"humidity":80,"rain":0.0,"pressure":1006.9,"uv_index":8.45,"aqi":135,"mosquito_risk":7,"arthritis_risk":5,"migraine_risk":4,"frizz_risk":1,"updated_at":"2026-02-25T03:09:10.327568+05:30"},{"city":"Hubli-Dharwad","state":"Karnataka","latitude":15.3647,"longitude":75.124,"temp":22.5,"humidity":86,"rain":0.0,"pressure":940.9,"uv_index":8.2,"aqi":112,"mosquito_risk":3,"arthritis_risk":5,"migraine_risk":7,"frizz_risk":1,"updated_at":"2026-02-25T03:09:10.327574+05:30"},{"city":"Belgaum","state":"Karnataka","latitude":15.8497,"longitude":74.4977,"temp":21.5,"humidity":89,"rain":0.0,"pressure":925.7,"uv_index":8.2,"aqi":137,"mosquito_risk":3,"arthritis_risk":5,"migraine_risk":7,"frizz_risk":1,"updated_at":"2026-02-25T03:09:13.660769+05:30"},{"city":"Coimbatore","state":"Tamil Nadu","latitude":11.0168,"longitude":76.9558,"temp":21.8,"humidity":90,"rain":0.0,"pressure":962.4,"uv_index":8.9,"aqi":93,"mosquito_risk":3,"arthritis_risk":5,"migraine_risk":7,"frizz_risk":1,"updated_at":"2026-02-25T03:09:13.660801+05:30"},{"city":"Madurai","state":"Tamil Nadu","latitude":9.9252,"longitude":78.1198,"temp":24.8,"humidity":88,"rain":0.0,"pressure":993.6,"uv_index":8.9,"aqi":81,"mosquito_risk":3,"arthritis_risk":5,"migraine_risk":7,"frizz_risk":1,"updated_at":"2026-02-25T03:09:13.660811+05:30"},{"city":"Trichy","state":"Tamil Nadu","latitude":10.7905,"longitude":78.7047,"temp":23.8,"humidity":93,"rain":0.0,"pressure":1000.9,"uv_index":8.75,"aqi":60,"mosquito_risk":3,"arthritis_risk":5,"migraine_risk":4,"frizz_risk":1,"updated_at":"2026-02-25T03:09:13.660819+05:30"},{"city":"Salem","state":"Tamil Nadu","latitude":11.6643,"longitude":78.146,"temp":23.9,"humidity":83,"rain":0.0,"pressure":978.1,"uv_index":8.75,"aqi":81,"mosquito_risk":3,"arthritis_risk":5,"migraine_risk":7,"frizz_risk":1,"updated_at":"2026-02-25T03:09:13.660827+05:30"},{"city":"Tirunelveli","state":"Tamil Nadu","latitude":8.7139,"longitude":77.7567,"temp":24.2,"humidity":89,"rain":0.0,"pressure":1003.5,"uv_index":8.9,"aqi":72,"mosquito_risk":3,"arthritis_risk":5,"migraine_risk":4,"frizz_risk":1,"updated_at":"2026-02-25T03:09:13.660833+05:30"},{"city":"Vellore","state":"Tamil Nadu","latitude":12.9165,"longitude":79.1325,"temp":22.2,"humidity":92,"rain":0.0,"pressure":986.1,"uv_index":8.65,"aqi":73,"mosquito_risk":3,"arthritis_risk":5,"migraine_risk":7,"frizz_risk":1,"updated_at":"2026-02-25T03:09:13.660840+05:30"},{"city":"Erode","state":"Tamil Nadu","latitude":11.341,"longitude":77.7172,"temp":25.2,"humidity":80,"rain":0.0,"pressure":990.1,"uv_index":8.8,"aqi":74,"mosquito_risk":7,"arthritis_risk":5,"migraine_risk":7,"frizz_risk":1,"updated_at":"2026-02-25T03:09:13.660847+05:30"},{"city":"Kochi","state":"Kerala","latitude":9.9312,"longitude":76.2673,"temp":26.5,"humidity":80,"rain":0.0,"pressure":1009.0,"uv_index":8.75,"aqi":92,"mosquito_risk":7,"arthritis_risk":0,"migraine_risk":4,"frizz_risk":1,"updated_at":"2026-02-25T03:09:13.660854+05:30"},{"city":"Thiruvananthapuram","state":"Kerala","latitude":8.5241,"longitude":76.9366,"temp":27.5,"humidity":82,"rain":0.0,"pressure":1007.7,"uv_index":8.75,"aqi":77,"mosquito_risk":7,"arthritis_risk":5,"migraine_risk":4,"frizz_risk":1,"updated_at":"2026-02-25T03:09:13.660860+05:30"},{"city":"Kozhikode","state":"Kerala","latitude":11.2588,"longitude":75.7804,"temp":25.8,"humidity":85,"rain":0.0,"pressure":1008.6,"uv_index":8.6,"aqi":81,"mosquito_risk":7,"arthritis_risk":0,"migraine_risk":4,"frizz_risk":1,"updated_at":"2026-02-25T03:09:13.660867+05:30"},{"city":"Thrissur","state":"Kerala","latitude":10.5276,"longitude":76.2144,"temp":24.4,"humidity":90,"rain":0.0,"pressure":1007.7,"uv_index":8.7,"aqi":95,"mosquito_risk":3,"arthritis_risk":5,"migraine_risk":4,"frizz_risk":1,"updated_at":"2026-02-25T03:09:13.660875+05:30"},{"city":"Kannur","state":"Kerala","latitude":11.8745,"longitude":75.3704,"temp":24.9,"humidity":86,"rain":0.0,"pressure":1007.9,"uv_index":8.55,"aqi":109,"mosquito_risk":3,"arthritis_risk":5,"migraine_risk":4,"frizz_risk":1,"updated_at":"2026-02-25T03:09:13.660882+05:30"},{"city":"Patna","state":"Bihar","latitude":25.5941,"longitude":85.1376,"temp":18.9,"humidity":75,"rain":0.0,"pressure":1005.7,"uv_index":6.8,"aqi":166,"mosquito_risk":3,"arthritis_risk":5,"migraine_risk":4,"frizz_risk":0,"updated_at":"2026-02-25T03:09:13.660888+05:30"},{"city":"Gaya","state":"Bihar","latitude":24.7914,"longitude":85.0002,"temp":16.1,"humidity":81,"rain":0.0,"pressure":999.2,"uv_index":6.9,"aqi":155,"mosquito_risk":3,"arthritis_risk":10,"migraine_risk":7,"frizz_risk":0,"updated_at":"2026-02-25T03:09:13.660895+05:30"},{"city":"Muzaffarpur","state":"Bihar","latitude":26.1209,"longitude":85.3647,"temp":16.2,"humidity":76,"rain":0.0,"pressure":1005.5,"uv_index":6.75,"aqi":169,"mosquito_risk":3,"arthritis_risk":5,"migraine_risk":4,"frizz_risk":0,"updated_at":"2026-02-25T03:09:13.660901+05:30"},{"city":"Bhagalpur","state":"Bihar","latitude":25.2425,"longitude":87.0117,"temp":17.1,"humidity":83,"rain":0.0,"pressure":1006.3,"uv_index":6.85,"aqi":157,"mosquito_risk":3,"arthritis_risk":10,"migraine_risk":4,"frizz_risk":0,"updated_at":"2026-02-25T03:09:13.660907+05:30"},{"city":"Ranchi","state":"Jharkhand","latitude":23.3441,"longitude":85.3096,"temp":13.7,"humidity":77,"rain":0.0,"pressure":940.4,"uv_index":7.55,"aqi":129,"mosquito_risk":3,"arthritis_risk":5,"migraine_risk":7,"frizz_risk":0,"updated_at":"2026-02-25T03:09:13.660913+05:30"},{"city":"Jamshedpur","state":"Jharkhand","latitude":22.8046,"longitude":86.2029,"temp":20.6,"humidity":83,"rain":0.0,"pressure":995.3,"uv_index":7.45,"aqi":167,"mosquito_risk":3,"arthritis_risk":5,"migraine_risk":7,"frizz_risk":1,"updated_at":"2026-02-25T03:09:13.660919+05:30"},{"city":"Dhanbad","state":"Jharkhand","latitude":23.7957,"longitude":86.4304,"temp":17.6,"humidity":68,"rain":0.0,"pressure":984.1,"uv_index":7.35,"aqi":155,"mosquito_risk":3,"arthritis_risk":5,"migraine_risk":7,"frizz_risk":0,"updated_at":"2026-02-25T03:09:13.660926+05:30"},{"city":"Bokaro","state":"Jharkhand","latitude":23.6693,"longitude":86.1511,"temp":17.7,"humidity":62,"rain":0.0,"pressure":988.6,"uv_index":7.35,"aqi":154,"mosquito_risk":3,"arthritis_risk":5,"migraine_risk":7,"frizz_risk":0,"updated_at":"2026-02-25T03:09:13.660932+05:30"},{"city":"Bhubaneswar","state":"Odisha","latitude":20.2961,"longitude":85.8245,"temp":22.4,"humidity":94,"rain":0.0,"pressure":1006.4,"uv_index":7.75,"aqi":115,"mosquito_risk":3,"arthritis_risk":5,"migraine_risk":4,"frizz_risk":1,"updated_at":"2026-02-25T03:09:13.660939+05:30"},{"city":"Cuttack","state":"Odisha","latitude":20.4625,"longitude":85.8828,"temp":21.2,"humidity":94,"rain":0.0,"pressure":1008.5,"uv_index":7.8,"aqi":115,"mosquito_risk":3,"arthritis_risk":0,"migraine_risk":4,"frizz_risk":1,"updated_at":"2026-02-25T03:09:13.660945+05:30"},{"city":"Rourkela","state":"Odisha","latitude":22.2604,"longitude":84.8536,"temp":20.3,"humidity":73,"rain":0.0,"pressure":989.2,"uv_index":7.35,"aqi":136,"mosquito_risk":3,"arthritis_risk":5,"migraine_risk":7,"frizz_risk":0,"updated_at":"2026-02-25T03:09:13.660951+05:30"},{"city":"Raipur","state":"Chhattisgarh","latitude":21.2514,"longitude":81.6296,"temp":19.9,"humidity":78,"rain":0.0,"pressure":977.2,"uv_index":7.5,"aqi":165,"mosquito_risk":3,"arthritis_risk":5,"migraine_risk":7,"frizz_risk":0,"updated_at":"2026-02-25T03:09:13.660957+05:30"},{"city":"Bhilai","state":"Chhattisgarh","latitude":21.1938,"longitude":81.3509,"temp":18.6,"humidity":89,"rain":0.0,"pressure":977.5,"uv_index":7.5,"aqi":167,"mosquito_risk":3,"arthritis_risk":10,"migraine_risk":7,"frizz_risk":1,"updated_at":"2026-02-25T03:09:13.660963+05:30"},{"city":"Guwahati","state":"Assam","latitude":26.1158,"longitude":91.7086,"temp":18.7,"humidity":93,"rain":0.0,"pressure":1005.6,"uv_index":6.75,"aqi":159,"mosquito_risk":3,"arthritis_risk":10,"migraine_risk":4,"frizz_risk":1,"updated_at":"2026-02-25T03:09:13.660969+05:30"},{"city":"Agartala","state":"Tripura","latitude":23.8315,"longitude":91.2868,"temp":18.2,"humidity":89,"rain":0.0,"pressure":1009.9,"uv_index":7.15,"aqi":161,"mosquito_risk":3,"arthritis_risk":5,"migraine_risk":4,"frizz_risk":1,"updated_at":"2026-02-25T03:09:13.660975+05:30"},{"city":"Shillong","state":"Meghalaya","latitude":25.5788,"longitude":91.8933,"temp":6.2,"humidity":73,"rain":0.0,"pressure":853.5,"uv_index":6.15,"aqi":154,"mosquito_risk":3,"arthritis_risk":5,"migraine_risk":7,"frizz_risk":0,"updated_at":"2026-02-25T03:09:13.660981+05:30"},{"city":"Imphal","state":"Manipur","latitude":24.817,"longitude":93.9368,"temp":13.8,"humidity":72,"rain":0.0,"pressure":924.7,"uv_index":7.15,"aqi":165,"mosquito_risk":3,"arthritis_risk":5,"migraine_risk":7,"frizz_risk":0,"updated_at":"2026-02-25T03:09:13.660987+05:30"},{"city":"Aizawl","state":"Mizoram","latitude":23.7271,"longitude":92.7176,"temp":13.0,"humidity":55,"rain":0.0,"pressure":893.0,"uv_index":7.1,"aqi":159,"mosquito_risk":0,"arthritis_risk":5,"migraine_risk":7,"frizz_risk":0,"updated_at":"2026-02-25T03:09:13.660993+05:30"},{"city":"Kohima","state":"Nagaland","latitude":25.6701,"longitude":94.1077,"temp":11.5,"humidity":70,"rain":0.0,"pressure":854.8,"uv_index":6.9,"aqi":154,"mosquito_risk":3,"arthritis_risk":5,"migraine_risk":7,"frizz_risk":0,"updated_at":"2026-02-25T03:09:13.660999+05:30"},{"city":"Gangtok","state":"Sikkim","latitude":27.3314,"longitude":88.6138,"temp":8.2,"humidity":80,"rain":0.0,"pressure":835.8,"uv_index":7.0,"aqi":137,"mosquito_risk":3,"arthritis_risk":5,"migraine_risk":7,"frizz_risk":0,"updated_at":"2026-02-25T03:09:13.661006+05:30"},{"city":"Siliguri","state":"West Bengal","latitude":26.7271,"longitude":88.3953,"temp":17.4,"humidity":56,"rain":0.0,"pressure":998.2,"uv_index":6.75,"aqi":167,"mosquito_risk":0,"arthritis_risk":5,"migraine_risk":7,"frizz_risk":0,"updated_at":"2026-02-25T03:09:16.990465+05:30"},{"city":"Durgapur","state":"West Bengal","latitude":23.5204,"longitude":87.3119,"temp":20.1,"humidity":86,"rain":0.0,"pressure":999.5,"uv_index":7.35,"aqi":173,"mosquito_risk":3,"arthritis_risk":5,"migraine_risk":7,"frizz_risk":1,"updated_at":"2026-02-25T03:09:16.990502+05:30"},{"city":"Asansol","state":"West Bengal","latitude":23.6739,"longitude":86.9524,"temp":20.3,"humidity":75,"rain":0.0,"pressure":998.2,"uv_index":7.35,"aqi":160,"mosquito_risk":3,"arthritis_risk":5,"migraine_risk":7,"frizz_risk":0,"updated_at":"2026-02-25T03:09:16.990513+05:30"},{"city":"Pondicherry","state":"Puducherry","latitude":11.9139,"longitude":79.8145,"temp":24.4,"humidity":96,"rain":0.0,"pressure":1009.7,"uv_index":8.6,"aqi":41,"mosquito_risk":3,"arthritis_risk":0,"migraine_risk":4,"frizz_risk":1,"updated_at":"2026-02-25T03:09:16.990521+05:30"},{"city":"Port Blair","state":"Andaman and Nicobar Islands","latitude":11.6234,"longitude":92.7265,"temp":26.6,"humidity":85,"rain":0.0,"pressure":1006.1,"uv_index":8.55,"aqi":31,"mosquito_risk":7,"arthritis_risk":5,"migraine_risk":4,"frizz_risk":1,"updated_at":"2026-02-25T03:09:16.990528+05:30"},{"city":"Haridwar","state":"Uttarakhand","latitude":29.9457,"longitude":78.1642,"temp":16.4,"humidity":92,"rain":0.0,"pressure":978.9,"uv_index":5.3,"aqi":140,"mosquito_risk":3,"arthritis_risk":10,"migraine_risk":3,"frizz_risk":0,"updated_at":"2026-02-25T03:09:16.990535+05:30"},{"city":"Rishikesh","state":"Uttarakhand","latitude":30.0869,"longitude":78.2676,"temp":16.4,"humidity":82,"rain":0.0,"pressure":971.4,"uv_index":5.35,"aqi":120,"mosquito_risk":3,"arthritis_risk":10,"migraine_risk":3,"frizz_risk":0,"updated_at":"2026-02-25T03:09:16.990542+05:30"},{"city":"Nainital","state":"Uttarakhand","latitude":29.3919,"longitude":79.4542,"temp":12.5,"humidity":76,"rain":0.0,"pressure":806.0,"uv_index":6.1,"aqi":140,"mosquito_risk":3,"arthritis_risk":5,"migraine_risk":7,"frizz_risk":0,"updated_at":"2026-02-25T03:09:16.990549+05:30"},{"city":"Mussoorie","state":"Uttarakhand","latitude":30.4599,"longitude":78.0664,"temp":10.5,"humidity":84,"rain":0.0,"pressure":801.9,"uv_index":5.65,"aqi":124,"mosquito_risk":3,"arthritis_risk":10,"migraine_risk":3,"frizz_risk":0,"updated_at":"2026-02-25T03:09:16.990555+05:30"},{"city":"Dharamshala","state":"Himachal Pradesh","latitude":32.219,"longitude":76.3234,"temp":14.1,"humidity":58,"rain":0.0,"pressure":869.7,"uv_index":5.9,"aqi":77,"mosquito_risk":0,"arthritis_risk":5,"migraine_risk":3,"frizz_risk":0,"updated_at":"2026-02-25T03:09:16.990562+05:30"},{"city":"Dalhousie","state":"Himachal Pradesh","latitude":32.5387,"longitude":75.971,"temp":10.9,"humidity":57,"rain":0.0,"pressure":802.9,"uv_index":6.1,"aqi":132,"mosquito_risk":0,"arthritis_risk":5,"migraine_risk":7,"frizz_risk":0,"updated_at":"2026-02-25T03:09:16.990570+05:30"},{"city":"Patiala","state":"Punjab","latitude":30.3398,"longitude":76.3869,"temp":15.3,"humidity":87,"rain":0.0,"pressure":982.7,"uv_index":5.35,"aqi":183,"mosquito_risk":3,"arthritis_risk":10,"migraine_risk":3,"frizz_risk":0,"updated_at":"2026-02-25T03:09:16.990576+05:30"},{"city":"Bhatinda","state":"Punjab","latitude":30.211,"longitude":74.9455,"temp":15.2,"humidity":86,"rain":0.0,"pressure":988.3,"uv_index":6.0,"aqi":161,"mosquito_risk":3,"arthritis_risk":10,"migraine_risk":3,"frizz_risk":0,"updated_at":"2026-02-25T03:09:16.990582+05:30"},{"city":"Rohtak","state":"Haryana","latitude":28.8955,"longitude":76.6066,"temp":13.4,"humidity":81,"rain":0.0,"pressure":986.3,"uv_index":5.55,"aqi":166,"mosquito_risk":3,"arthritis_risk":10,"migraine_risk":3,"frizz_risk":0,"updated_at":"2026-02-25T03:09:16.990594+05:30"},{"city":"Panipat","state":"Haryana","latitude":29.3909,"longitude":76.9635,"temp":13.9,"humidity":81,"rain":0.0,"pressure":984.8,"uv_index":5.35,"aqi":168,"mosquito_risk":3,"arthritis_risk":10,"migraine_risk":3,"frizz_risk":0,"updated_at":"2026-02-25T03:09:16.990601+05:30"},{"city":"Mathura","state":"Uttar Pradesh","latitude":27.4924,"longitude":77.6737,"temp":13.9,"humidity":91,"rain":0.0,"pressure":991.6,"uv_index":5.8,"aqi":170,"mosquito_risk":3,"arthritis_risk":10,"migraine_risk":3,"frizz_risk":0,"updated_at":"2026-02-25T03:09:16.990607+05:30"},{"city":"Vrindavan","state":"Uttar Pradesh","latitude":27.5823,"longitude":77.7027,"temp":14.7,"humidity":86,"rain":0.0,"pressure":992.0,"uv_index":5.75,"aqi":170,"mosquito_risk":3,"arthritis_risk":10,"migraine_risk":3,"frizz_risk":0,"updated_at":"2026-02-25T03:09:16.990613+05:30"},{"city":"Ayodhya","state":"Uttar Pradesh","latitude":26.7922,"longitude":82.1998,"temp":14.9,"humidity":85,"rain":0.0,"pressure":1000.3,"uv_index":6.15,"aqi":169,"mosquito_risk":3,"arthritis_risk":10,"migraine_risk":4,"frizz_risk":0,"updated_at":"2026-02-25T03:09:16.990619+05:30"},{"city":"Ratlam","state":"Madhya Pradesh","latitude":23.3315,"longitude":75.0367,"temp":15.0,"humidity":86,"rain":0.0,"pressure":955.7,"uv_index":7.05,"aqi":89,"mosquito_risk":3,"arthritis_risk":10,"migraine_risk":7,"frizz_risk":0,"updated_at":"2026-02-25T03:09:16.990625+05:30"},{"city":"Sagar","state":"Madhya Pradesh","latitude":23.8388,"longitude":78.7378,"temp":16.5,"humidity":69,"rain":0.0,"pressure":952.5,"uv_index":7.0,"aqi":88,"mosquito_risk":3,"arthritis_risk":5,"migraine_risk":7,"frizz_risk":0,"updated_at":"2026-02-25T03:09:16.990632+05:30"},{"city":"Satna","state":"Madhya Pradesh","latitude":24.6005,"longitude":80.8322,"temp":16.8,"humidity":64,"rain":0.0,"pressure":975.4,"uv_index":6.9,"aqi":115,"mosquito_risk":3,"arthritis_risk":5,"migraine_risk":7,"frizz_risk":0,"updated_at":"2026-02-25T03:09:16.990638+05:30"},{"city":"Akola","state":"Maharashtra","latitude":20.7002,"longitude":77.0082,"temp":20.7,"humidity":73,"rain":0.0,"pressure":976.6,"uv_index":7.5,"aqi":135,"mosquito_risk":3,"arthritis_risk":5,"migraine_risk":7,"frizz_risk":0,"updated_at":"2026-02-25T03:09:16.990645+05:30"},{"city":"Amravati","state":"Maharashtra","latitude":20.9374,"longitude":77.7796,"temp":21.2,"humidity":76,"rain":0.0,"pressure":968.8,"uv_index":7.45,"aqi":151,"mosquito_risk":3,"arthritis_risk":5,"migraine_risk":7,"frizz_risk":1,"updated_at":"2026-02-25T03:09:16.990651+05:30"},{"city":"Latur","state":"Maharashtra","latitude":18.4088,"longitude":76.5604,"temp":20.3,"humidity":75,"rain":0.0,"pressure":939.9,"uv_index":7.75,"aqi":137,"mosquito_risk":3,"arthritis_risk":5,"migraine_risk":7,"frizz_risk":0,"updated_at":"2026-02-25T03:09:16.990657+05:30"},{"city":"Nanded","state":"Maharashtra","latitude":19.1383,"longitude":77.3091,"temp":22.1,"humidity":74,"rain":0.0,"pressure":969.9,"uv_index":7.7,"aqi":151,"mosquito_risk":3,"arthritis_risk":5,"migraine_risk":7,"frizz_risk":1,"updated_at":"2026-02-25T03:09:16.990663+05:30"},{"city":"Gulbarga","state":"Karnataka","latitude":17.3297,"longitude":76.8343,"temp":22.7,"humidity":74,"rain":0.0,"pressure":959.4,"uv_index":8.0,"aqi":120,"mosquito_risk":3,"arthritis_risk":5,"migraine_risk":7,"frizz_risk":1,"updated_at":"2026-02-25T03:09:16.990669+05:30"},{"city":"Bidar","state":"Karnataka","latitude":17.9104,"longitude":77.5199,"temp":22.4,"humidity":71,"rain":0.0,"pressure":936.0,"uv_index":7.9,"aqi":147,"mosquito_risk":3,"arthritis_risk":5,"migraine_risk":7,"frizz_risk":1,"updated_at":"2026-02-25T03:09:16.990675+05:30"},{"city":"Hospet","state":"Karnataka","latitude":15.2689,"longitude":76.3909,"temp":25.3,"humidity":62,"rain":0.0,"pressure":956.4,"uv_index":8.35,"aqi":101,"mosquito_risk":7,"arthritis_risk":5,"migraine_risk":7,"frizz_risk":1,"updated_at":"2026-02-25T03:09:16.990681+05:30"},{"city":"Tirupur","state":"Tamil Nadu","latitude":11.1085,"longitude":77.3411,"temp":23.6,"humidity":82,"rain":0.0,"pressure":976.2,"uv_index":8.9,"aqi":87,"mosquito_risk":3,"arthritis_risk":5,"migraine_risk":7,"frizz_risk":1,"updated_at":"2026-02-25T03:09:16.990687+05:30"},{"city":"Alappuzha","state":"Kerala","latitude":9.4981,"longitude":76.3388,"temp":26.6,"humidity":82,"rain":0.0,"pressure":1009.0,"uv_index":8.75,"aqi":94,"mosquito_risk":7,"arthritis_risk":0,"migraine_risk":4,"frizz_risk":1,"updated_at":"2026-02-25T03:09:16.990694+05:30"},{"city":"Munnar","state":"Kerala","latitude":10.0889,"longitude":77.0595,"temp":18.1,"humidity":94,"rain":0.0,"pressure":855.4,"uv_index":9.1,"aqi":68,"mosquito_risk":3,"arthritis_risk":10,"migraine_risk":7,"frizz_risk":1,"updated_at":"2026-02-25T03:09:16.990700+05:30"},{"city":"Silchar","state":"Assam","latitude":24.8333,"longitude":92.7789,"temp":17.1,"humidity":85,"rain":0.0,"pressure":1008.9,"uv_index":7.05,"aqi":160,"mosquito_risk":3,"arthritis_risk":5,"migraine_risk":4,"frizz_risk":0,"updated_at":"2026-02-25T03:09:16.990706+05:30"},{"city":"Dibrugarh","state":"Assam","latitude":27.4728,"longitude":94.912,"temp":20.1,"humidity":87,"rain":0.0,"pressure":999.4,"uv_index":6.7,"aqi":123,"mosquito_risk":3,"arthritis_risk":5,"migraine_risk":7,"frizz_risk":1,"updated_at":"2026-02-25T03:09:16.990712+05:30"}]