[{"city":"Delhi","state":"Delhi","latitude":28.6139,"longitude":77.209,"temp":29.0,"humidity":82,"rain":0.0,"pressure":971.9,"uv_index":7.7,"wind_gusts":25.9,"aqi":429,"pm10":339.9,"pm2_5":150.4,"no2":84.9,"co":270.0,"o3":3.0,"so2":37.6,"mosquito_risk":7,"arthritis_risk":5,"migraine_risk":7,"frizz_risk":1,"updated_at":"2026-07-12T03:22:18.347383+05:30"},{"city":"Mumbai","state":"Maharashtra","latitude":19.076,"longitude":72.8777,"temp":27.3,"humidity":87,"rain":0.0,"pressure":1004.6,"uv_index":7.8,"wind_gusts":53.3,"aqi":54,"pm10":25.9,"pm2_5":10.5,"no2":3.4,"co":105.0,"o3":44.0,"so2":3.1,"mosquito_risk":7,"arthritis_risk":5,"migraine_risk":4,"frizz_risk":1,"updated_at":"2026-07-12T03:22:18.347427+05:30"},{"city":"Bangalore","state":"Karnataka","latitude":12.9716,"longitude":77.5946,"temp":21.2,"humidity":91,"rain":0.0,"pressure":909.8,"uv_index":7.45,"wind_gusts":47.9,"aqi":50,"pm10":15.1,"pm2_5":8.9,"no2":12.6,"co":187.0,"o3":29.0,"so2":4.0,"mosquito_risk":3,"arthritis_risk":5,"migraine_risk":7,"frizz_risk":1,"updated_at":"2026-07-12T03:22:18.347440+05:30"},{"city":"Hyderabad","state":"Telangana","latitude":17.385,"longitude":78.4867,"temp":26.4,"humidity":66,"rain":0.0,"pressure":948.9,"uv_index":8.6,"wind_gusts":53.6,"aqi":59,"pm10":26.0,"pm2_5":14.4,"no2":7.2,"co":131.0,"o3":41.0,"so2":4.1,"mosquito_risk":7,"arthritis_risk":5,"migraine_risk":7,"frizz_risk":1,"updated_at":"2026-07-12T03:22:18.347448+05:30"},{"city":"Chennai","state":"Tamil Nadu","latitude":13.0827,"longitude":80.2707,"temp":29.3,"humidity":71,"rain":0.0,"pressure":1002.5,"uv_index":7.7,"wind_gusts":40.0,"aqi":72,"pm10":31.0,"pm2_5":21.1,"no2":14.1,"co":251.0,"o3":62.0,"so2":9.4,"mosquito_risk":7,"arthritis_risk":5,"migraine_risk":4,"frizz_risk":1,"updated_at":"2026-07-12T03:22:18.347455+05:30"},{"city":"Kolkata","state":"West Bengal","latitude":22.5726,"longitude":88.3639,"temp":27.9,"humidity":95,"rain":0.0,"pressure":996.0,"uv_index":7.65,"wind_gusts":24.1,"aqi":129,"pm10":68.5,"pm2_5":51.7,"no2":11.4,"co":348.0,"o3":74.0,"so2":12.9,"mosquito_risk":7,"arthritis_risk":5,"migraine_risk":7,"frizz_risk":1,"updated_at":"2026-07-12T03:22:18.347462+05:30"},{"city":"Pune","state":"Maharashtra","latitude":18.5204,"longitude":73.8567,"temp":22.9,"humidity":87,"rain":0.0,"pressure":944.1,"uv_index":8.4,"wind_gusts":55.4,"aqi":35,"pm10":8.4,"pm2_5":4.0,"no2":4.5,"co":99.0,"o3":38.0,"so2":4.2,"mosquito_risk":3,"arthritis_risk":5,"migraine_risk":7,"frizz_risk":1,"updated_at":"2026-07-12T03:22:18.347468+05:30"},{"city":"Ahmedabad","state":"Gujarat","latitude":23.0225,"longitude":72.5714,"temp":27.4,"humidity":81,"rain":0.0,"pressure":995.0,"uv_index":8.1,"wind_gusts":52.2,"aqi":65,"pm10":32.2,"pm2_5":16.6,"no2":6.0,"co":109.0,"o3":39.0,"so2":4.0,"mosquito_risk":7,"arthritis_risk":5,"migraine_risk":7,"frizz_risk":1,"updated_at":"2026-07-12T03:22:18.347473+05:30"},{"city":"Jaipur","state":"Rajasthan","latitude":26.9124,"longitude":75.7873,"temp":27.3,"humidity":74,"rain":0.0,"pressure":949.9,"uv_index":8.2,"wind_gusts":38.5,"aqi":386,"pm10":429.3,"pm2_5":78.0,"no2":8.8,"co":183.0,"o3":55.0,"so2":4.2,"mosquito_risk":7,"arthritis_risk":5,"migraine_risk":7,"frizz_risk":1,"updated_at":"2026-07-12T03:22:18.347479+05:30"},{"city":"Lucknow","state":"Uttar Pradesh","latitude":26.8467,"longitude":80.9462,"temp":26.9,"humidity":93,"rain":0.0,"pressure":982.9,"uv_index":8.2,"wind_gusts":36.0,"aqi":154,"pm10":91.7,"pm2_5":51.8,"no2":24.0,"co":362.0,"o3":33.0,"so2":5.1,"mosquito_risk":7,"arthritis_risk":5,"migraine_risk":7,"frizz_risk":1,"updated_at":"2026-07-12T03:22:18.347488+05:30"},{"city":"Kanpur","state":"Uttar Pradesh","latitude":26.4499,"longitude":80.3319,"temp":28.6,"humidity":81,"rain":0.0,"pressure":981.3,"uv_index":8.2,"wind_gusts":36.7,"aqi":138,"pm10":81.5,"pm2_5":46.2,"no2":24.7,"co":198.0,"o3":34.0,"so2":6.9,"mosquito_risk":7,"arthritis_risk":5,"migraine_risk":7,"frizz_risk":1,"updated_at":"2026-07-12T03:22:18.347494+05:30"},{"city":"Chandigarh","state":"Chandigarh","latitude":30.7333,"longitude":76.7794,"temp":25.2,"humidity":93,"rain":0.1,"pressure":957.3,"uv_index":7.7,"wind_gusts":40.0,"aqi":151,"pm10":68.5,"pm2_5":67.1,"no2":57.8,"co":871.0,"o3":17.0,"so2":6.8,"mosquito_risk":10,"arthritis_risk":5,"migraine_risk":7,"frizz_risk":1,"updated_at":"2026-07-12T03:22:18.347499+05:30"},{"city":"Srinagar","state":"Jammu and Kashmir","latitude":34.0837,"longitude":74.7973,"temp":18.4,"humidity":98,"rain":0.0,"pressure":833.7,"uv_index":8.15,"wind_gusts":23.4,"aqi":64,"pm10":9.5,"pm2_5":8.9,"no2":7.4,"co":386.0,"o3":96.0,"so2":1.8,"mosquito_risk":3,"arthritis_risk":10,"migraine_risk":7,"frizz_risk":1,"updated_at":"2026-07-12T03:22:18.347505+05:30"},{"city":"Jammu","state":"Jammu and Kashmir","latitude":32.7266,"longitude":74.857,"temp":23.9,"humidity":96,"rain":0.2,"pressure":961.0,"uv_index":8.3,"wind_gusts":33.5,"aqi":109,"pm10":60.8,"pm2_5":51.2,"no2":49.0,"co":541.0,"o3":9.0,"so2":3.4,"mosquito_risk":6,"arthritis_risk":5,"migraine_risk":7,"frizz_risk":1,"updated_at":"2026-07-12T03:22:18.347510+05:30"},{"city":"Amritsar","state":"Punjab","latitude":31.634,"longitude":74.8723,"temp":25.0,"humidity":94,"rain":0.1,"pressure":968.9,"uv_index":8.35,"wind_gusts":45.0,"aqi":162,"pm10":115.0,"pm2_5":72.4,"no2":20.7,"co":325.0,"o3":61.0,"so2":5.9,"mosquito_risk":10,"arthritis_risk":5,"migraine_risk":7,"frizz_risk":1,"updated_at":"2026-07-12T03:22:18.347518+05:30"},{"city":"Ludhiana","state":"Punjab","latitude":30.901,"longitude":75.8573,"temp":25.3,"humidity":88,"rain":0.0,"pressure":967.7,"uv_index":7.95,"wind_gusts":46.1,"aqi":161,"pm10":116.4,"pm2_5":82.9,"no2":36.1,"co":406.0,"o3":49.0,"so2":16.8,"mosquito_risk":7,"arthritis_risk":5,"migraine_risk":7,"frizz_risk":1,"updated_at":"2026-07-12T03:22:18.347523+05:30"},{"city":"Jalandhar","state":"Punjab","latitude":31.326,"longitude":75.5762,"temp":25.4,"humidity":93,"rain":0.2,"pressure":968.7,"uv_index":8.15,"wind_gusts":45.4,"aqi":163,"pm10":94.3,"pm2_5":74.3,"no2":31.9,"co":341.0,"o3":53.0,"so2":13.5,"mosquito_risk":10,"arthritis_risk":5,"migraine_risk":7,"frizz_risk":1,"updated_at":"2026-07-12T03:22:18.347528+05:30"},{"city":"Dehradun","state":"Uttarakhand","latitude":30.6284,"longitude":78.0322,"temp":16.4,"humidity":100,"rain":0.0,"pressure":821.3,"uv_index":8.1,"wind_gusts":29.2,"aqi":52,"pm10":17.6,"pm2_5":17.6,"no2":33.9,"co":262.0,"o3":24.0,"so2":0.0,"mosquito_risk":3,"arthritis_risk":10,"migraine_risk":7,"frizz_risk":1,"updated_at":"2026-07-12T03:22:18.347534+05:30"},{"city":"Shimla","state":"Himachal Pradesh","latitude":31.1048,"longitude":77.1734,"temp":15.1,"humidity":93,"rain":0.0,"pressure":776.5,"uv_index":8.25,"wind_gusts":36.7,"aqi":94,"pm10":41.0,"pm2_5":40.6,"no2":12.2,"co":415.0,"o3":100.0,"so2":1.3,"mosquito_risk":3,"arthritis_risk":10,"migraine_risk":7,"frizz_risk":0,"updated_at":"2026-07-12T03:22:18.347539+05:30"},{"city":"Manali","state":"Himachal Pradesh","latitude":32.2396,"longitude":77.1887,"temp":17.0,"humidity":95,"rain":0.0,"pressure":810.6,"uv_index":8.7,"wind_gusts":28.4,"aqi":44,"pm10":8.2,"pm2_5":8.2,"no2":16.0,"co":245.0,"o3":92.0,"so2":0.0,"mosquito_risk":3,"arthritis_risk":10,"migraine_risk":7,"frizz_risk":1,"updated_at":"2026-07-12T03:22:18.347546+05:30"},{"city":"Gurgaon","state":"Haryana","latitude":28.4595,"longitude":77.0266,"temp":28.9,"humidity":73,"rain":0.0,"pressure":970.1,"uv_index":7.7,"wind_gusts":27.0,"aqi":493,"pm10":603.5,"pm2_5":142.0,"no2":38.0,"co":247.0,"o3":30.0,"so2":17.5,"mosquito_risk":7,"arthritis_risk":5,"migraine_risk":7,"frizz_risk":1,"updated_at":"2026-07-12T03:22:18.347551+05:30"},{"city":"Noida","state":"Uttar Pradesh","latitude":28.5355,"longitude":77.391,"temp":27.8,"humidity":92,"rain":0.0,"pressure":973.3,"uv_index":7.7,"wind_gusts":24.5,"aqi":493,"pm10":603.5,"pm2_5":142.0,"no2":38.0,"co":234.0,"o3":30.0,"so2":17.5,"mosquito_risk":7,"arthritis_risk":5,"migraine_risk":7,"frizz_risk":1,"updated_at":"2026-07-12T03:22:18.347556+05:30"},{"city":"Ghaziabad","state":"Uttar Pradesh","latitude":28.6692,"longitude":77.4538,"temp":26.5,"humidity":91,"rain":0.0,"pressure":971.5,"uv_index":7.7,"wind_gusts":26.6,"aqi":310,"pm10":431.2,"pm2_5":168.6,"no2":56.5,"co":857.0,"o3":20.0,"so2":16.4,"mosquito_risk":7,"arthritis_risk":5,"migraine_risk":7,"frizz_risk":1,"updated_at":"2026-07-12T03:22:18.347561+05:30"},{"city":"Faridabad","state":"Haryana","latitude":28.4089,"longitude":77.3178,"temp":28.8,"humidity":84,"rain":0.0,"pressure":972.6,"uv_index":7.75,"wind_gusts":26.6,"aqi":493,"pm10":603.5,"pm2_5":142.0,"no2":38.0,"co":223.0,"o3":30.0,"so2":17.5,"mosquito_risk":7,"arthritis_risk":5,"migraine_risk":7,"frizz_risk":1,"updated_at":"2026-07-12T03:22:18.347566+05:30"},{"city":"Meerut","state":"Uttar Pradesh","latitude":28.9845,"longitude":77.7064,"temp":25.8,"humidity":95,"rain":0.0,"pressure":970.5,"uv_index":7.55,"wind_gusts":29.2,"aqi":310,"pm10":431.2,"pm2_5":168.6,"no2":56.5,"co":380.0,"o3":20.0,"so2":16.4,"mosquito_risk":7,"arthritis_risk":5,"migraine_risk":7,"frizz_risk":1,"updated_at":"2026-07-12T03:22:18.347572+05:30"},{"city":"Agra","state":"Uttar Pradesh","latitude":27.1767,"longitude":78.0081,"temp":29.5,"humidity":70,"rain":0.0,"pressure":977.1,"uv_index":8.0,"wind_gusts":36.7,"aqi":151,"pm10":161.6,"pm2_5":39.3,"no2":19.6,"co":207.0,"o3":39.0,"so2":4.9,"mosquito_risk":7,"arthritis_risk":5,"migraine_risk":7,"frizz_risk":1,"updated_at":"2026-07-12T03:22:18.347578+05:30"},{"city":"Varanasi","state":"Uttar Pradesh","latitude":25.3176,"longitude":82.9739,"temp":29.2,"humidity":68,"rain":0.0,"pressure":987.4,"uv_index":8.7,"wind_gusts":42.1,"aqi":105,"pm10":47.5,"pm2_5":30.9,"no2":10.0,"co":203.0,"o3":58.0,"so2":6.4,"mosquito_risk":7,"arthritis_risk":5,"migraine_risk":7,"frizz_risk":1,"updated_at":"2026-07-12T03:22:18.347584+05:30"},{"city":"Prayagraj","state":"Uttar Pradesh","latitude":25.4358,"longitude":81.8463,"temp":29.6,"humidity":68,"rain":0.0,"pressure":986.0,"uv_index":8.6,"wind_gusts":43.6,"aqi":107,"pm10":50.8,"pm2_5":33.5,"no2":12.2,"co":171.0,"o3":53.0,"so2":5.4,"mosquito_risk":7,"arthritis_risk":5,"migraine_risk":7,"frizz_risk":1,"updated_at":"2026-07-12T03:22:18.347589+05:30"},{"city":"Gorakhpur","state":"Uttar Pradesh","latitude":26.7606,"longitude":83.3732,"temp":26.2,"humidity":96,"rain":0.0,"pressure":986.6,"uv_index":6.2,"wind_gusts":35.3,"aqi":112,"pm10":91.0,"pm2_5":47.0,"no2":13.3,"co":278.0,"o3":71.0,"so2":5.1,"mosquito_risk":7,"arthritis_risk":5,"migraine_risk":7,"frizz_risk":1,"updated_at":"2026-07-12T03:22:18.347594+05:30"},{"city":"Bareilly","state":"Uttar Pradesh","latitude":28.367,"longitude":79.4304,"temp":26.6,"humidity":95,"rain":0.1,"pressure":976.4,"uv_index":8.0,"wind_gusts":30.6,"aqi":156,"pm10":124.8,"pm2_5":59.8,"no2":19.8,"co":280.0,"o3":73.0,"so2":5.9,"mosquito_risk":10,"arthritis_risk":5,"migraine_risk":7,"frizz_risk":1,"updated_at":"2026-07-12T03:22:18.347613+05:30"},{"city":"Aligarh","state":"Uttar Pradesh","latitude":27.8974,"longitude":78.088,"temp":29.3,"humidity":77,"rain":0.0,"pressure":974.5,"uv_index":7.85,"wind_gusts":29.2,"aqi":406,"pm10":449.8,"pm2_5":112.7,"no2":23.3,"co":194.0,"o3":40.0,"so2":5.1,"mosquito_risk":7,"arthritis_risk":5,"migraine_risk":7,"frizz_risk":1,"updated_at":"2026-07-12T03:22:18.347621+05:30"},{"city":"Moradabad","state":"Uttar Pradesh","latitude":28.8386,"longitude":78.7733,"temp":25.8,"humidity":96,"rain":0.0,"pressure":973.0,"uv_index":7.8,"wind_gusts":36.0,"aqi":158,"pm10":227.2,"pm2_5":108.3,"no2":41.5,"co":361.0,"o3":42.0,"so2":10.7,"mosquito_risk":7,"arthritis_risk":5,"migraine_risk":7,"frizz_risk":1,"updated_at":"2026-07-12T03:22:18.347628+05:30"},{"city":"Saharanpur","state":"Uttar Pradesh","latitude":29.9637,"longitude":77.546,"temp":25.0,"humidity":94,"rain":0.0,"pressure":964.8,"uv_index":7.35,"wind_gusts":39.2,"aqi":154,"pm10":100.6,"pm2_5":94.5,"no2":42.0,"co":438.0,"o3":43.0,"so2":13.5,"mosquito_risk":7,"arthritis_risk":5,"migraine_risk":7,"frizz_risk":1,"updated_at":"2026-07-12T03:22:18.347636+05:30"},{"city":"Jhansi","state":"Uttar Pradesh","latitude":25.4484,"longitude":78.5685,"temp":29.1,"humidity":68,"rain":0.0,"pressure":968.9,"uv_index":8.4,"wind_gusts":44.6,"aqi":93,"pm10":37.0,"pm2_5":21.4,"no2":7.7,"co":139.0,"o3":69.0,"so2":9.4,"mosquito_risk":7,"arthritis_risk":5,"migraine_risk":7,"frizz_risk":1,"updated_at":"2026-07-12T03:22:21.697753+05:30"},{"city":"Surat","state":"Gujarat","latitude":21.1702,"longitude":72.8311,"temp":28.1,"humidity":85,"rain":0.0,"pressure":1000.8,"uv_index":5.45,"wind_gusts":65.5,"aqi":58,"pm10":24.8,"pm2_5":13.5,"no2":11.8,"co":196.0,"o3":35.0,"so2":20.5,"mosquito_risk":7,"arthritis_risk":5,"migraine_risk":0,"frizz_risk":1,"updated_at":"2026-07-12T03:22:21.697787+05:30"},{"city":"Vadodara","state":"Gujarat","latitude":22.3072,"longitude":73.1812,"temp":27.2,"humidity":85,"rain":0.0,"pressure":997.7,"uv_index":8.05,"wind_gusts":58.3,"aqi":56,"pm10":21.9,"pm2_5":10.9,"no2":5.6,"co":108.0,"o3":38.0,"so2":4.1,"mosquito_risk":7,"arthritis_risk":5,"migraine_risk":7,"frizz_risk":1,"updated_at":"2026-07-12T03:22:21.697796+05:30"},{"city":"Rajkot","state":"Gujarat","latitude":22.3039,"longitude":70.8022,"temp":26.7,"humidity":85,"rain":0.0,"pressure":986.8,"uv_index":7.75,"wind_gusts":61.2,"aqi":59,"pm10":23.0,"pm2_5":10.0,"no2":3.1,"co":91.0,"o3":43.0,"so2":2.7,"mosquito_risk":7,"arthritis_risk":5,"migraine_risk":7,"frizz_risk":1,"updated_at":"2026-07-12T03:22:21.697802+05:30"},{"city":"Thane","state":"Maharashtra","latitude":19.2183,"longitude":72.9781,"temp":26.9,"humidity":89,"rain":0.0,"pressure":1003.8,"uv_index":7.5,"wind_gusts":49.0,"aqi":54,"pm10":25.9,"pm2_5":10.5,"no2":3.4,"co":121.0,"o3":44.0,"so2":3.1,"mosquito_risk":7,"arthritis_risk":5,"migraine_risk":4,"frizz_risk":1,"updated_at":"2026-07-12T03:22:21.697809+05:30"},{"city":"Nagpur","state":"Maharashtra","latitude":21.1458,"longitude":79.0882,"temp":27.1,"humidity":70,"rain":0.0,"pressure":967.0,"uv_index":7.7,"wind_gusts":41.8,"aqi":81,"pm10":35.5,"pm2_5":21.0,"no2":10.9,"co":136.0,"o3":48.0,"so2":7.8,"mosquito_risk":7,"arthritis_risk":5,"migraine_risk":7,"frizz_risk":1,"updated_at":"2026-07-12T03:22:21.697816+05:30"},{"city":"Nashik","state":"Maharashtra","latitude":19.9975,"longitude":73.7898,"temp":23.1,"humidity":92,"rain":0.0,"pressure":940.4,"uv_index":8.1,"wind_gusts":64.4,"aqi":34,"pm10":9.2,"pm2_5":5.1,"no2":6.5,"co":91.0,"o3":32.0,"so2":3.8,"mosquito_risk":3,"arthritis_risk":5,"migraine_risk":7,"frizz_risk":1,"updated_at":"2026-07-12T03:22:21.697821+05:30"},{"city":"Aurangabad","state":"Maharashtra","latitude":19.8762,"longitude":75.3433,"temp":22.9,"humidity":88,"rain":0.0,"pressure":939.1,"uv_index":8.95,"wind_gusts":54.7,"aqi":49,"pm10":18.4,"pm2_5":8.5,"no2":7.4,"co":129.0,"o3":34.0,"so2":8.5,"mosquito_risk":3,"arthritis_risk":5,"migraine_risk":7,"frizz_risk":1,"updated_at":"2026-07-12T03:22:21.697827+05:30"},{"city":"Solapur","state":"Maharashtra","latitude":17.6599,"longitude":75.9064,"temp":23.9,"humidity":81,"rain":0.0,"pressure":953.8,"uv_index":8.75,"wind_gusts":50.0,"aqi":49,"pm10":21.6,"pm2_5":11.6,"no2":6.2,"co":117.0,"o3":32.0,"so2":2.4,"mosquito_risk":3,"arthritis_risk":5,"migraine_risk":7,"frizz_risk":1,"updated_at":"2026-07-12T03:22:21.697833+05:30"},{"city":"Kolhapur","state":"Maharashtra","latitude":16.705,"longitude":74.2433,"temp":22.9,"humidity":92,"rain":0.0,"pressure":945.1,"uv_index":8.5,"wind_gusts":52.2,"aqi":40,"pm10":10.0,"pm2_5":5.5,"no2":3.8,"co":109.0,"o3":37.0,"so2":2.1,"mosquito_risk":3,"arthritis_risk":5,"migraine_risk":7,"frizz_risk":1,"updated_at":"2026-07-12T03:22:21.697840+05:30"},{"city":"Goa","state":"Goa","latitude":15.2993,"longitude":74.124,"temp":25.1,"humidity":99,"rain":0.0,"pressure":996.7,"uv_index":7.3,"wind_gusts":38.9,"aqi":55,"pm10":38.3,"pm2_5":23.5,"no2":7.7,"co":270.0,"o3":34.0,"so2":1.9,"mosquito_risk":7,"arthritis_risk":5,"migraine_risk":7,"frizz_risk":1,"updated_at":"2026-07-12T03:22:21.697846+05:30"},{"city":"Jodhpur","state":"Rajasthan","latitude":26.2389,"longitude":73.0243,"temp":27.9,"humidity":71,"rain":0.0,"pressure":972.9,"uv_index":8.4,"wind_gusts":53.3,"aqi":200,"pm10":420.0,"pm2_5":96.6,"no2":2.5,"co":97.0,"o3":55.0,"so2":2.4,"mosquito_risk":7,"arthritis_risk":5,"migraine_risk":7,"frizz_risk":1,"updated_at":"2026-07-12T03:22:21.697853+05:30"},{"city":"Udaipur","state":"Rajasthan","latitude":24.5854,"longitude":73.7125,"temp":23.6,"humidity":87,"rain":0.0,"pressure":937.3,"uv_index":8.8,"wind_gusts":52.9,"aqi":68,"pm10":41.8,"pm2_5":20.4,"no2":3.5,"co":95.0,"o3":52.0,"so2":3.7,"mosquito_risk":3,"arthritis_risk":5,"migraine_risk":7,"frizz_risk":1,"updated_at":"2026-07-12T03:22:21.697859+05:30"},{"city":"Kota","state":"Rajasthan","latitude":25.2138,"longitude":75.8648,"temp":27.8,"humidity":77,"rain":0.0,"pressure":970.0,"uv_index":8.3,"wind_gusts":42.5,"aqi":79,"pm10":36.2,"pm2_5":22.9,"no2":7.7,"co":149.0,"o3":63.0,"so2":6.8,"mosquito_risk":7,"arthritis_risk":5,"migraine_risk":7,"frizz_risk":1,"updated_at":"2026-07-12T03:22:21.697865+05:30"},{"city":"Bikaner","state":"Rajasthan","latitude":28.0229,"longitude":73.3119,"temp":30.2,"humidity":64,"rain":0.0,"pressure":970.2,"uv_index":8.45,"wind_gusts":41.8,"aqi":158,"pm10":210.5,"pm2_5":79.9,"no2":2.6,"co":97.0,"o3":58.0,"so2":4.6,"mosquito_risk":3,"arthritis_risk":5,"migraine_risk":7,"frizz_risk":1,"updated_at":"2026-07-12T03:22:21.697871+05:30"},{"city":"Ajmer","state":"Rajasthan","latitude":26.4499,"longitude":74.6399,"temp":26.3,"humidity":77,"rain":0.0,"pressure":945.3,"uv_index":8.35,"wind_gusts":49.0,"aqi":76,"pm10":35.3,"pm2_5":21.0,"no2":4.5,"co":105.0,"o3":61.0,"so2":3.3,"mosquito_risk":7,"arthritis_risk":5,"migraine_risk":7,"frizz_risk":1,"updated_at":"2026-07-12T03:22:21.697877+05:30"},{"city":"Gwalior","state":"Madhya Pradesh","latitude":26.2183,"longitude":78.1828,"temp":28.6,"humidity":71,"rain":0.0,"pressure":973.3,"uv_index":8.15,"wind_gusts":43.2,"aqi":88,"pm10":30.3,"pm2_5":19.1,"no2":7.2,"co":138.0,"o3":62.0,"so2":5.5,"mosquito_risk":7,"arthritis_risk":5,"migraine_risk":7,"frizz_risk":1,"updated_at":"2026-07-12T03:22:21.697882+05:30"},{"city":"Indore","state":"Madhya Pradesh","latitude":22.7196,"longitude":75.8577,"temp":24.4,"humidity":89,"rain":0.0,"pressure":941.2,"uv_index":8.55,"wind_gusts":52.6,"aqi":63,"pm10":16.6,"pm2_5":9.7,"no2":7.1,"co":136.0,"o3":37.0,"so2":8.1,"mosquito_risk":3,"arthritis_risk":5,"migraine_risk":7,"frizz_risk":1,"updated_at":"2026-07-12T03:22:21.697887+05:30"},{"city":"Bhopal","state":"Madhya Pradesh","latitude":23.2599,"longitude":77.4126,"temp":25.3,"humidity":85,"rain":0.0,"pressure":946.7,"uv_index":8.6,"wind_gusts":42.1,"aqi":73,"pm10":25.0,"pm2_5":16.0,"no2":6.0,"co":169.0,"o3":59.0,"so2":5.9,"mosquito_risk":7,"arthritis_risk":5,"migraine_risk":7,"frizz_risk":1,"updated_at":"2026-07-12T03:22:21.697893+05:30"},{"city":"Jabalpur","state":"Madhya Pradesh","latitude":23.1815,"longitude":79.9864,"temp":26.2,"humidity":75,"rain":0.0,"pressure":954.2,"uv_index":4.8,"wind_gusts":36.7,"aqi":83,"pm10":39.9,"pm2_5":24.2,"no2":6.2,"co":186.0,"o3":62.0,"so2":4.1,"mosquito_risk":7,"arthritis_risk":5,"migraine_risk":3,"frizz_risk":1,"updated_at":"2026-07-12T03:22:21.697899+05:30"},{"city":"Ujjain","state":"Madhya Pradesh","latitude":23.1765,"longitude":75.7885,"temp":25.1,"humidity":87,"rain":0.0,"pressure":946.7,"uv_index":8.5,"wind_gusts":51.8,"aqi":62,"pm10":16.7,"pm2_5":10.1,"no2":7.2,"co":157.0,"o3":37.0,"so2":8.3,"mosquito_risk":7,"arthritis_risk":5,"migraine_risk":7,"frizz_risk":1,"updated_at":"2026-07-12T03:22:21.697904+05:30"},{"city":"Visakhapatnam","state":"Andhra Pradesh","latitude":17.6868,"longitude":83.2185,"temp":28.4,"humidity":70,"rain":0.0,"pressure":996.9,"uv_index":8.5,"wind_gusts":40.3,"aqi":99,"pm10":60.5,"pm2_5":34.8,"no2":19.9,"co":292.0,"o3":43.0,"so2":31.9,"mosquito_risk":7,"arthritis_risk":5,"migraine_risk":7,"frizz_risk":1,"updated_at":"2026-07-12T03:22:21.697910+05:30"},{"city":"Vijayawada","state":"Andhra Pradesh","latitude":16.5062,"longitude":80.648,"temp":30.1,"humidity":63,"rain":0.0,"pressure":996.8,"uv_index":8.55,"wind_gusts":44.3,"aqi":91,"pm10":56.9,"pm2_5":39.9,"no2":21.2,"co":291.0,"o3":34.0,"so2":5.6,"mosquito_risk":3,"arthritis_risk":5,"migraine_risk":7,"frizz_risk":1,"updated_at":"2026-07-12T03:22:21.697915+05:30"},{"city":"Guntur","state":"Andhra Pradesh","latitude":16.3067,"longitude":80.4365,"temp":31.3,"humidity":50,"rain":0.0,"pressure":998.1,"uv_index":8.15,"wind_gusts":45.4,"aqi":84,"pm10":51.0,"pm2_5":33.4,"no2":21.5,"co":276.0,"o3":28.0,"so2":5.5,"mosquito_risk":0,"arthritis_risk":5,"migraine_risk":7,"frizz_risk":1,"updated_at":"2026-07-12T03:22:21.697921+05:30"},{"city":"Nellore","state":"Andhra Pradesh","latitude":14.4426,"longitude":79.9865,"temp":29.9,"humidity":61,"rain":0.0,"pressure":1001.1,"uv_index":8.8,"wind_gusts":46.4,"aqi":71,"pm10":44.5,"pm2_5":26.4,"no2":13.9,"co":270.0,"o3":52.0,"so2":8.8,"mosquito_risk":7,"arthritis_risk":5,"migraine_risk":4,"frizz_risk":1,"updated_at":"2026-07-12T03:22:21.697927+05:30"},{"city":"Kurnool","state":"Andhra Pradesh","latitude":15.8281,"longitude":78.0373,"temp":27.3,"humidity":65,"rain":0.0,"pressure":973.5,"uv_index":8.35,"wind_gusts":49.3,"aqi":56,"pm10":21.2,"pm2_5":11.9,"no2":7.3,"co":139.0,"o3":41.0,"so2":3.0,"mosquito_risk":7,"arthritis_risk":5,"migraine_risk":7,"frizz_risk":1,"updated_at":"2026-07-12T03:22:21.697934+05:30"},{"city":"Kakinada","state":"Andhra Pradesh","latitude":16.9891,"longitude":82.2475,"temp":28.5,"humidity":73,"rain":0.0,"pressure":1001.1,"uv_index":8.3,"wind_gusts":49.0,"aqi":88,"pm10":59.4,"pm2_5":35.9,"no2":10.7,"co":358.0,"o3":58.0,"so2":4.9,"mosquito_risk":7,"arthritis_risk":5,"migraine_risk":4,"frizz_risk":1,"updated_at":"2026-07-12T03:22:21.697940+05:30"},{"city":"Tirupati","state":"Andhra Pradesh","latitude":13.6288,"longitude":79.4192,"temp":28.9,"humidity":61,"rain":0.0,"pressure":986.8,"uv_index":8.0,"wind_gusts":38.5,"aqi":78,"pm10":41.2,"pm2_5":26.6,"no2":25.3,"co":112.0,"o3":24.0,"so2":3.1,"mosquito_risk":7,"arthritis_risk":5,"migraine_risk":7,"frizz_risk":1,"updated_at":"2026-07-12T03:22:21.697945+05:30"},{"city":"Warangal","state":"Telangana","latitude":17.9689,"longitude":79.5941,"temp":27.7,"humidity":66,"rain":0.0,"pressure":973.4,"uv_index":8.8,"wind_gusts":43.6,"aqi":77,"pm10":37.0,"pm2_5":21.7,"no2":10.8,"co":162.0,"o3":40.0,"so2":3.4,"mosquito_risk":7,"arthritis_risk":5,"migraine_risk":7,"frizz_risk":1,"updated_at":"2026-07-12T03:22:21.697949+05:30"},{"city":"Nizamabad","state":"Telangana","latitude":18.6725,"longitude":78.0941,"temp":26.0,"humidity":70,"rain":0.0,"pressure":960.1,"uv_index":8.8,"wind_gusts":45.4,"aqi":64,"pm10":24.8,"pm2_5":14.9,"no2":8.2,"co":133.0,"o3":42.0,"so2":6.1,"mosquito_risk":7,"arthritis_risk":5,"migraine_risk":7,"frizz_risk":1,"updated_at":"2026-07-12T03:22:21.697954+05:30"},{"city":"Mysore","state":"Karnataka","latitude":12.2958,"longitude":76.6396,"temp":21.0,"humidity":97,"rain":0.0,"pressure":926.8,"uv_index":8.8,"wind_gusts":46.8,"aqi":35,"pm10":13.7,"pm2_5":9.3,"no2":12.4,"co":123.0,"o3":23.0,"so2":1.7,"mosquito_risk":3,"arthritis_risk":5,"migraine_risk":7,"frizz_risk":1,"updated_at":"2026-07-12T03:22:21.697959+05:30"},{"city":"Mangalore","state":"Karnataka","latitude":12.9141,"longitude":74.856,"temp":25.0,"humidity":96,"rain":0.0,"pressure":1006.2,"uv_index":5.75,"wind_gusts":49.0,"aqi":47,"pm10":17.8,"pm2_5":9.4,"no2":4.8,"co":129.0,"o3":34.0,"so2":2.2,"mosquito_risk":7,"arthritis_risk":5,"migraine_risk":0,"frizz_risk":1,"updated_at":"2026-07-12T03:22:21.697964+05:30"},{"city":"Hubli-Dharwad","state":"Karnataka","latitude":15.3647,"longitude":75.124,"temp":22.0,"humidity":95,"rain":0.0,"pressure":938.6,"uv_index":8.85,"wind_gusts":52.2,"aqi":32,"pm10":12.8,"pm2_5":6.4,"no2":4.5,"co":105.0,"o3":35.0,"so2":1.7,"mosquito_risk":3,"arthritis_risk":5,"migraine_risk":7,"frizz_risk":1,"updated_at":"2026-07-12T03:22:21.697970+05:30"},{"city":"Belgaum","state":"Karnataka","latitude":15.8497,"longitude":74.4977,"temp":21.3,"humidity":96,"rain":0.0,"pressure":923.2,"uv_index":9.0,"wind_gusts":50.4,"aqi":34,"pm10":15.0,"pm2_5":6.8,"no2":2.9,"co":92.0,"o3":40.0,"so2":1.5,"mosquito_risk":3,"arthritis_risk":5,"migraine_risk":7,"frizz_risk":1,"updated_at":"2026-07-12T03:22:25.068785+05:30"},{"city":"Coimbatore","state":"Tamil Nadu","latitude":11.0168,"longitude":76.9558,"temp":23.4,"humidity":97,"rain":0.0,"pressure":959.8,"uv_index":8.6,"wind_gusts":55.1,"aqi":40,"pm10":15.3,"pm2_5":10.2,"no2":11.1,"co":174.0,"o3":21.0,"so2":2.8,"mosquito_risk":3,"arthritis_risk":5,"migraine_risk":7,"frizz_risk":1,"updated_at":"2026-07-12T03:22:25.068822+05:30"},{"city":"Madurai","state":"Tamil Nadu","latitude":9.9252,"longitude":78.1198,"temp":28.2,"humidity":68,"rain":0.0,"pressure":990.6,"uv_index":8.0,"wind_gusts":42.5,"aqi":60,"pm10":32.4,"pm2_5":28.5,"no2":33.6,"co":137.0,"o3":2.0,"so2":7.5,"mosquito_risk":7,"arthritis_risk":5,"migraine_risk":7,"frizz_risk":1,"updated_at":"2026-07-12T03:22:25.068832+05:30"},{"city":"Trichy","state":"Tamil Nadu","latitude":10.7905,"longitude":78.7047,"temp":28.4,"humidity":70,"rain":0.0,"pressure":996.9,"uv_index":8.0,"wind_gusts":56.9,"aqi":46,"pm10":21.6,"pm2_5":11.1,"no2":8.3,"co":104.0,"o3":31.0,"so2":3.3,"mosquito_risk":7,"arthritis_risk":5,"migraine_risk":7,"frizz_risk":1,"updated_at":"2026-07-12T03:22:25.068840+05:30"},{"city":"Salem","state":"Tamil Nadu","latitude":11.6643,"longitude":78.146,"temp":25.5,"humidity":88,"rain":0.0,"pressure":975.3,"uv_index":8.9,"wind_gusts":22.3,"aqi":61,"pm10":31.9,"pm2_5":20.1,"no2":21.8,"co":177.0,"o3":23.0,"so2":6.4,"mosquito_risk":7,"arthritis_risk":5,"migraine_risk":7,"frizz_risk":1,"updated_at":"2026-07-12T03:22:25.068848+05:30"},{"city":"Tirunelveli","state":"Tamil Nadu","latitude":8.7139,"longitude":77.7567,"temp":28.5,"humidity":69,"rain":0.0,"pressure":1001.3,"uv_index":8.4,"wind_gusts":40.3,"aqi":29,"pm10":14.1,"pm2_5":9.1,"no2":7.8,"co":109.0,"o3":31.0,"so2":2.6,"mosquito_risk":7,"arthritis_risk":5,"migraine_risk":4,"frizz_risk":1,"updated_at":"2026-07-12T03:22:25.068855+05:30"},{"city":"Vellore","state":"Tamil Nadu","latitude":12.9165,"longitude":79.1325,"temp":28.9,"humidity":61,"rain":0.0,"pressure":981.3,"uv_index":7.25,"wind_gusts":39.6,"aqi":71,"pm10":21.8,"pm2_5":14.8,"no2":13.1,"co":218.0,"o3":35.0,"so2":4.3,"mosquito_risk":7,"arthritis_risk":5,"migraine_risk":7,"frizz_risk":1,"updated_at":"2026-07-12T03:22:25.068861+05:30"},{"city":"Erode","state":"Tamil Nadu","latitude":11.341,"longitude":77.7172,"temp":26.1,"humidity":82,"rain":0.0,"pressure":987.2,"uv_index":8.75,"wind_gusts":52.6,"aqi":55,"pm10":23.3,"pm2_5":16.1,"no2":16.7,"co":154.0,"o3":24.0,"so2":4.0,"mosquito_risk":7,"arthritis_risk":5,"migraine_risk":7,"frizz_risk":1,"updated_at":"2026-07-12T03:22:25.068868+05:30"},{"city":"Kochi","state":"Kerala","latitude":9.9312,"longitude":76.2673,"temp":26.4,"humidity":91,"rain":0.0,"pressure":1008.1,"uv_index":7.85,"wind_gusts":43.2,"aqi":48,"pm10":17.4,"pm2_5":12.7,"no2":12.9,"co":92.0,"o3":23.0,"so2":3.2,"mosquito_risk":7,"arthritis_risk":0,"migraine_risk":4,"frizz_risk":1,"updated_at":"2026-07-12T03:22:25.068875+05:30"},{"city":"Thiruvananthapuram","state":"Kerala","latitude":8.5241,"longitude":76.9366,"temp":25.1,"humidity":96,"rain":0.0,"pressure":1007.8,"uv_index":7.85,"wind_gusts":49.3,"aqi":35,"pm10":13.8,"pm2_5":7.3,"no2":3.7,"co":106.0,"o3":44.0,"so2":1.6,"mosquito_risk":7,"arthritis_risk":5,"migraine_risk":4,"frizz_risk":1,"updated_at":"2026-07-12T03:22:25.068881+05:30"},{"city":"Kozhikode","state":"Kerala","latitude":11.2588,"longitude":75.7804,"temp":25.7,"humidity":92,"rain":0.0,"pressure":1007.2,"uv_index":8.15,"wind_gusts":46.8,"aqi":38,"pm10":17.9,"pm2_5":8.6,"no2":2.8,"co":170.0,"o3":45.0,"so2":1.5,"mosquito_risk":7,"arthritis_risk":5,"migraine_risk":4,"frizz_risk":1,"updated_at":"2026-07-12T03:22:25.068887+05:30"},{"city":"Thrissur","state":"Kerala","latitude":10.5276,"longitude":76.2144,"temp":25.1,"humidity":94,"rain":0.0,"pressure":1006.4,"uv_index":7.8,"wind_gusts":41.0,"aqi":45,"pm10":14.3,"pm2_5":9.1,"no2":6.0,"co":139.0,"o3":32.0,"so2":2.6,"mosquito_risk":7,"arthritis_risk":5,"migraine_risk":4,"frizz_risk":1,"updated_at":"2026-07-12T03:22:25.068895+05:30"},{"city":"Kannur","state":"Kerala","latitude":11.8745,"longitude":75.3704,"temp":25.9,"humidity":91,"rain":0.0,"pressure":1006.5,"uv_index":8.2,"wind_gusts":44.6,"aqi":42,"pm10":16.2,"pm2_5":9.4,"no2":7.9,"co":145.0,"o3":28.0,"so2":2.4,"mosquito_risk":7,"arthritis_risk":5,"migraine_risk":4,"frizz_risk":1,"updated_at":"2026-07-12T03:22:25.068901+05:30"},{"city":"Patna","state":"Bihar","latitude":25.5941,"longitude":85.1376,"temp":26.6,"humidity":94,"rain":0.3,"pressure":990.2,"uv_index":8.75,"wind_gusts":37.4,"aqi":120,"pm10":72.2,"pm2_5":52.9,"no2":20.2,"co":398.0,"o3":51.0,"so2":8.5,"mosquito_risk":10,"arthritis_risk":5,"migraine_risk":7,"frizz_risk":1,"updated_at":"2026-07-12T03:22:25.068908+05:30"},{"city":"Gaya","state":"Bihar","latitude":24.7914,"longitude":85.0002,"temp":27.8,"humidity":82,"rain":0.0,"pressure":984.0,"uv_index":8.55,"wind_gusts":38.2,"aqi":102,"pm10":55.9,"pm2_5":42.1,"no2":18.6,"co":220.0,"o3":49.0,"so2":29.4,"mosquito_risk":7,"arthritis_risk":5,"migraine_risk":7,"frizz_risk":1,"updated_at":"2026-07-12T03:22:25.068914+05:30"},{"city":"Muzaffarpur","state":"Bihar","latitude":26.1209,"longitude":85.3647,"temp":27.0,"humidity":90,"rain":0.1,"pressure":990.0,"uv_index":8.0,"wind_gusts":35.6,"aqi":115,"pm10":71.2,"pm2_5":48.7,"no2":16.4,"co":336.0,"o3":63.0,"so2":7.3,"mosquito_risk":10,"arthritis_risk":5,"migraine_risk":7,"frizz_risk":1,"updated_at":"2026-07-12T03:22:25.068921+05:30"},{"city":"Bhagalpur","state":"Bihar","latitude":25.2425,"longitude":87.0117,"temp":26.7,"humidity":97,"rain":0.1,"pressure":990.9,"uv_index":7.9,"wind_gusts":32.0,"aqi":87,"pm10":50.2,"pm2_5":38.5,"no2":11.4,"co":217.0,"o3":73.0,"so2":5.7,"mosquito_risk":10,"arthritis_risk":5,"migraine_risk":7,"frizz_risk":1,"updated_at":"2026-07-12T03:22:25.068927+05:30"},{"city":"Ranchi","state":"Jharkhand","latitude":23.3441,"longitude":85.3096,"temp":23.8,"humidity":89,"rain":0.0,"pressure":929.4,"uv_index":8.45,"wind_gusts":31.0,"aqi":95,"pm10":53.2,"pm2_5":37.5,"no2":9.7,"co":220.0,"o3":62.0,"so2":7.2,"mosquito_risk":3,"arthritis_risk":5,"migraine_risk":7,"frizz_risk":1,"updated_at":"2026-07-12T03:22:25.068932+05:30"},{"city":"Jamshedpur","state":"Jharkhand","latitude":22.8046,"longitude":86.2029,"temp":26.9,"humidity":86,"rain":0.0,"pressure":982.2,"uv_index":4.7,"wind_gusts":28.4,"aqi":117,"pm10":63.6,"pm2_5":46.4,"no2":14.3,"co":256.0,"o3":74.0,"so2":34.0,"mosquito_risk":7,"arthritis_risk":5,"migraine_risk":3,"frizz_risk":1,"updated_at":"2026-07-12T03:22:25.068939+05:30"},{"city":"Dhanbad","state":"Jharkhand","latitude":23.7957,"longitude":86.4304,"temp":26.5,"humidity":89,"rain":0.0,"pressure":970.4,"uv_index":7.65,"wind_gusts":30.2,"aqi":138,"pm10":98.3,"pm2_5":75.7,"no2":47.3,"co":247.0,"o3":21.0,"so2":122.4,"mosquito_risk":7,"arthritis_risk":5,"migraine_risk":7,"frizz_risk":1,"updated_at":"2026-07-12T03:22:25.068946+05:30"},{"city":"Bokaro","state":"Jharkhand","latitude":23.6693,"longitude":86.1511,"temp":26.9,"humidity":83,"rain":0.0,"pressure":974.4,"uv_index":9.05,"wind_gusts":32.0,"aqi":132,"pm10":93.6,"pm2_5":71.2,"no2":35.6,"co":239.0,"o3":35.0,"so2":103.2,"mosquito_risk":7,"arthritis_risk":5,"migraine_risk":7,"frizz_risk":1,"updated_at":"2026-07-12T03:22:25.068952+05:30"},{"city":"Bhubaneswar","state":"Odisha","latitude":20.2961,"longitude":85.8245,"temp":27.6,"humidity":86,"rain":0.0,"pressure":994.5,"uv_index":9.05,"wind_gusts":36.4,"aqi":106,"pm10":74.7,"pm2_5":48.4,"no2":13.2,"co":336.0,"o3":59.0,"so2":8.1,"mosquito_risk":7,"arthritis_risk":5,"migraine_risk":7,"frizz_risk":1,"updated_at":"2026-07-12T03:22:25.068958+05:30"},{"city":"Cuttack","state":"Odisha","latitude":20.4625,"longitude":85.8828,"temp":27.9,"humidity":89,"rain":0.0,"pressure":996.1,"uv_index":9.05,"wind_gusts":37.1,"aqi":106,"pm10":74.7,"pm2_5":48.4,"no2":13.2,"co":343.0,"o3":59.0,"so2":8.1,"mosquito_risk":7,"arthritis_risk":5,"migraine_risk":7,"frizz_risk":1,"updated_at":"2026-07-12T03:22:25.068962+05:30"},{"city":"Rourkela","state":"Odisha","latitude":22.2604,"longitude":84.8536,"temp":26.3,"humidity":85,"rain":0.0,"pressure":977.1,"uv_index":8.9,"wind_gusts":30.6,"aqi":129,"pm10":68.2,"pm2_5":46.0,"no2":14.7,"co":243.0,"o3":57.0,"so2":21.0,"mosquito_risk":7,"arthritis_risk":5,"migraine_risk":7,"frizz_risk":1,"updated_at":"2026-07-12T03:22:25.068968+05:30"},{"city":"Raipur","state":"Chhattisgarh","latitude":21.2514,"longitude":81.6296,"temp":26.7,"humidity":75,"rain":0.0,"pressure":967.6,"uv_index":7.05,"wind_gusts":43.6,"aqi":114,"pm10":52.2,"pm2_5":34.1,"no2":23.4,"co":410.0,"o3":45.0,"so2":36.3,"mosquito_risk":7,"arthritis_risk":5,"migraine_risk":7,"frizz_risk":1,"updated_at":"2026-07-12T03:22:25.068973+05:30"},{"city":"Bhilai","state":"Chhattisgarh","latitude":21.1938,"longitude":81.3509,"temp":26.6,"humidity":76,"rain":0.0,"pressure":968.1,"uv_index":8.3,"wind_gusts":47.9,"aqi":106,"pm10":50.9,"pm2_5":32.0,"no2":19.6,"co":504.0,"o3":47.0,"so2":29.5,"mosquito_risk":7,"arthritis_risk":5,"migraine_risk":7,"frizz_risk":1,"updated_at":"2026-07-12T03:22:25.068978+05:30"},{"city":"Guwahati","state":"Assam","latitude":26.1158,"longitude":91.7086,"temp":25.8,"humidity":99,"rain":0.2,"pressure":991.0,"uv_index":3.65,"wind_gusts":19.1,"aqi":36,"pm10":7.0,"pm2_5":6.9,"no2":5.6,"co":253.0,"o3":75.0,"so2":1.2,"mosquito_risk":10,"arthritis_risk":5,"migraine_risk":3,"frizz_risk":1,"updated_at":"2026-07-12T03:22:25.068983+05:30"},{"city":"Agartala","state":"Tripura","latitude":23.8315,"longitude":91.2868,"temp":26.0,"humidity":99,"rain":0.0,"pressure":996.2,"uv_index":7.95,"wind_gusts":31.0,"aqi":88,"pm10":27.2,"pm2_5":22.5,"no2":7.2,"co":215.0,"o3":77.0,"so2":2.1,"mosquito_risk":7,"arthritis_risk":5,"migraine_risk":7,"frizz_risk":1,"updated_at":"2026-07-12T03:22:25.068988+05:30"},{"city":"Shillong","state":"Meghalaya","latitude":25.5788,"longitude":91.8933,"temp":20.9,"humidity":97,"rain":0.0,"pressure":849.3,"uv_index":3.25,"wind_gusts":19.8,"aqi":41,"pm10":1.1,"pm2_5":1.0,"no2":3.7,"co":287.0,"o3":85.0,"so2":4.1,"mosquito_risk":3,"arthritis_risk":5,"migraine_risk":3,"frizz_risk":1,"updated_at":"2026-07-12T03:22:25.068992+05:30"},{"city":"Imphal","state":"Manipur","latitude":24.817,"longitude":93.9368,"temp":23.1,"humidity":99,"rain":0.0,"pressure":914.7,"uv_index":1.45,"wind_gusts":31.0,"aqi":28,"pm10":8.4,"pm2_5":7.7,"no2":5.8,"co":315.0,"o3":48.0,"so2":2.1,"mosquito_risk":3,"arthritis_risk":5,"migraine_risk":3,"frizz_risk":1,"updated_at":"2026-07-12T03:22:25.068996+05:30"},{"city":"Aizawl","state":"Mizoram","latitude":23.7271,"longitude":92.7176,"temp":20.0,"humidity":98,"rain":0.0,"pressure":884.2,"uv_index":4.15,"wind_gusts":36.4,"aqi":35,"pm10":15.0,"pm2_5":9.7,"no2":2.3,"co":152.0,"o3":67.0,"so2":2.5,"mosquito_risk":3,"arthritis_risk":5,"migraine_risk":3,"frizz_risk":1,"updated_at":"2026-07-12T03:22:25.069001+05:30"},{"city":"Kohima","state":"Nagaland","latitude":25.6701,"longitude":94.1077,"temp":21.1,"humidity":89,"rain":0.1,"pressure":848.1,"uv_index":3.45,"wind_gusts":19.4,"aqi":25,"pm10":3.1,"pm2_5":2.8,"no2":3.5,"co":299.0,"o3":62.0,"so2":1.1,"mosquito_risk":6,"arthritis_risk":5,"migraine_risk":3,"frizz_risk":1,"updated_at":"2026-07-12T03:22:25.069006+05:30"},{"city":"Gangtok","state":"Sikkim","latitude":27.3314,"longitude":88.6138,"temp":19.2,"humidity":96,"rain":0.4,"pressure":830.2,"uv_index":7.1,"wind_gusts":28.4,"aqi":50,"pm10":1.6,"pm2_5":1.6,"no2":3.0,"co":333.0,"o3":112.0,"so2":1.4,"mosquito_risk":6,"arthritis_risk":10,"migraine_risk":7,"frizz_risk":1,"updated_at":"2026-07-12T03:22:25.069011+05:30"},{"city":"Siliguri","state":"West Bengal","latitude":26.7271,"longitude":88.3953,"temp":25.3,"humidity":99,"rain":0.0,"pressure":982.3,"uv_index":8.0,"wind_gusts":19.8,"aqi":75,"pm10":7.1,"pm2_5":7.1,"no2":7.2,"co":378.0,"o3":97.0,"so2":2.5,"mosquito_risk":7,"arthritis_risk":5,"migraine_risk":7,"frizz_risk":1,"updated_at":"2026-07-12T03:22:28.439694+05:30"},{"city":"Durgapur","state":"West Bengal","latitude":23.5204,"longitude":87.3119,"temp":27.4,"humidity":87,"rain":0.0,"pressure":985.3,"uv_index":7.1,"wind_gusts":28.1,"aqi":137,"pm10":78.5,"pm2_5":64.7,"no2":48.3,"co":238.0,"o3":21.0,"so2":50.0,"mosquito_risk":7,"arthritis_risk":5,"migraine_risk":7,"frizz_risk":1,"updated_at":"2026-07-12T03:22:28.439729+05:30"},{"city":"Asansol","state":"West Bengal","latitude":23.6739,"longitude":86.9524,"temp":27.2,"humidity":88,"rain":0.0,"pressure":983.9,"uv_index":8.8,"wind_gusts":30.6,"aqi":120,"pm10":75.2,"pm2_5":56.5,"no2":48.0,"co":1189.0,"o3":16.0,"so2":50.5,"mosquito_risk":7,"arthritis_risk":5,"migraine_risk":7,"frizz_risk":1,"updated_at":"2026-07-12T03:22:28.439739+05:30"},{"city":"Pondicherry","state":"Puducherry","latitude":11.9139,"longitude":79.8145,"temp":29.3,"humidity":70,"rain":0.0,"pressure":1004.6,"uv_index":8.7,"wind_gusts":46.1,"aqi":70,"pm10":16.6,"pm2_5":12.4,"no2":10.5,"co":202.0,"o3":59.0,"so2":6.8,"mosquito_risk":7,"arthritis_risk":5,"migraine_risk":4,"frizz_risk":1,"updated_at":"2026-07-12T03:22:28.439748+05:30"},{"city":"Port Blair","state":"Andaman and Nicobar Islands","latitude":11.6234,"longitude":92.7265,"temp":25.5,"humidity":95,"rain":0.1,"pressure":1004.5,"uv_index":8.25,"wind_gusts":58.0,"aqi":41,"pm10":25.7,"pm2_5":13.0,"no2":0.1,"co":82.0,"o3":52.0,"so2":0.4,"mosquito_risk":10,"arthritis_risk":5,"migraine_risk":4,"frizz_risk":1,"updated_at":"2026-07-12T03:22:28.439755+05:30"},{"city":"Haridwar","state":"Uttarakhand","latitude":29.9457,"longitude":78.1642,"temp":24.3,"humidity":99,"rain":0.0,"pressure":963.1,"uv_index":7.45,"wind_gusts":32.4,"aqi":109,"pm10":67.8,"pm2_5":64.5,"no2":37.4,"co":434.0,"o3":27.0,"so2":8.1,"mosquito_risk":3,"arthritis_risk":5,"migraine_risk":7,"frizz_risk":1,"updated_at":"2026-07-12T03:22:28.439762+05:30"},{"city":"Rishikesh","state":"Uttarakhand","latitude":30.0869,"longitude":78.2676,"temp":24.4,"humidity":94,"rain":0.0,"pressure":955.9,"uv_index":7.55,"wind_gusts":32.8,"aqi":63,"pm10":29.2,"pm2_5":25.1,"no2":13.9,"co":304.0,"o3":85.0,"so2":5.2,"mosquito_risk":3,"arthritis_risk":5,"migraine_risk":7,"frizz_risk":1,"updated_at":"2026-07-12T03:22:28.439768+05:30"},{"city":"Nainital","state":"Uttarakhand","latitude":29.3919,"longitude":79.4542,"temp":15.8,"humidity":100,"rain":0.1,"pressure":797.7,"uv_index":8.15,"wind_gusts":33.1,"aqi":81,"pm10":67.8,"pm2_5":43.9,"no2":12.4,"co":319.0,"o3":97.0,"so2":9.5,"mosquito_risk":6,"arthritis_risk":10,"migraine_risk":7,"frizz_risk":0,"updated_at":"2026-07-12T03:22:28.439775+05:30"},{"city":"Mussoorie","state":"Uttarakhand","latitude":30.4599,"longitude":78.0664,"temp":15.5,"humidity":100,"rain":0.0,"pressure":794.6,"uv_index":7.95,"wind_gusts":41.0,"aqi":75,"pm10":34.9,"pm2_5":33.1,"no2":29.4,"co":321.0,"o3":45.0,"so2":5.1,"mosquito_risk":3,"arthritis_risk":10,"migraine_risk":7,"frizz_risk":0,"updated_at":"2026-07-12T03:22:28.439781+05:30"},{"city":"Dharamshala","state":"Himachal Pradesh","latitude":32.219,"longitude":76.3234,"temp":21.4,"humidity":88,"rain":0.1,"pressure":860.5,"uv_index":8.45,"wind_gusts":36.4,"aqi":51,"pm10":13.5,"pm2_5":13.4,"no2":13.8,"co":508.0,"o3":43.0,"so2":0.2,"mosquito_risk":6,"arthritis_risk":5,"migraine_risk":7,"frizz_risk":1,"updated_at":"2026-07-12T03:22:28.439787+05:30"},{"city":"Dalhousie","state":"Himachal Pradesh","latitude":32.5387,"longitude":75.971,"temp":14.7,"humidity":100,"rain":0.1,"pressure":795.7,"uv_index":8.65,"wind_gusts":28.4,"aqi":93,"pm10":49.4,"pm2_5":41.6,"no2":33.8,"co":458.0,"o3":73.0,"so2":4.5,"mosquito_risk":6,"arthritis_risk":10,"migraine_risk":7,"frizz_risk":0,"updated_at":"2026-07-12T03:22:28.439794+05:30"},{"city":"Patiala","state":"Punjab","latitude":30.3398,"longitude":76.3869,"temp":27.6,"humidity":90,"rain":0.0,"pressure":966.3,"uv_index":7.5,"wind_gusts":36.7,"aqi":156,"pm10":73.8,"pm2_5":64.0,"no2":33.0,"co":671.0,"o3":61.0,"so2":10.2,"mosquito_risk":7,"arthritis_risk":5,"migraine_risk":7,"frizz_risk":1,"updated_at":"2026-07-12T03:22:28.439800+05:30"},{"city":"Bhatinda","state":"Punjab","latitude":30.211,"longitude":74.9455,"temp":29.9,"humidity":78,"rain":0.0,"pressure":970.9,"uv_index":8.25,"wind_gusts":37.4,"aqi":179,"pm10":540.2,"pm2_5":167.2,"no2":19.2,"co":331.0,"o3":61.0,"so2":8.8,"mosquito_risk":7,"arthritis_risk":5,"migraine_risk":7,"frizz_risk":1,"updated_at":"2026-07-12T03:22:28.439806+05:30"},{"city":"Rohtak","state":"Haryana","latitude":28.8955,"longitude":76.6066,"temp":29.0,"humidity":79,"rain":0.0,"pressure":970.4,"uv_index":7.6,"wind_gusts":27.7,"aqi":625,"pm10":388.4,"pm2_5":114.1,"no2":47.0,"co":240.0,"o3":17.0,"so2":5.6,"mosquito_risk":7,"arthritis_risk":5,"migraine_risk":7,"frizz_risk":1,"updated_at":"2026-07-12T03:22:28.439811+05:30"},{"city":"Panipat","state":"Haryana","latitude":29.3909,"longitude":76.9635,"temp":25.9,"humidity":91,"rain":0.0,"pressure":969.3,"uv_index":7.45,"wind_gusts":26.6,"aqi":672,"pm10":315.7,"pm2_5":135.0,"no2":55.9,"co":949.0,"o3":17.0,"so2":12.0,"mosquito_risk":7,"arthritis_risk":5,"migraine_risk":7,"frizz_risk":1,"updated_at":"2026-07-12T03:22:28.439817+05:30"},{"city":"Mathura","state":"Uttar Pradesh","latitude":27.4924,"longitude":77.6737,"temp":30.0,"humidity":67,"rain":0.0,"pressure":975.9,"uv_index":7.9,"wind_gusts":33.5,"aqi":562,"pm10":728.3,"pm2_5":108.0,"no2":20.2,"co":206.0,"o3":41.0,"so2":4.6,"mosquito_risk":7,"arthritis_risk":5,"migraine_risk":7,"frizz_risk":1,"updated_at":"2026-07-12T03:22:28.439823+05:30"},{"city":"Vrindavan","state":"Uttar Pradesh","latitude":27.5823,"longitude":77.7027,"temp":30.3,"humidity":65,"rain":0.0,"pressure":976.2,"uv_index":7.9,"wind_gusts":32.4,"aqi":562,"pm10":728.3,"pm2_5":108.0,"no2":20.2,"co":205.0,"o3":41.0,"so2":4.6,"mosquito_risk":3,"arthritis_risk":5,"migraine_risk":7,"frizz_risk":1,"updated_at":"2026-07-12T03:22:28.439828+05:30"},{"city":"Ayodhya","state":"Uttar Pradesh","latitude":26.7922,"longitude":82.1998,"temp":26.4,"humidity":95,"rain":0.0,"pressure":984.6,"uv_index":8.1,"wind_gusts":31.7,"aqi":152,"pm10":92.7,"pm2_5":46.1,"no2":13.1,"co":250.0,"o3":62.0,"so2":2.8,"mosquito_risk":7,"arthritis_risk":5,"migraine_risk":7,"frizz_risk":1,"updated_at":"2026-07-12T03:22:28.439834+05:30"},{"city":"Ratlam","state":"Madhya Pradesh","latitude":23.3315,"longitude":75.0367,"temp":24.3,"humidity":95,"rain":0.1,"pressure":947.4,"uv_index":8.45,"wind_gusts":52.2,"aqi":60,"pm10":18.1,"pm2_5":10.6,"no2":7.2,"co":122.0,"o3":37.0,"so2":8.2,"mosquito_risk":6,"arthritis_risk":5,"migraine_risk":7,"frizz_risk":1,"updated_at":"2026-07-12T03:22:28.439840+05:30"},{"city":"Sagar","state":"Madhya Pradesh","latitude":23.8388,"longitude":78.7378,"temp":25.9,"humidity":79,"rain":0.0,"pressure":942.9,"uv_index":8.6,"wind_gusts":46.4,"aqi":81,"pm10":36.4,"pm2_5":22.4,"no2":5.6,"co":172.0,"o3":65.0,"so2":4.1,"mosquito_risk":7,"arthritis_risk":5,"migraine_risk":7,"frizz_risk":1,"updated_at":"2026-07-12T03:22:28.439845+05:30"},{"city":"Satna","state":"Madhya Pradesh","latitude":24.6005,"longitude":80.8322,"temp":27.6,"humidity":73,"rain":0.0,"pressure":962.7,"uv_index":8.6,"wind_gusts":42.1,"aqi":92,"pm10":36.8,"pm2_5":22.7,"no2":5.0,"co":173.0,"o3":67.0,"so2":3.6,"mosquito_risk":7,"arthritis_risk":5,"migraine_risk":7,"frizz_risk":1,"updated_at":"2026-07-12T03:22:28.439851+05:30"},{"city":"Akola","state":"Maharashtra","latitude":20.7002,"longitude":77.0082,"temp":26.3,"humidity":75,"rain":0.0,"pressure":969.6,"uv_index":8.7,"wind_gusts":47.2,"aqi":60,"pm10":20.5,"pm2_5":11.3,"no2":7.5,"co":114.0,"o3":37.0,"so2":6.9,"mosquito_risk":7,"arthritis_risk":5,"migraine_risk":7,"frizz_risk":1,"updated_at":"2026-07-12T03:22:28.439858+05:30"},{"city":"Amravati","state":"Maharashtra","latitude":20.9374,"longitude":77.7796,"temp":26.2,"humidity":74,"rain":0.0,"pressure":961.5,"uv_index":8.75,"wind_gusts":46.1,"aqi":62,"pm10":22.6,"pm2_5":12.1,"no2":8.1,"co":114.0,"o3":36.0,"so2":7.6,"mosquito_risk":7,"arthritis_risk":5,"migraine_risk":7,"frizz_risk":1,"updated_at":"2026-07-12T03:22:28.439864+05:30"},{"city":"Latur","state":"Maharashtra","latitude":18.4088,"longitude":76.5604,"temp":23.3,"humidity":82,"rain":0.0,"pressure":935.7,"uv_index":8.85,"wind_gusts":49.7,"aqi":51,"pm10":17.8,"pm2_5":9.4,"no2":5.5,"co":111.0,"o3":37.0,"so2":3.0,"mosquito_risk":3,"arthritis_risk":5,"migraine_risk":7,"frizz_risk":1,"updated_at":"2026-07-12T03:22:28.439871+05:30"},{"city":"Nanded","state":"Maharashtra","latitude":19.1383,"longitude":77.3091,"temp":26.0,"humidity":73,"rain":0.0,"pressure":963.9,"uv_index":8.85,"wind_gusts":42.8,"aqi":60,"pm10":18.5,"pm2_5":11.3,"no2":6.3,"co":124.0,"o3":43.0,"so2":4.2,"mosquito_risk":7,"arthritis_risk":5,"migraine_risk":7,"frizz_risk":1,"updated_at":"2026-07-12T03:22:28.439875+05:30"},{"city":"Gulbarga","state":"Karnataka","latitude":17.3297,"longitude":76.8343,"temp":24.3,"humidity":78,"rain":0.0,"pressure":955.1,"uv_index":8.35,"wind_gusts":54.7,"aqi":51,"pm10":24.4,"pm2_5":12.0,"no2":6.5,"co":112.0,"o3":36.0,"so2":2.9,"mosquito_risk":3,"arthritis_risk":5,"migraine_risk":7,"frizz_risk":1,"updated_at":"2026-07-12T03:22:28.439881+05:30"},{"city":"Bidar","state":"Karnataka","latitude":17.9104,"longitude":77.5199,"temp":24.1,"humidity":77,"rain":0.0,"pressure":931.3,"uv_index":8.8,"wind_gusts":48.2,"aqi":55,"pm10":23.9,"pm2_5":12.9,"no2":6.2,"co":123.0,"o3":40.0,"so2":2.4,"mosquito_risk":3,"arthritis_risk":5,"migraine_risk":7,"frizz_risk":1,"updated_at":"2026-07-12T03:22:28.439887+05:30"},{"city":"Hospet","state":"Karnataka","latitude":15.2689,"longitude":76.3909,"temp":23.1,"humidity":90,"rain":0.0,"pressure":953.4,"uv_index":8.45,"wind_gusts":55.4,"aqi":41,"pm10":13.5,"pm2_5":6.9,"no2":5.7,"co":121.0,"o3":35.0,"so2":1.8,"mosquito_risk":3,"arthritis_risk":5,"migraine_risk":7,"frizz_risk":1,"updated_at":"2026-07-12T03:22:28.439892+05:30"},{"city":"Tirupur","state":"Tamil Nadu","latitude":11.1085,"longitude":77.3411,"temp":24.7,"humidity":89,"rain":0.0,"pressure":973.4,"uv_index":8.8,"wind_gusts":64.8,"aqi":57,"pm10":24.6,"pm2_5":18.7,"no2":22.1,"co":158.0,"o3":14.0,"so2":4.6,"mosquito_risk":3,"arthritis_risk":5,"migraine_risk":7,"frizz_risk":1,"updated_at":"2026-07-12T03:22:28.439898+05:30"},{"city":"Alappuzha","state":"Kerala","latitude":9.4981,"longitude":76.3388,"temp":26.5,"humidity":94,"rain":0.0,"pressure":1008.3,"uv_index":7.95,"wind_gusts":45.4,"aqi":43,"pm10":18.7,"pm2_5":10.2,"no2":6.2,"co":81.0,"o3":39.0,"so2":2.5,"mosquito_risk":7,"arthritis_risk":0,"migraine_risk":4,"frizz_risk":1,"updated_at":"2026-07-12T03:22:28.439904+05:30"},{"city":"Munnar","state":"Kerala","latitude":10.0889,"longitude":77.0595,"temp":16.1,"humidity":94,"rain":0.0,"pressure":854.7,"uv_index":8.65,"wind_gusts":38.5,"aqi":25,"pm10":13.7,"pm2_5":9.4,"no2":10.8,"co":91.0,"o3":15.0,"so2":1.6,"mosquito_risk":3,"arthritis_risk":10,"migraine_risk":7,"frizz_risk":0,"updated_at":"2026-07-12T03:22:28.439910+05:30"},{"city":"Silchar","state":"Assam","latitude":24.8333,"longitude":92.7789,"temp":26.4,"humidity":96,"rain":0.4,"pressure":995.3,"uv_index":2.25,"wind_gusts":21.2,"aqi":45,"pm10":37.0,"pm2_5":24.3,"no2":6.6,"co":272.0,"o3":80.0,"so2":5.3,"mosquito_risk":10,"arthritis_risk":5,"migraine_risk":3,"frizz_risk":1,"updated_at":"2026-07-12T03:22:28.439915+05:30"},{"city":"Dibrugarh","state":"Assam","latitude":27.4728,"longitude":94.912,"temp":25.8,"humidity":98,"rain":0.1,"pressure":985.6,"uv_index":4.05,"wind_gusts":24.1,"aqi":39,"pm10":5.0,"pm2_5":5.0,"no2":8.4,"co":213.0,"o3":59.0,"so2":0.8,"mosquito_risk":10,"arthritis_risk":5,"migraine_risk":3,"frizz_risk":1,"updated_at":"2026-07-12T03:22:28.439920+05:30"}]