[{"city":"Delhi","state":"Delhi","latitude":28.6139,"longitude":77.209,"temp":31.0,"humidity":31,"rain":0.0,"pressure":981.6,"uv_index":6.1,"wind_gusts":48.2,"aqi":382,"pm10":983.5,"pm2_5":121.5,"mosquito_risk":0,"arthritis_risk":5,"migraine_risk":7,"frizz_risk":0,"updated_at":"2026-03-16T14:31:15.991207+05:30"},{"city":"Mumbai","state":"Maharashtra","latitude":19.076,"longitude":72.8777,"temp":27.1,"humidity":77,"rain":0.0,"pressure":1008.6,"uv_index":7.7,"wind_gusts":18.4,"aqi":105,"pm10":117.6,"pm2_5":55.2,"mosquito_risk":7,"arthritis_risk":0,"migraine_risk":4,"frizz_risk":1,"updated_at":"2026-03-16T14:31:15.991251+05:30"},{"city":"Bangalore","state":"Karnataka","latitude":12.9716,"longitude":77.5946,"temp":30.4,"humidity":38,"rain":0.0,"pressure":911.9,"uv_index":9.35,"wind_gusts":28.4,"aqi":82,"pm10":26.9,"pm2_5":22.6,"mosquito_risk":0,"arthritis_risk":5,"migraine_risk":7,"frizz_risk":0,"updated_at":"2026-03-16T14:31:15.991267+05:30"},{"city":"Hyderabad","state":"Telangana","latitude":17.385,"longitude":78.4867,"temp":32.5,"humidity":33,"rain":0.0,"pressure":954.2,"uv_index":8.65,"wind_gusts":20.9,"aqi":94,"pm10":37.3,"pm2_5":27.5,"mosquito_risk":0,"arthritis_risk":5,"migraine_risk":7,"frizz_risk":0,"updated_at":"2026-03-16T14:31:15.991276+05:30"},{"city":"Chennai","state":"Tamil Nadu","latitude":13.0827,"longitude":80.2707,"temp":32.7,"humidity":49,"rain":0.0,"pressure":1007.8,"uv_index":9.05,"wind_gusts":31.0,"aqi":36,"pm10":10.0,"pm2_5":7.7,"mosquito_risk":0,"arthritis_risk":5,"migraine_risk":4,"frizz_risk":1,"updated_at":"2026-03-16T14:31:15.991285+05:30"},{"city":"Kolkata","state":"West Bengal","latitude":22.5726,"longitude":88.3639,"temp":29.5,"humidity":64,"rain":0.0,"pressure":1004.6,"uv_index":8.15,"wind_gusts":30.6,"aqi":74,"pm10":35.3,"pm2_5":28.8,"mosquito_risk":7,"arthritis_risk":5,"migraine_risk":4,"frizz_risk":1,"updated_at":"2026-03-16T14:31:15.991293+05:30"},{"city":"Pune","state":"Maharashtra","latitude":18.5204,"longitude":73.8567,"temp":35.5,"humidity":19,"rain":0.0,"pressure":948.4,"uv_index":8.25,"wind_gusts":39.6,"aqi":94,"pm10":35.6,"pm2_5":23.2,"mosquito_risk":0,"arthritis_risk":5,"migraine_risk":10,"frizz_risk":0,"updated_at":"2026-03-16T14:31:15.991306+05:30"},{"city":"Ahmedabad","state":"Gujarat","latitude":23.0225,"longitude":72.5714,"temp":37.2,"humidity":13,"rain":0.0,"pressure":1001.1,"uv_index":7.45,"wind_gusts":25.2,"aqi":63,"pm10":33.9,"pm2_5":11.6,"mosquito_risk":0,"arthritis_risk":5,"migraine_risk":7,"frizz_risk":0,"updated_at":"2026-03-16T14:31:15.991314+05:30"},{"city":"Jaipur","state":"Rajasthan","latitude":26.9124,"longitude":75.7873,"temp":32.9,"humidity":19,"rain":0.0,"pressure":958.8,"uv_index":6.9,"wind_gusts":33.5,"aqi":160,"pm10":259.8,"pm2_5":30.5,"mosquito_risk":0,"arthritis_risk":5,"migraine_risk":7,"frizz_risk":0,"updated_at":"2026-03-16T14:31:15.991321+05:30"},{"city":"Lucknow","state":"Uttar Pradesh","latitude":26.8467,"longitude":80.9462,"temp":31.5,"humidity":32,"rain":0.0,"pressure":993.5,"uv_index":6.65,"wind_gusts":48.6,"aqi":86,"pm10":59.8,"pm2_5":34.9,"mosquito_risk":0,"arthritis_risk":5,"migraine_risk":7,"frizz_risk":0,"updated_at":"2026-03-16T14:31:15.991329+05:30"},{"city":"Kanpur","state":"Uttar Pradesh","latitude":26.4499,"longitude":80.3319,"temp":32.2,"humidity":32,"rain":0.0,"pressure":991.5,"uv_index":6.7,"wind_gusts":35.3,"aqi":111,"pm10":176.5,"pm2_5":53.1,"mosquito_risk":0,"arthritis_risk":5,"migraine_risk":7,"frizz_risk":0,"updated_at":"2026-03-16T14:31:15.991336+05:30"},{"city":"Chandigarh","state":"Chandigarh","latitude":30.7333,"longitude":76.7794,"temp":17.8,"humidity":72,"rain":0.0,"pressure":970.1,"uv_index":5.45,"wind_gusts":55.8,"aqi":66,"pm10":61.5,"pm2_5":18.8,"mosquito_risk":3,"arthritis_risk":5,"migraine_risk":3,"frizz_risk":0,"updated_at":"2026-03-16T14:31:15.991343+05:30"},{"city":"Srinagar","state":"Jammu and Kashmir","latitude":34.0837,"longitude":74.7973,"temp":8.8,"humidity":71,"rain":0.1,"pressure":838.0,"uv_index":5.05,"wind_gusts":22.3,"aqi":53,"pm10":22.4,"pm2_5":16.3,"mosquito_risk":6,"arthritis_risk":5,"migraine_risk":3,"frizz_risk":0,"updated_at":"2026-03-16T14:31:15.991351+05:30"},{"city":"Jammu","state":"Jammu and Kashmir","latitude":32.7266,"longitude":74.857,"temp":20.0,"humidity":56,"rain":0.0,"pressure":975.7,"uv_index":6.4,"wind_gusts":38.9,"aqi":65,"pm10":19.7,"pm2_5":7.6,"mosquito_risk":0,"arthritis_risk":5,"migraine_risk":7,"frizz_risk":0,"updated_at":"2026-03-16T14:31:15.991358+05:30"},{"city":"Amritsar","state":"Punjab","latitude":31.634,"longitude":74.8723,"temp":15.4,"humidity":80,"rain":0.0,"pressure":983.7,"uv_index":5.9,"wind_gusts":34.6,"aqi":79,"pm10":77.8,"pm2_5":25.5,"mosquito_risk":3,"arthritis_risk":5,"migraine_risk":3,"frizz_risk":0,"updated_at":"2026-03-16T14:31:15.991364+05:30"},{"city":"Ludhiana","state":"Punjab","latitude":30.901,"longitude":75.8573,"temp":18.0,"humidity":71,"rain":0.0,"pressure":980.3,"uv_index":6.15,"wind_gusts":48.6,"aqi":82,"pm10":68.0,"pm2_5":23.5,"mosquito_risk":3,"arthritis_risk":5,"migraine_risk":7,"frizz_risk":0,"updated_at":"2026-03-16T14:31:15.991370+05:30"},{"city":"Jalandhar","state":"Punjab","latitude":31.326,"longitude":75.5762,"temp":17.3,"humidity":76,"rain":0.0,"pressure":982.2,"uv_index":6.3,"wind_gusts":55.4,"aqi":74,"pm10":83.8,"pm2_5":24.4,"mosquito_risk":3,"arthritis_risk":5,"migraine_risk":7,"frizz_risk":0,"updated_at":"2026-03-16T14:31:15.991379+05:30"},{"city":"Dehradun","state":"Uttarakhand","latitude":30.6284,"longitude":78.0322,"temp":15.1,"humidity":52,"rain":0.0,"pressure":829.1,"uv_index":5.25,"wind_gusts":33.1,"aqi":49,"pm10":49.1,"pm2_5":12.1,"mosquito_risk":0,"arthritis_risk":5,"migraine_risk":3,"frizz_risk":0,"updated_at":"2026-03-16T14:31:15.991386+05:30"},{"city":"Shimla","state":"Himachal Pradesh","latitude":31.1048,"longitude":77.1734,"temp":11.9,"humidity":59,"rain":0.0,"pressure":782.4,"uv_index":3.85,"wind_gusts":50.0,"aqi":51,"pm10":46.4,"pm2_5":11.8,"mosquito_risk":0,"arthritis_risk":5,"migraine_risk":3,"frizz_risk":0,"updated_at":"2026-03-16T14:31:15.991394+05:30"},{"city":"Manali","state":"Himachal Pradesh","latitude":32.2396,"longitude":77.1887,"temp":8.2,"humidity":94,"rain":0.6,"pressure":814.2,"uv_index":5.2,"wind_gusts":37.8,"aqi":73,"pm10":18.4,"pm2_5":5.2,"mosquito_risk":6,"arthritis_risk":10,"migraine_risk":3,"frizz_risk":0,"updated_at":"2026-03-16T14:31:15.991401+05:30"},{"city":"Gurgaon","state":"Haryana","latitude":28.4595,"longitude":77.0266,"temp":31.4,"humidity":30,"rain":0.0,"pressure":980.0,"uv_index":6.2,"wind_gusts":46.1,"aqi":2196,"pm10":2317.1,"pm2_5":234.2,"mosquito_risk":0,"arthritis_risk":5,"migraine_risk":7,"frizz_risk":0,"updated_at":"2026-03-16T14:31:15.991408+05:30"},{"city":"Noida","state":"Uttar Pradesh","latitude":28.5355,"longitude":77.391,"temp":31.3,"humidity":32,"rain":0.0,"pressure":983.1,"uv_index":6.1,"wind_gusts":44.6,"aqi":2196,"pm10":2317.1,"pm2_5":234.2,"mosquito_risk":0,"arthritis_risk":5,"migraine_risk":7,"frizz_risk":0,"updated_at":"2026-03-16T14:31:15.991416+05:30"},{"city":"Ghaziabad","state":"Uttar Pradesh","latitude":28.6692,"longitude":77.4538,"temp":30.8,"humidity":32,"rain":0.0,"pressure":981.3,"uv_index":6.1,"wind_gusts":45.7,"aqi":105,"pm10":570.0,"pm2_5":69.8,"mosquito_risk":0,"arthritis_risk":5,"migraine_risk":7,"frizz_risk":0,"updated_at":"2026-03-16T14:31:15.991423+05:30"},{"city":"Faridabad","state":"Haryana","latitude":28.4089,"longitude":77.3178,"temp":31.2,"humidity":30,"rain":0.0,"pressure":982.5,"uv_index":6.15,"wind_gusts":43.9,"aqi":2196,"pm10":2317.1,"pm2_5":234.2,"mosquito_risk":0,"arthritis_risk":5,"migraine_risk":7,"frizz_risk":0,"updated_at":"2026-03-16T14:31:15.991429+05:30"},{"city":"Meerut","state":"Uttar Pradesh","latitude":28.9845,"longitude":77.7064,"temp":29.7,"humidity":34,"rain":0.0,"pressure":980.3,"uv_index":5.95,"wind_gusts":53.6,"aqi":105,"pm10":570.0,"pm2_5":69.8,"mosquito_risk":4,"arthritis_risk":5,"migraine_risk":3,"frizz_risk":0,"updated_at":"2026-03-16T14:31:15.991436+05:30"},{"city":"Agra","state":"Uttar Pradesh","latitude":27.1767,"longitude":78.0081,"temp":31.8,"humidity":35,"rain":0.0,"pressure":987.4,"uv_index":6.5,"wind_gusts":34.9,"aqi":992,"pm10":488.0,"pm2_5":55.4,"mosquito_risk":0,"arthritis_risk":5,"migraine_risk":7,"frizz_risk":0,"updated_at":"2026-03-16T14:31:15.991443+05:30"},{"city":"Varanasi","state":"Uttar Pradesh","latitude":25.3176,"longitude":82.9739,"temp":32.2,"humidity":39,"rain":0.0,"pressure":997.5,"uv_index":7.35,"wind_gusts":29.9,"aqi":153,"pm10":64.5,"pm2_5":39.0,"mosquito_risk":0,"arthritis_risk":5,"migraine_risk":7,"frizz_risk":1,"updated_at":"2026-03-16T14:31:15.991452+05:30"},{"city":"Prayagraj","state":"Uttar Pradesh","latitude":25.4358,"longitude":81.8463,"temp":32.3,"humidity":43,"rain":0.0,"pressure":995.1,"uv_index":7.2,"wind_gusts":33.8,"aqi":124,"pm10":70.1,"pm2_5":42.6,"mosquito_risk":0,"arthritis_risk":5,"migraine_risk":7,"frizz_risk":1,"updated_at":"2026-03-16T14:31:15.991459+05:30"},{"city":"Gorakhpur","state":"Uttar Pradesh","latitude":26.7606,"longitude":83.3732,"temp":29.7,"humidity":37,"rain":0.0,"pressure":998.4,"uv_index":6.85,"wind_gusts":33.5,"aqi":143,"pm10":49.8,"pm2_5":20.8,"mosquito_risk":4,"arthritis_risk":5,"migraine_risk":7,"frizz_risk":0,"updated_at":"2026-03-16T14:31:15.991466+05:30"},{"city":"Bareilly","state":"Uttar Pradesh","latitude":28.367,"longitude":79.4304,"temp":29.5,"humidity":37,"rain":0.0,"pressure":986.7,"uv_index":6.3,"wind_gusts":60.8,"aqi":86,"pm10":61.7,"pm2_5":21.9,"mosquito_risk":4,"arthritis_risk":5,"migraine_risk":7,"frizz_risk":0,"updated_at":"2026-03-16T14:31:15.991472+05:30"},{"city":"Aligarh","state":"Uttar Pradesh","latitude":27.8974,"longitude":78.088,"temp":31.1,"humidity":33,"rain":0.0,"pressure":984.9,"uv_index":6.25,"wind_gusts":37.4,"aqi":664,"pm10":763.7,"pm2_5":89.2,"mosquito_risk":0,"arthritis_risk":5,"migraine_risk":7,"frizz_risk":0,"updated_at":"2026-03-16T14:31:15.991479+05:30"},{"city":"Moradabad","state":"Uttar Pradesh","latitude":28.8386,"longitude":78.7733,"temp":29.7,"humidity":31,"rain":0.0,"pressure":983.3,"uv_index":6.15,"wind_gusts":69.1,"aqi":97,"pm10":61.0,"pm2_5":19.9,"mosquito_risk":4,"arthritis_risk":5,"migraine_risk":7,"frizz_risk":0,"updated_at":"2026-03-16T14:31:15.991485+05:30"},{"city":"Saharanpur","state":"Uttar Pradesh","latitude":29.9637,"longitude":77.546,"temp":25.6,"humidity":42,"rain":0.0,"pressure":976.3,"uv_index":5.75,"wind_gusts":41.8,"aqi":79,"pm10":77.3,"pm2_5":22.6,"mosquito_risk":4,"arthritis_risk":5,"migraine_risk":3,"frizz_risk":0,"updated_at":"2026-03-16T14:31:15.991491+05:30"},{"city":"Jhansi","state":"Uttar Pradesh","latitude":25.4484,"longitude":78.5685,"temp":34.8,"humidity":22,"rain":0.0,"pressure":977.2,"uv_index":7.15,"wind_gusts":27.4,"aqi":74,"pm10":111.5,"pm2_5":19.8,"mosquito_risk":0,"arthritis_risk":5,"migraine_risk":7,"frizz_risk":0,"updated_at":"2026-03-16T14:31:19.341292+05:30"},{"city":"Surat","state":"Gujarat","latitude":21.1702,"longitude":72.8311,"temp":29.8,"humidity":65,"rain":0.0,"pressure":1007.2,"uv_index":7.35,"wind_gusts":23.4,"aqi":110,"pm10":84.1,"pm2_5":44.8,"mosquito_risk":7,"arthritis_risk":5,"migraine_risk":4,"frizz_risk":1,"updated_at":"2026-03-16T14:31:19.341322+05:30"},{"city":"Vadodara","state":"Gujarat","latitude":22.3072,"longitude":73.1812,"temp":37.0,"humidity":24,"rain":0.0,"pressure":1003.7,"uv_index":7.05,"wind_gusts":24.8,"aqi":80,"pm10":46.0,"pm2_5":18.1,"mosquito_risk":0,"arthritis_risk":5,"migraine_risk":7,"frizz_risk":0,"updated_at":"2026-03-16T14:31:19.341333+05:30"},{"city":"Rajkot","state":"Gujarat","latitude":22.3039,"longitude":70.8022,"temp":36.9,"humidity":12,"rain":0.0,"pressure":993.7,"uv_index":7.3,"wind_gusts":28.4,"aqi":66,"pm10":38.0,"pm2_5":12.6,"mosquito_risk":0,"arthritis_risk":5,"migraine_risk":10,"frizz_risk":0,"updated_at":"2026-03-16T14:31:19.341341+05:30"},{"city":"Thane","state":"Maharashtra","latitude":19.2183,"longitude":72.9781,"temp":31.1,"humidity":49,"rain":0.0,"pressure":1008.2,"uv_index":7.7,"wind_gusts":31.3,"aqi":105,"pm10":117.6,"pm2_5":55.2,"mosquito_risk":0,"arthritis_risk":0,"migraine_risk":4,"frizz_risk":1,"updated_at":"2026-03-16T14:31:19.341348+05:30"},{"city":"Nagpur","state":"Maharashtra","latitude":21.1458,"longitude":79.0882,"temp":36.1,"humidity":19,"rain":0.0,"pressure":972.4,"uv_index":7.95,"wind_gusts":18.4,"aqi":122,"pm10":38.3,"pm2_5":25.1,"mosquito_risk":0,"arthritis_risk":5,"migraine_risk":10,"frizz_risk":0,"updated_at":"2026-03-16T14:31:19.341355+05:30"},{"city":"Nashik","state":"Maharashtra","latitude":19.9975,"longitude":73.7898,"temp":32.6,"humidity":26,"rain":0.0,"pressure":945.9,"uv_index":7.9,"wind_gusts":25.2,"aqi":78,"pm10":45.9,"pm2_5":16.0,"mosquito_risk":0,"arthritis_risk":5,"migraine_risk":7,"frizz_risk":0,"updated_at":"2026-03-16T14:31:19.341362+05:30"},{"city":"Aurangabad","state":"Maharashtra","latitude":19.8762,"longitude":75.3433,"temp":34.8,"humidity":17,"rain":0.0,"pressure":944.1,"uv_index":8.45,"wind_gusts":25.9,"aqi":76,"pm10":33.5,"pm2_5":15.3,"mosquito_risk":0,"arthritis_risk":5,"migraine_risk":7,"frizz_risk":0,"updated_at":"2026-03-16T14:31:19.341368+05:30"},{"city":"Solapur","state":"Maharashtra","latitude":17.6599,"longitude":75.9064,"temp":35.2,"humidity":17,"rain":0.0,"pressure":957.1,"uv_index":8.65,"wind_gusts":22.7,"aqi":102,"pm10":43.2,"pm2_5":31.0,"mosquito_risk":0,"arthritis_risk":5,"migraine_risk":10,"frizz_risk":0,"updated_at":"2026-03-16T14:31:19.341375+05:30"},{"city":"Kolhapur","state":"Maharashtra","latitude":16.705,"longitude":74.2433,"temp":32.5,"humidity":27,"rain":0.0,"pressure":948.3,"uv_index":8.75,"wind_gusts":39.6,"aqi":101,"pm10":33.9,"pm2_5":26.3,"mosquito_risk":0,"arthritis_risk":5,"migraine_risk":7,"frizz_risk":0,"updated_at":"2026-03-16T14:31:19.341382+05:30"},{"city":"Goa","state":"Goa","latitude":15.2993,"longitude":74.124,"temp":31.1,"humidity":62,"rain":0.0,"pressure":998.1,"uv_index":8.75,"wind_gusts":33.5,"aqi":103,"pm10":42.5,"pm2_5":21.7,"mosquito_risk":3,"arthritis_risk":5,"migraine_risk":7,"frizz_risk":1,"updated_at":"2026-03-16T14:31:19.341389+05:30"},{"city":"Jodhpur","state":"Rajasthan","latitude":26.2389,"longitude":73.0243,"temp":36.7,"humidity":12,"rain":0.0,"pressure":981.0,"uv_index":7.2,"wind_gusts":38.2,"aqi":90,"pm10":107.3,"pm2_5":19.5,"mosquito_risk":0,"arthritis_risk":5,"migraine_risk":10,"frizz_risk":0,"updated_at":"2026-03-16T14:31:19.341396+05:30"},{"city":"Udaipur","state":"Rajasthan","latitude":24.5854,"longitude":73.7125,"temp":33.8,"humidity":13,"rain":0.0,"pressure":946.0,"uv_index":7.85,"wind_gusts":32.4,"aqi":42,"pm10":32.4,"pm2_5":9.1,"mosquito_risk":0,"arthritis_risk":5,"migraine_risk":7,"frizz_risk":0,"updated_at":"2026-03-16T14:31:19.341403+05:30"},{"city":"Kota","state":"Rajasthan","latitude":25.2138,"longitude":75.8648,"temp":35.9,"humidity":14,"rain":0.0,"pressure":977.5,"uv_index":7.25,"wind_gusts":22.0,"aqi":58,"pm10":93.8,"pm2_5":16.7,"mosquito_risk":0,"arthritis_risk":5,"migraine_risk":10,"frizz_risk":0,"updated_at":"2026-03-16T14:31:19.341410+05:30"},{"city":"Bikaner","state":"Rajasthan","latitude":28.0229,"longitude":73.3119,"temp":33.1,"humidity":12,"rain":0.0,"pressure":980.6,"uv_index":6.9,"wind_gusts":31.3,"aqi":46,"pm10":46.6,"pm2_5":15.9,"mosquito_risk":0,"arthritis_risk":5,"migraine_risk":7,"frizz_risk":1,"updated_at":"2026-03-16T14:31:19.341417+05:30"},{"city":"Ajmer","state":"Rajasthan","latitude":26.4499,"longitude":74.6399,"temp":33.7,"humidity":13,"rain":0.0,"pressure":953.6,"uv_index":7.15,"wind_gusts":35.3,"aqi":61,"pm10":50.2,"pm2_5":11.4,"mosquito_risk":0,"arthritis_risk":5,"migraine_risk":7,"frizz_risk":0,"updated_at":"2026-03-16T14:31:19.341423+05:30"},{"city":"Gwalior","state":"Madhya Pradesh","latitude":26.2183,"longitude":78.1828,"temp":31.2,"humidity":41,"rain":0.0,"pressure":982.8,"uv_index":6.8,"wind_gusts":26.6,"aqi":86,"pm10":82.9,"pm2_5":17.2,"mosquito_risk":0,"arthritis_risk":5,"migraine_risk":7,"frizz_risk":1,"updated_at":"2026-03-16T14:31:19.341430+05:30"},{"city":"Indore","state":"Madhya Pradesh","latitude":22.7196,"longitude":75.8577,"temp":33.8,"humidity":22,"rain":0.0,"pressure":948.0,"uv_index":7.75,"wind_gusts":33.1,"aqi":59,"pm10":29.3,"pm2_5":10.9,"mosquito_risk":0,"arthritis_risk":5,"migraine_risk":7,"frizz_risk":0,"updated_at":"2026-03-16T14:31:19.341437+05:30"},{"city":"Bhopal","state":"Madhya Pradesh","latitude":23.2599,"longitude":77.4126,"temp":34.8,"humidity":15,"rain":0.0,"pressure":953.5,"uv_index":7.65,"wind_gusts":32.4,"aqi":51,"pm10":21.2,"pm2_5":8.8,"mosquito_risk":0,"arthritis_risk":5,"migraine_risk":7,"frizz_risk":0,"updated_at":"2026-03-16T14:31:19.341443+05:30"},{"city":"Jabalpur","state":"Madhya Pradesh","latitude":23.1815,"longitude":79.9864,"temp":35.3,"humidity":16,"rain":0.0,"pressure":960.8,"uv_index":7.8,"wind_gusts":37.4,"aqi":66,"pm10":22.7,"pm2_5":11.6,"mosquito_risk":0,"arthritis_risk":5,"migraine_risk":10,"frizz_risk":0,"updated_at":"2026-03-16T14:31:19.341450+05:30"},{"city":"Ujjain","state":"Madhya Pradesh","latitude":23.1765,"longitude":75.7885,"temp":33.4,"humidity":23,"rain":0.0,"pressure":953.7,"uv_index":7.65,"wind_gusts":32.0,"aqi":60,"pm10":22.3,"pm2_5":8.9,"mosquito_risk":0,"arthritis_risk":5,"migraine_risk":7,"frizz_risk":0,"updated_at":"2026-03-16T14:31:19.341458+05:30"},{"city":"Visakhapatnam","state":"Andhra Pradesh","latitude":17.6868,"longitude":83.2185,"temp":31.6,"humidity":49,"rain":0.0,"pressure":1004.6,"uv_index":8.7,"wind_gusts":39.2,"aqi":63,"pm10":16.3,"pm2_5":11.5,"mosquito_risk":0,"arthritis_risk":5,"migraine_risk":4,"frizz_risk":1,"updated_at":"2026-03-16T14:31:19.341464+05:30"},{"city":"Vijayawada","state":"Andhra Pradesh","latitude":16.5062,"longitude":80.648,"temp":32.5,"humidity":49,"rain":0.0,"pressure":1003.3,"uv_index":8.75,"wind_gusts":25.9,"aqi":51,"pm10":10.2,"pm2_5":7.1,"mosquito_risk":0,"arthritis_risk":5,"migraine_risk":4,"frizz_risk":1,"updated_at":"2026-03-16T14:31:19.341471+05:30"},{"city":"Guntur","state":"Andhra Pradesh","latitude":16.3067,"longitude":80.4365,"temp":33.0,"humidity":46,"rain":0.0,"pressure":1004.4,"uv_index":8.75,"wind_gusts":28.1,"aqi":50,"pm10":11.4,"pm2_5":7.3,"mosquito_risk":0,"arthritis_risk":5,"migraine_risk":4,"frizz_risk":1,"updated_at":"2026-03-16T14:31:19.341477+05:30"},{"city":"Nellore","state":"Andhra Pradesh","latitude":14.4426,"longitude":79.9865,"temp":34.6,"humidity":39,"rain":0.0,"pressure":1006.0,"uv_index":8.95,"wind_gusts":31.3,"aqi":44,"pm10":15.0,"pm2_5":13.3,"mosquito_risk":0,"arthritis_risk":5,"migraine_risk":4,"frizz_risk":1,"updated_at":"2026-03-16T14:31:19.341485+05:30"},{"city":"Kurnool","state":"Andhra Pradesh","latitude":15.8281,"longitude":78.0373,"temp":36.2,"humidity":24,"rain":0.0,"pressure":976.6,"uv_index":8.8,"wind_gusts":24.1,"aqi":81,"pm10":31.3,"pm2_5":23.8,"mosquito_risk":0,"arthritis_risk":5,"migraine_risk":10,"frizz_risk":0,"updated_at":"2026-03-16T14:31:19.341492+05:30"},{"city":"Kakinada","state":"Andhra Pradesh","latitude":16.9891,"longitude":82.2475,"temp":33.6,"humidity":44,"rain":0.0,"pressure":1008.1,"uv_index":8.7,"wind_gusts":27.4,"aqi":50,"pm10":9.5,"pm2_5":6.4,"mosquito_risk":0,"arthritis_risk":0,"migraine_risk":4,"frizz_risk":1,"updated_at":"2026-03-16T14:31:19.341499+05:30"},{"city":"Tirupati","state":"Andhra Pradesh","latitude":13.6288,"longitude":79.4192,"temp":34.2,"humidity":34,"rain":0.0,"pressure":991.6,"uv_index":9.05,"wind_gusts":27.0,"aqi":59,"pm10":10.2,"pm2_5":9.0,"mosquito_risk":0,"arthritis_risk":5,"migraine_risk":7,"frizz_risk":1,"updated_at":"2026-03-16T14:31:19.341505+05:30"},{"city":"Warangal","state":"Telangana","latitude":17.9689,"longitude":79.5941,"temp":32.3,"humidity":47,"rain":0.0,"pressure":979.1,"uv_index":8.1,"wind_gusts":32.0,"aqi":74,"pm10":29.1,"pm2_5":21.5,"mosquito_risk":0,"arthritis_risk":5,"migraine_risk":7,"frizz_risk":1,"updated_at":"2026-03-16T14:31:19.341512+05:30"},{"city":"Nizamabad","state":"Telangana","latitude":18.6725,"longitude":78.0941,"temp":34.8,"humidity":27,"rain":0.0,"pressure":964.6,"uv_index":8.45,"wind_gusts":40.7,"aqi":138,"pm10":46.9,"pm2_5":39.3,"mosquito_risk":0,"arthritis_risk":5,"migraine_risk":7,"frizz_risk":0,"updated_at":"2026-03-16T14:31:19.341518+05:30"},{"city":"Mysore","state":"Karnataka","latitude":12.2958,"longitude":76.6396,"temp":31.6,"humidity":37,"rain":0.0,"pressure":928.4,"uv_index":9.35,"wind_gusts":27.0,"aqi":109,"pm10":32.8,"pm2_5":27.6,"mosquito_risk":0,"arthritis_risk":5,"migraine_risk":7,"frizz_risk":0,"updated_at":"2026-03-16T14:31:19.341525+05:30"},{"city":"Mangalore","state":"Karnataka","latitude":12.9141,"longitude":74.856,"temp":29.0,"humidity":77,"rain":0.0,"pressure":1006.3,"uv_index":9.0,"wind_gusts":19.4,"aqi":95,"pm10":39.1,"pm2_5":34.1,"mosquito_risk":7,"arthritis_risk":5,"migraine_risk":4,"frizz_risk":1,"updated_at":"2026-03-16T14:31:19.341532+05:30"},{"city":"Hubli-Dharwad","state":"Karnataka","latitude":15.3647,"longitude":75.124,"temp":33.9,"humidity":22,"rain":0.0,"pressure":940.8,"uv_index":8.95,"wind_gusts":36.4,"aqi":108,"pm10":45.9,"pm2_5":37.7,"mosquito_risk":0,"arthritis_risk":5,"migraine_risk":7,"frizz_risk":0,"updated_at":"2026-03-16T14:31:19.341538+05:30"},{"city":"Belgaum","state":"Karnataka","latitude":15.8497,"longitude":74.4977,"temp":30.2,"humidity":41,"rain":0.0,"pressure":926.2,"uv_index":9.0,"wind_gusts":36.7,"aqi":94,"pm10":45.8,"pm2_5":35.7,"mosquito_risk":0,"arthritis_risk":5,"migraine_risk":7,"frizz_risk":0,"updated_at":"2026-03-16T14:31:22.692083+05:30"},{"city":"Coimbatore","state":"Tamil Nadu","latitude":11.0168,"longitude":76.9558,"temp":34.3,"humidity":35,"rain":0.0,"pressure":961.1,"uv_index":9.3,"wind_gusts":32.4,"aqi":93,"pm10":25.0,"pm2_5":22.1,"mosquito_risk":0,"arthritis_risk":5,"migraine_risk":7,"frizz_risk":1,"updated_at":"2026-03-16T14:31:22.692113+05:30"},{"city":"Madurai","state":"Tamil Nadu","latitude":9.9252,"longitude":78.1198,"temp":35.8,"humidity":36,"rain":0.0,"pressure":991.8,"uv_index":9.25,"wind_gusts":25.2,"aqi":52,"pm10":11.7,"pm2_5":9.7,"mosquito_risk":0,"arthritis_risk":5,"migraine_risk":10,"frizz_risk":1,"updated_at":"2026-03-16T14:31:22.692124+05:30"},{"city":"Trichy","state":"Tamil Nadu","latitude":10.7905,"longitude":78.7047,"temp":34.8,"humidity":40,"rain":0.0,"pressure":999.0,"uv_index":9.2,"wind_gusts":22.7,"aqi":52,"pm10":16.7,"pm2_5":14.2,"mosquito_risk":0,"arthritis_risk":5,"migraine_risk":7,"frizz_risk":1,"updated_at":"2026-03-16T14:31:22.692132+05:30"},{"city":"Salem","state":"Tamil Nadu","latitude":11.6643,"longitude":78.146,"temp":34.6,"humidity":37,"rain":0.0,"pressure":976.6,"uv_index":9.25,"wind_gusts":15.1,"aqi":63,"pm10":18.8,"pm2_5":16.4,"mosquito_risk":0,"arthritis_risk":5,"migraine_risk":7,"frizz_risk":1,"updated_at":"2026-03-16T14:31:22.692139+05:30"},{"city":"Tirunelveli","state":"Tamil Nadu","latitude":8.7139,"longitude":77.7567,"temp":37.3,"humidity":32,"rain":0.0,"pressure":1001.7,"uv_index":9.25,"wind_gusts":46.1,"aqi":55,"pm10":11.9,"pm2_5":9.7,"mosquito_risk":0,"arthritis_risk":5,"migraine_risk":7,"frizz_risk":1,"updated_at":"2026-03-16T14:31:22.692147+05:30"},{"city":"Vellore","state":"Tamil Nadu","latitude":12.9165,"longitude":79.1325,"temp":34.2,"humidity":36,"rain":0.0,"pressure":984.4,"uv_index":9.15,"wind_gusts":29.2,"aqi":78,"pm10":18.7,"pm2_5":16.9,"mosquito_risk":0,"arthritis_risk":5,"migraine_risk":7,"frizz_risk":1,"updated_at":"2026-03-16T14:31:22.692153+05:30"},{"city":"Erode","state":"Tamil Nadu","latitude":11.341,"longitude":77.7172,"temp":36.4,"humidity":33,"rain":0.0,"pressure":987.8,"uv_index":9.2,"wind_gusts":22.0,"aqi":42,"pm10":14.1,"pm2_5":12.1,"mosquito_risk":0,"arthritis_risk":5,"migraine_risk":10,"frizz_risk":1,"updated_at":"2026-03-16T14:31:22.692198+05:30"},{"city":"Kochi","state":"Kerala","latitude":9.9312,"longitude":76.2673,"temp":28.7,"humidity":77,"rain":0.0,"pressure":1007.8,"uv_index":9.1,"wind_gusts":33.8,"aqi":77,"pm10":22.8,"pm2_5":20.5,"mosquito_risk":7,"arthritis_risk":5,"migraine_risk":4,"frizz_risk":1,"updated_at":"2026-03-16T14:31:22.692209+05:30"},{"city":"Thiruvananthapuram","state":"Kerala","latitude":8.5241,"longitude":76.9366,"temp":28.5,"humidity":77,"rain":0.0,"pressure":1006.9,"uv_index":9.15,"wind_gusts":29.5,"aqi":66,"pm10":16.3,"pm2_5":14.9,"mosquito_risk":7,"arthritis_risk":5,"migraine_risk":4,"frizz_risk":1,"updated_at":"2026-03-16T14:31:22.692217+05:30"},{"city":"Kozhikode","state":"Kerala","latitude":11.2588,"longitude":75.7804,"temp":29.8,"humidity":75,"rain":0.0,"pressure":1007.4,"uv_index":9.0,"wind_gusts":29.9,"aqi":68,"pm10":17.3,"pm2_5":14.8,"mosquito_risk":7,"arthritis_risk":5,"migraine_risk":4,"frizz_risk":1,"updated_at":"2026-03-16T14:31:22.692223+05:30"},{"city":"Thrissur","state":"Kerala","latitude":10.5276,"longitude":76.2144,"temp":32.7,"humidity":60,"rain":0.0,"pressure":1006.3,"uv_index":9.05,"wind_gusts":36.0,"aqi":73,"pm10":22.6,"pm2_5":20.0,"mosquito_risk":0,"arthritis_risk":5,"migraine_risk":4,"frizz_risk":1,"updated_at":"2026-03-16T14:31:22.692231+05:30"},{"city":"Kannur","state":"Kerala","latitude":11.8745,"longitude":75.3704,"temp":31.2,"humidity":64,"rain":0.0,"pressure":1006.9,"uv_index":9.0,"wind_gusts":29.2,"aqi":84,"pm10":27.4,"pm2_5":23.5,"mosquito_risk":3,"arthritis_risk":5,"migraine_risk":4,"frizz_risk":1,"updated_at":"2026-03-16T14:31:22.692238+05:30"},{"city":"Patna","state":"Bihar","latitude":25.5941,"longitude":85.1376,"temp":31.7,"humidity":43,"rain":0.0,"pressure":1000.0,"uv_index":7.5,"wind_gusts":36.0,"aqi":155,"pm10":78.2,"pm2_5":53.3,"mosquito_risk":0,"arthritis_risk":5,"migraine_risk":4,"frizz_risk":1,"updated_at":"2026-03-16T14:31:22.692244+05:30"},{"city":"Gaya","state":"Bihar","latitude":24.7914,"longitude":85.0002,"temp":33.0,"humidity":30,"rain":0.0,"pressure":993.4,"uv_index":7.15,"wind_gusts":33.5,"aqi":151,"pm10":57.2,"pm2_5":29.6,"mosquito_risk":0,"arthritis_risk":5,"migraine_risk":7,"frizz_risk":0,"updated_at":"2026-03-16T14:31:22.692251+05:30"},{"city":"Muzaffarpur","state":"Bihar","latitude":26.1209,"longitude":85.3647,"temp":31.9,"humidity":39,"rain":0.0,"pressure":1000.1,"uv_index":7.5,"wind_gusts":36.4,"aqi":161,"pm10":74.7,"pm2_5":50.9,"mosquito_risk":0,"arthritis_risk":5,"migraine_risk":4,"frizz_risk":1,"updated_at":"2026-03-16T14:31:22.692257+05:30"},{"city":"Bhagalpur","state":"Bihar","latitude":25.2425,"longitude":87.0117,"temp":31.5,"humidity":52,"rain":0.0,"pressure":1000.0,"uv_index":7.55,"wind_gusts":31.7,"aqi":157,"pm10":90.8,"pm2_5":71.0,"mosquito_risk":0,"arthritis_risk":5,"migraine_risk":4,"frizz_risk":1,"updated_at":"2026-03-16T14:31:22.692263+05:30"},{"city":"Ranchi","state":"Jharkhand","latitude":23.3441,"longitude":85.3096,"temp":29.6,"humidity":35,"rain":0.0,"pressure":937.5,"uv_index":7.75,"wind_gusts":51.5,"aqi":147,"pm10":36.2,"pm2_5":28.2,"mosquito_risk":4,"arthritis_risk":5,"migraine_risk":7,"frizz_risk":0,"updated_at":"2026-03-16T14:31:22.692271+05:30"},{"city":"Jamshedpur","state":"Jharkhand","latitude":22.8046,"longitude":86.2029,"temp":27.5,"humidity":62,"rain":0.0,"pressure":991.4,"uv_index":7.95,"wind_gusts":40.7,"aqi":154,"pm10":42.8,"pm2_5":35.9,"mosquito_risk":7,"arthritis_risk":5,"migraine_risk":7,"frizz_risk":1,"updated_at":"2026-03-16T14:31:22.692277+05:30"},{"city":"Dhanbad","state":"Jharkhand","latitude":23.7957,"longitude":86.4304,"temp":31.9,"humidity":34,"rain":0.0,"pressure":979.0,"uv_index":7.6,"wind_gusts":39.2,"aqi":172,"pm10":62.4,"pm2_5":49.6,"mosquito_risk":0,"arthritis_risk":5,"migraine_risk":7,"frizz_risk":0,"updated_at":"2026-03-16T14:31:22.692284+05:30"},{"city":"Bokaro","state":"Jharkhand","latitude":23.6693,"longitude":86.1511,"temp":31.4,"humidity":45,"rain":0.0,"pressure":983.1,"uv_index":7.65,"wind_gusts":36.0,"aqi":162,"pm10":49.7,"pm2_5":37.3,"mosquito_risk":0,"arthritis_risk":5,"migraine_risk":7,"frizz_risk":1,"updated_at":"2026-03-16T14:31:22.692291+05:30"},{"city":"Bhubaneswar","state":"Odisha","latitude":20.2961,"longitude":85.8245,"temp":30.1,"humidity":63,"rain":0.0,"pressure":1002.5,"uv_index":8.5,"wind_gusts":38.5,"aqi":67,"pm10":30.5,"pm2_5":24.4,"mosquito_risk":3,"arthritis_risk":5,"migraine_risk":4,"frizz_risk":1,"updated_at":"2026-03-16T14:31:22.692297+05:30"},{"city":"Cuttack","state":"Odisha","latitude":20.4625,"longitude":85.8828,"temp":27.8,"humidity":71,"rain":0.0,"pressure":1004.9,"uv_index":8.55,"wind_gusts":37.1,"aqi":67,"pm10":30.5,"pm2_5":24.4,"mosquito_risk":7,"arthritis_risk":5,"migraine_risk":4,"frizz_risk":1,"updated_at":"2026-03-16T14:31:22.692303+05:30"},{"city":"Rourkela","state":"Odisha","latitude":22.2604,"longitude":84.8536,"temp":33.8,"humidity":35,"rain":0.0,"pressure":984.7,"uv_index":8.0,"wind_gusts":46.1,"aqi":157,"pm10":51.6,"pm2_5":44.1,"mosquito_risk":0,"arthritis_risk":5,"migraine_risk":7,"frizz_risk":1,"updated_at":"2026-03-16T14:31:22.692310+05:30"},{"city":"Raipur","state":"Chhattisgarh","latitude":21.2514,"longitude":81.6296,"temp":32.1,"humidity":43,"rain":0.0,"pressure":974.9,"uv_index":8.2,"wind_gusts":41.4,"aqi":142,"pm10":40.7,"pm2_5":33.5,"mosquito_risk":0,"arthritis_risk":5,"migraine_risk":7,"frizz_risk":1,"updated_at":"2026-03-16T14:31:22.692316+05:30"},{"city":"Bhilai","state":"Chhattisgarh","latitude":21.1938,"longitude":81.3509,"temp":35.4,"humidity":26,"rain":0.0,"pressure":974.7,"uv_index":8.2,"wind_gusts":40.7,"aqi":133,"pm10":40.6,"pm2_5":32.8,"mosquito_risk":0,"arthritis_risk":5,"migraine_risk":10,"frizz_risk":0,"updated_at":"2026-03-16T14:31:22.692322+05:30"},{"city":"Guwahati","state":"Assam","latitude":26.1158,"longitude":91.7086,"temp":25.5,"humidity":73,"rain":0.0,"pressure":1001.5,"uv_index":6.8,"wind_gusts":37.4,"aqi":82,"pm10":32.7,"pm2_5":26.5,"mosquito_risk":7,"arthritis_risk":5,"migraine_risk":4,"frizz_risk":1,"updated_at":"2026-03-16T14:31:22.692328+05:30"},{"city":"Agartala","state":"Tripura","latitude":23.8315,"longitude":91.2868,"temp":26.5,"humidity":71,"rain":0.0,"pressure":1006.8,"uv_index":5.4,"wind_gusts":33.8,"aqi":64,"pm10":20.0,"pm2_5":16.9,"mosquito_risk":7,"arthritis_risk":5,"migraine_risk":0,"frizz_risk":1,"updated_at":"2026-03-16T14:31:22.692335+05:30"},{"city":"Shillong","state":"Meghalaya","latitude":25.5788,"longitude":91.8933,"temp":17.2,"humidity":65,"rain":0.0,"pressure":856.0,"uv_index":7.85,"wind_gusts":74.2,"aqi":54,"pm10":28.5,"pm2_5":22.7,"mosquito_risk":3,"arthritis_risk":5,"migraine_risk":7,"frizz_risk":0,"updated_at":"2026-03-16T14:31:22.692341+05:30"},{"city":"Imphal","state":"Manipur","latitude":24.817,"longitude":93.9368,"temp":19.8,"humidity":73,"rain":0.0,"pressure":924.3,"uv_index":8.2,"wind_gusts":74.5,"aqi":101,"pm10":46.9,"pm2_5":32.8,"mosquito_risk":3,"arthritis_risk":5,"migraine_risk":7,"frizz_risk":0,"updated_at":"2026-03-16T14:31:22.692348+05:30"},{"city":"Aizawl","state":"Mizoram","latitude":23.7271,"longitude":92.7176,"temp":22.0,"humidity":61,"rain":0.0,"pressure":894.2,"uv_index":8.05,"wind_gusts":61.9,"aqi":86,"pm10":36.0,"pm2_5":27.4,"mosquito_risk":3,"arthritis_risk":5,"migraine_risk":7,"frizz_risk":0,"updated_at":"2026-03-16T14:31:22.692354+05:30"},{"city":"Kohima","state":"Nagaland","latitude":25.6701,"longitude":94.1077,"temp":18.2,"humidity":60,"rain":0.0,"pressure":855.2,"uv_index":7.8,"wind_gusts":105.5,"aqi":79,"pm10":35.9,"pm2_5":24.6,"mosquito_risk":0,"arthritis_risk":5,"migraine_risk":7,"frizz_risk":0,"updated_at":"2026-03-16T14:31:22.692360+05:30"},{"city":"Gangtok","state":"Sikkim","latitude":27.3314,"longitude":88.6138,"temp":18.2,"humidity":55,"rain":0.0,"pressure":837.1,"uv_index":7.75,"wind_gusts":23.4,"aqi":103,"pm10":45.5,"pm2_5":27.0,"mosquito_risk":0,"arthritis_risk":5,"migraine_risk":7,"frizz_risk":0,"updated_at":"2026-03-16T14:31:22.692366+05:30"},{"city":"Siliguri","state":"West Bengal","latitude":26.7271,"longitude":88.3953,"temp":22.8,"humidity":70,"rain":0.0,"pressure":993.6,"uv_index":7.5,"wind_gusts":27.0,"aqi":153,"pm10":57.2,"pm2_5":43.2,"mosquito_risk":3,"arthritis_risk":5,"migraine_risk":7,"frizz_risk":1,"updated_at":"2026-03-16T14:31:26.043311+05:30"},{"city":"Durgapur","state":"West Bengal","latitude":23.5204,"longitude":87.3119,"temp":28.1,"humidity":66,"rain":0.0,"pressure":995.1,"uv_index":7.75,"wind_gusts":45.4,"aqi":159,"pm10":104.8,"pm2_5":93.8,"mosquito_risk":7,"arthritis_risk":5,"migraine_risk":7,"frizz_risk":1,"updated_at":"2026-03-16T14:31:26.043338+05:30"},{"city":"Asansol","state":"West Bengal","latitude":23.6739,"longitude":86.9524,"temp":28.2,"humidity":66,"rain":0.0,"pressure":993.4,"uv_index":7.65,"wind_gusts":43.2,"aqi":164,"pm10":82.4,"pm2_5":70.5,"mosquito_risk":7,"arthritis_risk":5,"migraine_risk":7,"frizz_risk":1,"updated_at":"2026-03-16T14:31:26.043348+05:30"},{"city":"Pondicherry","state":"Puducherry","latitude":11.9139,"longitude":79.8145,"temp":33.6,"humidity":45,"rain":0.0,"pressure":1008.3,"uv_index":9.05,"wind_gusts":31.3,"aqi":32,"pm10":8.9,"pm2_5":6.3,"mosquito_risk":0,"arthritis_risk":0,"migraine_risk":4,"frizz_risk":1,"updated_at":"2026-03-16T14:31:26.043356+05:30"},{"city":"Port Blair","state":"Andaman and Nicobar Islands","latitude":11.6234,"longitude":92.7265,"temp":28.9,"humidity":70,"rain":0.0,"pressure":1007.2,"uv_index":9.0,"wind_gusts":21.2,"aqi":79,"pm10":23.7,"pm2_5":19.6,"mosquito_risk":7,"arthritis_risk":5,"migraine_risk":4,"frizz_risk":1,"updated_at":"2026-03-16T14:31:26.043363+05:30"},{"city":"Haridwar","state":"Uttarakhand","latitude":29.9457,"longitude":78.1642,"temp":27.6,"humidity":34,"rain":0.0,"pressure":974.5,"uv_index":5.85,"wind_gusts":51.8,"aqi":65,"pm10":73.8,"pm2_5":19.7,"mosquito_risk":4,"arthritis_risk":5,"migraine_risk":3,"frizz_risk":0,"updated_at":"2026-03-16T14:31:26.043370+05:30"},{"city":"Rishikesh","state":"Uttarakhand","latitude":30.0869,"longitude":78.2676,"temp":27.0,"humidity":35,"rain":0.0,"pressure":967.3,"uv_index":5.9,"wind_gusts":32.4,"aqi":57,"pm10":74.7,"pm2_5":17.6,"mosquito_risk":4,"arthritis_risk":5,"migraine_risk":3,"frizz_risk":0,"updated_at":"2026-03-16T14:31:26.043377+05:30"},{"city":"Nainital","state":"Uttarakhand","latitude":29.3919,"longitude":79.4542,"temp":20.9,"humidity":34,"rain":0.0,"pressure":806.9,"uv_index":6.7,"wind_gusts":68.8,"aqi":61,"pm10":78.0,"pm2_5":18.7,"mosquito_risk":0,"arthritis_risk":5,"migraine_risk":7,"frizz_risk":0,"updated_at":"2026-03-16T14:31:26.043383+05:30"},{"city":"Mussoorie","state":"Uttarakhand","latitude":30.4599,"longitude":78.0664,"temp":16.6,"humidity":47,"rain":0.0,"pressure":802.1,"uv_index":5.3,"wind_gusts":43.9,"aqi":60,"pm10":76.1,"pm2_5":17.8,"mosquito_risk":0,"arthritis_risk":5,"migraine_risk":3,"frizz_risk":0,"updated_at":"2026-03-16T14:31:26.043389+05:30"},{"city":"Dharamshala","state":"Himachal Pradesh","latitude":32.219,"longitude":76.3234,"temp":13.0,"humidity":68,"rain":0.1,"pressure":866.8,"uv_index":4.3,"wind_gusts":36.0,"aqi":56,"pm10":22.2,"pm2_5":6.8,"mosquito_risk":6,"arthritis_risk":5,"migraine_risk":3,"frizz_risk":0,"updated_at":"2026-03-16T14:31:26.043396+05:30"},{"city":"Dalhousie","state":"Himachal Pradesh","latitude":32.5387,"longitude":75.971,"temp":9.2,"humidity":64,"rain":0.2,"pressure":800.4,"uv_index":4.25,"wind_gusts":39.6,"aqi":64,"pm10":21.8,"pm2_5":12.1,"mosquito_risk":6,"arthritis_risk":5,"migraine_risk":3,"frizz_risk":0,"updated_at":"2026-03-16T14:31:26.043403+05:30"},{"city":"Patiala","state":"Punjab","latitude":30.3398,"longitude":76.3869,"temp":18.5,"humidity":73,"rain":0.0,"pressure":979.8,"uv_index":5.8,"wind_gusts":49.3,"aqi":75,"pm10":40.5,"pm2_5":20.8,"mosquito_risk":3,"arthritis_risk":5,"migraine_risk":3,"frizz_risk":0,"updated_at":"2026-03-16T14:31:26.043409+05:30"},{"city":"Bhatinda","state":"Punjab","latitude":30.211,"longitude":74.9455,"temp":23.8,"humidity":55,"rain":0.0,"pressure":984.3,"uv_index":6.55,"wind_gusts":31.7,"aqi":79,"pm10":141.6,"pm2_5":37.6,"mosquito_risk":0,"arthritis_risk":5,"migraine_risk":7,"frizz_risk":0,"updated_at":"2026-03-16T14:31:26.043414+05:30"},{"city":"Rohtak","state":"Haryana","latitude":28.8955,"longitude":76.6066,"temp":30.9,"humidity":31,"rain":0.0,"pressure":980.5,"uv_index":6.15,"wind_gusts":49.3,"aqi":562,"pm10":1147.4,"pm2_5":138.8,"mosquito_risk":0,"arthritis_risk":5,"migraine_risk":7,"frizz_risk":0,"updated_at":"2026-03-16T14:31:26.043421+05:30"},{"city":"Panipat","state":"Haryana","latitude":29.3909,"longitude":76.9635,"temp":29.9,"humidity":33,"rain":0.0,"pressure":979.5,"uv_index":5.9,"wind_gusts":46.4,"aqi":313,"pm10":1750.9,"pm2_5":180.2,"mosquito_risk":4,"arthritis_risk":5,"migraine_risk":3,"frizz_risk":0,"updated_at":"2026-03-16T14:31:26.043428+05:30"},{"city":"Mathura","state":"Uttar Pradesh","latitude":27.4924,"longitude":77.6737,"temp":32.2,"humidity":31,"rain":0.0,"pressure":986.0,"uv_index":6.4,"wind_gusts":34.2,"aqi":1172,"pm10":629.6,"pm2_5":75.9,"mosquito_risk":0,"arthritis_risk":5,"migraine_risk":7,"frizz_risk":0,"updated_at":"2026-03-16T14:31:26.043435+05:30"},{"city":"Vrindavan","state":"Uttar Pradesh","latitude":27.5823,"longitude":77.7027,"temp":31.6,"humidity":32,"rain":0.0,"pressure":986.4,"uv_index":6.35,"wind_gusts":37.1,"aqi":1172,"pm10":629.6,"pm2_5":75.9,"mosquito_risk":0,"arthritis_risk":5,"migraine_risk":7,"frizz_risk":0,"updated_at":"2026-03-16T14:31:26.043441+05:30"},{"city":"Ayodhya","state":"Uttar Pradesh","latitude":26.7922,"longitude":82.1998,"temp":31.7,"humidity":30,"rain":0.0,"pressure":995.6,"uv_index":6.75,"wind_gusts":33.1,"aqi":120,"pm10":46.8,"pm2_5":26.4,"mosquito_risk":0,"arthritis_risk":5,"migraine_risk":7,"frizz_risk":0,"updated_at":"2026-03-16T14:31:26.043447+05:30"},{"city":"Ratlam","state":"Madhya Pradesh","latitude":23.3315,"longitude":75.0367,"temp":33.9,"humidity":21,"rain":0.0,"pressure":954.6,"uv_index":7.6,"wind_gusts":32.4,"aqi":59,"pm10":22.8,"pm2_5":8.8,"mosquito_risk":0,"arthritis_risk":5,"migraine_risk":7,"frizz_risk":0,"updated_at":"2026-03-16T14:31:26.043453+05:30"},{"city":"Sagar","state":"Madhya Pradesh","latitude":23.8388,"longitude":78.7378,"temp":33.7,"humidity":19,"rain":0.0,"pressure":950.0,"uv_index":7.6,"wind_gusts":29.5,"aqi":47,"pm10":36.9,"pm2_5":11.0,"mosquito_risk":0,"arthritis_risk":5,"migraine_risk":7,"frizz_risk":0,"updated_at":"2026-03-16T14:31:26.043458+05:30"},{"city":"Satna","state":"Madhya Pradesh","latitude":24.6005,"longitude":80.8322,"temp":36.4,"humidity":16,"rain":0.0,"pressure":969.8,"uv_index":7.6,"wind_gusts":38.5,"aqi":84,"pm10":27.8,"pm2_5":13.7,"mosquito_risk":0,"arthritis_risk":5,"migraine_risk":10,"frizz_risk":0,"updated_at":"2026-03-16T14:31:26.043464+05:30"},{"city":"Akola","state":"Maharashtra","latitude":20.7002,"longitude":77.0082,"temp":37.3,"humidity":20,"rain":0.0,"pressure":974.5,"uv_index":8.1,"wind_gusts":22.0,"aqi":73,"pm10":35.7,"pm2_5":19.3,"mosquito_risk":0,"arthritis_risk":5,"migraine_risk":10,"frizz_risk":0,"updated_at":"2026-03-16T14:31:26.043471+05:30"},{"city":"Amravati","state":"Maharashtra","latitude":20.9374,"longitude":77.7796,"temp":37.4,"humidity":16,"rain":0.0,"pressure":966.7,"uv_index":8.05,"wind_gusts":28.8,"aqi":76,"pm10":32.4,"pm2_5":17.8,"mosquito_risk":0,"arthritis_risk":5,"migraine_risk":10,"frizz_risk":0,"updated_at":"2026-03-16T14:31:26.043477+05:30"},{"city":"Latur","state":"Maharashtra","latitude":18.4088,"longitude":76.5604,"temp":33.7,"humidity":21,"rain":0.0,"pressure":940.0,"uv_index":8.55,"wind_gusts":19.4,"aqi":97,"pm10":47.4,"pm2_5":33.3,"mosquito_risk":0,"arthritis_risk":5,"migraine_risk":7,"frizz_risk":0,"updated_at":"2026-03-16T14:31:26.043483+05:30"},{"city":"Nanded","state":"Maharashtra","latitude":19.1383,"longitude":77.3091,"temp":36.3,"humidity":23,"rain":0.0,"pressure":968.3,"uv_index":8.35,"wind_gusts":18.4,"aqi":120,"pm10":37.7,"pm2_5":24.4,"mosquito_risk":0,"arthritis_risk":5,"migraine_risk":10,"frizz_risk":0,"updated_at":"2026-03-16T14:31:26.043489+05:30"},{"city":"Gulbarga","state":"Karnataka","latitude":17.3297,"longitude":76.8343,"temp":34.8,"humidity":26,"rain":0.0,"pressure":958.5,"uv_index":8.65,"wind_gusts":26.6,"aqi":113,"pm10":46.2,"pm2_5":37.5,"mosquito_risk":0,"arthritis_risk":5,"migraine_risk":7,"frizz_risk":0,"updated_at":"2026-03-16T14:31:26.043495+05:30"},{"city":"Bidar","state":"Karnataka","latitude":17.9104,"longitude":77.5199,"temp":30.8,"humidity":42,"rain":0.0,"pressure":936.5,"uv_index":8.6,"wind_gusts":37.4,"aqi":108,"pm10":47.3,"pm2_5":40.0,"mosquito_risk":0,"arthritis_risk":5,"migraine_risk":7,"frizz_risk":1,"updated_at":"2026-03-16T14:31:26.043500+05:30"},{"city":"Hospet","state":"Karnataka","latitude":15.2689,"longitude":76.3909,"temp":31.8,"humidity":38,"rain":0.0,"pressure":955.8,"uv_index":8.9,"wind_gusts":19.1,"aqi":122,"pm10":43.5,"pm2_5":36.1,"mosquito_risk":0,"arthritis_risk":5,"migraine_risk":7,"frizz_risk":0,"updated_at":"2026-03-16T14:31:26.043506+05:30"},{"city":"Tirupur","state":"Tamil Nadu","latitude":11.1085,"longitude":77.3411,"temp":35.7,"humidity":34,"rain":0.0,"pressure":974.3,"uv_index":9.3,"wind_gusts":47.5,"aqi":67,"pm10":18.0,"pm2_5":15.7,"mosquito_risk":0,"arthritis_risk":5,"migraine_risk":10,"frizz_risk":1,"updated_at":"2026-03-16T14:31:26.043512+05:30"},{"city":"Alappuzha","state":"Kerala","latitude":9.4981,"longitude":76.3388,"temp":28.6,"humidity":78,"rain":0.0,"pressure":1007.9,"uv_index":9.1,"wind_gusts":32.8,"aqi":83,"pm10":25.0,"pm2_5":22.6,"mosquito_risk":7,"arthritis_risk":5,"migraine_risk":4,"frizz_risk":1,"updated_at":"2026-03-16T14:31:26.043517+05:30"},{"city":"Munnar","state":"Kerala","latitude":10.0889,"longitude":77.0595,"temp":29.3,"humidity":45,"rain":0.0,"pressure":858.7,"uv_index":9.6,"wind_gusts":35.3,"aqi":70,"pm10":18.5,"pm2_5":16.0,"mosquito_risk":4,"arthritis_risk":5,"migraine_risk":7,"frizz_risk":1,"updated_at":"2026-03-16T14:31:26.043524+05:30"},{"city":"Silchar","state":"Assam","latitude":24.8333,"longitude":92.7789,"temp":24.8,"humidity":74,"rain":0.0,"pressure":1007.2,"uv_index":7.85,"wind_gusts":44.3,"aqi":80,"pm10":27.0,"pm2_5":21.2,"mosquito_risk":3,"arthritis_risk":5,"migraine_risk":4,"frizz_risk":1,"updated_at":"2026-03-16T14:31:26.043530+05:30"},{"city":"Dibrugarh","state":"Assam","latitude":27.4728,"longitude":94.912,"temp":19.6,"humidity":87,"rain":0.0,"pressure":997.2,"uv_index":3.9,"wind_gusts":37.1,"aqi":86,"pm10":29.2,"pm2_5":23.1,"mosquito_risk":3,"arthritis_risk":10,"migraine_risk":3,"frizz_risk":1,"updated_at":"2026-03-16T14:31:26.043536+05:30"}]