[{"city":"Delhi","state":"Delhi","latitude":28.6139,"longitude":77.209,"temp":29.6,"humidity":32,"rain":0.0,"pressure":988.5,"uv_index":7.15,"wind_gusts":42.1,"aqi":199,"pm10":787.9,"pm2_5":96.6,"mosquito_risk":4,"arthritis_risk":5,"migraine_risk":7,"frizz_risk":0,"updated_at":"2026-04-10T13:16:55.567752+05:30"},{"city":"Mumbai","state":"Maharashtra","latitude":19.076,"longitude":72.8777,"temp":28.1,"humidity":70,"rain":0.0,"pressure":1011.3,"uv_index":7.95,"wind_gusts":25.9,"aqi":97,"pm10":135.5,"pm2_5":43.9,"mosquito_risk":7,"arthritis_risk":0,"migraine_risk":4,"frizz_risk":1,"updated_at":"2026-04-10T13:16:55.567791+05:30"},{"city":"Bangalore","state":"Karnataka","latitude":12.9716,"longitude":77.5946,"temp":34.5,"humidity":31,"rain":0.0,"pressure":914.4,"uv_index":9.65,"wind_gusts":38.2,"aqi":80,"pm10":38.2,"pm2_5":25.8,"mosquito_risk":0,"arthritis_risk":5,"migraine_risk":7,"frizz_risk":0,"updated_at":"2026-04-10T13:16:55.567806+05:30"},{"city":"Hyderabad","state":"Telangana","latitude":17.385,"longitude":78.4867,"temp":38.2,"humidity":20,"rain":0.0,"pressure":956.1,"uv_index":9.15,"wind_gusts":19.1,"aqi":97,"pm10":49.8,"pm2_5":27.6,"mosquito_risk":0,"arthritis_risk":5,"migraine_risk":10,"frizz_risk":0,"updated_at":"2026-04-10T13:16:55.567817+05:30"},{"city":"Chennai","state":"Tamil Nadu","latitude":13.0827,"longitude":80.2707,"temp":35.1,"humidity":54,"rain":0.0,"pressure":1009.2,"uv_index":9.4,"wind_gusts":35.3,"aqi":67,"pm10":26.4,"pm2_5":19.5,"mosquito_risk":0,"arthritis_risk":0,"migraine_risk":7,"frizz_risk":1,"updated_at":"2026-04-10T13:16:55.567825+05:30"},{"city":"Kolkata","state":"West Bengal","latitude":22.5726,"longitude":88.3639,"temp":32.2,"humidity":43,"rain":0.0,"pressure":1008.4,"uv_index":8.7,"wind_gusts":25.6,"aqi":156,"pm10":80.6,"pm2_5":46.4,"mosquito_risk":0,"arthritis_risk":0,"migraine_risk":4,"frizz_risk":1,"updated_at":"2026-04-10T13:16:55.567833+05:30"},{"city":"Pune","state":"Maharashtra","latitude":18.5204,"longitude":73.8567,"temp":36.3,"humidity":25,"rain":0.0,"pressure":951.6,"uv_index":8.55,"wind_gusts":31.7,"aqi":108,"pm10":43.8,"pm2_5":18.3,"mosquito_risk":0,"arthritis_risk":5,"migraine_risk":10,"frizz_risk":0,"updated_at":"2026-04-10T13:16:55.567845+05:30"},{"city":"Ahmedabad","state":"Gujarat","latitude":23.0225,"longitude":72.5714,"temp":36.9,"humidity":16,"rain":0.0,"pressure":1006.8,"uv_index":8.0,"wind_gusts":36.4,"aqi":88,"pm10":36.2,"pm2_5":12.0,"mosquito_risk":0,"arthritis_risk":5,"migraine_risk":7,"frizz_risk":0,"updated_at":"2026-04-10T13:16:55.567853+05:30"},{"city":"Jaipur","state":"Rajasthan","latitude":26.9124,"longitude":75.7873,"temp":30.9,"humidity":22,"rain":0.0,"pressure":966.7,"uv_index":7.75,"wind_gusts":28.1,"aqi":145,"pm10":175.1,"pm2_5":25.8,"mosquito_risk":0,"arthritis_risk":5,"migraine_risk":7,"frizz_risk":0,"updated_at":"2026-04-10T13:16:55.567861+05:30"},{"city":"Lucknow","state":"Uttar Pradesh","latitude":26.8467,"longitude":80.9462,"temp":31.3,"humidity":26,"rain":0.0,"pressure":997.5,"uv_index":7.65,"wind_gusts":43.2,"aqi":89,"pm10":170.0,"pm2_5":31.0,"mosquito_risk":0,"arthritis_risk":5,"migraine_risk":7,"frizz_risk":0,"updated_at":"2026-04-10T13:16:55.567868+05:30"},{"city":"Kanpur","state":"Uttar Pradesh","latitude":26.4499,"longitude":80.3319,"temp":30.4,"humidity":33,"rain":0.0,"pressure":996.5,"uv_index":7.65,"wind_gusts":38.5,"aqi":147,"pm10":558.8,"pm2_5":64.3,"mosquito_risk":0,"arthritis_risk":5,"migraine_risk":7,"frizz_risk":0,"updated_at":"2026-04-10T13:16:55.567876+05:30"},{"city":"Chandigarh","state":"Chandigarh","latitude":30.7333,"longitude":76.7794,"temp":28.3,"humidity":31,"rain":0.0,"pressure":974.5,"uv_index":7.15,"wind_gusts":44.3,"aqi":65,"pm10":12.9,"pm2_5":11.3,"mosquito_risk":4,"arthritis_risk":5,"migraine_risk":7,"frizz_risk":0,"updated_at":"2026-04-10T13:16:55.567902+05:30"},{"city":"Srinagar","state":"Jammu and Kashmir","latitude":34.0837,"longitude":74.7973,"temp":16.1,"humidity":45,"rain":0.0,"pressure":846.6,"uv_index":8.1,"wind_gusts":12.6,"aqi":56,"pm10":14.1,"pm2_5":8.9,"mosquito_risk":0,"arthritis_risk":5,"migraine_risk":7,"frizz_risk":0,"updated_at":"2026-04-10T13:16:55.567912+05:30"},{"city":"Jammu","state":"Jammu and Kashmir","latitude":32.7266,"longitude":74.857,"temp":29.0,"humidity":32,"rain":0.0,"pressure":979.0,"uv_index":7.75,"wind_gusts":37.1,"aqi":71,"pm10":9.6,"pm2_5":6.6,"mosquito_risk":4,"arthritis_risk":5,"migraine_risk":7,"frizz_risk":0,"updated_at":"2026-04-10T13:16:55.567919+05:30"},{"city":"Amritsar","state":"Punjab","latitude":31.634,"longitude":74.8723,"temp":28.3,"humidity":34,"rain":0.0,"pressure":987.9,"uv_index":7.7,"wind_gusts":32.8,"aqi":86,"pm10":18.2,"pm2_5":15.1,"mosquito_risk":4,"arthritis_risk":5,"migraine_risk":7,"frizz_risk":0,"updated_at":"2026-04-10T13:16:55.567927+05:30"},{"city":"Ludhiana","state":"Punjab","latitude":30.901,"longitude":75.8573,"temp":29.1,"humidity":29,"rain":0.0,"pressure":985.3,"uv_index":7.3,"wind_gusts":34.9,"aqi":73,"pm10":20.1,"pm2_5":11.9,"mosquito_risk":4,"arthritis_risk":5,"migraine_risk":7,"frizz_risk":0,"updated_at":"2026-04-10T13:16:55.567934+05:30"},{"city":"Jalandhar","state":"Punjab","latitude":31.326,"longitude":75.5762,"temp":28.6,"humidity":33,"rain":0.0,"pressure":986.6,"uv_index":7.5,"wind_gusts":33.1,"aqi":80,"pm10":42.5,"pm2_5":14.6,"mosquito_risk":4,"arthritis_risk":5,"migraine_risk":7,"frizz_risk":0,"updated_at":"2026-04-10T13:16:55.567944+05:30"},{"city":"Dehradun","state":"Uttarakhand","latitude":30.6284,"longitude":78.0322,"temp":18.3,"humidity":53,"rain":0.0,"pressure":833.0,"uv_index":7.55,"wind_gusts":29.2,"aqi":48,"pm10":6.1,"pm2_5":2.9,"mosquito_risk":0,"arthritis_risk":5,"migraine_risk":7,"frizz_risk":0,"updated_at":"2026-04-10T13:16:55.567951+05:30"},{"city":"Shimla","state":"Himachal Pradesh","latitude":31.1048,"longitude":77.1734,"temp":16.3,"humidity":47,"rain":0.0,"pressure":788.4,"uv_index":7.6,"wind_gusts":50.4,"aqi":71,"pm10":9.1,"pm2_5":4.9,"mosquito_risk":0,"arthritis_risk":5,"migraine_risk":7,"frizz_risk":0,"updated_at":"2026-04-10T13:16:55.567958+05:30"},{"city":"Manali","state":"Himachal Pradesh","latitude":32.2396,"longitude":77.1887,"temp":19.9,"humidity":38,"rain":0.0,"pressure":823.2,"uv_index":9.9,"wind_gusts":28.4,"aqi":113,"pm10":9.2,"pm2_5":6.5,"mosquito_risk":0,"arthritis_risk":5,"migraine_risk":7,"frizz_risk":0,"updated_at":"2026-04-10T13:16:55.567965+05:30"},{"city":"Gurgaon","state":"Haryana","latitude":28.4595,"longitude":77.0266,"temp":29.7,"humidity":32,"rain":0.0,"pressure":987.1,"uv_index":7.25,"wind_gusts":40.0,"aqi":925,"pm10":2138.3,"pm2_5":208.6,"mosquito_risk":4,"arthritis_risk":5,"migraine_risk":7,"frizz_risk":0,"updated_at":"2026-04-10T13:16:55.567971+05:30"},{"city":"Noida","state":"Uttar Pradesh","latitude":28.5355,"longitude":77.391,"temp":29.7,"humidity":33,"rain":0.0,"pressure":990.0,"uv_index":7.15,"wind_gusts":41.4,"aqi":925,"pm10":2138.3,"pm2_5":208.6,"mosquito_risk":4,"arthritis_risk":5,"migraine_risk":7,"frizz_risk":0,"updated_at":"2026-04-10T13:16:55.567977+05:30"},{"city":"Ghaziabad","state":"Uttar Pradesh","latitude":28.6692,"longitude":77.4538,"temp":29.5,"humidity":32,"rain":0.0,"pressure":988.0,"uv_index":7.15,"wind_gusts":42.1,"aqi":138,"pm10":534.6,"pm2_5":74.3,"mosquito_risk":4,"arthritis_risk":5,"migraine_risk":7,"frizz_risk":0,"updated_at":"2026-04-10T13:16:55.567983+05:30"},{"city":"Faridabad","state":"Haryana","latitude":28.4089,"longitude":77.3178,"temp":29.4,"humidity":34,"rain":0.0,"pressure":989.4,"uv_index":7.2,"wind_gusts":40.7,"aqi":925,"pm10":2138.3,"pm2_5":208.6,"mosquito_risk":4,"arthritis_risk":5,"migraine_risk":7,"frizz_risk":0,"updated_at":"2026-04-10T13:16:55.567990+05:30"},{"city":"Meerut","state":"Uttar Pradesh","latitude":28.9845,"longitude":77.7064,"temp":29.5,"humidity":30,"rain":0.0,"pressure":986.4,"uv_index":7.05,"wind_gusts":44.3,"aqi":138,"pm10":534.6,"pm2_5":74.3,"mosquito_risk":4,"arthritis_risk":5,"migraine_risk":7,"frizz_risk":0,"updated_at":"2026-04-10T13:16:55.567996+05:30"},{"city":"Agra","state":"Uttar Pradesh","latitude":27.1767,"longitude":78.0081,"temp":31.1,"humidity":26,"rain":0.0,"pressure":993.6,"uv_index":7.5,"wind_gusts":37.1,"aqi":531,"pm10":1248.0,"pm2_5":115.5,"mosquito_risk":0,"arthritis_risk":5,"migraine_risk":7,"frizz_risk":0,"updated_at":"2026-04-10T13:16:55.568006+05:30"},{"city":"Varanasi","state":"Uttar Pradesh","latitude":25.3176,"longitude":82.9739,"temp":33.3,"humidity":21,"rain":0.0,"pressure":1001.2,"uv_index":8.2,"wind_gusts":41.8,"aqi":88,"pm10":73.1,"pm2_5":19.8,"mosquito_risk":0,"arthritis_risk":5,"migraine_risk":4,"frizz_risk":0,"updated_at":"2026-04-10T13:16:55.568017+05:30"},{"city":"Prayagraj","state":"Uttar Pradesh","latitude":25.4358,"longitude":81.8463,"temp":32.8,"humidity":24,"rain":0.0,"pressure":1000.2,"uv_index":8.05,"wind_gusts":36.0,"aqi":81,"pm10":89.6,"pm2_5":23.3,"mosquito_risk":0,"arthritis_risk":5,"migraine_risk":4,"frizz_risk":0,"updated_at":"2026-04-10T13:16:55.568024+05:30"},{"city":"Gorakhpur","state":"Uttar Pradesh","latitude":26.7606,"longitude":83.3732,"temp":33.3,"humidity":16,"rain":0.0,"pressure":999.4,"uv_index":8.05,"wind_gusts":47.9,"aqi":66,"pm10":53.8,"pm2_5":15.7,"mosquito_risk":0,"arthritis_risk":5,"migraine_risk":7,"frizz_risk":0,"updated_at":"2026-04-10T13:16:55.568033+05:30"},{"city":"Bareilly","state":"Uttar Pradesh","latitude":28.367,"longitude":79.4304,"temp":29.6,"humidity":31,"rain":0.0,"pressure":990.9,"uv_index":7.4,"wind_gusts":39.2,"aqi":69,"pm10":17.3,"pm2_5":16.4,"mosquito_risk":4,"arthritis_risk":5,"migraine_risk":7,"frizz_risk":0,"updated_at":"2026-04-10T13:16:55.568041+05:30"},{"city":"Aligarh","state":"Uttar Pradesh","latitude":27.8974,"longitude":78.088,"temp":30.3,"humidity":28,"rain":0.0,"pressure":990.8,"uv_index":7.3,"wind_gusts":42.5,"aqi":350,"pm10":1289.0,"pm2_5":136.9,"mosquito_risk":0,"arthritis_risk":5,"migraine_risk":7,"frizz_risk":0,"updated_at":"2026-04-10T13:16:55.568048+05:30"},{"city":"Moradabad","state":"Uttar Pradesh","latitude":28.8386,"longitude":78.7733,"temp":29.5,"humidity":33,"rain":0.0,"pressure":987.8,"uv_index":7.2,"wind_gusts":40.7,"aqi":78,"pm10":34.5,"pm2_5":19.7,"mosquito_risk":4,"arthritis_risk":5,"migraine_risk":7,"frizz_risk":0,"updated_at":"2026-04-10T13:16:55.568054+05:30"},{"city":"Saharanpur","state":"Uttar Pradesh","latitude":29.9637,"longitude":77.546,"temp":29.2,"humidity":27,"rain":0.0,"pressure":980.1,"uv_index":6.85,"wind_gusts":56.2,"aqi":82,"pm10":82.9,"pm2_5":19.8,"mosquito_risk":4,"arthritis_risk":5,"migraine_risk":7,"frizz_risk":0,"updated_at":"2026-04-10T13:16:55.568060+05:30"},{"city":"Jhansi","state":"Uttar Pradesh","latitude":25.4484,"longitude":78.5685,"temp":32.7,"humidity":24,"rain":0.0,"pressure":983.5,"uv_index":8.0,"wind_gusts":33.1,"aqi":98,"pm10":133.2,"pm2_5":29.9,"mosquito_risk":0,"arthritis_risk":5,"migraine_risk":7,"frizz_risk":0,"updated_at":"2026-04-10T13:16:58.823078+05:30"},{"city":"Surat","state":"Gujarat","latitude":21.1702,"longitude":72.8311,"temp":35.3,"humidity":31,"rain":0.0,"pressure":1010.0,"uv_index":7.75,"wind_gusts":22.0,"aqi":137,"pm10":93.4,"pm2_5":59.1,"mosquito_risk":0,"arthritis_risk":0,"migraine_risk":7,"frizz_risk":0,"updated_at":"2026-04-10T13:16:58.823111+05:30"},{"city":"Vadodara","state":"Gujarat","latitude":22.3072,"longitude":73.1812,"temp":37.2,"humidity":18,"rain":0.0,"pressure":1008.3,"uv_index":8.0,"wind_gusts":29.5,"aqi":81,"pm10":40.6,"pm2_5":15.8,"mosquito_risk":0,"arthritis_risk":0,"migraine_risk":7,"frizz_risk":0,"updated_at":"2026-04-10T13:16:58.823124+05:30"},{"city":"Rajkot","state":"Gujarat","latitude":22.3039,"longitude":70.8022,"temp":36.5,"humidity":29,"rain":0.0,"pressure":998.2,"uv_index":7.7,"wind_gusts":25.9,"aqi":71,"pm10":50.6,"pm2_5":18.6,"mosquito_risk":0,"arthritis_risk":5,"migraine_risk":10,"frizz_risk":0,"updated_at":"2026-04-10T13:16:58.823134+05:30"},{"city":"Thane","state":"Maharashtra","latitude":19.2183,"longitude":72.9781,"temp":32.8,"humidity":46,"rain":0.0,"pressure":1010.9,"uv_index":7.95,"wind_gusts":37.1,"aqi":97,"pm10":135.5,"pm2_5":43.9,"mosquito_risk":0,"arthritis_risk":0,"migraine_risk":4,"frizz_risk":1,"updated_at":"2026-04-10T13:16:58.823144+05:30"},{"city":"Nagpur","state":"Maharashtra","latitude":21.1458,"longitude":79.0882,"temp":34.2,"humidity":31,"rain":0.0,"pressure":977.3,"uv_index":8.75,"wind_gusts":24.1,"aqi":73,"pm10":62.2,"pm2_5":24.9,"mosquito_risk":0,"arthritis_risk":5,"migraine_risk":7,"frizz_risk":0,"updated_at":"2026-04-10T13:16:58.823152+05:30"},{"city":"Nashik","state":"Maharashtra","latitude":19.9975,"longitude":73.7898,"temp":33.7,"humidity":29,"rain":0.0,"pressure":949.3,"uv_index":8.2,"wind_gusts":28.1,"aqi":84,"pm10":38.6,"pm2_5":18.8,"mosquito_risk":0,"arthritis_risk":5,"migraine_risk":7,"frizz_risk":0,"updated_at":"2026-04-10T13:16:58.823159+05:30"},{"city":"Aurangabad","state":"Maharashtra","latitude":19.8762,"longitude":75.3433,"temp":35.8,"humidity":21,"rain":0.0,"pressure":948.1,"uv_index":8.9,"wind_gusts":28.4,"aqi":67,"pm10":35.2,"pm2_5":17.5,"mosquito_risk":0,"arthritis_risk":5,"migraine_risk":10,"frizz_risk":0,"updated_at":"2026-04-10T13:16:58.823166+05:30"},{"city":"Solapur","state":"Maharashtra","latitude":17.6599,"longitude":75.9064,"temp":38.4,"humidity":22,"rain":0.0,"pressure":959.9,"uv_index":9.0,"wind_gusts":23.4,"aqi":82,"pm10":48.5,"pm2_5":20.1,"mosquito_risk":0,"arthritis_risk":5,"migraine_risk":10,"frizz_risk":0,"updated_at":"2026-04-10T13:16:58.823174+05:30"},{"city":"Kolhapur","state":"Maharashtra","latitude":16.705,"longitude":74.2433,"temp":35.5,"humidity":28,"rain":0.0,"pressure":950.8,"uv_index":9.0,"wind_gusts":35.3,"aqi":89,"pm10":48.3,"pm2_5":21.6,"mosquito_risk":0,"arthritis_risk":5,"migraine_risk":10,"frizz_risk":0,"updated_at":"2026-04-10T13:16:58.823180+05:30"},{"city":"Goa","state":"Goa","latitude":15.2993,"longitude":74.124,"temp":32.9,"humidity":54,"rain":0.0,"pressure":999.9,"uv_index":9.0,"wind_gusts":36.0,"aqi":67,"pm10":97.6,"pm2_5":29.7,"mosquito_risk":0,"arthritis_risk":5,"migraine_risk":7,"frizz_risk":1,"updated_at":"2026-04-10T13:16:58.823188+05:30"},{"city":"Jodhpur","state":"Rajasthan","latitude":26.2389,"longitude":73.0243,"temp":33.6,"humidity":22,"rain":0.0,"pressure":989.8,"uv_index":8.0,"wind_gusts":22.7,"aqi":71,"pm10":65.7,"pm2_5":16.5,"mosquito_risk":0,"arthritis_risk":5,"migraine_risk":7,"frizz_risk":0,"updated_at":"2026-04-10T13:16:58.823196+05:30"},{"city":"Udaipur","state":"Rajasthan","latitude":24.5854,"longitude":73.7125,"temp":32.3,"humidity":17,"rain":0.0,"pressure":953.0,"uv_index":8.55,"wind_gusts":29.9,"aqi":64,"pm10":52.7,"pm2_5":11.3,"mosquito_risk":0,"arthritis_risk":5,"migraine_risk":7,"frizz_risk":0,"updated_at":"2026-04-10T13:16:58.823203+05:30"},{"city":"Kota","state":"Rajasthan","latitude":25.2138,"longitude":75.8648,"temp":32.5,"humidity":23,"rain":0.0,"pressure":985.5,"uv_index":8.0,"wind_gusts":22.0,"aqi":80,"pm10":82.2,"pm2_5":21.7,"mosquito_risk":0,"arthritis_risk":5,"migraine_risk":7,"frizz_risk":0,"updated_at":"2026-04-10T13:16:58.823209+05:30"},{"city":"Bikaner","state":"Rajasthan","latitude":28.0229,"longitude":73.3119,"temp":32.5,"humidity":22,"rain":0.0,"pressure":989.1,"uv_index":7.85,"wind_gusts":19.8,"aqi":63,"pm10":36.2,"pm2_5":14.9,"mosquito_risk":0,"arthritis_risk":5,"migraine_risk":7,"frizz_risk":0,"updated_at":"2026-04-10T13:16:58.823216+05:30"},{"city":"Ajmer","state":"Rajasthan","latitude":26.4499,"longitude":74.6399,"temp":31.8,"humidity":19,"rain":0.0,"pressure":961.5,"uv_index":7.95,"wind_gusts":19.4,"aqi":75,"pm10":50.9,"pm2_5":13.8,"mosquito_risk":0,"arthritis_risk":5,"migraine_risk":7,"frizz_risk":0,"updated_at":"2026-04-10T13:16:58.823223+05:30"},{"city":"Gwalior","state":"Madhya Pradesh","latitude":26.2183,"longitude":78.1828,"temp":30.9,"humidity":28,"rain":0.0,"pressure":989.3,"uv_index":7.75,"wind_gusts":35.3,"aqi":125,"pm10":142.5,"pm2_5":33.6,"mosquito_risk":0,"arthritis_risk":5,"migraine_risk":7,"frizz_risk":0,"updated_at":"2026-04-10T13:16:58.823229+05:30"},{"city":"Indore","state":"Madhya Pradesh","latitude":22.7196,"longitude":75.8577,"temp":33.4,"humidity":20,"rain":0.0,"pressure":953.5,"uv_index":8.45,"wind_gusts":31.0,"aqi":79,"pm10":62.9,"pm2_5":21.4,"mosquito_risk":0,"arthritis_risk":5,"migraine_risk":7,"frizz_risk":0,"updated_at":"2026-04-10T13:16:58.823236+05:30"},{"city":"Bhopal","state":"Madhya Pradesh","latitude":23.2599,"longitude":77.4126,"temp":34.7,"humidity":19,"rain":0.0,"pressure":959.1,"uv_index":8.45,"wind_gusts":30.2,"aqi":76,"pm10":74.3,"pm2_5":20.0,"mosquito_risk":0,"arthritis_risk":5,"migraine_risk":7,"frizz_risk":0,"updated_at":"2026-04-10T13:16:58.823242+05:30"},{"city":"Jabalpur","state":"Madhya Pradesh","latitude":23.1815,"longitude":79.9864,"temp":32.6,"humidity":28,"rain":0.0,"pressure":966.5,"uv_index":8.55,"wind_gusts":24.1,"aqi":78,"pm10":87.5,"pm2_5":23.9,"mosquito_risk":0,"arthritis_risk":5,"migraine_risk":7,"frizz_risk":0,"updated_at":"2026-04-10T13:16:58.823249+05:30"},{"city":"Ujjain","state":"Madhya Pradesh","latitude":23.1765,"longitude":75.7885,"temp":33.4,"humidity":21,"rain":0.0,"pressure":959.4,"uv_index":8.35,"wind_gusts":29.5,"aqi":74,"pm10":58.9,"pm2_5":20.3,"mosquito_risk":0,"arthritis_risk":5,"migraine_risk":7,"frizz_risk":0,"updated_at":"2026-04-10T13:16:58.823257+05:30"},{"city":"Visakhapatnam","state":"Andhra Pradesh","latitude":17.6868,"longitude":83.2185,"temp":34.8,"humidity":57,"rain":0.0,"pressure":1005.4,"uv_index":9.1,"wind_gusts":36.7,"aqi":98,"pm10":52.9,"pm2_5":42.8,"mosquito_risk":0,"arthritis_risk":5,"migraine_risk":4,"frizz_risk":1,"updated_at":"2026-04-10T13:16:58.823264+05:30"},{"city":"Vijayawada","state":"Andhra Pradesh","latitude":16.5062,"longitude":80.648,"temp":38.2,"humidity":39,"rain":0.0,"pressure":1003.8,"uv_index":9.2,"wind_gusts":37.4,"aqi":88,"pm10":38.3,"pm2_5":29.6,"mosquito_risk":0,"arthritis_risk":5,"migraine_risk":7,"frizz_risk":1,"updated_at":"2026-04-10T13:16:58.823271+05:30"},{"city":"Guntur","state":"Andhra Pradesh","latitude":16.3067,"longitude":80.4365,"temp":37.4,"humidity":41,"rain":0.0,"pressure":1005.1,"uv_index":9.2,"wind_gusts":33.8,"aqi":89,"pm10":38.0,"pm2_5":28.0,"mosquito_risk":0,"arthritis_risk":5,"migraine_risk":7,"frizz_risk":1,"updated_at":"2026-04-10T13:16:58.823279+05:30"},{"city":"Nellore","state":"Andhra Pradesh","latitude":14.4426,"longitude":79.9865,"temp":37.8,"humidity":44,"rain":0.0,"pressure":1006.9,"uv_index":9.3,"wind_gusts":34.6,"aqi":74,"pm10":33.1,"pm2_5":28.0,"mosquito_risk":0,"arthritis_risk":5,"migraine_risk":7,"frizz_risk":1,"updated_at":"2026-04-10T13:16:58.823293+05:30"},{"city":"Kurnool","state":"Andhra Pradesh","latitude":15.8281,"longitude":78.0373,"temp":39.1,"humidity":32,"rain":0.0,"pressure":978.2,"uv_index":9.15,"wind_gusts":26.6,"aqi":80,"pm10":39.5,"pm2_5":29.7,"mosquito_risk":0,"arthritis_risk":5,"migraine_risk":10,"frizz_risk":1,"updated_at":"2026-04-10T13:16:58.823300+05:30"},{"city":"Kakinada","state":"Andhra Pradesh","latitude":16.9891,"longitude":82.2475,"temp":38.2,"humidity":40,"rain":0.0,"pressure":1008.7,"uv_index":9.15,"wind_gusts":39.2,"aqi":77,"pm10":31.4,"pm2_5":22.4,"mosquito_risk":0,"arthritis_risk":0,"migraine_risk":7,"frizz_risk":1,"updated_at":"2026-04-10T13:16:58.823307+05:30"},{"city":"Tirupati","state":"Andhra Pradesh","latitude":13.6288,"longitude":79.4192,"temp":35.5,"humidity":46,"rain":0.0,"pressure":993.2,"uv_index":9.15,"wind_gusts":30.2,"aqi":90,"pm10":32.2,"pm2_5":27.9,"mosquito_risk":0,"arthritis_risk":5,"migraine_risk":10,"frizz_risk":1,"updated_at":"2026-04-10T13:16:58.823313+05:30"},{"city":"Warangal","state":"Telangana","latitude":17.9689,"longitude":79.5941,"temp":37.7,"humidity":33,"rain":0.0,"pressure":980.7,"uv_index":9.05,"wind_gusts":23.4,"aqi":123,"pm10":55.6,"pm2_5":30.9,"mosquito_risk":0,"arthritis_risk":5,"migraine_risk":10,"frizz_risk":1,"updated_at":"2026-04-10T13:16:58.823320+05:30"},{"city":"Nizamabad","state":"Telangana","latitude":18.6725,"longitude":78.0941,"temp":36.6,"humidity":27,"rain":0.0,"pressure":968.1,"uv_index":8.95,"wind_gusts":30.2,"aqi":90,"pm10":44.8,"pm2_5":22.4,"mosquito_risk":0,"arthritis_risk":5,"migraine_risk":10,"frizz_risk":0,"updated_at":"2026-04-10T13:16:58.823326+05:30"},{"city":"Mysore","state":"Karnataka","latitude":12.2958,"longitude":76.6396,"temp":35.0,"humidity":32,"rain":0.0,"pressure":930.9,"uv_index":9.55,"wind_gusts":33.5,"aqi":65,"pm10":42.1,"pm2_5":19.2,"mosquito_risk":0,"arthritis_risk":5,"migraine_risk":7,"frizz_risk":0,"updated_at":"2026-04-10T13:16:58.823333+05:30"},{"city":"Mangalore","state":"Karnataka","latitude":12.9141,"longitude":74.856,"temp":28.7,"humidity":84,"rain":0.0,"pressure":1008.3,"uv_index":9.05,"wind_gusts":30.2,"aqi":68,"pm10":58.6,"pm2_5":19.5,"mosquito_risk":7,"arthritis_risk":0,"migraine_risk":4,"frizz_risk":1,"updated_at":"2026-04-10T13:16:58.823340+05:30"},{"city":"Hubli-Dharwad","state":"Karnataka","latitude":15.3647,"longitude":75.124,"temp":37.2,"humidity":24,"rain":0.0,"pressure":943.3,"uv_index":9.2,"wind_gusts":36.0,"aqi":65,"pm10":55.9,"pm2_5":23.3,"mosquito_risk":0,"arthritis_risk":5,"migraine_risk":10,"frizz_risk":0,"updated_at":"2026-04-10T13:16:58.823347+05:30"},{"city":"Belgaum","state":"Karnataka","latitude":15.8497,"longitude":74.4977,"temp":35.0,"humidity":29,"rain":0.0,"pressure":929.0,"uv_index":9.25,"wind_gusts":37.1,"aqi":73,"pm10":48.2,"pm2_5":20.7,"mosquito_risk":0,"arthritis_risk":5,"migraine_risk":7,"frizz_risk":0,"updated_at":"2026-04-10T13:17:02.080557+05:30"},{"city":"Coimbatore","state":"Tamil Nadu","latitude":11.0168,"longitude":76.9558,"temp":36.4,"humidity":36,"rain":0.0,"pressure":963.7,"uv_index":9.5,"wind_gusts":42.5,"aqi":61,"pm10":23.8,"pm2_5":18.7,"mosquito_risk":0,"arthritis_risk":5,"migraine_risk":10,"frizz_risk":1,"updated_at":"2026-04-10T13:17:02.080587+05:30"},{"city":"Madurai","state":"Tamil Nadu","latitude":9.9252,"longitude":78.1198,"temp":36.6,"humidity":39,"rain":0.0,"pressure":994.4,"uv_index":9.4,"wind_gusts":44.6,"aqi":94,"pm10":26.7,"pm2_5":23.8,"mosquito_risk":0,"arthritis_risk":5,"migraine_risk":10,"frizz_risk":1,"updated_at":"2026-04-10T13:17:02.080597+05:30"},{"city":"Trichy","state":"Tamil Nadu","latitude":10.7905,"longitude":78.7047,"temp":37.0,"humidity":38,"rain":0.0,"pressure":1000.9,"uv_index":9.4,"wind_gusts":28.8,"aqi":67,"pm10":21.1,"pm2_5":17.5,"mosquito_risk":0,"arthritis_risk":5,"migraine_risk":7,"frizz_risk":1,"updated_at":"2026-04-10T13:17:02.080606+05:30"},{"city":"Salem","state":"Tamil Nadu","latitude":11.6643,"longitude":78.146,"temp":35.7,"humidity":43,"rain":0.0,"pressure":978.9,"uv_index":9.05,"wind_gusts":24.1,"aqi":77,"pm10":32.2,"pm2_5":27.9,"mosquito_risk":0,"arthritis_risk":5,"migraine_risk":10,"frizz_risk":1,"updated_at":"2026-04-10T13:17:02.080613+05:30"},{"city":"Tirunelveli","state":"Tamil Nadu","latitude":8.7139,"longitude":77.7567,"temp":38.1,"humidity":34,"rain":0.0,"pressure":1004.1,"uv_index":9.35,"wind_gusts":41.8,"aqi":66,"pm10":26.8,"pm2_5":24.1,"mosquito_risk":0,"arthritis_risk":5,"migraine_risk":7,"frizz_risk":1,"updated_at":"2026-04-10T13:17:02.080620+05:30"},{"city":"Vellore","state":"Tamil Nadu","latitude":12.9165,"longitude":79.1325,"temp":36.1,"humidity":42,"rain":0.0,"pressure":986.2,"uv_index":9.5,"wind_gusts":33.8,"aqi":95,"pm10":29.5,"pm2_5":25.7,"mosquito_risk":0,"arthritis_risk":5,"migraine_risk":10,"frizz_risk":1,"updated_at":"2026-04-10T13:17:02.080628+05:30"},{"city":"Erode","state":"Tamil Nadu","latitude":11.341,"longitude":77.7172,"temp":37.3,"humidity":41,"rain":0.0,"pressure":990.1,"uv_index":9.45,"wind_gusts":31.3,"aqi":66,"pm10":28.3,"pm2_5":22.3,"mosquito_risk":0,"arthritis_risk":5,"migraine_risk":10,"frizz_risk":1,"updated_at":"2026-04-10T13:17:02.080635+05:30"},{"city":"Kochi","state":"Kerala","latitude":9.9312,"longitude":76.2673,"temp":30.1,"humidity":79,"rain":0.0,"pressure":1009.7,"uv_index":9.25,"wind_gusts":28.8,"aqi":71,"pm10":31.3,"pm2_5":18.2,"mosquito_risk":3,"arthritis_risk":0,"migraine_risk":4,"frizz_risk":1,"updated_at":"2026-04-10T13:17:02.080642+05:30"},{"city":"Thiruvananthapuram","state":"Kerala","latitude":8.5241,"longitude":76.9366,"temp":29.8,"humidity":78,"rain":0.0,"pressure":1009.1,"uv_index":8.95,"wind_gusts":27.7,"aqi":63,"pm10":38.3,"pm2_5":23.0,"mosquito_risk":7,"arthritis_risk":0,"migraine_risk":4,"frizz_risk":1,"updated_at":"2026-04-10T13:17:02.080650+05:30"},{"city":"Kozhikode","state":"Kerala","latitude":11.2588,"longitude":75.7804,"temp":31.3,"humidity":66,"rain":0.0,"pressure":1009.0,"uv_index":9.15,"wind_gusts":28.8,"aqi":69,"pm10":58.7,"pm2_5":23.1,"mosquito_risk":3,"arthritis_risk":0,"migraine_risk":4,"frizz_risk":1,"updated_at":"2026-04-10T13:17:02.080656+05:30"},{"city":"Thrissur","state":"Kerala","latitude":10.5276,"longitude":76.2144,"temp":35.0,"humidity":55,"rain":0.0,"pressure":1008.1,"uv_index":9.2,"wind_gusts":34.9,"aqi":79,"pm10":34.3,"pm2_5":21.0,"mosquito_risk":0,"arthritis_risk":0,"migraine_risk":4,"frizz_risk":1,"updated_at":"2026-04-10T13:17:02.080664+05:30"},{"city":"Kannur","state":"Kerala","latitude":11.8745,"longitude":75.3704,"temp":32.5,"humidity":64,"rain":0.0,"pressure":1008.4,"uv_index":9.15,"wind_gusts":36.0,"aqi":69,"pm10":60.8,"pm2_5":21.2,"mosquito_risk":3,"arthritis_risk":0,"migraine_risk":4,"frizz_risk":1,"updated_at":"2026-04-10T13:17:02.080674+05:30"},{"city":"Patna","state":"Bihar","latitude":25.5941,"longitude":85.1376,"temp":32.8,"humidity":24,"rain":0.0,"pressure":1002.8,"uv_index":8.35,"wind_gusts":42.5,"aqi":78,"pm10":51.9,"pm2_5":15.7,"mosquito_risk":0,"arthritis_risk":5,"migraine_risk":4,"frizz_risk":0,"updated_at":"2026-04-10T13:17:02.080683+05:30"},{"city":"Gaya","state":"Bihar","latitude":24.7914,"longitude":85.0002,"temp":32.6,"humidity":22,"rain":0.0,"pressure":996.9,"uv_index":8.45,"wind_gusts":40.3,"aqi":83,"pm10":64.5,"pm2_5":17.3,"mosquito_risk":0,"arthritis_risk":5,"migraine_risk":7,"frizz_risk":0,"updated_at":"2026-04-10T13:17:02.080690+05:30"},{"city":"Muzaffarpur","state":"Bihar","latitude":26.1209,"longitude":85.3647,"temp":33.0,"humidity":21,"rain":0.0,"pressure":1002.3,"uv_index":8.35,"wind_gusts":40.0,"aqi":81,"pm10":40.9,"pm2_5":14.4,"mosquito_risk":0,"arthritis_risk":5,"migraine_risk":4,"frizz_risk":0,"updated_at":"2026-04-10T13:17:02.080696+05:30"},{"city":"Bhagalpur","state":"Bihar","latitude":25.2425,"longitude":87.0117,"temp":30.7,"humidity":31,"rain":0.0,"pressure":1003.8,"uv_index":8.4,"wind_gusts":34.9,"aqi":129,"pm10":29.3,"pm2_5":13.0,"mosquito_risk":0,"arthritis_risk":5,"migraine_risk":4,"frizz_risk":0,"updated_at":"2026-04-10T13:17:02.080703+05:30"},{"city":"Ranchi","state":"Jharkhand","latitude":23.3441,"longitude":85.3096,"temp":29.5,"humidity":27,"rain":0.0,"pressure":941.3,"uv_index":9.0,"wind_gusts":38.9,"aqi":71,"pm10":55.1,"pm2_5":15.9,"mosquito_risk":4,"arthritis_risk":5,"migraine_risk":7,"frizz_risk":0,"updated_at":"2026-04-10T13:17:02.080710+05:30"},{"city":"Jamshedpur","state":"Jharkhand","latitude":22.8046,"longitude":86.2029,"temp":32.6,"humidity":32,"rain":0.0,"pressure":993.9,"uv_index":8.85,"wind_gusts":19.1,"aqi":147,"pm10":71.9,"pm2_5":26.3,"mosquito_risk":0,"arthritis_risk":5,"migraine_risk":7,"frizz_risk":0,"updated_at":"2026-04-10T13:17:02.080716+05:30"},{"city":"Dhanbad","state":"Jharkhand","latitude":23.7957,"longitude":86.4304,"temp":32.6,"humidity":22,"rain":0.0,"pressure":982.8,"uv_index":8.75,"wind_gusts":36.4,"aqi":153,"pm10":53.6,"pm2_5":18.6,"mosquito_risk":0,"arthritis_risk":5,"migraine_risk":7,"frizz_risk":0,"updated_at":"2026-04-10T13:17:02.080723+05:30"},{"city":"Bokaro","state":"Jharkhand","latitude":23.6693,"longitude":86.1511,"temp":32.0,"humidity":24,"rain":0.0,"pressure":986.8,"uv_index":8.8,"wind_gusts":38.5,"aqi":140,"pm10":52.7,"pm2_5":17.6,"mosquito_risk":0,"arthritis_risk":5,"migraine_risk":7,"frizz_risk":0,"updated_at":"2026-04-10T13:17:02.080731+05:30"},{"city":"Bhubaneswar","state":"Odisha","latitude":20.2961,"longitude":85.8245,"temp":33.1,"humidity":53,"rain":0.0,"pressure":1005.1,"uv_index":9.0,"wind_gusts":25.9,"aqi":129,"pm10":94.5,"pm2_5":51.8,"mosquito_risk":0,"arthritis_risk":5,"migraine_risk":4,"frizz_risk":1,"updated_at":"2026-04-10T13:17:02.080738+05:30"},{"city":"Cuttack","state":"Odisha","latitude":20.4625,"longitude":85.8828,"temp":34.0,"humidity":47,"rain":0.0,"pressure":1006.9,"uv_index":9.05,"wind_gusts":24.5,"aqi":129,"pm10":94.5,"pm2_5":51.8,"mosquito_risk":0,"arthritis_risk":5,"migraine_risk":4,"frizz_risk":1,"updated_at":"2026-04-10T13:17:02.080746+05:30"},{"city":"Rourkela","state":"Odisha","latitude":22.2604,"longitude":84.8536,"temp":33.6,"humidity":29,"rain":0.0,"pressure":988.4,"uv_index":8.75,"wind_gusts":21.6,"aqi":86,"pm10":82.7,"pm2_5":24.5,"mosquito_risk":0,"arthritis_risk":5,"migraine_risk":7,"frizz_risk":0,"updated_at":"2026-04-10T13:17:02.080752+05:30"},{"city":"Raipur","state":"Chhattisgarh","latitude":21.2514,"longitude":81.6296,"temp":36.5,"humidity":23,"rain":0.0,"pressure":978.1,"uv_index":8.8,"wind_gusts":24.1,"aqi":136,"pm10":67.1,"pm2_5":28.2,"mosquito_risk":0,"arthritis_risk":5,"migraine_risk":10,"frizz_risk":0,"updated_at":"2026-04-10T13:17:02.080759+05:30"},{"city":"Bhilai","state":"Chhattisgarh","latitude":21.1938,"longitude":81.3509,"temp":36.7,"humidity":23,"rain":0.0,"pressure":978.6,"uv_index":8.8,"wind_gusts":22.3,"aqi":122,"pm10":68.9,"pm2_5":29.9,"mosquito_risk":0,"arthritis_risk":5,"migraine_risk":10,"frizz_risk":0,"updated_at":"2026-04-10T13:17:02.080765+05:30"},{"city":"Guwahati","state":"Assam","latitude":26.1158,"longitude":91.7086,"temp":26.5,"humidity":66,"rain":0.0,"pressure":1003.4,"uv_index":8.2,"wind_gusts":32.8,"aqi":72,"pm10":35.6,"pm2_5":23.6,"mosquito_risk":7,"arthritis_risk":5,"migraine_risk":4,"frizz_risk":1,"updated_at":"2026-04-10T13:17:02.080772+05:30"},{"city":"Agartala","state":"Tripura","latitude":23.8315,"longitude":91.2868,"temp":29.6,"humidity":56,"rain":0.0,"pressure":1008.3,"uv_index":8.55,"wind_gusts":26.6,"aqi":155,"pm10":64.0,"pm2_5":43.9,"mosquito_risk":4,"arthritis_risk":0,"migraine_risk":4,"frizz_risk":1,"updated_at":"2026-04-10T13:17:02.080778+05:30"},{"city":"Shillong","state":"Meghalaya","latitude":25.5788,"longitude":91.8933,"temp":16.9,"humidity":48,"rain":0.0,"pressure":856.5,"uv_index":7.05,"wind_gusts":47.9,"aqi":73,"pm10":35.0,"pm2_5":22.6,"mosquito_risk":0,"arthritis_risk":5,"migraine_risk":7,"frizz_risk":0,"updated_at":"2026-04-10T13:17:02.080785+05:30"},{"city":"Imphal","state":"Manipur","latitude":24.817,"longitude":93.9368,"temp":18.7,"humidity":73,"rain":0.0,"pressure":924.2,"uv_index":8.9,"wind_gusts":61.6,"aqi":117,"pm10":31.9,"pm2_5":23.3,"mosquito_risk":3,"arthritis_risk":5,"migraine_risk":7,"frizz_risk":0,"updated_at":"2026-04-10T13:17:02.080792+05:30"},{"city":"Aizawl","state":"Mizoram","latitude":23.7271,"longitude":92.7176,"temp":23.6,"humidity":45,"rain":0.0,"pressure":894.9,"uv_index":8.8,"wind_gusts":58.0,"aqi":77,"pm10":33.9,"pm2_5":15.8,"mosquito_risk":0,"arthritis_risk":5,"migraine_risk":7,"frizz_risk":0,"updated_at":"2026-04-10T13:17:02.080799+05:30"},{"city":"Kohima","state":"Nagaland","latitude":25.6701,"longitude":94.1077,"temp":15.5,"humidity":79,"rain":0.0,"pressure":854.7,"uv_index":8.45,"wind_gusts":64.4,"aqi":80,"pm10":27.5,"pm2_5":20.2,"mosquito_risk":3,"arthritis_risk":5,"migraine_risk":7,"frizz_risk":0,"updated_at":"2026-04-10T13:17:02.080805+05:30"},{"city":"Gangtok","state":"Sikkim","latitude":27.3314,"longitude":88.6138,"temp":16.2,"humidity":68,"rain":0.0,"pressure":837.1,"uv_index":8.4,"wind_gusts":15.5,"aqi":92,"pm10":29.7,"pm2_5":19.6,"mosquito_risk":3,"arthritis_risk":5,"migraine_risk":7,"frizz_risk":0,"updated_at":"2026-04-10T13:17:02.080811+05:30"},{"city":"Siliguri","state":"West Bengal","latitude":26.7271,"longitude":88.3953,"temp":22.0,"humidity":73,"rain":0.0,"pressure":995.8,"uv_index":8.2,"wind_gusts":29.9,"aqi":90,"pm10":49.7,"pm2_5":33.1,"mosquito_risk":3,"arthritis_risk":5,"migraine_risk":7,"frizz_risk":1,"updated_at":"2026-04-10T13:17:05.338417+05:30"},{"city":"Durgapur","state":"West Bengal","latitude":23.5204,"longitude":87.3119,"temp":32.0,"humidity":32,"rain":0.0,"pressure":997.8,"uv_index":8.7,"wind_gusts":24.1,"aqi":154,"pm10":50.6,"pm2_5":19.2,"mosquito_risk":0,"arthritis_risk":5,"migraine_risk":7,"frizz_risk":0,"updated_at":"2026-04-10T13:17:05.338446+05:30"},{"city":"Asansol","state":"West Bengal","latitude":23.6739,"longitude":86.9524,"temp":32.6,"humidity":27,"rain":0.0,"pressure":996.3,"uv_index":8.75,"wind_gusts":31.3,"aqi":142,"pm10":53.1,"pm2_5":19.0,"mosquito_risk":0,"arthritis_risk":5,"migraine_risk":7,"frizz_risk":0,"updated_at":"2026-04-10T13:17:05.338456+05:30"},{"city":"Pondicherry","state":"Puducherry","latitude":11.9139,"longitude":79.8145,"temp":36.7,"humidity":44,"rain":0.0,"pressure":1009.5,"uv_index":8.9,"wind_gusts":33.8,"aqi":67,"pm10":22.9,"pm2_5":17.8,"mosquito_risk":0,"arthritis_risk":0,"migraine_risk":7,"frizz_risk":1,"updated_at":"2026-04-10T13:17:05.338464+05:30"},{"city":"Port Blair","state":"Andaman and Nicobar Islands","latitude":11.6234,"longitude":92.7265,"temp":28.8,"humidity":80,"rain":0.0,"pressure":1008.6,"uv_index":9.15,"wind_gusts":18.4,"aqi":31,"pm10":8.7,"pm2_5":6.2,"mosquito_risk":7,"arthritis_risk":0,"migraine_risk":4,"frizz_risk":1,"updated_at":"2026-04-10T13:17:05.338472+05:30"},{"city":"Haridwar","state":"Uttarakhand","latitude":29.9457,"longitude":78.1642,"temp":28.9,"humidity":34,"rain":0.0,"pressure":978.2,"uv_index":6.95,"wind_gusts":50.8,"aqi":70,"pm10":16.1,"pm2_5":14.3,"mosquito_risk":4,"arthritis_risk":5,"migraine_risk":7,"frizz_risk":0,"updated_at":"2026-04-10T13:17:05.338479+05:30"},{"city":"Rishikesh","state":"Uttarakhand","latitude":30.0869,"longitude":78.2676,"temp":27.8,"humidity":32,"rain":0.0,"pressure":970.8,"uv_index":7.0,"wind_gusts":40.3,"aqi":62,"pm10":10.4,"pm2_5":9.9,"mosquito_risk":4,"arthritis_risk":5,"migraine_risk":7,"frizz_risk":0,"updated_at":"2026-04-10T13:17:05.338487+05:30"},{"city":"Nainital","state":"Uttarakhand","latitude":29.3919,"longitude":79.4542,"temp":20.0,"humidity":55,"rain":0.0,"pressure":808.8,"uv_index":7.85,"wind_gusts":61.9,"aqi":76,"pm10":14.1,"pm2_5":11.7,"mosquito_risk":0,"arthritis_risk":5,"migraine_risk":7,"frizz_risk":0,"updated_at":"2026-04-10T13:17:05.338494+05:30"},{"city":"Mussoorie","state":"Uttarakhand","latitude":30.4599,"longitude":78.0664,"temp":18.5,"humidity":48,"rain":0.0,"pressure":805.8,"uv_index":7.4,"wind_gusts":41.4,"aqi":61,"pm10":12.3,"pm2_5":11.9,"mosquito_risk":0,"arthritis_risk":5,"migraine_risk":7,"frizz_risk":0,"updated_at":"2026-04-10T13:17:05.338501+05:30"},{"city":"Dharamshala","state":"Himachal Pradesh","latitude":32.219,"longitude":76.3234,"temp":20.8,"humidity":53,"rain":0.0,"pressure":873.7,"uv_index":7.6,"wind_gusts":27.0,"aqi":130,"pm10":9.4,"pm2_5":4.7,"mosquito_risk":0,"arthritis_risk":5,"migraine_risk":7,"frizz_risk":0,"updated_at":"2026-04-10T13:17:05.338507+05:30"},{"city":"Dalhousie","state":"Himachal Pradesh","latitude":32.5387,"longitude":75.971,"temp":18.8,"humidity":42,"rain":0.0,"pressure":808.3,"uv_index":7.85,"wind_gusts":19.8,"aqi":60,"pm10":8.8,"pm2_5":7.5,"mosquito_risk":0,"arthritis_risk":5,"migraine_risk":7,"frizz_risk":0,"updated_at":"2026-04-10T13:17:05.338514+05:30"},{"city":"Patiala","state":"Punjab","latitude":30.3398,"longitude":76.3869,"temp":29.2,"humidity":30,"rain":0.0,"pressure":984.2,"uv_index":7.0,"wind_gusts":40.3,"aqi":418,"pm10":983.5,"pm2_5":90.3,"mosquito_risk":4,"arthritis_risk":5,"migraine_risk":7,"frizz_risk":0,"updated_at":"2026-04-10T13:17:05.338520+05:30"},{"city":"Bhatinda","state":"Punjab","latitude":30.211,"longitude":74.9455,"temp":30.3,"humidity":28,"rain":0.0,"pressure":990.8,"uv_index":7.65,"wind_gusts":32.0,"aqi":86,"pm10":24.2,"pm2_5":13.1,"mosquito_risk":0,"arthritis_risk":5,"migraine_risk":7,"frizz_risk":0,"updated_at":"2026-04-10T13:17:05.338526+05:30"},{"city":"Rohtak","state":"Haryana","latitude":28.8955,"longitude":76.6066,"temp":30.8,"humidity":26,"rain":0.0,"pressure":987.7,"uv_index":7.15,"wind_gusts":41.8,"aqi":474,"pm10":1154.8,"pm2_5":117.1,"mosquito_risk":0,"arthritis_risk":5,"migraine_risk":7,"frizz_risk":0,"updated_at":"2026-04-10T13:17:05.338532+05:30"},{"city":"Panipat","state":"Haryana","latitude":29.3909,"longitude":76.9635,"temp":30.2,"humidity":27,"rain":0.0,"pressure":985.9,"uv_index":7.0,"wind_gusts":44.6,"aqi":1047,"pm10":2227.7,"pm2_5":205.4,"mosquito_risk":0,"arthritis_risk":5,"migraine_risk":7,"frizz_risk":0,"updated_at":"2026-04-10T13:17:05.338538+05:30"},{"city":"Mathura","state":"Uttar Pradesh","latitude":27.4924,"longitude":77.6737,"temp":30.7,"humidity":29,"rain":0.0,"pressure":992.8,"uv_index":7.45,"wind_gusts":35.6,"aqi":526,"pm10":1277.8,"pm2_5":119.7,"mosquito_risk":0,"arthritis_risk":5,"migraine_risk":7,"frizz_risk":0,"updated_at":"2026-04-10T13:17:05.338545+05:30"},{"city":"Vrindavan","state":"Uttar Pradesh","latitude":27.5823,"longitude":77.7027,"temp":30.2,"humidity":30,"rain":0.0,"pressure":993.1,"uv_index":7.4,"wind_gusts":40.0,"aqi":526,"pm10":1277.8,"pm2_5":119.7,"mosquito_risk":0,"arthritis_risk":5,"migraine_risk":7,"frizz_risk":0,"updated_at":"2026-04-10T13:17:05.338551+05:30"},{"city":"Ayodhya","state":"Uttar Pradesh","latitude":26.7922,"longitude":82.1998,"temp":32.7,"humidity":19,"rain":0.0,"pressure":998.5,"uv_index":7.8,"wind_gusts":50.4,"aqi":73,"pm10":76.6,"pm2_5":19.4,"mosquito_risk":0,"arthritis_risk":5,"migraine_risk":7,"frizz_risk":0,"updated_at":"2026-04-10T13:17:05.338557+05:30"},{"city":"Ratlam","state":"Madhya Pradesh","latitude":23.3315,"longitude":75.0367,"temp":33.4,"humidity":24,"rain":0.0,"pressure":960.0,"uv_index":8.3,"wind_gusts":32.4,"aqi":66,"pm10":50.5,"pm2_5":17.6,"mosquito_risk":0,"arthritis_risk":5,"migraine_risk":7,"frizz_risk":0,"updated_at":"2026-04-10T13:17:05.338563+05:30"},{"city":"Sagar","state":"Madhya Pradesh","latitude":23.8388,"longitude":78.7378,"temp":34.3,"humidity":16,"rain":0.0,"pressure":955.6,"uv_index":8.4,"wind_gusts":29.5,"aqi":82,"pm10":64.3,"pm2_5":15.4,"mosquito_risk":0,"arthritis_risk":5,"migraine_risk":7,"frizz_risk":0,"updated_at":"2026-04-10T13:17:05.338570+05:30"},{"city":"Satna","state":"Madhya Pradesh","latitude":24.6005,"longitude":80.8322,"temp":33.3,"humidity":19,"rain":0.0,"pressure":975.9,"uv_index":8.45,"wind_gusts":35.3,"aqi":79,"pm10":85.9,"pm2_5":18.0,"mosquito_risk":0,"arthritis_risk":5,"migraine_risk":7,"frizz_risk":0,"updated_at":"2026-04-10T13:17:05.338576+05:30"},{"city":"Akola","state":"Maharashtra","latitude":20.7002,"longitude":77.0082,"temp":38.3,"humidity":19,"rain":0.0,"pressure":978.7,"uv_index":8.7,"wind_gusts":21.6,"aqi":72,"pm10":48.4,"pm2_5":21.6,"mosquito_risk":0,"arthritis_risk":5,"migraine_risk":10,"frizz_risk":0,"updated_at":"2026-04-10T13:17:05.338582+05:30"},{"city":"Amravati","state":"Maharashtra","latitude":20.9374,"longitude":77.7796,"temp":37.0,"humidity":22,"rain":0.0,"pressure":971.3,"uv_index":8.7,"wind_gusts":28.4,"aqi":75,"pm10":52.5,"pm2_5":21.1,"mosquito_risk":0,"arthritis_risk":5,"migraine_risk":10,"frizz_risk":0,"updated_at":"2026-04-10T13:17:05.338590+05:30"},{"city":"Latur","state":"Maharashtra","latitude":18.4088,"longitude":76.5604,"temp":34.6,"humidity":30,"rain":0.0,"pressure":943.4,"uv_index":8.95,"wind_gusts":30.2,"aqi":84,"pm10":39.5,"pm2_5":20.8,"mosquito_risk":0,"arthritis_risk":5,"migraine_risk":7,"frizz_risk":0,"updated_at":"2026-04-10T13:17:05.338596+05:30"},{"city":"Nanded","state":"Maharashtra","latitude":19.1383,"longitude":77.3091,"temp":37.3,"humidity":26,"rain":0.0,"pressure":972.0,"uv_index":8.85,"wind_gusts":19.4,"aqi":85,"pm10":39.3,"pm2_5":19.2,"mosquito_risk":0,"arthritis_risk":5,"migraine_risk":10,"frizz_risk":0,"updated_at":"2026-04-10T13:17:05.338602+05:30"},{"city":"Gulbarga","state":"Karnataka","latitude":17.3297,"longitude":76.8343,"temp":38.5,"humidity":22,"rain":0.0,"pressure":961.5,"uv_index":9.05,"wind_gusts":26.3,"aqi":79,"pm10":48.5,"pm2_5":25.6,"mosquito_risk":0,"arthritis_risk":5,"migraine_risk":10,"frizz_risk":0,"updated_at":"2026-04-10T13:17:05.338608+05:30"},{"city":"Bidar","state":"Karnataka","latitude":17.9104,"longitude":77.5199,"temp":36.2,"humidity":24,"rain":0.0,"pressure":939.0,"uv_index":9.05,"wind_gusts":28.8,"aqi":87,"pm10":61.0,"pm2_5":24.1,"mosquito_risk":0,"arthritis_risk":5,"migraine_risk":10,"frizz_risk":0,"updated_at":"2026-04-10T13:17:05.338614+05:30"},{"city":"Hospet","state":"Karnataka","latitude":15.2689,"longitude":76.3909,"temp":36.8,"humidity":31,"rain":0.0,"pressure":957.8,"uv_index":9.25,"wind_gusts":23.4,"aqi":69,"pm10":42.8,"pm2_5":21.5,"mosquito_risk":0,"arthritis_risk":5,"migraine_risk":10,"frizz_risk":1,"updated_at":"2026-04-10T13:17:05.338620+05:30"},{"city":"Tirupur","state":"Tamil Nadu","latitude":11.1085,"longitude":77.3411,"temp":37.6,"humidity":35,"rain":0.0,"pressure":976.7,"uv_index":9.5,"wind_gusts":28.4,"aqi":67,"pm10":27.0,"pm2_5":21.6,"mosquito_risk":0,"arthritis_risk":5,"migraine_risk":10,"frizz_risk":1,"updated_at":"2026-04-10T13:17:05.338626+05:30"},{"city":"Alappuzha","state":"Kerala","latitude":9.4981,"longitude":76.3388,"temp":30.3,"humidity":77,"rain":0.0,"pressure":1009.9,"uv_index":9.2,"wind_gusts":25.9,"aqi":73,"pm10":44.1,"pm2_5":25.4,"mosquito_risk":3,"arthritis_risk":0,"migraine_risk":4,"frizz_risk":1,"updated_at":"2026-04-10T13:17:05.338632+05:30"},{"city":"Munnar","state":"Kerala","latitude":10.0889,"longitude":77.0595,"temp":30.2,"humidity":48,"rain":0.0,"pressure":861.1,"uv_index":8.1,"wind_gusts":28.8,"aqi":71,"pm10":24.7,"pm2_5":22.5,"mosquito_risk":0,"arthritis_risk":5,"migraine_risk":7,"frizz_risk":1,"updated_at":"2026-04-10T13:17:05.338639+05:30"},{"city":"Silchar","state":"Assam","latitude":24.8333,"longitude":92.7789,"temp":26.5,"humidity":64,"rain":0.0,"pressure":1007.6,"uv_index":8.55,"wind_gusts":32.8,"aqi":141,"pm10":48.5,"pm2_5":36.6,"mosquito_risk":7,"arthritis_risk":5,"migraine_risk":4,"frizz_risk":1,"updated_at":"2026-04-10T13:17:05.338646+05:30"},{"city":"Dibrugarh","state":"Assam","latitude":27.4728,"longitude":94.912,"temp":21.7,"humidity":80,"rain":0.0,"pressure":997.5,"uv_index":8.35,"wind_gusts":16.2,"aqi":106,"pm10":42.1,"pm2_5":27.8,"mosquito_risk":3,"arthritis_risk":5,"migraine_risk":7,"frizz_risk":1,"updated_at":"2026-04-10T13:17:05.338652+05:30"}]