[{"city":"Delhi","state":"Delhi","latitude":28.6139,"longitude":77.209,"temp":31.1,"humidity":31,"rain":0.0,"pressure":979.9,"uv_index":7.35,"wind_gusts":34.6,"aqi":383,"pm10":560.7,"pm2_5":99.7,"mosquito_risk":0,"arthritis_risk":5,"migraine_risk":7,"frizz_risk":0,"updated_at":"2026-04-22T22:35:29.709647+05:30"},{"city":"Mumbai","state":"Maharashtra","latitude":19.076,"longitude":72.8777,"temp":29.8,"humidity":68,"rain":0.0,"pressure":1007.5,"uv_index":8.05,"wind_gusts":23.8,"aqi":86,"pm10":35.5,"pm2_5":20.9,"mosquito_risk":7,"arthritis_risk":5,"migraine_risk":4,"frizz_risk":1,"updated_at":"2026-04-22T22:35:29.709694+05:30"},{"city":"Bangalore","state":"Karnataka","latitude":12.9716,"longitude":77.5946,"temp":26.8,"humidity":50,"rain":0.0,"pressure":911.3,"uv_index":9.6,"wind_gusts":29.5,"aqi":98,"pm10":19.6,"pm2_5":18.3,"mosquito_risk":4,"arthritis_risk":5,"migraine_risk":7,"frizz_risk":0,"updated_at":"2026-04-22T22:35:29.709710+05:30"},{"city":"Hyderabad","state":"Telangana","latitude":17.385,"longitude":78.4867,"temp":28.5,"humidity":61,"rain":0.0,"pressure":953.1,"uv_index":9.3,"wind_gusts":36.0,"aqi":130,"pm10":50.3,"pm2_5":46.7,"mosquito_risk":7,"arthritis_risk":5,"migraine_risk":7,"frizz_risk":1,"updated_at":"2026-04-22T22:35:29.709721+05:30"},{"city":"Chennai","state":"Tamil Nadu","latitude":13.0827,"longitude":80.2707,"temp":29.0,"humidity":83,"rain":0.0,"pressure":1006.6,"uv_index":9.15,"wind_gusts":32.0,"aqi":30,"pm10":8.7,"pm2_5":6.1,"mosquito_risk":7,"arthritis_risk":5,"migraine_risk":4,"frizz_risk":1,"updated_at":"2026-04-22T22:35:29.709729+05:30"},{"city":"Kolkata","state":"West Bengal","latitude":22.5726,"longitude":88.3639,"temp":28.3,"humidity":88,"rain":0.0,"pressure":1004.3,"uv_index":8.95,"wind_gusts":24.8,"aqi":116,"pm10":38.5,"pm2_5":33.3,"mosquito_risk":7,"arthritis_risk":5,"migraine_risk":4,"frizz_risk":1,"updated_at":"2026-04-22T22:35:29.709742+05:30"},{"city":"Pune","state":"Maharashtra","latitude":18.5204,"longitude":73.8567,"temp":28.2,"humidity":75,"rain":0.0,"pressure":948.3,"uv_index":8.6,"wind_gusts":41.4,"aqi":167,"pm10":48.1,"pm2_5":42.6,"mosquito_risk":7,"arthritis_risk":5,"migraine_risk":7,"frizz_risk":1,"updated_at":"2026-04-22T22:35:29.709750+05:30"},{"city":"Ahmedabad","state":"Gujarat","latitude":23.0225,"longitude":72.5714,"temp":31.5,"humidity":42,"rain":0.0,"pressure":1001.3,"uv_index":8.2,"wind_gusts":26.3,"aqi":56,"pm10":13.4,"pm2_5":9.8,"mosquito_risk":0,"arthritis_risk":5,"migraine_risk":4,"frizz_risk":1,"updated_at":"2026-04-22T22:35:29.709757+05:30"},{"city":"Jaipur","state":"Rajasthan","latitude":26.9124,"longitude":75.7873,"temp":31.3,"humidity":15,"rain":0.0,"pressure":958.9,"uv_index":8.0,"wind_gusts":35.3,"aqi":134,"pm10":246.8,"pm2_5":36.9,"mosquito_risk":0,"arthritis_risk":5,"migraine_risk":7,"frizz_risk":0,"updated_at":"2026-04-22T22:35:29.709765+05:30"},{"city":"Lucknow","state":"Uttar Pradesh","latitude":26.8467,"longitude":80.9462,"temp":30.5,"humidity":40,"rain":0.0,"pressure":990.2,"uv_index":7.85,"wind_gusts":42.8,"aqi":250,"pm10":407.0,"pm2_5":74.7,"mosquito_risk":0,"arthritis_risk":5,"migraine_risk":7,"frizz_risk":0,"updated_at":"2026-04-22T22:35:29.709773+05:30"},{"city":"Kanpur","state":"Uttar Pradesh","latitude":26.4499,"longitude":80.3319,"temp":29.0,"humidity":40,"rain":0.0,"pressure":988.2,"uv_index":7.9,"wind_gusts":40.0,"aqi":415,"pm10":542.0,"pm2_5":86.6,"mosquito_risk":4,"arthritis_risk":5,"migraine_risk":7,"frizz_risk":0,"updated_at":"2026-04-22T22:35:29.709780+05:30"},{"city":"Chandigarh","state":"Chandigarh","latitude":30.7333,"longitude":76.7794,"temp":25.1,"humidity":44,"rain":0.0,"pressure":965.6,"uv_index":7.35,"wind_gusts":32.4,"aqi":112,"pm10":29.7,"pm2_5":24.0,"mosquito_risk":4,"arthritis_risk":5,"migraine_risk":7,"frizz_risk":0,"updated_at":"2026-04-22T22:35:29.709790+05:30"},{"city":"Srinagar","state":"Jammu and Kashmir","latitude":34.0837,"longitude":74.7973,"temp":14.6,"humidity":81,"rain":0.0,"pressure":839.9,"uv_index":8.5,"wind_gusts":15.5,"aqi":70,"pm10":49.6,"pm2_5":37.6,"mosquito_risk":3,"arthritis_risk":10,"migraine_risk":7,"frizz_risk":0,"updated_at":"2026-04-22T22:35:29.709797+05:30"},{"city":"Jammu","state":"Jammu and Kashmir","latitude":32.7266,"longitude":74.857,"temp":28.6,"humidity":51,"rain":0.0,"pressure":969.8,"uv_index":8.1,"wind_gusts":29.2,"aqi":75,"pm10":42.1,"pm2_5":35.4,"mosquito_risk":4,"arthritis_risk":5,"migraine_risk":7,"frizz_risk":1,"updated_at":"2026-04-22T22:35:29.709804+05:30"},{"city":"Amritsar","state":"Punjab","latitude":31.634,"longitude":74.8723,"temp":27.8,"humidity":50,"rain":0.0,"pressure":977.3,"uv_index":8.0,"wind_gusts":30.2,"aqi":123,"pm10":54.4,"pm2_5":41.2,"mosquito_risk":4,"arthritis_risk":5,"migraine_risk":7,"frizz_risk":1,"updated_at":"2026-04-22T22:35:29.709811+05:30"},{"city":"Ludhiana","state":"Punjab","latitude":30.901,"longitude":75.8573,"temp":30.0,"humidity":37,"rain":0.0,"pressure":975.5,"uv_index":7.65,"wind_gusts":30.6,"aqi":96,"pm10":58.7,"pm2_5":33.5,"mosquito_risk":4,"arthritis_risk":5,"migraine_risk":7,"frizz_risk":0,"updated_at":"2026-04-22T22:35:29.709820+05:30"},{"city":"Jalandhar","state":"Punjab","latitude":31.326,"longitude":75.5762,"temp":28.6,"humidity":42,"rain":0.0,"pressure":976.8,"uv_index":7.8,"wind_gusts":32.0,"aqi":119,"pm10":60.3,"pm2_5":38.8,"mosquito_risk":4,"arthritis_risk":5,"migraine_risk":7,"frizz_risk":0,"updated_at":"2026-04-22T22:35:29.709826+05:30"},{"city":"Dehradun","state":"Uttarakhand","latitude":30.6284,"longitude":78.0322,"temp":18.8,"humidity":54,"rain":0.0,"pressure":829.9,"uv_index":7.75,"wind_gusts":31.3,"aqi":121,"pm10":24.9,"pm2_5":18.7,"mosquito_risk":0,"arthritis_risk":5,"migraine_risk":7,"frizz_risk":0,"updated_at":"2026-04-22T22:35:29.709832+05:30"},{"city":"Shimla","state":"Himachal Pradesh","latitude":31.1048,"longitude":77.1734,"temp":17.2,"humidity":40,"rain":0.0,"pressure":785.0,"uv_index":7.85,"wind_gusts":52.6,"aqi":113,"pm10":28.3,"pm2_5":17.6,"mosquito_risk":0,"arthritis_risk":5,"migraine_risk":7,"frizz_risk":0,"updated_at":"2026-04-22T22:35:29.709839+05:30"},{"city":"Manali","state":"Himachal Pradesh","latitude":32.2396,"longitude":77.1887,"temp":20.3,"humidity":70,"rain":0.0,"pressure":822.1,"uv_index":9.8,"wind_gusts":34.2,"aqi":124,"pm10":28.7,"pm2_5":17.0,"mosquito_risk":3,"arthritis_risk":5,"migraine_risk":7,"frizz_risk":0,"updated_at":"2026-04-22T22:35:29.709846+05:30"},{"city":"Gurgaon","state":"Haryana","latitude":28.4595,"longitude":77.0266,"temp":28.4,"humidity":39,"rain":0.0,"pressure":978.5,"uv_index":7.45,"wind_gusts":31.0,"aqi":936,"pm10":549.5,"pm2_5":103.6,"mosquito_risk":4,"arthritis_risk":5,"migraine_risk":7,"frizz_risk":0,"updated_at":"2026-04-22T22:35:29.709853+05:30"},{"city":"Noida","state":"Uttar Pradesh","latitude":28.5355,"longitude":77.391,"temp":31.7,"humidity":30,"rain":0.0,"pressure":981.4,"uv_index":7.4,"wind_gusts":36.0,"aqi":936,"pm10":549.5,"pm2_5":103.6,"mosquito_risk":0,"arthritis_risk":5,"migraine_risk":7,"frizz_risk":0,"updated_at":"2026-04-22T22:35:29.709859+05:30"},{"city":"Ghaziabad","state":"Uttar Pradesh","latitude":28.6692,"longitude":77.4538,"temp":30.4,"humidity":33,"rain":0.0,"pressure":979.4,"uv_index":7.35,"wind_gusts":34.6,"aqi":307,"pm10":510.4,"pm2_5":87.3,"mosquito_risk":0,"arthritis_risk":5,"migraine_risk":7,"frizz_risk":0,"updated_at":"2026-04-22T22:35:29.709865+05:30"},{"city":"Faridabad","state":"Haryana","latitude":28.4089,"longitude":77.3178,"temp":31.4,"humidity":32,"rain":0.0,"pressure":980.8,"uv_index":7.4,"wind_gusts":35.6,"aqi":936,"pm10":549.5,"pm2_5":103.6,"mosquito_risk":0,"arthritis_risk":5,"migraine_risk":7,"frizz_risk":0,"updated_at":"2026-04-22T22:35:29.709871+05:30"},{"city":"Meerut","state":"Uttar Pradesh","latitude":28.9845,"longitude":77.7064,"temp":28.6,"humidity":42,"rain":0.0,"pressure":978.1,"uv_index":7.25,"wind_gusts":38.5,"aqi":307,"pm10":510.4,"pm2_5":87.3,"mosquito_risk":4,"arthritis_risk":5,"migraine_risk":7,"frizz_risk":0,"updated_at":"2026-04-22T22:35:29.709877+05:30"},{"city":"Agra","state":"Uttar Pradesh","latitude":27.1767,"longitude":78.0081,"temp":28.7,"humidity":44,"rain":0.0,"pressure":984.9,"uv_index":7.75,"wind_gusts":38.2,"aqi":706,"pm10":371.6,"pm2_5":94.8,"mosquito_risk":4,"arthritis_risk":5,"migraine_risk":7,"frizz_risk":0,"updated_at":"2026-04-22T22:35:29.709887+05:30"},{"city":"Varanasi","state":"Uttar Pradesh","latitude":25.3176,"longitude":82.9739,"temp":30.2,"humidity":31,"rain":0.0,"pressure":994.6,"uv_index":8.5,"wind_gusts":39.2,"aqi":110,"pm10":122.9,"pm2_5":44.2,"mosquito_risk":0,"arthritis_risk":5,"migraine_risk":7,"frizz_risk":0,"updated_at":"2026-04-22T22:35:29.709894+05:30"},{"city":"Prayagraj","state":"Uttar Pradesh","latitude":25.4358,"longitude":81.8463,"temp":32.3,"humidity":30,"rain":0.0,"pressure":993.1,"uv_index":8.4,"wind_gusts":36.0,"aqi":130,"pm10":154.6,"pm2_5":47.8,"mosquito_risk":0,"arthritis_risk":5,"migraine_risk":7,"frizz_risk":0,"updated_at":"2026-04-22T22:35:29.709901+05:30"},{"city":"Gorakhpur","state":"Uttar Pradesh","latitude":26.7606,"longitude":83.3732,"temp":30.0,"humidity":28,"rain":0.0,"pressure":993.9,"uv_index":8.25,"wind_gusts":38.5,"aqi":116,"pm10":65.2,"pm2_5":32.4,"mosquito_risk":4,"arthritis_risk":5,"migraine_risk":7,"frizz_risk":0,"updated_at":"2026-04-22T22:35:29.709907+05:30"},{"city":"Bareilly","state":"Uttar Pradesh","latitude":28.367,"longitude":79.4304,"temp":28.1,"humidity":43,"rain":0.0,"pressure":983.2,"uv_index":7.6,"wind_gusts":41.4,"aqi":120,"pm10":130.4,"pm2_5":35.9,"mosquito_risk":4,"arthritis_risk":5,"migraine_risk":7,"frizz_risk":0,"updated_at":"2026-04-22T22:35:29.709916+05:30"},{"city":"Aligarh","state":"Uttar Pradesh","latitude":27.8974,"longitude":78.088,"temp":29.7,"humidity":38,"rain":0.0,"pressure":982.5,"uv_index":7.5,"wind_gusts":36.7,"aqi":651,"pm10":609.1,"pm2_5":103.8,"mosquito_risk":4,"arthritis_risk":5,"migraine_risk":7,"frizz_risk":0,"updated_at":"2026-04-22T22:35:29.709922+05:30"},{"city":"Moradabad","state":"Uttar Pradesh","latitude":28.8386,"longitude":78.7733,"temp":27.8,"humidity":44,"rain":0.0,"pressure":980.3,"uv_index":7.45,"wind_gusts":39.2,"aqi":117,"pm10":217.0,"pm2_5":56.2,"mosquito_risk":4,"arthritis_risk":5,"migraine_risk":7,"frizz_risk":0,"updated_at":"2026-04-22T22:35:29.709928+05:30"},{"city":"Saharanpur","state":"Uttar Pradesh","latitude":29.9637,"longitude":77.546,"temp":27.4,"humidity":46,"rain":0.0,"pressure":972.3,"uv_index":7.0,"wind_gusts":34.6,"aqi":93,"pm10":115.7,"pm2_5":38.5,"mosquito_risk":4,"arthritis_risk":5,"migraine_risk":7,"frizz_risk":0,"updated_at":"2026-04-22T22:35:29.709934+05:30"},{"city":"Jhansi","state":"Uttar Pradesh","latitude":25.4484,"longitude":78.5685,"temp":31.4,"humidity":18,"rain":0.0,"pressure":975.9,"uv_index":8.3,"wind_gusts":34.6,"aqi":61,"pm10":14.1,"pm2_5":9.6,"mosquito_risk":0,"arthritis_risk":5,"migraine_risk":7,"frizz_risk":0,"updated_at":"2026-04-22T22:35:32.931406+05:30"},{"city":"Surat","state":"Gujarat","latitude":21.1702,"longitude":72.8311,"temp":28.1,"humidity":73,"rain":0.0,"pressure":1005.7,"uv_index":7.9,"wind_gusts":24.5,"aqi":104,"pm10":41.9,"pm2_5":35.7,"mosquito_risk":7,"arthritis_risk":5,"migraine_risk":4,"frizz_risk":1,"updated_at":"2026-04-22T22:35:32.931439+05:30"},{"city":"Vadodara","state":"Gujarat","latitude":22.3072,"longitude":73.1812,"temp":29.5,"humidity":50,"rain":0.0,"pressure":1003.1,"uv_index":8.15,"wind_gusts":29.9,"aqi":90,"pm10":60.5,"pm2_5":54.1,"mosquito_risk":4,"arthritis_risk":5,"migraine_risk":4,"frizz_risk":1,"updated_at":"2026-04-22T22:35:32.931449+05:30"},{"city":"Rajkot","state":"Gujarat","latitude":22.3039,"longitude":70.8022,"temp":27.7,"humidity":67,"rain":0.0,"pressure":994.3,"uv_index":7.85,"wind_gusts":32.0,"aqi":54,"pm10":26.2,"pm2_5":13.5,"mosquito_risk":7,"arthritis_risk":5,"migraine_risk":7,"frizz_risk":1,"updated_at":"2026-04-22T22:35:32.931457+05:30"},{"city":"Thane","state":"Maharashtra","latitude":19.2183,"longitude":72.9781,"temp":28.1,"humidity":76,"rain":0.0,"pressure":1007.0,"uv_index":8.05,"wind_gusts":37.4,"aqi":86,"pm10":35.5,"pm2_5":20.9,"mosquito_risk":7,"arthritis_risk":5,"migraine_risk":4,"frizz_risk":1,"updated_at":"2026-04-22T22:35:32.931465+05:30"},{"city":"Nagpur","state":"Maharashtra","latitude":21.1458,"longitude":79.0882,"temp":32.3,"humidity":35,"rain":0.0,"pressure":971.5,"uv_index":8.6,"wind_gusts":30.6,"aqi":95,"pm10":26.6,"pm2_5":23.3,"mosquito_risk":0,"arthritis_risk":5,"migraine_risk":7,"frizz_risk":0,"updated_at":"2026-04-22T22:35:32.931472+05:30"},{"city":"Nashik","state":"Maharashtra","latitude":19.9975,"longitude":73.7898,"temp":27.7,"humidity":55,"rain":0.0,"pressure":945.6,"uv_index":8.35,"wind_gusts":36.4,"aqi":140,"pm10":35.7,"pm2_5":29.3,"mosquito_risk":4,"arthritis_risk":5,"migraine_risk":7,"frizz_risk":1,"updated_at":"2026-04-22T22:35:32.931479+05:30"},{"city":"Aurangabad","state":"Maharashtra","latitude":19.8762,"longitude":75.3433,"temp":31.5,"humidity":34,"rain":0.0,"pressure":943.4,"uv_index":9.05,"wind_gusts":31.0,"aqi":109,"pm10":44.4,"pm2_5":37.6,"mosquito_risk":0,"arthritis_risk":5,"migraine_risk":7,"frizz_risk":0,"updated_at":"2026-04-22T22:35:32.931485+05:30"},{"city":"Solapur","state":"Maharashtra","latitude":17.6599,"longitude":75.9064,"temp":30.6,"humidity":53,"rain":0.0,"pressure":956.0,"uv_index":9.1,"wind_gusts":20.5,"aqi":133,"pm10":44.8,"pm2_5":39.5,"mosquito_risk":0,"arthritis_risk":5,"migraine_risk":7,"frizz_risk":1,"updated_at":"2026-04-22T22:35:32.931491+05:30"},{"city":"Kolhapur","state":"Maharashtra","latitude":16.705,"longitude":74.2433,"temp":25.9,"humidity":84,"rain":0.0,"pressure":947.4,"uv_index":9.05,"wind_gusts":34.6,"aqi":113,"pm10":57.0,"pm2_5":54.0,"mosquito_risk":7,"arthritis_risk":5,"migraine_risk":7,"frizz_risk":1,"updated_at":"2026-04-22T22:35:32.931499+05:30"},{"city":"Goa","state":"Goa","latitude":15.2993,"longitude":74.124,"temp":29.2,"humidity":81,"rain":0.0,"pressure":996.4,"uv_index":9.0,"wind_gusts":32.8,"aqi":81,"pm10":45.5,"pm2_5":32.9,"mosquito_risk":7,"arthritis_risk":5,"migraine_risk":7,"frizz_risk":1,"updated_at":"2026-04-22T22:35:32.931505+05:30"},{"city":"Jodhpur","state":"Rajasthan","latitude":26.2389,"longitude":73.0243,"temp":29.3,"humidity":28,"rain":0.0,"pressure":981.7,"uv_index":8.2,"wind_gusts":33.1,"aqi":92,"pm10":171.4,"pm2_5":25.4,"mosquito_risk":4,"arthritis_risk":5,"migraine_risk":7,"frizz_risk":0,"updated_at":"2026-04-22T22:35:32.931512+05:30"},{"city":"Udaipur","state":"Rajasthan","latitude":24.5854,"longitude":73.7125,"temp":27.1,"humidity":31,"rain":0.0,"pressure":946.9,"uv_index":8.75,"wind_gusts":46.8,"aqi":66,"pm10":16.4,"pm2_5":10.8,"mosquito_risk":4,"arthritis_risk":5,"migraine_risk":7,"frizz_risk":0,"updated_at":"2026-04-22T22:35:32.931518+05:30"},{"city":"Kota","state":"Rajasthan","latitude":25.2138,"longitude":75.8648,"temp":31.4,"humidity":22,"rain":0.0,"pressure":977.6,"uv_index":8.25,"wind_gusts":35.3,"aqi":69,"pm10":21.2,"pm2_5":19.6,"mosquito_risk":0,"arthritis_risk":5,"migraine_risk":7,"frizz_risk":0,"updated_at":"2026-04-22T22:35:32.931524+05:30"},{"city":"Bikaner","state":"Rajasthan","latitude":28.0229,"longitude":73.3119,"temp":33.5,"humidity":22,"rain":0.0,"pressure":979.4,"uv_index":8.05,"wind_gusts":32.4,"aqi":77,"pm10":37.3,"pm2_5":11.6,"mosquito_risk":0,"arthritis_risk":5,"migraine_risk":7,"frizz_risk":0,"updated_at":"2026-04-22T22:35:32.931530+05:30"},{"city":"Ajmer","state":"Rajasthan","latitude":26.4499,"longitude":74.6399,"temp":27.6,"humidity":27,"rain":0.0,"pressure":954.2,"uv_index":8.2,"wind_gusts":40.3,"aqi":69,"pm10":18.3,"pm2_5":10.3,"mosquito_risk":4,"arthritis_risk":5,"migraine_risk":7,"frizz_risk":0,"updated_at":"2026-04-22T22:35:32.931536+05:30"},{"city":"Gwalior","state":"Madhya Pradesh","latitude":26.2183,"longitude":78.1828,"temp":30.7,"humidity":27,"rain":0.0,"pressure":980.7,"uv_index":8.0,"wind_gusts":38.2,"aqi":78,"pm10":18.5,"pm2_5":8.6,"mosquito_risk":0,"arthritis_risk":5,"migraine_risk":7,"frizz_risk":0,"updated_at":"2026-04-22T22:35:32.931543+05:30"},{"city":"Indore","state":"Madhya Pradesh","latitude":22.7196,"longitude":75.8577,"temp":27.9,"humidity":40,"rain":0.0,"pressure":947.9,"uv_index":8.65,"wind_gusts":40.0,"aqi":73,"pm10":24.2,"pm2_5":22.5,"mosquito_risk":4,"arthritis_risk":5,"migraine_risk":7,"frizz_risk":0,"updated_at":"2026-04-22T22:35:32.931549+05:30"},{"city":"Bhopal","state":"Madhya Pradesh","latitude":23.2599,"longitude":77.4126,"temp":28.8,"humidity":35,"rain":0.0,"pressure":953.2,"uv_index":8.7,"wind_gusts":38.5,"aqi":72,"pm10":22.2,"pm2_5":20.5,"mosquito_risk":4,"arthritis_risk":5,"migraine_risk":7,"frizz_risk":0,"updated_at":"2026-04-22T22:35:32.931555+05:30"},{"city":"Jabalpur","state":"Madhya Pradesh","latitude":23.1815,"longitude":79.9864,"temp":29.2,"humidity":40,"rain":0.0,"pressure":960.0,"uv_index":8.8,"wind_gusts":33.1,"aqi":80,"pm10":18.3,"pm2_5":16.4,"mosquito_risk":4,"arthritis_risk":5,"migraine_risk":7,"frizz_risk":0,"updated_at":"2026-04-22T22:35:32.931561+05:30"},{"city":"Ujjain","state":"Madhya Pradesh","latitude":23.1765,"longitude":75.7885,"temp":29.0,"humidity":35,"rain":0.0,"pressure":953.8,"uv_index":8.6,"wind_gusts":38.2,"aqi":68,"pm10":24.7,"pm2_5":23.1,"mosquito_risk":4,"arthritis_risk":5,"migraine_risk":7,"frizz_risk":0,"updated_at":"2026-04-22T22:35:32.931568+05:30"},{"city":"Visakhapatnam","state":"Andhra Pradesh","latitude":17.6868,"longitude":83.2185,"temp":27.8,"humidity":86,"rain":0.0,"pressure":1002.5,"uv_index":8.95,"wind_gusts":38.5,"aqi":62,"pm10":22.5,"pm2_5":18.7,"mosquito_risk":7,"arthritis_risk":5,"migraine_risk":4,"frizz_risk":1,"updated_at":"2026-04-22T22:35:32.931574+05:30"},{"city":"Vijayawada","state":"Andhra Pradesh","latitude":16.5062,"longitude":80.648,"temp":28.9,"humidity":75,"rain":0.0,"pressure":1001.9,"uv_index":9.25,"wind_gusts":23.4,"aqi":57,"pm10":14.3,"pm2_5":12.3,"mosquito_risk":7,"arthritis_risk":5,"migraine_risk":4,"frizz_risk":1,"updated_at":"2026-04-22T22:35:32.931580+05:30"},{"city":"Guntur","state":"Andhra Pradesh","latitude":16.3067,"longitude":80.4365,"temp":28.3,"humidity":83,"rain":0.0,"pressure":1003.1,"uv_index":9.25,"wind_gusts":33.1,"aqi":70,"pm10":15.6,"pm2_5":14.0,"mosquito_risk":7,"arthritis_risk":5,"migraine_risk":4,"frizz_risk":1,"updated_at":"2026-04-22T22:35:32.931587+05:30"},{"city":"Nellore","state":"Andhra Pradesh","latitude":14.4426,"longitude":79.9865,"temp":27.8,"humidity":87,"rain":0.0,"pressure":1005.1,"uv_index":9.25,"wind_gusts":32.0,"aqi":47,"pm10":9.0,"pm2_5":6.7,"mosquito_risk":7,"arthritis_risk":5,"migraine_risk":4,"frizz_risk":1,"updated_at":"2026-04-22T22:35:32.931594+05:30"},{"city":"Kurnool","state":"Andhra Pradesh","latitude":15.8281,"longitude":78.0373,"temp":32.5,"humidity":47,"rain":0.0,"pressure":976.0,"uv_index":9.25,"wind_gusts":21.6,"aqi":118,"pm10":44.8,"pm2_5":40.3,"mosquito_risk":0,"arthritis_risk":5,"migraine_risk":7,"frizz_risk":1,"updated_at":"2026-04-22T22:35:32.931601+05:30"},{"city":"Kakinada","state":"Andhra Pradesh","latitude":16.9891,"longitude":82.2475,"temp":28.3,"humidity":84,"rain":0.0,"pressure":1006.6,"uv_index":8.8,"wind_gusts":27.7,"aqi":41,"pm10":13.5,"pm2_5":9.7,"mosquito_risk":7,"arthritis_risk":5,"migraine_risk":4,"frizz_risk":1,"updated_at":"2026-04-22T22:35:32.931608+05:30"},{"city":"Tirupati","state":"Andhra Pradesh","latitude":13.6288,"longitude":79.4192,"temp":29.4,"humidity":65,"rain":0.0,"pressure":991.4,"uv_index":9.35,"wind_gusts":33.8,"aqi":66,"pm10":20.3,"pm2_5":19.3,"mosquito_risk":7,"arthritis_risk":5,"migraine_risk":7,"frizz_risk":1,"updated_at":"2026-04-22T22:35:32.931614+05:30"},{"city":"Warangal","state":"Telangana","latitude":17.9689,"longitude":79.5941,"temp":32.7,"humidity":51,"rain":0.0,"pressure":977.3,"uv_index":9.2,"wind_gusts":22.3,"aqi":127,"pm10":44.9,"pm2_5":42.4,"mosquito_risk":0,"arthritis_risk":5,"migraine_risk":7,"frizz_risk":1,"updated_at":"2026-04-22T22:35:32.931619+05:30"},{"city":"Nizamabad","state":"Telangana","latitude":18.6725,"longitude":78.0941,"temp":31.1,"humidity":46,"rain":0.0,"pressure":963.9,"uv_index":8.9,"wind_gusts":33.5,"aqi":116,"pm10":62.9,"pm2_5":57.2,"mosquito_risk":0,"arthritis_risk":5,"migraine_risk":7,"frizz_risk":1,"updated_at":"2026-04-22T22:35:32.931625+05:30"},{"city":"Mysore","state":"Karnataka","latitude":12.2958,"longitude":76.6396,"temp":25.8,"humidity":80,"rain":0.0,"pressure":927.9,"uv_index":9.45,"wind_gusts":36.7,"aqi":99,"pm10":19.6,"pm2_5":18.2,"mosquito_risk":7,"arthritis_risk":5,"migraine_risk":7,"frizz_risk":1,"updated_at":"2026-04-22T22:35:32.931631+05:30"},{"city":"Mangalore","state":"Karnataka","latitude":12.9141,"longitude":74.856,"temp":30.8,"humidity":80,"rain":0.0,"pressure":1005.4,"uv_index":9.1,"wind_gusts":28.8,"aqi":81,"pm10":31.7,"pm2_5":22.6,"mosquito_risk":3,"arthritis_risk":5,"migraine_risk":4,"frizz_risk":1,"updated_at":"2026-04-22T22:35:32.931637+05:30"},{"city":"Hubli-Dharwad","state":"Karnataka","latitude":15.3647,"longitude":75.124,"temp":27.4,"humidity":61,"rain":0.0,"pressure":940.0,"uv_index":9.2,"wind_gusts":32.4,"aqi":131,"pm10":33.6,"pm2_5":30.4,"mosquito_risk":7,"arthritis_risk":5,"migraine_risk":7,"frizz_risk":1,"updated_at":"2026-04-22T22:35:32.931643+05:30"},{"city":"Belgaum","state":"Karnataka","latitude":15.8497,"longitude":74.4977,"temp":25.7,"humidity":77,"rain":0.0,"pressure":925.3,"uv_index":9.25,"wind_gusts":36.0,"aqi":116,"pm10":42.0,"pm2_5":37.3,"mosquito_risk":7,"arthritis_risk":5,"migraine_risk":7,"frizz_risk":1,"updated_at":"2026-04-22T22:35:36.155250+05:30"},{"city":"Coimbatore","state":"Tamil Nadu","latitude":11.0168,"longitude":76.9558,"temp":26.8,"humidity":79,"rain":0.0,"pressure":961.4,"uv_index":9.35,"wind_gusts":35.6,"aqi":88,"pm10":32.6,"pm2_5":30.9,"mosquito_risk":7,"arthritis_risk":5,"migraine_risk":7,"frizz_risk":1,"updated_at":"2026-04-22T22:35:36.155285+05:30"},{"city":"Madurai","state":"Tamil Nadu","latitude":9.9252,"longitude":78.1198,"temp":29.6,"humidity":72,"rain":0.0,"pressure":993.0,"uv_index":9.3,"wind_gusts":36.7,"aqi":54,"pm10":9.9,"pm2_5":9.3,"mosquito_risk":7,"arthritis_risk":5,"migraine_risk":7,"frizz_risk":1,"updated_at":"2026-04-22T22:35:36.155295+05:30"},{"city":"Trichy","state":"Tamil Nadu","latitude":10.7905,"longitude":78.7047,"temp":29.2,"humidity":77,"rain":0.0,"pressure":999.3,"uv_index":9.2,"wind_gusts":22.3,"aqi":57,"pm10":11.8,"pm2_5":11.0,"mosquito_risk":7,"arthritis_risk":5,"migraine_risk":7,"frizz_risk":1,"updated_at":"2026-04-22T22:35:36.155303+05:30"},{"city":"Salem","state":"Tamil Nadu","latitude":11.6643,"longitude":78.146,"temp":29.1,"humidity":56,"rain":0.0,"pressure":976.4,"uv_index":9.1,"wind_gusts":27.7,"aqi":89,"pm10":28.7,"pm2_5":27.6,"mosquito_risk":4,"arthritis_risk":5,"migraine_risk":7,"frizz_risk":1,"updated_at":"2026-04-22T22:35:36.155311+05:30"},{"city":"Tirunelveli","state":"Tamil Nadu","latitude":8.7139,"longitude":77.7567,"temp":28.6,"humidity":76,"rain":0.0,"pressure":1002.9,"uv_index":9.25,"wind_gusts":37.8,"aqi":78,"pm10":23.7,"pm2_5":22.5,"mosquito_risk":7,"arthritis_risk":5,"migraine_risk":4,"frizz_risk":1,"updated_at":"2026-04-22T22:35:36.155319+05:30"},{"city":"Vellore","state":"Tamil Nadu","latitude":12.9165,"longitude":79.1325,"temp":27.8,"humidity":68,"rain":0.0,"pressure":984.3,"uv_index":9.35,"wind_gusts":30.2,"aqi":73,"pm10":30.5,"pm2_5":29.5,"mosquito_risk":7,"arthritis_risk":5,"migraine_risk":7,"frizz_risk":1,"updated_at":"2026-04-22T22:35:36.155325+05:30"},{"city":"Erode","state":"Tamil Nadu","latitude":11.341,"longitude":77.7172,"temp":31.7,"humidity":48,"rain":0.0,"pressure":987.9,"uv_index":9.2,"wind_gusts":24.8,"aqi":78,"pm10":15.8,"pm2_5":15.0,"mosquito_risk":0,"arthritis_risk":5,"migraine_risk":7,"frizz_risk":1,"updated_at":"2026-04-22T22:35:36.155332+05:30"},{"city":"Kochi","state":"Kerala","latitude":9.9312,"longitude":76.2673,"temp":29.1,"humidity":85,"rain":0.0,"pressure":1008.0,"uv_index":8.9,"wind_gusts":31.3,"aqi":71,"pm10":40.5,"pm2_5":37.5,"mosquito_risk":7,"arthritis_risk":0,"migraine_risk":4,"frizz_risk":1,"updated_at":"2026-04-22T22:35:36.155339+05:30"},{"city":"Thiruvananthapuram","state":"Kerala","latitude":8.5241,"longitude":76.9366,"temp":29.2,"humidity":85,"rain":0.0,"pressure":1007.3,"uv_index":8.95,"wind_gusts":28.1,"aqi":86,"pm10":18.7,"pm2_5":14.0,"mosquito_risk":7,"arthritis_risk":5,"migraine_risk":4,"frizz_risk":1,"updated_at":"2026-04-22T22:35:36.155347+05:30"},{"city":"Kozhikode","state":"Kerala","latitude":11.2588,"longitude":75.7804,"temp":30.2,"humidity":81,"rain":0.0,"pressure":1006.7,"uv_index":9.1,"wind_gusts":32.0,"aqi":66,"pm10":27.4,"pm2_5":22.0,"mosquito_risk":3,"arthritis_risk":5,"migraine_risk":4,"frizz_risk":1,"updated_at":"2026-04-22T22:35:36.155353+05:30"},{"city":"Thrissur","state":"Kerala","latitude":10.5276,"longitude":76.2144,"temp":29.5,"humidity":82,"rain":0.0,"pressure":1006.0,"uv_index":9.1,"wind_gusts":39.6,"aqi":70,"pm10":31.1,"pm2_5":27.5,"mosquito_risk":7,"arthritis_risk":5,"migraine_risk":4,"frizz_risk":1,"updated_at":"2026-04-22T22:35:36.155361+05:30"},{"city":"Kannur","state":"Kerala","latitude":11.8745,"longitude":75.3704,"temp":29.8,"humidity":77,"rain":0.0,"pressure":1006.0,"uv_index":9.05,"wind_gusts":34.6,"aqi":81,"pm10":31.8,"pm2_5":26.8,"mosquito_risk":7,"arthritis_risk":5,"migraine_risk":4,"frizz_risk":1,"updated_at":"2026-04-22T22:35:36.155367+05:30"},{"city":"Patna","state":"Bihar","latitude":25.5941,"longitude":85.1376,"temp":30.1,"humidity":50,"rain":0.0,"pressure":997.3,"uv_index":8.65,"wind_gusts":40.7,"aqi":115,"pm10":143.4,"pm2_5":66.4,"mosquito_risk":0,"arthritis_risk":5,"migraine_risk":7,"frizz_risk":1,"updated_at":"2026-04-22T22:35:36.155374+05:30"},{"city":"Gaya","state":"Bihar","latitude":24.7914,"longitude":85.0002,"temp":32.3,"humidity":36,"rain":0.0,"pressure":990.9,"uv_index":8.75,"wind_gusts":35.3,"aqi":109,"pm10":138.3,"pm2_5":48.0,"mosquito_risk":0,"arthritis_risk":5,"migraine_risk":7,"frizz_risk":0,"updated_at":"2026-04-22T22:35:36.155380+05:30"},{"city":"Muzaffarpur","state":"Bihar","latitude":26.1209,"longitude":85.3647,"temp":27.8,"humidity":56,"rain":0.0,"pressure":997.2,"uv_index":8.6,"wind_gusts":18.0,"aqi":119,"pm10":142.0,"pm2_5":73.8,"mosquito_risk":4,"arthritis_risk":5,"migraine_risk":7,"frizz_risk":1,"updated_at":"2026-04-22T22:35:36.155386+05:30"},{"city":"Bhagalpur","state":"Bihar","latitude":25.2425,"longitude":87.0117,"temp":28.5,"humidity":61,"rain":0.0,"pressure":998.3,"uv_index":8.7,"wind_gusts":20.5,"aqi":125,"pm10":182.5,"pm2_5":62.2,"mosquito_risk":7,"arthritis_risk":5,"migraine_risk":7,"frizz_risk":1,"updated_at":"2026-04-22T22:35:36.155392+05:30"},{"city":"Ranchi","state":"Jharkhand","latitude":23.3441,"longitude":85.3096,"temp":28.5,"humidity":27,"rain":0.0,"pressure":936.8,"uv_index":9.25,"wind_gusts":39.2,"aqi":90,"pm10":89.9,"pm2_5":33.9,"mosquito_risk":4,"arthritis_risk":5,"migraine_risk":7,"frizz_risk":0,"updated_at":"2026-04-22T22:35:36.155398+05:30"},{"city":"Jamshedpur","state":"Jharkhand","latitude":22.8046,"longitude":86.2029,"temp":31.2,"humidity":59,"rain":0.0,"pressure":988.2,"uv_index":9.05,"wind_gusts":23.4,"aqi":161,"pm10":116.6,"pm2_5":41.8,"mosquito_risk":0,"arthritis_risk":5,"migraine_risk":7,"frizz_risk":1,"updated_at":"2026-04-22T22:35:36.155404+05:30"},{"city":"Dhanbad","state":"Jharkhand","latitude":23.7957,"longitude":86.4304,"temp":31.8,"humidity":33,"rain":0.0,"pressure":978.0,"uv_index":9.0,"wind_gusts":29.5,"aqi":153,"pm10":192.8,"pm2_5":96.6,"mosquito_risk":0,"arthritis_risk":5,"migraine_risk":7,"frizz_risk":0,"updated_at":"2026-04-22T22:35:36.155410+05:30"},{"city":"Bokaro","state":"Jharkhand","latitude":23.6693,"longitude":86.1511,"temp":30.9,"humidity":29,"rain":0.0,"pressure":982.0,"uv_index":9.0,"wind_gusts":37.8,"aqi":147,"pm10":185.3,"pm2_5":85.7,"mosquito_risk":0,"arthritis_risk":5,"migraine_risk":7,"frizz_risk":0,"updated_at":"2026-04-22T22:35:36.155416+05:30"},{"city":"Bhubaneswar","state":"Odisha","latitude":20.2961,"longitude":85.8245,"temp":27.6,"humidity":88,"rain":0.0,"pressure":1000.5,"uv_index":9.15,"wind_gusts":37.4,"aqi":132,"pm10":24.3,"pm2_5":21.9,"mosquito_risk":7,"arthritis_risk":5,"migraine_risk":4,"frizz_risk":1,"updated_at":"2026-04-22T22:35:36.155422+05:30"},{"city":"Cuttack","state":"Odisha","latitude":20.4625,"longitude":85.8828,"temp":29.2,"humidity":77,"rain":0.0,"pressure":1002.4,"uv_index":9.2,"wind_gusts":38.5,"aqi":132,"pm10":24.3,"pm2_5":21.9,"mosquito_risk":7,"arthritis_risk":5,"migraine_risk":4,"frizz_risk":1,"updated_at":"2026-04-22T22:35:36.155428+05:30"},{"city":"Rourkela","state":"Odisha","latitude":22.2604,"longitude":84.8536,"temp":29.9,"humidity":45,"rain":0.0,"pressure":982.2,"uv_index":9.0,"wind_gusts":33.1,"aqi":113,"pm10":89.4,"pm2_5":52.4,"mosquito_risk":4,"arthritis_risk":5,"migraine_risk":7,"frizz_risk":1,"updated_at":"2026-04-22T22:35:36.155433+05:30"},{"city":"Raipur","state":"Chhattisgarh","latitude":21.2514,"longitude":81.6296,"temp":33.2,"humidity":30,"rain":0.0,"pressure":972.7,"uv_index":8.95,"wind_gusts":33.5,"aqi":114,"pm10":52.0,"pm2_5":45.8,"mosquito_risk":0,"arthritis_risk":5,"migraine_risk":7,"frizz_risk":0,"updated_at":"2026-04-22T22:35:36.155439+05:30"},{"city":"Bhilai","state":"Chhattisgarh","latitude":21.1938,"longitude":81.3509,"temp":31.9,"humidity":34,"rain":0.0,"pressure":972.8,"uv_index":9.0,"wind_gusts":30.2,"aqi":103,"pm10":54.1,"pm2_5":45.5,"mosquito_risk":0,"arthritis_risk":5,"migraine_risk":7,"frizz_risk":0,"updated_at":"2026-04-22T22:35:36.155445+05:30"},{"city":"Guwahati","state":"Assam","latitude":26.1158,"longitude":91.7086,"temp":24.9,"humidity":91,"rain":0.0,"pressure":1001.6,"uv_index":8.6,"wind_gusts":36.7,"aqi":108,"pm10":46.1,"pm2_5":35.7,"mosquito_risk":3,"arthritis_risk":5,"migraine_risk":4,"frizz_risk":1,"updated_at":"2026-04-22T22:35:36.155450+05:30"},{"city":"Agartala","state":"Tripura","latitude":23.8315,"longitude":91.2868,"temp":27.9,"humidity":90,"rain":0.0,"pressure":1004.8,"uv_index":8.85,"wind_gusts":31.3,"aqi":79,"pm10":26.3,"pm2_5":23.1,"mosquito_risk":7,"arthritis_risk":5,"migraine_risk":4,"frizz_risk":1,"updated_at":"2026-04-22T22:35:36.155456+05:30"},{"city":"Shillong","state":"Meghalaya","latitude":25.5788,"longitude":91.8933,"temp":15.2,"humidity":88,"rain":0.0,"pressure":856.0,"uv_index":9.05,"wind_gusts":75.2,"aqi":62,"pm10":47.5,"pm2_5":27.0,"mosquito_risk":3,"arthritis_risk":10,"migraine_risk":7,"frizz_risk":0,"updated_at":"2026-04-22T22:35:36.155463+05:30"},{"city":"Imphal","state":"Manipur","latitude":24.817,"longitude":93.9368,"temp":21.4,"humidity":83,"rain":0.0,"pressure":923.7,"uv_index":9.2,"wind_gusts":80.6,"aqi":124,"pm10":58.7,"pm2_5":38.5,"mosquito_risk":3,"arthritis_risk":5,"migraine_risk":7,"frizz_risk":1,"updated_at":"2026-04-22T22:35:36.155469+05:30"},{"city":"Aizawl","state":"Mizoram","latitude":23.7271,"longitude":92.7176,"temp":22.0,"humidity":84,"rain":0.0,"pressure":893.6,"uv_index":9.05,"wind_gusts":54.0,"aqi":96,"pm10":49.1,"pm2_5":31.0,"mosquito_risk":3,"arthritis_risk":5,"migraine_risk":7,"frizz_risk":1,"updated_at":"2026-04-22T22:35:36.155475+05:30"},{"city":"Kohima","state":"Nagaland","latitude":25.6701,"longitude":94.1077,"temp":17.5,"humidity":71,"rain":0.0,"pressure":855.2,"uv_index":9.15,"wind_gusts":88.2,"aqi":97,"pm10":34.8,"pm2_5":14.3,"mosquito_risk":3,"arthritis_risk":5,"migraine_risk":7,"frizz_risk":0,"updated_at":"2026-04-22T22:35:36.155481+05:30"},{"city":"Gangtok","state":"Sikkim","latitude":27.3314,"longitude":88.6138,"temp":16.9,"humidity":88,"rain":0.0,"pressure":838.1,"uv_index":8.9,"wind_gusts":20.2,"aqi":110,"pm10":62.6,"pm2_5":40.5,"mosquito_risk":3,"arthritis_risk":10,"migraine_risk":7,"frizz_risk":0,"updated_at":"2026-04-22T22:35:36.155488+05:30"},{"city":"Siliguri","state":"West Bengal","latitude":26.7271,"longitude":88.3953,"temp":24.2,"humidity":70,"rain":0.0,"pressure":993.0,"uv_index":8.5,"wind_gusts":22.7,"aqi":126,"pm10":93.6,"pm2_5":64.0,"mosquito_risk":3,"arthritis_risk":5,"migraine_risk":7,"frizz_risk":1,"updated_at":"2026-04-22T22:35:39.382191+05:30"},{"city":"Durgapur","state":"West Bengal","latitude":23.5204,"longitude":87.3119,"temp":31.0,"humidity":74,"rain":0.0,"pressure":992.8,"uv_index":8.95,"wind_gusts":28.8,"aqi":157,"pm10":153.7,"pm2_5":81.0,"mosquito_risk":3,"arthritis_risk":5,"migraine_risk":7,"frizz_risk":1,"updated_at":"2026-04-22T22:35:39.382226+05:30"},{"city":"Asansol","state":"West Bengal","latitude":23.6739,"longitude":86.9524,"temp":31.9,"humidity":67,"rain":0.0,"pressure":991.3,"uv_index":9.0,"wind_gusts":27.0,"aqi":149,"pm10":153.7,"pm2_5":73.3,"mosquito_risk":3,"arthritis_risk":5,"migraine_risk":7,"frizz_risk":1,"updated_at":"2026-04-22T22:35:39.382237+05:30"},{"city":"Pondicherry","state":"Puducherry","latitude":11.9139,"longitude":79.8145,"temp":27.6,"humidity":90,"rain":0.0,"pressure":1007.9,"uv_index":8.95,"wind_gusts":28.1,"aqi":26,"pm10":7.0,"pm2_5":4.6,"mosquito_risk":7,"arthritis_risk":5,"migraine_risk":4,"frizz_risk":1,"updated_at":"2026-04-22T22:35:39.382245+05:30"},{"city":"Port Blair","state":"Andaman and Nicobar Islands","latitude":11.6234,"longitude":92.7265,"temp":30.0,"humidity":70,"rain":0.0,"pressure":1006.4,"uv_index":9.15,"wind_gusts":23.4,"aqi":34,"pm10":13.7,"pm2_5":9.5,"mosquito_risk":7,"arthritis_risk":5,"migraine_risk":4,"frizz_risk":1,"updated_at":"2026-04-22T22:35:39.382252+05:30"},{"city":"Haridwar","state":"Uttarakhand","latitude":29.9457,"longitude":78.1642,"temp":23.2,"humidity":67,"rain":0.0,"pressure":970.9,"uv_index":7.15,"wind_gusts":34.6,"aqi":110,"pm10":53.7,"pm2_5":29.4,"mosquito_risk":3,"arthritis_risk":5,"migraine_risk":7,"frizz_risk":1,"updated_at":"2026-04-22T22:35:39.382259+05:30"},{"city":"Rishikesh","state":"Uttarakhand","latitude":30.0869,"longitude":78.2676,"temp":24.2,"humidity":54,"rain":0.0,"pressure":964.3,"uv_index":7.25,"wind_gusts":32.8,"aqi":137,"pm10":44.2,"pm2_5":21.7,"mosquito_risk":0,"arthritis_risk":5,"migraine_risk":7,"frizz_risk":0,"updated_at":"2026-04-22T22:35:39.382266+05:30"},{"city":"Nainital","state":"Uttarakhand","latitude":29.3919,"longitude":79.4542,"temp":23.4,"humidity":36,"rain":0.0,"pressure":806.7,"uv_index":8.05,"wind_gusts":44.6,"aqi":129,"pm10":43.8,"pm2_5":20.4,"mosquito_risk":0,"arthritis_risk":5,"migraine_risk":7,"frizz_risk":0,"updated_at":"2026-04-22T22:35:39.382273+05:30"},{"city":"Mussoorie","state":"Uttarakhand","latitude":30.4599,"longitude":78.0664,"temp":21.0,"humidity":42,"rain":0.0,"pressure":803.2,"uv_index":7.65,"wind_gusts":40.0,"aqi":128,"pm10":42.5,"pm2_5":29.9,"mosquito_risk":0,"arthritis_risk":5,"migraine_risk":7,"frizz_risk":0,"updated_at":"2026-04-22T22:35:39.382280+05:30"},{"city":"Dharamshala","state":"Himachal Pradesh","latitude":32.219,"longitude":76.3234,"temp":24.6,"humidity":45,"rain":0.0,"pressure":869.3,"uv_index":7.95,"wind_gusts":30.2,"aqi":113,"pm10":26.8,"pm2_5":18.7,"mosquito_risk":0,"arthritis_risk":5,"migraine_risk":7,"frizz_risk":0,"updated_at":"2026-04-22T22:35:39.382286+05:30"},{"city":"Dalhousie","state":"Himachal Pradesh","latitude":32.5387,"longitude":75.971,"temp":21.1,"humidity":49,"rain":0.0,"pressure":804.2,"uv_index":8.2,"wind_gusts":24.8,"aqi":119,"pm10":35.6,"pm2_5":28.5,"mosquito_risk":0,"arthritis_risk":5,"migraine_risk":7,"frizz_risk":0,"updated_at":"2026-04-22T22:35:39.382293+05:30"},{"city":"Patiala","state":"Punjab","latitude":30.3398,"longitude":76.3869,"temp":28.0,"humidity":45,"rain":0.0,"pressure":974.9,"uv_index":7.25,"wind_gusts":27.0,"aqi":192,"pm10":281.3,"pm2_5":60.8,"mosquito_risk":4,"arthritis_risk":5,"migraine_risk":7,"frizz_risk":0,"updated_at":"2026-04-22T22:35:39.382300+05:30"},{"city":"Bhatinda","state":"Punjab","latitude":30.211,"longitude":74.9455,"temp":31.5,"humidity":27,"rain":0.0,"pressure":980.2,"uv_index":7.85,"wind_gusts":30.2,"aqi":101,"pm10":45.4,"pm2_5":30.9,"mosquito_risk":0,"arthritis_risk":5,"migraine_risk":7,"frizz_risk":0,"updated_at":"2026-04-22T22:35:39.382306+05:30"},{"city":"Rohtak","state":"Haryana","latitude":28.8955,"longitude":76.6066,"temp":27.4,"humidity":38,"rain":0.0,"pressure":978.3,"uv_index":7.4,"wind_gusts":35.6,"aqi":484,"pm10":624.0,"pm2_5":106.9,"mosquito_risk":4,"arthritis_risk":5,"migraine_risk":7,"frizz_risk":0,"updated_at":"2026-04-22T22:35:39.382314+05:30"},{"city":"Panipat","state":"Haryana","latitude":29.3909,"longitude":76.9635,"temp":26.9,"humidity":45,"rain":0.0,"pressure":977.1,"uv_index":7.2,"wind_gusts":33.5,"aqi":817,"pm10":910.8,"pm2_5":125.3,"mosquito_risk":4,"arthritis_risk":5,"migraine_risk":7,"frizz_risk":0,"updated_at":"2026-04-22T22:35:39.382320+05:30"},{"city":"Mathura","state":"Uttar Pradesh","latitude":27.4924,"longitude":77.6737,"temp":29.7,"humidity":42,"rain":0.0,"pressure":984.0,"uv_index":7.7,"wind_gusts":37.8,"aqi":696,"pm10":838.2,"pm2_5":126.7,"mosquito_risk":4,"arthritis_risk":5,"migraine_risk":7,"frizz_risk":0,"updated_at":"2026-04-22T22:35:39.382327+05:30"},{"city":"Vrindavan","state":"Uttar Pradesh","latitude":27.5823,"longitude":77.7027,"temp":27.6,"humidity":46,"rain":0.0,"pressure":984.4,"uv_index":7.65,"wind_gusts":36.4,"aqi":696,"pm10":838.2,"pm2_5":126.7,"mosquito_risk":4,"arthritis_risk":5,"migraine_risk":7,"frizz_risk":0,"updated_at":"2026-04-22T22:35:39.382333+05:30"},{"city":"Ayodhya","state":"Uttar Pradesh","latitude":26.7922,"longitude":82.1998,"temp":30.1,"humidity":34,"rain":0.0,"pressure":992.1,"uv_index":8.05,"wind_gusts":44.3,"aqi":151,"pm10":194.6,"pm2_5":47.3,"mosquito_risk":0,"arthritis_risk":5,"migraine_risk":7,"frizz_risk":0,"updated_at":"2026-04-22T22:35:39.382340+05:30"},{"city":"Ratlam","state":"Madhya Pradesh","latitude":23.3315,"longitude":75.0367,"temp":29.9,"humidity":35,"rain":0.0,"pressure":954.5,"uv_index":8.45,"wind_gusts":30.6,"aqi":80,"pm10":23.9,"pm2_5":21.9,"mosquito_risk":4,"arthritis_risk":5,"migraine_risk":7,"frizz_risk":0,"updated_at":"2026-04-22T22:35:39.382346+05:30"},{"city":"Sagar","state":"Madhya Pradesh","latitude":23.8388,"longitude":78.7378,"temp":31.5,"humidity":32,"rain":0.0,"pressure":949.5,"uv_index":8.65,"wind_gusts":38.2,"aqi":87,"pm10":13.8,"pm2_5":12.7,"mosquito_risk":0,"arthritis_risk":5,"migraine_risk":7,"frizz_risk":0,"updated_at":"2026-04-22T22:35:39.382352+05:30"},{"city":"Satna","state":"Madhya Pradesh","latitude":24.6005,"longitude":80.8322,"temp":32.3,"humidity":32,"rain":0.0,"pressure":969.5,"uv_index":8.7,"wind_gusts":40.0,"aqi":89,"pm10":27.5,"pm2_5":13.3,"mosquito_risk":0,"arthritis_risk":5,"migraine_risk":7,"frizz_risk":0,"updated_at":"2026-04-22T22:35:39.382359+05:30"},{"city":"Akola","state":"Maharashtra","latitude":20.7002,"longitude":77.0082,"temp":32.3,"humidity":39,"rain":0.0,"pressure":973.4,"uv_index":8.9,"wind_gusts":26.6,"aqi":85,"pm10":36.4,"pm2_5":31.3,"mosquito_risk":0,"arthritis_risk":5,"migraine_risk":7,"frizz_risk":1,"updated_at":"2026-04-22T22:35:39.382365+05:30"},{"city":"Amravati","state":"Maharashtra","latitude":20.9374,"longitude":77.7796,"temp":30.1,"humidity":39,"rain":0.0,"pressure":965.4,"uv_index":8.8,"wind_gusts":22.0,"aqi":83,"pm10":40.0,"pm2_5":35.2,"mosquito_risk":0,"arthritis_risk":5,"migraine_risk":7,"frizz_risk":0,"updated_at":"2026-04-22T22:35:39.382372+05:30"},{"city":"Latur","state":"Maharashtra","latitude":18.4088,"longitude":76.5604,"temp":28.4,"humidity":54,"rain":0.0,"pressure":939.2,"uv_index":8.35,"wind_gusts":29.2,"aqi":117,"pm10":55.8,"pm2_5":50.4,"mosquito_risk":4,"arthritis_risk":5,"migraine_risk":7,"frizz_risk":1,"updated_at":"2026-04-22T22:35:39.382378+05:30"},{"city":"Nanded","state":"Maharashtra","latitude":19.1383,"longitude":77.3091,"temp":32.2,"humidity":43,"rain":0.0,"pressure":967.1,"uv_index":9.0,"wind_gusts":21.2,"aqi":104,"pm10":63.1,"pm2_5":57.6,"mosquito_risk":0,"arthritis_risk":5,"migraine_risk":7,"frizz_risk":1,"updated_at":"2026-04-22T22:35:39.382384+05:30"},{"city":"Gulbarga","state":"Karnataka","latitude":17.3297,"longitude":76.8343,"temp":29.7,"humidity":56,"rain":0.0,"pressure":958.0,"uv_index":9.15,"wind_gusts":29.2,"aqi":126,"pm10":38.2,"pm2_5":35.0,"mosquito_risk":4,"arthritis_risk":5,"migraine_risk":7,"frizz_risk":1,"updated_at":"2026-04-22T22:35:39.382390+05:30"},{"city":"Bidar","state":"Karnataka","latitude":17.9104,"longitude":77.5199,"temp":29.1,"humidity":49,"rain":0.0,"pressure":935.1,"uv_index":7.6,"wind_gusts":30.2,"aqi":111,"pm10":49.4,"pm2_5":45.5,"mosquito_risk":4,"arthritis_risk":5,"migraine_risk":7,"frizz_risk":1,"updated_at":"2026-04-22T22:35:39.382395+05:30"},{"city":"Hospet","state":"Karnataka","latitude":15.2689,"longitude":76.3909,"temp":29.5,"humidity":59,"rain":0.0,"pressure":954.7,"uv_index":9.25,"wind_gusts":25.9,"aqi":158,"pm10":47.1,"pm2_5":42.5,"mosquito_risk":4,"arthritis_risk":5,"migraine_risk":7,"frizz_risk":1,"updated_at":"2026-04-22T22:35:39.382401+05:30"},{"city":"Tirupur","state":"Tamil Nadu","latitude":11.1085,"longitude":77.3411,"temp":29.7,"humidity":68,"rain":0.0,"pressure":974.8,"uv_index":9.25,"wind_gusts":28.1,"aqi":85,"pm10":20.4,"pm2_5":19.3,"mosquito_risk":7,"arthritis_risk":5,"migraine_risk":7,"frizz_risk":1,"updated_at":"2026-04-22T22:35:39.382407+05:30"},{"city":"Alappuzha","state":"Kerala","latitude":9.4981,"longitude":76.3388,"temp":28.8,"humidity":84,"rain":0.0,"pressure":1008.3,"uv_index":8.8,"wind_gusts":28.1,"aqi":69,"pm10":40.7,"pm2_5":35.3,"mosquito_risk":7,"arthritis_risk":0,"migraine_risk":4,"frizz_risk":1,"updated_at":"2026-04-22T22:35:39.382413+05:30"},{"city":"Munnar","state":"Kerala","latitude":10.0889,"longitude":77.0595,"temp":22.4,"humidity":92,"rain":0.0,"pressure":857.1,"uv_index":9.65,"wind_gusts":31.0,"aqi":71,"pm10":30.3,"pm2_5":28.5,"mosquito_risk":3,"arthritis_risk":5,"migraine_risk":7,"frizz_risk":1,"updated_at":"2026-04-22T22:35:39.382419+05:30"},{"city":"Silchar","state":"Assam","latitude":24.8333,"longitude":92.7789,"temp":26.2,"humidity":88,"rain":0.0,"pressure":1004.5,"uv_index":8.85,"wind_gusts":46.4,"aqi":136,"pm10":59.1,"pm2_5":43.4,"mosquito_risk":7,"arthritis_risk":5,"migraine_risk":4,"frizz_risk":1,"updated_at":"2026-04-22T22:35:39.382425+05:30"},{"city":"Dibrugarh","state":"Assam","latitude":27.4728,"longitude":94.912,"temp":23.3,"humidity":92,"rain":0.0,"pressure":996.0,"uv_index":8.6,"wind_gusts":20.9,"aqi":62,"pm10":30.6,"pm2_5":27.9,"mosquito_risk":3,"arthritis_risk":5,"migraine_risk":7,"frizz_risk":1,"updated_at":"2026-04-22T22:35:39.382431+05:30"}]