[{"city":"Delhi","state":"Delhi","latitude":28.6139,"longitude":77.209,"temp":19.4,"humidity":72,"rain":0.0,"pressure":983.3,"uv_index":5.55,"wind_gusts":33.5,"aqi":393,"pm10":461.0,"pm2_5":90.1,"mosquito_risk":3,"arthritis_risk":5,"migraine_risk":3,"frizz_risk":0,"updated_at":"2026-03-14T03:06:40.460739+05:30"},{"city":"Mumbai","state":"Maharashtra","latitude":19.076,"longitude":72.8777,"temp":28.8,"humidity":70,"rain":0.0,"pressure":1007.4,"uv_index":7.7,"wind_gusts":20.5,"aqi":122,"pm10":39.3,"pm2_5":30.5,"mosquito_risk":7,"arthritis_risk":5,"migraine_risk":4,"frizz_risk":1,"updated_at":"2026-03-14T03:06:40.460788+05:30"},{"city":"Bangalore","state":"Karnataka","latitude":12.9716,"longitude":77.5946,"temp":21.0,"humidity":78,"rain":0.0,"pressure":911.4,"uv_index":9.3,"wind_gusts":24.1,"aqi":99,"pm10":40.6,"pm2_5":36.0,"mosquito_risk":3,"arthritis_risk":5,"migraine_risk":7,"frizz_risk":1,"updated_at":"2026-03-14T03:06:40.460803+05:30"},{"city":"Hyderabad","state":"Telangana","latitude":17.385,"longitude":78.4867,"temp":23.3,"humidity":66,"rain":0.0,"pressure":952.7,"uv_index":8.7,"wind_gusts":32.8,"aqi":96,"pm10":34.1,"pm2_5":28.2,"mosquito_risk":3,"arthritis_risk":5,"migraine_risk":7,"frizz_risk":1,"updated_at":"2026-03-14T03:06:40.460812+05:30"},{"city":"Chennai","state":"Tamil Nadu","latitude":13.0827,"longitude":80.2707,"temp":25.1,"humidity":88,"rain":0.0,"pressure":1008.3,"uv_index":9.05,"wind_gusts":30.2,"aqi":59,"pm10":21.3,"pm2_5":16.9,"mosquito_risk":7,"arthritis_risk":0,"migraine_risk":4,"frizz_risk":1,"updated_at":"2026-03-14T03:06:40.460820+05:30"},{"city":"Kolkata","state":"West Bengal","latitude":22.5726,"longitude":88.3639,"temp":25.5,"humidity":87,"rain":0.0,"pressure":1006.4,"uv_index":8.05,"wind_gusts":33.1,"aqi":103,"pm10":21.0,"pm2_5":16.6,"mosquito_risk":7,"arthritis_risk":5,"migraine_risk":4,"frizz_risk":1,"updated_at":"2026-03-14T03:06:40.460828+05:30"},{"city":"Pune","state":"Maharashtra","latitude":18.5204,"longitude":73.8567,"temp":22.2,"humidity":64,"rain":0.0,"pressure":947.4,"uv_index":8.25,"wind_gusts":43.9,"aqi":140,"pm10":49.6,"pm2_5":46.8,"mosquito_risk":3,"arthritis_risk":5,"migraine_risk":7,"frizz_risk":0,"updated_at":"2026-03-14T03:06:40.460839+05:30"},{"city":"Ahmedabad","state":"Gujarat","latitude":23.0225,"longitude":72.5714,"temp":22.9,"humidity":56,"rain":0.0,"pressure":1001.9,"uv_index":7.5,"wind_gusts":22.3,"aqi":105,"pm10":40.0,"pm2_5":24.4,"mosquito_risk":0,"arthritis_risk":5,"migraine_risk":4,"frizz_risk":0,"updated_at":"2026-03-14T03:06:40.460846+05:30"},{"city":"Jaipur","state":"Rajasthan","latitude":26.9124,"longitude":75.7873,"temp":21.8,"humidity":39,"rain":0.0,"pressure":959.6,"uv_index":6.75,"wind_gusts":26.6,"aqi":128,"pm10":303.6,"pm2_5":54.2,"mosquito_risk":0,"arthritis_risk":5,"migraine_risk":7,"frizz_risk":0,"updated_at":"2026-03-14T03:06:40.460853+05:30"},{"city":"Lucknow","state":"Uttar Pradesh","latitude":26.8467,"longitude":80.9462,"temp":21.4,"humidity":62,"rain":0.0,"pressure":993.1,"uv_index":6.7,"wind_gusts":27.0,"aqi":156,"pm10":291.5,"pm2_5":75.9,"mosquito_risk":3,"arthritis_risk":5,"migraine_risk":7,"frizz_risk":0,"updated_at":"2026-03-14T03:06:40.460860+05:30"},{"city":"Kanpur","state":"Uttar Pradesh","latitude":26.4499,"longitude":80.3319,"temp":20.9,"humidity":68,"rain":0.0,"pressure":991.7,"uv_index":6.7,"wind_gusts":21.2,"aqi":214,"pm10":501.1,"pm2_5":97.1,"mosquito_risk":3,"arthritis_risk":5,"migraine_risk":7,"frizz_risk":0,"updated_at":"2026-03-14T03:06:40.460866+05:30"},{"city":"Chandigarh","state":"Chandigarh","latitude":30.7333,"longitude":76.7794,"temp":17.7,"humidity":79,"rain":0.0,"pressure":968.3,"uv_index":4.8,"wind_gusts":21.2,"aqi":73,"pm10":26.0,"pm2_5":23.7,"mosquito_risk":3,"arthritis_risk":5,"migraine_risk":3,"frizz_risk":0,"updated_at":"2026-03-14T03:06:40.460872+05:30"},{"city":"Srinagar","state":"Jammu and Kashmir","latitude":34.0837,"longitude":74.7973,"temp":6.0,"humidity":83,"rain":0.0,"pressure":839.1,"uv_index":6.6,"wind_gusts":12.6,"aqi":89,"pm10":58.9,"pm2_5":44.2,"mosquito_risk":3,"arthritis_risk":10,"migraine_risk":7,"frizz_risk":0,"updated_at":"2026-03-14T03:06:40.460879+05:30"},{"city":"Jammu","state":"Jammu and Kashmir","latitude":32.7266,"longitude":74.857,"temp":16.0,"humidity":74,"rain":0.0,"pressure":972.7,"uv_index":6.35,"wind_gusts":16.2,"aqi":70,"pm10":35.3,"pm2_5":33.1,"mosquito_risk":3,"arthritis_risk":5,"migraine_risk":7,"frizz_risk":0,"updated_at":"2026-03-14T03:06:40.460885+05:30"},{"city":"Amritsar","state":"Punjab","latitude":31.634,"longitude":74.8723,"temp":17.3,"humidity":72,"rain":0.0,"pressure":981.2,"uv_index":6.15,"wind_gusts":17.6,"aqi":84,"pm10":38.4,"pm2_5":31.9,"mosquito_risk":3,"arthritis_risk":5,"migraine_risk":7,"frizz_risk":0,"updated_at":"2026-03-14T03:06:40.460890+05:30"},{"city":"Ludhiana","state":"Punjab","latitude":30.901,"longitude":75.8573,"temp":17.9,"humidity":68,"rain":0.0,"pressure":978.9,"uv_index":5.85,"wind_gusts":21.6,"aqi":92,"pm10":35.9,"pm2_5":28.7,"mosquito_risk":3,"arthritis_risk":5,"migraine_risk":3,"frizz_risk":0,"updated_at":"2026-03-14T03:06:40.460896+05:30"},{"city":"Jalandhar","state":"Punjab","latitude":31.326,"longitude":75.5762,"temp":17.7,"humidity":68,"rain":0.0,"pressure":980.3,"uv_index":6.15,"wind_gusts":17.6,"aqi":92,"pm10":48.9,"pm2_5":36.4,"mosquito_risk":3,"arthritis_risk":5,"migraine_risk":7,"frizz_risk":0,"updated_at":"2026-03-14T03:06:40.460903+05:30"},{"city":"Dehradun","state":"Uttarakhand","latitude":30.6284,"longitude":78.0322,"temp":13.0,"humidity":53,"rain":0.0,"pressure":828.3,"uv_index":5.75,"wind_gusts":24.1,"aqi":52,"pm10":27.3,"pm2_5":16.6,"mosquito_risk":0,"arthritis_risk":5,"migraine_risk":3,"frizz_risk":0,"updated_at":"2026-03-14T03:06:40.460910+05:30"},{"city":"Shimla","state":"Himachal Pradesh","latitude":31.1048,"longitude":77.1734,"temp":10.6,"humidity":66,"rain":0.0,"pressure":781.6,"uv_index":5.55,"wind_gusts":27.7,"aqi":54,"pm10":32.7,"pm2_5":22.1,"mosquito_risk":3,"arthritis_risk":5,"migraine_risk":3,"frizz_risk":0,"updated_at":"2026-03-14T03:06:40.460915+05:30"},{"city":"Manali","state":"Himachal Pradesh","latitude":32.2396,"longitude":77.1887,"temp":12.2,"humidity":27,"rain":0.0,"pressure":818.2,"uv_index":6.5,"wind_gusts":37.4,"aqi":35,"pm10":30.6,"pm2_5":16.5,"mosquito_risk":0,"arthritis_risk":5,"migraine_risk":7,"frizz_risk":1,"updated_at":"2026-03-14T03:06:40.460922+05:30"},{"city":"Gurgaon","state":"Haryana","latitude":28.4595,"longitude":77.0266,"temp":17.5,"humidity":80,"rain":0.0,"pressure":981.7,"uv_index":6.0,"wind_gusts":31.3,"aqi":1248,"pm10":1363.5,"pm2_5":173.7,"mosquito_risk":3,"arthritis_risk":5,"migraine_risk":3,"frizz_risk":0,"updated_at":"2026-03-14T03:06:40.460928+05:30"},{"city":"Noida","state":"Uttar Pradesh","latitude":28.5355,"longitude":77.391,"temp":19.3,"humidity":73,"rain":0.0,"pressure":984.8,"uv_index":5.95,"wind_gusts":34.2,"aqi":1248,"pm10":1363.5,"pm2_5":173.7,"mosquito_risk":3,"arthritis_risk":5,"migraine_risk":3,"frizz_risk":0,"updated_at":"2026-03-14T03:06:40.460934+05:30"},{"city":"Ghaziabad","state":"Uttar Pradesh","latitude":28.6692,"longitude":77.4538,"temp":18.4,"humidity":76,"rain":0.0,"pressure":982.9,"uv_index":5.85,"wind_gusts":28.8,"aqi":197,"pm10":375.3,"pm2_5":80.6,"mosquito_risk":3,"arthritis_risk":5,"migraine_risk":3,"frizz_risk":0,"updated_at":"2026-03-14T03:06:40.460939+05:30"},{"city":"Faridabad","state":"Haryana","latitude":28.4089,"longitude":77.3178,"temp":18.6,"humidity":73,"rain":0.0,"pressure":984.0,"uv_index":6.2,"wind_gusts":33.8,"aqi":1248,"pm10":1363.5,"pm2_5":173.7,"mosquito_risk":3,"arthritis_risk":5,"migraine_risk":7,"frizz_risk":0,"updated_at":"2026-03-14T03:06:40.460945+05:30"},{"city":"Meerut","state":"Uttar Pradesh","latitude":28.9845,"longitude":77.7064,"temp":16.4,"humidity":84,"rain":0.0,"pressure":981.4,"uv_index":5.65,"wind_gusts":29.2,"aqi":197,"pm10":375.3,"pm2_5":80.6,"mosquito_risk":3,"arthritis_risk":10,"migraine_risk":3,"frizz_risk":0,"updated_at":"2026-03-14T03:06:40.460950+05:30"},{"city":"Agra","state":"Uttar Pradesh","latitude":27.1767,"longitude":78.0081,"temp":18.8,"humidity":64,"rain":0.0,"pressure":988.3,"uv_index":6.2,"wind_gusts":24.1,"aqi":669,"pm10":1005.8,"pm2_5":152.7,"mosquito_risk":3,"arthritis_risk":5,"migraine_risk":7,"frizz_risk":0,"updated_at":"2026-03-14T03:06:40.460955+05:30"},{"city":"Varanasi","state":"Uttar Pradesh","latitude":25.3176,"longitude":82.9739,"temp":20.5,"humidity":71,"rain":0.0,"pressure":997.1,"uv_index":7.1,"wind_gusts":24.1,"aqi":134,"pm10":127.6,"pm2_5":56.2,"mosquito_risk":3,"arthritis_risk":5,"migraine_risk":7,"frizz_risk":0,"updated_at":"2026-03-14T03:06:40.460963+05:30"},{"city":"Prayagraj","state":"Uttar Pradesh","latitude":25.4358,"longitude":81.8463,"temp":22.2,"humidity":66,"rain":0.0,"pressure":995.7,"uv_index":7.2,"wind_gusts":16.2,"aqi":148,"pm10":155.1,"pm2_5":62.6,"mosquito_risk":3,"arthritis_risk":5,"migraine_risk":7,"frizz_risk":0,"updated_at":"2026-03-14T03:06:40.460969+05:30"},{"city":"Gorakhpur","state":"Uttar Pradesh","latitude":26.7606,"longitude":83.3732,"temp":19.8,"humidity":73,"rain":0.0,"pressure":996.0,"uv_index":6.45,"wind_gusts":23.0,"aqi":172,"pm10":89.4,"pm2_5":40.0,"mosquito_risk":3,"arthritis_risk":5,"migraine_risk":7,"frizz_risk":0,"updated_at":"2026-03-14T03:06:40.460974+05:30"},{"city":"Bareilly","state":"Uttar Pradesh","latitude":28.367,"longitude":79.4304,"temp":18.1,"humidity":76,"rain":0.0,"pressure":986.3,"uv_index":6.1,"wind_gusts":24.8,"aqi":132,"pm10":166.2,"pm2_5":54.9,"mosquito_risk":3,"arthritis_risk":5,"migraine_risk":7,"frizz_risk":0,"updated_at":"2026-03-14T03:06:40.460980+05:30"},{"city":"Aligarh","state":"Uttar Pradesh","latitude":27.8974,"longitude":78.088,"temp":17.1,"humidity":77,"rain":0.0,"pressure":985.9,"uv_index":6.25,"wind_gusts":38.2,"aqi":635,"pm10":761.8,"pm2_5":131.3,"mosquito_risk":3,"arthritis_risk":5,"migraine_risk":7,"frizz_risk":0,"updated_at":"2026-03-14T03:06:40.460985+05:30"},{"city":"Moradabad","state":"Uttar Pradesh","latitude":28.8386,"longitude":78.7733,"temp":17.5,"humidity":77,"rain":0.0,"pressure":983.2,"uv_index":6.0,"wind_gusts":26.6,"aqi":139,"pm10":170.9,"pm2_5":60.1,"mosquito_risk":3,"arthritis_risk":5,"migraine_risk":3,"frizz_risk":0,"updated_at":"2026-03-14T03:06:40.460991+05:30"},{"city":"Saharanpur","state":"Uttar Pradesh","latitude":29.9637,"longitude":77.546,"temp":16.8,"humidity":83,"rain":0.0,"pressure":975.3,"uv_index":5.15,"wind_gusts":23.0,"aqi":122,"pm10":106.2,"pm2_5":57.7,"mosquito_risk":3,"arthritis_risk":10,"migraine_risk":3,"frizz_risk":0,"updated_at":"2026-03-14T03:06:40.460996+05:30"},{"city":"Jhansi","state":"Uttar Pradesh","latitude":25.4484,"longitude":78.5685,"temp":21.5,"humidity":67,"rain":0.0,"pressure":977.7,"uv_index":7.15,"wind_gusts":20.2,"aqi":82,"pm10":143.9,"pm2_5":48.2,"mosquito_risk":3,"arthritis_risk":5,"migraine_risk":7,"frizz_risk":0,"updated_at":"2026-03-14T03:06:43.768439+05:30"},{"city":"Surat","state":"Gujarat","latitude":21.1702,"longitude":72.8311,"temp":24.8,"humidity":82,"rain":0.0,"pressure":1005.9,"uv_index":7.35,"wind_gusts":21.2,"aqi":140,"pm10":39.9,"pm2_5":34.0,"mosquito_risk":3,"arthritis_risk":5,"migraine_risk":4,"frizz_risk":1,"updated_at":"2026-03-14T03:06:43.768468+05:30"},{"city":"Vadodara","state":"Gujarat","latitude":22.3072,"longitude":73.1812,"temp":25.3,"humidity":55,"rain":0.0,"pressure":1003.5,"uv_index":7.55,"wind_gusts":26.3,"aqi":111,"pm10":38.6,"pm2_5":34.3,"mosquito_risk":4,"arthritis_risk":5,"migraine_risk":4,"frizz_risk":0,"updated_at":"2026-03-14T03:06:43.768478+05:30"},{"city":"Rajkot","state":"Gujarat","latitude":22.3039,"longitude":70.8022,"temp":22.2,"humidity":65,"rain":0.0,"pressure":994.6,"uv_index":7.35,"wind_gusts":30.2,"aqi":85,"pm10":179.7,"pm2_5":44.9,"mosquito_risk":3,"arthritis_risk":5,"migraine_risk":7,"frizz_risk":0,"updated_at":"2026-03-14T03:06:43.768486+05:30"},{"city":"Thane","state":"Maharashtra","latitude":19.2183,"longitude":72.9781,"temp":26.7,"humidity":70,"rain":0.0,"pressure":1006.9,"uv_index":7.65,"wind_gusts":33.1,"aqi":122,"pm10":39.3,"pm2_5":30.5,"mosquito_risk":7,"arthritis_risk":5,"migraine_risk":4,"frizz_risk":1,"updated_at":"2026-03-14T03:06:43.768494+05:30"},{"city":"Nagpur","state":"Maharashtra","latitude":21.1458,"longitude":79.0882,"temp":23.6,"humidity":57,"rain":0.0,"pressure":971.9,"uv_index":8.1,"wind_gusts":21.6,"aqi":88,"pm10":34.1,"pm2_5":32.7,"mosquito_risk":0,"arthritis_risk":5,"migraine_risk":7,"frizz_risk":0,"updated_at":"2026-03-14T03:06:43.768502+05:30"},{"city":"Nashik","state":"Maharashtra","latitude":19.9975,"longitude":73.7898,"temp":23.5,"humidity":50,"rain":0.0,"pressure":945.0,"uv_index":7.85,"wind_gusts":37.1,"aqi":87,"pm10":35.6,"pm2_5":31.4,"mosquito_risk":0,"arthritis_risk":5,"migraine_risk":7,"frizz_risk":0,"updated_at":"2026-03-14T03:06:43.768509+05:30"},{"city":"Aurangabad","state":"Maharashtra","latitude":19.8762,"longitude":75.3433,"temp":23.1,"humidity":49,"rain":0.0,"pressure":943.1,"uv_index":8.4,"wind_gusts":24.8,"aqi":76,"pm10":37.4,"pm2_5":35.7,"mosquito_risk":0,"arthritis_risk":5,"migraine_risk":7,"frizz_risk":0,"updated_at":"2026-03-14T03:06:43.768517+05:30"},{"city":"Solapur","state":"Maharashtra","latitude":17.6599,"longitude":75.9064,"temp":25.1,"humidity":57,"rain":0.0,"pressure":955.8,"uv_index":8.6,"wind_gusts":18.4,"aqi":97,"pm10":42.3,"pm2_5":37.6,"mosquito_risk":4,"arthritis_risk":5,"migraine_risk":7,"frizz_risk":0,"updated_at":"2026-03-14T03:06:43.768525+05:30"},{"city":"Kolhapur","state":"Maharashtra","latitude":16.705,"longitude":74.2433,"temp":21.5,"humidity":91,"rain":0.0,"pressure":947.0,"uv_index":8.7,"wind_gusts":39.6,"aqi":146,"pm10":71.2,"pm2_5":69.6,"mosquito_risk":3,"arthritis_risk":5,"migraine_risk":7,"frizz_risk":1,"updated_at":"2026-03-14T03:06:43.768533+05:30"},{"city":"Goa","state":"Goa","latitude":15.2993,"longitude":74.124,"temp":27.0,"humidity":86,"rain":0.0,"pressure":997.5,"uv_index":8.75,"wind_gusts":33.5,"aqi":130,"pm10":60.1,"pm2_5":55.3,"mosquito_risk":7,"arthritis_risk":5,"migraine_risk":7,"frizz_risk":1,"updated_at":"2026-03-14T03:06:43.768539+05:30"},{"city":"Jodhpur","state":"Rajasthan","latitude":26.2389,"longitude":73.0243,"temp":23.5,"humidity":51,"rain":0.0,"pressure":982.4,"uv_index":7.15,"wind_gusts":34.9,"aqi":91,"pm10":125.7,"pm2_5":36.3,"mosquito_risk":0,"arthritis_risk":5,"migraine_risk":7,"frizz_risk":0,"updated_at":"2026-03-14T03:06:43.768546+05:30"},{"city":"Udaipur","state":"Rajasthan","latitude":24.5854,"longitude":73.7125,"temp":21.7,"humidity":38,"rain":0.0,"pressure":946.2,"uv_index":7.85,"wind_gusts":32.8,"aqi":61,"pm10":48.1,"pm2_5":22.7,"mosquito_risk":0,"arthritis_risk":5,"migraine_risk":7,"frizz_risk":0,"updated_at":"2026-03-14T03:06:43.768553+05:30"},{"city":"Kota","state":"Rajasthan","latitude":25.2138,"longitude":75.8648,"temp":22.0,"humidity":56,"rain":0.0,"pressure":978.3,"uv_index":6.75,"wind_gusts":22.0,"aqi":62,"pm10":32.9,"pm2_5":21.1,"mosquito_risk":0,"arthritis_risk":5,"migraine_risk":7,"frizz_risk":0,"updated_at":"2026-03-14T03:06:43.768559+05:30"},{"city":"Bikaner","state":"Rajasthan","latitude":28.0229,"longitude":73.3119,"temp":23.8,"humidity":43,"rain":0.0,"pressure":982.3,"uv_index":6.5,"wind_gusts":22.3,"aqi":72,"pm10":45.8,"pm2_5":17.5,"mosquito_risk":0,"arthritis_risk":5,"migraine_risk":7,"frizz_risk":0,"updated_at":"2026-03-14T03:06:43.768566+05:30"},{"city":"Ajmer","state":"Rajasthan","latitude":26.4499,"longitude":74.6399,"temp":23.6,"humidity":33,"rain":0.0,"pressure":954.2,"uv_index":7.25,"wind_gusts":33.8,"aqi":81,"pm10":78.9,"pm2_5":30.6,"mosquito_risk":0,"arthritis_risk":5,"migraine_risk":7,"frizz_risk":0,"updated_at":"2026-03-14T03:06:43.768573+05:30"},{"city":"Gwalior","state":"Madhya Pradesh","latitude":26.2183,"longitude":78.1828,"temp":24.0,"humidity":53,"rain":0.0,"pressure":983.7,"uv_index":6.5,"wind_gusts":18.7,"aqi":121,"pm10":493.6,"pm2_5":83.1,"mosquito_risk":0,"arthritis_risk":5,"migraine_risk":7,"frizz_risk":0,"updated_at":"2026-03-14T03:06:43.768580+05:30"},{"city":"Indore","state":"Madhya Pradesh","latitude":22.7196,"longitude":75.8577,"temp":21.3,"humidity":45,"rain":0.0,"pressure":947.0,"uv_index":7.8,"wind_gusts":31.0,"aqi":65,"pm10":32.5,"pm2_5":29.5,"mosquito_risk":0,"arthritis_risk":5,"migraine_risk":7,"frizz_risk":0,"updated_at":"2026-03-14T03:06:43.768586+05:30"},{"city":"Bhopal","state":"Madhya Pradesh","latitude":23.2599,"longitude":77.4126,"temp":20.9,"humidity":38,"rain":0.0,"pressure":952.9,"uv_index":7.65,"wind_gusts":29.5,"aqi":68,"pm10":27.3,"pm2_5":26.5,"mosquito_risk":0,"arthritis_risk":5,"migraine_risk":7,"frizz_risk":0,"updated_at":"2026-03-14T03:06:43.768593+05:30"},{"city":"Jabalpur","state":"Madhya Pradesh","latitude":23.1815,"longitude":79.9864,"temp":22.4,"humidity":43,"rain":0.0,"pressure":960.8,"uv_index":7.8,"wind_gusts":24.1,"aqi":78,"pm10":27.5,"pm2_5":27.1,"mosquito_risk":0,"arthritis_risk":5,"migraine_risk":7,"frizz_risk":0,"updated_at":"2026-03-14T03:06:43.768599+05:30"},{"city":"Ujjain","state":"Madhya Pradesh","latitude":23.1765,"longitude":75.7885,"temp":21.2,"humidity":49,"rain":0.0,"pressure":952.8,"uv_index":7.7,"wind_gusts":31.0,"aqi":66,"pm10":30.9,"pm2_5":26.7,"mosquito_risk":0,"arthritis_risk":5,"migraine_risk":7,"frizz_risk":0,"updated_at":"2026-03-14T03:06:43.768606+05:30"},{"city":"Visakhapatnam","state":"Andhra Pradesh","latitude":17.6868,"longitude":83.2185,"temp":24.8,"humidity":89,"rain":0.0,"pressure":1004.8,"uv_index":8.65,"wind_gusts":42.8,"aqi":77,"pm10":20.3,"pm2_5":17.2,"mosquito_risk":3,"arthritis_risk":5,"migraine_risk":4,"frizz_risk":1,"updated_at":"2026-03-14T03:06:43.768613+05:30"},{"city":"Vijayawada","state":"Andhra Pradesh","latitude":16.5062,"longitude":80.648,"temp":24.5,"humidity":94,"rain":0.0,"pressure":1003.5,"uv_index":8.75,"wind_gusts":29.2,"aqi":81,"pm10":17.7,"pm2_5":15.0,"mosquito_risk":3,"arthritis_risk":5,"migraine_risk":4,"frizz_risk":1,"updated_at":"2026-03-14T03:06:43.768620+05:30"},{"city":"Guntur","state":"Andhra Pradesh","latitude":16.3067,"longitude":80.4365,"temp":24.5,"humidity":94,"rain":0.0,"pressure":1004.7,"uv_index":8.75,"wind_gusts":31.7,"aqi":75,"pm10":14.9,"pm2_5":12.5,"mosquito_risk":3,"arthritis_risk":5,"migraine_risk":4,"frizz_risk":1,"updated_at":"2026-03-14T03:06:43.768627+05:30"},{"city":"Nellore","state":"Andhra Pradesh","latitude":14.4426,"longitude":79.9865,"temp":24.1,"humidity":94,"rain":0.0,"pressure":1006.5,"uv_index":8.9,"wind_gusts":31.3,"aqi":68,"pm10":16.4,"pm2_5":13.7,"mosquito_risk":3,"arthritis_risk":5,"migraine_risk":4,"frizz_risk":1,"updated_at":"2026-03-14T03:06:43.768634+05:30"},{"city":"Kurnool","state":"Andhra Pradesh","latitude":15.8281,"longitude":78.0373,"temp":25.9,"humidity":62,"rain":0.0,"pressure":976.5,"uv_index":8.75,"wind_gusts":22.3,"aqi":107,"pm10":28.1,"pm2_5":24.8,"mosquito_risk":7,"arthritis_risk":5,"migraine_risk":7,"frizz_risk":1,"updated_at":"2026-03-14T03:06:43.768642+05:30"},{"city":"Kakinada","state":"Andhra Pradesh","latitude":16.9891,"longitude":82.2475,"temp":23.8,"humidity":96,"rain":0.0,"pressure":1009.0,"uv_index":8.7,"wind_gusts":32.0,"aqi":67,"pm10":19.2,"pm2_5":14.5,"mosquito_risk":3,"arthritis_risk":0,"migraine_risk":4,"frizz_risk":1,"updated_at":"2026-03-14T03:06:43.768649+05:30"},{"city":"Tirupati","state":"Andhra Pradesh","latitude":13.6288,"longitude":79.4192,"temp":22.1,"humidity":93,"rain":0.0,"pressure":992.7,"uv_index":9.05,"wind_gusts":29.5,"aqi":85,"pm10":30.9,"pm2_5":27.8,"mosquito_risk":3,"arthritis_risk":5,"migraine_risk":7,"frizz_risk":1,"updated_at":"2026-03-14T03:06:43.768655+05:30"},{"city":"Warangal","state":"Telangana","latitude":17.9689,"longitude":79.5941,"temp":22.9,"humidity":89,"rain":0.0,"pressure":978.5,"uv_index":8.55,"wind_gusts":29.5,"aqi":108,"pm10":21.5,"pm2_5":19.9,"mosquito_risk":3,"arthritis_risk":5,"migraine_risk":7,"frizz_risk":1,"updated_at":"2026-03-14T03:06:43.768662+05:30"},{"city":"Nizamabad","state":"Telangana","latitude":18.6725,"longitude":78.0941,"temp":26.2,"humidity":49,"rain":0.0,"pressure":963.8,"uv_index":8.45,"wind_gusts":30.6,"aqi":122,"pm10":41.8,"pm2_5":36.6,"mosquito_risk":4,"arthritis_risk":5,"migraine_risk":7,"frizz_risk":0,"updated_at":"2026-03-14T03:06:43.768668+05:30"},{"city":"Mysore","state":"Karnataka","latitude":12.2958,"longitude":76.6396,"temp":21.6,"humidity":95,"rain":0.0,"pressure":928.3,"uv_index":9.3,"wind_gusts":31.3,"aqi":96,"pm10":53.1,"pm2_5":48.0,"mosquito_risk":3,"arthritis_risk":5,"migraine_risk":7,"frizz_risk":1,"updated_at":"2026-03-14T03:06:43.768675+05:30"},{"city":"Mangalore","state":"Karnataka","latitude":12.9141,"longitude":74.856,"temp":28.7,"humidity":80,"rain":0.0,"pressure":1006.5,"uv_index":8.95,"wind_gusts":24.8,"aqi":115,"pm10":52.2,"pm2_5":47.0,"mosquito_risk":7,"arthritis_risk":5,"migraine_risk":4,"frizz_risk":1,"updated_at":"2026-03-14T03:06:43.768682+05:30"},{"city":"Hubli-Dharwad","state":"Karnataka","latitude":15.3647,"longitude":75.124,"temp":22.0,"humidity":95,"rain":0.0,"pressure":940.2,"uv_index":8.95,"wind_gusts":41.8,"aqi":89,"pm10":41.6,"pm2_5":39.1,"mosquito_risk":3,"arthritis_risk":5,"migraine_risk":7,"frizz_risk":1,"updated_at":"2026-03-14T03:06:43.768689+05:30"},{"city":"Belgaum","state":"Karnataka","latitude":15.8497,"longitude":74.4977,"temp":21.7,"humidity":97,"rain":0.0,"pressure":924.9,"uv_index":9.0,"wind_gusts":40.3,"aqi":116,"pm10":54.5,"pm2_5":50.1,"mosquito_risk":3,"arthritis_risk":5,"migraine_risk":7,"frizz_risk":1,"updated_at":"2026-03-14T03:06:47.073512+05:30"},{"city":"Coimbatore","state":"Tamil Nadu","latitude":11.0168,"longitude":76.9558,"temp":22.2,"humidity":76,"rain":0.0,"pressure":962.0,"uv_index":9.3,"wind_gusts":34.2,"aqi":86,"pm10":36.6,"pm2_5":32.9,"mosquito_risk":3,"arthritis_risk":5,"migraine_risk":7,"frizz_risk":1,"updated_at":"2026-03-14T03:06:47.073542+05:30"},{"city":"Madurai","state":"Tamil Nadu","latitude":9.9252,"longitude":78.1198,"temp":24.7,"humidity":84,"rain":0.0,"pressure":993.9,"uv_index":9.3,"wind_gusts":29.5,"aqi":76,"pm10":33.9,"pm2_5":31.1,"mosquito_risk":3,"arthritis_risk":5,"migraine_risk":7,"frizz_risk":1,"updated_at":"2026-03-14T03:06:47.073551+05:30"},{"city":"Trichy","state":"Tamil Nadu","latitude":10.7905,"longitude":78.7047,"temp":23.4,"humidity":95,"rain":0.0,"pressure":1000.8,"uv_index":9.2,"wind_gusts":19.4,"aqi":78,"pm10":29.3,"pm2_5":26.1,"mosquito_risk":3,"arthritis_risk":5,"migraine_risk":4,"frizz_risk":1,"updated_at":"2026-03-14T03:06:47.073559+05:30"},{"city":"Salem","state":"Tamil Nadu","latitude":11.6643,"longitude":78.146,"temp":22.5,"humidity":92,"rain":0.0,"pressure":977.9,"uv_index":9.2,"wind_gusts":15.1,"aqi":108,"pm10":46.4,"pm2_5":42.5,"mosquito_risk":3,"arthritis_risk":5,"migraine_risk":7,"frizz_risk":1,"updated_at":"2026-03-14T03:06:47.073567+05:30"},{"city":"Tirunelveli","state":"Tamil Nadu","latitude":8.7139,"longitude":77.7567,"temp":23.4,"humidity":88,"rain":0.0,"pressure":1003.8,"uv_index":9.25,"wind_gusts":40.7,"aqi":60,"pm10":27.2,"pm2_5":25.3,"mosquito_risk":3,"arthritis_risk":5,"migraine_risk":4,"frizz_risk":1,"updated_at":"2026-03-14T03:06:47.073574+05:30"},{"city":"Vellore","state":"Tamil Nadu","latitude":12.9165,"longitude":79.1325,"temp":20.9,"humidity":97,"rain":0.0,"pressure":985.7,"uv_index":9.1,"wind_gusts":32.0,"aqi":100,"pm10":46.7,"pm2_5":44.0,"mosquito_risk":3,"arthritis_risk":5,"migraine_risk":7,"frizz_risk":1,"updated_at":"2026-03-14T03:06:47.073582+05:30"},{"city":"Erode","state":"Tamil Nadu","latitude":11.341,"longitude":77.7172,"temp":24.1,"humidity":90,"rain":0.0,"pressure":989.9,"uv_index":9.2,"wind_gusts":19.4,"aqi":82,"pm10":20.6,"pm2_5":18.9,"mosquito_risk":3,"arthritis_risk":5,"migraine_risk":7,"frizz_risk":1,"updated_at":"2026-03-14T03:06:47.073589+05:30"},{"city":"Kochi","state":"Kerala","latitude":9.9312,"longitude":76.2673,"temp":26.6,"humidity":87,"rain":0.0,"pressure":1008.9,"uv_index":9.1,"wind_gusts":33.5,"aqi":79,"pm10":28.6,"pm2_5":28.0,"mosquito_risk":7,"arthritis_risk":0,"migraine_risk":4,"frizz_risk":1,"updated_at":"2026-03-14T03:06:47.073597+05:30"},{"city":"Thiruvananthapuram","state":"Kerala","latitude":8.5241,"longitude":76.9366,"temp":27.2,"humidity":84,"rain":0.0,"pressure":1007.8,"uv_index":9.1,"wind_gusts":26.3,"aqi":61,"pm10":18.5,"pm2_5":14.9,"mosquito_risk":7,"arthritis_risk":5,"migraine_risk":4,"frizz_risk":1,"updated_at":"2026-03-14T03:06:47.073604+05:30"},{"city":"Kozhikode","state":"Kerala","latitude":11.2588,"longitude":75.7804,"temp":26.5,"humidity":86,"rain":0.0,"pressure":1008.4,"uv_index":9.05,"wind_gusts":28.8,"aqi":89,"pm10":25.4,"pm2_5":22.4,"mosquito_risk":7,"arthritis_risk":0,"migraine_risk":4,"frizz_risk":1,"updated_at":"2026-03-14T03:06:47.073612+05:30"},{"city":"Thrissur","state":"Kerala","latitude":10.5276,"longitude":76.2144,"temp":25.4,"humidity":88,"rain":0.0,"pressure":1007.4,"uv_index":9.1,"wind_gusts":36.4,"aqi":95,"pm10":28.1,"pm2_5":27.1,"mosquito_risk":7,"arthritis_risk":5,"migraine_risk":4,"frizz_risk":1,"updated_at":"2026-03-14T03:06:47.073620+05:30"},{"city":"Kannur","state":"Kerala","latitude":11.8745,"longitude":75.3704,"temp":26.7,"humidity":86,"rain":0.0,"pressure":1007.4,"uv_index":9.0,"wind_gusts":32.0,"aqi":103,"pm10":41.8,"pm2_5":38.5,"mosquito_risk":7,"arthritis_risk":5,"migraine_risk":4,"frizz_risk":1,"updated_at":"2026-03-14T03:06:47.073627+05:30"},{"city":"Patna","state":"Bihar","latitude":25.5941,"longitude":85.1376,"temp":23.5,"humidity":70,"rain":0.0,"pressure":999.6,"uv_index":7.5,"wind_gusts":19.1,"aqi":168,"pm10":145.3,"pm2_5":73.8,"mosquito_risk":3,"arthritis_risk":5,"migraine_risk":7,"frizz_risk":1,"updated_at":"2026-03-14T03:06:47.073633+05:30"},{"city":"Gaya","state":"Bihar","latitude":24.7914,"longitude":85.0002,"temp":23.9,"humidity":54,"rain":0.0,"pressure":993.3,"uv_index":7.6,"wind_gusts":12.2,"aqi":145,"pm10":130.9,"pm2_5":54.9,"mosquito_risk":0,"arthritis_risk":5,"migraine_risk":7,"frizz_risk":0,"updated_at":"2026-03-14T03:06:47.073640+05:30"},{"city":"Muzaffarpur","state":"Bihar","latitude":26.1209,"longitude":85.3647,"temp":21.4,"humidity":87,"rain":0.0,"pressure":999.4,"uv_index":7.15,"wind_gusts":20.9,"aqi":172,"pm10":162.1,"pm2_5":116.9,"mosquito_risk":3,"arthritis_risk":5,"migraine_risk":7,"frizz_risk":1,"updated_at":"2026-03-14T03:06:47.073647+05:30"},{"city":"Bhagalpur","state":"Bihar","latitude":25.2425,"longitude":87.0117,"temp":22.9,"humidity":97,"rain":0.0,"pressure":1000.5,"uv_index":7.45,"wind_gusts":18.4,"aqi":163,"pm10":98.5,"pm2_5":72.2,"mosquito_risk":3,"arthritis_risk":5,"migraine_risk":4,"frizz_risk":1,"updated_at":"2026-03-14T03:06:47.073654+05:30"},{"city":"Ranchi","state":"Jharkhand","latitude":23.3441,"longitude":85.3096,"temp":22.8,"humidity":40,"rain":0.0,"pressure":937.4,"uv_index":8.25,"wind_gusts":26.6,"aqi":72,"pm10":100.6,"pm2_5":35.2,"mosquito_risk":0,"arthritis_risk":5,"migraine_risk":7,"frizz_risk":0,"updated_at":"2026-03-14T03:06:47.073661+05:30"},{"city":"Jamshedpur","state":"Jharkhand","latitude":22.8046,"longitude":86.2029,"temp":24.6,"humidity":69,"rain":0.0,"pressure":990.4,"uv_index":8.1,"wind_gusts":32.0,"aqi":147,"pm10":90.1,"pm2_5":67.5,"mosquito_risk":3,"arthritis_risk":5,"migraine_risk":7,"frizz_risk":1,"updated_at":"2026-03-14T03:06:47.073668+05:30"},{"city":"Dhanbad","state":"Jharkhand","latitude":23.7957,"longitude":86.4304,"temp":22.5,"humidity":58,"rain":0.0,"pressure":979.3,"uv_index":7.65,"wind_gusts":19.1,"aqi":159,"pm10":161.1,"pm2_5":84.8,"mosquito_risk":0,"arthritis_risk":5,"migraine_risk":7,"frizz_risk":0,"updated_at":"2026-03-14T03:06:47.073674+05:30"},{"city":"Bokaro","state":"Jharkhand","latitude":23.6693,"longitude":86.1511,"temp":20.6,"humidity":61,"rain":0.0,"pressure":983.6,"uv_index":7.7,"wind_gusts":19.8,"aqi":146,"pm10":147.6,"pm2_5":77.3,"mosquito_risk":3,"arthritis_risk":5,"migraine_risk":7,"frizz_risk":0,"updated_at":"2026-03-14T03:06:47.073682+05:30"},{"city":"Bhubaneswar","state":"Odisha","latitude":20.2961,"longitude":85.8245,"temp":25.0,"humidity":89,"rain":0.0,"pressure":1002.6,"uv_index":8.4,"wind_gusts":40.0,"aqi":88,"pm10":17.9,"pm2_5":15.2,"mosquito_risk":7,"arthritis_risk":5,"migraine_risk":4,"frizz_risk":1,"updated_at":"2026-03-14T03:06:47.073689+05:30"},{"city":"Cuttack","state":"Odisha","latitude":20.4625,"longitude":85.8828,"temp":25.0,"humidity":88,"rain":0.0,"pressure":1004.5,"uv_index":8.45,"wind_gusts":38.9,"aqi":88,"pm10":17.9,"pm2_5":15.2,"mosquito_risk":7,"arthritis_risk":5,"migraine_risk":4,"frizz_risk":1,"updated_at":"2026-03-14T03:06:47.073695+05:30"},{"city":"Rourkela","state":"Odisha","latitude":22.2604,"longitude":84.8536,"temp":21.6,"humidity":80,"rain":0.0,"pressure":984.4,"uv_index":8.05,"wind_gusts":28.1,"aqi":91,"pm10":54.6,"pm2_5":40.9,"mosquito_risk":3,"arthritis_risk":5,"migraine_risk":7,"frizz_risk":1,"updated_at":"2026-03-14T03:06:47.073702+05:30"},{"city":"Raipur","state":"Chhattisgarh","latitude":21.2514,"longitude":81.6296,"temp":23.2,"humidity":44,"rain":0.0,"pressure":973.2,"uv_index":8.15,"wind_gusts":37.1,"aqi":128,"pm10":63.6,"pm2_5":57.5,"mosquito_risk":0,"arthritis_risk":5,"migraine_risk":7,"frizz_risk":0,"updated_at":"2026-03-14T03:06:47.073709+05:30"},{"city":"Bhilai","state":"Chhattisgarh","latitude":21.1938,"longitude":81.3509,"temp":21.7,"humidity":48,"rain":0.0,"pressure":973.6,"uv_index":8.15,"wind_gusts":36.0,"aqi":122,"pm10":67.1,"pm2_5":60.8,"mosquito_risk":0,"arthritis_risk":5,"migraine_risk":7,"frizz_risk":0,"updated_at":"2026-03-14T03:06:47.073716+05:30"},{"city":"Guwahati","state":"Assam","latitude":26.1158,"longitude":91.7086,"temp":21.5,"humidity":95,"rain":0.0,"pressure":1002.4,"uv_index":7.45,"wind_gusts":33.8,"aqi":115,"pm10":29.2,"pm2_5":21.5,"mosquito_risk":3,"arthritis_risk":5,"migraine_risk":4,"frizz_risk":1,"updated_at":"2026-03-14T03:06:47.073723+05:30"},{"city":"Agartala","state":"Tripura","latitude":23.8315,"longitude":91.2868,"temp":21.0,"humidity":94,"rain":0.0,"pressure":1008.4,"uv_index":7.85,"wind_gusts":37.4,"aqi":95,"pm10":17.8,"pm2_5":15.0,"mosquito_risk":3,"arthritis_risk":0,"migraine_risk":4,"frizz_risk":1,"updated_at":"2026-03-14T03:06:47.073730+05:30"},{"city":"Shillong","state":"Meghalaya","latitude":25.5788,"longitude":91.8933,"temp":13.1,"humidity":93,"rain":0.0,"pressure":854.6,"uv_index":7.8,"wind_gusts":65.5,"aqi":84,"pm10":11.7,"pm2_5":8.3,"mosquito_risk":3,"arthritis_risk":10,"migraine_risk":7,"frizz_risk":0,"updated_at":"2026-03-14T03:06:47.073736+05:30"},{"city":"Imphal","state":"Manipur","latitude":24.817,"longitude":93.9368,"temp":15.6,"humidity":95,"rain":0.1,"pressure":923.4,"uv_index":7.6,"wind_gusts":81.0,"aqi":155,"pm10":47.4,"pm2_5":40.6,"mosquito_risk":6,"arthritis_risk":10,"migraine_risk":7,"frizz_risk":0,"updated_at":"2026-03-14T03:06:47.073743+05:30"},{"city":"Aizawl","state":"Mizoram","latitude":23.7271,"longitude":92.7176,"temp":16.9,"humidity":87,"rain":0.0,"pressure":892.9,"uv_index":8.0,"wind_gusts":69.1,"aqi":130,"pm10":33.6,"pm2_5":29.0,"mosquito_risk":3,"arthritis_risk":10,"migraine_risk":7,"frizz_risk":0,"updated_at":"2026-03-14T03:06:47.073750+05:30"},{"city":"Kohima","state":"Nagaland","latitude":25.6701,"longitude":94.1077,"temp":14.5,"humidity":85,"rain":0.0,"pressure":853.5,"uv_index":6.95,"wind_gusts":93.2,"aqi":110,"pm10":17.2,"pm2_5":14.9,"mosquito_risk":3,"arthritis_risk":10,"migraine_risk":7,"frizz_risk":0,"updated_at":"2026-03-14T03:06:47.073756+05:30"},{"city":"Gangtok","state":"Sikkim","latitude":27.3314,"longitude":88.6138,"temp":12.9,"humidity":92,"rain":0.0,"pressure":834.0,"uv_index":7.55,"wind_gusts":20.9,"aqi":83,"pm10":13.6,"pm2_5":12.9,"mosquito_risk":3,"arthritis_risk":10,"migraine_risk":7,"frizz_risk":0,"updated_at":"2026-03-14T03:06:47.073763+05:30"},{"city":"Siliguri","state":"West Bengal","latitude":26.7271,"longitude":88.3953,"temp":18.5,"humidity":92,"rain":0.0,"pressure":993.6,"uv_index":7.35,"wind_gusts":24.1,"aqi":129,"pm10":42.5,"pm2_5":33.3,"mosquito_risk":3,"arthritis_risk":10,"migraine_risk":7,"frizz_risk":1,"updated_at":"2026-03-14T03:06:50.382188+05:30"},{"city":"Durgapur","state":"West Bengal","latitude":23.5204,"longitude":87.3119,"temp":24.0,"humidity":95,"rain":0.0,"pressure":994.6,"uv_index":7.95,"wind_gusts":30.6,"aqi":157,"pm10":118.7,"pm2_5":85.9,"mosquito_risk":3,"arthritis_risk":5,"migraine_risk":7,"frizz_risk":1,"updated_at":"2026-03-14T03:06:50.382217+05:30"},{"city":"Asansol","state":"West Bengal","latitude":23.6739,"longitude":86.9524,"temp":24.0,"humidity":84,"rain":0.0,"pressure":993.0,"uv_index":7.75,"wind_gusts":23.0,"aqi":153,"pm10":126.7,"pm2_5":66.1,"mosquito_risk":3,"arthritis_risk":5,"migraine_risk":7,"frizz_risk":1,"updated_at":"2026-03-14T03:06:50.382226+05:30"},{"city":"Pondicherry","state":"Puducherry","latitude":11.9139,"longitude":79.8145,"temp":23.0,"humidity":97,"rain":0.0,"pressure":1009.6,"uv_index":9.05,"wind_gusts":29.9,"aqi":56,"pm10":18.7,"pm2_5":14.5,"mosquito_risk":3,"arthritis_risk":0,"migraine_risk":4,"frizz_risk":1,"updated_at":"2026-03-14T03:06:50.382234+05:30"},{"city":"Port Blair","state":"Andaman and Nicobar Islands","latitude":11.6234,"longitude":92.7265,"temp":27.8,"humidity":79,"rain":0.0,"pressure":1007.5,"uv_index":8.95,"wind_gusts":27.4,"aqi":67,"pm10":14.7,"pm2_5":11.4,"mosquito_risk":7,"arthritis_risk":5,"migraine_risk":4,"frizz_risk":1,"updated_at":"2026-03-14T03:06:50.382241+05:30"},{"city":"Haridwar","state":"Uttarakhand","latitude":29.9457,"longitude":78.1642,"temp":17.4,"humidity":83,"rain":0.0,"pressure":973.7,"uv_index":5.55,"wind_gusts":25.9,"aqi":85,"pm10":58.4,"pm2_5":49.5,"mosquito_risk":3,"arthritis_risk":10,"migraine_risk":3,"frizz_risk":0,"updated_at":"2026-03-14T03:06:50.382249+05:30"},{"city":"Rishikesh","state":"Uttarakhand","latitude":30.0869,"longitude":78.2676,"temp":18.7,"humidity":64,"rain":0.0,"pressure":966.3,"uv_index":5.35,"wind_gusts":23.0,"aqi":63,"pm10":31.1,"pm2_5":25.7,"mosquito_risk":3,"arthritis_risk":5,"migraine_risk":3,"frizz_risk":0,"updated_at":"2026-03-14T03:06:50.382257+05:30"},{"city":"Nainital","state":"Uttarakhand","latitude":29.3919,"longitude":79.4542,"temp":17.9,"humidity":36,"rain":0.0,"pressure":804.8,"uv_index":6.1,"wind_gusts":36.0,"aqi":78,"pm10":28.3,"pm2_5":25.8,"mosquito_risk":0,"arthritis_risk":5,"migraine_risk":7,"frizz_risk":0,"updated_at":"2026-03-14T03:06:50.382264+05:30"},{"city":"Mussoorie","state":"Uttarakhand","latitude":30.4599,"longitude":78.0664,"temp":15.4,"humidity":53,"rain":0.0,"pressure":801.3,"uv_index":5.55,"wind_gusts":28.1,"aqi":73,"pm10":36.9,"pm2_5":32.6,"mosquito_risk":0,"arthritis_risk":5,"migraine_risk":3,"frizz_risk":0,"updated_at":"2026-03-14T03:06:50.382271+05:30"},{"city":"Dharamshala","state":"Himachal Pradesh","latitude":32.219,"longitude":76.3234,"temp":18.2,"humidity":19,"rain":0.0,"pressure":868.1,"uv_index":4.6,"wind_gusts":22.3,"aqi":40,"pm10":16.7,"pm2_5":9.4,"mosquito_risk":0,"arthritis_risk":5,"migraine_risk":3,"frizz_risk":1,"updated_at":"2026-03-14T03:06:50.382278+05:30"},{"city":"Dalhousie","state":"Himachal Pradesh","latitude":32.5387,"longitude":75.971,"temp":14.4,"humidity":25,"rain":0.0,"pressure":802.0,"uv_index":5.5,"wind_gusts":20.2,"aqi":63,"pm10":29.4,"pm2_5":25.7,"mosquito_risk":0,"arthritis_risk":5,"migraine_risk":3,"frizz_risk":1,"updated_at":"2026-03-14T03:06:50.382286+05:30"},{"city":"Patiala","state":"Punjab","latitude":30.3398,"longitude":76.3869,"temp":17.2,"humidity":76,"rain":0.0,"pressure":978.1,"uv_index":5.5,"wind_gusts":18.7,"aqi":369,"pm10":523.4,"pm2_5":68.5,"mosquito_risk":3,"arthritis_risk":5,"migraine_risk":3,"frizz_risk":0,"updated_at":"2026-03-14T03:06:50.382293+05:30"},{"city":"Bhatinda","state":"Punjab","latitude":30.211,"longitude":74.9455,"temp":18.8,"humidity":78,"rain":0.0,"pressure":984.2,"uv_index":5.95,"wind_gusts":17.6,"aqi":102,"pm10":50.5,"pm2_5":37.8,"mosquito_risk":3,"arthritis_risk":5,"migraine_risk":3,"frizz_risk":0,"updated_at":"2026-03-14T03:06:50.382300+05:30"},{"city":"Rohtak","state":"Haryana","latitude":28.8955,"longitude":76.6066,"temp":17.3,"humidity":81,"rain":0.0,"pressure":982.0,"uv_index":5.55,"wind_gusts":25.9,"aqi":537,"pm10":517.8,"pm2_5":90.8,"mosquito_risk":3,"arthritis_risk":10,"migraine_risk":3,"frizz_risk":0,"updated_at":"2026-03-14T03:06:50.382306+05:30"},{"city":"Panipat","state":"Haryana","latitude":29.3909,"longitude":76.9635,"temp":16.9,"humidity":83,"rain":0.0,"pressure":980.4,"uv_index":5.35,"wind_gusts":21.2,"aqi":999,"pm10":1102.7,"pm2_5":138.3,"mosquito_risk":3,"arthritis_risk":10,"migraine_risk":3,"frizz_risk":0,"updated_at":"2026-03-14T03:06:50.382313+05:30"},{"city":"Mathura","state":"Uttar Pradesh","latitude":27.4924,"longitude":77.6737,"temp":18.8,"humidity":64,"rain":0.0,"pressure":987.1,"uv_index":6.15,"wind_gusts":34.6,"aqi":780,"pm10":987.2,"pm2_5":161.6,"mosquito_risk":3,"arthritis_risk":5,"migraine_risk":7,"frizz_risk":0,"updated_at":"2026-03-14T03:06:50.382320+05:30"},{"city":"Vrindavan","state":"Uttar Pradesh","latitude":27.5823,"longitude":77.7027,"temp":17.5,"humidity":70,"rain":0.0,"pressure":987.5,"uv_index":6.3,"wind_gusts":38.2,"aqi":780,"pm10":987.2,"pm2_5":161.6,"mosquito_risk":3,"arthritis_risk":5,"migraine_risk":7,"frizz_risk":0,"updated_at":"2026-03-14T03:06:50.382327+05:30"},{"city":"Ayodhya","state":"Uttar Pradesh","latitude":26.7922,"longitude":82.1998,"temp":20.0,"humidity":74,"rain":0.0,"pressure":994.5,"uv_index":6.75,"wind_gusts":23.8,"aqi":154,"pm10":172.3,"pm2_5":56.9,"mosquito_risk":3,"arthritis_risk":5,"migraine_risk":7,"frizz_risk":0,"updated_at":"2026-03-14T03:06:50.382334+05:30"},{"city":"Ratlam","state":"Madhya Pradesh","latitude":23.3315,"longitude":75.0367,"temp":24.6,"humidity":39,"rain":0.0,"pressure":954.0,"uv_index":7.65,"wind_gusts":35.6,"aqi":68,"pm10":31.4,"pm2_5":24.8,"mosquito_risk":0,"arthritis_risk":5,"migraine_risk":7,"frizz_risk":0,"updated_at":"2026-03-14T03:06:50.382341+05:30"},{"city":"Sagar","state":"Madhya Pradesh","latitude":23.8388,"longitude":78.7378,"temp":21.7,"humidity":36,"rain":0.0,"pressure":949.1,"uv_index":7.65,"wind_gusts":29.2,"aqi":59,"pm10":19.2,"pm2_5":16.9,"mosquito_risk":0,"arthritis_risk":5,"migraine_risk":7,"frizz_risk":0,"updated_at":"2026-03-14T03:06:50.382347+05:30"},{"city":"Satna","state":"Madhya Pradesh","latitude":24.6005,"longitude":80.8322,"temp":21.4,"humidity":42,"rain":0.0,"pressure":971.0,"uv_index":7.6,"wind_gusts":29.2,"aqi":58,"pm10":59.0,"pm2_5":24.5,"mosquito_risk":0,"arthritis_risk":5,"migraine_risk":7,"frizz_risk":0,"updated_at":"2026-03-14T03:06:50.382354+05:30"},{"city":"Akola","state":"Maharashtra","latitude":20.7002,"longitude":77.0082,"temp":25.0,"humidity":45,"rain":0.0,"pressure":974.1,"uv_index":8.1,"wind_gusts":21.2,"aqi":92,"pm10":49.5,"pm2_5":46.4,"mosquito_risk":4,"arthritis_risk":5,"migraine_risk":7,"frizz_risk":0,"updated_at":"2026-03-14T03:06:50.382361+05:30"},{"city":"Amravati","state":"Maharashtra","latitude":20.9374,"longitude":77.7796,"temp":23.8,"humidity":51,"rain":0.0,"pressure":965.7,"uv_index":8.1,"wind_gusts":17.6,"aqi":94,"pm10":53.8,"pm2_5":49.4,"mosquito_risk":0,"arthritis_risk":5,"migraine_risk":7,"frizz_risk":0,"updated_at":"2026-03-14T03:06:50.382368+05:30"},{"city":"Latur","state":"Maharashtra","latitude":18.4088,"longitude":76.5604,"temp":23.6,"humidity":54,"rain":0.0,"pressure":938.7,"uv_index":8.5,"wind_gusts":26.3,"aqi":100,"pm10":37.3,"pm2_5":30.6,"mosquito_risk":0,"arthritis_risk":5,"migraine_risk":7,"frizz_risk":0,"updated_at":"2026-03-14T03:06:50.382375+05:30"},{"city":"Nanded","state":"Maharashtra","latitude":19.1383,"longitude":77.3091,"temp":26.2,"humidity":48,"rain":0.0,"pressure":967.6,"uv_index":8.3,"wind_gusts":24.5,"aqi":118,"pm10":47.0,"pm2_5":39.7,"mosquito_risk":4,"arthritis_risk":5,"migraine_risk":7,"frizz_risk":0,"updated_at":"2026-03-14T03:06:50.382382+05:30"},{"city":"Gulbarga","state":"Karnataka","latitude":17.3297,"longitude":76.8343,"temp":26.8,"humidity":44,"rain":0.0,"pressure":958.3,"uv_index":8.6,"wind_gusts":33.5,"aqi":93,"pm10":36.7,"pm2_5":32.1,"mosquito_risk":4,"arthritis_risk":5,"migraine_risk":7,"frizz_risk":0,"updated_at":"2026-03-14T03:06:50.382388+05:30"},{"city":"Bidar","state":"Karnataka","latitude":17.9104,"longitude":77.5199,"temp":25.2,"humidity":45,"rain":0.0,"pressure":934.9,"uv_index":8.55,"wind_gusts":38.9,"aqi":96,"pm10":33.3,"pm2_5":28.6,"mosquito_risk":4,"arthritis_risk":5,"migraine_risk":7,"frizz_risk":0,"updated_at":"2026-03-14T03:06:50.382395+05:30"},{"city":"Hospet","state":"Karnataka","latitude":15.2689,"longitude":76.3909,"temp":25.4,"humidity":73,"rain":0.0,"pressure":955.7,"uv_index":8.9,"wind_gusts":29.2,"aqi":98,"pm10":45.4,"pm2_5":39.6,"mosquito_risk":7,"arthritis_risk":5,"migraine_risk":7,"frizz_risk":1,"updated_at":"2026-03-14T03:06:50.382402+05:30"},{"city":"Tirupur","state":"Tamil Nadu","latitude":11.1085,"longitude":77.3411,"temp":24.7,"humidity":72,"rain":0.0,"pressure":975.9,"uv_index":9.3,"wind_gusts":28.1,"aqi":91,"pm10":26.0,"pm2_5":23.3,"mosquito_risk":3,"arthritis_risk":5,"migraine_risk":7,"frizz_risk":1,"updated_at":"2026-03-14T03:06:50.382408+05:30"},{"city":"Alappuzha","state":"Kerala","latitude":9.4981,"longitude":76.3388,"temp":26.0,"humidity":87,"rain":0.0,"pressure":1008.9,"uv_index":9.1,"wind_gusts":27.7,"aqi":81,"pm10":29.0,"pm2_5":27.4,"mosquito_risk":7,"arthritis_risk":0,"migraine_risk":4,"frizz_risk":1,"updated_at":"2026-03-14T03:06:50.382413+05:30"},{"city":"Munnar","state":"Kerala","latitude":10.0889,"longitude":77.0595,"temp":17.5,"humidity":92,"rain":0.0,"pressure":855.0,"uv_index":9.6,"wind_gusts":31.7,"aqi":72,"pm10":25.8,"pm2_5":23.2,"mosquito_risk":3,"arthritis_risk":10,"migraine_risk":7,"frizz_risk":1,"updated_at":"2026-03-14T03:06:50.382419+05:30"},{"city":"Silchar","state":"Assam","latitude":24.8333,"longitude":92.7789,"temp":20.6,"humidity":95,"rain":0.0,"pressure":1007.5,"uv_index":7.75,"wind_gusts":36.4,"aqi":154,"pm10":36.8,"pm2_5":30.9,"mosquito_risk":3,"arthritis_risk":5,"migraine_risk":4,"frizz_risk":1,"updated_at":"2026-03-14T03:06:50.382424+05:30"},{"city":"Dibrugarh","state":"Assam","latitude":27.4728,"longitude":94.912,"temp":20.2,"humidity":90,"rain":0.0,"pressure":996.5,"uv_index":1.2,"wind_gusts":19.4,"aqi":128,"pm10":34.1,"pm2_5":31.7,"mosquito_risk":3,"arthritis_risk":5,"migraine_risk":3,"frizz_risk":1,"updated_at":"2026-03-14T03:06:50.382429+05:30"}]