[{"city":"Delhi","state":"Delhi","latitude":28.6139,"longitude":77.209,"temp":32.6,"humidity":25,"rain":0.0,"pressure":983.2,"uv_index":7.1,"wind_gusts":45.7,"aqi":561,"pm10":968.6,"pm2_5":151.3,"mosquito_risk":0,"arthritis_risk":5,"migraine_risk":7,"frizz_risk":0,"updated_at":"2026-04-25T23:10:16.696318+05:30"},{"city":"Mumbai","state":"Maharashtra","latitude":19.076,"longitude":72.8777,"temp":30.0,"humidity":62,"rain":0.0,"pressure":1008.6,"uv_index":8.0,"wind_gusts":42.8,"aqi":90,"pm10":42.3,"pm2_5":25.1,"mosquito_risk":7,"arthritis_risk":0,"migraine_risk":4,"frizz_risk":1,"updated_at":"2026-04-25T23:10:16.696367+05:30"},{"city":"Bangalore","state":"Karnataka","latitude":12.9716,"longitude":77.5946,"temp":27.2,"humidity":49,"rain":0.0,"pressure":913.0,"uv_index":9.3,"wind_gusts":36.4,"aqi":86,"pm10":30.9,"pm2_5":27.6,"mosquito_risk":4,"arthritis_risk":5,"migraine_risk":7,"frizz_risk":0,"updated_at":"2026-04-25T23:10:16.696382+05:30"},{"city":"Hyderabad","state":"Telangana","latitude":17.385,"longitude":78.4867,"temp":31.9,"humidity":34,"rain":0.0,"pressure":955.0,"uv_index":9.3,"wind_gusts":29.2,"aqi":135,"pm10":44.6,"pm2_5":40.4,"mosquito_risk":0,"arthritis_risk":5,"migraine_risk":7,"frizz_risk":0,"updated_at":"2026-04-25T23:10:16.696392+05:30"},{"city":"Chennai","state":"Tamil Nadu","latitude":13.0827,"longitude":80.2707,"temp":28.9,"humidity":81,"rain":0.0,"pressure":1008.0,"uv_index":9.3,"wind_gusts":50.0,"aqi":33,"pm10":12.5,"pm2_5":8.5,"mosquito_risk":7,"arthritis_risk":0,"migraine_risk":4,"frizz_risk":1,"updated_at":"2026-04-25T23:10:16.696402+05:30"},{"city":"Kolkata","state":"West Bengal","latitude":22.5726,"longitude":88.3639,"temp":27.7,"humidity":87,"rain":0.0,"pressure":1005.9,"uv_index":8.55,"wind_gusts":38.9,"aqi":75,"pm10":24.6,"pm2_5":19.9,"mosquito_risk":7,"arthritis_risk":5,"migraine_risk":4,"frizz_risk":1,"updated_at":"2026-04-25T23:10:16.696414+05:30"},{"city":"Pune","state":"Maharashtra","latitude":18.5204,"longitude":73.8567,"temp":30.3,"humidity":37,"rain":0.0,"pressure":949.2,"uv_index":8.35,"wind_gusts":36.4,"aqi":135,"pm10":47.0,"pm2_5":41.0,"mosquito_risk":0,"arthritis_risk":5,"migraine_risk":7,"frizz_risk":0,"updated_at":"2026-04-25T23:10:16.696422+05:30"},{"city":"Ahmedabad","state":"Gujarat","latitude":23.0225,"longitude":72.5714,"temp":37.5,"humidity":14,"rain":0.0,"pressure":1001.9,"uv_index":8.2,"wind_gusts":24.1,"aqi":63,"pm10":39.7,"pm2_5":25.9,"mosquito_risk":0,"arthritis_risk":5,"migraine_risk":7,"frizz_risk":0,"updated_at":"2026-04-25T23:10:16.696430+05:30"},{"city":"Jaipur","state":"Rajasthan","latitude":26.9124,"longitude":75.7873,"temp":33.2,"humidity":22,"rain":0.0,"pressure":960.9,"uv_index":8.05,"wind_gusts":38.2,"aqi":133,"pm10":271.0,"pm2_5":51.2,"mosquito_risk":0,"arthritis_risk":5,"migraine_risk":7,"frizz_risk":0,"updated_at":"2026-04-25T23:10:16.696438+05:30"},{"city":"Lucknow","state":"Uttar Pradesh","latitude":26.8467,"longitude":80.9462,"temp":33.5,"humidity":22,"rain":0.0,"pressure":992.4,"uv_index":7.9,"wind_gusts":42.1,"aqi":126,"pm10":174.2,"pm2_5":44.4,"mosquito_risk":0,"arthritis_risk":5,"migraine_risk":7,"frizz_risk":0,"updated_at":"2026-04-25T23:10:16.696446+05:30"},{"city":"Kanpur","state":"Uttar Pradesh","latitude":26.4499,"longitude":80.3319,"temp":34.0,"humidity":20,"rain":0.0,"pressure":990.9,"uv_index":7.9,"wind_gusts":39.6,"aqi":181,"pm10":392.1,"pm2_5":65.9,"mosquito_risk":0,"arthritis_risk":5,"migraine_risk":7,"frizz_risk":0,"updated_at":"2026-04-25T23:10:16.696453+05:30"},{"city":"Chandigarh","state":"Chandigarh","latitude":30.7333,"longitude":76.7794,"temp":28.0,"humidity":38,"rain":0.0,"pressure":968.9,"uv_index":7.25,"wind_gusts":59.4,"aqi":64,"pm10":42.1,"pm2_5":23.6,"mosquito_risk":4,"arthritis_risk":5,"migraine_risk":7,"frizz_risk":0,"updated_at":"2026-04-25T23:10:16.696461+05:30"},{"city":"Srinagar","state":"Jammu and Kashmir","latitude":34.0837,"longitude":74.7973,"temp":12.9,"humidity":88,"rain":0.0,"pressure":844.7,"uv_index":8.6,"wind_gusts":31.3,"aqi":74,"pm10":65.2,"pm2_5":49.5,"mosquito_risk":3,"arthritis_risk":10,"migraine_risk":7,"frizz_risk":0,"updated_at":"2026-04-25T23:10:16.696469+05:30"},{"city":"Jammu","state":"Jammu and Kashmir","latitude":32.7266,"longitude":74.857,"temp":27.5,"humidity":42,"rain":0.0,"pressure":973.8,"uv_index":8.2,"wind_gusts":43.6,"aqi":79,"pm10":59.1,"pm2_5":27.1,"mosquito_risk":4,"arthritis_risk":5,"migraine_risk":7,"frizz_risk":0,"updated_at":"2026-04-25T23:10:16.696477+05:30"},{"city":"Amritsar","state":"Punjab","latitude":31.634,"longitude":74.8723,"temp":29.5,"humidity":34,"rain":0.0,"pressure":981.2,"uv_index":8.1,"wind_gusts":38.2,"aqi":93,"pm10":128.5,"pm2_5":54.0,"mosquito_risk":4,"arthritis_risk":5,"migraine_risk":7,"frizz_risk":0,"updated_at":"2026-04-25T23:10:16.696484+05:30"},{"city":"Ludhiana","state":"Punjab","latitude":30.901,"longitude":75.8573,"temp":28.2,"humidity":41,"rain":0.0,"pressure":979.0,"uv_index":7.7,"wind_gusts":54.4,"aqi":83,"pm10":88.9,"pm2_5":36.2,"mosquito_risk":4,"arthritis_risk":5,"migraine_risk":7,"frizz_risk":0,"updated_at":"2026-04-25T23:10:16.696494+05:30"},{"city":"Jalandhar","state":"Punjab","latitude":31.326,"longitude":75.5762,"temp":28.1,"humidity":40,"rain":0.0,"pressure":980.0,"uv_index":7.9,"wind_gusts":37.4,"aqi":93,"pm10":106.6,"pm2_5":41.7,"mosquito_risk":4,"arthritis_risk":5,"migraine_risk":7,"frizz_risk":0,"updated_at":"2026-04-25T23:10:16.696503+05:30"},{"city":"Dehradun","state":"Uttarakhand","latitude":30.6284,"longitude":78.0322,"temp":15.8,"humidity":57,"rain":0.0,"pressure":829.6,"uv_index":7.85,"wind_gusts":50.0,"aqi":50,"pm10":43.9,"pm2_5":18.1,"mosquito_risk":0,"arthritis_risk":5,"migraine_risk":7,"frizz_risk":0,"updated_at":"2026-04-25T23:10:16.696510+05:30"},{"city":"Shimla","state":"Himachal Pradesh","latitude":31.1048,"longitude":77.1734,"temp":14.0,"humidity":54,"rain":0.0,"pressure":785.4,"uv_index":7.6,"wind_gusts":55.1,"aqi":57,"pm10":75.4,"pm2_5":22.1,"mosquito_risk":0,"arthritis_risk":5,"migraine_risk":7,"frizz_risk":0,"updated_at":"2026-04-25T23:10:16.696517+05:30"},{"city":"Manali","state":"Himachal Pradesh","latitude":32.2396,"longitude":77.1887,"temp":9.0,"humidity":77,"rain":0.0,"pressure":818.6,"uv_index":9.85,"wind_gusts":43.9,"aqi":72,"pm10":16.4,"pm2_5":8.0,"mosquito_risk":3,"arthritis_risk":5,"migraine_risk":7,"frizz_risk":0,"updated_at":"2026-04-25T23:10:16.696524+05:30"},{"city":"Gurgaon","state":"Haryana","latitude":28.4595,"longitude":77.0266,"temp":31.5,"humidity":26,"rain":0.0,"pressure":981.5,"uv_index":7.5,"wind_gusts":47.2,"aqi":1393,"pm10":1460.3,"pm2_5":201.6,"mosquito_risk":0,"arthritis_risk":5,"migraine_risk":7,"frizz_risk":0,"updated_at":"2026-04-25T23:10:16.696531+05:30"},{"city":"Noida","state":"Uttar Pradesh","latitude":28.5355,"longitude":77.391,"temp":31.2,"humidity":27,"rain":0.0,"pressure":984.4,"uv_index":7.4,"wind_gusts":33.8,"aqi":1393,"pm10":1460.3,"pm2_5":201.6,"mosquito_risk":0,"arthritis_risk":5,"migraine_risk":7,"frizz_risk":0,"updated_at":"2026-04-25T23:10:16.696538+05:30"},{"city":"Ghaziabad","state":"Uttar Pradesh","latitude":28.6692,"longitude":77.4538,"temp":31.5,"humidity":27,"rain":0.0,"pressure":982.8,"uv_index":7.4,"wind_gusts":46.8,"aqi":367,"pm10":851.2,"pm2_5":135.5,"mosquito_risk":0,"arthritis_risk":5,"migraine_risk":7,"frizz_risk":0,"updated_at":"2026-04-25T23:10:16.696545+05:30"},{"city":"Faridabad","state":"Haryana","latitude":28.4089,"longitude":77.3178,"temp":33.8,"humidity":22,"rain":0.0,"pressure":983.8,"uv_index":7.5,"wind_gusts":48.6,"aqi":1393,"pm10":1460.3,"pm2_5":201.6,"mosquito_risk":0,"arthritis_risk":5,"migraine_risk":7,"frizz_risk":0,"updated_at":"2026-04-25T23:10:16.696552+05:30"},{"city":"Meerut","state":"Uttar Pradesh","latitude":28.9845,"longitude":77.7064,"temp":30.0,"humidity":31,"rain":0.0,"pressure":981.3,"uv_index":7.35,"wind_gusts":47.2,"aqi":367,"pm10":851.2,"pm2_5":135.5,"mosquito_risk":4,"arthritis_risk":5,"migraine_risk":7,"frizz_risk":0,"updated_at":"2026-04-25T23:10:16.696561+05:30"},{"city":"Agra","state":"Uttar Pradesh","latitude":27.1767,"longitude":78.0081,"temp":33.6,"humidity":23,"rain":0.0,"pressure":987.5,"uv_index":7.8,"wind_gusts":45.0,"aqi":575,"pm10":1922.2,"pm2_5":237.5,"mosquito_risk":0,"arthritis_risk":5,"migraine_risk":7,"frizz_risk":0,"updated_at":"2026-04-25T23:10:16.696570+05:30"},{"city":"Varanasi","state":"Uttar Pradesh","latitude":25.3176,"longitude":82.9739,"temp":31.6,"humidity":51,"rain":0.0,"pressure":996.7,"uv_index":8.5,"wind_gusts":38.9,"aqi":136,"pm10":182.1,"pm2_5":73.1,"mosquito_risk":0,"arthritis_risk":5,"migraine_risk":7,"frizz_risk":1,"updated_at":"2026-04-25T23:10:16.696577+05:30"},{"city":"Prayagraj","state":"Uttar Pradesh","latitude":25.4358,"longitude":81.8463,"temp":32.2,"humidity":25,"rain":0.0,"pressure":994.5,"uv_index":8.4,"wind_gusts":31.7,"aqi":113,"pm10":173.2,"pm2_5":58.4,"mosquito_risk":0,"arthritis_risk":5,"migraine_risk":7,"frizz_risk":0,"updated_at":"2026-04-25T23:10:16.696584+05:30"},{"city":"Gorakhpur","state":"Uttar Pradesh","latitude":26.7606,"longitude":83.3732,"temp":29.1,"humidity":63,"rain":0.0,"pressure":996.8,"uv_index":8.3,"wind_gusts":43.2,"aqi":152,"pm10":101.5,"pm2_5":56.7,"mosquito_risk":7,"arthritis_risk":5,"migraine_risk":7,"frizz_risk":1,"updated_at":"2026-04-25T23:10:16.696612+05:30"},{"city":"Bareilly","state":"Uttar Pradesh","latitude":28.367,"longitude":79.4304,"temp":30.4,"humidity":34,"rain":0.0,"pressure":985.8,"uv_index":7.7,"wind_gusts":48.6,"aqi":102,"pm10":140.2,"pm2_5":41.6,"mosquito_risk":0,"arthritis_risk":5,"migraine_risk":7,"frizz_risk":0,"updated_at":"2026-04-25T23:10:16.696620+05:30"},{"city":"Aligarh","state":"Uttar Pradesh","latitude":27.8974,"longitude":78.088,"temp":32.2,"humidity":25,"rain":0.0,"pressure":985.3,"uv_index":7.6,"wind_gusts":40.3,"aqi":587,"pm10":1229.3,"pm2_5":182.1,"mosquito_risk":0,"arthritis_risk":5,"migraine_risk":7,"frizz_risk":0,"updated_at":"2026-04-25T23:10:16.696627+05:30"},{"city":"Moradabad","state":"Uttar Pradesh","latitude":28.8386,"longitude":78.7733,"temp":30.0,"humidity":38,"rain":0.0,"pressure":983.0,"uv_index":7.55,"wind_gusts":57.2,"aqi":154,"pm10":291.5,"pm2_5":67.5,"mosquito_risk":4,"arthritis_risk":5,"migraine_risk":7,"frizz_risk":0,"updated_at":"2026-04-25T23:10:16.696633+05:30"},{"city":"Saharanpur","state":"Uttar Pradesh","latitude":29.9637,"longitude":77.546,"temp":30.4,"humidity":31,"rain":0.0,"pressure":975.4,"uv_index":7.15,"wind_gusts":54.0,"aqi":104,"pm10":160.2,"pm2_5":42.3,"mosquito_risk":0,"arthritis_risk":5,"migraine_risk":7,"frizz_risk":0,"updated_at":"2026-04-25T23:10:16.696639+05:30"},{"city":"Jhansi","state":"Uttar Pradesh","latitude":25.4484,"longitude":78.5685,"temp":32.8,"humidity":22,"rain":0.0,"pressure":978.1,"uv_index":8.3,"wind_gusts":32.0,"aqi":74,"pm10":97.6,"pm2_5":32.2,"mosquito_risk":0,"arthritis_risk":5,"migraine_risk":7,"frizz_risk":0,"updated_at":"2026-04-25T23:10:19.913353+05:30"},{"city":"Surat","state":"Gujarat","latitude":21.1702,"longitude":72.8311,"temp":31.2,"humidity":47,"rain":0.0,"pressure":1006.5,"uv_index":7.85,"wind_gusts":36.0,"aqi":105,"pm10":40.7,"pm2_5":31.3,"mosquito_risk":0,"arthritis_risk":5,"migraine_risk":4,"frizz_risk":1,"updated_at":"2026-04-25T23:10:19.913384+05:30"},{"city":"Vadodara","state":"Gujarat","latitude":22.3072,"longitude":73.1812,"temp":34.8,"humidity":20,"rain":0.0,"pressure":1003.9,"uv_index":8.15,"wind_gusts":30.6,"aqi":85,"pm10":44.9,"pm2_5":31.0,"mosquito_risk":0,"arthritis_risk":5,"migraine_risk":4,"frizz_risk":0,"updated_at":"2026-04-25T23:10:19.913393+05:30"},{"city":"Rajkot","state":"Gujarat","latitude":22.3039,"longitude":70.8022,"temp":28.5,"humidity":49,"rain":0.0,"pressure":995.4,"uv_index":7.9,"wind_gusts":36.0,"aqi":64,"pm10":56.9,"pm2_5":19.2,"mosquito_risk":4,"arthritis_risk":5,"migraine_risk":7,"frizz_risk":1,"updated_at":"2026-04-25T23:10:19.913401+05:30"},{"city":"Thane","state":"Maharashtra","latitude":19.2183,"longitude":72.9781,"temp":30.5,"humidity":52,"rain":0.0,"pressure":1008.1,"uv_index":8.0,"wind_gusts":41.0,"aqi":90,"pm10":42.3,"pm2_5":25.1,"mosquito_risk":0,"arthritis_risk":0,"migraine_risk":4,"frizz_risk":1,"updated_at":"2026-04-25T23:10:19.913408+05:30"},{"city":"Nagpur","state":"Maharashtra","latitude":21.1458,"longitude":79.0882,"temp":35.5,"humidity":17,"rain":0.0,"pressure":972.8,"uv_index":8.9,"wind_gusts":37.1,"aqi":132,"pm10":52.9,"pm2_5":45.1,"mosquito_risk":0,"arthritis_risk":5,"migraine_risk":10,"frizz_risk":0,"updated_at":"2026-04-25T23:10:19.913416+05:30"},{"city":"Nashik","state":"Maharashtra","latitude":19.9975,"longitude":73.7898,"temp":30.8,"humidity":20,"rain":0.0,"pressure":946.6,"uv_index":8.3,"wind_gusts":31.0,"aqi":129,"pm10":41.1,"pm2_5":28.3,"mosquito_risk":0,"arthritis_risk":5,"migraine_risk":7,"frizz_risk":0,"updated_at":"2026-04-25T23:10:19.913423+05:30"},{"city":"Aurangabad","state":"Maharashtra","latitude":19.8762,"longitude":75.3433,"temp":33.0,"humidity":20,"rain":0.0,"pressure":944.9,"uv_index":8.75,"wind_gusts":29.5,"aqi":103,"pm10":49.7,"pm2_5":40.4,"mosquito_risk":0,"arthritis_risk":5,"migraine_risk":7,"frizz_risk":0,"updated_at":"2026-04-25T23:10:19.913430+05:30"},{"city":"Solapur","state":"Maharashtra","latitude":17.6599,"longitude":75.9064,"temp":32.5,"humidity":26,"rain":0.0,"pressure":957.3,"uv_index":8.6,"wind_gusts":25.6,"aqi":151,"pm10":47.5,"pm2_5":43.7,"mosquito_risk":0,"arthritis_risk":5,"migraine_risk":7,"frizz_risk":0,"updated_at":"2026-04-25T23:10:19.913438+05:30"},{"city":"Kolhapur","state":"Maharashtra","latitude":16.705,"longitude":74.2433,"temp":26.8,"humidity":80,"rain":0.0,"pressure":949.1,"uv_index":9.05,"wind_gusts":37.8,"aqi":151,"pm10":59.5,"pm2_5":56.1,"mosquito_risk":7,"arthritis_risk":5,"migraine_risk":7,"frizz_risk":1,"updated_at":"2026-04-25T23:10:19.913445+05:30"},{"city":"Goa","state":"Goa","latitude":15.2993,"longitude":74.124,"temp":29.4,"humidity":83,"rain":0.0,"pressure":998.1,"uv_index":8.9,"wind_gusts":29.5,"aqi":73,"pm10":39.8,"pm2_5":31.2,"mosquito_risk":7,"arthritis_risk":5,"migraine_risk":7,"frizz_risk":1,"updated_at":"2026-04-25T23:10:19.913452+05:30"},{"city":"Jodhpur","state":"Rajasthan","latitude":26.2389,"longitude":73.0243,"temp":35.6,"humidity":20,"rain":0.0,"pressure":983.3,"uv_index":8.3,"wind_gusts":32.8,"aqi":87,"pm10":167.2,"pm2_5":32.0,"mosquito_risk":0,"arthritis_risk":5,"migraine_risk":10,"frizz_risk":0,"updated_at":"2026-04-25T23:10:19.913459+05:30"},{"city":"Udaipur","state":"Rajasthan","latitude":24.5854,"longitude":73.7125,"temp":31.0,"humidity":26,"rain":0.0,"pressure":947.6,"uv_index":8.8,"wind_gusts":41.0,"aqi":64,"pm10":48.8,"pm2_5":19.8,"mosquito_risk":0,"arthritis_risk":5,"migraine_risk":7,"frizz_risk":0,"updated_at":"2026-04-25T23:10:19.913466+05:30"},{"city":"Kota","state":"Rajasthan","latitude":25.2138,"longitude":75.8648,"temp":31.6,"humidity":30,"rain":0.0,"pressure":979.2,"uv_index":8.3,"wind_gusts":31.3,"aqi":76,"pm10":108.3,"pm2_5":44.4,"mosquito_risk":0,"arthritis_risk":5,"migraine_risk":7,"frizz_risk":0,"updated_at":"2026-04-25T23:10:19.913472+05:30"},{"city":"Bikaner","state":"Rajasthan","latitude":28.0229,"longitude":73.3119,"temp":33.0,"humidity":30,"rain":0.0,"pressure":982.4,"uv_index":8.15,"wind_gusts":38.5,"aqi":75,"pm10":79.2,"pm2_5":25.0,"mosquito_risk":0,"arthritis_risk":5,"migraine_risk":7,"frizz_risk":0,"updated_at":"2026-04-25T23:10:19.913479+05:30"},{"city":"Ajmer","state":"Rajasthan","latitude":26.4499,"longitude":74.6399,"temp":32.5,"humidity":27,"rain":0.0,"pressure":955.8,"uv_index":8.25,"wind_gusts":35.6,"aqi":81,"pm10":88.9,"pm2_5":30.5,"mosquito_risk":0,"arthritis_risk":5,"migraine_risk":7,"frizz_risk":0,"updated_at":"2026-04-25T23:10:19.913485+05:30"},{"city":"Gwalior","state":"Madhya Pradesh","latitude":26.2183,"longitude":78.1828,"temp":34.0,"humidity":22,"rain":0.0,"pressure":983.5,"uv_index":8.0,"wind_gusts":41.0,"aqi":90,"pm10":228.2,"pm2_5":48.2,"mosquito_risk":0,"arthritis_risk":5,"migraine_risk":7,"frizz_risk":0,"updated_at":"2026-04-25T23:10:19.913492+05:30"},{"city":"Indore","state":"Madhya Pradesh","latitude":22.7196,"longitude":75.8577,"temp":33.5,"humidity":18,"rain":0.0,"pressure":949.2,"uv_index":8.65,"wind_gusts":32.0,"aqi":58,"pm10":62.6,"pm2_5":38.2,"mosquito_risk":0,"arthritis_risk":5,"migraine_risk":7,"frizz_risk":0,"updated_at":"2026-04-25T23:10:19.913498+05:30"},{"city":"Bhopal","state":"Madhya Pradesh","latitude":23.2599,"longitude":77.4126,"temp":34.2,"humidity":16,"rain":0.0,"pressure":953.8,"uv_index":8.65,"wind_gusts":30.6,"aqi":82,"pm10":43.9,"pm2_5":28.1,"mosquito_risk":0,"arthritis_risk":5,"migraine_risk":7,"frizz_risk":0,"updated_at":"2026-04-25T23:10:19.913504+05:30"},{"city":"Jabalpur","state":"Madhya Pradesh","latitude":23.1815,"longitude":79.9864,"temp":31.1,"humidity":22,"rain":0.0,"pressure":961.3,"uv_index":8.75,"wind_gusts":34.9,"aqi":82,"pm10":24.3,"pm2_5":17.9,"mosquito_risk":0,"arthritis_risk":5,"migraine_risk":7,"frizz_risk":0,"updated_at":"2026-04-25T23:10:19.913511+05:30"},{"city":"Ujjain","state":"Madhya Pradesh","latitude":23.1765,"longitude":75.7885,"temp":33.0,"humidity":19,"rain":0.0,"pressure":954.4,"uv_index":8.55,"wind_gusts":29.2,"aqi":63,"pm10":71.9,"pm2_5":41.8,"mosquito_risk":0,"arthritis_risk":5,"migraine_risk":7,"frizz_risk":0,"updated_at":"2026-04-25T23:10:19.913518+05:30"},{"city":"Visakhapatnam","state":"Andhra Pradesh","latitude":17.6868,"longitude":83.2185,"temp":28.0,"humidity":89,"rain":0.0,"pressure":1004.4,"uv_index":8.7,"wind_gusts":42.8,"aqi":58,"pm10":17.4,"pm2_5":12.8,"mosquito_risk":7,"arthritis_risk":5,"migraine_risk":4,"frizz_risk":1,"updated_at":"2026-04-25T23:10:19.913525+05:30"},{"city":"Vijayawada","state":"Andhra Pradesh","latitude":16.5062,"longitude":80.648,"temp":28.4,"humidity":84,"rain":0.0,"pressure":1003.7,"uv_index":8.85,"wind_gusts":31.0,"aqi":52,"pm10":14.9,"pm2_5":12.0,"mosquito_risk":7,"arthritis_risk":5,"migraine_risk":4,"frizz_risk":1,"updated_at":"2026-04-25T23:10:19.913531+05:30"},{"city":"Guntur","state":"Andhra Pradesh","latitude":16.3067,"longitude":80.4365,"temp":27.9,"humidity":89,"rain":0.0,"pressure":1005.0,"uv_index":8.6,"wind_gusts":36.7,"aqi":53,"pm10":15.5,"pm2_5":12.2,"mosquito_risk":7,"arthritis_risk":5,"migraine_risk":4,"frizz_risk":1,"updated_at":"2026-04-25T23:10:19.913538+05:30"},{"city":"Nellore","state":"Andhra Pradesh","latitude":14.4426,"longitude":79.9865,"temp":27.8,"humidity":87,"rain":0.0,"pressure":1006.6,"uv_index":9.25,"wind_gusts":42.1,"aqi":43,"pm10":11.3,"pm2_5":8.1,"mosquito_risk":7,"arthritis_risk":5,"migraine_risk":4,"frizz_risk":1,"updated_at":"2026-04-25T23:10:19.913545+05:30"},{"city":"Kurnool","state":"Andhra Pradesh","latitude":15.8281,"longitude":78.0373,"temp":32.8,"humidity":40,"rain":0.0,"pressure":977.8,"uv_index":8.9,"wind_gusts":34.2,"aqi":95,"pm10":50.3,"pm2_5":43.5,"mosquito_risk":0,"arthritis_risk":5,"migraine_risk":7,"frizz_risk":1,"updated_at":"2026-04-25T23:10:19.913552+05:30"},{"city":"Kakinada","state":"Andhra Pradesh","latitude":16.9891,"longitude":82.2475,"temp":28.4,"humidity":84,"rain":0.0,"pressure":1008.2,"uv_index":8.45,"wind_gusts":37.1,"aqi":40,"pm10":15.1,"pm2_5":9.8,"mosquito_risk":7,"arthritis_risk":0,"migraine_risk":4,"frizz_risk":1,"updated_at":"2026-04-25T23:10:19.913558+05:30"},{"city":"Tirupati","state":"Andhra Pradesh","latitude":13.6288,"longitude":79.4192,"temp":29.1,"humidity":62,"rain":0.0,"pressure":992.3,"uv_index":9.35,"wind_gusts":34.9,"aqi":59,"pm10":18.6,"pm2_5":15.9,"mosquito_risk":7,"arthritis_risk":5,"migraine_risk":7,"frizz_risk":1,"updated_at":"2026-04-25T23:10:19.913564+05:30"},{"city":"Warangal","state":"Telangana","latitude":17.9689,"longitude":79.5941,"temp":30.9,"humidity":44,"rain":0.0,"pressure":979.5,"uv_index":9.0,"wind_gusts":29.5,"aqi":110,"pm10":41.0,"pm2_5":37.7,"mosquito_risk":0,"arthritis_risk":5,"migraine_risk":7,"frizz_risk":1,"updated_at":"2026-04-25T23:10:19.913571+05:30"},{"city":"Nizamabad","state":"Telangana","latitude":18.6725,"longitude":78.0941,"temp":31.9,"humidity":31,"rain":0.0,"pressure":965.2,"uv_index":8.75,"wind_gusts":27.7,"aqi":121,"pm10":60.8,"pm2_5":55.5,"mosquito_risk":0,"arthritis_risk":5,"migraine_risk":7,"frizz_risk":0,"updated_at":"2026-04-25T23:10:19.913577+05:30"},{"city":"Mysore","state":"Karnataka","latitude":12.2958,"longitude":76.6396,"temp":26.2,"humidity":56,"rain":0.0,"pressure":929.1,"uv_index":8.9,"wind_gusts":45.0,"aqi":86,"pm10":28.1,"pm2_5":25.1,"mosquito_risk":4,"arthritis_risk":5,"migraine_risk":7,"frizz_risk":1,"updated_at":"2026-04-25T23:10:19.913584+05:30"},{"city":"Mangalore","state":"Karnataka","latitude":12.9141,"longitude":74.856,"temp":29.5,"humidity":82,"rain":0.0,"pressure":1007.0,"uv_index":9.1,"wind_gusts":40.7,"aqi":64,"pm10":27.6,"pm2_5":20.5,"mosquito_risk":7,"arthritis_risk":5,"migraine_risk":4,"frizz_risk":1,"updated_at":"2026-04-25T23:10:19.913590+05:30"},{"city":"Hubli-Dharwad","state":"Karnataka","latitude":15.3647,"longitude":75.124,"temp":27.2,"humidity":64,"rain":0.0,"pressure":941.0,"uv_index":9.0,"wind_gusts":47.5,"aqi":113,"pm10":34.7,"pm2_5":32.7,"mosquito_risk":7,"arthritis_risk":5,"migraine_risk":7,"frizz_risk":1,"updated_at":"2026-04-25T23:10:19.913618+05:30"},{"city":"Belgaum","state":"Karnataka","latitude":15.8497,"longitude":74.4977,"temp":25.1,"humidity":82,"rain":0.0,"pressure":926.5,"uv_index":9.2,"wind_gusts":34.9,"aqi":117,"pm10":39.5,"pm2_5":36.2,"mosquito_risk":7,"arthritis_risk":5,"migraine_risk":7,"frizz_risk":1,"updated_at":"2026-04-25T23:10:23.136078+05:30"},{"city":"Coimbatore","state":"Tamil Nadu","latitude":11.0168,"longitude":76.9558,"temp":28.7,"humidity":62,"rain":0.0,"pressure":962.7,"uv_index":8.95,"wind_gusts":46.1,"aqi":76,"pm10":36.6,"pm2_5":33.4,"mosquito_risk":7,"arthritis_risk":5,"migraine_risk":7,"frizz_risk":1,"updated_at":"2026-04-25T23:10:23.136109+05:30"},{"city":"Madurai","state":"Tamil Nadu","latitude":9.9252,"longitude":78.1198,"temp":29.8,"humidity":55,"rain":0.0,"pressure":994.3,"uv_index":9.25,"wind_gusts":39.2,"aqi":57,"pm10":12.0,"pm2_5":11.4,"mosquito_risk":4,"arthritis_risk":5,"migraine_risk":7,"frizz_risk":1,"updated_at":"2026-04-25T23:10:23.136119+05:30"},{"city":"Trichy","state":"Tamil Nadu","latitude":10.7905,"longitude":78.7047,"temp":28.6,"humidity":73,"rain":0.0,"pressure":1001.0,"uv_index":9.3,"wind_gusts":33.8,"aqi":55,"pm10":15.4,"pm2_5":14.2,"mosquito_risk":7,"arthritis_risk":5,"migraine_risk":4,"frizz_risk":1,"updated_at":"2026-04-25T23:10:23.136128+05:30"},{"city":"Salem","state":"Tamil Nadu","latitude":11.6643,"longitude":78.146,"temp":29.7,"humidity":55,"rain":0.0,"pressure":978.1,"uv_index":9.0,"wind_gusts":38.9,"aqi":84,"pm10":31.4,"pm2_5":28.2,"mosquito_risk":4,"arthritis_risk":5,"migraine_risk":7,"frizz_risk":1,"updated_at":"2026-04-25T23:10:23.136135+05:30"},{"city":"Tirunelveli","state":"Tamil Nadu","latitude":8.7139,"longitude":77.7567,"temp":28.5,"humidity":73,"rain":0.0,"pressure":1004.3,"uv_index":9.2,"wind_gusts":40.0,"aqi":61,"pm10":15.8,"pm2_5":14.9,"mosquito_risk":7,"arthritis_risk":5,"migraine_risk":4,"frizz_risk":1,"updated_at":"2026-04-25T23:10:23.136143+05:30"},{"city":"Vellore","state":"Tamil Nadu","latitude":12.9165,"longitude":79.1325,"temp":28.2,"humidity":66,"rain":0.0,"pressure":985.4,"uv_index":9.35,"wind_gusts":35.6,"aqi":79,"pm10":32.1,"pm2_5":30.0,"mosquito_risk":7,"arthritis_risk":5,"migraine_risk":7,"frizz_risk":1,"updated_at":"2026-04-25T23:10:23.136150+05:30"},{"city":"Erode","state":"Tamil Nadu","latitude":11.341,"longitude":77.7172,"temp":31.5,"humidity":48,"rain":0.0,"pressure":989.7,"uv_index":9.3,"wind_gusts":41.8,"aqi":60,"pm10":24.2,"pm2_5":21.7,"mosquito_risk":0,"arthritis_risk":5,"migraine_risk":7,"frizz_risk":1,"updated_at":"2026-04-25T23:10:23.136157+05:30"},{"city":"Kochi","state":"Kerala","latitude":9.9312,"longitude":76.2673,"temp":28.4,"humidity":82,"rain":0.0,"pressure":1009.5,"uv_index":8.4,"wind_gusts":42.1,"aqi":95,"pm10":26.3,"pm2_5":24.7,"mosquito_risk":7,"arthritis_risk":0,"migraine_risk":4,"frizz_risk":1,"updated_at":"2026-04-25T23:10:23.136165+05:30"},{"city":"Thiruvananthapuram","state":"Kerala","latitude":8.5241,"longitude":76.9366,"temp":26.4,"humidity":89,"rain":0.0,"pressure":1009.0,"uv_index":8.6,"wind_gusts":33.8,"aqi":61,"pm10":16.8,"pm2_5":12.6,"mosquito_risk":7,"arthritis_risk":0,"migraine_risk":4,"frizz_risk":1,"updated_at":"2026-04-25T23:10:23.136172+05:30"},{"city":"Kozhikode","state":"Kerala","latitude":11.2588,"longitude":75.7804,"temp":28.0,"humidity":89,"rain":0.0,"pressure":1008.2,"uv_index":8.7,"wind_gusts":36.7,"aqi":60,"pm10":18.9,"pm2_5":13.4,"mosquito_risk":7,"arthritis_risk":0,"migraine_risk":4,"frizz_risk":1,"updated_at":"2026-04-25T23:10:23.136179+05:30"},{"city":"Thrissur","state":"Kerala","latitude":10.5276,"longitude":76.2144,"temp":27.6,"humidity":86,"rain":0.0,"pressure":1007.7,"uv_index":8.1,"wind_gusts":44.6,"aqi":78,"pm10":26.6,"pm2_5":25.3,"mosquito_risk":7,"arthritis_risk":5,"migraine_risk":4,"frizz_risk":1,"updated_at":"2026-04-25T23:10:23.136186+05:30"},{"city":"Kannur","state":"Kerala","latitude":11.8745,"longitude":75.3704,"temp":29.4,"humidity":83,"rain":0.0,"pressure":1007.3,"uv_index":8.6,"wind_gusts":40.0,"aqi":65,"pm10":25.2,"pm2_5":19.7,"mosquito_risk":7,"arthritis_risk":5,"migraine_risk":4,"frizz_risk":1,"updated_at":"2026-04-25T23:10:23.136193+05:30"},{"city":"Patna","state":"Bihar","latitude":25.5941,"longitude":85.1376,"temp":27.5,"humidity":77,"rain":0.0,"pressure":1000.5,"uv_index":8.65,"wind_gusts":60.1,"aqi":152,"pm10":73.6,"pm2_5":59.3,"mosquito_risk":7,"arthritis_risk":5,"migraine_risk":4,"frizz_risk":1,"updated_at":"2026-04-25T23:10:23.136200+05:30"},{"city":"Gaya","state":"Bihar","latitude":24.7914,"longitude":85.0002,"temp":28.7,"humidity":68,"rain":0.0,"pressure":993.1,"uv_index":8.7,"wind_gusts":50.8,"aqi":140,"pm10":71.5,"pm2_5":55.4,"mosquito_risk":7,"arthritis_risk":5,"migraine_risk":7,"frizz_risk":1,"updated_at":"2026-04-25T23:10:23.136207+05:30"},{"city":"Muzaffarpur","state":"Bihar","latitude":26.1209,"longitude":85.3647,"temp":26.1,"humidity":78,"rain":0.0,"pressure":1000.5,"uv_index":8.6,"wind_gusts":50.4,"aqi":154,"pm10":76.8,"pm2_5":61.0,"mosquito_risk":7,"arthritis_risk":5,"migraine_risk":4,"frizz_risk":1,"updated_at":"2026-04-25T23:10:23.136214+05:30"},{"city":"Bhagalpur","state":"Bihar","latitude":25.2425,"longitude":87.0117,"temp":27.1,"humidity":81,"rain":0.0,"pressure":1001.3,"uv_index":8.6,"wind_gusts":55.1,"aqi":175,"pm10":63.1,"pm2_5":54.9,"mosquito_risk":7,"arthritis_risk":5,"migraine_risk":4,"frizz_risk":1,"updated_at":"2026-04-25T23:10:23.136220+05:30"},{"city":"Ranchi","state":"Jharkhand","latitude":23.3441,"longitude":85.3096,"temp":26.0,"humidity":38,"rain":0.0,"pressure":937.4,"uv_index":9.2,"wind_gusts":28.8,"aqi":141,"pm10":48.7,"pm2_5":41.7,"mosquito_risk":4,"arthritis_risk":5,"migraine_risk":7,"frizz_risk":0,"updated_at":"2026-04-25T23:10:23.136227+05:30"},{"city":"Jamshedpur","state":"Jharkhand","latitude":22.8046,"longitude":86.2029,"temp":30.1,"humidity":71,"rain":0.0,"pressure":990.0,"uv_index":8.9,"wind_gusts":33.5,"aqi":131,"pm10":40.9,"pm2_5":35.2,"mosquito_risk":3,"arthritis_risk":5,"migraine_risk":7,"frizz_risk":1,"updated_at":"2026-04-25T23:10:23.136233+05:30"},{"city":"Dhanbad","state":"Jharkhand","latitude":23.7957,"longitude":86.4304,"temp":29.5,"humidity":77,"rain":0.0,"pressure":979.9,"uv_index":8.95,"wind_gusts":48.6,"aqi":155,"pm10":46.3,"pm2_5":43.0,"mosquito_risk":7,"arthritis_risk":5,"migraine_risk":7,"frizz_risk":1,"updated_at":"2026-04-25T23:10:23.136240+05:30"},{"city":"Bokaro","state":"Jharkhand","latitude":23.6693,"longitude":86.1511,"temp":29.2,"humidity":79,"rain":0.0,"pressure":983.5,"uv_index":8.95,"wind_gusts":33.1,"aqi":154,"pm10":58.0,"pm2_5":52.3,"mosquito_risk":7,"arthritis_risk":5,"migraine_risk":7,"frizz_risk":1,"updated_at":"2026-04-25T23:10:23.136246+05:30"},{"city":"Bhubaneswar","state":"Odisha","latitude":20.2961,"longitude":85.8245,"temp":26.7,"humidity":94,"rain":0.0,"pressure":1003.2,"uv_index":9.1,"wind_gusts":41.0,"aqi":61,"pm10":15.5,"pm2_5":12.0,"mosquito_risk":7,"arthritis_risk":5,"migraine_risk":4,"frizz_risk":1,"updated_at":"2026-04-25T23:10:23.136253+05:30"},{"city":"Cuttack","state":"Odisha","latitude":20.4625,"longitude":85.8828,"temp":26.9,"humidity":93,"rain":0.0,"pressure":1004.9,"uv_index":9.15,"wind_gusts":38.2,"aqi":61,"pm10":15.5,"pm2_5":12.0,"mosquito_risk":7,"arthritis_risk":5,"migraine_risk":4,"frizz_risk":1,"updated_at":"2026-04-25T23:10:23.136259+05:30"},{"city":"Rourkela","state":"Odisha","latitude":22.2604,"longitude":84.8536,"temp":29.9,"humidity":62,"rain":0.0,"pressure":984.3,"uv_index":8.6,"wind_gusts":45.0,"aqi":182,"pm10":49.7,"pm2_5":43.7,"mosquito_risk":7,"arthritis_risk":5,"migraine_risk":7,"frizz_risk":1,"updated_at":"2026-04-25T23:10:23.136265+05:30"},{"city":"Raipur","state":"Chhattisgarh","latitude":21.2514,"longitude":81.6296,"temp":33.8,"humidity":19,"rain":0.0,"pressure":973.5,"uv_index":8.95,"wind_gusts":31.0,"aqi":139,"pm10":42.0,"pm2_5":36.4,"mosquito_risk":0,"arthritis_risk":5,"migraine_risk":7,"frizz_risk":0,"updated_at":"2026-04-25T23:10:23.136272+05:30"},{"city":"Bhilai","state":"Chhattisgarh","latitude":21.1938,"longitude":81.3509,"temp":32.8,"humidity":24,"rain":0.0,"pressure":974.0,"uv_index":9.0,"wind_gusts":35.6,"aqi":111,"pm10":44.2,"pm2_5":39.0,"mosquito_risk":0,"arthritis_risk":5,"migraine_risk":7,"frizz_risk":0,"updated_at":"2026-04-25T23:10:23.136278+05:30"},{"city":"Guwahati","state":"Assam","latitude":26.1158,"longitude":91.7086,"temp":23.4,"humidity":93,"rain":0.0,"pressure":1003.2,"uv_index":8.55,"wind_gusts":42.1,"aqi":159,"pm10":80.3,"pm2_5":65.0,"mosquito_risk":3,"arthritis_risk":5,"migraine_risk":4,"frizz_risk":1,"updated_at":"2026-04-25T23:10:23.136285+05:30"},{"city":"Agartala","state":"Tripura","latitude":23.8315,"longitude":91.2868,"temp":28.5,"humidity":69,"rain":0.0,"pressure":1007.0,"uv_index":8.75,"wind_gusts":35.6,"aqi":151,"pm10":74.5,"pm2_5":61.2,"mosquito_risk":7,"arthritis_risk":5,"migraine_risk":4,"frizz_risk":1,"updated_at":"2026-04-25T23:10:23.136291+05:30"},{"city":"Shillong","state":"Meghalaya","latitude":25.5788,"longitude":91.8933,"temp":17.5,"humidity":81,"rain":0.0,"pressure":857.8,"uv_index":8.2,"wind_gusts":29.5,"aqi":144,"pm10":66.1,"pm2_5":49.2,"mosquito_risk":3,"arthritis_risk":10,"migraine_risk":7,"frizz_risk":0,"updated_at":"2026-04-25T23:10:23.136298+05:30"},{"city":"Imphal","state":"Manipur","latitude":24.817,"longitude":93.9368,"temp":18.9,"humidity":86,"rain":0.0,"pressure":923.3,"uv_index":9.1,"wind_gusts":38.5,"aqi":154,"pm10":122.9,"pm2_5":83.1,"mosquito_risk":3,"arthritis_risk":10,"migraine_risk":7,"frizz_risk":1,"updated_at":"2026-04-25T23:10:23.136305+05:30"},{"city":"Aizawl","state":"Mizoram","latitude":23.7271,"longitude":92.7176,"temp":20.7,"humidity":64,"rain":0.0,"pressure":893.8,"uv_index":8.95,"wind_gusts":39.6,"aqi":117,"pm10":89.4,"pm2_5":43.8,"mosquito_risk":3,"arthritis_risk":5,"migraine_risk":7,"frizz_risk":0,"updated_at":"2026-04-25T23:10:23.136311+05:30"},{"city":"Kohima","state":"Nagaland","latitude":25.6701,"longitude":94.1077,"temp":14.8,"humidity":93,"rain":0.0,"pressure":854.7,"uv_index":8.8,"wind_gusts":38.2,"aqi":157,"pm10":118.7,"pm2_5":87.3,"mosquito_risk":3,"arthritis_risk":10,"migraine_risk":7,"frizz_risk":0,"updated_at":"2026-04-25T23:10:23.136317+05:30"},{"city":"Gangtok","state":"Sikkim","latitude":27.3314,"longitude":88.6138,"temp":13.7,"humidity":86,"rain":0.0,"pressure":838.1,"uv_index":8.8,"wind_gusts":41.4,"aqi":86,"pm10":44.9,"pm2_5":33.2,"mosquito_risk":3,"arthritis_risk":10,"migraine_risk":7,"frizz_risk":0,"updated_at":"2026-04-25T23:10:23.136324+05:30"},{"city":"Siliguri","state":"West Bengal","latitude":26.7271,"longitude":88.3953,"temp":24.0,"humidity":77,"rain":0.0,"pressure":994.3,"uv_index":8.45,"wind_gusts":33.8,"aqi":149,"pm10":88.9,"pm2_5":67.3,"mosquito_risk":3,"arthritis_risk":5,"migraine_risk":7,"frizz_risk":1,"updated_at":"2026-04-25T23:10:26.368050+05:30"},{"city":"Durgapur","state":"West Bengal","latitude":23.5204,"longitude":87.3119,"temp":27.9,"humidity":85,"rain":0.0,"pressure":995.5,"uv_index":8.9,"wind_gusts":38.5,"aqi":130,"pm10":34.2,"pm2_5":31.9,"mosquito_risk":7,"arthritis_risk":5,"migraine_risk":7,"frizz_risk":1,"updated_at":"2026-04-25T23:10:26.368081+05:30"},{"city":"Asansol","state":"West Bengal","latitude":23.6739,"longitude":86.9524,"temp":28.5,"humidity":83,"rain":0.0,"pressure":993.8,"uv_index":8.95,"wind_gusts":41.0,"aqi":135,"pm10":34.2,"pm2_5":32.0,"mosquito_risk":7,"arthritis_risk":5,"migraine_risk":7,"frizz_risk":1,"updated_at":"2026-04-25T23:10:26.368091+05:30"},{"city":"Pondicherry","state":"Puducherry","latitude":11.9139,"longitude":79.8145,"temp":28.8,"humidity":81,"rain":0.0,"pressure":1009.4,"uv_index":9.2,"wind_gusts":43.6,"aqi":28,"pm10":12.2,"pm2_5":7.7,"mosquito_risk":7,"arthritis_risk":0,"migraine_risk":4,"frizz_risk":1,"updated_at":"2026-04-25T23:10:26.368099+05:30"},{"city":"Port Blair","state":"Andaman and Nicobar Islands","latitude":11.6234,"longitude":92.7265,"temp":27.3,"humidity":86,"rain":0.0,"pressure":1008.5,"uv_index":9.15,"wind_gusts":33.1,"aqi":42,"pm10":24.5,"pm2_5":16.9,"mosquito_risk":7,"arthritis_risk":0,"migraine_risk":4,"frizz_risk":1,"updated_at":"2026-04-25T23:10:26.368107+05:30"},{"city":"Haridwar","state":"Uttarakhand","latitude":29.9457,"longitude":78.1642,"temp":24.6,"humidity":52,"rain":0.0,"pressure":973.0,"uv_index":7.25,"wind_gusts":35.6,"aqi":78,"pm10":62.2,"pm2_5":29.2,"mosquito_risk":0,"arthritis_risk":5,"migraine_risk":7,"frizz_risk":0,"updated_at":"2026-04-25T23:10:26.368115+05:30"},{"city":"Rishikesh","state":"Uttarakhand","latitude":30.0869,"longitude":78.2676,"temp":22.6,"humidity":56,"rain":0.0,"pressure":965.5,"uv_index":7.35,"wind_gusts":28.4,"aqi":70,"pm10":116.9,"pm2_5":36.3,"mosquito_risk":0,"arthritis_risk":5,"migraine_risk":7,"frizz_risk":0,"updated_at":"2026-04-25T23:10:26.368122+05:30"},{"city":"Nainital","state":"Uttarakhand","latitude":29.3919,"longitude":79.4542,"temp":15.4,"humidity":57,"rain":0.0,"pressure":805.6,"uv_index":8.2,"wind_gusts":40.3,"aqi":117,"pm10":76.1,"pm2_5":28.1,"mosquito_risk":0,"arthritis_risk":5,"migraine_risk":7,"frizz_risk":0,"updated_at":"2026-04-25T23:10:26.368129+05:30"},{"city":"Mussoorie","state":"Uttarakhand","latitude":30.4599,"longitude":78.0664,"temp":17.9,"humidity":45,"rain":0.0,"pressure":804.4,"uv_index":7.75,"wind_gusts":59.4,"aqi":65,"pm10":68.7,"pm2_5":31.7,"mosquito_risk":0,"arthritis_risk":5,"migraine_risk":7,"frizz_risk":0,"updated_at":"2026-04-25T23:10:26.368137+05:30"},{"city":"Dharamshala","state":"Himachal Pradesh","latitude":32.219,"longitude":76.3234,"temp":21.4,"humidity":42,"rain":0.0,"pressure":871.2,"uv_index":7.65,"wind_gusts":59.8,"aqi":50,"pm10":44.6,"pm2_5":16.8,"mosquito_risk":0,"arthritis_risk":5,"migraine_risk":7,"frizz_risk":0,"updated_at":"2026-04-25T23:10:26.368144+05:30"},{"city":"Dalhousie","state":"Himachal Pradesh","latitude":32.5387,"longitude":75.971,"temp":11.9,"humidity":69,"rain":0.0,"pressure":803.6,"uv_index":8.1,"wind_gusts":45.7,"aqi":62,"pm10":73.3,"pm2_5":33.8,"mosquito_risk":3,"arthritis_risk":5,"migraine_risk":7,"frizz_risk":0,"updated_at":"2026-04-25T23:10:26.368152+05:30"},{"city":"Patiala","state":"Punjab","latitude":30.3398,"longitude":76.3869,"temp":29.3,"humidity":35,"rain":0.0,"pressure":978.5,"uv_index":7.35,"wind_gusts":56.2,"aqi":655,"pm10":685.5,"pm2_5":91.0,"mosquito_risk":4,"arthritis_risk":5,"migraine_risk":7,"frizz_risk":0,"updated_at":"2026-04-25T23:10:26.368159+05:30"},{"city":"Bhatinda","state":"Punjab","latitude":30.211,"longitude":74.9455,"temp":30.1,"humidity":31,"rain":0.0,"pressure":984.0,"uv_index":8.05,"wind_gusts":52.9,"aqi":91,"pm10":112.9,"pm2_5":43.4,"mosquito_risk":0,"arthritis_risk":5,"migraine_risk":7,"frizz_risk":0,"updated_at":"2026-04-25T23:10:26.368165+05:30"},{"city":"Rohtak","state":"Haryana","latitude":28.8955,"longitude":76.6066,"temp":30.1,"humidity":30,"rain":0.0,"pressure":981.9,"uv_index":7.35,"wind_gusts":51.1,"aqi":860,"pm10":998.4,"pm2_5":149.9,"mosquito_risk":0,"arthritis_risk":5,"migraine_risk":7,"frizz_risk":0,"updated_at":"2026-04-25T23:10:26.368172+05:30"},{"city":"Panipat","state":"Haryana","latitude":29.3909,"longitude":76.9635,"temp":30.9,"humidity":29,"rain":0.0,"pressure":980.5,"uv_index":7.15,"wind_gusts":54.0,"aqi":1550,"pm10":1523.6,"pm2_5":197.0,"mosquito_risk":0,"arthritis_risk":5,"migraine_risk":7,"frizz_risk":0,"updated_at":"2026-04-25T23:10:26.368178+05:30"},{"city":"Mathura","state":"Uttar Pradesh","latitude":27.4924,"longitude":77.6737,"temp":32.6,"humidity":25,"rain":0.0,"pressure":986.6,"uv_index":7.75,"wind_gusts":45.0,"aqi":696,"pm10":1724.8,"pm2_5":233.8,"mosquito_risk":0,"arthritis_risk":5,"migraine_risk":7,"frizz_risk":0,"updated_at":"2026-04-25T23:10:26.368184+05:30"},{"city":"Vrindavan","state":"Uttar Pradesh","latitude":27.5823,"longitude":77.7027,"temp":31.9,"humidity":27,"rain":0.0,"pressure":987.0,"uv_index":7.65,"wind_gusts":44.6,"aqi":696,"pm10":1724.8,"pm2_5":233.8,"mosquito_risk":0,"arthritis_risk":5,"migraine_risk":7,"frizz_risk":0,"updated_at":"2026-04-25T23:10:26.368191+05:30"},{"city":"Ayodhya","state":"Uttar Pradesh","latitude":26.7922,"longitude":82.1998,"temp":29.2,"humidity":62,"rain":0.0,"pressure":994.6,"uv_index":8.05,"wind_gusts":35.3,"aqi":140,"pm10":149.5,"pm2_5":65.4,"mosquito_risk":7,"arthritis_risk":5,"migraine_risk":7,"frizz_risk":1,"updated_at":"2026-04-25T23:10:26.368197+05:30"},{"city":"Ratlam","state":"Madhya Pradesh","latitude":23.3315,"longitude":75.0367,"temp":33.0,"humidity":20,"rain":0.0,"pressure":955.3,"uv_index":8.45,"wind_gusts":29.9,"aqi":63,"pm10":71.9,"pm2_5":42.7,"mosquito_risk":0,"arthritis_risk":5,"migraine_risk":7,"frizz_risk":0,"updated_at":"2026-04-25T23:10:26.368204+05:30"},{"city":"Sagar","state":"Madhya Pradesh","latitude":23.8388,"longitude":78.7378,"temp":30.9,"humidity":23,"rain":0.0,"pressure":950.2,"uv_index":8.65,"wind_gusts":29.9,"aqi":79,"pm10":62.6,"pm2_5":22.1,"mosquito_risk":0,"arthritis_risk":5,"migraine_risk":7,"frizz_risk":0,"updated_at":"2026-04-25T23:10:26.368210+05:30"},{"city":"Satna","state":"Madhya Pradesh","latitude":24.6005,"longitude":80.8322,"temp":31.5,"humidity":25,"rain":0.0,"pressure":970.4,"uv_index":8.65,"wind_gusts":41.0,"aqi":86,"pm10":121.5,"pm2_5":33.4,"mosquito_risk":0,"arthritis_risk":5,"migraine_risk":7,"frizz_risk":0,"updated_at":"2026-04-25T23:10:26.368216+05:30"},{"city":"Akola","state":"Maharashtra","latitude":20.7002,"longitude":77.0082,"temp":33.0,"humidity":22,"rain":0.0,"pressure":974.7,"uv_index":8.7,"wind_gusts":23.4,"aqi":105,"pm10":31.5,"pm2_5":22.9,"mosquito_risk":0,"arthritis_risk":5,"migraine_risk":7,"frizz_risk":0,"updated_at":"2026-04-25T23:10:26.368223+05:30"},{"city":"Amravati","state":"Maharashtra","latitude":20.9374,"longitude":77.7796,"temp":35.0,"humidity":17,"rain":0.0,"pressure":967.3,"uv_index":8.35,"wind_gusts":27.7,"aqi":104,"pm10":40.5,"pm2_5":31.0,"mosquito_risk":0,"arthritis_risk":5,"migraine_risk":7,"frizz_risk":0,"updated_at":"2026-04-25T23:10:26.368230+05:30"},{"city":"Latur","state":"Maharashtra","latitude":18.4088,"longitude":76.5604,"temp":30.2,"humidity":27,"rain":0.0,"pressure":940.3,"uv_index":8.6,"wind_gusts":32.0,"aqi":131,"pm10":52.6,"pm2_5":45.9,"mosquito_risk":0,"arthritis_risk":5,"migraine_risk":7,"frizz_risk":0,"updated_at":"2026-04-25T23:10:26.368236+05:30"},{"city":"Nanded","state":"Maharashtra","latitude":19.1383,"longitude":77.3091,"temp":31.4,"humidity":30,"rain":0.0,"pressure":968.5,"uv_index":8.6,"wind_gusts":28.8,"aqi":100,"pm10":48.2,"pm2_5":42.8,"mosquito_risk":0,"arthritis_risk":5,"migraine_risk":7,"frizz_risk":0,"updated_at":"2026-04-25T23:10:26.368243+05:30"},{"city":"Gulbarga","state":"Karnataka","latitude":17.3297,"longitude":76.8343,"temp":32.2,"humidity":31,"rain":0.0,"pressure":959.5,"uv_index":9.05,"wind_gusts":27.7,"aqi":154,"pm10":48.5,"pm2_5":43.8,"mosquito_risk":0,"arthritis_risk":5,"migraine_risk":7,"frizz_risk":0,"updated_at":"2026-04-25T23:10:26.368249+05:30"},{"city":"Bidar","state":"Karnataka","latitude":17.9104,"longitude":77.5199,"temp":29.0,"humidity":38,"rain":0.0,"pressure":936.3,"uv_index":8.85,"wind_gusts":27.7,"aqi":128,"pm10":62.9,"pm2_5":56.3,"mosquito_risk":4,"arthritis_risk":5,"migraine_risk":7,"frizz_risk":0,"updated_at":"2026-04-25T23:10:26.368255+05:30"},{"city":"Hospet","state":"Karnataka","latitude":15.2689,"longitude":76.3909,"temp":31.8,"humidity":26,"rain":0.0,"pressure":955.8,"uv_index":9.3,"wind_gusts":27.4,"aqi":151,"pm10":43.4,"pm2_5":38.9,"mosquito_risk":0,"arthritis_risk":5,"migraine_risk":7,"frizz_risk":0,"updated_at":"2026-04-25T23:10:26.368261+05:30"},{"city":"Tirupur","state":"Tamil Nadu","latitude":11.1085,"longitude":77.3411,"temp":31.6,"humidity":43,"rain":0.0,"pressure":975.8,"uv_index":9.4,"wind_gusts":41.8,"aqi":63,"pm10":29.8,"pm2_5":26.6,"mosquito_risk":0,"arthritis_risk":5,"migraine_risk":7,"frizz_risk":1,"updated_at":"2026-04-25T23:10:26.368267+05:30"},{"city":"Alappuzha","state":"Kerala","latitude":9.4981,"longitude":76.3388,"temp":27.0,"humidity":94,"rain":0.0,"pressure":1009.7,"uv_index":8.55,"wind_gusts":39.2,"aqi":79,"pm10":23.2,"pm2_5":20.2,"mosquito_risk":7,"arthritis_risk":0,"migraine_risk":4,"frizz_risk":1,"updated_at":"2026-04-25T23:10:26.368274+05:30"},{"city":"Munnar","state":"Kerala","latitude":10.0889,"longitude":77.0595,"temp":18.5,"humidity":71,"rain":0.0,"pressure":857.8,"uv_index":9.15,"wind_gusts":31.3,"aqi":61,"pm10":29.9,"pm2_5":28.6,"mosquito_risk":3,"arthritis_risk":5,"migraine_risk":7,"frizz_risk":0,"updated_at":"2026-04-25T23:10:26.368281+05:30"},{"city":"Silchar","state":"Assam","latitude":24.8333,"longitude":92.7789,"temp":24.5,"humidity":88,"rain":0.0,"pressure":1005.3,"uv_index":8.75,"wind_gusts":28.8,"aqi":161,"pm10":120.1,"pm2_5":90.8,"mosquito_risk":3,"arthritis_risk":5,"migraine_risk":4,"frizz_risk":1,"updated_at":"2026-04-25T23:10:26.368288+05:30"},{"city":"Dibrugarh","state":"Assam","latitude":27.4728,"longitude":94.912,"temp":22.9,"humidity":93,"rain":0.0,"pressure":997.9,"uv_index":8.6,"wind_gusts":31.7,"aqi":96,"pm10":31.1,"pm2_5":24.3,"mosquito_risk":3,"arthritis_risk":5,"migraine_risk":7,"frizz_risk":1,"updated_at":"2026-04-25T23:10:26.368295+05:30"}]