[{"city":"Delhi","state":"Delhi","latitude":28.6139,"longitude":77.209,"temp":21.6,"humidity":81,"rain":0.0,"pressure":985.4,"uv_index":4.25,"wind_gusts":33.1,"aqi":130,"pm10":81.5,"pm2_5":38.9,"mosquito_risk":3,"arthritis_risk":5,"migraine_risk":3,"frizz_risk":1,"updated_at":"2026-03-19T18:42:14.039501+05:30"},{"city":"Mumbai","state":"Maharashtra","latitude":19.076,"longitude":72.8777,"temp":27.4,"humidity":69,"rain":0.0,"pressure":1009.8,"uv_index":7.75,"wind_gusts":20.2,"aqi":92,"pm10":34.9,"pm2_5":16.6,"mosquito_risk":7,"arthritis_risk":0,"migraine_risk":4,"frizz_risk":1,"updated_at":"2026-03-19T18:42:14.039543+05:30"},{"city":"Bangalore","state":"Karnataka","latitude":12.9716,"longitude":77.5946,"temp":27.7,"humidity":41,"rain":0.0,"pressure":911.6,"uv_index":9.35,"wind_gusts":24.1,"aqi":164,"pm10":40.9,"pm2_5":36.6,"mosquito_risk":4,"arthritis_risk":5,"migraine_risk":7,"frizz_risk":0,"updated_at":"2026-03-19T18:42:14.039558+05:30"},{"city":"Hyderabad","state":"Telangana","latitude":17.385,"longitude":78.4867,"temp":23.6,"humidity":73,"rain":0.0,"pressure":954.7,"uv_index":8.75,"wind_gusts":33.5,"aqi":94,"pm10":32.4,"pm2_5":24.7,"mosquito_risk":3,"arthritis_risk":5,"migraine_risk":7,"frizz_risk":1,"updated_at":"2026-03-19T18:42:14.039572+05:30"},{"city":"Chennai","state":"Tamil Nadu","latitude":13.0827,"longitude":80.2707,"temp":27.6,"humidity":77,"rain":0.0,"pressure":1008.6,"uv_index":9.1,"wind_gusts":28.8,"aqi":43,"pm10":8.1,"pm2_5":6.3,"mosquito_risk":7,"arthritis_risk":0,"migraine_risk":4,"frizz_risk":1,"updated_at":"2026-03-19T18:42:14.039581+05:30"},{"city":"Kolkata","state":"West Bengal","latitude":22.5726,"longitude":88.3639,"temp":27.6,"humidity":75,"rain":0.0,"pressure":1008.3,"uv_index":7.7,"wind_gusts":25.2,"aqi":94,"pm10":36.7,"pm2_5":32.7,"mosquito_risk":7,"arthritis_risk":0,"migraine_risk":4,"frizz_risk":1,"updated_at":"2026-03-19T18:42:14.039589+05:30"},{"city":"Pune","state":"Maharashtra","latitude":18.5204,"longitude":73.8567,"temp":28.3,"humidity":50,"rain":0.0,"pressure":949.3,"uv_index":8.3,"wind_gusts":34.9,"aqi":162,"pm10":30.3,"pm2_5":22.5,"mosquito_risk":4,"arthritis_risk":5,"migraine_risk":7,"frizz_risk":1,"updated_at":"2026-03-19T18:42:14.039600+05:30"},{"city":"Ahmedabad","state":"Gujarat","latitude":23.0225,"longitude":72.5714,"temp":28.4,"humidity":44,"rain":0.0,"pressure":1004.6,"uv_index":7.35,"wind_gusts":49.7,"aqi":71,"pm10":46.3,"pm2_5":17.3,"mosquito_risk":4,"arthritis_risk":5,"migraine_risk":4,"frizz_risk":0,"updated_at":"2026-03-19T18:42:14.039608+05:30"},{"city":"Jaipur","state":"Rajasthan","latitude":26.9124,"longitude":75.7873,"temp":22.2,"humidity":71,"rain":0.0,"pressure":961.9,"uv_index":7.05,"wind_gusts":34.2,"aqi":147,"pm10":153.2,"pm2_5":32.5,"mosquito_risk":3,"arthritis_risk":5,"migraine_risk":7,"frizz_risk":1,"updated_at":"2026-03-19T18:42:14.039615+05:30"},{"city":"Lucknow","state":"Uttar Pradesh","latitude":26.8467,"longitude":80.9462,"temp":30.4,"humidity":29,"rain":0.0,"pressure":993.9,"uv_index":6.8,"wind_gusts":28.1,"aqi":123,"pm10":56.1,"pm2_5":31.8,"mosquito_risk":0,"arthritis_risk":5,"migraine_risk":7,"frizz_risk":0,"updated_at":"2026-03-19T18:42:14.039623+05:30"},{"city":"Kanpur","state":"Uttar Pradesh","latitude":26.4499,"longitude":80.3319,"temp":29.2,"humidity":41,"rain":0.0,"pressure":992.2,"uv_index":6.85,"wind_gusts":26.6,"aqi":137,"pm10":136.9,"pm2_5":39.7,"mosquito_risk":4,"arthritis_risk":5,"migraine_risk":7,"frizz_risk":0,"updated_at":"2026-03-19T18:42:14.039631+05:30"},{"city":"Chandigarh","state":"Chandigarh","latitude":30.7333,"longitude":76.7794,"temp":17.6,"humidity":94,"rain":0.2,"pressure":971.6,"uv_index":3.9,"wind_gusts":15.8,"aqi":67,"pm10":49.7,"pm2_5":29.2,"mosquito_risk":6,"arthritis_risk":10,"migraine_risk":3,"frizz_risk":1,"updated_at":"2026-03-19T18:42:14.039638+05:30"},{"city":"Srinagar","state":"Jammu and Kashmir","latitude":34.0837,"longitude":74.7973,"temp":8.3,"humidity":83,"rain":0.0,"pressure":839.6,"uv_index":0.95,"wind_gusts":15.1,"aqi":102,"pm10":15.0,"pm2_5":14.8,"mosquito_risk":3,"arthritis_risk":10,"migraine_risk":3,"frizz_risk":0,"updated_at":"2026-03-19T18:42:14.039646+05:30"},{"city":"Jammu","state":"Jammu and Kashmir","latitude":32.7266,"longitude":74.857,"temp":18.6,"humidity":87,"rain":0.0,"pressure":975.9,"uv_index":2.55,"wind_gusts":35.3,"aqi":61,"pm10":45.9,"pm2_5":26.3,"mosquito_risk":3,"arthritis_risk":10,"migraine_risk":3,"frizz_risk":1,"updated_at":"2026-03-19T18:42:14.039653+05:30"},{"city":"Amritsar","state":"Punjab","latitude":31.634,"longitude":74.8723,"temp":17.2,"humidity":90,"rain":0.0,"pressure":984.0,"uv_index":2.25,"wind_gusts":24.8,"aqi":80,"pm10":38.8,"pm2_5":24.7,"mosquito_risk":3,"arthritis_risk":10,"migraine_risk":3,"frizz_risk":0,"updated_at":"2026-03-19T18:42:14.039660+05:30"},{"city":"Ludhiana","state":"Punjab","latitude":30.901,"longitude":75.8573,"temp":16.9,"humidity":92,"rain":0.5,"pressure":981.8,"uv_index":2.0,"wind_gusts":20.9,"aqi":82,"pm10":51.9,"pm2_5":32.6,"mosquito_risk":6,"arthritis_risk":10,"migraine_risk":3,"frizz_risk":0,"updated_at":"2026-03-19T18:42:14.039666+05:30"},{"city":"Jalandhar","state":"Punjab","latitude":31.326,"longitude":75.5762,"temp":16.9,"humidity":94,"rain":0.3,"pressure":983.1,"uv_index":2.7,"wind_gusts":20.2,"aqi":78,"pm10":55.6,"pm2_5":32.9,"mosquito_risk":6,"arthritis_risk":10,"migraine_risk":3,"frizz_risk":0,"updated_at":"2026-03-19T18:42:14.039676+05:30"},{"city":"Dehradun","state":"Uttarakhand","latitude":30.6284,"longitude":78.0322,"temp":11.3,"humidity":76,"rain":0.2,"pressure":829.4,"uv_index":5.35,"wind_gusts":28.8,"aqi":50,"pm10":32.1,"pm2_5":12.1,"mosquito_risk":6,"arthritis_risk":5,"migraine_risk":3,"frizz_risk":0,"updated_at":"2026-03-19T18:42:14.039683+05:30"},{"city":"Shimla","state":"Himachal Pradesh","latitude":31.1048,"longitude":77.1734,"temp":9.7,"humidity":88,"rain":0.5,"pressure":782.3,"uv_index":3.7,"wind_gusts":36.4,"aqi":49,"pm10":16.5,"pm2_5":10.6,"mosquito_risk":6,"arthritis_risk":10,"migraine_risk":3,"frizz_risk":0,"updated_at":"2026-03-19T18:42:14.039690+05:30"},{"city":"Manali","state":"Himachal Pradesh","latitude":32.2396,"longitude":77.1887,"temp":10.1,"humidity":95,"rain":0.4,"pressure":815.5,"uv_index":3.8,"wind_gusts":23.8,"aqi":57,"pm10":2.3,"pm2_5":1.9,"mosquito_risk":6,"arthritis_risk":10,"migraine_risk":3,"frizz_risk":0,"updated_at":"2026-03-19T18:42:14.039696+05:30"},{"city":"Gurgaon","state":"Haryana","latitude":28.4595,"longitude":77.0266,"temp":21.3,"humidity":86,"rain":0.0,"pressure":983.7,"uv_index":5.35,"wind_gusts":29.9,"aqi":140,"pm10":84.3,"pm2_5":53.8,"mosquito_risk":3,"arthritis_risk":5,"migraine_risk":3,"frizz_risk":1,"updated_at":"2026-03-19T18:42:14.039703+05:30"},{"city":"Noida","state":"Uttar Pradesh","latitude":28.5355,"longitude":77.391,"temp":21.9,"humidity":82,"rain":0.0,"pressure":986.8,"uv_index":4.5,"wind_gusts":32.8,"aqi":140,"pm10":84.3,"pm2_5":53.8,"mosquito_risk":3,"arthritis_risk":5,"migraine_risk":3,"frizz_risk":1,"updated_at":"2026-03-19T18:42:14.039709+05:30"},{"city":"Ghaziabad","state":"Uttar Pradesh","latitude":28.6692,"longitude":77.4538,"temp":21.2,"humidity":84,"rain":0.0,"pressure":985.0,"uv_index":4.15,"wind_gusts":34.2,"aqi":119,"pm10":54.8,"pm2_5":28.1,"mosquito_risk":3,"arthritis_risk":5,"migraine_risk":3,"frizz_risk":1,"updated_at":"2026-03-19T18:42:14.039716+05:30"},{"city":"Faridabad","state":"Haryana","latitude":28.4089,"longitude":77.3178,"temp":21.4,"humidity":83,"rain":0.0,"pressure":986.0,"uv_index":4.8,"wind_gusts":33.5,"aqi":140,"pm10":84.3,"pm2_5":53.8,"mosquito_risk":3,"arthritis_risk":5,"migraine_risk":3,"frizz_risk":1,"updated_at":"2026-03-19T18:42:14.039725+05:30"},{"city":"Meerut","state":"Uttar Pradesh","latitude":28.9845,"longitude":77.7064,"temp":20.9,"humidity":85,"rain":0.1,"pressure":983.7,"uv_index":3.9,"wind_gusts":34.6,"aqi":119,"pm10":54.8,"pm2_5":28.1,"mosquito_risk":6,"arthritis_risk":5,"migraine_risk":3,"frizz_risk":1,"updated_at":"2026-03-19T18:42:14.039732+05:30"},{"city":"Agra","state":"Uttar Pradesh","latitude":27.1767,"longitude":78.0081,"temp":26.2,"humidity":49,"rain":0.0,"pressure":989.5,"uv_index":6.65,"wind_gusts":37.8,"aqi":676,"pm10":403.3,"pm2_5":71.0,"mosquito_risk":4,"arthritis_risk":5,"migraine_risk":7,"frizz_risk":0,"updated_at":"2026-03-19T18:42:14.039738+05:30"},{"city":"Varanasi","state":"Uttar Pradesh","latitude":25.3176,"longitude":82.9739,"temp":27.5,"humidity":57,"rain":0.0,"pressure":998.4,"uv_index":7.5,"wind_gusts":19.8,"aqi":151,"pm10":42.6,"pm2_5":38.0,"mosquito_risk":4,"arthritis_risk":5,"migraine_risk":7,"frizz_risk":1,"updated_at":"2026-03-19T18:42:14.039748+05:30"},{"city":"Prayagraj","state":"Uttar Pradesh","latitude":25.4358,"longitude":81.8463,"temp":27.9,"humidity":57,"rain":0.0,"pressure":996.6,"uv_index":7.35,"wind_gusts":22.0,"aqi":160,"pm10":40.6,"pm2_5":29.2,"mosquito_risk":4,"arthritis_risk":5,"migraine_risk":7,"frizz_risk":1,"updated_at":"2026-03-19T18:42:14.039755+05:30"},{"city":"Gorakhpur","state":"Uttar Pradesh","latitude":26.7606,"longitude":83.3732,"temp":27.4,"humidity":49,"rain":0.0,"pressure":996.9,"uv_index":7.2,"wind_gusts":20.9,"aqi":119,"pm10":50.6,"pm2_5":31.5,"mosquito_risk":4,"arthritis_risk":5,"migraine_risk":7,"frizz_risk":0,"updated_at":"2026-03-19T18:42:14.039761+05:30"},{"city":"Bareilly","state":"Uttar Pradesh","latitude":28.367,"longitude":79.4304,"temp":24.3,"humidity":62,"rain":0.0,"pressure":988.5,"uv_index":6.45,"wind_gusts":34.9,"aqi":91,"pm10":34.3,"pm2_5":21.5,"mosquito_risk":3,"arthritis_risk":5,"migraine_risk":7,"frizz_risk":1,"updated_at":"2026-03-19T18:42:14.039768+05:30"},{"city":"Aligarh","state":"Uttar Pradesh","latitude":27.8974,"longitude":78.088,"temp":22.8,"humidity":72,"rain":0.0,"pressure":987.5,"uv_index":6.4,"wind_gusts":37.1,"aqi":141,"pm10":773.0,"pm2_5":97.1,"mosquito_risk":3,"arthritis_risk":5,"migraine_risk":7,"frizz_risk":1,"updated_at":"2026-03-19T18:42:14.039774+05:30"},{"city":"Moradabad","state":"Uttar Pradesh","latitude":28.8386,"longitude":78.7733,"temp":23.1,"humidity":61,"rain":0.0,"pressure":985.8,"uv_index":5.0,"wind_gusts":46.1,"aqi":113,"pm10":45.3,"pm2_5":23.7,"mosquito_risk":3,"arthritis_risk":5,"migraine_risk":3,"frizz_risk":0,"updated_at":"2026-03-19T18:42:14.039780+05:30"},{"city":"Saharanpur","state":"Uttar Pradesh","latitude":29.9637,"longitude":77.546,"temp":17.9,"humidity":86,"rain":0.1,"pressure":978.5,"uv_index":4.05,"wind_gusts":22.7,"aqi":81,"pm10":53.3,"pm2_5":31.0,"mosquito_risk":6,"arthritis_risk":10,"migraine_risk":3,"frizz_risk":0,"updated_at":"2026-03-19T18:42:14.039787+05:30"},{"city":"Jhansi","state":"Uttar Pradesh","latitude":25.4484,"longitude":78.5685,"temp":28.6,"humidity":47,"rain":0.0,"pressure":978.0,"uv_index":7.3,"wind_gusts":38.9,"aqi":124,"pm10":31.9,"pm2_5":22.0,"mosquito_risk":4,"arthritis_risk":5,"migraine_risk":7,"frizz_risk":1,"updated_at":"2026-03-19T18:42:17.266652+05:30"},{"city":"Surat","state":"Gujarat","latitude":21.1702,"longitude":72.8311,"temp":26.3,"humidity":72,"rain":0.0,"pressure":1008.9,"uv_index":7.45,"wind_gusts":28.1,"aqi":79,"pm10":27.5,"pm2_5":23.4,"mosquito_risk":7,"arthritis_risk":0,"migraine_risk":4,"frizz_risk":1,"updated_at":"2026-03-19T18:42:17.266683+05:30"},{"city":"Vadodara","state":"Gujarat","latitude":22.3072,"longitude":73.1812,"temp":28.2,"humidity":56,"rain":0.0,"pressure":1006.9,"uv_index":7.45,"wind_gusts":47.9,"aqi":82,"pm10":21.2,"pm2_5":13.6,"mosquito_risk":4,"arthritis_risk":5,"migraine_risk":4,"frizz_risk":1,"updated_at":"2026-03-19T18:42:17.266692+05:30"},{"city":"Rajkot","state":"Gujarat","latitude":22.3039,"longitude":70.8022,"temp":24.7,"humidity":64,"rain":0.0,"pressure":996.9,"uv_index":7.35,"wind_gusts":51.5,"aqi":53,"pm10":52.7,"pm2_5":20.4,"mosquito_risk":3,"arthritis_risk":5,"migraine_risk":7,"frizz_risk":1,"updated_at":"2026-03-19T18:42:17.266700+05:30"},{"city":"Thane","state":"Maharashtra","latitude":19.2183,"longitude":72.9781,"temp":27.1,"humidity":67,"rain":0.0,"pressure":1009.2,"uv_index":7.75,"wind_gusts":33.5,"aqi":92,"pm10":34.9,"pm2_5":16.6,"mosquito_risk":7,"arthritis_risk":0,"migraine_risk":4,"frizz_risk":1,"updated_at":"2026-03-19T18:42:17.266707+05:30"},{"city":"Nagpur","state":"Maharashtra","latitude":21.1458,"longitude":79.0882,"temp":24.8,"humidity":60,"rain":0.0,"pressure":975.4,"uv_index":7.85,"wind_gusts":26.3,"aqi":148,"pm10":49.1,"pm2_5":38.6,"mosquito_risk":0,"arthritis_risk":5,"migraine_risk":7,"frizz_risk":1,"updated_at":"2026-03-19T18:42:17.266715+05:30"},{"city":"Nashik","state":"Maharashtra","latitude":19.9975,"longitude":73.7898,"temp":27.6,"humidity":43,"rain":0.0,"pressure":946.4,"uv_index":7.95,"wind_gusts":28.8,"aqi":99,"pm10":14.1,"pm2_5":10.5,"mosquito_risk":4,"arthritis_risk":5,"migraine_risk":7,"frizz_risk":0,"updated_at":"2026-03-19T18:42:17.266721+05:30"},{"city":"Aurangabad","state":"Maharashtra","latitude":19.8762,"longitude":75.3433,"temp":28.1,"humidity":40,"rain":0.0,"pressure":945.1,"uv_index":8.45,"wind_gusts":41.8,"aqi":135,"pm10":31.3,"pm2_5":21.0,"mosquito_risk":4,"arthritis_risk":5,"migraine_risk":7,"frizz_risk":0,"updated_at":"2026-03-19T18:42:17.266728+05:30"},{"city":"Solapur","state":"Maharashtra","latitude":17.6599,"longitude":75.9064,"temp":28.6,"humidity":47,"rain":0.0,"pressure":958.1,"uv_index":8.65,"wind_gusts":39.6,"aqi":139,"pm10":36.8,"pm2_5":22.7,"mosquito_risk":4,"arthritis_risk":5,"migraine_risk":7,"frizz_risk":1,"updated_at":"2026-03-19T18:42:17.266735+05:30"},{"city":"Kolhapur","state":"Maharashtra","latitude":16.705,"longitude":74.2433,"temp":25.7,"humidity":60,"rain":0.0,"pressure":948.9,"uv_index":8.6,"wind_gusts":49.0,"aqi":121,"pm10":28.3,"pm2_5":21.7,"mosquito_risk":4,"arthritis_risk":5,"migraine_risk":7,"frizz_risk":1,"updated_at":"2026-03-19T18:42:17.266742+05:30"},{"city":"Goa","state":"Goa","latitude":15.2993,"longitude":74.124,"temp":28.3,"humidity":70,"rain":0.0,"pressure":999.3,"uv_index":8.8,"wind_gusts":33.1,"aqi":74,"pm10":21.4,"pm2_5":12.2,"mosquito_risk":7,"arthritis_risk":5,"migraine_risk":7,"frizz_risk":1,"updated_at":"2026-03-19T18:42:17.266748+05:30"},{"city":"Jodhpur","state":"Rajasthan","latitude":26.2389,"longitude":73.0243,"temp":21.9,"humidity":78,"rain":0.1,"pressure":985.1,"uv_index":6.55,"wind_gusts":44.6,"aqi":71,"pm10":65.0,"pm2_5":19.8,"mosquito_risk":6,"arthritis_risk":5,"migraine_risk":7,"frizz_risk":1,"updated_at":"2026-03-19T18:42:17.266755+05:30"},{"city":"Udaipur","state":"Rajasthan","latitude":24.5854,"longitude":73.7125,"temp":21.4,"humidity":68,"rain":0.0,"pressure":948.1,"uv_index":6.65,"wind_gusts":49.3,"aqi":60,"pm10":52.3,"pm2_5":16.4,"mosquito_risk":3,"arthritis_risk":5,"migraine_risk":7,"frizz_risk":0,"updated_at":"2026-03-19T18:42:17.266762+05:30"},{"city":"Kota","state":"Rajasthan","latitude":25.2138,"longitude":75.8648,"temp":27.8,"humidity":44,"rain":0.0,"pressure":979.4,"uv_index":7.35,"wind_gusts":32.8,"aqi":124,"pm10":44.6,"pm2_5":24.9,"mosquito_risk":4,"arthritis_risk":5,"migraine_risk":7,"frizz_risk":0,"updated_at":"2026-03-19T18:42:17.266768+05:30"},{"city":"Bikaner","state":"Rajasthan","latitude":28.0229,"longitude":73.3119,"temp":21.6,"humidity":73,"rain":0.0,"pressure":984.3,"uv_index":5.1,"wind_gusts":31.0,"aqi":68,"pm10":69.6,"pm2_5":21.4,"mosquito_risk":3,"arthritis_risk":5,"migraine_risk":3,"frizz_risk":1,"updated_at":"2026-03-19T18:42:17.266776+05:30"},{"city":"Ajmer","state":"Rajasthan","latitude":26.4499,"longitude":74.6399,"temp":21.7,"humidity":76,"rain":0.0,"pressure":956.1,"uv_index":5.2,"wind_gusts":30.2,"aqi":71,"pm10":62.2,"pm2_5":17.3,"mosquito_risk":3,"arthritis_risk":5,"migraine_risk":3,"frizz_risk":1,"updated_at":"2026-03-19T18:42:17.266782+05:30"},{"city":"Gwalior","state":"Madhya Pradesh","latitude":26.2183,"longitude":78.1828,"temp":27.0,"humidity":51,"rain":0.0,"pressure":984.6,"uv_index":7.0,"wind_gusts":30.2,"aqi":131,"pm10":41.4,"pm2_5":27.9,"mosquito_risk":4,"arthritis_risk":5,"migraine_risk":7,"frizz_risk":0,"updated_at":"2026-03-19T18:42:17.266789+05:30"},{"city":"Indore","state":"Madhya Pradesh","latitude":22.7196,"longitude":75.8577,"temp":29.1,"humidity":27,"rain":0.0,"pressure":947.9,"uv_index":7.9,"wind_gusts":33.5,"aqi":95,"pm10":24.6,"pm2_5":16.4,"mosquito_risk":4,"arthritis_risk":5,"migraine_risk":7,"frizz_risk":0,"updated_at":"2026-03-19T18:42:17.266795+05:30"},{"city":"Bhopal","state":"Madhya Pradesh","latitude":23.2599,"longitude":77.4126,"temp":29.1,"humidity":29,"rain":0.0,"pressure":953.7,"uv_index":7.8,"wind_gusts":35.6,"aqi":122,"pm10":34.0,"pm2_5":23.7,"mosquito_risk":4,"arthritis_risk":5,"migraine_risk":7,"frizz_risk":0,"updated_at":"2026-03-19T18:42:17.266802+05:30"},{"city":"Jabalpur","state":"Madhya Pradesh","latitude":23.1815,"longitude":79.9864,"temp":29.9,"humidity":33,"rain":0.0,"pressure":961.7,"uv_index":7.9,"wind_gusts":34.6,"aqi":122,"pm10":25.3,"pm2_5":21.1,"mosquito_risk":4,"arthritis_risk":5,"migraine_risk":7,"frizz_risk":0,"updated_at":"2026-03-19T18:42:17.266808+05:30"},{"city":"Ujjain","state":"Madhya Pradesh","latitude":23.1765,"longitude":75.7885,"temp":27.8,"humidity":35,"rain":0.0,"pressure":953.5,"uv_index":7.8,"wind_gusts":29.2,"aqi":79,"pm10":16.9,"pm2_5":13.6,"mosquito_risk":4,"arthritis_risk":5,"migraine_risk":7,"frizz_risk":0,"updated_at":"2026-03-19T18:42:17.266815+05:30"},{"city":"Visakhapatnam","state":"Andhra Pradesh","latitude":17.6868,"longitude":83.2185,"temp":27.2,"humidity":72,"rain":0.0,"pressure":1005.9,"uv_index":8.2,"wind_gusts":32.8,"aqi":65,"pm10":13.8,"pm2_5":10.9,"mosquito_risk":7,"arthritis_risk":5,"migraine_risk":4,"frizz_risk":1,"updated_at":"2026-03-19T18:42:17.266822+05:30"},{"city":"Vijayawada","state":"Andhra Pradesh","latitude":16.5062,"longitude":80.648,"temp":25.2,"humidity":79,"rain":0.0,"pressure":1004.9,"uv_index":8.5,"wind_gusts":28.8,"aqi":61,"pm10":17.4,"pm2_5":15.7,"mosquito_risk":7,"arthritis_risk":5,"migraine_risk":4,"frizz_risk":1,"updated_at":"2026-03-19T18:42:17.266829+05:30"},{"city":"Guntur","state":"Andhra Pradesh","latitude":16.3067,"longitude":80.4365,"temp":25.2,"humidity":82,"rain":0.0,"pressure":1006.1,"uv_index":8.5,"wind_gusts":31.3,"aqi":60,"pm10":20.0,"pm2_5":16.1,"mosquito_risk":7,"arthritis_risk":5,"migraine_risk":4,"frizz_risk":1,"updated_at":"2026-03-19T18:42:17.266835+05:30"},{"city":"Nellore","state":"Andhra Pradesh","latitude":14.4426,"longitude":79.9865,"temp":28.1,"humidity":71,"rain":0.0,"pressure":1007.4,"uv_index":9.0,"wind_gusts":27.0,"aqi":43,"pm10":9.2,"pm2_5":6.1,"mosquito_risk":7,"arthritis_risk":5,"migraine_risk":4,"frizz_risk":1,"updated_at":"2026-03-19T18:42:17.266842+05:30"},{"city":"Kurnool","state":"Andhra Pradesh","latitude":15.8281,"longitude":78.0373,"temp":28.8,"humidity":48,"rain":0.0,"pressure":977.9,"uv_index":8.85,"wind_gusts":33.1,"aqi":93,"pm10":25.1,"pm2_5":18.3,"mosquito_risk":4,"arthritis_risk":5,"migraine_risk":7,"frizz_risk":1,"updated_at":"2026-03-19T18:42:17.266849+05:30"},{"city":"Kakinada","state":"Andhra Pradesh","latitude":16.9891,"longitude":82.2475,"temp":26.0,"humidity":75,"rain":0.0,"pressure":1009.8,"uv_index":8.7,"wind_gusts":23.0,"aqi":44,"pm10":8.6,"pm2_5":6.0,"mosquito_risk":7,"arthritis_risk":0,"migraine_risk":4,"frizz_risk":1,"updated_at":"2026-03-19T18:42:17.266855+05:30"},{"city":"Tirupati","state":"Andhra Pradesh","latitude":13.6288,"longitude":79.4192,"temp":25.5,"humidity":76,"rain":0.0,"pressure":993.2,"uv_index":9.1,"wind_gusts":21.6,"aqi":57,"pm10":18.5,"pm2_5":15.5,"mosquito_risk":7,"arthritis_risk":5,"migraine_risk":7,"frizz_risk":1,"updated_at":"2026-03-19T18:42:17.266862+05:30"},{"city":"Warangal","state":"Telangana","latitude":17.9689,"longitude":79.5941,"temp":27.0,"humidity":67,"rain":0.0,"pressure":980.2,"uv_index":8.1,"wind_gusts":19.8,"aqi":142,"pm10":37.7,"pm2_5":31.2,"mosquito_risk":7,"arthritis_risk":5,"migraine_risk":7,"frizz_risk":1,"updated_at":"2026-03-19T18:42:17.266868+05:30"},{"city":"Nizamabad","state":"Telangana","latitude":18.6725,"longitude":78.0941,"temp":28.6,"humidity":44,"rain":0.0,"pressure":966.2,"uv_index":8.5,"wind_gusts":19.4,"aqi":109,"pm10":45.4,"pm2_5":34.5,"mosquito_risk":4,"arthritis_risk":5,"migraine_risk":7,"frizz_risk":0,"updated_at":"2026-03-19T18:42:17.266874+05:30"},{"city":"Mysore","state":"Karnataka","latitude":12.2958,"longitude":76.6396,"temp":27.3,"humidity":50,"rain":0.0,"pressure":928.3,"uv_index":9.35,"wind_gusts":36.4,"aqi":138,"pm10":32.1,"pm2_5":28.6,"mosquito_risk":4,"arthritis_risk":5,"migraine_risk":7,"frizz_risk":0,"updated_at":"2026-03-19T18:42:17.266880+05:30"},{"city":"Mangalore","state":"Karnataka","latitude":12.9141,"longitude":74.856,"temp":28.6,"humidity":77,"rain":0.0,"pressure":1007.3,"uv_index":8.95,"wind_gusts":26.6,"aqi":140,"pm10":27.6,"pm2_5":17.5,"mosquito_risk":7,"arthritis_risk":5,"migraine_risk":4,"frizz_risk":1,"updated_at":"2026-03-19T18:42:17.266887+05:30"},{"city":"Hubli-Dharwad","state":"Karnataka","latitude":15.3647,"longitude":75.124,"temp":28.1,"humidity":40,"rain":0.0,"pressure":941.4,"uv_index":8.95,"wind_gusts":32.4,"aqi":142,"pm10":30.7,"pm2_5":23.2,"mosquito_risk":4,"arthritis_risk":5,"migraine_risk":7,"frizz_risk":0,"updated_at":"2026-03-19T18:42:17.266893+05:30"},{"city":"Belgaum","state":"Karnataka","latitude":15.8497,"longitude":74.4977,"temp":25.0,"humidity":55,"rain":0.0,"pressure":926.6,"uv_index":9.0,"wind_gusts":37.4,"aqi":122,"pm10":22.2,"pm2_5":16.4,"mosquito_risk":4,"arthritis_risk":5,"migraine_risk":7,"frizz_risk":0,"updated_at":"2026-03-19T18:42:20.494178+05:30"},{"city":"Coimbatore","state":"Tamil Nadu","latitude":11.0168,"longitude":76.9558,"temp":28.2,"humidity":55,"rain":0.0,"pressure":961.6,"uv_index":9.3,"wind_gusts":47.9,"aqi":117,"pm10":22.5,"pm2_5":18.3,"mosquito_risk":4,"arthritis_risk":5,"migraine_risk":7,"frizz_risk":1,"updated_at":"2026-03-19T18:42:20.494231+05:30"},{"city":"Madurai","state":"Tamil Nadu","latitude":9.9252,"longitude":78.1198,"temp":27.7,"humidity":71,"rain":0.0,"pressure":993.7,"uv_index":9.3,"wind_gusts":23.0,"aqi":126,"pm10":21.3,"pm2_5":17.6,"mosquito_risk":7,"arthritis_risk":5,"migraine_risk":7,"frizz_risk":1,"updated_at":"2026-03-19T18:42:20.494244+05:30"},{"city":"Trichy","state":"Tamil Nadu","latitude":10.7905,"longitude":78.7047,"temp":31.8,"humidity":50,"rain":0.0,"pressure":999.0,"uv_index":9.2,"wind_gusts":29.5,"aqi":85,"pm10":25.7,"pm2_5":22.6,"mosquito_risk":0,"arthritis_risk":5,"migraine_risk":7,"frizz_risk":1,"updated_at":"2026-03-19T18:42:20.494254+05:30"},{"city":"Salem","state":"Tamil Nadu","latitude":11.6643,"longitude":78.146,"temp":32.6,"humidity":40,"rain":0.0,"pressure":976.1,"uv_index":9.25,"wind_gusts":25.6,"aqi":155,"pm10":31.0,"pm2_5":26.7,"mosquito_risk":0,"arthritis_risk":5,"migraine_risk":7,"frizz_risk":1,"updated_at":"2026-03-19T18:42:20.494263+05:30"},{"city":"Tirunelveli","state":"Tamil Nadu","latitude":8.7139,"longitude":77.7567,"temp":28.0,"humidity":75,"rain":0.0,"pressure":1004.1,"uv_index":9.15,"wind_gusts":23.0,"aqi":87,"pm10":16.9,"pm2_5":16.0,"mosquito_risk":7,"arthritis_risk":5,"migraine_risk":4,"frizz_risk":1,"updated_at":"2026-03-19T18:42:20.494272+05:30"},{"city":"Vellore","state":"Tamil Nadu","latitude":12.9165,"longitude":79.1325,"temp":25.2,"humidity":73,"rain":0.0,"pressure":986.1,"uv_index":9.15,"wind_gusts":28.1,"aqi":66,"pm10":35.5,"pm2_5":28.3,"mosquito_risk":7,"arthritis_risk":5,"migraine_risk":7,"frizz_risk":1,"updated_at":"2026-03-19T18:42:20.494281+05:30"},{"city":"Erode","state":"Tamil Nadu","latitude":11.341,"longitude":77.7172,"temp":33.5,"humidity":40,"rain":0.0,"pressure":987.9,"uv_index":9.25,"wind_gusts":36.7,"aqi":145,"pm10":28.9,"pm2_5":24.4,"mosquito_risk":0,"arthritis_risk":5,"migraine_risk":7,"frizz_risk":1,"updated_at":"2026-03-19T18:42:20.494289+05:30"},{"city":"Kochi","state":"Kerala","latitude":9.9312,"longitude":76.2673,"temp":28.7,"humidity":78,"rain":0.0,"pressure":1008.7,"uv_index":9.1,"wind_gusts":29.2,"aqi":68,"pm10":17.5,"pm2_5":15.2,"mosquito_risk":7,"arthritis_risk":0,"migraine_risk":4,"frizz_risk":1,"updated_at":"2026-03-19T18:42:20.494298+05:30"},{"city":"Thiruvananthapuram","state":"Kerala","latitude":8.5241,"longitude":76.9366,"temp":28.7,"humidity":78,"rain":0.0,"pressure":1008.5,"uv_index":8.6,"wind_gusts":27.7,"aqi":92,"pm10":13.4,"pm2_5":10.6,"mosquito_risk":7,"arthritis_risk":0,"migraine_risk":4,"frizz_risk":1,"updated_at":"2026-03-19T18:42:20.494306+05:30"},{"city":"Kozhikode","state":"Kerala","latitude":11.2588,"longitude":75.7804,"temp":28.9,"humidity":77,"rain":0.0,"pressure":1008.1,"uv_index":9.05,"wind_gusts":31.0,"aqi":75,"pm10":13.1,"pm2_5":8.7,"mosquito_risk":7,"arthritis_risk":0,"migraine_risk":4,"frizz_risk":1,"updated_at":"2026-03-19T18:42:20.494314+05:30"},{"city":"Thrissur","state":"Kerala","latitude":10.5276,"longitude":76.2144,"temp":28.8,"humidity":74,"rain":0.0,"pressure":1007.0,"uv_index":9.1,"wind_gusts":34.6,"aqi":55,"pm10":14.6,"pm2_5":13.0,"mosquito_risk":7,"arthritis_risk":5,"migraine_risk":4,"frizz_risk":1,"updated_at":"2026-03-19T18:42:20.494322+05:30"},{"city":"Kannur","state":"Kerala","latitude":11.8745,"longitude":75.3704,"temp":28.7,"humidity":74,"rain":0.0,"pressure":1007.5,"uv_index":9.0,"wind_gusts":35.3,"aqi":79,"pm10":18.7,"pm2_5":12.1,"mosquito_risk":7,"arthritis_risk":5,"migraine_risk":4,"frizz_risk":1,"updated_at":"2026-03-19T18:42:20.494331+05:30"},{"city":"Patna","state":"Bihar","latitude":25.5941,"longitude":85.1376,"temp":29.6,"humidity":50,"rain":0.0,"pressure":1001.4,"uv_index":7.2,"wind_gusts":21.6,"aqi":205,"pm10":65.0,"pm2_5":52.3,"mosquito_risk":4,"arthritis_risk":5,"migraine_risk":4,"frizz_risk":1,"updated_at":"2026-03-19T18:42:20.494340+05:30"},{"city":"Gaya","state":"Bihar","latitude":24.7914,"longitude":85.0002,"temp":27.4,"humidity":60,"rain":0.0,"pressure":994.8,"uv_index":7.1,"wind_gusts":20.5,"aqi":160,"pm10":49.5,"pm2_5":44.9,"mosquito_risk":4,"arthritis_risk":5,"migraine_risk":7,"frizz_risk":1,"updated_at":"2026-03-19T18:42:20.494347+05:30"},{"city":"Muzaffarpur","state":"Bihar","latitude":26.1209,"longitude":85.3647,"temp":27.1,"humidity":58,"rain":0.0,"pressure":1001.1,"uv_index":7.05,"wind_gusts":23.4,"aqi":186,"pm10":74.5,"pm2_5":56.7,"mosquito_risk":4,"arthritis_risk":5,"migraine_risk":4,"frizz_risk":1,"updated_at":"2026-03-19T18:42:20.494355+05:30"},{"city":"Bhagalpur","state":"Bihar","latitude":25.2425,"longitude":87.0117,"temp":27.9,"humidity":64,"rain":0.0,"pressure":1002.8,"uv_index":7.4,"wind_gusts":27.4,"aqi":194,"pm10":79.4,"pm2_5":66.8,"mosquito_risk":7,"arthritis_risk":5,"migraine_risk":4,"frizz_risk":1,"updated_at":"2026-03-19T18:42:20.494362+05:30"},{"city":"Ranchi","state":"Jharkhand","latitude":23.3441,"longitude":85.3096,"temp":24.9,"humidity":51,"rain":0.0,"pressure":939.4,"uv_index":7.35,"wind_gusts":38.5,"aqi":121,"pm10":40.2,"pm2_5":30.6,"mosquito_risk":0,"arthritis_risk":5,"migraine_risk":7,"frizz_risk":0,"updated_at":"2026-03-19T18:42:20.494369+05:30"},{"city":"Jamshedpur","state":"Jharkhand","latitude":22.8046,"longitude":86.2029,"temp":30.0,"humidity":44,"rain":0.0,"pressure":992.9,"uv_index":7.9,"wind_gusts":30.6,"aqi":142,"pm10":41.2,"pm2_5":32.7,"mosquito_risk":4,"arthritis_risk":5,"migraine_risk":7,"frizz_risk":1,"updated_at":"2026-03-19T18:42:20.494375+05:30"},{"city":"Dhanbad","state":"Jharkhand","latitude":23.7957,"longitude":86.4304,"temp":29.3,"humidity":37,"rain":0.0,"pressure":982.5,"uv_index":7.15,"wind_gusts":20.5,"aqi":157,"pm10":80.8,"pm2_5":68.0,"mosquito_risk":4,"arthritis_risk":5,"migraine_risk":7,"frizz_risk":0,"updated_at":"2026-03-19T18:42:20.494382+05:30"},{"city":"Bokaro","state":"Jharkhand","latitude":23.6693,"longitude":86.1511,"temp":25.8,"humidity":60,"rain":0.0,"pressure":986.5,"uv_index":7.15,"wind_gusts":41.0,"aqi":142,"pm10":68.5,"pm2_5":56.0,"mosquito_risk":4,"arthritis_risk":5,"migraine_risk":7,"frizz_risk":1,"updated_at":"2026-03-19T18:42:20.494388+05:30"},{"city":"Bhubaneswar","state":"Odisha","latitude":20.2961,"longitude":85.8245,"temp":25.7,"humidity":81,"rain":0.0,"pressure":1004.9,"uv_index":7.8,"wind_gusts":20.9,"aqi":129,"pm10":19.6,"pm2_5":17.3,"mosquito_risk":7,"arthritis_risk":5,"migraine_risk":4,"frizz_risk":1,"updated_at":"2026-03-19T18:42:20.494396+05:30"},{"city":"Cuttack","state":"Odisha","latitude":20.4625,"longitude":85.8828,"temp":25.3,"humidity":78,"rain":0.0,"pressure":1006.9,"uv_index":7.9,"wind_gusts":24.8,"aqi":129,"pm10":19.6,"pm2_5":17.3,"mosquito_risk":7,"arthritis_risk":5,"migraine_risk":4,"frizz_risk":1,"updated_at":"2026-03-19T18:42:20.494403+05:30"},{"city":"Rourkela","state":"Odisha","latitude":22.2604,"longitude":84.8536,"temp":30.0,"humidity":44,"rain":0.0,"pressure":986.6,"uv_index":7.1,"wind_gusts":24.8,"aqi":142,"pm10":60.3,"pm2_5":46.8,"mosquito_risk":4,"arthritis_risk":5,"migraine_risk":7,"frizz_risk":1,"updated_at":"2026-03-19T18:42:20.494409+05:30"},{"city":"Raipur","state":"Chhattisgarh","latitude":21.2514,"longitude":81.6296,"temp":29.6,"humidity":42,"rain":0.0,"pressure":975.6,"uv_index":7.95,"wind_gusts":25.9,"aqi":183,"pm10":65.7,"pm2_5":56.3,"mosquito_risk":4,"arthritis_risk":5,"migraine_risk":7,"frizz_risk":0,"updated_at":"2026-03-19T18:42:20.494415+05:30"},{"city":"Bhilai","state":"Chhattisgarh","latitude":21.1938,"longitude":81.3509,"temp":30.2,"humidity":38,"rain":0.0,"pressure":975.8,"uv_index":7.6,"wind_gusts":24.8,"aqi":151,"pm10":65.2,"pm2_5":54.7,"mosquito_risk":0,"arthritis_risk":5,"migraine_risk":7,"frizz_risk":0,"updated_at":"2026-03-19T18:42:20.494422+05:30"},{"city":"Guwahati","state":"Assam","latitude":26.1158,"longitude":91.7086,"temp":24.6,"humidity":74,"rain":0.0,"pressure":1004.8,"uv_index":7.5,"wind_gusts":25.2,"aqi":104,"pm10":41.9,"pm2_5":33.2,"mosquito_risk":3,"arthritis_risk":5,"migraine_risk":4,"frizz_risk":1,"updated_at":"2026-03-19T18:42:20.494428+05:30"},{"city":"Agartala","state":"Tripura","latitude":23.8315,"longitude":91.2868,"temp":27.7,"humidity":59,"rain":0.0,"pressure":1008.0,"uv_index":7.85,"wind_gusts":23.0,"aqi":122,"pm10":48.1,"pm2_5":45.2,"mosquito_risk":4,"arthritis_risk":0,"migraine_risk":4,"frizz_risk":1,"updated_at":"2026-03-19T18:42:20.494434+05:30"},{"city":"Shillong","state":"Meghalaya","latitude":25.5788,"longitude":91.8933,"temp":13.8,"humidity":85,"rain":0.0,"pressure":857.0,"uv_index":7.15,"wind_gusts":47.2,"aqi":125,"pm10":35.3,"pm2_5":28.8,"mosquito_risk":3,"arthritis_risk":10,"migraine_risk":7,"frizz_risk":0,"updated_at":"2026-03-19T18:42:20.494441+05:30"},{"city":"Imphal","state":"Manipur","latitude":24.817,"longitude":93.9368,"temp":18.3,"humidity":74,"rain":0.0,"pressure":924.8,"uv_index":8.25,"wind_gusts":60.8,"aqi":108,"pm10":39.5,"pm2_5":30.0,"mosquito_risk":3,"arthritis_risk":5,"migraine_risk":7,"frizz_risk":0,"updated_at":"2026-03-19T18:42:20.494447+05:30"},{"city":"Aizawl","state":"Mizoram","latitude":23.7271,"longitude":92.7176,"temp":20.2,"humidity":70,"rain":0.0,"pressure":894.3,"uv_index":8.05,"wind_gusts":38.5,"aqi":117,"pm10":36.1,"pm2_5":29.1,"mosquito_risk":3,"arthritis_risk":5,"migraine_risk":7,"frizz_risk":0,"updated_at":"2026-03-19T18:42:20.494454+05:30"},{"city":"Kohima","state":"Nagaland","latitude":25.6701,"longitude":94.1077,"temp":14.0,"humidity":91,"rain":0.0,"pressure":855.7,"uv_index":7.95,"wind_gusts":86.8,"aqi":91,"pm10":51.6,"pm2_5":28.0,"mosquito_risk":3,"arthritis_risk":10,"migraine_risk":7,"frizz_risk":0,"updated_at":"2026-03-19T18:42:20.494460+05:30"},{"city":"Gangtok","state":"Sikkim","latitude":27.3314,"longitude":88.6138,"temp":14.5,"humidity":87,"rain":0.0,"pressure":837.9,"uv_index":7.7,"wind_gusts":20.2,"aqi":108,"pm10":50.8,"pm2_5":36.8,"mosquito_risk":3,"arthritis_risk":10,"migraine_risk":7,"frizz_risk":0,"updated_at":"2026-03-19T18:42:20.494466+05:30"},{"city":"Siliguri","state":"West Bengal","latitude":26.7271,"longitude":88.3953,"temp":21.4,"humidity":78,"rain":0.0,"pressure":996.4,"uv_index":7.35,"wind_gusts":24.8,"aqi":133,"pm10":68.2,"pm2_5":54.9,"mosquito_risk":3,"arthritis_risk":5,"migraine_risk":7,"frizz_risk":1,"updated_at":"2026-03-19T18:42:23.720767+05:30"},{"city":"Durgapur","state":"West Bengal","latitude":23.5204,"longitude":87.3119,"temp":27.4,"humidity":67,"rain":0.0,"pressure":997.2,"uv_index":7.6,"wind_gusts":26.3,"aqi":152,"pm10":70.5,"pm2_5":61.7,"mosquito_risk":7,"arthritis_risk":5,"migraine_risk":7,"frizz_risk":1,"updated_at":"2026-03-19T18:42:23.720797+05:30"},{"city":"Asansol","state":"West Bengal","latitude":23.6739,"longitude":86.9524,"temp":28.8,"humidity":52,"rain":0.0,"pressure":995.5,"uv_index":7.65,"wind_gusts":31.0,"aqi":154,"pm10":65.7,"pm2_5":54.4,"mosquito_risk":4,"arthritis_risk":5,"migraine_risk":7,"frizz_risk":1,"updated_at":"2026-03-19T18:42:23.720807+05:30"},{"city":"Pondicherry","state":"Puducherry","latitude":11.9139,"longitude":79.8145,"temp":28.0,"humidity":77,"rain":0.0,"pressure":1009.0,"uv_index":9.1,"wind_gusts":28.4,"aqi":44,"pm10":6.1,"pm2_5":4.4,"mosquito_risk":7,"arthritis_risk":0,"migraine_risk":4,"frizz_risk":1,"updated_at":"2026-03-19T18:42:23.720815+05:30"},{"city":"Port Blair","state":"Andaman and Nicobar Islands","latitude":11.6234,"longitude":92.7265,"temp":27.5,"humidity":80,"rain":0.0,"pressure":1009.2,"uv_index":9.05,"wind_gusts":22.0,"aqi":51,"pm10":13.4,"pm2_5":10.2,"mosquito_risk":7,"arthritis_risk":0,"migraine_risk":4,"frizz_risk":1,"updated_at":"2026-03-19T18:42:23.720823+05:30"},{"city":"Haridwar","state":"Uttarakhand","latitude":29.9457,"longitude":78.1642,"temp":21.5,"humidity":79,"rain":0.0,"pressure":977.1,"uv_index":3.75,"wind_gusts":24.8,"aqi":72,"pm10":51.2,"pm2_5":30.4,"mosquito_risk":3,"arthritis_risk":5,"migraine_risk":3,"frizz_risk":1,"updated_at":"2026-03-19T18:42:23.720832+05:30"},{"city":"Rishikesh","state":"Uttarakhand","latitude":30.0869,"longitude":78.2676,"temp":21.7,"humidity":58,"rain":0.0,"pressure":969.6,"uv_index":4.8,"wind_gusts":24.5,"aqi":67,"pm10":52.0,"pm2_5":23.2,"mosquito_risk":0,"arthritis_risk":5,"migraine_risk":3,"frizz_risk":0,"updated_at":"2026-03-19T18:42:23.720840+05:30"},{"city":"Nainital","state":"Uttarakhand","latitude":29.3919,"longitude":79.4542,"temp":16.9,"humidity":59,"rain":0.0,"pressure":806.2,"uv_index":5.8,"wind_gusts":55.4,"aqi":74,"pm10":36.0,"pm2_5":18.1,"mosquito_risk":0,"arthritis_risk":5,"migraine_risk":3,"frizz_risk":0,"updated_at":"2026-03-19T18:42:23.720847+05:30"},{"city":"Mussoorie","state":"Uttarakhand","latitude":30.4599,"longitude":78.0664,"temp":12.9,"humidity":69,"rain":0.1,"pressure":802.0,"uv_index":5.25,"wind_gusts":38.9,"aqi":65,"pm10":54.1,"pm2_5":27.7,"mosquito_risk":6,"arthritis_risk":5,"migraine_risk":3,"frizz_risk":0,"updated_at":"2026-03-19T18:42:23.720855+05:30"},{"city":"Dharamshala","state":"Himachal Pradesh","latitude":32.219,"longitude":76.3234,"temp":14.1,"humidity":88,"rain":0.2,"pressure":868.1,"uv_index":3.8,"wind_gusts":29.9,"aqi":50,"pm10":3.5,"pm2_5":3.4,"mosquito_risk":6,"arthritis_risk":10,"migraine_risk":3,"frizz_risk":0,"updated_at":"2026-03-19T18:42:23.720862+05:30"},{"city":"Dalhousie","state":"Himachal Pradesh","latitude":32.5387,"longitude":75.971,"temp":11.0,"humidity":81,"rain":0.3,"pressure":801.6,"uv_index":4.35,"wind_gusts":25.2,"aqi":61,"pm10":45.1,"pm2_5":23.8,"mosquito_risk":6,"arthritis_risk":10,"migraine_risk":3,"frizz_risk":0,"updated_at":"2026-03-19T18:42:23.720871+05:30"},{"city":"Patiala","state":"Punjab","latitude":30.3398,"longitude":76.3869,"temp":18.0,"humidity":92,"rain":0.1,"pressure":981.0,"uv_index":3.85,"wind_gusts":21.6,"aqi":90,"pm10":48.0,"pm2_5":27.7,"mosquito_risk":6,"arthritis_risk":10,"migraine_risk":3,"frizz_risk":1,"updated_at":"2026-03-19T18:42:23.720878+05:30"},{"city":"Bhatinda","state":"Punjab","latitude":30.211,"longitude":74.9455,"temp":19.3,"humidity":90,"rain":0.0,"pressure":986.4,"uv_index":1.4,"wind_gusts":20.9,"aqi":86,"pm10":57.6,"pm2_5":27.9,"mosquito_risk":3,"arthritis_risk":10,"migraine_risk":3,"frizz_risk":1,"updated_at":"2026-03-19T18:42:23.720885+05:30"},{"city":"Rohtak","state":"Haryana","latitude":28.8955,"longitude":76.6066,"temp":20.3,"humidity":88,"rain":0.0,"pressure":984.1,"uv_index":4.05,"wind_gusts":28.1,"aqi":132,"pm10":93.8,"pm2_5":48.8,"mosquito_risk":3,"arthritis_risk":5,"migraine_risk":3,"frizz_risk":1,"updated_at":"2026-03-19T18:42:23.720892+05:30"},{"city":"Panipat","state":"Haryana","latitude":29.3909,"longitude":76.9635,"temp":19.3,"humidity":86,"rain":0.0,"pressure":983.1,"uv_index":3.8,"wind_gusts":32.8,"aqi":134,"pm10":76.1,"pm2_5":37.7,"mosquito_risk":3,"arthritis_risk":10,"migraine_risk":3,"frizz_risk":1,"updated_at":"2026-03-19T18:42:23.720899+05:30"},{"city":"Mathura","state":"Uttar Pradesh","latitude":27.4924,"longitude":77.6737,"temp":23.1,"humidity":67,"rain":0.0,"pressure":988.5,"uv_index":6.6,"wind_gusts":37.4,"aqi":120,"pm10":168.1,"pm2_5":61.7,"mosquito_risk":3,"arthritis_risk":5,"migraine_risk":7,"frizz_risk":1,"updated_at":"2026-03-19T18:42:23.720905+05:30"},{"city":"Vrindavan","state":"Uttar Pradesh","latitude":27.5823,"longitude":77.7027,"temp":22.5,"humidity":71,"rain":0.0,"pressure":989.1,"uv_index":6.55,"wind_gusts":40.7,"aqi":120,"pm10":168.1,"pm2_5":61.7,"mosquito_risk":3,"arthritis_risk":5,"migraine_risk":7,"frizz_risk":1,"updated_at":"2026-03-19T18:42:23.720912+05:30"},{"city":"Ayodhya","state":"Uttar Pradesh","latitude":26.7922,"longitude":82.1998,"temp":29.6,"humidity":34,"rain":0.0,"pressure":995.4,"uv_index":7.0,"wind_gusts":32.4,"aqi":116,"pm10":57.0,"pm2_5":32.6,"mosquito_risk":4,"arthritis_risk":5,"migraine_risk":7,"frizz_risk":0,"updated_at":"2026-03-19T18:42:23.720918+05:30"},{"city":"Ratlam","state":"Madhya Pradesh","latitude":23.3315,"longitude":75.0367,"temp":28.6,"humidity":32,"rain":0.0,"pressure":954.7,"uv_index":7.75,"wind_gusts":31.7,"aqi":79,"pm10":14.7,"pm2_5":9.9,"mosquito_risk":4,"arthritis_risk":5,"migraine_risk":7,"frizz_risk":0,"updated_at":"2026-03-19T18:42:23.720924+05:30"},{"city":"Sagar","state":"Madhya Pradesh","latitude":23.8388,"longitude":78.7378,"temp":28.2,"humidity":32,"rain":0.0,"pressure":950.3,"uv_index":7.75,"wind_gusts":45.0,"aqi":112,"pm10":23.9,"pm2_5":17.2,"mosquito_risk":4,"arthritis_risk":5,"migraine_risk":7,"frizz_risk":0,"updated_at":"2026-03-19T18:42:23.720931+05:30"},{"city":"Satna","state":"Madhya Pradesh","latitude":24.6005,"longitude":80.8322,"temp":29.6,"humidity":29,"rain":0.0,"pressure":971.6,"uv_index":7.7,"wind_gusts":42.5,"aqi":115,"pm10":17.1,"pm2_5":12.6,"mosquito_risk":4,"arthritis_risk":5,"migraine_risk":7,"frizz_risk":0,"updated_at":"2026-03-19T18:42:23.720937+05:30"},{"city":"Akola","state":"Maharashtra","latitude":20.7002,"longitude":77.0082,"temp":30.1,"humidity":38,"rain":0.0,"pressure":975.8,"uv_index":8.15,"wind_gusts":26.3,"aqi":127,"pm10":41.7,"pm2_5":30.4,"mosquito_risk":0,"arthritis_risk":5,"migraine_risk":7,"frizz_risk":0,"updated_at":"2026-03-19T18:42:23.720944+05:30"},{"city":"Amravati","state":"Maharashtra","latitude":20.9374,"longitude":77.7796,"temp":28.7,"humidity":42,"rain":0.0,"pressure":968.7,"uv_index":8.05,"wind_gusts":33.8,"aqi":130,"pm10":42.3,"pm2_5":31.1,"mosquito_risk":4,"arthritis_risk":5,"migraine_risk":7,"frizz_risk":0,"updated_at":"2026-03-19T18:42:23.720952+05:30"},{"city":"Latur","state":"Maharashtra","latitude":18.4088,"longitude":76.5604,"temp":25.5,"humidity":57,"rain":0.0,"pressure":941.0,"uv_index":8.55,"wind_gusts":45.7,"aqi":109,"pm10":40.7,"pm2_5":30.5,"mosquito_risk":4,"arthritis_risk":5,"migraine_risk":7,"frizz_risk":1,"updated_at":"2026-03-19T18:42:23.720958+05:30"},{"city":"Nanded","state":"Maharashtra","latitude":19.1383,"longitude":77.3091,"temp":25.5,"humidity":59,"rain":0.0,"pressure":971.4,"uv_index":8.4,"wind_gusts":48.6,"aqi":131,"pm10":35.9,"pm2_5":26.8,"mosquito_risk":4,"arthritis_risk":5,"migraine_risk":7,"frizz_risk":1,"updated_at":"2026-03-19T18:42:23.720964+05:30"},{"city":"Gulbarga","state":"Karnataka","latitude":17.3297,"longitude":76.8343,"temp":28.8,"humidity":41,"rain":0.0,"pressure":960.0,"uv_index":8.65,"wind_gusts":23.4,"aqi":120,"pm10":39.5,"pm2_5":27.9,"mosquito_risk":4,"arthritis_risk":5,"migraine_risk":7,"frizz_risk":0,"updated_at":"2026-03-19T18:42:23.720970+05:30"},{"city":"Bidar","state":"Karnataka","latitude":17.9104,"longitude":77.5199,"temp":26.5,"humidity":50,"rain":0.0,"pressure":936.7,"uv_index":8.6,"wind_gusts":31.3,"aqi":110,"pm10":36.3,"pm2_5":27.0,"mosquito_risk":4,"arthritis_risk":5,"migraine_risk":7,"frizz_risk":0,"updated_at":"2026-03-19T18:42:23.720976+05:30"},{"city":"Hospet","state":"Karnataka","latitude":15.2689,"longitude":76.3909,"temp":30.9,"humidity":36,"rain":0.0,"pressure":956.1,"uv_index":8.9,"wind_gusts":21.2,"aqi":149,"pm10":31.4,"pm2_5":24.0,"mosquito_risk":0,"arthritis_risk":5,"migraine_risk":7,"frizz_risk":0,"updated_at":"2026-03-19T18:42:23.720982+05:30"},{"city":"Tirupur","state":"Tamil Nadu","latitude":11.1085,"longitude":77.3411,"temp":31.5,"humidity":44,"rain":0.0,"pressure":974.3,"uv_index":9.35,"wind_gusts":34.9,"aqi":151,"pm10":28.6,"pm2_5":23.1,"mosquito_risk":0,"arthritis_risk":5,"migraine_risk":7,"frizz_risk":1,"updated_at":"2026-03-19T18:42:23.720988+05:30"},{"city":"Alappuzha","state":"Kerala","latitude":9.4981,"longitude":76.3388,"temp":28.8,"humidity":77,"rain":0.0,"pressure":1008.9,"uv_index":9.1,"wind_gusts":27.4,"aqi":81,"pm10":19.9,"pm2_5":15.6,"mosquito_risk":7,"arthritis_risk":0,"migraine_risk":4,"frizz_risk":1,"updated_at":"2026-03-19T18:42:23.720995+05:30"},{"city":"Munnar","state":"Kerala","latitude":10.0889,"longitude":77.0595,"temp":23.5,"humidity":72,"rain":0.0,"pressure":857.7,"uv_index":9.6,"wind_gusts":38.9,"aqi":61,"pm10":13.9,"pm2_5":12.3,"mosquito_risk":3,"arthritis_risk":5,"migraine_risk":7,"frizz_risk":1,"updated_at":"2026-03-19T18:42:23.721002+05:30"},{"city":"Silchar","state":"Assam","latitude":24.8333,"longitude":92.7789,"temp":26.4,"humidity":66,"rain":0.0,"pressure":1007.1,"uv_index":7.9,"wind_gusts":21.2,"aqi":120,"pm10":40.7,"pm2_5":37.5,"mosquito_risk":7,"arthritis_risk":5,"migraine_risk":4,"frizz_risk":1,"updated_at":"2026-03-19T18:42:23.721008+05:30"},{"city":"Dibrugarh","state":"Assam","latitude":27.4728,"longitude":94.912,"temp":21.4,"humidity":81,"rain":0.0,"pressure":999.7,"uv_index":7.0,"wind_gusts":23.4,"aqi":83,"pm10":50.2,"pm2_5":37.8,"mosquito_risk":3,"arthritis_risk":5,"migraine_risk":7,"frizz_risk":1,"updated_at":"2026-03-19T18:42:23.721015+05:30"}]