[{"city":"Delhi","state":"Delhi","latitude":28.6139,"longitude":77.209,"temp":34.2,"humidity":57,"rain":0.0,"pressure":974.7,"uv_index":7.5,"wind_gusts":32.0,"aqi":198,"pm10":325.0,"pm2_5":84.3,"no2":7.3,"co":464.0,"o3":206.0,"so2":25.2,"mosquito_risk":0,"arthritis_risk":5,"migraine_risk":7,"frizz_risk":1,"updated_at":"2026-07-01T15:22:53.313552+05:30"},{"city":"Mumbai","state":"Maharashtra","latitude":19.076,"longitude":72.8777,"temp":26.6,"humidity":91,"rain":0.3,"pressure":1002.9,"uv_index":2.75,"wind_gusts":45.4,"aqi":39,"pm10":22.0,"pm2_5":11.3,"no2":7.0,"co":227.0,"o3":52.0,"so2":4.6,"mosquito_risk":10,"arthritis_risk":5,"migraine_risk":0,"frizz_risk":1,"updated_at":"2026-07-01T15:22:53.313599+05:30"},{"city":"Bangalore","state":"Karnataka","latitude":12.9716,"longitude":77.5946,"temp":25.7,"humidity":66,"rain":0.0,"pressure":909.5,"uv_index":6.0,"wind_gusts":56.2,"aqi":23,"pm10":3.2,"pm2_5":2.9,"no2":6.3,"co":219.0,"o3":59.0,"so2":2.5,"mosquito_risk":7,"arthritis_risk":5,"migraine_risk":3,"frizz_risk":1,"updated_at":"2026-07-01T15:22:53.313614+05:30"},{"city":"Hyderabad","state":"Telangana","latitude":17.385,"longitude":78.4867,"temp":28.1,"humidity":67,"rain":0.0,"pressure":947.4,"uv_index":5.8,"wind_gusts":44.3,"aqi":23,"pm10":7.2,"pm2_5":5.6,"no2":7.0,"co":224.0,"o3":48.0,"so2":3.3,"mosquito_risk":7,"arthritis_risk":5,"migraine_risk":3,"frizz_risk":1,"updated_at":"2026-07-01T15:22:53.313623+05:30"},{"city":"Chennai","state":"Tamil Nadu","latitude":13.0827,"longitude":80.2707,"temp":32.3,"humidity":60,"rain":0.0,"pressure":1001.9,"uv_index":5.75,"wind_gusts":48.6,"aqi":41,"pm10":7.1,"pm2_5":6.9,"no2":10.5,"co":202.0,"o3":71.0,"so2":12.5,"mosquito_risk":0,"arthritis_risk":5,"migraine_risk":0,"frizz_risk":1,"updated_at":"2026-07-01T15:22:53.313631+05:30"},{"city":"Kolkata","state":"West Bengal","latitude":22.5726,"longitude":88.3639,"temp":29.6,"humidity":85,"rain":0.1,"pressure":996.5,"uv_index":8.5,"wind_gusts":29.5,"aqi":100,"pm10":22.1,"pm2_5":21.8,"no2":4.3,"co":349.0,"o3":154.0,"so2":13.2,"mosquito_risk":10,"arthritis_risk":5,"migraine_risk":7,"frizz_risk":1,"updated_at":"2026-07-01T15:22:53.313640+05:30"},{"city":"Pune","state":"Maharashtra","latitude":18.5204,"longitude":73.8567,"temp":24.4,"humidity":90,"rain":0.1,"pressure":942.5,"uv_index":3.55,"wind_gusts":46.1,"aqi":21,"pm10":3.5,"pm2_5":2.8,"no2":5.0,"co":147.0,"o3":51.0,"so2":4.0,"mosquito_risk":6,"arthritis_risk":5,"migraine_risk":3,"frizz_risk":1,"updated_at":"2026-07-01T15:22:53.313647+05:30"},{"city":"Ahmedabad","state":"Gujarat","latitude":23.0225,"longitude":72.5714,"temp":34.4,"humidity":54,"rain":0.1,"pressure":992.8,"uv_index":6.85,"wind_gusts":42.8,"aqi":53,"pm10":25.7,"pm2_5":13.1,"no2":1.7,"co":130.0,"o3":93.0,"so2":3.7,"mosquito_risk":3,"arthritis_risk":5,"migraine_risk":7,"frizz_risk":1,"updated_at":"2026-07-01T15:22:53.313654+05:30"},{"city":"Jaipur","state":"Rajasthan","latitude":26.9124,"longitude":75.7873,"temp":31.9,"humidity":61,"rain":0.2,"pressure":952.2,"uv_index":8.2,"wind_gusts":44.6,"aqi":143,"pm10":234.7,"pm2_5":51.3,"no2":1.3,"co":144.0,"o3":102.0,"so2":3.2,"mosquito_risk":6,"arthritis_risk":5,"migraine_risk":7,"frizz_risk":1,"updated_at":"2026-07-01T15:22:53.313661+05:30"},{"city":"Lucknow","state":"Uttar Pradesh","latitude":26.8467,"longitude":80.9462,"temp":32.8,"humidity":64,"rain":0.0,"pressure":984.9,"uv_index":7.35,"wind_gusts":20.2,"aqi":108,"pm10":54.9,"pm2_5":28.6,"no2":3.0,"co":300.0,"o3":137.0,"so2":5.7,"mosquito_risk":3,"arthritis_risk":5,"migraine_risk":7,"frizz_risk":1,"updated_at":"2026-07-01T15:22:53.313676+05:30"},{"city":"Kanpur","state":"Uttar Pradesh","latitude":26.4499,"longitude":80.3319,"temp":32.7,"humidity":62,"rain":0.1,"pressure":983.1,"uv_index":5.65,"wind_gusts":29.9,"aqi":101,"pm10":60.8,"pm2_5":24.0,"no2":3.0,"co":179.0,"o3":145.0,"so2":5.7,"mosquito_risk":6,"arthritis_risk":5,"migraine_risk":3,"frizz_risk":1,"updated_at":"2026-07-01T15:22:53.313685+05:30"},{"city":"Chandigarh","state":"Chandigarh","latitude":30.7333,"longitude":76.7794,"temp":27.4,"humidity":85,"rain":0.1,"pressure":961.5,"uv_index":3.4,"wind_gusts":37.4,"aqi":99,"pm10":69.4,"pm2_5":29.6,"no2":3.5,"co":315.0,"o3":150.0,"so2":9.5,"mosquito_risk":10,"arthritis_risk":5,"migraine_risk":3,"frizz_risk":1,"updated_at":"2026-07-01T15:22:53.313692+05:30"},{"city":"Srinagar","state":"Jammu and Kashmir","latitude":34.0837,"longitude":74.7973,"temp":29.5,"humidity":50,"rain":0.0,"pressure":838.2,"uv_index":9.1,"wind_gusts":31.7,"aqi":99,"pm10":31.9,"pm2_5":23.4,"no2":1.5,"co":293.0,"o3":158.0,"so2":2.8,"mosquito_risk":4,"arthritis_risk":5,"migraine_risk":7,"frizz_risk":1,"updated_at":"2026-07-01T15:22:53.313699+05:30"},{"city":"Jammu","state":"Jammu and Kashmir","latitude":32.7266,"longitude":74.857,"temp":32.7,"humidity":63,"rain":0.1,"pressure":964.1,"uv_index":8.6,"wind_gusts":32.4,"aqi":123,"pm10":179.7,"pm2_5":65.0,"no2":1.8,"co":232.0,"o3":146.0,"so2":5.5,"mosquito_risk":6,"arthritis_risk":5,"migraine_risk":7,"frizz_risk":1,"updated_at":"2026-07-01T15:22:53.313706+05:30"},{"city":"Amritsar","state":"Punjab","latitude":31.634,"longitude":74.8723,"temp":34.1,"humidity":61,"rain":0.1,"pressure":971.4,"uv_index":8.45,"wind_gusts":46.4,"aqi":155,"pm10":424.7,"pm2_5":105.9,"no2":2.1,"co":306.0,"o3":166.0,"so2":9.4,"mosquito_risk":6,"arthritis_risk":5,"migraine_risk":7,"frizz_risk":1,"updated_at":"2026-07-01T15:22:53.313712+05:30"},{"city":"Ludhiana","state":"Punjab","latitude":30.901,"longitude":75.8573,"temp":33.7,"humidity":61,"rain":0.1,"pressure":970.3,"uv_index":7.6,"wind_gusts":43.2,"aqi":178,"pm10":691.0,"pm2_5":121.5,"no2":3.2,"co":339.0,"o3":161.0,"so2":10.6,"mosquito_risk":6,"arthritis_risk":5,"migraine_risk":7,"frizz_risk":1,"updated_at":"2026-07-01T15:22:53.313718+05:30"},{"city":"Jalandhar","state":"Punjab","latitude":31.326,"longitude":75.5762,"temp":33.9,"humidity":58,"rain":0.1,"pressure":971.3,"uv_index":6.1,"wind_gusts":38.9,"aqi":154,"pm10":584.9,"pm2_5":118.7,"no2":2.2,"co":308.0,"o3":170.0,"so2":9.3,"mosquito_risk":3,"arthritis_risk":5,"migraine_risk":7,"frizz_risk":1,"updated_at":"2026-07-01T15:22:53.313724+05:30"},{"city":"Dehradun","state":"Uttarakhand","latitude":30.6284,"longitude":78.0322,"temp":21.0,"humidity":91,"rain":0.1,"pressure":826.5,"uv_index":5.1,"wind_gusts":15.8,"aqi":57,"pm10":19.9,"pm2_5":12.1,"no2":5.5,"co":203.0,"o3":118.0,"so2":1.8,"mosquito_risk":6,"arthritis_risk":5,"migraine_risk":3,"frizz_risk":1,"updated_at":"2026-07-01T15:22:53.313731+05:30"},{"city":"Shimla","state":"Himachal Pradesh","latitude":31.1048,"longitude":77.1734,"temp":17.4,"humidity":99,"rain":0.3,"pressure":780.9,"uv_index":5.9,"wind_gusts":22.3,"aqi":76,"pm10":26.4,"pm2_5":17.1,"no2":3.6,"co":192.0,"o3":127.0,"so2":2.9,"mosquito_risk":6,"arthritis_risk":10,"migraine_risk":3,"frizz_risk":1,"updated_at":"2026-07-01T15:22:53.313738+05:30"},{"city":"Manali","state":"Himachal Pradesh","latitude":32.2396,"longitude":77.1887,"temp":23.6,"humidity":80,"rain":0.0,"pressure":816.7,"uv_index":6.35,"wind_gusts":41.0,"aqi":65,"pm10":32.2,"pm2_5":26.1,"no2":27.7,"co":186.0,"o3":125.0,"so2":1.1,"mosquito_risk":3,"arthritis_risk":5,"migraine_risk":7,"frizz_risk":1,"updated_at":"2026-07-01T15:22:53.313746+05:30"},{"city":"Gurgaon","state":"Haryana","latitude":28.4595,"longitude":77.0266,"temp":35.6,"humidity":49,"rain":0.0,"pressure":973.1,"uv_index":7.55,"wind_gusts":33.5,"aqi":754,"pm10":573.7,"pm2_5":100.6,"no2":5.0,"co":187.0,"o3":165.0,"so2":12.6,"mosquito_risk":0,"arthritis_risk":5,"migraine_risk":10,"frizz_risk":1,"updated_at":"2026-07-01T15:22:53.313773+05:30"},{"city":"Noida","state":"Uttar Pradesh","latitude":28.5355,"longitude":77.391,"temp":33.5,"humidity":61,"rain":0.0,"pressure":976.3,"uv_index":7.3,"wind_gusts":24.5,"aqi":754,"pm10":573.7,"pm2_5":100.6,"no2":5.0,"co":314.0,"o3":165.0,"so2":12.6,"mosquito_risk":3,"arthritis_risk":5,"migraine_risk":7,"frizz_risk":1,"updated_at":"2026-07-01T15:22:53.313789+05:30"},{"city":"Ghaziabad","state":"Uttar Pradesh","latitude":28.6692,"longitude":77.4538,"temp":33.1,"humidity":63,"rain":0.0,"pressure":974.6,"uv_index":7.4,"wind_gusts":25.9,"aqi":110,"pm10":214.2,"pm2_5":55.8,"no2":3.5,"co":244.0,"o3":154.0,"so2":12.3,"mosquito_risk":3,"arthritis_risk":5,"migraine_risk":7,"frizz_risk":1,"updated_at":"2026-07-01T15:22:53.313797+05:30"},{"city":"Faridabad","state":"Haryana","latitude":28.4089,"longitude":77.3178,"temp":34.3,"humidity":55,"rain":0.0,"pressure":975.5,"uv_index":7.55,"wind_gusts":29.9,"aqi":754,"pm10":573.7,"pm2_5":100.6,"no2":5.0,"co":281.0,"o3":165.0,"so2":12.6,"mosquito_risk":0,"arthritis_risk":5,"migraine_risk":7,"frizz_risk":1,"updated_at":"2026-07-01T15:22:53.313803+05:30"},{"city":"Meerut","state":"Uttar Pradesh","latitude":28.9845,"longitude":77.7064,"temp":31.2,"humidity":70,"rain":0.0,"pressure":973.7,"uv_index":7.2,"wind_gusts":26.3,"aqi":110,"pm10":214.2,"pm2_5":55.8,"no2":3.5,"co":227.0,"o3":154.0,"so2":12.3,"mosquito_risk":3,"arthritis_risk":5,"migraine_risk":7,"frizz_risk":1,"updated_at":"2026-07-01T15:22:53.313810+05:30"},{"city":"Agra","state":"Uttar Pradesh","latitude":27.1767,"longitude":78.0081,"temp":33.6,"humidity":62,"rain":0.1,"pressure":979.2,"uv_index":2.7,"wind_gusts":28.1,"aqi":216,"pm10":177.9,"pm2_5":46.6,"no2":2.3,"co":201.0,"o3":142.0,"so2":4.4,"mosquito_risk":6,"arthritis_risk":5,"migraine_risk":3,"frizz_risk":1,"updated_at":"2026-07-01T15:22:53.313816+05:30"},{"city":"Varanasi","state":"Uttar Pradesh","latitude":25.3176,"longitude":82.9739,"temp":32.6,"humidity":68,"rain":0.1,"pressure":987.9,"uv_index":8.45,"wind_gusts":24.1,"aqi":80,"pm10":28.4,"pm2_5":23.9,"no2":3.6,"co":285.0,"o3":160.0,"so2":8.7,"mosquito_risk":6,"arthritis_risk":5,"migraine_risk":7,"frizz_risk":1,"updated_at":"2026-07-01T15:22:53.313823+05:30"},{"city":"Prayagraj","state":"Uttar Pradesh","latitude":25.4358,"longitude":81.8463,"temp":35.4,"humidity":54,"rain":0.0,"pressure":986.3,"uv_index":7.95,"wind_gusts":18.0,"aqi":93,"pm10":45.3,"pm2_5":23.3,"no2":2.6,"co":214.0,"o3":150.0,"so2":5.5,"mosquito_risk":0,"arthritis_risk":5,"migraine_risk":10,"frizz_risk":1,"updated_at":"2026-07-01T15:22:53.313830+05:30"},{"city":"Gorakhpur","state":"Uttar Pradesh","latitude":26.7606,"longitude":83.3732,"temp":34.2,"humidity":62,"rain":0.0,"pressure":988.0,"uv_index":8.0,"wind_gusts":26.3,"aqi":120,"pm10":38.5,"pm2_5":33.1,"no2":3.1,"co":277.0,"o3":157.0,"so2":8.2,"mosquito_risk":3,"arthritis_risk":5,"migraine_risk":7,"frizz_risk":1,"updated_at":"2026-07-01T15:22:53.313836+05:30"},{"city":"Bareilly","state":"Uttar Pradesh","latitude":28.367,"longitude":79.4304,"temp":30.7,"humidity":74,"rain":0.0,"pressure":979.0,"uv_index":6.05,"wind_gusts":19.4,"aqi":96,"pm10":71.2,"pm2_5":37.8,"no2":2.7,"co":283.0,"o3":175.0,"so2":11.7,"mosquito_risk":3,"arthritis_risk":5,"migraine_risk":7,"frizz_risk":1,"updated_at":"2026-07-01T15:22:53.313849+05:30"},{"city":"Aligarh","state":"Uttar Pradesh","latitude":27.8974,"longitude":78.088,"temp":33.5,"humidity":59,"rain":0.0,"pressure":977.3,"uv_index":6.5,"wind_gusts":29.2,"aqi":155,"pm10":185.8,"pm2_5":54.5,"no2":2.5,"co":203.0,"o3":149.0,"so2":9.6,"mosquito_risk":0,"arthritis_risk":5,"migraine_risk":7,"frizz_risk":1,"updated_at":"2026-07-01T15:22:53.313856+05:30"},{"city":"Moradabad","state":"Uttar Pradesh","latitude":28.8386,"longitude":78.7733,"temp":31.7,"humidity":67,"rain":0.0,"pressure":976.0,"uv_index":7.3,"wind_gusts":24.5,"aqi":85,"pm10":51.3,"pm2_5":29.2,"no2":4.9,"co":236.0,"o3":153.0,"so2":13.6,"mosquito_risk":3,"arthritis_risk":5,"migraine_risk":7,"frizz_risk":1,"updated_at":"2026-07-01T15:22:53.313863+05:30"},{"city":"Saharanpur","state":"Uttar Pradesh","latitude":29.9637,"longitude":77.546,"temp":28.6,"humidity":82,"rain":0.0,"pressure":968.3,"uv_index":6.5,"wind_gusts":28.8,"aqi":74,"pm10":71.2,"pm2_5":32.2,"no2":3.7,"co":270.0,"o3":143.0,"so2":8.8,"mosquito_risk":7,"arthritis_risk":5,"migraine_risk":7,"frizz_risk":1,"updated_at":"2026-07-01T15:22:53.313870+05:30"},{"city":"Jhansi","state":"Uttar Pradesh","latitude":25.4484,"longitude":78.5685,"temp":35.5,"humidity":43,"rain":0.0,"pressure":969.5,"uv_index":5.85,"wind_gusts":29.5,"aqi":73,"pm10":122.0,"pm2_5":33.6,"no2":1.7,"co":155.0,"o3":114.0,"so2":5.1,"mosquito_risk":0,"arthritis_risk":5,"migraine_risk":6,"frizz_risk":1,"updated_at":"2026-07-01T15:22:56.578901+05:30"},{"city":"Surat","state":"Gujarat","latitude":21.1702,"longitude":72.8311,"temp":29.0,"humidity":80,"rain":0.0,"pressure":999.3,"uv_index":5.35,"wind_gusts":35.6,"aqi":63,"pm10":21.3,"pm2_5":16.5,"no2":18.0,"co":301.0,"o3":48.0,"so2":45.3,"mosquito_risk":7,"arthritis_risk":5,"migraine_risk":3,"frizz_risk":1,"updated_at":"2026-07-01T15:22:56.578932+05:30"},{"city":"Vadodara","state":"Gujarat","latitude":22.3072,"longitude":73.1812,"temp":28.7,"humidity":84,"rain":0.4,"pressure":996.4,"uv_index":6.2,"wind_gusts":37.1,"aqi":55,"pm10":31.0,"pm2_5":17.8,"no2":2.5,"co":143.0,"o3":90.0,"so2":3.5,"mosquito_risk":10,"arthritis_risk":5,"migraine_risk":7,"frizz_risk":1,"updated_at":"2026-07-01T15:22:56.578943+05:30"},{"city":"Rajkot","state":"Gujarat","latitude":22.3039,"longitude":70.8022,"temp":30.4,"humidity":73,"rain":0.2,"pressure":986.0,"uv_index":5.25,"wind_gusts":46.1,"aqi":53,"pm10":31.5,"pm2_5":15.7,"no2":1.3,"co":101.0,"o3":92.0,"so2":4.2,"mosquito_risk":6,"arthritis_risk":5,"migraine_risk":3,"frizz_risk":1,"updated_at":"2026-07-01T15:22:56.578951+05:30"},{"city":"Thane","state":"Maharashtra","latitude":19.2183,"longitude":72.9781,"temp":26.1,"humidity":97,"rain":0.5,"pressure":1002.1,"uv_index":2.1,"wind_gusts":32.8,"aqi":39,"pm10":22.0,"pm2_5":11.3,"no2":7.0,"co":234.0,"o3":52.0,"so2":4.6,"mosquito_risk":10,"arthritis_risk":5,"migraine_risk":0,"frizz_risk":1,"updated_at":"2026-07-01T15:22:56.578959+05:30"},{"city":"Nagpur","state":"Maharashtra","latitude":21.1458,"longitude":79.0882,"temp":28.7,"humidity":83,"rain":0.0,"pressure":965.6,"uv_index":7.3,"wind_gusts":26.3,"aqi":59,"pm10":19.2,"pm2_5":15.0,"no2":13.0,"co":254.0,"o3":93.0,"so2":29.9,"mosquito_risk":7,"arthritis_risk":5,"migraine_risk":7,"frizz_risk":1,"updated_at":"2026-07-01T15:22:56.578967+05:30"},{"city":"Nashik","state":"Maharashtra","latitude":19.9975,"longitude":73.7898,"temp":24.7,"humidity":93,"rain":0.0,"pressure":939.0,"uv_index":2.45,"wind_gusts":37.4,"aqi":22,"pm10":4.3,"pm2_5":2.5,"no2":3.1,"co":128.0,"o3":50.0,"so2":0.9,"mosquito_risk":3,"arthritis_risk":5,"migraine_risk":3,"frizz_risk":1,"updated_at":"2026-07-01T15:22:56.578975+05:30"},{"city":"Aurangabad","state":"Maharashtra","latitude":19.8762,"longitude":75.3433,"temp":26.4,"humidity":84,"rain":0.2,"pressure":937.4,"uv_index":7.8,"wind_gusts":42.5,"aqi":25,"pm10":6.2,"pm2_5":4.3,"no2":3.2,"co":138.0,"o3":64.0,"so2":2.3,"mosquito_risk":10,"arthritis_risk":5,"migraine_risk":7,"frizz_risk":1,"updated_at":"2026-07-01T15:22:56.578982+05:30"},{"city":"Solapur","state":"Maharashtra","latitude":17.6599,"longitude":75.9064,"temp":26.8,"humidity":77,"rain":0.1,"pressure":951.9,"uv_index":7.65,"wind_gusts":52.2,"aqi":22,"pm10":5.0,"pm2_5":3.6,"no2":3.1,"co":121.0,"o3":55.0,"so2":1.6,"mosquito_risk":10,"arthritis_risk":5,"migraine_risk":7,"frizz_risk":1,"updated_at":"2026-07-01T15:22:56.578990+05:30"},{"city":"Kolhapur","state":"Maharashtra","latitude":16.705,"longitude":74.2433,"temp":23.5,"humidity":96,"rain":0.3,"pressure":943.7,"uv_index":7.2,"wind_gusts":43.9,"aqi":23,"pm10":6.7,"pm2_5":4.9,"no2":4.1,"co":138.0,"o3":52.0,"so2":1.7,"mosquito_risk":6,"arthritis_risk":5,"migraine_risk":7,"frizz_risk":1,"updated_at":"2026-07-01T15:22:56.578998+05:30"},{"city":"Goa","state":"Goa","latitude":15.2993,"longitude":74.124,"temp":25.2,"humidity":97,"rain":0.2,"pressure":996.0,"uv_index":3.4,"wind_gusts":33.1,"aqi":31,"pm10":18.6,"pm2_5":9.6,"no2":1.4,"co":160.0,"o3":55.0,"so2":0.5,"mosquito_risk":10,"arthritis_risk":5,"migraine_risk":3,"frizz_risk":1,"updated_at":"2026-07-01T15:22:56.579006+05:30"},{"city":"Jodhpur","state":"Rajasthan","latitude":26.2389,"longitude":73.0243,"temp":38.2,"humidity":35,"rain":0.0,"pressure":973.2,"uv_index":8.45,"wind_gusts":38.2,"aqi":150,"pm10":193.2,"pm2_5":43.5,"no2":0.7,"co":112.0,"o3":85.0,"so2":1.5,"mosquito_risk":0,"arthritis_risk":5,"migraine_risk":10,"frizz_risk":1,"updated_at":"2026-07-01T15:22:56.579013+05:30"},{"city":"Udaipur","state":"Rajasthan","latitude":24.5854,"longitude":73.7125,"temp":33.4,"humidity":51,"rain":0.0,"pressure":938.6,"uv_index":8.55,"wind_gusts":32.4,"aqi":56,"pm10":31.8,"pm2_5":15.9,"no2":0.7,"co":111.0,"o3":85.0,"so2":2.2,"mosquito_risk":0,"arthritis_risk":5,"migraine_risk":7,"frizz_risk":1,"updated_at":"2026-07-01T15:22:56.579021+05:30"},{"city":"Kota","state":"Rajasthan","latitude":25.2138,"longitude":75.8648,"temp":33.4,"humidity":55,"rain":0.0,"pressure":970.4,"uv_index":8.15,"wind_gusts":24.5,"aqi":72,"pm10":39.1,"pm2_5":20.8,"no2":1.5,"co":135.0,"o3":106.0,"so2":4.2,"mosquito_risk":0,"arthritis_risk":5,"migraine_risk":7,"frizz_risk":1,"updated_at":"2026-07-01T15:22:56.579028+05:30"},{"city":"Bikaner","state":"Rajasthan","latitude":28.0229,"longitude":73.3119,"temp":40.8,"humidity":28,"rain":0.0,"pressure":971.3,"uv_index":8.45,"wind_gusts":37.4,"aqi":161,"pm10":124.8,"pm2_5":43.9,"no2":0.4,"co":109.0,"o3":85.0,"so2":1.9,"mosquito_risk":0,"arthritis_risk":5,"migraine_risk":10,"frizz_risk":1,"updated_at":"2026-07-01T15:22:56.579036+05:30"},{"city":"Ajmer","state":"Rajasthan","latitude":26.4499,"longitude":74.6399,"temp":35.1,"humidity":43,"rain":0.0,"pressure":946.8,"uv_index":8.35,"wind_gusts":42.1,"aqi":71,"pm10":52.7,"pm2_5":25.5,"no2":0.8,"co":121.0,"o3":91.0,"so2":2.2,"mosquito_risk":0,"arthritis_risk":5,"migraine_risk":10,"frizz_risk":1,"updated_at":"2026-07-01T15:22:56.579043+05:30"},{"city":"Gwalior","state":"Madhya Pradesh","latitude":26.2183,"longitude":78.1828,"temp":32.5,"humidity":60,"rain":0.0,"pressure":974.7,"uv_index":1.25,"wind_gusts":33.1,"aqi":83,"pm10":99.7,"pm2_5":28.9,"no2":1.2,"co":166.0,"o3":109.0,"so2":2.3,"mosquito_risk":0,"arthritis_risk":5,"migraine_risk":3,"frizz_risk":1,"updated_at":"2026-07-01T15:22:56.579051+05:30"},{"city":"Indore","state":"Madhya Pradesh","latitude":22.7196,"longitude":75.8577,"temp":28.3,"humidity":74,"rain":0.1,"pressure":940.8,"uv_index":7.35,"wind_gusts":26.6,"aqi":60,"pm10":32.0,"pm2_5":21.1,"no2":2.2,"co":253.0,"o3":106.0,"so2":4.7,"mosquito_risk":10,"arthritis_risk":5,"migraine_risk":7,"frizz_risk":1,"updated_at":"2026-07-01T15:22:56.579059+05:30"},{"city":"Bhopal","state":"Madhya Pradesh","latitude":23.2599,"longitude":77.4126,"temp":29.6,"humidity":73,"rain":0.1,"pressure":945.9,"uv_index":7.05,"wind_gusts":33.1,"aqi":67,"pm10":25.8,"pm2_5":16.2,"no2":1.1,"co":167.0,"o3":105.0,"so2":3.9,"mosquito_risk":10,"arthritis_risk":5,"migraine_risk":7,"frizz_risk":1,"updated_at":"2026-07-01T15:22:56.579067+05:30"},{"city":"Jabalpur","state":"Madhya Pradesh","latitude":23.1815,"longitude":79.9864,"temp":27.6,"humidity":89,"rain":0.1,"pressure":953.1,"uv_index":6.9,"wind_gusts":28.8,"aqi":63,"pm10":34.6,"pm2_5":21.2,"no2":2.5,"co":203.0,"o3":106.0,"so2":2.3,"mosquito_risk":10,"arthritis_risk":5,"migraine_risk":7,"frizz_risk":1,"updated_at":"2026-07-01T15:22:56.579074+05:30"},{"city":"Ujjain","state":"Madhya Pradesh","latitude":23.1765,"longitude":75.7885,"temp":29.5,"humidity":69,"rain":0.1,"pressure":946.4,"uv_index":7.55,"wind_gusts":27.4,"aqi":60,"pm10":32.1,"pm2_5":19.8,"no2":1.9,"co":209.0,"o3":96.0,"so2":3.9,"mosquito_risk":10,"arthritis_risk":5,"migraine_risk":7,"frizz_risk":1,"updated_at":"2026-07-01T15:22:56.579082+05:30"},{"city":"Visakhapatnam","state":"Andhra Pradesh","latitude":17.6868,"longitude":83.2185,"temp":31.3,"humidity":67,"rain":0.0,"pressure":995.2,"uv_index":3.35,"wind_gusts":37.1,"aqi":76,"pm10":16.8,"pm2_5":16.2,"no2":15.1,"co":388.0,"o3":100.0,"so2":40.7,"mosquito_risk":3,"arthritis_risk":5,"migraine_risk":3,"frizz_risk":1,"updated_at":"2026-07-01T15:22:56.579089+05:30"},{"city":"Vijayawada","state":"Andhra Pradesh","latitude":16.5062,"longitude":80.648,"temp":33.7,"humidity":52,"rain":0.0,"pressure":995.6,"uv_index":3.95,"wind_gusts":51.1,"aqi":50,"pm10":8.9,"pm2_5":6.6,"no2":1.6,"co":128.0,"o3":87.0,"so2":3.9,"mosquito_risk":0,"arthritis_risk":5,"migraine_risk":3,"frizz_risk":1,"updated_at":"2026-07-01T15:22:56.579097+05:30"},{"city":"Guntur","state":"Andhra Pradesh","latitude":16.3067,"longitude":80.4365,"temp":31.9,"humidity":62,"rain":0.0,"pressure":997.0,"uv_index":3.35,"wind_gusts":49.0,"aqi":40,"pm10":9.6,"pm2_5":6.3,"no2":1.4,"co":126.0,"o3":84.0,"so2":3.7,"mosquito_risk":3,"arthritis_risk":5,"migraine_risk":3,"frizz_risk":1,"updated_at":"2026-07-01T15:22:56.579104+05:30"},{"city":"Nellore","state":"Andhra Pradesh","latitude":14.4426,"longitude":79.9865,"temp":35.7,"humidity":41,"rain":0.0,"pressure":999.8,"uv_index":3.7,"wind_gusts":52.6,"aqi":25,"pm10":3.4,"pm2_5":3.1,"no2":2.1,"co":106.0,"o3":80.0,"so2":4.1,"mosquito_risk":0,"arthritis_risk":5,"migraine_risk":6,"frizz_risk":1,"updated_at":"2026-07-01T15:22:56.579112+05:30"},{"city":"Kurnool","state":"Andhra Pradesh","latitude":15.8281,"longitude":78.0373,"temp":30.6,"humidity":58,"rain":0.1,"pressure":972.1,"uv_index":3.75,"wind_gusts":53.6,"aqi":26,"pm10":6.8,"pm2_5":4.1,"no2":1.3,"co":113.0,"o3":74.0,"so2":1.6,"mosquito_risk":3,"arthritis_risk":5,"migraine_risk":3,"frizz_risk":1,"updated_at":"2026-07-01T15:22:56.579121+05:30"},{"city":"Kakinada","state":"Andhra Pradesh","latitude":16.9891,"longitude":82.2475,"temp":33.2,"humidity":57,"rain":0.0,"pressure":999.2,"uv_index":3.6,"wind_gusts":52.6,"aqi":52,"pm10":10.3,"pm2_5":9.7,"no2":2.3,"co":175.0,"o3":111.0,"so2":4.8,"mosquito_risk":0,"arthritis_risk":5,"migraine_risk":3,"frizz_risk":1,"updated_at":"2026-07-01T15:22:56.579128+05:30"},{"city":"Tirupati","state":"Andhra Pradesh","latitude":13.6288,"longitude":79.4192,"temp":34.9,"humidity":40,"rain":0.0,"pressure":986.0,"uv_index":3.55,"wind_gusts":49.3,"aqi":24,"pm10":2.1,"pm2_5":1.9,"no2":1.7,"co":112.0,"o3":69.0,"so2":1.0,"mosquito_risk":0,"arthritis_risk":5,"migraine_risk":3,"frizz_risk":1,"updated_at":"2026-07-01T15:22:56.579134+05:30"},{"city":"Warangal","state":"Telangana","latitude":17.9689,"longitude":79.5941,"temp":27.0,"humidity":91,"rain":0.3,"pressure":972.2,"uv_index":3.1,"wind_gusts":41.0,"aqi":39,"pm10":5.5,"pm2_5":5.1,"no2":4.5,"co":141.0,"o3":54.0,"so2":1.8,"mosquito_risk":10,"arthritis_risk":5,"migraine_risk":3,"frizz_risk":1,"updated_at":"2026-07-01T15:22:56.579141+05:30"},{"city":"Nizamabad","state":"Telangana","latitude":18.6725,"longitude":78.0941,"temp":29.0,"humidity":71,"rain":0.0,"pressure":958.3,"uv_index":1.95,"wind_gusts":37.4,"aqi":40,"pm10":5.6,"pm2_5":5.4,"no2":6.0,"co":140.0,"o3":50.0,"so2":2.8,"mosquito_risk":7,"arthritis_risk":5,"migraine_risk":3,"frizz_risk":1,"updated_at":"2026-07-01T15:22:56.579147+05:30"},{"city":"Mysore","state":"Karnataka","latitude":12.2958,"longitude":76.6396,"temp":25.4,"humidity":71,"rain":0.1,"pressure":926.9,"uv_index":4.3,"wind_gusts":56.5,"aqi":21,"pm10":3.0,"pm2_5":2.8,"no2":6.0,"co":112.0,"o3":53.0,"so2":1.6,"mosquito_risk":10,"arthritis_risk":5,"migraine_risk":3,"frizz_risk":1,"updated_at":"2026-07-01T15:22:56.579154+05:30"},{"city":"Mangalore","state":"Karnataka","latitude":12.9141,"longitude":74.856,"temp":25.5,"humidity":94,"rain":0.3,"pressure":1006.5,"uv_index":1.0,"wind_gusts":40.3,"aqi":27,"pm10":13.6,"pm2_5":7.7,"no2":3.0,"co":140.0,"o3":47.0,"so2":1.1,"mosquito_risk":10,"arthritis_risk":5,"migraine_risk":0,"frizz_risk":1,"updated_at":"2026-07-01T15:22:56.579161+05:30"},{"city":"Hubli-Dharwad","state":"Karnataka","latitude":15.3647,"longitude":75.124,"temp":23.2,"humidity":93,"rain":0.2,"pressure":937.5,"uv_index":3.7,"wind_gusts":49.7,"aqi":21,"pm10":2.5,"pm2_5":1.6,"no2":3.5,"co":119.0,"o3":51.0,"so2":0.8,"mosquito_risk":6,"arthritis_risk":5,"migraine_risk":3,"frizz_risk":1,"updated_at":"2026-07-01T15:22:56.579168+05:30"},{"city":"Belgaum","state":"Karnataka","latitude":15.8497,"longitude":74.4977,"temp":23.1,"humidity":89,"rain":0.1,"pressure":922.2,"uv_index":3.4,"wind_gusts":49.0,"aqi":21,"pm10":4.5,"pm2_5":2.8,"no2":3.0,"co":120.0,"o3":48.0,"so2":1.2,"mosquito_risk":6,"arthritis_risk":5,"migraine_risk":3,"frizz_risk":1,"updated_at":"2026-07-01T15:22:59.826181+05:30"},{"city":"Coimbatore","state":"Tamil Nadu","latitude":11.0168,"longitude":76.9558,"temp":28.2,"humidity":63,"rain":0.0,"pressure":959.9,"uv_index":3.15,"wind_gusts":55.4,"aqi":21,"pm10":2.2,"pm2_5":2.1,"no2":3.8,"co":152.0,"o3":52.0,"so2":2.1,"mosquito_risk":7,"arthritis_risk":5,"migraine_risk":3,"frizz_risk":1,"updated_at":"2026-07-01T15:22:59.826212+05:30"},{"city":"Madurai","state":"Tamil Nadu","latitude":9.9252,"longitude":78.1198,"temp":36.6,"humidity":33,"rain":0.1,"pressure":989.3,"uv_index":8.05,"wind_gusts":57.2,"aqi":44,"pm10":9.9,"pm2_5":5.8,"no2":3.1,"co":120.0,"o3":67.0,"so2":2.0,"mosquito_risk":3,"arthritis_risk":5,"migraine_risk":10,"frizz_risk":1,"updated_at":"2026-07-01T15:22:59.826223+05:30"},{"city":"Trichy","state":"Tamil Nadu","latitude":10.7905,"longitude":78.7047,"temp":35.9,"humidity":35,"rain":0.0,"pressure":995.7,"uv_index":5.15,"wind_gusts":64.4,"aqi":26,"pm10":5.3,"pm2_5":3.3,"no2":1.5,"co":111.0,"o3":70.0,"so2":1.3,"mosquito_risk":0,"arthritis_risk":5,"migraine_risk":6,"frizz_risk":1,"updated_at":"2026-07-01T15:22:59.826232+05:30"},{"city":"Salem","state":"Tamil Nadu","latitude":11.6643,"longitude":78.146,"temp":32.5,"humidity":50,"rain":0.0,"pressure":974.3,"uv_index":4.2,"wind_gusts":29.9,"aqi":43,"pm10":5.2,"pm2_5":4.6,"no2":3.7,"co":126.0,"o3":75.0,"so2":5.3,"mosquito_risk":0,"arthritis_risk":5,"migraine_risk":3,"frizz_risk":1,"updated_at":"2026-07-01T15:22:59.826241+05:30"},{"city":"Tirunelveli","state":"Tamil Nadu","latitude":8.7139,"longitude":77.7567,"temp":36.2,"humidity":37,"rain":0.0,"pressure":1000.1,"uv_index":8.65,"wind_gusts":43.6,"aqi":33,"pm10":11.3,"pm2_5":6.6,"no2":1.6,"co":110.0,"o3":70.0,"so2":1.3,"mosquito_risk":0,"arthritis_risk":5,"migraine_risk":7,"frizz_risk":1,"updated_at":"2026-07-01T15:22:59.826248+05:30"},{"city":"Vellore","state":"Tamil Nadu","latitude":12.9165,"longitude":79.1325,"temp":33.0,"humidity":47,"rain":0.0,"pressure":980.0,"uv_index":3.3,"wind_gusts":55.1,"aqi":24,"pm10":3.3,"pm2_5":3.2,"no2":2.2,"co":131.0,"o3":85.0,"so2":2.0,"mosquito_risk":0,"arthritis_risk":5,"migraine_risk":3,"frizz_risk":1,"updated_at":"2026-07-01T15:22:59.826256+05:30"},{"city":"Erode","state":"Tamil Nadu","latitude":11.341,"longitude":77.7172,"temp":32.6,"humidity":47,"rain":0.1,"pressure":985.8,"uv_index":1.75,"wind_gusts":45.7,"aqi":36,"pm10":4.8,"pm2_5":3.9,"no2":3.2,"co":146.0,"o3":66.0,"so2":2.0,"mosquito_risk":3,"arthritis_risk":5,"migraine_risk":3,"frizz_risk":1,"updated_at":"2026-07-01T15:22:59.826263+05:30"},{"city":"Kochi","state":"Kerala","latitude":9.9312,"longitude":76.2673,"temp":27.4,"humidity":81,"rain":0.0,"pressure":1008.6,"uv_index":2.25,"wind_gusts":35.6,"aqi":48,"pm10":9.7,"pm2_5":5.6,"no2":2.8,"co":123.0,"o3":53.0,"so2":2.1,"mosquito_risk":7,"arthritis_risk":0,"migraine_risk":0,"frizz_risk":1,"updated_at":"2026-07-01T15:22:59.826270+05:30"},{"city":"Thiruvananthapuram","state":"Kerala","latitude":8.5241,"longitude":76.9366,"temp":27.9,"humidity":79,"rain":0.0,"pressure":1007.4,"uv_index":8.3,"wind_gusts":44.3,"aqi":46,"pm10":17.7,"pm2_5":9.5,"no2":1.1,"co":98.0,"o3":62.0,"so2":0.9,"mosquito_risk":7,"arthritis_risk":5,"migraine_risk":4,"frizz_risk":1,"updated_at":"2026-07-01T15:22:59.826278+05:30"},{"city":"Kozhikode","state":"Kerala","latitude":11.2588,"longitude":75.7804,"temp":26.1,"humidity":90,"rain":0.1,"pressure":1007.9,"uv_index":1.75,"wind_gusts":33.5,"aqi":25,"pm10":9.3,"pm2_5":5.0,"no2":0.9,"co":160.0,"o3":54.0,"so2":0.6,"mosquito_risk":10,"arthritis_risk":5,"migraine_risk":0,"frizz_risk":1,"updated_at":"2026-07-01T15:22:59.826285+05:30"},{"city":"Thrissur","state":"Kerala","latitude":10.5276,"longitude":76.2144,"temp":26.1,"humidity":90,"rain":0.1,"pressure":1007.0,"uv_index":2.05,"wind_gusts":35.6,"aqi":49,"pm10":8.2,"pm2_5":5.7,"no2":3.3,"co":126.0,"o3":48.0,"so2":1.6,"mosquito_risk":10,"arthritis_risk":5,"migraine_risk":0,"frizz_risk":1,"updated_at":"2026-07-01T15:22:59.826293+05:30"},{"city":"Kannur","state":"Kerala","latitude":11.8745,"longitude":75.3704,"temp":25.2,"humidity":99,"rain":0.4,"pressure":1007.5,"uv_index":2.4,"wind_gusts":32.8,"aqi":29,"pm10":11.1,"pm2_5":6.4,"no2":3.2,"co":112.0,"o3":44.0,"so2":0.7,"mosquito_risk":10,"arthritis_risk":5,"migraine_risk":0,"frizz_risk":1,"updated_at":"2026-07-01T15:22:59.826301+05:30"},{"city":"Patna","state":"Bihar","latitude":25.5941,"longitude":85.1376,"temp":33.9,"humidity":63,"rain":0.0,"pressure":990.5,"uv_index":8.05,"wind_gusts":27.7,"aqi":136,"pm10":40.0,"pm2_5":39.1,"no2":4.8,"co":299.0,"o3":169.0,"so2":16.2,"mosquito_risk":3,"arthritis_risk":5,"migraine_risk":7,"frizz_risk":1,"updated_at":"2026-07-01T15:22:59.826308+05:30"},{"city":"Gaya","state":"Bihar","latitude":24.7914,"longitude":85.0002,"temp":34.1,"humidity":62,"rain":0.0,"pressure":984.0,"uv_index":8.55,"wind_gusts":20.2,"aqi":116,"pm10":43.7,"pm2_5":42.7,"no2":2.8,"co":230.0,"o3":177.0,"so2":16.7,"mosquito_risk":3,"arthritis_risk":5,"migraine_risk":7,"frizz_risk":1,"updated_at":"2026-07-01T15:22:59.826315+05:30"},{"city":"Muzaffarpur","state":"Bihar","latitude":26.1209,"longitude":85.3647,"temp":32.8,"humidity":73,"rain":0.1,"pressure":990.9,"uv_index":7.6,"wind_gusts":29.2,"aqi":146,"pm10":43.3,"pm2_5":42.5,"no2":4.3,"co":327.0,"o3":177.0,"so2":15.6,"mosquito_risk":6,"arthritis_risk":5,"migraine_risk":7,"frizz_risk":1,"updated_at":"2026-07-01T15:22:59.826321+05:30"},{"city":"Bhagalpur","state":"Bihar","latitude":25.2425,"longitude":87.0117,"temp":30.9,"humidity":78,"rain":0.1,"pressure":992.2,"uv_index":8.15,"wind_gusts":24.1,"aqi":128,"pm10":31.0,"pm2_5":30.4,"no2":4.9,"co":315.0,"o3":181.0,"so2":16.5,"mosquito_risk":6,"arthritis_risk":5,"migraine_risk":7,"frizz_risk":1,"updated_at":"2026-07-01T15:22:59.826328+05:30"},{"city":"Ranchi","state":"Jharkhand","latitude":23.3441,"longitude":85.3096,"temp":27.1,"humidity":89,"rain":0.2,"pressure":929.3,"uv_index":9.05,"wind_gusts":24.1,"aqi":65,"pm10":13.4,"pm2_5":13.2,"no2":2.8,"co":253.0,"o3":131.0,"so2":7.5,"mosquito_risk":10,"arthritis_risk":5,"migraine_risk":7,"frizz_risk":1,"updated_at":"2026-07-01T15:22:59.826335+05:30"},{"city":"Jamshedpur","state":"Jharkhand","latitude":22.8046,"longitude":86.2029,"temp":31.5,"humidity":65,"rain":0.0,"pressure":980.9,"uv_index":5.75,"wind_gusts":20.5,"aqi":99,"pm10":25.8,"pm2_5":25.5,"no2":3.1,"co":273.0,"o3":172.0,"so2":19.4,"mosquito_risk":3,"arthritis_risk":5,"migraine_risk":3,"frizz_risk":1,"updated_at":"2026-07-01T15:22:59.826341+05:30"},{"city":"Dhanbad","state":"Jharkhand","latitude":23.7957,"longitude":86.4304,"temp":31.4,"humidity":71,"rain":0.0,"pressure":970.4,"uv_index":6.2,"wind_gusts":26.6,"aqi":161,"pm10":49.2,"pm2_5":48.8,"no2":22.4,"co":268.0,"o3":150.0,"so2":63.0,"mosquito_risk":3,"arthritis_risk":5,"migraine_risk":7,"frizz_risk":1,"updated_at":"2026-07-01T15:22:59.826348+05:30"},{"city":"Bokaro","state":"Jharkhand","latitude":23.6693,"longitude":86.1511,"temp":32.6,"humidity":63,"rain":0.1,"pressure":974.1,"uv_index":7.55,"wind_gusts":28.4,"aqi":155,"pm10":51.9,"pm2_5":51.6,"no2":25.7,"co":702.0,"o3":167.0,"so2":80.5,"mosquito_risk":6,"arthritis_risk":5,"migraine_risk":7,"frizz_risk":1,"updated_at":"2026-07-01T15:22:59.826355+05:30"},{"city":"Bhubaneswar","state":"Odisha","latitude":20.2961,"longitude":85.8245,"temp":29.4,"humidity":80,"rain":0.1,"pressure":993.1,"uv_index":6.35,"wind_gusts":29.5,"aqi":65,"pm10":15.7,"pm2_5":15.4,"no2":3.2,"co":273.0,"o3":147.0,"so2":9.6,"mosquito_risk":10,"arthritis_risk":5,"migraine_risk":7,"frizz_risk":1,"updated_at":"2026-07-01T15:22:59.826361+05:30"},{"city":"Cuttack","state":"Odisha","latitude":20.4625,"longitude":85.8828,"temp":30.0,"humidity":76,"rain":0.0,"pressure":994.9,"uv_index":4.95,"wind_gusts":25.6,"aqi":65,"pm10":15.7,"pm2_5":15.4,"no2":3.2,"co":233.0,"o3":147.0,"so2":9.6,"mosquito_risk":7,"arthritis_risk":5,"migraine_risk":3,"frizz_risk":1,"updated_at":"2026-07-01T15:22:59.826368+05:30"},{"city":"Rourkela","state":"Odisha","latitude":22.2604,"longitude":84.8536,"temp":28.6,"humidity":89,"rain":0.2,"pressure":975.5,"uv_index":3.65,"wind_gusts":33.1,"aqi":57,"pm10":19.3,"pm2_5":19.2,"no2":2.3,"co":289.0,"o3":156.0,"so2":16.8,"mosquito_risk":10,"arthritis_risk":5,"migraine_risk":3,"frizz_risk":1,"updated_at":"2026-07-01T15:22:59.826375+05:30"},{"city":"Raipur","state":"Chhattisgarh","latitude":21.2514,"longitude":81.6296,"temp":29.6,"humidity":74,"rain":0.0,"pressure":966.0,"uv_index":6.9,"wind_gusts":31.7,"aqi":80,"pm10":20.1,"pm2_5":17.2,"no2":15.0,"co":187.0,"o3":91.0,"so2":36.3,"mosquito_risk":7,"arthritis_risk":5,"migraine_risk":7,"frizz_risk":1,"updated_at":"2026-07-01T15:22:59.826382+05:30"},{"city":"Bhilai","state":"Chhattisgarh","latitude":21.1938,"longitude":81.3509,"temp":28.8,"humidity":78,"rain":0.3,"pressure":966.5,"uv_index":2.2,"wind_gusts":32.4,"aqi":74,"pm10":16.1,"pm2_5":13.5,"no2":13.5,"co":183.0,"o3":90.0,"so2":31.3,"mosquito_risk":10,"arthritis_risk":5,"migraine_risk":3,"frizz_risk":1,"updated_at":"2026-07-01T15:22:59.826389+05:30"},{"city":"Guwahati","state":"Assam","latitude":26.1158,"longitude":91.7086,"temp":27.7,"humidity":95,"rain":0.1,"pressure":993.5,"uv_index":8.6,"wind_gusts":22.0,"aqi":50,"pm10":7.1,"pm2_5":7.0,"no2":1.8,"co":243.0,"o3":96.0,"so2":1.3,"mosquito_risk":10,"arthritis_risk":5,"migraine_risk":7,"frizz_risk":1,"updated_at":"2026-07-01T15:22:59.826395+05:30"},{"city":"Agartala","state":"Tripura","latitude":23.8315,"longitude":91.2868,"temp":30.0,"humidity":76,"rain":0.0,"pressure":997.7,"uv_index":8.45,"wind_gusts":33.1,"aqi":67,"pm10":11.0,"pm2_5":10.7,"no2":3.3,"co":171.0,"o3":110.0,"so2":1.4,"mosquito_risk":7,"arthritis_risk":5,"migraine_risk":7,"frizz_risk":1,"updated_at":"2026-07-01T15:22:59.826402+05:30"},{"city":"Shillong","state":"Meghalaya","latitude":25.5788,"longitude":91.8933,"temp":23.9,"humidity":77,"rain":0.0,"pressure":853.0,"uv_index":7.4,"wind_gusts":23.0,"aqi":36,"pm10":4.6,"pm2_5":4.4,"no2":2.4,"co":176.0,"o3":83.0,"so2":1.5,"mosquito_risk":3,"arthritis_risk":5,"migraine_risk":7,"frizz_risk":1,"updated_at":"2026-07-01T15:22:59.826409+05:30"},{"city":"Imphal","state":"Manipur","latitude":24.817,"longitude":93.9368,"temp":26.2,"humidity":83,"rain":0.1,"pressure":917.1,"uv_index":9.2,"wind_gusts":22.0,"aqi":38,"pm10":3.6,"pm2_5":3.5,"no2":2.5,"co":206.0,"o3":72.0,"so2":1.0,"mosquito_risk":10,"arthritis_risk":5,"migraine_risk":7,"frizz_risk":1,"updated_at":"2026-07-01T15:22:59.826416+05:30"},{"city":"Aizawl","state":"Mizoram","latitude":23.7271,"longitude":92.7176,"temp":26.6,"humidity":60,"rain":0.0,"pressure":886.8,"uv_index":8.7,"wind_gusts":28.8,"aqi":33,"pm10":3.1,"pm2_5":3.0,"no2":1.8,"co":133.0,"o3":63.0,"so2":0.5,"mosquito_risk":4,"arthritis_risk":5,"migraine_risk":7,"frizz_risk":1,"updated_at":"2026-07-01T15:22:59.826423+05:30"},{"city":"Kohima","state":"Nagaland","latitude":25.6701,"longitude":94.1077,"temp":23.0,"humidity":97,"rain":0.1,"pressure":850.8,"uv_index":4.55,"wind_gusts":22.0,"aqi":31,"pm10":5.6,"pm2_5":5.5,"no2":2.6,"co":159.0,"o3":71.0,"so2":0.6,"mosquito_risk":6,"arthritis_risk":5,"migraine_risk":3,"frizz_risk":1,"updated_at":"2026-07-01T15:22:59.826429+05:30"},{"city":"Gangtok","state":"Sikkim","latitude":27.3314,"longitude":88.6138,"temp":21.6,"humidity":82,"rain":0.0,"pressure":834.3,"uv_index":6.9,"wind_gusts":26.6,"aqi":61,"pm10":8.1,"pm2_5":7.4,"no2":2.1,"co":262.0,"o3":130.0,"so2":1.3,"mosquito_risk":3,"arthritis_risk":5,"migraine_risk":7,"frizz_risk":1,"updated_at":"2026-07-01T15:22:59.826436+05:30"},{"city":"Siliguri","state":"West Bengal","latitude":26.7271,"longitude":88.3953,"temp":30.5,"humidity":74,"rain":0.1,"pressure":984.7,"uv_index":8.65,"wind_gusts":26.6,"aqi":104,"pm10":33.4,"pm2_5":30.2,"no2":2.3,"co":373.0,"o3":143.0,"so2":2.5,"mosquito_risk":6,"arthritis_risk":5,"migraine_risk":7,"frizz_risk":1,"updated_at":"2026-07-01T15:23:03.087285+05:30"},{"city":"Durgapur","state":"West Bengal","latitude":23.5204,"longitude":87.3119,"temp":31.7,"humidity":69,"rain":0.1,"pressure":985.6,"uv_index":8.35,"wind_gusts":22.0,"aqi":145,"pm10":40.5,"pm2_5":40.0,"no2":18.2,"co":310.0,"o3":153.0,"so2":53.7,"mosquito_risk":6,"arthritis_risk":5,"migraine_risk":7,"frizz_risk":1,"updated_at":"2026-07-01T15:23:03.087316+05:30"},{"city":"Asansol","state":"West Bengal","latitude":23.6739,"longitude":86.9524,"temp":30.8,"humidity":77,"rain":0.1,"pressure":984.3,"uv_index":6.7,"wind_gusts":20.5,"aqi":151,"pm10":46.1,"pm2_5":45.5,"no2":17.5,"co":440.0,"o3":154.0,"so2":52.2,"mosquito_risk":6,"arthritis_risk":5,"migraine_risk":7,"frizz_risk":1,"updated_at":"2026-07-01T15:23:03.087328+05:30"},{"city":"Pondicherry","state":"Puducherry","latitude":11.9139,"longitude":79.8145,"temp":34.7,"humidity":46,"rain":0.0,"pressure":1003.9,"uv_index":2.2,"wind_gusts":43.2,"aqi":53,"pm10":21.5,"pm2_5":17.0,"no2":3.5,"co":146.0,"o3":132.0,"so2":8.5,"mosquito_risk":0,"arthritis_risk":5,"migraine_risk":0,"frizz_risk":1,"updated_at":"2026-07-01T15:23:03.087336+05:30"},{"city":"Port Blair","state":"Andaman and Nicobar Islands","latitude":11.6234,"longitude":92.7265,"temp":28.4,"humidity":84,"rain":0.1,"pressure":1003.2,"uv_index":4.85,"wind_gusts":50.4,"aqi":32,"pm10":11.5,"pm2_5":7.2,"no2":0.3,"co":97.0,"o3":70.0,"so2":0.6,"mosquito_risk":10,"arthritis_risk":5,"migraine_risk":0,"frizz_risk":1,"updated_at":"2026-07-01T15:23:03.087345+05:30"},{"city":"Haridwar","state":"Uttarakhand","latitude":29.9457,"longitude":78.1642,"temp":29.5,"humidity":77,"rain":0.0,"pressure":966.8,"uv_index":4.6,"wind_gusts":24.5,"aqi":65,"pm10":49.9,"pm2_5":25.3,"no2":4.4,"co":217.0,"o3":121.0,"so2":7.3,"mosquito_risk":7,"arthritis_risk":5,"migraine_risk":3,"frizz_risk":1,"updated_at":"2026-07-01T15:23:03.087352+05:30"},{"city":"Rishikesh","state":"Uttarakhand","latitude":30.0869,"longitude":78.2676,"temp":29.0,"humidity":75,"rain":0.0,"pressure":959.6,"uv_index":6.0,"wind_gusts":13.7,"aqi":57,"pm10":28.9,"pm2_5":15.8,"no2":2.6,"co":227.0,"o3":117.0,"so2":3.2,"mosquito_risk":7,"arthritis_risk":5,"migraine_risk":3,"frizz_risk":1,"updated_at":"2026-07-01T15:23:03.087360+05:30"},{"city":"Nainital","state":"Uttarakhand","latitude":29.3919,"longitude":79.4542,"temp":19.4,"humidity":94,"rain":0.2,"pressure":802.0,"uv_index":5.75,"wind_gusts":20.9,"aqi":63,"pm10":39.9,"pm2_5":19.7,"no2":1.1,"co":205.0,"o3":133.0,"so2":1.9,"mosquito_risk":6,"arthritis_risk":10,"migraine_risk":3,"frizz_risk":1,"updated_at":"2026-07-01T15:23:03.087367+05:30"},{"city":"Mussoorie","state":"Uttarakhand","latitude":30.4599,"longitude":78.0664,"temp":19.9,"humidity":91,"rain":0.1,"pressure":799.6,"uv_index":3.9,"wind_gusts":22.7,"aqi":58,"pm10":22.5,"pm2_5":15.3,"no2":5.3,"co":219.0,"o3":130.0,"so2":6.6,"mosquito_risk":6,"arthritis_risk":10,"migraine_risk":3,"frizz_risk":1,"updated_at":"2026-07-01T15:23:03.087375+05:30"},{"city":"Dharamshala","state":"Himachal Pradesh","latitude":32.219,"longitude":76.3234,"temp":25.1,"humidity":77,"rain":0.1,"pressure":864.9,"uv_index":6.65,"wind_gusts":29.9,"aqi":66,"pm10":21.9,"pm2_5":14.1,"no2":1.7,"co":229.0,"o3":121.0,"so2":1.4,"mosquito_risk":10,"arthritis_risk":5,"migraine_risk":7,"frizz_risk":1,"updated_at":"2026-07-01T15:23:03.087383+05:30"},{"city":"Dalhousie","state":"Himachal Pradesh","latitude":32.5387,"longitude":75.971,"temp":23.4,"humidity":68,"rain":0.0,"pressure":802.8,"uv_index":7.55,"wind_gusts":24.1,"aqi":100,"pm10":63.3,"pm2_5":32.4,"no2":2.6,"co":245.0,"o3":143.0,"so2":2.9,"mosquito_risk":3,"arthritis_risk":5,"migraine_risk":7,"frizz_risk":1,"updated_at":"2026-07-01T15:23:03.087390+05:30"},{"city":"Patiala","state":"Punjab","latitude":30.3398,"longitude":76.3869,"temp":30.8,"humidity":62,"rain":0.0,"pressure":970.5,"uv_index":7.25,"wind_gusts":43.9,"aqi":505,"pm10":936.9,"pm2_5":122.5,"no2":3.5,"co":279.0,"o3":145.0,"so2":12.9,"mosquito_risk":3,"arthritis_risk":5,"migraine_risk":7,"frizz_risk":1,"updated_at":"2026-07-01T15:23:03.087398+05:30"},{"city":"Bhatinda","state":"Punjab","latitude":30.211,"longitude":74.9455,"temp":34.7,"humidity":56,"rain":0.1,"pressure":974.3,"uv_index":8.25,"wind_gusts":39.6,"aqi":905,"pm10":1300.1,"pm2_5":287.8,"no2":3.4,"co":154.0,"o3":215.0,"so2":17.6,"mosquito_risk":3,"arthritis_risk":5,"migraine_risk":7,"frizz_risk":1,"updated_at":"2026-07-01T15:23:03.087406+05:30"},{"city":"Rohtak","state":"Haryana","latitude":28.8955,"longitude":76.6066,"temp":34.7,"humidity":53,"rain":0.0,"pressure":973.4,"uv_index":7.7,"wind_gusts":31.7,"aqi":1111,"pm10":640.7,"pm2_5":123.4,"no2":4.0,"co":162.0,"o3":179.0,"so2":11.0,"mosquito_risk":0,"arthritis_risk":5,"migraine_risk":7,"frizz_risk":1,"updated_at":"2026-07-01T15:23:03.087413+05:30"},{"city":"Panipat","state":"Haryana","latitude":29.3909,"longitude":76.9635,"temp":31.7,"humidity":60,"rain":0.0,"pressure":972.6,"uv_index":7.55,"wind_gusts":30.6,"aqi":1475,"pm10":356.7,"pm2_5":83.8,"no2":9.0,"co":265.0,"o3":150.0,"so2":20.3,"mosquito_risk":0,"arthritis_risk":5,"migraine_risk":7,"frizz_risk":1,"updated_at":"2026-07-01T15:23:03.087420+05:30"},{"city":"Mathura","state":"Uttar Pradesh","latitude":27.4924,"longitude":77.6737,"temp":34.3,"humidity":58,"rain":0.0,"pressure":978.3,"uv_index":3.6,"wind_gusts":37.1,"aqi":406,"pm10":273.8,"pm2_5":52.2,"no2":2.2,"co":198.0,"o3":136.0,"so2":3.3,"mosquito_risk":0,"arthritis_risk":5,"migraine_risk":3,"frizz_risk":1,"updated_at":"2026-07-01T15:23:03.087427+05:30"},{"city":"Vrindavan","state":"Uttar Pradesh","latitude":27.5823,"longitude":77.7027,"temp":34.4,"humidity":54,"rain":0.0,"pressure":978.7,"uv_index":4.4,"wind_gusts":35.6,"aqi":406,"pm10":273.8,"pm2_5":52.2,"no2":2.2,"co":200.0,"o3":136.0,"so2":3.3,"mosquito_risk":0,"arthritis_risk":5,"migraine_risk":3,"frizz_risk":1,"updated_at":"2026-07-01T15:23:03.087434+05:30"},{"city":"Ayodhya","state":"Uttar Pradesh","latitude":26.7922,"longitude":82.1998,"temp":32.8,"humidity":70,"rain":0.1,"pressure":986.3,"uv_index":6.4,"wind_gusts":24.5,"aqi":100,"pm10":30.9,"pm2_5":25.8,"no2":2.4,"co":318.0,"o3":149.0,"so2":5.9,"mosquito_risk":6,"arthritis_risk":5,"migraine_risk":7,"frizz_risk":1,"updated_at":"2026-07-01T15:23:03.087441+05:30"},{"city":"Ratlam","state":"Madhya Pradesh","latitude":23.3315,"longitude":75.0367,"temp":27.4,"humidity":86,"rain":0.4,"pressure":947.4,"uv_index":7.9,"wind_gusts":32.4,"aqi":57,"pm10":31.1,"pm2_5":19.2,"no2":1.4,"co":123.0,"o3":99.0,"so2":4.2,"mosquito_risk":10,"arthritis_risk":5,"migraine_risk":7,"frizz_risk":1,"updated_at":"2026-07-01T15:23:03.087448+05:30"},{"city":"Sagar","state":"Madhya Pradesh","latitude":23.8388,"longitude":78.7378,"temp":29.1,"humidity":75,"rain":0.1,"pressure":942.4,"uv_index":7.6,"wind_gusts":37.4,"aqi":74,"pm10":64.3,"pm2_5":28.3,"no2":1.3,"co":146.0,"o3":111.0,"so2":2.7,"mosquito_risk":10,"arthritis_risk":5,"migraine_risk":7,"frizz_risk":1,"updated_at":"2026-07-01T15:23:03.087455+05:30"},{"city":"Satna","state":"Madhya Pradesh","latitude":24.6005,"longitude":80.8322,"temp":33.3,"humidity":60,"rain":0.0,"pressure":962.5,"uv_index":8.2,"wind_gusts":29.9,"aqi":70,"pm10":56.5,"pm2_5":25.1,"no2":1.9,"co":157.0,"o3":114.0,"so2":2.6,"mosquito_risk":0,"arthritis_risk":5,"migraine_risk":7,"frizz_risk":1,"updated_at":"2026-07-01T15:23:03.087461+05:30"},{"city":"Akola","state":"Maharashtra","latitude":20.7002,"longitude":77.0082,"temp":33.0,"humidity":57,"rain":0.1,"pressure":967.3,"uv_index":1.0,"wind_gusts":31.3,"aqi":51,"pm10":18.7,"pm2_5":12.5,"no2":2.1,"co":133.0,"o3":102.0,"so2":6.5,"mosquito_risk":3,"arthritis_risk":5,"migraine_risk":3,"frizz_risk":1,"updated_at":"2026-07-01T15:23:03.087468+05:30"},{"city":"Amravati","state":"Maharashtra","latitude":20.9374,"longitude":77.7796,"temp":30.1,"humidity":68,"rain":0.0,"pressure":959.9,"uv_index":4.7,"wind_gusts":31.3,"aqi":51,"pm10":21.7,"pm2_5":14.0,"no2":2.8,"co":135.0,"o3":101.0,"so2":7.5,"mosquito_risk":3,"arthritis_risk":5,"migraine_risk":3,"frizz_risk":1,"updated_at":"2026-07-01T15:23:03.087476+05:30"},{"city":"Latur","state":"Maharashtra","latitude":18.4088,"longitude":76.5604,"temp":29.7,"humidity":57,"rain":0.0,"pressure":933.7,"uv_index":5.3,"wind_gusts":44.6,"aqi":20,"pm10":3.6,"pm2_5":3.4,"no2":4.0,"co":132.0,"o3":52.0,"so2":1.0,"mosquito_risk":4,"arthritis_risk":5,"migraine_risk":3,"frizz_risk":1,"updated_at":"2026-07-01T15:23:03.087484+05:30"},{"city":"Nanded","state":"Maharashtra","latitude":19.1383,"longitude":77.3091,"temp":30.6,"humidity":67,"rain":0.0,"pressure":961.9,"uv_index":1.95,"wind_gusts":33.5,"aqi":37,"pm10":4.7,"pm2_5":4.5,"no2":5.5,"co":126.0,"o3":53.0,"so2":2.3,"mosquito_risk":3,"arthritis_risk":5,"migraine_risk":3,"frizz_risk":1,"updated_at":"2026-07-01T15:23:03.087491+05:30"},{"city":"Gulbarga","state":"Karnataka","latitude":17.3297,"longitude":76.8343,"temp":27.2,"humidity":76,"rain":0.1,"pressure":953.4,"uv_index":5.1,"wind_gusts":48.6,"aqi":20,"pm10":6.4,"pm2_5":4.7,"no2":4.8,"co":115.0,"o3":59.0,"so2":3.2,"mosquito_risk":10,"arthritis_risk":5,"migraine_risk":3,"frizz_risk":1,"updated_at":"2026-07-01T15:23:03.087498+05:30"},{"city":"Bidar","state":"Karnataka","latitude":17.9104,"longitude":77.5199,"temp":29.1,"humidity":59,"rain":0.0,"pressure":929.8,"uv_index":6.55,"wind_gusts":49.7,"aqi":21,"pm10":5.0,"pm2_5":4.2,"no2":6.6,"co":136.0,"o3":49.0,"so2":1.5,"mosquito_risk":4,"arthritis_risk":5,"migraine_risk":7,"frizz_risk":1,"updated_at":"2026-07-01T15:23:03.087505+05:30"},{"city":"Hospet","state":"Karnataka","latitude":15.2689,"longitude":76.3909,"temp":25.0,"humidity":87,"rain":0.2,"pressure":952.3,"uv_index":4.3,"wind_gusts":51.5,"aqi":23,"pm10":5.0,"pm2_5":2.9,"no2":2.4,"co":113.0,"o3":56.0,"so2":1.4,"mosquito_risk":10,"arthritis_risk":5,"migraine_risk":3,"frizz_risk":1,"updated_at":"2026-07-01T15:23:03.087512+05:30"},{"city":"Tirupur","state":"Tamil Nadu","latitude":11.1085,"longitude":77.3411,"temp":31.3,"humidity":53,"rain":0.0,"pressure":972.6,"uv_index":2.4,"wind_gusts":60.5,"aqi":42,"pm10":4.5,"pm2_5":4.0,"no2":4.0,"co":136.0,"o3":64.0,"so2":2.8,"mosquito_risk":0,"arthritis_risk":5,"migraine_risk":3,"frizz_risk":1,"updated_at":"2026-07-01T15:23:03.087519+05:30"},{"city":"Alappuzha","state":"Kerala","latitude":9.4981,"longitude":76.3388,"temp":27.7,"humidity":80,"rain":0.1,"pressure":1008.5,"uv_index":2.4,"wind_gusts":38.9,"aqi":43,"pm10":15.0,"pm2_5":8.1,"no2":2.3,"co":91.0,"o3":61.0,"so2":1.7,"mosquito_risk":10,"arthritis_risk":0,"migraine_risk":0,"frizz_risk":1,"updated_at":"2026-07-01T15:23:03.087526+05:30"},{"city":"Munnar","state":"Kerala","latitude":10.0889,"longitude":77.0595,"temp":17.8,"humidity":91,"rain":0.1,"pressure":855.9,"uv_index":2.45,"wind_gusts":46.4,"aqi":22,"pm10":5.2,"pm2_5":3.6,"no2":2.2,"co":101.0,"o3":56.0,"so2":1.1,"mosquito_risk":6,"arthritis_risk":10,"migraine_risk":3,"frizz_risk":1,"updated_at":"2026-07-01T15:23:03.087533+05:30"},{"city":"Silchar","state":"Assam","latitude":24.8333,"longitude":92.7789,"temp":29.2,"humidity":84,"rain":0.4,"pressure":997.0,"uv_index":8.7,"wind_gusts":27.0,"aqi":60,"pm10":10.9,"pm2_5":10.7,"no2":2.0,"co":177.0,"o3":114.0,"so2":3.6,"mosquito_risk":10,"arthritis_risk":5,"migraine_risk":7,"frizz_risk":1,"updated_at":"2026-07-01T15:23:03.087540+05:30"},{"city":"Dibrugarh","state":"Assam","latitude":27.4728,"longitude":94.912,"temp":33.3,"humidity":66,"rain":0.0,"pressure":986.1,"uv_index":7.85,"wind_gusts":23.8,"aqi":76,"pm10":11.9,"pm2_5":11.5,"no2":1.3,"co":158.0,"o3":104.0,"so2":1.0,"mosquito_risk":3,"arthritis_risk":5,"migraine_risk":7,"frizz_risk":1,"updated_at":"2026-07-01T15:23:03.087547+05:30"}]