[{"city":"Delhi","state":"Delhi","latitude":28.6139,"longitude":77.209,"temp":25.6,"humidity":93,"rain":0.0,"pressure":974.4,"uv_index":7.7,"wind_gusts":41.8,"aqi":131,"pm10":98.0,"pm2_5":88.5,"no2":69.7,"co":485.0,"o3":1.0,"so2":35.6,"mosquito_risk":7,"arthritis_risk":5,"migraine_risk":7,"frizz_risk":1,"updated_at":"2026-07-10T05:37:02.623608+05:30"},{"city":"Mumbai","state":"Maharashtra","latitude":19.076,"longitude":72.8777,"temp":27.0,"humidity":89,"rain":0.1,"pressure":1006.7,"uv_index":6.55,"wind_gusts":50.8,"aqi":59,"pm10":39.9,"pm2_5":15.7,"no2":4.2,"co":112.0,"o3":41.0,"so2":4.0,"mosquito_risk":10,"arthritis_risk":5,"migraine_risk":4,"frizz_risk":1,"updated_at":"2026-07-10T05:37:02.623677+05:30"},{"city":"Bangalore","state":"Karnataka","latitude":12.9716,"longitude":77.5946,"temp":20.9,"humidity":91,"rain":0.0,"pressure":911.7,"uv_index":6.2,"wind_gusts":45.7,"aqi":33,"pm10":11.3,"pm2_5":7.3,"no2":9.5,"co":154.0,"o3":30.0,"so2":4.8,"mosquito_risk":3,"arthritis_risk":5,"migraine_risk":7,"frizz_risk":1,"updated_at":"2026-07-10T05:37:02.623694+05:30"},{"city":"Hyderabad","state":"Telangana","latitude":17.385,"longitude":78.4867,"temp":24.8,"humidity":79,"rain":0.0,"pressure":951.7,"uv_index":8.85,"wind_gusts":44.3,"aqi":55,"pm10":20.4,"pm2_5":12.2,"no2":7.8,"co":147.0,"o3":34.0,"so2":4.9,"mosquito_risk":3,"arthritis_risk":5,"migraine_risk":7,"frizz_risk":1,"updated_at":"2026-07-10T05:37:02.623703+05:30"},{"city":"Chennai","state":"Tamil Nadu","latitude":13.0827,"longitude":80.2707,"temp":28.1,"humidity":85,"rain":0.0,"pressure":1006.1,"uv_index":4.95,"wind_gusts":37.1,"aqi":62,"pm10":20.7,"pm2_5":16.1,"no2":16.9,"co":213.0,"o3":50.0,"so2":15.6,"mosquito_risk":7,"arthritis_risk":5,"migraine_risk":0,"frizz_risk":1,"updated_at":"2026-07-10T05:37:02.623712+05:30"},{"city":"Kolkata","state":"West Bengal","latitude":22.5726,"longitude":88.3639,"temp":26.9,"humidity":96,"rain":0.1,"pressure":1000.0,"uv_index":7.2,"wind_gusts":31.0,"aqi":65,"pm10":24.9,"pm2_5":22.6,"no2":10.9,"co":288.0,"o3":64.0,"so2":8.9,"mosquito_risk":10,"arthritis_risk":5,"migraine_risk":4,"frizz_risk":1,"updated_at":"2026-07-10T05:37:02.623721+05:30"},{"city":"Pune","state":"Maharashtra","latitude":18.5204,"longitude":73.8567,"temp":23.4,"humidity":91,"rain":0.0,"pressure":946.1,"uv_index":7.45,"wind_gusts":50.4,"aqi":29,"pm10":5.5,"pm2_5":2.8,"no2":4.6,"co":105.0,"o3":34.0,"so2":4.5,"mosquito_risk":3,"arthritis_risk":5,"migraine_risk":7,"frizz_risk":1,"updated_at":"2026-07-10T05:37:02.623727+05:30"},{"city":"Ahmedabad","state":"Gujarat","latitude":23.0225,"longitude":72.5714,"temp":27.0,"humidity":87,"rain":0.0,"pressure":998.2,"uv_index":8.15,"wind_gusts":42.8,"aqi":76,"pm10":26.8,"pm2_5":13.9,"no2":7.5,"co":118.0,"o3":31.0,"so2":4.8,"mosquito_risk":7,"arthritis_risk":5,"migraine_risk":7,"frizz_risk":1,"updated_at":"2026-07-10T05:37:02.623734+05:30"},{"city":"Jaipur","state":"Rajasthan","latitude":26.9124,"longitude":75.7873,"temp":27.4,"humidity":76,"rain":0.0,"pressure":953.1,"uv_index":8.2,"wind_gusts":39.6,"aqi":142,"pm10":82.0,"pm2_5":33.3,"no2":8.1,"co":133.0,"o3":56.0,"so2":4.6,"mosquito_risk":7,"arthritis_risk":5,"migraine_risk":7,"frizz_risk":1,"updated_at":"2026-07-10T05:37:02.623741+05:30"},{"city":"Lucknow","state":"Uttar Pradesh","latitude":26.8467,"longitude":80.9462,"temp":26.3,"humidity":96,"rain":0.1,"pressure":986.9,"uv_index":7.25,"wind_gusts":34.9,"aqi":75,"pm10":38.1,"pm2_5":27.8,"no2":17.3,"co":288.0,"o3":56.0,"so2":5.8,"mosquito_risk":10,"arthritis_risk":5,"migraine_risk":7,"frizz_risk":1,"updated_at":"2026-07-10T05:37:02.623752+05:30"},{"city":"Kanpur","state":"Uttar Pradesh","latitude":26.4499,"longitude":80.3319,"temp":26.4,"humidity":93,"rain":0.1,"pressure":984.6,"uv_index":8.15,"wind_gusts":34.6,"aqi":68,"pm10":55.6,"pm2_5":37.0,"no2":18.7,"co":188.0,"o3":47.0,"so2":7.0,"mosquito_risk":10,"arthritis_risk":5,"migraine_risk":7,"frizz_risk":1,"updated_at":"2026-07-10T05:37:02.623759+05:30"},{"city":"Chandigarh","state":"Chandigarh","latitude":30.7333,"longitude":76.7794,"temp":24.1,"humidity":95,"rain":1.2,"pressure":961.4,"uv_index":1.95,"wind_gusts":20.9,"aqi":153,"pm10":71.2,"pm2_5":71.2,"no2":60.6,"co":522.0,"o3":6.0,"so2":8.3,"mosquito_risk":6,"arthritis_risk":5,"migraine_risk":3,"frizz_risk":1,"updated_at":"2026-07-10T05:37:02.623766+05:30"},{"city":"Srinagar","state":"Jammu and Kashmir","latitude":34.0837,"longitude":74.7973,"temp":18.6,"humidity":93,"rain":0.0,"pressure":836.2,"uv_index":9.05,"wind_gusts":20.2,"aqi":85,"pm10":37.5,"pm2_5":36.1,"no2":16.1,"co":412.0,"o3":39.0,"so2":1.2,"mosquito_risk":3,"arthritis_risk":10,"migraine_risk":7,"frizz_risk":1,"updated_at":"2026-07-10T05:37:02.623773+05:30"},{"city":"Jammu","state":"Jammu and Kashmir","latitude":32.7266,"longitude":74.857,"temp":25.4,"humidity":96,"rain":0.0,"pressure":965.8,"uv_index":8.55,"wind_gusts":29.5,"aqi":157,"pm10":81.3,"pm2_5":71.5,"no2":54.7,"co":411.0,"o3":18.0,"so2":6.2,"mosquito_risk":7,"arthritis_risk":5,"migraine_risk":7,"frizz_risk":1,"updated_at":"2026-07-10T05:37:02.623780+05:30"},{"city":"Amritsar","state":"Punjab","latitude":31.634,"longitude":74.8723,"temp":25.9,"humidity":86,"rain":0.0,"pressure":973.8,"uv_index":8.4,"wind_gusts":21.2,"aqi":158,"pm10":118.0,"pm2_5":85.0,"no2":20.5,"co":590.0,"o3":63.0,"so2":13.2,"mosquito_risk":7,"arthritis_risk":5,"migraine_risk":7,"frizz_risk":1,"updated_at":"2026-07-10T05:37:02.623787+05:30"},{"city":"Ludhiana","state":"Punjab","latitude":30.901,"longitude":75.8573,"temp":25.4,"humidity":89,"rain":0.0,"pressure":971.5,"uv_index":7.9,"wind_gusts":18.0,"aqi":158,"pm10":147.1,"pm2_5":96.4,"no2":36.2,"co":458.0,"o3":35.0,"so2":10.5,"mosquito_risk":7,"arthritis_risk":5,"migraine_risk":7,"frizz_risk":1,"updated_at":"2026-07-10T05:37:02.623793+05:30"},{"city":"Jalandhar","state":"Punjab","latitude":31.326,"longitude":75.5762,"temp":25.3,"humidity":90,"rain":0.0,"pressure":972.5,"uv_index":8.15,"wind_gusts":18.7,"aqi":158,"pm10":130.9,"pm2_5":100.1,"no2":31.4,"co":491.0,"o3":40.0,"so2":13.6,"mosquito_risk":7,"arthritis_risk":5,"migraine_risk":7,"frizz_risk":1,"updated_at":"2026-07-10T05:37:02.623799+05:30"},{"city":"Dehradun","state":"Uttarakhand","latitude":30.6284,"longitude":78.0322,"temp":17.3,"humidity":98,"rain":0.1,"pressure":824.3,"uv_index":1.05,"wind_gusts":25.2,"aqi":67,"pm10":19.1,"pm2_5":19.0,"no2":29.8,"co":179.0,"o3":30.0,"so2":1.3,"mosquito_risk":6,"arthritis_risk":10,"migraine_risk":3,"frizz_risk":1,"updated_at":"2026-07-10T05:37:02.623808+05:30"},{"city":"Shimla","state":"Himachal Pradesh","latitude":31.1048,"longitude":77.1734,"temp":14.4,"humidity":98,"rain":0.7,"pressure":779.0,"uv_index":1.9,"wind_gusts":16.6,"aqi":60,"pm10":11.6,"pm2_5":11.3,"no2":11.0,"co":212.0,"o3":68.0,"so2":1.7,"mosquito_risk":6,"arthritis_risk":10,"migraine_risk":3,"frizz_risk":0,"updated_at":"2026-07-10T05:37:02.623816+05:30"},{"city":"Manali","state":"Himachal Pradesh","latitude":32.2396,"longitude":77.1887,"temp":19.8,"humidity":81,"rain":0.5,"pressure":814.7,"uv_index":8.05,"wind_gusts":31.0,"aqi":31,"pm10":2.4,"pm2_5":2.3,"no2":62.6,"co":243.0,"o3":10.0,"so2":0.2,"mosquito_risk":6,"arthritis_risk":10,"migraine_risk":7,"frizz_risk":1,"updated_at":"2026-07-10T05:37:02.623825+05:30"},{"city":"Gurgaon","state":"Haryana","latitude":28.4595,"longitude":77.0266,"temp":25.6,"humidity":93,"rain":0.0,"pressure":973.0,"uv_index":7.75,"wind_gusts":43.2,"aqi":152,"pm10":131.3,"pm2_5":75.7,"no2":61.2,"co":464.0,"o3":9.0,"so2":30.4,"mosquito_risk":7,"arthritis_risk":5,"migraine_risk":7,"frizz_risk":1,"updated_at":"2026-07-10T05:37:02.623832+05:30"},{"city":"Noida","state":"Uttar Pradesh","latitude":28.5355,"longitude":77.391,"temp":26.0,"humidity":91,"rain":0.0,"pressure":975.7,"uv_index":7.75,"wind_gusts":41.0,"aqi":152,"pm10":131.3,"pm2_5":75.7,"no2":61.2,"co":593.0,"o3":9.0,"so2":30.4,"mosquito_risk":7,"arthritis_risk":5,"migraine_risk":7,"frizz_risk":1,"updated_at":"2026-07-10T05:37:02.623839+05:30"},{"city":"Ghaziabad","state":"Uttar Pradesh","latitude":28.6692,"longitude":77.4538,"temp":25.9,"humidity":92,"rain":0.0,"pressure":973.6,"uv_index":7.7,"wind_gusts":41.8,"aqi":105,"pm10":93.4,"pm2_5":92.4,"no2":60.1,"co":318.0,"o3":1.0,"so2":14.0,"mosquito_risk":7,"arthritis_risk":5,"migraine_risk":7,"frizz_risk":1,"updated_at":"2026-07-10T05:37:02.623845+05:30"},{"city":"Faridabad","state":"Haryana","latitude":28.4089,"longitude":77.3178,"temp":25.8,"humidity":92,"rain":0.0,"pressure":975.0,"uv_index":7.75,"wind_gusts":45.4,"aqi":152,"pm10":131.3,"pm2_5":75.7,"no2":61.2,"co":525.0,"o3":9.0,"so2":30.4,"mosquito_risk":7,"arthritis_risk":5,"migraine_risk":7,"frizz_risk":1,"updated_at":"2026-07-10T05:37:02.623851+05:30"},{"city":"Meerut","state":"Uttar Pradesh","latitude":28.9845,"longitude":77.7064,"temp":25.4,"humidity":99,"rain":0.9,"pressure":971.9,"uv_index":7.55,"wind_gusts":36.0,"aqi":105,"pm10":93.4,"pm2_5":92.4,"no2":60.1,"co":320.0,"o3":1.0,"so2":14.0,"mosquito_risk":10,"arthritis_risk":5,"migraine_risk":7,"frizz_risk":1,"updated_at":"2026-07-10T05:37:02.623858+05:30"},{"city":"Agra","state":"Uttar Pradesh","latitude":27.1767,"longitude":78.0081,"temp":28.4,"humidity":76,"rain":0.0,"pressure":979.5,"uv_index":8.0,"wind_gusts":50.8,"aqi":136,"pm10":65.9,"pm2_5":36.4,"no2":11.1,"co":196.0,"o3":55.0,"so2":4.3,"mosquito_risk":7,"arthritis_risk":5,"migraine_risk":7,"frizz_risk":1,"updated_at":"2026-07-10T05:37:02.623866+05:30"},{"city":"Varanasi","state":"Uttar Pradesh","latitude":25.3176,"longitude":82.9739,"temp":27.0,"humidity":93,"rain":0.0,"pressure":991.3,"uv_index":8.3,"wind_gusts":39.6,"aqi":74,"pm10":26.0,"pm2_5":19.7,"no2":12.0,"co":238.0,"o3":59.0,"so2":7.2,"mosquito_risk":7,"arthritis_risk":5,"migraine_risk":7,"frizz_risk":1,"updated_at":"2026-07-10T05:37:02.623873+05:30"},{"city":"Prayagraj","state":"Uttar Pradesh","latitude":25.4358,"longitude":81.8463,"temp":27.4,"humidity":88,"rain":0.0,"pressure":989.9,"uv_index":8.6,"wind_gusts":33.5,"aqi":72,"pm10":36.6,"pm2_5":26.4,"no2":12.8,"co":212.0,"o3":59.0,"so2":5.9,"mosquito_risk":7,"arthritis_risk":5,"migraine_risk":7,"frizz_risk":1,"updated_at":"2026-07-10T05:37:02.623880+05:30"},{"city":"Gorakhpur","state":"Uttar Pradesh","latitude":26.7606,"longitude":83.3732,"temp":26.6,"humidity":95,"rain":0.1,"pressure":990.9,"uv_index":7.35,"wind_gusts":27.4,"aqi":90,"pm10":25.1,"pm2_5":24.9,"no2":13.9,"co":291.0,"o3":73.0,"so2":7.3,"mosquito_risk":10,"arthritis_risk":5,"migraine_risk":7,"frizz_risk":1,"updated_at":"2026-07-10T05:37:02.623886+05:30"},{"city":"Bareilly","state":"Uttar Pradesh","latitude":28.367,"longitude":79.4304,"temp":26.0,"humidity":97,"rain":0.3,"pressure":978.9,"uv_index":7.8,"wind_gusts":33.5,"aqi":74,"pm10":28.0,"pm2_5":26.3,"no2":14.1,"co":352.0,"o3":63.0,"so2":5.2,"mosquito_risk":10,"arthritis_risk":5,"migraine_risk":7,"frizz_risk":1,"updated_at":"2026-07-10T05:37:02.623894+05:30"},{"city":"Aligarh","state":"Uttar Pradesh","latitude":27.8974,"longitude":78.088,"temp":26.3,"humidity":91,"rain":0.0,"pressure":977.1,"uv_index":7.85,"wind_gusts":52.6,"aqi":109,"pm10":136.9,"pm2_5":66.1,"no2":39.5,"co":557.0,"o3":23.0,"so2":14.9,"mosquito_risk":7,"arthritis_risk":5,"migraine_risk":7,"frizz_risk":1,"updated_at":"2026-07-10T05:37:02.623900+05:30"},{"city":"Moradabad","state":"Uttar Pradesh","latitude":28.8386,"longitude":78.7733,"temp":25.6,"humidity":96,"rain":0.7,"pressure":975.3,"uv_index":6.65,"wind_gusts":38.2,"aqi":73,"pm10":27.5,"pm2_5":26.8,"no2":19.0,"co":379.0,"o3":53.0,"so2":6.0,"mosquito_risk":10,"arthritis_risk":5,"migraine_risk":7,"frizz_risk":1,"updated_at":"2026-07-10T05:37:02.623906+05:30"},{"city":"Saharanpur","state":"Uttar Pradesh","latitude":29.9637,"longitude":77.546,"temp":25.0,"humidity":95,"rain":0.2,"pressure":968.1,"uv_index":1.1,"wind_gusts":30.6,"aqi":97,"pm10":32.1,"pm2_5":31.9,"no2":27.0,"co":281.0,"o3":57.0,"so2":7.1,"mosquito_risk":10,"arthritis_risk":5,"migraine_risk":3,"frizz_risk":1,"updated_at":"2026-07-10T05:37:02.623913+05:30"},{"city":"Jhansi","state":"Uttar Pradesh","latitude":25.4484,"longitude":78.5685,"temp":28.5,"humidity":70,"rain":0.0,"pressure":971.4,"uv_index":8.4,"wind_gusts":45.4,"aqi":93,"pm10":82.4,"pm2_5":41.7,"no2":8.5,"co":166.0,"o3":59.0,"so2":10.0,"mosquito_risk":7,"arthritis_risk":5,"migraine_risk":7,"frizz_risk":1,"updated_at":"2026-07-10T05:37:05.998266+05:30"},{"city":"Surat","state":"Gujarat","latitude":21.1702,"longitude":72.8311,"temp":27.9,"humidity":86,"rain":0.0,"pressure":1003.6,"uv_index":7.2,"wind_gusts":55.4,"aqi":67,"pm10":27.9,"pm2_5":16.8,"no2":19.0,"co":322.0,"o3":23.0,"so2":32.8,"mosquito_risk":7,"arthritis_risk":5,"migraine_risk":4,"frizz_risk":1,"updated_at":"2026-07-10T05:37:05.998303+05:30"},{"city":"Vadodara","state":"Gujarat","latitude":22.3072,"longitude":73.1812,"temp":26.9,"humidity":89,"rain":0.0,"pressure":1000.9,"uv_index":8.1,"wind_gusts":48.6,"aqi":69,"pm10":23.3,"pm2_5":12.0,"no2":7.1,"co":118.0,"o3":31.0,"so2":4.2,"mosquito_risk":7,"arthritis_risk":5,"migraine_risk":4,"frizz_risk":1,"updated_at":"2026-07-10T05:37:05.998317+05:30"},{"city":"Rajkot","state":"Gujarat","latitude":22.3039,"longitude":70.8022,"temp":26.5,"humidity":90,"rain":0.0,"pressure":990.1,"uv_index":7.7,"wind_gusts":53.3,"aqi":65,"pm10":25.1,"pm2_5":11.5,"no2":3.6,"co":93.0,"o3":36.0,"so2":3.1,"mosquito_risk":7,"arthritis_risk":5,"migraine_risk":7,"frizz_risk":1,"updated_at":"2026-07-10T05:37:05.998328+05:30"},{"city":"Thane","state":"Maharashtra","latitude":19.2183,"longitude":72.9781,"temp":25.9,"humidity":96,"rain":0.0,"pressure":1006.0,"uv_index":7.2,"wind_gusts":43.2,"aqi":59,"pm10":39.9,"pm2_5":15.7,"no2":4.2,"co":122.0,"o3":41.0,"so2":4.0,"mosquito_risk":7,"arthritis_risk":5,"migraine_risk":4,"frizz_risk":1,"updated_at":"2026-07-10T05:37:05.998338+05:30"},{"city":"Nagpur","state":"Maharashtra","latitude":21.1458,"longitude":79.0882,"temp":26.4,"humidity":84,"rain":0.0,"pressure":969.8,"uv_index":6.85,"wind_gusts":42.5,"aqi":71,"pm10":38.8,"pm2_5":22.7,"no2":10.5,"co":167.0,"o3":40.0,"so2":9.4,"mosquito_risk":7,"arthritis_risk":5,"migraine_risk":7,"frizz_risk":1,"updated_at":"2026-07-10T05:37:05.998348+05:30"},{"city":"Nashik","state":"Maharashtra","latitude":19.9975,"longitude":73.7898,"temp":23.5,"humidity":96,"rain":0.0,"pressure":942.7,"uv_index":7.45,"wind_gusts":56.2,"aqi":35,"pm10":6.8,"pm2_5":3.5,"no2":5.9,"co":93.0,"o3":31.0,"so2":4.1,"mosquito_risk":3,"arthritis_risk":5,"migraine_risk":7,"frizz_risk":1,"updated_at":"2026-07-10T05:37:05.998357+05:30"},{"city":"Aurangabad","state":"Maharashtra","latitude":19.8762,"longitude":75.3433,"temp":23.8,"humidity":90,"rain":0.0,"pressure":941.8,"uv_index":8.85,"wind_gusts":53.6,"aqi":47,"pm10":13.9,"pm2_5":6.2,"no2":6.9,"co":133.0,"o3":32.0,"so2":9.0,"mosquito_risk":3,"arthritis_risk":5,"migraine_risk":7,"frizz_risk":1,"updated_at":"2026-07-10T05:37:05.998366+05:30"},{"city":"Solapur","state":"Maharashtra","latitude":17.6599,"longitude":75.9064,"temp":23.6,"humidity":86,"rain":0.0,"pressure":955.9,"uv_index":7.4,"wind_gusts":40.7,"aqi":45,"pm10":11.0,"pm2_5":6.3,"no2":5.7,"co":120.0,"o3":31.0,"so2":2.6,"mosquito_risk":3,"arthritis_risk":5,"migraine_risk":7,"frizz_risk":1,"updated_at":"2026-07-10T05:37:05.998376+05:30"},{"city":"Kolhapur","state":"Maharashtra","latitude":16.705,"longitude":74.2433,"temp":23.1,"humidity":95,"rain":0.0,"pressure":946.8,"uv_index":7.95,"wind_gusts":49.7,"aqi":35,"pm10":5.2,"pm2_5":3.0,"no2":2.9,"co":105.0,"o3":36.0,"so2":2.0,"mosquito_risk":3,"arthritis_risk":5,"migraine_risk":7,"frizz_risk":1,"updated_at":"2026-07-10T05:37:05.998385+05:30"},{"city":"Goa","state":"Goa","latitude":15.2993,"longitude":74.124,"temp":24.8,"humidity":99,"rain":0.0,"pressure":998.3,"uv_index":8.4,"wind_gusts":37.1,"aqi":60,"pm10":32.5,"pm2_5":18.0,"no2":3.9,"co":235.0,"o3":35.0,"so2":1.3,"mosquito_risk":3,"arthritis_risk":5,"migraine_risk":7,"frizz_risk":1,"updated_at":"2026-07-10T05:37:05.998394+05:30"},{"city":"Jodhpur","state":"Rajasthan","latitude":26.2389,"longitude":73.0243,"temp":28.3,"humidity":73,"rain":0.0,"pressure":977.2,"uv_index":5.4,"wind_gusts":47.5,"aqi":170,"pm10":379.0,"pm2_5":90.3,"no2":2.8,"co":107.0,"o3":52.0,"so2":3.2,"mosquito_risk":7,"arthritis_risk":5,"migraine_risk":3,"frizz_risk":1,"updated_at":"2026-07-10T05:37:05.998403+05:30"},{"city":"Udaipur","state":"Rajasthan","latitude":24.5854,"longitude":73.7125,"temp":24.1,"humidity":88,"rain":0.0,"pressure":941.1,"uv_index":8.85,"wind_gusts":47.2,"aqi":85,"pm10":37.7,"pm2_5":18.8,"no2":4.4,"co":101.0,"o3":44.0,"so2":3.9,"mosquito_risk":3,"arthritis_risk":5,"migraine_risk":7,"frizz_risk":1,"updated_at":"2026-07-10T05:37:05.998411+05:30"},{"city":"Kota","state":"Rajasthan","latitude":25.2138,"longitude":75.8648,"temp":28.0,"humidity":78,"rain":0.0,"pressure":972.8,"uv_index":6.3,"wind_gusts":38.5,"aqi":99,"pm10":49.5,"pm2_5":31.5,"no2":9.2,"co":155.0,"o3":58.0,"so2":8.9,"mosquito_risk":7,"arthritis_risk":5,"migraine_risk":7,"frizz_risk":1,"updated_at":"2026-07-10T05:37:05.998418+05:30"},{"city":"Bikaner","state":"Rajasthan","latitude":28.0229,"longitude":73.3119,"temp":30.3,"humidity":66,"rain":0.0,"pressure":974.5,"uv_index":8.45,"wind_gusts":38.9,"aqi":153,"pm10":167.2,"pm2_5":65.4,"no2":3.0,"co":114.0,"o3":54.0,"so2":4.6,"mosquito_risk":3,"arthritis_risk":5,"migraine_risk":7,"frizz_risk":1,"updated_at":"2026-07-10T05:37:05.998425+05:30"},{"city":"Ajmer","state":"Rajasthan","latitude":26.4499,"longitude":74.6399,"temp":26.7,"humidity":77,"rain":0.0,"pressure":948.7,"uv_index":8.4,"wind_gusts":51.5,"aqi":104,"pm10":56.9,"pm2_5":27.3,"no2":6.1,"co":118.0,"o3":56.0,"so2":4.1,"mosquito_risk":7,"arthritis_risk":5,"migraine_risk":7,"frizz_risk":1,"updated_at":"2026-07-10T05:37:05.998432+05:30"},{"city":"Gwalior","state":"Madhya Pradesh","latitude":26.2183,"longitude":78.1828,"temp":27.4,"humidity":77,"rain":0.0,"pressure":975.9,"uv_index":8.2,"wind_gusts":45.0,"aqi":82,"pm10":75.9,"pm2_5":39.2,"no2":7.6,"co":143.0,"o3":58.0,"so2":5.1,"mosquito_risk":7,"arthritis_risk":5,"migraine_risk":7,"frizz_risk":1,"updated_at":"2026-07-10T05:37:05.998440+05:30"},{"city":"Indore","state":"Madhya Pradesh","latitude":22.7196,"longitude":75.8577,"temp":24.6,"humidity":89,"rain":0.0,"pressure":944.4,"uv_index":8.45,"wind_gusts":52.9,"aqi":79,"pm10":25.4,"pm2_5":14.4,"no2":9.5,"co":166.0,"o3":30.0,"so2":10.6,"mosquito_risk":3,"arthritis_risk":5,"migraine_risk":7,"frizz_risk":1,"updated_at":"2026-07-10T05:37:05.998446+05:30"},{"city":"Bhopal","state":"Madhya Pradesh","latitude":23.2599,"longitude":77.4126,"temp":25.6,"humidity":85,"rain":0.0,"pressure":949.7,"uv_index":8.25,"wind_gusts":49.0,"aqi":81,"pm10":40.9,"pm2_5":24.6,"no2":7.5,"co":165.0,"o3":51.0,"so2":8.4,"mosquito_risk":7,"arthritis_risk":5,"migraine_risk":7,"frizz_risk":1,"updated_at":"2026-07-10T05:37:05.998454+05:30"},{"city":"Jabalpur","state":"Madhya Pradesh","latitude":23.1815,"longitude":79.9864,"temp":25.7,"humidity":87,"rain":0.0,"pressure":957.1,"uv_index":2.35,"wind_gusts":34.6,"aqi":74,"pm10":50.5,"pm2_5":30.4,"no2":6.8,"co":198.0,"o3":61.0,"so2":6.3,"mosquito_risk":7,"arthritis_risk":5,"migraine_risk":3,"frizz_risk":1,"updated_at":"2026-07-10T05:37:05.998461+05:30"},{"city":"Ujjain","state":"Madhya Pradesh","latitude":23.1765,"longitude":75.7885,"temp":25.0,"humidity":89,"rain":0.0,"pressure":949.9,"uv_index":8.5,"wind_gusts":54.7,"aqi":80,"pm10":24.3,"pm2_5":14.3,"no2":9.1,"co":170.0,"o3":31.0,"so2":9.8,"mosquito_risk":7,"arthritis_risk":5,"migraine_risk":7,"frizz_risk":1,"updated_at":"2026-07-10T05:37:05.998469+05:30"},{"city":"Visakhapatnam","state":"Andhra Pradesh","latitude":17.6868,"longitude":83.2185,"temp":27.5,"humidity":83,"rain":0.0,"pressure":1000.6,"uv_index":7.05,"wind_gusts":44.6,"aqi":80,"pm10":28.8,"pm2_5":22.9,"no2":19.6,"co":340.0,"o3":57.0,"so2":32.9,"mosquito_risk":7,"arthritis_risk":5,"migraine_risk":4,"frizz_risk":1,"updated_at":"2026-07-10T05:37:05.998476+05:30"},{"city":"Vijayawada","state":"Andhra Pradesh","latitude":16.5062,"longitude":80.648,"temp":29.0,"humidity":68,"rain":0.0,"pressure":1000.2,"uv_index":6.35,"wind_gusts":41.4,"aqi":60,"pm10":33.8,"pm2_5":22.7,"no2":11.1,"co":206.0,"o3":42.0,"so2":5.7,"mosquito_risk":7,"arthritis_risk":5,"migraine_risk":4,"frizz_risk":1,"updated_at":"2026-07-10T05:37:05.998482+05:30"},{"city":"Guntur","state":"Andhra Pradesh","latitude":16.3067,"longitude":80.4365,"temp":28.9,"humidity":68,"rain":0.0,"pressure":1001.6,"uv_index":7.1,"wind_gusts":42.1,"aqi":62,"pm10":34.9,"pm2_5":22.9,"no2":12.5,"co":179.0,"o3":37.0,"so2":6.3,"mosquito_risk":7,"arthritis_risk":5,"migraine_risk":4,"frizz_risk":1,"updated_at":"2026-07-10T05:37:05.998490+05:30"},{"city":"Nellore","state":"Andhra Pradesh","latitude":14.4426,"longitude":79.9865,"temp":28.1,"humidity":81,"rain":0.0,"pressure":1004.8,"uv_index":6.0,"wind_gusts":45.7,"aqi":52,"pm10":20.4,"pm2_5":13.3,"no2":10.1,"co":177.0,"o3":39.0,"so2":5.1,"mosquito_risk":7,"arthritis_risk":5,"migraine_risk":0,"frizz_risk":1,"updated_at":"2026-07-10T05:37:05.998497+05:30"},{"city":"Kurnool","state":"Andhra Pradesh","latitude":15.8281,"longitude":78.0373,"temp":26.1,"humidity":73,"rain":0.0,"pressure":976.4,"uv_index":7.25,"wind_gusts":42.5,"aqi":47,"pm10":19.6,"pm2_5":11.6,"no2":7.8,"co":124.0,"o3":30.0,"so2":2.5,"mosquito_risk":7,"arthritis_risk":5,"migraine_risk":7,"frizz_risk":1,"updated_at":"2026-07-10T05:37:05.998505+05:30"},{"city":"Kakinada","state":"Andhra Pradesh","latitude":16.9891,"longitude":82.2475,"temp":26.4,"humidity":96,"rain":0.2,"pressure":1005.1,"uv_index":7.1,"wind_gusts":43.9,"aqi":64,"pm10":27.0,"pm2_5":18.1,"no2":4.6,"co":196.0,"o3":95.0,"so2":5.4,"mosquito_risk":10,"arthritis_risk":5,"migraine_risk":4,"frizz_risk":1,"updated_at":"2026-07-10T05:37:05.998512+05:30"},{"city":"Tirupati","state":"Andhra Pradesh","latitude":13.6288,"longitude":79.4192,"temp":27.8,"humidity":70,"rain":0.0,"pressure":990.5,"uv_index":7.65,"wind_gusts":42.8,"aqi":49,"pm10":26.4,"pm2_5":20.1,"no2":20.4,"co":136.0,"o3":15.0,"so2":2.8,"mosquito_risk":7,"arthritis_risk":5,"migraine_risk":7,"frizz_risk":1,"updated_at":"2026-07-10T05:37:05.998519+05:30"},{"city":"Warangal","state":"Telangana","latitude":17.9689,"longitude":79.5941,"temp":27.5,"humidity":71,"rain":0.0,"pressure":976.2,"uv_index":8.15,"wind_gusts":37.4,"aqi":67,"pm10":24.4,"pm2_5":16.8,"no2":8.8,"co":200.0,"o3":40.0,"so2":3.7,"mosquito_risk":7,"arthritis_risk":5,"migraine_risk":7,"frizz_risk":1,"updated_at":"2026-07-10T05:37:05.998526+05:30"},{"city":"Nizamabad","state":"Telangana","latitude":18.6725,"longitude":78.0941,"temp":26.0,"humidity":76,"rain":0.0,"pressure":963.1,"uv_index":8.4,"wind_gusts":39.2,"aqi":66,"pm10":23.7,"pm2_5":13.2,"no2":8.1,"co":139.0,"o3":34.0,"so2":6.7,"mosquito_risk":7,"arthritis_risk":5,"migraine_risk":7,"frizz_risk":1,"updated_at":"2026-07-10T05:37:05.998532+05:30"},{"city":"Mysore","state":"Karnataka","latitude":12.2958,"longitude":76.6396,"temp":22.2,"humidity":89,"rain":0.0,"pressure":928.8,"uv_index":7.65,"wind_gusts":47.9,"aqi":25,"pm10":9.9,"pm2_5":6.1,"no2":5.4,"co":106.0,"o3":34.0,"so2":2.3,"mosquito_risk":3,"arthritis_risk":5,"migraine_risk":7,"frizz_risk":1,"updated_at":"2026-07-10T05:37:05.998539+05:30"},{"city":"Mangalore","state":"Karnataka","latitude":12.9141,"longitude":74.856,"temp":25.0,"humidity":91,"rain":0.1,"pressure":1008.0,"uv_index":7.65,"wind_gusts":33.5,"aqi":60,"pm10":29.5,"pm2_5":14.6,"no2":5.2,"co":182.0,"o3":33.0,"so2":2.5,"mosquito_risk":10,"arthritis_risk":0,"migraine_risk":4,"frizz_risk":1,"updated_at":"2026-07-10T05:37:05.998546+05:30"},{"city":"Hubli-Dharwad","state":"Karnataka","latitude":15.3647,"longitude":75.124,"temp":22.6,"humidity":94,"rain":0.0,"pressure":940.4,"uv_index":8.45,"wind_gusts":54.7,"aqi":27,"pm10":7.9,"pm2_5":4.1,"no2":2.6,"co":105.0,"o3":36.0,"so2":1.6,"mosquito_risk":3,"arthritis_risk":5,"migraine_risk":7,"frizz_risk":1,"updated_at":"2026-07-10T05:37:05.998554+05:30"},{"city":"Belgaum","state":"Karnataka","latitude":15.8497,"longitude":74.4977,"temp":21.8,"humidity":98,"rain":0.0,"pressure":924.7,"uv_index":8.5,"wind_gusts":49.0,"aqi":26,"pm10":6.7,"pm2_5":3.6,"no2":2.8,"co":97.0,"o3":36.0,"so2":1.6,"mosquito_risk":3,"arthritis_risk":5,"migraine_risk":7,"frizz_risk":1,"updated_at":"2026-07-10T05:37:09.357148+05:30"},{"city":"Coimbatore","state":"Tamil Nadu","latitude":11.0168,"longitude":76.9558,"temp":22.8,"humidity":96,"rain":0.0,"pressure":962.1,"uv_index":7.85,"wind_gusts":45.7,"aqi":28,"pm10":15.1,"pm2_5":9.3,"no2":6.6,"co":154.0,"o3":30.0,"so2":3.3,"mosquito_risk":3,"arthritis_risk":5,"migraine_risk":7,"frizz_risk":1,"updated_at":"2026-07-10T05:37:09.357181+05:30"},{"city":"Madurai","state":"Tamil Nadu","latitude":9.9252,"longitude":78.1198,"temp":28.3,"humidity":63,"rain":0.0,"pressure":993.2,"uv_index":8.75,"wind_gusts":40.3,"aqi":50,"pm10":24.9,"pm2_5":18.6,"no2":20.3,"co":139.0,"o3":24.0,"so2":7.1,"mosquito_risk":7,"arthritis_risk":5,"migraine_risk":7,"frizz_risk":1,"updated_at":"2026-07-10T05:37:09.357193+05:30"},{"city":"Trichy","state":"Tamil Nadu","latitude":10.7905,"longitude":78.7047,"temp":28.0,"humidity":69,"rain":0.0,"pressure":999.9,"uv_index":8.65,"wind_gusts":54.0,"aqi":37,"pm10":17.3,"pm2_5":11.1,"no2":8.1,"co":100.0,"o3":29.0,"so2":3.9,"mosquito_risk":7,"arthritis_risk":5,"migraine_risk":7,"frizz_risk":1,"updated_at":"2026-07-10T05:37:09.357202+05:30"},{"city":"Salem","state":"Tamil Nadu","latitude":11.6643,"longitude":78.146,"temp":24.9,"humidity":93,"rain":0.0,"pressure":977.8,"uv_index":8.35,"wind_gusts":33.8,"aqi":55,"pm10":27.8,"pm2_5":21.2,"no2":24.4,"co":394.0,"o3":15.0,"so2":7.2,"mosquito_risk":3,"arthritis_risk":5,"migraine_risk":7,"frizz_risk":1,"updated_at":"2026-07-10T05:37:09.357211+05:30"},{"city":"Tirunelveli","state":"Tamil Nadu","latitude":8.7139,"longitude":77.7567,"temp":28.5,"humidity":66,"rain":0.0,"pressure":1003.6,"uv_index":8.6,"wind_gusts":48.2,"aqi":39,"pm10":11.6,"pm2_5":7.4,"no2":5.0,"co":126.0,"o3":36.0,"so2":2.3,"mosquito_risk":7,"arthritis_risk":5,"migraine_risk":4,"frizz_risk":1,"updated_at":"2026-07-10T05:37:09.357218+05:30"},{"city":"Vellore","state":"Tamil Nadu","latitude":12.9165,"longitude":79.1325,"temp":27.8,"humidity":64,"rain":0.0,"pressure":984.0,"uv_index":8.25,"wind_gusts":45.0,"aqi":59,"pm10":23.1,"pm2_5":18.4,"no2":20.9,"co":139.0,"o3":19.0,"so2":5.2,"mosquito_risk":7,"arthritis_risk":5,"migraine_risk":7,"frizz_risk":1,"updated_at":"2026-07-10T05:37:09.357226+05:30"},{"city":"Erode","state":"Tamil Nadu","latitude":11.341,"longitude":77.7172,"temp":25.3,"humidity":83,"rain":0.0,"pressure":989.6,"uv_index":8.3,"wind_gusts":45.0,"aqi":43,"pm10":19.7,"pm2_5":15.1,"no2":14.8,"co":163.0,"o3":25.0,"so2":4.4,"mosquito_risk":7,"arthritis_risk":5,"migraine_risk":7,"frizz_risk":1,"updated_at":"2026-07-10T05:37:09.357235+05:30"},{"city":"Kochi","state":"Kerala","latitude":9.9312,"longitude":76.2673,"temp":25.4,"humidity":93,"rain":0.1,"pressure":1010.7,"uv_index":7.9,"wind_gusts":32.8,"aqi":54,"pm10":14.7,"pm2_5":9.6,"no2":8.7,"co":98.0,"o3":27.0,"so2":2.8,"mosquito_risk":10,"arthritis_risk":0,"migraine_risk":4,"frizz_risk":1,"updated_at":"2026-07-10T05:37:09.357243+05:30"},{"city":"Thiruvananthapuram","state":"Kerala","latitude":8.5241,"longitude":76.9366,"temp":24.2,"humidity":92,"rain":0.0,"pressure":1010.2,"uv_index":7.75,"wind_gusts":47.2,"aqi":51,"pm10":19.5,"pm2_5":10.5,"no2":3.6,"co":140.0,"o3":45.0,"so2":1.9,"mosquito_risk":3,"arthritis_risk":0,"migraine_risk":4,"frizz_risk":1,"updated_at":"2026-07-10T05:37:09.357251+05:30"},{"city":"Kozhikode","state":"Kerala","latitude":11.2588,"longitude":75.7804,"temp":24.5,"humidity":97,"rain":0.1,"pressure":1009.7,"uv_index":7.9,"wind_gusts":38.9,"aqi":48,"pm10":21.3,"pm2_5":9.7,"no2":1.5,"co":113.0,"o3":50.0,"so2":1.0,"mosquito_risk":6,"arthritis_risk":0,"migraine_risk":4,"frizz_risk":1,"updated_at":"2026-07-10T05:37:09.357259+05:30"},{"city":"Thrissur","state":"Kerala","latitude":10.5276,"longitude":76.2144,"temp":23.9,"humidity":99,"rain":0.1,"pressure":1009.2,"uv_index":7.35,"wind_gusts":34.6,"aqi":54,"pm10":16.3,"pm2_5":11.3,"no2":7.4,"co":131.0,"o3":28.0,"so2":2.7,"mosquito_risk":6,"arthritis_risk":0,"migraine_risk":4,"frizz_risk":1,"updated_at":"2026-07-10T05:37:09.357268+05:30"},{"city":"Kannur","state":"Kerala","latitude":11.8745,"longitude":75.3704,"temp":24.3,"humidity":99,"rain":0.0,"pressure":1008.9,"uv_index":8.2,"wind_gusts":33.1,"aqi":54,"pm10":24.9,"pm2_5":12.7,"no2":5.4,"co":123.0,"o3":32.0,"so2":1.8,"mosquito_risk":3,"arthritis_risk":0,"migraine_risk":4,"frizz_risk":1,"updated_at":"2026-07-10T05:37:09.357275+05:30"},{"city":"Patna","state":"Bihar","latitude":25.5941,"longitude":85.1376,"temp":26.9,"humidity":94,"rain":0.3,"pressure":994.3,"uv_index":7.7,"wind_gusts":28.1,"aqi":95,"pm10":28.6,"pm2_5":28.2,"no2":16.3,"co":343.0,"o3":64.0,"so2":9.6,"mosquito_risk":10,"arthritis_risk":5,"migraine_risk":7,"frizz_risk":1,"updated_at":"2026-07-10T05:37:09.357282+05:30"},{"city":"Gaya","state":"Bihar","latitude":24.7914,"longitude":85.0002,"temp":25.9,"humidity":96,"rain":0.2,"pressure":988.1,"uv_index":7.9,"wind_gusts":36.0,"aqi":74,"pm10":25.6,"pm2_5":22.5,"no2":16.6,"co":220.0,"o3":48.0,"so2":14.5,"mosquito_risk":10,"arthritis_risk":5,"migraine_risk":7,"frizz_risk":1,"updated_at":"2026-07-10T05:37:09.357289+05:30"},{"city":"Muzaffarpur","state":"Bihar","latitude":26.1209,"longitude":85.3647,"temp":26.1,"humidity":97,"rain":0.2,"pressure":994.0,"uv_index":7.55,"wind_gusts":21.6,"aqi":101,"pm10":38.8,"pm2_5":38.1,"no2":18.5,"co":415.0,"o3":60.0,"so2":11.4,"mosquito_risk":10,"arthritis_risk":5,"migraine_risk":7,"frizz_risk":1,"updated_at":"2026-07-10T05:37:09.357297+05:30"},{"city":"Bhagalpur","state":"Bihar","latitude":25.2425,"longitude":87.0117,"temp":26.8,"humidity":96,"rain":0.1,"pressure":994.8,"uv_index":7.8,"wind_gusts":23.0,"aqi":105,"pm10":45.6,"pm2_5":45.2,"no2":20.8,"co":304.0,"o3":41.0,"so2":22.9,"mosquito_risk":10,"arthritis_risk":5,"migraine_risk":7,"frizz_risk":1,"updated_at":"2026-07-10T05:37:09.357304+05:30"},{"city":"Ranchi","state":"Jharkhand","latitude":23.3441,"longitude":85.3096,"temp":23.4,"humidity":96,"rain":0.0,"pressure":932.5,"uv_index":7.9,"wind_gusts":40.0,"aqi":62,"pm10":21.6,"pm2_5":19.0,"no2":9.0,"co":231.0,"o3":58.0,"so2":12.4,"mosquito_risk":3,"arthritis_risk":5,"migraine_risk":7,"frizz_risk":1,"updated_at":"2026-07-10T05:37:09.357311+05:30"},{"city":"Jamshedpur","state":"Jharkhand","latitude":22.8046,"longitude":86.2029,"temp":26.7,"humidity":91,"rain":0.0,"pressure":985.4,"uv_index":8.95,"wind_gusts":37.8,"aqi":72,"pm10":33.1,"pm2_5":27.0,"no2":15.3,"co":291.0,"o3":58.0,"so2":23.5,"mosquito_risk":7,"arthritis_risk":5,"migraine_risk":7,"frizz_risk":1,"updated_at":"2026-07-10T05:37:09.357319+05:30"},{"city":"Dhanbad","state":"Jharkhand","latitude":23.7957,"longitude":86.4304,"temp":25.5,"humidity":97,"rain":0.1,"pressure":974.6,"uv_index":7.05,"wind_gusts":36.7,"aqi":107,"pm10":47.8,"pm2_5":44.6,"no2":42.5,"co":253.0,"o3":35.0,"so2":87.6,"mosquito_risk":10,"arthritis_risk":5,"migraine_risk":7,"frizz_risk":1,"updated_at":"2026-07-10T05:37:09.357326+05:30"},{"city":"Bokaro","state":"Jharkhand","latitude":23.6693,"longitude":86.1511,"temp":26.2,"humidity":95,"rain":0.0,"pressure":978.1,"uv_index":8.0,"wind_gusts":41.4,"aqi":85,"pm10":38.5,"pm2_5":34.8,"no2":27.2,"co":261.0,"o3":46.0,"so2":54.9,"mosquito_risk":7,"arthritis_risk":5,"migraine_risk":7,"frizz_risk":1,"updated_at":"2026-07-10T05:37:09.357333+05:30"},{"city":"Bhubaneswar","state":"Odisha","latitude":20.2961,"longitude":85.8245,"temp":27.0,"humidity":95,"rain":0.1,"pressure":998.2,"uv_index":7.85,"wind_gusts":39.6,"aqi":73,"pm10":25.3,"pm2_5":23.1,"no2":10.3,"co":260.0,"o3":66.0,"so2":7.2,"mosquito_risk":10,"arthritis_risk":5,"migraine_risk":7,"frizz_risk":1,"updated_at":"2026-07-10T05:37:09.357340+05:30"},{"city":"Cuttack","state":"Odisha","latitude":20.4625,"longitude":85.8828,"temp":27.2,"humidity":96,"rain":0.2,"pressure":999.8,"uv_index":7.95,"wind_gusts":41.8,"aqi":73,"pm10":25.3,"pm2_5":23.1,"no2":10.3,"co":267.0,"o3":66.0,"so2":7.2,"mosquito_risk":10,"arthritis_risk":5,"migraine_risk":7,"frizz_risk":1,"updated_at":"2026-07-10T05:37:09.357347+05:30"},{"city":"Rourkela","state":"Odisha","latitude":22.2604,"longitude":84.8536,"temp":25.5,"humidity":96,"rain":0.1,"pressure":980.7,"uv_index":7.45,"wind_gusts":40.7,"aqi":75,"pm10":29.2,"pm2_5":24.4,"no2":12.4,"co":256.0,"o3":54.0,"so2":18.2,"mosquito_risk":10,"arthritis_risk":5,"migraine_risk":7,"frizz_risk":1,"updated_at":"2026-07-10T05:37:09.357354+05:30"},{"city":"Raipur","state":"Chhattisgarh","latitude":21.2514,"longitude":81.6296,"temp":26.5,"humidity":84,"rain":0.0,"pressure":971.0,"uv_index":8.25,"wind_gusts":40.7,"aqi":88,"pm10":50.4,"pm2_5":35.6,"no2":30.0,"co":541.0,"o3":37.0,"so2":48.9,"mosquito_risk":7,"arthritis_risk":5,"migraine_risk":7,"frizz_risk":1,"updated_at":"2026-07-10T05:37:09.357361+05:30"},{"city":"Bhilai","state":"Chhattisgarh","latitude":21.1938,"longitude":81.3509,"temp":26.1,"humidity":86,"rain":0.0,"pressure":971.6,"uv_index":8.1,"wind_gusts":45.4,"aqi":88,"pm10":48.5,"pm2_5":34.0,"no2":25.4,"co":668.0,"o3":38.0,"so2":41.0,"mosquito_risk":7,"arthritis_risk":5,"migraine_risk":7,"frizz_risk":1,"updated_at":"2026-07-10T05:37:09.357368+05:30"},{"city":"Guwahati","state":"Assam","latitude":26.1158,"longitude":91.7086,"temp":26.1,"humidity":98,"rain":0.0,"pressure":996.4,"uv_index":5.85,"wind_gusts":18.4,"aqi":52,"pm10":15.6,"pm2_5":15.0,"no2":9.0,"co":326.0,"o3":43.0,"so2":3.3,"mosquito_risk":7,"arthritis_risk":5,"migraine_risk":3,"frizz_risk":1,"updated_at":"2026-07-10T05:37:09.357375+05:30"},{"city":"Agartala","state":"Tripura","latitude":23.8315,"longitude":91.2868,"temp":24.9,"humidity":99,"rain":0.1,"pressure":1001.8,"uv_index":6.55,"wind_gusts":48.6,"aqi":50,"pm10":7.8,"pm2_5":7.5,"no2":10.2,"co":136.0,"o3":49.0,"so2":2.5,"mosquito_risk":6,"arthritis_risk":5,"migraine_risk":4,"frizz_risk":1,"updated_at":"2026-07-10T05:37:09.357383+05:30"},{"city":"Shillong","state":"Meghalaya","latitude":25.5788,"longitude":91.8933,"temp":20.6,"humidity":93,"rain":0.0,"pressure":854.0,"uv_index":3.1,"wind_gusts":30.2,"aqi":24,"pm10":1.3,"pm2_5":1.2,"no2":4.2,"co":194.0,"o3":46.0,"so2":2.8,"mosquito_risk":3,"arthritis_risk":5,"migraine_risk":3,"frizz_risk":1,"updated_at":"2026-07-10T05:37:09.357390+05:30"},{"city":"Imphal","state":"Manipur","latitude":24.817,"longitude":93.9368,"temp":22.7,"humidity":95,"rain":0.1,"pressure":919.9,"uv_index":2.8,"wind_gusts":31.0,"aqi":40,"pm10":13.0,"pm2_5":12.1,"no2":8.3,"co":236.0,"o3":30.0,"so2":2.1,"mosquito_risk":6,"arthritis_risk":5,"migraine_risk":3,"frizz_risk":1,"updated_at":"2026-07-10T05:37:09.357398+05:30"},{"city":"Aizawl","state":"Mizoram","latitude":23.7271,"longitude":92.7176,"temp":19.3,"humidity":98,"rain":0.0,"pressure":889.1,"uv_index":7.7,"wind_gusts":51.5,"aqi":21,"pm10":0.6,"pm2_5":0.6,"no2":2.4,"co":113.0,"o3":49.0,"so2":1.0,"mosquito_risk":3,"arthritis_risk":10,"migraine_risk":7,"frizz_risk":1,"updated_at":"2026-07-10T05:37:09.357404+05:30"},{"city":"Kohima","state":"Nagaland","latitude":25.6701,"longitude":94.1077,"temp":19.8,"humidity":96,"rain":0.0,"pressure":852.0,"uv_index":7.15,"wind_gusts":22.3,"aqi":26,"pm10":8.4,"pm2_5":7.1,"no2":5.9,"co":178.0,"o3":38.0,"so2":1.2,"mosquito_risk":3,"arthritis_risk":10,"migraine_risk":7,"frizz_risk":1,"updated_at":"2026-07-10T05:37:09.357412+05:30"},{"city":"Gangtok","state":"Sikkim","latitude":27.3314,"longitude":88.6138,"temp":19.1,"humidity":97,"rain":0.1,"pressure":834.2,"uv_index":7.7,"wind_gusts":26.6,"aqi":42,"pm10":3.1,"pm2_5":3.1,"no2":5.4,"co":311.0,"o3":77.0,"so2":1.0,"mosquito_risk":6,"arthritis_risk":10,"migraine_risk":7,"frizz_risk":1,"updated_at":"2026-07-10T05:37:09.357418+05:30"},{"city":"Siliguri","state":"West Bengal","latitude":26.7271,"longitude":88.3953,"temp":25.5,"humidity":96,"rain":0.0,"pressure":987.2,"uv_index":8.2,"wind_gusts":31.3,"aqi":70,"pm10":18.5,"pm2_5":18.3,"no2":8.8,"co":272.0,"o3":67.0,"so2":2.8,"mosquito_risk":7,"arthritis_risk":5,"migraine_risk":7,"frizz_risk":1,"updated_at":"2026-07-10T05:37:12.787380+05:30"},{"city":"Durgapur","state":"West Bengal","latitude":23.5204,"longitude":87.3119,"temp":26.3,"humidity":96,"rain":0.3,"pressure":989.2,"uv_index":8.4,"wind_gusts":30.6,"aqi":92,"pm10":37.8,"pm2_5":35.2,"no2":33.7,"co":473.0,"o3":48.0,"so2":49.5,"mosquito_risk":10,"arthritis_risk":5,"migraine_risk":7,"frizz_risk":1,"updated_at":"2026-07-10T05:37:12.787414+05:30"},{"city":"Asansol","state":"West Bengal","latitude":23.6739,"longitude":86.9524,"temp":25.9,"humidity":97,"rain":0.3,"pressure":987.9,"uv_index":7.7,"wind_gusts":34.2,"aqi":89,"pm10":38.1,"pm2_5":35.0,"no2":34.7,"co":671.0,"o3":45.0,"so2":53.5,"mosquito_risk":10,"arthritis_risk":5,"migraine_risk":7,"frizz_risk":1,"updated_at":"2026-07-10T05:37:12.787425+05:30"},{"city":"Pondicherry","state":"Puducherry","latitude":11.9139,"longitude":79.8145,"temp":28.2,"humidity":72,"rain":0.0,"pressure":1007.9,"uv_index":6.8,"wind_gusts":34.6,"aqi":64,"pm10":17.8,"pm2_5":12.0,"no2":12.3,"co":223.0,"o3":43.0,"so2":8.9,"mosquito_risk":7,"arthritis_risk":5,"migraine_risk":4,"frizz_risk":1,"updated_at":"2026-07-10T05:37:12.787435+05:30"},{"city":"Port Blair","state":"Andaman and Nicobar Islands","latitude":11.6234,"longitude":92.7265,"temp":27.4,"humidity":83,"rain":0.0,"pressure":1008.3,"uv_index":8.8,"wind_gusts":48.2,"aqi":52,"pm10":20.8,"pm2_5":9.8,"no2":0.2,"co":93.0,"o3":49.0,"so2":0.4,"mosquito_risk":7,"arthritis_risk":0,"migraine_risk":4,"frizz_risk":1,"updated_at":"2026-07-10T05:37:12.787443+05:30"},{"city":"Haridwar","state":"Uttarakhand","latitude":29.9457,"longitude":78.1642,"temp":25.0,"humidity":98,"rain":0.3,"pressure":966.1,"uv_index":3.4,"wind_gusts":15.8,"aqi":68,"pm10":14.1,"pm2_5":14.0,"no2":11.8,"co":298.0,"o3":85.0,"so2":2.2,"mosquito_risk":10,"arthritis_risk":5,"migraine_risk":3,"frizz_risk":1,"updated_at":"2026-07-10T05:37:12.787451+05:30"},{"city":"Rishikesh","state":"Uttarakhand","latitude":30.0869,"longitude":78.2676,"temp":25.2,"humidity":91,"rain":0.3,"pressure":959.0,"uv_index":3.35,"wind_gusts":14.8,"aqi":46,"pm10":9.4,"pm2_5":9.4,"no2":6.1,"co":279.0,"o3":83.0,"so2":0.3,"mosquito_risk":10,"arthritis_risk":5,"migraine_risk":3,"frizz_risk":1,"updated_at":"2026-07-10T05:37:12.787460+05:30"},{"city":"Nainital","state":"Uttarakhand","latitude":29.3919,"longitude":79.4542,"temp":17.2,"humidity":99,"rain":0.1,"pressure":800.6,"uv_index":2.6,"wind_gusts":35.3,"aqi":44,"pm10":8.4,"pm2_5":8.3,"no2":4.0,"co":216.0,"o3":100.0,"so2":1.7,"mosquito_risk":6,"arthritis_risk":10,"migraine_risk":3,"frizz_risk":1,"updated_at":"2026-07-10T05:37:12.787468+05:30"},{"city":"Mussoorie","state":"Uttarakhand","latitude":30.4599,"longitude":78.0664,"temp":15.9,"humidity":99,"rain":0.1,"pressure":796.9,"uv_index":0.95,"wind_gusts":28.8,"aqi":65,"pm10":17.8,"pm2_5":17.7,"no2":14.1,"co":182.0,"o3":74.0,"so2":3.6,"mosquito_risk":6,"arthritis_risk":10,"migraine_risk":3,"frizz_risk":0,"updated_at":"2026-07-10T05:37:12.787477+05:30"},{"city":"Dharamshala","state":"Himachal Pradesh","latitude":32.219,"longitude":76.3234,"temp":20.7,"humidity":100,"rain":0.1,"pressure":864.0,"uv_index":8.45,"wind_gusts":32.8,"aqi":80,"pm10":17.1,"pm2_5":15.9,"no2":7.8,"co":359.0,"o3":70.0,"so2":0.4,"mosquito_risk":6,"arthritis_risk":5,"migraine_risk":7,"frizz_risk":1,"updated_at":"2026-07-10T05:37:12.787485+05:30"},{"city":"Dalhousie","state":"Himachal Pradesh","latitude":32.5387,"longitude":75.971,"temp":16.3,"humidity":94,"rain":0.0,"pressure":799.8,"uv_index":8.65,"wind_gusts":22.0,"aqi":151,"pm10":47.8,"pm2_5":43.9,"no2":14.7,"co":538.0,"o3":74.0,"so2":2.2,"mosquito_risk":3,"arthritis_risk":10,"migraine_risk":7,"frizz_risk":0,"updated_at":"2026-07-10T05:37:12.787492+05:30"},{"city":"Patiala","state":"Punjab","latitude":30.3398,"longitude":76.3869,"temp":25.5,"humidity":91,"rain":0.0,"pressure":971.0,"uv_index":7.3,"wind_gusts":19.4,"aqi":155,"pm10":84.3,"pm2_5":79.4,"no2":39.8,"co":471.0,"o3":19.0,"so2":8.3,"mosquito_risk":7,"arthritis_risk":5,"migraine_risk":7,"frizz_risk":1,"updated_at":"2026-07-10T05:37:12.787500+05:30"},{"city":"Bhatinda","state":"Punjab","latitude":30.211,"longitude":74.9455,"temp":27.3,"humidity":84,"rain":0.0,"pressure":976.1,"uv_index":7.9,"wind_gusts":23.4,"aqi":159,"pm10":337.1,"pm2_5":110.4,"no2":19.7,"co":447.0,"o3":61.0,"so2":8.7,"mosquito_risk":7,"arthritis_risk":5,"migraine_risk":7,"frizz_risk":1,"updated_at":"2026-07-10T05:37:12.787507+05:30"},{"city":"Rohtak","state":"Haryana","latitude":28.8955,"longitude":76.6066,"temp":25.6,"humidity":92,"rain":0.0,"pressure":974.0,"uv_index":7.65,"wind_gusts":26.3,"aqi":149,"pm10":119.2,"pm2_5":74.3,"no2":66.8,"co":459.0,"o3":5.0,"so2":33.6,"mosquito_risk":7,"arthritis_risk":5,"migraine_risk":7,"frizz_risk":1,"updated_at":"2026-07-10T05:37:12.787514+05:30"},{"city":"Panipat","state":"Haryana","latitude":29.3909,"longitude":76.9635,"temp":25.0,"humidity":96,"rain":0.6,"pressure":972.4,"uv_index":5.1,"wind_gusts":24.8,"aqi":153,"pm10":104.8,"pm2_5":79.2,"no2":51.0,"co":354.0,"o3":4.0,"so2":13.7,"mosquito_risk":10,"arthritis_risk":5,"migraine_risk":3,"frizz_risk":1,"updated_at":"2026-07-10T05:37:12.787522+05:30"},{"city":"Mathura","state":"Uttar Pradesh","latitude":27.4924,"longitude":77.6737,"temp":28.2,"humidity":79,"rain":0.0,"pressure":978.4,"uv_index":7.9,"wind_gusts":48.6,"aqi":281,"pm10":532.7,"pm2_5":91.3,"no2":20.3,"co":368.0,"o3":40.0,"so2":5.0,"mosquito_risk":7,"arthritis_risk":5,"migraine_risk":7,"frizz_risk":1,"updated_at":"2026-07-10T05:37:12.787529+05:30"},{"city":"Vrindavan","state":"Uttar Pradesh","latitude":27.5823,"longitude":77.7027,"temp":27.9,"humidity":81,"rain":0.0,"pressure":978.7,"uv_index":7.95,"wind_gusts":48.2,"aqi":281,"pm10":532.7,"pm2_5":91.3,"no2":20.3,"co":369.0,"o3":40.0,"so2":5.0,"mosquito_risk":7,"arthritis_risk":5,"migraine_risk":7,"frizz_risk":1,"updated_at":"2026-07-10T05:37:12.787537+05:30"},{"city":"Ayodhya","state":"Uttar Pradesh","latitude":26.7922,"longitude":82.1998,"temp":26.7,"humidity":95,"rain":0.0,"pressure":988.9,"uv_index":7.75,"wind_gusts":26.6,"aqi":98,"pm10":27.6,"pm2_5":25.0,"no2":16.1,"co":367.0,"o3":55.0,"so2":5.6,"mosquito_risk":7,"arthritis_risk":5,"migraine_risk":7,"frizz_risk":1,"updated_at":"2026-07-10T05:37:12.787544+05:30"},{"city":"Ratlam","state":"Madhya Pradesh","latitude":23.3315,"longitude":75.0367,"temp":24.3,"humidity":97,"rain":0.1,"pressure":950.5,"uv_index":8.5,"wind_gusts":49.3,"aqi":79,"pm10":25.3,"pm2_5":14.4,"no2":8.7,"co":139.0,"o3":31.0,"so2":8.7,"mosquito_risk":6,"arthritis_risk":5,"migraine_risk":7,"frizz_risk":1,"updated_at":"2026-07-10T05:37:12.787551+05:30"},{"city":"Sagar","state":"Madhya Pradesh","latitude":23.8388,"longitude":78.7378,"temp":25.7,"humidity":80,"rain":0.0,"pressure":945.5,"uv_index":6.95,"wind_gusts":48.2,"aqi":78,"pm10":59.6,"pm2_5":35.2,"no2":6.1,"co":197.0,"o3":68.0,"so2":5.7,"mosquito_risk":7,"arthritis_risk":5,"migraine_risk":7,"frizz_risk":1,"updated_at":"2026-07-10T05:37:12.787558+05:30"},{"city":"Satna","state":"Madhya Pradesh","latitude":24.6005,"longitude":80.8322,"temp":25.7,"humidity":91,"rain":0.0,"pressure":965.7,"uv_index":8.2,"wind_gusts":38.5,"aqi":61,"pm10":57.3,"pm2_5":33.8,"no2":6.6,"co":185.0,"o3":63.0,"so2":4.7,"mosquito_risk":7,"arthritis_risk":5,"migraine_risk":7,"frizz_risk":1,"updated_at":"2026-07-10T05:37:12.787566+05:30"},{"city":"Akola","state":"Maharashtra","latitude":20.7002,"longitude":77.0082,"temp":26.0,"humidity":80,"rain":0.0,"pressure":972.5,"uv_index":8.5,"wind_gusts":50.0,"aqi":60,"pm10":18.5,"pm2_5":10.5,"no2":7.8,"co":117.0,"o3":33.0,"so2":7.9,"mosquito_risk":7,"arthritis_risk":5,"migraine_risk":7,"frizz_risk":1,"updated_at":"2026-07-10T05:37:12.787573+05:30"},{"city":"Amravati","state":"Maharashtra","latitude":20.9374,"longitude":77.7796,"temp":26.4,"humidity":78,"rain":0.0,"pressure":964.6,"uv_index":5.6,"wind_gusts":50.8,"aqi":61,"pm10":21.1,"pm2_5":12.1,"no2":8.3,"co":130.0,"o3":34.0,"so2":8.8,"mosquito_risk":7,"arthritis_risk":5,"migraine_risk":3,"frizz_risk":1,"updated_at":"2026-07-10T05:37:12.787581+05:30"},{"city":"Latur","state":"Maharashtra","latitude":18.4088,"longitude":76.5604,"temp":23.1,"humidity":87,"rain":0.0,"pressure":938.0,"uv_index":8.75,"wind_gusts":44.3,"aqi":51,"pm10":12.8,"pm2_5":7.3,"no2":5.3,"co":129.0,"o3":32.0,"so2":3.0,"mosquito_risk":3,"arthritis_risk":5,"migraine_risk":7,"frizz_risk":1,"updated_at":"2026-07-10T05:37:12.787589+05:30"},{"city":"Nanded","state":"Maharashtra","latitude":19.1383,"longitude":77.3091,"temp":25.9,"humidity":77,"rain":0.0,"pressure":966.9,"uv_index":8.1,"wind_gusts":40.0,"aqi":60,"pm10":22.8,"pm2_5":12.5,"no2":6.8,"co":129.0,"o3":33.0,"so2":4.0,"mosquito_risk":7,"arthritis_risk":5,"migraine_risk":7,"frizz_risk":1,"updated_at":"2026-07-10T05:37:12.787596+05:30"},{"city":"Gulbarga","state":"Karnataka","latitude":17.3297,"longitude":76.8343,"temp":23.8,"humidity":85,"rain":0.0,"pressure":957.7,"uv_index":7.55,"wind_gusts":40.3,"aqi":49,"pm10":13.9,"pm2_5":8.1,"no2":6.7,"co":116.0,"o3":30.0,"so2":3.4,"mosquito_risk":3,"arthritis_risk":5,"migraine_risk":7,"frizz_risk":1,"updated_at":"2026-07-10T05:37:12.787603+05:30"},{"city":"Bidar","state":"Karnataka","latitude":17.9104,"longitude":77.5199,"temp":23.4,"humidity":85,"rain":0.0,"pressure":934.0,"uv_index":7.55,"wind_gusts":41.0,"aqi":53,"pm10":20.0,"pm2_5":12.0,"no2":6.5,"co":121.0,"o3":32.0,"so2":2.5,"mosquito_risk":3,"arthritis_risk":5,"migraine_risk":7,"frizz_risk":1,"updated_at":"2026-07-10T05:37:12.787610+05:30"},{"city":"Hospet","state":"Karnataka","latitude":15.2689,"longitude":76.3909,"temp":23.3,"humidity":89,"rain":0.0,"pressure":955.6,"uv_index":5.65,"wind_gusts":47.9,"aqi":31,"pm10":10.9,"pm2_5":5.6,"no2":3.7,"co":99.0,"o3":35.0,"so2":1.8,"mosquito_risk":3,"arthritis_risk":5,"migraine_risk":3,"frizz_risk":1,"updated_at":"2026-07-10T05:37:12.787616+05:30"},{"city":"Tirupur","state":"Tamil Nadu","latitude":11.1085,"longitude":77.3411,"temp":23.7,"humidity":91,"rain":0.0,"pressure":975.8,"uv_index":8.2,"wind_gusts":48.2,"aqi":47,"pm10":21.5,"pm2_5":17.0,"no2":18.3,"co":138.0,"o3":19.0,"so2":5.3,"mosquito_risk":3,"arthritis_risk":5,"migraine_risk":7,"frizz_risk":1,"updated_at":"2026-07-10T05:37:12.787623+05:30"},{"city":"Alappuzha","state":"Kerala","latitude":9.4981,"longitude":76.3388,"temp":25.5,"humidity":93,"rain":0.0,"pressure":1010.8,"uv_index":8.4,"wind_gusts":35.6,"aqi":54,"pm10":17.5,"pm2_5":9.7,"no2":5.3,"co":82.0,"o3":41.0,"so2":2.5,"mosquito_risk":7,"arthritis_risk":0,"migraine_risk":4,"frizz_risk":1,"updated_at":"2026-07-10T05:37:12.787653+05:30"},{"city":"Munnar","state":"Kerala","latitude":10.0889,"longitude":77.0595,"temp":16.9,"humidity":100,"rain":0.0,"pressure":857.3,"uv_index":7.85,"wind_gusts":37.1,"aqi":24,"pm10":7.5,"pm2_5":5.1,"no2":4.9,"co":92.0,"o3":27.0,"so2":1.4,"mosquito_risk":3,"arthritis_risk":10,"migraine_risk":7,"frizz_risk":1,"updated_at":"2026-07-10T05:37:12.787663+05:30"},{"city":"Silchar","state":"Assam","latitude":24.8333,"longitude":92.7789,"temp":26.0,"humidity":95,"rain":0.4,"pressure":1001.1,"uv_index":6.5,"wind_gusts":30.2,"aqi":38,"pm10":9.1,"pm2_5":8.1,"no2":6.8,"co":251.0,"o3":52.0,"so2":4.0,"mosquito_risk":10,"arthritis_risk":5,"migraine_risk":4,"frizz_risk":1,"updated_at":"2026-07-10T05:37:12.787671+05:30"},{"city":"Dibrugarh","state":"Assam","latitude":27.4728,"longitude":94.912,"temp":26.6,"humidity":96,"rain":0.0,"pressure":990.4,"uv_index":5.7,"wind_gusts":24.5,"aqi":61,"pm10":26.3,"pm2_5":25.4,"no2":9.9,"co":246.0,"o3":50.0,"so2":2.7,"mosquito_risk":7,"arthritis_risk":5,"migraine_risk":3,"frizz_risk":1,"updated_at":"2026-07-10T05:37:12.787678+05:30"}]