[{"city":"Delhi","state":"Delhi","latitude":28.6139,"longitude":77.209,"temp":38.2,"humidity":32,"rain":0.0,"pressure":976.6,"uv_index":7.8,"wind_gusts":42.5,"aqi":545,"pm10":491.7,"pm2_5":87.8,"no2":6.7,"co":285.0,"o3":137.0,"so2":10.2,"mosquito_risk":0,"arthritis_risk":5,"migraine_risk":10,"frizz_risk":1,"updated_at":"2026-06-20T17:28:11.493092+05:30"},{"city":"Mumbai","state":"Maharashtra","latitude":19.076,"longitude":72.8777,"temp":31.7,"humidity":60,"rain":0.0,"pressure":1006.4,"uv_index":7.75,"wind_gusts":41.8,"aqi":52,"pm10":22.4,"pm2_5":13.1,"no2":5.6,"co":156.0,"o3":71.0,"so2":5.1,"mosquito_risk":0,"arthritis_risk":5,"migraine_risk":4,"frizz_risk":1,"updated_at":"2026-06-20T17:28:11.493136+05:30"},{"city":"Bangalore","state":"Karnataka","latitude":12.9716,"longitude":77.5946,"temp":25.9,"humidity":68,"rain":0.1,"pressure":911.1,"uv_index":8.0,"wind_gusts":24.8,"aqi":61,"pm10":25.4,"pm2_5":18.2,"no2":33.8,"co":716.0,"o3":72.0,"so2":4.8,"mosquito_risk":10,"arthritis_risk":5,"migraine_risk":7,"frizz_risk":1,"updated_at":"2026-06-20T17:28:11.493151+05:30"},{"city":"Hyderabad","state":"Telangana","latitude":17.385,"longitude":78.4867,"temp":35.3,"humidity":36,"rain":0.0,"pressure":950.4,"uv_index":8.4,"wind_gusts":39.6,"aqi":69,"pm10":29.6,"pm2_5":21.4,"no2":4.5,"co":278.0,"o3":131.0,"so2":6.3,"mosquito_risk":0,"arthritis_risk":5,"migraine_risk":10,"frizz_risk":1,"updated_at":"2026-06-20T17:28:11.493161+05:30"},{"city":"Chennai","state":"Tamil Nadu","latitude":13.0827,"longitude":80.2707,"temp":32.6,"humidity":61,"rain":0.0,"pressure":1004.1,"uv_index":7.85,"wind_gusts":30.6,"aqi":119,"pm10":37.7,"pm2_5":30.6,"no2":7.8,"co":339.0,"o3":171.0,"so2":11.3,"mosquito_risk":3,"arthritis_risk":5,"migraine_risk":4,"frizz_risk":1,"updated_at":"2026-06-20T17:28:11.493170+05:30"},{"city":"Kolkata","state":"West Bengal","latitude":22.5726,"longitude":88.3639,"temp":30.6,"humidity":78,"rain":0.0,"pressure":1000.4,"uv_index":8.45,"wind_gusts":36.4,"aqi":163,"pm10":46.2,"pm2_5":42.8,"no2":8.0,"co":382.0,"o3":136.0,"so2":9.0,"mosquito_risk":3,"arthritis_risk":5,"migraine_risk":4,"frizz_risk":1,"updated_at":"2026-06-20T17:28:11.493177+05:30"},{"city":"Pune","state":"Maharashtra","latitude":18.5204,"longitude":73.8567,"temp":31.0,"humidity":47,"rain":0.1,"pressure":946.2,"uv_index":7.55,"wind_gusts":45.4,"aqi":41,"pm10":14.8,"pm2_5":9.3,"no2":2.7,"co":133.0,"o3":93.0,"so2":3.6,"mosquito_risk":3,"arthritis_risk":5,"migraine_risk":7,"frizz_risk":1,"updated_at":"2026-06-20T17:28:11.493184+05:30"},{"city":"Ahmedabad","state":"Gujarat","latitude":23.0225,"longitude":72.5714,"temp":36.0,"humidity":42,"rain":0.1,"pressure":997.9,"uv_index":8.05,"wind_gusts":40.3,"aqi":74,"pm10":60.8,"pm2_5":21.1,"no2":1.6,"co":145.0,"o3":87.0,"so2":2.9,"mosquito_risk":3,"arthritis_risk":5,"migraine_risk":10,"frizz_risk":1,"updated_at":"2026-06-20T17:28:11.493191+05:30"},{"city":"Jaipur","state":"Rajasthan","latitude":26.9124,"longitude":75.7873,"temp":34.2,"humidity":42,"rain":0.0,"pressure":956.0,"uv_index":8.2,"wind_gusts":48.6,"aqi":140,"pm10":210.0,"pm2_5":48.2,"no2":0.8,"co":140.0,"o3":94.0,"so2":2.2,"mosquito_risk":0,"arthritis_risk":5,"migraine_risk":7,"frizz_risk":1,"updated_at":"2026-06-20T17:28:11.493197+05:30"},{"city":"Lucknow","state":"Uttar Pradesh","latitude":26.8467,"longitude":80.9462,"temp":38.2,"humidity":33,"rain":0.0,"pressure":986.2,"uv_index":8.35,"wind_gusts":42.8,"aqi":171,"pm10":411.6,"pm2_5":86.4,"no2":1.9,"co":188.0,"o3":141.0,"so2":6.8,"mosquito_risk":0,"arthritis_risk":5,"migraine_risk":10,"frizz_risk":1,"updated_at":"2026-06-20T17:28:11.493208+05:30"},{"city":"Kanpur","state":"Uttar Pradesh","latitude":26.4499,"longitude":80.3319,"temp":39.0,"humidity":30,"rain":0.0,"pressure":984.8,"uv_index":8.3,"wind_gusts":42.5,"aqi":238,"pm10":328.8,"pm2_5":67.3,"no2":1.9,"co":151.0,"o3":133.0,"so2":6.0,"mosquito_risk":0,"arthritis_risk":5,"migraine_risk":10,"frizz_risk":1,"updated_at":"2026-06-20T17:28:11.493215+05:30"},{"city":"Chandigarh","state":"Chandigarh","latitude":30.7333,"longitude":76.7794,"temp":35.6,"humidity":36,"rain":0.0,"pressure":962.9,"uv_index":7.8,"wind_gusts":36.4,"aqi":154,"pm10":35.6,"pm2_5":26.4,"no2":2.5,"co":332.0,"o3":163.0,"so2":6.4,"mosquito_risk":0,"arthritis_risk":5,"migraine_risk":10,"frizz_risk":1,"updated_at":"2026-06-20T17:28:11.493221+05:30"},{"city":"Srinagar","state":"Jammu and Kashmir","latitude":34.0837,"longitude":74.7973,"temp":22.4,"humidity":63,"rain":0.0,"pressure":842.3,"uv_index":9.05,"wind_gusts":23.0,"aqi":71,"pm10":18.1,"pm2_5":11.4,"no2":2.0,"co":259.0,"o3":128.0,"so2":1.9,"mosquito_risk":3,"arthritis_risk":5,"migraine_risk":7,"frizz_risk":0,"updated_at":"2026-06-20T17:28:11.493230+05:30"},{"city":"Jammu","state":"Jammu and Kashmir","latitude":32.7266,"longitude":74.857,"temp":36.7,"humidity":26,"rain":0.0,"pressure":967.6,"uv_index":8.6,"wind_gusts":36.7,"aqi":107,"pm10":27.9,"pm2_5":17.2,"no2":0.1,"co":232.0,"o3":147.0,"so2":1.8,"mosquito_risk":0,"arthritis_risk":5,"migraine_risk":10,"frizz_risk":0,"updated_at":"2026-06-20T17:28:11.493237+05:30"},{"city":"Amritsar","state":"Punjab","latitude":31.634,"longitude":74.8723,"temp":34.3,"humidity":45,"rain":0.0,"pressure":975.3,"uv_index":8.45,"wind_gusts":25.9,"aqi":158,"pm10":45.4,"pm2_5":31.4,"no2":3.3,"co":328.0,"o3":173.0,"so2":7.2,"mosquito_risk":0,"arthritis_risk":5,"migraine_risk":7,"frizz_risk":1,"updated_at":"2026-06-20T17:28:11.493243+05:30"},{"city":"Ludhiana","state":"Punjab","latitude":30.901,"longitude":75.8573,"temp":36.6,"humidity":32,"rain":0.0,"pressure":973.2,"uv_index":8.0,"wind_gusts":38.9,"aqi":134,"pm10":97.6,"pm2_5":37.3,"no2":1.9,"co":278.0,"o3":161.0,"so2":3.2,"mosquito_risk":0,"arthritis_risk":5,"migraine_risk":10,"frizz_risk":1,"updated_at":"2026-06-20T17:28:11.493249+05:30"},{"city":"Jalandhar","state":"Punjab","latitude":31.326,"longitude":75.5762,"temp":35.8,"humidity":35,"rain":0.0,"pressure":974.3,"uv_index":8.25,"wind_gusts":35.3,"aqi":146,"pm10":74.3,"pm2_5":33.1,"no2":2.4,"co":285.0,"o3":169.0,"so2":4.2,"mosquito_risk":0,"arthritis_risk":5,"migraine_risk":10,"frizz_risk":1,"updated_at":"2026-06-20T17:28:11.493255+05:30"},{"city":"Dehradun","state":"Uttarakhand","latitude":30.6284,"longitude":78.0322,"temp":23.7,"humidity":66,"rain":0.0,"pressure":829.6,"uv_index":8.25,"wind_gusts":28.4,"aqi":120,"pm10":36.3,"pm2_5":27.3,"no2":0.5,"co":268.0,"o3":158.0,"so2":3.0,"mosquito_risk":3,"arthritis_risk":5,"migraine_risk":7,"frizz_risk":1,"updated_at":"2026-06-20T17:28:11.493262+05:30"},{"city":"Shimla","state":"Himachal Pradesh","latitude":31.1048,"longitude":77.1734,"temp":21.6,"humidity":46,"rain":0.0,"pressure":785.0,"uv_index":8.25,"wind_gusts":34.9,"aqi":115,"pm10":33.1,"pm2_5":21.9,"no2":0.6,"co":206.0,"o3":144.0,"so2":3.8,"mosquito_risk":0,"arthritis_risk":5,"migraine_risk":7,"frizz_risk":0,"updated_at":"2026-06-20T17:28:11.493268+05:30"},{"city":"Manali","state":"Himachal Pradesh","latitude":32.2396,"longitude":77.1887,"temp":23.5,"humidity":44,"rain":0.0,"pressure":819.2,"uv_index":9.5,"wind_gusts":40.0,"aqi":130,"pm10":17.2,"pm2_5":13.3,"no2":10.5,"co":134.0,"o3":171.0,"so2":0.7,"mosquito_risk":0,"arthritis_risk":5,"migraine_risk":7,"frizz_risk":0,"updated_at":"2026-06-20T17:28:11.493276+05:30"},{"city":"Gurgaon","state":"Haryana","latitude":28.4595,"longitude":77.0266,"temp":37.6,"humidity":33,"rain":0.0,"pressure":975.4,"uv_index":7.9,"wind_gusts":41.0,"aqi":792,"pm10":1300.1,"pm2_5":167.6,"no2":6.3,"co":237.0,"o3":135.0,"so2":8.7,"mosquito_risk":0,"arthritis_risk":5,"migraine_risk":10,"frizz_risk":1,"updated_at":"2026-06-20T17:28:11.493284+05:30"},{"city":"Noida","state":"Uttar Pradesh","latitude":28.5355,"longitude":77.391,"temp":37.6,"humidity":35,"rain":0.0,"pressure":977.7,"uv_index":7.85,"wind_gusts":36.4,"aqi":792,"pm10":1300.1,"pm2_5":167.6,"no2":6.3,"co":301.0,"o3":135.0,"so2":8.7,"mosquito_risk":0,"arthritis_risk":5,"migraine_risk":10,"frizz_risk":1,"updated_at":"2026-06-20T17:28:11.493290+05:30"},{"city":"Ghaziabad","state":"Uttar Pradesh","latitude":28.6692,"longitude":77.4538,"temp":36.7,"humidity":40,"rain":0.0,"pressure":976.1,"uv_index":7.8,"wind_gusts":40.7,"aqi":424,"pm10":480.6,"pm2_5":91.3,"no2":6.0,"co":226.0,"o3":150.0,"so2":12.4,"mosquito_risk":0,"arthritis_risk":5,"migraine_risk":10,"frizz_risk":1,"updated_at":"2026-06-20T17:28:11.493296+05:30"},{"city":"Faridabad","state":"Haryana","latitude":28.4089,"longitude":77.3178,"temp":38.0,"humidity":32,"rain":0.0,"pressure":977.3,"uv_index":7.85,"wind_gusts":42.1,"aqi":792,"pm10":1300.1,"pm2_5":167.6,"no2":6.3,"co":242.0,"o3":135.0,"so2":8.7,"mosquito_risk":0,"arthritis_risk":5,"migraine_risk":10,"frizz_risk":1,"updated_at":"2026-06-20T17:28:11.493302+05:30"},{"city":"Meerut","state":"Uttar Pradesh","latitude":28.9845,"longitude":77.7064,"temp":35.9,"humidity":42,"rain":0.0,"pressure":975.2,"uv_index":7.75,"wind_gusts":41.0,"aqi":424,"pm10":480.6,"pm2_5":91.3,"no2":6.0,"co":214.0,"o3":150.0,"so2":12.4,"mosquito_risk":0,"arthritis_risk":5,"migraine_risk":10,"frizz_risk":1,"updated_at":"2026-06-20T17:28:11.493308+05:30"},{"city":"Agra","state":"Uttar Pradesh","latitude":27.1767,"longitude":78.0081,"temp":37.4,"humidity":35,"rain":0.0,"pressure":981.8,"uv_index":8.15,"wind_gusts":40.7,"aqi":596,"pm10":745.1,"pm2_5":100.6,"no2":1.8,"co":158.0,"o3":127.0,"so2":4.6,"mosquito_risk":0,"arthritis_risk":5,"migraine_risk":10,"frizz_risk":1,"updated_at":"2026-06-20T17:28:11.493315+05:30"},{"city":"Varanasi","state":"Uttar Pradesh","latitude":25.3176,"longitude":82.9739,"temp":39.4,"humidity":32,"rain":0.0,"pressure":989.7,"uv_index":8.8,"wind_gusts":34.9,"aqi":105,"pm10":154.6,"pm2_5":50.5,"no2":1.5,"co":182.0,"o3":136.0,"so2":5.2,"mosquito_risk":0,"arthritis_risk":5,"migraine_risk":10,"frizz_risk":1,"updated_at":"2026-06-20T17:28:11.493321+05:30"},{"city":"Prayagraj","state":"Uttar Pradesh","latitude":25.4358,"longitude":81.8463,"temp":39.6,"humidity":32,"rain":0.0,"pressure":988.5,"uv_index":8.7,"wind_gusts":34.9,"aqi":121,"pm10":175.1,"pm2_5":51.3,"no2":1.8,"co":153.0,"o3":125.0,"so2":5.0,"mosquito_risk":0,"arthritis_risk":5,"migraine_risk":10,"frizz_risk":1,"updated_at":"2026-06-20T17:28:11.493328+05:30"},{"city":"Gorakhpur","state":"Uttar Pradesh","latitude":26.7606,"longitude":83.3732,"temp":35.4,"humidity":52,"rain":0.0,"pressure":989.4,"uv_index":8.65,"wind_gusts":36.7,"aqi":173,"pm10":191.4,"pm2_5":75.9,"no2":3.0,"co":287.0,"o3":168.0,"so2":9.6,"mosquito_risk":0,"arthritis_risk":5,"migraine_risk":10,"frizz_risk":1,"updated_at":"2026-06-20T17:28:11.493334+05:30"},{"city":"Bareilly","state":"Uttar Pradesh","latitude":28.367,"longitude":79.4304,"temp":36.3,"humidity":41,"rain":0.0,"pressure":979.6,"uv_index":8.15,"wind_gusts":36.7,"aqi":162,"pm10":44.5,"pm2_5":33.2,"no2":2.2,"co":218.0,"o3":159.0,"so2":6.5,"mosquito_risk":0,"arthritis_risk":5,"migraine_risk":10,"frizz_risk":1,"updated_at":"2026-06-20T17:28:11.493345+05:30"},{"city":"Aligarh","state":"Uttar Pradesh","latitude":27.8974,"longitude":78.088,"temp":36.8,"humidity":37,"rain":0.0,"pressure":979.1,"uv_index":8.0,"wind_gusts":44.6,"aqi":492,"pm10":720.8,"pm2_5":109.2,"no2":4.4,"co":179.0,"o3":159.0,"so2":10.8,"mosquito_risk":0,"arthritis_risk":5,"migraine_risk":10,"frizz_risk":1,"updated_at":"2026-06-20T17:28:11.493352+05:30"},{"city":"Moradabad","state":"Uttar Pradesh","latitude":28.8386,"longitude":78.7733,"temp":35.8,"humidity":43,"rain":0.0,"pressure":976.9,"uv_index":7.95,"wind_gusts":44.6,"aqi":173,"pm10":173.7,"pm2_5":54.7,"no2":2.8,"co":261.0,"o3":156.0,"so2":7.0,"mosquito_risk":0,"arthritis_risk":5,"migraine_risk":10,"frizz_risk":1,"updated_at":"2026-06-20T17:28:11.493358+05:30"},{"city":"Saharanpur","state":"Uttar Pradesh","latitude":29.9637,"longitude":77.546,"temp":34.7,"humidity":44,"rain":0.0,"pressure":969.3,"uv_index":7.55,"wind_gusts":37.1,"aqi":161,"pm10":304.5,"pm2_5":66.6,"no2":4.5,"co":295.0,"o3":160.0,"so2":9.8,"mosquito_risk":0,"arthritis_risk":5,"migraine_risk":7,"frizz_risk":1,"updated_at":"2026-06-20T17:28:11.493364+05:30"},{"city":"Jhansi","state":"Uttar Pradesh","latitude":25.4484,"longitude":78.5685,"temp":34.9,"humidity":42,"rain":0.0,"pressure":973.2,"uv_index":8.4,"wind_gusts":47.5,"aqi":75,"pm10":102.2,"pm2_5":35.3,"no2":1.4,"co":125.0,"o3":97.0,"so2":3.2,"mosquito_risk":0,"arthritis_risk":5,"migraine_risk":7,"frizz_risk":1,"updated_at":"2026-06-20T17:28:14.747303+05:30"},{"city":"Surat","state":"Gujarat","latitude":21.1702,"longitude":72.8311,"temp":32.1,"humidity":62,"rain":0.0,"pressure":1003.9,"uv_index":7.6,"wind_gusts":44.6,"aqi":64,"pm10":22.0,"pm2_5":15.1,"no2":10.9,"co":238.0,"o3":45.0,"so2":30.8,"mosquito_risk":3,"arthritis_risk":5,"migraine_risk":4,"frizz_risk":1,"updated_at":"2026-06-20T17:28:14.747338+05:30"},{"city":"Vadodara","state":"Gujarat","latitude":22.3072,"longitude":73.1812,"temp":35.5,"humidity":42,"rain":0.0,"pressure":1000.3,"uv_index":7.35,"wind_gusts":43.6,"aqi":63,"pm10":37.3,"pm2_5":17.5,"no2":2.0,"co":139.0,"o3":91.0,"so2":2.9,"mosquito_risk":0,"arthritis_risk":5,"migraine_risk":7,"frizz_risk":1,"updated_at":"2026-06-20T17:28:14.747348+05:30"},{"city":"Rajkot","state":"Gujarat","latitude":22.3039,"longitude":70.8022,"temp":35.2,"humidity":41,"rain":0.0,"pressure":990.5,"uv_index":7.55,"wind_gusts":51.5,"aqi":65,"pm10":58.9,"pm2_5":21.0,"no2":1.2,"co":105.0,"o3":84.0,"so2":2.8,"mosquito_risk":0,"arthritis_risk":5,"migraine_risk":10,"frizz_risk":1,"updated_at":"2026-06-20T17:28:14.747358+05:30"},{"city":"Thane","state":"Maharashtra","latitude":19.2183,"longitude":72.9781,"temp":33.0,"humidity":53,"rain":0.0,"pressure":1005.5,"uv_index":7.7,"wind_gusts":41.4,"aqi":52,"pm10":22.4,"pm2_5":13.1,"no2":5.6,"co":149.0,"o3":71.0,"so2":5.1,"mosquito_risk":0,"arthritis_risk":5,"migraine_risk":4,"frizz_risk":1,"updated_at":"2026-06-20T17:28:14.747366+05:30"},{"city":"Nagpur","state":"Maharashtra","latitude":21.1458,"longitude":79.0882,"temp":38.0,"humidity":24,"rain":0.0,"pressure":969.1,"uv_index":8.9,"wind_gusts":45.0,"aqi":66,"pm10":24.6,"pm2_5":15.9,"no2":4.2,"co":146.0,"o3":121.0,"so2":12.0,"mosquito_risk":0,"arthritis_risk":5,"migraine_risk":10,"frizz_risk":0,"updated_at":"2026-06-20T17:28:14.747375+05:30"},{"city":"Nashik","state":"Maharashtra","latitude":19.9975,"longitude":73.7898,"temp":30.1,"humidity":52,"rain":0.1,"pressure":943.6,"uv_index":8.05,"wind_gusts":40.3,"aqi":41,"pm10":12.3,"pm2_5":7.3,"no2":1.3,"co":113.0,"o3":76.0,"so2":1.2,"mosquito_risk":3,"arthritis_risk":5,"migraine_risk":7,"frizz_risk":1,"updated_at":"2026-06-20T17:28:14.747383+05:30"},{"city":"Aurangabad","state":"Maharashtra","latitude":19.8762,"longitude":75.3433,"temp":33.0,"humidity":34,"rain":0.0,"pressure":941.9,"uv_index":9.0,"wind_gusts":37.8,"aqi":44,"pm10":15.9,"pm2_5":10.2,"no2":1.3,"co":129.0,"o3":110.0,"so2":3.4,"mosquito_risk":0,"arthritis_risk":5,"migraine_risk":7,"frizz_risk":0,"updated_at":"2026-06-20T17:28:14.747392+05:30"},{"city":"Solapur","state":"Maharashtra","latitude":17.6599,"longitude":75.9064,"temp":35.8,"humidity":34,"rain":0.0,"pressure":954.5,"uv_index":8.4,"wind_gusts":36.0,"aqi":53,"pm10":20.7,"pm2_5":12.7,"no2":1.3,"co":124.0,"o3":117.0,"so2":2.0,"mosquito_risk":0,"arthritis_risk":5,"migraine_risk":10,"frizz_risk":1,"updated_at":"2026-06-20T17:28:14.747407+05:30"},{"city":"Kolhapur","state":"Maharashtra","latitude":16.705,"longitude":74.2433,"temp":30.4,"humidity":49,"rain":0.1,"pressure":946.5,"uv_index":8.45,"wind_gusts":45.7,"aqi":48,"pm10":18.5,"pm2_5":10.9,"no2":2.1,"co":119.0,"o3":90.0,"so2":1.5,"mosquito_risk":3,"arthritis_risk":5,"migraine_risk":7,"frizz_risk":1,"updated_at":"2026-06-20T17:28:14.747415+05:30"},{"city":"Goa","state":"Goa","latitude":15.2993,"longitude":74.124,"temp":30.7,"humidity":63,"rain":0.0,"pressure":996.8,"uv_index":8.05,"wind_gusts":29.2,"aqi":59,"pm10":23.7,"pm2_5":11.3,"no2":0.8,"co":90.0,"o3":56.0,"so2":1.1,"mosquito_risk":3,"arthritis_risk":5,"migraine_risk":7,"frizz_risk":1,"updated_at":"2026-06-20T17:28:14.747423+05:30"},{"city":"Jodhpur","state":"Rajasthan","latitude":26.2389,"longitude":73.0243,"temp":37.2,"humidity":34,"rain":0.0,"pressure":978.1,"uv_index":8.4,"wind_gusts":40.0,"aqi":106,"pm10":189.1,"pm2_5":41.8,"no2":0.6,"co":111.0,"o3":81.0,"so2":1.5,"mosquito_risk":0,"arthritis_risk":5,"migraine_risk":10,"frizz_risk":1,"updated_at":"2026-06-20T17:28:14.747431+05:30"},{"city":"Udaipur","state":"Rajasthan","latitude":24.5854,"longitude":73.7125,"temp":32.3,"humidity":47,"rain":0.0,"pressure":943.4,"uv_index":8.8,"wind_gusts":36.0,"aqi":78,"pm10":57.5,"pm2_5":21.0,"no2":0.6,"co":112.0,"o3":83.0,"so2":2.1,"mosquito_risk":0,"arthritis_risk":5,"migraine_risk":7,"frizz_risk":1,"updated_at":"2026-06-20T17:28:14.747438+05:30"},{"city":"Kota","state":"Rajasthan","latitude":25.2138,"longitude":75.8648,"temp":31.4,"humidity":60,"rain":0.0,"pressure":975.2,"uv_index":8.35,"wind_gusts":39.2,"aqi":88,"pm10":85.9,"pm2_5":32.9,"no2":1.0,"co":114.0,"o3":104.0,"so2":4.2,"mosquito_risk":0,"arthritis_risk":5,"migraine_risk":7,"frizz_risk":1,"updated_at":"2026-06-20T17:28:14.747446+05:30"},{"city":"Bikaner","state":"Rajasthan","latitude":28.0229,"longitude":73.3119,"temp":37.4,"humidity":36,"rain":0.0,"pressure":976.6,"uv_index":8.45,"wind_gusts":47.9,"aqi":111,"pm10":126.2,"pm2_5":38.5,"no2":0.2,"co":126.0,"o3":81.0,"so2":1.3,"mosquito_risk":0,"arthritis_risk":5,"migraine_risk":10,"frizz_risk":1,"updated_at":"2026-06-20T17:28:14.747454+05:30"},{"city":"Ajmer","state":"Rajasthan","latitude":26.4499,"longitude":74.6399,"temp":33.2,"humidity":45,"rain":0.0,"pressure":950.9,"uv_index":8.35,"wind_gusts":45.0,"aqi":84,"pm10":73.8,"pm2_5":27.8,"no2":0.6,"co":120.0,"o3":92.0,"so2":2.2,"mosquito_risk":0,"arthritis_risk":5,"migraine_risk":7,"frizz_risk":1,"updated_at":"2026-06-20T17:28:14.747462+05:30"},{"city":"Gwalior","state":"Madhya Pradesh","latitude":26.2183,"longitude":78.1828,"temp":35.7,"humidity":40,"rain":0.0,"pressure":978.0,"uv_index":7.7,"wind_gusts":54.4,"aqi":84,"pm10":124.8,"pm2_5":40.7,"no2":0.6,"co":134.0,"o3":107.0,"so2":2.6,"mosquito_risk":0,"arthritis_risk":5,"migraine_risk":10,"frizz_risk":1,"updated_at":"2026-06-20T17:28:14.747470+05:30"},{"city":"Indore","state":"Madhya Pradesh","latitude":22.7196,"longitude":75.8577,"temp":30.9,"humidity":56,"rain":0.0,"pressure":945.5,"uv_index":7.9,"wind_gusts":39.6,"aqi":71,"pm10":32.2,"pm2_5":17.6,"no2":3.4,"co":190.0,"o3":89.0,"so2":2.3,"mosquito_risk":0,"arthritis_risk":5,"migraine_risk":7,"frizz_risk":1,"updated_at":"2026-06-20T17:28:14.747477+05:30"},{"city":"Bhopal","state":"Madhya Pradesh","latitude":23.2599,"longitude":77.4126,"temp":32.0,"humidity":49,"rain":0.0,"pressure":950.6,"uv_index":8.65,"wind_gusts":33.5,"aqi":71,"pm10":34.1,"pm2_5":20.1,"no2":2.0,"co":178.0,"o3":92.0,"so2":2.2,"mosquito_risk":0,"arthritis_risk":5,"migraine_risk":7,"frizz_risk":1,"updated_at":"2026-06-20T17:28:14.747485+05:30"},{"city":"Jabalpur","state":"Madhya Pradesh","latitude":23.1815,"longitude":79.9864,"temp":35.1,"humidity":38,"rain":0.0,"pressure":957.3,"uv_index":8.35,"wind_gusts":31.0,"aqi":70,"pm10":48.4,"pm2_5":24.5,"no2":0.9,"co":155.0,"o3":114.0,"so2":3.8,"mosquito_risk":0,"arthritis_risk":5,"migraine_risk":10,"frizz_risk":1,"updated_at":"2026-06-20T17:28:14.747493+05:30"},{"city":"Ujjain","state":"Madhya Pradesh","latitude":23.1765,"longitude":75.7885,"temp":32.1,"humidity":48,"rain":0.1,"pressure":951.0,"uv_index":8.55,"wind_gusts":41.8,"aqi":72,"pm10":42.4,"pm2_5":21.3,"no2":0.7,"co":153.0,"o3":94.0,"so2":2.5,"mosquito_risk":3,"arthritis_risk":5,"migraine_risk":7,"frizz_risk":1,"updated_at":"2026-06-20T17:28:14.747501+05:30"},{"city":"Visakhapatnam","state":"Andhra Pradesh","latitude":17.6868,"longitude":83.2185,"temp":28.5,"humidity":89,"rain":0.1,"pressure":1000.9,"uv_index":8.65,"wind_gusts":38.9,"aqi":130,"pm10":51.2,"pm2_5":45.2,"no2":19.7,"co":368.0,"o3":170.0,"so2":51.7,"mosquito_risk":10,"arthritis_risk":5,"migraine_risk":4,"frizz_risk":1,"updated_at":"2026-06-20T17:28:14.747509+05:30"},{"city":"Vijayawada","state":"Andhra Pradesh","latitude":16.5062,"longitude":80.648,"temp":34.3,"humidity":55,"rain":0.0,"pressure":998.1,"uv_index":8.55,"wind_gusts":28.1,"aqi":83,"pm10":29.5,"pm2_5":23.6,"no2":5.0,"co":216.0,"o3":130.0,"so2":5.9,"mosquito_risk":0,"arthritis_risk":5,"migraine_risk":7,"frizz_risk":1,"updated_at":"2026-06-20T17:28:14.747517+05:30"},{"city":"Guntur","state":"Andhra Pradesh","latitude":16.3067,"longitude":80.4365,"temp":34.9,"humidity":50,"rain":0.0,"pressure":999.3,"uv_index":8.0,"wind_gusts":29.9,"aqi":80,"pm10":30.2,"pm2_5":23.2,"no2":5.3,"co":214.0,"o3":128.0,"so2":5.3,"mosquito_risk":0,"arthritis_risk":5,"migraine_risk":7,"frizz_risk":1,"updated_at":"2026-06-20T17:28:14.747524+05:30"},{"city":"Nellore","state":"Andhra Pradesh","latitude":14.4426,"longitude":79.9865,"temp":35.1,"humidity":47,"rain":0.0,"pressure":1002.2,"uv_index":7.7,"wind_gusts":30.2,"aqi":75,"pm10":32.8,"pm2_5":23.7,"no2":6.7,"co":201.0,"o3":119.0,"so2":6.7,"mosquito_risk":0,"arthritis_risk":5,"migraine_risk":7,"frizz_risk":1,"updated_at":"2026-06-20T17:28:14.747533+05:30"},{"city":"Kurnool","state":"Andhra Pradesh","latitude":15.8281,"longitude":78.0373,"temp":35.7,"humidity":39,"rain":0.0,"pressure":973.4,"uv_index":5.35,"wind_gusts":31.7,"aqi":66,"pm10":27.3,"pm2_5":18.6,"no2":1.1,"co":126.0,"o3":131.0,"so2":9.5,"mosquito_risk":0,"arthritis_risk":5,"migraine_risk":6,"frizz_risk":1,"updated_at":"2026-06-20T17:28:14.747541+05:30"},{"city":"Kakinada","state":"Andhra Pradesh","latitude":16.9891,"longitude":82.2475,"temp":35.7,"humidity":47,"rain":0.0,"pressure":1002.6,"uv_index":7.1,"wind_gusts":37.4,"aqi":123,"pm10":25.8,"pm2_5":20.8,"no2":3.1,"co":263.0,"o3":147.0,"so2":4.4,"mosquito_risk":0,"arthritis_risk":5,"migraine_risk":7,"frizz_risk":1,"updated_at":"2026-06-20T17:28:14.747549+05:30"},{"city":"Tirupati","state":"Andhra Pradesh","latitude":13.6288,"longitude":79.4192,"temp":30.1,"humidity":71,"rain":0.1,"pressure":988.8,"uv_index":7.95,"wind_gusts":34.6,"aqi":69,"pm10":24.7,"pm2_5":17.3,"no2":9.2,"co":229.0,"o3":109.0,"so2":4.4,"mosquito_risk":6,"arthritis_risk":5,"migraine_risk":7,"frizz_risk":1,"updated_at":"2026-06-20T17:28:14.747557+05:30"},{"city":"Warangal","state":"Telangana","latitude":17.9689,"longitude":79.5941,"temp":36.4,"humidity":36,"rain":0.0,"pressure":974.9,"uv_index":6.6,"wind_gusts":32.0,"aqi":120,"pm10":31.4,"pm2_5":22.4,"no2":1.4,"co":172.0,"o3":139.0,"so2":6.6,"mosquito_risk":0,"arthritis_risk":5,"migraine_risk":10,"frizz_risk":1,"updated_at":"2026-06-20T17:28:14.747565+05:30"},{"city":"Nizamabad","state":"Telangana","latitude":18.6725,"longitude":78.0941,"temp":35.1,"humidity":40,"rain":0.0,"pressure":961.7,"uv_index":8.95,"wind_gusts":33.8,"aqi":73,"pm10":23.7,"pm2_5":15.4,"no2":1.1,"co":124.0,"o3":111.0,"so2":3.6,"mosquito_risk":0,"arthritis_risk":5,"migraine_risk":10,"frizz_risk":1,"updated_at":"2026-06-20T17:28:14.747572+05:30"},{"city":"Mysore","state":"Karnataka","latitude":12.2958,"longitude":76.6396,"temp":28.7,"humidity":52,"rain":0.0,"pressure":927.6,"uv_index":8.25,"wind_gusts":36.7,"aqi":57,"pm10":32.1,"pm2_5":14.8,"no2":4.9,"co":195.0,"o3":87.0,"so2":1.7,"mosquito_risk":4,"arthritis_risk":5,"migraine_risk":7,"frizz_risk":1,"updated_at":"2026-06-20T17:28:14.747580+05:30"},{"city":"Mangalore","state":"Karnataka","latitude":12.9141,"longitude":74.856,"temp":28.8,"humidity":77,"rain":0.1,"pressure":1006.1,"uv_index":7.8,"wind_gusts":34.9,"aqi":78,"pm10":14.3,"pm2_5":8.4,"no2":1.5,"co":104.0,"o3":53.0,"so2":1.3,"mosquito_risk":10,"arthritis_risk":5,"migraine_risk":4,"frizz_risk":1,"updated_at":"2026-06-20T17:28:14.747587+05:30"},{"city":"Hubli-Dharwad","state":"Karnataka","latitude":15.3647,"longitude":75.124,"temp":30.3,"humidity":48,"rain":0.0,"pressure":939.9,"uv_index":8.15,"wind_gusts":44.3,"aqi":45,"pm10":29.4,"pm2_5":11.8,"no2":2.0,"co":119.0,"o3":77.0,"so2":0.9,"mosquito_risk":0,"arthritis_risk":5,"migraine_risk":7,"frizz_risk":1,"updated_at":"2026-06-20T17:28:14.747595+05:30"},{"city":"Belgaum","state":"Karnataka","latitude":15.8497,"longitude":74.4977,"temp":27.2,"humidity":61,"rain":0.1,"pressure":925.0,"uv_index":8.9,"wind_gusts":38.9,"aqi":50,"pm10":23.1,"pm2_5":11.9,"no2":2.1,"co":117.0,"o3":76.0,"so2":1.9,"mosquito_risk":10,"arthritis_risk":5,"migraine_risk":7,"frizz_risk":1,"updated_at":"2026-06-20T17:28:17.997187+05:30"},{"city":"Coimbatore","state":"Tamil Nadu","latitude":11.0168,"longitude":76.9558,"temp":30.8,"humidity":53,"rain":0.0,"pressure":960.6,"uv_index":8.25,"wind_gusts":42.1,"aqi":56,"pm10":35.2,"pm2_5":17.6,"no2":2.6,"co":175.0,"o3":95.0,"so2":2.4,"mosquito_risk":0,"arthritis_risk":5,"migraine_risk":7,"frizz_risk":1,"updated_at":"2026-06-20T17:28:17.997221+05:30"},{"city":"Madurai","state":"Tamil Nadu","latitude":9.9252,"longitude":78.1198,"temp":34.5,"humidity":43,"rain":0.0,"pressure":991.0,"uv_index":8.65,"wind_gusts":32.0,"aqi":61,"pm10":31.1,"pm2_5":17.0,"no2":3.8,"co":232.0,"o3":117.0,"so2":2.1,"mosquito_risk":0,"arthritis_risk":5,"migraine_risk":7,"frizz_risk":1,"updated_at":"2026-06-20T17:28:17.997233+05:30"},{"city":"Trichy","state":"Tamil Nadu","latitude":10.7905,"longitude":78.7047,"temp":32.4,"humidity":61,"rain":0.0,"pressure":997.3,"uv_index":8.4,"wind_gusts":33.5,"aqi":57,"pm10":27.4,"pm2_5":16.2,"no2":2.6,"co":197.0,"o3":118.0,"so2":2.2,"mosquito_risk":3,"arthritis_risk":5,"migraine_risk":7,"frizz_risk":1,"updated_at":"2026-06-20T17:28:17.997243+05:30"},{"city":"Salem","state":"Tamil Nadu","latitude":11.6643,"longitude":78.146,"temp":31.0,"humidity":60,"rain":0.0,"pressure":975.8,"uv_index":8.2,"wind_gusts":22.0,"aqi":70,"pm10":24.0,"pm2_5":15.5,"no2":3.7,"co":238.0,"o3":132.0,"so2":7.9,"mosquito_risk":0,"arthritis_risk":5,"migraine_risk":7,"frizz_risk":1,"updated_at":"2026-06-20T17:28:17.997253+05:30"},{"city":"Tirunelveli","state":"Tamil Nadu","latitude":8.7139,"longitude":77.7567,"temp":35.2,"humidity":40,"rain":0.0,"pressure":1000.3,"uv_index":8.6,"wind_gusts":25.9,"aqi":61,"pm10":25.4,"pm2_5":13.4,"no2":2.0,"co":138.0,"o3":81.0,"so2":1.3,"mosquito_risk":0,"arthritis_risk":5,"migraine_risk":7,"frizz_risk":1,"updated_at":"2026-06-20T17:28:17.997262+05:30"},{"city":"Vellore","state":"Tamil Nadu","latitude":12.9165,"longitude":79.1325,"temp":31.0,"humidity":61,"rain":0.0,"pressure":982.4,"uv_index":7.8,"wind_gusts":32.0,"aqi":71,"pm10":22.0,"pm2_5":16.6,"no2":5.0,"co":187.0,"o3":115.0,"so2":2.4,"mosquito_risk":3,"arthritis_risk":5,"migraine_risk":7,"frizz_risk":1,"updated_at":"2026-06-20T17:28:17.997271+05:30"},{"city":"Erode","state":"Tamil Nadu","latitude":11.341,"longitude":77.7172,"temp":33.0,"humidity":49,"rain":0.0,"pressure":987.0,"uv_index":8.25,"wind_gusts":27.0,"aqi":65,"pm10":33.2,"pm2_5":18.2,"no2":3.6,"co":191.0,"o3":120.0,"so2":2.5,"mosquito_risk":0,"arthritis_risk":5,"migraine_risk":7,"frizz_risk":1,"updated_at":"2026-06-20T17:28:17.997280+05:30"},{"city":"Kochi","state":"Kerala","latitude":9.9312,"longitude":76.2673,"temp":28.7,"humidity":80,"rain":0.0,"pressure":1008.3,"uv_index":8.5,"wind_gusts":33.8,"aqi":108,"pm10":29.5,"pm2_5":17.3,"no2":3.3,"co":110.0,"o3":84.0,"so2":3.4,"mosquito_risk":7,"arthritis_risk":0,"migraine_risk":4,"frizz_risk":1,"updated_at":"2026-06-20T17:28:17.997289+05:30"},{"city":"Thiruvananthapuram","state":"Kerala","latitude":8.5241,"longitude":76.9366,"temp":28.4,"humidity":78,"rain":0.0,"pressure":1007.7,"uv_index":8.25,"wind_gusts":32.8,"aqi":60,"pm10":17.9,"pm2_5":10.8,"no2":2.6,"co":85.0,"o3":68.0,"so2":1.1,"mosquito_risk":7,"arthritis_risk":5,"migraine_risk":4,"frizz_risk":1,"updated_at":"2026-06-20T17:28:17.997298+05:30"},{"city":"Kozhikode","state":"Kerala","latitude":11.2588,"longitude":75.7804,"temp":28.8,"humidity":78,"rain":0.0,"pressure":1007.6,"uv_index":8.0,"wind_gusts":31.7,"aqi":56,"pm10":12.0,"pm2_5":6.6,"no2":0.5,"co":105.0,"o3":55.0,"so2":0.7,"mosquito_risk":7,"arthritis_risk":5,"migraine_risk":4,"frizz_risk":1,"updated_at":"2026-06-20T17:28:17.997306+05:30"},{"city":"Thrissur","state":"Kerala","latitude":10.5276,"longitude":76.2144,"temp":28.9,"humidity":74,"rain":0.0,"pressure":1006.7,"uv_index":8.4,"wind_gusts":31.7,"aqi":116,"pm10":28.2,"pm2_5":15.5,"no2":1.6,"co":91.0,"o3":78.0,"so2":2.0,"mosquito_risk":7,"arthritis_risk":5,"migraine_risk":4,"frizz_risk":1,"updated_at":"2026-06-20T17:28:17.997315+05:30"},{"city":"Kannur","state":"Kerala","latitude":11.8745,"longitude":75.3704,"temp":28.7,"humidity":79,"rain":0.1,"pressure":1006.6,"uv_index":7.8,"wind_gusts":30.2,"aqi":74,"pm10":18.1,"pm2_5":9.6,"no2":1.3,"co":88.0,"o3":58.0,"so2":1.2,"mosquito_risk":10,"arthritis_risk":5,"migraine_risk":4,"frizz_risk":1,"updated_at":"2026-06-20T17:28:17.997323+05:30"},{"city":"Patna","state":"Bihar","latitude":25.5941,"longitude":85.1376,"temp":36.9,"humidity":44,"rain":0.0,"pressure":992.7,"uv_index":8.85,"wind_gusts":29.2,"aqi":170,"pm10":111.8,"pm2_5":53.0,"no2":8.5,"co":297.0,"o3":153.0,"so2":8.7,"mosquito_risk":0,"arthritis_risk":5,"migraine_risk":10,"frizz_risk":1,"updated_at":"2026-06-20T17:28:17.997332+05:30"},{"city":"Gaya","state":"Bihar","latitude":24.7914,"longitude":85.0002,"temp":37.0,"humidity":42,"rain":0.0,"pressure":986.6,"uv_index":8.8,"wind_gusts":29.2,"aqi":99,"pm10":118.7,"pm2_5":46.0,"no2":6.1,"co":214.0,"o3":127.0,"so2":6.8,"mosquito_risk":0,"arthritis_risk":5,"migraine_risk":10,"frizz_risk":1,"updated_at":"2026-06-20T17:28:17.997340+05:30"},{"city":"Muzaffarpur","state":"Bihar","latitude":26.1209,"longitude":85.3647,"temp":34.6,"humidity":64,"rain":0.0,"pressure":992.7,"uv_index":8.85,"wind_gusts":29.9,"aqi":185,"pm10":123.9,"pm2_5":68.7,"no2":10.5,"co":360.0,"o3":172.0,"so2":12.5,"mosquito_risk":3,"arthritis_risk":5,"migraine_risk":7,"frizz_risk":1,"updated_at":"2026-06-20T17:28:17.997349+05:30"},{"city":"Bhagalpur","state":"Bihar","latitude":25.2425,"longitude":87.0117,"temp":35.1,"humidity":58,"rain":0.0,"pressure":993.6,"uv_index":8.8,"wind_gusts":26.6,"aqi":156,"pm10":104.3,"pm2_5":51.2,"no2":4.7,"co":233.0,"o3":159.0,"so2":10.4,"mosquito_risk":0,"arthritis_risk":5,"migraine_risk":10,"frizz_risk":1,"updated_at":"2026-06-20T17:28:17.997357+05:30"},{"city":"Ranchi","state":"Jharkhand","latitude":23.3441,"longitude":85.3096,"temp":27.3,"humidity":81,"rain":0.0,"pressure":933.9,"uv_index":9.2,"wind_gusts":29.5,"aqi":110,"pm10":55.2,"pm2_5":29.6,"no2":4.3,"co":182.0,"o3":119.0,"so2":4.2,"mosquito_risk":7,"arthritis_risk":5,"migraine_risk":7,"frizz_risk":1,"updated_at":"2026-06-20T17:28:17.997366+05:30"},{"city":"Jamshedpur","state":"Jharkhand","latitude":22.8046,"longitude":86.2029,"temp":32.7,"humidity":64,"rain":0.0,"pressure":985.2,"uv_index":8.6,"wind_gusts":32.8,"aqi":151,"pm10":72.4,"pm2_5":48.0,"no2":4.9,"co":224.0,"o3":170.0,"so2":16.1,"mosquito_risk":3,"arthritis_risk":5,"migraine_risk":7,"frizz_risk":1,"updated_at":"2026-06-20T17:28:17.997374+05:30"},{"city":"Dhanbad","state":"Jharkhand","latitude":23.7957,"longitude":86.4304,"temp":32.8,"humidity":64,"rain":0.0,"pressure":974.1,"uv_index":8.9,"wind_gusts":25.9,"aqi":160,"pm10":93.8,"pm2_5":62.9,"no2":16.2,"co":181.0,"o3":180.0,"so2":55.5,"mosquito_risk":3,"arthritis_risk":5,"migraine_risk":7,"frizz_risk":1,"updated_at":"2026-06-20T17:28:17.997383+05:30"},{"city":"Bokaro","state":"Jharkhand","latitude":23.6693,"longitude":86.1511,"temp":32.6,"humidity":68,"rain":0.1,"pressure":977.8,"uv_index":9.05,"wind_gusts":26.6,"aqi":152,"pm10":86.4,"pm2_5":49.9,"no2":13.9,"co":254.0,"o3":160.0,"so2":45.9,"mosquito_risk":6,"arthritis_risk":5,"migraine_risk":7,"frizz_risk":1,"updated_at":"2026-06-20T17:28:17.997391+05:30"},{"city":"Bhubaneswar","state":"Odisha","latitude":20.2961,"longitude":85.8245,"temp":29.2,"humidity":85,"rain":0.0,"pressure":997.9,"uv_index":8.85,"wind_gusts":33.5,"aqi":114,"pm10":40.0,"pm2_5":35.0,"no2":7.0,"co":377.0,"o3":137.0,"so2":8.2,"mosquito_risk":7,"arthritis_risk":5,"migraine_risk":7,"frizz_risk":1,"updated_at":"2026-06-20T17:28:17.997400+05:30"},{"city":"Cuttack","state":"Odisha","latitude":20.4625,"longitude":85.8828,"temp":29.1,"humidity":91,"rain":0.1,"pressure":999.6,"uv_index":9.15,"wind_gusts":40.7,"aqi":114,"pm10":40.0,"pm2_5":35.0,"no2":7.0,"co":367.0,"o3":137.0,"so2":8.2,"mosquito_risk":10,"arthritis_risk":5,"migraine_risk":7,"frizz_risk":1,"updated_at":"2026-06-20T17:28:17.997408+05:30"},{"city":"Rourkela","state":"Odisha","latitude":22.2604,"longitude":84.8536,"temp":32.9,"humidity":63,"rain":0.0,"pressure":980.0,"uv_index":8.8,"wind_gusts":29.9,"aqi":139,"pm10":43.5,"pm2_5":30.5,"no2":3.2,"co":222.0,"o3":145.0,"so2":7.8,"mosquito_risk":3,"arthritis_risk":5,"migraine_risk":7,"frizz_risk":1,"updated_at":"2026-06-20T17:28:17.997416+05:30"},{"city":"Raipur","state":"Chhattisgarh","latitude":21.2514,"longitude":81.6296,"temp":37.2,"humidity":29,"rain":0.0,"pressure":969.8,"uv_index":8.65,"wind_gusts":32.8,"aqi":105,"pm10":26.7,"pm2_5":20.1,"no2":6.5,"co":118.0,"o3":139.0,"so2":19.6,"mosquito_risk":0,"arthritis_risk":5,"migraine_risk":10,"frizz_risk":1,"updated_at":"2026-06-20T17:28:17.997425+05:30"},{"city":"Bhilai","state":"Chhattisgarh","latitude":21.1938,"longitude":81.3509,"temp":37.2,"humidity":28,"rain":0.0,"pressure":970.5,"uv_index":8.95,"wind_gusts":38.2,"aqi":105,"pm10":25.6,"pm2_5":18.2,"no2":6.6,"co":179.0,"o3":128.0,"so2":17.0,"mosquito_risk":0,"arthritis_risk":5,"migraine_risk":10,"frizz_risk":0,"updated_at":"2026-06-20T17:28:17.997433+05:30"},{"city":"Guwahati","state":"Assam","latitude":26.1158,"longitude":91.7086,"temp":27.8,"humidity":93,"rain":0.3,"pressure":995.3,"uv_index":8.7,"wind_gusts":29.5,"aqi":145,"pm10":41.7,"pm2_5":35.2,"no2":4.5,"co":315.0,"o3":104.0,"so2":2.4,"mosquito_risk":10,"arthritis_risk":5,"migraine_risk":7,"frizz_risk":1,"updated_at":"2026-06-20T17:28:17.997442+05:30"},{"city":"Agartala","state":"Tripura","latitude":23.8315,"longitude":91.2868,"temp":30.0,"humidity":76,"rain":0.0,"pressure":1001.0,"uv_index":8.65,"wind_gusts":37.8,"aqi":94,"pm10":22.4,"pm2_5":19.2,"no2":8.1,"co":183.0,"o3":102.0,"so2":2.7,"mosquito_risk":7,"arthritis_risk":5,"migraine_risk":4,"frizz_risk":1,"updated_at":"2026-06-20T17:28:17.997450+05:30"},{"city":"Shillong","state":"Meghalaya","latitude":25.5788,"longitude":91.8933,"temp":22.8,"humidity":78,"rain":0.0,"pressure":854.5,"uv_index":6.25,"wind_gusts":29.9,"aqi":78,"pm10":22.0,"pm2_5":17.2,"no2":6.3,"co":237.0,"o3":98.0,"so2":2.6,"mosquito_risk":3,"arthritis_risk":5,"migraine_risk":7,"frizz_risk":1,"updated_at":"2026-06-20T17:28:17.997459+05:30"},{"city":"Imphal","state":"Manipur","latitude":24.817,"longitude":93.9368,"temp":26.3,"humidity":75,"rain":0.0,"pressure":919.3,"uv_index":9.25,"wind_gusts":34.6,"aqi":74,"pm10":17.9,"pm2_5":13.0,"no2":2.2,"co":202.0,"o3":96.0,"so2":2.2,"mosquito_risk":7,"arthritis_risk":5,"migraine_risk":7,"frizz_risk":1,"updated_at":"2026-06-20T17:28:17.997467+05:30"},{"city":"Aizawl","state":"Mizoram","latitude":23.7271,"longitude":92.7176,"temp":22.9,"humidity":79,"rain":0.0,"pressure":889.5,"uv_index":8.55,"wind_gusts":35.6,"aqi":58,"pm10":15.4,"pm2_5":12.2,"no2":2.4,"co":152.0,"o3":83.0,"so2":1.2,"mosquito_risk":3,"arthritis_risk":5,"migraine_risk":7,"frizz_risk":1,"updated_at":"2026-06-20T17:28:17.997475+05:30"},{"city":"Kohima","state":"Nagaland","latitude":25.6701,"longitude":94.1077,"temp":21.0,"humidity":99,"rain":0.1,"pressure":852.4,"uv_index":9.0,"wind_gusts":27.7,"aqi":56,"pm10":8.6,"pm2_5":5.6,"no2":2.3,"co":185.0,"o3":84.0,"so2":1.4,"mosquito_risk":6,"arthritis_risk":5,"migraine_risk":7,"frizz_risk":1,"updated_at":"2026-06-20T17:28:17.997484+05:30"},{"city":"Gangtok","state":"Sikkim","latitude":27.3314,"longitude":88.6138,"temp":20.1,"humidity":94,"rain":0.2,"pressure":834.1,"uv_index":8.0,"wind_gusts":31.0,"aqi":110,"pm10":10.0,"pm2_5":8.9,"no2":5.1,"co":316.0,"o3":132.0,"so2":4.9,"mosquito_risk":6,"arthritis_risk":5,"migraine_risk":7,"frizz_risk":1,"updated_at":"2026-06-20T17:28:17.997492+05:30"},{"city":"Siliguri","state":"West Bengal","latitude":26.7271,"longitude":88.3953,"temp":27.9,"humidity":87,"rain":0.2,"pressure":986.6,"uv_index":8.65,"wind_gusts":23.8,"aqi":155,"pm10":49.8,"pm2_5":42.4,"no2":11.2,"co":566.0,"o3":117.0,"so2":9.0,"mosquito_risk":10,"arthritis_risk":5,"migraine_risk":7,"frizz_risk":1,"updated_at":"2026-06-20T17:28:21.250323+05:30"},{"city":"Durgapur","state":"West Bengal","latitude":23.5204,"longitude":87.3119,"temp":30.3,"humidity":84,"rain":0.0,"pressure":988.9,"uv_index":8.9,"wind_gusts":33.8,"aqi":173,"pm10":113.4,"pm2_5":85.4,"no2":18.6,"co":588.0,"o3":207.0,"so2":58.0,"mosquito_risk":3,"arthritis_risk":5,"migraine_risk":7,"frizz_risk":1,"updated_at":"2026-06-20T17:28:21.250357+05:30"},{"city":"Asansol","state":"West Bengal","latitude":23.6739,"longitude":86.9524,"temp":31.8,"humidity":74,"rain":0.0,"pressure":987.5,"uv_index":8.95,"wind_gusts":34.6,"aqi":161,"pm10":103.1,"pm2_5":74.3,"no2":16.6,"co":526.0,"o3":195.0,"so2":49.4,"mosquito_risk":3,"arthritis_risk":5,"migraine_risk":7,"frizz_risk":1,"updated_at":"2026-06-20T17:28:21.250369+05:30"},{"city":"Pondicherry","state":"Puducherry","latitude":11.9139,"longitude":79.8145,"temp":30.8,"humidity":74,"rain":0.0,"pressure":1005.9,"uv_index":7.95,"wind_gusts":33.8,"aqi":105,"pm10":41.1,"pm2_5":31.2,"no2":11.1,"co":247.0,"o3":149.0,"so2":6.8,"mosquito_risk":3,"arthritis_risk":5,"migraine_risk":4,"frizz_risk":1,"updated_at":"2026-06-20T17:28:21.250379+05:30"},{"city":"Port Blair","state":"Andaman and Nicobar Islands","latitude":11.6234,"longitude":92.7265,"temp":28.3,"humidity":81,"rain":0.0,"pressure":1006.7,"uv_index":8.75,"wind_gusts":35.3,"aqi":33,"pm10":35.7,"pm2_5":15.8,"no2":0.5,"co":113.0,"o3":47.0,"so2":0.5,"mosquito_risk":7,"arthritis_risk":5,"migraine_risk":4,"frizz_risk":1,"updated_at":"2026-06-20T17:28:21.250389+05:30"},{"city":"Haridwar","state":"Uttarakhand","latitude":29.9457,"longitude":78.1642,"temp":35.1,"humidity":42,"rain":0.0,"pressure":967.5,"uv_index":7.65,"wind_gusts":29.9,"aqi":160,"pm10":116.4,"pm2_5":41.8,"no2":1.9,"co":303.0,"o3":171.0,"so2":8.4,"mosquito_risk":0,"arthritis_risk":5,"migraine_risk":10,"frizz_risk":1,"updated_at":"2026-06-20T17:28:21.250399+05:30"},{"city":"Rishikesh","state":"Uttarakhand","latitude":30.0869,"longitude":78.2676,"temp":34.0,"humidity":47,"rain":0.0,"pressure":960.4,"uv_index":7.75,"wind_gusts":26.6,"aqi":146,"pm10":48.4,"pm2_5":33.5,"no2":0.9,"co":277.0,"o3":169.0,"so2":7.1,"mosquito_risk":0,"arthritis_risk":5,"migraine_risk":7,"frizz_risk":1,"updated_at":"2026-06-20T17:28:21.250409+05:30"},{"city":"Nainital","state":"Uttarakhand","latitude":29.3919,"longitude":79.4542,"temp":22.7,"humidity":59,"rain":0.0,"pressure":805.1,"uv_index":6.75,"wind_gusts":28.8,"aqi":149,"pm10":52.0,"pm2_5":34.1,"no2":1.1,"co":269.0,"o3":157.0,"so2":5.8,"mosquito_risk":0,"arthritis_risk":5,"migraine_risk":7,"frizz_risk":0,"updated_at":"2026-06-20T17:28:21.250418+05:30"},{"city":"Mussoorie","state":"Uttarakhand","latitude":30.4599,"longitude":78.0664,"temp":22.6,"humidity":58,"rain":0.0,"pressure":802.8,"uv_index":8.15,"wind_gusts":41.8,"aqi":151,"pm10":41.6,"pm2_5":33.2,"no2":1.3,"co":253.0,"o3":167.0,"so2":5.8,"mosquito_risk":0,"arthritis_risk":5,"migraine_risk":7,"frizz_risk":0,"updated_at":"2026-06-20T17:28:21.250427+05:30"},{"city":"Dharamshala","state":"Himachal Pradesh","latitude":32.219,"longitude":76.3234,"temp":25.3,"humidity":54,"rain":0.0,"pressure":867.4,"uv_index":8.45,"wind_gusts":41.8,"aqi":93,"pm10":22.1,"pm2_5":12.6,"no2":0.1,"co":219.0,"o3":141.0,"so2":0.7,"mosquito_risk":4,"arthritis_risk":5,"migraine_risk":7,"frizz_risk":0,"updated_at":"2026-06-20T17:28:21.250436+05:30"},{"city":"Dalhousie","state":"Himachal Pradesh","latitude":32.5387,"longitude":75.971,"temp":21.7,"humidity":57,"rain":0.0,"pressure":804.8,"uv_index":8.75,"wind_gusts":27.0,"aqi":100,"pm10":24.7,"pm2_5":15.2,"no2":0.7,"co":205.0,"o3":148.0,"so2":1.1,"mosquito_risk":0,"arthritis_risk":5,"migraine_risk":7,"frizz_risk":0,"updated_at":"2026-06-20T17:28:21.250446+05:30"},{"city":"Patiala","state":"Punjab","latitude":30.3398,"longitude":76.3869,"temp":36.3,"humidity":34,"rain":0.0,"pressure":972.4,"uv_index":7.7,"wind_gusts":36.4,"aqi":346,"pm10":873.6,"pm2_5":114.6,"no2":2.3,"co":277.0,"o3":158.0,"so2":5.6,"mosquito_risk":0,"arthritis_risk":5,"migraine_risk":10,"frizz_risk":1,"updated_at":"2026-06-20T17:28:21.250455+05:30"},{"city":"Bhatinda","state":"Punjab","latitude":30.211,"longitude":74.9455,"temp":36.4,"humidity":38,"rain":0.0,"pressure":978.5,"uv_index":8.35,"wind_gusts":27.4,"aqi":139,"pm10":77.5,"pm2_5":34.9,"no2":2.1,"co":230.0,"o3":158.0,"so2":9.0,"mosquito_risk":0,"arthritis_risk":5,"migraine_risk":10,"frizz_risk":1,"updated_at":"2026-06-20T17:28:21.250463+05:30"},{"city":"Rohtak","state":"Haryana","latitude":28.8955,"longitude":76.6066,"temp":36.2,"humidity":40,"rain":0.0,"pressure":975.7,"uv_index":7.8,"wind_gusts":34.2,"aqi":565,"pm10":704.1,"pm2_5":98.3,"no2":3.3,"co":221.0,"o3":130.0,"so2":5.8,"mosquito_risk":0,"arthritis_risk":5,"migraine_risk":10,"frizz_risk":1,"updated_at":"2026-06-20T17:28:21.250472+05:30"},{"city":"Panipat","state":"Haryana","latitude":29.3909,"longitude":76.9635,"temp":36.0,"humidity":41,"rain":0.0,"pressure":974.2,"uv_index":7.65,"wind_gusts":34.2,"aqi":1415,"pm10":2488.5,"pm2_5":276.6,"no2":4.2,"co":200.0,"o3":133.0,"so2":9.1,"mosquito_risk":0,"arthritis_risk":5,"migraine_risk":10,"frizz_risk":1,"updated_at":"2026-06-20T17:28:21.250480+05:30"},{"city":"Mathura","state":"Uttar Pradesh","latitude":27.4924,"longitude":77.6737,"temp":36.4,"humidity":40,"rain":0.0,"pressure":980.7,"uv_index":8.1,"wind_gusts":36.7,"aqi":319,"pm10":267.3,"pm2_5":57.4,"no2":3.3,"co":178.0,"o3":116.0,"so2":3.9,"mosquito_risk":0,"arthritis_risk":5,"migraine_risk":10,"frizz_risk":1,"updated_at":"2026-06-20T17:28:21.250489+05:30"},{"city":"Vrindavan","state":"Uttar Pradesh","latitude":27.5823,"longitude":77.7027,"temp":36.2,"humidity":42,"rain":0.0,"pressure":981.0,"uv_index":8.05,"wind_gusts":36.7,"aqi":319,"pm10":267.3,"pm2_5":57.4,"no2":3.3,"co":188.0,"o3":116.0,"so2":3.9,"mosquito_risk":0,"arthritis_risk":5,"migraine_risk":10,"frizz_risk":1,"updated_at":"2026-06-20T17:28:21.250498+05:30"},{"city":"Ayodhya","state":"Uttar Pradesh","latitude":26.7922,"longitude":82.1998,"temp":37.5,"humidity":41,"rain":0.0,"pressure":987.1,"uv_index":8.4,"wind_gusts":34.2,"aqi":158,"pm10":313.9,"pm2_5":88.5,"no2":2.8,"co":217.0,"o3":139.0,"so2":8.4,"mosquito_risk":0,"arthritis_risk":5,"migraine_risk":10,"frizz_risk":1,"updated_at":"2026-06-20T17:28:21.250507+05:30"},{"city":"Ratlam","state":"Madhya Pradesh","latitude":23.3315,"longitude":75.0367,"temp":32.7,"humidity":48,"rain":0.0,"pressure":951.9,"uv_index":8.45,"wind_gusts":39.6,"aqi":72,"pm10":47.5,"pm2_5":22.6,"no2":0.6,"co":119.0,"o3":94.0,"so2":2.6,"mosquito_risk":0,"arthritis_risk":5,"migraine_risk":7,"frizz_risk":1,"updated_at":"2026-06-20T17:28:21.250516+05:30"},{"city":"Sagar","state":"Madhya Pradesh","latitude":23.8388,"longitude":78.7378,"temp":32.4,"humidity":47,"rain":0.0,"pressure":947.0,"uv_index":8.75,"wind_gusts":38.9,"aqi":70,"pm10":58.0,"pm2_5":26.1,"no2":1.0,"co":132.0,"o3":101.0,"so2":1.7,"mosquito_risk":0,"arthritis_risk":5,"migraine_risk":7,"frizz_risk":1,"updated_at":"2026-06-20T17:28:21.250525+05:30"},{"city":"Satna","state":"Madhya Pradesh","latitude":24.6005,"longitude":80.8322,"temp":36.6,"humidity":35,"rain":0.0,"pressure":966.0,"uv_index":8.8,"wind_gusts":34.6,"aqi":64,"pm10":56.1,"pm2_5":21.9,"no2":0.6,"co":137.0,"o3":110.0,"so2":2.1,"mosquito_risk":0,"arthritis_risk":5,"migraine_risk":10,"frizz_risk":1,"updated_at":"2026-06-20T17:28:21.250533+05:30"},{"city":"Akola","state":"Maharashtra","latitude":20.7002,"longitude":77.0082,"temp":37.5,"humidity":31,"rain":0.0,"pressure":971.5,"uv_index":8.8,"wind_gusts":41.8,"aqi":52,"pm10":23.9,"pm2_5":13.9,"no2":1.5,"co":119.0,"o3":108.0,"so2":4.9,"mosquito_risk":0,"arthritis_risk":5,"migraine_risk":10,"frizz_risk":1,"updated_at":"2026-06-20T17:28:21.250542+05:30"},{"city":"Amravati","state":"Maharashtra","latitude":20.9374,"longitude":77.7796,"temp":36.3,"humidity":29,"rain":0.0,"pressure":964.0,"uv_index":8.8,"wind_gusts":41.8,"aqi":54,"pm10":24.1,"pm2_5":14.3,"no2":1.8,"co":112.0,"o3":111.0,"so2":5.7,"mosquito_risk":0,"arthritis_risk":5,"migraine_risk":10,"frizz_risk":0,"updated_at":"2026-06-20T17:28:21.250552+05:30"},{"city":"Latur","state":"Maharashtra","latitude":18.4088,"longitude":76.5604,"temp":34.4,"humidity":35,"rain":0.0,"pressure":937.5,"uv_index":8.95,"wind_gusts":34.6,"aqi":56,"pm10":21.7,"pm2_5":14.2,"no2":0.8,"co":127.0,"o3":110.0,"so2":2.7,"mosquito_risk":0,"arthritis_risk":5,"migraine_risk":7,"frizz_risk":1,"updated_at":"2026-06-20T17:28:21.250561+05:30"},{"city":"Nanded","state":"Maharashtra","latitude":19.1383,"longitude":77.3091,"temp":37.7,"humidity":29,"rain":0.0,"pressure":965.0,"uv_index":8.9,"wind_gusts":33.1,"aqi":63,"pm10":18.6,"pm2_5":12.2,"no2":0.9,"co":135.0,"o3":108.0,"so2":1.9,"mosquito_risk":0,"arthritis_risk":5,"migraine_risk":10,"frizz_risk":1,"updated_at":"2026-06-20T17:28:21.250569+05:30"},{"city":"Gulbarga","state":"Karnataka","latitude":17.3297,"longitude":76.8343,"temp":35.6,"humidity":33,"rain":0.0,"pressure":956.1,"uv_index":8.5,"wind_gusts":38.2,"aqi":57,"pm10":22.1,"pm2_5":14.5,"no2":1.9,"co":132.0,"o3":124.0,"so2":3.6,"mosquito_risk":0,"arthritis_risk":5,"migraine_risk":10,"frizz_risk":1,"updated_at":"2026-06-20T17:28:21.250578+05:30"},{"city":"Bidar","state":"Karnataka","latitude":17.9104,"longitude":77.5199,"temp":30.5,"humidity":55,"rain":0.0,"pressure":933.3,"uv_index":8.5,"wind_gusts":33.1,"aqi":71,"pm10":27.8,"pm2_5":19.1,"no2":3.0,"co":152.0,"o3":117.0,"so2":3.8,"mosquito_risk":0,"arthritis_risk":5,"migraine_risk":7,"frizz_risk":1,"updated_at":"2026-06-20T17:28:21.250586+05:30"},{"city":"Hospet","state":"Karnataka","latitude":15.2689,"longitude":76.3909,"temp":31.9,"humidity":45,"rain":0.0,"pressure":953.9,"uv_index":8.3,"wind_gusts":40.7,"aqi":52,"pm10":27.4,"pm2_5":13.6,"no2":2.8,"co":161.0,"o3":99.0,"so2":2.1,"mosquito_risk":0,"arthritis_risk":5,"migraine_risk":7,"frizz_risk":1,"updated_at":"2026-06-20T17:28:21.250594+05:30"},{"city":"Tirupur","state":"Tamil Nadu","latitude":11.1085,"longitude":77.3411,"temp":31.1,"humidity":54,"rain":0.1,"pressure":973.6,"uv_index":8.3,"wind_gusts":40.7,"aqi":66,"pm10":34.7,"pm2_5":18.9,"no2":3.1,"co":173.0,"o3":116.0,"so2":3.1,"mosquito_risk":3,"arthritis_risk":5,"migraine_risk":7,"frizz_risk":1,"updated_at":"2026-06-20T17:28:21.250603+05:30"},{"city":"Alappuzha","state":"Kerala","latitude":9.4981,"longitude":76.3388,"temp":28.6,"humidity":80,"rain":0.0,"pressure":1008.3,"uv_index":8.5,"wind_gusts":32.8,"aqi":79,"pm10":22.8,"pm2_5":13.5,"no2":3.4,"co":94.0,"o3":71.0,"so2":2.4,"mosquito_risk":7,"arthritis_risk":0,"migraine_risk":4,"frizz_risk":1,"updated_at":"2026-06-20T17:28:21.250611+05:30"},{"city":"Munnar","state":"Kerala","latitude":10.0889,"longitude":77.0595,"temp":18.6,"humidity":91,"rain":0.1,"pressure":857.1,"uv_index":8.95,"wind_gusts":28.8,"aqi":51,"pm10":43.3,"pm2_5":18.6,"no2":1.1,"co":131.0,"o3":92.0,"so2":1.9,"mosquito_risk":6,"arthritis_risk":10,"migraine_risk":7,"frizz_risk":1,"updated_at":"2026-06-20T17:28:21.250620+05:30"},{"city":"Silchar","state":"Assam","latitude":24.8333,"longitude":92.7789,"temp":27.6,"humidity":92,"rain":0.1,"pressure":1000.3,"uv_index":8.4,"wind_gusts":34.2,"aqi":91,"pm10":28.6,"pm2_5":23.3,"no2":3.5,"co":220.0,"o3":112.0,"so2":3.9,"mosquito_risk":10,"arthritis_risk":5,"migraine_risk":4,"frizz_risk":1,"updated_at":"2026-06-20T17:28:21.250629+05:30"},{"city":"Dibrugarh","state":"Assam","latitude":27.4728,"longitude":94.912,"temp":27.7,"humidity":95,"rain":0.1,"pressure":989.5,"uv_index":8.45,"wind_gusts":27.7,"aqi":81,"pm10":56.3,"pm2_5":38.1,"no2":5.6,"co":265.0,"o3":109.0,"so2":3.4,"mosquito_risk":10,"arthritis_risk":5,"migraine_risk":7,"frizz_risk":1,"updated_at":"2026-06-20T17:28:21.250658+05:30"}]