[{"city":"Delhi","state":"Delhi","latitude":28.6139,"longitude":77.209,"temp":21.1,"humidity":57,"rain":0.0,"pressure":986.0,"uv_index":7.15,"wind_gusts":42.1,"aqi":746,"pm10":586.7,"pm2_5":102.0,"mosquito_risk":0,"arthritis_risk":5,"migraine_risk":7,"frizz_risk":0,"updated_at":"2026-04-11T04:11:00.297138+05:30"},{"city":"Mumbai","state":"Maharashtra","latitude":19.076,"longitude":72.8777,"temp":28.4,"humidity":80,"rain":0.0,"pressure":1009.4,"uv_index":7.95,"wind_gusts":24.8,"aqi":103,"pm10":67.1,"pm2_5":41.0,"mosquito_risk":7,"arthritis_risk":0,"migraine_risk":4,"frizz_risk":1,"updated_at":"2026-04-11T04:11:00.297184+05:30"},{"city":"Bangalore","state":"Karnataka","latitude":12.9716,"longitude":77.5946,"temp":24.2,"humidity":84,"rain":0.0,"pressure":912.6,"uv_index":9.65,"wind_gusts":28.8,"aqi":88,"pm10":28.9,"pm2_5":26.4,"mosquito_risk":3,"arthritis_risk":5,"migraine_risk":7,"frizz_risk":1,"updated_at":"2026-04-11T04:11:00.297201+05:30"},{"city":"Hyderabad","state":"Telangana","latitude":17.385,"longitude":78.4867,"temp":27.1,"humidity":73,"rain":0.0,"pressure":954.5,"uv_index":9.25,"wind_gusts":24.5,"aqi":98,"pm10":64.5,"pm2_5":49.8,"mosquito_risk":7,"arthritis_risk":5,"migraine_risk":7,"frizz_risk":1,"updated_at":"2026-04-11T04:11:00.297212+05:30"},{"city":"Chennai","state":"Tamil Nadu","latitude":13.0827,"longitude":80.2707,"temp":28.1,"humidity":85,"rain":0.0,"pressure":1008.4,"uv_index":9.15,"wind_gusts":35.3,"aqi":61,"pm10":19.8,"pm2_5":13.9,"mosquito_risk":7,"arthritis_risk":0,"migraine_risk":4,"frizz_risk":1,"updated_at":"2026-04-11T04:11:00.297221+05:30"},{"city":"Kolkata","state":"West Bengal","latitude":22.5726,"longitude":88.3639,"temp":23.5,"humidity":92,"rain":0.0,"pressure":1008.0,"uv_index":8.75,"wind_gusts":19.1,"aqi":154,"pm10":61.0,"pm2_5":46.4,"mosquito_risk":3,"arthritis_risk":0,"migraine_risk":4,"frizz_risk":1,"updated_at":"2026-04-11T04:11:00.297230+05:30"},{"city":"Pune","state":"Maharashtra","latitude":18.5204,"longitude":73.8567,"temp":23.7,"humidity":84,"rain":0.0,"pressure":949.5,"uv_index":8.55,"wind_gusts":42.8,"aqi":96,"pm10":83.4,"pm2_5":50.2,"mosquito_risk":3,"arthritis_risk":5,"migraine_risk":7,"frizz_risk":1,"updated_at":"2026-04-11T04:11:00.297242+05:30"},{"city":"Ahmedabad","state":"Gujarat","latitude":23.0225,"longitude":72.5714,"temp":24.9,"humidity":47,"rain":0.0,"pressure":1004.3,"uv_index":8.05,"wind_gusts":19.8,"aqi":73,"pm10":33.3,"pm2_5":27.9,"mosquito_risk":0,"arthritis_risk":5,"migraine_risk":4,"frizz_risk":0,"updated_at":"2026-04-11T04:11:00.297249+05:30"},{"city":"Jaipur","state":"Rajasthan","latitude":26.9124,"longitude":75.7873,"temp":22.9,"humidity":48,"rain":0.0,"pressure":962.9,"uv_index":7.85,"wind_gusts":33.8,"aqi":144,"pm10":73.1,"pm2_5":24.1,"mosquito_risk":0,"arthritis_risk":5,"migraine_risk":7,"frizz_risk":0,"updated_at":"2026-04-11T04:11:00.297258+05:30"},{"city":"Lucknow","state":"Uttar Pradesh","latitude":26.8467,"longitude":80.9462,"temp":20.7,"humidity":55,"rain":0.0,"pressure":995.5,"uv_index":7.65,"wind_gusts":43.6,"aqi":174,"pm10":568.1,"pm2_5":113.9,"mosquito_risk":0,"arthritis_risk":5,"migraine_risk":7,"frizz_risk":0,"updated_at":"2026-04-11T04:11:00.297266+05:30"},{"city":"Kanpur","state":"Uttar Pradesh","latitude":26.4499,"longitude":80.3319,"temp":19.5,"humidity":64,"rain":0.0,"pressure":994.3,"uv_index":7.7,"wind_gusts":39.6,"aqi":440,"pm10":922.0,"pm2_5":140.6,"mosquito_risk":3,"arthritis_risk":5,"migraine_risk":7,"frizz_risk":0,"updated_at":"2026-04-11T04:11:00.297273+05:30"},{"city":"Chandigarh","state":"Chandigarh","latitude":30.7333,"longitude":76.7794,"temp":19.0,"humidity":66,"rain":0.0,"pressure":971.5,"uv_index":7.1,"wind_gusts":35.3,"aqi":51,"pm10":11.1,"pm2_5":11.1,"mosquito_risk":3,"arthritis_risk":5,"migraine_risk":7,"frizz_risk":0,"updated_at":"2026-04-11T04:11:00.297281+05:30"},{"city":"Srinagar","state":"Jammu and Kashmir","latitude":34.0837,"longitude":74.7973,"temp":9.4,"humidity":73,"rain":0.0,"pressure":841.9,"uv_index":8.05,"wind_gusts":29.2,"aqi":76,"pm10":48.4,"pm2_5":39.6,"mosquito_risk":3,"arthritis_risk":5,"migraine_risk":7,"frizz_risk":0,"updated_at":"2026-04-11T04:11:00.297288+05:30"},{"city":"Jammu","state":"Jammu and Kashmir","latitude":32.7266,"longitude":74.857,"temp":19.2,"humidity":72,"rain":0.0,"pressure":976.2,"uv_index":7.75,"wind_gusts":22.0,"aqi":59,"pm10":33.8,"pm2_5":25.1,"mosquito_risk":3,"arthritis_risk":5,"migraine_risk":7,"frizz_risk":0,"updated_at":"2026-04-11T04:11:00.297295+05:30"},{"city":"Amritsar","state":"Punjab","latitude":31.634,"longitude":74.8723,"temp":19.8,"humidity":75,"rain":0.0,"pressure":984.7,"uv_index":7.7,"wind_gusts":27.7,"aqi":63,"pm10":44.9,"pm2_5":14.5,"mosquito_risk":3,"arthritis_risk":5,"migraine_risk":7,"frizz_risk":0,"updated_at":"2026-04-11T04:11:00.297302+05:30"},{"city":"Ludhiana","state":"Punjab","latitude":30.901,"longitude":75.8573,"temp":20.4,"humidity":65,"rain":0.0,"pressure":982.6,"uv_index":7.2,"wind_gusts":37.4,"aqi":61,"pm10":15.9,"pm2_5":15.5,"mosquito_risk":3,"arthritis_risk":5,"migraine_risk":7,"frizz_risk":0,"updated_at":"2026-04-11T04:11:00.297309+05:30"},{"city":"Jalandhar","state":"Punjab","latitude":31.326,"longitude":75.5762,"temp":19.7,"humidity":72,"rain":0.0,"pressure":984.1,"uv_index":7.5,"wind_gusts":32.4,"aqi":67,"pm10":35.4,"pm2_5":14.2,"mosquito_risk":3,"arthritis_risk":5,"migraine_risk":7,"frizz_risk":0,"updated_at":"2026-04-11T04:11:00.297317+05:30"},{"city":"Dehradun","state":"Uttarakhand","latitude":30.6284,"longitude":78.0322,"temp":11.2,"humidity":58,"rain":0.0,"pressure":828.5,"uv_index":7.55,"wind_gusts":38.2,"aqi":42,"pm10":5.2,"pm2_5":5.1,"mosquito_risk":0,"arthritis_risk":5,"migraine_risk":7,"frizz_risk":0,"updated_at":"2026-04-11T04:11:00.297324+05:30"},{"city":"Shimla","state":"Himachal Pradesh","latitude":31.1048,"longitude":77.1734,"temp":9.6,"humidity":57,"rain":0.0,"pressure":782.9,"uv_index":7.2,"wind_gusts":46.4,"aqi":50,"pm10":9.4,"pm2_5":8.7,"mosquito_risk":0,"arthritis_risk":5,"migraine_risk":7,"frizz_risk":0,"updated_at":"2026-04-11T04:11:00.297330+05:30"},{"city":"Manali","state":"Himachal Pradesh","latitude":32.2396,"longitude":77.1887,"temp":11.9,"humidity":59,"rain":0.0,"pressure":818.3,"uv_index":9.55,"wind_gusts":36.7,"aqi":63,"pm10":16.5,"pm2_5":10.8,"mosquito_risk":0,"arthritis_risk":5,"migraine_risk":7,"frizz_risk":0,"updated_at":"2026-04-11T04:11:00.297337+05:30"},{"city":"Gurgaon","state":"Haryana","latitude":28.4595,"longitude":77.0266,"temp":18.8,"humidity":70,"rain":0.0,"pressure":984.5,"uv_index":7.3,"wind_gusts":35.6,"aqi":2094,"pm10":1430.5,"pm2_5":189.1,"mosquito_risk":3,"arthritis_risk":5,"migraine_risk":7,"frizz_risk":0,"updated_at":"2026-04-11T04:11:00.297344+05:30"},{"city":"Noida","state":"Uttar Pradesh","latitude":28.5355,"longitude":77.391,"temp":20.8,"humidity":60,"rain":0.0,"pressure":987.4,"uv_index":7.2,"wind_gusts":43.6,"aqi":2094,"pm10":1430.5,"pm2_5":189.1,"mosquito_risk":0,"arthritis_risk":5,"migraine_risk":7,"frizz_risk":0,"updated_at":"2026-04-11T04:11:00.297350+05:30"},{"city":"Ghaziabad","state":"Uttar Pradesh","latitude":28.6692,"longitude":77.4538,"temp":19.9,"humidity":63,"rain":0.0,"pressure":985.4,"uv_index":7.15,"wind_gusts":41.0,"aqi":578,"pm10":421.0,"pm2_5":75.7,"mosquito_risk":3,"arthritis_risk":5,"migraine_risk":7,"frizz_risk":0,"updated_at":"2026-04-11T04:11:00.297358+05:30"},{"city":"Faridabad","state":"Haryana","latitude":28.4089,"longitude":77.3178,"temp":20.9,"humidity":59,"rain":0.0,"pressure":986.7,"uv_index":7.25,"wind_gusts":42.1,"aqi":2094,"pm10":1430.5,"pm2_5":189.1,"mosquito_risk":0,"arthritis_risk":5,"migraine_risk":7,"frizz_risk":0,"updated_at":"2026-04-11T04:11:00.297365+05:30"},{"city":"Meerut","state":"Uttar Pradesh","latitude":28.9845,"longitude":77.7064,"temp":18.7,"humidity":68,"rain":0.0,"pressure":983.7,"uv_index":7.05,"wind_gusts":40.7,"aqi":578,"pm10":421.0,"pm2_5":75.7,"mosquito_risk":3,"arthritis_risk":5,"migraine_risk":7,"frizz_risk":0,"updated_at":"2026-04-11T04:11:00.297371+05:30"},{"city":"Agra","state":"Uttar Pradesh","latitude":27.1767,"longitude":78.0081,"temp":20.1,"humidity":61,"rain":0.0,"pressure":990.9,"uv_index":7.55,"wind_gusts":33.5,"aqi":1245,"pm10":1367.2,"pm2_5":185.8,"mosquito_risk":3,"arthritis_risk":5,"migraine_risk":7,"frizz_risk":0,"updated_at":"2026-04-11T04:11:00.297377+05:30"},{"city":"Varanasi","state":"Uttar Pradesh","latitude":25.3176,"longitude":82.9739,"temp":19.6,"humidity":61,"rain":0.0,"pressure":999.9,"uv_index":8.3,"wind_gusts":39.6,"aqi":85,"pm10":191.9,"pm2_5":38.9,"mosquito_risk":3,"arthritis_risk":5,"migraine_risk":7,"frizz_risk":0,"updated_at":"2026-04-11T04:11:00.297386+05:30"},{"city":"Prayagraj","state":"Uttar Pradesh","latitude":25.4358,"longitude":81.8463,"temp":21.2,"humidity":55,"rain":0.0,"pressure":998.5,"uv_index":8.15,"wind_gusts":41.0,"aqi":94,"pm10":283.1,"pm2_5":51.8,"mosquito_risk":0,"arthritis_risk":5,"migraine_risk":7,"frizz_risk":0,"updated_at":"2026-04-11T04:11:00.297393+05:30"},{"city":"Gorakhpur","state":"Uttar Pradesh","latitude":26.7606,"longitude":83.3732,"temp":19.8,"humidity":49,"rain":0.0,"pressure":998.3,"uv_index":8.1,"wind_gusts":35.3,"aqi":72,"pm10":266.4,"pm2_5":52.9,"mosquito_risk":0,"arthritis_risk":5,"migraine_risk":7,"frizz_risk":0,"updated_at":"2026-04-11T04:11:00.297399+05:30"},{"city":"Bareilly","state":"Uttar Pradesh","latitude":28.367,"longitude":79.4304,"temp":18.3,"humidity":70,"rain":0.0,"pressure":988.2,"uv_index":7.45,"wind_gusts":46.4,"aqi":93,"pm10":73.3,"pm2_5":34.0,"mosquito_risk":3,"arthritis_risk":5,"migraine_risk":7,"frizz_risk":0,"updated_at":"2026-04-11T04:11:00.297405+05:30"},{"city":"Aligarh","state":"Uttar Pradesh","latitude":27.8974,"longitude":78.088,"temp":18.7,"humidity":68,"rain":0.0,"pressure":988.3,"uv_index":7.35,"wind_gusts":44.6,"aqi":1242,"pm10":1046.8,"pm2_5":156.9,"mosquito_risk":3,"arthritis_risk":5,"migraine_risk":7,"frizz_risk":0,"updated_at":"2026-04-11T04:11:00.297412+05:30"},{"city":"Moradabad","state":"Uttar Pradesh","latitude":28.8386,"longitude":78.7733,"temp":18.3,"humidity":70,"rain":0.0,"pressure":985.2,"uv_index":7.25,"wind_gusts":42.1,"aqi":112,"pm10":58.2,"pm2_5":26.0,"mosquito_risk":3,"arthritis_risk":5,"migraine_risk":7,"frizz_risk":0,"updated_at":"2026-04-11T04:11:00.297417+05:30"},{"city":"Saharanpur","state":"Uttar Pradesh","latitude":29.9637,"longitude":77.546,"temp":19.4,"humidity":62,"rain":0.0,"pressure":977.5,"uv_index":6.85,"wind_gusts":41.8,"aqi":78,"pm10":31.8,"pm2_5":14.9,"mosquito_risk":3,"arthritis_risk":5,"migraine_risk":7,"frizz_risk":0,"updated_at":"2026-04-11T04:11:00.297426+05:30"},{"city":"Jhansi","state":"Uttar Pradesh","latitude":25.4484,"longitude":78.5685,"temp":21.1,"humidity":50,"rain":0.0,"pressure":981.0,"uv_index":8.1,"wind_gusts":27.0,"aqi":68,"pm10":28.8,"pm2_5":10.0,"mosquito_risk":0,"arthritis_risk":5,"migraine_risk":7,"frizz_risk":0,"updated_at":"2026-04-11T04:11:03.513999+05:30"},{"city":"Surat","state":"Gujarat","latitude":21.1702,"longitude":72.8311,"temp":26.2,"humidity":57,"rain":0.0,"pressure":1007.8,"uv_index":7.8,"wind_gusts":29.2,"aqi":125,"pm10":31.1,"pm2_5":28.2,"mosquito_risk":4,"arthritis_risk":5,"migraine_risk":4,"frizz_risk":1,"updated_at":"2026-04-11T04:11:03.514032+05:30"},{"city":"Vadodara","state":"Gujarat","latitude":22.3072,"longitude":73.1812,"temp":24.2,"humidity":54,"rain":0.0,"pressure":1005.9,"uv_index":8.05,"wind_gusts":14.4,"aqi":63,"pm10":18.0,"pm2_5":12.9,"mosquito_risk":0,"arthritis_risk":5,"migraine_risk":4,"frizz_risk":0,"updated_at":"2026-04-11T04:11:03.514043+05:30"},{"city":"Rajkot","state":"Gujarat","latitude":22.3039,"longitude":70.8022,"temp":25.0,"humidity":71,"rain":0.0,"pressure":996.9,"uv_index":7.75,"wind_gusts":34.2,"aqi":68,"pm10":33.6,"pm2_5":23.1,"mosquito_risk":7,"arthritis_risk":5,"migraine_risk":7,"frizz_risk":1,"updated_at":"2026-04-11T04:11:03.514052+05:30"},{"city":"Thane","state":"Maharashtra","latitude":19.2183,"longitude":72.9781,"temp":27.2,"humidity":82,"rain":0.0,"pressure":1008.8,"uv_index":7.95,"wind_gusts":38.5,"aqi":103,"pm10":67.1,"pm2_5":41.0,"mosquito_risk":7,"arthritis_risk":0,"migraine_risk":4,"frizz_risk":1,"updated_at":"2026-04-11T04:11:03.514059+05:30"},{"city":"Nagpur","state":"Maharashtra","latitude":21.1458,"longitude":79.0882,"temp":24.6,"humidity":45,"rain":0.0,"pressure":975.1,"uv_index":8.75,"wind_gusts":21.2,"aqi":70,"pm10":22.8,"pm2_5":15.5,"mosquito_risk":0,"arthritis_risk":5,"migraine_risk":7,"frizz_risk":0,"updated_at":"2026-04-11T04:11:03.514066+05:30"},{"city":"Nashik","state":"Maharashtra","latitude":19.9975,"longitude":73.7898,"temp":24.5,"humidity":56,"rain":0.0,"pressure":946.8,"uv_index":8.25,"wind_gusts":34.9,"aqi":94,"pm10":71.2,"pm2_5":57.7,"mosquito_risk":0,"arthritis_risk":5,"migraine_risk":7,"frizz_risk":0,"updated_at":"2026-04-11T04:11:03.514073+05:30"},{"city":"Aurangabad","state":"Maharashtra","latitude":19.8762,"longitude":75.3433,"temp":25.6,"humidity":39,"rain":0.0,"pressure":945.2,"uv_index":8.9,"wind_gusts":32.0,"aqi":76,"pm10":36.6,"pm2_5":22.8,"mosquito_risk":4,"arthritis_risk":5,"migraine_risk":7,"frizz_risk":0,"updated_at":"2026-04-11T04:11:03.514080+05:30"},{"city":"Solapur","state":"Maharashtra","latitude":17.6599,"longitude":75.9064,"temp":27.9,"humidity":51,"rain":0.0,"pressure":957.8,"uv_index":9.0,"wind_gusts":19.1,"aqi":68,"pm10":24.2,"pm2_5":17.7,"mosquito_risk":4,"arthritis_risk":5,"migraine_risk":7,"frizz_risk":1,"updated_at":"2026-04-11T04:11:03.514087+05:30"},{"city":"Kolhapur","state":"Maharashtra","latitude":16.705,"longitude":74.2433,"temp":21.6,"humidity":82,"rain":0.0,"pressure":948.3,"uv_index":9.05,"wind_gusts":43.9,"aqi":96,"pm10":71.9,"pm2_5":46.3,"mosquito_risk":3,"arthritis_risk":5,"migraine_risk":7,"frizz_risk":1,"updated_at":"2026-04-11T04:11:03.514094+05:30"},{"city":"Goa","state":"Goa","latitude":15.2993,"longitude":74.124,"temp":27.0,"humidity":85,"rain":0.0,"pressure":998.6,"uv_index":9.05,"wind_gusts":34.2,"aqi":95,"pm10":95.2,"pm2_5":42.1,"mosquito_risk":7,"arthritis_risk":5,"migraine_risk":7,"frizz_risk":1,"updated_at":"2026-04-11T04:11:03.514102+05:30"},{"city":"Jodhpur","state":"Rajasthan","latitude":26.2389,"longitude":73.0243,"temp":25.0,"humidity":37,"rain":0.0,"pressure":985.9,"uv_index":8.05,"wind_gusts":26.6,"aqi":63,"pm10":75.7,"pm2_5":17.8,"mosquito_risk":4,"arthritis_risk":5,"migraine_risk":7,"frizz_risk":0,"updated_at":"2026-04-11T04:11:03.514108+05:30"},{"city":"Udaipur","state":"Rajasthan","latitude":24.5854,"longitude":73.7125,"temp":20.6,"humidity":42,"rain":0.0,"pressure":949.3,"uv_index":8.6,"wind_gusts":30.2,"aqi":43,"pm10":16.2,"pm2_5":8.8,"mosquito_risk":0,"arthritis_risk":5,"migraine_risk":7,"frizz_risk":0,"updated_at":"2026-04-11T04:11:03.514115+05:30"},{"city":"Kota","state":"Rajasthan","latitude":25.2138,"longitude":75.8648,"temp":20.3,"humidity":63,"rain":0.0,"pressure":982.0,"uv_index":8.1,"wind_gusts":18.0,"aqi":76,"pm10":38.2,"pm2_5":22.5,"mosquito_risk":3,"arthritis_risk":5,"migraine_risk":7,"frizz_risk":0,"updated_at":"2026-04-11T04:11:03.514121+05:30"},{"city":"Bikaner","state":"Rajasthan","latitude":28.0229,"longitude":73.3119,"temp":25.2,"humidity":44,"rain":0.0,"pressure":984.8,"uv_index":7.9,"wind_gusts":33.5,"aqi":58,"pm10":22.6,"pm2_5":12.4,"mosquito_risk":4,"arthritis_risk":5,"migraine_risk":7,"frizz_risk":0,"updated_at":"2026-04-11T04:11:03.514128+05:30"},{"city":"Ajmer","state":"Rajasthan","latitude":26.4499,"longitude":74.6399,"temp":22.3,"humidity":42,"rain":0.0,"pressure":957.4,"uv_index":8.0,"wind_gusts":35.3,"aqi":78,"pm10":69.4,"pm2_5":22.5,"mosquito_risk":0,"arthritis_risk":5,"migraine_risk":7,"frizz_risk":0,"updated_at":"2026-04-11T04:11:03.514134+05:30"},{"city":"Gwalior","state":"Madhya Pradesh","latitude":26.2183,"longitude":78.1828,"temp":22.2,"humidity":58,"rain":0.0,"pressure":986.4,"uv_index":7.8,"wind_gusts":27.7,"aqi":96,"pm10":244.0,"pm2_5":36.8,"mosquito_risk":0,"arthritis_risk":5,"migraine_risk":7,"frizz_risk":0,"updated_at":"2026-04-11T04:11:03.514141+05:30"},{"city":"Indore","state":"Madhya Pradesh","latitude":22.7196,"longitude":75.8577,"temp":20.3,"humidity":53,"rain":0.0,"pressure":950.3,"uv_index":8.5,"wind_gusts":20.9,"aqi":60,"pm10":28.6,"pm2_5":17.8,"mosquito_risk":0,"arthritis_risk":5,"migraine_risk":7,"frizz_risk":0,"updated_at":"2026-04-11T04:11:03.514146+05:30"},{"city":"Bhopal","state":"Madhya Pradesh","latitude":23.2599,"longitude":77.4126,"temp":21.8,"humidity":46,"rain":0.0,"pressure":956.4,"uv_index":8.5,"wind_gusts":24.5,"aqi":59,"pm10":22.5,"pm2_5":13.2,"mosquito_risk":0,"arthritis_risk":5,"migraine_risk":7,"frizz_risk":0,"updated_at":"2026-04-11T04:11:03.514152+05:30"},{"city":"Jabalpur","state":"Madhya Pradesh","latitude":23.1815,"longitude":79.9864,"temp":23.4,"humidity":41,"rain":0.0,"pressure":964.3,"uv_index":8.6,"wind_gusts":19.8,"aqi":70,"pm10":29.7,"pm2_5":21.7,"mosquito_risk":0,"arthritis_risk":5,"migraine_risk":7,"frizz_risk":0,"updated_at":"2026-04-11T04:11:03.514159+05:30"},{"city":"Ujjain","state":"Madhya Pradesh","latitude":23.1765,"longitude":75.7885,"temp":21.1,"humidity":50,"rain":0.0,"pressure":956.3,"uv_index":8.4,"wind_gusts":18.0,"aqi":61,"pm10":35.3,"pm2_5":22.3,"mosquito_risk":0,"arthritis_risk":5,"migraine_risk":7,"frizz_risk":0,"updated_at":"2026-04-11T04:11:03.514166+05:30"},{"city":"Visakhapatnam","state":"Andhra Pradesh","latitude":17.6868,"longitude":83.2185,"temp":27.3,"humidity":88,"rain":0.0,"pressure":1005.2,"uv_index":9.15,"wind_gusts":41.4,"aqi":91,"pm10":26.9,"pm2_5":21.5,"mosquito_risk":7,"arthritis_risk":5,"migraine_risk":4,"frizz_risk":1,"updated_at":"2026-04-11T04:11:03.514173+05:30"},{"city":"Vijayawada","state":"Andhra Pradesh","latitude":16.5062,"longitude":80.648,"temp":27.5,"humidity":88,"rain":0.0,"pressure":1004.2,"uv_index":9.2,"wind_gusts":26.3,"aqi":78,"pm10":23.2,"pm2_5":19.3,"mosquito_risk":7,"arthritis_risk":5,"migraine_risk":4,"frizz_risk":1,"updated_at":"2026-04-11T04:11:03.514180+05:30"},{"city":"Guntur","state":"Andhra Pradesh","latitude":16.3067,"longitude":80.4365,"temp":27.5,"humidity":86,"rain":0.0,"pressure":1005.2,"uv_index":9.25,"wind_gusts":33.8,"aqi":78,"pm10":20.5,"pm2_5":17.4,"mosquito_risk":7,"arthritis_risk":5,"migraine_risk":4,"frizz_risk":1,"updated_at":"2026-04-11T04:11:03.514186+05:30"},{"city":"Nellore","state":"Andhra Pradesh","latitude":14.4426,"longitude":79.9865,"temp":27.1,"humidity":87,"rain":0.0,"pressure":1006.6,"uv_index":9.0,"wind_gusts":41.0,"aqi":68,"pm10":18.4,"pm2_5":15.0,"mosquito_risk":7,"arthritis_risk":5,"migraine_risk":4,"frizz_risk":1,"updated_at":"2026-04-11T04:11:03.514194+05:30"},{"city":"Kurnool","state":"Andhra Pradesh","latitude":15.8281,"longitude":78.0373,"temp":30.1,"humidity":55,"rain":0.0,"pressure":977.3,"uv_index":9.25,"wind_gusts":26.6,"aqi":86,"pm10":31.4,"pm2_5":29.1,"mosquito_risk":0,"arthritis_risk":5,"migraine_risk":7,"frizz_risk":1,"updated_at":"2026-04-11T04:11:03.514201+05:30"},{"city":"Kakinada","state":"Andhra Pradesh","latitude":16.9891,"longitude":82.2475,"temp":27.4,"humidity":91,"rain":0.0,"pressure":1009.0,"uv_index":9.2,"wind_gusts":34.2,"aqi":67,"pm10":24.2,"pm2_5":17.1,"mosquito_risk":7,"arthritis_risk":0,"migraine_risk":4,"frizz_risk":1,"updated_at":"2026-04-11T04:11:03.514207+05:30"},{"city":"Tirupati","state":"Andhra Pradesh","latitude":13.6288,"longitude":79.4192,"temp":25.1,"humidity":90,"rain":0.0,"pressure":993.1,"uv_index":9.1,"wind_gusts":31.3,"aqi":84,"pm10":20.4,"pm2_5":17.9,"mosquito_risk":7,"arthritis_risk":5,"migraine_risk":7,"frizz_risk":1,"updated_at":"2026-04-11T04:11:03.514213+05:30"},{"city":"Warangal","state":"Telangana","latitude":17.9689,"longitude":79.5941,"temp":27.3,"humidity":77,"rain":0.0,"pressure":980.0,"uv_index":9.1,"wind_gusts":25.9,"aqi":102,"pm10":56.8,"pm2_5":48.0,"mosquito_risk":7,"arthritis_risk":5,"migraine_risk":7,"frizz_risk":1,"updated_at":"2026-04-11T04:11:03.514219+05:30"},{"city":"Nizamabad","state":"Telangana","latitude":18.6725,"longitude":78.0941,"temp":26.1,"humidity":56,"rain":0.0,"pressure":965.5,"uv_index":9.0,"wind_gusts":21.2,"aqi":80,"pm10":42.1,"pm2_5":32.9,"mosquito_risk":4,"arthritis_risk":5,"migraine_risk":7,"frizz_risk":1,"updated_at":"2026-04-11T04:11:03.514225+05:30"},{"city":"Mysore","state":"Karnataka","latitude":12.2958,"longitude":76.6396,"temp":22.8,"humidity":89,"rain":0.0,"pressure":929.5,"uv_index":9.55,"wind_gusts":28.8,"aqi":81,"pm10":36.0,"pm2_5":29.2,"mosquito_risk":3,"arthritis_risk":5,"migraine_risk":7,"frizz_risk":1,"updated_at":"2026-04-11T04:11:03.514231+05:30"},{"city":"Mangalore","state":"Karnataka","latitude":12.9141,"longitude":74.856,"temp":29.5,"humidity":79,"rain":0.0,"pressure":1007.4,"uv_index":8.6,"wind_gusts":26.6,"aqi":74,"pm10":93.1,"pm2_5":33.9,"mosquito_risk":7,"arthritis_risk":5,"migraine_risk":4,"frizz_risk":1,"updated_at":"2026-04-11T04:11:03.514237+05:30"},{"city":"Hubli-Dharwad","state":"Karnataka","latitude":15.3647,"longitude":75.124,"temp":23.5,"humidity":82,"rain":0.0,"pressure":941.2,"uv_index":9.25,"wind_gusts":42.1,"aqi":83,"pm10":69.8,"pm2_5":38.9,"mosquito_risk":3,"arthritis_risk":5,"migraine_risk":7,"frizz_risk":1,"updated_at":"2026-04-11T04:11:03.514243+05:30"},{"city":"Belgaum","state":"Karnataka","latitude":15.8497,"longitude":74.4977,"temp":21.7,"humidity":89,"rain":0.0,"pressure":925.7,"uv_index":9.3,"wind_gusts":38.9,"aqi":87,"pm10":95.5,"pm2_5":45.8,"mosquito_risk":3,"arthritis_risk":5,"migraine_risk":7,"frizz_risk":1,"updated_at":"2026-04-11T04:11:11.284623+05:30"},{"city":"Coimbatore","state":"Tamil Nadu","latitude":11.0168,"longitude":76.9558,"temp":23.7,"humidity":87,"rain":0.0,"pressure":963.3,"uv_index":8.85,"wind_gusts":29.5,"aqi":73,"pm10":33.6,"pm2_5":24.2,"mosquito_risk":3,"arthritis_risk":5,"migraine_risk":7,"frizz_risk":1,"updated_at":"2026-04-11T04:11:11.284657+05:30"},{"city":"Madurai","state":"Tamil Nadu","latitude":9.9252,"longitude":78.1198,"temp":27.1,"humidity":92,"rain":0.0,"pressure":994.1,"uv_index":8.9,"wind_gusts":37.4,"aqi":78,"pm10":29.0,"pm2_5":26.5,"mosquito_risk":7,"arthritis_risk":5,"migraine_risk":7,"frizz_risk":1,"updated_at":"2026-04-11T04:11:11.284667+05:30"},{"city":"Trichy","state":"Tamil Nadu","latitude":10.7905,"longitude":78.7047,"temp":27.4,"humidity":91,"rain":0.0,"pressure":1001.1,"uv_index":8.9,"wind_gusts":24.5,"aqi":66,"pm10":28.8,"pm2_5":24.4,"mosquito_risk":7,"arthritis_risk":5,"migraine_risk":4,"frizz_risk":1,"updated_at":"2026-04-11T04:11:11.284675+05:30"},{"city":"Salem","state":"Tamil Nadu","latitude":11.6643,"longitude":78.146,"temp":27.3,"humidity":81,"rain":0.0,"pressure":978.7,"uv_index":8.7,"wind_gusts":20.2,"aqi":75,"pm10":19.0,"pm2_5":17.0,"mosquito_risk":7,"arthritis_risk":5,"migraine_risk":7,"frizz_risk":1,"updated_at":"2026-04-11T04:11:11.284683+05:30"},{"city":"Tirunelveli","state":"Tamil Nadu","latitude":8.7139,"longitude":77.7567,"temp":25.4,"humidity":89,"rain":0.0,"pressure":1004.2,"uv_index":9.2,"wind_gusts":49.3,"aqi":71,"pm10":31.4,"pm2_5":26.9,"mosquito_risk":7,"arthritis_risk":5,"migraine_risk":4,"frizz_risk":1,"updated_at":"2026-04-11T04:11:11.284691+05:30"},{"city":"Vellore","state":"Tamil Nadu","latitude":12.9165,"longitude":79.1325,"temp":24.7,"humidity":87,"rain":0.0,"pressure":986.0,"uv_index":9.5,"wind_gusts":32.4,"aqi":91,"pm10":28.2,"pm2_5":25.4,"mosquito_risk":3,"arthritis_risk":5,"migraine_risk":7,"frizz_risk":1,"updated_at":"2026-04-11T04:11:11.284698+05:30"},{"city":"Erode","state":"Tamil Nadu","latitude":11.341,"longitude":77.7172,"temp":27.7,"humidity":83,"rain":0.0,"pressure":990.4,"uv_index":8.1,"wind_gusts":26.3,"aqi":66,"pm10":14.4,"pm2_5":12.7,"mosquito_risk":7,"arthritis_risk":5,"migraine_risk":7,"frizz_risk":1,"updated_at":"2026-04-11T04:11:11.284705+05:30"},{"city":"Kochi","state":"Kerala","latitude":9.9312,"longitude":76.2673,"temp":26.5,"humidity":86,"rain":0.0,"pressure":1010.2,"uv_index":7.35,"wind_gusts":32.4,"aqi":72,"pm10":17.2,"pm2_5":14.4,"mosquito_risk":7,"arthritis_risk":0,"migraine_risk":4,"frizz_risk":1,"updated_at":"2026-04-11T04:11:11.284712+05:30"},{"city":"Thiruvananthapuram","state":"Kerala","latitude":8.5241,"longitude":76.9366,"temp":27.6,"humidity":86,"rain":0.0,"pressure":1008.7,"uv_index":9.05,"wind_gusts":39.6,"aqi":67,"pm10":26.6,"pm2_5":15.9,"mosquito_risk":7,"arthritis_risk":0,"migraine_risk":4,"frizz_risk":1,"updated_at":"2026-04-11T04:11:11.284719+05:30"},{"city":"Kozhikode","state":"Kerala","latitude":11.2588,"longitude":75.7804,"temp":27.6,"humidity":85,"rain":0.0,"pressure":1009.3,"uv_index":9.1,"wind_gusts":29.9,"aqi":69,"pm10":39.1,"pm2_5":17.9,"mosquito_risk":7,"arthritis_risk":0,"migraine_risk":4,"frizz_risk":1,"updated_at":"2026-04-11T04:11:11.284726+05:30"},{"city":"Thrissur","state":"Kerala","latitude":10.5276,"longitude":76.2144,"temp":25.8,"humidity":90,"rain":0.0,"pressure":1008.5,"uv_index":8.55,"wind_gusts":33.1,"aqi":74,"pm10":20.1,"pm2_5":15.1,"mosquito_risk":7,"arthritis_risk":0,"migraine_risk":4,"frizz_risk":1,"updated_at":"2026-04-11T04:11:11.284734+05:30"},{"city":"Kannur","state":"Kerala","latitude":11.8745,"longitude":75.3704,"temp":26.5,"humidity":83,"rain":0.0,"pressure":1008.6,"uv_index":8.15,"wind_gusts":31.0,"aqi":70,"pm10":42.1,"pm2_5":18.6,"mosquito_risk":7,"arthritis_risk":0,"migraine_risk":4,"frizz_risk":1,"updated_at":"2026-04-11T04:11:11.284741+05:30"},{"city":"Patna","state":"Bihar","latitude":25.5941,"longitude":85.1376,"temp":21.3,"humidity":60,"rain":0.0,"pressure":1002.4,"uv_index":8.45,"wind_gusts":31.3,"aqi":67,"pm10":65.9,"pm2_5":30.0,"mosquito_risk":0,"arthritis_risk":5,"migraine_risk":4,"frizz_risk":0,"updated_at":"2026-04-11T04:11:11.284747+05:30"},{"city":"Gaya","state":"Bihar","latitude":24.7914,"longitude":85.0002,"temp":22.2,"humidity":50,"rain":0.0,"pressure":996.3,"uv_index":8.55,"wind_gusts":33.8,"aqi":70,"pm10":40.5,"pm2_5":22.7,"mosquito_risk":0,"arthritis_risk":5,"migraine_risk":7,"frizz_risk":0,"updated_at":"2026-04-11T04:11:11.284754+05:30"},{"city":"Muzaffarpur","state":"Bihar","latitude":26.1209,"longitude":85.3647,"temp":19.8,"humidity":53,"rain":0.0,"pressure":1001.9,"uv_index":8.45,"wind_gusts":22.7,"aqi":65,"pm10":75.2,"pm2_5":27.6,"mosquito_risk":0,"arthritis_risk":5,"migraine_risk":4,"frizz_risk":0,"updated_at":"2026-04-11T04:11:11.284761+05:30"},{"city":"Bhagalpur","state":"Bihar","latitude":25.2425,"longitude":87.0117,"temp":20.8,"humidity":68,"rain":0.0,"pressure":1002.9,"uv_index":8.45,"wind_gusts":23.8,"aqi":74,"pm10":35.4,"pm2_5":19.4,"mosquito_risk":3,"arthritis_risk":5,"migraine_risk":4,"frizz_risk":0,"updated_at":"2026-04-11T04:11:11.284767+05:30"},{"city":"Ranchi","state":"Jharkhand","latitude":23.3441,"longitude":85.3096,"temp":19.7,"humidity":52,"rain":0.0,"pressure":939.3,"uv_index":9.05,"wind_gusts":33.8,"aqi":64,"pm10":39.6,"pm2_5":21.0,"mosquito_risk":0,"arthritis_risk":5,"migraine_risk":7,"frizz_risk":0,"updated_at":"2026-04-11T04:11:11.284773+05:30"},{"city":"Jamshedpur","state":"Jharkhand","latitude":22.8046,"longitude":86.2029,"temp":22.7,"humidity":82,"rain":0.0,"pressure":992.9,"uv_index":8.85,"wind_gusts":17.6,"aqi":119,"pm10":81.3,"pm2_5":62.9,"mosquito_risk":3,"arthritis_risk":5,"migraine_risk":7,"frizz_risk":1,"updated_at":"2026-04-11T04:11:11.284779+05:30"},{"city":"Dhanbad","state":"Jharkhand","latitude":23.7957,"longitude":86.4304,"temp":19.8,"humidity":71,"rain":0.0,"pressure":981.8,"uv_index":8.8,"wind_gusts":25.9,"aqi":119,"pm10":94.3,"pm2_5":80.6,"mosquito_risk":3,"arthritis_risk":5,"migraine_risk":7,"frizz_risk":0,"updated_at":"2026-04-11T04:11:11.284786+05:30"},{"city":"Bokaro","state":"Jharkhand","latitude":23.6693,"longitude":86.1511,"temp":21.1,"humidity":58,"rain":0.0,"pressure":986.3,"uv_index":8.8,"wind_gusts":27.7,"aqi":112,"pm10":88.2,"pm2_5":74.7,"mosquito_risk":0,"arthritis_risk":5,"migraine_risk":7,"frizz_risk":0,"updated_at":"2026-04-11T04:11:11.284792+05:30"},{"city":"Bhubaneswar","state":"Odisha","latitude":20.2961,"longitude":85.8245,"temp":26.1,"humidity":97,"rain":0.0,"pressure":1003.9,"uv_index":9.0,"wind_gusts":23.4,"aqi":120,"pm10":47.5,"pm2_5":41.7,"mosquito_risk":7,"arthritis_risk":5,"migraine_risk":4,"frizz_risk":1,"updated_at":"2026-04-11T04:11:11.284799+05:30"},{"city":"Cuttack","state":"Odisha","latitude":20.4625,"longitude":85.8828,"temp":26.4,"humidity":97,"rain":0.0,"pressure":1006.1,"uv_index":9.05,"wind_gusts":18.7,"aqi":120,"pm10":47.5,"pm2_5":41.7,"mosquito_risk":7,"arthritis_risk":5,"migraine_risk":4,"frizz_risk":1,"updated_at":"2026-04-11T04:11:11.284805+05:30"},{"city":"Rourkela","state":"Odisha","latitude":22.2604,"longitude":84.8536,"temp":21.3,"humidity":85,"rain":0.0,"pressure":987.0,"uv_index":8.75,"wind_gusts":17.3,"aqi":78,"pm10":53.1,"pm2_5":40.5,"mosquito_risk":3,"arthritis_risk":5,"migraine_risk":7,"frizz_risk":1,"updated_at":"2026-04-11T04:11:11.284811+05:30"},{"city":"Raipur","state":"Chhattisgarh","latitude":21.2514,"longitude":81.6296,"temp":23.7,"humidity":46,"rain":0.0,"pressure":976.5,"uv_index":8.85,"wind_gusts":19.8,"aqi":109,"pm10":60.1,"pm2_5":47.3,"mosquito_risk":0,"arthritis_risk":5,"migraine_risk":7,"frizz_risk":0,"updated_at":"2026-04-11T04:11:11.284817+05:30"},{"city":"Bhilai","state":"Chhattisgarh","latitude":21.1938,"longitude":81.3509,"temp":22.8,"humidity":45,"rain":0.0,"pressure":976.8,"uv_index":8.85,"wind_gusts":17.6,"aqi":110,"pm10":54.1,"pm2_5":37.8,"mosquito_risk":0,"arthritis_risk":5,"migraine_risk":7,"frizz_risk":0,"updated_at":"2026-04-11T04:11:11.284824+05:30"},{"city":"Guwahati","state":"Assam","latitude":26.1158,"longitude":91.7086,"temp":21.0,"humidity":89,"rain":0.0,"pressure":1003.9,"uv_index":8.3,"wind_gusts":20.9,"aqi":95,"pm10":45.3,"pm2_5":40.2,"mosquito_risk":3,"arthritis_risk":5,"migraine_risk":4,"frizz_risk":1,"updated_at":"2026-04-11T04:11:11.284829+05:30"},{"city":"Agartala","state":"Tripura","latitude":23.8315,"longitude":91.2868,"temp":20.0,"humidity":100,"rain":0.0,"pressure":1008.4,"uv_index":8.6,"wind_gusts":26.3,"aqi":151,"pm10":62.6,"pm2_5":52.6,"mosquito_risk":3,"arthritis_risk":0,"migraine_risk":4,"frizz_risk":1,"updated_at":"2026-04-11T04:11:11.284836+05:30"},{"city":"Shillong","state":"Meghalaya","latitude":25.5788,"longitude":91.8933,"temp":10.6,"humidity":68,"rain":0.0,"pressure":854.8,"uv_index":8.75,"wind_gusts":55.8,"aqi":78,"pm10":37.3,"pm2_5":31.4,"mosquito_risk":3,"arthritis_risk":5,"migraine_risk":7,"frizz_risk":0,"updated_at":"2026-04-11T04:11:11.284842+05:30"},{"city":"Imphal","state":"Manipur","latitude":24.817,"longitude":93.9368,"temp":13.5,"humidity":86,"rain":0.0,"pressure":923.5,"uv_index":8.95,"wind_gusts":51.5,"aqi":89,"pm10":67.1,"pm2_5":49.8,"mosquito_risk":3,"arthritis_risk":10,"migraine_risk":7,"frizz_risk":0,"updated_at":"2026-04-11T04:11:11.284849+05:30"},{"city":"Aizawl","state":"Mizoram","latitude":23.7271,"longitude":92.7176,"temp":13.9,"humidity":89,"rain":0.0,"pressure":892.5,"uv_index":8.8,"wind_gusts":40.7,"aqi":81,"pm10":52.7,"pm2_5":35.6,"mosquito_risk":3,"arthritis_risk":10,"migraine_risk":7,"frizz_risk":0,"updated_at":"2026-04-11T04:11:11.284856+05:30"},{"city":"Kohima","state":"Nagaland","latitude":25.6701,"longitude":94.1077,"temp":10.7,"humidity":84,"rain":0.0,"pressure":853.4,"uv_index":8.85,"wind_gusts":77.8,"aqi":64,"pm10":39.5,"pm2_5":29.9,"mosquito_risk":3,"arthritis_risk":10,"migraine_risk":7,"frizz_risk":0,"updated_at":"2026-04-11T04:11:11.284863+05:30"},{"city":"Gangtok","state":"Sikkim","latitude":27.3314,"longitude":88.6138,"temp":11.1,"humidity":86,"rain":0.0,"pressure":835.4,"uv_index":8.2,"wind_gusts":18.7,"aqi":73,"pm10":36.8,"pm2_5":27.3,"mosquito_risk":3,"arthritis_risk":10,"migraine_risk":7,"frizz_risk":0,"updated_at":"2026-04-11T04:11:11.284869+05:30"},{"city":"Siliguri","state":"West Bengal","latitude":26.7271,"longitude":88.3953,"temp":17.8,"humidity":65,"rain":0.0,"pressure":995.8,"uv_index":8.35,"wind_gusts":17.6,"aqi":109,"pm10":77.5,"pm2_5":59.1,"mosquito_risk":3,"arthritis_risk":5,"migraine_risk":7,"frizz_risk":0,"updated_at":"2026-04-11T04:11:14.512698+05:30"},{"city":"Durgapur","state":"West Bengal","latitude":23.5204,"longitude":87.3119,"temp":23.3,"humidity":64,"rain":0.0,"pressure":997.0,"uv_index":8.75,"wind_gusts":20.2,"aqi":117,"pm10":75.9,"pm2_5":62.6,"mosquito_risk":3,"arthritis_risk":5,"migraine_risk":7,"frizz_risk":1,"updated_at":"2026-04-11T04:11:14.512731+05:30"},{"city":"Asansol","state":"West Bengal","latitude":23.6739,"longitude":86.9524,"temp":23.5,"humidity":57,"rain":0.0,"pressure":995.8,"uv_index":8.8,"wind_gusts":21.6,"aqi":96,"pm10":60.8,"pm2_5":47.4,"mosquito_risk":0,"arthritis_risk":5,"migraine_risk":7,"frizz_risk":0,"updated_at":"2026-04-11T04:11:14.512742+05:30"},{"city":"Pondicherry","state":"Puducherry","latitude":11.9139,"longitude":79.8145,"temp":26.8,"humidity":95,"rain":0.0,"pressure":1009.8,"uv_index":9.35,"wind_gusts":36.0,"aqi":59,"pm10":18.8,"pm2_5":12.9,"mosquito_risk":7,"arthritis_risk":0,"migraine_risk":4,"frizz_risk":1,"updated_at":"2026-04-11T04:11:14.512750+05:30"},{"city":"Port Blair","state":"Andaman and Nicobar Islands","latitude":11.6234,"longitude":92.7265,"temp":28.3,"humidity":78,"rain":0.0,"pressure":1008.0,"uv_index":9.25,"wind_gusts":24.1,"aqi":29,"pm10":7.1,"pm2_5":4.7,"mosquito_risk":7,"arthritis_risk":0,"migraine_risk":4,"frizz_risk":1,"updated_at":"2026-04-11T04:11:14.512759+05:30"},{"city":"Haridwar","state":"Uttarakhand","latitude":29.9457,"longitude":78.1642,"temp":15.6,"humidity":83,"rain":0.0,"pressure":975.6,"uv_index":7.0,"wind_gusts":42.8,"aqi":64,"pm10":23.6,"pm2_5":22.5,"mosquito_risk":3,"arthritis_risk":10,"migraine_risk":7,"frizz_risk":0,"updated_at":"2026-04-11T04:11:14.512766+05:30"},{"city":"Rishikesh","state":"Uttarakhand","latitude":30.0869,"longitude":78.2676,"temp":16.3,"humidity":76,"rain":0.0,"pressure":968.2,"uv_index":7.05,"wind_gusts":41.4,"aqi":52,"pm10":18.5,"pm2_5":13.9,"mosquito_risk":3,"arthritis_risk":5,"migraine_risk":7,"frizz_risk":0,"updated_at":"2026-04-11T04:11:14.512773+05:30"},{"city":"Nainital","state":"Uttarakhand","latitude":29.3919,"longitude":79.4542,"temp":15.7,"humidity":49,"rain":0.0,"pressure":804.6,"uv_index":7.9,"wind_gusts":64.8,"aqi":65,"pm10":32.2,"pm2_5":14.0,"mosquito_risk":0,"arthritis_risk":5,"migraine_risk":7,"frizz_risk":0,"updated_at":"2026-04-11T04:11:14.512780+05:30"},{"city":"Mussoorie","state":"Uttarakhand","latitude":30.4599,"longitude":78.0664,"temp":13.2,"humidity":52,"rain":0.0,"pressure":801.3,"uv_index":7.45,"wind_gusts":51.5,"aqi":56,"pm10":16.3,"pm2_5":15.1,"mosquito_risk":0,"arthritis_risk":5,"migraine_risk":7,"frizz_risk":0,"updated_at":"2026-04-11T04:11:14.512787+05:30"},{"city":"Dharamshala","state":"Himachal Pradesh","latitude":32.219,"longitude":76.3234,"temp":17.2,"humidity":42,"rain":0.0,"pressure":870.4,"uv_index":7.65,"wind_gusts":24.5,"aqi":94,"pm10":11.5,"pm2_5":5.8,"mosquito_risk":0,"arthritis_risk":5,"migraine_risk":7,"frizz_risk":0,"updated_at":"2026-04-11T04:11:14.512794+05:30"},{"city":"Dalhousie","state":"Himachal Pradesh","latitude":32.5387,"longitude":75.971,"temp":12.8,"humidity":56,"rain":0.0,"pressure":803.5,"uv_index":7.65,"wind_gusts":20.2,"aqi":51,"pm10":15.5,"pm2_5":12.9,"mosquito_risk":0,"arthritis_risk":5,"migraine_risk":7,"frizz_risk":0,"updated_at":"2026-04-11T04:11:14.512801+05:30"},{"city":"Patiala","state":"Punjab","latitude":30.3398,"longitude":76.3869,"temp":19.4,"humidity":66,"rain":0.0,"pressure":981.5,"uv_index":7.05,"wind_gusts":35.3,"aqi":776,"pm10":814.0,"pm2_5":84.1,"mosquito_risk":3,"arthritis_risk":5,"migraine_risk":7,"frizz_risk":0,"updated_at":"2026-04-11T04:11:14.512808+05:30"},{"city":"Bhatinda","state":"Punjab","latitude":30.211,"longitude":74.9455,"temp":20.7,"humidity":64,"rain":0.0,"pressure":987.8,"uv_index":7.4,"wind_gusts":28.8,"aqi":65,"pm10":53.8,"pm2_5":17.2,"mosquito_risk":3,"arthritis_risk":5,"migraine_risk":7,"frizz_risk":0,"updated_at":"2026-04-11T04:11:14.512816+05:30"},{"city":"Rohtak","state":"Haryana","latitude":28.8955,"longitude":76.6066,"temp":19.4,"humidity":64,"rain":0.0,"pressure":984.9,"uv_index":7.2,"wind_gusts":37.4,"aqi":1078,"pm10":910.8,"pm2_5":132.2,"mosquito_risk":3,"arthritis_risk":5,"migraine_risk":7,"frizz_risk":0,"updated_at":"2026-04-11T04:11:14.512822+05:30"},{"city":"Panipat","state":"Haryana","latitude":29.3909,"longitude":76.9635,"temp":19.6,"humidity":63,"rain":0.0,"pressure":983.2,"uv_index":7.0,"wind_gusts":34.6,"aqi":2053,"pm10":1788.1,"pm2_5":204.0,"mosquito_risk":3,"arthritis_risk":5,"migraine_risk":7,"frizz_risk":0,"updated_at":"2026-04-11T04:11:14.512829+05:30"},{"city":"Mathura","state":"Uttar Pradesh","latitude":27.4924,"longitude":77.6737,"temp":22.4,"humidity":52,"rain":0.0,"pressure":989.9,"uv_index":7.5,"wind_gusts":32.0,"aqi":1365,"pm10":1400.7,"pm2_5":196.5,"mosquito_risk":0,"arthritis_risk":5,"migraine_risk":7,"frizz_risk":0,"updated_at":"2026-04-11T04:11:14.512836+05:30"},{"city":"Vrindavan","state":"Uttar Pradesh","latitude":27.5823,"longitude":77.7027,"temp":19.3,"humidity":66,"rain":0.0,"pressure":990.3,"uv_index":7.45,"wind_gusts":38.2,"aqi":1365,"pm10":1400.7,"pm2_5":196.5,"mosquito_risk":3,"arthritis_risk":5,"migraine_risk":7,"frizz_risk":0,"updated_at":"2026-04-11T04:11:14.512842+05:30"},{"city":"Ayodhya","state":"Uttar Pradesh","latitude":26.7922,"longitude":82.1998,"temp":19.7,"humidity":59,"rain":0.0,"pressure":996.7,"uv_index":7.85,"wind_gusts":45.7,"aqi":91,"pm10":425.6,"pm2_5":89.6,"mosquito_risk":0,"arthritis_risk":5,"migraine_risk":7,"frizz_risk":0,"updated_at":"2026-04-11T04:11:14.512849+05:30"},{"city":"Ratlam","state":"Madhya Pradesh","latitude":23.3315,"longitude":75.0367,"temp":19.6,"humidity":64,"rain":0.0,"pressure":956.8,"uv_index":8.35,"wind_gusts":20.2,"aqi":53,"pm10":29.2,"pm2_5":17.9,"mosquito_risk":3,"arthritis_risk":5,"migraine_risk":7,"frizz_risk":0,"updated_at":"2026-04-11T04:11:14.512855+05:30"},{"city":"Sagar","state":"Madhya Pradesh","latitude":23.8388,"longitude":78.7378,"temp":21.3,"humidity":40,"rain":0.0,"pressure":952.8,"uv_index":8.5,"wind_gusts":26.6,"aqi":65,"pm10":21.0,"pm2_5":12.3,"mosquito_risk":0,"arthritis_risk":5,"migraine_risk":7,"frizz_risk":0,"updated_at":"2026-04-11T04:11:14.512862+05:30"},{"city":"Satna","state":"Madhya Pradesh","latitude":24.6005,"longitude":80.8322,"temp":21.1,"humidity":45,"rain":0.0,"pressure":974.1,"uv_index":8.5,"wind_gusts":33.8,"aqi":62,"pm10":34.1,"pm2_5":11.8,"mosquito_risk":0,"arthritis_risk":5,"migraine_risk":7,"frizz_risk":0,"updated_at":"2026-04-11T04:11:14.512868+05:30"},{"city":"Akola","state":"Maharashtra","latitude":20.7002,"longitude":77.0082,"temp":26.0,"humidity":43,"rain":0.0,"pressure":976.8,"uv_index":8.7,"wind_gusts":24.8,"aqi":79,"pm10":33.8,"pm2_5":24.2,"mosquito_risk":4,"arthritis_risk":5,"migraine_risk":7,"frizz_risk":0,"updated_at":"2026-04-11T04:11:14.512875+05:30"},{"city":"Amravati","state":"Maharashtra","latitude":20.9374,"longitude":77.7796,"temp":24.2,"humidity":45,"rain":0.0,"pressure":968.8,"uv_index":8.75,"wind_gusts":22.3,"aqi":76,"pm10":25.9,"pm2_5":16.2,"mosquito_risk":0,"arthritis_risk":5,"migraine_risk":7,"frizz_risk":0,"updated_at":"2026-04-11T04:11:14.512882+05:30"},{"city":"Latur","state":"Maharashtra","latitude":18.4088,"longitude":76.5604,"temp":26.0,"humidity":53,"rain":0.0,"pressure":940.3,"uv_index":9.0,"wind_gusts":17.6,"aqi":71,"pm10":41.2,"pm2_5":27.3,"mosquito_risk":4,"arthritis_risk":5,"migraine_risk":7,"frizz_risk":0,"updated_at":"2026-04-11T04:11:14.512888+05:30"},{"city":"Nanded","state":"Maharashtra","latitude":19.1383,"longitude":77.3091,"temp":25.7,"humidity":59,"rain":0.0,"pressure":969.5,"uv_index":8.9,"wind_gusts":15.5,"aqi":79,"pm10":51.6,"pm2_5":41.4,"mosquito_risk":4,"arthritis_risk":5,"migraine_risk":7,"frizz_risk":1,"updated_at":"2026-04-11T04:11:14.512894+05:30"},{"city":"Gulbarga","state":"Karnataka","latitude":17.3297,"longitude":76.8343,"temp":29.0,"humidity":44,"rain":0.0,"pressure":959.2,"uv_index":9.1,"wind_gusts":19.8,"aqi":67,"pm10":21.1,"pm2_5":16.2,"mosquito_risk":4,"arthritis_risk":5,"migraine_risk":7,"frizz_risk":0,"updated_at":"2026-04-11T04:11:14.512899+05:30"},{"city":"Bidar","state":"Karnataka","latitude":17.9104,"longitude":77.5199,"temp":27.0,"humidity":48,"rain":0.0,"pressure":936.2,"uv_index":9.05,"wind_gusts":29.2,"aqi":71,"pm10":36.7,"pm2_5":25.7,"mosquito_risk":4,"arthritis_risk":5,"migraine_risk":7,"frizz_risk":0,"updated_at":"2026-04-11T04:11:14.512905+05:30"},{"city":"Hospet","state":"Karnataka","latitude":15.2689,"longitude":76.3909,"temp":28.0,"humidity":64,"rain":0.0,"pressure":956.5,"uv_index":9.25,"wind_gusts":24.1,"aqi":77,"pm10":35.4,"pm2_5":27.8,"mosquito_risk":7,"arthritis_risk":5,"migraine_risk":7,"frizz_risk":1,"updated_at":"2026-04-11T04:11:14.512911+05:30"},{"city":"Tirupur","state":"Tamil Nadu","latitude":11.1085,"longitude":77.3411,"temp":26.3,"humidity":77,"rain":0.0,"pressure":976.7,"uv_index":9.25,"wind_gusts":26.6,"aqi":75,"pm10":29.6,"pm2_5":23.2,"mosquito_risk":7,"arthritis_risk":5,"migraine_risk":7,"frizz_risk":1,"updated_at":"2026-04-11T04:11:14.512917+05:30"},{"city":"Alappuzha","state":"Kerala","latitude":9.4981,"longitude":76.3388,"temp":26.2,"humidity":84,"rain":0.0,"pressure":1010.2,"uv_index":7.4,"wind_gusts":29.9,"aqi":72,"pm10":16.3,"pm2_5":11.6,"mosquito_risk":7,"arthritis_risk":0,"migraine_risk":4,"frizz_risk":1,"updated_at":"2026-04-11T04:11:14.512923+05:30"},{"city":"Munnar","state":"Kerala","latitude":10.0889,"longitude":77.0595,"temp":20.5,"humidity":84,"rain":0.0,"pressure":857.1,"uv_index":8.05,"wind_gusts":37.8,"aqi":80,"pm10":30.4,"pm2_5":28.5,"mosquito_risk":3,"arthritis_risk":5,"migraine_risk":7,"frizz_risk":1,"updated_at":"2026-04-11T04:11:14.512930+05:30"},{"city":"Silchar","state":"Assam","latitude":24.8333,"longitude":92.7789,"temp":19.0,"humidity":93,"rain":0.0,"pressure":1007.8,"uv_index":8.6,"wind_gusts":25.2,"aqi":129,"pm10":79.2,"pm2_5":57.4,"mosquito_risk":3,"arthritis_risk":10,"migraine_risk":4,"frizz_risk":1,"updated_at":"2026-04-11T04:11:14.512936+05:30"},{"city":"Dibrugarh","state":"Assam","latitude":27.4728,"longitude":94.912,"temp":18.7,"humidity":100,"rain":0.0,"pressure":998.8,"uv_index":8.4,"wind_gusts":20.2,"aqi":97,"pm10":33.4,"pm2_5":26.7,"mosquito_risk":3,"arthritis_risk":10,"migraine_risk":7,"frizz_risk":1,"updated_at":"2026-04-11T04:11:14.512942+05:30"}]