[{"city":"Delhi","state":"Delhi","latitude":28.6139,"longitude":77.209,"temp":39.2,"humidity":16,"rain":0.0,"pressure":981.0,"uv_index":7.1,"wind_gusts":50.4,"aqi":417,"pm10":841.9,"pm2_5":100.8,"mosquito_risk":0,"arthritis_risk":5,"migraine_risk":10,"frizz_risk":0,"updated_at":"2026-04-25T17:10:42.447353+05:30"},{"city":"Mumbai","state":"Maharashtra","latitude":19.076,"longitude":72.8777,"temp":35.7,"humidity":39,"rain":0.0,"pressure":1004.2,"uv_index":8.0,"wind_gusts":44.6,"aqi":119,"pm10":43.7,"pm2_5":29.7,"mosquito_risk":0,"arthritis_risk":5,"migraine_risk":7,"frizz_risk":1,"updated_at":"2026-04-25T17:10:42.447399+05:30"},{"city":"Bangalore","state":"Karnataka","latitude":12.9716,"longitude":77.5946,"temp":33.7,"humidity":24,"rain":0.0,"pressure":911.5,"uv_index":9.3,"wind_gusts":37.1,"aqi":111,"pm10":33.2,"pm2_5":26.4,"mosquito_risk":0,"arthritis_risk":5,"migraine_risk":7,"frizz_risk":0,"updated_at":"2026-04-25T17:10:42.447413+05:30"},{"city":"Hyderabad","state":"Telangana","latitude":17.385,"longitude":78.4867,"temp":37.3,"humidity":20,"rain":0.0,"pressure":952.2,"uv_index":9.3,"wind_gusts":31.7,"aqi":163,"pm10":46.4,"pm2_5":39.0,"mosquito_risk":0,"arthritis_risk":5,"migraine_risk":10,"frizz_risk":0,"updated_at":"2026-04-25T17:10:42.447424+05:30"},{"city":"Chennai","state":"Tamil Nadu","latitude":13.0827,"longitude":80.2707,"temp":31.8,"humidity":66,"rain":0.0,"pressure":1005.4,"uv_index":9.3,"wind_gusts":51.1,"aqi":31,"pm10":13.4,"pm2_5":8.8,"mosquito_risk":3,"arthritis_risk":5,"migraine_risk":4,"frizz_risk":1,"updated_at":"2026-04-25T17:10:42.447431+05:30"},{"city":"Kolkata","state":"West Bengal","latitude":22.5726,"longitude":88.3639,"temp":32.4,"humidity":64,"rain":0.0,"pressure":1003.5,"uv_index":8.55,"wind_gusts":43.9,"aqi":78,"pm10":25.4,"pm2_5":19.4,"mosquito_risk":3,"arthritis_risk":5,"migraine_risk":4,"frizz_risk":1,"updated_at":"2026-04-25T17:10:42.447443+05:30"},{"city":"Pune","state":"Maharashtra","latitude":18.5204,"longitude":73.8567,"temp":38.9,"humidity":12,"rain":0.0,"pressure":946.0,"uv_index":8.35,"wind_gusts":37.8,"aqi":151,"pm10":34.2,"pm2_5":27.5,"mosquito_risk":0,"arthritis_risk":5,"migraine_risk":10,"frizz_risk":0,"updated_at":"2026-04-25T17:10:42.447450+05:30"},{"city":"Ahmedabad","state":"Gujarat","latitude":23.0225,"longitude":72.5714,"temp":42.9,"humidity":11,"rain":0.0,"pressure":998.3,"uv_index":8.2,"wind_gusts":24.1,"aqi":64,"pm10":41.9,"pm2_5":14.3,"mosquito_risk":0,"arthritis_risk":5,"migraine_risk":10,"frizz_risk":0,"updated_at":"2026-04-25T17:10:42.447457+05:30"},{"city":"Jaipur","state":"Rajasthan","latitude":26.9124,"longitude":75.7873,"temp":39.7,"humidity":14,"rain":0.0,"pressure":958.8,"uv_index":8.05,"wind_gusts":31.0,"aqi":123,"pm10":184.9,"pm2_5":31.5,"mosquito_risk":0,"arthritis_risk":5,"migraine_risk":10,"frizz_risk":0,"updated_at":"2026-04-25T17:10:42.447463+05:30"},{"city":"Lucknow","state":"Uttar Pradesh","latitude":26.8467,"longitude":80.9462,"temp":42.3,"humidity":12,"rain":0.0,"pressure":988.9,"uv_index":7.9,"wind_gusts":43.6,"aqi":158,"pm10":147.1,"pm2_5":33.6,"mosquito_risk":0,"arthritis_risk":5,"migraine_risk":10,"frizz_risk":0,"updated_at":"2026-04-25T17:10:42.447469+05:30"},{"city":"Kanpur","state":"Uttar Pradesh","latitude":26.4499,"longitude":80.3319,"temp":42.7,"humidity":11,"rain":0.0,"pressure":987.2,"uv_index":7.9,"wind_gusts":45.4,"aqi":158,"pm10":406.1,"pm2_5":51.0,"mosquito_risk":0,"arthritis_risk":5,"migraine_risk":10,"frizz_risk":0,"updated_at":"2026-04-25T17:10:42.447475+05:30"},{"city":"Chandigarh","state":"Chandigarh","latitude":30.7333,"longitude":76.7794,"temp":34.5,"humidity":26,"rain":0.0,"pressure":968.1,"uv_index":7.25,"wind_gusts":58.3,"aqi":84,"pm10":46.7,"pm2_5":17.6,"mosquito_risk":0,"arthritis_risk":5,"migraine_risk":7,"frizz_risk":0,"updated_at":"2026-04-25T17:10:42.447482+05:30"},{"city":"Srinagar","state":"Jammu and Kashmir","latitude":34.0837,"longitude":74.7973,"temp":19.0,"humidity":63,"rain":0.0,"pressure":845.5,"uv_index":8.6,"wind_gusts":36.7,"aqi":74,"pm10":34.2,"pm2_5":14.6,"mosquito_risk":3,"arthritis_risk":5,"migraine_risk":7,"frizz_risk":0,"updated_at":"2026-04-25T17:10:42.447488+05:30"},{"city":"Jammu","state":"Jammu and Kashmir","latitude":32.7266,"longitude":74.857,"temp":34.6,"humidity":24,"rain":0.0,"pressure":972.7,"uv_index":8.2,"wind_gusts":27.7,"aqi":77,"pm10":122.9,"pm2_5":27.8,"mosquito_risk":0,"arthritis_risk":5,"migraine_risk":7,"frizz_risk":0,"updated_at":"2026-04-25T17:10:42.447494+05:30"},{"city":"Amritsar","state":"Punjab","latitude":31.634,"longitude":74.8723,"temp":36.8,"humidity":22,"rain":0.0,"pressure":980.2,"uv_index":8.1,"wind_gusts":33.5,"aqi":83,"pm10":155.1,"pm2_5":35.0,"mosquito_risk":0,"arthritis_risk":5,"migraine_risk":10,"frizz_risk":0,"updated_at":"2026-04-25T17:10:42.447499+05:30"},{"city":"Ludhiana","state":"Punjab","latitude":30.901,"longitude":75.8573,"temp":36.2,"humidity":21,"rain":0.0,"pressure":978.2,"uv_index":7.7,"wind_gusts":48.6,"aqi":80,"pm10":94.1,"pm2_5":23.3,"mosquito_risk":0,"arthritis_risk":5,"migraine_risk":10,"frizz_risk":0,"updated_at":"2026-04-25T17:10:42.447506+05:30"},{"city":"Jalandhar","state":"Punjab","latitude":31.326,"longitude":75.5762,"temp":36.1,"humidity":22,"rain":0.0,"pressure":979.2,"uv_index":7.9,"wind_gusts":38.5,"aqi":88,"pm10":126.2,"pm2_5":26.0,"mosquito_risk":0,"arthritis_risk":5,"migraine_risk":10,"frizz_risk":0,"updated_at":"2026-04-25T17:10:42.447512+05:30"},{"city":"Dehradun","state":"Uttarakhand","latitude":30.6284,"longitude":78.0322,"temp":24.8,"humidity":35,"rain":0.0,"pressure":832.6,"uv_index":7.85,"wind_gusts":52.9,"aqi":80,"pm10":29.0,"pm2_5":11.5,"mosquito_risk":0,"arthritis_risk":5,"migraine_risk":7,"frizz_risk":0,"updated_at":"2026-04-25T17:10:42.447518+05:30"},{"city":"Shimla","state":"Himachal Pradesh","latitude":31.1048,"longitude":77.1734,"temp":20.3,"humidity":34,"rain":0.0,"pressure":788.0,"uv_index":7.6,"wind_gusts":55.8,"aqi":66,"pm10":50.8,"pm2_5":14.6,"mosquito_risk":0,"arthritis_risk":5,"migraine_risk":7,"frizz_risk":0,"updated_at":"2026-04-25T17:10:42.447523+05:30"},{"city":"Manali","state":"Himachal Pradesh","latitude":32.2396,"longitude":77.1887,"temp":17.2,"humidity":58,"rain":0.0,"pressure":820.8,"uv_index":9.85,"wind_gusts":43.9,"aqi":109,"pm10":36.9,"pm2_5":9.4,"mosquito_risk":0,"arthritis_risk":5,"migraine_risk":7,"frizz_risk":0,"updated_at":"2026-04-25T17:10:42.447529+05:30"},{"city":"Gurgaon","state":"Haryana","latitude":28.4595,"longitude":77.0266,"temp":38.5,"humidity":17,"rain":0.0,"pressure":979.8,"uv_index":7.5,"wind_gusts":51.1,"aqi":1003,"pm10":1929.7,"pm2_5":184.9,"mosquito_risk":0,"arthritis_risk":5,"migraine_risk":10,"frizz_risk":0,"updated_at":"2026-04-25T17:10:42.447534+05:30"},{"city":"Noida","state":"Uttar Pradesh","latitude":28.5355,"longitude":77.391,"temp":39.0,"humidity":17,"rain":0.0,"pressure":982.1,"uv_index":7.4,"wind_gusts":43.9,"aqi":1003,"pm10":1929.7,"pm2_5":184.9,"mosquito_risk":0,"arthritis_risk":5,"migraine_risk":10,"frizz_risk":0,"updated_at":"2026-04-25T17:10:42.447540+05:30"},{"city":"Ghaziabad","state":"Uttar Pradesh","latitude":28.6692,"longitude":77.4538,"temp":39.3,"humidity":16,"rain":0.0,"pressure":980.3,"uv_index":7.4,"wind_gusts":50.8,"aqi":197,"pm10":624.0,"pm2_5":78.0,"mosquito_risk":0,"arthritis_risk":5,"migraine_risk":10,"frizz_risk":0,"updated_at":"2026-04-25T17:10:42.447546+05:30"},{"city":"Faridabad","state":"Haryana","latitude":28.4089,"longitude":77.3178,"temp":39.2,"humidity":16,"rain":0.0,"pressure":981.6,"uv_index":7.5,"wind_gusts":52.6,"aqi":1003,"pm10":1929.7,"pm2_5":184.9,"mosquito_risk":0,"arthritis_risk":5,"migraine_risk":10,"frizz_risk":0,"updated_at":"2026-04-25T17:10:42.447551+05:30"},{"city":"Meerut","state":"Uttar Pradesh","latitude":28.9845,"longitude":77.7064,"temp":37.4,"humidity":21,"rain":0.0,"pressure":978.9,"uv_index":7.35,"wind_gusts":55.4,"aqi":197,"pm10":624.0,"pm2_5":78.0,"mosquito_risk":0,"arthritis_risk":5,"migraine_risk":10,"frizz_risk":0,"updated_at":"2026-04-25T17:10:42.447556+05:30"},{"city":"Agra","state":"Uttar Pradesh","latitude":27.1767,"longitude":78.0081,"temp":41.3,"humidity":12,"rain":0.0,"pressure":984.7,"uv_index":7.8,"wind_gusts":45.0,"aqi":308,"pm10":881.0,"pm2_5":94.3,"mosquito_risk":0,"arthritis_risk":5,"migraine_risk":10,"frizz_risk":0,"updated_at":"2026-04-25T17:10:42.447563+05:30"},{"city":"Varanasi","state":"Uttar Pradesh","latitude":25.3176,"longitude":82.9739,"temp":42.0,"humidity":11,"rain":0.0,"pressure":992.8,"uv_index":8.5,"wind_gusts":41.0,"aqi":151,"pm10":156.9,"pm2_5":34.2,"mosquito_risk":0,"arthritis_risk":5,"migraine_risk":10,"frizz_risk":0,"updated_at":"2026-04-25T17:10:42.447569+05:30"},{"city":"Prayagraj","state":"Uttar Pradesh","latitude":25.4358,"longitude":81.8463,"temp":41.5,"humidity":14,"rain":0.0,"pressure":991.2,"uv_index":8.4,"wind_gusts":29.5,"aqi":149,"pm10":173.7,"pm2_5":33.1,"mosquito_risk":0,"arthritis_risk":5,"migraine_risk":10,"frizz_risk":0,"updated_at":"2026-04-25T17:10:42.447575+05:30"},{"city":"Gorakhpur","state":"Uttar Pradesh","latitude":26.7606,"longitude":83.3732,"temp":35.3,"humidity":39,"rain":0.0,"pressure":993.9,"uv_index":8.3,"wind_gusts":41.4,"aqi":188,"pm10":177.9,"pm2_5":43.5,"mosquito_risk":0,"arthritis_risk":5,"migraine_risk":10,"frizz_risk":1,"updated_at":"2026-04-25T17:10:42.447581+05:30"},{"city":"Bareilly","state":"Uttar Pradesh","latitude":28.367,"longitude":79.4304,"temp":39.0,"humidity":17,"rain":0.0,"pressure":983.2,"uv_index":7.7,"wind_gusts":48.2,"aqi":169,"pm10":56.2,"pm2_5":22.5,"mosquito_risk":0,"arthritis_risk":5,"migraine_risk":10,"frizz_risk":0,"updated_at":"2026-04-25T17:10:42.447586+05:30"},{"city":"Aligarh","state":"Uttar Pradesh","latitude":27.8974,"longitude":78.088,"temp":40.5,"humidity":14,"rain":0.0,"pressure":982.5,"uv_index":7.6,"wind_gusts":47.9,"aqi":338,"pm10":862.4,"pm2_5":97.6,"mosquito_risk":0,"arthritis_risk":5,"migraine_risk":10,"frizz_risk":0,"updated_at":"2026-04-25T17:10:42.447592+05:30"},{"city":"Moradabad","state":"Uttar Pradesh","latitude":28.8386,"longitude":78.7733,"temp":38.4,"humidity":21,"rain":0.0,"pressure":980.6,"uv_index":7.55,"wind_gusts":49.3,"aqi":191,"pm10":61.7,"pm2_5":23.7,"mosquito_risk":0,"arthritis_risk":5,"migraine_risk":10,"frizz_risk":0,"updated_at":"2026-04-25T17:10:42.447597+05:30"},{"city":"Saharanpur","state":"Uttar Pradesh","latitude":29.9637,"longitude":77.546,"temp":35.4,"humidity":24,"rain":0.0,"pressure":973.7,"uv_index":7.15,"wind_gusts":53.6,"aqi":142,"pm10":232.8,"pm2_5":42.8,"mosquito_risk":0,"arthritis_risk":5,"migraine_risk":10,"frizz_risk":0,"updated_at":"2026-04-25T17:10:42.447602+05:30"},{"city":"Jhansi","state":"Uttar Pradesh","latitude":25.4484,"longitude":78.5685,"temp":42.1,"humidity":11,"rain":0.0,"pressure":974.5,"uv_index":8.3,"wind_gusts":29.5,"aqi":93,"pm10":132.2,"pm2_5":27.8,"mosquito_risk":0,"arthritis_risk":5,"migraine_risk":10,"frizz_risk":0,"updated_at":"2026-04-25T17:10:45.731968+05:30"},{"city":"Surat","state":"Gujarat","latitude":21.1702,"longitude":72.8311,"temp":41.7,"humidity":8,"rain":0.0,"pressure":1003.0,"uv_index":7.85,"wind_gusts":36.7,"aqi":107,"pm10":75.7,"pm2_5":48.2,"mosquito_risk":0,"arthritis_risk":5,"migraine_risk":7,"frizz_risk":0,"updated_at":"2026-04-25T17:10:45.731996+05:30"},{"city":"Vadodara","state":"Gujarat","latitude":22.3072,"longitude":73.1812,"temp":43.2,"humidity":11,"rain":0.0,"pressure":1000.2,"uv_index":8.15,"wind_gusts":25.2,"aqi":99,"pm10":45.4,"pm2_5":17.6,"mosquito_risk":0,"arthritis_risk":5,"migraine_risk":7,"frizz_risk":0,"updated_at":"2026-04-25T17:10:45.732007+05:30"},{"city":"Rajkot","state":"Gujarat","latitude":22.3039,"longitude":70.8022,"temp":40.5,"humidity":16,"rain":0.0,"pressure":991.7,"uv_index":7.9,"wind_gusts":33.1,"aqi":51,"pm10":60.1,"pm2_5":18.9,"mosquito_risk":0,"arthritis_risk":5,"migraine_risk":10,"frizz_risk":0,"updated_at":"2026-04-25T17:10:45.732015+05:30"},{"city":"Thane","state":"Maharashtra","latitude":19.2183,"longitude":72.9781,"temp":40.8,"humidity":17,"rain":0.0,"pressure":1003.0,"uv_index":8.0,"wind_gusts":47.5,"aqi":119,"pm10":43.7,"pm2_5":29.7,"mosquito_risk":0,"arthritis_risk":5,"migraine_risk":7,"frizz_risk":0,"updated_at":"2026-04-25T17:10:45.732023+05:30"},{"city":"Nagpur","state":"Maharashtra","latitude":21.1458,"longitude":79.0882,"temp":42.3,"humidity":10,"rain":0.0,"pressure":969.8,"uv_index":8.9,"wind_gusts":29.9,"aqi":175,"pm10":33.5,"pm2_5":24.6,"mosquito_risk":0,"arthritis_risk":5,"migraine_risk":10,"frizz_risk":0,"updated_at":"2026-04-25T17:10:45.732030+05:30"},{"city":"Nashik","state":"Maharashtra","latitude":19.9975,"longitude":73.7898,"temp":38.4,"humidity":14,"rain":0.0,"pressure":943.8,"uv_index":8.3,"wind_gusts":31.7,"aqi":115,"pm10":32.1,"pm2_5":20.0,"mosquito_risk":0,"arthritis_risk":5,"migraine_risk":10,"frizz_risk":0,"updated_at":"2026-04-25T17:10:45.732037+05:30"},{"city":"Aurangabad","state":"Maharashtra","latitude":19.8762,"longitude":75.3433,"temp":39.2,"humidity":13,"rain":0.0,"pressure":942.4,"uv_index":8.75,"wind_gusts":29.5,"aqi":135,"pm10":35.7,"pm2_5":25.2,"mosquito_risk":0,"arthritis_risk":5,"migraine_risk":10,"frizz_risk":0,"updated_at":"2026-04-25T17:10:45.732044+05:30"},{"city":"Solapur","state":"Maharashtra","latitude":17.6599,"longitude":75.9064,"temp":38.7,"humidity":17,"rain":0.0,"pressure":954.9,"uv_index":8.6,"wind_gusts":24.8,"aqi":160,"pm10":44.5,"pm2_5":37.4,"mosquito_risk":0,"arthritis_risk":5,"migraine_risk":10,"frizz_risk":0,"updated_at":"2026-04-25T17:10:45.732051+05:30"},{"city":"Kolhapur","state":"Maharashtra","latitude":16.705,"longitude":74.2433,"temp":37.2,"humidity":19,"rain":0.0,"pressure":945.9,"uv_index":9.05,"wind_gusts":34.2,"aqi":153,"pm10":52.5,"pm2_5":43.4,"mosquito_risk":0,"arthritis_risk":5,"migraine_risk":10,"frizz_risk":0,"updated_at":"2026-04-25T17:10:45.732058+05:30"},{"city":"Goa","state":"Goa","latitude":15.2993,"longitude":74.124,"temp":35.0,"humidity":57,"rain":0.0,"pressure":994.8,"uv_index":8.9,"wind_gusts":32.0,"aqi":81,"pm10":25.9,"pm2_5":18.8,"mosquito_risk":0,"arthritis_risk":5,"migraine_risk":7,"frizz_risk":1,"updated_at":"2026-04-25T17:10:45.732066+05:30"},{"city":"Jodhpur","state":"Rajasthan","latitude":26.2389,"longitude":73.0243,"temp":42.2,"humidity":12,"rain":0.0,"pressure":980.3,"uv_index":8.3,"wind_gusts":27.4,"aqi":85,"pm10":122.9,"pm2_5":23.7,"mosquito_risk":0,"arthritis_risk":5,"migraine_risk":10,"frizz_risk":0,"updated_at":"2026-04-25T17:10:45.732073+05:30"},{"city":"Udaipur","state":"Rajasthan","latitude":24.5854,"longitude":73.7125,"temp":37.6,"humidity":17,"rain":0.0,"pressure":945.7,"uv_index":8.8,"wind_gusts":42.5,"aqi":65,"pm10":82.2,"pm2_5":19.7,"mosquito_risk":0,"arthritis_risk":5,"migraine_risk":10,"frizz_risk":0,"updated_at":"2026-04-25T17:10:45.732080+05:30"},{"city":"Kota","state":"Rajasthan","latitude":25.2138,"longitude":75.8648,"temp":41.5,"humidity":13,"rain":0.0,"pressure":976.0,"uv_index":8.3,"wind_gusts":32.8,"aqi":104,"pm10":65.0,"pm2_5":19.1,"mosquito_risk":0,"arthritis_risk":5,"migraine_risk":10,"frizz_risk":0,"updated_at":"2026-04-25T17:10:45.732086+05:30"},{"city":"Bikaner","state":"Rajasthan","latitude":28.0229,"longitude":73.3119,"temp":41.8,"humidity":12,"rain":0.0,"pressure":979.7,"uv_index":8.15,"wind_gusts":33.8,"aqi":71,"pm10":117.3,"pm2_5":25.0,"mosquito_risk":0,"arthritis_risk":5,"migraine_risk":10,"frizz_risk":0,"updated_at":"2026-04-25T17:10:45.732093+05:30"},{"city":"Ajmer","state":"Rajasthan","latitude":26.4499,"longitude":74.6399,"temp":39.3,"humidity":13,"rain":0.0,"pressure":953.7,"uv_index":8.25,"wind_gusts":33.5,"aqi":87,"pm10":111.1,"pm2_5":24.2,"mosquito_risk":0,"arthritis_risk":5,"migraine_risk":10,"frizz_risk":0,"updated_at":"2026-04-25T17:10:45.732100+05:30"},{"city":"Gwalior","state":"Madhya Pradesh","latitude":26.2183,"longitude":78.1828,"temp":41.5,"humidity":12,"rain":0.0,"pressure":980.0,"uv_index":8.0,"wind_gusts":39.6,"aqi":99,"pm10":123.9,"pm2_5":28.1,"mosquito_risk":0,"arthritis_risk":5,"migraine_risk":10,"frizz_risk":0,"updated_at":"2026-04-25T17:10:45.732107+05:30"},{"city":"Indore","state":"Madhya Pradesh","latitude":22.7196,"longitude":75.8577,"temp":41.1,"humidity":10,"rain":0.0,"pressure":945.8,"uv_index":8.65,"wind_gusts":32.4,"aqi":77,"pm10":36.6,"pm2_5":11.8,"mosquito_risk":0,"arthritis_risk":5,"migraine_risk":10,"frizz_risk":0,"updated_at":"2026-04-25T17:10:45.732113+05:30"},{"city":"Bhopal","state":"Madhya Pradesh","latitude":23.2599,"longitude":77.4126,"temp":41.0,"humidity":9,"rain":0.0,"pressure":951.3,"uv_index":8.65,"wind_gusts":30.6,"aqi":104,"pm10":28.0,"pm2_5":11.0,"mosquito_risk":0,"arthritis_risk":5,"migraine_risk":10,"frizz_risk":0,"updated_at":"2026-04-25T17:10:45.732120+05:30"},{"city":"Jabalpur","state":"Madhya Pradesh","latitude":23.1815,"longitude":79.9864,"temp":40.7,"humidity":10,"rain":0.0,"pressure":958.9,"uv_index":8.75,"wind_gusts":32.0,"aqi":117,"pm10":27.5,"pm2_5":10.6,"mosquito_risk":0,"arthritis_risk":5,"migraine_risk":10,"frizz_risk":0,"updated_at":"2026-04-25T17:10:45.732126+05:30"},{"city":"Ujjain","state":"Madhya Pradesh","latitude":23.1765,"longitude":75.7885,"temp":40.8,"humidity":12,"rain":0.0,"pressure":951.4,"uv_index":8.55,"wind_gusts":29.2,"aqi":66,"pm10":49.0,"pm2_5":14.7,"mosquito_risk":0,"arthritis_risk":5,"migraine_risk":10,"frizz_risk":0,"updated_at":"2026-04-25T17:10:45.732134+05:30"},{"city":"Visakhapatnam","state":"Andhra Pradesh","latitude":17.6868,"longitude":83.2185,"temp":31.4,"humidity":70,"rain":0.0,"pressure":1002.0,"uv_index":8.7,"wind_gusts":44.3,"aqi":60,"pm10":17.5,"pm2_5":12.4,"mosquito_risk":3,"arthritis_risk":5,"migraine_risk":4,"frizz_risk":1,"updated_at":"2026-04-25T17:10:45.732140+05:30"},{"city":"Vijayawada","state":"Andhra Pradesh","latitude":16.5062,"longitude":80.648,"temp":37.0,"humidity":33,"rain":0.0,"pressure":1000.5,"uv_index":8.85,"wind_gusts":34.2,"aqi":53,"pm10":20.4,"pm2_5":14.5,"mosquito_risk":0,"arthritis_risk":5,"migraine_risk":7,"frizz_risk":1,"updated_at":"2026-04-25T17:10:45.732147+05:30"},{"city":"Guntur","state":"Andhra Pradesh","latitude":16.3067,"longitude":80.4365,"temp":35.0,"humidity":43,"rain":0.0,"pressure":1002.1,"uv_index":8.6,"wind_gusts":40.0,"aqi":55,"pm10":25.1,"pm2_5":18.3,"mosquito_risk":0,"arthritis_risk":5,"migraine_risk":4,"frizz_risk":1,"updated_at":"2026-04-25T17:10:45.732154+05:30"},{"city":"Nellore","state":"Andhra Pradesh","latitude":14.4426,"longitude":79.9865,"temp":33.3,"humidity":56,"rain":0.0,"pressure":1003.6,"uv_index":9.25,"wind_gusts":42.1,"aqi":46,"pm10":20.8,"pm2_5":15.1,"mosquito_risk":0,"arthritis_risk":5,"migraine_risk":4,"frizz_risk":1,"updated_at":"2026-04-25T17:10:45.732161+05:30"},{"city":"Kurnool","state":"Andhra Pradesh","latitude":15.8281,"longitude":78.0373,"temp":40.8,"humidity":16,"rain":0.0,"pressure":973.8,"uv_index":8.9,"wind_gusts":32.8,"aqi":111,"pm10":37.3,"pm2_5":29.1,"mosquito_risk":0,"arthritis_risk":5,"migraine_risk":10,"frizz_risk":0,"updated_at":"2026-04-25T17:10:45.732169+05:30"},{"city":"Kakinada","state":"Andhra Pradesh","latitude":16.9891,"longitude":82.2475,"temp":36.0,"humidity":46,"rain":0.0,"pressure":1005.0,"uv_index":8.45,"wind_gusts":39.6,"aqi":40,"pm10":13.9,"pm2_5":8.5,"mosquito_risk":0,"arthritis_risk":5,"migraine_risk":7,"frizz_risk":1,"updated_at":"2026-04-25T17:10:45.732176+05:30"},{"city":"Tirupati","state":"Andhra Pradesh","latitude":13.6288,"longitude":79.4192,"temp":38.0,"humidity":25,"rain":0.0,"pressure":988.4,"uv_index":9.35,"wind_gusts":37.4,"aqi":58,"pm10":27.0,"pm2_5":21.1,"mosquito_risk":0,"arthritis_risk":5,"migraine_risk":10,"frizz_risk":0,"updated_at":"2026-04-25T17:10:45.732183+05:30"},{"city":"Warangal","state":"Telangana","latitude":17.9689,"longitude":79.5941,"temp":38.0,"humidity":25,"rain":0.0,"pressure":976.8,"uv_index":9.0,"wind_gusts":28.1,"aqi":107,"pm10":44.2,"pm2_5":36.7,"mosquito_risk":0,"arthritis_risk":5,"migraine_risk":10,"frizz_risk":0,"updated_at":"2026-04-25T17:10:45.732189+05:30"},{"city":"Nizamabad","state":"Telangana","latitude":18.6725,"longitude":78.0941,"temp":39.5,"humidity":16,"rain":0.0,"pressure":962.5,"uv_index":8.75,"wind_gusts":27.7,"aqi":157,"pm10":41.9,"pm2_5":33.6,"mosquito_risk":0,"arthritis_risk":5,"migraine_risk":10,"frizz_risk":0,"updated_at":"2026-04-25T17:10:45.732196+05:30"},{"city":"Mysore","state":"Karnataka","latitude":12.2958,"longitude":76.6396,"temp":35.0,"humidity":21,"rain":0.0,"pressure":926.9,"uv_index":8.9,"wind_gusts":44.6,"aqi":113,"pm10":28.7,"pm2_5":22.9,"mosquito_risk":0,"arthritis_risk":5,"migraine_risk":7,"frizz_risk":0,"updated_at":"2026-04-25T17:10:45.732203+05:30"},{"city":"Mangalore","state":"Karnataka","latitude":12.9141,"longitude":74.856,"temp":31.9,"humidity":70,"rain":0.0,"pressure":1003.9,"uv_index":9.1,"wind_gusts":41.4,"aqi":87,"pm10":21.9,"pm2_5":16.9,"mosquito_risk":3,"arthritis_risk":5,"migraine_risk":4,"frizz_risk":1,"updated_at":"2026-04-25T17:10:45.732210+05:30"},{"city":"Hubli-Dharwad","state":"Karnataka","latitude":15.3647,"longitude":75.124,"temp":33.8,"humidity":30,"rain":0.0,"pressure":939.6,"uv_index":9.0,"wind_gusts":37.8,"aqi":155,"pm10":43.5,"pm2_5":35.9,"mosquito_risk":0,"arthritis_risk":5,"migraine_risk":7,"frizz_risk":0,"updated_at":"2026-04-25T17:10:45.732217+05:30"},{"city":"Belgaum","state":"Karnataka","latitude":15.8497,"longitude":74.4977,"temp":33.3,"humidity":31,"rain":0.0,"pressure":924.8,"uv_index":9.2,"wind_gusts":37.1,"aqi":153,"pm10":54.1,"pm2_5":43.8,"mosquito_risk":0,"arthritis_risk":5,"migraine_risk":7,"frizz_risk":0,"updated_at":"2026-04-25T17:10:49.005921+05:30"},{"city":"Coimbatore","state":"Tamil Nadu","latitude":11.0168,"longitude":76.9558,"temp":37.2,"humidity":22,"rain":0.0,"pressure":959.7,"uv_index":8.95,"wind_gusts":46.4,"aqi":76,"pm10":21.9,"pm2_5":17.9,"mosquito_risk":0,"arthritis_risk":5,"migraine_risk":10,"frizz_risk":0,"updated_at":"2026-04-25T17:10:49.005949+05:30"},{"city":"Madurai","state":"Tamil Nadu","latitude":9.9252,"longitude":78.1198,"temp":38.2,"humidity":25,"rain":0.0,"pressure":989.8,"uv_index":9.25,"wind_gusts":39.6,"aqi":54,"pm10":16.3,"pm2_5":13.6,"mosquito_risk":0,"arthritis_risk":5,"migraine_risk":10,"frizz_risk":0,"updated_at":"2026-04-25T17:10:49.005958+05:30"},{"city":"Trichy","state":"Tamil Nadu","latitude":10.7905,"longitude":78.7047,"temp":36.5,"humidity":36,"rain":0.0,"pressure":996.9,"uv_index":9.3,"wind_gusts":33.1,"aqi":51,"pm10":20.3,"pm2_5":15.5,"mosquito_risk":0,"arthritis_risk":5,"migraine_risk":10,"frizz_risk":1,"updated_at":"2026-04-25T17:10:49.005967+05:30"},{"city":"Salem","state":"Tamil Nadu","latitude":11.6643,"longitude":78.146,"temp":37.1,"humidity":25,"rain":0.0,"pressure":974.9,"uv_index":9.0,"wind_gusts":42.1,"aqi":63,"pm10":25.9,"pm2_5":20.4,"mosquito_risk":0,"arthritis_risk":5,"migraine_risk":10,"frizz_risk":0,"updated_at":"2026-04-25T17:10:49.005974+05:30"},{"city":"Tirunelveli","state":"Tamil Nadu","latitude":8.7139,"longitude":77.7567,"temp":35.1,"humidity":38,"rain":0.0,"pressure":1000.6,"uv_index":9.2,"wind_gusts":40.7,"aqi":64,"pm10":12.2,"pm2_5":11.0,"mosquito_risk":0,"arthritis_risk":5,"migraine_risk":7,"frizz_risk":1,"updated_at":"2026-04-25T17:10:49.005981+05:30"},{"city":"Vellore","state":"Tamil Nadu","latitude":12.9165,"longitude":79.1325,"temp":37.3,"humidity":27,"rain":0.0,"pressure":982.2,"uv_index":9.35,"wind_gusts":36.0,"aqi":79,"pm10":28.9,"pm2_5":23.5,"mosquito_risk":0,"arthritis_risk":5,"migraine_risk":10,"frizz_risk":0,"updated_at":"2026-04-25T17:10:49.005988+05:30"},{"city":"Erode","state":"Tamil Nadu","latitude":11.341,"longitude":77.7172,"temp":38.3,"humidity":21,"rain":0.0,"pressure":985.9,"uv_index":9.3,"wind_gusts":46.1,"aqi":50,"pm10":20.0,"pm2_5":16.2,"mosquito_risk":0,"arthritis_risk":5,"migraine_risk":10,"frizz_risk":0,"updated_at":"2026-04-25T17:10:49.005995+05:30"},{"city":"Kochi","state":"Kerala","latitude":9.9312,"longitude":76.2673,"temp":31.9,"humidity":67,"rain":0.0,"pressure":1005.3,"uv_index":8.4,"wind_gusts":39.2,"aqi":118,"pm10":22.1,"pm2_5":20.3,"mosquito_risk":3,"arthritis_risk":5,"migraine_risk":4,"frizz_risk":1,"updated_at":"2026-04-25T17:10:49.006002+05:30"},{"city":"Thiruvananthapuram","state":"Kerala","latitude":8.5241,"longitude":76.9366,"temp":29.3,"humidity":75,"rain":0.0,"pressure":1005.7,"uv_index":8.6,"wind_gusts":33.1,"aqi":73,"pm10":16.2,"pm2_5":13.4,"mosquito_risk":7,"arthritis_risk":5,"migraine_risk":4,"frizz_risk":1,"updated_at":"2026-04-25T17:10:49.006009+05:30"},{"city":"Kozhikode","state":"Kerala","latitude":11.2588,"longitude":75.7804,"temp":30.9,"humidity":75,"rain":0.0,"pressure":1004.8,"uv_index":8.7,"wind_gusts":37.1,"aqi":92,"pm10":18.4,"pm2_5":13.4,"mosquito_risk":3,"arthritis_risk":5,"migraine_risk":4,"frizz_risk":1,"updated_at":"2026-04-25T17:10:49.006016+05:30"},{"city":"Thrissur","state":"Kerala","latitude":10.5276,"longitude":76.2144,"temp":32.3,"humidity":63,"rain":0.0,"pressure":1003.7,"uv_index":8.1,"wind_gusts":44.3,"aqi":89,"pm10":18.3,"pm2_5":16.4,"mosquito_risk":3,"arthritis_risk":5,"migraine_risk":4,"frizz_risk":1,"updated_at":"2026-04-25T17:10:49.006023+05:30"},{"city":"Kannur","state":"Kerala","latitude":11.8745,"longitude":75.3704,"temp":32.2,"humidity":70,"rain":0.0,"pressure":1004.5,"uv_index":8.6,"wind_gusts":40.7,"aqi":82,"pm10":19.5,"pm2_5":14.8,"mosquito_risk":3,"arthritis_risk":5,"migraine_risk":4,"frizz_risk":1,"updated_at":"2026-04-25T17:10:49.006030+05:30"},{"city":"Patna","state":"Bihar","latitude":25.5941,"longitude":85.1376,"temp":33.5,"humidity":53,"rain":0.0,"pressure":997.4,"uv_index":8.65,"wind_gusts":60.1,"aqi":190,"pm10":130.4,"pm2_5":43.1,"mosquito_risk":0,"arthritis_risk":5,"migraine_risk":7,"frizz_risk":1,"updated_at":"2026-04-25T17:10:49.006036+05:30"},{"city":"Gaya","state":"Bihar","latitude":24.7914,"longitude":85.0002,"temp":39.8,"humidity":15,"rain":0.0,"pressure":989.8,"uv_index":8.7,"wind_gusts":48.2,"aqi":175,"pm10":93.4,"pm2_5":25.8,"mosquito_risk":0,"arthritis_risk":5,"migraine_risk":10,"frizz_risk":0,"updated_at":"2026-04-25T17:10:49.006043+05:30"},{"city":"Muzaffarpur","state":"Bihar","latitude":26.1209,"longitude":85.3647,"temp":32.0,"humidity":57,"rain":0.0,"pressure":997.9,"uv_index":8.6,"wind_gusts":34.6,"aqi":190,"pm10":134.1,"pm2_5":53.9,"mosquito_risk":0,"arthritis_risk":5,"migraine_risk":7,"frizz_risk":1,"updated_at":"2026-04-25T17:10:49.006050+05:30"},{"city":"Bhagalpur","state":"Bihar","latitude":25.2425,"longitude":87.0117,"temp":27.9,"humidity":74,"rain":0.0,"pressure":999.3,"uv_index":8.6,"wind_gusts":52.9,"aqi":196,"pm10":113.2,"pm2_5":55.1,"mosquito_risk":7,"arthritis_risk":5,"migraine_risk":7,"frizz_risk":1,"updated_at":"2026-04-25T17:10:49.006057+05:30"},{"city":"Ranchi","state":"Jharkhand","latitude":23.3441,"longitude":85.3096,"temp":35.2,"humidity":20,"rain":0.0,"pressure":936.1,"uv_index":9.2,"wind_gusts":28.8,"aqi":188,"pm10":46.4,"pm2_5":23.8,"mosquito_risk":0,"arthritis_risk":5,"migraine_risk":10,"frizz_risk":0,"updated_at":"2026-04-25T17:10:49.006063+05:30"},{"city":"Jamshedpur","state":"Jharkhand","latitude":22.8046,"longitude":86.2029,"temp":39.8,"humidity":17,"rain":0.0,"pressure":986.9,"uv_index":8.9,"wind_gusts":35.3,"aqi":200,"pm10":61.0,"pm2_5":38.1,"mosquito_risk":0,"arthritis_risk":5,"migraine_risk":10,"frizz_risk":0,"updated_at":"2026-04-25T17:10:49.006070+05:30"},{"city":"Dhanbad","state":"Jharkhand","latitude":23.7957,"longitude":86.4304,"temp":39.0,"humidity":21,"rain":0.0,"pressure":976.2,"uv_index":8.95,"wind_gusts":42.1,"aqi":180,"pm10":78.0,"pm2_5":54.0,"mosquito_risk":0,"arthritis_risk":5,"migraine_risk":10,"frizz_risk":0,"updated_at":"2026-04-25T17:10:49.006077+05:30"},{"city":"Bokaro","state":"Jharkhand","latitude":23.6693,"longitude":86.1511,"temp":40.2,"humidity":13,"rain":0.0,"pressure":979.7,"uv_index":8.95,"wind_gusts":34.6,"aqi":203,"pm10":57.9,"pm2_5":32.6,"mosquito_risk":0,"arthritis_risk":5,"migraine_risk":10,"frizz_risk":0,"updated_at":"2026-04-25T17:10:49.006084+05:30"},{"city":"Bhubaneswar","state":"Odisha","latitude":20.2961,"longitude":85.8245,"temp":30.9,"humidity":74,"rain":0.0,"pressure":1000.8,"uv_index":9.1,"wind_gusts":41.0,"aqi":66,"pm10":24.1,"pm2_5":19.2,"mosquito_risk":3,"arthritis_risk":5,"migraine_risk":4,"frizz_risk":1,"updated_at":"2026-04-25T17:10:49.006090+05:30"},{"city":"Cuttack","state":"Odisha","latitude":20.4625,"longitude":85.8828,"temp":31.6,"humidity":70,"rain":0.0,"pressure":1002.5,"uv_index":9.15,"wind_gusts":37.8,"aqi":66,"pm10":24.1,"pm2_5":19.2,"mosquito_risk":3,"arthritis_risk":5,"migraine_risk":4,"frizz_risk":1,"updated_at":"2026-04-25T17:10:49.006098+05:30"},{"city":"Rourkela","state":"Odisha","latitude":22.2604,"longitude":84.8536,"temp":40.9,"humidity":13,"rain":0.0,"pressure":981.3,"uv_index":8.6,"wind_gusts":45.0,"aqi":207,"pm10":34.6,"pm2_5":28.0,"mosquito_risk":0,"arthritis_risk":5,"migraine_risk":10,"frizz_risk":0,"updated_at":"2026-04-25T17:10:49.006105+05:30"},{"city":"Raipur","state":"Chhattisgarh","latitude":21.2514,"longitude":81.6296,"temp":41.3,"humidity":11,"rain":0.0,"pressure":971.5,"uv_index":8.95,"wind_gusts":31.0,"aqi":206,"pm10":29.5,"pm2_5":19.0,"mosquito_risk":0,"arthritis_risk":5,"migraine_risk":10,"frizz_risk":0,"updated_at":"2026-04-25T17:10:49.006111+05:30"},{"city":"Bhilai","state":"Chhattisgarh","latitude":21.1938,"longitude":81.3509,"temp":40.8,"humidity":13,"rain":0.0,"pressure":971.7,"uv_index":9.0,"wind_gusts":35.6,"aqi":176,"pm10":27.9,"pm2_5":17.2,"mosquito_risk":0,"arthritis_risk":5,"migraine_risk":10,"frizz_risk":0,"updated_at":"2026-04-25T17:10:49.006118+05:30"},{"city":"Guwahati","state":"Assam","latitude":26.1158,"longitude":91.7086,"temp":29.5,"humidity":77,"rain":0.0,"pressure":1000.2,"uv_index":8.55,"wind_gusts":42.1,"aqi":160,"pm10":100.1,"pm2_5":64.3,"mosquito_risk":7,"arthritis_risk":5,"migraine_risk":4,"frizz_risk":1,"updated_at":"2026-04-25T17:10:49.006124+05:30"},{"city":"Agartala","state":"Tripura","latitude":23.8315,"longitude":91.2868,"temp":35.5,"humidity":35,"rain":0.0,"pressure":1003.1,"uv_index":8.75,"wind_gusts":35.6,"aqi":153,"pm10":65.0,"pm2_5":39.9,"mosquito_risk":0,"arthritis_risk":5,"migraine_risk":7,"frizz_risk":1,"updated_at":"2026-04-25T17:10:49.006131+05:30"},{"city":"Shillong","state":"Meghalaya","latitude":25.5788,"longitude":91.8933,"temp":22.3,"humidity":63,"rain":0.0,"pressure":858.2,"uv_index":8.2,"wind_gusts":27.0,"aqi":150,"pm10":93.6,"pm2_5":50.1,"mosquito_risk":3,"arthritis_risk":5,"migraine_risk":7,"frizz_risk":0,"updated_at":"2026-04-25T17:10:49.006138+05:30"},{"city":"Imphal","state":"Manipur","latitude":24.817,"longitude":93.9368,"temp":28.8,"humidity":43,"rain":0.0,"pressure":922.6,"uv_index":9.1,"wind_gusts":34.2,"aqi":155,"pm10":69.6,"pm2_5":36.8,"mosquito_risk":4,"arthritis_risk":5,"migraine_risk":7,"frizz_risk":0,"updated_at":"2026-04-25T17:10:49.006145+05:30"},{"city":"Aizawl","state":"Mizoram","latitude":23.7271,"longitude":92.7176,"temp":29.5,"humidity":29,"rain":0.0,"pressure":893.0,"uv_index":8.95,"wind_gusts":37.8,"aqi":128,"pm10":84.1,"pm2_5":32.2,"mosquito_risk":4,"arthritis_risk":5,"migraine_risk":7,"frizz_risk":0,"updated_at":"2026-04-25T17:10:49.006151+05:30"},{"city":"Kohima","state":"Nagaland","latitude":25.6701,"longitude":94.1077,"temp":20.4,"humidity":86,"rain":0.0,"pressure":856.2,"uv_index":8.8,"wind_gusts":38.2,"aqi":160,"pm10":106.4,"pm2_5":62.6,"mosquito_risk":3,"arthritis_risk":5,"migraine_risk":7,"frizz_risk":1,"updated_at":"2026-04-25T17:10:49.006158+05:30"},{"city":"Gangtok","state":"Sikkim","latitude":27.3314,"longitude":88.6138,"temp":16.6,"humidity":86,"rain":0.0,"pressure":837.7,"uv_index":8.8,"wind_gusts":41.4,"aqi":131,"pm10":47.3,"pm2_5":27.8,"mosquito_risk":3,"arthritis_risk":10,"migraine_risk":7,"frizz_risk":0,"updated_at":"2026-04-25T17:10:49.006165+05:30"},{"city":"Siliguri","state":"West Bengal","latitude":26.7271,"longitude":88.3953,"temp":29.8,"humidity":65,"rain":0.0,"pressure":991.9,"uv_index":8.45,"wind_gusts":29.2,"aqi":151,"pm10":77.8,"pm2_5":49.0,"mosquito_risk":7,"arthritis_risk":5,"migraine_risk":7,"frizz_risk":1,"updated_at":"2026-04-25T17:10:52.309672+05:30"},{"city":"Durgapur","state":"West Bengal","latitude":23.5204,"longitude":87.3119,"temp":36.5,"humidity":44,"rain":0.0,"pressure":991.6,"uv_index":8.9,"wind_gusts":38.2,"aqi":141,"pm10":72.4,"pm2_5":50.1,"mosquito_risk":0,"arthritis_risk":5,"migraine_risk":10,"frizz_risk":1,"updated_at":"2026-04-25T17:10:52.309702+05:30"},{"city":"Asansol","state":"West Bengal","latitude":23.6739,"longitude":86.9524,"temp":36.4,"humidity":44,"rain":0.0,"pressure":989.8,"uv_index":8.95,"wind_gusts":38.9,"aqi":152,"pm10":71.7,"pm2_5":53.1,"mosquito_risk":0,"arthritis_risk":5,"migraine_risk":10,"frizz_risk":1,"updated_at":"2026-04-25T17:10:52.309711+05:30"},{"city":"Pondicherry","state":"Puducherry","latitude":11.9139,"longitude":79.8145,"temp":31.0,"humidity":69,"rain":0.0,"pressure":1006.7,"uv_index":9.2,"wind_gusts":44.6,"aqi":30,"pm10":10.1,"pm2_5":6.6,"mosquito_risk":3,"arthritis_risk":5,"migraine_risk":4,"frizz_risk":1,"updated_at":"2026-04-25T17:10:52.309719+05:30"},{"city":"Port Blair","state":"Andaman and Nicobar Islands","latitude":11.6234,"longitude":92.7265,"temp":30.5,"humidity":66,"rain":0.1,"pressure":1005.7,"uv_index":9.15,"wind_gusts":32.4,"aqi":40,"pm10":19.0,"pm2_5":12.3,"mosquito_risk":6,"arthritis_risk":5,"migraine_risk":4,"frizz_risk":1,"updated_at":"2026-04-25T17:10:52.309728+05:30"},{"city":"Haridwar","state":"Uttarakhand","latitude":29.9457,"longitude":78.1642,"temp":34.7,"humidity":31,"rain":0.0,"pressure":971.6,"uv_index":7.25,"wind_gusts":32.8,"aqi":125,"pm10":111.5,"pm2_5":28.2,"mosquito_risk":0,"arthritis_risk":5,"migraine_risk":7,"frizz_risk":0,"updated_at":"2026-04-25T17:10:52.309736+05:30"},{"city":"Rishikesh","state":"Uttarakhand","latitude":30.0869,"longitude":78.2676,"temp":33.8,"humidity":36,"rain":0.0,"pressure":964.6,"uv_index":7.35,"wind_gusts":37.4,"aqi":113,"pm10":54.4,"pm2_5":17.5,"mosquito_risk":0,"arthritis_risk":5,"migraine_risk":7,"frizz_risk":1,"updated_at":"2026-04-25T17:10:52.309743+05:30"},{"city":"Nainital","state":"Uttarakhand","latitude":29.3919,"longitude":79.4542,"temp":22.2,"humidity":41,"rain":0.0,"pressure":807.9,"uv_index":8.2,"wind_gusts":43.6,"aqi":154,"pm10":48.8,"pm2_5":23.6,"mosquito_risk":0,"arthritis_risk":5,"migraine_risk":7,"frizz_risk":0,"updated_at":"2026-04-25T17:10:52.309751+05:30"},{"city":"Mussoorie","state":"Uttarakhand","latitude":30.4599,"longitude":78.0664,"temp":21.6,"humidity":41,"rain":0.0,"pressure":805.6,"uv_index":7.75,"wind_gusts":58.7,"aqi":120,"pm10":60.8,"pm2_5":18.6,"mosquito_risk":0,"arthritis_risk":5,"migraine_risk":7,"frizz_risk":0,"updated_at":"2026-04-25T17:10:52.309758+05:30"},{"city":"Dharamshala","state":"Himachal Pradesh","latitude":32.219,"longitude":76.3234,"temp":23.8,"humidity":38,"rain":0.0,"pressure":871.8,"uv_index":7.65,"wind_gusts":59.0,"aqi":65,"pm10":52.0,"pm2_5":12.9,"mosquito_risk":0,"arthritis_risk":5,"migraine_risk":7,"frizz_risk":0,"updated_at":"2026-04-25T17:10:52.309766+05:30"},{"city":"Dalhousie","state":"Himachal Pradesh","latitude":32.5387,"longitude":75.971,"temp":20.3,"humidity":41,"rain":0.0,"pressure":808.4,"uv_index":8.1,"wind_gusts":45.7,"aqi":57,"pm10":87.8,"pm2_5":20.3,"mosquito_risk":0,"arthritis_risk":5,"migraine_risk":7,"frizz_risk":0,"updated_at":"2026-04-25T17:10:52.309774+05:30"},{"city":"Patiala","state":"Punjab","latitude":30.3398,"longitude":76.3869,"temp":36.7,"humidity":20,"rain":0.0,"pressure":977.3,"uv_index":7.35,"wind_gusts":56.2,"aqi":550,"pm10":890.3,"pm2_5":91.0,"mosquito_risk":0,"arthritis_risk":5,"migraine_risk":10,"frizz_risk":0,"updated_at":"2026-04-25T17:10:52.309781+05:30"},{"city":"Bhatinda","state":"Punjab","latitude":30.211,"longitude":74.9455,"temp":38.3,"humidity":18,"rain":0.0,"pressure":982.9,"uv_index":8.05,"wind_gusts":46.1,"aqi":87,"pm10":116.6,"pm2_5":30.6,"mosquito_risk":0,"arthritis_risk":5,"migraine_risk":10,"frizz_risk":0,"updated_at":"2026-04-25T17:10:52.309788+05:30"},{"city":"Rohtak","state":"Haryana","latitude":28.8955,"longitude":76.6066,"temp":39.0,"humidity":17,"rain":0.0,"pressure":980.1,"uv_index":7.35,"wind_gusts":54.4,"aqi":657,"pm10":1430.5,"pm2_5":142.5,"mosquito_risk":0,"arthritis_risk":5,"migraine_risk":10,"frizz_risk":0,"updated_at":"2026-04-25T17:10:52.309794+05:30"},{"city":"Panipat","state":"Haryana","latitude":29.3909,"longitude":76.9635,"temp":39.5,"humidity":16,"rain":0.0,"pressure":978.1,"uv_index":7.15,"wind_gusts":51.1,"aqi":1257,"pm10":2659.9,"pm2_5":246.8,"mosquito_risk":0,"arthritis_risk":5,"migraine_risk":10,"frizz_risk":0,"updated_at":"2026-04-25T17:10:52.309801+05:30"},{"city":"Mathura","state":"Uttar Pradesh","latitude":27.4924,"longitude":77.6737,"temp":40.2,"humidity":14,"rain":0.0,"pressure":984.2,"uv_index":7.75,"wind_gusts":45.0,"aqi":355,"pm10":1020.7,"pm2_5":106.4,"mosquito_risk":0,"arthritis_risk":5,"migraine_risk":10,"frizz_risk":0,"updated_at":"2026-04-25T17:10:52.309808+05:30"},{"city":"Vrindavan","state":"Uttar Pradesh","latitude":27.5823,"longitude":77.7027,"temp":40.0,"humidity":14,"rain":0.0,"pressure":984.8,"uv_index":7.65,"wind_gusts":45.0,"aqi":355,"pm10":1020.7,"pm2_5":106.4,"mosquito_risk":0,"arthritis_risk":5,"migraine_risk":10,"frizz_risk":0,"updated_at":"2026-04-25T17:10:52.309814+05:30"},{"city":"Ayodhya","state":"Uttar Pradesh","latitude":26.7922,"longitude":82.1998,"temp":37.8,"humidity":26,"rain":0.0,"pressure":991.1,"uv_index":8.05,"wind_gusts":38.5,"aqi":188,"pm10":167.2,"pm2_5":35.7,"mosquito_risk":0,"arthritis_risk":5,"migraine_risk":10,"frizz_risk":0,"updated_at":"2026-04-25T17:10:52.309820+05:30"},{"city":"Ratlam","state":"Madhya Pradesh","latitude":23.3315,"longitude":75.0367,"temp":39.9,"humidity":14,"rain":0.0,"pressure":952.7,"uv_index":8.45,"wind_gusts":25.9,"aqi":66,"pm10":50.9,"pm2_5":15.0,"mosquito_risk":0,"arthritis_risk":5,"migraine_risk":10,"frizz_risk":0,"updated_at":"2026-04-25T17:10:52.309826+05:30"},{"city":"Sagar","state":"Madhya Pradesh","latitude":23.8388,"longitude":78.7378,"temp":39.7,"humidity":13,"rain":0.0,"pressure":948.1,"uv_index":8.65,"wind_gusts":29.9,"aqi":104,"pm10":53.8,"pm2_5":14.7,"mosquito_risk":0,"arthritis_risk":5,"migraine_risk":10,"frizz_risk":0,"updated_at":"2026-04-25T17:10:52.309831+05:30"},{"city":"Satna","state":"Madhya Pradesh","latitude":24.6005,"longitude":80.8322,"temp":40.4,"humidity":12,"rain":0.0,"pressure":968.0,"uv_index":8.65,"wind_gusts":43.9,"aqi":133,"pm10":134.1,"pm2_5":29.6,"mosquito_risk":0,"arthritis_risk":5,"migraine_risk":10,"frizz_risk":0,"updated_at":"2026-04-25T17:10:52.309837+05:30"},{"city":"Akola","state":"Maharashtra","latitude":20.7002,"longitude":77.0082,"temp":41.5,"humidity":13,"rain":0.0,"pressure":971.8,"uv_index":8.7,"wind_gusts":23.8,"aqi":112,"pm10":29.7,"pm2_5":17.3,"mosquito_risk":0,"arthritis_risk":5,"migraine_risk":10,"frizz_risk":0,"updated_at":"2026-04-25T17:10:52.309843+05:30"},{"city":"Amravati","state":"Maharashtra","latitude":20.9374,"longitude":77.7796,"temp":41.2,"humidity":11,"rain":0.0,"pressure":964.4,"uv_index":8.35,"wind_gusts":27.7,"aqi":118,"pm10":27.5,"pm2_5":16.4,"mosquito_risk":0,"arthritis_risk":5,"migraine_risk":10,"frizz_risk":0,"updated_at":"2026-04-25T17:10:52.309849+05:30"},{"city":"Latur","state":"Maharashtra","latitude":18.4088,"longitude":76.5604,"temp":38.0,"humidity":15,"rain":0.0,"pressure":938.4,"uv_index":8.6,"wind_gusts":32.8,"aqi":153,"pm10":38.0,"pm2_5":31.2,"mosquito_risk":0,"arthritis_risk":5,"migraine_risk":10,"frizz_risk":0,"updated_at":"2026-04-25T17:10:52.309854+05:30"},{"city":"Nanded","state":"Maharashtra","latitude":19.1383,"longitude":77.3091,"temp":40.3,"humidity":13,"rain":0.0,"pressure":965.9,"uv_index":8.6,"wind_gusts":28.1,"aqi":139,"pm10":33.4,"pm2_5":23.5,"mosquito_risk":0,"arthritis_risk":5,"migraine_risk":10,"frizz_risk":0,"updated_at":"2026-04-25T17:10:52.309860+05:30"},{"city":"Gulbarga","state":"Karnataka","latitude":17.3297,"longitude":76.8343,"temp":39.5,"humidity":16,"rain":0.0,"pressure":956.5,"uv_index":9.05,"wind_gusts":26.6,"aqi":167,"pm10":49.5,"pm2_5":41.6,"mosquito_risk":0,"arthritis_risk":5,"migraine_risk":10,"frizz_risk":0,"updated_at":"2026-04-25T17:10:52.309865+05:30"},{"city":"Bidar","state":"Karnataka","latitude":17.9104,"longitude":77.5199,"temp":37.2,"humidity":20,"rain":0.0,"pressure":934.6,"uv_index":8.85,"wind_gusts":27.0,"aqi":156,"pm10":45.9,"pm2_5":38.1,"mosquito_risk":0,"arthritis_risk":5,"migraine_risk":10,"frizz_risk":0,"updated_at":"2026-04-25T17:10:52.309870+05:30"},{"city":"Hospet","state":"Karnataka","latitude":15.2689,"longitude":76.3909,"temp":38.1,"humidity":19,"rain":0.0,"pressure":953.6,"uv_index":9.3,"wind_gusts":27.4,"aqi":160,"pm10":40.9,"pm2_5":34.0,"mosquito_risk":0,"arthritis_risk":5,"migraine_risk":10,"frizz_risk":0,"updated_at":"2026-04-25T17:10:52.309875+05:30"},{"city":"Tirupur","state":"Tamil Nadu","latitude":11.1085,"longitude":77.3411,"temp":38.3,"humidity":22,"rain":0.0,"pressure":972.3,"uv_index":9.4,"wind_gusts":42.1,"aqi":55,"pm10":19.2,"pm2_5":15.6,"mosquito_risk":0,"arthritis_risk":5,"migraine_risk":10,"frizz_risk":0,"updated_at":"2026-04-25T17:10:52.309880+05:30"},{"city":"Alappuzha","state":"Kerala","latitude":9.4981,"longitude":76.3388,"temp":30.6,"humidity":75,"rain":0.0,"pressure":1005.7,"uv_index":8.55,"wind_gusts":36.7,"aqi":123,"pm10":19.4,"pm2_5":16.9,"mosquito_risk":3,"arthritis_risk":5,"migraine_risk":4,"frizz_risk":1,"updated_at":"2026-04-25T17:10:52.309886+05:30"},{"city":"Munnar","state":"Kerala","latitude":10.0889,"longitude":77.0595,"temp":24.4,"humidity":48,"rain":0.0,"pressure":857.4,"uv_index":9.15,"wind_gusts":31.7,"aqi":61,"pm10":12.3,"pm2_5":10.8,"mosquito_risk":0,"arthritis_risk":5,"migraine_risk":7,"frizz_risk":0,"updated_at":"2026-04-25T17:10:52.309891+05:30"},{"city":"Silchar","state":"Assam","latitude":24.8333,"longitude":92.7789,"temp":31.5,"humidity":67,"rain":0.0,"pressure":1002.2,"uv_index":8.75,"wind_gusts":21.6,"aqi":160,"pm10":112.7,"pm2_5":54.6,"mosquito_risk":3,"arthritis_risk":5,"migraine_risk":4,"frizz_risk":1,"updated_at":"2026-04-25T17:10:52.309896+05:30"},{"city":"Dibrugarh","state":"Assam","latitude":27.4728,"longitude":94.912,"temp":27.0,"humidity":75,"rain":0.0,"pressure":995.2,"uv_index":8.6,"wind_gusts":31.7,"aqi":104,"pm10":62.9,"pm2_5":33.5,"mosquito_risk":7,"arthritis_risk":5,"migraine_risk":7,"frizz_risk":1,"updated_at":"2026-04-25T17:10:52.309902+05:30"}]