[{"city":"Delhi","state":"Delhi","latitude":28.6139,"longitude":77.209,"temp":21.9,"humidity":58,"rain":0.0,"pressure":987.8,"uv_index":7.15,"wind_gusts":42.1,"aqi":761,"pm10":472.2,"pm2_5":92.2,"mosquito_risk":0,"arthritis_risk":5,"migraine_risk":7,"frizz_risk":0,"updated_at":"2026-04-11T08:03:17.093980+05:30"},{"city":"Mumbai","state":"Maharashtra","latitude":19.076,"longitude":72.8777,"temp":28.1,"humidity":83,"rain":0.0,"pressure":1011.2,"uv_index":7.95,"wind_gusts":24.8,"aqi":106,"pm10":69.4,"pm2_5":41.7,"mosquito_risk":7,"arthritis_risk":0,"migraine_risk":4,"frizz_risk":1,"updated_at":"2026-04-11T08:03:17.094021+05:30"},{"city":"Bangalore","state":"Karnataka","latitude":12.9716,"longitude":77.5946,"temp":24.4,"humidity":78,"rain":0.0,"pressure":915.3,"uv_index":9.65,"wind_gusts":28.8,"aqi":87,"pm10":32.9,"pm2_5":29.4,"mosquito_risk":3,"arthritis_risk":5,"migraine_risk":7,"frizz_risk":1,"updated_at":"2026-04-11T08:03:17.094036+05:30"},{"city":"Hyderabad","state":"Telangana","latitude":17.385,"longitude":78.4867,"temp":29.4,"humidity":62,"rain":0.0,"pressure":957.0,"uv_index":9.25,"wind_gusts":24.5,"aqi":102,"pm10":61.9,"pm2_5":52.4,"mosquito_risk":7,"arthritis_risk":5,"migraine_risk":7,"frizz_risk":1,"updated_at":"2026-04-11T08:03:17.094046+05:30"},{"city":"Chennai","state":"Tamil Nadu","latitude":13.0827,"longitude":80.2707,"temp":29.6,"humidity":75,"rain":0.0,"pressure":1010.8,"uv_index":8.95,"wind_gusts":35.3,"aqi":60,"pm10":20.0,"pm2_5":14.0,"mosquito_risk":7,"arthritis_risk":0,"migraine_risk":4,"frizz_risk":1,"updated_at":"2026-04-11T08:03:17.094055+05:30"},{"city":"Kolkata","state":"West Bengal","latitude":22.5726,"longitude":88.3639,"temp":27.5,"humidity":85,"rain":0.0,"pressure":1010.5,"uv_index":8.75,"wind_gusts":19.1,"aqi":149,"pm10":49.5,"pm2_5":33.8,"mosquito_risk":7,"arthritis_risk":0,"migraine_risk":4,"frizz_risk":1,"updated_at":"2026-04-11T08:03:17.094063+05:30"},{"city":"Pune","state":"Maharashtra","latitude":18.5204,"longitude":73.8567,"temp":26.0,"humidity":72,"rain":0.0,"pressure":951.5,"uv_index":8.55,"wind_gusts":42.8,"aqi":96,"pm10":81.0,"pm2_5":55.8,"mosquito_risk":7,"arthritis_risk":5,"migraine_risk":7,"frizz_risk":1,"updated_at":"2026-04-11T08:03:17.094075+05:30"},{"city":"Ahmedabad","state":"Gujarat","latitude":23.0225,"longitude":72.5714,"temp":25.8,"humidity":47,"rain":0.0,"pressure":1006.3,"uv_index":8.05,"wind_gusts":19.8,"aqi":71,"pm10":28.3,"pm2_5":22.0,"mosquito_risk":4,"arthritis_risk":5,"migraine_risk":4,"frizz_risk":0,"updated_at":"2026-04-11T08:03:17.094083+05:30"},{"city":"Jaipur","state":"Rajasthan","latitude":26.9124,"longitude":75.7873,"temp":24.7,"humidity":44,"rain":0.0,"pressure":964.4,"uv_index":7.8,"wind_gusts":33.8,"aqi":113,"pm10":93.4,"pm2_5":30.3,"mosquito_risk":0,"arthritis_risk":5,"migraine_risk":7,"frizz_risk":0,"updated_at":"2026-04-11T08:03:17.094090+05:30"},{"city":"Lucknow","state":"Uttar Pradesh","latitude":26.8467,"longitude":80.9462,"temp":22.8,"humidity":53,"rain":0.0,"pressure":997.4,"uv_index":7.65,"wind_gusts":43.6,"aqi":213,"pm10":258.9,"pm2_5":85.4,"mosquito_risk":0,"arthritis_risk":5,"migraine_risk":7,"frizz_risk":0,"updated_at":"2026-04-11T08:03:17.094098+05:30"},{"city":"Kanpur","state":"Uttar Pradesh","latitude":26.4499,"longitude":80.3319,"temp":21.8,"humidity":62,"rain":0.0,"pressure":996.3,"uv_index":7.65,"wind_gusts":39.6,"aqi":548,"pm10":666.8,"pm2_5":130.9,"mosquito_risk":3,"arthritis_risk":5,"migraine_risk":7,"frizz_risk":0,"updated_at":"2026-04-11T08:03:17.094105+05:30"},{"city":"Chandigarh","state":"Chandigarh","latitude":30.7333,"longitude":76.7794,"temp":20.9,"humidity":66,"rain":0.0,"pressure":972.1,"uv_index":6.6,"wind_gusts":35.3,"aqi":44,"pm10":11.1,"pm2_5":10.7,"mosquito_risk":3,"arthritis_risk":5,"migraine_risk":7,"frizz_risk":0,"updated_at":"2026-04-11T08:03:17.094112+05:30"},{"city":"Srinagar","state":"Jammu and Kashmir","latitude":34.0837,"longitude":74.7973,"temp":9.2,"humidity":88,"rain":0.0,"pressure":842.5,"uv_index":6.85,"wind_gusts":29.2,"aqi":82,"pm10":39.8,"pm2_5":29.6,"mosquito_risk":3,"arthritis_risk":10,"migraine_risk":7,"frizz_risk":0,"updated_at":"2026-04-11T08:03:17.094119+05:30"},{"city":"Jammu","state":"Jammu and Kashmir","latitude":32.7266,"longitude":74.857,"temp":19.9,"humidity":72,"rain":0.0,"pressure":976.1,"uv_index":7.4,"wind_gusts":22.0,"aqi":60,"pm10":40.3,"pm2_5":30.7,"mosquito_risk":3,"arthritis_risk":5,"migraine_risk":7,"frizz_risk":0,"updated_at":"2026-04-11T08:03:17.094126+05:30"},{"city":"Amritsar","state":"Punjab","latitude":31.634,"longitude":74.8723,"temp":20.6,"humidity":77,"rain":0.0,"pressure":985.0,"uv_index":7.7,"wind_gusts":27.7,"aqi":57,"pm10":50.6,"pm2_5":23.5,"mosquito_risk":3,"arthritis_risk":5,"migraine_risk":7,"frizz_risk":1,"updated_at":"2026-04-11T08:03:17.094132+05:30"},{"city":"Ludhiana","state":"Punjab","latitude":30.901,"longitude":75.8573,"temp":21.6,"humidity":62,"rain":0.0,"pressure":982.9,"uv_index":7.3,"wind_gusts":37.4,"aqi":58,"pm10":17.2,"pm2_5":15.7,"mosquito_risk":3,"arthritis_risk":5,"migraine_risk":7,"frizz_risk":0,"updated_at":"2026-04-11T08:03:17.094138+05:30"},{"city":"Jalandhar","state":"Punjab","latitude":31.326,"longitude":75.5762,"temp":20.8,"humidity":69,"rain":0.0,"pressure":983.9,"uv_index":7.45,"wind_gusts":32.4,"aqi":61,"pm10":28.9,"pm2_5":17.2,"mosquito_risk":3,"arthritis_risk":5,"migraine_risk":7,"frizz_risk":0,"updated_at":"2026-04-11T08:03:17.094147+05:30"},{"city":"Dehradun","state":"Uttarakhand","latitude":30.6284,"longitude":78.0322,"temp":14.1,"humidity":54,"rain":0.0,"pressure":830.4,"uv_index":7.15,"wind_gusts":38.2,"aqi":29,"pm10":5.6,"pm2_5":5.2,"mosquito_risk":0,"arthritis_risk":5,"migraine_risk":7,"frizz_risk":0,"updated_at":"2026-04-11T08:03:17.094153+05:30"},{"city":"Shimla","state":"Himachal Pradesh","latitude":31.1048,"longitude":77.1734,"temp":12.8,"humidity":59,"rain":0.0,"pressure":784.9,"uv_index":7.35,"wind_gusts":46.4,"aqi":45,"pm10":11.5,"pm2_5":9.6,"mosquito_risk":0,"arthritis_risk":5,"migraine_risk":7,"frizz_risk":0,"updated_at":"2026-04-11T08:03:17.094160+05:30"},{"city":"Manali","state":"Himachal Pradesh","latitude":32.2396,"longitude":77.1887,"temp":14.5,"humidity":43,"rain":0.0,"pressure":819.5,"uv_index":9.3,"wind_gusts":36.7,"aqi":56,"pm10":17.9,"pm2_5":8.6,"mosquito_risk":0,"arthritis_risk":5,"migraine_risk":7,"frizz_risk":0,"updated_at":"2026-04-11T08:03:17.094166+05:30"},{"city":"Gurgaon","state":"Haryana","latitude":28.4595,"longitude":77.0266,"temp":20.7,"humidity":68,"rain":0.0,"pressure":986.5,"uv_index":7.3,"wind_gusts":35.6,"aqi":2038,"pm10":1117.6,"pm2_5":158.8,"mosquito_risk":3,"arthritis_risk":5,"migraine_risk":7,"frizz_risk":0,"updated_at":"2026-04-11T08:03:17.094173+05:30"},{"city":"Noida","state":"Uttar Pradesh","latitude":28.5355,"longitude":77.391,"temp":22.3,"humidity":57,"rain":0.0,"pressure":989.2,"uv_index":7.2,"wind_gusts":43.6,"aqi":2038,"pm10":1117.6,"pm2_5":158.8,"mosquito_risk":0,"arthritis_risk":5,"migraine_risk":7,"frizz_risk":0,"updated_at":"2026-04-11T08:03:17.094179+05:30"},{"city":"Ghaziabad","state":"Uttar Pradesh","latitude":28.6692,"longitude":77.4538,"temp":21.6,"humidity":61,"rain":0.0,"pressure":987.0,"uv_index":7.15,"wind_gusts":41.0,"aqi":586,"pm10":269.2,"pm2_5":56.3,"mosquito_risk":3,"arthritis_risk":5,"migraine_risk":7,"frizz_risk":0,"updated_at":"2026-04-11T08:03:17.094185+05:30"},{"city":"Faridabad","state":"Haryana","latitude":28.4089,"longitude":77.3178,"temp":22.1,"humidity":58,"rain":0.0,"pressure":988.7,"uv_index":7.25,"wind_gusts":42.1,"aqi":2038,"pm10":1117.6,"pm2_5":158.8,"mosquito_risk":0,"arthritis_risk":5,"migraine_risk":7,"frizz_risk":0,"updated_at":"2026-04-11T08:03:17.094194+05:30"},{"city":"Meerut","state":"Uttar Pradesh","latitude":28.9845,"longitude":77.7064,"temp":21.9,"humidity":60,"rain":0.0,"pressure":985.1,"uv_index":7.05,"wind_gusts":40.7,"aqi":586,"pm10":269.2,"pm2_5":56.3,"mosquito_risk":0,"arthritis_risk":5,"migraine_risk":7,"frizz_risk":0,"updated_at":"2026-04-11T08:03:17.094200+05:30"},{"city":"Agra","state":"Uttar Pradesh","latitude":27.1767,"longitude":78.0081,"temp":23.0,"humidity":59,"rain":0.0,"pressure":992.9,"uv_index":7.55,"wind_gusts":33.5,"aqi":1306,"pm10":808.4,"pm2_5":149.5,"mosquito_risk":0,"arthritis_risk":5,"migraine_risk":7,"frizz_risk":0,"updated_at":"2026-04-11T08:03:17.094206+05:30"},{"city":"Varanasi","state":"Uttar Pradesh","latitude":25.3176,"longitude":82.9739,"temp":24.5,"humidity":50,"rain":0.0,"pressure":1002.2,"uv_index":8.3,"wind_gusts":39.6,"aqi":89,"pm10":208.6,"pm2_5":48.8,"mosquito_risk":0,"arthritis_risk":5,"migraine_risk":4,"frizz_risk":0,"updated_at":"2026-04-11T08:03:17.094214+05:30"},{"city":"Prayagraj","state":"Uttar Pradesh","latitude":25.4358,"longitude":81.8463,"temp":24.8,"humidity":47,"rain":0.0,"pressure":1001.1,"uv_index":8.15,"wind_gusts":41.0,"aqi":107,"pm10":261.7,"pm2_5":63.1,"mosquito_risk":0,"arthritis_risk":5,"migraine_risk":4,"frizz_risk":0,"updated_at":"2026-04-11T08:03:17.094220+05:30"},{"city":"Gorakhpur","state":"Uttar Pradesh","latitude":26.7606,"longitude":83.3732,"temp":23.4,"humidity":48,"rain":0.0,"pressure":1000.9,"uv_index":8.1,"wind_gusts":35.3,"aqi":82,"pm10":308.3,"pm2_5":78.7,"mosquito_risk":0,"arthritis_risk":5,"migraine_risk":4,"frizz_risk":0,"updated_at":"2026-04-11T08:03:17.094226+05:30"},{"city":"Bareilly","state":"Uttar Pradesh","latitude":28.367,"longitude":79.4304,"temp":20.9,"humidity":65,"rain":0.0,"pressure":989.9,"uv_index":7.45,"wind_gusts":46.4,"aqi":93,"pm10":21.1,"pm2_5":17.4,"mosquito_risk":3,"arthritis_risk":5,"migraine_risk":7,"frizz_risk":0,"updated_at":"2026-04-11T08:03:17.094232+05:30"},{"city":"Aligarh","state":"Uttar Pradesh","latitude":27.8974,"longitude":78.088,"temp":22.5,"humidity":58,"rain":0.0,"pressure":990.1,"uv_index":7.35,"wind_gusts":44.6,"aqi":1290,"pm10":635.2,"pm2_5":107.6,"mosquito_risk":0,"arthritis_risk":5,"migraine_risk":7,"frizz_risk":0,"updated_at":"2026-04-11T08:03:17.094238+05:30"},{"city":"Moradabad","state":"Uttar Pradesh","latitude":28.8386,"longitude":78.7733,"temp":20.7,"humidity":66,"rain":0.0,"pressure":986.6,"uv_index":7.25,"wind_gusts":42.1,"aqi":108,"pm10":23.7,"pm2_5":17.6,"mosquito_risk":3,"arthritis_risk":5,"migraine_risk":7,"frizz_risk":0,"updated_at":"2026-04-11T08:03:17.094244+05:30"},{"city":"Saharanpur","state":"Uttar Pradesh","latitude":29.9637,"longitude":77.546,"temp":20.4,"humidity":65,"rain":0.0,"pressure":978.7,"uv_index":6.8,"wind_gusts":41.8,"aqi":73,"pm10":42.7,"pm2_5":31.2,"mosquito_risk":3,"arthritis_risk":5,"migraine_risk":7,"frizz_risk":0,"updated_at":"2026-04-11T08:03:17.094250+05:30"},{"city":"Jhansi","state":"Uttar Pradesh","latitude":25.4484,"longitude":78.5685,"temp":24.8,"humidity":48,"rain":0.0,"pressure":983.0,"uv_index":8.1,"wind_gusts":27.0,"aqi":60,"pm10":56.2,"pm2_5":14.3,"mosquito_risk":0,"arthritis_risk":5,"migraine_risk":7,"frizz_risk":0,"updated_at":"2026-04-11T08:03:20.307950+05:30"},{"city":"Surat","state":"Gujarat","latitude":21.1702,"longitude":72.8311,"temp":26.6,"humidity":64,"rain":0.0,"pressure":1009.9,"uv_index":7.75,"wind_gusts":29.2,"aqi":117,"pm10":44.2,"pm2_5":41.6,"mosquito_risk":7,"arthritis_risk":0,"migraine_risk":4,"frizz_risk":1,"updated_at":"2026-04-11T08:03:20.307982+05:30"},{"city":"Vadodara","state":"Gujarat","latitude":22.3072,"longitude":73.1812,"temp":24.8,"humidity":61,"rain":0.0,"pressure":1008.4,"uv_index":8.05,"wind_gusts":14.4,"aqi":56,"pm10":25.4,"pm2_5":17.7,"mosquito_risk":3,"arthritis_risk":0,"migraine_risk":4,"frizz_risk":1,"updated_at":"2026-04-11T08:03:20.307991+05:30"},{"city":"Rajkot","state":"Gujarat","latitude":22.3039,"longitude":70.8022,"temp":25.8,"humidity":71,"rain":0.0,"pressure":998.8,"uv_index":7.75,"wind_gusts":34.2,"aqi":69,"pm10":39.8,"pm2_5":24.5,"mosquito_risk":7,"arthritis_risk":5,"migraine_risk":7,"frizz_risk":1,"updated_at":"2026-04-11T08:03:20.307998+05:30"},{"city":"Thane","state":"Maharashtra","latitude":19.2183,"longitude":72.9781,"temp":27.6,"humidity":82,"rain":0.0,"pressure":1010.8,"uv_index":7.95,"wind_gusts":38.5,"aqi":106,"pm10":69.4,"pm2_5":41.7,"mosquito_risk":7,"arthritis_risk":0,"migraine_risk":4,"frizz_risk":1,"updated_at":"2026-04-11T08:03:20.308005+05:30"},{"city":"Nagpur","state":"Maharashtra","latitude":21.1458,"longitude":79.0882,"temp":25.9,"humidity":48,"rain":0.0,"pressure":978.0,"uv_index":8.75,"wind_gusts":21.2,"aqi":67,"pm10":17.1,"pm2_5":13.6,"mosquito_risk":4,"arthritis_risk":5,"migraine_risk":7,"frizz_risk":0,"updated_at":"2026-04-11T08:03:20.308012+05:30"},{"city":"Nashik","state":"Maharashtra","latitude":19.9975,"longitude":73.7898,"temp":25.9,"humidity":54,"rain":0.0,"pressure":948.9,"uv_index":8.25,"wind_gusts":34.9,"aqi":103,"pm10":78.7,"pm2_5":63.8,"mosquito_risk":4,"arthritis_risk":5,"migraine_risk":7,"frizz_risk":0,"updated_at":"2026-04-11T08:03:20.308018+05:30"},{"city":"Aurangabad","state":"Maharashtra","latitude":19.8762,"longitude":75.3433,"temp":27.5,"humidity":35,"rain":0.0,"pressure":947.9,"uv_index":8.9,"wind_gusts":32.0,"aqi":75,"pm10":30.9,"pm2_5":22.2,"mosquito_risk":4,"arthritis_risk":5,"migraine_risk":7,"frizz_risk":0,"updated_at":"2026-04-11T08:03:20.308025+05:30"},{"city":"Solapur","state":"Maharashtra","latitude":17.6599,"longitude":75.9064,"temp":29.4,"humidity":46,"rain":0.0,"pressure":960.2,"uv_index":9.0,"wind_gusts":19.1,"aqi":66,"pm10":28.6,"pm2_5":23.6,"mosquito_risk":4,"arthritis_risk":5,"migraine_risk":7,"frizz_risk":1,"updated_at":"2026-04-11T08:03:20.308031+05:30"},{"city":"Kolhapur","state":"Maharashtra","latitude":16.705,"longitude":74.2433,"temp":24.6,"humidity":70,"rain":0.0,"pressure":950.4,"uv_index":8.6,"wind_gusts":43.9,"aqi":101,"pm10":79.2,"pm2_5":58.4,"mosquito_risk":3,"arthritis_risk":5,"migraine_risk":7,"frizz_risk":1,"updated_at":"2026-04-11T08:03:20.308038+05:30"},{"city":"Goa","state":"Goa","latitude":15.2993,"longitude":74.124,"temp":27.7,"humidity":79,"rain":0.0,"pressure":1001.0,"uv_index":9.05,"wind_gusts":34.2,"aqi":103,"pm10":96.6,"pm2_5":44.9,"mosquito_risk":7,"arthritis_risk":5,"migraine_risk":4,"frizz_risk":1,"updated_at":"2026-04-11T08:03:20.308044+05:30"},{"city":"Jodhpur","state":"Rajasthan","latitude":26.2389,"longitude":73.0243,"temp":25.0,"humidity":46,"rain":0.0,"pressure":987.3,"uv_index":8.05,"wind_gusts":26.6,"aqi":63,"pm10":55.5,"pm2_5":15.7,"mosquito_risk":4,"arthritis_risk":5,"migraine_risk":7,"frizz_risk":0,"updated_at":"2026-04-11T08:03:20.308050+05:30"},{"city":"Udaipur","state":"Rajasthan","latitude":24.5854,"longitude":73.7125,"temp":23.3,"humidity":41,"rain":0.0,"pressure":950.9,"uv_index":8.6,"wind_gusts":30.2,"aqi":44,"pm10":22.9,"pm2_5":10.0,"mosquito_risk":0,"arthritis_risk":5,"migraine_risk":7,"frizz_risk":0,"updated_at":"2026-04-11T08:03:20.308057+05:30"},{"city":"Kota","state":"Rajasthan","latitude":25.2138,"longitude":75.8648,"temp":21.4,"humidity":64,"rain":0.0,"pressure":983.5,"uv_index":8.1,"wind_gusts":18.0,"aqi":78,"pm10":41.4,"pm2_5":27.8,"mosquito_risk":3,"arthritis_risk":5,"migraine_risk":7,"frizz_risk":0,"updated_at":"2026-04-11T08:03:20.308063+05:30"},{"city":"Bikaner","state":"Rajasthan","latitude":28.0229,"longitude":73.3119,"temp":25.2,"humidity":48,"rain":0.0,"pressure":987.1,"uv_index":7.9,"wind_gusts":33.5,"aqi":55,"pm10":15.8,"pm2_5":12.0,"mosquito_risk":4,"arthritis_risk":5,"migraine_risk":7,"frizz_risk":0,"updated_at":"2026-04-11T08:03:20.308069+05:30"},{"city":"Ajmer","state":"Rajasthan","latitude":26.4499,"longitude":74.6399,"temp":24.1,"humidity":46,"rain":0.0,"pressure":958.7,"uv_index":8.0,"wind_gusts":35.3,"aqi":72,"pm10":72.6,"pm2_5":28.0,"mosquito_risk":0,"arthritis_risk":5,"migraine_risk":7,"frizz_risk":0,"updated_at":"2026-04-11T08:03:20.308075+05:30"},{"city":"Gwalior","state":"Madhya Pradesh","latitude":26.2183,"longitude":78.1828,"temp":24.8,"humidity":56,"rain":0.0,"pressure":988.2,"uv_index":7.8,"wind_gusts":27.7,"aqi":98,"pm10":202.6,"pm2_5":34.7,"mosquito_risk":0,"arthritis_risk":5,"migraine_risk":7,"frizz_risk":0,"updated_at":"2026-04-11T08:03:20.308082+05:30"},{"city":"Indore","state":"Madhya Pradesh","latitude":22.7196,"longitude":75.8577,"temp":22.8,"humidity":48,"rain":0.0,"pressure":952.3,"uv_index":8.5,"wind_gusts":20.9,"aqi":59,"pm10":39.1,"pm2_5":24.6,"mosquito_risk":0,"arthritis_risk":5,"migraine_risk":7,"frizz_risk":0,"updated_at":"2026-04-11T08:03:20.308088+05:30"},{"city":"Bhopal","state":"Madhya Pradesh","latitude":23.2599,"longitude":77.4126,"temp":25.1,"humidity":37,"rain":0.0,"pressure":958.7,"uv_index":8.5,"wind_gusts":24.5,"aqi":55,"pm10":29.9,"pm2_5":18.0,"mosquito_risk":4,"arthritis_risk":5,"migraine_risk":7,"frizz_risk":0,"updated_at":"2026-04-11T08:03:20.308094+05:30"},{"city":"Jabalpur","state":"Madhya Pradesh","latitude":23.1815,"longitude":79.9864,"temp":24.8,"humidity":41,"rain":0.0,"pressure":966.8,"uv_index":8.6,"wind_gusts":19.8,"aqi":70,"pm10":38.9,"pm2_5":31.5,"mosquito_risk":0,"arthritis_risk":5,"migraine_risk":7,"frizz_risk":0,"updated_at":"2026-04-11T08:03:20.308100+05:30"},{"city":"Ujjain","state":"Madhya Pradesh","latitude":23.1765,"longitude":75.7885,"temp":23.0,"humidity":48,"rain":0.0,"pressure":958.2,"uv_index":8.4,"wind_gusts":18.0,"aqi":63,"pm10":46.0,"pm2_5":30.7,"mosquito_risk":0,"arthritis_risk":5,"migraine_risk":7,"frizz_risk":0,"updated_at":"2026-04-11T08:03:20.308106+05:30"},{"city":"Visakhapatnam","state":"Andhra Pradesh","latitude":17.6868,"longitude":83.2185,"temp":29.6,"humidity":74,"rain":0.0,"pressure":1007.5,"uv_index":9.15,"wind_gusts":41.4,"aqi":87,"pm10":32.7,"pm2_5":27.4,"mosquito_risk":7,"arthritis_risk":5,"migraine_risk":4,"frizz_risk":1,"updated_at":"2026-04-11T08:03:20.308112+05:30"},{"city":"Vijayawada","state":"Andhra Pradesh","latitude":16.5062,"longitude":80.648,"temp":29.1,"humidity":77,"rain":0.0,"pressure":1006.4,"uv_index":9.2,"wind_gusts":26.3,"aqi":77,"pm10":22.3,"pm2_5":17.3,"mosquito_risk":7,"arthritis_risk":5,"migraine_risk":4,"frizz_risk":1,"updated_at":"2026-04-11T08:03:20.308118+05:30"},{"city":"Guntur","state":"Andhra Pradesh","latitude":16.3067,"longitude":80.4365,"temp":29.2,"humidity":77,"rain":0.0,"pressure":1007.5,"uv_index":9.25,"wind_gusts":33.8,"aqi":76,"pm10":19.8,"pm2_5":16.5,"mosquito_risk":7,"arthritis_risk":5,"migraine_risk":4,"frizz_risk":1,"updated_at":"2026-04-11T08:03:20.308124+05:30"},{"city":"Nellore","state":"Andhra Pradesh","latitude":14.4426,"longitude":79.9865,"temp":29.3,"humidity":74,"rain":0.0,"pressure":1009.4,"uv_index":9.25,"wind_gusts":41.0,"aqi":66,"pm10":18.0,"pm2_5":15.1,"mosquito_risk":7,"arthritis_risk":0,"migraine_risk":4,"frizz_risk":1,"updated_at":"2026-04-11T08:03:20.308132+05:30"},{"city":"Kurnool","state":"Andhra Pradesh","latitude":15.8281,"longitude":78.0373,"temp":31.2,"humidity":55,"rain":0.0,"pressure":980.2,"uv_index":9.25,"wind_gusts":26.6,"aqi":85,"pm10":30.5,"pm2_5":28.2,"mosquito_risk":0,"arthritis_risk":5,"migraine_risk":7,"frizz_risk":1,"updated_at":"2026-04-11T08:03:20.308139+05:30"},{"city":"Kakinada","state":"Andhra Pradesh","latitude":16.9891,"longitude":82.2475,"temp":29.7,"humidity":77,"rain":0.0,"pressure":1011.5,"uv_index":9.2,"wind_gusts":34.2,"aqi":65,"pm10":24.2,"pm2_5":17.1,"mosquito_risk":7,"arthritis_risk":0,"migraine_risk":4,"frizz_risk":1,"updated_at":"2026-04-11T08:03:20.308146+05:30"},{"city":"Tirupati","state":"Andhra Pradesh","latitude":13.6288,"longitude":79.4192,"temp":27.0,"humidity":79,"rain":0.0,"pressure":995.6,"uv_index":9.45,"wind_gusts":31.3,"aqi":78,"pm10":24.2,"pm2_5":20.8,"mosquito_risk":7,"arthritis_risk":5,"migraine_risk":7,"frizz_risk":1,"updated_at":"2026-04-11T08:03:20.308152+05:30"},{"city":"Warangal","state":"Telangana","latitude":17.9689,"longitude":79.5941,"temp":28.5,"humidity":76,"rain":0.0,"pressure":982.5,"uv_index":9.1,"wind_gusts":25.9,"aqi":104,"pm10":48.7,"pm2_5":44.6,"mosquito_risk":7,"arthritis_risk":5,"migraine_risk":7,"frizz_risk":1,"updated_at":"2026-04-11T08:03:20.308158+05:30"},{"city":"Nizamabad","state":"Telangana","latitude":18.6725,"longitude":78.0941,"temp":29.2,"humidity":59,"rain":0.0,"pressure":968.1,"uv_index":9.0,"wind_gusts":21.2,"aqi":81,"pm10":39.8,"pm2_5":31.0,"mosquito_risk":4,"arthritis_risk":5,"migraine_risk":7,"frizz_risk":1,"updated_at":"2026-04-11T08:03:20.308164+05:30"},{"city":"Mysore","state":"Karnataka","latitude":12.2958,"longitude":76.6396,"temp":23.8,"humidity":82,"rain":0.0,"pressure":932.0,"uv_index":9.1,"wind_gusts":28.8,"aqi":82,"pm10":33.2,"pm2_5":23.3,"mosquito_risk":3,"arthritis_risk":5,"migraine_risk":7,"frizz_risk":1,"updated_at":"2026-04-11T08:03:20.308170+05:30"},{"city":"Mangalore","state":"Karnataka","latitude":12.9141,"longitude":74.856,"temp":29.0,"humidity":80,"rain":0.0,"pressure":1010.2,"uv_index":8.75,"wind_gusts":26.6,"aqi":79,"pm10":76.1,"pm2_5":29.3,"mosquito_risk":7,"arthritis_risk":0,"migraine_risk":4,"frizz_risk":1,"updated_at":"2026-04-11T08:03:20.308176+05:30"},{"city":"Hubli-Dharwad","state":"Karnataka","latitude":15.3647,"longitude":75.124,"temp":24.4,"humidity":85,"rain":0.0,"pressure":943.9,"uv_index":9.25,"wind_gusts":42.1,"aqi":91,"pm10":67.1,"pm2_5":42.1,"mosquito_risk":3,"arthritis_risk":5,"migraine_risk":7,"frizz_risk":1,"updated_at":"2026-04-11T08:03:20.308182+05:30"},{"city":"Belgaum","state":"Karnataka","latitude":15.8497,"longitude":74.4977,"temp":24.1,"humidity":70,"rain":0.0,"pressure":928.4,"uv_index":9.3,"wind_gusts":38.9,"aqi":94,"pm10":76.8,"pm2_5":43.8,"mosquito_risk":3,"arthritis_risk":5,"migraine_risk":7,"frizz_risk":1,"updated_at":"2026-04-11T08:03:23.525004+05:30"},{"city":"Coimbatore","state":"Tamil Nadu","latitude":11.0168,"longitude":76.9558,"temp":25.6,"humidity":80,"rain":0.0,"pressure":965.6,"uv_index":6.9,"wind_gusts":29.5,"aqi":73,"pm10":28.8,"pm2_5":18.7,"mosquito_risk":7,"arthritis_risk":5,"migraine_risk":7,"frizz_risk":1,"updated_at":"2026-04-11T08:03:23.525030+05:30"},{"city":"Madurai","state":"Tamil Nadu","latitude":9.9252,"longitude":78.1198,"temp":28.1,"humidity":85,"rain":0.0,"pressure":996.4,"uv_index":8.85,"wind_gusts":37.4,"aqi":77,"pm10":30.6,"pm2_5":28.5,"mosquito_risk":7,"arthritis_risk":5,"migraine_risk":7,"frizz_risk":1,"updated_at":"2026-04-11T08:03:23.525038+05:30"},{"city":"Trichy","state":"Tamil Nadu","latitude":10.7905,"longitude":78.7047,"temp":28.5,"humidity":84,"rain":0.0,"pressure":1003.4,"uv_index":9.4,"wind_gusts":24.5,"aqi":69,"pm10":32.1,"pm2_5":27.7,"mosquito_risk":7,"arthritis_risk":5,"migraine_risk":4,"frizz_risk":1,"updated_at":"2026-04-11T08:03:23.525046+05:30"},{"city":"Salem","state":"Tamil Nadu","latitude":11.6643,"longitude":78.146,"temp":28.3,"humidity":73,"rain":0.0,"pressure":981.1,"uv_index":8.8,"wind_gusts":20.2,"aqi":72,"pm10":22.9,"pm2_5":19.3,"mosquito_risk":7,"arthritis_risk":5,"migraine_risk":7,"frizz_risk":1,"updated_at":"2026-04-11T08:03:23.525052+05:30"},{"city":"Tirunelveli","state":"Tamil Nadu","latitude":8.7139,"longitude":77.7567,"temp":27.9,"humidity":73,"rain":0.0,"pressure":1006.6,"uv_index":9.2,"wind_gusts":49.3,"aqi":74,"pm10":27.3,"pm2_5":21.9,"mosquito_risk":7,"arthritis_risk":5,"migraine_risk":4,"frizz_risk":1,"updated_at":"2026-04-11T08:03:23.525058+05:30"},{"city":"Vellore","state":"Tamil Nadu","latitude":12.9165,"longitude":79.1325,"temp":27.0,"humidity":75,"rain":0.0,"pressure":988.5,"uv_index":9.5,"wind_gusts":32.4,"aqi":86,"pm10":40.3,"pm2_5":36.6,"mosquito_risk":7,"arthritis_risk":5,"migraine_risk":7,"frizz_risk":1,"updated_at":"2026-04-11T08:03:23.525064+05:30"},{"city":"Erode","state":"Tamil Nadu","latitude":11.341,"longitude":77.7172,"temp":28.5,"humidity":81,"rain":0.0,"pressure":992.8,"uv_index":8.1,"wind_gusts":26.3,"aqi":63,"pm10":17.1,"pm2_5":15.5,"mosquito_risk":7,"arthritis_risk":5,"migraine_risk":7,"frizz_risk":1,"updated_at":"2026-04-11T08:03:23.525070+05:30"},{"city":"Kochi","state":"Kerala","latitude":9.9312,"longitude":76.2673,"temp":27.0,"humidity":83,"rain":0.0,"pressure":1012.0,"uv_index":9.15,"wind_gusts":32.4,"aqi":69,"pm10":23.4,"pm2_5":21.2,"mosquito_risk":7,"arthritis_risk":0,"migraine_risk":4,"frizz_risk":1,"updated_at":"2026-04-11T08:03:23.525076+05:30"},{"city":"Thiruvananthapuram","state":"Kerala","latitude":8.5241,"longitude":76.9366,"temp":27.3,"humidity":84,"rain":0.0,"pressure":1010.9,"uv_index":9.05,"wind_gusts":39.6,"aqi":65,"pm10":20.4,"pm2_5":12.5,"mosquito_risk":7,"arthritis_risk":0,"migraine_risk":4,"frizz_risk":1,"updated_at":"2026-04-11T08:03:23.525082+05:30"},{"city":"Kozhikode","state":"Kerala","latitude":11.2588,"longitude":75.7804,"temp":27.5,"humidity":83,"rain":0.0,"pressure":1011.7,"uv_index":8.95,"wind_gusts":29.9,"aqi":66,"pm10":24.4,"pm2_5":12.8,"mosquito_risk":7,"arthritis_risk":0,"migraine_risk":4,"frizz_risk":1,"updated_at":"2026-04-11T08:03:23.525088+05:30"},{"city":"Thrissur","state":"Kerala","latitude":10.5276,"longitude":76.2144,"temp":26.8,"humidity":83,"rain":0.0,"pressure":1010.6,"uv_index":8.05,"wind_gusts":33.1,"aqi":69,"pm10":27.0,"pm2_5":20.8,"mosquito_risk":7,"arthritis_risk":0,"migraine_risk":4,"frizz_risk":1,"updated_at":"2026-04-11T08:03:23.525094+05:30"},{"city":"Kannur","state":"Kerala","latitude":11.8745,"longitude":75.3704,"temp":26.2,"humidity":75,"rain":0.0,"pressure":1011.2,"uv_index":8.25,"wind_gusts":31.0,"aqi":68,"pm10":16.0,"pm2_5":10.9,"mosquito_risk":7,"arthritis_risk":0,"migraine_risk":4,"frizz_risk":1,"updated_at":"2026-04-11T08:03:23.525100+05:30"},{"city":"Patna","state":"Bihar","latitude":25.5941,"longitude":85.1376,"temp":24.2,"humidity":51,"rain":0.0,"pressure":1004.8,"uv_index":8.45,"wind_gusts":31.3,"aqi":71,"pm10":156.0,"pm2_5":43.3,"mosquito_risk":0,"arthritis_risk":5,"migraine_risk":4,"frizz_risk":0,"updated_at":"2026-04-11T08:03:23.525106+05:30"},{"city":"Gaya","state":"Bihar","latitude":24.7914,"longitude":85.0002,"temp":25.2,"humidity":51,"rain":0.0,"pressure":998.6,"uv_index":8.5,"wind_gusts":33.8,"aqi":68,"pm10":93.4,"pm2_5":29.3,"mosquito_risk":4,"arthritis_risk":5,"migraine_risk":7,"frizz_risk":0,"updated_at":"2026-04-11T08:03:23.525112+05:30"},{"city":"Muzaffarpur","state":"Bihar","latitude":26.1209,"longitude":85.3647,"temp":23.1,"humidity":52,"rain":0.0,"pressure":1004.7,"uv_index":8.4,"wind_gusts":22.7,"aqi":69,"pm10":169.0,"pm2_5":43.5,"mosquito_risk":0,"arthritis_risk":5,"migraine_risk":4,"frizz_risk":0,"updated_at":"2026-04-11T08:03:23.525118+05:30"},{"city":"Bhagalpur","state":"Bihar","latitude":25.2425,"longitude":87.0117,"temp":24.2,"humidity":61,"rain":0.0,"pressure":1005.5,"uv_index":8.45,"wind_gusts":23.8,"aqi":62,"pm10":40.0,"pm2_5":26.3,"mosquito_risk":3,"arthritis_risk":5,"migraine_risk":4,"frizz_risk":1,"updated_at":"2026-04-11T08:03:23.525124+05:30"},{"city":"Ranchi","state":"Jharkhand","latitude":23.3441,"longitude":85.3096,"temp":23.5,"humidity":47,"rain":0.0,"pressure":942.1,"uv_index":9.05,"wind_gusts":33.8,"aqi":63,"pm10":45.3,"pm2_5":17.8,"mosquito_risk":0,"arthritis_risk":5,"migraine_risk":7,"frizz_risk":0,"updated_at":"2026-04-11T08:03:23.525130+05:30"},{"city":"Jamshedpur","state":"Jharkhand","latitude":22.8046,"longitude":86.2029,"temp":25.2,"humidity":75,"rain":0.0,"pressure":995.7,"uv_index":8.85,"wind_gusts":17.6,"aqi":112,"pm10":72.2,"pm2_5":59.4,"mosquito_risk":7,"arthritis_risk":5,"migraine_risk":7,"frizz_risk":1,"updated_at":"2026-04-11T08:03:23.525135+05:30"},{"city":"Dhanbad","state":"Jharkhand","latitude":23.7957,"longitude":86.4304,"temp":24.9,"humidity":52,"rain":0.0,"pressure":984.6,"uv_index":8.8,"wind_gusts":25.9,"aqi":114,"pm10":62.4,"pm2_5":53.7,"mosquito_risk":0,"arthritis_risk":5,"migraine_risk":7,"frizz_risk":0,"updated_at":"2026-04-11T08:03:23.525141+05:30"},{"city":"Bokaro","state":"Jharkhand","latitude":23.6693,"longitude":86.1511,"temp":24.7,"humidity":53,"rain":0.0,"pressure":988.8,"uv_index":8.8,"wind_gusts":27.7,"aqi":110,"pm10":61.9,"pm2_5":52.4,"mosquito_risk":0,"arthritis_risk":5,"migraine_risk":7,"frizz_risk":0,"updated_at":"2026-04-11T08:03:23.525147+05:30"},{"city":"Bhubaneswar","state":"Odisha","latitude":20.2961,"longitude":85.8245,"temp":28.7,"humidity":83,"rain":0.0,"pressure":1006.7,"uv_index":9.0,"wind_gusts":23.4,"aqi":115,"pm10":63.8,"pm2_5":49.1,"mosquito_risk":7,"arthritis_risk":5,"migraine_risk":4,"frizz_risk":1,"updated_at":"2026-04-11T08:03:23.525152+05:30"},{"city":"Cuttack","state":"Odisha","latitude":20.4625,"longitude":85.8828,"temp":28.9,"humidity":82,"rain":0.0,"pressure":1008.6,"uv_index":9.05,"wind_gusts":18.7,"aqi":115,"pm10":63.8,"pm2_5":49.1,"mosquito_risk":7,"arthritis_risk":0,"migraine_risk":4,"frizz_risk":1,"updated_at":"2026-04-11T08:03:23.525158+05:30"},{"city":"Rourkela","state":"Odisha","latitude":22.2604,"longitude":84.8536,"temp":25.8,"humidity":67,"rain":0.0,"pressure":990.1,"uv_index":8.75,"wind_gusts":17.3,"aqi":84,"pm10":46.7,"pm2_5":37.8,"mosquito_risk":7,"arthritis_risk":5,"migraine_risk":7,"frizz_risk":1,"updated_at":"2026-04-11T08:03:23.525163+05:30"},{"city":"Raipur","state":"Chhattisgarh","latitude":21.2514,"longitude":81.6296,"temp":26.9,"humidity":41,"rain":0.0,"pressure":979.6,"uv_index":8.85,"wind_gusts":19.8,"aqi":109,"pm10":43.2,"pm2_5":36.3,"mosquito_risk":4,"arthritis_risk":5,"migraine_risk":7,"frizz_risk":0,"updated_at":"2026-04-11T08:03:23.525169+05:30"},{"city":"Bhilai","state":"Chhattisgarh","latitude":21.1938,"longitude":81.3509,"temp":26.2,"humidity":44,"rain":0.0,"pressure":980.1,"uv_index":8.85,"wind_gusts":17.6,"aqi":108,"pm10":31.2,"pm2_5":26.1,"mosquito_risk":4,"arthritis_risk":5,"migraine_risk":7,"frizz_risk":0,"updated_at":"2026-04-11T08:03:23.525174+05:30"},{"city":"Guwahati","state":"Assam","latitude":26.1158,"longitude":91.7086,"temp":22.8,"humidity":83,"rain":0.0,"pressure":1006.4,"uv_index":8.35,"wind_gusts":20.9,"aqi":105,"pm10":43.2,"pm2_5":35.6,"mosquito_risk":3,"arthritis_risk":5,"migraine_risk":4,"frizz_risk":1,"updated_at":"2026-04-11T08:03:23.525179+05:30"},{"city":"Agartala","state":"Tripura","latitude":23.8315,"longitude":91.2868,"temp":25.7,"humidity":86,"rain":0.0,"pressure":1010.8,"uv_index":8.6,"wind_gusts":26.3,"aqi":142,"pm10":65.4,"pm2_5":53.6,"mosquito_risk":7,"arthritis_risk":0,"migraine_risk":4,"frizz_risk":1,"updated_at":"2026-04-11T08:03:23.525185+05:30"},{"city":"Shillong","state":"Meghalaya","latitude":25.5788,"longitude":91.8933,"temp":16.0,"humidity":48,"rain":0.0,"pressure":858.6,"uv_index":8.75,"wind_gusts":55.8,"aqi":85,"pm10":29.0,"pm2_5":20.8,"mosquito_risk":0,"arthritis_risk":5,"migraine_risk":7,"frizz_risk":0,"updated_at":"2026-04-11T08:03:23.525191+05:30"},{"city":"Imphal","state":"Manipur","latitude":24.817,"longitude":93.9368,"temp":19.2,"humidity":55,"rain":0.0,"pressure":926.3,"uv_index":8.95,"wind_gusts":51.5,"aqi":92,"pm10":58.6,"pm2_5":39.9,"mosquito_risk":0,"arthritis_risk":5,"migraine_risk":7,"frizz_risk":0,"updated_at":"2026-04-11T08:03:23.525196+05:30"},{"city":"Aizawl","state":"Mizoram","latitude":23.7271,"longitude":92.7176,"temp":21.0,"humidity":62,"rain":0.0,"pressure":897.0,"uv_index":8.8,"wind_gusts":40.7,"aqi":85,"pm10":46.4,"pm2_5":29.0,"mosquito_risk":3,"arthritis_risk":5,"migraine_risk":7,"frizz_risk":0,"updated_at":"2026-04-11T08:03:23.525202+05:30"},{"city":"Kohima","state":"Nagaland","latitude":25.6701,"longitude":94.1077,"temp":14.9,"humidity":59,"rain":0.0,"pressure":857.0,"uv_index":8.3,"wind_gusts":77.8,"aqi":68,"pm10":34.6,"pm2_5":24.4,"mosquito_risk":0,"arthritis_risk":5,"migraine_risk":7,"frizz_risk":0,"updated_at":"2026-04-11T08:03:23.525207+05:30"},{"city":"Gangtok","state":"Sikkim","latitude":27.3314,"longitude":88.6138,"temp":13.3,"humidity":84,"rain":0.0,"pressure":838.6,"uv_index":8.55,"wind_gusts":18.7,"aqi":79,"pm10":34.3,"pm2_5":26.5,"mosquito_risk":3,"arthritis_risk":10,"migraine_risk":7,"frizz_risk":0,"updated_at":"2026-04-11T08:03:23.525213+05:30"},{"city":"Siliguri","state":"West Bengal","latitude":26.7271,"longitude":88.3953,"temp":21.0,"humidity":68,"rain":0.0,"pressure":998.3,"uv_index":8.3,"wind_gusts":17.6,"aqi":120,"pm10":64.0,"pm2_5":47.5,"mosquito_risk":3,"arthritis_risk":5,"migraine_risk":7,"frizz_risk":0,"updated_at":"2026-04-11T08:03:26.742257+05:30"},{"city":"Durgapur","state":"West Bengal","latitude":23.5204,"longitude":87.3119,"temp":26.2,"humidity":66,"rain":0.0,"pressure":999.6,"uv_index":8.75,"wind_gusts":20.2,"aqi":107,"pm10":69.4,"pm2_5":61.7,"mosquito_risk":7,"arthritis_risk":5,"migraine_risk":7,"frizz_risk":1,"updated_at":"2026-04-11T08:03:26.742285+05:30"},{"city":"Asansol","state":"West Bengal","latitude":23.6739,"longitude":86.9524,"temp":26.4,"humidity":62,"rain":0.0,"pressure":998.1,"uv_index":8.8,"wind_gusts":21.6,"aqi":88,"pm10":49.1,"pm2_5":41.6,"mosquito_risk":7,"arthritis_risk":5,"migraine_risk":7,"frizz_risk":1,"updated_at":"2026-04-11T08:03:26.742294+05:30"},{"city":"Pondicherry","state":"Puducherry","latitude":11.9139,"longitude":79.8145,"temp":29.0,"humidity":81,"rain":0.0,"pressure":1012.1,"uv_index":9.35,"wind_gusts":36.0,"aqi":57,"pm10":19.6,"pm2_5":13.8,"mosquito_risk":7,"arthritis_risk":0,"migraine_risk":4,"frizz_risk":1,"updated_at":"2026-04-11T08:03:26.742302+05:30"},{"city":"Port Blair","state":"Andaman and Nicobar Islands","latitude":11.6234,"longitude":92.7265,"temp":29.2,"humidity":73,"rain":0.0,"pressure":1010.3,"uv_index":9.25,"wind_gusts":24.1,"aqi":25,"pm10":8.1,"pm2_5":5.2,"mosquito_risk":7,"arthritis_risk":0,"migraine_risk":4,"frizz_risk":1,"updated_at":"2026-04-11T08:03:26.742309+05:30"},{"city":"Haridwar","state":"Uttarakhand","latitude":29.9457,"longitude":78.1642,"temp":20.4,"humidity":78,"rain":0.0,"pressure":976.9,"uv_index":6.9,"wind_gusts":42.8,"aqi":63,"pm10":26.7,"pm2_5":25.6,"mosquito_risk":3,"arthritis_risk":5,"migraine_risk":7,"frizz_risk":1,"updated_at":"2026-04-11T08:03:26.742316+05:30"},{"city":"Rishikesh","state":"Uttarakhand","latitude":30.0869,"longitude":78.2676,"temp":21.4,"humidity":65,"rain":0.0,"pressure":969.4,"uv_index":6.95,"wind_gusts":41.4,"aqi":50,"pm10":15.0,"pm2_5":13.7,"mosquito_risk":3,"arthritis_risk":5,"migraine_risk":7,"frizz_risk":0,"updated_at":"2026-04-11T08:03:26.742323+05:30"},{"city":"Nainital","state":"Uttarakhand","latitude":29.3919,"longitude":79.4542,"temp":18.7,"humidity":48,"rain":0.0,"pressure":807.2,"uv_index":7.75,"wind_gusts":64.8,"aqi":54,"pm10":12.7,"pm2_5":10.7,"mosquito_risk":0,"arthritis_risk":5,"migraine_risk":7,"frizz_risk":0,"updated_at":"2026-04-11T08:03:26.742329+05:30"},{"city":"Mussoorie","state":"Uttarakhand","latitude":30.4599,"longitude":78.0664,"temp":15.8,"humidity":50,"rain":0.0,"pressure":803.2,"uv_index":6.85,"wind_gusts":51.5,"aqi":54,"pm10":14.7,"pm2_5":14.1,"mosquito_risk":0,"arthritis_risk":5,"migraine_risk":7,"frizz_risk":0,"updated_at":"2026-04-11T08:03:26.742336+05:30"},{"city":"Dharamshala","state":"Himachal Pradesh","latitude":32.219,"longitude":76.3234,"temp":18.2,"humidity":54,"rain":0.0,"pressure":870.2,"uv_index":7.6,"wind_gusts":24.5,"aqi":80,"pm10":22.1,"pm2_5":8.3,"mosquito_risk":0,"arthritis_risk":5,"migraine_risk":7,"frizz_risk":0,"updated_at":"2026-04-11T08:03:26.742344+05:30"},{"city":"Dalhousie","state":"Himachal Pradesh","latitude":32.5387,"longitude":75.971,"temp":14.7,"humidity":60,"rain":0.0,"pressure":803.9,"uv_index":7.7,"wind_gusts":20.2,"aqi":48,"pm10":22.3,"pm2_5":16.6,"mosquito_risk":0,"arthritis_risk":5,"migraine_risk":7,"frizz_risk":0,"updated_at":"2026-04-11T08:03:26.742351+05:30"},{"city":"Patiala","state":"Punjab","latitude":30.3398,"longitude":76.3869,"temp":21.3,"humidity":63,"rain":0.0,"pressure":982.4,"uv_index":6.95,"wind_gusts":35.3,"aqi":797,"pm10":624.0,"pm2_5":71.0,"mosquito_risk":3,"arthritis_risk":5,"migraine_risk":7,"frizz_risk":0,"updated_at":"2026-04-11T08:03:26.742358+05:30"},{"city":"Bhatinda","state":"Punjab","latitude":30.211,"longitude":74.9455,"temp":22.0,"humidity":62,"rain":0.0,"pressure":988.7,"uv_index":7.7,"wind_gusts":28.8,"aqi":59,"pm10":65.4,"pm2_5":20.8,"mosquito_risk":3,"arthritis_risk":5,"migraine_risk":7,"frizz_risk":0,"updated_at":"2026-04-11T08:03:26.742364+05:30"},{"city":"Rohtak","state":"Haryana","latitude":28.8955,"longitude":76.6066,"temp":21.4,"humidity":61,"rain":0.0,"pressure":986.9,"uv_index":7.2,"wind_gusts":37.4,"aqi":1109,"pm10":793.5,"pm2_5":123.9,"mosquito_risk":3,"arthritis_risk":5,"migraine_risk":7,"frizz_risk":0,"updated_at":"2026-04-11T08:03:26.742371+05:30"},{"city":"Panipat","state":"Haryana","latitude":29.3909,"longitude":76.9635,"temp":21.2,"humidity":62,"rain":0.0,"pressure":984.7,"uv_index":7.0,"wind_gusts":34.6,"aqi":2103,"pm10":1486.4,"pm2_5":177.4,"mosquito_risk":3,"arthritis_risk":5,"migraine_risk":7,"frizz_risk":0,"updated_at":"2026-04-11T08:03:26.742377+05:30"},{"city":"Mathura","state":"Uttar Pradesh","latitude":27.4924,"longitude":77.6737,"temp":23.9,"humidity":54,"rain":0.0,"pressure":991.9,"uv_index":7.5,"wind_gusts":32.0,"aqi":1392,"pm10":756.2,"pm2_5":142.0,"mosquito_risk":0,"arthritis_risk":5,"migraine_risk":7,"frizz_risk":0,"updated_at":"2026-04-11T08:03:26.742384+05:30"},{"city":"Vrindavan","state":"Uttar Pradesh","latitude":27.5823,"longitude":77.7027,"temp":22.8,"humidity":60,"rain":0.0,"pressure":992.2,"uv_index":7.45,"wind_gusts":38.2,"aqi":1392,"pm10":756.2,"pm2_5":142.0,"mosquito_risk":0,"arthritis_risk":5,"migraine_risk":7,"frizz_risk":0,"updated_at":"2026-04-11T08:03:26.742390+05:30"},{"city":"Ayodhya","state":"Uttar Pradesh","latitude":26.7922,"longitude":82.1998,"temp":23.9,"humidity":47,"rain":0.0,"pressure":999.1,"uv_index":7.85,"wind_gusts":45.7,"aqi":116,"pm10":229.1,"pm2_5":77.1,"mosquito_risk":0,"arthritis_risk":5,"migraine_risk":7,"frizz_risk":0,"updated_at":"2026-04-11T08:03:26.742396+05:30"},{"city":"Ratlam","state":"Madhya Pradesh","latitude":23.3315,"longitude":75.0367,"temp":21.5,"humidity":64,"rain":0.0,"pressure":958.6,"uv_index":8.35,"wind_gusts":20.2,"aqi":54,"pm10":37.4,"pm2_5":23.5,"mosquito_risk":3,"arthritis_risk":5,"migraine_risk":7,"frizz_risk":0,"updated_at":"2026-04-11T08:03:26.742402+05:30"},{"city":"Sagar","state":"Madhya Pradesh","latitude":23.8388,"longitude":78.7378,"temp":24.5,"humidity":34,"rain":0.0,"pressure":955.2,"uv_index":8.5,"wind_gusts":26.6,"aqi":53,"pm10":21.9,"pm2_5":12.7,"mosquito_risk":0,"arthritis_risk":5,"migraine_risk":7,"frizz_risk":0,"updated_at":"2026-04-11T08:03:26.742409+05:30"},{"city":"Satna","state":"Madhya Pradesh","latitude":24.6005,"longitude":80.8322,"temp":24.8,"humidity":43,"rain":0.0,"pressure":976.6,"uv_index":8.5,"wind_gusts":33.8,"aqi":57,"pm10":139.2,"pm2_5":22.9,"mosquito_risk":0,"arthritis_risk":5,"migraine_risk":7,"frizz_risk":0,"updated_at":"2026-04-11T08:03:26.742415+05:30"},{"city":"Akola","state":"Maharashtra","latitude":20.7002,"longitude":77.0082,"temp":26.9,"humidity":48,"rain":0.0,"pressure":979.3,"uv_index":8.75,"wind_gusts":24.8,"aqi":79,"pm10":35.0,"pm2_5":28.4,"mosquito_risk":4,"arthritis_risk":5,"migraine_risk":7,"frizz_risk":0,"updated_at":"2026-04-11T08:03:26.742422+05:30"},{"city":"Amravati","state":"Maharashtra","latitude":20.9374,"longitude":77.7796,"temp":26.8,"humidity":43,"rain":0.0,"pressure":971.6,"uv_index":8.75,"wind_gusts":22.3,"aqi":71,"pm10":25.6,"pm2_5":20.0,"mosquito_risk":4,"arthritis_risk":5,"migraine_risk":7,"frizz_risk":0,"updated_at":"2026-04-11T08:03:26.742429+05:30"},{"city":"Latur","state":"Maharashtra","latitude":18.4088,"longitude":76.5604,"temp":26.0,"humidity":51,"rain":0.0,"pressure":943.2,"uv_index":9.0,"wind_gusts":17.6,"aqi":73,"pm10":49.7,"pm2_5":39.2,"mosquito_risk":4,"arthritis_risk":5,"migraine_risk":7,"frizz_risk":0,"updated_at":"2026-04-11T08:03:26.742436+05:30"},{"city":"Nanded","state":"Maharashtra","latitude":19.1383,"longitude":77.3091,"temp":28.1,"humidity":55,"rain":0.0,"pressure":972.1,"uv_index":8.9,"wind_gusts":15.5,"aqi":85,"pm10":36.9,"pm2_5":29.9,"mosquito_risk":4,"arthritis_risk":5,"migraine_risk":7,"frizz_risk":1,"updated_at":"2026-04-11T08:03:26.742442+05:30"},{"city":"Gulbarga","state":"Karnataka","latitude":17.3297,"longitude":76.8343,"temp":30.1,"humidity":48,"rain":0.0,"pressure":962.0,"uv_index":9.1,"wind_gusts":19.8,"aqi":63,"pm10":25.4,"pm2_5":21.0,"mosquito_risk":0,"arthritis_risk":5,"migraine_risk":7,"frizz_risk":1,"updated_at":"2026-04-11T08:03:26.742448+05:30"},{"city":"Bidar","state":"Karnataka","latitude":17.9104,"longitude":77.5199,"temp":28.5,"humidity":55,"rain":0.0,"pressure":938.9,"uv_index":9.05,"wind_gusts":29.2,"aqi":70,"pm10":38.4,"pm2_5":30.3,"mosquito_risk":4,"arthritis_risk":5,"migraine_risk":7,"frizz_risk":1,"updated_at":"2026-04-11T08:03:26.742454+05:30"},{"city":"Hospet","state":"Karnataka","latitude":15.2689,"longitude":76.3909,"temp":27.0,"humidity":67,"rain":0.0,"pressure":959.1,"uv_index":9.3,"wind_gusts":24.1,"aqi":82,"pm10":44.7,"pm2_5":39.7,"mosquito_risk":7,"arthritis_risk":5,"migraine_risk":7,"frizz_risk":1,"updated_at":"2026-04-11T08:03:26.742460+05:30"},{"city":"Tirupur","state":"Tamil Nadu","latitude":11.1085,"longitude":77.3411,"temp":27.2,"humidity":73,"rain":0.0,"pressure":979.1,"uv_index":8.65,"wind_gusts":26.6,"aqi":74,"pm10":29.4,"pm2_5":21.8,"mosquito_risk":7,"arthritis_risk":5,"migraine_risk":7,"frizz_risk":1,"updated_at":"2026-04-11T08:03:26.742466+05:30"},{"city":"Alappuzha","state":"Kerala","latitude":9.4981,"longitude":76.3388,"temp":27.0,"humidity":86,"rain":0.0,"pressure":1012.1,"uv_index":8.0,"wind_gusts":29.9,"aqi":70,"pm10":23.9,"pm2_5":19.8,"mosquito_risk":7,"arthritis_risk":0,"migraine_risk":4,"frizz_risk":1,"updated_at":"2026-04-11T08:03:26.742472+05:30"},{"city":"Munnar","state":"Kerala","latitude":10.0889,"longitude":77.0595,"temp":22.9,"humidity":77,"rain":0.0,"pressure":860.0,"uv_index":9.0,"wind_gusts":37.8,"aqi":82,"pm10":31.4,"pm2_5":29.7,"mosquito_risk":3,"arthritis_risk":5,"migraine_risk":7,"frizz_risk":1,"updated_at":"2026-04-11T08:03:26.742479+05:30"},{"city":"Silchar","state":"Assam","latitude":24.8333,"longitude":92.7789,"temp":23.9,"humidity":75,"rain":0.0,"pressure":1010.0,"uv_index":8.6,"wind_gusts":25.2,"aqi":131,"pm10":65.0,"pm2_5":47.0,"mosquito_risk":3,"arthritis_risk":0,"migraine_risk":4,"frizz_risk":1,"updated_at":"2026-04-11T08:03:26.742485+05:30"},{"city":"Dibrugarh","state":"Assam","latitude":27.4728,"longitude":94.912,"temp":20.2,"humidity":89,"rain":0.0,"pressure":1000.8,"uv_index":8.4,"wind_gusts":20.2,"aqi":90,"pm10":37.0,"pm2_5":26.1,"mosquito_risk":3,"arthritis_risk":5,"migraine_risk":4,"frizz_risk":1,"updated_at":"2026-04-11T08:03:26.742490+05:30"}]