[{"city":"Delhi","state":"Delhi","latitude":28.6139,"longitude":77.209,"temp":26.6,"humidity":56,"rain":0.0,"pressure":984.2,"uv_index":5.85,"wind_gusts":34.6,"aqi":426,"pm10":840.1,"pm2_5":137.8,"mosquito_risk":4,"arthritis_risk":5,"migraine_risk":3,"frizz_risk":1,"updated_at":"2026-03-05T20:20:15.172966+05:30"},{"city":"Mumbai","state":"Maharashtra","latitude":19.076,"longitude":72.8777,"temp":29.7,"humidity":53,"rain":0.0,"pressure":1009.1,"uv_index":7.4,"wind_gusts":26.6,"aqi":185,"pm10":35.0,"pm2_5":32.9,"mosquito_risk":4,"arthritis_risk":0,"migraine_risk":4,"frizz_risk":1,"updated_at":"2026-03-05T20:20:15.173002+05:30"},{"city":"Bangalore","state":"Karnataka","latitude":12.9716,"longitude":77.5946,"temp":25.3,"humidity":39,"rain":0.0,"pressure":912.7,"uv_index":9.15,"wind_gusts":31.3,"aqi":150,"pm10":38.4,"pm2_5":36.9,"mosquito_risk":4,"arthritis_risk":5,"migraine_risk":7,"frizz_risk":0,"updated_at":"2026-03-05T20:20:15.173019+05:30"},{"city":"Hyderabad","state":"Telangana","latitude":17.385,"longitude":78.4867,"temp":29.0,"humidity":37,"rain":0.0,"pressure":954.4,"uv_index":8.45,"wind_gusts":27.4,"aqi":155,"pm10":33.3,"pm2_5":31.4,"mosquito_risk":4,"arthritis_risk":5,"migraine_risk":7,"frizz_risk":0,"updated_at":"2026-03-05T20:20:15.173034+05:30"},{"city":"Chennai","state":"Tamil Nadu","latitude":13.0827,"longitude":80.2707,"temp":26.7,"humidity":79,"rain":0.0,"pressure":1008.4,"uv_index":8.85,"wind_gusts":31.3,"aqi":99,"pm10":28.3,"pm2_5":24.3,"mosquito_risk":7,"arthritis_risk":0,"migraine_risk":4,"frizz_risk":1,"updated_at":"2026-03-05T20:20:15.173044+05:30"},{"city":"Kolkata","state":"West Bengal","latitude":22.5726,"longitude":88.3639,"temp":25.6,"humidity":57,"rain":0.0,"pressure":1006.8,"uv_index":7.8,"wind_gusts":10.8,"aqi":213,"pm10":132.7,"pm2_5":115.5,"mosquito_risk":4,"arthritis_risk":5,"migraine_risk":4,"frizz_risk":1,"updated_at":"2026-03-05T20:20:15.173052+05:30"},{"city":"Pune","state":"Maharashtra","latitude":18.5204,"longitude":73.8567,"temp":28.6,"humidity":31,"rain":0.0,"pressure":949.6,"uv_index":7.95,"wind_gusts":31.3,"aqi":124,"pm10":19.6,"pm2_5":18.4,"mosquito_risk":4,"arthritis_risk":5,"migraine_risk":7,"frizz_risk":0,"updated_at":"2026-03-05T20:20:15.173060+05:30"},{"city":"Ahmedabad","state":"Gujarat","latitude":23.0225,"longitude":72.5714,"temp":27.6,"humidity":32,"rain":0.0,"pressure":1005.1,"uv_index":7.15,"wind_gusts":28.4,"aqi":95,"pm10":31.0,"pm2_5":29.9,"mosquito_risk":4,"arthritis_risk":5,"migraine_risk":4,"frizz_risk":0,"updated_at":"2026-03-05T20:20:15.173068+05:30"},{"city":"Jaipur","state":"Rajasthan","latitude":26.9124,"longitude":75.7873,"temp":28.9,"humidity":26,"rain":0.0,"pressure":962.1,"uv_index":6.65,"wind_gusts":34.9,"aqi":95,"pm10":131.3,"pm2_5":33.9,"mosquito_risk":4,"arthritis_risk":5,"migraine_risk":7,"frizz_risk":0,"updated_at":"2026-03-05T20:20:15.173076+05:30"},{"city":"Lucknow","state":"Uttar Pradesh","latitude":26.8467,"longitude":80.9462,"temp":26.6,"humidity":64,"rain":0.0,"pressure":994.7,"uv_index":6.4,"wind_gusts":15.1,"aqi":165,"pm10":213.3,"pm2_5":86.6,"mosquito_risk":7,"arthritis_risk":5,"migraine_risk":7,"frizz_risk":1,"updated_at":"2026-03-05T20:20:15.173083+05:30"},{"city":"Kanpur","state":"Uttar Pradesh","latitude":26.4499,"longitude":80.3319,"temp":24.6,"humidity":64,"rain":0.0,"pressure":992.8,"uv_index":6.4,"wind_gusts":28.4,"aqi":176,"pm10":293.4,"pm2_5":81.3,"mosquito_risk":3,"arthritis_risk":5,"migraine_risk":7,"frizz_risk":1,"updated_at":"2026-03-05T20:20:15.173091+05:30"},{"city":"Chandigarh","state":"Chandigarh","latitude":30.7333,"longitude":76.7794,"temp":22.6,"humidity":69,"rain":0.0,"pressure":969.6,"uv_index":5.75,"wind_gusts":31.0,"aqi":127,"pm10":51.9,"pm2_5":43.7,"mosquito_risk":3,"arthritis_risk":5,"migraine_risk":3,"frizz_risk":1,"updated_at":"2026-03-05T20:20:15.173098+05:30"},{"city":"Srinagar","state":"Jammu and Kashmir","latitude":34.0837,"longitude":74.7973,"temp":13.9,"humidity":75,"rain":0.0,"pressure":841.8,"uv_index":6.75,"wind_gusts":14.4,"aqi":151,"pm10":61.5,"pm2_5":47.4,"mosquito_risk":3,"arthritis_risk":5,"migraine_risk":7,"frizz_risk":0,"updated_at":"2026-03-05T20:20:15.173106+05:30"},{"city":"Jammu","state":"Jammu and Kashmir","latitude":32.7266,"longitude":74.857,"temp":24.2,"humidity":66,"rain":0.0,"pressure":973.6,"uv_index":6.4,"wind_gusts":23.8,"aqi":104,"pm10":74.7,"pm2_5":51.8,"mosquito_risk":3,"arthritis_risk":5,"migraine_risk":7,"frizz_risk":1,"updated_at":"2026-03-05T20:20:15.173115+05:30"},{"city":"Amritsar","state":"Punjab","latitude":31.634,"longitude":74.8723,"temp":22.1,"humidity":65,"rain":0.0,"pressure":981.9,"uv_index":6.35,"wind_gusts":22.7,"aqi":146,"pm10":54.2,"pm2_5":39.7,"mosquito_risk":3,"arthritis_risk":5,"migraine_risk":7,"frizz_risk":0,"updated_at":"2026-03-05T20:20:15.173122+05:30"},{"city":"Ludhiana","state":"Punjab","latitude":30.901,"longitude":75.8573,"temp":25.0,"humidity":65,"rain":0.0,"pressure":980.3,"uv_index":6.0,"wind_gusts":25.6,"aqi":156,"pm10":122.5,"pm2_5":63.3,"mosquito_risk":7,"arthritis_risk":5,"migraine_risk":3,"frizz_risk":1,"updated_at":"2026-03-05T20:20:15.173128+05:30"},{"city":"Jalandhar","state":"Punjab","latitude":31.326,"longitude":75.5762,"temp":24.4,"humidity":66,"rain":0.0,"pressure":981.3,"uv_index":6.2,"wind_gusts":24.1,"aqi":156,"pm10":77.1,"pm2_5":49.4,"mosquito_risk":3,"arthritis_risk":5,"migraine_risk":7,"frizz_risk":1,"updated_at":"2026-03-05T20:20:15.173135+05:30"},{"city":"Dehradun","state":"Uttarakhand","latitude":30.6284,"longitude":78.0322,"temp":15.2,"humidity":93,"rain":0.0,"pressure":830.0,"uv_index":6.15,"wind_gusts":31.7,"aqi":90,"pm10":37.1,"pm2_5":26.7,"mosquito_risk":3,"arthritis_risk":10,"migraine_risk":7,"frizz_risk":0,"updated_at":"2026-03-05T20:20:15.173142+05:30"},{"city":"Shimla","state":"Himachal Pradesh","latitude":31.1048,"longitude":77.1734,"temp":14.9,"humidity":58,"rain":0.0,"pressure":785.5,"uv_index":6.2,"wind_gusts":55.1,"aqi":69,"pm10":35.9,"pm2_5":22.1,"mosquito_risk":0,"arthritis_risk":5,"migraine_risk":7,"frizz_risk":0,"updated_at":"2026-03-05T20:20:15.173149+05:30"},{"city":"Manali","state":"Himachal Pradesh","latitude":32.2396,"longitude":77.1887,"temp":20.1,"humidity":49,"rain":0.0,"pressure":823.4,"uv_index":7.8,"wind_gusts":36.7,"aqi":105,"pm10":26.8,"pm2_5":16.4,"mosquito_risk":0,"arthritis_risk":5,"migraine_risk":7,"frizz_risk":0,"updated_at":"2026-03-05T20:20:15.173155+05:30"},{"city":"Gurgaon","state":"Haryana","latitude":28.4595,"longitude":77.0266,"temp":23.4,"humidity":68,"rain":0.0,"pressure":982.6,"uv_index":5.95,"wind_gusts":33.5,"aqi":1516,"pm10":1642.9,"pm2_5":215.1,"mosquito_risk":3,"arthritis_risk":5,"migraine_risk":3,"frizz_risk":1,"updated_at":"2026-03-05T20:20:15.173161+05:30"},{"city":"Noida","state":"Uttar Pradesh","latitude":28.5355,"longitude":77.391,"temp":26.6,"humidity":56,"rain":0.0,"pressure":985.6,"uv_index":5.85,"wind_gusts":34.6,"aqi":1516,"pm10":1642.9,"pm2_5":215.1,"mosquito_risk":4,"arthritis_risk":5,"migraine_risk":3,"frizz_risk":1,"updated_at":"2026-03-05T20:20:15.173168+05:30"},{"city":"Ghaziabad","state":"Uttar Pradesh","latitude":28.6692,"longitude":77.4538,"temp":26.0,"humidity":60,"rain":0.0,"pressure":983.7,"uv_index":5.8,"wind_gusts":31.7,"aqi":286,"pm10":666.8,"pm2_5":121.1,"mosquito_risk":4,"arthritis_risk":5,"migraine_risk":3,"frizz_risk":1,"updated_at":"2026-03-05T20:20:15.173174+05:30"},{"city":"Faridabad","state":"Haryana","latitude":28.4089,"longitude":77.3178,"temp":26.1,"humidity":53,"rain":0.0,"pressure":985.1,"uv_index":5.9,"wind_gusts":33.1,"aqi":1516,"pm10":1642.9,"pm2_5":215.1,"mosquito_risk":4,"arthritis_risk":5,"migraine_risk":3,"frizz_risk":0,"updated_at":"2026-03-05T20:20:15.173183+05:30"},{"city":"Meerut","state":"Uttar Pradesh","latitude":28.9845,"longitude":77.7064,"temp":24.2,"humidity":65,"rain":0.0,"pressure":982.0,"uv_index":5.7,"wind_gusts":30.6,"aqi":286,"pm10":666.8,"pm2_5":121.1,"mosquito_risk":3,"arthritis_risk":5,"migraine_risk":3,"frizz_risk":1,"updated_at":"2026-03-05T20:20:15.173190+05:30"},{"city":"Agra","state":"Uttar Pradesh","latitude":27.1767,"longitude":78.0081,"temp":24.2,"humidity":57,"rain":0.0,"pressure":989.1,"uv_index":6.2,"wind_gusts":37.8,"aqi":493,"pm10":838.2,"pm2_5":120.6,"mosquito_risk":0,"arthritis_risk":5,"migraine_risk":7,"frizz_risk":0,"updated_at":"2026-03-05T20:20:15.173199+05:30"},{"city":"Varanasi","state":"Uttar Pradesh","latitude":25.3176,"longitude":82.9739,"temp":24.0,"humidity":68,"rain":0.0,"pressure":999.0,"uv_index":7.05,"wind_gusts":16.6,"aqi":159,"pm10":180.7,"pm2_5":91.0,"mosquito_risk":3,"arthritis_risk":5,"migraine_risk":7,"frizz_risk":1,"updated_at":"2026-03-05T20:20:15.173207+05:30"},{"city":"Prayagraj","state":"Uttar Pradesh","latitude":25.4358,"longitude":81.8463,"temp":24.9,"humidity":69,"rain":0.0,"pressure":997.0,"uv_index":6.9,"wind_gusts":19.4,"aqi":156,"pm10":203.0,"pm2_5":89.2,"mosquito_risk":3,"arthritis_risk":5,"migraine_risk":7,"frizz_risk":1,"updated_at":"2026-03-05T20:20:15.173214+05:30"},{"city":"Gorakhpur","state":"Uttar Pradesh","latitude":26.7606,"longitude":83.3732,"temp":24.2,"humidity":64,"rain":0.0,"pressure":998.7,"uv_index":6.75,"wind_gusts":11.2,"aqi":185,"pm10":148.5,"pm2_5":102.4,"mosquito_risk":3,"arthritis_risk":5,"migraine_risk":7,"frizz_risk":1,"updated_at":"2026-03-05T20:20:15.173222+05:30"},{"city":"Bareilly","state":"Uttar Pradesh","latitude":28.367,"longitude":79.4304,"temp":23.3,"humidity":78,"rain":0.0,"pressure":987.9,"uv_index":6.05,"wind_gusts":14.0,"aqi":173,"pm10":152.7,"pm2_5":96.6,"mosquito_risk":3,"arthritis_risk":5,"migraine_risk":7,"frizz_risk":1,"updated_at":"2026-03-05T20:20:15.173229+05:30"},{"city":"Aligarh","state":"Uttar Pradesh","latitude":27.8974,"longitude":78.088,"temp":24.1,"humidity":60,"rain":0.0,"pressure":986.6,"uv_index":5.95,"wind_gusts":35.3,"aqi":726,"pm10":1151.1,"pm2_5":184.4,"mosquito_risk":0,"arthritis_risk":5,"migraine_risk":3,"frizz_risk":0,"updated_at":"2026-03-05T20:20:15.173236+05:30"},{"city":"Moradabad","state":"Uttar Pradesh","latitude":28.8386,"longitude":78.7733,"temp":23.7,"humidity":75,"rain":0.0,"pressure":984.5,"uv_index":5.85,"wind_gusts":18.0,"aqi":174,"pm10":121.5,"pm2_5":88.5,"mosquito_risk":3,"arthritis_risk":5,"migraine_risk":3,"frizz_risk":1,"updated_at":"2026-03-05T20:20:15.173242+05:30"},{"city":"Saharanpur","state":"Uttar Pradesh","latitude":29.9637,"longitude":77.546,"temp":22.8,"humidity":67,"rain":0.0,"pressure":975.9,"uv_index":5.5,"wind_gusts":23.4,"aqi":157,"pm10":340.9,"pm2_5":89.4,"mosquito_risk":3,"arthritis_risk":5,"migraine_risk":3,"frizz_risk":1,"updated_at":"2026-03-05T20:20:15.173247+05:30"},{"city":"Jhansi","state":"Uttar Pradesh","latitude":25.4484,"longitude":78.5685,"temp":27.4,"humidity":39,"rain":0.0,"pressure":979.5,"uv_index":6.85,"wind_gusts":35.3,"aqi":70,"pm10":34.0,"pm2_5":22.2,"mosquito_risk":4,"arthritis_risk":5,"migraine_risk":7,"frizz_risk":0,"updated_at":"2026-03-05T20:20:18.423630+05:30"},{"city":"Surat","state":"Gujarat","latitude":21.1702,"longitude":72.8311,"temp":28.8,"humidity":39,"rain":0.0,"pressure":1008.7,"uv_index":7.1,"wind_gusts":29.5,"aqi":109,"pm10":54.8,"pm2_5":52.9,"mosquito_risk":4,"arthritis_risk":0,"migraine_risk":4,"frizz_risk":0,"updated_at":"2026-03-05T20:20:18.423657+05:30"},{"city":"Vadodara","state":"Gujarat","latitude":22.3072,"longitude":73.1812,"temp":29.8,"humidity":26,"rain":0.0,"pressure":1006.6,"uv_index":7.2,"wind_gusts":24.5,"aqi":122,"pm10":37.3,"pm2_5":35.6,"mosquito_risk":4,"arthritis_risk":5,"migraine_risk":4,"frizz_risk":0,"updated_at":"2026-03-05T20:20:18.423667+05:30"},{"city":"Rajkot","state":"Gujarat","latitude":22.3039,"longitude":70.8022,"temp":27.4,"humidity":37,"rain":0.0,"pressure":998.1,"uv_index":7.05,"wind_gusts":36.4,"aqi":109,"pm10":18.5,"pm2_5":18.0,"mosquito_risk":4,"arthritis_risk":5,"migraine_risk":7,"frizz_risk":0,"updated_at":"2026-03-05T20:20:18.423675+05:30"},{"city":"Thane","state":"Maharashtra","latitude":19.2183,"longitude":72.9781,"temp":30.2,"humidity":38,"rain":0.0,"pressure":1008.7,"uv_index":7.4,"wind_gusts":41.4,"aqi":185,"pm10":35.0,"pm2_5":32.9,"mosquito_risk":0,"arthritis_risk":0,"migraine_risk":4,"frizz_risk":0,"updated_at":"2026-03-05T20:20:18.423681+05:30"},{"city":"Nagpur","state":"Maharashtra","latitude":21.1458,"longitude":79.0882,"temp":29.2,"humidity":28,"rain":0.0,"pressure":974.4,"uv_index":7.8,"wind_gusts":27.0,"aqi":94,"pm10":26.8,"pm2_5":19.4,"mosquito_risk":4,"arthritis_risk":5,"migraine_risk":7,"frizz_risk":0,"updated_at":"2026-03-05T20:20:18.423687+05:30"},{"city":"Nashik","state":"Maharashtra","latitude":19.9975,"longitude":73.7898,"temp":27.5,"humidity":30,"rain":0.0,"pressure":947.6,"uv_index":7.55,"wind_gusts":37.4,"aqi":107,"pm10":23.1,"pm2_5":21.1,"mosquito_risk":4,"arthritis_risk":5,"migraine_risk":7,"frizz_risk":0,"updated_at":"2026-03-05T20:20:18.423693+05:30"},{"city":"Aurangabad","state":"Maharashtra","latitude":19.8762,"longitude":75.3433,"temp":28.3,"humidity":27,"rain":0.0,"pressure":946.3,"uv_index":8.1,"wind_gusts":30.2,"aqi":115,"pm10":21.9,"pm2_5":19.7,"mosquito_risk":4,"arthritis_risk":5,"migraine_risk":7,"frizz_risk":0,"updated_at":"2026-03-05T20:20:18.423699+05:30"},{"city":"Solapur","state":"Maharashtra","latitude":17.6599,"longitude":75.9064,"temp":27.4,"humidity":42,"rain":0.0,"pressure":958.1,"uv_index":8.35,"wind_gusts":19.1,"aqi":151,"pm10":22.6,"pm2_5":21.4,"mosquito_risk":4,"arthritis_risk":5,"migraine_risk":7,"frizz_risk":0,"updated_at":"2026-03-05T20:20:18.423706+05:30"},{"city":"Kolhapur","state":"Maharashtra","latitude":16.705,"longitude":74.2433,"temp":25.3,"humidity":50,"rain":0.0,"pressure":948.9,"uv_index":8.5,"wind_gusts":34.6,"aqi":151,"pm10":43.0,"pm2_5":41.9,"mosquito_risk":4,"arthritis_risk":5,"migraine_risk":7,"frizz_risk":0,"updated_at":"2026-03-05T20:20:18.423712+05:30"},{"city":"Goa","state":"Goa","latitude":15.2993,"longitude":74.124,"temp":27.3,"humidity":83,"rain":0.0,"pressure":999.1,"uv_index":8.55,"wind_gusts":36.0,"aqi":152,"pm10":57.6,"pm2_5":54.0,"mosquito_risk":7,"arthritis_risk":5,"migraine_risk":7,"frizz_risk":1,"updated_at":"2026-03-05T20:20:18.423718+05:30"},{"city":"Jodhpur","state":"Rajasthan","latitude":26.2389,"longitude":73.0243,"temp":27.6,"humidity":25,"rain":0.0,"pressure":986.0,"uv_index":6.9,"wind_gusts":24.1,"aqi":106,"pm10":85.9,"pm2_5":18.6,"mosquito_risk":4,"arthritis_risk":5,"migraine_risk":7,"frizz_risk":0,"updated_at":"2026-03-05T20:20:18.423725+05:30"},{"city":"Udaipur","state":"Rajasthan","latitude":24.5854,"longitude":73.7125,"temp":26.0,"humidity":23,"rain":0.0,"pressure":949.7,"uv_index":7.55,"wind_gusts":25.9,"aqi":91,"pm10":13.6,"pm2_5":12.6,"mosquito_risk":4,"arthritis_risk":5,"migraine_risk":7,"frizz_risk":0,"updated_at":"2026-03-05T20:20:18.423731+05:30"},{"city":"Kota","state":"Rajasthan","latitude":25.2138,"longitude":75.8648,"temp":26.9,"humidity":43,"rain":0.0,"pressure":980.9,"uv_index":6.95,"wind_gusts":28.8,"aqi":81,"pm10":71.9,"pm2_5":31.7,"mosquito_risk":4,"arthritis_risk":5,"migraine_risk":7,"frizz_risk":0,"updated_at":"2026-03-05T20:20:18.423737+05:30"},{"city":"Bikaner","state":"Rajasthan","latitude":28.0229,"longitude":73.3119,"temp":28.6,"humidity":32,"rain":0.0,"pressure":984.5,"uv_index":6.6,"wind_gusts":20.9,"aqi":90,"pm10":26.8,"pm2_5":13.4,"mosquito_risk":4,"arthritis_risk":5,"migraine_risk":7,"frizz_risk":0,"updated_at":"2026-03-05T20:20:18.423743+05:30"},{"city":"Ajmer","state":"Rajasthan","latitude":26.4499,"longitude":74.6399,"temp":27.9,"humidity":34,"rain":0.0,"pressure":957.5,"uv_index":6.9,"wind_gusts":25.6,"aqi":94,"pm10":29.0,"pm2_5":18.2,"mosquito_risk":4,"arthritis_risk":5,"migraine_risk":7,"frizz_risk":0,"updated_at":"2026-03-05T20:20:18.423749+05:30"},{"city":"Gwalior","state":"Madhya Pradesh","latitude":26.2183,"longitude":78.1828,"temp":25.9,"humidity":53,"rain":0.0,"pressure":984.7,"uv_index":6.55,"wind_gusts":32.8,"aqi":81,"pm10":117.6,"pm2_5":33.9,"mosquito_risk":4,"arthritis_risk":5,"migraine_risk":7,"frizz_risk":0,"updated_at":"2026-03-05T20:20:18.423755+05:30"},{"city":"Indore","state":"Madhya Pradesh","latitude":22.7196,"longitude":75.8577,"temp":24.2,"humidity":44,"rain":0.0,"pressure":950.1,"uv_index":7.5,"wind_gusts":25.2,"aqi":102,"pm10":33.4,"pm2_5":24.3,"mosquito_risk":0,"arthritis_risk":5,"migraine_risk":7,"frizz_risk":0,"updated_at":"2026-03-05T20:20:18.423761+05:30"},{"city":"Bhopal","state":"Madhya Pradesh","latitude":23.2599,"longitude":77.4126,"temp":24.3,"humidity":45,"rain":0.0,"pressure":955.8,"uv_index":7.35,"wind_gusts":29.5,"aqi":99,"pm10":33.3,"pm2_5":20.8,"mosquito_risk":0,"arthritis_risk":5,"migraine_risk":7,"frizz_risk":0,"updated_at":"2026-03-05T20:20:18.423768+05:30"},{"city":"Jabalpur","state":"Madhya Pradesh","latitude":23.1815,"longitude":79.9864,"temp":26.9,"humidity":43,"rain":0.0,"pressure":962.5,"uv_index":7.5,"wind_gusts":30.2,"aqi":75,"pm10":34.7,"pm2_5":19.7,"mosquito_risk":4,"arthritis_risk":5,"migraine_risk":7,"frizz_risk":0,"updated_at":"2026-03-05T20:20:18.423774+05:30"},{"city":"Ujjain","state":"Madhya Pradesh","latitude":23.1765,"longitude":75.7885,"temp":23.9,"humidity":51,"rain":0.0,"pressure":955.9,"uv_index":7.4,"wind_gusts":23.0,"aqi":107,"pm10":39.6,"pm2_5":30.3,"mosquito_risk":0,"arthritis_risk":5,"migraine_risk":7,"frizz_risk":0,"updated_at":"2026-03-05T20:20:18.423780+05:30"},{"city":"Visakhapatnam","state":"Andhra Pradesh","latitude":17.6868,"longitude":83.2185,"temp":26.9,"humidity":74,"rain":0.0,"pressure":1003.4,"uv_index":8.45,"wind_gusts":33.1,"aqi":151,"pm10":44.0,"pm2_5":40.5,"mosquito_risk":7,"arthritis_risk":5,"migraine_risk":4,"frizz_risk":1,"updated_at":"2026-03-05T20:20:18.423786+05:30"},{"city":"Vijayawada","state":"Andhra Pradesh","latitude":16.5062,"longitude":80.648,"temp":30.1,"humidity":48,"rain":0.0,"pressure":1002.6,"uv_index":8.5,"wind_gusts":17.3,"aqi":128,"pm10":46.4,"pm2_5":44.8,"mosquito_risk":0,"arthritis_risk":5,"migraine_risk":4,"frizz_risk":1,"updated_at":"2026-03-05T20:20:18.423792+05:30"},{"city":"Guntur","state":"Andhra Pradesh","latitude":16.3067,"longitude":80.4365,"temp":29.2,"humidity":46,"rain":0.0,"pressure":1004.1,"uv_index":8.5,"wind_gusts":20.9,"aqi":142,"pm10":37.4,"pm2_5":35.5,"mosquito_risk":4,"arthritis_risk":5,"migraine_risk":4,"frizz_risk":1,"updated_at":"2026-03-05T20:20:18.423798+05:30"},{"city":"Nellore","state":"Andhra Pradesh","latitude":14.4426,"longitude":79.9865,"temp":27.2,"humidity":61,"rain":0.0,"pressure":1006.5,"uv_index":8.7,"wind_gusts":28.4,"aqi":157,"pm10":31.1,"pm2_5":28.5,"mosquito_risk":7,"arthritis_risk":5,"migraine_risk":4,"frizz_risk":1,"updated_at":"2026-03-05T20:20:18.423804+05:30"},{"city":"Kurnool","state":"Andhra Pradesh","latitude":15.8281,"longitude":78.0373,"temp":32.0,"humidity":28,"rain":0.0,"pressure":977.4,"uv_index":8.5,"wind_gusts":27.0,"aqi":145,"pm10":22.6,"pm2_5":21.1,"mosquito_risk":0,"arthritis_risk":5,"migraine_risk":7,"frizz_risk":0,"updated_at":"2026-03-05T20:20:18.423811+05:30"},{"city":"Kakinada","state":"Andhra Pradesh","latitude":16.9891,"longitude":82.2475,"temp":27.0,"humidity":73,"rain":0.0,"pressure":1006.9,"uv_index":8.45,"wind_gusts":27.4,"aqi":105,"pm10":34.0,"pm2_5":30.9,"mosquito_risk":7,"arthritis_risk":5,"migraine_risk":4,"frizz_risk":1,"updated_at":"2026-03-05T20:20:18.423817+05:30"},{"city":"Tirupati","state":"Andhra Pradesh","latitude":13.6288,"longitude":79.4192,"temp":27.7,"humidity":49,"rain":0.0,"pressure":992.8,"uv_index":8.8,"wind_gusts":29.5,"aqi":128,"pm10":41.1,"pm2_5":37.8,"mosquito_risk":4,"arthritis_risk":5,"migraine_risk":7,"frizz_risk":0,"updated_at":"2026-03-05T20:20:18.423823+05:30"},{"city":"Warangal","state":"Telangana","latitude":17.9689,"longitude":79.5941,"temp":29.4,"humidity":37,"rain":0.0,"pressure":979.4,"uv_index":8.3,"wind_gusts":27.4,"aqi":144,"pm10":30.2,"pm2_5":27.7,"mosquito_risk":4,"arthritis_risk":5,"migraine_risk":7,"frizz_risk":0,"updated_at":"2026-03-05T20:20:18.423828+05:30"},{"city":"Nizamabad","state":"Telangana","latitude":18.6725,"longitude":78.0941,"temp":27.3,"humidity":47,"rain":0.0,"pressure":966.0,"uv_index":8.15,"wind_gusts":22.3,"aqi":109,"pm10":27.4,"pm2_5":25.7,"mosquito_risk":4,"arthritis_risk":5,"migraine_risk":7,"frizz_risk":0,"updated_at":"2026-03-05T20:20:18.423834+05:30"},{"city":"Mysore","state":"Karnataka","latitude":12.2958,"longitude":76.6396,"temp":27.5,"humidity":48,"rain":0.0,"pressure":929.2,"uv_index":9.15,"wind_gusts":24.5,"aqi":169,"pm10":46.9,"pm2_5":45.9,"mosquito_risk":4,"arthritis_risk":5,"migraine_risk":7,"frizz_risk":0,"updated_at":"2026-03-05T20:20:18.423840+05:30"},{"city":"Mangalore","state":"Karnataka","latitude":12.9141,"longitude":74.856,"temp":28.7,"humidity":79,"rain":0.0,"pressure":1008.0,"uv_index":8.75,"wind_gusts":30.2,"aqi":132,"pm10":44.9,"pm2_5":40.7,"mosquito_risk":7,"arthritis_risk":0,"migraine_risk":4,"frizz_risk":1,"updated_at":"2026-03-05T20:20:18.423846+05:30"},{"city":"Hubli-Dharwad","state":"Karnataka","latitude":15.3647,"longitude":75.124,"temp":28.2,"humidity":32,"rain":0.0,"pressure":941.6,"uv_index":8.7,"wind_gusts":29.2,"aqi":167,"pm10":29.2,"pm2_5":27.8,"mosquito_risk":4,"arthritis_risk":5,"migraine_risk":7,"frizz_risk":0,"updated_at":"2026-03-05T20:20:18.423852+05:30"},{"city":"Belgaum","state":"Karnataka","latitude":15.8497,"longitude":74.4977,"temp":25.5,"humidity":70,"rain":0.0,"pressure":926.9,"uv_index":8.75,"wind_gusts":36.7,"aqi":173,"pm10":33.9,"pm2_5":32.5,"mosquito_risk":7,"arthritis_risk":5,"migraine_risk":7,"frizz_risk":1,"updated_at":"2026-03-05T20:20:21.670715+05:30"},{"city":"Coimbatore","state":"Tamil Nadu","latitude":11.0168,"longitude":76.9558,"temp":26.4,"humidity":62,"rain":0.0,"pressure":962.7,"uv_index":9.15,"wind_gusts":34.2,"aqi":145,"pm10":36.7,"pm2_5":36.0,"mosquito_risk":7,"arthritis_risk":5,"migraine_risk":7,"frizz_risk":1,"updated_at":"2026-03-05T20:20:21.670747+05:30"},{"city":"Madurai","state":"Tamil Nadu","latitude":9.9252,"longitude":78.1198,"temp":28.5,"humidity":45,"rain":0.0,"pressure":994.0,"uv_index":9.1,"wind_gusts":29.9,"aqi":131,"pm10":37.3,"pm2_5":35.5,"mosquito_risk":4,"arthritis_risk":5,"migraine_risk":7,"frizz_risk":0,"updated_at":"2026-03-05T20:20:21.670758+05:30"},{"city":"Trichy","state":"Tamil Nadu","latitude":10.7905,"longitude":78.7047,"temp":27.6,"humidity":57,"rain":0.0,"pressure":1000.7,"uv_index":9.0,"wind_gusts":33.8,"aqi":105,"pm10":31.8,"pm2_5":30.2,"mosquito_risk":4,"arthritis_risk":5,"migraine_risk":4,"frizz_risk":1,"updated_at":"2026-03-05T20:20:21.670768+05:30"},{"city":"Salem","state":"Tamil Nadu","latitude":11.6643,"longitude":78.146,"temp":29.6,"humidity":34,"rain":0.0,"pressure":977.8,"uv_index":9.05,"wind_gusts":19.8,"aqi":155,"pm10":30.7,"pm2_5":28.8,"mosquito_risk":4,"arthritis_risk":5,"migraine_risk":7,"frizz_risk":0,"updated_at":"2026-03-05T20:20:21.670777+05:30"},{"city":"Tirunelveli","state":"Tamil Nadu","latitude":8.7139,"longitude":77.7567,"temp":27.9,"humidity":67,"rain":0.0,"pressure":1004.4,"uv_index":9.15,"wind_gusts":48.6,"aqi":98,"pm10":16.8,"pm2_5":15.9,"mosquito_risk":7,"arthritis_risk":5,"migraine_risk":4,"frizz_risk":1,"updated_at":"2026-03-05T20:20:21.670785+05:30"},{"city":"Vellore","state":"Tamil Nadu","latitude":12.9165,"longitude":79.1325,"temp":26.8,"humidity":45,"rain":0.0,"pressure":985.6,"uv_index":8.9,"wind_gusts":29.2,"aqi":127,"pm10":42.8,"pm2_5":39.9,"mosquito_risk":4,"arthritis_risk":5,"migraine_risk":7,"frizz_risk":0,"updated_at":"2026-03-05T20:20:21.670794+05:30"},{"city":"Erode","state":"Tamil Nadu","latitude":11.341,"longitude":77.7172,"temp":30.0,"humidity":45,"rain":0.0,"pressure":989.2,"uv_index":9.05,"wind_gusts":19.8,"aqi":161,"pm10":35.3,"pm2_5":34.0,"mosquito_risk":4,"arthritis_risk":5,"migraine_risk":7,"frizz_risk":1,"updated_at":"2026-03-05T20:20:21.670803+05:30"},{"city":"Kochi","state":"Kerala","latitude":9.9312,"longitude":76.2673,"temp":28.4,"humidity":78,"rain":0.0,"pressure":1009.7,"uv_index":8.95,"wind_gusts":38.2,"aqi":144,"pm10":51.5,"pm2_5":48.8,"mosquito_risk":7,"arthritis_risk":0,"migraine_risk":4,"frizz_risk":1,"updated_at":"2026-03-05T20:20:21.670811+05:30"},{"city":"Thiruvananthapuram","state":"Kerala","latitude":8.5241,"longitude":76.9366,"temp":28.3,"humidity":75,"rain":0.0,"pressure":1009.2,"uv_index":9.0,"wind_gusts":32.8,"aqi":120,"pm10":31.1,"pm2_5":27.9,"mosquito_risk":7,"arthritis_risk":0,"migraine_risk":4,"frizz_risk":1,"updated_at":"2026-03-05T20:20:21.670820+05:30"},{"city":"Kozhikode","state":"Kerala","latitude":11.2588,"longitude":75.7804,"temp":28.5,"humidity":80,"rain":0.0,"pressure":1009.1,"uv_index":8.85,"wind_gusts":30.6,"aqi":127,"pm10":44.5,"pm2_5":39.6,"mosquito_risk":7,"arthritis_risk":0,"migraine_risk":4,"frizz_risk":1,"updated_at":"2026-03-05T20:20:21.670827+05:30"},{"city":"Thrissur","state":"Kerala","latitude":10.5276,"longitude":76.2144,"temp":27.6,"humidity":81,"rain":0.0,"pressure":1008.3,"uv_index":8.9,"wind_gusts":36.7,"aqi":141,"pm10":44.2,"pm2_5":42.0,"mosquito_risk":7,"arthritis_risk":0,"migraine_risk":4,"frizz_risk":1,"updated_at":"2026-03-05T20:20:21.670836+05:30"},{"city":"Kannur","state":"Kerala","latitude":11.8745,"longitude":75.3704,"temp":28.3,"humidity":79,"rain":0.0,"pressure":1008.6,"uv_index":8.85,"wind_gusts":37.4,"aqi":133,"pm10":43.3,"pm2_5":39.1,"mosquito_risk":7,"arthritis_risk":0,"migraine_risk":4,"frizz_risk":1,"updated_at":"2026-03-05T20:20:21.670844+05:30"},{"city":"Patna","state":"Bihar","latitude":25.5941,"longitude":85.1376,"temp":26.3,"humidity":58,"rain":0.0,"pressure":1001.9,"uv_index":7.2,"wind_gusts":14.4,"aqi":182,"pm10":125.3,"pm2_5":87.3,"mosquito_risk":4,"arthritis_risk":5,"migraine_risk":4,"frizz_risk":1,"updated_at":"2026-03-05T20:20:21.670853+05:30"},{"city":"Gaya","state":"Bihar","latitude":24.7914,"longitude":85.0002,"temp":23.8,"humidity":67,"rain":0.0,"pressure":995.3,"uv_index":7.3,"wind_gusts":12.6,"aqi":159,"pm10":125.3,"pm2_5":63.8,"mosquito_risk":3,"arthritis_risk":5,"migraine_risk":7,"frizz_risk":1,"updated_at":"2026-03-05T20:20:21.670861+05:30"},{"city":"Muzaffarpur","state":"Bihar","latitude":26.1209,"longitude":85.3647,"temp":24.4,"humidity":64,"rain":0.0,"pressure":1002.0,"uv_index":7.15,"wind_gusts":15.5,"aqi":190,"pm10":101.3,"pm2_5":80.1,"mosquito_risk":3,"arthritis_risk":5,"migraine_risk":4,"frizz_risk":1,"updated_at":"2026-03-05T20:20:21.670869+05:30"},{"city":"Bhagalpur","state":"Bihar","latitude":25.2425,"longitude":87.0117,"temp":24.4,"humidity":59,"rain":0.0,"pressure":1002.7,"uv_index":7.25,"wind_gusts":14.0,"aqi":171,"pm10":88.5,"pm2_5":71.9,"mosquito_risk":0,"arthritis_risk":5,"migraine_risk":4,"frizz_risk":0,"updated_at":"2026-03-05T20:20:21.670876+05:30"},{"city":"Ranchi","state":"Jharkhand","latitude":23.3441,"longitude":85.3096,"temp":21.9,"humidity":50,"rain":0.0,"pressure":938.3,"uv_index":7.95,"wind_gusts":19.1,"aqi":145,"pm10":92.9,"pm2_5":46.4,"mosquito_risk":0,"arthritis_risk":5,"migraine_risk":7,"frizz_risk":0,"updated_at":"2026-03-05T20:20:21.670884+05:30"},{"city":"Jamshedpur","state":"Jharkhand","latitude":22.8046,"longitude":86.2029,"temp":26.9,"humidity":47,"rain":0.0,"pressure":991.2,"uv_index":7.85,"wind_gusts":11.2,"aqi":203,"pm10":120.6,"pm2_5":73.3,"mosquito_risk":4,"arthritis_risk":5,"migraine_risk":7,"frizz_risk":0,"updated_at":"2026-03-05T20:20:21.670892+05:30"},{"city":"Dhanbad","state":"Jharkhand","latitude":23.7957,"longitude":86.4304,"temp":27.2,"humidity":38,"rain":0.0,"pressure":980.6,"uv_index":7.75,"wind_gusts":16.2,"aqi":191,"pm10":175.1,"pm2_5":129.5,"mosquito_risk":4,"arthritis_risk":5,"migraine_risk":7,"frizz_risk":0,"updated_at":"2026-03-05T20:20:21.670900+05:30"},{"city":"Bokaro","state":"Jharkhand","latitude":23.6693,"longitude":86.1511,"temp":26.7,"humidity":42,"rain":0.0,"pressure":984.6,"uv_index":7.75,"wind_gusts":13.3,"aqi":195,"pm10":169.0,"pm2_5":128.5,"mosquito_risk":4,"arthritis_risk":5,"migraine_risk":7,"frizz_risk":0,"updated_at":"2026-03-05T20:20:21.670907+05:30"},{"city":"Bhubaneswar","state":"Odisha","latitude":20.2961,"longitude":85.8245,"temp":26.5,"humidity":74,"rain":0.0,"pressure":1002.9,"uv_index":8.15,"wind_gusts":25.2,"aqi":167,"pm10":51.7,"pm2_5":41.8,"mosquito_risk":7,"arthritis_risk":5,"migraine_risk":4,"frizz_risk":1,"updated_at":"2026-03-05T20:20:21.670914+05:30"},{"city":"Cuttack","state":"Odisha","latitude":20.4625,"longitude":85.8828,"temp":27.8,"humidity":61,"rain":0.0,"pressure":1004.6,"uv_index":8.2,"wind_gusts":26.6,"aqi":167,"pm10":51.7,"pm2_5":41.8,"mosquito_risk":7,"arthritis_risk":5,"migraine_risk":4,"frizz_risk":1,"updated_at":"2026-03-05T20:20:21.670922+05:30"},{"city":"Rourkela","state":"Odisha","latitude":22.2604,"longitude":84.8536,"temp":27.6,"humidity":45,"rain":0.0,"pressure":984.9,"uv_index":7.75,"wind_gusts":23.0,"aqi":134,"pm10":129.0,"pm2_5":55.3,"mosquito_risk":4,"arthritis_risk":5,"migraine_risk":7,"frizz_risk":0,"updated_at":"2026-03-05T20:20:21.670930+05:30"},{"city":"Raipur","state":"Chhattisgarh","latitude":21.2514,"longitude":81.6296,"temp":29.1,"humidity":30,"rain":0.0,"pressure":974.9,"uv_index":7.85,"wind_gusts":27.7,"aqi":116,"pm10":59.6,"pm2_5":47.1,"mosquito_risk":4,"arthritis_risk":5,"migraine_risk":7,"frizz_risk":0,"updated_at":"2026-03-05T20:20:21.670938+05:30"},{"city":"Bhilai","state":"Chhattisgarh","latitude":21.1938,"longitude":81.3509,"temp":27.7,"humidity":31,"rain":0.0,"pressure":975.2,"uv_index":7.85,"wind_gusts":27.7,"aqi":96,"pm10":55.6,"pm2_5":42.5,"mosquito_risk":4,"arthritis_risk":5,"migraine_risk":7,"frizz_risk":0,"updated_at":"2026-03-05T20:20:21.670946+05:30"},{"city":"Guwahati","state":"Assam","latitude":26.1158,"longitude":91.7086,"temp":26.5,"humidity":63,"rain":0.0,"pressure":1002.8,"uv_index":7.15,"wind_gusts":18.0,"aqi":137,"pm10":56.2,"pm2_5":51.5,"mosquito_risk":7,"arthritis_risk":5,"migraine_risk":4,"frizz_risk":1,"updated_at":"2026-03-05T20:20:21.670954+05:30"},{"city":"Agartala","state":"Tripura","latitude":23.8315,"longitude":91.2868,"temp":24.1,"humidity":67,"rain":0.0,"pressure":1007.0,"uv_index":7.55,"wind_gusts":16.2,"aqi":190,"pm10":104.3,"pm2_5":90.3,"mosquito_risk":3,"arthritis_risk":5,"migraine_risk":4,"frizz_risk":1,"updated_at":"2026-03-05T20:20:21.670961+05:30"},{"city":"Shillong","state":"Meghalaya","latitude":25.5788,"longitude":91.8933,"temp":13.6,"humidity":90,"rain":0.0,"pressure":856.9,"uv_index":7.55,"wind_gusts":15.8,"aqi":116,"pm10":49.4,"pm2_5":44.5,"mosquito_risk":3,"arthritis_risk":10,"migraine_risk":7,"frizz_risk":0,"updated_at":"2026-03-05T20:20:21.670969+05:30"},{"city":"Imphal","state":"Manipur","latitude":24.817,"longitude":93.9368,"temp":17.4,"humidity":64,"rain":0.0,"pressure":924.0,"uv_index":7.75,"wind_gusts":23.0,"aqi":147,"pm10":50.9,"pm2_5":46.3,"mosquito_risk":3,"arthritis_risk":5,"migraine_risk":7,"frizz_risk":0,"updated_at":"2026-03-05T20:20:21.670977+05:30"},{"city":"Aizawl","state":"Mizoram","latitude":23.7271,"longitude":92.7176,"temp":18.6,"humidity":57,"rain":0.0,"pressure":892.7,"uv_index":7.7,"wind_gusts":23.8,"aqi":156,"pm10":71.5,"pm2_5":62.2,"mosquito_risk":0,"arthritis_risk":5,"migraine_risk":7,"frizz_risk":0,"updated_at":"2026-03-05T20:20:21.670985+05:30"},{"city":"Kohima","state":"Nagaland","latitude":25.6701,"longitude":94.1077,"temp":15.5,"humidity":76,"rain":0.0,"pressure":855.9,"uv_index":7.6,"wind_gusts":36.7,"aqi":133,"pm10":42.8,"pm2_5":38.0,"mosquito_risk":3,"arthritis_risk":5,"migraine_risk":7,"frizz_risk":0,"updated_at":"2026-03-05T20:20:21.670993+05:30"},{"city":"Gangtok","state":"Sikkim","latitude":27.3314,"longitude":88.6138,"temp":15.6,"humidity":86,"rain":0.0,"pressure":838.9,"uv_index":7.5,"wind_gusts":21.2,"aqi":119,"pm10":36.3,"pm2_5":31.9,"mosquito_risk":3,"arthritis_risk":10,"migraine_risk":7,"frizz_risk":0,"updated_at":"2026-03-05T20:20:21.671001+05:30"},{"city":"Siliguri","state":"West Bengal","latitude":26.7271,"longitude":88.3953,"temp":21.9,"humidity":65,"rain":0.0,"pressure":995.9,"uv_index":7.15,"wind_gusts":22.3,"aqi":139,"pm10":53.3,"pm2_5":45.8,"mosquito_risk":3,"arthritis_risk":5,"migraine_risk":7,"frizz_risk":0,"updated_at":"2026-03-05T20:20:24.938316+05:30"},{"city":"Durgapur","state":"West Bengal","latitude":23.5204,"longitude":87.3119,"temp":26.4,"humidity":41,"rain":0.0,"pressure":996.1,"uv_index":7.7,"wind_gusts":20.2,"aqi":192,"pm10":88.5,"pm2_5":68.2,"mosquito_risk":4,"arthritis_risk":5,"migraine_risk":7,"frizz_risk":0,"updated_at":"2026-03-05T20:20:24.938347+05:30"},{"city":"Asansol","state":"West Bengal","latitude":23.6739,"longitude":86.9524,"temp":26.9,"humidity":42,"rain":0.0,"pressure":994.6,"uv_index":7.7,"wind_gusts":15.1,"aqi":195,"pm10":119.0,"pm2_5":78.9,"mosquito_risk":4,"arthritis_risk":5,"migraine_risk":7,"frizz_risk":0,"updated_at":"2026-03-05T20:20:24.938358+05:30"},{"city":"Pondicherry","state":"Puducherry","latitude":11.9139,"longitude":79.8145,"temp":25.1,"humidity":82,"rain":0.0,"pressure":1009.8,"uv_index":8.85,"wind_gusts":24.5,"aqi":80,"pm10":19.6,"pm2_5":16.6,"mosquito_risk":7,"arthritis_risk":0,"migraine_risk":4,"frizz_risk":1,"updated_at":"2026-03-05T20:20:24.938366+05:30"},{"city":"Port Blair","state":"Andaman and Nicobar Islands","latitude":11.6234,"longitude":92.7265,"temp":27.0,"humidity":73,"rain":0.0,"pressure":1008.0,"uv_index":8.8,"wind_gusts":23.4,"aqi":61,"pm10":19.4,"pm2_5":12.9,"mosquito_risk":7,"arthritis_risk":0,"migraine_risk":4,"frizz_risk":1,"updated_at":"2026-03-05T20:20:24.938373+05:30"},{"city":"Haridwar","state":"Uttarakhand","latitude":29.9457,"longitude":78.1642,"temp":24.2,"humidity":74,"rain":0.0,"pressure":974.8,"uv_index":5.65,"wind_gusts":21.6,"aqi":165,"pm10":104.5,"pm2_5":62.9,"mosquito_risk":3,"arthritis_risk":5,"migraine_risk":3,"frizz_risk":1,"updated_at":"2026-03-05T20:20:24.938381+05:30"},{"city":"Rishikesh","state":"Uttarakhand","latitude":30.0869,"longitude":78.2676,"temp":22.0,"humidity":80,"rain":0.0,"pressure":967.6,"uv_index":5.7,"wind_gusts":20.9,"aqi":170,"pm10":79.6,"pm2_5":51.5,"mosquito_risk":3,"arthritis_risk":5,"migraine_risk":3,"frizz_risk":1,"updated_at":"2026-03-05T20:20:24.938388+05:30"},{"city":"Nainital","state":"Uttarakhand","latitude":29.3919,"longitude":79.4542,"temp":16.3,"humidity":85,"rain":0.0,"pressure":806.1,"uv_index":6.5,"wind_gusts":53.6,"aqi":153,"pm10":105.2,"pm2_5":71.7,"mosquito_risk":3,"arthritis_risk":10,"migraine_risk":7,"frizz_risk":0,"updated_at":"2026-03-05T20:20:24.938396+05:30"},{"city":"Mussoorie","state":"Uttarakhand","latitude":30.4599,"longitude":78.0664,"temp":16.2,"humidity":79,"rain":0.0,"pressure":802.6,"uv_index":6.0,"wind_gusts":37.1,"aqi":181,"pm10":72.9,"pm2_5":50.9,"mosquito_risk":3,"arthritis_risk":5,"migraine_risk":3,"frizz_risk":0,"updated_at":"2026-03-05T20:20:24.938404+05:30"},{"city":"Dharamshala","state":"Himachal Pradesh","latitude":32.219,"longitude":76.3234,"temp":22.1,"humidity":52,"rain":0.0,"pressure":871.2,"uv_index":6.3,"wind_gusts":24.5,"aqi":83,"pm10":34.8,"pm2_5":21.7,"mosquito_risk":0,"arthritis_risk":5,"migraine_risk":7,"frizz_risk":0,"updated_at":"2026-03-05T20:20:24.938411+05:30"},{"city":"Dalhousie","state":"Himachal Pradesh","latitude":32.5387,"longitude":75.971,"temp":18.8,"humidity":61,"rain":0.0,"pressure":805.7,"uv_index":6.45,"wind_gusts":21.2,"aqi":110,"pm10":57.4,"pm2_5":41.1,"mosquito_risk":3,"arthritis_risk":5,"migraine_risk":7,"frizz_risk":0,"updated_at":"2026-03-05T20:20:24.938418+05:30"},{"city":"Patiala","state":"Punjab","latitude":30.3398,"longitude":76.3869,"temp":23.7,"humidity":70,"rain":0.0,"pressure":979.3,"uv_index":5.65,"wind_gusts":28.4,"aqi":347,"pm10":448.9,"pm2_5":92.2,"mosquito_risk":3,"arthritis_risk":5,"migraine_risk":3,"frizz_risk":1,"updated_at":"2026-03-05T20:20:24.938425+05:30"},{"city":"Bhatinda","state":"Punjab","latitude":30.211,"longitude":74.9455,"temp":24.5,"humidity":67,"rain":0.0,"pressure":985.3,"uv_index":6.35,"wind_gusts":27.0,"aqi":138,"pm10":63.6,"pm2_5":45.8,"mosquito_risk":3,"arthritis_risk":5,"migraine_risk":7,"frizz_risk":1,"updated_at":"2026-03-05T20:20:24.938449+05:30"},{"city":"Rohtak","state":"Haryana","latitude":28.8955,"longitude":76.6066,"temp":24.0,"humidity":66,"rain":0.0,"pressure":983.0,"uv_index":5.85,"wind_gusts":33.1,"aqi":583,"pm10":942.5,"pm2_5":145.8,"mosquito_risk":3,"arthritis_risk":5,"migraine_risk":3,"frizz_risk":1,"updated_at":"2026-03-05T20:20:24.938458+05:30"},{"city":"Panipat","state":"Haryana","latitude":29.3909,"longitude":76.9635,"temp":23.8,"humidity":69,"rain":0.0,"pressure":981.2,"uv_index":5.65,"wind_gusts":32.4,"aqi":1260,"pm10":1482.7,"pm2_5":201.6,"mosquito_risk":3,"arthritis_risk":5,"migraine_risk":3,"frizz_risk":1,"updated_at":"2026-03-05T20:20:24.938464+05:30"},{"city":"Mathura","state":"Uttar Pradesh","latitude":27.4924,"longitude":77.6737,"temp":25.3,"humidity":51,"rain":0.0,"pressure":988.3,"uv_index":6.1,"wind_gusts":34.9,"aqi":665,"pm10":968.6,"pm2_5":138.3,"mosquito_risk":4,"arthritis_risk":5,"migraine_risk":7,"frizz_risk":0,"updated_at":"2026-03-05T20:20:24.938471+05:30"},{"city":"Vrindavan","state":"Uttar Pradesh","latitude":27.5823,"longitude":77.7027,"temp":23.8,"humidity":59,"rain":0.0,"pressure":988.5,"uv_index":6.1,"wind_gusts":37.1,"aqi":665,"pm10":968.6,"pm2_5":138.3,"mosquito_risk":0,"arthritis_risk":5,"migraine_risk":7,"frizz_risk":0,"updated_at":"2026-03-05T20:20:24.938478+05:30"},{"city":"Ayodhya","state":"Uttar Pradesh","latitude":26.7922,"longitude":82.1998,"temp":23.7,"humidity":70,"rain":0.0,"pressure":996.7,"uv_index":6.55,"wind_gusts":10.1,"aqi":177,"pm10":114.1,"pm2_5":86.1,"mosquito_risk":3,"arthritis_risk":5,"migraine_risk":7,"frizz_risk":1,"updated_at":"2026-03-05T20:20:24.938484+05:30"},{"city":"Ratlam","state":"Madhya Pradesh","latitude":23.3315,"longitude":75.0367,"temp":25.7,"humidity":44,"rain":0.0,"pressure":957.1,"uv_index":7.35,"wind_gusts":23.0,"aqi":104,"pm10":32.7,"pm2_5":25.8,"mosquito_risk":4,"arthritis_risk":5,"migraine_risk":7,"frizz_risk":0,"updated_at":"2026-03-05T20:20:24.938491+05:30"},{"city":"Sagar","state":"Madhya Pradesh","latitude":23.8388,"longitude":78.7378,"temp":26.5,"humidity":38,"rain":0.0,"pressure":951.6,"uv_index":7.3,"wind_gusts":31.7,"aqi":82,"pm10":35.2,"pm2_5":16.4,"mosquito_risk":4,"arthritis_risk":5,"migraine_risk":7,"frizz_risk":0,"updated_at":"2026-03-05T20:20:24.938497+05:30"},{"city":"Satna","state":"Madhya Pradesh","latitude":24.6005,"longitude":80.8322,"temp":25.3,"humidity":41,"rain":0.0,"pressure":972.2,"uv_index":7.3,"wind_gusts":40.0,"aqi":105,"pm10":40.5,"pm2_5":25.2,"mosquito_risk":4,"arthritis_risk":5,"migraine_risk":7,"frizz_risk":0,"updated_at":"2026-03-05T20:20:24.938504+05:30"},{"city":"Akola","state":"Maharashtra","latitude":20.7002,"longitude":77.0082,"temp":27.8,"humidity":30,"rain":0.0,"pressure":976.6,"uv_index":7.8,"wind_gusts":26.6,"aqi":111,"pm10":33.2,"pm2_5":26.5,"mosquito_risk":4,"arthritis_risk":5,"migraine_risk":7,"frizz_risk":0,"updated_at":"2026-03-05T20:20:24.938512+05:30"},{"city":"Amravati","state":"Maharashtra","latitude":20.9374,"longitude":77.7796,"temp":26.1,"humidity":40,"rain":0.0,"pressure":968.4,"uv_index":7.75,"wind_gusts":16.9,"aqi":112,"pm10":32.0,"pm2_5":25.0,"mosquito_risk":4,"arthritis_risk":5,"migraine_risk":7,"frizz_risk":0,"updated_at":"2026-03-05T20:20:24.938521+05:30"},{"city":"Latur","state":"Maharashtra","latitude":18.4088,"longitude":76.5604,"temp":27.0,"humidity":37,"rain":0.0,"pressure":941.2,"uv_index":8.25,"wind_gusts":32.0,"aqi":143,"pm10":25.8,"pm2_5":23.8,"mosquito_risk":4,"arthritis_risk":5,"migraine_risk":7,"frizz_risk":0,"updated_at":"2026-03-05T20:20:24.938528+05:30"},{"city":"Nanded","state":"Maharashtra","latitude":19.1383,"longitude":77.3091,"temp":27.4,"humidity":41,"rain":0.0,"pressure":969.9,"uv_index":8.05,"wind_gusts":25.2,"aqi":125,"pm10":26.2,"pm2_5":24.5,"mosquito_risk":4,"arthritis_risk":5,"migraine_risk":7,"frizz_risk":0,"updated_at":"2026-03-05T20:20:24.938535+05:30"},{"city":"Gulbarga","state":"Karnataka","latitude":17.3297,"longitude":76.8343,"temp":29.8,"humidity":28,"rain":0.0,"pressure":959.8,"uv_index":8.35,"wind_gusts":22.3,"aqi":145,"pm10":17.0,"pm2_5":16.1,"mosquito_risk":4,"arthritis_risk":5,"migraine_risk":7,"frizz_risk":0,"updated_at":"2026-03-05T20:20:24.938541+05:30"},{"city":"Bidar","state":"Karnataka","latitude":17.9104,"longitude":77.5199,"temp":27.4,"humidity":38,"rain":0.0,"pressure":936.8,"uv_index":8.3,"wind_gusts":24.8,"aqi":123,"pm10":22.0,"pm2_5":20.4,"mosquito_risk":4,"arthritis_risk":5,"migraine_risk":7,"frizz_risk":0,"updated_at":"2026-03-05T20:20:24.938548+05:30"},{"city":"Hospet","state":"Karnataka","latitude":15.2689,"longitude":76.3909,"temp":30.6,"humidity":28,"rain":0.0,"pressure":956.9,"uv_index":8.7,"wind_gusts":25.9,"aqi":169,"pm10":30.9,"pm2_5":29.6,"mosquito_risk":0,"arthritis_risk":5,"migraine_risk":7,"frizz_risk":0,"updated_at":"2026-03-05T20:20:24.938554+05:30"},{"city":"Tirupur","state":"Tamil Nadu","latitude":11.1085,"longitude":77.3411,"temp":29.9,"humidity":33,"rain":0.0,"pressure":975.5,"uv_index":9.15,"wind_gusts":29.2,"aqi":158,"pm10":41.9,"pm2_5":40.9,"mosquito_risk":4,"arthritis_risk":5,"migraine_risk":7,"frizz_risk":0,"updated_at":"2026-03-05T20:20:24.938561+05:30"},{"city":"Alappuzha","state":"Kerala","latitude":9.4981,"longitude":76.3388,"temp":28.4,"humidity":77,"rain":0.0,"pressure":1009.8,"uv_index":8.95,"wind_gusts":35.3,"aqi":120,"pm10":46.9,"pm2_5":43.1,"mosquito_risk":7,"arthritis_risk":0,"migraine_risk":4,"frizz_risk":1,"updated_at":"2026-03-05T20:20:24.938568+05:30"},{"city":"Munnar","state":"Kerala","latitude":10.0889,"longitude":77.0595,"temp":21.2,"humidity":90,"rain":0.0,"pressure":857.8,"uv_index":9.45,"wind_gusts":23.4,"aqi":118,"pm10":35.9,"pm2_5":35.0,"mosquito_risk":3,"arthritis_risk":5,"migraine_risk":7,"frizz_risk":1,"updated_at":"2026-03-05T20:20:24.938575+05:30"},{"city":"Silchar","state":"Assam","latitude":24.8333,"longitude":92.7789,"temp":25.4,"humidity":59,"rain":0.0,"pressure":1005.8,"uv_index":7.5,"wind_gusts":13.7,"aqi":150,"pm10":68.2,"pm2_5":60.1,"mosquito_risk":4,"arthritis_risk":5,"migraine_risk":4,"frizz_risk":1,"updated_at":"2026-03-05T20:20:24.938582+05:30"},{"city":"Dibrugarh","state":"Assam","latitude":27.4728,"longitude":94.912,"temp":24.0,"humidity":74,"rain":0.0,"pressure":997.0,"uv_index":7.2,"wind_gusts":14.4,"aqi":112,"pm10":46.1,"pm2_5":42.0,"mosquito_risk":3,"arthritis_risk":5,"migraine_risk":7,"frizz_risk":1,"updated_at":"2026-03-05T20:20:24.938589+05:30"}]