[{"city":"Delhi","state":"Delhi","latitude":28.6139,"longitude":77.209,"temp":33.5,"humidity":23,"rain":0.0,"pressure":983.3,"uv_index":7.1,"wind_gusts":45.7,"aqi":540,"pm10":1031.9,"pm2_5":153.7,"mosquito_risk":0,"arthritis_risk":5,"migraine_risk":7,"frizz_risk":0,"updated_at":"2026-04-25T22:18:38.646915+05:30"},{"city":"Mumbai","state":"Maharashtra","latitude":19.076,"longitude":72.8777,"temp":30.2,"humidity":63,"rain":0.0,"pressure":1008.5,"uv_index":8.0,"wind_gusts":42.8,"aqi":113,"pm10":40.6,"pm2_5":25.1,"mosquito_risk":3,"arthritis_risk":0,"migraine_risk":4,"frizz_risk":1,"updated_at":"2026-04-25T22:18:38.646958+05:30"},{"city":"Bangalore","state":"Karnataka","latitude":12.9716,"longitude":77.5946,"temp":27.9,"humidity":46,"rain":0.0,"pressure":913.4,"uv_index":9.3,"wind_gusts":36.4,"aqi":100,"pm10":30.4,"pm2_5":27.0,"mosquito_risk":4,"arthritis_risk":5,"migraine_risk":7,"frizz_risk":0,"updated_at":"2026-04-25T22:18:38.646973+05:30"},{"city":"Hyderabad","state":"Telangana","latitude":17.385,"longitude":78.4867,"temp":32.4,"humidity":32,"rain":0.0,"pressure":955.2,"uv_index":9.3,"wind_gusts":29.2,"aqi":153,"pm10":49.2,"pm2_5":44.7,"mosquito_risk":0,"arthritis_risk":5,"migraine_risk":7,"frizz_risk":0,"updated_at":"2026-04-25T22:18:38.646983+05:30"},{"city":"Chennai","state":"Tamil Nadu","latitude":13.0827,"longitude":80.2707,"temp":29.1,"humidity":80,"rain":0.0,"pressure":1008.2,"uv_index":9.3,"wind_gusts":50.0,"aqi":33,"pm10":12.0,"pm2_5":8.2,"mosquito_risk":7,"arthritis_risk":0,"migraine_risk":4,"frizz_risk":1,"updated_at":"2026-04-25T22:18:38.646990+05:30"},{"city":"Kolkata","state":"West Bengal","latitude":22.5726,"longitude":88.3639,"temp":28.0,"humidity":85,"rain":0.0,"pressure":1005.9,"uv_index":8.55,"wind_gusts":38.9,"aqi":76,"pm10":25.1,"pm2_5":20.5,"mosquito_risk":7,"arthritis_risk":5,"migraine_risk":4,"frizz_risk":1,"updated_at":"2026-04-25T22:18:38.647000+05:30"},{"city":"Pune","state":"Maharashtra","latitude":18.5204,"longitude":73.8567,"temp":30.9,"humidity":36,"rain":0.0,"pressure":949.3,"uv_index":8.35,"wind_gusts":36.4,"aqi":144,"pm10":50.5,"pm2_5":44.2,"mosquito_risk":0,"arthritis_risk":5,"migraine_risk":7,"frizz_risk":0,"updated_at":"2026-04-25T22:18:38.647007+05:30"},{"city":"Ahmedabad","state":"Gujarat","latitude":23.0225,"longitude":72.5714,"temp":38.7,"humidity":13,"rain":0.0,"pressure":1001.9,"uv_index":8.2,"wind_gusts":24.1,"aqi":69,"pm10":46.4,"pm2_5":30.0,"mosquito_risk":0,"arthritis_risk":5,"migraine_risk":7,"frizz_risk":0,"updated_at":"2026-04-25T22:18:38.647013+05:30"},{"city":"Jaipur","state":"Rajasthan","latitude":26.9124,"longitude":75.7873,"temp":33.6,"humidity":21,"rain":0.0,"pressure":961.3,"uv_index":8.05,"wind_gusts":38.2,"aqi":129,"pm10":271.9,"pm2_5":50.4,"mosquito_risk":0,"arthritis_risk":5,"migraine_risk":7,"frizz_risk":0,"updated_at":"2026-04-25T22:18:38.647021+05:30"},{"city":"Lucknow","state":"Uttar Pradesh","latitude":26.8467,"longitude":80.9462,"temp":34.8,"humidity":20,"rain":0.0,"pressure":992.4,"uv_index":7.9,"wind_gusts":42.1,"aqi":128,"pm10":161.6,"pm2_5":43.1,"mosquito_risk":0,"arthritis_risk":5,"migraine_risk":7,"frizz_risk":0,"updated_at":"2026-04-25T22:18:38.647027+05:30"},{"city":"Kanpur","state":"Uttar Pradesh","latitude":26.4499,"longitude":80.3319,"temp":34.9,"humidity":19,"rain":0.0,"pressure":991.0,"uv_index":7.9,"wind_gusts":39.6,"aqi":177,"pm10":455.4,"pm2_5":71.0,"mosquito_risk":0,"arthritis_risk":5,"migraine_risk":7,"frizz_risk":0,"updated_at":"2026-04-25T22:18:38.647033+05:30"},{"city":"Chandigarh","state":"Chandigarh","latitude":30.7333,"longitude":76.7794,"temp":28.5,"humidity":38,"rain":0.0,"pressure":969.1,"uv_index":7.25,"wind_gusts":59.4,"aqi":64,"pm10":42.8,"pm2_5":22.4,"mosquito_risk":4,"arthritis_risk":5,"migraine_risk":7,"frizz_risk":0,"updated_at":"2026-04-25T22:18:38.647040+05:30"},{"city":"Srinagar","state":"Jammu and Kashmir","latitude":34.0837,"longitude":74.7973,"temp":13.6,"humidity":84,"rain":0.0,"pressure":844.9,"uv_index":8.6,"wind_gusts":31.3,"aqi":73,"pm10":55.5,"pm2_5":39.5,"mosquito_risk":3,"arthritis_risk":10,"migraine_risk":7,"frizz_risk":0,"updated_at":"2026-04-25T22:18:38.647046+05:30"},{"city":"Jammu","state":"Jammu and Kashmir","latitude":32.7266,"longitude":74.857,"temp":28.4,"humidity":40,"rain":0.0,"pressure":973.9,"uv_index":8.2,"wind_gusts":43.6,"aqi":80,"pm10":69.2,"pm2_5":28.5,"mosquito_risk":4,"arthritis_risk":5,"migraine_risk":7,"frizz_risk":0,"updated_at":"2026-04-25T22:18:38.647052+05:30"},{"city":"Amritsar","state":"Punjab","latitude":31.634,"longitude":74.8723,"temp":30.7,"humidity":31,"rain":0.0,"pressure":981.2,"uv_index":8.1,"wind_gusts":38.2,"aqi":91,"pm10":126.2,"pm2_5":52.0,"mosquito_risk":0,"arthritis_risk":5,"migraine_risk":7,"frizz_risk":0,"updated_at":"2026-04-25T22:18:38.647058+05:30"},{"city":"Ludhiana","state":"Punjab","latitude":30.901,"longitude":75.8573,"temp":29.1,"humidity":38,"rain":0.0,"pressure":979.1,"uv_index":7.7,"wind_gusts":54.4,"aqi":83,"pm10":88.2,"pm2_5":33.6,"mosquito_risk":4,"arthritis_risk":5,"migraine_risk":7,"frizz_risk":0,"updated_at":"2026-04-25T22:18:38.647065+05:30"},{"city":"Jalandhar","state":"Punjab","latitude":31.326,"longitude":75.5762,"temp":28.8,"humidity":39,"rain":0.0,"pressure":980.2,"uv_index":7.9,"wind_gusts":37.4,"aqi":93,"pm10":106.9,"pm2_5":39.7,"mosquito_risk":4,"arthritis_risk":5,"migraine_risk":7,"frizz_risk":0,"updated_at":"2026-04-25T22:18:38.647071+05:30"},{"city":"Dehradun","state":"Uttarakhand","latitude":30.6284,"longitude":78.0322,"temp":15.9,"humidity":59,"rain":0.0,"pressure":829.6,"uv_index":7.85,"wind_gusts":50.0,"aqi":50,"pm10":44.0,"pm2_5":17.9,"mosquito_risk":0,"arthritis_risk":5,"migraine_risk":7,"frizz_risk":0,"updated_at":"2026-04-25T22:18:38.647078+05:30"},{"city":"Shimla","state":"Himachal Pradesh","latitude":31.1048,"longitude":77.1734,"temp":14.7,"humidity":53,"rain":0.0,"pressure":785.9,"uv_index":7.6,"wind_gusts":55.1,"aqi":57,"pm10":72.6,"pm2_5":21.0,"mosquito_risk":0,"arthritis_risk":5,"migraine_risk":7,"frizz_risk":0,"updated_at":"2026-04-25T22:18:38.647083+05:30"},{"city":"Manali","state":"Himachal Pradesh","latitude":32.2396,"longitude":77.1887,"temp":9.2,"humidity":78,"rain":0.1,"pressure":818.4,"uv_index":9.85,"wind_gusts":43.9,"aqi":83,"pm10":15.0,"pm2_5":6.7,"mosquito_risk":6,"arthritis_risk":5,"migraine_risk":7,"frizz_risk":0,"updated_at":"2026-04-25T22:18:38.647089+05:30"},{"city":"Gurgaon","state":"Haryana","latitude":28.4595,"longitude":77.0266,"temp":32.0,"humidity":25,"rain":0.0,"pressure":981.7,"uv_index":7.5,"wind_gusts":47.2,"aqi":1363,"pm10":1724.8,"pm2_5":222.1,"mosquito_risk":0,"arthritis_risk":5,"migraine_risk":7,"frizz_risk":0,"updated_at":"2026-04-25T22:18:38.647094+05:30"},{"city":"Noida","state":"Uttar Pradesh","latitude":28.5355,"longitude":77.391,"temp":32.4,"humidity":25,"rain":0.0,"pressure":984.5,"uv_index":7.4,"wind_gusts":33.8,"aqi":1363,"pm10":1724.8,"pm2_5":222.1,"mosquito_risk":0,"arthritis_risk":5,"migraine_risk":7,"frizz_risk":0,"updated_at":"2026-04-25T22:18:38.647100+05:30"},{"city":"Ghaziabad","state":"Uttar Pradesh","latitude":28.6692,"longitude":77.4538,"temp":32.2,"humidity":25,"rain":0.0,"pressure":982.8,"uv_index":7.4,"wind_gusts":46.8,"aqi":343,"pm10":860.5,"pm2_5":131.8,"mosquito_risk":0,"arthritis_risk":5,"migraine_risk":7,"frizz_risk":0,"updated_at":"2026-04-25T22:18:38.647105+05:30"},{"city":"Faridabad","state":"Haryana","latitude":28.4089,"longitude":77.3178,"temp":34.5,"humidity":21,"rain":0.0,"pressure":984.0,"uv_index":7.5,"wind_gusts":48.6,"aqi":1363,"pm10":1724.8,"pm2_5":222.1,"mosquito_risk":0,"arthritis_risk":5,"migraine_risk":7,"frizz_risk":0,"updated_at":"2026-04-25T22:18:38.647111+05:30"},{"city":"Meerut","state":"Uttar Pradesh","latitude":28.9845,"longitude":77.7064,"temp":30.5,"humidity":30,"rain":0.0,"pressure":981.5,"uv_index":7.35,"wind_gusts":47.2,"aqi":343,"pm10":860.5,"pm2_5":131.8,"mosquito_risk":0,"arthritis_risk":5,"migraine_risk":7,"frizz_risk":0,"updated_at":"2026-04-25T22:18:38.647116+05:30"},{"city":"Agra","state":"Uttar Pradesh","latitude":27.1767,"longitude":78.0081,"temp":34.2,"humidity":22,"rain":0.0,"pressure":987.7,"uv_index":7.8,"wind_gusts":45.0,"aqi":509,"pm10":1750.9,"pm2_5":210.5,"mosquito_risk":0,"arthritis_risk":5,"migraine_risk":7,"frizz_risk":0,"updated_at":"2026-04-25T22:18:38.647124+05:30"},{"city":"Varanasi","state":"Uttar Pradesh","latitude":25.3176,"longitude":82.9739,"temp":32.6,"humidity":43,"rain":0.0,"pressure":996.8,"uv_index":8.5,"wind_gusts":38.9,"aqi":134,"pm10":189.5,"pm2_5":74.5,"mosquito_risk":0,"arthritis_risk":5,"migraine_risk":7,"frizz_risk":1,"updated_at":"2026-04-25T22:18:38.647129+05:30"},{"city":"Prayagraj","state":"Uttar Pradesh","latitude":25.4358,"longitude":81.8463,"temp":33.5,"humidity":22,"rain":0.0,"pressure":994.3,"uv_index":8.4,"wind_gusts":31.7,"aqi":110,"pm10":197.4,"pm2_5":61.0,"mosquito_risk":0,"arthritis_risk":5,"migraine_risk":7,"frizz_risk":0,"updated_at":"2026-04-25T22:18:38.647136+05:30"},{"city":"Gorakhpur","state":"Uttar Pradesh","latitude":26.7606,"longitude":83.3732,"temp":29.5,"humidity":61,"rain":0.0,"pressure":997.0,"uv_index":8.3,"wind_gusts":43.2,"aqi":162,"pm10":99.9,"pm2_5":56.1,"mosquito_risk":7,"arthritis_risk":5,"migraine_risk":7,"frizz_risk":1,"updated_at":"2026-04-25T22:18:38.647141+05:30"},{"city":"Bareilly","state":"Uttar Pradesh","latitude":28.367,"longitude":79.4304,"temp":31.2,"humidity":32,"rain":0.0,"pressure":985.8,"uv_index":7.7,"wind_gusts":48.6,"aqi":123,"pm10":97.8,"pm2_5":37.3,"mosquito_risk":0,"arthritis_risk":5,"migraine_risk":7,"frizz_risk":0,"updated_at":"2026-04-25T22:18:38.647147+05:30"},{"city":"Aligarh","state":"Uttar Pradesh","latitude":27.8974,"longitude":78.088,"temp":33.0,"humidity":24,"rain":0.0,"pressure":985.4,"uv_index":7.6,"wind_gusts":40.3,"aqi":544,"pm10":1322.5,"pm2_5":184.4,"mosquito_risk":0,"arthritis_risk":5,"migraine_risk":7,"frizz_risk":0,"updated_at":"2026-04-25T22:18:38.647152+05:30"},{"city":"Moradabad","state":"Uttar Pradesh","latitude":28.8386,"longitude":78.7733,"temp":31.0,"humidity":37,"rain":0.0,"pressure":983.0,"uv_index":7.55,"wind_gusts":57.2,"aqi":154,"pm10":247.7,"pm2_5":58.8,"mosquito_risk":0,"arthritis_risk":5,"migraine_risk":7,"frizz_risk":0,"updated_at":"2026-04-25T22:18:38.647157+05:30"},{"city":"Saharanpur","state":"Uttar Pradesh","latitude":29.9637,"longitude":77.546,"temp":30.8,"humidity":31,"rain":0.0,"pressure":975.4,"uv_index":7.15,"wind_gusts":54.0,"aqi":103,"pm10":144.8,"pm2_5":39.5,"mosquito_risk":0,"arthritis_risk":5,"migraine_risk":7,"frizz_risk":0,"updated_at":"2026-04-25T22:18:38.647163+05:30"},{"city":"Jhansi","state":"Uttar Pradesh","latitude":25.4484,"longitude":78.5685,"temp":33.7,"humidity":20,"rain":0.0,"pressure":978.1,"uv_index":8.3,"wind_gusts":32.0,"aqi":81,"pm10":101.7,"pm2_5":33.3,"mosquito_risk":0,"arthritis_risk":5,"migraine_risk":7,"frizz_risk":0,"updated_at":"2026-04-25T22:18:41.923009+05:30"},{"city":"Surat","state":"Gujarat","latitude":21.1702,"longitude":72.8311,"temp":31.1,"humidity":50,"rain":0.0,"pressure":1006.5,"uv_index":7.85,"wind_gusts":36.0,"aqi":105,"pm10":47.6,"pm2_5":36.8,"mosquito_risk":0,"arthritis_risk":5,"migraine_risk":4,"frizz_risk":1,"updated_at":"2026-04-25T22:18:41.923036+05:30"},{"city":"Vadodara","state":"Gujarat","latitude":22.3072,"longitude":73.1812,"temp":36.0,"humidity":18,"rain":0.0,"pressure":1003.7,"uv_index":8.15,"wind_gusts":30.6,"aqi":103,"pm10":48.1,"pm2_5":32.2,"mosquito_risk":0,"arthritis_risk":5,"migraine_risk":7,"frizz_risk":0,"updated_at":"2026-04-25T22:18:41.923045+05:30"},{"city":"Rajkot","state":"Gujarat","latitude":22.3039,"longitude":70.8022,"temp":29.5,"humidity":44,"rain":0.0,"pressure":995.3,"uv_index":7.9,"wind_gusts":36.0,"aqi":74,"pm10":58.7,"pm2_5":20.6,"mosquito_risk":4,"arthritis_risk":5,"migraine_risk":7,"frizz_risk":0,"updated_at":"2026-04-25T22:18:41.923053+05:30"},{"city":"Thane","state":"Maharashtra","latitude":19.2183,"longitude":72.9781,"temp":30.9,"humidity":52,"rain":0.0,"pressure":1007.9,"uv_index":8.0,"wind_gusts":41.0,"aqi":113,"pm10":40.6,"pm2_5":25.1,"mosquito_risk":0,"arthritis_risk":5,"migraine_risk":4,"frizz_risk":1,"updated_at":"2026-04-25T22:18:41.923060+05:30"},{"city":"Nagpur","state":"Maharashtra","latitude":21.1458,"longitude":79.0882,"temp":35.7,"humidity":18,"rain":0.0,"pressure":973.1,"uv_index":8.9,"wind_gusts":37.1,"aqi":156,"pm10":49.9,"pm2_5":41.9,"mosquito_risk":0,"arthritis_risk":5,"migraine_risk":10,"frizz_risk":0,"updated_at":"2026-04-25T22:18:41.923067+05:30"},{"city":"Nashik","state":"Maharashtra","latitude":19.9975,"longitude":73.7898,"temp":30.9,"humidity":22,"rain":0.0,"pressure":946.7,"uv_index":8.3,"wind_gusts":31.0,"aqi":133,"pm10":36.9,"pm2_5":26.3,"mosquito_risk":0,"arthritis_risk":5,"migraine_risk":7,"frizz_risk":0,"updated_at":"2026-04-25T22:18:41.923075+05:30"},{"city":"Aurangabad","state":"Maharashtra","latitude":19.8762,"longitude":75.3433,"temp":33.5,"humidity":19,"rain":0.0,"pressure":944.9,"uv_index":8.75,"wind_gusts":29.5,"aqi":119,"pm10":45.6,"pm2_5":36.6,"mosquito_risk":0,"arthritis_risk":5,"migraine_risk":7,"frizz_risk":0,"updated_at":"2026-04-25T22:18:41.923083+05:30"},{"city":"Solapur","state":"Maharashtra","latitude":17.6599,"longitude":75.9064,"temp":33.3,"humidity":24,"rain":0.0,"pressure":957.5,"uv_index":8.6,"wind_gusts":25.6,"aqi":162,"pm10":47.7,"pm2_5":43.8,"mosquito_risk":0,"arthritis_risk":5,"migraine_risk":7,"frizz_risk":0,"updated_at":"2026-04-25T22:18:41.923090+05:30"},{"city":"Kolhapur","state":"Maharashtra","latitude":16.705,"longitude":74.2433,"temp":27.5,"humidity":73,"rain":0.0,"pressure":949.0,"uv_index":9.05,"wind_gusts":37.8,"aqi":151,"pm10":61.2,"pm2_5":57.3,"mosquito_risk":7,"arthritis_risk":5,"migraine_risk":7,"frizz_risk":1,"updated_at":"2026-04-25T22:18:41.923098+05:30"},{"city":"Goa","state":"Goa","latitude":15.2993,"longitude":74.124,"temp":29.7,"humidity":81,"rain":0.0,"pressure":998.1,"uv_index":8.9,"wind_gusts":29.5,"aqi":72,"pm10":36.0,"pm2_5":27.7,"mosquito_risk":7,"arthritis_risk":5,"migraine_risk":7,"frizz_risk":1,"updated_at":"2026-04-25T22:18:41.923105+05:30"},{"city":"Jodhpur","state":"Rajasthan","latitude":26.2389,"longitude":73.0243,"temp":36.2,"humidity":19,"rain":0.0,"pressure":983.3,"uv_index":8.3,"wind_gusts":32.8,"aqi":86,"pm10":148.5,"pm2_5":29.5,"mosquito_risk":0,"arthritis_risk":5,"migraine_risk":10,"frizz_risk":0,"updated_at":"2026-04-25T22:18:41.923112+05:30"},{"city":"Udaipur","state":"Rajasthan","latitude":24.5854,"longitude":73.7125,"temp":31.5,"humidity":25,"rain":0.0,"pressure":947.8,"uv_index":8.8,"wind_gusts":41.0,"aqi":67,"pm10":52.7,"pm2_5":20.3,"mosquito_risk":0,"arthritis_risk":5,"migraine_risk":7,"frizz_risk":0,"updated_at":"2026-04-25T22:18:41.923118+05:30"},{"city":"Kota","state":"Rajasthan","latitude":25.2138,"longitude":75.8648,"temp":32.4,"humidity":28,"rain":0.0,"pressure":979.3,"uv_index":8.3,"wind_gusts":31.3,"aqi":82,"pm10":99.7,"pm2_5":41.3,"mosquito_risk":0,"arthritis_risk":5,"migraine_risk":7,"frizz_risk":0,"updated_at":"2026-04-25T22:18:41.923125+05:30"},{"city":"Bikaner","state":"Rajasthan","latitude":28.0229,"longitude":73.3119,"temp":34.0,"humidity":30,"rain":0.0,"pressure":982.1,"uv_index":8.15,"wind_gusts":38.5,"aqi":75,"pm10":85.0,"pm2_5":25.4,"mosquito_risk":0,"arthritis_risk":5,"migraine_risk":7,"frizz_risk":0,"updated_at":"2026-04-25T22:18:41.923132+05:30"},{"city":"Ajmer","state":"Rajasthan","latitude":26.4499,"longitude":74.6399,"temp":32.2,"humidity":25,"rain":0.0,"pressure":956.0,"uv_index":8.25,"wind_gusts":35.6,"aqi":80,"pm10":92.9,"pm2_5":31.0,"mosquito_risk":0,"arthritis_risk":5,"migraine_risk":7,"frizz_risk":0,"updated_at":"2026-04-25T22:18:41.923139+05:30"},{"city":"Gwalior","state":"Madhya Pradesh","latitude":26.2183,"longitude":78.1828,"temp":34.3,"humidity":22,"rain":0.0,"pressure":983.7,"uv_index":8.0,"wind_gusts":41.0,"aqi":90,"pm10":143.9,"pm2_5":36.4,"mosquito_risk":0,"arthritis_risk":5,"migraine_risk":7,"frizz_risk":0,"updated_at":"2026-04-25T22:18:41.923145+05:30"},{"city":"Indore","state":"Madhya Pradesh","latitude":22.7196,"longitude":75.8577,"temp":34.0,"humidity":17,"rain":0.0,"pressure":949.2,"uv_index":8.65,"wind_gusts":32.0,"aqi":69,"pm10":53.6,"pm2_5":31.2,"mosquito_risk":0,"arthritis_risk":5,"migraine_risk":7,"frizz_risk":0,"updated_at":"2026-04-25T22:18:41.923152+05:30"},{"city":"Bhopal","state":"Madhya Pradesh","latitude":23.2599,"longitude":77.4126,"temp":35.1,"humidity":14,"rain":0.0,"pressure":953.9,"uv_index":8.65,"wind_gusts":30.6,"aqi":94,"pm10":40.9,"pm2_5":25.4,"mosquito_risk":0,"arthritis_risk":5,"migraine_risk":10,"frizz_risk":0,"updated_at":"2026-04-25T22:18:41.923159+05:30"},{"city":"Jabalpur","state":"Madhya Pradesh","latitude":23.1815,"longitude":79.9864,"temp":32.1,"humidity":19,"rain":0.0,"pressure":961.4,"uv_index":8.75,"wind_gusts":34.9,"aqi":97,"pm10":27.4,"pm2_5":19.7,"mosquito_risk":0,"arthritis_risk":5,"migraine_risk":7,"frizz_risk":0,"updated_at":"2026-04-25T22:18:41.923165+05:30"},{"city":"Ujjain","state":"Madhya Pradesh","latitude":23.1765,"longitude":75.7885,"temp":33.7,"humidity":19,"rain":0.0,"pressure":954.6,"uv_index":8.55,"wind_gusts":29.2,"aqi":61,"pm10":62.4,"pm2_5":34.9,"mosquito_risk":0,"arthritis_risk":5,"migraine_risk":7,"frizz_risk":0,"updated_at":"2026-04-25T22:18:41.923173+05:30"},{"city":"Visakhapatnam","state":"Andhra Pradesh","latitude":17.6868,"longitude":83.2185,"temp":28.3,"humidity":88,"rain":0.0,"pressure":1004.8,"uv_index":8.7,"wind_gusts":42.8,"aqi":58,"pm10":17.7,"pm2_5":12.9,"mosquito_risk":7,"arthritis_risk":5,"migraine_risk":4,"frizz_risk":1,"updated_at":"2026-04-25T22:18:41.923180+05:30"},{"city":"Vijayawada","state":"Andhra Pradesh","latitude":16.5062,"longitude":80.648,"temp":29.0,"humidity":80,"rain":0.0,"pressure":1004.0,"uv_index":8.85,"wind_gusts":31.0,"aqi":52,"pm10":14.7,"pm2_5":11.8,"mosquito_risk":7,"arthritis_risk":5,"migraine_risk":4,"frizz_risk":1,"updated_at":"2026-04-25T22:18:41.923186+05:30"},{"city":"Guntur","state":"Andhra Pradesh","latitude":16.3067,"longitude":80.4365,"temp":28.2,"humidity":86,"rain":0.0,"pressure":1005.2,"uv_index":8.6,"wind_gusts":36.7,"aqi":53,"pm10":15.5,"pm2_5":12.3,"mosquito_risk":7,"arthritis_risk":5,"migraine_risk":4,"frizz_risk":1,"updated_at":"2026-04-25T22:18:41.923193+05:30"},{"city":"Nellore","state":"Andhra Pradesh","latitude":14.4426,"longitude":79.9865,"temp":28.2,"humidity":85,"rain":0.0,"pressure":1006.8,"uv_index":9.25,"wind_gusts":42.1,"aqi":43,"pm10":11.7,"pm2_5":8.3,"mosquito_risk":7,"arthritis_risk":5,"migraine_risk":4,"frizz_risk":1,"updated_at":"2026-04-25T22:18:41.923201+05:30"},{"city":"Kurnool","state":"Andhra Pradesh","latitude":15.8281,"longitude":78.0373,"temp":33.8,"humidity":32,"rain":0.0,"pressure":977.8,"uv_index":8.9,"wind_gusts":34.2,"aqi":112,"pm10":56.3,"pm2_5":48.2,"mosquito_risk":0,"arthritis_risk":5,"migraine_risk":7,"frizz_risk":0,"updated_at":"2026-04-25T22:18:41.923208+05:30"},{"city":"Kakinada","state":"Andhra Pradesh","latitude":16.9891,"longitude":82.2475,"temp":28.7,"humidity":82,"rain":0.0,"pressure":1008.5,"uv_index":8.45,"wind_gusts":37.1,"aqi":40,"pm10":14.7,"pm2_5":9.5,"mosquito_risk":7,"arthritis_risk":0,"migraine_risk":4,"frizz_risk":1,"updated_at":"2026-04-25T22:18:41.923215+05:30"},{"city":"Tirupati","state":"Andhra Pradesh","latitude":13.6288,"longitude":79.4192,"temp":29.8,"humidity":58,"rain":0.0,"pressure":992.4,"uv_index":9.35,"wind_gusts":34.9,"aqi":69,"pm10":17.4,"pm2_5":15.1,"mosquito_risk":4,"arthritis_risk":5,"migraine_risk":7,"frizz_risk":1,"updated_at":"2026-04-25T22:18:41.923222+05:30"},{"city":"Warangal","state":"Telangana","latitude":17.9689,"longitude":79.5941,"temp":31.5,"humidity":42,"rain":0.0,"pressure":979.6,"uv_index":9.0,"wind_gusts":29.5,"aqi":122,"pm10":41.9,"pm2_5":38.5,"mosquito_risk":0,"arthritis_risk":5,"migraine_risk":7,"frizz_risk":1,"updated_at":"2026-04-25T22:18:41.923228+05:30"},{"city":"Nizamabad","state":"Telangana","latitude":18.6725,"longitude":78.0941,"temp":32.3,"humidity":29,"rain":0.0,"pressure":965.3,"uv_index":8.75,"wind_gusts":27.7,"aqi":139,"pm10":62.9,"pm2_5":56.8,"mosquito_risk":0,"arthritis_risk":5,"migraine_risk":7,"frizz_risk":0,"updated_at":"2026-04-25T22:18:41.923235+05:30"},{"city":"Mysore","state":"Karnataka","latitude":12.2958,"longitude":76.6396,"temp":27.6,"humidity":43,"rain":0.0,"pressure":929.2,"uv_index":8.9,"wind_gusts":45.0,"aqi":91,"pm10":28.3,"pm2_5":25.4,"mosquito_risk":4,"arthritis_risk":5,"migraine_risk":7,"frizz_risk":0,"updated_at":"2026-04-25T22:18:41.923242+05:30"},{"city":"Mangalore","state":"Karnataka","latitude":12.9141,"longitude":74.856,"temp":29.6,"humidity":80,"rain":0.0,"pressure":1007.0,"uv_index":9.1,"wind_gusts":40.7,"aqi":74,"pm10":25.1,"pm2_5":18.4,"mosquito_risk":7,"arthritis_risk":5,"migraine_risk":4,"frizz_risk":1,"updated_at":"2026-04-25T22:18:41.923248+05:30"},{"city":"Hubli-Dharwad","state":"Karnataka","latitude":15.3647,"longitude":75.124,"temp":27.4,"humidity":61,"rain":0.0,"pressure":941.2,"uv_index":9.0,"wind_gusts":47.5,"aqi":136,"pm10":47.3,"pm2_5":43.7,"mosquito_risk":7,"arthritis_risk":5,"migraine_risk":7,"frizz_risk":1,"updated_at":"2026-04-25T22:18:41.923255+05:30"},{"city":"Belgaum","state":"Karnataka","latitude":15.8497,"longitude":74.4977,"temp":25.6,"humidity":76,"rain":0.0,"pressure":926.6,"uv_index":9.2,"wind_gusts":34.9,"aqi":117,"pm10":43.4,"pm2_5":40.0,"mosquito_risk":7,"arthritis_risk":5,"migraine_risk":7,"frizz_risk":1,"updated_at":"2026-04-25T22:18:45.248263+05:30"},{"city":"Coimbatore","state":"Tamil Nadu","latitude":11.0168,"longitude":76.9558,"temp":29.6,"humidity":55,"rain":0.0,"pressure":962.8,"uv_index":8.95,"wind_gusts":46.1,"aqi":83,"pm10":35.2,"pm2_5":32.0,"mosquito_risk":4,"arthritis_risk":5,"migraine_risk":7,"frizz_risk":1,"updated_at":"2026-04-25T22:18:45.248291+05:30"},{"city":"Madurai","state":"Tamil Nadu","latitude":9.9252,"longitude":78.1198,"temp":30.6,"humidity":48,"rain":0.0,"pressure":994.3,"uv_index":9.25,"wind_gusts":39.2,"aqi":57,"pm10":13.5,"pm2_5":12.7,"mosquito_risk":0,"arthritis_risk":5,"migraine_risk":7,"frizz_risk":1,"updated_at":"2026-04-25T22:18:45.248299+05:30"},{"city":"Trichy","state":"Tamil Nadu","latitude":10.7905,"longitude":78.7047,"temp":29.2,"humidity":69,"rain":0.0,"pressure":1001.1,"uv_index":9.3,"wind_gusts":33.8,"aqi":54,"pm10":16.6,"pm2_5":15.6,"mosquito_risk":7,"arthritis_risk":5,"migraine_risk":4,"frizz_risk":1,"updated_at":"2026-04-25T22:18:45.248305+05:30"},{"city":"Salem","state":"Tamil Nadu","latitude":11.6643,"longitude":78.146,"temp":30.8,"humidity":48,"rain":0.0,"pressure":978.4,"uv_index":9.0,"wind_gusts":38.9,"aqi":92,"pm10":30.0,"pm2_5":26.8,"mosquito_risk":0,"arthritis_risk":5,"migraine_risk":7,"frizz_risk":1,"updated_at":"2026-04-25T22:18:45.248311+05:30"},{"city":"Tirunelveli","state":"Tamil Nadu","latitude":8.7139,"longitude":77.7567,"temp":28.8,"humidity":72,"rain":0.0,"pressure":1004.3,"uv_index":9.2,"wind_gusts":40.0,"aqi":61,"pm10":13.8,"pm2_5":12.9,"mosquito_risk":7,"arthritis_risk":5,"migraine_risk":4,"frizz_risk":1,"updated_at":"2026-04-25T22:18:45.248317+05:30"},{"city":"Vellore","state":"Tamil Nadu","latitude":12.9165,"longitude":79.1325,"temp":29.0,"humidity":62,"rain":0.0,"pressure":985.7,"uv_index":9.35,"wind_gusts":35.6,"aqi":79,"pm10":29.2,"pm2_5":26.9,"mosquito_risk":7,"arthritis_risk":5,"migraine_risk":7,"frizz_risk":1,"updated_at":"2026-04-25T22:18:45.248324+05:30"},{"city":"Erode","state":"Tamil Nadu","latitude":11.341,"longitude":77.7172,"temp":32.3,"humidity":42,"rain":0.0,"pressure":989.7,"uv_index":9.3,"wind_gusts":41.8,"aqi":70,"pm10":25.5,"pm2_5":22.8,"mosquito_risk":0,"arthritis_risk":5,"migraine_risk":7,"frizz_risk":1,"updated_at":"2026-04-25T22:18:45.248330+05:30"},{"city":"Kochi","state":"Kerala","latitude":9.9312,"longitude":76.2673,"temp":28.8,"humidity":78,"rain":0.0,"pressure":1009.6,"uv_index":8.4,"wind_gusts":42.1,"aqi":111,"pm10":25.1,"pm2_5":22.9,"mosquito_risk":7,"arthritis_risk":0,"migraine_risk":4,"frizz_risk":1,"updated_at":"2026-04-25T22:18:45.248336+05:30"},{"city":"Thiruvananthapuram","state":"Kerala","latitude":8.5241,"longitude":76.9366,"temp":26.8,"humidity":89,"rain":0.0,"pressure":1009.1,"uv_index":8.6,"wind_gusts":33.8,"aqi":66,"pm10":16.6,"pm2_5":12.5,"mosquito_risk":7,"arthritis_risk":0,"migraine_risk":4,"frizz_risk":1,"updated_at":"2026-04-25T22:18:45.248342+05:30"},{"city":"Kozhikode","state":"Kerala","latitude":11.2588,"longitude":75.7804,"temp":28.5,"humidity":89,"rain":0.0,"pressure":1008.1,"uv_index":8.7,"wind_gusts":36.7,"aqi":66,"pm10":18.4,"pm2_5":12.9,"mosquito_risk":7,"arthritis_risk":0,"migraine_risk":4,"frizz_risk":1,"updated_at":"2026-04-25T22:18:45.248348+05:30"},{"city":"Thrissur","state":"Kerala","latitude":10.5276,"longitude":76.2144,"temp":28.0,"humidity":85,"rain":0.0,"pressure":1007.8,"uv_index":8.1,"wind_gusts":44.6,"aqi":90,"pm10":26.1,"pm2_5":24.3,"mosquito_risk":7,"arthritis_risk":5,"migraine_risk":4,"frizz_risk":1,"updated_at":"2026-04-25T22:18:45.248354+05:30"},{"city":"Kannur","state":"Kerala","latitude":11.8745,"longitude":75.3704,"temp":29.7,"humidity":82,"rain":0.0,"pressure":1007.4,"uv_index":8.6,"wind_gusts":40.0,"aqi":65,"pm10":24.4,"pm2_5":18.2,"mosquito_risk":7,"arthritis_risk":5,"migraine_risk":4,"frizz_risk":1,"updated_at":"2026-04-25T22:18:45.248360+05:30"},{"city":"Patna","state":"Bihar","latitude":25.5941,"longitude":85.1376,"temp":27.7,"humidity":76,"rain":0.0,"pressure":1000.5,"uv_index":8.65,"wind_gusts":60.1,"aqi":164,"pm10":77.5,"pm2_5":58.8,"mosquito_risk":7,"arthritis_risk":5,"migraine_risk":4,"frizz_risk":1,"updated_at":"2026-04-25T22:18:45.248366+05:30"},{"city":"Gaya","state":"Bihar","latitude":24.7914,"longitude":85.0002,"temp":29.1,"humidity":67,"rain":0.0,"pressure":993.4,"uv_index":8.7,"wind_gusts":50.8,"aqi":149,"pm10":77.3,"pm2_5":56.2,"mosquito_risk":7,"arthritis_risk":5,"migraine_risk":7,"frizz_risk":1,"updated_at":"2026-04-25T22:18:45.248371+05:30"},{"city":"Muzaffarpur","state":"Bihar","latitude":26.1209,"longitude":85.3647,"temp":26.4,"humidity":77,"rain":0.0,"pressure":1000.6,"uv_index":8.6,"wind_gusts":50.4,"aqi":168,"pm10":79.6,"pm2_5":60.1,"mosquito_risk":7,"arthritis_risk":5,"migraine_risk":4,"frizz_risk":1,"updated_at":"2026-04-25T22:18:45.248376+05:30"},{"city":"Bhagalpur","state":"Bihar","latitude":25.2425,"longitude":87.0117,"temp":27.4,"humidity":81,"rain":0.0,"pressure":1001.5,"uv_index":8.6,"wind_gusts":55.1,"aqi":192,"pm10":66.4,"pm2_5":55.9,"mosquito_risk":7,"arthritis_risk":5,"migraine_risk":4,"frizz_risk":1,"updated_at":"2026-04-25T22:18:45.248382+05:30"},{"city":"Ranchi","state":"Jharkhand","latitude":23.3441,"longitude":85.3096,"temp":27.0,"humidity":36,"rain":0.0,"pressure":937.5,"uv_index":9.2,"wind_gusts":28.8,"aqi":157,"pm10":48.8,"pm2_5":39.9,"mosquito_risk":4,"arthritis_risk":5,"migraine_risk":7,"frizz_risk":0,"updated_at":"2026-04-25T22:18:45.248388+05:30"},{"city":"Jamshedpur","state":"Jharkhand","latitude":22.8046,"longitude":86.2029,"temp":30.5,"humidity":71,"rain":0.0,"pressure":990.1,"uv_index":8.9,"wind_gusts":33.5,"aqi":157,"pm10":39.6,"pm2_5":34.0,"mosquito_risk":3,"arthritis_risk":5,"migraine_risk":7,"frizz_risk":1,"updated_at":"2026-04-25T22:18:45.248393+05:30"},{"city":"Dhanbad","state":"Jharkhand","latitude":23.7957,"longitude":86.4304,"temp":30.4,"humidity":72,"rain":0.0,"pressure":980.2,"uv_index":8.95,"wind_gusts":48.6,"aqi":163,"pm10":42.7,"pm2_5":39.3,"mosquito_risk":3,"arthritis_risk":5,"migraine_risk":7,"frizz_risk":1,"updated_at":"2026-04-25T22:18:45.248399+05:30"},{"city":"Bokaro","state":"Jharkhand","latitude":23.6693,"longitude":86.1511,"temp":30.1,"humidity":72,"rain":0.0,"pressure":983.6,"uv_index":8.95,"wind_gusts":33.1,"aqi":155,"pm10":58.4,"pm2_5":49.7,"mosquito_risk":3,"arthritis_risk":5,"migraine_risk":7,"frizz_risk":1,"updated_at":"2026-04-25T22:18:45.248404+05:30"},{"city":"Bhubaneswar","state":"Odisha","latitude":20.2961,"longitude":85.8245,"temp":26.8,"humidity":94,"rain":0.0,"pressure":1003.5,"uv_index":9.1,"wind_gusts":41.0,"aqi":61,"pm10":16.7,"pm2_5":13.2,"mosquito_risk":7,"arthritis_risk":5,"migraine_risk":4,"frizz_risk":1,"updated_at":"2026-04-25T22:18:45.248410+05:30"},{"city":"Cuttack","state":"Odisha","latitude":20.4625,"longitude":85.8828,"temp":27.0,"humidity":92,"rain":0.0,"pressure":1005.2,"uv_index":9.15,"wind_gusts":38.2,"aqi":61,"pm10":16.7,"pm2_5":13.2,"mosquito_risk":7,"arthritis_risk":5,"migraine_risk":4,"frizz_risk":1,"updated_at":"2026-04-25T22:18:45.248415+05:30"},{"city":"Rourkela","state":"Odisha","latitude":22.2604,"longitude":84.8536,"temp":30.8,"humidity":53,"rain":0.0,"pressure":984.2,"uv_index":8.6,"wind_gusts":45.0,"aqi":194,"pm10":52.9,"pm2_5":46.4,"mosquito_risk":0,"arthritis_risk":5,"migraine_risk":7,"frizz_risk":1,"updated_at":"2026-04-25T22:18:45.248420+05:30"},{"city":"Raipur","state":"Chhattisgarh","latitude":21.2514,"longitude":81.6296,"temp":35.0,"humidity":17,"rain":0.0,"pressure":973.7,"uv_index":8.95,"wind_gusts":31.0,"aqi":161,"pm10":40.0,"pm2_5":34.5,"mosquito_risk":0,"arthritis_risk":5,"migraine_risk":7,"frizz_risk":0,"updated_at":"2026-04-25T22:18:45.248426+05:30"},{"city":"Bhilai","state":"Chhattisgarh","latitude":21.1938,"longitude":81.3509,"temp":34.3,"humidity":21,"rain":0.0,"pressure":974.2,"uv_index":9.0,"wind_gusts":35.6,"aqi":122,"pm10":43.7,"pm2_5":38.1,"mosquito_risk":0,"arthritis_risk":5,"migraine_risk":7,"frizz_risk":0,"updated_at":"2026-04-25T22:18:45.248431+05:30"},{"city":"Guwahati","state":"Assam","latitude":26.1158,"longitude":91.7086,"temp":23.7,"humidity":91,"rain":0.0,"pressure":1003.5,"uv_index":8.55,"wind_gusts":42.1,"aqi":160,"pm10":83.1,"pm2_5":67.1,"mosquito_risk":3,"arthritis_risk":5,"migraine_risk":4,"frizz_risk":1,"updated_at":"2026-04-25T22:18:45.248437+05:30"},{"city":"Agartala","state":"Tripura","latitude":23.8315,"longitude":91.2868,"temp":29.0,"humidity":64,"rain":0.0,"pressure":1007.5,"uv_index":8.75,"wind_gusts":35.6,"aqi":152,"pm10":89.2,"pm2_5":71.7,"mosquito_risk":7,"arthritis_risk":5,"migraine_risk":4,"frizz_risk":1,"updated_at":"2026-04-25T22:18:45.248442+05:30"},{"city":"Shillong","state":"Meghalaya","latitude":25.5788,"longitude":91.8933,"temp":17.7,"humidity":79,"rain":0.0,"pressure":858.4,"uv_index":8.2,"wind_gusts":29.5,"aqi":145,"pm10":65.9,"pm2_5":50.1,"mosquito_risk":3,"arthritis_risk":5,"migraine_risk":7,"frizz_risk":0,"updated_at":"2026-04-25T22:18:45.248447+05:30"},{"city":"Imphal","state":"Manipur","latitude":24.817,"longitude":93.9368,"temp":19.4,"humidity":85,"rain":0.0,"pressure":923.8,"uv_index":9.1,"wind_gusts":38.5,"aqi":154,"pm10":115.5,"pm2_5":77.3,"mosquito_risk":3,"arthritis_risk":10,"migraine_risk":7,"frizz_risk":1,"updated_at":"2026-04-25T22:18:45.248453+05:30"},{"city":"Aizawl","state":"Mizoram","latitude":23.7271,"longitude":92.7176,"temp":21.2,"humidity":61,"rain":0.0,"pressure":894.1,"uv_index":8.95,"wind_gusts":39.6,"aqi":118,"pm10":95.2,"pm2_5":44.9,"mosquito_risk":3,"arthritis_risk":5,"migraine_risk":7,"frizz_risk":0,"updated_at":"2026-04-25T22:18:45.248458+05:30"},{"city":"Kohima","state":"Nagaland","latitude":25.6701,"longitude":94.1077,"temp":15.4,"humidity":94,"rain":0.0,"pressure":855.6,"uv_index":8.8,"wind_gusts":38.2,"aqi":156,"pm10":120.1,"pm2_5":84.8,"mosquito_risk":3,"arthritis_risk":10,"migraine_risk":7,"frizz_risk":0,"updated_at":"2026-04-25T22:18:45.248463+05:30"},{"city":"Gangtok","state":"Sikkim","latitude":27.3314,"longitude":88.6138,"temp":13.9,"humidity":84,"rain":0.0,"pressure":838.2,"uv_index":8.8,"wind_gusts":41.4,"aqi":94,"pm10":48.8,"pm2_5":35.0,"mosquito_risk":3,"arthritis_risk":10,"migraine_risk":7,"frizz_risk":0,"updated_at":"2026-04-25T22:18:45.248468+05:30"},{"city":"Siliguri","state":"West Bengal","latitude":26.7271,"longitude":88.3953,"temp":24.1,"humidity":79,"rain":0.0,"pressure":994.5,"uv_index":8.45,"wind_gusts":33.8,"aqi":149,"pm10":92.4,"pm2_5":67.8,"mosquito_risk":3,"arthritis_risk":5,"migraine_risk":7,"frizz_risk":1,"updated_at":"2026-04-25T22:18:48.511951+05:30"},{"city":"Durgapur","state":"West Bengal","latitude":23.5204,"longitude":87.3119,"temp":28.4,"humidity":83,"rain":0.0,"pressure":995.7,"uv_index":8.9,"wind_gusts":38.5,"aqi":131,"pm10":34.0,"pm2_5":31.7,"mosquito_risk":7,"arthritis_risk":5,"migraine_risk":7,"frizz_risk":1,"updated_at":"2026-04-25T22:18:48.511979+05:30"},{"city":"Asansol","state":"West Bengal","latitude":23.6739,"longitude":86.9524,"temp":29.1,"humidity":80,"rain":0.0,"pressure":994.0,"uv_index":8.95,"wind_gusts":41.0,"aqi":142,"pm10":33.8,"pm2_5":31.3,"mosquito_risk":7,"arthritis_risk":5,"migraine_risk":7,"frizz_risk":1,"updated_at":"2026-04-25T22:18:48.511988+05:30"},{"city":"Pondicherry","state":"Puducherry","latitude":11.9139,"longitude":79.8145,"temp":29.0,"humidity":80,"rain":0.0,"pressure":1009.6,"uv_index":9.2,"wind_gusts":43.6,"aqi":28,"pm10":11.8,"pm2_5":7.5,"mosquito_risk":7,"arthritis_risk":0,"migraine_risk":4,"frizz_risk":1,"updated_at":"2026-04-25T22:18:48.511996+05:30"},{"city":"Port Blair","state":"Andaman and Nicobar Islands","latitude":11.6234,"longitude":92.7265,"temp":27.6,"humidity":83,"rain":0.0,"pressure":1008.9,"uv_index":9.15,"wind_gusts":33.1,"aqi":41,"pm10":23.9,"pm2_5":16.4,"mosquito_risk":7,"arthritis_risk":0,"migraine_risk":4,"frizz_risk":1,"updated_at":"2026-04-25T22:18:48.512004+05:30"},{"city":"Haridwar","state":"Uttarakhand","latitude":29.9457,"longitude":78.1642,"temp":25.8,"humidity":48,"rain":0.0,"pressure":973.2,"uv_index":7.25,"wind_gusts":35.6,"aqi":79,"pm10":71.2,"pm2_5":30.2,"mosquito_risk":4,"arthritis_risk":5,"migraine_risk":7,"frizz_risk":0,"updated_at":"2026-04-25T22:18:48.512012+05:30"},{"city":"Rishikesh","state":"Uttarakhand","latitude":30.0869,"longitude":78.2676,"temp":24.8,"humidity":49,"rain":0.0,"pressure":965.8,"uv_index":7.35,"wind_gusts":28.4,"aqi":85,"pm10":125.3,"pm2_5":35.0,"mosquito_risk":0,"arthritis_risk":5,"migraine_risk":7,"frizz_risk":0,"updated_at":"2026-04-25T22:18:48.512020+05:30"},{"city":"Nainital","state":"Uttarakhand","latitude":29.3919,"longitude":79.4542,"temp":15.8,"humidity":56,"rain":0.0,"pressure":805.9,"uv_index":8.2,"wind_gusts":40.3,"aqi":134,"pm10":66.4,"pm2_5":25.7,"mosquito_risk":0,"arthritis_risk":5,"migraine_risk":7,"frizz_risk":0,"updated_at":"2026-04-25T22:18:48.512027+05:30"},{"city":"Mussoorie","state":"Uttarakhand","latitude":30.4599,"longitude":78.0664,"temp":17.7,"humidity":47,"rain":0.0,"pressure":804.2,"uv_index":7.75,"wind_gusts":59.4,"aqi":79,"pm10":69.4,"pm2_5":30.0,"mosquito_risk":0,"arthritis_risk":5,"migraine_risk":7,"frizz_risk":0,"updated_at":"2026-04-25T22:18:48.512034+05:30"},{"city":"Dharamshala","state":"Himachal Pradesh","latitude":32.219,"longitude":76.3234,"temp":21.8,"humidity":42,"rain":0.0,"pressure":871.3,"uv_index":7.65,"wind_gusts":59.8,"aqi":50,"pm10":54.6,"pm2_5":18.0,"mosquito_risk":0,"arthritis_risk":5,"migraine_risk":7,"frizz_risk":0,"updated_at":"2026-04-25T22:18:48.512041+05:30"},{"city":"Dalhousie","state":"Himachal Pradesh","latitude":32.5387,"longitude":75.971,"temp":11.6,"humidity":72,"rain":0.0,"pressure":803.4,"uv_index":8.1,"wind_gusts":45.7,"aqi":61,"pm10":86.4,"pm2_5":33.6,"mosquito_risk":3,"arthritis_risk":5,"migraine_risk":7,"frizz_risk":0,"updated_at":"2026-04-25T22:18:48.512049+05:30"},{"city":"Patiala","state":"Punjab","latitude":30.3398,"longitude":76.3869,"temp":30.0,"humidity":33,"rain":0.0,"pressure":978.5,"uv_index":7.35,"wind_gusts":56.2,"aqi":638,"pm10":717.1,"pm2_5":92.7,"mosquito_risk":4,"arthritis_risk":5,"migraine_risk":7,"frizz_risk":0,"updated_at":"2026-04-25T22:18:48.512056+05:30"},{"city":"Bhatinda","state":"Punjab","latitude":30.211,"longitude":74.9455,"temp":30.9,"humidity":29,"rain":0.0,"pressure":984.1,"uv_index":8.05,"wind_gusts":52.9,"aqi":90,"pm10":107.3,"pm2_5":40.3,"mosquito_risk":0,"arthritis_risk":5,"migraine_risk":7,"frizz_risk":0,"updated_at":"2026-04-25T22:18:48.512064+05:30"},{"city":"Rohtak","state":"Haryana","latitude":28.8955,"longitude":76.6066,"temp":30.8,"humidity":29,"rain":0.0,"pressure":982.0,"uv_index":7.35,"wind_gusts":51.1,"aqi":838,"pm10":1147.4,"pm2_5":162.1,"mosquito_risk":0,"arthritis_risk":5,"migraine_risk":7,"frizz_risk":0,"updated_at":"2026-04-25T22:18:48.512070+05:30"},{"city":"Panipat","state":"Haryana","latitude":29.3909,"longitude":76.9635,"temp":31.6,"humidity":27,"rain":0.0,"pressure":980.6,"uv_index":7.15,"wind_gusts":54.0,"aqi":1522,"pm10":1747.2,"pm2_5":215.6,"mosquito_risk":0,"arthritis_risk":5,"migraine_risk":7,"frizz_risk":0,"updated_at":"2026-04-25T22:18:48.512076+05:30"},{"city":"Mathura","state":"Uttar Pradesh","latitude":27.4924,"longitude":77.6737,"temp":33.3,"humidity":24,"rain":0.0,"pressure":986.7,"uv_index":7.75,"wind_gusts":45.0,"aqi":624,"pm10":1851.5,"pm2_5":236.6,"mosquito_risk":0,"arthritis_risk":5,"migraine_risk":7,"frizz_risk":0,"updated_at":"2026-04-25T22:18:48.512082+05:30"},{"city":"Vrindavan","state":"Uttar Pradesh","latitude":27.5823,"longitude":77.7027,"temp":32.7,"humidity":26,"rain":0.0,"pressure":987.0,"uv_index":7.65,"wind_gusts":44.6,"aqi":624,"pm10":1851.5,"pm2_5":236.6,"mosquito_risk":0,"arthritis_risk":5,"migraine_risk":7,"frizz_risk":0,"updated_at":"2026-04-25T22:18:48.512087+05:30"},{"city":"Ayodhya","state":"Uttar Pradesh","latitude":26.7922,"longitude":82.1998,"temp":29.8,"humidity":60,"rain":0.0,"pressure":994.6,"uv_index":8.05,"wind_gusts":35.3,"aqi":139,"pm10":167.2,"pm2_5":67.8,"mosquito_risk":4,"arthritis_risk":5,"migraine_risk":7,"frizz_risk":1,"updated_at":"2026-04-25T22:18:48.512092+05:30"},{"city":"Ratlam","state":"Madhya Pradesh","latitude":23.3315,"longitude":75.0367,"temp":33.8,"humidity":19,"rain":0.0,"pressure":955.4,"uv_index":8.45,"wind_gusts":29.9,"aqi":65,"pm10":68.0,"pm2_5":37.7,"mosquito_risk":0,"arthritis_risk":5,"migraine_risk":7,"frizz_risk":0,"updated_at":"2026-04-25T22:18:48.512098+05:30"},{"city":"Sagar","state":"Madhya Pradesh","latitude":23.8388,"longitude":78.7378,"temp":31.6,"humidity":22,"rain":0.0,"pressure":950.3,"uv_index":8.65,"wind_gusts":29.9,"aqi":89,"pm10":49.2,"pm2_5":19.3,"mosquito_risk":0,"arthritis_risk":5,"migraine_risk":7,"frizz_risk":0,"updated_at":"2026-04-25T22:18:48.512104+05:30"},{"city":"Satna","state":"Madhya Pradesh","latitude":24.6005,"longitude":80.8322,"temp":32.1,"humidity":24,"rain":0.0,"pressure":970.8,"uv_index":8.65,"wind_gusts":41.0,"aqi":102,"pm10":128.1,"pm2_5":33.9,"mosquito_risk":0,"arthritis_risk":5,"migraine_risk":7,"frizz_risk":0,"updated_at":"2026-04-25T22:18:48.512109+05:30"},{"city":"Akola","state":"Maharashtra","latitude":20.7002,"longitude":77.0082,"temp":33.6,"humidity":22,"rain":0.0,"pressure":974.7,"uv_index":8.7,"wind_gusts":23.4,"aqi":117,"pm10":30.6,"pm2_5":22.1,"mosquito_risk":0,"arthritis_risk":5,"migraine_risk":7,"frizz_risk":0,"updated_at":"2026-04-25T22:18:48.512115+05:30"},{"city":"Amravati","state":"Maharashtra","latitude":20.9374,"longitude":77.7796,"temp":35.5,"humidity":18,"rain":0.0,"pressure":967.5,"uv_index":8.35,"wind_gusts":27.7,"aqi":120,"pm10":41.2,"pm2_5":31.2,"mosquito_risk":0,"arthritis_risk":5,"migraine_risk":10,"frizz_risk":0,"updated_at":"2026-04-25T22:18:48.512122+05:30"},{"city":"Latur","state":"Maharashtra","latitude":18.4088,"longitude":76.5604,"temp":30.8,"humidity":26,"rain":0.0,"pressure":940.3,"uv_index":8.6,"wind_gusts":32.0,"aqi":149,"pm10":47.6,"pm2_5":41.4,"mosquito_risk":0,"arthritis_risk":5,"migraine_risk":7,"frizz_risk":0,"updated_at":"2026-04-25T22:18:48.512127+05:30"},{"city":"Nanded","state":"Maharashtra","latitude":19.1383,"longitude":77.3091,"temp":32.2,"humidity":26,"rain":0.0,"pressure":968.4,"uv_index":8.6,"wind_gusts":28.8,"aqi":116,"pm10":48.2,"pm2_5":42.3,"mosquito_risk":0,"arthritis_risk":5,"migraine_risk":7,"frizz_risk":0,"updated_at":"2026-04-25T22:18:48.512133+05:30"},{"city":"Gulbarga","state":"Karnataka","latitude":17.3297,"longitude":76.8343,"temp":32.7,"humidity":29,"rain":0.0,"pressure":959.5,"uv_index":9.05,"wind_gusts":27.7,"aqi":167,"pm10":48.4,"pm2_5":43.7,"mosquito_risk":0,"arthritis_risk":5,"migraine_risk":7,"frizz_risk":0,"updated_at":"2026-04-25T22:18:48.512138+05:30"},{"city":"Bidar","state":"Karnataka","latitude":17.9104,"longitude":77.5199,"temp":29.0,"humidity":38,"rain":0.0,"pressure":936.4,"uv_index":8.85,"wind_gusts":27.7,"aqi":148,"pm10":60.5,"pm2_5":54.1,"mosquito_risk":4,"arthritis_risk":5,"migraine_risk":7,"frizz_risk":0,"updated_at":"2026-04-25T22:18:48.512144+05:30"},{"city":"Hospet","state":"Karnataka","latitude":15.2689,"longitude":76.3909,"temp":32.9,"humidity":24,"rain":0.0,"pressure":955.9,"uv_index":9.3,"wind_gusts":27.4,"aqi":168,"pm10":43.0,"pm2_5":38.3,"mosquito_risk":0,"arthritis_risk":5,"migraine_risk":7,"frizz_risk":0,"updated_at":"2026-04-25T22:18:48.512149+05:30"},{"city":"Tirupur","state":"Tamil Nadu","latitude":11.1085,"longitude":77.3411,"temp":32.5,"humidity":38,"rain":0.0,"pressure":976.0,"uv_index":9.4,"wind_gusts":41.8,"aqi":74,"pm10":30.3,"pm2_5":27.1,"mosquito_risk":0,"arthritis_risk":5,"migraine_risk":7,"frizz_risk":1,"updated_at":"2026-04-25T22:18:48.512154+05:30"},{"city":"Alappuzha","state":"Kerala","latitude":9.4981,"longitude":76.3388,"temp":27.0,"humidity":94,"rain":0.0,"pressure":1009.9,"uv_index":8.55,"wind_gusts":39.2,"aqi":85,"pm10":21.0,"pm2_5":17.8,"mosquito_risk":7,"arthritis_risk":0,"migraine_risk":4,"frizz_risk":1,"updated_at":"2026-04-25T22:18:48.512159+05:30"},{"city":"Munnar","state":"Kerala","latitude":10.0889,"longitude":77.0595,"temp":19.0,"humidity":69,"rain":0.0,"pressure":858.1,"uv_index":9.15,"wind_gusts":31.3,"aqi":61,"pm10":27.9,"pm2_5":26.7,"mosquito_risk":3,"arthritis_risk":5,"migraine_risk":7,"frizz_risk":0,"updated_at":"2026-04-25T22:18:48.512165+05:30"},{"city":"Silchar","state":"Assam","latitude":24.8333,"longitude":92.7789,"temp":25.1,"humidity":85,"rain":0.0,"pressure":1005.7,"uv_index":8.75,"wind_gusts":28.8,"aqi":161,"pm10":137.8,"pm2_5":95.2,"mosquito_risk":7,"arthritis_risk":5,"migraine_risk":4,"frizz_risk":1,"updated_at":"2026-04-25T22:18:48.512170+05:30"},{"city":"Dibrugarh","state":"Assam","latitude":27.4728,"longitude":94.912,"temp":23.6,"humidity":93,"rain":0.0,"pressure":997.8,"uv_index":8.6,"wind_gusts":31.7,"aqi":99,"pm10":38.5,"pm2_5":30.4,"mosquito_risk":3,"arthritis_risk":5,"migraine_risk":7,"frizz_risk":1,"updated_at":"2026-04-25T22:18:48.512176+05:30"}]