[{"city":"Delhi","state":"Delhi","latitude":28.6139,"longitude":77.209,"temp":33.8,"humidity":34,"rain":0.0,"pressure":977.8,"uv_index":7.7,"wind_gusts":25.2,"aqi":228,"pm10":229.1,"pm2_5":97.1,"no2":41.2,"co":771.0,"o3":128.0,"so2":40.0,"mosquito_risk":0,"arthritis_risk":5,"migraine_risk":7,"frizz_risk":0,"updated_at":"2026-05-14T20:51:48.227811+05:30"},{"city":"Mumbai","state":"Maharashtra","latitude":19.076,"longitude":72.8777,"temp":29.9,"humidity":77,"rain":0.0,"pressure":1004.3,"uv_index":7.9,"wind_gusts":45.4,"aqi":77,"pm10":23.2,"pm2_5":15.7,"no2":9.8,"co":263.0,"o3":68.0,"so2":6.2,"mosquito_risk":7,"arthritis_risk":5,"migraine_risk":4,"frizz_risk":1,"updated_at":"2026-05-14T20:51:48.227858+05:30"},{"city":"Bangalore","state":"Karnataka","latitude":12.9716,"longitude":77.5946,"temp":29.7,"humidity":38,"rain":0.0,"pressure":909.3,"uv_index":7.95,"wind_gusts":39.6,"aqi":92,"pm10":47.5,"pm2_5":32.6,"no2":52.9,"co":529.0,"o3":44.0,"so2":12.4,"mosquito_risk":4,"arthritis_risk":5,"migraine_risk":7,"frizz_risk":0,"updated_at":"2026-05-14T20:51:48.227876+05:30"},{"city":"Hyderabad","state":"Telangana","latitude":17.385,"longitude":78.4867,"temp":33.5,"humidity":42,"rain":0.0,"pressure":949.6,"uv_index":8.3,"wind_gusts":22.0,"aqi":142,"pm10":75.7,"pm2_5":50.3,"no2":32.5,"co":494.0,"o3":86.0,"so2":11.0,"mosquito_risk":0,"arthritis_risk":5,"migraine_risk":7,"frizz_risk":1,"updated_at":"2026-05-14T20:51:48.227887+05:30"},{"city":"Chennai","state":"Tamil Nadu","latitude":13.0827,"longitude":80.2707,"temp":30.5,"humidity":71,"rain":0.0,"pressure":1003.3,"uv_index":8.4,"wind_gusts":42.1,"aqi":28,"pm10":9.5,"pm2_5":6.1,"no2":5.7,"co":157.0,"o3":41.0,"so2":5.8,"mosquito_risk":3,"arthritis_risk":5,"migraine_risk":4,"frizz_risk":1,"updated_at":"2026-05-14T20:51:48.227902+05:30"},{"city":"Kolkata","state":"West Bengal","latitude":22.5726,"longitude":88.3639,"temp":28.6,"humidity":77,"rain":0.0,"pressure":1002.3,"uv_index":8.95,"wind_gusts":38.2,"aqi":53,"pm10":15.1,"pm2_5":12.2,"no2":8.0,"co":247.0,"o3":33.0,"so2":5.7,"mosquito_risk":7,"arthritis_risk":5,"migraine_risk":4,"frizz_risk":1,"updated_at":"2026-05-14T20:51:48.227913+05:30"},{"city":"Pune","state":"Maharashtra","latitude":18.5204,"longitude":73.8567,"temp":29.4,"humidity":62,"rain":0.0,"pressure":944.5,"uv_index":5.95,"wind_gusts":45.4,"aqi":138,"pm10":28.9,"pm2_5":21.7,"no2":11.5,"co":255.0,"o3":134.0,"so2":19.2,"mosquito_risk":7,"arthritis_risk":5,"migraine_risk":3,"frizz_risk":1,"updated_at":"2026-05-14T20:51:48.227921+05:30"},{"city":"Ahmedabad","state":"Gujarat","latitude":23.0225,"longitude":72.5714,"temp":38.7,"humidity":19,"rain":0.0,"pressure":995.5,"uv_index":8.15,"wind_gusts":41.4,"aqi":59,"pm10":24.1,"pm2_5":13.0,"no2":6.8,"co":215.0,"o3":86.0,"so2":3.7,"mosquito_risk":0,"arthritis_risk":5,"migraine_risk":10,"frizz_risk":0,"updated_at":"2026-05-14T20:51:48.227933+05:30"},{"city":"Jaipur","state":"Rajasthan","latitude":26.9124,"longitude":75.7873,"temp":35.0,"humidity":23,"rain":0.0,"pressure":954.6,"uv_index":8.25,"wind_gusts":34.2,"aqi":125,"pm10":122.9,"pm2_5":46.3,"no2":34.7,"co":641.0,"o3":65.0,"so2":12.4,"mosquito_risk":0,"arthritis_risk":5,"migraine_risk":7,"frizz_risk":0,"updated_at":"2026-05-14T20:51:48.227941+05:30"},{"city":"Lucknow","state":"Uttar Pradesh","latitude":26.8467,"longitude":80.9462,"temp":31.8,"humidity":55,"rain":0.0,"pressure":987.7,"uv_index":8.15,"wind_gusts":24.8,"aqi":165,"pm10":135.0,"pm2_5":77.1,"no2":31.1,"co":584.0,"o3":86.0,"so2":18.9,"mosquito_risk":0,"arthritis_risk":5,"migraine_risk":7,"frizz_risk":1,"updated_at":"2026-05-14T20:51:48.227949+05:30"},{"city":"Kanpur","state":"Uttar Pradesh","latitude":26.4499,"longitude":80.3319,"temp":33.6,"humidity":44,"rain":0.0,"pressure":985.8,"uv_index":8.2,"wind_gusts":28.4,"aqi":159,"pm10":272.9,"pm2_5":84.8,"no2":18.7,"co":479.0,"o3":92.0,"so2":14.7,"mosquito_risk":0,"arthritis_risk":5,"migraine_risk":7,"frizz_risk":1,"updated_at":"2026-05-14T20:51:48.227973+05:30"},{"city":"Chandigarh","state":"Chandigarh","latitude":30.7333,"longitude":76.7794,"temp":27.8,"humidity":43,"rain":0.0,"pressure":964.2,"uv_index":7.65,"wind_gusts":29.2,"aqi":144,"pm10":43.8,"pm2_5":36.1,"no2":20.6,"co":637.0,"o3":112.0,"so2":14.3,"mosquito_risk":4,"arthritis_risk":5,"migraine_risk":7,"frizz_risk":0,"updated_at":"2026-05-14T20:51:48.227982+05:30"},{"city":"Srinagar","state":"Jammu and Kashmir","latitude":34.0837,"longitude":74.7973,"temp":15.6,"humidity":77,"rain":0.0,"pressure":840.9,"uv_index":8.7,"wind_gusts":39.2,"aqi":69,"pm10":21.5,"pm2_5":18.3,"no2":24.4,"co":886.0,"o3":53.0,"so2":3.3,"mosquito_risk":3,"arthritis_risk":5,"migraine_risk":7,"frizz_risk":0,"updated_at":"2026-05-14T20:51:48.227991+05:30"},{"city":"Jammu","state":"Jammu and Kashmir","latitude":32.7266,"longitude":74.857,"temp":27.5,"humidity":48,"rain":0.0,"pressure":967.7,"uv_index":8.4,"wind_gusts":34.2,"aqi":98,"pm10":55.3,"pm2_5":36.4,"no2":30.8,"co":492.0,"o3":76.0,"so2":5.9,"mosquito_risk":4,"arthritis_risk":5,"migraine_risk":7,"frizz_risk":0,"updated_at":"2026-05-14T20:51:48.227999+05:30"},{"city":"Amritsar","state":"Punjab","latitude":31.634,"longitude":74.8723,"temp":26.5,"humidity":66,"rain":0.0,"pressure":975.7,"uv_index":8.3,"wind_gusts":27.7,"aqi":139,"pm10":79.6,"pm2_5":53.2,"no2":25.4,"co":403.0,"o3":98.0,"so2":10.6,"mosquito_risk":7,"arthritis_risk":5,"migraine_risk":7,"frizz_risk":1,"updated_at":"2026-05-14T20:51:48.228006+05:30"},{"city":"Ludhiana","state":"Punjab","latitude":30.901,"longitude":75.8573,"temp":29.4,"humidity":51,"rain":0.0,"pressure":973.7,"uv_index":7.9,"wind_gusts":27.7,"aqi":152,"pm10":49.0,"pm2_5":42.5,"no2":17.9,"co":994.0,"o3":89.0,"so2":7.6,"mosquito_risk":4,"arthritis_risk":5,"migraine_risk":7,"frizz_risk":1,"updated_at":"2026-05-14T20:51:48.228014+05:30"},{"city":"Jalandhar","state":"Punjab","latitude":31.326,"longitude":75.5762,"temp":29.0,"humidity":49,"rain":0.0,"pressure":974.7,"uv_index":8.1,"wind_gusts":25.9,"aqi":125,"pm10":69.4,"pm2_5":41.9,"no2":18.0,"co":1000.0,"o3":88.0,"so2":6.1,"mosquito_risk":4,"arthritis_risk":5,"migraine_risk":7,"frizz_risk":1,"updated_at":"2026-05-14T20:51:48.228021+05:30"},{"city":"Dehradun","state":"Uttarakhand","latitude":30.6284,"longitude":78.0322,"temp":15.3,"humidity":83,"rain":0.0,"pressure":825.8,"uv_index":8.1,"wind_gusts":40.0,"aqi":135,"pm10":45.2,"pm2_5":31.5,"no2":25.8,"co":323.0,"o3":119.0,"so2":7.8,"mosquito_risk":3,"arthritis_risk":10,"migraine_risk":7,"frizz_risk":0,"updated_at":"2026-05-14T20:51:48.228031+05:30"},{"city":"Shimla","state":"Himachal Pradesh","latitude":31.1048,"longitude":77.1734,"temp":15.0,"humidity":52,"rain":0.0,"pressure":782.0,"uv_index":8.15,"wind_gusts":50.8,"aqi":112,"pm10":33.8,"pm2_5":20.9,"no2":13.7,"co":320.0,"o3":122.0,"so2":7.2,"mosquito_risk":0,"arthritis_risk":5,"migraine_risk":7,"frizz_risk":0,"updated_at":"2026-05-14T20:51:48.228038+05:30"},{"city":"Manali","state":"Himachal Pradesh","latitude":32.2396,"longitude":77.1887,"temp":10.5,"humidity":76,"rain":0.0,"pressure":813.6,"uv_index":9.95,"wind_gusts":43.6,"aqi":97,"pm10":17.5,"pm2_5":9.7,"no2":45.8,"co":245.0,"o3":82.0,"so2":0.6,"mosquito_risk":3,"arthritis_risk":5,"migraine_risk":7,"frizz_risk":0,"updated_at":"2026-05-14T20:51:48.228045+05:30"},{"city":"Gurgaon","state":"Haryana","latitude":28.4595,"longitude":77.0266,"temp":33.0,"humidity":33,"rain":0.0,"pressure":976.0,"uv_index":7.8,"wind_gusts":36.0,"aqi":697,"pm10":1300.1,"pm2_5":250.5,"no2":36.7,"co":1137.0,"o3":159.0,"so2":45.9,"mosquito_risk":0,"arthritis_risk":5,"migraine_risk":7,"frizz_risk":0,"updated_at":"2026-05-14T20:51:48.228052+05:30"},{"city":"Noida","state":"Uttar Pradesh","latitude":28.5355,"longitude":77.391,"temp":29.6,"humidity":53,"rain":0.0,"pressure":978.9,"uv_index":7.7,"wind_gusts":27.7,"aqi":697,"pm10":1300.1,"pm2_5":250.5,"no2":36.7,"co":1517.0,"o3":159.0,"so2":45.9,"mosquito_risk":4,"arthritis_risk":5,"migraine_risk":7,"frizz_risk":1,"updated_at":"2026-05-14T20:51:48.228059+05:30"},{"city":"Ghaziabad","state":"Uttar Pradesh","latitude":28.6692,"longitude":77.4538,"temp":29.6,"humidity":51,"rain":0.0,"pressure":977.1,"uv_index":7.7,"wind_gusts":27.7,"aqi":209,"pm10":154.6,"pm2_5":82.0,"no2":25.2,"co":646.0,"o3":110.0,"so2":25.1,"mosquito_risk":4,"arthritis_risk":5,"migraine_risk":7,"frizz_risk":1,"updated_at":"2026-05-14T20:51:48.228067+05:30"},{"city":"Faridabad","state":"Haryana","latitude":28.4089,"longitude":77.3178,"temp":32.7,"humidity":38,"rain":0.0,"pressure":978.4,"uv_index":7.75,"wind_gusts":36.0,"aqi":697,"pm10":1300.1,"pm2_5":250.5,"no2":36.7,"co":1321.0,"o3":159.0,"so2":45.9,"mosquito_risk":0,"arthritis_risk":5,"migraine_risk":7,"frizz_risk":1,"updated_at":"2026-05-14T20:51:48.228074+05:30"},{"city":"Meerut","state":"Uttar Pradesh","latitude":28.9845,"longitude":77.7064,"temp":30.9,"humidity":48,"rain":0.0,"pressure":976.0,"uv_index":7.6,"wind_gusts":21.6,"aqi":209,"pm10":154.6,"pm2_5":82.0,"no2":25.2,"co":650.0,"o3":110.0,"so2":25.1,"mosquito_risk":0,"arthritis_risk":5,"migraine_risk":7,"frizz_risk":1,"updated_at":"2026-05-14T20:51:48.228080+05:30"},{"city":"Agra","state":"Uttar Pradesh","latitude":27.1767,"longitude":78.0081,"temp":33.2,"humidity":42,"rain":0.0,"pressure":981.6,"uv_index":7.8,"wind_gusts":32.0,"aqi":291,"pm10":881.0,"pm2_5":150.4,"no2":19.1,"co":577.0,"o3":101.0,"so2":16.5,"mosquito_risk":0,"arthritis_risk":5,"migraine_risk":7,"frizz_risk":1,"updated_at":"2026-05-14T20:51:48.228087+05:30"},{"city":"Varanasi","state":"Uttar Pradesh","latitude":25.3176,"longitude":82.9739,"temp":32.7,"humidity":49,"rain":0.0,"pressure":991.8,"uv_index":8.7,"wind_gusts":27.7,"aqi":174,"pm10":118.5,"pm2_5":74.5,"no2":34.3,"co":688.0,"o3":99.0,"so2":21.8,"mosquito_risk":0,"arthritis_risk":5,"migraine_risk":7,"frizz_risk":1,"updated_at":"2026-05-14T20:51:48.228095+05:30"},{"city":"Prayagraj","state":"Uttar Pradesh","latitude":25.4358,"longitude":81.8463,"temp":34.1,"humidity":43,"rain":0.0,"pressure":989.8,"uv_index":8.6,"wind_gusts":27.7,"aqi":169,"pm10":108.0,"pm2_5":65.7,"no2":26.7,"co":613.0,"o3":91.0,"so2":18.9,"mosquito_risk":0,"arthritis_risk":5,"migraine_risk":7,"frizz_risk":1,"updated_at":"2026-05-14T20:51:48.228104+05:30"},{"city":"Gorakhpur","state":"Uttar Pradesh","latitude":26.7606,"longitude":83.3732,"temp":27.9,"humidity":71,"rain":0.0,"pressure":991.9,"uv_index":8.6,"wind_gusts":34.6,"aqi":147,"pm10":79.9,"pm2_5":62.9,"no2":29.1,"co":625.0,"o3":78.0,"so2":14.6,"mosquito_risk":7,"arthritis_risk":5,"migraine_risk":7,"frizz_risk":1,"updated_at":"2026-05-14T20:51:48.228112+05:30"},{"city":"Bareilly","state":"Uttar Pradesh","latitude":28.367,"longitude":79.4304,"temp":28.5,"humidity":65,"rain":0.0,"pressure":981.2,"uv_index":8.0,"wind_gusts":34.9,"aqi":155,"pm10":111.1,"pm2_5":68.0,"no2":27.5,"co":554.0,"o3":90.0,"so2":15.7,"mosquito_risk":7,"arthritis_risk":5,"migraine_risk":7,"frizz_risk":1,"updated_at":"2026-05-14T20:51:48.228119+05:30"},{"city":"Aligarh","state":"Uttar Pradesh","latitude":27.8974,"longitude":78.088,"temp":30.5,"humidity":53,"rain":0.0,"pressure":979.8,"uv_index":7.85,"wind_gusts":48.6,"aqi":315,"pm10":488.0,"pm2_5":121.5,"no2":14.8,"co":756.0,"o3":124.0,"so2":21.7,"mosquito_risk":0,"arthritis_risk":5,"migraine_risk":7,"frizz_risk":1,"updated_at":"2026-05-14T20:51:48.228126+05:30"},{"city":"Moradabad","state":"Uttar Pradesh","latitude":28.8386,"longitude":78.7733,"temp":29.0,"humidity":68,"rain":0.0,"pressure":978.1,"uv_index":7.8,"wind_gusts":53.3,"aqi":172,"pm10":141.1,"pm2_5":103.4,"no2":46.9,"co":785.0,"o3":92.0,"so2":28.3,"mosquito_risk":7,"arthritis_risk":5,"migraine_risk":7,"frizz_risk":1,"updated_at":"2026-05-14T20:51:48.228133+05:30"},{"city":"Saharanpur","state":"Uttar Pradesh","latitude":29.9637,"longitude":77.546,"temp":28.4,"humidity":45,"rain":0.0,"pressure":970.4,"uv_index":7.35,"wind_gusts":28.4,"aqi":161,"pm10":94.8,"pm2_5":73.8,"no2":37.0,"co":726.0,"o3":81.0,"so2":18.6,"mosquito_risk":4,"arthritis_risk":5,"migraine_risk":7,"frizz_risk":0,"updated_at":"2026-05-14T20:51:48.228139+05:30"},{"city":"Jhansi","state":"Uttar Pradesh","latitude":25.4484,"longitude":78.5685,"temp":34.5,"humidity":30,"rain":0.0,"pressure":971.8,"uv_index":8.5,"wind_gusts":28.8,"aqi":110,"pm10":81.5,"pm2_5":34.6,"no2":6.9,"co":319.0,"o3":85.0,"so2":7.2,"mosquito_risk":0,"arthritis_risk":5,"migraine_risk":7,"frizz_risk":0,"updated_at":"2026-05-14T20:51:51.464018+05:30"},{"city":"Surat","state":"Gujarat","latitude":21.1702,"longitude":72.8311,"temp":30.9,"humidity":74,"rain":0.0,"pressure":1000.7,"uv_index":7.8,"wind_gusts":43.2,"aqi":87,"pm10":24.9,"pm2_5":20.9,"no2":31.2,"co":237.0,"o3":43.0,"so2":48.6,"mosquito_risk":3,"arthritis_risk":5,"migraine_risk":4,"frizz_risk":1,"updated_at":"2026-05-14T20:51:51.464056+05:30"},{"city":"Vadodara","state":"Gujarat","latitude":22.3072,"longitude":73.1812,"temp":34.5,"humidity":46,"rain":0.0,"pressure":997.9,"uv_index":8.15,"wind_gusts":39.6,"aqi":101,"pm10":39.2,"pm2_5":20.2,"no2":17.4,"co":250.0,"o3":74.0,"so2":8.6,"mosquito_risk":0,"arthritis_risk":5,"migraine_risk":7,"frizz_risk":1,"updated_at":"2026-05-14T20:51:51.464067+05:30"},{"city":"Rajkot","state":"Gujarat","latitude":22.3039,"longitude":70.8022,"temp":30.5,"humidity":57,"rain":0.0,"pressure":990.0,"uv_index":7.8,"wind_gusts":59.8,"aqi":52,"pm10":14.2,"pm2_5":10.6,"no2":5.9,"co":162.0,"o3":68.0,"so2":6.2,"mosquito_risk":0,"arthritis_risk":5,"migraine_risk":7,"frizz_risk":1,"updated_at":"2026-05-14T20:51:51.464076+05:30"},{"city":"Thane","state":"Maharashtra","latitude":19.2183,"longitude":72.9781,"temp":30.0,"humidity":75,"rain":0.0,"pressure":1003.7,"uv_index":7.95,"wind_gusts":40.3,"aqi":77,"pm10":23.2,"pm2_5":15.7,"no2":9.8,"co":247.0,"o3":68.0,"so2":6.2,"mosquito_risk":7,"arthritis_risk":5,"migraine_risk":4,"frizz_risk":1,"updated_at":"2026-05-14T20:51:51.464084+05:30"},{"city":"Nagpur","state":"Maharashtra","latitude":21.1458,"longitude":79.0882,"temp":38.3,"humidity":24,"rain":0.0,"pressure":967.4,"uv_index":8.95,"wind_gusts":34.9,"aqi":161,"pm10":62.9,"pm2_5":47.5,"no2":40.9,"co":341.0,"o3":87.0,"so2":29.6,"mosquito_risk":0,"arthritis_risk":5,"migraine_risk":10,"frizz_risk":0,"updated_at":"2026-05-14T20:51:51.464091+05:30"},{"city":"Nashik","state":"Maharashtra","latitude":19.9975,"longitude":73.7898,"temp":29.9,"humidity":43,"rain":0.0,"pressure":942.1,"uv_index":8.25,"wind_gusts":41.0,"aqi":93,"pm10":19.3,"pm2_5":13.0,"no2":5.3,"co":213.0,"o3":99.0,"so2":3.8,"mosquito_risk":4,"arthritis_risk":5,"migraine_risk":7,"frizz_risk":0,"updated_at":"2026-05-14T20:51:51.464099+05:30"},{"city":"Aurangabad","state":"Maharashtra","latitude":19.8762,"longitude":75.3433,"temp":35.5,"humidity":20,"rain":0.0,"pressure":940.0,"uv_index":9.1,"wind_gusts":38.5,"aqi":84,"pm10":40.3,"pm2_5":21.7,"no2":6.0,"co":203.0,"o3":105.0,"so2":5.2,"mosquito_risk":0,"arthritis_risk":5,"migraine_risk":10,"frizz_risk":0,"updated_at":"2026-05-14T20:51:51.464106+05:30"},{"city":"Solapur","state":"Maharashtra","latitude":17.6599,"longitude":75.9064,"temp":31.1,"humidity":51,"rain":0.0,"pressure":952.3,"uv_index":8.75,"wind_gusts":32.0,"aqi":112,"pm10":72.4,"pm2_5":43.8,"no2":19.9,"co":274.0,"o3":87.0,"so2":8.6,"mosquito_risk":0,"arthritis_risk":5,"migraine_risk":7,"frizz_risk":1,"updated_at":"2026-05-14T20:51:51.464113+05:30"},{"city":"Kolhapur","state":"Maharashtra","latitude":16.705,"longitude":74.2433,"temp":27.0,"humidity":83,"rain":0.0,"pressure":944.4,"uv_index":8.95,"wind_gusts":38.9,"aqi":94,"pm10":29.8,"pm2_5":20.9,"no2":6.6,"co":221.0,"o3":91.0,"so2":4.9,"mosquito_risk":7,"arthritis_risk":5,"migraine_risk":7,"frizz_risk":1,"updated_at":"2026-05-14T20:51:51.464121+05:30"},{"city":"Goa","state":"Goa","latitude":15.2993,"longitude":74.124,"temp":30.1,"humidity":79,"rain":0.0,"pressure":994.1,"uv_index":7.4,"wind_gusts":34.9,"aqi":85,"pm10":27.3,"pm2_5":19.0,"no2":3.0,"co":202.0,"o3":70.0,"so2":1.4,"mosquito_risk":3,"arthritis_risk":5,"migraine_risk":7,"frizz_risk":1,"updated_at":"2026-05-14T20:51:51.464128+05:30"},{"city":"Jodhpur","state":"Rajasthan","latitude":26.2389,"longitude":73.0243,"temp":37.3,"humidity":23,"rain":0.0,"pressure":976.2,"uv_index":8.4,"wind_gusts":36.7,"aqi":111,"pm10":173.7,"pm2_5":45.3,"no2":14.4,"co":275.0,"o3":73.0,"so2":5.2,"mosquito_risk":0,"arthritis_risk":5,"migraine_risk":10,"frizz_risk":0,"updated_at":"2026-05-14T20:51:51.464135+05:30"},{"city":"Udaipur","state":"Rajasthan","latitude":24.5854,"longitude":73.7125,"temp":33.4,"humidity":23,"rain":0.0,"pressure":941.4,"uv_index":8.85,"wind_gusts":40.0,"aqi":77,"pm10":43.0,"pm2_5":15.5,"no2":4.1,"co":246.0,"o3":79.0,"so2":2.5,"mosquito_risk":0,"arthritis_risk":5,"migraine_risk":7,"frizz_risk":0,"updated_at":"2026-05-14T20:51:51.464142+05:30"},{"city":"Kota","state":"Rajasthan","latitude":25.2138,"longitude":75.8648,"temp":36.9,"humidity":19,"rain":0.0,"pressure":972.4,"uv_index":8.4,"wind_gusts":32.0,"aqi":121,"pm10":54.8,"pm2_5":34.0,"no2":20.3,"co":303.0,"o3":81.0,"so2":8.4,"mosquito_risk":0,"arthritis_risk":5,"migraine_risk":10,"frizz_risk":0,"updated_at":"2026-05-14T20:51:51.464150+05:30"},{"city":"Bikaner","state":"Rajasthan","latitude":28.0229,"longitude":73.3119,"temp":35.3,"humidity":29,"rain":0.0,"pressure":975.9,"uv_index":8.35,"wind_gusts":32.8,"aqi":86,"pm10":70.8,"pm2_5":27.6,"no2":5.2,"co":235.0,"o3":75.0,"so2":2.6,"mosquito_risk":0,"arthritis_risk":5,"migraine_risk":10,"frizz_risk":0,"updated_at":"2026-05-14T20:51:51.464157+05:30"},{"city":"Ajmer","state":"Rajasthan","latitude":26.4499,"longitude":74.6399,"temp":34.5,"humidity":22,"rain":0.0,"pressure":949.7,"uv_index":8.4,"wind_gusts":32.4,"aqi":82,"pm10":76.6,"pm2_5":33.4,"no2":18.2,"co":347.0,"o3":66.0,"so2":4.9,"mosquito_risk":0,"arthritis_risk":5,"migraine_risk":7,"frizz_risk":0,"updated_at":"2026-05-14T20:51:51.464164+05:30"},{"city":"Gwalior","state":"Madhya Pradesh","latitude":26.2183,"longitude":78.1828,"temp":35.3,"humidity":26,"rain":0.0,"pressure":976.8,"uv_index":8.25,"wind_gusts":33.1,"aqi":140,"pm10":101.5,"pm2_5":40.9,"no2":14.0,"co":440.0,"o3":68.0,"so2":7.1,"mosquito_risk":0,"arthritis_risk":5,"migraine_risk":10,"frizz_risk":0,"updated_at":"2026-05-14T20:51:51.464171+05:30"},{"city":"Indore","state":"Madhya Pradesh","latitude":22.7196,"longitude":75.8577,"temp":35.2,"humidity":25,"rain":0.0,"pressure":943.6,"uv_index":8.75,"wind_gusts":41.8,"aqi":90,"pm10":39.0,"pm2_5":23.0,"no2":5.3,"co":271.0,"o3":101.0,"so2":5.0,"mosquito_risk":0,"arthritis_risk":5,"migraine_risk":10,"frizz_risk":0,"updated_at":"2026-05-14T20:51:51.464177+05:30"},{"city":"Bhopal","state":"Madhya Pradesh","latitude":23.2599,"longitude":77.4126,"temp":36.2,"humidity":21,"rain":0.0,"pressure":947.9,"uv_index":8.75,"wind_gusts":36.4,"aqi":93,"pm10":63.6,"pm2_5":39.6,"no2":14.1,"co":782.0,"o3":84.0,"so2":7.3,"mosquito_risk":0,"arthritis_risk":5,"migraine_risk":10,"frizz_risk":0,"updated_at":"2026-05-14T20:51:51.464184+05:30"},{"city":"Jabalpur","state":"Madhya Pradesh","latitude":23.1815,"longitude":79.9864,"temp":34.8,"humidity":25,"rain":0.0,"pressure":955.6,"uv_index":8.9,"wind_gusts":40.3,"aqi":102,"pm10":62.9,"pm2_5":36.6,"no2":24.0,"co":263.0,"o3":83.0,"so2":9.0,"mosquito_risk":0,"arthritis_risk":5,"migraine_risk":7,"frizz_risk":0,"updated_at":"2026-05-14T20:51:51.464191+05:30"},{"city":"Ujjain","state":"Madhya Pradesh","latitude":23.1765,"longitude":75.7885,"temp":34.9,"humidity":27,"rain":0.0,"pressure":948.6,"uv_index":8.65,"wind_gusts":41.4,"aqi":79,"pm10":44.9,"pm2_5":25.7,"no2":3.4,"co":241.0,"o3":98.0,"so2":4.5,"mosquito_risk":0,"arthritis_risk":5,"migraine_risk":7,"frizz_risk":0,"updated_at":"2026-05-14T20:51:51.464198+05:30"},{"city":"Visakhapatnam","state":"Andhra Pradesh","latitude":17.6868,"longitude":83.2185,"temp":29.6,"humidity":77,"rain":0.0,"pressure":1000.4,"uv_index":8.8,"wind_gusts":45.4,"aqi":69,"pm10":15.4,"pm2_5":12.4,"no2":21.3,"co":396.0,"o3":29.0,"so2":42.7,"mosquito_risk":7,"arthritis_risk":5,"migraine_risk":4,"frizz_risk":1,"updated_at":"2026-05-14T20:51:51.464206+05:30"},{"city":"Vijayawada","state":"Andhra Pradesh","latitude":16.5062,"longitude":80.648,"temp":30.6,"humidity":70,"rain":0.0,"pressure":998.7,"uv_index":8.2,"wind_gusts":27.7,"aqi":58,"pm10":13.8,"pm2_5":9.6,"no2":6.8,"co":204.0,"o3":42.0,"so2":7.1,"mosquito_risk":3,"arthritis_risk":5,"migraine_risk":7,"frizz_risk":1,"updated_at":"2026-05-14T20:51:51.464212+05:30"},{"city":"Guntur","state":"Andhra Pradesh","latitude":16.3067,"longitude":80.4365,"temp":30.7,"humidity":71,"rain":0.0,"pressure":999.9,"uv_index":8.15,"wind_gusts":32.0,"aqi":77,"pm10":16.2,"pm2_5":11.7,"no2":6.9,"co":186.0,"o3":49.0,"so2":6.8,"mosquito_risk":3,"arthritis_risk":5,"migraine_risk":7,"frizz_risk":1,"updated_at":"2026-05-14T20:51:51.464219+05:30"},{"city":"Nellore","state":"Andhra Pradesh","latitude":14.4426,"longitude":79.9865,"temp":29.6,"humidity":76,"rain":0.0,"pressure":1002.0,"uv_index":9.0,"wind_gusts":37.1,"aqi":32,"pm10":13.2,"pm2_5":7.6,"no2":3.8,"co":146.0,"o3":39.0,"so2":2.5,"mosquito_risk":7,"arthritis_risk":5,"migraine_risk":4,"frizz_risk":1,"updated_at":"2026-05-14T20:51:51.464227+05:30"},{"city":"Kurnool","state":"Andhra Pradesh","latitude":15.8281,"longitude":78.0373,"temp":35.2,"humidity":37,"rain":0.0,"pressure":972.2,"uv_index":9.0,"wind_gusts":34.9,"aqi":106,"pm10":60.5,"pm2_5":36.1,"no2":12.5,"co":306.0,"o3":95.0,"so2":6.3,"mosquito_risk":0,"arthritis_risk":5,"migraine_risk":10,"frizz_risk":1,"updated_at":"2026-05-14T20:51:51.464235+05:30"},{"city":"Kakinada","state":"Andhra Pradesh","latitude":16.9891,"longitude":82.2475,"temp":29.7,"humidity":79,"rain":0.0,"pressure":1003.9,"uv_index":6.7,"wind_gusts":43.9,"aqi":29,"pm10":8.4,"pm2_5":5.0,"no2":1.5,"co":151.0,"o3":52.0,"so2":0.9,"mosquito_risk":7,"arthritis_risk":5,"migraine_risk":4,"frizz_risk":1,"updated_at":"2026-05-14T20:51:51.464242+05:30"},{"city":"Tirupati","state":"Andhra Pradesh","latitude":13.6288,"longitude":79.4192,"temp":29.5,"humidity":67,"rain":0.0,"pressure":987.7,"uv_index":9.1,"wind_gusts":37.4,"aqi":58,"pm10":19.2,"pm2_5":13.0,"no2":11.5,"co":289.0,"o3":37.0,"so2":2.4,"mosquito_risk":7,"arthritis_risk":5,"migraine_risk":7,"frizz_risk":1,"updated_at":"2026-05-14T20:51:51.464249+05:30"},{"city":"Warangal","state":"Telangana","latitude":17.9689,"longitude":79.5941,"temp":33.0,"humidity":51,"rain":0.0,"pressure":974.2,"uv_index":8.3,"wind_gusts":30.2,"aqi":113,"pm10":45.9,"pm2_5":34.8,"no2":9.2,"co":478.0,"o3":110.0,"so2":8.5,"mosquito_risk":0,"arthritis_risk":5,"migraine_risk":7,"frizz_risk":1,"updated_at":"2026-05-14T20:51:51.464255+05:30"},{"city":"Nizamabad","state":"Telangana","latitude":18.6725,"longitude":78.0941,"temp":33.5,"humidity":41,"rain":0.0,"pressure":959.7,"uv_index":9.15,"wind_gusts":34.2,"aqi":123,"pm10":94.3,"pm2_5":57.9,"no2":24.2,"co":478.0,"o3":77.0,"so2":8.8,"mosquito_risk":0,"arthritis_risk":5,"migraine_risk":7,"frizz_risk":1,"updated_at":"2026-05-14T20:51:51.464262+05:30"},{"city":"Mysore","state":"Karnataka","latitude":12.2958,"longitude":76.6396,"temp":25.9,"humidity":71,"rain":0.0,"pressure":925.1,"uv_index":9.25,"wind_gusts":35.3,"aqi":89,"pm10":71.7,"pm2_5":42.6,"no2":42.5,"co":373.0,"o3":68.0,"so2":8.7,"mosquito_risk":7,"arthritis_risk":5,"migraine_risk":7,"frizz_risk":1,"updated_at":"2026-05-14T20:51:51.464269+05:30"},{"city":"Mangalore","state":"Karnataka","latitude":12.9141,"longitude":74.856,"temp":25.5,"humidity":96,"rain":0.3,"pressure":1004.7,"uv_index":8.95,"wind_gusts":42.1,"aqi":79,"pm10":47.6,"pm2_5":25.7,"no2":10.7,"co":291.0,"o3":59.0,"so2":3.0,"mosquito_risk":10,"arthritis_risk":5,"migraine_risk":4,"frizz_risk":1,"updated_at":"2026-05-14T20:51:51.464276+05:30"},{"city":"Hubli-Dharwad","state":"Karnataka","latitude":15.3647,"longitude":75.124,"temp":23.8,"humidity":94,"rain":0.1,"pressure":938.0,"uv_index":8.65,"wind_gusts":37.4,"aqi":111,"pm10":31.9,"pm2_5":20.3,"no2":8.4,"co":326.0,"o3":95.0,"so2":2.5,"mosquito_risk":6,"arthritis_risk":5,"migraine_risk":7,"frizz_risk":1,"updated_at":"2026-05-14T20:51:51.464283+05:30"},{"city":"Belgaum","state":"Karnataka","latitude":15.8497,"longitude":74.4977,"temp":25.5,"humidity":81,"rain":0.0,"pressure":922.7,"uv_index":9.0,"wind_gusts":35.6,"aqi":90,"pm10":27.9,"pm2_5":18.7,"no2":7.0,"co":213.0,"o3":76.0,"so2":2.6,"mosquito_risk":7,"arthritis_risk":5,"migraine_risk":7,"frizz_risk":1,"updated_at":"2026-05-14T20:51:54.703944+05:30"},{"city":"Coimbatore","state":"Tamil Nadu","latitude":11.0168,"longitude":76.9558,"temp":24.8,"humidity":90,"rain":0.0,"pressure":958.1,"uv_index":9.1,"wind_gusts":40.0,"aqi":80,"pm10":24.2,"pm2_5":18.9,"no2":9.4,"co":300.0,"o3":79.0,"so2":3.4,"mosquito_risk":3,"arthritis_risk":5,"migraine_risk":7,"frizz_risk":1,"updated_at":"2026-05-14T20:51:54.704000+05:30"},{"city":"Madurai","state":"Tamil Nadu","latitude":9.9252,"longitude":78.1198,"temp":27.0,"humidity":84,"rain":0.0,"pressure":990.2,"uv_index":7.35,"wind_gusts":24.8,"aqi":96,"pm10":36.8,"pm2_5":30.3,"no2":19.5,"co":729.0,"o3":101.0,"so2":8.2,"mosquito_risk":7,"arthritis_risk":5,"migraine_risk":7,"frizz_risk":1,"updated_at":"2026-05-14T20:51:54.704012+05:30"},{"city":"Trichy","state":"Tamil Nadu","latitude":10.7905,"longitude":78.7047,"temp":28.4,"humidity":86,"rain":0.0,"pressure":996.0,"uv_index":7.7,"wind_gusts":25.6,"aqi":87,"pm10":33.3,"pm2_5":31.2,"no2":23.4,"co":447.0,"o3":74.0,"so2":8.7,"mosquito_risk":7,"arthritis_risk":5,"migraine_risk":7,"frizz_risk":1,"updated_at":"2026-05-14T20:51:54.704021+05:30"},{"city":"Salem","state":"Tamil Nadu","latitude":11.6643,"longitude":78.146,"temp":30.4,"humidity":54,"rain":0.0,"pressure":973.3,"uv_index":9.1,"wind_gusts":35.3,"aqi":132,"pm10":61.7,"pm2_5":44.0,"no2":35.0,"co":528.0,"o3":74.0,"so2":12.4,"mosquito_risk":0,"arthritis_risk":5,"migraine_risk":7,"frizz_risk":1,"updated_at":"2026-05-14T20:51:54.704030+05:30"},{"city":"Tirunelveli","state":"Tamil Nadu","latitude":8.7139,"longitude":77.7567,"temp":29.6,"humidity":75,"rain":0.0,"pressure":1000.1,"uv_index":3.45,"wind_gusts":17.3,"aqi":58,"pm10":9.3,"pm2_5":8.1,"no2":8.3,"co":268.0,"o3":70.0,"so2":2.7,"mosquito_risk":7,"arthritis_risk":5,"migraine_risk":0,"frizz_risk":1,"updated_at":"2026-05-14T20:51:54.704038+05:30"},{"city":"Vellore","state":"Tamil Nadu","latitude":12.9165,"longitude":79.1325,"temp":29.6,"humidity":66,"rain":0.0,"pressure":980.7,"uv_index":8.15,"wind_gusts":36.4,"aqi":75,"pm10":28.7,"pm2_5":21.4,"no2":16.9,"co":350.0,"o3":61.0,"so2":11.4,"mosquito_risk":7,"arthritis_risk":5,"migraine_risk":7,"frizz_risk":1,"updated_at":"2026-05-14T20:51:54.704045+05:30"},{"city":"Erode","state":"Tamil Nadu","latitude":11.341,"longitude":77.7172,"temp":30.1,"humidity":61,"rain":0.0,"pressure":985.3,"uv_index":9.1,"wind_gusts":28.1,"aqi":121,"pm10":67.8,"pm2_5":46.7,"no2":40.7,"co":293.0,"o3":85.0,"so2":8.6,"mosquito_risk":3,"arthritis_risk":5,"migraine_risk":7,"frizz_risk":1,"updated_at":"2026-05-14T20:51:54.704052+05:30"},{"city":"Kochi","state":"Kerala","latitude":9.9312,"longitude":76.2673,"temp":26.0,"humidity":92,"rain":0.0,"pressure":1006.3,"uv_index":8.3,"wind_gusts":41.8,"aqi":80,"pm10":19.2,"pm2_5":14.7,"no2":17.6,"co":325.0,"o3":53.0,"so2":6.5,"mosquito_risk":7,"arthritis_risk":5,"migraine_risk":4,"frizz_risk":1,"updated_at":"2026-05-14T20:51:54.704059+05:30"},{"city":"Thiruvananthapuram","state":"Kerala","latitude":8.5241,"longitude":76.9366,"temp":24.9,"humidity":94,"rain":0.0,"pressure":1006.3,"uv_index":7.5,"wind_gusts":42.1,"aqi":56,"pm10":20.9,"pm2_5":11.9,"no2":2.1,"co":305.0,"o3":92.0,"so2":1.0,"mosquito_risk":3,"arthritis_risk":5,"migraine_risk":4,"frizz_risk":1,"updated_at":"2026-05-14T20:51:54.704066+05:30"},{"city":"Kozhikode","state":"Kerala","latitude":11.2588,"longitude":75.7804,"temp":24.7,"humidity":99,"rain":0.0,"pressure":1005.6,"uv_index":8.25,"wind_gusts":40.3,"aqi":75,"pm10":39.1,"pm2_5":18.0,"no2":1.9,"co":276.0,"o3":95.0,"so2":1.4,"mosquito_risk":3,"arthritis_risk":5,"migraine_risk":4,"frizz_risk":1,"updated_at":"2026-05-14T20:51:54.704073+05:30"},{"city":"Thrissur","state":"Kerala","latitude":10.5276,"longitude":76.2144,"temp":23.9,"humidity":98,"rain":0.0,"pressure":1004.5,"uv_index":8.9,"wind_gusts":37.8,"aqi":84,"pm10":19.6,"pm2_5":15.3,"no2":13.4,"co":363.0,"o3":61.0,"so2":4.8,"mosquito_risk":3,"arthritis_risk":5,"migraine_risk":4,"frizz_risk":1,"updated_at":"2026-05-14T20:51:54.704082+05:30"},{"city":"Kannur","state":"Kerala","latitude":11.8745,"longitude":75.3704,"temp":25.4,"humidity":99,"rain":0.0,"pressure":1005.1,"uv_index":8.95,"wind_gusts":41.8,"aqi":90,"pm10":44.4,"pm2_5":28.4,"no2":11.0,"co":291.0,"o3":78.0,"so2":2.6,"mosquito_risk":7,"arthritis_risk":5,"migraine_risk":4,"frizz_risk":1,"updated_at":"2026-05-14T20:51:54.704089+05:30"},{"city":"Patna","state":"Bihar","latitude":25.5941,"longitude":85.1376,"temp":28.2,"humidity":76,"rain":0.0,"pressure":995.5,"uv_index":8.8,"wind_gusts":30.2,"aqi":176,"pm10":66.6,"pm2_5":54.1,"no2":20.7,"co":596.0,"o3":115.0,"so2":21.1,"mosquito_risk":7,"arthritis_risk":5,"migraine_risk":7,"frizz_risk":1,"updated_at":"2026-05-14T20:51:54.704097+05:30"},{"city":"Gaya","state":"Bihar","latitude":24.7914,"longitude":85.0002,"temp":29.5,"humidity":60,"rain":0.0,"pressure":988.4,"uv_index":8.85,"wind_gusts":21.2,"aqi":190,"pm10":67.5,"pm2_5":59.3,"no2":13.5,"co":525.0,"o3":145.0,"so2":21.3,"mosquito_risk":4,"arthritis_risk":5,"migraine_risk":7,"frizz_risk":1,"updated_at":"2026-05-14T20:51:54.704104+05:30"},{"city":"Muzaffarpur","state":"Bihar","latitude":26.1209,"longitude":85.3647,"temp":27.3,"humidity":76,"rain":0.0,"pressure":995.6,"uv_index":8.85,"wind_gusts":34.2,"aqi":144,"pm10":89.2,"pm2_5":71.9,"no2":35.3,"co":663.0,"o3":84.0,"so2":22.3,"mosquito_risk":7,"arthritis_risk":5,"migraine_risk":7,"frizz_risk":1,"updated_at":"2026-05-14T20:51:54.704111+05:30"},{"city":"Bhagalpur","state":"Bihar","latitude":25.2425,"longitude":87.0117,"temp":27.3,"humidity":79,"rain":0.0,"pressure":996.7,"uv_index":8.75,"wind_gusts":26.6,"aqi":157,"pm10":48.8,"pm2_5":37.8,"no2":14.2,"co":423.0,"o3":114.0,"so2":18.1,"mosquito_risk":7,"arthritis_risk":5,"migraine_risk":7,"frizz_risk":1,"updated_at":"2026-05-14T20:51:54.704118+05:30"},{"city":"Ranchi","state":"Jharkhand","latitude":23.3441,"longitude":85.3096,"temp":26.6,"humidity":57,"rain":0.0,"pressure":933.1,"uv_index":9.3,"wind_gusts":33.8,"aqi":114,"pm10":76.1,"pm2_5":47.5,"no2":30.1,"co":342.0,"o3":86.0,"so2":13.9,"mosquito_risk":4,"arthritis_risk":5,"migraine_risk":7,"frizz_risk":1,"updated_at":"2026-05-14T20:51:54.704124+05:30"},{"city":"Jamshedpur","state":"Jharkhand","latitude":22.8046,"longitude":86.2029,"temp":28.9,"humidity":77,"rain":0.0,"pressure":985.8,"uv_index":9.1,"wind_gusts":31.0,"aqi":157,"pm10":24.4,"pm2_5":20.1,"no2":10.9,"co":269.0,"o3":86.0,"so2":16.4,"mosquito_risk":7,"arthritis_risk":5,"migraine_risk":7,"frizz_risk":1,"updated_at":"2026-05-14T20:51:54.704131+05:30"},{"city":"Dhanbad","state":"Jharkhand","latitude":23.7957,"longitude":86.4304,"temp":29.5,"humidity":64,"rain":0.0,"pressure":975.0,"uv_index":9.05,"wind_gusts":32.0,"aqi":189,"pm10":79.2,"pm2_5":70.5,"no2":41.2,"co":475.0,"o3":113.0,"so2":97.1,"mosquito_risk":7,"arthritis_risk":5,"migraine_risk":7,"frizz_risk":1,"updated_at":"2026-05-14T20:51:54.704138+05:30"},{"city":"Bokaro","state":"Jharkhand","latitude":23.6693,"longitude":86.1511,"temp":29.0,"humidity":67,"rain":0.0,"pressure":978.7,"uv_index":9.1,"wind_gusts":23.4,"aqi":152,"pm10":96.4,"pm2_5":72.2,"no2":47.5,"co":355.0,"o3":89.0,"so2":80.7,"mosquito_risk":7,"arthritis_risk":5,"migraine_risk":7,"frizz_risk":1,"updated_at":"2026-05-14T20:51:54.704145+05:30"},{"city":"Bhubaneswar","state":"Odisha","latitude":20.2961,"longitude":85.8245,"temp":28.6,"humidity":79,"rain":0.0,"pressure":999.6,"uv_index":9.15,"wind_gusts":44.3,"aqi":35,"pm10":8.5,"pm2_5":6.8,"no2":5.9,"co":170.0,"o3":38.0,"so2":2.8,"mosquito_risk":7,"arthritis_risk":5,"migraine_risk":7,"frizz_risk":1,"updated_at":"2026-05-14T20:51:54.704152+05:30"},{"city":"Cuttack","state":"Odisha","latitude":20.4625,"longitude":85.8828,"temp":28.8,"humidity":80,"rain":0.0,"pressure":1001.4,"uv_index":9.2,"wind_gusts":47.5,"aqi":35,"pm10":8.5,"pm2_5":6.8,"no2":5.9,"co":178.0,"o3":38.0,"so2":2.8,"mosquito_risk":7,"arthritis_risk":5,"migraine_risk":4,"frizz_risk":1,"updated_at":"2026-05-14T20:51:54.704159+05:30"},{"city":"Rourkela","state":"Odisha","latitude":22.2604,"longitude":84.8536,"temp":31.4,"humidity":58,"rain":0.0,"pressure":979.6,"uv_index":9.05,"wind_gusts":55.1,"aqi":149,"pm10":72.4,"pm2_5":47.0,"no2":15.0,"co":434.0,"o3":124.0,"so2":15.9,"mosquito_risk":0,"arthritis_risk":5,"migraine_risk":7,"frizz_risk":1,"updated_at":"2026-05-14T20:51:54.704166+05:30"},{"city":"Raipur","state":"Chhattisgarh","latitude":21.2514,"longitude":81.6296,"temp":33.7,"humidity":45,"rain":0.0,"pressure":968.8,"uv_index":9.1,"wind_gusts":39.2,"aqi":132,"pm10":128.5,"pm2_5":84.8,"no2":55.7,"co":548.0,"o3":56.0,"so2":46.9,"mosquito_risk":0,"arthritis_risk":5,"migraine_risk":7,"frizz_risk":1,"updated_at":"2026-05-14T20:51:54.704173+05:30"},{"city":"Bhilai","state":"Chhattisgarh","latitude":21.1938,"longitude":81.3509,"temp":34.9,"humidity":36,"rain":0.0,"pressure":969.4,"uv_index":9.1,"wind_gusts":37.8,"aqi":123,"pm10":115.9,"pm2_5":75.0,"no2":54.1,"co":889.0,"o3":46.0,"so2":45.7,"mosquito_risk":0,"arthritis_risk":5,"migraine_risk":7,"frizz_risk":1,"updated_at":"2026-05-14T20:51:54.704179+05:30"},{"city":"Guwahati","state":"Assam","latitude":26.1158,"longitude":91.7086,"temp":22.7,"humidity":99,"rain":0.2,"pressure":999.1,"uv_index":8.7,"wind_gusts":29.9,"aqi":63,"pm10":16.5,"pm2_5":12.9,"no2":8.8,"co":315.0,"o3":69.0,"so2":2.2,"mosquito_risk":6,"arthritis_risk":5,"migraine_risk":7,"frizz_risk":1,"updated_at":"2026-05-14T20:51:54.704186+05:30"},{"city":"Agartala","state":"Tripura","latitude":23.8315,"longitude":91.2868,"temp":24.6,"humidity":95,"rain":0.0,"pressure":1003.5,"uv_index":8.8,"wind_gusts":27.7,"aqi":63,"pm10":19.4,"pm2_5":16.8,"no2":15.2,"co":271.0,"o3":38.0,"so2":3.1,"mosquito_risk":3,"arthritis_risk":5,"migraine_risk":4,"frizz_risk":1,"updated_at":"2026-05-14T20:51:54.704193+05:30"},{"city":"Shillong","state":"Meghalaya","latitude":25.5788,"longitude":91.8933,"temp":17.7,"humidity":95,"rain":0.0,"pressure":854.3,"uv_index":8.75,"wind_gusts":29.9,"aqi":54,"pm10":15.7,"pm2_5":12.8,"no2":8.9,"co":312.0,"o3":79.0,"so2":3.2,"mosquito_risk":3,"arthritis_risk":10,"migraine_risk":7,"frizz_risk":1,"updated_at":"2026-05-14T20:51:54.704200+05:30"},{"city":"Imphal","state":"Manipur","latitude":24.817,"longitude":93.9368,"temp":23.2,"humidity":80,"rain":0.1,"pressure":921.2,"uv_index":9.25,"wind_gusts":29.9,"aqi":87,"pm10":38.3,"pm2_5":32.0,"no2":27.4,"co":939.0,"o3":47.0,"so2":6.2,"mosquito_risk":6,"arthritis_risk":5,"migraine_risk":7,"frizz_risk":1,"updated_at":"2026-05-14T20:51:54.704207+05:30"},{"city":"Aizawl","state":"Mizoram","latitude":23.7271,"longitude":92.7176,"temp":20.4,"humidity":79,"rain":0.0,"pressure":890.8,"uv_index":8.5,"wind_gusts":29.2,"aqi":52,"pm10":12.5,"pm2_5":9.1,"no2":6.7,"co":179.0,"o3":53.0,"so2":1.8,"mosquito_risk":3,"arthritis_risk":5,"migraine_risk":7,"frizz_risk":1,"updated_at":"2026-05-14T20:51:54.704214+05:30"},{"city":"Kohima","state":"Nagaland","latitude":25.6701,"longitude":94.1077,"temp":17.5,"humidity":93,"rain":0.0,"pressure":852.4,"uv_index":8.65,"wind_gusts":29.9,"aqi":61,"pm10":20.9,"pm2_5":17.2,"no2":20.3,"co":462.0,"o3":42.0,"so2":2.5,"mosquito_risk":3,"arthritis_risk":10,"migraine_risk":7,"frizz_risk":1,"updated_at":"2026-05-14T20:51:54.704221+05:30"},{"city":"Gangtok","state":"Sikkim","latitude":27.3314,"longitude":88.6138,"temp":13.8,"humidity":100,"rain":0.2,"pressure":833.6,"uv_index":9.0,"wind_gusts":38.5,"aqi":65,"pm10":17.3,"pm2_5":15.8,"no2":14.9,"co":457.0,"o3":96.0,"so2":2.7,"mosquito_risk":6,"arthritis_risk":10,"migraine_risk":7,"frizz_risk":0,"updated_at":"2026-05-14T20:51:54.704227+05:30"},{"city":"Siliguri","state":"West Bengal","latitude":26.7271,"longitude":88.3953,"temp":24.8,"humidity":84,"rain":0.0,"pressure":989.6,"uv_index":8.65,"wind_gusts":26.3,"aqi":87,"pm10":36.1,"pm2_5":31.4,"no2":15.9,"co":754.0,"o3":101.0,"so2":5.8,"mosquito_risk":3,"arthritis_risk":5,"migraine_risk":7,"frizz_risk":1,"updated_at":"2026-05-14T20:51:57.943642+05:30"},{"city":"Durgapur","state":"West Bengal","latitude":23.5204,"longitude":87.3119,"temp":29.0,"humidity":72,"rain":0.0,"pressure":990.7,"uv_index":9.0,"wind_gusts":39.2,"aqi":204,"pm10":64.5,"pm2_5":56.9,"no2":25.0,"co":288.0,"o3":107.0,"so2":43.5,"mosquito_risk":7,"arthritis_risk":5,"migraine_risk":7,"frizz_risk":1,"updated_at":"2026-05-14T20:51:57.943677+05:30"},{"city":"Asansol","state":"West Bengal","latitude":23.6739,"longitude":86.9524,"temp":29.9,"humidity":68,"rain":0.0,"pressure":988.9,"uv_index":9.05,"wind_gusts":34.6,"aqi":202,"pm10":62.6,"pm2_5":54.8,"no2":27.8,"co":672.0,"o3":116.0,"so2":54.1,"mosquito_risk":7,"arthritis_risk":5,"migraine_risk":7,"frizz_risk":1,"updated_at":"2026-05-14T20:51:57.943689+05:30"},{"city":"Pondicherry","state":"Puducherry","latitude":11.9139,"longitude":79.8145,"temp":29.0,"humidity":84,"rain":0.0,"pressure":1004.5,"uv_index":8.45,"wind_gusts":36.0,"aqi":51,"pm10":10.4,"pm2_5":6.8,"no2":3.2,"co":364.0,"o3":48.0,"so2":1.7,"mosquito_risk":7,"arthritis_risk":5,"migraine_risk":4,"frizz_risk":1,"updated_at":"2026-05-14T20:51:57.943699+05:30"},{"city":"Port Blair","state":"Andaman and Nicobar Islands","latitude":11.6234,"longitude":92.7265,"temp":25.5,"humidity":98,"rain":0.1,"pressure":1006.4,"uv_index":7.95,"wind_gusts":36.4,"aqi":28,"pm10":3.8,"pm2_5":2.4,"no2":0.4,"co":116.0,"o3":54.0,"so2":0.1,"mosquito_risk":10,"arthritis_risk":5,"migraine_risk":4,"frizz_risk":1,"updated_at":"2026-05-14T20:51:57.943708+05:30"},{"city":"Haridwar","state":"Uttarakhand","latitude":29.9457,"longitude":78.1642,"temp":27.8,"humidity":65,"rain":0.0,"pressure":968.6,"uv_index":7.5,"wind_gusts":41.4,"aqi":165,"pm10":84.1,"pm2_5":63.1,"no2":25.8,"co":497.0,"o3":124.0,"so2":17.1,"mosquito_risk":7,"arthritis_risk":5,"migraine_risk":7,"frizz_risk":1,"updated_at":"2026-05-14T20:51:57.943715+05:30"},{"city":"Rishikesh","state":"Uttarakhand","latitude":30.0869,"longitude":78.2676,"temp":26.4,"humidity":65,"rain":0.0,"pressure":961.4,"uv_index":7.6,"wind_gusts":37.1,"aqi":163,"pm10":51.7,"pm2_5":38.6,"no2":10.0,"co":531.0,"o3":147.0,"so2":10.8,"mosquito_risk":7,"arthritis_risk":5,"migraine_risk":7,"frizz_risk":1,"updated_at":"2026-05-14T20:51:57.943723+05:30"},{"city":"Nainital","state":"Uttarakhand","latitude":29.3919,"longitude":79.4542,"temp":14.3,"humidity":95,"rain":0.0,"pressure":801.6,"uv_index":8.45,"wind_gusts":41.8,"aqi":158,"pm10":69.4,"pm2_5":49.1,"no2":14.9,"co":425.0,"o3":133.0,"so2":14.8,"mosquito_risk":3,"arthritis_risk":10,"migraine_risk":7,"frizz_risk":0,"updated_at":"2026-05-14T20:51:57.943731+05:30"},{"city":"Mussoorie","state":"Uttarakhand","latitude":30.4599,"longitude":78.0664,"temp":14.3,"humidity":78,"rain":0.0,"pressure":798.7,"uv_index":7.95,"wind_gusts":50.0,"aqi":170,"pm10":71.0,"pm2_5":48.3,"no2":23.5,"co":368.0,"o3":145.0,"so2":16.7,"mosquito_risk":3,"arthritis_risk":5,"migraine_risk":7,"frizz_risk":0,"updated_at":"2026-05-14T20:51:57.943738+05:30"},{"city":"Dharamshala","state":"Himachal Pradesh","latitude":32.219,"longitude":76.3234,"temp":20.1,"humidity":49,"rain":0.0,"pressure":866.0,"uv_index":8.35,"wind_gusts":48.6,"aqi":85,"pm10":18.9,"pm2_5":13.3,"no2":15.0,"co":288.0,"o3":70.0,"so2":1.4,"mosquito_risk":0,"arthritis_risk":5,"migraine_risk":7,"frizz_risk":0,"updated_at":"2026-05-14T20:51:57.943745+05:30"},{"city":"Dalhousie","state":"Himachal Pradesh","latitude":32.5387,"longitude":75.971,"temp":14.6,"humidity":53,"rain":0.0,"pressure":800.9,"uv_index":8.55,"wind_gusts":36.4,"aqi":116,"pm10":34.9,"pm2_5":25.3,"no2":33.7,"co":472.0,"o3":104.0,"so2":3.3,"mosquito_risk":0,"arthritis_risk":5,"migraine_risk":7,"frizz_risk":0,"updated_at":"2026-05-14T20:51:57.943753+05:30"},{"city":"Patiala","state":"Punjab","latitude":30.3398,"longitude":76.3869,"temp":30.8,"humidity":36,"rain":0.0,"pressure":973.2,"uv_index":7.6,"wind_gusts":33.8,"aqi":154,"pm10":343.7,"pm2_5":73.1,"no2":14.3,"co":516.0,"o3":97.0,"so2":9.5,"mosquito_risk":0,"arthritis_risk":5,"migraine_risk":7,"frizz_risk":0,"updated_at":"2026-05-14T20:51:57.943761+05:30"},{"city":"Bhatinda","state":"Punjab","latitude":30.211,"longitude":74.9455,"temp":32.6,"humidity":29,"rain":0.0,"pressure":978.7,"uv_index":8.25,"wind_gusts":33.1,"aqi":173,"pm10":138.3,"pm2_5":59.6,"no2":13.3,"co":315.0,"o3":100.0,"so2":13.3,"mosquito_risk":0,"arthritis_risk":5,"migraine_risk":7,"frizz_risk":0,"updated_at":"2026-05-14T20:51:57.943768+05:30"},{"city":"Rohtak","state":"Haryana","latitude":28.8955,"longitude":76.6066,"temp":31.0,"humidity":39,"rain":0.0,"pressure":976.3,"uv_index":7.75,"wind_gusts":26.3,"aqi":267,"pm10":488.0,"pm2_5":128.1,"no2":29.2,"co":1196.0,"o3":153.0,"so2":34.8,"mosquito_risk":0,"arthritis_risk":5,"migraine_risk":7,"frizz_risk":0,"updated_at":"2026-05-14T20:51:57.943775+05:30"},{"city":"Panipat","state":"Haryana","latitude":29.3909,"longitude":76.9635,"temp":29.6,"humidity":54,"rain":0.0,"pressure":975.1,"uv_index":7.55,"wind_gusts":21.2,"aqi":232,"pm10":495.5,"pm2_5":120.6,"no2":21.9,"co":717.0,"o3":118.0,"so2":24.0,"mosquito_risk":4,"arthritis_risk":5,"migraine_risk":7,"frizz_risk":1,"updated_at":"2026-05-14T20:51:57.943782+05:30"},{"city":"Mathura","state":"Uttar Pradesh","latitude":27.4924,"longitude":77.6737,"temp":31.0,"humidity":48,"rain":0.0,"pressure":980.6,"uv_index":7.8,"wind_gusts":31.7,"aqi":280,"pm10":1024.5,"pm2_5":176.5,"no2":17.4,"co":676.0,"o3":113.0,"so2":16.1,"mosquito_risk":0,"arthritis_risk":5,"migraine_risk":7,"frizz_risk":1,"updated_at":"2026-05-14T20:51:57.943788+05:30"},{"city":"Vrindavan","state":"Uttar Pradesh","latitude":27.5823,"longitude":77.7027,"temp":30.8,"humidity":47,"rain":0.0,"pressure":981.1,"uv_index":7.8,"wind_gusts":34.6,"aqi":280,"pm10":1024.5,"pm2_5":176.5,"no2":17.4,"co":799.0,"o3":113.0,"so2":16.1,"mosquito_risk":0,"arthritis_risk":5,"migraine_risk":7,"frizz_risk":1,"updated_at":"2026-05-14T20:51:57.943795+05:30"},{"city":"Ayodhya","state":"Uttar Pradesh","latitude":26.7922,"longitude":82.1998,"temp":28.5,"humidity":71,"rain":0.0,"pressure":989.8,"uv_index":8.35,"wind_gusts":32.0,"aqi":151,"pm10":95.2,"pm2_5":61.2,"no2":27.7,"co":691.0,"o3":89.0,"so2":13.9,"mosquito_risk":7,"arthritis_risk":5,"migraine_risk":7,"frizz_risk":1,"updated_at":"2026-05-14T20:51:57.943801+05:30"},{"city":"Ratlam","state":"Madhya Pradesh","latitude":23.3315,"longitude":75.0367,"temp":33.0,"humidity":33,"rain":0.0,"pressure":949.4,"uv_index":8.6,"wind_gusts":38.2,"aqi":79,"pm10":46.2,"pm2_5":26.0,"no2":3.6,"co":258.0,"o3":92.0,"so2":4.6,"mosquito_risk":0,"arthritis_risk":5,"migraine_risk":7,"frizz_risk":0,"updated_at":"2026-05-14T20:51:57.943808+05:30"},{"city":"Sagar","state":"Madhya Pradesh","latitude":23.8388,"longitude":78.7378,"temp":34.0,"humidity":25,"rain":0.0,"pressure":945.2,"uv_index":8.8,"wind_gusts":37.1,"aqi":91,"pm10":43.4,"pm2_5":22.7,"no2":10.8,"co":232.0,"o3":87.0,"so2":3.9,"mosquito_risk":0,"arthritis_risk":5,"migraine_risk":7,"frizz_risk":0,"updated_at":"2026-05-14T20:51:57.943814+05:30"},{"city":"Satna","state":"Madhya Pradesh","latitude":24.6005,"longitude":80.8322,"temp":34.0,"humidity":26,"rain":0.0,"pressure":965.6,"uv_index":8.8,"wind_gusts":41.4,"aqi":99,"pm10":114.8,"pm2_5":41.3,"no2":10.4,"co":293.0,"o3":93.0,"so2":5.4,"mosquito_risk":0,"arthritis_risk":5,"migraine_risk":7,"frizz_risk":0,"updated_at":"2026-05-14T20:51:57.943821+05:30"},{"city":"Akola","state":"Maharashtra","latitude":20.7002,"longitude":77.0082,"temp":38.1,"humidity":22,"rain":0.0,"pressure":969.1,"uv_index":8.95,"wind_gusts":42.8,"aqi":109,"pm10":48.1,"pm2_5":30.5,"no2":10.0,"co":236.0,"o3":94.0,"so2":6.1,"mosquito_risk":0,"arthritis_risk":5,"migraine_risk":10,"frizz_risk":0,"updated_at":"2026-05-14T20:51:57.943829+05:30"},{"city":"Amravati","state":"Maharashtra","latitude":20.9374,"longitude":77.7796,"temp":37.7,"humidity":23,"rain":0.0,"pressure":961.6,"uv_index":9.0,"wind_gusts":45.0,"aqi":110,"pm10":53.7,"pm2_5":36.1,"no2":24.2,"co":413.0,"o3":79.0,"so2":8.9,"mosquito_risk":0,"arthritis_risk":5,"migraine_risk":10,"frizz_risk":0,"updated_at":"2026-05-14T20:51:57.943836+05:30"},{"city":"Latur","state":"Maharashtra","latitude":18.4088,"longitude":76.5604,"temp":33.5,"humidity":35,"rain":0.0,"pressure":935.8,"uv_index":8.5,"wind_gusts":34.6,"aqi":118,"pm10":65.7,"pm2_5":36.4,"no2":11.8,"co":447.0,"o3":99.0,"so2":7.8,"mosquito_risk":0,"arthritis_risk":5,"migraine_risk":7,"frizz_risk":0,"updated_at":"2026-05-14T20:51:57.943843+05:30"},{"city":"Nanded","state":"Maharashtra","latitude":19.1383,"longitude":77.3091,"temp":35.0,"humidity":34,"rain":0.0,"pressure":963.3,"uv_index":9.1,"wind_gusts":29.9,"aqi":115,"pm10":89.6,"pm2_5":52.5,"no2":31.4,"co":430.0,"o3":80.0,"so2":9.9,"mosquito_risk":0,"arthritis_risk":5,"migraine_risk":7,"frizz_risk":1,"updated_at":"2026-05-14T20:51:57.943849+05:30"},{"city":"Gulbarga","state":"Karnataka","latitude":17.3297,"longitude":76.8343,"temp":31.2,"humidity":53,"rain":0.0,"pressure":954.7,"uv_index":8.55,"wind_gusts":31.0,"aqi":132,"pm10":77.5,"pm2_5":49.5,"no2":23.1,"co":380.0,"o3":98.0,"so2":7.7,"mosquito_risk":0,"arthritis_risk":5,"migraine_risk":7,"frizz_risk":1,"updated_at":"2026-05-14T20:51:57.943856+05:30"},{"city":"Bidar","state":"Karnataka","latitude":17.9104,"longitude":77.5199,"temp":30.9,"humidity":48,"rain":0.0,"pressure":931.6,"uv_index":9.0,"wind_gusts":26.3,"aqi":124,"pm10":89.4,"pm2_5":57.7,"no2":25.5,"co":487.0,"o3":80.0,"so2":6.5,"mosquito_risk":0,"arthritis_risk":5,"migraine_risk":7,"frizz_risk":1,"updated_at":"2026-05-14T20:51:57.943863+05:30"},{"city":"Hospet","state":"Karnataka","latitude":15.2689,"longitude":76.3909,"temp":26.5,"humidity":79,"rain":0.0,"pressure":952.8,"uv_index":9.05,"wind_gusts":38.9,"aqi":128,"pm10":76.6,"pm2_5":49.2,"no2":36.4,"co":375.0,"o3":78.0,"so2":11.4,"mosquito_risk":7,"arthritis_risk":5,"migraine_risk":7,"frizz_risk":1,"updated_at":"2026-05-14T20:51:57.943870+05:30"},{"city":"Tirupur","state":"Tamil Nadu","latitude":11.1085,"longitude":77.3411,"temp":26.1,"humidity":84,"rain":0.0,"pressure":971.4,"uv_index":9.15,"wind_gusts":45.7,"aqi":100,"pm10":49.0,"pm2_5":32.7,"no2":28.1,"co":275.0,"o3":76.0,"so2":6.4,"mosquito_risk":7,"arthritis_risk":5,"migraine_risk":7,"frizz_risk":1,"updated_at":"2026-05-14T20:51:57.943877+05:30"},{"city":"Alappuzha","state":"Kerala","latitude":9.4981,"longitude":76.3388,"temp":25.9,"humidity":96,"rain":0.0,"pressure":1006.4,"uv_index":7.6,"wind_gusts":36.7,"aqi":66,"pm10":25.1,"pm2_5":18.2,"no2":16.8,"co":231.0,"o3":64.0,"so2":5.2,"mosquito_risk":7,"arthritis_risk":5,"migraine_risk":4,"frizz_risk":1,"updated_at":"2026-05-14T20:51:57.943883+05:30"},{"city":"Munnar","state":"Kerala","latitude":10.0889,"longitude":77.0595,"temp":18.6,"humidity":99,"rain":0.0,"pressure":854.6,"uv_index":9.2,"wind_gusts":26.3,"aqi":65,"pm10":13.9,"pm2_5":11.9,"no2":9.3,"co":216.0,"o3":67.0,"so2":2.4,"mosquito_risk":3,"arthritis_risk":10,"migraine_risk":7,"frizz_risk":1,"updated_at":"2026-05-14T20:51:57.943891+05:30"},{"city":"Silchar","state":"Assam","latitude":24.8333,"longitude":92.7789,"temp":25.6,"humidity":91,"rain":0.0,"pressure":1002.2,"uv_index":8.9,"wind_gusts":38.9,"aqi":100,"pm10":51.7,"pm2_5":42.7,"no2":18.9,"co":279.0,"o3":66.0,"so2":9.0,"mosquito_risk":7,"arthritis_risk":5,"migraine_risk":4,"frizz_risk":1,"updated_at":"2026-05-14T20:51:57.943897+05:30"},{"city":"Dibrugarh","state":"Assam","latitude":27.4728,"longitude":94.912,"temp":25.0,"humidity":82,"rain":0.0,"pressure":992.7,"uv_index":7.75,"wind_gusts":24.5,"aqi":79,"pm10":52.0,"pm2_5":48.5,"no2":29.4,"co":424.0,"o3":38.0,"so2":4.4,"mosquito_risk":7,"arthritis_risk":5,"migraine_risk":7,"frizz_risk":1,"updated_at":"2026-05-14T20:51:57.943903+05:30"}]