[{"city":"Delhi","state":"Delhi","latitude":28.6139,"longitude":77.209,"temp":26.1,"humidity":42,"rain":0.0,"pressure":983.0,"uv_index":6.9,"wind_gusts":29.2,"aqi":160,"pm10":115.9,"pm2_5":41.4,"mosquito_risk":4,"arthritis_risk":5,"migraine_risk":7,"frizz_risk":0,"updated_at":"2026-04-08T14:36:01.486666+05:30"},{"city":"Mumbai","state":"Maharashtra","latitude":19.076,"longitude":72.8777,"temp":28.7,"humidity":74,"rain":0.0,"pressure":1008.9,"uv_index":7.95,"wind_gusts":20.5,"aqi":78,"pm10":79.2,"pm2_5":28.5,"mosquito_risk":7,"arthritis_risk":0,"migraine_risk":4,"frizz_risk":1,"updated_at":"2026-04-08T14:36:01.486713+05:30"},{"city":"Bangalore","state":"Karnataka","latitude":12.9716,"longitude":77.5946,"temp":34.7,"humidity":24,"rain":0.0,"pressure":911.7,"uv_index":9.6,"wind_gusts":25.6,"aqi":89,"pm10":12.5,"pm2_5":11.6,"mosquito_risk":0,"arthritis_risk":5,"migraine_risk":7,"frizz_risk":0,"updated_at":"2026-04-08T14:36:01.486762+05:30"},{"city":"Hyderabad","state":"Telangana","latitude":17.385,"longitude":78.4867,"temp":37.7,"humidity":19,"rain":0.0,"pressure":952.7,"uv_index":9.15,"wind_gusts":22.0,"aqi":94,"pm10":43.3,"pm2_5":22.4,"mosquito_risk":0,"arthritis_risk":5,"migraine_risk":10,"frizz_risk":0,"updated_at":"2026-04-08T14:36:01.486774+05:30"},{"city":"Chennai","state":"Tamil Nadu","latitude":13.0827,"longitude":80.2707,"temp":35.4,"humidity":56,"rain":0.0,"pressure":1005.5,"uv_index":9.35,"wind_gusts":36.0,"aqi":80,"pm10":33.3,"pm2_5":26.8,"mosquito_risk":0,"arthritis_risk":5,"migraine_risk":7,"frizz_risk":1,"updated_at":"2026-04-08T14:36:01.486789+05:30"},{"city":"Kolkata","state":"West Bengal","latitude":22.5726,"longitude":88.3639,"temp":31.3,"humidity":56,"rain":0.0,"pressure":1004.8,"uv_index":8.7,"wind_gusts":31.7,"aqi":97,"pm10":35.5,"pm2_5":28.9,"mosquito_risk":0,"arthritis_risk":5,"migraine_risk":4,"frizz_risk":1,"updated_at":"2026-04-08T14:36:01.486797+05:30"},{"city":"Pune","state":"Maharashtra","latitude":18.5204,"longitude":73.8567,"temp":33.6,"humidity":37,"rain":0.0,"pressure":949.2,"uv_index":8.5,"wind_gusts":38.9,"aqi":77,"pm10":92.0,"pm2_5":24.0,"mosquito_risk":0,"arthritis_risk":5,"migraine_risk":7,"frizz_risk":1,"updated_at":"2026-04-08T14:36:01.486807+05:30"},{"city":"Ahmedabad","state":"Gujarat","latitude":23.0225,"longitude":72.5714,"temp":35.2,"humidity":30,"rain":0.0,"pressure":1000.5,"uv_index":8.0,"wind_gusts":33.1,"aqi":56,"pm10":32.1,"pm2_5":10.6,"mosquito_risk":0,"arthritis_risk":5,"migraine_risk":7,"frizz_risk":0,"updated_at":"2026-04-08T14:36:01.486815+05:30"},{"city":"Jaipur","state":"Rajasthan","latitude":26.9124,"longitude":75.7873,"temp":28.0,"humidity":29,"rain":0.0,"pressure":959.5,"uv_index":7.65,"wind_gusts":33.5,"aqi":115,"pm10":234.2,"pm2_5":28.6,"mosquito_risk":4,"arthritis_risk":5,"migraine_risk":7,"frizz_risk":0,"updated_at":"2026-04-08T14:36:01.486823+05:30"},{"city":"Lucknow","state":"Uttar Pradesh","latitude":26.8467,"longitude":80.9462,"temp":24.1,"humidity":66,"rain":0.1,"pressure":994.4,"uv_index":6.95,"wind_gusts":41.0,"aqi":87,"pm10":103.8,"pm2_5":33.2,"mosquito_risk":6,"arthritis_risk":5,"migraine_risk":7,"frizz_risk":1,"updated_at":"2026-04-08T14:36:01.486831+05:30"},{"city":"Kanpur","state":"Uttar Pradesh","latitude":26.4499,"longitude":80.3319,"temp":26.1,"humidity":59,"rain":0.0,"pressure":991.9,"uv_index":7.45,"wind_gusts":35.3,"aqi":100,"pm10":147.1,"pm2_5":38.8,"mosquito_risk":4,"arthritis_risk":5,"migraine_risk":7,"frizz_risk":1,"updated_at":"2026-04-08T14:36:01.486839+05:30"},{"city":"Chandigarh","state":"Chandigarh","latitude":30.7333,"longitude":76.7794,"temp":19.7,"humidity":81,"rain":0.0,"pressure":969.6,"uv_index":6.85,"wind_gusts":30.6,"aqi":84,"pm10":53.3,"pm2_5":17.6,"mosquito_risk":3,"arthritis_risk":10,"migraine_risk":7,"frizz_risk":1,"updated_at":"2026-04-08T14:36:01.486846+05:30"},{"city":"Srinagar","state":"Jammu and Kashmir","latitude":34.0837,"longitude":74.7973,"temp":11.6,"humidity":77,"rain":0.0,"pressure":836.2,"uv_index":1.3,"wind_gusts":22.0,"aqi":49,"pm10":5.7,"pm2_5":4.5,"mosquito_risk":3,"arthritis_risk":5,"migraine_risk":3,"frizz_risk":0,"updated_at":"2026-04-08T14:36:01.486854+05:30"},{"city":"Jammu","state":"Jammu and Kashmir","latitude":32.7266,"longitude":74.857,"temp":21.5,"humidity":70,"rain":0.0,"pressure":973.7,"uv_index":6.2,"wind_gusts":27.7,"aqi":68,"pm10":61.7,"pm2_5":22.5,"mosquito_risk":3,"arthritis_risk":5,"migraine_risk":7,"frizz_risk":0,"updated_at":"2026-04-08T14:36:01.486862+05:30"},{"city":"Amritsar","state":"Punjab","latitude":31.634,"longitude":74.8723,"temp":22.7,"humidity":53,"rain":0.0,"pressure":981.5,"uv_index":7.25,"wind_gusts":19.1,"aqi":105,"pm10":59.8,"pm2_5":23.0,"mosquito_risk":0,"arthritis_risk":5,"migraine_risk":7,"frizz_risk":0,"updated_at":"2026-04-08T14:36:01.486874+05:30"},{"city":"Ludhiana","state":"Punjab","latitude":30.901,"longitude":75.8573,"temp":22.7,"humidity":58,"rain":0.0,"pressure":979.5,"uv_index":6.9,"wind_gusts":20.5,"aqi":120,"pm10":97.8,"pm2_5":26.4,"mosquito_risk":0,"arthritis_risk":5,"migraine_risk":7,"frizz_risk":0,"updated_at":"2026-04-08T14:36:01.486881+05:30"},{"city":"Jalandhar","state":"Punjab","latitude":31.326,"longitude":75.5762,"temp":22.4,"humidity":62,"rain":0.0,"pressure":980.8,"uv_index":6.95,"wind_gusts":20.9,"aqi":123,"pm10":69.6,"pm2_5":22.6,"mosquito_risk":3,"arthritis_risk":5,"migraine_risk":7,"frizz_risk":0,"updated_at":"2026-04-08T14:36:01.486887+05:30"},{"city":"Dehradun","state":"Uttarakhand","latitude":30.6284,"longitude":78.0322,"temp":11.0,"humidity":83,"rain":0.3,"pressure":826.3,"uv_index":5.4,"wind_gusts":42.5,"aqi":78,"pm10":10.5,"pm2_5":5.6,"mosquito_risk":6,"arthritis_risk":10,"migraine_risk":3,"frizz_risk":0,"updated_at":"2026-04-08T14:36:01.486895+05:30"},{"city":"Shimla","state":"Himachal Pradesh","latitude":31.1048,"longitude":77.1734,"temp":9.4,"humidity":87,"rain":0.1,"pressure":779.5,"uv_index":4.1,"wind_gusts":41.8,"aqi":68,"pm10":11.4,"pm2_5":5.3,"mosquito_risk":6,"arthritis_risk":10,"migraine_risk":3,"frizz_risk":0,"updated_at":"2026-04-08T14:36:01.486902+05:30"},{"city":"Manali","state":"Himachal Pradesh","latitude":32.2396,"longitude":77.1887,"temp":10.6,"humidity":98,"rain":0.4,"pressure":812.3,"uv_index":5.45,"wind_gusts":29.9,"aqi":92,"pm10":7.2,"pm2_5":6.3,"mosquito_risk":6,"arthritis_risk":10,"migraine_risk":3,"frizz_risk":0,"updated_at":"2026-04-08T14:36:01.486908+05:30"},{"city":"Gurgaon","state":"Haryana","latitude":28.4595,"longitude":77.0266,"temp":25.9,"humidity":46,"rain":0.0,"pressure":981.5,"uv_index":7.05,"wind_gusts":25.6,"aqi":626,"pm10":163.9,"pm2_5":41.9,"mosquito_risk":4,"arthritis_risk":5,"migraine_risk":7,"frizz_risk":0,"updated_at":"2026-04-08T14:36:01.486915+05:30"},{"city":"Noida","state":"Uttar Pradesh","latitude":28.5355,"longitude":77.391,"temp":26.4,"humidity":42,"rain":0.0,"pressure":984.5,"uv_index":6.95,"wind_gusts":26.3,"aqi":626,"pm10":163.9,"pm2_5":41.9,"mosquito_risk":4,"arthritis_risk":5,"migraine_risk":7,"frizz_risk":0,"updated_at":"2026-04-08T14:36:01.486922+05:30"},{"city":"Ghaziabad","state":"Uttar Pradesh","latitude":28.6692,"longitude":77.4538,"temp":24.7,"humidity":54,"rain":0.0,"pressure":983.1,"uv_index":6.9,"wind_gusts":25.2,"aqi":119,"pm10":91.5,"pm2_5":27.0,"mosquito_risk":0,"arthritis_risk":5,"migraine_risk":7,"frizz_risk":0,"updated_at":"2026-04-08T14:36:01.486929+05:30"},{"city":"Faridabad","state":"Haryana","latitude":28.4089,"longitude":77.3178,"temp":26.2,"humidity":46,"rain":0.0,"pressure":983.7,"uv_index":7.0,"wind_gusts":26.3,"aqi":626,"pm10":163.9,"pm2_5":41.9,"mosquito_risk":4,"arthritis_risk":5,"migraine_risk":7,"frizz_risk":0,"updated_at":"2026-04-08T14:36:01.486935+05:30"},{"city":"Meerut","state":"Uttar Pradesh","latitude":28.9845,"longitude":77.7064,"temp":23.7,"humidity":62,"rain":0.0,"pressure":981.9,"uv_index":6.15,"wind_gusts":25.6,"aqi":119,"pm10":91.5,"pm2_5":27.0,"mosquito_risk":3,"arthritis_risk":5,"migraine_risk":7,"frizz_risk":0,"updated_at":"2026-04-08T14:36:01.486944+05:30"},{"city":"Agra","state":"Uttar Pradesh","latitude":27.1767,"longitude":78.0081,"temp":29.3,"humidity":34,"rain":0.0,"pressure":987.3,"uv_index":7.35,"wind_gusts":31.3,"aqi":330,"pm10":270.1,"pm2_5":44.8,"mosquito_risk":4,"arthritis_risk":5,"migraine_risk":7,"frizz_risk":0,"updated_at":"2026-04-08T14:36:01.486950+05:30"},{"city":"Varanasi","state":"Uttar Pradesh","latitude":25.3176,"longitude":82.9739,"temp":30.7,"humidity":37,"rain":0.0,"pressure":996.8,"uv_index":7.3,"wind_gusts":36.7,"aqi":90,"pm10":123.4,"pm2_5":45.2,"mosquito_risk":0,"arthritis_risk":5,"migraine_risk":7,"frizz_risk":0,"updated_at":"2026-04-08T14:36:01.486957+05:30"},{"city":"Prayagraj","state":"Uttar Pradesh","latitude":25.4358,"longitude":81.8463,"temp":30.5,"humidity":43,"rain":0.0,"pressure":994.8,"uv_index":7.65,"wind_gusts":33.8,"aqi":84,"pm10":99.9,"pm2_5":34.7,"mosquito_risk":0,"arthritis_risk":5,"migraine_risk":7,"frizz_risk":1,"updated_at":"2026-04-08T14:36:01.486964+05:30"},{"city":"Gorakhpur","state":"Uttar Pradesh","latitude":26.7606,"longitude":83.3732,"temp":23.8,"humidity":70,"rain":0.0,"pressure":998.7,"uv_index":7.4,"wind_gusts":38.2,"aqi":90,"pm10":55.4,"pm2_5":29.8,"mosquito_risk":3,"arthritis_risk":5,"migraine_risk":7,"frizz_risk":1,"updated_at":"2026-04-08T14:36:01.486971+05:30"},{"city":"Bareilly","state":"Uttar Pradesh","latitude":28.367,"longitude":79.4304,"temp":22.2,"humidity":77,"rain":0.0,"pressure":988.0,"uv_index":7.2,"wind_gusts":29.9,"aqi":93,"pm10":92.0,"pm2_5":32.4,"mosquito_risk":3,"arthritis_risk":5,"migraine_risk":7,"frizz_risk":1,"updated_at":"2026-04-08T14:36:01.486979+05:30"},{"city":"Aligarh","state":"Uttar Pradesh","latitude":27.8974,"longitude":78.088,"temp":26.2,"humidity":54,"rain":0.0,"pressure":985.7,"uv_index":7.1,"wind_gusts":27.0,"aqi":223,"pm10":119.2,"pm2_5":29.3,"mosquito_risk":4,"arthritis_risk":5,"migraine_risk":7,"frizz_risk":1,"updated_at":"2026-04-08T14:36:01.486985+05:30"},{"city":"Moradabad","state":"Uttar Pradesh","latitude":28.8386,"longitude":78.7733,"temp":23.0,"humidity":69,"rain":0.0,"pressure":984.5,"uv_index":5.55,"wind_gusts":27.4,"aqi":101,"pm10":86.8,"pm2_5":39.6,"mosquito_risk":3,"arthritis_risk":5,"migraine_risk":3,"frizz_risk":1,"updated_at":"2026-04-08T14:36:01.486991+05:30"},{"city":"Saharanpur","state":"Uttar Pradesh","latitude":29.9637,"longitude":77.546,"temp":19.9,"humidity":80,"rain":0.0,"pressure":976.5,"uv_index":5.5,"wind_gusts":29.9,"aqi":87,"pm10":71.5,"pm2_5":29.0,"mosquito_risk":3,"arthritis_risk":5,"migraine_risk":3,"frizz_risk":1,"updated_at":"2026-04-08T14:36:01.486996+05:30"},{"city":"Jhansi","state":"Uttar Pradesh","latitude":25.4484,"longitude":78.5685,"temp":30.6,"humidity":29,"rain":0.0,"pressure":977.3,"uv_index":7.95,"wind_gusts":42.8,"aqi":84,"pm10":86.1,"pm2_5":23.7,"mosquito_risk":0,"arthritis_risk":5,"migraine_risk":7,"frizz_risk":0,"updated_at":"2026-04-08T14:36:04.782341+05:30"},{"city":"Surat","state":"Gujarat","latitude":21.1702,"longitude":72.8311,"temp":30.2,"humidity":67,"rain":0.0,"pressure":1006.8,"uv_index":7.7,"wind_gusts":42.5,"aqi":67,"pm10":49.4,"pm2_5":21.1,"mosquito_risk":3,"arthritis_risk":5,"migraine_risk":4,"frizz_risk":1,"updated_at":"2026-04-08T14:36:04.782376+05:30"},{"city":"Vadodara","state":"Gujarat","latitude":22.3072,"longitude":73.1812,"temp":34.3,"humidity":39,"rain":0.0,"pressure":1003.1,"uv_index":7.95,"wind_gusts":39.6,"aqi":64,"pm10":55.8,"pm2_5":17.9,"mosquito_risk":0,"arthritis_risk":5,"migraine_risk":4,"frizz_risk":1,"updated_at":"2026-04-08T14:36:04.782386+05:30"},{"city":"Rajkot","state":"Gujarat","latitude":22.3039,"longitude":70.8022,"temp":35.6,"humidity":27,"rain":0.0,"pressure":992.7,"uv_index":7.7,"wind_gusts":39.6,"aqi":54,"pm10":49.8,"pm2_5":17.3,"mosquito_risk":0,"arthritis_risk":5,"migraine_risk":10,"frizz_risk":0,"updated_at":"2026-04-08T14:36:04.782395+05:30"},{"city":"Thane","state":"Maharashtra","latitude":19.2183,"longitude":72.9781,"temp":32.1,"humidity":57,"rain":0.0,"pressure":1008.3,"uv_index":7.95,"wind_gusts":36.4,"aqi":78,"pm10":79.2,"pm2_5":28.5,"mosquito_risk":0,"arthritis_risk":0,"migraine_risk":4,"frizz_risk":1,"updated_at":"2026-04-08T14:36:04.782401+05:30"},{"city":"Nagpur","state":"Maharashtra","latitude":21.1458,"longitude":79.0882,"temp":34.4,"humidity":31,"rain":0.0,"pressure":971.2,"uv_index":8.75,"wind_gusts":39.6,"aqi":78,"pm10":98.3,"pm2_5":27.2,"mosquito_risk":0,"arthritis_risk":5,"migraine_risk":7,"frizz_risk":0,"updated_at":"2026-04-08T14:36:04.782408+05:30"},{"city":"Nashik","state":"Maharashtra","latitude":19.9975,"longitude":73.7898,"temp":31.3,"humidity":37,"rain":0.0,"pressure":946.0,"uv_index":8.2,"wind_gusts":42.8,"aqi":67,"pm10":66.6,"pm2_5":19.8,"mosquito_risk":0,"arthritis_risk":5,"migraine_risk":7,"frizz_risk":0,"updated_at":"2026-04-08T14:36:04.782415+05:30"},{"city":"Aurangabad","state":"Maharashtra","latitude":19.8762,"longitude":75.3433,"temp":32.7,"humidity":35,"rain":0.0,"pressure":943.8,"uv_index":8.9,"wind_gusts":47.9,"aqi":64,"pm10":70.1,"pm2_5":21.9,"mosquito_risk":0,"arthritis_risk":5,"migraine_risk":7,"frizz_risk":0,"updated_at":"2026-04-08T14:36:04.782422+05:30"},{"city":"Solapur","state":"Maharashtra","latitude":17.6599,"longitude":75.9064,"temp":38.4,"humidity":17,"rain":0.0,"pressure":956.6,"uv_index":8.95,"wind_gusts":26.6,"aqi":70,"pm10":80.1,"pm2_5":24.0,"mosquito_risk":0,"arthritis_risk":5,"migraine_risk":10,"frizz_risk":0,"updated_at":"2026-04-08T14:36:04.782428+05:30"},{"city":"Kolhapur","state":"Maharashtra","latitude":16.705,"longitude":74.2433,"temp":34.1,"humidity":32,"rain":0.0,"pressure":948.5,"uv_index":9.0,"wind_gusts":43.2,"aqi":70,"pm10":99.7,"pm2_5":26.5,"mosquito_risk":0,"arthritis_risk":5,"migraine_risk":7,"frizz_risk":0,"updated_at":"2026-04-08T14:36:04.782436+05:30"},{"city":"Goa","state":"Goa","latitude":15.2993,"longitude":74.124,"temp":31.6,"humidity":59,"rain":0.0,"pressure":998.3,"uv_index":9.0,"wind_gusts":37.4,"aqi":61,"pm10":74.5,"pm2_5":23.5,"mosquito_risk":0,"arthritis_risk":5,"migraine_risk":7,"frizz_risk":1,"updated_at":"2026-04-08T14:36:04.782442+05:30"},{"city":"Jodhpur","state":"Rajasthan","latitude":26.2389,"longitude":73.0243,"temp":30.3,"humidity":35,"rain":0.0,"pressure":982.3,"uv_index":7.9,"wind_gusts":25.6,"aqi":111,"pm10":201.6,"pm2_5":32.8,"mosquito_risk":0,"arthritis_risk":5,"migraine_risk":7,"frizz_risk":0,"updated_at":"2026-04-08T14:36:04.782449+05:30"},{"city":"Udaipur","state":"Rajasthan","latitude":24.5854,"longitude":73.7125,"temp":28.4,"humidity":35,"rain":0.0,"pressure":945.8,"uv_index":8.5,"wind_gusts":35.3,"aqi":65,"pm10":73.3,"pm2_5":19.8,"mosquito_risk":4,"arthritis_risk":5,"migraine_risk":7,"frizz_risk":0,"updated_at":"2026-04-08T14:36:04.782455+05:30"},{"city":"Kota","state":"Rajasthan","latitude":25.2138,"longitude":75.8648,"temp":30.5,"humidity":25,"rain":0.0,"pressure":978.4,"uv_index":7.95,"wind_gusts":34.2,"aqi":79,"pm10":96.9,"pm2_5":24.8,"mosquito_risk":0,"arthritis_risk":5,"migraine_risk":7,"frizz_risk":0,"updated_at":"2026-04-08T14:36:04.782461+05:30"},{"city":"Bikaner","state":"Rajasthan","latitude":28.0229,"longitude":73.3119,"temp":29.5,"humidity":27,"rain":0.0,"pressure":981.6,"uv_index":7.7,"wind_gusts":26.3,"aqi":54,"pm10":134.6,"pm2_5":23.8,"mosquito_risk":4,"arthritis_risk":5,"migraine_risk":7,"frizz_risk":0,"updated_at":"2026-04-08T14:36:04.782468+05:30"},{"city":"Ajmer","state":"Rajasthan","latitude":26.4499,"longitude":74.6399,"temp":28.6,"humidity":27,"rain":0.0,"pressure":954.2,"uv_index":7.85,"wind_gusts":35.3,"aqi":70,"pm10":96.2,"pm2_5":17.3,"mosquito_risk":4,"arthritis_risk":5,"migraine_risk":7,"frizz_risk":0,"updated_at":"2026-04-08T14:36:04.782474+05:30"},{"city":"Gwalior","state":"Madhya Pradesh","latitude":26.2183,"longitude":78.1828,"temp":29.9,"humidity":26,"rain":0.0,"pressure":982.6,"uv_index":7.65,"wind_gusts":39.2,"aqi":85,"pm10":95.7,"pm2_5":21.9,"mosquito_risk":4,"arthritis_risk":5,"migraine_risk":7,"frizz_risk":0,"updated_at":"2026-04-08T14:36:04.782480+05:30"},{"city":"Indore","state":"Madhya Pradesh","latitude":22.7196,"longitude":75.8577,"temp":31.3,"humidity":33,"rain":0.0,"pressure":947.2,"uv_index":8.4,"wind_gusts":50.0,"aqi":69,"pm10":48.3,"pm2_5":21.9,"mosquito_risk":0,"arthritis_risk":5,"migraine_risk":7,"frizz_risk":0,"updated_at":"2026-04-08T14:36:04.782486+05:30"},{"city":"Bhopal","state":"Madhya Pradesh","latitude":23.2599,"longitude":77.4126,"temp":31.7,"humidity":31,"rain":0.0,"pressure":952.6,"uv_index":8.3,"wind_gusts":53.6,"aqi":74,"pm10":50.9,"pm2_5":18.5,"mosquito_risk":0,"arthritis_risk":5,"migraine_risk":7,"frizz_risk":0,"updated_at":"2026-04-08T14:36:04.782492+05:30"},{"city":"Jabalpur","state":"Madhya Pradesh","latitude":23.1815,"longitude":79.9864,"temp":32.3,"humidity":33,"rain":0.0,"pressure":960.0,"uv_index":8.15,"wind_gusts":46.8,"aqi":91,"pm10":99.9,"pm2_5":36.1,"mosquito_risk":0,"arthritis_risk":5,"migraine_risk":7,"frizz_risk":0,"updated_at":"2026-04-08T14:36:04.782499+05:30"},{"city":"Ujjain","state":"Madhya Pradesh","latitude":23.1765,"longitude":75.7885,"temp":31.1,"humidity":35,"rain":0.0,"pressure":953.0,"uv_index":8.3,"wind_gusts":45.4,"aqi":66,"pm10":38.6,"pm2_5":17.8,"mosquito_risk":0,"arthritis_risk":5,"migraine_risk":7,"frizz_risk":0,"updated_at":"2026-04-08T14:36:04.782507+05:30"},{"city":"Visakhapatnam","state":"Andhra Pradesh","latitude":17.6868,"longitude":83.2185,"temp":33.2,"humidity":60,"rain":0.0,"pressure":1002.3,"uv_index":9.1,"wind_gusts":43.9,"aqi":76,"pm10":38.9,"pm2_5":33.9,"mosquito_risk":0,"arthritis_risk":5,"migraine_risk":4,"frizz_risk":1,"updated_at":"2026-04-08T14:36:04.782514+05:30"},{"city":"Vijayawada","state":"Andhra Pradesh","latitude":16.5062,"longitude":80.648,"temp":36.2,"humidity":46,"rain":0.0,"pressure":1000.7,"uv_index":9.15,"wind_gusts":26.6,"aqi":95,"pm10":31.9,"pm2_5":28.2,"mosquito_risk":0,"arthritis_risk":5,"migraine_risk":7,"frizz_risk":1,"updated_at":"2026-04-08T14:36:04.782520+05:30"},{"city":"Guntur","state":"Andhra Pradesh","latitude":16.3067,"longitude":80.4365,"temp":36.7,"humidity":43,"rain":0.0,"pressure":1001.8,"uv_index":9.15,"wind_gusts":30.2,"aqi":96,"pm10":34.1,"pm2_5":30.3,"mosquito_risk":0,"arthritis_risk":5,"migraine_risk":7,"frizz_risk":1,"updated_at":"2026-04-08T14:36:04.782526+05:30"},{"city":"Nellore","state":"Andhra Pradesh","latitude":14.4426,"longitude":79.9865,"temp":37.9,"humidity":41,"rain":0.0,"pressure":1003.5,"uv_index":9.3,"wind_gusts":37.1,"aqi":93,"pm10":38.9,"pm2_5":33.4,"mosquito_risk":0,"arthritis_risk":5,"migraine_risk":7,"frizz_risk":1,"updated_at":"2026-04-08T14:36:04.782533+05:30"},{"city":"Kurnool","state":"Andhra Pradesh","latitude":15.8281,"longitude":78.0373,"temp":40.0,"humidity":18,"rain":0.0,"pressure":975.3,"uv_index":9.15,"wind_gusts":23.0,"aqi":96,"pm10":24.6,"pm2_5":17.3,"mosquito_risk":0,"arthritis_risk":5,"migraine_risk":10,"frizz_risk":0,"updated_at":"2026-04-08T14:36:04.782540+05:30"},{"city":"Kakinada","state":"Andhra Pradesh","latitude":16.9891,"longitude":82.2475,"temp":34.6,"humidity":53,"rain":0.0,"pressure":1006.1,"uv_index":9.15,"wind_gusts":29.9,"aqi":77,"pm10":30.4,"pm2_5":25.3,"mosquito_risk":0,"arthritis_risk":5,"migraine_risk":4,"frizz_risk":1,"updated_at":"2026-04-08T14:36:04.782546+05:30"},{"city":"Tirupati","state":"Andhra Pradesh","latitude":13.6288,"longitude":79.4192,"temp":37.6,"humidity":33,"rain":0.0,"pressure":989.3,"uv_index":9.4,"wind_gusts":31.3,"aqi":93,"pm10":48.1,"pm2_5":43.9,"mosquito_risk":0,"arthritis_risk":5,"migraine_risk":10,"frizz_risk":1,"updated_at":"2026-04-08T14:36:04.782552+05:30"},{"city":"Warangal","state":"Telangana","latitude":17.9689,"longitude":79.5941,"temp":37.3,"humidity":28,"rain":0.0,"pressure":977.3,"uv_index":9.05,"wind_gusts":25.2,"aqi":109,"pm10":38.8,"pm2_5":27.0,"mosquito_risk":0,"arthritis_risk":5,"migraine_risk":10,"frizz_risk":0,"updated_at":"2026-04-08T14:36:04.782558+05:30"},{"city":"Nizamabad","state":"Telangana","latitude":18.6725,"longitude":78.0941,"temp":36.4,"humidity":22,"rain":0.0,"pressure":964.3,"uv_index":9.0,"wind_gusts":25.9,"aqi":83,"pm10":85.4,"pm2_5":24.2,"mosquito_risk":0,"arthritis_risk":5,"migraine_risk":10,"frizz_risk":0,"updated_at":"2026-04-08T14:36:04.782564+05:30"},{"city":"Mysore","state":"Karnataka","latitude":12.2958,"longitude":76.6396,"temp":35.4,"humidity":25,"rain":0.0,"pressure":928.1,"uv_index":9.4,"wind_gusts":43.2,"aqi":79,"pm10":6.0,"pm2_5":5.7,"mosquito_risk":0,"arthritis_risk":5,"migraine_risk":10,"frizz_risk":0,"updated_at":"2026-04-08T14:36:04.782570+05:30"},{"city":"Mangalore","state":"Karnataka","latitude":12.9141,"longitude":74.856,"temp":28.5,"humidity":81,"rain":0.0,"pressure":1006.6,"uv_index":9.15,"wind_gusts":30.6,"aqi":53,"pm10":42.6,"pm2_5":16.8,"mosquito_risk":7,"arthritis_risk":5,"migraine_risk":4,"frizz_risk":1,"updated_at":"2026-04-08T14:36:04.782576+05:30"},{"city":"Hubli-Dharwad","state":"Karnataka","latitude":15.3647,"longitude":75.124,"temp":36.5,"humidity":22,"rain":0.0,"pressure":941.0,"uv_index":9.2,"wind_gusts":41.8,"aqi":53,"pm10":58.8,"pm2_5":21.7,"mosquito_risk":0,"arthritis_risk":5,"migraine_risk":10,"frizz_risk":0,"updated_at":"2026-04-08T14:36:04.782583+05:30"},{"city":"Belgaum","state":"Karnataka","latitude":15.8497,"longitude":74.4977,"temp":33.9,"humidity":29,"rain":0.0,"pressure":926.6,"uv_index":9.25,"wind_gusts":39.6,"aqi":62,"pm10":83.8,"pm2_5":25.1,"mosquito_risk":0,"arthritis_risk":5,"migraine_risk":7,"frizz_risk":0,"updated_at":"2026-04-08T14:36:08.086128+05:30"},{"city":"Coimbatore","state":"Tamil Nadu","latitude":11.0168,"longitude":76.9558,"temp":35.1,"humidity":37,"rain":0.0,"pressure":961.0,"uv_index":9.5,"wind_gusts":55.8,"aqi":68,"pm10":10.0,"pm2_5":8.3,"mosquito_risk":0,"arthritis_risk":5,"migraine_risk":10,"frizz_risk":1,"updated_at":"2026-04-08T14:36:08.086163+05:30"},{"city":"Madurai","state":"Tamil Nadu","latitude":9.9252,"longitude":78.1198,"temp":36.5,"humidity":44,"rain":0.0,"pressure":991.3,"uv_index":9.3,"wind_gusts":33.1,"aqi":105,"pm10":40.3,"pm2_5":33.1,"mosquito_risk":0,"arthritis_risk":5,"migraine_risk":10,"frizz_risk":1,"updated_at":"2026-04-08T14:36:08.086175+05:30"},{"city":"Trichy","state":"Tamil Nadu","latitude":10.7905,"longitude":78.7047,"temp":36.5,"humidity":46,"rain":0.0,"pressure":997.7,"uv_index":8.65,"wind_gusts":25.2,"aqi":92,"pm10":34.7,"pm2_5":28.7,"mosquito_risk":0,"arthritis_risk":5,"migraine_risk":10,"frizz_risk":1,"updated_at":"2026-04-08T14:36:08.086184+05:30"},{"city":"Salem","state":"Tamil Nadu","latitude":11.6643,"longitude":78.146,"temp":38.9,"humidity":27,"rain":0.0,"pressure":975.4,"uv_index":9.45,"wind_gusts":28.8,"aqi":99,"pm10":18.5,"pm2_5":16.8,"mosquito_risk":0,"arthritis_risk":5,"migraine_risk":10,"frizz_risk":1,"updated_at":"2026-04-08T14:36:08.086191+05:30"},{"city":"Tirunelveli","state":"Tamil Nadu","latitude":8.7139,"longitude":77.7567,"temp":38.7,"humidity":34,"rain":0.0,"pressure":1000.7,"uv_index":9.2,"wind_gusts":42.1,"aqi":65,"pm10":32.8,"pm2_5":25.9,"mosquito_risk":0,"arthritis_risk":5,"migraine_risk":7,"frizz_risk":1,"updated_at":"2026-04-08T14:36:08.086198+05:30"},{"city":"Vellore","state":"Tamil Nadu","latitude":12.9165,"longitude":79.1325,"temp":37.2,"humidity":32,"rain":0.0,"pressure":982.7,"uv_index":9.05,"wind_gusts":33.1,"aqi":97,"pm10":36.3,"pm2_5":32.6,"mosquito_risk":0,"arthritis_risk":5,"migraine_risk":10,"frizz_risk":1,"updated_at":"2026-04-08T14:36:08.086206+05:30"},{"city":"Erode","state":"Tamil Nadu","latitude":11.341,"longitude":77.7172,"temp":39.3,"humidity":28,"rain":0.0,"pressure":986.7,"uv_index":9.35,"wind_gusts":28.8,"aqi":73,"pm10":9.0,"pm2_5":7.6,"mosquito_risk":0,"arthritis_risk":5,"migraine_risk":10,"frizz_risk":1,"updated_at":"2026-04-08T14:36:08.086213+05:30"},{"city":"Kochi","state":"Kerala","latitude":9.9312,"longitude":76.2673,"temp":29.5,"humidity":71,"rain":0.0,"pressure":1007.8,"uv_index":9.2,"wind_gusts":34.6,"aqi":60,"pm10":21.1,"pm2_5":13.7,"mosquito_risk":7,"arthritis_risk":5,"migraine_risk":4,"frizz_risk":1,"updated_at":"2026-04-08T14:36:08.086220+05:30"},{"city":"Thiruvananthapuram","state":"Kerala","latitude":8.5241,"longitude":76.9366,"temp":29.4,"humidity":70,"rain":0.0,"pressure":1006.7,"uv_index":9.2,"wind_gusts":45.4,"aqi":56,"pm10":23.0,"pm2_5":13.9,"mosquito_risk":7,"arthritis_risk":5,"migraine_risk":4,"frizz_risk":1,"updated_at":"2026-04-08T14:36:08.086226+05:30"},{"city":"Kozhikode","state":"Kerala","latitude":11.2588,"longitude":75.7804,"temp":30.4,"humidity":63,"rain":0.0,"pressure":1007.3,"uv_index":9.15,"wind_gusts":28.4,"aqi":51,"pm10":20.4,"pm2_5":11.8,"mosquito_risk":3,"arthritis_risk":5,"migraine_risk":4,"frizz_risk":1,"updated_at":"2026-04-08T14:36:08.086233+05:30"},{"city":"Thrissur","state":"Kerala","latitude":10.5276,"longitude":76.2144,"temp":33.9,"humidity":46,"rain":0.0,"pressure":1006.3,"uv_index":9.2,"wind_gusts":35.3,"aqi":62,"pm10":19.3,"pm2_5":13.1,"mosquito_risk":0,"arthritis_risk":5,"migraine_risk":4,"frizz_risk":1,"updated_at":"2026-04-08T14:36:08.086240+05:30"},{"city":"Kannur","state":"Kerala","latitude":11.8745,"longitude":75.3704,"temp":31.4,"humidity":60,"rain":0.0,"pressure":1006.9,"uv_index":9.15,"wind_gusts":33.5,"aqi":50,"pm10":19.8,"pm2_5":12.5,"mosquito_risk":0,"arthritis_risk":5,"migraine_risk":4,"frizz_risk":1,"updated_at":"2026-04-08T14:36:08.086248+05:30"},{"city":"Patna","state":"Bihar","latitude":25.5941,"longitude":85.1376,"temp":25.5,"humidity":67,"rain":0.4,"pressure":1001.7,"uv_index":6.65,"wind_gusts":34.2,"aqi":125,"pm10":53.3,"pm2_5":33.6,"mosquito_risk":10,"arthritis_risk":5,"migraine_risk":4,"frizz_risk":1,"updated_at":"2026-04-08T14:36:08.086254+05:30"},{"city":"Gaya","state":"Bihar","latitude":24.7914,"longitude":85.0002,"temp":27.9,"humidity":53,"rain":0.0,"pressure":994.0,"uv_index":8.2,"wind_gusts":31.0,"aqi":129,"pm10":46.8,"pm2_5":36.3,"mosquito_risk":4,"arthritis_risk":5,"migraine_risk":7,"frizz_risk":1,"updated_at":"2026-04-08T14:36:08.086260+05:30"},{"city":"Muzaffarpur","state":"Bihar","latitude":26.1209,"longitude":85.3647,"temp":24.8,"humidity":68,"rain":0.2,"pressure":1001.4,"uv_index":7.0,"wind_gusts":30.6,"aqi":122,"pm10":50.2,"pm2_5":26.1,"mosquito_risk":6,"arthritis_risk":5,"migraine_risk":4,"frizz_risk":1,"updated_at":"2026-04-08T14:36:08.086266+05:30"},{"city":"Bhagalpur","state":"Bihar","latitude":25.2425,"longitude":87.0117,"temp":31.0,"humidity":52,"rain":0.0,"pressure":1000.2,"uv_index":8.3,"wind_gusts":37.1,"aqi":100,"pm10":63.3,"pm2_5":44.2,"mosquito_risk":0,"arthritis_risk":5,"migraine_risk":4,"frizz_risk":1,"updated_at":"2026-04-08T14:36:08.086272+05:30"},{"city":"Ranchi","state":"Jharkhand","latitude":23.3441,"longitude":85.3096,"temp":26.7,"humidity":64,"rain":0.0,"pressure":937.0,"uv_index":8.9,"wind_gusts":42.5,"aqi":133,"pm10":64.3,"pm2_5":48.7,"mosquito_risk":7,"arthritis_risk":5,"migraine_risk":7,"frizz_risk":1,"updated_at":"2026-04-08T14:36:08.086279+05:30"},{"city":"Jamshedpur","state":"Jharkhand","latitude":22.8046,"longitude":86.2029,"temp":32.3,"humidity":54,"rain":0.0,"pressure":989.1,"uv_index":8.75,"wind_gusts":34.2,"aqi":136,"pm10":50.3,"pm2_5":39.9,"mosquito_risk":0,"arthritis_risk":5,"migraine_risk":7,"frizz_risk":1,"updated_at":"2026-04-08T14:36:08.086286+05:30"},{"city":"Dhanbad","state":"Jharkhand","latitude":23.7957,"longitude":86.4304,"temp":29.1,"humidity":61,"rain":0.0,"pressure":978.7,"uv_index":8.7,"wind_gusts":29.5,"aqi":155,"pm10":68.2,"pm2_5":56.3,"mosquito_risk":7,"arthritis_risk":5,"migraine_risk":7,"frizz_risk":1,"updated_at":"2026-04-08T14:36:08.086292+05:30"},{"city":"Bokaro","state":"Jharkhand","latitude":23.6693,"longitude":86.1511,"temp":30.3,"humidity":54,"rain":0.0,"pressure":982.9,"uv_index":8.7,"wind_gusts":34.6,"aqi":152,"pm10":54.6,"pm2_5":44.2,"mosquito_risk":0,"arthritis_risk":5,"migraine_risk":7,"frizz_risk":1,"updated_at":"2026-04-08T14:36:08.086298+05:30"},{"city":"Bhubaneswar","state":"Odisha","latitude":20.2961,"longitude":85.8245,"temp":33.1,"humidity":57,"rain":0.0,"pressure":1000.8,"uv_index":8.95,"wind_gusts":39.6,"aqi":67,"pm10":23.1,"pm2_5":18.9,"mosquito_risk":0,"arthritis_risk":5,"migraine_risk":4,"frizz_risk":1,"updated_at":"2026-04-08T14:36:08.086303+05:30"},{"city":"Cuttack","state":"Odisha","latitude":20.4625,"longitude":85.8828,"temp":34.3,"humidity":50,"rain":0.0,"pressure":1002.3,"uv_index":9.0,"wind_gusts":35.6,"aqi":67,"pm10":23.1,"pm2_5":18.9,"mosquito_risk":0,"arthritis_risk":5,"migraine_risk":4,"frizz_risk":1,"updated_at":"2026-04-08T14:36:08.086309+05:30"},{"city":"Rourkela","state":"Odisha","latitude":22.2604,"longitude":84.8536,"temp":32.4,"humidity":59,"rain":0.0,"pressure":983.4,"uv_index":8.75,"wind_gusts":39.2,"aqi":121,"pm10":42.4,"pm2_5":33.9,"mosquito_risk":0,"arthritis_risk":5,"migraine_risk":7,"frizz_risk":1,"updated_at":"2026-04-08T14:36:08.086315+05:30"},{"city":"Raipur","state":"Chhattisgarh","latitude":21.2514,"longitude":81.6296,"temp":36.9,"humidity":18,"rain":0.0,"pressure":972.2,"uv_index":8.3,"wind_gusts":41.8,"aqi":110,"pm10":75.7,"pm2_5":28.7,"mosquito_risk":0,"arthritis_risk":5,"migraine_risk":10,"frizz_risk":0,"updated_at":"2026-04-08T14:36:08.086322+05:30"},{"city":"Bhilai","state":"Chhattisgarh","latitude":21.1938,"longitude":81.3509,"temp":36.5,"humidity":20,"rain":0.0,"pressure":972.4,"uv_index":8.45,"wind_gusts":43.2,"aqi":92,"pm10":85.9,"pm2_5":29.8,"mosquito_risk":0,"arthritis_risk":5,"migraine_risk":10,"frizz_risk":0,"updated_at":"2026-04-08T14:36:08.086328+05:30"},{"city":"Guwahati","state":"Assam","latitude":26.1158,"longitude":91.7086,"temp":28.1,"humidity":61,"rain":0.0,"pressure":1002.4,"uv_index":8.15,"wind_gusts":24.1,"aqi":90,"pm10":39.2,"pm2_5":29.5,"mosquito_risk":7,"arthritis_risk":5,"migraine_risk":4,"frizz_risk":1,"updated_at":"2026-04-08T14:36:08.086335+05:30"},{"city":"Agartala","state":"Tripura","latitude":23.8315,"longitude":91.2868,"temp":32.0,"humidity":46,"rain":0.0,"pressure":1005.8,"uv_index":8.45,"wind_gusts":11.2,"aqi":93,"pm10":36.3,"pm2_5":31.1,"mosquito_risk":0,"arthritis_risk":5,"migraine_risk":4,"frizz_risk":1,"updated_at":"2026-04-08T14:36:08.086342+05:30"},{"city":"Shillong","state":"Meghalaya","latitude":25.5788,"longitude":91.8933,"temp":18.0,"humidity":56,"rain":0.0,"pressure":856.9,"uv_index":7.8,"wind_gusts":40.3,"aqi":113,"pm10":35.2,"pm2_5":23.2,"mosquito_risk":0,"arthritis_risk":5,"migraine_risk":7,"frizz_risk":0,"updated_at":"2026-04-08T14:36:08.086348+05:30"},{"city":"Imphal","state":"Manipur","latitude":24.817,"longitude":93.9368,"temp":22.7,"humidity":56,"rain":0.0,"pressure":923.5,"uv_index":8.65,"wind_gusts":42.8,"aqi":83,"pm10":21.2,"pm2_5":14.6,"mosquito_risk":0,"arthritis_risk":5,"migraine_risk":7,"frizz_risk":0,"updated_at":"2026-04-08T14:36:08.086355+05:30"},{"city":"Aizawl","state":"Mizoram","latitude":23.7271,"longitude":92.7176,"temp":25.7,"humidity":43,"rain":0.0,"pressure":893.9,"uv_index":8.7,"wind_gusts":34.2,"aqi":74,"pm10":24.0,"pm2_5":19.9,"mosquito_risk":4,"arthritis_risk":5,"migraine_risk":7,"frizz_risk":0,"updated_at":"2026-04-08T14:36:08.086361+05:30"},{"city":"Kohima","state":"Nagaland","latitude":25.6701,"longitude":94.1077,"temp":16.7,"humidity":79,"rain":0.0,"pressure":855.2,"uv_index":7.85,"wind_gusts":64.4,"aqi":78,"pm10":23.2,"pm2_5":15.7,"mosquito_risk":3,"arthritis_risk":5,"migraine_risk":7,"frizz_risk":0,"updated_at":"2026-04-08T14:36:08.086367+05:30"},{"city":"Gangtok","state":"Sikkim","latitude":27.3314,"longitude":88.6138,"temp":17.4,"humidity":62,"rain":0.0,"pressure":838.0,"uv_index":7.4,"wind_gusts":19.1,"aqi":107,"pm10":30.4,"pm2_5":21.1,"mosquito_risk":3,"arthritis_risk":5,"migraine_risk":7,"frizz_risk":0,"updated_at":"2026-04-08T14:36:08.086374+05:30"},{"city":"Siliguri","state":"West Bengal","latitude":26.7271,"longitude":88.3953,"temp":24.5,"humidity":65,"rain":0.0,"pressure":994.5,"uv_index":8.1,"wind_gusts":20.5,"aqi":109,"pm10":46.1,"pm2_5":37.5,"mosquito_risk":3,"arthritis_risk":5,"migraine_risk":7,"frizz_risk":1,"updated_at":"2026-04-08T14:36:11.477977+05:30"},{"city":"Durgapur","state":"West Bengal","latitude":23.5204,"longitude":87.3119,"temp":29.8,"humidity":62,"rain":0.0,"pressure":994.0,"uv_index":8.7,"wind_gusts":28.1,"aqi":148,"pm10":65.2,"pm2_5":55.5,"mosquito_risk":7,"arthritis_risk":5,"migraine_risk":7,"frizz_risk":1,"updated_at":"2026-04-08T14:36:11.478013+05:30"},{"city":"Asansol","state":"West Bengal","latitude":23.6739,"longitude":86.9524,"temp":27.8,"humidity":70,"rain":0.0,"pressure":992.7,"uv_index":8.7,"wind_gusts":27.4,"aqi":139,"pm10":68.9,"pm2_5":57.0,"mosquito_risk":7,"arthritis_risk":5,"migraine_risk":7,"frizz_risk":1,"updated_at":"2026-04-08T14:36:11.478024+05:30"},{"city":"Pondicherry","state":"Puducherry","latitude":11.9139,"longitude":79.8145,"temp":37.0,"humidity":49,"rain":0.0,"pressure":1006.0,"uv_index":9.3,"wind_gusts":25.6,"aqi":81,"pm10":31.4,"pm2_5":23.7,"mosquito_risk":0,"arthritis_risk":5,"migraine_risk":7,"frizz_risk":1,"updated_at":"2026-04-08T14:36:11.478031+05:30"},{"city":"Port Blair","state":"Andaman and Nicobar Islands","latitude":11.6234,"longitude":92.7265,"temp":29.6,"humidity":73,"rain":0.0,"pressure":1007.1,"uv_index":9.2,"wind_gusts":10.4,"aqi":30,"pm10":7.3,"pm2_5":4.9,"mosquito_risk":7,"arthritis_risk":5,"migraine_risk":4,"frizz_risk":1,"updated_at":"2026-04-08T14:36:11.478039+05:30"},{"city":"Haridwar","state":"Uttarakhand","latitude":29.9457,"longitude":78.1642,"temp":20.0,"humidity":83,"rain":0.0,"pressure":975.2,"uv_index":5.7,"wind_gusts":25.2,"aqi":73,"pm10":59.8,"pm2_5":22.9,"mosquito_risk":3,"arthritis_risk":5,"migraine_risk":3,"frizz_risk":1,"updated_at":"2026-04-08T14:36:11.478047+05:30"},{"city":"Rishikesh","state":"Uttarakhand","latitude":30.0869,"longitude":78.2676,"temp":19.6,"humidity":84,"rain":0.0,"pressure":967.4,"uv_index":4.4,"wind_gusts":24.5,"aqi":78,"pm10":30.2,"pm2_5":11.3,"mosquito_risk":3,"arthritis_risk":10,"migraine_risk":3,"frizz_risk":1,"updated_at":"2026-04-08T14:36:11.478054+05:30"},{"city":"Nainital","state":"Uttarakhand","latitude":29.3919,"longitude":79.4542,"temp":11.9,"humidity":94,"rain":1.2,"pressure":802.5,"uv_index":4.65,"wind_gusts":55.4,"aqi":84,"pm10":33.4,"pm2_5":15.0,"mosquito_risk":6,"arthritis_risk":10,"migraine_risk":3,"frizz_risk":0,"updated_at":"2026-04-08T14:36:11.478061+05:30"},{"city":"Mussoorie","state":"Uttarakhand","latitude":30.4599,"longitude":78.0664,"temp":11.2,"humidity":88,"rain":0.4,"pressure":798.6,"uv_index":5.9,"wind_gusts":50.0,"aqi":68,"pm10":14.4,"pm2_5":8.1,"mosquito_risk":6,"arthritis_risk":10,"migraine_risk":3,"frizz_risk":0,"updated_at":"2026-04-08T14:36:11.478068+05:30"},{"city":"Dharamshala","state":"Himachal Pradesh","latitude":32.219,"longitude":76.3234,"temp":12.6,"humidity":86,"rain":1.2,"pressure":865.7,"uv_index":5.45,"wind_gusts":32.4,"aqi":87,"pm10":4.2,"pm2_5":1.9,"mosquito_risk":6,"arthritis_risk":10,"migraine_risk":3,"frizz_risk":0,"updated_at":"2026-04-08T14:36:11.478075+05:30"},{"city":"Dalhousie","state":"Himachal Pradesh","latitude":32.5387,"longitude":75.971,"temp":10.3,"humidity":71,"rain":0.3,"pressure":799.2,"uv_index":5.05,"wind_gusts":34.9,"aqi":70,"pm10":33.5,"pm2_5":10.7,"mosquito_risk":6,"arthritis_risk":5,"migraine_risk":3,"frizz_risk":0,"updated_at":"2026-04-08T14:36:11.478082+05:30"},{"city":"Patiala","state":"Punjab","latitude":30.3398,"longitude":76.3869,"temp":22.4,"humidity":64,"rain":0.0,"pressure":978.9,"uv_index":6.75,"wind_gusts":26.6,"aqi":117,"pm10":523.4,"pm2_5":61.2,"mosquito_risk":3,"arthritis_risk":5,"migraine_risk":7,"frizz_risk":0,"updated_at":"2026-04-08T14:36:11.478089+05:30"},{"city":"Bhatinda","state":"Punjab","latitude":30.211,"longitude":74.9455,"temp":24.5,"humidity":45,"rain":0.0,"pressure":984.2,"uv_index":7.45,"wind_gusts":24.8,"aqi":104,"pm10":83.4,"pm2_5":27.8,"mosquito_risk":0,"arthritis_risk":5,"migraine_risk":7,"frizz_risk":0,"updated_at":"2026-04-08T14:36:11.478096+05:30"},{"city":"Rohtak","state":"Haryana","latitude":28.8955,"longitude":76.6066,"temp":25.8,"humidity":44,"rain":0.0,"pressure":982.0,"uv_index":6.95,"wind_gusts":23.8,"aqi":170,"pm10":158.3,"pm2_5":39.9,"mosquito_risk":4,"arthritis_risk":5,"migraine_risk":7,"frizz_risk":0,"updated_at":"2026-04-08T14:36:11.478102+05:30"},{"city":"Panipat","state":"Haryana","latitude":29.3909,"longitude":76.9635,"temp":23.2,"humidity":64,"rain":0.0,"pressure":980.9,"uv_index":6.75,"wind_gusts":26.6,"aqi":132,"pm10":231.4,"pm2_5":45.9,"mosquito_risk":3,"arthritis_risk":5,"migraine_risk":7,"frizz_risk":0,"updated_at":"2026-04-08T14:36:11.478108+05:30"},{"city":"Mathura","state":"Uttar Pradesh","latitude":27.4924,"longitude":77.6737,"temp":28.6,"humidity":35,"rain":0.0,"pressure":986.6,"uv_index":7.25,"wind_gusts":29.2,"aqi":314,"pm10":222.1,"pm2_5":37.0,"mosquito_risk":4,"arthritis_risk":5,"migraine_risk":7,"frizz_risk":0,"updated_at":"2026-04-08T14:36:11.478115+05:30"},{"city":"Vrindavan","state":"Uttar Pradesh","latitude":27.5823,"longitude":77.7027,"temp":27.9,"humidity":39,"rain":0.0,"pressure":987.1,"uv_index":7.25,"wind_gusts":30.2,"aqi":314,"pm10":222.1,"pm2_5":37.0,"mosquito_risk":4,"arthritis_risk":5,"migraine_risk":7,"frizz_risk":0,"updated_at":"2026-04-08T14:36:11.478122+05:30"},{"city":"Ayodhya","state":"Uttar Pradesh","latitude":26.7922,"longitude":82.1998,"temp":24.6,"humidity":61,"rain":0.0,"pressure":996.4,"uv_index":7.65,"wind_gusts":38.9,"aqi":88,"pm10":63.6,"pm2_5":26.3,"mosquito_risk":3,"arthritis_risk":5,"migraine_risk":7,"frizz_risk":1,"updated_at":"2026-04-08T14:36:11.478129+05:30"},{"city":"Ratlam","state":"Madhya Pradesh","latitude":23.3315,"longitude":75.0367,"temp":30.5,"humidity":40,"rain":0.0,"pressure":954.0,"uv_index":8.25,"wind_gusts":45.0,"aqi":65,"pm10":35.0,"pm2_5":14.3,"mosquito_risk":0,"arthritis_risk":5,"migraine_risk":7,"frizz_risk":0,"updated_at":"2026-04-08T14:36:11.478136+05:30"},{"city":"Sagar","state":"Madhya Pradesh","latitude":23.8388,"longitude":78.7378,"temp":31.4,"humidity":31,"rain":0.0,"pressure":949.1,"uv_index":7.7,"wind_gusts":47.2,"aqi":69,"pm10":44.5,"pm2_5":16.4,"mosquito_risk":0,"arthritis_risk":5,"migraine_risk":7,"frizz_risk":0,"updated_at":"2026-04-08T14:36:11.478142+05:30"},{"city":"Satna","state":"Madhya Pradesh","latitude":24.6005,"longitude":80.8322,"temp":31.5,"humidity":36,"rain":0.0,"pressure":969.8,"uv_index":8.4,"wind_gusts":42.5,"aqi":76,"pm10":65.7,"pm2_5":22.9,"mosquito_risk":0,"arthritis_risk":5,"migraine_risk":7,"frizz_risk":0,"updated_at":"2026-04-08T14:36:11.478149+05:30"},{"city":"Akola","state":"Maharashtra","latitude":20.7002,"longitude":77.0082,"temp":35.6,"humidity":30,"rain":0.0,"pressure":974.2,"uv_index":8.7,"wind_gusts":46.8,"aqi":67,"pm10":88.0,"pm2_5":25.8,"mosquito_risk":0,"arthritis_risk":5,"migraine_risk":10,"frizz_risk":0,"updated_at":"2026-04-08T14:36:11.478156+05:30"},{"city":"Amravati","state":"Maharashtra","latitude":20.9374,"longitude":77.7796,"temp":35.8,"humidity":29,"rain":0.0,"pressure":965.9,"uv_index":8.7,"wind_gusts":42.1,"aqi":66,"pm10":89.6,"pm2_5":26.0,"mosquito_risk":0,"arthritis_risk":5,"migraine_risk":10,"frizz_risk":0,"updated_at":"2026-04-08T14:36:11.478163+05:30"},{"city":"Latur","state":"Maharashtra","latitude":18.4088,"longitude":76.5604,"temp":35.7,"humidity":20,"rain":0.0,"pressure":939.6,"uv_index":8.95,"wind_gusts":34.2,"aqi":73,"pm10":82.9,"pm2_5":23.5,"mosquito_risk":0,"arthritis_risk":5,"migraine_risk":10,"frizz_risk":0,"updated_at":"2026-04-08T14:36:11.478170+05:30"},{"city":"Nanded","state":"Maharashtra","latitude":19.1383,"longitude":77.3091,"temp":36.9,"humidity":23,"rain":0.0,"pressure":967.9,"uv_index":8.85,"wind_gusts":31.7,"aqi":78,"pm10":103.1,"pm2_5":26.2,"mosquito_risk":0,"arthritis_risk":5,"migraine_risk":10,"frizz_risk":0,"updated_at":"2026-04-08T14:36:11.478177+05:30"},{"city":"Gulbarga","state":"Karnataka","latitude":17.3297,"longitude":76.8343,"temp":38.8,"humidity":17,"rain":0.0,"pressure":958.0,"uv_index":9.05,"wind_gusts":31.7,"aqi":69,"pm10":72.6,"pm2_5":22.8,"mosquito_risk":0,"arthritis_risk":5,"migraine_risk":10,"frizz_risk":0,"updated_at":"2026-04-08T14:36:11.478183+05:30"},{"city":"Bidar","state":"Karnataka","latitude":17.9104,"longitude":77.5199,"temp":36.6,"humidity":20,"rain":0.0,"pressure":935.5,"uv_index":9.0,"wind_gusts":28.8,"aqi":77,"pm10":80.1,"pm2_5":23.8,"mosquito_risk":0,"arthritis_risk":5,"migraine_risk":10,"frizz_risk":0,"updated_at":"2026-04-08T14:36:11.478189+05:30"},{"city":"Hospet","state":"Karnataka","latitude":15.2689,"longitude":76.3909,"temp":36.4,"humidity":23,"rain":0.0,"pressure":955.5,"uv_index":9.25,"wind_gusts":27.0,"aqi":62,"pm10":37.3,"pm2_5":17.3,"mosquito_risk":0,"arthritis_risk":5,"migraine_risk":10,"frizz_risk":0,"updated_at":"2026-04-08T14:36:11.478196+05:30"},{"city":"Tirupur","state":"Tamil Nadu","latitude":11.1085,"longitude":77.3411,"temp":38.5,"humidity":26,"rain":0.0,"pressure":973.5,"uv_index":9.5,"wind_gusts":40.0,"aqi":95,"pm10":8.4,"pm2_5":7.5,"mosquito_risk":0,"arthritis_risk":5,"migraine_risk":10,"frizz_risk":0,"updated_at":"2026-04-08T14:36:11.478202+05:30"},{"city":"Alappuzha","state":"Kerala","latitude":9.4981,"longitude":76.3388,"temp":29.7,"humidity":70,"rain":0.0,"pressure":1007.8,"uv_index":8.85,"wind_gusts":31.0,"aqi":59,"pm10":24.6,"pm2_5":14.8,"mosquito_risk":7,"arthritis_risk":5,"migraine_risk":4,"frizz_risk":1,"updated_at":"2026-04-08T14:36:11.478208+05:30"},{"city":"Munnar","state":"Kerala","latitude":10.0889,"longitude":77.0595,"temp":28.8,"humidity":53,"rain":0.0,"pressure":858.7,"uv_index":9.6,"wind_gusts":39.2,"aqi":61,"pm10":27.3,"pm2_5":20.7,"mosquito_risk":4,"arthritis_risk":5,"migraine_risk":7,"frizz_risk":1,"updated_at":"2026-04-08T14:36:11.478216+05:30"},{"city":"Silchar","state":"Assam","latitude":24.8333,"longitude":92.7789,"temp":31.0,"humidity":48,"rain":0.0,"pressure":1005.0,"uv_index":8.45,"wind_gusts":23.0,"aqi":100,"pm10":29.5,"pm2_5":22.2,"mosquito_risk":0,"arthritis_risk":5,"migraine_risk":4,"frizz_risk":1,"updated_at":"2026-04-08T14:36:11.478222+05:30"},{"city":"Dibrugarh","state":"Assam","latitude":27.4728,"longitude":94.912,"temp":26.1,"humidity":61,"rain":0.0,"pressure":996.7,"uv_index":8.0,"wind_gusts":17.3,"aqi":68,"pm10":26.1,"pm2_5":17.9,"mosquito_risk":7,"arthritis_risk":5,"migraine_risk":7,"frizz_risk":1,"updated_at":"2026-04-08T14:36:11.478228+05:30"}]