[{"city":"Delhi","state":"Delhi","latitude":28.6139,"longitude":77.209,"temp":22.1,"humidity":82,"rain":0.0,"pressure":984.0,"uv_index":5.25,"wind_gusts":27.0,"aqi":217,"pm10":370.7,"pm2_5":95.2,"mosquito_risk":3,"arthritis_risk":5,"migraine_risk":3,"frizz_risk":1,"updated_at":"2026-03-13T02:09:28.426557+05:30"},{"city":"Mumbai","state":"Maharashtra","latitude":19.076,"longitude":72.8777,"temp":28.4,"humidity":75,"rain":0.0,"pressure":1007.7,"uv_index":7.65,"wind_gusts":24.8,"aqi":159,"pm10":38.3,"pm2_5":35.7,"mosquito_risk":7,"arthritis_risk":5,"migraine_risk":4,"frizz_risk":1,"updated_at":"2026-03-13T02:09:28.426598+05:30"},{"city":"Bangalore","state":"Karnataka","latitude":12.9716,"longitude":77.5946,"temp":21.4,"humidity":63,"rain":0.0,"pressure":911.2,"uv_index":9.3,"wind_gusts":31.0,"aqi":74,"pm10":24.0,"pm2_5":21.7,"mosquito_risk":3,"arthritis_risk":5,"migraine_risk":7,"frizz_risk":0,"updated_at":"2026-03-13T02:09:28.426613+05:30"},{"city":"Hyderabad","state":"Telangana","latitude":17.385,"longitude":78.4867,"temp":23.5,"humidity":56,"rain":0.0,"pressure":952.5,"uv_index":8.65,"wind_gusts":24.1,"aqi":97,"pm10":41.0,"pm2_5":31.1,"mosquito_risk":0,"arthritis_risk":5,"migraine_risk":7,"frizz_risk":0,"updated_at":"2026-03-13T02:09:28.426623+05:30"},{"city":"Chennai","state":"Tamil Nadu","latitude":13.0827,"longitude":80.2707,"temp":24.6,"humidity":95,"rain":0.0,"pressure":1007.5,"uv_index":9.05,"wind_gusts":30.2,"aqi":77,"pm10":25.5,"pm2_5":21.5,"mosquito_risk":3,"arthritis_risk":5,"migraine_risk":4,"frizz_risk":1,"updated_at":"2026-03-13T02:09:28.426632+05:30"},{"city":"Kolkata","state":"West Bengal","latitude":22.5726,"longitude":88.3639,"temp":24.1,"humidity":96,"rain":0.0,"pressure":1006.8,"uv_index":8.0,"wind_gusts":29.2,"aqi":137,"pm10":33.5,"pm2_5":30.2,"mosquito_risk":3,"arthritis_risk":5,"migraine_risk":4,"frizz_risk":1,"updated_at":"2026-03-13T02:09:28.426640+05:30"},{"city":"Pune","state":"Maharashtra","latitude":18.5204,"longitude":73.8567,"temp":23.6,"humidity":63,"rain":0.0,"pressure":948.0,"uv_index":8.2,"wind_gusts":28.4,"aqi":141,"pm10":78.9,"pm2_5":76.6,"mosquito_risk":3,"arthritis_risk":5,"migraine_risk":7,"frizz_risk":1,"updated_at":"2026-03-13T02:09:28.426652+05:30"},{"city":"Ahmedabad","state":"Gujarat","latitude":23.0225,"longitude":72.5714,"temp":24.1,"humidity":42,"rain":0.0,"pressure":1002.8,"uv_index":7.5,"wind_gusts":23.4,"aqi":79,"pm10":80.1,"pm2_5":64.3,"mosquito_risk":0,"arthritis_risk":5,"migraine_risk":4,"frizz_risk":0,"updated_at":"2026-03-13T02:09:28.426659+05:30"},{"city":"Jaipur","state":"Rajasthan","latitude":26.9124,"longitude":75.7873,"temp":23.1,"humidity":24,"rain":0.0,"pressure":960.5,"uv_index":6.95,"wind_gusts":35.6,"aqi":103,"pm10":125.3,"pm2_5":30.9,"mosquito_risk":0,"arthritis_risk":5,"migraine_risk":7,"frizz_risk":0,"updated_at":"2026-03-13T02:09:28.426667+05:30"},{"city":"Lucknow","state":"Uttar Pradesh","latitude":26.8467,"longitude":80.9462,"temp":24.5,"humidity":53,"rain":0.0,"pressure":993.3,"uv_index":6.05,"wind_gusts":27.0,"aqi":156,"pm10":398.6,"pm2_5":95.9,"mosquito_risk":0,"arthritis_risk":5,"migraine_risk":7,"frizz_risk":0,"updated_at":"2026-03-13T02:09:28.426675+05:30"},{"city":"Kanpur","state":"Uttar Pradesh","latitude":26.4499,"longitude":80.3319,"temp":23.7,"humidity":67,"rain":0.0,"pressure":991.8,"uv_index":6.15,"wind_gusts":20.2,"aqi":231,"pm10":446.1,"pm2_5":100.8,"mosquito_risk":3,"arthritis_risk":5,"migraine_risk":7,"frizz_risk":1,"updated_at":"2026-03-13T02:09:28.426682+05:30"},{"city":"Chandigarh","state":"Chandigarh","latitude":30.7333,"longitude":76.7794,"temp":18.5,"humidity":81,"rain":0.0,"pressure":969.6,"uv_index":5.1,"wind_gusts":23.8,"aqi":97,"pm10":51.1,"pm2_5":43.1,"mosquito_risk":3,"arthritis_risk":10,"migraine_risk":3,"frizz_risk":0,"updated_at":"2026-03-13T02:09:28.426689+05:30"},{"city":"Srinagar","state":"Jammu and Kashmir","latitude":34.0837,"longitude":74.7973,"temp":6.1,"humidity":97,"rain":0.0,"pressure":842.0,"uv_index":6.9,"wind_gusts":14.0,"aqi":74,"pm10":29.3,"pm2_5":27.9,"mosquito_risk":3,"arthritis_risk":10,"migraine_risk":7,"frizz_risk":0,"updated_at":"2026-03-13T02:09:28.426697+05:30"},{"city":"Jammu","state":"Jammu and Kashmir","latitude":32.7266,"longitude":74.857,"temp":17.3,"humidity":86,"rain":0.0,"pressure":975.1,"uv_index":6.65,"wind_gusts":26.6,"aqi":84,"pm10":38.1,"pm2_5":31.4,"mosquito_risk":3,"arthritis_risk":10,"migraine_risk":7,"frizz_risk":0,"updated_at":"2026-03-13T02:09:28.426704+05:30"},{"city":"Amritsar","state":"Punjab","latitude":31.634,"longitude":74.8723,"temp":17.7,"humidity":89,"rain":0.0,"pressure":983.2,"uv_index":6.15,"wind_gusts":24.1,"aqi":141,"pm10":57.6,"pm2_5":35.7,"mosquito_risk":3,"arthritis_risk":10,"migraine_risk":7,"frizz_risk":0,"updated_at":"2026-03-13T02:09:28.426710+05:30"},{"city":"Ludhiana","state":"Punjab","latitude":30.901,"longitude":75.8573,"temp":19.6,"humidity":82,"rain":0.0,"pressure":980.6,"uv_index":5.15,"wind_gusts":26.6,"aqi":142,"pm10":48.9,"pm2_5":33.9,"mosquito_risk":3,"arthritis_risk":10,"migraine_risk":3,"frizz_risk":1,"updated_at":"2026-03-13T02:09:28.426717+05:30"},{"city":"Jalandhar","state":"Punjab","latitude":31.326,"longitude":75.5762,"temp":18.9,"humidity":83,"rain":0.0,"pressure":982.0,"uv_index":6.15,"wind_gusts":27.0,"aqi":127,"pm10":64.3,"pm2_5":34.2,"mosquito_risk":3,"arthritis_risk":10,"migraine_risk":7,"frizz_risk":0,"updated_at":"2026-03-13T02:09:28.426726+05:30"},{"city":"Dehradun","state":"Uttarakhand","latitude":30.6284,"longitude":78.0322,"temp":12.2,"humidity":60,"rain":0.0,"pressure":829.4,"uv_index":5.95,"wind_gusts":27.0,"aqi":53,"pm10":18.3,"pm2_5":8.9,"mosquito_risk":0,"arthritis_risk":5,"migraine_risk":3,"frizz_risk":0,"updated_at":"2026-03-13T02:09:28.426733+05:30"},{"city":"Shimla","state":"Himachal Pradesh","latitude":31.1048,"longitude":77.1734,"temp":9.9,"humidity":72,"rain":0.0,"pressure":782.6,"uv_index":5.6,"wind_gusts":34.9,"aqi":68,"pm10":32.6,"pm2_5":18.6,"mosquito_risk":3,"arthritis_risk":5,"migraine_risk":3,"frizz_risk":0,"updated_at":"2026-03-13T02:09:28.426740+05:30"},{"city":"Manali","state":"Himachal Pradesh","latitude":32.2396,"longitude":77.1887,"temp":11.7,"humidity":35,"rain":0.0,"pressure":819.4,"uv_index":7.95,"wind_gusts":44.3,"aqi":43,"pm10":8.8,"pm2_5":4.6,"mosquito_risk":0,"arthritis_risk":5,"migraine_risk":7,"frizz_risk":1,"updated_at":"2026-03-13T02:09:28.426747+05:30"},{"city":"Gurgaon","state":"Haryana","latitude":28.4595,"longitude":77.0266,"temp":19.9,"humidity":91,"rain":0.0,"pressure":982.6,"uv_index":5.55,"wind_gusts":24.5,"aqi":811,"pm10":895.9,"pm2_5":149.5,"mosquito_risk":3,"arthritis_risk":10,"migraine_risk":3,"frizz_risk":1,"updated_at":"2026-03-13T02:09:28.426754+05:30"},{"city":"Noida","state":"Uttar Pradesh","latitude":28.5355,"longitude":77.391,"temp":22.2,"humidity":80,"rain":0.0,"pressure":985.4,"uv_index":5.75,"wind_gusts":26.6,"aqi":811,"pm10":895.9,"pm2_5":149.5,"mosquito_risk":3,"arthritis_risk":5,"migraine_risk":3,"frizz_risk":1,"updated_at":"2026-03-13T02:09:28.426760+05:30"},{"city":"Ghaziabad","state":"Uttar Pradesh","latitude":28.6692,"longitude":77.4538,"temp":21.1,"humidity":83,"rain":0.0,"pressure":983.3,"uv_index":5.85,"wind_gusts":25.9,"aqi":176,"pm10":339.0,"pm2_5":93.6,"mosquito_risk":3,"arthritis_risk":5,"migraine_risk":3,"frizz_risk":1,"updated_at":"2026-03-13T02:09:28.426767+05:30"},{"city":"Faridabad","state":"Haryana","latitude":28.4089,"longitude":77.3178,"temp":20.8,"humidity":84,"rain":0.0,"pressure":984.6,"uv_index":5.6,"wind_gusts":27.0,"aqi":811,"pm10":895.9,"pm2_5":149.5,"mosquito_risk":3,"arthritis_risk":5,"migraine_risk":3,"frizz_risk":1,"updated_at":"2026-03-13T02:09:28.426773+05:30"},{"city":"Meerut","state":"Uttar Pradesh","latitude":28.9845,"longitude":77.7064,"temp":20.3,"humidity":84,"rain":0.0,"pressure":981.9,"uv_index":5.25,"wind_gusts":25.9,"aqi":176,"pm10":339.0,"pm2_5":93.6,"mosquito_risk":3,"arthritis_risk":5,"migraine_risk":3,"frizz_risk":1,"updated_at":"2026-03-13T02:09:28.426779+05:30"},{"city":"Agra","state":"Uttar Pradesh","latitude":27.1767,"longitude":78.0081,"temp":19.3,"humidity":58,"rain":0.0,"pressure":988.4,"uv_index":5.95,"wind_gusts":20.5,"aqi":331,"pm10":211.9,"pm2_5":90.1,"mosquito_risk":0,"arthritis_risk":5,"migraine_risk":3,"frizz_risk":0,"updated_at":"2026-03-13T02:09:28.426786+05:30"},{"city":"Varanasi","state":"Uttar Pradesh","latitude":25.3176,"longitude":82.9739,"temp":20.9,"humidity":70,"rain":0.0,"pressure":997.6,"uv_index":7.05,"wind_gusts":21.2,"aqi":108,"pm10":119.7,"pm2_5":54.6,"mosquito_risk":3,"arthritis_risk":5,"migraine_risk":7,"frizz_risk":0,"updated_at":"2026-03-13T02:09:28.426795+05:30"},{"city":"Prayagraj","state":"Uttar Pradesh","latitude":25.4358,"longitude":81.8463,"temp":23.7,"humidity":55,"rain":0.0,"pressure":996.0,"uv_index":6.85,"wind_gusts":16.9,"aqi":120,"pm10":198.8,"pm2_5":70.5,"mosquito_risk":0,"arthritis_risk":5,"migraine_risk":7,"frizz_risk":0,"updated_at":"2026-03-13T02:09:28.426802+05:30"},{"city":"Gorakhpur","state":"Uttar Pradesh","latitude":26.7606,"longitude":83.3732,"temp":21.4,"humidity":83,"rain":0.0,"pressure":997.2,"uv_index":6.95,"wind_gusts":30.2,"aqi":192,"pm10":144.8,"pm2_5":132.7,"mosquito_risk":3,"arthritis_risk":5,"migraine_risk":7,"frizz_risk":1,"updated_at":"2026-03-13T02:09:28.426809+05:30"},{"city":"Bareilly","state":"Uttar Pradesh","latitude":28.367,"longitude":79.4304,"temp":20.2,"humidity":77,"rain":0.0,"pressure":986.9,"uv_index":6.05,"wind_gusts":27.4,"aqi":150,"pm10":415.4,"pm2_5":105.2,"mosquito_risk":3,"arthritis_risk":5,"migraine_risk":7,"frizz_risk":1,"updated_at":"2026-03-13T02:09:28.426815+05:30"},{"city":"Aligarh","state":"Uttar Pradesh","latitude":27.8974,"longitude":78.088,"temp":19.4,"humidity":77,"rain":0.0,"pressure":985.9,"uv_index":5.6,"wind_gusts":26.6,"aqi":473,"pm10":562.5,"pm2_5":134.1,"mosquito_risk":3,"arthritis_risk":5,"migraine_risk":3,"frizz_risk":0,"updated_at":"2026-03-13T02:09:28.426821+05:30"},{"city":"Moradabad","state":"Uttar Pradesh","latitude":28.8386,"longitude":78.7733,"temp":20.7,"humidity":79,"rain":0.0,"pressure":983.8,"uv_index":5.25,"wind_gusts":27.7,"aqi":151,"pm10":183.0,"pm2_5":71.0,"mosquito_risk":3,"arthritis_risk":5,"migraine_risk":3,"frizz_risk":1,"updated_at":"2026-03-13T02:09:28.426830+05:30"},{"city":"Saharanpur","state":"Uttar Pradesh","latitude":29.9637,"longitude":77.546,"temp":18.7,"humidity":83,"rain":0.0,"pressure":976.4,"uv_index":4.9,"wind_gusts":23.8,"aqi":155,"pm10":253.3,"pm2_5":102.4,"mosquito_risk":3,"arthritis_risk":10,"migraine_risk":3,"frizz_risk":0,"updated_at":"2026-03-13T02:09:28.426836+05:30"},{"city":"Jhansi","state":"Uttar Pradesh","latitude":25.4484,"longitude":78.5685,"temp":22.3,"humidity":42,"rain":0.0,"pressure":977.9,"uv_index":7.0,"wind_gusts":20.5,"aqi":52,"pm10":12.2,"pm2_5":12.0,"mosquito_risk":0,"arthritis_risk":5,"migraine_risk":7,"frizz_risk":0,"updated_at":"2026-03-13T02:09:31.741754+05:30"},{"city":"Surat","state":"Gujarat","latitude":21.1702,"longitude":72.8311,"temp":25.9,"humidity":70,"rain":0.0,"pressure":1006.4,"uv_index":7.35,"wind_gusts":27.0,"aqi":140,"pm10":49.6,"pm2_5":48.2,"mosquito_risk":7,"arthritis_risk":5,"migraine_risk":4,"frizz_risk":1,"updated_at":"2026-03-13T02:09:31.741784+05:30"},{"city":"Vadodara","state":"Gujarat","latitude":22.3072,"longitude":73.1812,"temp":27.2,"humidity":31,"rain":0.0,"pressure":1004.2,"uv_index":7.5,"wind_gusts":23.4,"aqi":93,"pm10":60.3,"pm2_5":56.9,"mosquito_risk":4,"arthritis_risk":5,"migraine_risk":4,"frizz_risk":0,"updated_at":"2026-03-13T02:09:31.741794+05:30"},{"city":"Rajkot","state":"Gujarat","latitude":22.3039,"longitude":70.8022,"temp":23.6,"humidity":68,"rain":0.0,"pressure":995.2,"uv_index":7.3,"wind_gusts":36.4,"aqi":61,"pm10":75.0,"pm2_5":31.0,"mosquito_risk":3,"arthritis_risk":5,"migraine_risk":7,"frizz_risk":1,"updated_at":"2026-03-13T02:09:31.741802+05:30"},{"city":"Thane","state":"Maharashtra","latitude":19.2183,"longitude":72.9781,"temp":26.1,"humidity":79,"rain":0.0,"pressure":1007.2,"uv_index":7.65,"wind_gusts":37.8,"aqi":159,"pm10":38.3,"pm2_5":35.7,"mosquito_risk":7,"arthritis_risk":5,"migraine_risk":4,"frizz_risk":1,"updated_at":"2026-03-13T02:09:31.741809+05:30"},{"city":"Nagpur","state":"Maharashtra","latitude":21.1458,"longitude":79.0882,"temp":23.8,"humidity":55,"rain":0.0,"pressure":972.5,"uv_index":8.05,"wind_gusts":21.2,"aqi":87,"pm10":25.3,"pm2_5":21.2,"mosquito_risk":0,"arthritis_risk":5,"migraine_risk":7,"frizz_risk":0,"updated_at":"2026-03-13T02:09:31.741817+05:30"},{"city":"Nashik","state":"Maharashtra","latitude":19.9975,"longitude":73.7898,"temp":24.7,"humidity":43,"rain":0.0,"pressure":945.4,"uv_index":7.85,"wind_gusts":35.6,"aqi":88,"pm10":28.7,"pm2_5":27.0,"mosquito_risk":0,"arthritis_risk":5,"migraine_risk":7,"frizz_risk":0,"updated_at":"2026-03-13T02:09:31.741824+05:30"},{"city":"Aurangabad","state":"Maharashtra","latitude":19.8762,"longitude":75.3433,"temp":24.5,"humidity":35,"rain":0.0,"pressure":943.6,"uv_index":8.35,"wind_gusts":21.2,"aqi":74,"pm10":31.5,"pm2_5":30.4,"mosquito_risk":0,"arthritis_risk":5,"migraine_risk":7,"frizz_risk":0,"updated_at":"2026-03-13T02:09:31.741830+05:30"},{"city":"Solapur","state":"Maharashtra","latitude":17.6599,"longitude":75.9064,"temp":24.6,"humidity":65,"rain":0.0,"pressure":956.1,"uv_index":8.6,"wind_gusts":13.0,"aqi":96,"pm10":35.4,"pm2_5":32.1,"mosquito_risk":3,"arthritis_risk":5,"migraine_risk":7,"frizz_risk":1,"updated_at":"2026-03-13T02:09:31.741839+05:30"},{"city":"Kolhapur","state":"Maharashtra","latitude":16.705,"longitude":74.2433,"temp":21.9,"humidity":72,"rain":0.0,"pressure":947.1,"uv_index":8.7,"wind_gusts":44.6,"aqi":152,"pm10":82.2,"pm2_5":79.4,"mosquito_risk":3,"arthritis_risk":5,"migraine_risk":7,"frizz_risk":1,"updated_at":"2026-03-13T02:09:31.741846+05:30"},{"city":"Goa","state":"Goa","latitude":15.2993,"longitude":74.124,"temp":25.9,"humidity":94,"rain":0.0,"pressure":997.0,"uv_index":8.7,"wind_gusts":32.8,"aqi":140,"pm10":64.7,"pm2_5":58.1,"mosquito_risk":7,"arthritis_risk":5,"migraine_risk":7,"frizz_risk":1,"updated_at":"2026-03-13T02:09:31.741852+05:30"},{"city":"Jodhpur","state":"Rajasthan","latitude":26.2389,"longitude":73.0243,"temp":24.4,"humidity":37,"rain":0.0,"pressure":983.9,"uv_index":7.2,"wind_gusts":22.3,"aqi":73,"pm10":131.8,"pm2_5":32.6,"mosquito_risk":0,"arthritis_risk":5,"migraine_risk":7,"frizz_risk":0,"updated_at":"2026-03-13T02:09:31.741859+05:30"},{"city":"Udaipur","state":"Rajasthan","latitude":24.5854,"longitude":73.7125,"temp":21.7,"humidity":26,"rain":0.0,"pressure":947.4,"uv_index":7.65,"wind_gusts":34.9,"aqi":47,"pm10":26.8,"pm2_5":13.2,"mosquito_risk":0,"arthritis_risk":5,"migraine_risk":7,"frizz_risk":0,"updated_at":"2026-03-13T02:09:31.741865+05:30"},{"city":"Kota","state":"Rajasthan","latitude":25.2138,"longitude":75.8648,"temp":20.7,"humidity":47,"rain":0.0,"pressure":978.9,"uv_index":6.8,"wind_gusts":14.8,"aqi":73,"pm10":28.6,"pm2_5":26.9,"mosquito_risk":0,"arthritis_risk":5,"migraine_risk":7,"frizz_risk":0,"updated_at":"2026-03-13T02:09:31.741872+05:30"},{"city":"Bikaner","state":"Rajasthan","latitude":28.0229,"longitude":73.3119,"temp":24.2,"humidity":60,"rain":0.0,"pressure":983.6,"uv_index":6.1,"wind_gusts":24.1,"aqi":102,"pm10":62.9,"pm2_5":32.1,"mosquito_risk":0,"arthritis_risk":5,"migraine_risk":7,"frizz_risk":0,"updated_at":"2026-03-13T02:09:31.741879+05:30"},{"city":"Ajmer","state":"Rajasthan","latitude":26.4499,"longitude":74.6399,"temp":22.8,"humidity":39,"rain":0.0,"pressure":955.5,"uv_index":6.7,"wind_gusts":20.9,"aqi":58,"pm10":28.2,"pm2_5":13.4,"mosquito_risk":0,"arthritis_risk":5,"migraine_risk":7,"frizz_risk":0,"updated_at":"2026-03-13T02:09:31.741886+05:30"},{"city":"Gwalior","state":"Madhya Pradesh","latitude":26.2183,"longitude":78.1828,"temp":24.0,"humidity":35,"rain":0.0,"pressure":983.6,"uv_index":6.35,"wind_gusts":19.1,"aqi":51,"pm10":15.3,"pm2_5":10.9,"mosquito_risk":0,"arthritis_risk":5,"migraine_risk":7,"frizz_risk":0,"updated_at":"2026-03-13T02:09:31.741892+05:30"},{"city":"Indore","state":"Madhya Pradesh","latitude":22.7196,"longitude":75.8577,"temp":19.9,"humidity":44,"rain":0.0,"pressure":947.9,"uv_index":7.8,"wind_gusts":31.7,"aqi":77,"pm10":24.4,"pm2_5":23.7,"mosquito_risk":0,"arthritis_risk":5,"migraine_risk":7,"frizz_risk":0,"updated_at":"2026-03-13T02:09:31.741898+05:30"},{"city":"Bhopal","state":"Madhya Pradesh","latitude":23.2599,"longitude":77.4126,"temp":20.7,"humidity":50,"rain":0.0,"pressure":953.5,"uv_index":7.65,"wind_gusts":27.0,"aqi":63,"pm10":33.9,"pm2_5":31.1,"mosquito_risk":0,"arthritis_risk":5,"migraine_risk":7,"frizz_risk":0,"updated_at":"2026-03-13T02:09:31.741904+05:30"},{"city":"Jabalpur","state":"Madhya Pradesh","latitude":23.1815,"longitude":79.9864,"temp":23.4,"humidity":46,"rain":0.0,"pressure":961.0,"uv_index":7.75,"wind_gusts":22.0,"aqi":79,"pm10":49.9,"pm2_5":33.8,"mosquito_risk":0,"arthritis_risk":5,"migraine_risk":7,"frizz_risk":0,"updated_at":"2026-03-13T02:09:31.741911+05:30"},{"city":"Ujjain","state":"Madhya Pradesh","latitude":23.1765,"longitude":75.7885,"temp":20.6,"humidity":43,"rain":0.0,"pressure":953.6,"uv_index":7.7,"wind_gusts":22.7,"aqi":87,"pm10":16.6,"pm2_5":15.7,"mosquito_risk":0,"arthritis_risk":5,"migraine_risk":7,"frizz_risk":0,"updated_at":"2026-03-13T02:09:31.741918+05:30"},{"city":"Visakhapatnam","state":"Andhra Pradesh","latitude":17.6868,"longitude":83.2185,"temp":25.0,"humidity":92,"rain":0.0,"pressure":1003.9,"uv_index":8.65,"wind_gusts":39.2,"aqi":92,"pm10":34.5,"pm2_5":30.6,"mosquito_risk":7,"arthritis_risk":5,"migraine_risk":4,"frizz_risk":1,"updated_at":"2026-03-13T02:09:31.741925+05:30"},{"city":"Vijayawada","state":"Andhra Pradesh","latitude":16.5062,"longitude":80.648,"temp":24.8,"humidity":92,"rain":0.0,"pressure":1002.5,"uv_index":8.75,"wind_gusts":28.8,"aqi":76,"pm10":27.9,"pm2_5":25.5,"mosquito_risk":3,"arthritis_risk":5,"migraine_risk":4,"frizz_risk":1,"updated_at":"2026-03-13T02:09:31.741931+05:30"},{"city":"Guntur","state":"Andhra Pradesh","latitude":16.3067,"longitude":80.4365,"temp":24.0,"humidity":95,"rain":0.0,"pressure":1003.6,"uv_index":8.75,"wind_gusts":32.0,"aqi":73,"pm10":23.9,"pm2_5":21.7,"mosquito_risk":3,"arthritis_risk":5,"migraine_risk":4,"frizz_risk":1,"updated_at":"2026-03-13T02:09:31.741938+05:30"},{"city":"Nellore","state":"Andhra Pradesh","latitude":14.4426,"longitude":79.9865,"temp":23.9,"humidity":94,"rain":0.0,"pressure":1005.8,"uv_index":8.9,"wind_gusts":31.7,"aqi":72,"pm10":21.0,"pm2_5":19.5,"mosquito_risk":3,"arthritis_risk":5,"migraine_risk":4,"frizz_risk":1,"updated_at":"2026-03-13T02:09:31.741945+05:30"},{"city":"Kurnool","state":"Andhra Pradesh","latitude":15.8281,"longitude":78.0373,"temp":26.8,"humidity":48,"rain":0.0,"pressure":976.1,"uv_index":8.75,"wind_gusts":20.2,"aqi":76,"pm10":32.9,"pm2_5":28.5,"mosquito_risk":4,"arthritis_risk":5,"migraine_risk":7,"frizz_risk":0,"updated_at":"2026-03-13T02:09:31.741952+05:30"},{"city":"Kakinada","state":"Andhra Pradesh","latitude":16.9891,"longitude":82.2475,"temp":23.6,"humidity":95,"rain":0.0,"pressure":1007.6,"uv_index":8.7,"wind_gusts":31.3,"aqi":71,"pm10":29.5,"pm2_5":24.8,"mosquito_risk":3,"arthritis_risk":5,"migraine_risk":4,"frizz_risk":1,"updated_at":"2026-03-13T02:09:31.741958+05:30"},{"city":"Tirupati","state":"Andhra Pradesh","latitude":13.6288,"longitude":79.4192,"temp":23.2,"humidity":84,"rain":0.0,"pressure":992.0,"uv_index":9.05,"wind_gusts":33.1,"aqi":105,"pm10":46.2,"pm2_5":44.8,"mosquito_risk":3,"arthritis_risk":5,"migraine_risk":7,"frizz_risk":1,"updated_at":"2026-03-13T02:09:31.741965+05:30"},{"city":"Warangal","state":"Telangana","latitude":17.9689,"longitude":79.5941,"temp":24.2,"humidity":56,"rain":0.0,"pressure":977.5,"uv_index":8.5,"wind_gusts":24.8,"aqi":105,"pm10":41.3,"pm2_5":36.0,"mosquito_risk":0,"arthritis_risk":5,"migraine_risk":7,"frizz_risk":0,"updated_at":"2026-03-13T02:09:31.741971+05:30"},{"city":"Nizamabad","state":"Telangana","latitude":18.6725,"longitude":78.0941,"temp":25.6,"humidity":54,"rain":0.0,"pressure":963.7,"uv_index":8.4,"wind_gusts":29.2,"aqi":105,"pm10":62.4,"pm2_5":55.9,"mosquito_risk":4,"arthritis_risk":5,"migraine_risk":7,"frizz_risk":0,"updated_at":"2026-03-13T02:09:31.741977+05:30"},{"city":"Mysore","state":"Karnataka","latitude":12.2958,"longitude":76.6396,"temp":21.1,"humidity":61,"rain":0.0,"pressure":927.5,"uv_index":9.3,"wind_gusts":33.1,"aqi":66,"pm10":21.8,"pm2_5":19.9,"mosquito_risk":3,"arthritis_risk":5,"migraine_risk":7,"frizz_risk":0,"updated_at":"2026-03-13T02:09:31.741984+05:30"},{"city":"Mangalore","state":"Karnataka","latitude":12.9141,"longitude":74.856,"temp":29.3,"humidity":78,"rain":0.0,"pressure":1006.0,"uv_index":8.95,"wind_gusts":25.9,"aqi":106,"pm10":50.4,"pm2_5":43.8,"mosquito_risk":7,"arthritis_risk":5,"migraine_risk":4,"frizz_risk":1,"updated_at":"2026-03-13T02:09:31.741990+05:30"},{"city":"Hubli-Dharwad","state":"Karnataka","latitude":15.3647,"longitude":75.124,"temp":20.8,"humidity":59,"rain":0.0,"pressure":939.7,"uv_index":8.9,"wind_gusts":31.3,"aqi":81,"pm10":26.4,"pm2_5":22.8,"mosquito_risk":0,"arthritis_risk":5,"migraine_risk":7,"frizz_risk":0,"updated_at":"2026-03-13T02:09:31.741997+05:30"},{"city":"Belgaum","state":"Karnataka","latitude":15.8497,"longitude":74.4977,"temp":23.1,"humidity":56,"rain":0.0,"pressure":924.8,"uv_index":8.95,"wind_gusts":44.6,"aqi":107,"pm10":61.2,"pm2_5":54.5,"mosquito_risk":0,"arthritis_risk":5,"migraine_risk":7,"frizz_risk":0,"updated_at":"2026-03-13T02:09:35.055783+05:30"},{"city":"Coimbatore","state":"Tamil Nadu","latitude":11.0168,"longitude":76.9558,"temp":23.6,"humidity":69,"rain":0.0,"pressure":961.6,"uv_index":9.25,"wind_gusts":43.9,"aqi":72,"pm10":28.5,"pm2_5":27.9,"mosquito_risk":3,"arthritis_risk":5,"migraine_risk":7,"frizz_risk":1,"updated_at":"2026-03-13T02:09:35.055815+05:30"},{"city":"Madurai","state":"Tamil Nadu","latitude":9.9252,"longitude":78.1198,"temp":25.1,"humidity":90,"rain":0.0,"pressure":993.5,"uv_index":9.25,"wind_gusts":24.8,"aqi":72,"pm10":26.9,"pm2_5":25.5,"mosquito_risk":7,"arthritis_risk":5,"migraine_risk":7,"frizz_risk":1,"updated_at":"2026-03-13T02:09:35.055827+05:30"},{"city":"Trichy","state":"Tamil Nadu","latitude":10.7905,"longitude":78.7047,"temp":24.3,"humidity":97,"rain":0.0,"pressure":1000.2,"uv_index":9.15,"wind_gusts":21.6,"aqi":81,"pm10":31.1,"pm2_5":28.1,"mosquito_risk":3,"arthritis_risk":5,"migraine_risk":4,"frizz_risk":1,"updated_at":"2026-03-13T02:09:35.055837+05:30"},{"city":"Salem","state":"Tamil Nadu","latitude":11.6643,"longitude":78.146,"temp":23.7,"humidity":88,"rain":0.0,"pressure":977.2,"uv_index":9.2,"wind_gusts":23.4,"aqi":80,"pm10":37.8,"pm2_5":36.6,"mosquito_risk":3,"arthritis_risk":5,"migraine_risk":7,"frizz_risk":1,"updated_at":"2026-03-13T02:09:35.055845+05:30"},{"city":"Tirunelveli","state":"Tamil Nadu","latitude":8.7139,"longitude":77.7567,"temp":25.1,"humidity":83,"rain":0.0,"pressure":1003.5,"uv_index":9.2,"wind_gusts":37.1,"aqi":60,"pm10":20.5,"pm2_5":18.5,"mosquito_risk":7,"arthritis_risk":5,"migraine_risk":4,"frizz_risk":1,"updated_at":"2026-03-13T02:09:35.055854+05:30"},{"city":"Vellore","state":"Tamil Nadu","latitude":12.9165,"longitude":79.1325,"temp":22.6,"humidity":95,"rain":0.0,"pressure":985.0,"uv_index":9.1,"wind_gusts":34.2,"aqi":94,"pm10":50.4,"pm2_5":49.0,"mosquito_risk":3,"arthritis_risk":5,"migraine_risk":7,"frizz_risk":1,"updated_at":"2026-03-13T02:09:35.055862+05:30"},{"city":"Erode","state":"Tamil Nadu","latitude":11.341,"longitude":77.7172,"temp":24.6,"humidity":90,"rain":0.0,"pressure":989.2,"uv_index":9.15,"wind_gusts":20.9,"aqi":75,"pm10":24.3,"pm2_5":23.5,"mosquito_risk":3,"arthritis_risk":5,"migraine_risk":7,"frizz_risk":1,"updated_at":"2026-03-13T02:09:35.055871+05:30"},{"city":"Kochi","state":"Kerala","latitude":9.9312,"longitude":76.2673,"temp":27.1,"humidity":86,"rain":0.0,"pressure":1008.4,"uv_index":9.1,"wind_gusts":33.8,"aqi":92,"pm10":38.0,"pm2_5":37.0,"mosquito_risk":7,"arthritis_risk":0,"migraine_risk":4,"frizz_risk":1,"updated_at":"2026-03-13T02:09:35.055879+05:30"},{"city":"Thiruvananthapuram","state":"Kerala","latitude":8.5241,"longitude":76.9366,"temp":27.4,"humidity":83,"rain":0.0,"pressure":1007.5,"uv_index":9.1,"wind_gusts":30.2,"aqi":60,"pm10":17.5,"pm2_5":13.0,"mosquito_risk":7,"arthritis_risk":5,"migraine_risk":4,"frizz_risk":1,"updated_at":"2026-03-13T02:09:35.055888+05:30"},{"city":"Kozhikode","state":"Kerala","latitude":11.2588,"longitude":75.7804,"temp":28.4,"humidity":81,"rain":0.0,"pressure":1007.3,"uv_index":9.0,"wind_gusts":25.9,"aqi":99,"pm10":35.2,"pm2_5":31.0,"mosquito_risk":7,"arthritis_risk":5,"migraine_risk":4,"frizz_risk":1,"updated_at":"2026-03-13T02:09:35.055896+05:30"},{"city":"Thrissur","state":"Kerala","latitude":10.5276,"longitude":76.2144,"temp":26.2,"humidity":89,"rain":0.0,"pressure":1006.7,"uv_index":9.05,"wind_gusts":36.7,"aqi":94,"pm10":40.0,"pm2_5":38.6,"mosquito_risk":7,"arthritis_risk":5,"migraine_risk":4,"frizz_risk":1,"updated_at":"2026-03-13T02:09:35.055904+05:30"},{"city":"Kannur","state":"Kerala","latitude":11.8745,"longitude":75.3704,"temp":28.1,"humidity":85,"rain":0.0,"pressure":1006.6,"uv_index":9.0,"wind_gusts":29.2,"aqi":98,"pm10":45.2,"pm2_5":40.7,"mosquito_risk":7,"arthritis_risk":5,"migraine_risk":4,"frizz_risk":1,"updated_at":"2026-03-13T02:09:35.055911+05:30"},{"city":"Patna","state":"Bihar","latitude":25.5941,"longitude":85.1376,"temp":24.1,"humidity":88,"rain":0.0,"pressure":1000.5,"uv_index":7.1,"wind_gusts":25.2,"aqi":193,"pm10":139.7,"pm2_5":133.2,"mosquito_risk":3,"arthritis_risk":5,"migraine_risk":4,"frizz_risk":1,"updated_at":"2026-03-13T02:09:35.055919+05:30"},{"city":"Gaya","state":"Bihar","latitude":24.7914,"longitude":85.0002,"temp":25.1,"humidity":50,"rain":0.0,"pressure":993.8,"uv_index":7.3,"wind_gusts":21.2,"aqi":164,"pm10":188.6,"pm2_5":75.7,"mosquito_risk":4,"arthritis_risk":5,"migraine_risk":7,"frizz_risk":0,"updated_at":"2026-03-13T02:09:35.055927+05:30"},{"city":"Muzaffarpur","state":"Bihar","latitude":26.1209,"longitude":85.3647,"temp":22.5,"humidity":92,"rain":0.0,"pressure":1000.6,"uv_index":7.4,"wind_gusts":24.1,"aqi":215,"pm10":130.4,"pm2_5":123.4,"mosquito_risk":3,"arthritis_risk":5,"migraine_risk":4,"frizz_risk":1,"updated_at":"2026-03-13T02:09:35.055934+05:30"},{"city":"Bhagalpur","state":"Bihar","latitude":25.2425,"longitude":87.0117,"temp":22.8,"humidity":90,"rain":0.0,"pressure":1001.9,"uv_index":7.5,"wind_gusts":27.0,"aqi":182,"pm10":104.3,"pm2_5":99.2,"mosquito_risk":3,"arthritis_risk":5,"migraine_risk":4,"frizz_risk":1,"updated_at":"2026-03-13T02:09:35.055942+05:30"},{"city":"Ranchi","state":"Jharkhand","latitude":23.3441,"longitude":85.3096,"temp":21.8,"humidity":48,"rain":0.0,"pressure":937.8,"uv_index":8.2,"wind_gusts":31.7,"aqi":148,"pm10":120.6,"pm2_5":39.7,"mosquito_risk":0,"arthritis_risk":5,"migraine_risk":7,"frizz_risk":0,"updated_at":"2026-03-13T02:09:35.055950+05:30"},{"city":"Jamshedpur","state":"Jharkhand","latitude":22.8046,"longitude":86.2029,"temp":24.9,"humidity":89,"rain":0.0,"pressure":991.3,"uv_index":8.1,"wind_gusts":17.6,"aqi":164,"pm10":47.6,"pm2_5":45.3,"mosquito_risk":3,"arthritis_risk":5,"migraine_risk":7,"frizz_risk":1,"updated_at":"2026-03-13T02:09:35.055958+05:30"},{"city":"Dhanbad","state":"Jharkhand","latitude":23.7957,"longitude":86.4304,"temp":24.0,"humidity":92,"rain":0.0,"pressure":980.1,"uv_index":8.0,"wind_gusts":27.7,"aqi":184,"pm10":114.6,"pm2_5":110.8,"mosquito_risk":3,"arthritis_risk":5,"migraine_risk":7,"frizz_risk":1,"updated_at":"2026-03-13T02:09:35.055965+05:30"},{"city":"Bokaro","state":"Jharkhand","latitude":23.6693,"longitude":86.1511,"temp":23.2,"humidity":67,"rain":0.0,"pressure":984.3,"uv_index":8.0,"wind_gusts":29.9,"aqi":172,"pm10":128.1,"pm2_5":75.0,"mosquito_risk":3,"arthritis_risk":5,"migraine_risk":7,"frizz_risk":1,"updated_at":"2026-03-13T02:09:35.055972+05:30"},{"city":"Bhubaneswar","state":"Odisha","latitude":20.2961,"longitude":85.8245,"temp":25.5,"humidity":92,"rain":0.0,"pressure":1002.8,"uv_index":8.4,"wind_gusts":36.4,"aqi":124,"pm10":35.9,"pm2_5":31.1,"mosquito_risk":7,"arthritis_risk":5,"migraine_risk":4,"frizz_risk":1,"updated_at":"2026-03-13T02:09:35.055978+05:30"},{"city":"Cuttack","state":"Odisha","latitude":20.4625,"longitude":85.8828,"temp":25.3,"humidity":94,"rain":0.0,"pressure":1004.8,"uv_index":8.4,"wind_gusts":30.2,"aqi":124,"pm10":35.9,"pm2_5":31.1,"mosquito_risk":7,"arthritis_risk":5,"migraine_risk":4,"frizz_risk":1,"updated_at":"2026-03-13T02:09:35.055984+05:30"},{"city":"Rourkela","state":"Odisha","latitude":22.2604,"longitude":84.8536,"temp":25.1,"humidity":60,"rain":0.0,"pressure":984.8,"uv_index":8.0,"wind_gusts":25.6,"aqi":150,"pm10":89.4,"pm2_5":39.8,"mosquito_risk":4,"arthritis_risk":5,"migraine_risk":7,"frizz_risk":1,"updated_at":"2026-03-13T02:09:35.055990+05:30"},{"city":"Raipur","state":"Chhattisgarh","latitude":21.2514,"longitude":81.6296,"temp":24.3,"humidity":47,"rain":0.0,"pressure":973.8,"uv_index":8.15,"wind_gusts":15.5,"aqi":154,"pm10":73.6,"pm2_5":54.8,"mosquito_risk":0,"arthritis_risk":5,"migraine_risk":7,"frizz_risk":0,"updated_at":"2026-03-13T02:09:35.055996+05:30"},{"city":"Bhilai","state":"Chhattisgarh","latitude":21.1938,"longitude":81.3509,"temp":23.4,"humidity":47,"rain":0.0,"pressure":974.2,"uv_index":8.15,"wind_gusts":12.2,"aqi":145,"pm10":79.6,"pm2_5":59.8,"mosquito_risk":0,"arthritis_risk":5,"migraine_risk":7,"frizz_risk":0,"updated_at":"2026-03-13T02:09:35.056002+05:30"},{"city":"Guwahati","state":"Assam","latitude":26.1158,"longitude":91.7086,"temp":23.5,"humidity":93,"rain":0.0,"pressure":1002.7,"uv_index":7.25,"wind_gusts":28.4,"aqi":154,"pm10":69.8,"pm2_5":66.4,"mosquito_risk":3,"arthritis_risk":5,"migraine_risk":4,"frizz_risk":1,"updated_at":"2026-03-13T02:09:35.056008+05:30"},{"city":"Agartala","state":"Tripura","latitude":23.8315,"longitude":91.2868,"temp":21.6,"humidity":92,"rain":0.0,"pressure":1007.2,"uv_index":7.7,"wind_gusts":25.9,"aqi":152,"pm10":46.4,"pm2_5":43.9,"mosquito_risk":3,"arthritis_risk":5,"migraine_risk":4,"frizz_risk":1,"updated_at":"2026-03-13T02:09:35.056014+05:30"},{"city":"Shillong","state":"Meghalaya","latitude":25.5788,"longitude":91.8933,"temp":12.3,"humidity":92,"rain":0.0,"pressure":855.0,"uv_index":6.9,"wind_gusts":57.2,"aqi":151,"pm10":69.8,"pm2_5":63.8,"mosquito_risk":3,"arthritis_risk":10,"migraine_risk":7,"frizz_risk":0,"updated_at":"2026-03-13T02:09:35.056020+05:30"},{"city":"Imphal","state":"Manipur","latitude":24.817,"longitude":93.9368,"temp":16.3,"humidity":94,"rain":0.0,"pressure":924.3,"uv_index":7.8,"wind_gusts":69.5,"aqi":166,"pm10":74.0,"pm2_5":71.0,"mosquito_risk":3,"arthritis_risk":10,"migraine_risk":7,"frizz_risk":0,"updated_at":"2026-03-13T02:09:35.056027+05:30"},{"city":"Aizawl","state":"Mizoram","latitude":23.7271,"longitude":92.7176,"temp":16.0,"humidity":87,"rain":0.0,"pressure":892.6,"uv_index":6.8,"wind_gusts":66.2,"aqi":182,"pm10":126.2,"pm2_5":115.9,"mosquito_risk":3,"arthritis_risk":10,"migraine_risk":7,"frizz_risk":0,"updated_at":"2026-03-13T02:09:35.056033+05:30"},{"city":"Kohima","state":"Nagaland","latitude":25.6701,"longitude":94.1077,"temp":14.2,"humidity":86,"rain":0.0,"pressure":854.5,"uv_index":5.95,"wind_gusts":78.1,"aqi":151,"pm10":52.7,"pm2_5":50.3,"mosquito_risk":3,"arthritis_risk":10,"migraine_risk":3,"frizz_risk":0,"updated_at":"2026-03-13T02:09:35.056040+05:30"},{"city":"Gangtok","state":"Sikkim","latitude":27.3314,"longitude":88.6138,"temp":14.0,"humidity":96,"rain":0.0,"pressure":836.7,"uv_index":6.45,"wind_gusts":17.6,"aqi":89,"pm10":35.6,"pm2_5":32.9,"mosquito_risk":3,"arthritis_risk":10,"migraine_risk":7,"frizz_risk":0,"updated_at":"2026-03-13T02:09:35.056045+05:30"},{"city":"Siliguri","state":"West Bengal","latitude":26.7271,"longitude":88.3953,"temp":19.6,"humidity":83,"rain":0.0,"pressure":995.1,"uv_index":7.4,"wind_gusts":29.2,"aqi":159,"pm10":66.6,"pm2_5":60.3,"mosquito_risk":3,"arthritis_risk":10,"migraine_risk":7,"frizz_risk":1,"updated_at":"2026-03-13T02:09:38.372143+05:30"},{"city":"Durgapur","state":"West Bengal","latitude":23.5204,"longitude":87.3119,"temp":24.5,"humidity":92,"rain":0.0,"pressure":995.7,"uv_index":7.9,"wind_gusts":23.8,"aqi":182,"pm10":95.2,"pm2_5":89.4,"mosquito_risk":3,"arthritis_risk":5,"migraine_risk":7,"frizz_risk":1,"updated_at":"2026-03-13T02:09:38.372181+05:30"},{"city":"Asansol","state":"West Bengal","latitude":23.6739,"longitude":86.9524,"temp":24.9,"humidity":91,"rain":0.0,"pressure":994.1,"uv_index":7.95,"wind_gusts":23.0,"aqi":180,"pm10":90.1,"pm2_5":85.2,"mosquito_risk":3,"arthritis_risk":5,"migraine_risk":7,"frizz_risk":1,"updated_at":"2026-03-13T02:09:38.372219+05:30"},{"city":"Pondicherry","state":"Puducherry","latitude":11.9139,"longitude":79.8145,"temp":23.7,"humidity":99,"rain":0.0,"pressure":1008.9,"uv_index":9.05,"wind_gusts":28.4,"aqi":70,"pm10":23.1,"pm2_5":18.5,"mosquito_risk":3,"arthritis_risk":0,"migraine_risk":4,"frizz_risk":1,"updated_at":"2026-03-13T02:09:38.372228+05:30"},{"city":"Port Blair","state":"Andaman and Nicobar Islands","latitude":11.6234,"longitude":92.7265,"temp":27.3,"humidity":84,"rain":0.0,"pressure":1006.8,"uv_index":8.95,"wind_gusts":23.8,"aqi":47,"pm10":16.0,"pm2_5":13.1,"mosquito_risk":7,"arthritis_risk":5,"migraine_risk":4,"frizz_risk":1,"updated_at":"2026-03-13T02:09:38.372237+05:30"},{"city":"Haridwar","state":"Uttarakhand","latitude":29.9457,"longitude":78.1642,"temp":19.0,"humidity":72,"rain":0.0,"pressure":974.8,"uv_index":5.3,"wind_gusts":26.3,"aqi":105,"pm10":74.0,"pm2_5":45.6,"mosquito_risk":3,"arthritis_risk":5,"migraine_risk":3,"frizz_risk":0,"updated_at":"2026-03-13T02:09:38.372244+05:30"},{"city":"Rishikesh","state":"Uttarakhand","latitude":30.0869,"longitude":78.2676,"temp":18.9,"humidity":58,"rain":0.0,"pressure":967.7,"uv_index":5.65,"wind_gusts":24.8,"aqi":78,"pm10":42.5,"pm2_5":26.8,"mosquito_risk":0,"arthritis_risk":5,"migraine_risk":3,"frizz_risk":0,"updated_at":"2026-03-13T02:09:38.372251+05:30"},{"city":"Nainital","state":"Uttarakhand","latitude":29.3919,"longitude":79.4542,"temp":18.6,"humidity":44,"rain":0.0,"pressure":806.3,"uv_index":6.35,"wind_gusts":46.8,"aqi":92,"pm10":89.6,"pm2_5":36.1,"mosquito_risk":0,"arthritis_risk":5,"migraine_risk":7,"frizz_risk":0,"updated_at":"2026-03-13T02:09:38.372258+05:30"},{"city":"Mussoorie","state":"Uttarakhand","latitude":30.4599,"longitude":78.0664,"temp":15.5,"humidity":45,"rain":0.0,"pressure":802.7,"uv_index":5.45,"wind_gusts":29.5,"aqi":83,"pm10":35.3,"pm2_5":28.9,"mosquito_risk":0,"arthritis_risk":5,"migraine_risk":3,"frizz_risk":0,"updated_at":"2026-03-13T02:09:38.372265+05:30"},{"city":"Dharamshala","state":"Himachal Pradesh","latitude":32.219,"longitude":76.3234,"temp":17.8,"humidity":47,"rain":0.0,"pressure":869.7,"uv_index":5.9,"wind_gusts":25.2,"aqi":48,"pm10":8.5,"pm2_5":4.6,"mosquito_risk":0,"arthritis_risk":5,"migraine_risk":3,"frizz_risk":0,"updated_at":"2026-03-13T02:09:38.372271+05:30"},{"city":"Dalhousie","state":"Himachal Pradesh","latitude":32.5387,"longitude":75.971,"temp":14.2,"humidity":50,"rain":0.0,"pressure":803.8,"uv_index":6.1,"wind_gusts":30.6,"aqi":68,"pm10":22.5,"pm2_5":17.2,"mosquito_risk":0,"arthritis_risk":5,"migraine_risk":7,"frizz_risk":0,"updated_at":"2026-03-13T02:09:38.372278+05:30"},{"city":"Patiala","state":"Punjab","latitude":30.3398,"longitude":76.3869,"temp":18.9,"humidity":86,"rain":0.0,"pressure":979.6,"uv_index":4.95,"wind_gusts":23.0,"aqi":155,"pm10":400.5,"pm2_5":70.8,"mosquito_risk":3,"arthritis_risk":10,"migraine_risk":3,"frizz_risk":1,"updated_at":"2026-03-13T02:09:38.372285+05:30"},{"city":"Bhatinda","state":"Punjab","latitude":30.211,"longitude":74.9455,"temp":19.3,"humidity":88,"rain":0.0,"pressure":985.7,"uv_index":5.9,"wind_gusts":25.2,"aqi":152,"pm10":71.2,"pm2_5":44.8,"mosquito_risk":3,"arthritis_risk":10,"migraine_risk":3,"frizz_risk":1,"updated_at":"2026-03-13T02:09:38.372292+05:30"},{"city":"Rohtak","state":"Haryana","latitude":28.8955,"longitude":76.6066,"temp":20.2,"humidity":88,"rain":0.0,"pressure":983.1,"uv_index":4.85,"wind_gusts":23.8,"aqi":281,"pm10":439.6,"pm2_5":99.7,"mosquito_risk":3,"arthritis_risk":5,"migraine_risk":3,"frizz_risk":1,"updated_at":"2026-03-13T02:09:38.372299+05:30"},{"city":"Panipat","state":"Haryana","latitude":29.3909,"longitude":76.9635,"temp":19.5,"humidity":87,"rain":0.0,"pressure":981.3,"uv_index":4.6,"wind_gusts":23.4,"aqi":366,"pm10":774.9,"pm2_5":127.1,"mosquito_risk":3,"arthritis_risk":10,"migraine_risk":3,"frizz_risk":1,"updated_at":"2026-03-13T02:09:38.372306+05:30"},{"city":"Mathura","state":"Uttar Pradesh","latitude":27.4924,"longitude":77.6737,"temp":20.3,"humidity":63,"rain":0.0,"pressure":987.6,"uv_index":6.4,"wind_gusts":24.8,"aqi":226,"pm10":225.8,"pm2_5":74.7,"mosquito_risk":3,"arthritis_risk":5,"migraine_risk":7,"frizz_risk":0,"updated_at":"2026-03-13T02:09:38.372312+05:30"},{"city":"Vrindavan","state":"Uttar Pradesh","latitude":27.5823,"longitude":77.7027,"temp":18.2,"humidity":78,"rain":0.0,"pressure":988.1,"uv_index":6.1,"wind_gusts":25.9,"aqi":226,"pm10":225.8,"pm2_5":74.7,"mosquito_risk":3,"arthritis_risk":5,"migraine_risk":7,"frizz_risk":0,"updated_at":"2026-03-13T02:09:38.372318+05:30"},{"city":"Ayodhya","state":"Uttar Pradesh","latitude":26.7922,"longitude":82.1998,"temp":21.0,"humidity":72,"rain":0.0,"pressure":995.1,"uv_index":6.35,"wind_gusts":28.8,"aqi":153,"pm10":169.5,"pm2_5":80.8,"mosquito_risk":3,"arthritis_risk":5,"migraine_risk":7,"frizz_risk":0,"updated_at":"2026-03-13T02:09:38.372324+05:30"},{"city":"Ratlam","state":"Madhya Pradesh","latitude":23.3315,"longitude":75.0367,"temp":24.0,"humidity":31,"rain":0.0,"pressure":954.8,"uv_index":7.6,"wind_gusts":25.6,"aqi":72,"pm10":15.7,"pm2_5":14.1,"mosquito_risk":0,"arthritis_risk":5,"migraine_risk":7,"frizz_risk":0,"updated_at":"2026-03-13T02:09:38.372331+05:30"},{"city":"Sagar","state":"Madhya Pradesh","latitude":23.8388,"longitude":78.7378,"temp":22.5,"humidity":41,"rain":0.0,"pressure":950.2,"uv_index":7.6,"wind_gusts":25.9,"aqi":56,"pm10":26.1,"pm2_5":21.0,"mosquito_risk":0,"arthritis_risk":5,"migraine_risk":7,"frizz_risk":0,"updated_at":"2026-03-13T02:09:38.372337+05:30"},{"city":"Satna","state":"Madhya Pradesh","latitude":24.6005,"longitude":80.8322,"temp":23.2,"humidity":44,"rain":0.0,"pressure":971.6,"uv_index":7.4,"wind_gusts":29.5,"aqi":59,"pm10":28.9,"pm2_5":22.6,"mosquito_risk":0,"arthritis_risk":5,"migraine_risk":7,"frizz_risk":0,"updated_at":"2026-03-13T02:09:38.372343+05:30"},{"city":"Akola","state":"Maharashtra","latitude":20.7002,"longitude":77.0082,"temp":23.8,"humidity":57,"rain":0.0,"pressure":974.5,"uv_index":8.05,"wind_gusts":18.7,"aqi":93,"pm10":42.1,"pm2_5":34.9,"mosquito_risk":0,"arthritis_risk":5,"migraine_risk":7,"frizz_risk":0,"updated_at":"2026-03-13T02:09:38.372350+05:30"},{"city":"Amravati","state":"Maharashtra","latitude":20.9374,"longitude":77.7796,"temp":22.4,"humidity":54,"rain":0.0,"pressure":966.4,"uv_index":8.0,"wind_gusts":20.5,"aqi":97,"pm10":49.9,"pm2_5":41.4,"mosquito_risk":0,"arthritis_risk":5,"migraine_risk":7,"frizz_risk":0,"updated_at":"2026-03-13T02:09:38.372357+05:30"},{"city":"Latur","state":"Maharashtra","latitude":18.4088,"longitude":76.5604,"temp":23.7,"humidity":47,"rain":0.0,"pressure":938.9,"uv_index":8.5,"wind_gusts":23.4,"aqi":88,"pm10":46.8,"pm2_5":40.9,"mosquito_risk":0,"arthritis_risk":5,"migraine_risk":7,"frizz_risk":0,"updated_at":"2026-03-13T02:09:38.372363+05:30"},{"city":"Nanded","state":"Maharashtra","latitude":19.1383,"longitude":77.3091,"temp":26.0,"humidity":50,"rain":0.0,"pressure":967.8,"uv_index":8.3,"wind_gusts":14.0,"aqi":101,"pm10":68.9,"pm2_5":63.1,"mosquito_risk":4,"arthritis_risk":5,"migraine_risk":7,"frizz_risk":0,"updated_at":"2026-03-13T02:09:38.372369+05:30"},{"city":"Gulbarga","state":"Karnataka","latitude":17.3297,"longitude":76.8343,"temp":27.6,"humidity":47,"rain":0.0,"pressure":958.1,"uv_index":8.6,"wind_gusts":34.2,"aqi":94,"pm10":36.4,"pm2_5":30.9,"mosquito_risk":4,"arthritis_risk":5,"migraine_risk":7,"frizz_risk":0,"updated_at":"2026-03-13T02:09:38.372375+05:30"},{"city":"Bidar","state":"Karnataka","latitude":17.9104,"longitude":77.5199,"temp":24.8,"humidity":50,"rain":0.0,"pressure":934.9,"uv_index":8.55,"wind_gusts":31.3,"aqi":99,"pm10":45.6,"pm2_5":38.6,"mosquito_risk":0,"arthritis_risk":5,"migraine_risk":7,"frizz_risk":0,"updated_at":"2026-03-13T02:09:38.372381+05:30"},{"city":"Hospet","state":"Karnataka","latitude":15.2689,"longitude":76.3909,"temp":26.7,"humidity":51,"rain":0.0,"pressure":955.2,"uv_index":8.9,"wind_gusts":23.0,"aqi":78,"pm10":43.0,"pm2_5":37.0,"mosquito_risk":4,"arthritis_risk":5,"migraine_risk":7,"frizz_risk":0,"updated_at":"2026-03-13T02:09:38.372387+05:30"},{"city":"Tirupur","state":"Tamil Nadu","latitude":11.1085,"longitude":77.3411,"temp":25.1,"humidity":76,"rain":0.0,"pressure":975.5,"uv_index":9.25,"wind_gusts":29.5,"aqi":79,"pm10":28.0,"pm2_5":27.2,"mosquito_risk":7,"arthritis_risk":5,"migraine_risk":7,"frizz_risk":1,"updated_at":"2026-03-13T02:09:38.372393+05:30"},{"city":"Alappuzha","state":"Kerala","latitude":9.4981,"longitude":76.3388,"temp":27.2,"humidity":85,"rain":0.0,"pressure":1008.4,"uv_index":9.1,"wind_gusts":27.7,"aqi":86,"pm10":38.8,"pm2_5":36.3,"mosquito_risk":7,"arthritis_risk":0,"migraine_risk":4,"frizz_risk":1,"updated_at":"2026-03-13T02:09:38.372399+05:30"},{"city":"Munnar","state":"Kerala","latitude":10.0889,"longitude":77.0595,"temp":19.1,"humidity":80,"rain":0.0,"pressure":855.3,"uv_index":9.55,"wind_gusts":27.0,"aqi":70,"pm10":27.9,"pm2_5":27.0,"mosquito_risk":3,"arthritis_risk":5,"migraine_risk":7,"frizz_risk":0,"updated_at":"2026-03-13T02:09:38.372406+05:30"},{"city":"Silchar","state":"Assam","latitude":24.8333,"longitude":92.7789,"temp":21.6,"humidity":94,"rain":0.0,"pressure":1007.4,"uv_index":7.75,"wind_gusts":34.2,"aqi":179,"pm10":131.8,"pm2_5":122.9,"mosquito_risk":3,"arthritis_risk":5,"migraine_risk":4,"frizz_risk":1,"updated_at":"2026-03-13T02:09:38.372412+05:30"},{"city":"Dibrugarh","state":"Assam","latitude":27.4728,"longitude":94.912,"temp":22.1,"humidity":86,"rain":0.0,"pressure":997.5,"uv_index":3.6,"wind_gusts":24.8,"aqi":115,"pm10":32.5,"pm2_5":31.3,"mosquito_risk":3,"arthritis_risk":5,"migraine_risk":3,"frizz_risk":1,"updated_at":"2026-03-13T02:09:38.372418+05:30"}]