[{"city":"Delhi","state":"Delhi","latitude":28.6139,"longitude":77.209,"temp":28.3,"humidity":77,"rain":0.0,"pressure":977.8,"uv_index":7.8,"wind_gusts":27.7,"aqi":254,"pm10":489.9,"pm2_5":138.3,"no2":67.2,"co":793.0,"o3":16.0,"so2":29.1,"mosquito_risk":7,"arthritis_risk":5,"migraine_risk":7,"frizz_risk":1,"updated_at":"2026-06-14T23:45:49.525691+05:30"},{"city":"Mumbai","state":"Maharashtra","latitude":19.076,"longitude":72.8777,"temp":29.8,"humidity":74,"rain":0.0,"pressure":1008.3,"uv_index":7.7,"wind_gusts":49.3,"aqi":66,"pm10":32.1,"pm2_5":15.5,"no2":3.3,"co":137.0,"o3":49.0,"so2":2.8,"mosquito_risk":7,"arthritis_risk":0,"migraine_risk":4,"frizz_risk":1,"updated_at":"2026-06-14T23:45:49.525733+05:30"},{"city":"Bangalore","state":"Karnataka","latitude":12.9716,"longitude":77.5946,"temp":21.8,"humidity":90,"rain":0.0,"pressure":912.0,"uv_index":7.85,"wind_gusts":41.8,"aqi":46,"pm10":11.2,"pm2_5":9.2,"no2":16.8,"co":337.0,"o3":38.0,"so2":5.2,"mosquito_risk":3,"arthritis_risk":5,"migraine_risk":7,"frizz_risk":1,"updated_at":"2026-06-14T23:45:49.525750+05:30"},{"city":"Hyderabad","state":"Telangana","latitude":17.385,"longitude":78.4867,"temp":26.8,"humidity":67,"rain":0.0,"pressure":950.8,"uv_index":3.85,"wind_gusts":40.3,"aqi":84,"pm10":100.1,"pm2_5":57.2,"no2":45.3,"co":959.0,"o3":24.0,"so2":12.6,"mosquito_risk":7,"arthritis_risk":5,"migraine_risk":3,"frizz_risk":1,"updated_at":"2026-06-14T23:45:49.525759+05:30"},{"city":"Chennai","state":"Tamil Nadu","latitude":13.0827,"longitude":80.2707,"temp":29.0,"humidity":71,"rain":0.0,"pressure":1005.5,"uv_index":8.9,"wind_gusts":43.6,"aqi":78,"pm10":32.5,"pm2_5":21.1,"no2":10.9,"co":263.0,"o3":90.0,"so2":7.8,"mosquito_risk":7,"arthritis_risk":5,"migraine_risk":4,"frizz_risk":1,"updated_at":"2026-06-14T23:45:49.525768+05:30"},{"city":"Kolkata","state":"West Bengal","latitude":22.5726,"longitude":88.3639,"temp":27.7,"humidity":92,"rain":0.0,"pressure":1001.6,"uv_index":9.0,"wind_gusts":41.4,"aqi":120,"pm10":45.3,"pm2_5":41.9,"no2":15.9,"co":474.0,"o3":73.0,"so2":9.8,"mosquito_risk":7,"arthritis_risk":5,"migraine_risk":4,"frizz_risk":1,"updated_at":"2026-06-14T23:45:49.525775+05:30"},{"city":"Pune","state":"Maharashtra","latitude":18.5204,"longitude":73.8567,"temp":25.0,"humidity":83,"rain":0.0,"pressure":948.2,"uv_index":8.3,"wind_gusts":53.3,"aqi":55,"pm10":17.6,"pm2_5":10.9,"no2":7.8,"co":145.0,"o3":43.0,"so2":8.4,"mosquito_risk":7,"arthritis_risk":5,"migraine_risk":7,"frizz_risk":1,"updated_at":"2026-06-14T23:45:49.525782+05:30"},{"city":"Ahmedabad","state":"Gujarat","latitude":23.0225,"longitude":72.5714,"temp":31.7,"humidity":53,"rain":0.0,"pressure":999.6,"uv_index":8.05,"wind_gusts":46.8,"aqi":68,"pm10":35.5,"pm2_5":15.7,"no2":3.2,"co":121.0,"o3":57.0,"so2":3.0,"mosquito_risk":0,"arthritis_risk":5,"migraine_risk":7,"frizz_risk":1,"updated_at":"2026-06-14T23:45:49.525789+05:30"},{"city":"Jaipur","state":"Rajasthan","latitude":26.9124,"longitude":75.7873,"temp":27.0,"humidity":70,"rain":0.0,"pressure":955.9,"uv_index":8.2,"wind_gusts":36.7,"aqi":132,"pm10":107.8,"pm2_5":46.3,"no2":10.1,"co":256.0,"o3":61.0,"so2":5.6,"mosquito_risk":7,"arthritis_risk":5,"migraine_risk":7,"frizz_risk":1,"updated_at":"2026-06-14T23:45:49.525800+05:30"},{"city":"Lucknow","state":"Uttar Pradesh","latitude":26.8467,"longitude":80.9462,"temp":29.1,"humidity":73,"rain":0.0,"pressure":988.7,"uv_index":8.35,"wind_gusts":30.2,"aqi":158,"pm10":351.1,"pm2_5":105.0,"no2":27.6,"co":391.0,"o3":52.0,"so2":11.8,"mosquito_risk":7,"arthritis_risk":5,"migraine_risk":7,"frizz_risk":1,"updated_at":"2026-06-14T23:45:49.525807+05:30"},{"city":"Kanpur","state":"Uttar Pradesh","latitude":26.4499,"longitude":80.3319,"temp":33.0,"humidity":44,"rain":0.0,"pressure":987.0,"uv_index":8.3,"wind_gusts":34.9,"aqi":225,"pm10":476.8,"pm2_5":114.6,"no2":36.9,"co":528.0,"o3":41.0,"so2":11.8,"mosquito_risk":0,"arthritis_risk":5,"migraine_risk":7,"frizz_risk":1,"updated_at":"2026-06-14T23:45:49.525813+05:30"},{"city":"Chandigarh","state":"Chandigarh","latitude":30.7333,"longitude":76.7794,"temp":25.5,"humidity":66,"rain":0.0,"pressure":963.2,"uv_index":7.8,"wind_gusts":21.6,"aqi":87,"pm10":52.3,"pm2_5":43.5,"no2":41.5,"co":512.0,"o3":53.0,"so2":14.8,"mosquito_risk":7,"arthritis_risk":5,"migraine_risk":7,"frizz_risk":1,"updated_at":"2026-06-14T23:45:49.525820+05:30"},{"city":"Srinagar","state":"Jammu and Kashmir","latitude":34.0837,"longitude":74.7973,"temp":16.5,"humidity":83,"rain":0.0,"pressure":838.6,"uv_index":9.0,"wind_gusts":18.0,"aqi":70,"pm10":46.3,"pm2_5":42.1,"no2":32.2,"co":712.0,"o3":31.0,"so2":2.5,"mosquito_risk":3,"arthritis_risk":10,"migraine_risk":7,"frizz_risk":0,"updated_at":"2026-06-14T23:45:49.525829+05:30"},{"city":"Jammu","state":"Jammu and Kashmir","latitude":32.7266,"longitude":74.857,"temp":28.0,"humidity":45,"rain":0.0,"pressure":967.1,"uv_index":8.6,"wind_gusts":26.3,"aqi":76,"pm10":45.1,"pm2_5":39.5,"no2":49.0,"co":432.0,"o3":26.0,"so2":5.8,"mosquito_risk":4,"arthritis_risk":5,"migraine_risk":7,"frizz_risk":0,"updated_at":"2026-06-14T23:45:49.525836+05:30"},{"city":"Amritsar","state":"Punjab","latitude":31.634,"longitude":74.8723,"temp":28.1,"humidity":68,"rain":0.0,"pressure":975.0,"uv_index":8.4,"wind_gusts":19.1,"aqi":102,"pm10":92.2,"pm2_5":77.5,"no2":74.5,"co":805.0,"o3":27.0,"so2":13.3,"mosquito_risk":7,"arthritis_risk":5,"migraine_risk":7,"frizz_risk":1,"updated_at":"2026-06-14T23:45:49.525842+05:30"},{"city":"Ludhiana","state":"Punjab","latitude":30.901,"longitude":75.8573,"temp":28.1,"humidity":69,"rain":0.0,"pressure":973.0,"uv_index":8.05,"wind_gusts":18.4,"aqi":109,"pm10":117.1,"pm2_5":68.7,"no2":53.3,"co":726.0,"o3":24.0,"so2":9.5,"mosquito_risk":7,"arthritis_risk":5,"migraine_risk":7,"frizz_risk":1,"updated_at":"2026-06-14T23:45:49.525848+05:30"},{"city":"Jalandhar","state":"Punjab","latitude":31.326,"longitude":75.5762,"temp":27.9,"humidity":72,"rain":0.0,"pressure":974.0,"uv_index":8.2,"wind_gusts":22.3,"aqi":98,"pm10":59.8,"pm2_5":48.1,"no2":40.0,"co":793.0,"o3":43.0,"so2":6.9,"mosquito_risk":7,"arthritis_risk":5,"migraine_risk":7,"frizz_risk":1,"updated_at":"2026-06-14T23:45:49.525855+05:30"},{"city":"Dehradun","state":"Uttarakhand","latitude":30.6284,"longitude":78.0322,"temp":14.8,"humidity":88,"rain":0.0,"pressure":825.9,"uv_index":8.3,"wind_gusts":32.8,"aqi":48,"pm10":19.4,"pm2_5":12.2,"no2":19.8,"co":232.0,"o3":56.0,"so2":0.7,"mosquito_risk":3,"arthritis_risk":10,"migraine_risk":7,"frizz_risk":0,"updated_at":"2026-06-14T23:45:49.525861+05:30"},{"city":"Shimla","state":"Himachal Pradesh","latitude":31.1048,"longitude":77.1734,"temp":12.5,"humidity":80,"rain":0.0,"pressure":779.9,"uv_index":8.35,"wind_gusts":33.8,"aqi":75,"pm10":31.8,"pm2_5":26.7,"no2":22.3,"co":287.0,"o3":50.0,"so2":0.1,"mosquito_risk":3,"arthritis_risk":5,"migraine_risk":7,"frizz_risk":0,"updated_at":"2026-06-14T23:45:49.525870+05:30"},{"city":"Manali","state":"Himachal Pradesh","latitude":32.2396,"longitude":77.1887,"temp":13.2,"humidity":78,"rain":0.0,"pressure":814.0,"uv_index":10.0,"wind_gusts":42.5,"aqi":58,"pm10":4.2,"pm2_5":3.8,"no2":32.1,"co":256.0,"o3":78.0,"so2":0.0,"mosquito_risk":3,"arthritis_risk":5,"migraine_risk":7,"frizz_risk":0,"updated_at":"2026-06-14T23:45:49.525876+05:30"},{"city":"Gurgaon","state":"Haryana","latitude":28.4595,"longitude":77.0266,"temp":28.6,"humidity":66,"rain":0.0,"pressure":976.3,"uv_index":7.85,"wind_gusts":29.5,"aqi":413,"pm10":245.9,"pm2_5":93.6,"no2":47.0,"co":973.0,"o3":32.0,"so2":19.9,"mosquito_risk":7,"arthritis_risk":5,"migraine_risk":7,"frizz_risk":1,"updated_at":"2026-06-14T23:45:49.525884+05:30"},{"city":"Noida","state":"Uttar Pradesh","latitude":28.5355,"longitude":77.391,"temp":28.8,"humidity":68,"rain":0.0,"pressure":979.4,"uv_index":7.85,"wind_gusts":26.3,"aqi":413,"pm10":245.9,"pm2_5":93.6,"no2":47.0,"co":1368.0,"o3":32.0,"so2":19.9,"mosquito_risk":7,"arthritis_risk":5,"migraine_risk":7,"frizz_risk":1,"updated_at":"2026-06-14T23:45:49.525891+05:30"},{"city":"Ghaziabad","state":"Uttar Pradesh","latitude":28.6692,"longitude":77.4538,"temp":28.0,"humidity":73,"rain":0.0,"pressure":977.5,"uv_index":7.8,"wind_gusts":25.9,"aqi":197,"pm10":444.2,"pm2_5":132.2,"no2":48.1,"co":678.0,"o3":35.0,"so2":20.0,"mosquito_risk":7,"arthritis_risk":5,"migraine_risk":7,"frizz_risk":1,"updated_at":"2026-06-14T23:45:49.525897+05:30"},{"city":"Faridabad","state":"Haryana","latitude":28.4089,"longitude":77.3178,"temp":29.0,"humidity":68,"rain":0.0,"pressure":978.7,"uv_index":7.85,"wind_gusts":31.0,"aqi":413,"pm10":245.9,"pm2_5":93.6,"no2":47.0,"co":1215.0,"o3":32.0,"so2":19.9,"mosquito_risk":7,"arthritis_risk":5,"migraine_risk":7,"frizz_risk":1,"updated_at":"2026-06-14T23:45:49.525904+05:30"},{"city":"Meerut","state":"Uttar Pradesh","latitude":28.9845,"longitude":77.7064,"temp":27.9,"humidity":68,"rain":0.0,"pressure":976.2,"uv_index":7.7,"wind_gusts":30.6,"aqi":197,"pm10":444.2,"pm2_5":132.2,"no2":48.1,"co":519.0,"o3":35.0,"so2":20.0,"mosquito_risk":7,"arthritis_risk":5,"migraine_risk":7,"frizz_risk":1,"updated_at":"2026-06-14T23:45:49.525911+05:30"},{"city":"Agra","state":"Uttar Pradesh","latitude":27.1767,"longitude":78.0081,"temp":30.8,"humidity":46,"rain":0.0,"pressure":983.3,"uv_index":8.15,"wind_gusts":32.8,"aqi":317,"pm10":855.0,"pm2_5":132.2,"no2":18.0,"co":196.0,"o3":53.0,"so2":5.8,"mosquito_risk":0,"arthritis_risk":5,"migraine_risk":7,"frizz_risk":1,"updated_at":"2026-06-14T23:45:49.525918+05:30"},{"city":"Varanasi","state":"Uttar Pradesh","latitude":25.3176,"longitude":82.9739,"temp":31.5,"humidity":56,"rain":0.0,"pressure":992.8,"uv_index":8.8,"wind_gusts":37.1,"aqi":166,"pm10":162.5,"pm2_5":82.7,"no2":42.8,"co":652.0,"o3":56.0,"so2":20.7,"mosquito_risk":0,"arthritis_risk":5,"migraine_risk":7,"frizz_risk":1,"updated_at":"2026-06-14T23:45:49.525927+05:30"},{"city":"Prayagraj","state":"Uttar Pradesh","latitude":25.4358,"longitude":81.8463,"temp":32.2,"humidity":51,"rain":0.0,"pressure":991.3,"uv_index":8.7,"wind_gusts":35.3,"aqi":163,"pm10":197.9,"pm2_5":95.7,"no2":57.9,"co":802.0,"o3":30.0,"so2":22.7,"mosquito_risk":0,"arthritis_risk":5,"migraine_risk":7,"frizz_risk":1,"updated_at":"2026-06-14T23:45:49.525934+05:30"},{"city":"Gorakhpur","state":"Uttar Pradesh","latitude":26.7606,"longitude":83.3732,"temp":28.2,"humidity":74,"rain":0.0,"pressure":992.3,"uv_index":8.7,"wind_gusts":29.2,"aqi":152,"pm10":104.8,"pm2_5":83.4,"no2":58.4,"co":514.0,"o3":29.0,"so2":21.2,"mosquito_risk":7,"arthritis_risk":5,"migraine_risk":7,"frizz_risk":1,"updated_at":"2026-06-14T23:45:49.525943+05:30"},{"city":"Bareilly","state":"Uttar Pradesh","latitude":28.367,"longitude":79.4304,"temp":27.3,"humidity":74,"rain":0.0,"pressure":981.8,"uv_index":8.15,"wind_gusts":35.3,"aqi":158,"pm10":174.2,"pm2_5":78.9,"no2":29.4,"co":359.0,"o3":59.0,"so2":13.6,"mosquito_risk":7,"arthritis_risk":5,"migraine_risk":7,"frizz_risk":1,"updated_at":"2026-06-14T23:45:49.525949+05:30"},{"city":"Aligarh","state":"Uttar Pradesh","latitude":27.8974,"longitude":78.088,"temp":28.9,"humidity":63,"rain":0.0,"pressure":980.6,"uv_index":8.0,"wind_gusts":36.7,"aqi":374,"pm10":287.8,"pm2_5":100.8,"no2":27.3,"co":410.0,"o3":60.0,"so2":11.8,"mosquito_risk":7,"arthritis_risk":5,"migraine_risk":7,"frizz_risk":1,"updated_at":"2026-06-14T23:45:49.525955+05:30"},{"city":"Moradabad","state":"Uttar Pradesh","latitude":28.8386,"longitude":78.7733,"temp":27.6,"humidity":76,"rain":0.0,"pressure":978.6,"uv_index":7.95,"wind_gusts":38.5,"aqi":162,"pm10":262.6,"pm2_5":126.7,"no2":63.9,"co":542.0,"o3":17.0,"so2":18.5,"mosquito_risk":7,"arthritis_risk":5,"migraine_risk":7,"frizz_risk":1,"updated_at":"2026-06-14T23:45:49.525962+05:30"},{"city":"Saharanpur","state":"Uttar Pradesh","latitude":29.9637,"longitude":77.546,"temp":26.5,"humidity":72,"rain":0.0,"pressure":970.3,"uv_index":7.55,"wind_gusts":27.7,"aqi":152,"pm10":112.5,"pm2_5":70.1,"no2":45.2,"co":687.0,"o3":35.0,"so2":15.7,"mosquito_risk":7,"arthritis_risk":5,"migraine_risk":7,"frizz_risk":1,"updated_at":"2026-06-14T23:45:49.525969+05:30"},{"city":"Jhansi","state":"Uttar Pradesh","latitude":25.4484,"longitude":78.5685,"temp":29.6,"humidity":54,"rain":0.0,"pressure":974.4,"uv_index":8.5,"wind_gusts":54.0,"aqi":90,"pm10":79.6,"pm2_5":34.9,"no2":4.0,"co":139.0,"o3":69.0,"so2":2.2,"mosquito_risk":4,"arthritis_risk":5,"migraine_risk":7,"frizz_risk":1,"updated_at":"2026-06-14T23:45:52.813520+05:30"},{"city":"Surat","state":"Gujarat","latitude":21.1702,"longitude":72.8311,"temp":30.0,"humidity":80,"rain":0.0,"pressure":1005.1,"uv_index":7.55,"wind_gusts":57.2,"aqi":73,"pm10":34.9,"pm2_5":20.1,"no2":13.0,"co":233.0,"o3":41.0,"so2":21.9,"mosquito_risk":7,"arthritis_risk":5,"migraine_risk":4,"frizz_risk":1,"updated_at":"2026-06-14T23:45:52.813551+05:30"},{"city":"Vadodara","state":"Gujarat","latitude":22.3072,"longitude":73.1812,"temp":31.1,"humidity":69,"rain":0.0,"pressure":1002.0,"uv_index":8.0,"wind_gusts":49.3,"aqi":76,"pm10":33.2,"pm2_5":23.6,"no2":19.5,"co":199.0,"o3":29.0,"so2":17.2,"mosquito_risk":3,"arthritis_risk":5,"migraine_risk":4,"frizz_risk":1,"updated_at":"2026-06-14T23:45:52.813562+05:30"},{"city":"Rajkot","state":"Gujarat","latitude":22.3039,"longitude":70.8022,"temp":29.5,"humidity":68,"rain":0.0,"pressure":992.5,"uv_index":7.55,"wind_gusts":57.2,"aqi":66,"pm10":36.0,"pm2_5":14.6,"no2":3.9,"co":101.0,"o3":49.0,"so2":4.4,"mosquito_risk":7,"arthritis_risk":5,"migraine_risk":7,"frizz_risk":1,"updated_at":"2026-06-14T23:45:52.813571+05:30"},{"city":"Thane","state":"Maharashtra","latitude":19.2183,"longitude":72.9781,"temp":29.4,"humidity":78,"rain":0.0,"pressure":1007.6,"uv_index":7.65,"wind_gusts":45.0,"aqi":66,"pm10":32.1,"pm2_5":15.5,"no2":3.3,"co":141.0,"o3":49.0,"so2":2.8,"mosquito_risk":7,"arthritis_risk":5,"migraine_risk":4,"frizz_risk":1,"updated_at":"2026-06-14T23:45:52.813579+05:30"},{"city":"Nagpur","state":"Maharashtra","latitude":21.1458,"longitude":79.0882,"temp":30.1,"humidity":59,"rain":0.0,"pressure":970.6,"uv_index":8.9,"wind_gusts":43.9,"aqi":109,"pm10":72.4,"pm2_5":39.9,"no2":17.8,"co":185.0,"o3":56.0,"so2":12.2,"mosquito_risk":0,"arthritis_risk":5,"migraine_risk":7,"frizz_risk":1,"updated_at":"2026-06-14T23:45:52.813587+05:30"},{"city":"Nashik","state":"Maharashtra","latitude":19.9975,"longitude":73.7898,"temp":25.2,"humidity":81,"rain":0.0,"pressure":945.3,"uv_index":8.05,"wind_gusts":55.4,"aqi":58,"pm10":21.7,"pm2_5":11.0,"no2":2.5,"co":117.0,"o3":46.0,"so2":1.3,"mosquito_risk":7,"arthritis_risk":5,"migraine_risk":7,"frizz_risk":1,"updated_at":"2026-06-14T23:45:52.813594+05:30"},{"city":"Aurangabad","state":"Maharashtra","latitude":19.8762,"longitude":75.3433,"temp":27.6,"humidity":58,"rain":0.0,"pressure":944.0,"uv_index":8.95,"wind_gusts":56.2,"aqi":59,"pm10":31.0,"pm2_5":16.5,"no2":5.0,"co":129.0,"o3":50.0,"so2":4.6,"mosquito_risk":4,"arthritis_risk":5,"migraine_risk":7,"frizz_risk":1,"updated_at":"2026-06-14T23:45:52.813602+05:30"},{"city":"Solapur","state":"Maharashtra","latitude":17.6599,"longitude":75.9064,"temp":28.4,"humidity":63,"rain":0.0,"pressure":956.8,"uv_index":8.9,"wind_gusts":52.2,"aqi":62,"pm10":22.1,"pm2_5":13.5,"no2":4.1,"co":120.0,"o3":62.0,"so2":3.6,"mosquito_risk":7,"arthritis_risk":5,"migraine_risk":7,"frizz_risk":1,"updated_at":"2026-06-14T23:45:52.813610+05:30"},{"city":"Kolhapur","state":"Maharashtra","latitude":16.705,"longitude":74.2433,"temp":24.1,"humidity":89,"rain":0.0,"pressure":948.6,"uv_index":8.75,"wind_gusts":49.3,"aqi":44,"pm10":16.2,"pm2_5":10.8,"no2":6.4,"co":163.0,"o3":39.0,"so2":2.9,"mosquito_risk":3,"arthritis_risk":5,"migraine_risk":7,"frizz_risk":1,"updated_at":"2026-06-14T23:45:52.813618+05:30"},{"city":"Goa","state":"Goa","latitude":15.2993,"longitude":74.124,"temp":27.2,"humidity":85,"rain":0.0,"pressure":999.0,"uv_index":6.65,"wind_gusts":34.6,"aqi":63,"pm10":39.9,"pm2_5":22.5,"no2":6.0,"co":508.0,"o3":44.0,"so2":2.1,"mosquito_risk":7,"arthritis_risk":5,"migraine_risk":7,"frizz_risk":1,"updated_at":"2026-06-14T23:45:52.813626+05:30"},{"city":"Jodhpur","state":"Rajasthan","latitude":26.2389,"longitude":73.0243,"temp":33.1,"humidity":46,"rain":0.0,"pressure":978.4,"uv_index":8.45,"wind_gusts":45.4,"aqi":160,"pm10":195.1,"pm2_5":47.6,"no2":4.8,"co":173.0,"o3":55.0,"so2":2.6,"mosquito_risk":0,"arthritis_risk":5,"migraine_risk":7,"frizz_risk":1,"updated_at":"2026-06-14T23:45:52.813634+05:30"},{"city":"Udaipur","state":"Rajasthan","latitude":24.5854,"longitude":73.7125,"temp":28.8,"humidity":57,"rain":0.0,"pressure":944.0,"uv_index":8.85,"wind_gusts":48.6,"aqi":76,"pm10":33.2,"pm2_5":18.0,"no2":3.9,"co":161.0,"o3":60.0,"so2":2.5,"mosquito_risk":4,"arthritis_risk":5,"migraine_risk":7,"frizz_risk":1,"updated_at":"2026-06-14T23:45:52.813642+05:30"},{"city":"Kota","state":"Rajasthan","latitude":25.2138,"longitude":75.8648,"temp":27.6,"humidity":64,"rain":0.0,"pressure":975.3,"uv_index":8.35,"wind_gusts":41.8,"aqi":110,"pm10":79.2,"pm2_5":37.4,"no2":6.1,"co":295.0,"o3":71.0,"so2":5.0,"mosquito_risk":7,"arthritis_risk":5,"migraine_risk":7,"frizz_risk":1,"updated_at":"2026-06-14T23:45:52.813650+05:30"},{"city":"Bikaner","state":"Rajasthan","latitude":28.0229,"longitude":73.3119,"temp":33.6,"humidity":36,"rain":0.0,"pressure":975.8,"uv_index":8.45,"wind_gusts":35.6,"aqi":152,"pm10":244.9,"pm2_5":80.6,"no2":2.1,"co":149.0,"o3":79.0,"so2":3.8,"mosquito_risk":0,"arthritis_risk":5,"migraine_risk":7,"frizz_risk":1,"updated_at":"2026-06-14T23:45:52.813657+05:30"},{"city":"Ajmer","state":"Rajasthan","latitude":26.4499,"longitude":74.6399,"temp":28.9,"humidity":53,"rain":0.0,"pressure":951.0,"uv_index":8.35,"wind_gusts":39.6,"aqi":115,"pm10":100.1,"pm2_5":44.8,"no2":8.7,"co":175.0,"o3":58.0,"so2":3.9,"mosquito_risk":4,"arthritis_risk":5,"migraine_risk":7,"frizz_risk":1,"updated_at":"2026-06-14T23:45:52.813665+05:30"},{"city":"Gwalior","state":"Madhya Pradesh","latitude":26.2183,"longitude":78.1828,"temp":29.8,"humidity":51,"rain":0.0,"pressure":979.2,"uv_index":8.3,"wind_gusts":50.8,"aqi":99,"pm10":85.0,"pm2_5":39.0,"no2":5.3,"co":137.0,"o3":72.0,"so2":3.0,"mosquito_risk":4,"arthritis_risk":5,"migraine_risk":7,"frizz_risk":1,"updated_at":"2026-06-14T23:45:52.813695+05:30"},{"city":"Indore","state":"Madhya Pradesh","latitude":22.7196,"longitude":75.8577,"temp":28.4,"humidity":55,"rain":0.0,"pressure":946.3,"uv_index":8.6,"wind_gusts":47.9,"aqi":83,"pm10":81.3,"pm2_5":41.8,"no2":9.7,"co":442.0,"o3":65.0,"so2":7.5,"mosquito_risk":4,"arthritis_risk":5,"migraine_risk":7,"frizz_risk":1,"updated_at":"2026-06-14T23:45:52.813703+05:30"},{"city":"Bhopal","state":"Madhya Pradesh","latitude":23.2599,"longitude":77.4126,"temp":26.9,"humidity":73,"rain":0.0,"pressure":951.2,"uv_index":8.65,"wind_gusts":52.6,"aqi":97,"pm10":55.1,"pm2_5":36.3,"no2":14.7,"co":357.0,"o3":45.0,"so2":4.7,"mosquito_risk":7,"arthritis_risk":5,"migraine_risk":7,"frizz_risk":1,"updated_at":"2026-06-14T23:45:52.813711+05:30"},{"city":"Jabalpur","state":"Madhya Pradesh","latitude":23.1815,"longitude":79.9864,"temp":29.4,"humidity":58,"rain":0.0,"pressure":958.6,"uv_index":8.75,"wind_gusts":28.1,"aqi":92,"pm10":59.0,"pm2_5":34.9,"no2":7.4,"co":204.0,"o3":75.0,"so2":4.0,"mosquito_risk":4,"arthritis_risk":5,"migraine_risk":7,"frizz_risk":1,"updated_at":"2026-06-14T23:45:52.813718+05:30"},{"city":"Ujjain","state":"Madhya Pradesh","latitude":23.1765,"longitude":75.7885,"temp":28.4,"humidity":54,"rain":0.0,"pressure":951.7,"uv_index":8.55,"wind_gusts":55.4,"aqi":81,"pm10":70.3,"pm2_5":34.2,"no2":3.7,"co":551.0,"o3":85.0,"so2":6.1,"mosquito_risk":4,"arthritis_risk":5,"migraine_risk":7,"frizz_risk":1,"updated_at":"2026-06-14T23:45:52.813727+05:30"},{"city":"Visakhapatnam","state":"Andhra Pradesh","latitude":17.6868,"longitude":83.2185,"temp":30.1,"humidity":78,"rain":0.0,"pressure":999.4,"uv_index":8.95,"wind_gusts":41.0,"aqi":108,"pm10":64.5,"pm2_5":47.0,"no2":29.8,"co":632.0,"o3":54.0,"so2":35.4,"mosquito_risk":3,"arthritis_risk":5,"migraine_risk":7,"frizz_risk":1,"updated_at":"2026-06-14T23:45:52.813735+05:30"},{"city":"Vijayawada","state":"Andhra Pradesh","latitude":16.5062,"longitude":80.648,"temp":29.7,"humidity":68,"rain":0.0,"pressure":999.2,"uv_index":5.7,"wind_gusts":45.0,"aqi":92,"pm10":43.9,"pm2_5":34.5,"no2":14.7,"co":324.0,"o3":53.0,"so2":6.7,"mosquito_risk":7,"arthritis_risk":5,"migraine_risk":3,"frizz_risk":1,"updated_at":"2026-06-14T23:45:52.813742+05:30"},{"city":"Guntur","state":"Andhra Pradesh","latitude":16.3067,"longitude":80.4365,"temp":29.4,"humidity":65,"rain":0.0,"pressure":1000.5,"uv_index":3.25,"wind_gusts":46.8,"aqi":87,"pm10":40.6,"pm2_5":31.2,"no2":14.9,"co":332.0,"o3":52.0,"so2":6.5,"mosquito_risk":7,"arthritis_risk":5,"migraine_risk":0,"frizz_risk":1,"updated_at":"2026-06-14T23:45:52.813749+05:30"},{"city":"Nellore","state":"Andhra Pradesh","latitude":14.4426,"longitude":79.9865,"temp":30.2,"humidity":62,"rain":0.0,"pressure":1003.6,"uv_index":8.45,"wind_gusts":45.0,"aqi":69,"pm10":52.4,"pm2_5":34.5,"no2":16.3,"co":229.0,"o3":65.0,"so2":8.2,"mosquito_risk":3,"arthritis_risk":5,"migraine_risk":4,"frizz_risk":1,"updated_at":"2026-06-14T23:45:52.813758+05:30"},{"city":"Kurnool","state":"Andhra Pradesh","latitude":15.8281,"longitude":78.0373,"temp":28.2,"humidity":59,"rain":0.0,"pressure":975.2,"uv_index":1.45,"wind_gusts":39.6,"aqi":73,"pm10":65.4,"pm2_5":36.9,"no2":22.4,"co":158.0,"o3":47.0,"so2":7.5,"mosquito_risk":4,"arthritis_risk":5,"migraine_risk":3,"frizz_risk":1,"updated_at":"2026-06-14T23:45:52.813767+05:30"},{"city":"Kakinada","state":"Andhra Pradesh","latitude":16.9891,"longitude":82.2475,"temp":30.2,"humidity":69,"rain":0.0,"pressure":1003.4,"uv_index":8.8,"wind_gusts":46.1,"aqi":93,"pm10":56.8,"pm2_5":40.5,"no2":10.0,"co":459.0,"o3":83.0,"so2":7.0,"mosquito_risk":3,"arthritis_risk":5,"migraine_risk":4,"frizz_risk":1,"updated_at":"2026-06-14T23:45:52.813775+05:30"},{"city":"Tirupati","state":"Andhra Pradesh","latitude":13.6288,"longitude":79.4192,"temp":27.2,"humidity":74,"rain":0.0,"pressure":989.8,"uv_index":7.85,"wind_gusts":37.1,"aqi":68,"pm10":40.9,"pm2_5":28.0,"no2":17.4,"co":464.0,"o3":51.0,"so2":4.0,"mosquito_risk":7,"arthritis_risk":5,"migraine_risk":7,"frizz_risk":1,"updated_at":"2026-06-14T23:45:52.813782+05:30"},{"city":"Warangal","state":"Telangana","latitude":17.9689,"longitude":79.5941,"temp":28.6,"humidity":68,"rain":0.0,"pressure":975.4,"uv_index":8.6,"wind_gusts":41.8,"aqi":108,"pm10":97.6,"pm2_5":73.3,"no2":44.3,"co":278.0,"o3":15.0,"so2":10.8,"mosquito_risk":7,"arthritis_risk":5,"migraine_risk":7,"frizz_risk":1,"updated_at":"2026-06-14T23:45:52.813790+05:30"},{"city":"Nizamabad","state":"Telangana","latitude":18.6725,"longitude":78.0941,"temp":28.9,"humidity":56,"rain":0.0,"pressure":962.3,"uv_index":8.9,"wind_gusts":41.8,"aqi":84,"pm10":80.1,"pm2_5":39.6,"no2":16.9,"co":631.0,"o3":44.0,"so2":4.4,"mosquito_risk":4,"arthritis_risk":5,"migraine_risk":7,"frizz_risk":1,"updated_at":"2026-06-14T23:45:52.813797+05:30"},{"city":"Mysore","state":"Karnataka","latitude":12.2958,"longitude":76.6396,"temp":21.6,"humidity":93,"rain":0.0,"pressure":929.3,"uv_index":8.8,"wind_gusts":40.3,"aqi":32,"pm10":10.4,"pm2_5":8.6,"no2":11.5,"co":176.0,"o3":36.0,"so2":2.8,"mosquito_risk":3,"arthritis_risk":5,"migraine_risk":7,"frizz_risk":1,"updated_at":"2026-06-14T23:45:52.813805+05:30"},{"city":"Mangalore","state":"Karnataka","latitude":12.9141,"longitude":74.856,"temp":25.9,"humidity":92,"rain":0.0,"pressure":1008.4,"uv_index":8.2,"wind_gusts":31.3,"aqi":53,"pm10":36.4,"pm2_5":27.6,"no2":16.2,"co":453.0,"o3":20.0,"so2":4.9,"mosquito_risk":7,"arthritis_risk":0,"migraine_risk":4,"frizz_risk":1,"updated_at":"2026-06-14T23:45:52.813812+05:30"},{"city":"Hubli-Dharwad","state":"Karnataka","latitude":15.3647,"longitude":75.124,"temp":23.3,"humidity":91,"rain":0.0,"pressure":941.5,"uv_index":5.45,"wind_gusts":49.7,"aqi":42,"pm10":20.3,"pm2_5":10.9,"no2":4.8,"co":143.0,"o3":42.0,"so2":1.8,"mosquito_risk":3,"arthritis_risk":5,"migraine_risk":3,"frizz_risk":1,"updated_at":"2026-06-14T23:45:52.813820+05:30"},{"city":"Belgaum","state":"Karnataka","latitude":15.8497,"longitude":74.4977,"temp":22.2,"humidity":95,"rain":0.0,"pressure":926.4,"uv_index":6.55,"wind_gusts":50.0,"aqi":40,"pm10":22.6,"pm2_5":13.9,"no2":7.2,"co":129.0,"o3":34.0,"so2":1.5,"mosquito_risk":3,"arthritis_risk":5,"migraine_risk":7,"frizz_risk":1,"updated_at":"2026-06-14T23:45:56.095964+05:30"},{"city":"Coimbatore","state":"Tamil Nadu","latitude":11.0168,"longitude":76.9558,"temp":24.1,"humidity":92,"rain":0.0,"pressure":962.4,"uv_index":8.65,"wind_gusts":51.5,"aqi":31,"pm10":11.2,"pm2_5":8.7,"no2":8.5,"co":217.0,"o3":37.0,"so2":3.3,"mosquito_risk":3,"arthritis_risk":5,"migraine_risk":7,"frizz_risk":1,"updated_at":"2026-06-14T23:45:56.095995+05:30"},{"city":"Madurai","state":"Tamil Nadu","latitude":9.9252,"longitude":78.1198,"temp":30.0,"humidity":65,"rain":0.0,"pressure":993.2,"uv_index":8.8,"wind_gusts":42.1,"aqi":60,"pm10":31.0,"pm2_5":24.7,"no2":32.0,"co":319.0,"o3":16.0,"so2":7.2,"mosquito_risk":7,"arthritis_risk":5,"migraine_risk":7,"frizz_risk":1,"updated_at":"2026-06-14T23:45:56.096006+05:30"},{"city":"Trichy","state":"Tamil Nadu","latitude":10.7905,"longitude":78.7047,"temp":30.0,"humidity":62,"rain":0.0,"pressure":999.6,"uv_index":7.9,"wind_gusts":58.0,"aqi":52,"pm10":30.2,"pm2_5":23.8,"no2":20.6,"co":143.0,"o3":44.0,"so2":6.1,"mosquito_risk":7,"arthritis_risk":5,"migraine_risk":7,"frizz_risk":1,"updated_at":"2026-06-14T23:45:56.096015+05:30"},{"city":"Salem","state":"Tamil Nadu","latitude":11.6643,"longitude":78.146,"temp":27.4,"humidity":81,"rain":0.0,"pressure":977.5,"uv_index":8.75,"wind_gusts":32.8,"aqi":58,"pm10":19.3,"pm2_5":13.4,"no2":13.5,"co":387.0,"o3":44.0,"so2":7.2,"mosquito_risk":7,"arthritis_risk":5,"migraine_risk":7,"frizz_risk":1,"updated_at":"2026-06-14T23:45:56.096024+05:30"},{"city":"Tirunelveli","state":"Tamil Nadu","latitude":8.7139,"longitude":77.7567,"temp":28.5,"humidity":67,"rain":0.0,"pressure":1003.8,"uv_index":8.3,"wind_gusts":47.9,"aqi":41,"pm10":14.1,"pm2_5":10.5,"no2":7.2,"co":179.0,"o3":42.0,"so2":2.4,"mosquito_risk":7,"arthritis_risk":5,"migraine_risk":4,"frizz_risk":1,"updated_at":"2026-06-14T23:45:56.096032+05:30"},{"city":"Vellore","state":"Tamil Nadu","latitude":12.9165,"longitude":79.1325,"temp":27.7,"humidity":66,"rain":0.0,"pressure":983.7,"uv_index":8.55,"wind_gusts":48.6,"aqi":62,"pm10":29.5,"pm2_5":20.5,"no2":14.7,"co":215.0,"o3":49.0,"so2":4.4,"mosquito_risk":7,"arthritis_risk":5,"migraine_risk":7,"frizz_risk":1,"updated_at":"2026-06-14T23:45:56.096040+05:30"},{"city":"Erode","state":"Tamil Nadu","latitude":11.341,"longitude":77.7172,"temp":26.9,"humidity":79,"rain":0.0,"pressure":989.3,"uv_index":8.35,"wind_gusts":45.7,"aqi":46,"pm10":16.4,"pm2_5":12.1,"no2":11.1,"co":200.0,"o3":42.0,"so2":3.6,"mosquito_risk":7,"arthritis_risk":5,"migraine_risk":7,"frizz_risk":1,"updated_at":"2026-06-14T23:45:56.096048+05:30"},{"city":"Kochi","state":"Kerala","latitude":9.9312,"longitude":76.2673,"temp":26.6,"humidity":95,"rain":0.0,"pressure":1010.3,"uv_index":8.35,"wind_gusts":32.4,"aqi":57,"pm10":30.0,"pm2_5":24.6,"no2":20.9,"co":335.0,"o3":19.0,"so2":6.4,"mosquito_risk":7,"arthritis_risk":0,"migraine_risk":4,"frizz_risk":1,"updated_at":"2026-06-14T23:45:56.096055+05:30"},{"city":"Thiruvananthapuram","state":"Kerala","latitude":8.5241,"longitude":76.9366,"temp":25.6,"humidity":92,"rain":0.0,"pressure":1009.9,"uv_index":7.95,"wind_gusts":42.5,"aqi":44,"pm10":20.7,"pm2_5":11.2,"no2":3.9,"co":182.0,"o3":50.0,"so2":1.9,"mosquito_risk":7,"arthritis_risk":0,"migraine_risk":4,"frizz_risk":1,"updated_at":"2026-06-14T23:45:56.096062+05:30"},{"city":"Kozhikode","state":"Kerala","latitude":11.2588,"longitude":75.7804,"temp":25.6,"humidity":93,"rain":0.0,"pressure":1009.3,"uv_index":8.3,"wind_gusts":32.8,"aqi":29,"pm10":23.9,"pm2_5":11.4,"no2":2.1,"co":268.0,"o3":56.0,"so2":1.4,"mosquito_risk":7,"arthritis_risk":0,"migraine_risk":4,"frizz_risk":1,"updated_at":"2026-06-14T23:45:56.096069+05:30"},{"city":"Thrissur","state":"Kerala","latitude":10.5276,"longitude":76.2144,"temp":25.4,"humidity":95,"rain":0.0,"pressure":1008.6,"uv_index":8.5,"wind_gusts":33.1,"aqi":56,"pm10":32.8,"pm2_5":26.4,"no2":17.1,"co":349.0,"o3":24.0,"so2":5.5,"mosquito_risk":7,"arthritis_risk":0,"migraine_risk":4,"frizz_risk":1,"updated_at":"2026-06-14T23:45:56.096078+05:30"},{"city":"Kannur","state":"Kerala","latitude":11.8745,"longitude":75.3704,"temp":25.6,"humidity":94,"rain":0.0,"pressure":1008.6,"uv_index":7.95,"wind_gusts":31.3,"aqi":42,"pm10":24.1,"pm2_5":17.3,"no2":14.8,"co":495.0,"o3":24.0,"so2":3.4,"mosquito_risk":7,"arthritis_risk":0,"migraine_risk":4,"frizz_risk":1,"updated_at":"2026-06-14T23:45:56.096086+05:30"},{"city":"Patna","state":"Bihar","latitude":25.5941,"longitude":85.1376,"temp":29.3,"humidity":82,"rain":0.0,"pressure":995.8,"uv_index":8.9,"wind_gusts":28.8,"aqi":168,"pm10":141.6,"pm2_5":108.0,"no2":64.9,"co":769.0,"o3":28.0,"so2":27.7,"mosquito_risk":7,"arthritis_risk":5,"migraine_risk":7,"frizz_risk":1,"updated_at":"2026-06-14T23:45:56.096093+05:30"},{"city":"Gaya","state":"Bihar","latitude":24.7914,"longitude":85.0002,"temp":29.1,"humidity":70,"rain":0.0,"pressure":989.6,"uv_index":8.9,"wind_gusts":30.6,"aqi":164,"pm10":137.8,"pm2_5":96.9,"no2":40.3,"co":865.0,"o3":63.0,"so2":19.4,"mosquito_risk":7,"arthritis_risk":5,"migraine_risk":7,"frizz_risk":1,"updated_at":"2026-06-14T23:45:56.096100+05:30"},{"city":"Muzaffarpur","state":"Bihar","latitude":26.1209,"longitude":85.3647,"temp":29.2,"humidity":80,"rain":0.0,"pressure":995.6,"uv_index":8.85,"wind_gusts":22.7,"aqi":168,"pm10":124.3,"pm2_5":99.2,"no2":52.3,"co":870.0,"o3":34.0,"so2":21.0,"mosquito_risk":7,"arthritis_risk":5,"migraine_risk":7,"frizz_risk":1,"updated_at":"2026-06-14T23:45:56.096108+05:30"},{"city":"Bhagalpur","state":"Bihar","latitude":25.2425,"longitude":87.0117,"temp":29.5,"humidity":86,"rain":0.0,"pressure":996.3,"uv_index":8.8,"wind_gusts":22.0,"aqi":158,"pm10":124.8,"pm2_5":94.1,"no2":23.1,"co":604.0,"o3":77.0,"so2":14.2,"mosquito_risk":7,"arthritis_risk":5,"migraine_risk":7,"frizz_risk":1,"updated_at":"2026-06-14T23:45:56.096115+05:30"},{"city":"Ranchi","state":"Jharkhand","latitude":23.3441,"longitude":85.3096,"temp":24.4,"humidity":76,"rain":0.0,"pressure":934.2,"uv_index":7.75,"wind_gusts":40.7,"aqi":129,"pm10":61.5,"pm2_5":45.8,"no2":10.7,"co":227.0,"o3":89.0,"so2":4.7,"mosquito_risk":3,"arthritis_risk":5,"migraine_risk":7,"frizz_risk":1,"updated_at":"2026-06-14T23:45:56.096122+05:30"},{"city":"Jamshedpur","state":"Jharkhand","latitude":22.8046,"longitude":86.2029,"temp":26.8,"humidity":91,"rain":0.0,"pressure":987.0,"uv_index":8.9,"wind_gusts":37.4,"aqi":155,"pm10":71.0,"pm2_5":56.5,"no2":21.0,"co":350.0,"o3":80.0,"so2":22.3,"mosquito_risk":7,"arthritis_risk":5,"migraine_risk":7,"frizz_risk":1,"updated_at":"2026-06-14T23:45:56.096129+05:30"},{"city":"Dhanbad","state":"Jharkhand","latitude":23.7957,"longitude":86.4304,"temp":27.9,"humidity":76,"rain":0.0,"pressure":975.7,"uv_index":8.9,"wind_gusts":22.7,"aqi":170,"pm10":143.4,"pm2_5":122.5,"no2":60.5,"co":366.0,"o3":58.0,"so2":177.5,"mosquito_risk":7,"arthritis_risk":5,"migraine_risk":7,"frizz_risk":1,"updated_at":"2026-06-14T23:45:56.096136+05:30"},{"city":"Bokaro","state":"Jharkhand","latitude":23.6693,"longitude":86.1511,"temp":27.7,"humidity":75,"rain":0.0,"pressure":979.5,"uv_index":8.9,"wind_gusts":31.3,"aqi":165,"pm10":124.8,"pm2_5":95.9,"no2":47.3,"co":283.0,"o3":85.0,"so2":159.4,"mosquito_risk":7,"arthritis_risk":5,"migraine_risk":7,"frizz_risk":1,"updated_at":"2026-06-14T23:45:56.096143+05:30"},{"city":"Bhubaneswar","state":"Odisha","latitude":20.2961,"longitude":85.8245,"temp":28.1,"humidity":89,"rain":0.0,"pressure":998.3,"uv_index":8.95,"wind_gusts":37.1,"aqi":113,"pm10":86.1,"pm2_5":75.9,"no2":38.8,"co":731.0,"o3":53.0,"so2":13.5,"mosquito_risk":7,"arthritis_risk":5,"migraine_risk":7,"frizz_risk":1,"updated_at":"2026-06-14T23:45:56.096150+05:30"},{"city":"Cuttack","state":"Odisha","latitude":20.4625,"longitude":85.8828,"temp":28.0,"humidity":95,"rain":0.0,"pressure":1000.1,"uv_index":8.8,"wind_gusts":41.0,"aqi":113,"pm10":86.1,"pm2_5":75.9,"no2":38.8,"co":639.0,"o3":53.0,"so2":13.5,"mosquito_risk":7,"arthritis_risk":5,"migraine_risk":4,"frizz_risk":1,"updated_at":"2026-06-14T23:45:56.096157+05:30"},{"city":"Rourkela","state":"Odisha","latitude":22.2604,"longitude":84.8536,"temp":27.3,"humidity":92,"rain":0.0,"pressure":981.5,"uv_index":8.75,"wind_gusts":36.4,"aqi":146,"pm10":71.2,"pm2_5":50.1,"no2":15.5,"co":348.0,"o3":80.0,"so2":6.5,"mosquito_risk":7,"arthritis_risk":5,"migraine_risk":7,"frizz_risk":1,"updated_at":"2026-06-14T23:45:56.096164+05:30"},{"city":"Raipur","state":"Chhattisgarh","latitude":21.2514,"longitude":81.6296,"temp":28.4,"humidity":70,"rain":0.0,"pressure":971.7,"uv_index":8.95,"wind_gusts":47.9,"aqi":143,"pm10":79.9,"pm2_5":56.9,"no2":42.6,"co":363.0,"o3":44.0,"so2":50.1,"mosquito_risk":7,"arthritis_risk":5,"migraine_risk":7,"frizz_risk":1,"updated_at":"2026-06-14T23:45:56.096170+05:30"},{"city":"Bhilai","state":"Chhattisgarh","latitude":21.1938,"longitude":81.3509,"temp":26.7,"humidity":82,"rain":0.0,"pressure":972.1,"uv_index":8.95,"wind_gusts":40.3,"aqi":139,"pm10":81.3,"pm2_5":53.4,"no2":36.8,"co":1172.0,"o3":49.0,"so2":42.5,"mosquito_risk":7,"arthritis_risk":5,"migraine_risk":7,"frizz_risk":1,"updated_at":"2026-06-14T23:45:56.096177+05:30"},{"city":"Guwahati","state":"Assam","latitude":26.1158,"longitude":91.7086,"temp":25.4,"humidity":97,"rain":0.0,"pressure":998.2,"uv_index":8.7,"wind_gusts":25.2,"aqi":66,"pm10":28.1,"pm2_5":26.0,"no2":10.4,"co":395.0,"o3":57.0,"so2":3.5,"mosquito_risk":7,"arthritis_risk":5,"migraine_risk":7,"frizz_risk":1,"updated_at":"2026-06-14T23:45:56.096183+05:30"},{"city":"Agartala","state":"Tripura","latitude":23.8315,"longitude":91.2868,"temp":25.8,"humidity":94,"rain":0.0,"pressure":1003.1,"uv_index":8.15,"wind_gusts":34.6,"aqi":64,"pm10":22.2,"pm2_5":19.5,"no2":10.9,"co":211.0,"o3":62.0,"so2":2.2,"mosquito_risk":7,"arthritis_risk":5,"migraine_risk":4,"frizz_risk":1,"updated_at":"2026-06-14T23:45:56.096190+05:30"},{"city":"Shillong","state":"Meghalaya","latitude":25.5788,"longitude":91.8933,"temp":19.4,"humidity":94,"rain":0.0,"pressure":855.1,"uv_index":9.0,"wind_gusts":22.3,"aqi":45,"pm10":5.0,"pm2_5":4.5,"no2":5.5,"co":250.0,"o3":85.0,"so2":3.0,"mosquito_risk":3,"arthritis_risk":10,"migraine_risk":7,"frizz_risk":1,"updated_at":"2026-06-14T23:45:56.096197+05:30"},{"city":"Imphal","state":"Manipur","latitude":24.817,"longitude":93.9368,"temp":23.0,"humidity":92,"rain":0.0,"pressure":920.6,"uv_index":8.85,"wind_gusts":31.0,"aqi":67,"pm10":40.5,"pm2_5":37.7,"no2":19.8,"co":526.0,"o3":34.0,"so2":4.3,"mosquito_risk":3,"arthritis_risk":5,"migraine_risk":7,"frizz_risk":1,"updated_at":"2026-06-14T23:45:56.096205+05:30"},{"city":"Aizawl","state":"Mizoram","latitude":23.7271,"longitude":92.7176,"temp":19.1,"humidity":95,"rain":0.0,"pressure":889.9,"uv_index":9.0,"wind_gusts":36.7,"aqi":51,"pm10":14.5,"pm2_5":12.0,"no2":4.1,"co":177.0,"o3":51.0,"so2":1.1,"mosquito_risk":3,"arthritis_risk":10,"migraine_risk":7,"frizz_risk":1,"updated_at":"2026-06-14T23:45:56.096211+05:30"},{"city":"Kohima","state":"Nagaland","latitude":25.6701,"longitude":94.1077,"temp":19.9,"humidity":89,"rain":0.0,"pressure":853.2,"uv_index":8.8,"wind_gusts":23.8,"aqi":36,"pm10":10.5,"pm2_5":9.4,"no2":7.1,"co":326.0,"o3":41.0,"so2":0.9,"mosquito_risk":3,"arthritis_risk":10,"migraine_risk":7,"frizz_risk":1,"updated_at":"2026-06-14T23:45:56.096218+05:30"},{"city":"Gangtok","state":"Sikkim","latitude":27.3314,"longitude":88.6138,"temp":17.6,"humidity":92,"rain":0.1,"pressure":835.4,"uv_index":8.8,"wind_gusts":38.2,"aqi":56,"pm10":8.8,"pm2_5":7.9,"no2":9.8,"co":402.0,"o3":97.0,"so2":1.8,"mosquito_risk":6,"arthritis_risk":10,"migraine_risk":7,"frizz_risk":1,"updated_at":"2026-06-14T23:45:56.096226+05:30"},{"city":"Siliguri","state":"West Bengal","latitude":26.7271,"longitude":88.3953,"temp":23.7,"humidity":99,"rain":0.5,"pressure":990.4,"uv_index":8.7,"wind_gusts":23.0,"aqi":87,"pm10":28.8,"pm2_5":23.0,"no2":8.8,"co":470.0,"o3":110.0,"so2":4.2,"mosquito_risk":6,"arthritis_risk":5,"migraine_risk":7,"frizz_risk":1,"updated_at":"2026-06-14T23:45:59.380889+05:30"},{"city":"Durgapur","state":"West Bengal","latitude":23.5204,"longitude":87.3119,"temp":27.9,"humidity":85,"rain":0.0,"pressure":990.8,"uv_index":9.05,"wind_gusts":30.2,"aqi":171,"pm10":70.1,"pm2_5":67.5,"no2":33.9,"co":720.0,"o3":57.0,"so2":46.6,"mosquito_risk":7,"arthritis_risk":5,"migraine_risk":7,"frizz_risk":1,"updated_at":"2026-06-14T23:45:59.380921+05:30"},{"city":"Asansol","state":"West Bengal","latitude":23.6739,"longitude":86.9524,"temp":28.2,"humidity":81,"rain":0.0,"pressure":989.4,"uv_index":8.9,"wind_gusts":32.0,"aqi":166,"pm10":98.3,"pm2_5":90.3,"no2":38.0,"co":556.0,"o3":62.0,"so2":49.1,"mosquito_risk":7,"arthritis_risk":5,"migraine_risk":7,"frizz_risk":1,"updated_at":"2026-06-14T23:45:59.380932+05:30"},{"city":"Pondicherry","state":"Puducherry","latitude":11.9139,"longitude":79.8145,"temp":27.2,"humidity":81,"rain":0.0,"pressure":1007.5,"uv_index":8.05,"wind_gusts":45.7,"aqi":66,"pm10":34.8,"pm2_5":22.8,"no2":16.1,"co":279.0,"o3":64.0,"so2":13.1,"mosquito_risk":7,"arthritis_risk":5,"migraine_risk":4,"frizz_risk":1,"updated_at":"2026-06-14T23:45:59.380941+05:30"},{"city":"Port Blair","state":"Andaman and Nicobar Islands","latitude":11.6234,"longitude":92.7265,"temp":27.7,"humidity":84,"rain":0.0,"pressure":1007.8,"uv_index":7.45,"wind_gusts":42.8,"aqi":36,"pm10":13.0,"pm2_5":7.7,"no2":0.2,"co":86.0,"o3":42.0,"so2":0.4,"mosquito_risk":7,"arthritis_risk":5,"migraine_risk":4,"frizz_risk":1,"updated_at":"2026-06-14T23:45:59.380950+05:30"},{"city":"Haridwar","state":"Uttarakhand","latitude":29.9457,"longitude":78.1642,"temp":25.8,"humidity":76,"rain":0.0,"pressure":968.9,"uv_index":7.65,"wind_gusts":30.6,"aqi":109,"pm10":51.3,"pm2_5":44.0,"no2":32.0,"co":405.0,"o3":34.0,"so2":8.4,"mosquito_risk":7,"arthritis_risk":5,"migraine_risk":7,"frizz_risk":1,"updated_at":"2026-06-14T23:45:59.380958+05:30"},{"city":"Rishikesh","state":"Uttarakhand","latitude":30.0869,"longitude":78.2676,"temp":23.1,"humidity":82,"rain":0.0,"pressure":961.6,"uv_index":7.75,"wind_gusts":24.8,"aqi":88,"pm10":37.4,"pm2_5":25.9,"no2":17.8,"co":359.0,"o3":86.0,"so2":6.4,"mosquito_risk":3,"arthritis_risk":5,"migraine_risk":7,"frizz_risk":1,"updated_at":"2026-06-14T23:45:59.380966+05:30"},{"city":"Nainital","state":"Uttarakhand","latitude":29.3919,"longitude":79.4542,"temp":13.7,"humidity":89,"rain":0.0,"pressure":801.2,"uv_index":8.6,"wind_gusts":41.4,"aqi":97,"pm10":144.4,"pm2_5":52.5,"no2":14.0,"co":300.0,"o3":86.0,"so2":5.3,"mosquito_risk":3,"arthritis_risk":10,"migraine_risk":7,"frizz_risk":0,"updated_at":"2026-06-14T23:45:59.380974+05:30"},{"city":"Mussoorie","state":"Uttarakhand","latitude":30.4599,"longitude":78.0664,"temp":15.0,"humidity":77,"rain":0.0,"pressure":799.4,"uv_index":8.15,"wind_gusts":45.4,"aqi":69,"pm10":35.4,"pm2_5":26.1,"no2":30.0,"co":279.0,"o3":57.0,"so2":6.7,"mosquito_risk":3,"arthritis_risk":5,"migraine_risk":7,"frizz_risk":0,"updated_at":"2026-06-14T23:45:59.380982+05:30"},{"city":"Dharamshala","state":"Himachal Pradesh","latitude":32.219,"longitude":76.3234,"temp":20.4,"humidity":55,"rain":0.0,"pressure":865.5,"uv_index":8.5,"wind_gusts":42.8,"aqi":45,"pm10":15.7,"pm2_5":13.1,"no2":16.5,"co":189.0,"o3":33.0,"so2":0.1,"mosquito_risk":0,"arthritis_risk":5,"migraine_risk":7,"frizz_risk":0,"updated_at":"2026-06-14T23:45:59.380990+05:30"},{"city":"Dalhousie","state":"Himachal Pradesh","latitude":32.5387,"longitude":75.971,"temp":13.2,"humidity":80,"rain":0.0,"pressure":799.9,"uv_index":8.75,"wind_gusts":37.8,"aqi":69,"pm10":41.4,"pm2_5":26.4,"no2":34.2,"co":356.0,"o3":52.0,"so2":2.7,"mosquito_risk":3,"arthritis_risk":5,"migraine_risk":7,"frizz_risk":0,"updated_at":"2026-06-14T23:45:59.380998+05:30"},{"city":"Patiala","state":"Punjab","latitude":30.3398,"longitude":76.3869,"temp":27.9,"humidity":63,"rain":0.0,"pressure":972.5,"uv_index":7.7,"wind_gusts":23.8,"aqi":163,"pm10":241.2,"pm2_5":83.4,"no2":36.9,"co":475.0,"o3":49.0,"so2":11.9,"mosquito_risk":7,"arthritis_risk":5,"migraine_risk":7,"frizz_risk":1,"updated_at":"2026-06-14T23:45:59.381006+05:30"},{"city":"Bhatinda","state":"Punjab","latitude":30.211,"longitude":74.9455,"temp":29.7,"humidity":62,"rain":0.0,"pressure":977.7,"uv_index":8.3,"wind_gusts":33.1,"aqi":94,"pm10":46.7,"pm2_5":39.9,"no2":42.9,"co":540.0,"o3":51.0,"so2":9.7,"mosquito_risk":7,"arthritis_risk":5,"migraine_risk":7,"frizz_risk":1,"updated_at":"2026-06-14T23:45:59.381012+05:30"},{"city":"Rohtak","state":"Haryana","latitude":28.8955,"longitude":76.6066,"temp":28.2,"humidity":71,"rain":0.0,"pressure":976.3,"uv_index":7.8,"wind_gusts":31.3,"aqi":426,"pm10":501.1,"pm2_5":134.1,"no2":57.7,"co":760.0,"o3":21.0,"so2":17.5,"mosquito_risk":7,"arthritis_risk":5,"migraine_risk":7,"frizz_risk":1,"updated_at":"2026-06-14T23:45:59.381019+05:30"},{"city":"Panipat","state":"Haryana","latitude":29.3909,"longitude":76.9635,"temp":27.7,"humidity":66,"rain":0.0,"pressure":975.0,"uv_index":7.65,"wind_gusts":34.9,"aqi":625,"pm10":672.4,"pm2_5":147.1,"no2":30.4,"co":377.0,"o3":45.0,"so2":8.6,"mosquito_risk":7,"arthritis_risk":5,"migraine_risk":7,"frizz_risk":1,"updated_at":"2026-06-14T23:45:59.381026+05:30"},{"city":"Mathura","state":"Uttar Pradesh","latitude":27.4924,"longitude":77.6737,"temp":29.0,"humidity":55,"rain":0.0,"pressure":982.1,"uv_index":8.1,"wind_gusts":29.9,"aqi":294,"pm10":293.4,"pm2_5":73.1,"no2":22.1,"co":210.0,"o3":47.0,"so2":3.8,"mosquito_risk":4,"arthritis_risk":5,"migraine_risk":7,"frizz_risk":1,"updated_at":"2026-06-14T23:45:59.381034+05:30"},{"city":"Vrindavan","state":"Uttar Pradesh","latitude":27.5823,"longitude":77.7027,"temp":29.2,"humidity":54,"rain":0.0,"pressure":982.4,"uv_index":8.05,"wind_gusts":31.7,"aqi":294,"pm10":293.4,"pm2_5":73.1,"no2":22.1,"co":212.0,"o3":47.0,"so2":3.8,"mosquito_risk":4,"arthritis_risk":5,"migraine_risk":7,"frizz_risk":1,"updated_at":"2026-06-14T23:45:59.381041+05:30"},{"city":"Ayodhya","state":"Uttar Pradesh","latitude":26.7922,"longitude":82.1998,"temp":28.0,"humidity":79,"rain":0.0,"pressure":990.4,"uv_index":8.4,"wind_gusts":30.6,"aqi":151,"pm10":173.7,"pm2_5":78.2,"no2":31.7,"co":584.0,"o3":53.0,"so2":12.2,"mosquito_risk":7,"arthritis_risk":5,"migraine_risk":7,"frizz_risk":1,"updated_at":"2026-06-14T23:45:59.381048+05:30"},{"city":"Ratlam","state":"Madhya Pradesh","latitude":23.3315,"longitude":75.0367,"temp":30.0,"humidity":51,"rain":0.0,"pressure":953.2,"uv_index":8.5,"wind_gusts":46.8,"aqi":81,"pm10":58.9,"pm2_5":30.2,"no2":3.1,"co":173.0,"o3":84.0,"so2":5.9,"mosquito_risk":4,"arthritis_risk":5,"migraine_risk":7,"frizz_risk":1,"updated_at":"2026-06-14T23:45:59.381055+05:30"},{"city":"Sagar","state":"Madhya Pradesh","latitude":23.8388,"longitude":78.7378,"temp":27.7,"humidity":62,"rain":0.0,"pressure":947.8,"uv_index":8.75,"wind_gusts":53.3,"aqi":87,"pm10":49.9,"pm2_5":28.0,"no2":7.0,"co":171.0,"o3":71.0,"so2":3.0,"mosquito_risk":7,"arthritis_risk":5,"migraine_risk":7,"frizz_risk":1,"updated_at":"2026-06-14T23:45:59.381062+05:30"},{"city":"Satna","state":"Madhya Pradesh","latitude":24.6005,"longitude":80.8322,"temp":30.7,"humidity":51,"rain":0.0,"pressure":967.5,"uv_index":8.8,"wind_gusts":35.3,"aqi":108,"pm10":80.3,"pm2_5":40.0,"no2":20.8,"co":226.0,"o3":50.0,"so2":3.7,"mosquito_risk":0,"arthritis_risk":5,"migraine_risk":7,"frizz_risk":1,"updated_at":"2026-06-14T23:45:59.381068+05:30"},{"city":"Akola","state":"Maharashtra","latitude":20.7002,"longitude":77.0082,"temp":29.2,"humidity":61,"rain":0.0,"pressure":973.6,"uv_index":8.8,"wind_gusts":52.6,"aqi":74,"pm10":60.5,"pm2_5":32.2,"no2":13.2,"co":175.0,"o3":58.0,"so2":5.0,"mosquito_risk":7,"arthritis_risk":5,"migraine_risk":7,"frizz_risk":1,"updated_at":"2026-06-14T23:45:59.381076+05:30"},{"city":"Amravati","state":"Maharashtra","latitude":20.9374,"longitude":77.7796,"temp":30.4,"humidity":53,"rain":0.0,"pressure":965.4,"uv_index":8.85,"wind_gusts":56.5,"aqi":76,"pm10":61.7,"pm2_5":34.3,"no2":16.8,"co":164.0,"o3":50.0,"so2":5.6,"mosquito_risk":0,"arthritis_risk":5,"migraine_risk":7,"frizz_risk":1,"updated_at":"2026-06-14T23:45:59.381084+05:30"},{"city":"Latur","state":"Maharashtra","latitude":18.4088,"longitude":76.5604,"temp":28.4,"humidity":57,"rain":0.0,"pressure":939.0,"uv_index":8.9,"wind_gusts":42.1,"aqi":71,"pm10":36.1,"pm2_5":21.9,"no2":3.9,"co":158.0,"o3":84.0,"so2":4.1,"mosquito_risk":4,"arthritis_risk":5,"migraine_risk":7,"frizz_risk":1,"updated_at":"2026-06-14T23:45:59.381091+05:30"},{"city":"Nanded","state":"Maharashtra","latitude":19.1383,"longitude":77.3091,"temp":29.8,"humidity":46,"rain":0.1,"pressure":967.4,"uv_index":8.85,"wind_gusts":43.6,"aqi":76,"pm10":61.7,"pm2_5":31.9,"no2":12.5,"co":174.0,"o3":54.0,"so2":3.7,"mosquito_risk":7,"arthritis_risk":5,"migraine_risk":7,"frizz_risk":1,"updated_at":"2026-06-14T23:45:59.381099+05:30"},{"city":"Gulbarga","state":"Karnataka","latitude":17.3297,"longitude":76.8343,"temp":29.2,"humidity":53,"rain":0.0,"pressure":957.6,"uv_index":8.9,"wind_gusts":41.0,"aqi":66,"pm10":23.2,"pm2_5":15.7,"no2":4.8,"co":134.0,"o3":67.0,"so2":3.4,"mosquito_risk":4,"arthritis_risk":5,"migraine_risk":7,"frizz_risk":1,"updated_at":"2026-06-14T23:45:59.381105+05:30"},{"city":"Bidar","state":"Karnataka","latitude":17.9104,"longitude":77.5199,"temp":27.1,"humidity":54,"rain":0.0,"pressure":933.6,"uv_index":8.85,"wind_gusts":38.5,"aqi":83,"pm10":93.4,"pm2_5":40.0,"no2":20.2,"co":186.0,"o3":50.0,"so2":5.6,"mosquito_risk":4,"arthritis_risk":5,"migraine_risk":7,"frizz_risk":1,"updated_at":"2026-06-14T23:45:59.381113+05:30"},{"city":"Hospet","state":"Karnataka","latitude":15.2689,"longitude":76.3909,"temp":25.6,"humidity":79,"rain":0.0,"pressure":956.1,"uv_index":8.65,"wind_gusts":47.9,"aqi":51,"pm10":15.5,"pm2_5":9.6,"no2":5.2,"co":143.0,"o3":47.0,"so2":1.9,"mosquito_risk":7,"arthritis_risk":5,"migraine_risk":7,"frizz_risk":1,"updated_at":"2026-06-14T23:45:59.381120+05:30"},{"city":"Tirupur","state":"Tamil Nadu","latitude":11.1085,"longitude":77.3411,"temp":25.3,"humidity":85,"rain":0.0,"pressure":975.8,"uv_index":8.45,"wind_gusts":53.6,"aqi":47,"pm10":17.4,"pm2_5":13.9,"no2":14.1,"co":173.0,"o3":35.0,"so2":4.7,"mosquito_risk":7,"arthritis_risk":5,"migraine_risk":7,"frizz_risk":1,"updated_at":"2026-06-14T23:45:59.381127+05:30"},{"city":"Alappuzha","state":"Kerala","latitude":9.4981,"longitude":76.3388,"temp":26.5,"humidity":94,"rain":0.1,"pressure":1010.5,"uv_index":8.15,"wind_gusts":36.7,"aqi":47,"pm10":24.6,"pm2_5":16.5,"no2":11.6,"co":92.0,"o3":42.0,"so2":3.9,"mosquito_risk":10,"arthritis_risk":0,"migraine_risk":4,"frizz_risk":1,"updated_at":"2026-06-14T23:45:59.381134+05:30"},{"city":"Munnar","state":"Kerala","latitude":10.0889,"longitude":77.0595,"temp":16.2,"humidity":89,"rain":0.0,"pressure":857.0,"uv_index":8.55,"wind_gusts":37.4,"aqi":32,"pm10":12.0,"pm2_5":9.3,"no2":8.1,"co":111.0,"o3":30.0,"so2":1.8,"mosquito_risk":3,"arthritis_risk":10,"migraine_risk":7,"frizz_risk":0,"updated_at":"2026-06-14T23:45:59.381142+05:30"},{"city":"Silchar","state":"Assam","latitude":24.8333,"longitude":92.7789,"temp":25.4,"humidity":97,"rain":0.1,"pressure":1002.5,"uv_index":8.8,"wind_gusts":35.6,"aqi":68,"pm10":26.7,"pm2_5":23.2,"no2":9.9,"co":307.0,"o3":69.0,"so2":3.9,"mosquito_risk":10,"arthritis_risk":5,"migraine_risk":4,"frizz_risk":1,"updated_at":"2026-06-14T23:45:59.381149+05:30"},{"city":"Dibrugarh","state":"Assam","latitude":27.4728,"longitude":94.912,"temp":25.0,"humidity":96,"rain":0.0,"pressure":992.1,"uv_index":8.3,"wind_gusts":22.0,"aqi":64,"pm10":17.2,"pm2_5":16.0,"no2":7.6,"co":241.0,"o3":78.0,"so2":1.4,"mosquito_risk":7,"arthritis_risk":5,"migraine_risk":7,"frizz_risk":1,"updated_at":"2026-06-14T23:45:59.381156+05:30"}]