[{"city":"Delhi","state":"Delhi","latitude":28.6139,"longitude":77.209,"temp":22.2,"humidity":83,"rain":0.0,"pressure":984.3,"uv_index":7.55,"wind_gusts":30.2,"aqi":117,"pm10":144.8,"pm2_5":41.7,"no2":19.6,"co":484.0,"o3":67.0,"so2":14.0,"mosquito_risk":3,"arthritis_risk":5,"migraine_risk":7,"frizz_risk":1,"updated_at":"2026-05-05T05:26:30.613357+05:30"},{"city":"Mumbai","state":"Maharashtra","latitude":19.076,"longitude":72.8777,"temp":28.2,"humidity":79,"rain":0.0,"pressure":1007.2,"uv_index":7.85,"wind_gusts":40.0,"aqi":61,"pm10":51.9,"pm2_5":17.6,"no2":8.2,"co":209.0,"o3":62.0,"so2":11.6,"mosquito_risk":7,"arthritis_risk":5,"migraine_risk":4,"frizz_risk":1,"updated_at":"2026-05-05T05:26:30.613402+05:30"},{"city":"Bangalore","state":"Karnataka","latitude":12.9716,"longitude":77.5946,"temp":22.5,"humidity":82,"rain":0.0,"pressure":911.1,"uv_index":8.5,"wind_gusts":37.4,"aqi":81,"pm10":44.8,"pm2_5":25.1,"no2":16.8,"co":284.0,"o3":56.0,"so2":8.2,"mosquito_risk":3,"arthritis_risk":5,"migraine_risk":7,"frizz_risk":1,"updated_at":"2026-05-05T05:26:30.613419+05:30"},{"city":"Hyderabad","state":"Telangana","latitude":17.385,"longitude":78.4867,"temp":26.1,"humidity":69,"rain":0.0,"pressure":952.4,"uv_index":9.25,"wind_gusts":41.0,"aqi":80,"pm10":44.0,"pm2_5":29.0,"no2":18.3,"co":270.0,"o3":63.0,"so2":5.7,"mosquito_risk":7,"arthritis_risk":5,"migraine_risk":7,"frizz_risk":1,"updated_at":"2026-05-05T05:26:30.613430+05:30"},{"city":"Chennai","state":"Tamil Nadu","latitude":13.0827,"longitude":80.2707,"temp":28.3,"humidity":81,"rain":0.0,"pressure":1005.2,"uv_index":7.45,"wind_gusts":42.5,"aqi":71,"pm10":36.6,"pm2_5":24.6,"no2":6.4,"co":259.0,"o3":85.0,"so2":6.6,"mosquito_risk":7,"arthritis_risk":5,"migraine_risk":4,"frizz_risk":1,"updated_at":"2026-05-05T05:26:30.613446+05:30"},{"city":"Kolkata","state":"West Bengal","latitude":22.5726,"longitude":88.3639,"temp":22.8,"humidity":96,"rain":0.0,"pressure":1008.2,"uv_index":8.9,"wind_gusts":36.0,"aqi":74,"pm10":25.8,"pm2_5":21.8,"no2":18.5,"co":302.0,"o3":34.0,"so2":9.1,"mosquito_risk":3,"arthritis_risk":0,"migraine_risk":4,"frizz_risk":1,"updated_at":"2026-05-05T05:26:30.613454+05:30"},{"city":"Pune","state":"Maharashtra","latitude":18.5204,"longitude":73.8567,"temp":21.5,"humidity":96,"rain":0.0,"pressure":946.6,"uv_index":8.45,"wind_gusts":45.4,"aqi":54,"pm10":24.7,"pm2_5":12.7,"no2":12.2,"co":197.0,"o3":43.0,"so2":11.1,"mosquito_risk":3,"arthritis_risk":5,"migraine_risk":7,"frizz_risk":1,"updated_at":"2026-05-05T05:26:30.613462+05:30"},{"city":"Ahmedabad","state":"Gujarat","latitude":23.0225,"longitude":72.5714,"temp":27.9,"humidity":74,"rain":0.0,"pressure":1000.6,"uv_index":8.1,"wind_gusts":28.4,"aqi":66,"pm10":25.0,"pm2_5":15.4,"no2":6.9,"co":181.0,"o3":47.0,"so2":5.9,"mosquito_risk":7,"arthritis_risk":5,"migraine_risk":4,"frizz_risk":1,"updated_at":"2026-05-05T05:26:30.613472+05:30"},{"city":"Jaipur","state":"Rajasthan","latitude":26.9124,"longitude":75.7873,"temp":23.4,"humidity":60,"rain":0.0,"pressure":959.1,"uv_index":8.1,"wind_gusts":53.6,"aqi":220,"pm10":76.1,"pm2_5":28.5,"no2":3.2,"co":303.0,"o3":103.0,"so2":4.6,"mosquito_risk":0,"arthritis_risk":5,"migraine_risk":7,"frizz_risk":0,"updated_at":"2026-05-05T05:26:30.613480+05:30"},{"city":"Lucknow","state":"Uttar Pradesh","latitude":26.8467,"longitude":80.9462,"temp":22.0,"humidity":80,"rain":0.0,"pressure":996.0,"uv_index":6.55,"wind_gusts":26.3,"aqi":93,"pm10":28.1,"pm2_5":21.9,"no2":8.8,"co":390.0,"o3":92.0,"so2":8.3,"mosquito_risk":3,"arthritis_risk":5,"migraine_risk":7,"frizz_risk":1,"updated_at":"2026-05-05T05:26:30.613488+05:30"},{"city":"Kanpur","state":"Uttar Pradesh","latitude":26.4499,"longitude":80.3319,"temp":22.9,"humidity":82,"rain":0.0,"pressure":993.8,"uv_index":8.0,"wind_gusts":32.0,"aqi":196,"pm10":334.3,"pm2_5":54.5,"no2":7.1,"co":441.0,"o3":98.0,"so2":9.6,"mosquito_risk":3,"arthritis_risk":5,"migraine_risk":7,"frizz_risk":1,"updated_at":"2026-05-05T05:26:30.613496+05:30"},{"city":"Chandigarh","state":"Chandigarh","latitude":30.7333,"longitude":76.7794,"temp":19.5,"humidity":54,"rain":0.0,"pressure":969.6,"uv_index":7.55,"wind_gusts":32.8,"aqi":89,"pm10":28.5,"pm2_5":17.9,"no2":15.1,"co":259.0,"o3":53.0,"so2":3.0,"mosquito_risk":0,"arthritis_risk":5,"migraine_risk":7,"frizz_risk":0,"updated_at":"2026-05-05T05:26:30.613504+05:30"},{"city":"Srinagar","state":"Jammu and Kashmir","latitude":34.0837,"longitude":74.7973,"temp":6.9,"humidity":98,"rain":0.0,"pressure":842.5,"uv_index":8.7,"wind_gusts":30.6,"aqi":58,"pm10":18.8,"pm2_5":14.2,"no2":6.9,"co":332.0,"o3":100.0,"so2":2.3,"mosquito_risk":3,"arthritis_risk":10,"migraine_risk":7,"frizz_risk":0,"updated_at":"2026-05-05T05:26:30.613513+05:30"},{"city":"Jammu","state":"Jammu and Kashmir","latitude":32.7266,"longitude":74.857,"temp":17.9,"humidity":71,"rain":0.0,"pressure":974.7,"uv_index":8.3,"wind_gusts":32.0,"aqi":95,"pm10":28.6,"pm2_5":21.5,"no2":13.5,"co":257.0,"o3":49.0,"so2":2.0,"mosquito_risk":3,"arthritis_risk":5,"migraine_risk":7,"frizz_risk":0,"updated_at":"2026-05-05T05:26:30.613520+05:30"},{"city":"Amritsar","state":"Punjab","latitude":31.634,"longitude":74.8723,"temp":20.4,"humidity":69,"rain":0.0,"pressure":982.6,"uv_index":8.2,"wind_gusts":29.5,"aqi":105,"pm10":56.5,"pm2_5":34.6,"no2":9.3,"co":365.0,"o3":78.0,"so2":13.7,"mosquito_risk":3,"arthritis_risk":5,"migraine_risk":7,"frizz_risk":0,"updated_at":"2026-05-05T05:26:30.613528+05:30"},{"city":"Ludhiana","state":"Punjab","latitude":30.901,"longitude":75.8573,"temp":19.7,"humidity":73,"rain":0.0,"pressure":979.9,"uv_index":7.8,"wind_gusts":26.3,"aqi":129,"pm10":56.2,"pm2_5":31.4,"no2":13.7,"co":455.0,"o3":63.0,"so2":6.6,"mosquito_risk":3,"arthritis_risk":5,"migraine_risk":7,"frizz_risk":0,"updated_at":"2026-05-05T05:26:30.613535+05:30"},{"city":"Jalandhar","state":"Punjab","latitude":31.326,"longitude":75.5762,"temp":19.0,"humidity":73,"rain":0.0,"pressure":981.0,"uv_index":7.95,"wind_gusts":24.8,"aqi":122,"pm10":51.7,"pm2_5":34.8,"no2":14.8,"co":418.0,"o3":67.0,"so2":13.1,"mosquito_risk":3,"arthritis_risk":5,"migraine_risk":7,"frizz_risk":0,"updated_at":"2026-05-05T05:26:30.613542+05:30"},{"city":"Dehradun","state":"Uttarakhand","latitude":30.6284,"longitude":78.0322,"temp":7.6,"humidity":92,"rain":0.0,"pressure":827.5,"uv_index":7.85,"wind_gusts":37.4,"aqi":59,"pm10":13.8,"pm2_5":9.6,"no2":22.6,"co":203.0,"o3":21.0,"so2":0.0,"mosquito_risk":3,"arthritis_risk":10,"migraine_risk":7,"frizz_risk":0,"updated_at":"2026-05-05T05:26:30.613552+05:30"},{"city":"Shimla","state":"Himachal Pradesh","latitude":31.1048,"longitude":77.1734,"temp":5.3,"humidity":79,"rain":0.0,"pressure":779.6,"uv_index":7.6,"wind_gusts":30.2,"aqi":71,"pm10":22.5,"pm2_5":12.5,"no2":13.3,"co":217.0,"o3":77.0,"so2":0.9,"mosquito_risk":3,"arthritis_risk":5,"migraine_risk":7,"frizz_risk":0,"updated_at":"2026-05-05T05:26:30.613559+05:30"},{"city":"Manali","state":"Himachal Pradesh","latitude":32.2396,"longitude":77.1887,"temp":8.8,"humidity":74,"rain":0.0,"pressure":816.3,"uv_index":9.3,"wind_gusts":36.7,"aqi":109,"pm10":2.2,"pm2_5":1.6,"no2":4.7,"co":214.0,"o3":145.0,"so2":0.0,"mosquito_risk":3,"arthritis_risk":5,"migraine_risk":7,"frizz_risk":0,"updated_at":"2026-05-05T05:26:30.613582+05:30"},{"city":"Gurgaon","state":"Haryana","latitude":28.4595,"longitude":77.0266,"temp":22.3,"humidity":81,"rain":0.0,"pressure":982.3,"uv_index":7.65,"wind_gusts":36.0,"aqi":790,"pm10":529.0,"pm2_5":86.1,"no2":18.5,"co":451.0,"o3":66.0,"so2":16.4,"mosquito_risk":3,"arthritis_risk":5,"migraine_risk":7,"frizz_risk":1,"updated_at":"2026-05-05T05:26:30.613589+05:30"},{"city":"Noida","state":"Uttar Pradesh","latitude":28.5355,"longitude":77.391,"temp":22.0,"humidity":83,"rain":0.0,"pressure":986.0,"uv_index":7.55,"wind_gusts":39.2,"aqi":790,"pm10":529.0,"pm2_5":86.1,"no2":18.5,"co":463.0,"o3":66.0,"so2":16.4,"mosquito_risk":3,"arthritis_risk":5,"migraine_risk":7,"frizz_risk":1,"updated_at":"2026-05-05T05:26:30.613596+05:30"},{"city":"Ghaziabad","state":"Uttar Pradesh","latitude":28.6692,"longitude":77.4538,"temp":22.0,"humidity":83,"rain":0.0,"pressure":984.2,"uv_index":7.5,"wind_gusts":30.6,"aqi":94,"pm10":95.5,"pm2_5":34.6,"no2":12.5,"co":450.0,"o3":67.0,"so2":7.6,"mosquito_risk":3,"arthritis_risk":5,"migraine_risk":7,"frizz_risk":1,"updated_at":"2026-05-05T05:26:30.613603+05:30"},{"city":"Faridabad","state":"Haryana","latitude":28.4089,"longitude":77.3178,"temp":22.1,"humidity":84,"rain":0.0,"pressure":985.2,"uv_index":7.6,"wind_gusts":40.3,"aqi":790,"pm10":529.0,"pm2_5":86.1,"no2":18.5,"co":473.0,"o3":66.0,"so2":16.4,"mosquito_risk":3,"arthritis_risk":5,"migraine_risk":7,"frizz_risk":1,"updated_at":"2026-05-05T05:26:30.613609+05:30"},{"city":"Meerut","state":"Uttar Pradesh","latitude":28.9845,"longitude":77.7064,"temp":21.2,"humidity":86,"rain":0.0,"pressure":983.1,"uv_index":7.45,"wind_gusts":39.2,"aqi":94,"pm10":95.5,"pm2_5":34.6,"no2":12.5,"co":546.0,"o3":67.0,"so2":7.6,"mosquito_risk":3,"arthritis_risk":5,"migraine_risk":7,"frizz_risk":1,"updated_at":"2026-05-05T05:26:30.613616+05:30"},{"city":"Agra","state":"Uttar Pradesh","latitude":27.1767,"longitude":78.0081,"temp":24.5,"humidity":79,"rain":0.0,"pressure":988.6,"uv_index":7.9,"wind_gusts":59.8,"aqi":662,"pm10":145.3,"pm2_5":53.4,"no2":13.0,"co":404.0,"o3":72.0,"so2":12.0,"mosquito_risk":3,"arthritis_risk":5,"migraine_risk":7,"frizz_risk":1,"updated_at":"2026-05-05T05:26:30.613622+05:30"},{"city":"Varanasi","state":"Uttar Pradesh","latitude":25.3176,"longitude":82.9739,"temp":22.4,"humidity":94,"rain":0.0,"pressure":999.9,"uv_index":8.1,"wind_gusts":29.2,"aqi":147,"pm10":55.1,"pm2_5":51.7,"no2":12.6,"co":426.0,"o3":86.0,"so2":14.9,"mosquito_risk":3,"arthritis_risk":5,"migraine_risk":7,"frizz_risk":1,"updated_at":"2026-05-05T05:26:30.613629+05:30"},{"city":"Prayagraj","state":"Uttar Pradesh","latitude":25.4358,"longitude":81.8463,"temp":22.9,"humidity":86,"rain":0.0,"pressure":998.3,"uv_index":7.95,"wind_gusts":31.7,"aqi":134,"pm10":42.1,"pm2_5":38.5,"no2":11.6,"co":454.0,"o3":90.0,"so2":10.9,"mosquito_risk":3,"arthritis_risk":5,"migraine_risk":7,"frizz_risk":1,"updated_at":"2026-05-05T05:26:30.613638+05:30"},{"city":"Gorakhpur","state":"Uttar Pradesh","latitude":26.7606,"longitude":83.3732,"temp":20.7,"humidity":87,"rain":0.0,"pressure":1000.3,"uv_index":7.0,"wind_gusts":24.5,"aqi":75,"pm10":22.3,"pm2_5":17.0,"no2":9.1,"co":436.0,"o3":83.0,"so2":4.1,"mosquito_risk":3,"arthritis_risk":5,"migraine_risk":4,"frizz_risk":1,"updated_at":"2026-05-05T05:26:30.613645+05:30"},{"city":"Bareilly","state":"Uttar Pradesh","latitude":28.367,"longitude":79.4304,"temp":21.6,"humidity":84,"rain":0.0,"pressure":989.3,"uv_index":7.8,"wind_gusts":27.7,"aqi":95,"pm10":43.5,"pm2_5":31.9,"no2":18.5,"co":361.0,"o3":60.0,"so2":12.2,"mosquito_risk":3,"arthritis_risk":5,"migraine_risk":7,"frizz_risk":1,"updated_at":"2026-05-05T05:26:30.613652+05:30"},{"city":"Aligarh","state":"Uttar Pradesh","latitude":27.8974,"longitude":78.088,"temp":22.9,"humidity":81,"rain":0.0,"pressure":987.1,"uv_index":7.7,"wind_gusts":43.2,"aqi":278,"pm10":216.5,"pm2_5":63.3,"no2":12.0,"co":408.0,"o3":73.0,"so2":14.2,"mosquito_risk":3,"arthritis_risk":5,"migraine_risk":7,"frizz_risk":1,"updated_at":"2026-05-05T05:26:30.613658+05:30"},{"city":"Moradabad","state":"Uttar Pradesh","latitude":28.8386,"longitude":78.7733,"temp":21.4,"humidity":86,"rain":0.0,"pressure":986.0,"uv_index":7.65,"wind_gusts":29.9,"aqi":108,"pm10":58.3,"pm2_5":42.6,"no2":31.2,"co":643.0,"o3":35.0,"so2":9.5,"mosquito_risk":3,"arthritis_risk":5,"migraine_risk":7,"frizz_risk":1,"updated_at":"2026-05-05T05:26:30.613664+05:30"},{"city":"Saharanpur","state":"Uttar Pradesh","latitude":29.9637,"longitude":77.546,"temp":20.5,"humidity":61,"rain":0.0,"pressure":977.1,"uv_index":7.15,"wind_gusts":30.2,"aqi":98,"pm10":33.5,"pm2_5":24.5,"no2":22.8,"co":365.0,"o3":20.0,"so2":5.1,"mosquito_risk":3,"arthritis_risk":5,"migraine_risk":7,"frizz_risk":0,"updated_at":"2026-05-05T05:26:30.613670+05:30"},{"city":"Jhansi","state":"Uttar Pradesh","latitude":25.4484,"longitude":78.5685,"temp":24.4,"humidity":81,"rain":0.0,"pressure":977.9,"uv_index":8.3,"wind_gusts":39.2,"aqi":96,"pm10":102.9,"pm2_5":41.3,"no2":3.9,"co":336.0,"o3":99.0,"so2":7.5,"mosquito_risk":3,"arthritis_risk":5,"migraine_risk":7,"frizz_risk":1,"updated_at":"2026-05-05T05:26:33.868635+05:30"},{"city":"Surat","state":"Gujarat","latitude":21.1702,"longitude":72.8311,"temp":28.3,"humidity":79,"rain":0.0,"pressure":1005.2,"uv_index":7.7,"wind_gusts":41.8,"aqi":65,"pm10":49.4,"pm2_5":22.6,"no2":19.6,"co":243.0,"o3":52.0,"so2":32.8,"mosquito_risk":7,"arthritis_risk":5,"migraine_risk":4,"frizz_risk":1,"updated_at":"2026-05-05T05:26:33.868671+05:30"},{"city":"Vadodara","state":"Gujarat","latitude":22.3072,"longitude":73.1812,"temp":27.8,"humidity":82,"rain":0.0,"pressure":1002.9,"uv_index":8.05,"wind_gusts":37.4,"aqi":60,"pm10":40.0,"pm2_5":17.9,"no2":9.3,"co":195.0,"o3":53.0,"so2":13.3,"mosquito_risk":7,"arthritis_risk":5,"migraine_risk":4,"frizz_risk":1,"updated_at":"2026-05-05T05:26:33.868683+05:30"},{"city":"Rajkot","state":"Gujarat","latitude":22.3039,"longitude":70.8022,"temp":25.0,"humidity":95,"rain":0.0,"pressure":992.0,"uv_index":7.7,"wind_gusts":47.9,"aqi":56,"pm10":42.4,"pm2_5":15.7,"no2":2.3,"co":142.0,"o3":63.0,"so2":1.8,"mosquito_risk":7,"arthritis_risk":5,"migraine_risk":7,"frizz_risk":1,"updated_at":"2026-05-05T05:26:33.868692+05:30"},{"city":"Thane","state":"Maharashtra","latitude":19.2183,"longitude":72.9781,"temp":27.5,"humidity":84,"rain":0.0,"pressure":1006.6,"uv_index":7.85,"wind_gusts":38.5,"aqi":61,"pm10":51.9,"pm2_5":17.6,"no2":8.2,"co":229.0,"o3":62.0,"so2":11.6,"mosquito_risk":7,"arthritis_risk":5,"migraine_risk":4,"frizz_risk":1,"updated_at":"2026-05-05T05:26:33.868700+05:30"},{"city":"Nagpur","state":"Maharashtra","latitude":21.1458,"longitude":79.0882,"temp":28.2,"humidity":34,"rain":0.0,"pressure":971.2,"uv_index":8.9,"wind_gusts":52.9,"aqi":77,"pm10":58.4,"pm2_5":41.9,"no2":36.3,"co":250.0,"o3":19.0,"so2":14.0,"mosquito_risk":4,"arthritis_risk":5,"migraine_risk":7,"frizz_risk":0,"updated_at":"2026-05-05T05:26:33.868708+05:30"},{"city":"Nashik","state":"Maharashtra","latitude":19.9975,"longitude":73.7898,"temp":22.4,"humidity":95,"rain":0.0,"pressure":944.0,"uv_index":8.2,"wind_gusts":38.2,"aqi":57,"pm10":31.0,"pm2_5":16.6,"no2":13.8,"co":187.0,"o3":41.0,"so2":10.6,"mosquito_risk":3,"arthritis_risk":5,"migraine_risk":7,"frizz_risk":1,"updated_at":"2026-05-05T05:26:33.868715+05:30"},{"city":"Aurangabad","state":"Maharashtra","latitude":19.8762,"longitude":75.3433,"temp":23.6,"humidity":68,"rain":0.0,"pressure":942.5,"uv_index":9.05,"wind_gusts":32.8,"aqi":58,"pm10":39.5,"pm2_5":16.3,"no2":13.7,"co":195.0,"o3":50.0,"so2":15.1,"mosquito_risk":3,"arthritis_risk":5,"migraine_risk":7,"frizz_risk":1,"updated_at":"2026-05-05T05:26:33.868722+05:30"},{"city":"Solapur","state":"Maharashtra","latitude":17.6599,"longitude":75.9064,"temp":25.3,"humidity":56,"rain":0.0,"pressure":956.0,"uv_index":9.1,"wind_gusts":49.7,"aqi":53,"pm10":21.0,"pm2_5":10.0,"no2":8.2,"co":187.0,"o3":46.0,"so2":3.4,"mosquito_risk":4,"arthritis_risk":5,"migraine_risk":7,"frizz_risk":0,"updated_at":"2026-05-05T05:26:33.868730+05:30"},{"city":"Kolhapur","state":"Maharashtra","latitude":16.705,"longitude":74.2433,"temp":21.9,"humidity":98,"rain":0.0,"pressure":946.6,"uv_index":8.95,"wind_gusts":46.8,"aqi":57,"pm10":29.9,"pm2_5":18.7,"no2":8.7,"co":166.0,"o3":39.0,"so2":0.5,"mosquito_risk":3,"arthritis_risk":5,"migraine_risk":7,"frizz_risk":1,"updated_at":"2026-05-05T05:26:33.868736+05:30"},{"city":"Goa","state":"Goa","latitude":15.2993,"longitude":74.124,"temp":26.5,"humidity":93,"rain":0.0,"pressure":997.2,"uv_index":8.95,"wind_gusts":35.6,"aqi":66,"pm10":55.5,"pm2_5":26.5,"no2":9.7,"co":202.0,"o3":48.0,"so2":1.7,"mosquito_risk":7,"arthritis_risk":5,"migraine_risk":7,"frizz_risk":1,"updated_at":"2026-05-05T05:26:33.868744+05:30"},{"city":"Jodhpur","state":"Rajasthan","latitude":26.2389,"longitude":73.0243,"temp":26.0,"humidity":54,"rain":0.0,"pressure":981.0,"uv_index":8.3,"wind_gusts":36.0,"aqi":88,"pm10":132.7,"pm2_5":24.7,"no2":2.6,"co":181.0,"o3":97.0,"so2":3.7,"mosquito_risk":4,"arthritis_risk":5,"migraine_risk":7,"frizz_risk":0,"updated_at":"2026-05-05T05:26:33.868751+05:30"},{"city":"Udaipur","state":"Rajasthan","latitude":24.5854,"longitude":73.7125,"temp":20.0,"humidity":80,"rain":0.0,"pressure":945.6,"uv_index":8.75,"wind_gusts":57.6,"aqi":65,"pm10":44.4,"pm2_5":19.7,"no2":3.3,"co":206.0,"o3":85.0,"so2":5.3,"mosquito_risk":3,"arthritis_risk":5,"migraine_risk":7,"frizz_risk":1,"updated_at":"2026-05-05T05:26:33.868758+05:30"},{"city":"Kota","state":"Rajasthan","latitude":25.2138,"longitude":75.8648,"temp":24.4,"humidity":57,"rain":0.0,"pressure":978.6,"uv_index":8.3,"wind_gusts":46.4,"aqi":72,"pm10":44.5,"pm2_5":28.6,"no2":5.6,"co":319.0,"o3":74.0,"so2":8.5,"mosquito_risk":0,"arthritis_risk":5,"migraine_risk":7,"frizz_risk":0,"updated_at":"2026-05-05T05:26:33.868765+05:30"},{"city":"Bikaner","state":"Rajasthan","latitude":28.0229,"longitude":73.3119,"temp":24.9,"humidity":49,"rain":0.0,"pressure":980.0,"uv_index":8.2,"wind_gusts":33.1,"aqi":91,"pm10":35.0,"pm2_5":17.4,"no2":2.7,"co":217.0,"o3":90.0,"so2":3.7,"mosquito_risk":0,"arthritis_risk":5,"migraine_risk":7,"frizz_risk":0,"updated_at":"2026-05-05T05:26:33.868772+05:30"},{"city":"Ajmer","state":"Rajasthan","latitude":26.4499,"longitude":74.6399,"temp":23.4,"humidity":57,"rain":0.0,"pressure":953.4,"uv_index":8.2,"wind_gusts":41.0,"aqi":63,"pm10":54.2,"pm2_5":20.4,"no2":2.4,"co":242.0,"o3":102.0,"so2":4.9,"mosquito_risk":0,"arthritis_risk":5,"migraine_risk":7,"frizz_risk":0,"updated_at":"2026-05-05T05:26:33.868779+05:30"},{"city":"Gwalior","state":"Madhya Pradesh","latitude":26.2183,"longitude":78.1828,"temp":24.6,"humidity":74,"rain":0.0,"pressure":983.6,"uv_index":8.1,"wind_gusts":37.8,"aqi":108,"pm10":100.4,"pm2_5":37.1,"no2":3.6,"co":334.0,"o3":108.0,"so2":4.6,"mosquito_risk":3,"arthritis_risk":5,"migraine_risk":7,"frizz_risk":1,"updated_at":"2026-05-05T05:26:33.868785+05:30"},{"city":"Indore","state":"Madhya Pradesh","latitude":22.7196,"longitude":75.8577,"temp":25.6,"humidity":57,"rain":0.0,"pressure":946.7,"uv_index":8.6,"wind_gusts":41.8,"aqi":66,"pm10":42.0,"pm2_5":22.4,"no2":4.8,"co":355.0,"o3":88.0,"so2":8.1,"mosquito_risk":4,"arthritis_risk":5,"migraine_risk":7,"frizz_risk":1,"updated_at":"2026-05-05T05:26:33.868792+05:30"},{"city":"Bhopal","state":"Madhya Pradesh","latitude":23.2599,"longitude":77.4126,"temp":25.5,"humidity":56,"rain":0.0,"pressure":952.3,"uv_index":8.65,"wind_gusts":46.1,"aqi":56,"pm10":40.4,"pm2_5":26.3,"no2":2.3,"co":273.0,"o3":117.0,"so2":6.6,"mosquito_risk":4,"arthritis_risk":5,"migraine_risk":7,"frizz_risk":1,"updated_at":"2026-05-05T05:26:33.868798+05:30"},{"city":"Jabalpur","state":"Madhya Pradesh","latitude":23.1815,"longitude":79.9864,"temp":23.6,"humidity":72,"rain":0.0,"pressure":960.7,"uv_index":8.2,"wind_gusts":72.0,"aqi":70,"pm10":56.3,"pm2_5":34.0,"no2":7.9,"co":251.0,"o3":107.0,"so2":13.3,"mosquito_risk":3,"arthritis_risk":5,"migraine_risk":7,"frizz_risk":1,"updated_at":"2026-05-05T05:26:33.868805+05:30"},{"city":"Ujjain","state":"Madhya Pradesh","latitude":23.1765,"longitude":75.7885,"temp":25.0,"humidity":61,"rain":0.0,"pressure":952.3,"uv_index":8.55,"wind_gusts":41.0,"aqi":69,"pm10":50.2,"pm2_5":27.2,"no2":7.0,"co":384.0,"o3":79.0,"so2":8.4,"mosquito_risk":7,"arthritis_risk":5,"migraine_risk":7,"frizz_risk":1,"updated_at":"2026-05-05T05:26:33.868812+05:30"},{"city":"Visakhapatnam","state":"Andhra Pradesh","latitude":17.6868,"longitude":83.2185,"temp":25.6,"humidity":99,"rain":0.0,"pressure":1003.3,"uv_index":9.2,"wind_gusts":35.3,"aqi":82,"pm10":37.7,"pm2_5":29.9,"no2":36.9,"co":1406.0,"o3":39.0,"so2":4.0,"mosquito_risk":7,"arthritis_risk":5,"migraine_risk":4,"frizz_risk":1,"updated_at":"2026-05-05T05:26:33.868819+05:30"},{"city":"Vijayawada","state":"Andhra Pradesh","latitude":16.5062,"longitude":80.648,"temp":28.2,"humidity":90,"rain":0.0,"pressure":1001.6,"uv_index":9.2,"wind_gusts":34.9,"aqi":86,"pm10":21.0,"pm2_5":17.0,"no2":6.5,"co":209.0,"o3":66.0,"so2":3.4,"mosquito_risk":7,"arthritis_risk":5,"migraine_risk":4,"frizz_risk":1,"updated_at":"2026-05-05T05:26:33.868825+05:30"},{"city":"Guntur","state":"Andhra Pradesh","latitude":16.3067,"longitude":80.4365,"temp":28.6,"humidity":86,"rain":0.0,"pressure":1002.7,"uv_index":9.2,"wind_gusts":38.2,"aqi":86,"pm10":20.6,"pm2_5":16.3,"no2":5.8,"co":195.0,"o3":69.0,"so2":2.8,"mosquito_risk":7,"arthritis_risk":5,"migraine_risk":4,"frizz_risk":1,"updated_at":"2026-05-05T05:26:33.868832+05:30"},{"city":"Nellore","state":"Andhra Pradesh","latitude":14.4426,"longitude":79.9865,"temp":28.4,"humidity":83,"rain":0.0,"pressure":1004.3,"uv_index":8.4,"wind_gusts":37.4,"aqi":77,"pm10":27.6,"pm2_5":21.7,"no2":6.6,"co":261.0,"o3":81.0,"so2":6.6,"mosquito_risk":7,"arthritis_risk":5,"migraine_risk":4,"frizz_risk":1,"updated_at":"2026-05-05T05:26:33.868839+05:30"},{"city":"Kurnool","state":"Andhra Pradesh","latitude":15.8281,"longitude":78.0373,"temp":28.2,"humidity":46,"rain":0.0,"pressure":975.5,"uv_index":9.2,"wind_gusts":42.8,"aqi":74,"pm10":43.9,"pm2_5":27.1,"no2":22.9,"co":264.0,"o3":38.0,"so2":4.8,"mosquito_risk":4,"arthritis_risk":5,"migraine_risk":7,"frizz_risk":0,"updated_at":"2026-05-05T05:26:33.868846+05:30"},{"city":"Kakinada","state":"Andhra Pradesh","latitude":16.9891,"longitude":82.2475,"temp":26.4,"humidity":97,"rain":0.0,"pressure":1007.1,"uv_index":9.15,"wind_gusts":31.0,"aqi":77,"pm10":26.4,"pm2_5":18.5,"no2":2.1,"co":288.0,"o3":87.0,"so2":1.2,"mosquito_risk":7,"arthritis_risk":5,"migraine_risk":4,"frizz_risk":1,"updated_at":"2026-05-05T05:26:33.868853+05:30"},{"city":"Tirupati","state":"Andhra Pradesh","latitude":13.6288,"longitude":79.4192,"temp":27.0,"humidity":73,"rain":0.0,"pressure":989.5,"uv_index":8.1,"wind_gusts":31.7,"aqi":103,"pm10":42.5,"pm2_5":36.3,"no2":19.9,"co":297.0,"o3":44.0,"so2":5.1,"mosquito_risk":7,"arthritis_risk":5,"migraine_risk":7,"frizz_risk":1,"updated_at":"2026-05-05T05:26:33.868860+05:30"},{"city":"Warangal","state":"Telangana","latitude":17.9689,"longitude":79.5941,"temp":27.0,"humidity":73,"rain":0.0,"pressure":977.3,"uv_index":9.05,"wind_gusts":42.8,"aqi":90,"pm10":32.8,"pm2_5":25.6,"no2":7.4,"co":240.0,"o3":93.0,"so2":9.4,"mosquito_risk":7,"arthritis_risk":5,"migraine_risk":7,"frizz_risk":1,"updated_at":"2026-05-05T05:26:33.868865+05:30"},{"city":"Nizamabad","state":"Telangana","latitude":18.6725,"longitude":78.0941,"temp":27.0,"humidity":44,"rain":0.0,"pressure":963.0,"uv_index":9.1,"wind_gusts":31.7,"aqi":85,"pm10":42.8,"pm2_5":32.2,"no2":26.4,"co":311.0,"o3":40.0,"so2":7.4,"mosquito_risk":4,"arthritis_risk":5,"migraine_risk":7,"frizz_risk":0,"updated_at":"2026-05-05T05:26:33.868872+05:30"},{"city":"Mysore","state":"Karnataka","latitude":12.2958,"longitude":76.6396,"temp":22.8,"humidity":92,"rain":0.0,"pressure":927.7,"uv_index":8.8,"wind_gusts":40.7,"aqi":71,"pm10":31.3,"pm2_5":18.9,"no2":7.8,"co":161.0,"o3":51.0,"so2":1.2,"mosquito_risk":3,"arthritis_risk":5,"migraine_risk":7,"frizz_risk":1,"updated_at":"2026-05-05T05:26:33.868879+05:30"},{"city":"Mangalore","state":"Karnataka","latitude":12.9141,"longitude":74.856,"temp":27.2,"humidity":86,"rain":0.0,"pressure":1006.3,"uv_index":7.25,"wind_gusts":44.3,"aqi":67,"pm10":41.9,"pm2_5":17.1,"no2":4.1,"co":206.0,"o3":53.0,"so2":1.7,"mosquito_risk":7,"arthritis_risk":5,"migraine_risk":4,"frizz_risk":1,"updated_at":"2026-05-05T05:26:33.868886+05:30"},{"city":"Hubli-Dharwad","state":"Karnataka","latitude":15.3647,"longitude":75.124,"temp":21.9,"humidity":98,"rain":0.0,"pressure":939.9,"uv_index":9.2,"wind_gusts":52.9,"aqi":55,"pm10":29.8,"pm2_5":15.5,"no2":6.9,"co":172.0,"o3":41.0,"so2":1.1,"mosquito_risk":3,"arthritis_risk":5,"migraine_risk":7,"frizz_risk":1,"updated_at":"2026-05-05T05:26:33.868893+05:30"},{"city":"Belgaum","state":"Karnataka","latitude":15.8497,"longitude":74.4977,"temp":20.0,"humidity":99,"rain":0.0,"pressure":924.0,"uv_index":9.2,"wind_gusts":50.4,"aqi":57,"pm10":34.2,"pm2_5":16.5,"no2":7.1,"co":170.0,"o3":43.0,"so2":0.5,"mosquito_risk":3,"arthritis_risk":5,"migraine_risk":7,"frizz_risk":1,"updated_at":"2026-05-05T05:26:37.153478+05:30"},{"city":"Coimbatore","state":"Tamil Nadu","latitude":11.0168,"longitude":76.9558,"temp":23.8,"humidity":89,"rain":0.0,"pressure":960.9,"uv_index":9.35,"wind_gusts":34.6,"aqi":64,"pm10":27.8,"pm2_5":13.8,"no2":5.3,"co":218.0,"o3":70.0,"so2":2.3,"mosquito_risk":3,"arthritis_risk":5,"migraine_risk":7,"frizz_risk":1,"updated_at":"2026-05-05T05:26:37.153513+05:30"},{"city":"Madurai","state":"Tamil Nadu","latitude":9.9252,"longitude":78.1198,"temp":27.2,"humidity":70,"rain":0.0,"pressure":991.7,"uv_index":3.55,"wind_gusts":38.9,"aqi":88,"pm10":35.6,"pm2_5":25.0,"no2":19.4,"co":301.0,"o3":36.0,"so2":5.6,"mosquito_risk":7,"arthritis_risk":5,"migraine_risk":3,"frizz_risk":1,"updated_at":"2026-05-05T05:26:37.153525+05:30"},{"city":"Trichy","state":"Tamil Nadu","latitude":10.7905,"longitude":78.7047,"temp":28.4,"humidity":72,"rain":0.0,"pressure":998.1,"uv_index":8.75,"wind_gusts":55.4,"aqi":84,"pm10":52.5,"pm2_5":34.0,"no2":18.3,"co":250.0,"o3":61.0,"so2":6.3,"mosquito_risk":7,"arthritis_risk":5,"migraine_risk":7,"frizz_risk":1,"updated_at":"2026-05-05T05:26:37.153534+05:30"},{"city":"Salem","state":"Tamil Nadu","latitude":11.6643,"longitude":78.146,"temp":26.7,"humidity":65,"rain":0.0,"pressure":976.4,"uv_index":9.3,"wind_gusts":47.2,"aqi":85,"pm10":58.1,"pm2_5":33.3,"no2":15.2,"co":264.0,"o3":65.0,"so2":8.1,"mosquito_risk":7,"arthritis_risk":5,"migraine_risk":7,"frizz_risk":1,"updated_at":"2026-05-05T05:26:37.153542+05:30"},{"city":"Tirunelveli","state":"Tamil Nadu","latitude":8.7139,"longitude":77.7567,"temp":27.8,"humidity":72,"rain":0.0,"pressure":1002.0,"uv_index":3.75,"wind_gusts":32.0,"aqi":81,"pm10":49.0,"pm2_5":25.2,"no2":9.0,"co":309.0,"o3":42.0,"so2":2.5,"mosquito_risk":7,"arthritis_risk":5,"migraine_risk":0,"frizz_risk":1,"updated_at":"2026-05-05T05:26:37.153550+05:30"},{"city":"Vellore","state":"Tamil Nadu","latitude":12.9165,"longitude":79.1325,"temp":27.0,"humidity":65,"rain":0.0,"pressure":983.0,"uv_index":7.6,"wind_gusts":43.6,"aqi":112,"pm10":62.4,"pm2_5":43.0,"no2":12.4,"co":272.0,"o3":68.0,"so2":6.9,"mosquito_risk":7,"arthritis_risk":5,"migraine_risk":7,"frizz_risk":1,"updated_at":"2026-05-05T05:26:37.153558+05:30"},{"city":"Erode","state":"Tamil Nadu","latitude":11.341,"longitude":77.7172,"temp":27.8,"humidity":72,"rain":0.0,"pressure":988.1,"uv_index":9.25,"wind_gusts":46.1,"aqi":73,"pm10":29.9,"pm2_5":19.9,"no2":18.2,"co":233.0,"o3":49.0,"so2":4.7,"mosquito_risk":7,"arthritis_risk":5,"migraine_risk":7,"frizz_risk":1,"updated_at":"2026-05-05T05:26:37.153583+05:30"},{"city":"Kochi","state":"Kerala","latitude":9.9312,"longitude":76.2673,"temp":24.9,"humidity":96,"rain":0.1,"pressure":1008.4,"uv_index":6.1,"wind_gusts":29.2,"aqi":89,"pm10":30.9,"pm2_5":18.5,"no2":9.2,"co":232.0,"o3":58.0,"so2":3.0,"mosquito_risk":6,"arthritis_risk":0,"migraine_risk":4,"frizz_risk":1,"updated_at":"2026-05-05T05:26:37.153590+05:30"},{"city":"Thiruvananthapuram","state":"Kerala","latitude":8.5241,"longitude":76.9366,"temp":24.7,"humidity":91,"rain":0.0,"pressure":1007.6,"uv_index":7.5,"wind_gusts":38.2,"aqi":75,"pm10":49.6,"pm2_5":21.8,"no2":5.7,"co":305.0,"o3":65.0,"so2":2.9,"mosquito_risk":3,"arthritis_risk":5,"migraine_risk":4,"frizz_risk":1,"updated_at":"2026-05-05T05:26:37.153598+05:30"},{"city":"Kozhikode","state":"Kerala","latitude":11.2588,"longitude":75.7804,"temp":25.0,"humidity":96,"rain":0.0,"pressure":1007.7,"uv_index":8.8,"wind_gusts":36.7,"aqi":65,"pm10":45.4,"pm2_5":15.4,"no2":1.1,"co":245.0,"o3":76.0,"so2":0.5,"mosquito_risk":7,"arthritis_risk":5,"migraine_risk":4,"frizz_risk":1,"updated_at":"2026-05-05T05:26:37.153605+05:30"},{"city":"Thrissur","state":"Kerala","latitude":10.5276,"longitude":76.2144,"temp":24.4,"humidity":99,"rain":0.0,"pressure":1006.8,"uv_index":6.15,"wind_gusts":27.7,"aqi":82,"pm10":31.4,"pm2_5":17.5,"no2":9.1,"co":200.0,"o3":55.0,"so2":2.3,"mosquito_risk":3,"arthritis_risk":5,"migraine_risk":4,"frizz_risk":1,"updated_at":"2026-05-05T05:26:37.153613+05:30"},{"city":"Kannur","state":"Kerala","latitude":11.8745,"longitude":75.3704,"temp":25.8,"humidity":94,"rain":0.0,"pressure":1006.9,"uv_index":8.45,"wind_gusts":40.7,"aqi":67,"pm10":41.9,"pm2_5":17.4,"no2":6.7,"co":232.0,"o3":50.0,"so2":1.4,"mosquito_risk":7,"arthritis_risk":5,"migraine_risk":4,"frizz_risk":1,"updated_at":"2026-05-05T05:26:37.153619+05:30"},{"city":"Patna","state":"Bihar","latitude":25.5941,"longitude":85.1376,"temp":22.0,"humidity":97,"rain":0.0,"pressure":1003.4,"uv_index":8.7,"wind_gusts":34.6,"aqi":126,"pm10":51.5,"pm2_5":48.4,"no2":12.7,"co":395.0,"o3":75.0,"so2":9.7,"mosquito_risk":3,"arthritis_risk":5,"migraine_risk":4,"frizz_risk":1,"updated_at":"2026-05-05T05:26:37.153626+05:30"},{"city":"Gaya","state":"Bihar","latitude":24.7914,"longitude":85.0002,"temp":22.2,"humidity":98,"rain":0.0,"pressure":996.0,"uv_index":8.75,"wind_gusts":29.5,"aqi":119,"pm10":22.3,"pm2_5":21.7,"no2":10.0,"co":346.0,"o3":104.0,"so2":16.1,"mosquito_risk":3,"arthritis_risk":5,"migraine_risk":7,"frizz_risk":1,"updated_at":"2026-05-05T05:26:37.153633+05:30"},{"city":"Muzaffarpur","state":"Bihar","latitude":26.1209,"longitude":85.3647,"temp":22.0,"humidity":95,"rain":0.0,"pressure":1003.7,"uv_index":8.1,"wind_gusts":29.9,"aqi":112,"pm10":44.8,"pm2_5":40.0,"no2":11.2,"co":376.0,"o3":70.0,"so2":7.2,"mosquito_risk":3,"arthritis_risk":5,"migraine_risk":4,"frizz_risk":1,"updated_at":"2026-05-05T05:26:37.153639+05:30"},{"city":"Bhagalpur","state":"Bihar","latitude":25.2425,"longitude":87.0117,"temp":22.0,"humidity":96,"rain":0.0,"pressure":1004.8,"uv_index":8.7,"wind_gusts":30.6,"aqi":120,"pm10":49.6,"pm2_5":45.5,"no2":12.9,"co":330.0,"o3":76.0,"so2":12.2,"mosquito_risk":3,"arthritis_risk":5,"migraine_risk":4,"frizz_risk":1,"updated_at":"2026-05-05T05:26:37.153646+05:30"},{"city":"Ranchi","state":"Jharkhand","latitude":23.3441,"longitude":85.3096,"temp":19.9,"humidity":98,"rain":0.0,"pressure":938.1,"uv_index":9.25,"wind_gusts":45.4,"aqi":104,"pm10":44.9,"pm2_5":34.3,"no2":8.6,"co":296.0,"o3":92.0,"so2":12.9,"mosquito_risk":3,"arthritis_risk":10,"migraine_risk":7,"frizz_risk":1,"updated_at":"2026-05-05T05:26:37.153653+05:30"},{"city":"Jamshedpur","state":"Jharkhand","latitude":22.8046,"longitude":86.2029,"temp":22.0,"humidity":96,"rain":0.0,"pressure":992.5,"uv_index":9.05,"wind_gusts":34.6,"aqi":96,"pm10":34.5,"pm2_5":28.5,"no2":19.2,"co":603.0,"o3":67.0,"so2":21.1,"mosquito_risk":3,"arthritis_risk":5,"migraine_risk":7,"frizz_risk":1,"updated_at":"2026-05-05T05:26:37.153660+05:30"},{"city":"Dhanbad","state":"Jharkhand","latitude":23.7957,"longitude":86.4304,"temp":22.0,"humidity":98,"rain":0.0,"pressure":981.5,"uv_index":9.0,"wind_gusts":45.0,"aqi":150,"pm10":51.5,"pm2_5":47.4,"no2":58.0,"co":394.0,"o3":30.0,"so2":83.1,"mosquito_risk":3,"arthritis_risk":5,"migraine_risk":7,"frizz_risk":1,"updated_at":"2026-05-05T05:26:37.153667+05:30"},{"city":"Bokaro","state":"Jharkhand","latitude":23.6693,"longitude":86.1511,"temp":22.2,"humidity":96,"rain":0.0,"pressure":985.3,"uv_index":9.0,"wind_gusts":42.8,"aqi":152,"pm10":58.8,"pm2_5":54.0,"no2":56.8,"co":544.0,"o3":27.0,"so2":86.9,"mosquito_risk":3,"arthritis_risk":5,"migraine_risk":7,"frizz_risk":1,"updated_at":"2026-05-05T05:26:37.153674+05:30"},{"city":"Bhubaneswar","state":"Odisha","latitude":20.2961,"longitude":85.8245,"temp":25.9,"humidity":98,"rain":0.0,"pressure":1003.5,"uv_index":9.1,"wind_gusts":34.9,"aqi":65,"pm10":18.9,"pm2_5":14.1,"no2":9.7,"co":191.0,"o3":49.0,"so2":3.8,"mosquito_risk":7,"arthritis_risk":5,"migraine_risk":4,"frizz_risk":1,"updated_at":"2026-05-05T05:26:37.153681+05:30"},{"city":"Cuttack","state":"Odisha","latitude":20.4625,"longitude":85.8828,"temp":25.8,"humidity":98,"rain":0.0,"pressure":1005.6,"uv_index":9.15,"wind_gusts":36.7,"aqi":65,"pm10":18.9,"pm2_5":14.1,"no2":9.7,"co":194.0,"o3":49.0,"so2":3.8,"mosquito_risk":7,"arthritis_risk":5,"migraine_risk":4,"frizz_risk":1,"updated_at":"2026-05-05T05:26:37.153688+05:30"},{"city":"Rourkela","state":"Odisha","latitude":22.2604,"longitude":84.8536,"temp":23.4,"humidity":90,"rain":0.0,"pressure":986.2,"uv_index":8.95,"wind_gusts":52.6,"aqi":102,"pm10":56.7,"pm2_5":43.7,"no2":20.1,"co":529.0,"o3":89.0,"so2":49.3,"mosquito_risk":3,"arthritis_risk":5,"migraine_risk":7,"frizz_risk":1,"updated_at":"2026-05-05T05:26:37.153695+05:30"},{"city":"Raipur","state":"Chhattisgarh","latitude":21.2514,"longitude":81.6296,"temp":26.1,"humidity":60,"rain":0.0,"pressure":973.9,"uv_index":8.95,"wind_gusts":47.9,"aqi":104,"pm10":49.8,"pm2_5":40.9,"no2":21.5,"co":311.0,"o3":65.0,"so2":9.4,"mosquito_risk":4,"arthritis_risk":5,"migraine_risk":7,"frizz_risk":1,"updated_at":"2026-05-05T05:26:37.153702+05:30"},{"city":"Bhilai","state":"Chhattisgarh","latitude":21.1938,"longitude":81.3509,"temp":26.2,"humidity":56,"rain":0.0,"pressure":974.2,"uv_index":8.95,"wind_gusts":54.4,"aqi":104,"pm10":60.1,"pm2_5":49.1,"no2":38.7,"co":218.0,"o3":45.0,"so2":10.6,"mosquito_risk":4,"arthritis_risk":5,"migraine_risk":7,"frizz_risk":1,"updated_at":"2026-05-05T05:26:37.153708+05:30"},{"city":"Guwahati","state":"Assam","latitude":26.1158,"longitude":91.7086,"temp":21.2,"humidity":97,"rain":0.2,"pressure":1005.8,"uv_index":8.65,"wind_gusts":23.8,"aqi":85,"pm10":19.9,"pm2_5":15.3,"no2":10.4,"co":342.0,"o3":46.0,"so2":1.7,"mosquito_risk":6,"arthritis_risk":5,"migraine_risk":4,"frizz_risk":1,"updated_at":"2026-05-05T05:26:37.153715+05:30"},{"city":"Agartala","state":"Tripura","latitude":23.8315,"longitude":91.2868,"temp":22.2,"humidity":97,"rain":0.0,"pressure":1009.4,"uv_index":8.7,"wind_gusts":19.4,"aqi":107,"pm10":76.1,"pm2_5":69.4,"no2":55.9,"co":326.0,"o3":9.0,"so2":3.1,"mosquito_risk":3,"arthritis_risk":0,"migraine_risk":4,"frizz_risk":1,"updated_at":"2026-05-05T05:26:37.153722+05:30"},{"city":"Shillong","state":"Meghalaya","latitude":25.5788,"longitude":91.8933,"temp":13.7,"humidity":95,"rain":0.0,"pressure":857.4,"uv_index":9.05,"wind_gusts":25.2,"aqi":56,"pm10":17.5,"pm2_5":11.1,"no2":8.2,"co":283.0,"o3":49.0,"so2":0.5,"mosquito_risk":3,"arthritis_risk":10,"migraine_risk":7,"frizz_risk":0,"updated_at":"2026-05-05T05:26:37.153729+05:30"},{"city":"Imphal","state":"Manipur","latitude":24.817,"longitude":93.9368,"temp":17.0,"humidity":90,"rain":0.0,"pressure":925.3,"uv_index":9.2,"wind_gusts":31.7,"aqi":91,"pm10":62.2,"pm2_5":53.4,"no2":21.3,"co":441.0,"o3":28.0,"so2":0.9,"mosquito_risk":3,"arthritis_risk":10,"migraine_risk":7,"frizz_risk":0,"updated_at":"2026-05-05T05:26:37.153736+05:30"},{"city":"Aizawl","state":"Mizoram","latitude":23.7271,"longitude":92.7176,"temp":14.5,"humidity":99,"rain":0.0,"pressure":893.2,"uv_index":9.05,"wind_gusts":24.8,"aqi":65,"pm10":49.9,"pm2_5":32.4,"no2":16.6,"co":316.0,"o3":18.0,"so2":0.4,"mosquito_risk":3,"arthritis_risk":10,"migraine_risk":7,"frizz_risk":0,"updated_at":"2026-05-05T05:26:37.153743+05:30"},{"city":"Kohima","state":"Nagaland","latitude":25.6701,"longitude":94.1077,"temp":13.5,"humidity":96,"rain":0.0,"pressure":855.5,"uv_index":9.15,"wind_gusts":31.0,"aqi":68,"pm10":24.8,"pm2_5":18.8,"no2":11.1,"co":240.0,"o3":28.0,"so2":0.3,"mosquito_risk":3,"arthritis_risk":10,"migraine_risk":7,"frizz_risk":0,"updated_at":"2026-05-05T05:26:37.153750+05:30"},{"city":"Gangtok","state":"Sikkim","latitude":27.3314,"longitude":88.6138,"temp":11.9,"humidity":99,"rain":0.2,"pressure":838.0,"uv_index":9.0,"wind_gusts":39.2,"aqi":58,"pm10":25.4,"pm2_5":19.4,"no2":12.4,"co":349.0,"o3":86.0,"so2":1.3,"mosquito_risk":6,"arthritis_risk":10,"migraine_risk":7,"frizz_risk":0,"updated_at":"2026-05-05T05:26:37.153757+05:30"},{"city":"Siliguri","state":"West Bengal","latitude":26.7271,"longitude":88.3953,"temp":20.5,"humidity":96,"rain":0.0,"pressure":996.9,"uv_index":8.55,"wind_gusts":25.6,"aqi":80,"pm10":51.3,"pm2_5":36.2,"no2":17.3,"co":375.0,"o3":80.0,"so2":2.8,"mosquito_risk":3,"arthritis_risk":5,"migraine_risk":7,"frizz_risk":1,"updated_at":"2026-05-05T05:26:40.402497+05:30"},{"city":"Durgapur","state":"West Bengal","latitude":23.5204,"longitude":87.3119,"temp":22.4,"humidity":96,"rain":0.1,"pressure":997.0,"uv_index":8.95,"wind_gusts":34.2,"aqi":116,"pm10":43.2,"pm2_5":40.3,"no2":34.8,"co":256.0,"o3":33.0,"so2":40.9,"mosquito_risk":6,"arthritis_risk":5,"migraine_risk":7,"frizz_risk":1,"updated_at":"2026-05-05T05:26:40.402533+05:30"},{"city":"Asansol","state":"West Bengal","latitude":23.6739,"longitude":86.9524,"temp":22.5,"humidity":97,"rain":0.0,"pressure":995.7,"uv_index":8.95,"wind_gusts":41.4,"aqi":128,"pm10":39.9,"pm2_5":37.1,"no2":39.2,"co":435.0,"o3":38.0,"so2":57.5,"mosquito_risk":3,"arthritis_risk":5,"migraine_risk":7,"frizz_risk":1,"updated_at":"2026-05-05T05:26:40.402545+05:30"},{"city":"Pondicherry","state":"Puducherry","latitude":11.9139,"longitude":79.8145,"temp":28.0,"humidity":88,"rain":0.0,"pressure":1006.7,"uv_index":9.15,"wind_gusts":32.4,"aqi":73,"pm10":37.1,"pm2_5":25.3,"no2":7.2,"co":298.0,"o3":96.0,"so2":10.5,"mosquito_risk":7,"arthritis_risk":5,"migraine_risk":4,"frizz_risk":1,"updated_at":"2026-05-05T05:26:40.402554+05:30"},{"city":"Port Blair","state":"Andaman and Nicobar Islands","latitude":11.6234,"longitude":92.7265,"temp":27.6,"humidity":87,"rain":0.0,"pressure":1006.9,"uv_index":8.6,"wind_gusts":39.2,"aqi":26,"pm10":8.8,"pm2_5":6.4,"no2":0.3,"co":172.0,"o3":57.0,"so2":0.2,"mosquito_risk":7,"arthritis_risk":5,"migraine_risk":4,"frizz_risk":1,"updated_at":"2026-05-05T05:26:40.402580+05:30"},{"city":"Haridwar","state":"Uttarakhand","latitude":29.9457,"longitude":78.1642,"temp":17.8,"humidity":73,"rain":0.0,"pressure":975.4,"uv_index":7.35,"wind_gusts":34.2,"aqi":85,"pm10":19.2,"pm2_5":14.7,"no2":16.3,"co":209.0,"o3":31.0,"so2":2.5,"mosquito_risk":3,"arthritis_risk":5,"migraine_risk":7,"frizz_risk":0,"updated_at":"2026-05-05T05:26:40.402589+05:30"},{"city":"Rishikesh","state":"Uttarakhand","latitude":30.0869,"longitude":78.2676,"temp":15.8,"humidity":82,"rain":0.0,"pressure":967.7,"uv_index":7.45,"wind_gusts":26.3,"aqi":71,"pm10":12.6,"pm2_5":8.6,"no2":9.3,"co":216.0,"o3":55.0,"so2":0.9,"mosquito_risk":3,"arthritis_risk":10,"migraine_risk":7,"frizz_risk":0,"updated_at":"2026-05-05T05:26:40.402597+05:30"},{"city":"Nainital","state":"Uttarakhand","latitude":29.3919,"longitude":79.4542,"temp":9.6,"humidity":74,"rain":0.0,"pressure":803.7,"uv_index":7.8,"wind_gusts":29.5,"aqi":68,"pm10":11.0,"pm2_5":8.8,"no2":16.0,"co":218.0,"o3":55.0,"so2":1.5,"mosquito_risk":3,"arthritis_risk":5,"migraine_risk":7,"frizz_risk":0,"updated_at":"2026-05-05T05:26:40.402605+05:30"},{"city":"Mussoorie","state":"Uttarakhand","latitude":30.4599,"longitude":78.0664,"temp":8.2,"humidity":72,"rain":0.0,"pressure":799.8,"uv_index":7.6,"wind_gusts":48.6,"aqi":77,"pm10":16.6,"pm2_5":11.5,"no2":17.2,"co":191.0,"o3":44.0,"so2":2.8,"mosquito_risk":3,"arthritis_risk":5,"migraine_risk":7,"frizz_risk":0,"updated_at":"2026-05-05T05:26:40.402613+05:30"},{"city":"Dharamshala","state":"Himachal Pradesh","latitude":32.219,"longitude":76.3234,"temp":17.1,"humidity":48,"rain":0.0,"pressure":869.5,"uv_index":8.2,"wind_gusts":41.0,"aqi":51,"pm10":16.7,"pm2_5":6.3,"no2":9.6,"co":211.0,"o3":72.0,"so2":0.1,"mosquito_risk":0,"arthritis_risk":5,"migraine_risk":7,"frizz_risk":0,"updated_at":"2026-05-05T05:26:40.402620+05:30"},{"city":"Dalhousie","state":"Himachal Pradesh","latitude":32.5387,"longitude":75.971,"temp":6.2,"humidity":97,"rain":0.0,"pressure":800.3,"uv_index":8.45,"wind_gusts":40.3,"aqi":77,"pm10":30.7,"pm2_5":17.5,"no2":20.3,"co":319.0,"o3":35.0,"so2":0.9,"mosquito_risk":3,"arthritis_risk":10,"migraine_risk":7,"frizz_risk":0,"updated_at":"2026-05-05T05:26:40.402629+05:30"},{"city":"Patiala","state":"Punjab","latitude":30.3398,"longitude":76.3869,"temp":22.0,"humidity":54,"rain":0.0,"pressure":979.5,"uv_index":7.45,"wind_gusts":42.5,"aqi":397,"pm10":263.6,"pm2_5":41.6,"no2":7.5,"co":298.0,"o3":89.0,"so2":5.0,"mosquito_risk":0,"arthritis_risk":5,"migraine_risk":7,"frizz_risk":0,"updated_at":"2026-05-05T05:26:40.402636+05:30"},{"city":"Bhatinda","state":"Punjab","latitude":30.211,"longitude":74.9455,"temp":23.0,"humidity":73,"rain":0.0,"pressure":984.5,"uv_index":8.1,"wind_gusts":31.7,"aqi":616,"pm10":685.5,"pm2_5":149.0,"no2":6.5,"co":330.0,"o3":94.0,"so2":10.0,"mosquito_risk":3,"arthritis_risk":5,"migraine_risk":7,"frizz_risk":1,"updated_at":"2026-05-05T05:26:40.402644+05:30"},{"city":"Rohtak","state":"Haryana","latitude":28.8955,"longitude":76.6066,"temp":22.4,"humidity":80,"rain":0.0,"pressure":982.5,"uv_index":7.55,"wind_gusts":33.1,"aqi":409,"pm10":394.9,"pm2_5":66.4,"no2":19.3,"co":423.0,"o3":70.0,"so2":17.2,"mosquito_risk":3,"arthritis_risk":5,"migraine_risk":7,"frizz_risk":1,"updated_at":"2026-05-05T05:26:40.402651+05:30"},{"city":"Panipat","state":"Haryana","latitude":29.3909,"longitude":76.9635,"temp":21.5,"humidity":82,"rain":0.0,"pressure":981.5,"uv_index":7.4,"wind_gusts":31.0,"aqi":855,"pm10":836.3,"pm2_5":99.4,"no2":10.9,"co":328.0,"o3":77.0,"so2":7.0,"mosquito_risk":3,"arthritis_risk":5,"migraine_risk":7,"frizz_risk":1,"updated_at":"2026-05-05T05:26:40.402658+05:30"},{"city":"Mathura","state":"Uttar Pradesh","latitude":27.4924,"longitude":77.6737,"temp":24.0,"humidity":78,"rain":0.0,"pressure":987.8,"uv_index":7.8,"wind_gusts":71.3,"aqi":575,"pm10":242.1,"pm2_5":66.6,"no2":11.6,"co":397.0,"o3":71.0,"so2":9.8,"mosquito_risk":3,"arthritis_risk":5,"migraine_risk":7,"frizz_risk":1,"updated_at":"2026-05-05T05:26:40.402665+05:30"},{"city":"Vrindavan","state":"Uttar Pradesh","latitude":27.5823,"longitude":77.7027,"temp":24.0,"humidity":76,"rain":0.0,"pressure":988.3,"uv_index":7.8,"wind_gusts":71.3,"aqi":575,"pm10":242.1,"pm2_5":66.6,"no2":11.6,"co":397.0,"o3":71.0,"so2":9.8,"mosquito_risk":3,"arthritis_risk":5,"migraine_risk":7,"frizz_risk":1,"updated_at":"2026-05-05T05:26:40.402671+05:30"},{"city":"Ayodhya","state":"Uttar Pradesh","latitude":26.7922,"longitude":82.1998,"temp":21.0,"humidity":78,"rain":0.0,"pressure":998.2,"uv_index":4.95,"wind_gusts":23.4,"aqi":81,"pm10":24.7,"pm2_5":19.3,"no2":8.4,"co":401.0,"o3":89.0,"so2":5.8,"mosquito_risk":3,"arthritis_risk":5,"migraine_risk":3,"frizz_risk":1,"updated_at":"2026-05-05T05:26:40.402679+05:30"},{"city":"Ratlam","state":"Madhya Pradesh","latitude":23.3315,"longitude":75.0367,"temp":24.4,"humidity":82,"rain":0.0,"pressure":953.6,"uv_index":8.5,"wind_gusts":38.9,"aqi":62,"pm10":41.1,"pm2_5":23.1,"no2":5.1,"co":220.0,"o3":69.0,"so2":8.3,"mosquito_risk":3,"arthritis_risk":5,"migraine_risk":7,"frizz_risk":1,"updated_at":"2026-05-05T05:26:40.402686+05:30"},{"city":"Sagar","state":"Madhya Pradesh","latitude":23.8388,"longitude":78.7378,"temp":24.1,"humidity":74,"rain":0.0,"pressure":949.0,"uv_index":8.65,"wind_gusts":51.5,"aqi":67,"pm10":46.0,"pm2_5":31.1,"no2":4.5,"co":321.0,"o3":100.0,"so2":7.3,"mosquito_risk":3,"arthritis_risk":5,"migraine_risk":7,"frizz_risk":1,"updated_at":"2026-05-05T05:26:40.402692+05:30"},{"city":"Satna","state":"Madhya Pradesh","latitude":24.6005,"longitude":80.8322,"temp":22.5,"humidity":81,"rain":0.0,"pressure":972.1,"uv_index":8.7,"wind_gusts":46.4,"aqi":111,"pm10":67.3,"pm2_5":57.3,"no2":7.3,"co":387.0,"o3":115.0,"so2":19.4,"mosquito_risk":3,"arthritis_risk":5,"migraine_risk":7,"frizz_risk":1,"updated_at":"2026-05-05T05:26:40.402699+05:30"},{"city":"Akola","state":"Maharashtra","latitude":20.7002,"longitude":77.0082,"temp":27.9,"humidity":55,"rain":0.0,"pressure":973.7,"uv_index":8.9,"wind_gusts":37.1,"aqi":53,"pm10":26.0,"pm2_5":15.0,"no2":6.2,"co":170.0,"o3":73.0,"so2":13.7,"mosquito_risk":4,"arthritis_risk":5,"migraine_risk":7,"frizz_risk":1,"updated_at":"2026-05-05T05:26:40.402706+05:30"},{"city":"Amravati","state":"Maharashtra","latitude":20.9374,"longitude":77.7796,"temp":26.6,"humidity":29,"rain":0.0,"pressure":965.5,"uv_index":8.85,"wind_gusts":38.9,"aqi":53,"pm10":25.9,"pm2_5":15.0,"no2":7.1,"co":312.0,"o3":75.0,"so2":13.1,"mosquito_risk":4,"arthritis_risk":5,"migraine_risk":7,"frizz_risk":0,"updated_at":"2026-05-05T05:26:40.402714+05:30"},{"city":"Latur","state":"Maharashtra","latitude":18.4088,"longitude":76.5604,"temp":25.1,"humidity":41,"rain":0.0,"pressure":938.2,"uv_index":9.1,"wind_gusts":35.6,"aqi":58,"pm10":35.3,"pm2_5":15.8,"no2":7.6,"co":188.0,"o3":73.0,"so2":4.9,"mosquito_risk":4,"arthritis_risk":5,"migraine_risk":7,"frizz_risk":0,"updated_at":"2026-05-05T05:26:40.402721+05:30"},{"city":"Nanded","state":"Maharashtra","latitude":19.1383,"longitude":77.3091,"temp":26.9,"humidity":27,"rain":0.0,"pressure":966.8,"uv_index":8.95,"wind_gusts":27.4,"aqi":63,"pm10":28.7,"pm2_5":18.5,"no2":16.4,"co":286.0,"o3":50.0,"so2":7.3,"mosquito_risk":4,"arthritis_risk":5,"migraine_risk":7,"frizz_risk":0,"updated_at":"2026-05-05T05:26:40.402728+05:30"},{"city":"Gulbarga","state":"Karnataka","latitude":17.3297,"longitude":76.8343,"temp":26.5,"humidity":40,"rain":0.0,"pressure":957.4,"uv_index":9.15,"wind_gusts":37.4,"aqi":53,"pm10":20.3,"pm2_5":10.0,"no2":6.9,"co":232.0,"o3":52.0,"so2":3.5,"mosquito_risk":4,"arthritis_risk":5,"migraine_risk":7,"frizz_risk":0,"updated_at":"2026-05-05T05:26:40.402734+05:30"},{"city":"Bidar","state":"Karnataka","latitude":17.9104,"longitude":77.5199,"temp":26.0,"humidity":34,"rain":0.0,"pressure":934.0,"uv_index":9.15,"wind_gusts":33.5,"aqi":63,"pm10":28.9,"pm2_5":17.2,"no2":12.3,"co":354.0,"o3":64.0,"so2":6.2,"mosquito_risk":4,"arthritis_risk":5,"migraine_risk":7,"frizz_risk":0,"updated_at":"2026-05-05T05:26:40.402741+05:30"},{"city":"Hospet","state":"Karnataka","latitude":15.2689,"longitude":76.3909,"temp":23.6,"humidity":89,"rain":0.0,"pressure":954.7,"uv_index":9.25,"wind_gusts":37.4,"aqi":60,"pm10":24.3,"pm2_5":13.6,"no2":8.5,"co":183.0,"o3":43.0,"so2":3.0,"mosquito_risk":3,"arthritis_risk":5,"migraine_risk":7,"frizz_risk":1,"updated_at":"2026-05-05T05:26:40.402748+05:30"},{"city":"Tirupur","state":"Tamil Nadu","latitude":11.1085,"longitude":77.3411,"temp":24.7,"humidity":89,"rain":0.0,"pressure":974.3,"uv_index":9.35,"wind_gusts":42.1,"aqi":73,"pm10":35.6,"pm2_5":22.3,"no2":20.3,"co":190.0,"o3":47.0,"so2":5.2,"mosquito_risk":3,"arthritis_risk":5,"migraine_risk":7,"frizz_risk":1,"updated_at":"2026-05-05T05:26:40.402754+05:30"},{"city":"Alappuzha","state":"Kerala","latitude":9.4981,"longitude":76.3388,"temp":25.4,"humidity":97,"rain":0.0,"pressure":1008.5,"uv_index":7.05,"wind_gusts":29.5,"aqi":82,"pm10":37.4,"pm2_5":19.1,"no2":9.1,"co":155.0,"o3":62.0,"so2":4.1,"mosquito_risk":7,"arthritis_risk":0,"migraine_risk":4,"frizz_risk":1,"updated_at":"2026-05-05T05:26:40.402761+05:30"},{"city":"Munnar","state":"Kerala","latitude":10.0889,"longitude":77.0595,"temp":17.5,"humidity":98,"rain":0.0,"pressure":856.0,"uv_index":8.8,"wind_gusts":25.2,"aqi":70,"pm10":12.8,"pm2_5":8.9,"no2":6.5,"co":209.0,"o3":58.0,"so2":0.9,"mosquito_risk":3,"arthritis_risk":10,"migraine_risk":7,"frizz_risk":1,"updated_at":"2026-05-05T05:26:40.402768+05:30"},{"city":"Silchar","state":"Assam","latitude":24.8333,"longitude":92.7789,"temp":21.9,"humidity":83,"rain":0.0,"pressure":1008.6,"uv_index":8.85,"wind_gusts":19.4,"aqi":95,"pm10":55.2,"pm2_5":40.7,"no2":20.1,"co":231.0,"o3":32.0,"so2":4.0,"mosquito_risk":3,"arthritis_risk":0,"migraine_risk":4,"frizz_risk":1,"updated_at":"2026-05-05T05:26:40.402774+05:30"},{"city":"Dibrugarh","state":"Assam","latitude":27.4728,"longitude":94.912,"temp":21.7,"humidity":95,"rain":0.0,"pressure":999.1,"uv_index":8.8,"wind_gusts":32.0,"aqi":63,"pm10":13.0,"pm2_5":12.7,"no2":17.3,"co":286.0,"o3":16.0,"so2":0.5,"mosquito_risk":3,"arthritis_risk":5,"migraine_risk":7,"frizz_risk":1,"updated_at":"2026-05-05T05:26:40.402781+05:30"}]