[{"city":"Delhi","state":"Delhi","latitude":28.6139,"longitude":77.209,"temp":30.6,"humidity":78,"rain":0.0,"pressure":977.2,"uv_index":6.85,"wind_gusts":30.2,"aqi":314,"pm10":685.5,"pm2_5":151.8,"no2":46.0,"co":393.0,"o3":58.0,"so2":22.6,"mosquito_risk":3,"arthritis_risk":5,"migraine_risk":7,"frizz_risk":1,"updated_at":"2026-07-19T20:28:16.916016+05:30"},{"city":"Mumbai","state":"Maharashtra","latitude":19.076,"longitude":72.8777,"temp":25.9,"humidity":91,"rain":0.2,"pressure":1006.2,"uv_index":5.1,"wind_gusts":43.2,"aqi":60,"pm10":22.8,"pm2_5":11.1,"no2":7.9,"co":258.0,"o3":46.0,"so2":5.6,"mosquito_risk":10,"arthritis_risk":5,"migraine_risk":0,"frizz_risk":1,"updated_at":"2026-07-19T20:28:16.916071+05:30"},{"city":"Bangalore","state":"Karnataka","latitude":12.9716,"longitude":77.5946,"temp":21.7,"humidity":92,"rain":0.1,"pressure":911.2,"uv_index":7.25,"wind_gusts":43.6,"aqi":51,"pm10":18.5,"pm2_5":12.6,"no2":16.4,"co":428.0,"o3":45.0,"so2":5.0,"mosquito_risk":6,"arthritis_risk":5,"migraine_risk":7,"frizz_risk":1,"updated_at":"2026-07-19T20:28:16.916087+05:30"},{"city":"Hyderabad","state":"Telangana","latitude":17.385,"longitude":78.4867,"temp":25.2,"humidity":83,"rain":0.2,"pressure":951.7,"uv_index":3.5,"wind_gusts":42.1,"aqi":35,"pm10":20.7,"pm2_5":13.0,"no2":6.5,"co":277.0,"o3":67.0,"so2":3.8,"mosquito_risk":10,"arthritis_risk":5,"migraine_risk":3,"frizz_risk":1,"updated_at":"2026-07-19T20:28:16.916097+05:30"},{"city":"Chennai","state":"Tamil Nadu","latitude":13.0827,"longitude":80.2707,"temp":29.0,"humidity":78,"rain":0.0,"pressure":1005.0,"uv_index":7.5,"wind_gusts":42.8,"aqi":77,"pm10":31.4,"pm2_5":22.2,"no2":14.7,"co":226.0,"o3":82.0,"so2":9.7,"mosquito_risk":7,"arthritis_risk":5,"migraine_risk":4,"frizz_risk":1,"updated_at":"2026-07-19T20:28:16.916107+05:30"},{"city":"Kolkata","state":"West Bengal","latitude":22.5726,"longitude":88.3639,"temp":28.1,"humidity":89,"rain":0.0,"pressure":1002.7,"uv_index":7.05,"wind_gusts":32.4,"aqi":61,"pm10":21.5,"pm2_5":17.8,"no2":7.3,"co":346.0,"o3":72.0,"so2":6.3,"mosquito_risk":7,"arthritis_risk":5,"migraine_risk":4,"frizz_risk":1,"updated_at":"2026-07-19T20:28:16.916116+05:30"},{"city":"Pune","state":"Maharashtra","latitude":18.5204,"longitude":73.8567,"temp":23.7,"humidity":86,"rain":0.0,"pressure":946.0,"uv_index":3.5,"wind_gusts":46.8,"aqi":23,"pm10":3.6,"pm2_5":3.1,"no2":7.9,"co":148.0,"o3":36.0,"so2":4.5,"mosquito_risk":3,"arthritis_risk":5,"migraine_risk":3,"frizz_risk":1,"updated_at":"2026-07-19T20:28:16.916125+05:30"},{"city":"Ahmedabad","state":"Gujarat","latitude":23.0225,"longitude":72.5714,"temp":29.3,"humidity":78,"rain":0.0,"pressure":996.8,"uv_index":6.65,"wind_gusts":32.4,"aqi":64,"pm10":28.2,"pm2_5":15.9,"no2":9.8,"co":184.0,"o3":64.0,"so2":6.6,"mosquito_risk":7,"arthritis_risk":5,"migraine_risk":7,"frizz_risk":1,"updated_at":"2026-07-19T20:28:16.916135+05:30"},{"city":"Jaipur","state":"Rajasthan","latitude":26.9124,"longitude":75.7873,"temp":29.2,"humidity":74,"rain":0.0,"pressure":954.9,"uv_index":7.95,"wind_gusts":34.6,"aqi":125,"pm10":44.5,"pm2_5":24.6,"no2":11.1,"co":154.0,"o3":73.0,"so2":5.4,"mosquito_risk":7,"arthritis_risk":5,"migraine_risk":7,"frizz_risk":1,"updated_at":"2026-07-19T20:28:16.916144+05:30"},{"city":"Lucknow","state":"Uttar Pradesh","latitude":26.8467,"longitude":80.9462,"temp":28.1,"humidity":91,"rain":0.0,"pressure":989.2,"uv_index":5.6,"wind_gusts":24.5,"aqi":151,"pm10":99.0,"pm2_5":56.6,"no2":21.7,"co":437.0,"o3":68.0,"so2":10.6,"mosquito_risk":7,"arthritis_risk":5,"migraine_risk":3,"frizz_risk":1,"updated_at":"2026-07-19T20:28:16.916156+05:30"},{"city":"Kanpur","state":"Uttar Pradesh","latitude":26.4499,"longitude":80.3319,"temp":28.5,"humidity":90,"rain":0.1,"pressure":987.4,"uv_index":6.25,"wind_gusts":24.1,"aqi":153,"pm10":78.0,"pm2_5":41.8,"no2":18.1,"co":374.0,"o3":57.0,"so2":7.5,"mosquito_risk":10,"arthritis_risk":5,"migraine_risk":7,"frizz_risk":1,"updated_at":"2026-07-19T20:28:16.916165+05:30"},{"city":"Chandigarh","state":"Chandigarh","latitude":30.7333,"longitude":76.7794,"temp":28.2,"humidity":89,"rain":0.0,"pressure":962.9,"uv_index":5.85,"wind_gusts":27.7,"aqi":155,"pm10":92.0,"pm2_5":46.6,"no2":30.3,"co":466.0,"o3":68.0,"so2":10.8,"mosquito_risk":7,"arthritis_risk":5,"migraine_risk":3,"frizz_risk":1,"updated_at":"2026-07-19T20:28:16.916173+05:30"},{"city":"Srinagar","state":"Jammu and Kashmir","latitude":34.0837,"longitude":74.7973,"temp":26.3,"humidity":72,"rain":0.0,"pressure":838.1,"uv_index":9.05,"wind_gusts":31.0,"aqi":107,"pm10":14.6,"pm2_5":12.9,"no2":13.2,"co":515.0,"o3":93.0,"so2":3.6,"mosquito_risk":7,"arthritis_risk":5,"migraine_risk":7,"frizz_risk":1,"updated_at":"2026-07-19T20:28:16.916181+05:30"},{"city":"Jammu","state":"Jammu and Kashmir","latitude":32.7266,"longitude":74.857,"temp":29.8,"humidity":80,"rain":0.0,"pressure":966.1,"uv_index":6.55,"wind_gusts":28.4,"aqi":144,"pm10":139.7,"pm2_5":59.3,"no2":14.3,"co":364.0,"o3":97.0,"so2":6.8,"mosquito_risk":7,"arthritis_risk":5,"migraine_risk":7,"frizz_risk":1,"updated_at":"2026-07-19T20:28:16.916188+05:30"},{"city":"Amritsar","state":"Punjab","latitude":31.634,"longitude":74.8723,"temp":31.5,"humidity":83,"rain":0.0,"pressure":973.6,"uv_index":7.8,"wind_gusts":32.0,"aqi":173,"pm10":161.1,"pm2_5":88.5,"no2":13.6,"co":411.0,"o3":107.0,"so2":8.6,"mosquito_risk":3,"arthritis_risk":5,"migraine_risk":7,"frizz_risk":1,"updated_at":"2026-07-19T20:28:16.916196+05:30"},{"city":"Ludhiana","state":"Punjab","latitude":30.901,"longitude":75.8573,"temp":32.5,"humidity":74,"rain":0.0,"pressure":971.7,"uv_index":7.4,"wind_gusts":27.7,"aqi":182,"pm10":155.5,"pm2_5":84.5,"no2":21.7,"co":418.0,"o3":83.0,"so2":17.0,"mosquito_risk":3,"arthritis_risk":5,"migraine_risk":7,"frizz_risk":1,"updated_at":"2026-07-19T20:28:16.916203+05:30"},{"city":"Jalandhar","state":"Punjab","latitude":31.326,"longitude":75.5762,"temp":31.7,"humidity":74,"rain":0.0,"pressure":972.7,"uv_index":3.85,"wind_gusts":29.5,"aqi":173,"pm10":144.4,"pm2_5":75.9,"no2":17.7,"co":476.0,"o3":91.0,"so2":18.0,"mosquito_risk":3,"arthritis_risk":5,"migraine_risk":3,"frizz_risk":1,"updated_at":"2026-07-19T20:28:16.916212+05:30"},{"city":"Dehradun","state":"Uttarakhand","latitude":30.6284,"longitude":78.0322,"temp":19.8,"humidity":100,"rain":0.0,"pressure":827.7,"uv_index":5.1,"wind_gusts":26.6,"aqi":64,"pm10":42.8,"pm2_5":18.8,"no2":8.2,"co":251.0,"o3":86.0,"so2":2.8,"mosquito_risk":3,"arthritis_risk":10,"migraine_risk":3,"frizz_risk":1,"updated_at":"2026-07-19T20:28:16.916220+05:30"},{"city":"Shimla","state":"Himachal Pradesh","latitude":31.1048,"longitude":77.1734,"temp":17.2,"humidity":96,"rain":0.0,"pressure":782.4,"uv_index":3.8,"wind_gusts":42.1,"aqi":77,"pm10":32.2,"pm2_5":15.1,"no2":9.2,"co":270.0,"o3":78.0,"so2":1.7,"mosquito_risk":3,"arthritis_risk":10,"migraine_risk":3,"frizz_risk":1,"updated_at":"2026-07-19T20:28:16.916228+05:30"},{"city":"Manali","state":"Himachal Pradesh","latitude":32.2396,"longitude":77.1887,"temp":20.9,"humidity":96,"rain":0.0,"pressure":817.5,"uv_index":5.15,"wind_gusts":32.0,"aqi":55,"pm10":5.7,"pm2_5":4.7,"no2":15.1,"co":199.0,"o3":84.0,"so2":0.9,"mosquito_risk":3,"arthritis_risk":5,"migraine_risk":3,"frizz_risk":1,"updated_at":"2026-07-19T20:28:16.916237+05:30"},{"city":"Gurgaon","state":"Haryana","latitude":28.4595,"longitude":77.0266,"temp":30.3,"humidity":79,"rain":0.0,"pressure":975.8,"uv_index":7.0,"wind_gusts":28.4,"aqi":263,"pm10":369.7,"pm2_5":103.1,"no2":41.4,"co":468.0,"o3":46.0,"so2":14.6,"mosquito_risk":3,"arthritis_risk":5,"migraine_risk":7,"frizz_risk":1,"updated_at":"2026-07-19T20:28:16.916244+05:30"},{"city":"Noida","state":"Uttar Pradesh","latitude":28.5355,"longitude":77.391,"temp":30.0,"humidity":84,"rain":0.0,"pressure":978.8,"uv_index":5.3,"wind_gusts":25.6,"aqi":263,"pm10":369.7,"pm2_5":103.1,"no2":41.4,"co":439.0,"o3":46.0,"so2":14.6,"mosquito_risk":7,"arthritis_risk":5,"migraine_risk":3,"frizz_risk":1,"updated_at":"2026-07-19T20:28:16.916253+05:30"},{"city":"Ghaziabad","state":"Uttar Pradesh","latitude":28.6692,"longitude":77.4538,"temp":29.4,"humidity":91,"rain":0.0,"pressure":977.0,"uv_index":6.35,"wind_gusts":25.2,"aqi":224,"pm10":425.6,"pm2_5":133.6,"no2":30.9,"co":435.0,"o3":99.0,"so2":19.7,"mosquito_risk":7,"arthritis_risk":5,"migraine_risk":7,"frizz_risk":1,"updated_at":"2026-07-19T20:28:16.916260+05:30"},{"city":"Faridabad","state":"Haryana","latitude":28.4089,"longitude":77.3178,"temp":30.3,"humidity":78,"rain":0.0,"pressure":978.1,"uv_index":6.05,"wind_gusts":30.2,"aqi":263,"pm10":369.7,"pm2_5":103.1,"no2":41.4,"co":417.0,"o3":46.0,"so2":14.6,"mosquito_risk":3,"arthritis_risk":5,"migraine_risk":7,"frizz_risk":1,"updated_at":"2026-07-19T20:28:16.916268+05:30"},{"city":"Meerut","state":"Uttar Pradesh","latitude":28.9845,"longitude":77.7064,"temp":28.7,"humidity":94,"rain":0.0,"pressure":975.9,"uv_index":6.5,"wind_gusts":41.4,"aqi":224,"pm10":425.6,"pm2_5":133.6,"no2":30.9,"co":426.0,"o3":99.0,"so2":19.7,"mosquito_risk":7,"arthritis_risk":5,"migraine_risk":7,"frizz_risk":1,"updated_at":"2026-07-19T20:28:16.916275+05:30"},{"city":"Agra","state":"Uttar Pradesh","latitude":27.1767,"longitude":78.0081,"temp":29.3,"humidity":89,"rain":0.0,"pressure":982.8,"uv_index":3.55,"wind_gusts":36.0,"aqi":168,"pm10":109.2,"pm2_5":56.7,"no2":34.4,"co":249.0,"o3":50.0,"so2":10.4,"mosquito_risk":7,"arthritis_risk":5,"migraine_risk":3,"frizz_risk":1,"updated_at":"2026-07-19T20:28:16.916282+05:30"},{"city":"Varanasi","state":"Uttar Pradesh","latitude":25.3176,"longitude":82.9739,"temp":28.5,"humidity":90,"rain":0.1,"pressure":993.2,"uv_index":6.85,"wind_gusts":20.9,"aqi":115,"pm10":45.4,"pm2_5":38.2,"no2":17.6,"co":770.0,"o3":85.0,"so2":11.5,"mosquito_risk":10,"arthritis_risk":5,"migraine_risk":7,"frizz_risk":1,"updated_at":"2026-07-19T20:28:16.916289+05:30"},{"city":"Prayagraj","state":"Uttar Pradesh","latitude":25.4358,"longitude":81.8463,"temp":28.7,"humidity":87,"rain":0.0,"pressure":991.7,"uv_index":5.8,"wind_gusts":19.8,"aqi":128,"pm10":62.4,"pm2_5":46.0,"no2":21.2,"co":341.0,"o3":63.0,"so2":11.0,"mosquito_risk":7,"arthritis_risk":5,"migraine_risk":3,"frizz_risk":1,"updated_at":"2026-07-19T20:28:16.916297+05:30"},{"city":"Gorakhpur","state":"Uttar Pradesh","latitude":26.7606,"longitude":83.3732,"temp":27.2,"humidity":93,"rain":0.1,"pressure":993.3,"uv_index":7.1,"wind_gusts":25.9,"aqi":72,"pm10":22.6,"pm2_5":22.6,"no2":12.6,"co":477.0,"o3":94.0,"so2":6.6,"mosquito_risk":10,"arthritis_risk":5,"migraine_risk":7,"frizz_risk":1,"updated_at":"2026-07-19T20:28:16.916304+05:30"},{"city":"Bareilly","state":"Uttar Pradesh","latitude":28.367,"longitude":79.4304,"temp":26.6,"humidity":97,"rain":0.3,"pressure":981.9,"uv_index":5.25,"wind_gusts":31.7,"aqi":149,"pm10":57.9,"pm2_5":41.3,"no2":14.8,"co":464.0,"o3":78.0,"so2":9.2,"mosquito_risk":10,"arthritis_risk":5,"migraine_risk":3,"frizz_risk":1,"updated_at":"2026-07-19T20:28:16.916313+05:30"},{"city":"Aligarh","state":"Uttar Pradesh","latitude":27.8974,"longitude":78.088,"temp":28.8,"humidity":87,"rain":0.0,"pressure":980.1,"uv_index":6.4,"wind_gusts":28.4,"aqi":188,"pm10":296.2,"pm2_5":91.0,"no2":25.4,"co":342.0,"o3":80.0,"so2":11.4,"mosquito_risk":7,"arthritis_risk":5,"migraine_risk":7,"frizz_risk":1,"updated_at":"2026-07-19T20:28:16.916320+05:30"},{"city":"Moradabad","state":"Uttar Pradesh","latitude":28.8386,"longitude":78.7733,"temp":27.1,"humidity":95,"rain":0.0,"pressure":978.6,"uv_index":2.35,"wind_gusts":34.6,"aqi":159,"pm10":78.2,"pm2_5":45.8,"no2":12.6,"co":435.0,"o3":95.0,"so2":11.9,"mosquito_risk":7,"arthritis_risk":5,"migraine_risk":3,"frizz_risk":1,"updated_at":"2026-07-19T20:28:16.916327+05:30"},{"city":"Saharanpur","state":"Uttar Pradesh","latitude":29.9637,"longitude":77.546,"temp":27.1,"humidity":96,"rain":0.0,"pressure":970.3,"uv_index":6.5,"wind_gusts":33.1,"aqi":178,"pm10":191.9,"pm2_5":87.5,"no2":11.6,"co":424.0,"o3":117.0,"so2":15.3,"mosquito_risk":7,"arthritis_risk":5,"migraine_risk":7,"frizz_risk":1,"updated_at":"2026-07-19T20:28:16.916333+05:30"},{"city":"Jhansi","state":"Uttar Pradesh","latitude":25.4484,"longitude":78.5685,"temp":27.6,"humidity":97,"rain":0.1,"pressure":973.9,"uv_index":6.9,"wind_gusts":31.0,"aqi":88,"pm10":32.1,"pm2_5":23.7,"no2":9.9,"co":164.0,"o3":73.0,"so2":10.1,"mosquito_risk":10,"arthritis_risk":5,"migraine_risk":7,"frizz_risk":1,"updated_at":"2026-07-19T20:28:20.305893+05:30"},{"city":"Surat","state":"Gujarat","latitude":21.1702,"longitude":72.8311,"temp":28.5,"humidity":80,"rain":0.0,"pressure":1002.6,"uv_index":7.45,"wind_gusts":43.2,"aqi":70,"pm10":20.3,"pm2_5":14.4,"no2":17.3,"co":235.0,"o3":32.0,"so2":29.8,"mosquito_risk":7,"arthritis_risk":5,"migraine_risk":4,"frizz_risk":1,"updated_at":"2026-07-19T20:28:20.305925+05:30"},{"city":"Vadodara","state":"Gujarat","latitude":22.3072,"longitude":73.1812,"temp":29.0,"humidity":79,"rain":0.0,"pressure":999.6,"uv_index":6.1,"wind_gusts":31.3,"aqi":65,"pm10":23.5,"pm2_5":16.6,"no2":12.9,"co":143.0,"o3":57.0,"so2":16.4,"mosquito_risk":7,"arthritis_risk":5,"migraine_risk":7,"frizz_risk":1,"updated_at":"2026-07-19T20:28:20.305936+05:30"},{"city":"Rajkot","state":"Gujarat","latitude":22.3039,"longitude":70.8022,"temp":29.9,"humidity":67,"rain":0.0,"pressure":988.5,"uv_index":6.0,"wind_gusts":45.4,"aqi":60,"pm10":24.0,"pm2_5":12.9,"no2":5.3,"co":108.0,"o3":49.0,"so2":4.8,"mosquito_risk":7,"arthritis_risk":5,"migraine_risk":3,"frizz_risk":1,"updated_at":"2026-07-19T20:28:20.305946+05:30"},{"city":"Thane","state":"Maharashtra","latitude":19.2183,"longitude":72.9781,"temp":25.1,"humidity":97,"rain":0.1,"pressure":1005.6,"uv_index":5.5,"wind_gusts":38.9,"aqi":60,"pm10":22.8,"pm2_5":11.1,"no2":7.9,"co":227.0,"o3":46.0,"so2":5.6,"mosquito_risk":10,"arthritis_risk":5,"migraine_risk":0,"frizz_risk":1,"updated_at":"2026-07-19T20:28:20.305955+05:30"},{"city":"Nagpur","state":"Maharashtra","latitude":21.1458,"longitude":79.0882,"temp":26.4,"humidity":94,"rain":0.0,"pressure":970.3,"uv_index":5.35,"wind_gusts":31.3,"aqi":61,"pm10":24.0,"pm2_5":18.6,"no2":21.2,"co":433.0,"o3":43.0,"so2":14.7,"mosquito_risk":7,"arthritis_risk":5,"migraine_risk":3,"frizz_risk":1,"updated_at":"2026-07-19T20:28:20.305964+05:30"},{"city":"Nashik","state":"Maharashtra","latitude":19.9975,"longitude":73.7898,"temp":22.9,"humidity":95,"rain":0.0,"pressure":942.6,"uv_index":4.65,"wind_gusts":36.7,"aqi":25,"pm10":2.2,"pm2_5":1.7,"no2":7.3,"co":138.0,"o3":41.0,"so2":3.4,"mosquito_risk":3,"arthritis_risk":5,"migraine_risk":3,"frizz_risk":1,"updated_at":"2026-07-19T20:28:20.305973+05:30"},{"city":"Aurangabad","state":"Maharashtra","latitude":19.8762,"longitude":75.3433,"temp":23.5,"humidity":96,"rain":0.1,"pressure":941.6,"uv_index":6.5,"wind_gusts":40.7,"aqi":35,"pm10":10.9,"pm2_5":8.0,"no2":6.8,"co":160.0,"o3":56.0,"so2":8.4,"mosquito_risk":6,"arthritis_risk":5,"migraine_risk":7,"frizz_risk":1,"updated_at":"2026-07-19T20:28:20.305981+05:30"},{"city":"Solapur","state":"Maharashtra","latitude":17.6599,"longitude":75.9064,"temp":25.0,"humidity":92,"rain":0.0,"pressure":955.8,"uv_index":3.05,"wind_gusts":48.6,"aqi":39,"pm10":14.1,"pm2_5":8.6,"no2":4.6,"co":141.0,"o3":49.0,"so2":1.9,"mosquito_risk":7,"arthritis_risk":5,"migraine_risk":3,"frizz_risk":1,"updated_at":"2026-07-19T20:28:20.305989+05:30"},{"city":"Kolhapur","state":"Maharashtra","latitude":16.705,"longitude":74.2433,"temp":22.8,"humidity":92,"rain":0.0,"pressure":947.1,"uv_index":8.0,"wind_gusts":48.2,"aqi":28,"pm10":6.9,"pm2_5":5.0,"no2":5.3,"co":142.0,"o3":38.0,"so2":2.2,"mosquito_risk":3,"arthritis_risk":5,"migraine_risk":7,"frizz_risk":1,"updated_at":"2026-07-19T20:28:20.306019+05:30"},{"city":"Goa","state":"Goa","latitude":15.2993,"longitude":74.124,"temp":24.4,"humidity":98,"rain":0.0,"pressure":998.6,"uv_index":6.5,"wind_gusts":25.6,"aqi":63,"pm10":25.3,"pm2_5":13.4,"no2":3.6,"co":360.0,"o3":44.0,"so2":1.3,"mosquito_risk":3,"arthritis_risk":5,"migraine_risk":7,"frizz_risk":1,"updated_at":"2026-07-19T20:28:20.306027+05:30"},{"city":"Jodhpur","state":"Rajasthan","latitude":26.2389,"longitude":73.0243,"temp":33.6,"humidity":45,"rain":0.0,"pressure":976.3,"uv_index":7.65,"wind_gusts":42.1,"aqi":98,"pm10":114.8,"pm2_5":27.2,"no2":4.6,"co":123.0,"o3":69.0,"so2":1.9,"mosquito_risk":0,"arthritis_risk":5,"migraine_risk":7,"frizz_risk":1,"updated_at":"2026-07-19T20:28:20.306035+05:30"},{"city":"Udaipur","state":"Rajasthan","latitude":24.5854,"longitude":73.7125,"temp":28.1,"humidity":65,"rain":0.0,"pressure":941.4,"uv_index":6.25,"wind_gusts":29.9,"aqi":64,"pm10":31.3,"pm2_5":17.4,"no2":4.0,"co":118.0,"o3":83.0,"so2":4.7,"mosquito_risk":7,"arthritis_risk":5,"migraine_risk":7,"frizz_risk":1,"updated_at":"2026-07-19T20:28:20.306043+05:30"},{"city":"Kota","state":"Rajasthan","latitude":25.2138,"longitude":75.8648,"temp":30.9,"humidity":60,"rain":0.0,"pressure":973.8,"uv_index":7.65,"wind_gusts":28.1,"aqi":77,"pm10":40.9,"pm2_5":26.3,"no2":11.0,"co":140.0,"o3":85.0,"so2":8.7,"mosquito_risk":0,"arthritis_risk":5,"migraine_risk":7,"frizz_risk":1,"updated_at":"2026-07-19T20:28:20.306051+05:30"},{"city":"Bikaner","state":"Rajasthan","latitude":28.0229,"longitude":73.3119,"temp":35.8,"humidity":38,"rain":0.0,"pressure":974.6,"uv_index":8.05,"wind_gusts":35.3,"aqi":121,"pm10":102.4,"pm2_5":29.1,"no2":1.6,"co":112.0,"o3":74.0,"so2":2.2,"mosquito_risk":0,"arthritis_risk":5,"migraine_risk":10,"frizz_risk":1,"updated_at":"2026-07-19T20:28:20.306059+05:30"},{"city":"Ajmer","state":"Rajasthan","latitude":26.4499,"longitude":74.6399,"temp":31.1,"humidity":60,"rain":0.0,"pressure":949.4,"uv_index":8.15,"wind_gusts":43.6,"aqi":73,"pm10":27.8,"pm2_5":17.2,"no2":7.2,"co":141.0,"o3":75.0,"so2":3.2,"mosquito_risk":0,"arthritis_risk":5,"migraine_risk":7,"frizz_risk":1,"updated_at":"2026-07-19T20:28:20.306067+05:30"},{"city":"Gwalior","state":"Madhya Pradesh","latitude":26.2183,"longitude":78.1828,"temp":28.1,"humidity":90,"rain":0.0,"pressure":978.8,"uv_index":6.7,"wind_gusts":32.0,"aqi":102,"pm10":43.7,"pm2_5":28.1,"no2":10.1,"co":218.0,"o3":69.0,"so2":4.8,"mosquito_risk":7,"arthritis_risk":5,"migraine_risk":7,"frizz_risk":1,"updated_at":"2026-07-19T20:28:20.306075+05:30"},{"city":"Indore","state":"Madhya Pradesh","latitude":22.7196,"longitude":75.8577,"temp":26.7,"humidity":85,"rain":0.0,"pressure":944.5,"uv_index":7.95,"wind_gusts":43.6,"aqi":63,"pm10":24.3,"pm2_5":17.9,"no2":9.5,"co":221.0,"o3":69.0,"so2":5.3,"mosquito_risk":7,"arthritis_risk":5,"migraine_risk":7,"frizz_risk":1,"updated_at":"2026-07-19T20:28:20.306083+05:30"},{"city":"Bhopal","state":"Madhya Pradesh","latitude":23.2599,"longitude":77.4126,"temp":27.3,"humidity":86,"rain":0.0,"pressure":950.0,"uv_index":7.9,"wind_gusts":29.2,"aqi":71,"pm10":20.1,"pm2_5":16.0,"no2":8.5,"co":354.0,"o3":62.0,"so2":3.8,"mosquito_risk":7,"arthritis_risk":5,"migraine_risk":7,"frizz_risk":1,"updated_at":"2026-07-19T20:28:20.306091+05:30"},{"city":"Jabalpur","state":"Madhya Pradesh","latitude":23.1815,"longitude":79.9864,"temp":26.0,"humidity":98,"rain":0.0,"pressure":957.9,"uv_index":7.95,"wind_gusts":31.3,"aqi":85,"pm10":38.0,"pm2_5":26.6,"no2":8.1,"co":265.0,"o3":78.0,"so2":4.0,"mosquito_risk":7,"arthritis_risk":5,"migraine_risk":7,"frizz_risk":1,"updated_at":"2026-07-19T20:28:20.306098+05:30"},{"city":"Ujjain","state":"Madhya Pradesh","latitude":23.1765,"longitude":75.7885,"temp":26.6,"humidity":86,"rain":0.0,"pressure":949.8,"uv_index":7.5,"wind_gusts":31.7,"aqi":63,"pm10":23.9,"pm2_5":16.6,"no2":5.8,"co":220.0,"o3":71.0,"so2":3.4,"mosquito_risk":7,"arthritis_risk":5,"migraine_risk":7,"frizz_risk":1,"updated_at":"2026-07-19T20:28:20.306107+05:30"},{"city":"Visakhapatnam","state":"Andhra Pradesh","latitude":17.6868,"longitude":83.2185,"temp":29.0,"humidity":86,"rain":0.0,"pressure":999.7,"uv_index":8.4,"wind_gusts":35.3,"aqi":98,"pm10":24.7,"pm2_5":21.0,"no2":20.2,"co":332.0,"o3":80.0,"so2":33.1,"mosquito_risk":7,"arthritis_risk":5,"migraine_risk":7,"frizz_risk":1,"updated_at":"2026-07-19T20:28:20.306114+05:30"},{"city":"Vijayawada","state":"Andhra Pradesh","latitude":16.5062,"longitude":80.648,"temp":29.6,"humidity":79,"rain":0.0,"pressure":999.6,"uv_index":8.35,"wind_gusts":37.8,"aqi":62,"pm10":18.7,"pm2_5":16.4,"no2":14.1,"co":306.0,"o3":53.0,"so2":5.9,"mosquito_risk":7,"arthritis_risk":5,"migraine_risk":7,"frizz_risk":1,"updated_at":"2026-07-19T20:28:20.306122+05:30"},{"city":"Guntur","state":"Andhra Pradesh","latitude":16.3067,"longitude":80.4365,"temp":30.9,"humidity":66,"rain":0.0,"pressure":1000.9,"uv_index":7.8,"wind_gusts":40.3,"aqi":56,"pm10":18.4,"pm2_5":16.0,"no2":14.8,"co":339.0,"o3":48.0,"so2":5.5,"mosquito_risk":3,"arthritis_risk":5,"migraine_risk":4,"frizz_risk":1,"updated_at":"2026-07-19T20:28:20.306130+05:30"},{"city":"Nellore","state":"Andhra Pradesh","latitude":14.4426,"longitude":79.9865,"temp":29.3,"humidity":74,"rain":0.0,"pressure":1003.4,"uv_index":7.55,"wind_gusts":38.2,"aqi":59,"pm10":35.7,"pm2_5":23.7,"no2":7.0,"co":180.0,"o3":86.0,"so2":4.6,"mosquito_risk":7,"arthritis_risk":5,"migraine_risk":4,"frizz_risk":1,"updated_at":"2026-07-19T20:28:20.306138+05:30"},{"city":"Kurnool","state":"Andhra Pradesh","latitude":15.8281,"longitude":78.0373,"temp":24.6,"humidity":92,"rain":0.3,"pressure":976.4,"uv_index":8.1,"wind_gusts":43.9,"aqi":41,"pm10":39.1,"pm2_5":19.2,"no2":5.2,"co":148.0,"o3":64.0,"so2":4.9,"mosquito_risk":6,"arthritis_risk":5,"migraine_risk":7,"frizz_risk":1,"updated_at":"2026-07-19T20:28:20.306147+05:30"},{"city":"Kakinada","state":"Andhra Pradesh","latitude":16.9891,"longitude":82.2475,"temp":30.5,"humidity":72,"rain":0.0,"pressure":1003.7,"uv_index":8.85,"wind_gusts":45.0,"aqi":69,"pm10":17.9,"pm2_5":14.2,"no2":4.7,"co":272.0,"o3":98.0,"so2":4.0,"mosquito_risk":3,"arthritis_risk":5,"migraine_risk":4,"frizz_risk":1,"updated_at":"2026-07-19T20:28:20.306155+05:30"},{"city":"Tirupati","state":"Andhra Pradesh","latitude":13.6288,"longitude":79.4192,"temp":27.3,"humidity":81,"rain":0.0,"pressure":989.4,"uv_index":7.85,"wind_gusts":32.0,"aqi":64,"pm10":29.1,"pm2_5":18.9,"no2":20.7,"co":257.0,"o3":29.0,"so2":3.1,"mosquito_risk":7,"arthritis_risk":5,"migraine_risk":7,"frizz_risk":1,"updated_at":"2026-07-19T20:28:20.306163+05:30"},{"city":"Warangal","state":"Telangana","latitude":17.9689,"longitude":79.5941,"temp":26.3,"humidity":91,"rain":0.2,"pressure":976.3,"uv_index":7.15,"wind_gusts":38.9,"aqi":53,"pm10":21.9,"pm2_5":16.5,"no2":9.3,"co":198.0,"o3":57.0,"so2":4.2,"mosquito_risk":10,"arthritis_risk":5,"migraine_risk":7,"frizz_risk":1,"updated_at":"2026-07-19T20:28:20.306170+05:30"},{"city":"Nizamabad","state":"Telangana","latitude":18.6725,"longitude":78.0941,"temp":25.3,"humidity":92,"rain":0.0,"pressure":962.7,"uv_index":0.9,"wind_gusts":37.8,"aqi":54,"pm10":25.9,"pm2_5":14.2,"no2":3.6,"co":213.0,"o3":76.0,"so2":4.7,"mosquito_risk":7,"arthritis_risk":5,"migraine_risk":3,"frizz_risk":1,"updated_at":"2026-07-19T20:28:20.306178+05:30"},{"city":"Mysore","state":"Karnataka","latitude":12.2958,"longitude":76.6396,"temp":22.5,"humidity":87,"rain":0.0,"pressure":928.7,"uv_index":6.8,"wind_gusts":45.7,"aqi":39,"pm10":13.6,"pm2_5":8.6,"no2":5.5,"co":137.0,"o3":51.0,"so2":2.0,"mosquito_risk":3,"arthritis_risk":5,"migraine_risk":7,"frizz_risk":1,"updated_at":"2026-07-19T20:28:20.306185+05:30"},{"city":"Mangalore","state":"Karnataka","latitude":12.9141,"longitude":74.856,"temp":25.2,"humidity":95,"rain":0.0,"pressure":1008.2,"uv_index":8.25,"wind_gusts":31.0,"aqi":57,"pm10":19.8,"pm2_5":10.0,"no2":4.4,"co":122.0,"o3":40.0,"so2":1.8,"mosquito_risk":7,"arthritis_risk":0,"migraine_risk":4,"frizz_risk":1,"updated_at":"2026-07-19T20:28:20.306192+05:30"},{"city":"Hubli-Dharwad","state":"Karnataka","latitude":15.3647,"longitude":75.124,"temp":23.0,"humidity":90,"rain":0.0,"pressure":940.5,"uv_index":7.5,"wind_gusts":54.0,"aqi":25,"pm10":5.6,"pm2_5":3.8,"no2":5.1,"co":119.0,"o3":40.0,"so2":1.4,"mosquito_risk":3,"arthritis_risk":5,"migraine_risk":7,"frizz_risk":1,"updated_at":"2026-07-19T20:28:20.306200+05:30"},{"city":"Belgaum","state":"Karnataka","latitude":15.8497,"longitude":74.4977,"temp":21.7,"humidity":95,"rain":0.0,"pressure":925.1,"uv_index":7.75,"wind_gusts":53.6,"aqi":22,"pm10":3.2,"pm2_5":2.5,"no2":4.8,"co":119.0,"o3":38.0,"so2":1.5,"mosquito_risk":3,"arthritis_risk":5,"migraine_risk":7,"frizz_risk":1,"updated_at":"2026-07-19T20:28:23.685013+05:30"},{"city":"Coimbatore","state":"Tamil Nadu","latitude":11.0168,"longitude":76.9558,"temp":24.5,"humidity":88,"rain":0.0,"pressure":961.7,"uv_index":7.9,"wind_gusts":45.7,"aqi":45,"pm10":8.0,"pm2_5":6.1,"no2":4.8,"co":169.0,"o3":48.0,"so2":2.6,"mosquito_risk":3,"arthritis_risk":5,"migraine_risk":7,"frizz_risk":1,"updated_at":"2026-07-19T20:28:23.685049+05:30"},{"city":"Madurai","state":"Tamil Nadu","latitude":9.9252,"longitude":78.1198,"temp":30.4,"humidity":64,"rain":0.0,"pressure":992.6,"uv_index":7.95,"wind_gusts":38.9,"aqi":71,"pm10":29.4,"pm2_5":16.9,"no2":8.2,"co":135.0,"o3":79.0,"so2":4.1,"mosquito_risk":3,"arthritis_risk":5,"migraine_risk":7,"frizz_risk":1,"updated_at":"2026-07-19T20:28:23.685061+05:30"},{"city":"Trichy","state":"Tamil Nadu","latitude":10.7905,"longitude":78.7047,"temp":28.7,"humidity":74,"rain":0.1,"pressure":999.3,"uv_index":8.4,"wind_gusts":42.8,"aqi":53,"pm10":24.6,"pm2_5":15.1,"no2":6.1,"co":124.0,"o3":75.0,"so2":3.3,"mosquito_risk":10,"arthritis_risk":5,"migraine_risk":7,"frizz_risk":1,"updated_at":"2026-07-19T20:28:23.685070+05:30"},{"city":"Salem","state":"Tamil Nadu","latitude":11.6643,"longitude":78.146,"temp":27.0,"humidity":86,"rain":0.1,"pressure":976.9,"uv_index":6.3,"wind_gusts":38.2,"aqi":63,"pm10":18.8,"pm2_5":11.9,"no2":11.4,"co":383.0,"o3":58.0,"so2":4.9,"mosquito_risk":10,"arthritis_risk":5,"migraine_risk":7,"frizz_risk":1,"updated_at":"2026-07-19T20:28:23.685079+05:30"},{"city":"Tirunelveli","state":"Tamil Nadu","latitude":8.7139,"longitude":77.7567,"temp":30.5,"humidity":57,"rain":0.0,"pressure":1003.3,"uv_index":8.5,"wind_gusts":49.0,"aqi":36,"pm10":14.4,"pm2_5":8.0,"no2":3.7,"co":122.0,"o3":53.0,"so2":1.9,"mosquito_risk":0,"arthritis_risk":5,"migraine_risk":4,"frizz_risk":1,"updated_at":"2026-07-19T20:28:23.685088+05:30"},{"city":"Vellore","state":"Tamil Nadu","latitude":12.9165,"longitude":79.1325,"temp":29.1,"humidity":70,"rain":0.1,"pressure":982.9,"uv_index":7.15,"wind_gusts":36.7,"aqi":67,"pm10":32.5,"pm2_5":22.1,"no2":18.3,"co":153.0,"o3":43.0,"so2":4.2,"mosquito_risk":10,"arthritis_risk":5,"migraine_risk":7,"frizz_risk":1,"updated_at":"2026-07-19T20:28:23.685097+05:30"},{"city":"Erode","state":"Tamil Nadu","latitude":11.341,"longitude":77.7172,"temp":28.2,"humidity":72,"rain":0.0,"pressure":988.9,"uv_index":7.35,"wind_gusts":37.8,"aqi":54,"pm10":15.3,"pm2_5":10.8,"no2":10.5,"co":159.0,"o3":49.0,"so2":3.0,"mosquito_risk":7,"arthritis_risk":5,"migraine_risk":7,"frizz_risk":1,"updated_at":"2026-07-19T20:28:23.685105+05:30"},{"city":"Kochi","state":"Kerala","latitude":9.9312,"longitude":76.2673,"temp":25.7,"humidity":93,"rain":0.1,"pressure":1010.5,"uv_index":8.4,"wind_gusts":32.0,"aqi":55,"pm10":17.1,"pm2_5":13.0,"no2":13.8,"co":136.0,"o3":31.0,"so2":4.8,"mosquito_risk":10,"arthritis_risk":0,"migraine_risk":4,"frizz_risk":1,"updated_at":"2026-07-19T20:28:23.685114+05:30"},{"city":"Thiruvananthapuram","state":"Kerala","latitude":8.5241,"longitude":76.9366,"temp":25.7,"humidity":92,"rain":0.1,"pressure":1009.8,"uv_index":7.95,"wind_gusts":42.1,"aqi":50,"pm10":14.3,"pm2_5":7.9,"no2":3.1,"co":117.0,"o3":54.0,"so2":1.2,"mosquito_risk":10,"arthritis_risk":0,"migraine_risk":4,"frizz_risk":1,"updated_at":"2026-07-19T20:28:23.685122+05:30"},{"city":"Kozhikode","state":"Kerala","latitude":11.2588,"longitude":75.7804,"temp":25.1,"humidity":96,"rain":0.1,"pressure":1009.5,"uv_index":8.0,"wind_gusts":33.1,"aqi":42,"pm10":13.8,"pm2_5":6.4,"no2":1.1,"co":182.0,"o3":51.0,"so2":0.9,"mosquito_risk":10,"arthritis_risk":0,"migraine_risk":4,"frizz_risk":1,"updated_at":"2026-07-19T20:28:23.685129+05:30"},{"city":"Thrissur","state":"Kerala","latitude":10.5276,"longitude":76.2144,"temp":24.8,"humidity":95,"rain":0.0,"pressure":1008.8,"uv_index":8.15,"wind_gusts":32.8,"aqi":53,"pm10":13.6,"pm2_5":10.3,"no2":8.0,"co":175.0,"o3":35.0,"so2":3.0,"mosquito_risk":3,"arthritis_risk":0,"migraine_risk":4,"frizz_risk":1,"updated_at":"2026-07-19T20:28:23.685138+05:30"},{"city":"Kannur","state":"Kerala","latitude":11.8745,"longitude":75.3704,"temp":25.0,"humidity":97,"rain":0.0,"pressure":1008.7,"uv_index":8.0,"wind_gusts":31.0,"aqi":51,"pm10":15.6,"pm2_5":8.9,"no2":6.6,"co":161.0,"o3":35.0,"so2":1.9,"mosquito_risk":7,"arthritis_risk":0,"migraine_risk":4,"frizz_risk":1,"updated_at":"2026-07-19T20:28:23.685146+05:30"},{"city":"Patna","state":"Bihar","latitude":25.5941,"longitude":85.1376,"temp":27.4,"humidity":95,"rain":0.1,"pressure":996.4,"uv_index":7.35,"wind_gusts":28.8,"aqi":82,"pm10":31.7,"pm2_5":31.5,"no2":18.7,"co":474.0,"o3":81.0,"so2":12.5,"mosquito_risk":10,"arthritis_risk":5,"migraine_risk":7,"frizz_risk":1,"updated_at":"2026-07-19T20:28:23.685153+05:30"},{"city":"Gaya","state":"Bihar","latitude":24.7914,"longitude":85.0002,"temp":28.2,"humidity":91,"rain":0.0,"pressure":989.6,"uv_index":8.45,"wind_gusts":24.8,"aqi":75,"pm10":20.1,"pm2_5":19.7,"no2":12.0,"co":396.0,"o3":82.0,"so2":7.9,"mosquito_risk":7,"arthritis_risk":5,"migraine_risk":7,"frizz_risk":1,"updated_at":"2026-07-19T20:28:23.685161+05:30"},{"city":"Muzaffarpur","state":"Bihar","latitude":26.1209,"longitude":85.3647,"temp":27.5,"humidity":94,"rain":0.1,"pressure":996.6,"uv_index":7.0,"wind_gusts":28.4,"aqi":72,"pm10":33.2,"pm2_5":32.9,"no2":17.4,"co":378.0,"o3":82.0,"so2":11.1,"mosquito_risk":10,"arthritis_risk":5,"migraine_risk":7,"frizz_risk":1,"updated_at":"2026-07-19T20:28:23.685168+05:30"},{"city":"Bhagalpur","state":"Bihar","latitude":25.2425,"longitude":87.0117,"temp":27.2,"humidity":96,"rain":0.2,"pressure":997.5,"uv_index":7.55,"wind_gusts":27.0,"aqi":77,"pm10":27.1,"pm2_5":26.5,"no2":13.7,"co":295.0,"o3":86.0,"so2":10.7,"mosquito_risk":10,"arthritis_risk":5,"migraine_risk":7,"frizz_risk":1,"updated_at":"2026-07-19T20:28:23.685176+05:30"},{"city":"Ranchi","state":"Jharkhand","latitude":23.3441,"longitude":85.3096,"temp":23.9,"humidity":96,"rain":0.0,"pressure":934.0,"uv_index":8.1,"wind_gusts":24.8,"aqi":75,"pm10":24.8,"pm2_5":22.2,"no2":8.3,"co":265.0,"o3":95.0,"so2":9.3,"mosquito_risk":3,"arthritis_risk":5,"migraine_risk":7,"frizz_risk":1,"updated_at":"2026-07-19T20:28:23.685184+05:30"},{"city":"Jamshedpur","state":"Jharkhand","latitude":22.8046,"longitude":86.2029,"temp":26.4,"humidity":97,"rain":0.0,"pressure":987.3,"uv_index":8.2,"wind_gusts":29.9,"aqi":99,"pm10":23.5,"pm2_5":22.9,"no2":12.3,"co":362.0,"o3":78.0,"so2":15.2,"mosquito_risk":7,"arthritis_risk":5,"migraine_risk":7,"frizz_risk":1,"updated_at":"2026-07-19T20:28:23.685191+05:30"},{"city":"Dhanbad","state":"Jharkhand","latitude":23.7957,"longitude":86.4304,"temp":26.1,"humidity":95,"rain":0.0,"pressure":976.5,"uv_index":7.8,"wind_gusts":27.7,"aqi":150,"pm10":49.8,"pm2_5":49.2,"no2":45.8,"co":413.0,"o3":54.0,"so2":94.5,"mosquito_risk":7,"arthritis_risk":5,"migraine_risk":7,"frizz_risk":1,"updated_at":"2026-07-19T20:28:23.685199+05:30"},{"city":"Bokaro","state":"Jharkhand","latitude":23.6693,"longitude":86.1511,"temp":26.7,"humidity":96,"rain":0.0,"pressure":980.1,"uv_index":8.3,"wind_gusts":28.1,"aqi":151,"pm10":49.2,"pm2_5":48.7,"no2":42.3,"co":815.0,"o3":63.0,"so2":98.7,"mosquito_risk":7,"arthritis_risk":5,"migraine_risk":7,"frizz_risk":1,"updated_at":"2026-07-19T20:28:23.685207+05:30"},{"city":"Bhubaneswar","state":"Odisha","latitude":20.2961,"longitude":85.8245,"temp":27.6,"humidity":94,"rain":0.0,"pressure":999.1,"uv_index":8.3,"wind_gusts":31.0,"aqi":79,"pm10":40.7,"pm2_5":34.2,"no2":11.1,"co":387.0,"o3":103.0,"so2":7.4,"mosquito_risk":7,"arthritis_risk":5,"migraine_risk":7,"frizz_risk":1,"updated_at":"2026-07-19T20:28:23.685215+05:30"},{"city":"Cuttack","state":"Odisha","latitude":20.4625,"longitude":85.8828,"temp":27.1,"humidity":97,"rain":0.0,"pressure":1000.8,"uv_index":8.65,"wind_gusts":34.9,"aqi":79,"pm10":40.7,"pm2_5":34.2,"no2":11.1,"co":393.0,"o3":103.0,"so2":7.4,"mosquito_risk":7,"arthritis_risk":5,"migraine_risk":4,"frizz_risk":1,"updated_at":"2026-07-19T20:28:23.685222+05:30"},{"city":"Rourkela","state":"Odisha","latitude":22.2604,"longitude":84.8536,"temp":26.4,"humidity":95,"rain":0.1,"pressure":981.3,"uv_index":7.4,"wind_gusts":29.2,"aqi":109,"pm10":39.8,"pm2_5":33.3,"no2":10.4,"co":296.0,"o3":111.0,"so2":19.3,"mosquito_risk":10,"arthritis_risk":5,"migraine_risk":7,"frizz_risk":1,"updated_at":"2026-07-19T20:28:23.685230+05:30"},{"city":"Raipur","state":"Chhattisgarh","latitude":21.2514,"longitude":81.6296,"temp":26.2,"humidity":96,"rain":0.1,"pressure":971.2,"uv_index":7.85,"wind_gusts":29.5,"aqi":92,"pm10":42.3,"pm2_5":35.2,"no2":34.5,"co":283.0,"o3":59.0,"so2":52.8,"mosquito_risk":10,"arthritis_risk":5,"migraine_risk":7,"frizz_risk":1,"updated_at":"2026-07-19T20:28:23.685238+05:30"},{"city":"Bhilai","state":"Chhattisgarh","latitude":21.1938,"longitude":81.3509,"temp":26.1,"humidity":95,"rain":0.0,"pressure":971.8,"uv_index":5.4,"wind_gusts":36.4,"aqi":84,"pm10":36.4,"pm2_5":29.9,"no2":27.7,"co":574.0,"o3":68.0,"so2":44.3,"mosquito_risk":7,"arthritis_risk":5,"migraine_risk":3,"frizz_risk":1,"updated_at":"2026-07-19T20:28:23.685245+05:30"},{"city":"Guwahati","state":"Assam","latitude":26.1158,"longitude":91.7086,"temp":25.5,"humidity":99,"rain":0.1,"pressure":999.9,"uv_index":2.65,"wind_gusts":28.8,"aqi":61,"pm10":14.3,"pm2_5":13.9,"no2":8.3,"co":356.0,"o3":48.0,"so2":2.7,"mosquito_risk":10,"arthritis_risk":5,"migraine_risk":3,"frizz_risk":1,"updated_at":"2026-07-19T20:28:23.685253+05:30"},{"city":"Agartala","state":"Tripura","latitude":23.8315,"longitude":91.2868,"temp":25.4,"humidity":96,"rain":0.1,"pressure":1005.3,"uv_index":7.95,"wind_gusts":45.0,"aqi":56,"pm10":10.9,"pm2_5":9.5,"no2":7.9,"co":155.0,"o3":48.0,"so2":2.3,"mosquito_risk":10,"arthritis_risk":5,"migraine_risk":4,"frizz_risk":1,"updated_at":"2026-07-19T20:28:23.685261+05:30"},{"city":"Shillong","state":"Meghalaya","latitude":25.5788,"longitude":91.8933,"temp":20.0,"humidity":97,"rain":0.0,"pressure":856.4,"uv_index":2.1,"wind_gusts":33.5,"aqi":29,"pm10":2.3,"pm2_5":2.2,"no2":6.2,"co":208.0,"o3":56.0,"so2":2.1,"mosquito_risk":3,"arthritis_risk":5,"migraine_risk":3,"frizz_risk":1,"updated_at":"2026-07-19T20:28:23.685268+05:30"},{"city":"Imphal","state":"Manipur","latitude":24.817,"longitude":93.9368,"temp":22.5,"humidity":98,"rain":0.3,"pressure":922.8,"uv_index":1.15,"wind_gusts":22.3,"aqi":54,"pm10":9.8,"pm2_5":8.6,"no2":9.9,"co":380.0,"o3":31.0,"so2":2.0,"mosquito_risk":6,"arthritis_risk":5,"migraine_risk":3,"frizz_risk":1,"updated_at":"2026-07-19T20:28:23.685276+05:30"},{"city":"Aizawl","state":"Mizoram","latitude":23.7271,"longitude":92.7176,"temp":20.6,"humidity":85,"rain":0.1,"pressure":892.2,"uv_index":3.15,"wind_gusts":41.0,"aqi":38,"pm10":17.8,"pm2_5":11.3,"no2":4.5,"co":128.0,"o3":33.0,"so2":0.8,"mosquito_risk":6,"arthritis_risk":5,"migraine_risk":3,"frizz_risk":1,"updated_at":"2026-07-19T20:28:23.685284+05:30"},{"city":"Kohima","state":"Nagaland","latitude":25.6701,"longitude":94.1077,"temp":20.6,"humidity":92,"rain":0.2,"pressure":855.0,"uv_index":1.9,"wind_gusts":18.4,"aqi":31,"pm10":3.8,"pm2_5":3.7,"no2":6.3,"co":273.0,"o3":37.0,"so2":0.5,"mosquito_risk":6,"arthritis_risk":5,"migraine_risk":3,"frizz_risk":1,"updated_at":"2026-07-19T20:28:23.685292+05:30"},{"city":"Gangtok","state":"Sikkim","latitude":27.3314,"longitude":88.6138,"temp":19.2,"humidity":99,"rain":0.0,"pressure":837.7,"uv_index":3.4,"wind_gusts":27.4,"aqi":33,"pm10":3.4,"pm2_5":3.4,"no2":5.4,"co":216.0,"o3":73.0,"so2":1.0,"mosquito_risk":3,"arthritis_risk":10,"migraine_risk":3,"frizz_risk":1,"updated_at":"2026-07-19T20:28:23.685299+05:30"},{"city":"Siliguri","state":"West Bengal","latitude":26.7271,"longitude":88.3953,"temp":24.9,"humidity":98,"rain":0.3,"pressure":991.0,"uv_index":3.4,"wind_gusts":24.5,"aqi":54,"pm10":12.8,"pm2_5":12.5,"no2":9.7,"co":343.0,"o3":71.0,"so2":3.2,"mosquito_risk":6,"arthritis_risk":5,"migraine_risk":3,"frizz_risk":1,"updated_at":"2026-07-19T20:28:27.063672+05:30"},{"city":"Durgapur","state":"West Bengal","latitude":23.5204,"longitude":87.3119,"temp":27.3,"humidity":94,"rain":0.0,"pressure":991.6,"uv_index":7.3,"wind_gusts":31.0,"aqi":114,"pm10":42.4,"pm2_5":41.6,"no2":26.6,"co":277.0,"o3":63.0,"so2":30.1,"mosquito_risk":7,"arthritis_risk":5,"migraine_risk":7,"frizz_risk":1,"updated_at":"2026-07-19T20:28:27.063706+05:30"},{"city":"Asansol","state":"West Bengal","latitude":23.6739,"longitude":86.9524,"temp":26.8,"humidity":97,"rain":0.0,"pressure":990.2,"uv_index":6.9,"wind_gusts":29.5,"aqi":114,"pm10":38.8,"pm2_5":38.2,"no2":32.4,"co":719.0,"o3":60.0,"so2":35.8,"mosquito_risk":7,"arthritis_risk":5,"migraine_risk":7,"frizz_risk":1,"updated_at":"2026-07-19T20:28:27.063718+05:30"},{"city":"Pondicherry","state":"Puducherry","latitude":11.9139,"longitude":79.8145,"temp":29.3,"humidity":82,"rain":0.0,"pressure":1006.6,"uv_index":8.1,"wind_gusts":39.2,"aqi":73,"pm10":33.8,"pm2_5":22.8,"no2":10.1,"co":184.0,"o3":86.0,"so2":6.6,"mosquito_risk":7,"arthritis_risk":5,"migraine_risk":4,"frizz_risk":1,"updated_at":"2026-07-19T20:28:27.063728+05:30"},{"city":"Port Blair","state":"Andaman and Nicobar Islands","latitude":11.6234,"longitude":92.7265,"temp":26.4,"humidity":84,"rain":0.0,"pressure":1008.8,"uv_index":8.75,"wind_gusts":37.4,"aqi":54,"pm10":21.4,"pm2_5":11.2,"no2":0.2,"co":94.0,"o3":42.0,"so2":0.4,"mosquito_risk":7,"arthritis_risk":0,"migraine_risk":4,"frizz_risk":1,"updated_at":"2026-07-19T20:28:27.063738+05:30"},{"city":"Haridwar","state":"Uttarakhand","latitude":29.9457,"longitude":78.1642,"temp":26.5,"humidity":97,"rain":0.0,"pressure":968.8,"uv_index":7.1,"wind_gusts":30.2,"aqi":163,"pm10":157.9,"pm2_5":71.0,"no2":6.8,"co":417.0,"o3":111.0,"so2":11.6,"mosquito_risk":7,"arthritis_risk":5,"migraine_risk":7,"frizz_risk":1,"updated_at":"2026-07-19T20:28:27.063747+05:30"},{"city":"Rishikesh","state":"Uttarakhand","latitude":30.0869,"longitude":78.2676,"temp":26.1,"humidity":97,"rain":0.0,"pressure":961.6,"uv_index":5.7,"wind_gusts":25.9,"aqi":152,"pm10":142.0,"pm2_5":50.3,"no2":4.7,"co":345.0,"o3":102.0,"so2":7.5,"mosquito_risk":7,"arthritis_risk":5,"migraine_risk":3,"frizz_risk":1,"updated_at":"2026-07-19T20:28:27.063757+05:30"},{"city":"Nainital","state":"Uttarakhand","latitude":29.3919,"longitude":79.4542,"temp":17.9,"humidity":99,"rain":0.1,"pressure":803.7,"uv_index":3.9,"wind_gusts":25.6,"aqi":73,"pm10":24.0,"pm2_5":13.5,"no2":7.6,"co":221.0,"o3":93.0,"so2":3.3,"mosquito_risk":6,"arthritis_risk":10,"migraine_risk":3,"frizz_risk":1,"updated_at":"2026-07-19T20:28:27.063766+05:30"},{"city":"Mussoorie","state":"Uttarakhand","latitude":30.4599,"longitude":78.0664,"temp":18.4,"humidity":100,"rain":0.3,"pressure":800.8,"uv_index":2.75,"wind_gusts":30.2,"aqi":115,"pm10":140.2,"pm2_5":58.0,"no2":15.6,"co":282.0,"o3":93.0,"so2":10.2,"mosquito_risk":6,"arthritis_risk":10,"migraine_risk":3,"frizz_risk":1,"updated_at":"2026-07-19T20:28:27.063775+05:30"},{"city":"Dharamshala","state":"Himachal Pradesh","latitude":32.219,"longitude":76.3234,"temp":22.6,"humidity":99,"rain":0.0,"pressure":865.8,"uv_index":3.95,"wind_gusts":26.3,"aqi":43,"pm10":20.6,"pm2_5":9.4,"no2":5.8,"co":306.0,"o3":81.0,"so2":1.2,"mosquito_risk":3,"arthritis_risk":5,"migraine_risk":3,"frizz_risk":1,"updated_at":"2026-07-19T20:28:27.063784+05:30"},{"city":"Dalhousie","state":"Himachal Pradesh","latitude":32.5387,"longitude":75.971,"temp":19.5,"humidity":98,"rain":0.1,"pressure":802.9,"uv_index":6.45,"wind_gusts":21.6,"aqi":89,"pm10":97.6,"pm2_5":35.5,"no2":11.3,"co":399.0,"o3":84.0,"so2":3.4,"mosquito_risk":6,"arthritis_risk":10,"migraine_risk":7,"frizz_risk":1,"updated_at":"2026-07-19T20:28:27.063794+05:30"},{"city":"Patiala","state":"Punjab","latitude":30.3398,"longitude":76.3869,"temp":30.3,"humidity":87,"rain":0.0,"pressure":971.7,"uv_index":6.45,"wind_gusts":27.4,"aqi":234,"pm10":184.9,"pm2_5":92.4,"no2":23.7,"co":433.0,"o3":91.0,"so2":13.0,"mosquito_risk":3,"arthritis_risk":5,"migraine_risk":7,"frizz_risk":1,"updated_at":"2026-07-19T20:28:27.063803+05:30"},{"city":"Bhatinda","state":"Punjab","latitude":30.211,"longitude":74.9455,"temp":35.5,"humidity":47,"rain":0.0,"pressure":976.2,"uv_index":7.1,"wind_gusts":28.8,"aqi":185,"pm10":235.6,"pm2_5":92.9,"no2":29.7,"co":194.0,"o3":63.0,"so2":9.5,"mosquito_risk":0,"arthritis_risk":5,"migraine_risk":10,"frizz_risk":1,"updated_at":"2026-07-19T20:28:27.063812+05:30"},{"city":"Rohtak","state":"Haryana","latitude":28.8955,"longitude":76.6066,"temp":31.0,"humidity":78,"rain":0.0,"pressure":975.5,"uv_index":6.5,"wind_gusts":30.6,"aqi":511,"pm10":519.7,"pm2_5":124.8,"no2":51.6,"co":310.0,"o3":41.0,"so2":11.5,"mosquito_risk":3,"arthritis_risk":5,"migraine_risk":7,"frizz_risk":1,"updated_at":"2026-07-19T20:28:27.063821+05:30"},{"city":"Panipat","state":"Haryana","latitude":29.3909,"longitude":76.9635,"temp":29.0,"humidity":93,"rain":0.0,"pressure":974.4,"uv_index":6.8,"wind_gusts":33.5,"aqi":784,"pm10":685.5,"pm2_5":166.7,"no2":35.8,"co":513.0,"o3":54.0,"so2":11.5,"mosquito_risk":7,"arthritis_risk":5,"migraine_risk":7,"frizz_risk":1,"updated_at":"2026-07-19T20:28:27.063830+05:30"},{"city":"Mathura","state":"Uttar Pradesh","latitude":27.4924,"longitude":77.6737,"temp":29.7,"humidity":78,"rain":0.0,"pressure":981.4,"uv_index":2.65,"wind_gusts":33.8,"aqi":225,"pm10":231.9,"pm2_5":72.4,"no2":36.4,"co":433.0,"o3":40.0,"so2":5.6,"mosquito_risk":7,"arthritis_risk":5,"migraine_risk":3,"frizz_risk":1,"updated_at":"2026-07-19T20:28:27.063839+05:30"},{"city":"Vrindavan","state":"Uttar Pradesh","latitude":27.5823,"longitude":77.7027,"temp":29.7,"humidity":77,"rain":0.0,"pressure":981.8,"uv_index":5.05,"wind_gusts":29.9,"aqi":225,"pm10":231.9,"pm2_5":72.4,"no2":36.4,"co":463.0,"o3":40.0,"so2":5.6,"mosquito_risk":7,"arthritis_risk":5,"migraine_risk":3,"frizz_risk":1,"updated_at":"2026-07-19T20:28:27.063847+05:30"},{"city":"Ayodhya","state":"Uttar Pradesh","latitude":26.7922,"longitude":82.1998,"temp":28.4,"humidity":88,"rain":0.0,"pressure":991.0,"uv_index":7.8,"wind_gusts":21.6,"aqi":75,"pm10":22.1,"pm2_5":21.5,"no2":16.6,"co":574.0,"o3":77.0,"so2":5.6,"mosquito_risk":7,"arthritis_risk":5,"migraine_risk":7,"frizz_risk":1,"updated_at":"2026-07-19T20:28:27.063856+05:30"},{"city":"Ratlam","state":"Madhya Pradesh","latitude":23.3315,"longitude":75.0367,"temp":27.4,"humidity":79,"rain":0.1,"pressure":950.4,"uv_index":6.95,"wind_gusts":33.1,"aqi":60,"pm10":26.1,"pm2_5":16.8,"no2":5.2,"co":146.0,"o3":71.0,"so2":3.3,"mosquito_risk":10,"arthritis_risk":5,"migraine_risk":7,"frizz_risk":1,"updated_at":"2026-07-19T20:28:27.063864+05:30"},{"city":"Sagar","state":"Madhya Pradesh","latitude":23.8388,"longitude":78.7378,"temp":27.1,"humidity":85,"rain":0.0,"pressure":946.4,"uv_index":7.95,"wind_gusts":27.0,"aqi":80,"pm10":30.6,"pm2_5":22.6,"no2":6.8,"co":187.0,"o3":70.0,"so2":2.9,"mosquito_risk":7,"arthritis_risk":5,"migraine_risk":7,"frizz_risk":1,"updated_at":"2026-07-19T20:28:27.063873+05:30"},{"city":"Satna","state":"Madhya Pradesh","latitude":24.6005,"longitude":80.8322,"temp":26.9,"humidity":91,"rain":0.0,"pressure":967.4,"uv_index":6.85,"wind_gusts":28.4,"aqi":91,"pm10":46.3,"pm2_5":24.6,"no2":8.8,"co":195.0,"o3":69.0,"so2":2.9,"mosquito_risk":7,"arthritis_risk":5,"migraine_risk":7,"frizz_risk":1,"updated_at":"2026-07-19T20:28:27.063882+05:30"},{"city":"Akola","state":"Maharashtra","latitude":20.7002,"longitude":77.0082,"temp":27.9,"humidity":80,"rain":0.0,"pressure":972.1,"uv_index":7.5,"wind_gusts":37.8,"aqi":52,"pm10":13.0,"pm2_5":9.3,"no2":6.1,"co":142.0,"o3":63.0,"so2":5.9,"mosquito_risk":7,"arthritis_risk":5,"migraine_risk":7,"frizz_risk":1,"updated_at":"2026-07-19T20:28:27.063892+05:30"},{"city":"Amravati","state":"Maharashtra","latitude":20.9374,"longitude":77.7796,"temp":27.7,"humidity":80,"rain":0.0,"pressure":964.2,"uv_index":7.0,"wind_gusts":40.7,"aqi":54,"pm10":17.7,"pm2_5":11.7,"no2":6.2,"co":165.0,"o3":66.0,"so2":7.5,"mosquito_risk":7,"arthritis_risk":5,"migraine_risk":7,"frizz_risk":1,"updated_at":"2026-07-19T20:28:27.063902+05:30"},{"city":"Latur","state":"Maharashtra","latitude":18.4088,"longitude":76.5604,"temp":23.2,"humidity":94,"rain":0.1,"pressure":938.2,"uv_index":7.9,"wind_gusts":39.6,"aqi":39,"pm10":15.2,"pm2_5":9.7,"no2":3.8,"co":146.0,"o3":56.0,"so2":1.6,"mosquito_risk":6,"arthritis_risk":5,"migraine_risk":7,"frizz_risk":1,"updated_at":"2026-07-19T20:28:27.063911+05:30"},{"city":"Nanded","state":"Maharashtra","latitude":19.1383,"longitude":77.3091,"temp":25.8,"humidity":90,"rain":0.0,"pressure":966.5,"uv_index":6.9,"wind_gusts":37.8,"aqi":53,"pm10":14.0,"pm2_5":9.5,"no2":6.0,"co":162.0,"o3":60.0,"so2":2.4,"mosquito_risk":7,"arthritis_risk":5,"migraine_risk":7,"frizz_risk":1,"updated_at":"2026-07-19T20:28:27.063920+05:30"},{"city":"Gulbarga","state":"Karnataka","latitude":17.3297,"longitude":76.8343,"temp":23.5,"humidity":96,"rain":0.3,"pressure":957.6,"uv_index":8.2,"wind_gusts":40.7,"aqi":34,"pm10":15.8,"pm2_5":9.4,"no2":5.9,"co":126.0,"o3":55.0,"so2":2.2,"mosquito_risk":6,"arthritis_risk":5,"migraine_risk":7,"frizz_risk":1,"updated_at":"2026-07-19T20:28:27.063928+05:30"},{"city":"Bidar","state":"Karnataka","latitude":17.9104,"longitude":77.5199,"temp":22.9,"humidity":94,"rain":0.1,"pressure":933.8,"uv_index":2.85,"wind_gusts":41.4,"aqi":46,"pm10":17.3,"pm2_5":10.7,"no2":5.8,"co":143.0,"o3":61.0,"so2":1.6,"mosquito_risk":6,"arthritis_risk":5,"migraine_risk":3,"frizz_risk":1,"updated_at":"2026-07-19T20:28:27.063937+05:30"},{"city":"Hospet","state":"Karnataka","latitude":15.2689,"longitude":76.3909,"temp":25.2,"humidity":79,"rain":0.0,"pressure":955.4,"uv_index":7.0,"wind_gusts":46.1,"aqi":36,"pm10":13.0,"pm2_5":8.1,"no2":4.3,"co":120.0,"o3":45.0,"so2":1.7,"mosquito_risk":7,"arthritis_risk":5,"migraine_risk":7,"frizz_risk":1,"updated_at":"2026-07-19T20:28:27.063945+05:30"},{"city":"Tirupur","state":"Tamil Nadu","latitude":11.1085,"longitude":77.3411,"temp":24.9,"humidity":89,"rain":0.1,"pressure":974.9,"uv_index":7.9,"wind_gusts":47.5,"aqi":57,"pm10":16.3,"pm2_5":11.6,"no2":11.8,"co":152.0,"o3":45.0,"so2":3.8,"mosquito_risk":6,"arthritis_risk":5,"migraine_risk":7,"frizz_risk":1,"updated_at":"2026-07-19T20:28:27.063953+05:30"},{"city":"Alappuzha","state":"Kerala","latitude":9.4981,"longitude":76.3388,"temp":26.2,"humidity":91,"rain":0.0,"pressure":1010.6,"uv_index":8.1,"wind_gusts":36.7,"aqi":52,"pm10":15.9,"pm2_5":9.8,"no2":7.7,"co":88.0,"o3":44.0,"so2":2.8,"mosquito_risk":7,"arthritis_risk":0,"migraine_risk":4,"frizz_risk":1,"updated_at":"2026-07-19T20:28:27.063962+05:30"},{"city":"Munnar","state":"Kerala","latitude":10.0889,"longitude":77.0595,"temp":16.8,"humidity":100,"rain":0.1,"pressure":857.2,"uv_index":6.35,"wind_gusts":36.0,"aqi":31,"pm10":7.7,"pm2_5":5.6,"no2":4.3,"co":113.0,"o3":43.0,"so2":1.7,"mosquito_risk":6,"arthritis_risk":10,"migraine_risk":7,"frizz_risk":1,"updated_at":"2026-07-19T20:28:27.063971+05:30"},{"city":"Silchar","state":"Assam","latitude":24.8333,"longitude":92.7789,"temp":25.8,"humidity":99,"rain":0.1,"pressure":1004.4,"uv_index":2.95,"wind_gusts":27.7,"aqi":62,"pm10":19.2,"pm2_5":14.8,"no2":7.1,"co":259.0,"o3":51.0,"so2":4.4,"mosquito_risk":10,"arthritis_risk":5,"migraine_risk":0,"frizz_risk":1,"updated_at":"2026-07-19T20:28:27.063979+05:30"},{"city":"Dibrugarh","state":"Assam","latitude":27.4728,"longitude":94.912,"temp":25.7,"humidity":97,"rain":0.1,"pressure":994.2,"uv_index":1.8,"wind_gusts":35.6,"aqi":52,"pm10":15.8,"pm2_5":15.3,"no2":10.4,"co":181.0,"o3":46.0,"so2":2.1,"mosquito_risk":10,"arthritis_risk":5,"migraine_risk":3,"frizz_risk":1,"updated_at":"2026-07-19T20:28:27.063988+05:30"}]