[{"city":"Delhi","state":"Delhi","latitude":28.6139,"longitude":77.209,"temp":32.5,"humidity":22,"rain":0.0,"pressure":978.3,"uv_index":7.4,"wind_gusts":48.6,"aqi":538,"pm10":758.1,"pm2_5":124.3,"mosquito_risk":0,"arthritis_risk":5,"migraine_risk":7,"frizz_risk":0,"updated_at":"2026-04-27T00:29:50.438169+05:30"},{"city":"Mumbai","state":"Maharashtra","latitude":19.076,"longitude":72.8777,"temp":28.5,"humidity":87,"rain":0.0,"pressure":1006.9,"uv_index":7.6,"wind_gusts":37.1,"aqi":93,"pm10":71.9,"pm2_5":27.6,"mosquito_risk":7,"arthritis_risk":5,"migraine_risk":4,"frizz_risk":1,"updated_at":"2026-04-27T00:29:50.438208+05:30"},{"city":"Bangalore","state":"Karnataka","latitude":12.9716,"longitude":77.5946,"temp":26.2,"humidity":47,"rain":0.0,"pressure":911.4,"uv_index":9.55,"wind_gusts":36.7,"aqi":106,"pm10":25.6,"pm2_5":23.9,"mosquito_risk":4,"arthritis_risk":5,"migraine_risk":7,"frizz_risk":0,"updated_at":"2026-04-27T00:29:50.438224+05:30"},{"city":"Hyderabad","state":"Telangana","latitude":17.385,"longitude":78.4867,"temp":31.9,"humidity":36,"rain":0.0,"pressure":952.1,"uv_index":9.25,"wind_gusts":33.5,"aqi":95,"pm10":55.4,"pm2_5":49.2,"mosquito_risk":0,"arthritis_risk":5,"migraine_risk":7,"frizz_risk":0,"updated_at":"2026-04-27T00:29:50.438234+05:30"},{"city":"Chennai","state":"Tamil Nadu","latitude":13.0827,"longitude":80.2707,"temp":28.5,"humidity":89,"rain":0.0,"pressure":1005.8,"uv_index":9.25,"wind_gusts":49.7,"aqi":45,"pm10":19.8,"pm2_5":13.3,"mosquito_risk":7,"arthritis_risk":5,"migraine_risk":4,"frizz_risk":1,"updated_at":"2026-04-27T00:29:50.438243+05:30"},{"city":"Kolkata","state":"West Bengal","latitude":22.5726,"longitude":88.3639,"temp":28.1,"humidity":85,"rain":0.0,"pressure":1002.5,"uv_index":8.9,"wind_gusts":40.0,"aqi":59,"pm10":19.6,"pm2_5":14.2,"mosquito_risk":7,"arthritis_risk":5,"migraine_risk":4,"frizz_risk":1,"updated_at":"2026-04-27T00:29:50.438256+05:30"},{"city":"Pune","state":"Maharashtra","latitude":18.5204,"longitude":73.8567,"temp":27.2,"humidity":67,"rain":0.0,"pressure":946.5,"uv_index":8.35,"wind_gusts":38.9,"aqi":145,"pm10":36.6,"pm2_5":25.6,"mosquito_risk":7,"arthritis_risk":5,"migraine_risk":7,"frizz_risk":1,"updated_at":"2026-04-27T00:29:50.438263+05:30"},{"city":"Ahmedabad","state":"Gujarat","latitude":23.0225,"longitude":72.5714,"temp":34.3,"humidity":18,"rain":0.0,"pressure":999.1,"uv_index":8.2,"wind_gusts":38.9,"aqi":62,"pm10":30.3,"pm2_5":14.2,"mosquito_risk":0,"arthritis_risk":5,"migraine_risk":7,"frizz_risk":0,"updated_at":"2026-04-27T00:29:50.438271+05:30"},{"city":"Jaipur","state":"Rajasthan","latitude":26.9124,"longitude":75.7873,"temp":32.2,"humidity":22,"rain":0.0,"pressure":956.1,"uv_index":8.05,"wind_gusts":41.8,"aqi":148,"pm10":170.4,"pm2_5":38.1,"mosquito_risk":0,"arthritis_risk":5,"migraine_risk":7,"frizz_risk":0,"updated_at":"2026-04-27T00:29:50.438279+05:30"},{"city":"Lucknow","state":"Uttar Pradesh","latitude":26.8467,"longitude":80.9462,"temp":32.0,"humidity":32,"rain":0.0,"pressure":988.5,"uv_index":7.9,"wind_gusts":52.6,"aqi":173,"pm10":437.7,"pm2_5":85.0,"mosquito_risk":0,"arthritis_risk":5,"migraine_risk":7,"frizz_risk":0,"updated_at":"2026-04-27T00:29:50.438286+05:30"},{"city":"Kanpur","state":"Uttar Pradesh","latitude":26.4499,"longitude":80.3319,"temp":33.2,"humidity":24,"rain":0.0,"pressure":986.3,"uv_index":7.9,"wind_gusts":54.7,"aqi":547,"pm10":542.0,"pm2_5":83.6,"mosquito_risk":0,"arthritis_risk":5,"migraine_risk":7,"frizz_risk":0,"updated_at":"2026-04-27T00:29:50.438293+05:30"},{"city":"Chandigarh","state":"Chandigarh","latitude":30.7333,"longitude":76.7794,"temp":29.5,"humidity":24,"rain":0.0,"pressure":963.9,"uv_index":7.4,"wind_gusts":45.7,"aqi":79,"pm10":23.9,"pm2_5":18.1,"mosquito_risk":4,"arthritis_risk":5,"migraine_risk":7,"frizz_risk":0,"updated_at":"2026-04-27T00:29:50.438301+05:30"},{"city":"Srinagar","state":"Jammu and Kashmir","latitude":34.0837,"longitude":74.7973,"temp":10.6,"humidity":90,"rain":0.0,"pressure":837.9,"uv_index":8.6,"wind_gusts":16.2,"aqi":78,"pm10":42.4,"pm2_5":34.6,"mosquito_risk":3,"arthritis_risk":10,"migraine_risk":7,"frizz_risk":0,"updated_at":"2026-04-27T00:29:50.438308+05:30"},{"city":"Jammu","state":"Jammu and Kashmir","latitude":32.7266,"longitude":74.857,"temp":26.2,"humidity":31,"rain":0.0,"pressure":967.3,"uv_index":8.15,"wind_gusts":33.8,"aqi":66,"pm10":40.3,"pm2_5":32.0,"mosquito_risk":4,"arthritis_risk":5,"migraine_risk":7,"frizz_risk":0,"updated_at":"2026-04-27T00:29:50.438315+05:30"},{"city":"Amritsar","state":"Punjab","latitude":31.634,"longitude":74.8723,"temp":29.1,"humidity":30,"rain":0.0,"pressure":975.8,"uv_index":8.1,"wind_gusts":36.7,"aqi":79,"pm10":35.4,"pm2_5":20.3,"mosquito_risk":4,"arthritis_risk":5,"migraine_risk":7,"frizz_risk":0,"updated_at":"2026-04-27T00:29:50.438322+05:30"},{"city":"Ludhiana","state":"Punjab","latitude":30.901,"longitude":75.8573,"temp":27.6,"humidity":32,"rain":0.0,"pressure":973.7,"uv_index":7.65,"wind_gusts":41.8,"aqi":77,"pm10":59.4,"pm2_5":28.1,"mosquito_risk":4,"arthritis_risk":5,"migraine_risk":7,"frizz_risk":0,"updated_at":"2026-04-27T00:29:50.438331+05:30"},{"city":"Jalandhar","state":"Punjab","latitude":31.326,"longitude":75.5762,"temp":27.4,"humidity":33,"rain":0.0,"pressure":974.8,"uv_index":7.85,"wind_gusts":37.4,"aqi":83,"pm10":44.9,"pm2_5":32.0,"mosquito_risk":4,"arthritis_risk":5,"migraine_risk":7,"frizz_risk":0,"updated_at":"2026-04-27T00:29:50.438337+05:30"},{"city":"Dehradun","state":"Uttarakhand","latitude":30.6284,"longitude":78.0322,"temp":13.3,"humidity":53,"rain":0.0,"pressure":824.6,"uv_index":7.8,"wind_gusts":49.0,"aqi":69,"pm10":27.0,"pm2_5":14.6,"mosquito_risk":0,"arthritis_risk":5,"migraine_risk":7,"frizz_risk":0,"updated_at":"2026-04-27T00:29:50.438344+05:30"},{"city":"Shimla","state":"Himachal Pradesh","latitude":31.1048,"longitude":77.1734,"temp":13.5,"humidity":42,"rain":0.0,"pressure":780.8,"uv_index":7.9,"wind_gusts":52.9,"aqi":75,"pm10":28.2,"pm2_5":13.4,"mosquito_risk":0,"arthritis_risk":5,"migraine_risk":7,"frizz_risk":0,"updated_at":"2026-04-27T00:29:50.438351+05:30"},{"city":"Manali","state":"Himachal Pradesh","latitude":32.2396,"longitude":77.1887,"temp":7.0,"humidity":50,"rain":0.0,"pressure":810.8,"uv_index":9.8,"wind_gusts":45.0,"aqi":93,"pm10":24.8,"pm2_5":11.0,"mosquito_risk":0,"arthritis_risk":5,"migraine_risk":7,"frizz_risk":1,"updated_at":"2026-04-27T00:29:50.438358+05:30"},{"city":"Gurgaon","state":"Haryana","latitude":28.4595,"longitude":77.0266,"temp":30.8,"humidity":25,"rain":0.0,"pressure":976.9,"uv_index":7.55,"wind_gusts":49.7,"aqi":1427,"pm10":935.0,"pm2_5":132.2,"mosquito_risk":0,"arthritis_risk":5,"migraine_risk":7,"frizz_risk":0,"updated_at":"2026-04-27T00:29:50.438364+05:30"},{"city":"Noida","state":"Uttar Pradesh","latitude":28.5355,"longitude":77.391,"temp":31.9,"humidity":23,"rain":0.0,"pressure":979.6,"uv_index":7.45,"wind_gusts":43.9,"aqi":1427,"pm10":935.0,"pm2_5":132.2,"mosquito_risk":0,"arthritis_risk":5,"migraine_risk":7,"frizz_risk":0,"updated_at":"2026-04-27T00:29:50.438371+05:30"},{"city":"Ghaziabad","state":"Uttar Pradesh","latitude":28.6692,"longitude":77.4538,"temp":31.4,"humidity":23,"rain":0.0,"pressure":977.8,"uv_index":7.4,"wind_gusts":47.9,"aqi":444,"pm10":739.5,"pm2_5":122.0,"mosquito_risk":0,"arthritis_risk":5,"migraine_risk":7,"frizz_risk":0,"updated_at":"2026-04-27T00:29:50.438377+05:30"},{"city":"Faridabad","state":"Haryana","latitude":28.4089,"longitude":77.3178,"temp":33.8,"humidity":20,"rain":0.0,"pressure":978.9,"uv_index":7.5,"wind_gusts":53.3,"aqi":1427,"pm10":935.0,"pm2_5":132.2,"mosquito_risk":0,"arthritis_risk":5,"migraine_risk":7,"frizz_risk":0,"updated_at":"2026-04-27T00:29:50.438383+05:30"},{"city":"Meerut","state":"Uttar Pradesh","latitude":28.9845,"longitude":77.7064,"temp":29.9,"humidity":25,"rain":0.0,"pressure":976.5,"uv_index":7.3,"wind_gusts":50.8,"aqi":444,"pm10":739.5,"pm2_5":122.0,"mosquito_risk":4,"arthritis_risk":5,"migraine_risk":7,"frizz_risk":0,"updated_at":"2026-04-27T00:29:50.438390+05:30"},{"city":"Agra","state":"Uttar Pradesh","latitude":27.1767,"longitude":78.0081,"temp":31.7,"humidity":27,"rain":0.0,"pressure":982.6,"uv_index":7.8,"wind_gusts":50.4,"aqi":917,"pm10":408.9,"pm2_5":59.8,"mosquito_risk":0,"arthritis_risk":5,"migraine_risk":7,"frizz_risk":0,"updated_at":"2026-04-27T00:29:50.438398+05:30"},{"city":"Varanasi","state":"Uttar Pradesh","latitude":25.3176,"longitude":82.9739,"temp":30.7,"humidity":59,"rain":0.0,"pressure":992.9,"uv_index":8.5,"wind_gusts":53.3,"aqi":141,"pm10":108.3,"pm2_5":67.3,"mosquito_risk":0,"arthritis_risk":5,"migraine_risk":7,"frizz_risk":1,"updated_at":"2026-04-27T00:29:50.438405+05:30"},{"city":"Prayagraj","state":"Uttar Pradesh","latitude":25.4358,"longitude":81.8463,"temp":31.4,"humidity":30,"rain":0.0,"pressure":991.0,"uv_index":8.4,"wind_gusts":50.8,"aqi":135,"pm10":112.5,"pm2_5":47.7,"mosquito_risk":0,"arthritis_risk":5,"migraine_risk":7,"frizz_risk":0,"updated_at":"2026-04-27T00:29:50.438411+05:30"},{"city":"Gorakhpur","state":"Uttar Pradesh","latitude":26.7606,"longitude":83.3732,"temp":26.3,"humidity":69,"rain":0.0,"pressure":994.4,"uv_index":8.35,"wind_gusts":40.7,"aqi":152,"pm10":70.8,"pm2_5":54.2,"mosquito_risk":7,"arthritis_risk":5,"migraine_risk":7,"frizz_risk":1,"updated_at":"2026-04-27T00:29:50.438418+05:30"},{"city":"Bareilly","state":"Uttar Pradesh","latitude":28.367,"longitude":79.4304,"temp":30.1,"humidity":29,"rain":0.0,"pressure":981.7,"uv_index":7.65,"wind_gusts":54.7,"aqi":119,"pm10":258.0,"pm2_5":61.5,"mosquito_risk":0,"arthritis_risk":5,"migraine_risk":7,"frizz_risk":0,"updated_at":"2026-04-27T00:29:50.438424+05:30"},{"city":"Aligarh","state":"Uttar Pradesh","latitude":27.8974,"longitude":78.088,"temp":30.8,"humidity":29,"rain":0.0,"pressure":980.4,"uv_index":7.6,"wind_gusts":51.8,"aqi":1010,"pm10":847.5,"pm2_5":141.6,"mosquito_risk":0,"arthritis_risk":5,"migraine_risk":7,"frizz_risk":0,"updated_at":"2026-04-27T00:29:50.438433+05:30"},{"city":"Moradabad","state":"Uttar Pradesh","latitude":28.8386,"longitude":78.7733,"temp":29.5,"humidity":25,"rain":0.0,"pressure":978.5,"uv_index":7.5,"wind_gusts":55.8,"aqi":130,"pm10":301.7,"pm2_5":74.3,"mosquito_risk":4,"arthritis_risk":5,"migraine_risk":7,"frizz_risk":0,"updated_at":"2026-04-27T00:29:50.438440+05:30"},{"city":"Saharanpur","state":"Uttar Pradesh","latitude":29.9637,"longitude":77.546,"temp":28.8,"humidity":25,"rain":0.0,"pressure":970.3,"uv_index":7.1,"wind_gusts":52.2,"aqi":83,"pm10":122.0,"pm2_5":34.3,"mosquito_risk":4,"arthritis_risk":5,"migraine_risk":7,"frizz_risk":0,"updated_at":"2026-04-27T00:29:50.438446+05:30"},{"city":"Jhansi","state":"Uttar Pradesh","latitude":25.4484,"longitude":78.5685,"temp":31.9,"humidity":24,"rain":0.0,"pressure":973.3,"uv_index":8.3,"wind_gusts":49.0,"aqi":91,"pm10":65.2,"pm2_5":26.6,"mosquito_risk":0,"arthritis_risk":5,"migraine_risk":7,"frizz_risk":0,"updated_at":"2026-04-27T00:29:53.750519+05:30"},{"city":"Surat","state":"Gujarat","latitude":21.1702,"longitude":72.8311,"temp":29.9,"humidity":59,"rain":0.0,"pressure":1003.7,"uv_index":7.85,"wind_gusts":36.0,"aqi":117,"pm10":52.0,"pm2_5":29.0,"mosquito_risk":4,"arthritis_risk":5,"migraine_risk":4,"frizz_risk":1,"updated_at":"2026-04-27T00:29:53.750549+05:30"},{"city":"Vadodara","state":"Gujarat","latitude":22.3072,"longitude":73.1812,"temp":32.7,"humidity":32,"rain":0.0,"pressure":1001.3,"uv_index":8.15,"wind_gusts":41.4,"aqi":80,"pm10":44.2,"pm2_5":32.6,"mosquito_risk":0,"arthritis_risk":5,"migraine_risk":4,"frizz_risk":0,"updated_at":"2026-04-27T00:29:53.750561+05:30"},{"city":"Rajkot","state":"Gujarat","latitude":22.3039,"longitude":70.8022,"temp":28.6,"humidity":44,"rain":0.0,"pressure":992.3,"uv_index":7.85,"wind_gusts":39.2,"aqi":59,"pm10":31.3,"pm2_5":14.5,"mosquito_risk":4,"arthritis_risk":5,"migraine_risk":7,"frizz_risk":0,"updated_at":"2026-04-27T00:29:53.750570+05:30"},{"city":"Thane","state":"Maharashtra","latitude":19.2183,"longitude":72.9781,"temp":28.8,"humidity":85,"rain":0.0,"pressure":1006.3,"uv_index":7.6,"wind_gusts":32.8,"aqi":93,"pm10":71.9,"pm2_5":27.6,"mosquito_risk":7,"arthritis_risk":5,"migraine_risk":4,"frizz_risk":1,"updated_at":"2026-04-27T00:29:53.750579+05:30"},{"city":"Nagpur","state":"Maharashtra","latitude":21.1458,"longitude":79.0882,"temp":34.0,"humidity":22,"rain":0.0,"pressure":969.6,"uv_index":8.9,"wind_gusts":34.6,"aqi":107,"pm10":80.6,"pm2_5":40.7,"mosquito_risk":0,"arthritis_risk":5,"migraine_risk":7,"frizz_risk":0,"updated_at":"2026-04-27T00:29:53.750588+05:30"},{"city":"Nashik","state":"Maharashtra","latitude":19.9975,"longitude":73.7898,"temp":29.2,"humidity":26,"rain":0.0,"pressure":943.9,"uv_index":8.1,"wind_gusts":36.0,"aqi":110,"pm10":50.8,"pm2_5":33.9,"mosquito_risk":4,"arthritis_risk":5,"migraine_risk":7,"frizz_risk":0,"updated_at":"2026-04-27T00:29:53.750595+05:30"},{"city":"Aurangabad","state":"Maharashtra","latitude":19.8762,"longitude":75.3433,"temp":33.7,"humidity":20,"rain":0.0,"pressure":942.9,"uv_index":9.05,"wind_gusts":32.4,"aqi":83,"pm10":24.6,"pm2_5":19.6,"mosquito_risk":0,"arthritis_risk":5,"migraine_risk":7,"frizz_risk":0,"updated_at":"2026-04-27T00:29:53.750603+05:30"},{"city":"Solapur","state":"Maharashtra","latitude":17.6599,"longitude":75.9064,"temp":32.6,"humidity":24,"rain":0.0,"pressure":955.1,"uv_index":9.05,"wind_gusts":25.2,"aqi":108,"pm10":52.6,"pm2_5":46.4,"mosquito_risk":0,"arthritis_risk":5,"migraine_risk":7,"frizz_risk":0,"updated_at":"2026-04-27T00:29:53.750611+05:30"},{"city":"Kolhapur","state":"Maharashtra","latitude":16.705,"longitude":74.2433,"temp":25.0,"humidity":91,"rain":0.0,"pressure":946.8,"uv_index":9.0,"wind_gusts":50.8,"aqi":102,"pm10":26.4,"pm2_5":17.9,"mosquito_risk":7,"arthritis_risk":5,"migraine_risk":7,"frizz_risk":1,"updated_at":"2026-04-27T00:29:53.750619+05:30"},{"city":"Goa","state":"Goa","latitude":15.2993,"longitude":74.124,"temp":29.6,"humidity":81,"rain":0.0,"pressure":996.6,"uv_index":8.95,"wind_gusts":34.9,"aqi":88,"pm10":39.0,"pm2_5":28.5,"mosquito_risk":7,"arthritis_risk":5,"migraine_risk":7,"frizz_risk":1,"updated_at":"2026-04-27T00:29:53.750627+05:30"},{"city":"Jodhpur","state":"Rajasthan","latitude":26.2389,"longitude":73.0243,"temp":33.8,"humidity":19,"rain":0.0,"pressure":979.1,"uv_index":8.3,"wind_gusts":34.2,"aqi":81,"pm10":171.4,"pm2_5":27.6,"mosquito_risk":0,"arthritis_risk":5,"migraine_risk":7,"frizz_risk":0,"updated_at":"2026-04-27T00:29:53.750634+05:30"},{"city":"Udaipur","state":"Rajasthan","latitude":24.5854,"longitude":73.7125,"temp":31.0,"humidity":17,"rain":0.0,"pressure":944.3,"uv_index":8.75,"wind_gusts":47.9,"aqi":69,"pm10":34.5,"pm2_5":12.6,"mosquito_risk":0,"arthritis_risk":5,"migraine_risk":7,"frizz_risk":0,"updated_at":"2026-04-27T00:29:53.750642+05:30"},{"city":"Kota","state":"Rajasthan","latitude":25.2138,"longitude":75.8648,"temp":32.2,"humidity":27,"rain":0.0,"pressure":974.6,"uv_index":8.3,"wind_gusts":46.8,"aqi":88,"pm10":87.3,"pm2_5":43.8,"mosquito_risk":0,"arthritis_risk":5,"migraine_risk":7,"frizz_risk":0,"updated_at":"2026-04-27T00:29:53.750649+05:30"},{"city":"Bikaner","state":"Rajasthan","latitude":28.0229,"longitude":73.3119,"temp":33.0,"humidity":25,"rain":0.0,"pressure":977.0,"uv_index":8.15,"wind_gusts":37.1,"aqi":70,"pm10":60.3,"pm2_5":18.9,"mosquito_risk":0,"arthritis_risk":5,"migraine_risk":7,"frizz_risk":0,"updated_at":"2026-04-27T00:29:53.750657+05:30"},{"city":"Ajmer","state":"Rajasthan","latitude":26.4499,"longitude":74.6399,"temp":33.0,"humidity":22,"rain":0.0,"pressure":951.8,"uv_index":8.25,"wind_gusts":41.4,"aqi":66,"pm10":57.7,"pm2_5":20.5,"mosquito_risk":0,"arthritis_risk":5,"migraine_risk":7,"frizz_risk":0,"updated_at":"2026-04-27T00:29:53.750665+05:30"},{"city":"Gwalior","state":"Madhya Pradesh","latitude":26.2183,"longitude":78.1828,"temp":32.9,"humidity":22,"rain":0.0,"pressure":978.3,"uv_index":8.0,"wind_gusts":45.4,"aqi":118,"pm10":95.5,"pm2_5":26.0,"mosquito_risk":0,"arthritis_risk":5,"migraine_risk":7,"frizz_risk":0,"updated_at":"2026-04-27T00:29:53.750672+05:30"},{"city":"Indore","state":"Madhya Pradesh","latitude":22.7196,"longitude":75.8577,"temp":31.3,"humidity":20,"rain":0.0,"pressure":946.1,"uv_index":8.65,"wind_gusts":37.4,"aqi":69,"pm10":64.0,"pm2_5":34.8,"mosquito_risk":0,"arthritis_risk":5,"migraine_risk":7,"frizz_risk":0,"updated_at":"2026-04-27T00:29:53.750679+05:30"},{"city":"Bhopal","state":"Madhya Pradesh","latitude":23.2599,"longitude":77.4126,"temp":31.4,"humidity":25,"rain":0.0,"pressure":950.2,"uv_index":8.65,"wind_gusts":37.8,"aqi":81,"pm10":71.0,"pm2_5":36.1,"mosquito_risk":0,"arthritis_risk":5,"migraine_risk":7,"frizz_risk":0,"updated_at":"2026-04-27T00:29:53.750686+05:30"},{"city":"Jabalpur","state":"Madhya Pradesh","latitude":23.1815,"longitude":79.9864,"temp":30.7,"humidity":25,"rain":0.0,"pressure":957.5,"uv_index":8.7,"wind_gusts":42.1,"aqi":70,"pm10":74.3,"pm2_5":28.5,"mosquito_risk":0,"arthritis_risk":5,"migraine_risk":7,"frizz_risk":0,"updated_at":"2026-04-27T00:29:53.750694+05:30"},{"city":"Ujjain","state":"Madhya Pradesh","latitude":23.1765,"longitude":75.7885,"temp":30.6,"humidity":24,"rain":0.0,"pressure":951.5,"uv_index":8.55,"wind_gusts":41.4,"aqi":72,"pm10":71.2,"pm2_5":44.6,"mosquito_risk":0,"arthritis_risk":5,"migraine_risk":7,"frizz_risk":0,"updated_at":"2026-04-27T00:29:53.750701+05:30"},{"city":"Visakhapatnam","state":"Andhra Pradesh","latitude":17.6868,"longitude":83.2185,"temp":27.6,"humidity":90,"rain":0.0,"pressure":1001.6,"uv_index":8.95,"wind_gusts":47.5,"aqi":56,"pm10":20.3,"pm2_5":14.4,"mosquito_risk":7,"arthritis_risk":5,"migraine_risk":4,"frizz_risk":1,"updated_at":"2026-04-27T00:29:53.750709+05:30"},{"city":"Vijayawada","state":"Andhra Pradesh","latitude":16.5062,"longitude":80.648,"temp":27.6,"humidity":87,"rain":0.0,"pressure":1001.2,"uv_index":8.9,"wind_gusts":37.4,"aqi":58,"pm10":21.7,"pm2_5":15.9,"mosquito_risk":7,"arthritis_risk":5,"migraine_risk":4,"frizz_risk":1,"updated_at":"2026-04-27T00:29:53.750716+05:30"},{"city":"Guntur","state":"Andhra Pradesh","latitude":16.3067,"longitude":80.4365,"temp":27.5,"humidity":89,"rain":0.0,"pressure":1002.5,"uv_index":8.95,"wind_gusts":40.7,"aqi":59,"pm10":21.1,"pm2_5":15.3,"mosquito_risk":7,"arthritis_risk":5,"migraine_risk":4,"frizz_risk":1,"updated_at":"2026-04-27T00:29:53.750723+05:30"},{"city":"Nellore","state":"Andhra Pradesh","latitude":14.4426,"longitude":79.9865,"temp":27.6,"humidity":85,"rain":0.0,"pressure":1004.3,"uv_index":9.1,"wind_gusts":43.9,"aqi":54,"pm10":16.2,"pm2_5":12.5,"mosquito_risk":7,"arthritis_risk":5,"migraine_risk":4,"frizz_risk":1,"updated_at":"2026-04-27T00:29:53.750731+05:30"},{"city":"Kurnool","state":"Andhra Pradesh","latitude":15.8281,"longitude":78.0373,"temp":32.3,"humidity":38,"rain":0.0,"pressure":975.1,"uv_index":9.2,"wind_gusts":33.8,"aqi":95,"pm10":46.1,"pm2_5":40.3,"mosquito_risk":0,"arthritis_risk":5,"migraine_risk":7,"frizz_risk":1,"updated_at":"2026-04-27T00:29:53.750764+05:30"},{"city":"Kakinada","state":"Andhra Pradesh","latitude":16.9891,"longitude":82.2475,"temp":27.8,"humidity":88,"rain":0.0,"pressure":1006.1,"uv_index":8.85,"wind_gusts":40.3,"aqi":49,"pm10":21.7,"pm2_5":13.5,"mosquito_risk":7,"arthritis_risk":5,"migraine_risk":4,"frizz_risk":1,"updated_at":"2026-04-27T00:29:53.750775+05:30"},{"city":"Tirupati","state":"Andhra Pradesh","latitude":13.6288,"longitude":79.4192,"temp":28.0,"humidity":73,"rain":0.0,"pressure":990.2,"uv_index":9.3,"wind_gusts":40.3,"aqi":66,"pm10":18.8,"pm2_5":16.5,"mosquito_risk":7,"arthritis_risk":5,"migraine_risk":7,"frizz_risk":1,"updated_at":"2026-04-27T00:29:53.750783+05:30"},{"city":"Warangal","state":"Telangana","latitude":17.9689,"longitude":79.5941,"temp":29.8,"humidity":50,"rain":0.0,"pressure":976.8,"uv_index":9.0,"wind_gusts":35.3,"aqi":95,"pm10":28.1,"pm2_5":24.9,"mosquito_risk":4,"arthritis_risk":5,"migraine_risk":7,"frizz_risk":1,"updated_at":"2026-04-27T00:29:53.750790+05:30"},{"city":"Nizamabad","state":"Telangana","latitude":18.6725,"longitude":78.0941,"temp":31.6,"humidity":33,"rain":0.0,"pressure":961.8,"uv_index":8.6,"wind_gusts":31.3,"aqi":105,"pm10":41.6,"pm2_5":36.9,"mosquito_risk":0,"arthritis_risk":5,"migraine_risk":7,"frizz_risk":0,"updated_at":"2026-04-27T00:29:53.750797+05:30"},{"city":"Mysore","state":"Karnataka","latitude":12.2958,"longitude":76.6396,"temp":24.0,"humidity":87,"rain":0.0,"pressure":928.0,"uv_index":9.45,"wind_gusts":40.0,"aqi":88,"pm10":37.1,"pm2_5":33.4,"mosquito_risk":3,"arthritis_risk":5,"migraine_risk":7,"frizz_risk":1,"updated_at":"2026-04-27T00:29:53.750804+05:30"},{"city":"Mangalore","state":"Karnataka","latitude":12.9141,"longitude":74.856,"temp":29.5,"humidity":81,"rain":0.0,"pressure":1005.6,"uv_index":9.05,"wind_gusts":39.2,"aqi":82,"pm10":42.8,"pm2_5":33.9,"mosquito_risk":7,"arthritis_risk":5,"migraine_risk":4,"frizz_risk":1,"updated_at":"2026-04-27T00:29:53.750811+05:30"},{"city":"Hubli-Dharwad","state":"Karnataka","latitude":15.3647,"longitude":75.124,"temp":25.0,"humidity":92,"rain":0.0,"pressure":939.3,"uv_index":8.85,"wind_gusts":45.7,"aqi":94,"pm10":33.1,"pm2_5":29.0,"mosquito_risk":7,"arthritis_risk":5,"migraine_risk":7,"frizz_risk":1,"updated_at":"2026-04-27T00:29:53.750819+05:30"},{"city":"Belgaum","state":"Karnataka","latitude":15.8497,"longitude":74.4977,"temp":23.8,"humidity":95,"rain":0.0,"pressure":924.8,"uv_index":8.85,"wind_gusts":48.2,"aqi":105,"pm10":34.6,"pm2_5":29.2,"mosquito_risk":3,"arthritis_risk":5,"migraine_risk":7,"frizz_risk":1,"updated_at":"2026-04-27T00:29:57.068441+05:30"},{"city":"Coimbatore","state":"Tamil Nadu","latitude":11.0168,"longitude":76.9558,"temp":27.6,"humidity":72,"rain":0.0,"pressure":961.1,"uv_index":9.35,"wind_gusts":39.6,"aqi":81,"pm10":38.3,"pm2_5":35.5,"mosquito_risk":7,"arthritis_risk":5,"migraine_risk":7,"frizz_risk":1,"updated_at":"2026-04-27T00:29:57.068467+05:30"},{"city":"Madurai","state":"Tamil Nadu","latitude":9.9252,"longitude":78.1198,"temp":28.9,"humidity":70,"rain":0.0,"pressure":992.8,"uv_index":9.25,"wind_gusts":37.4,"aqi":49,"pm10":9.0,"pm2_5":8.8,"mosquito_risk":7,"arthritis_risk":5,"migraine_risk":7,"frizz_risk":1,"updated_at":"2026-04-27T00:29:57.068475+05:30"},{"city":"Trichy","state":"Tamil Nadu","latitude":10.7905,"longitude":78.7047,"temp":27.8,"humidity":84,"rain":0.0,"pressure":998.8,"uv_index":9.25,"wind_gusts":30.6,"aqi":49,"pm10":15.0,"pm2_5":13.5,"mosquito_risk":7,"arthritis_risk":5,"migraine_risk":7,"frizz_risk":1,"updated_at":"2026-04-27T00:29:57.068482+05:30"},{"city":"Salem","state":"Tamil Nadu","latitude":11.6643,"longitude":78.146,"temp":28.5,"humidity":65,"rain":0.0,"pressure":976.1,"uv_index":9.35,"wind_gusts":41.8,"aqi":72,"pm10":22.2,"pm2_5":21.1,"mosquito_risk":7,"arthritis_risk":5,"migraine_risk":7,"frizz_risk":1,"updated_at":"2026-04-27T00:29:57.068489+05:30"},{"city":"Tirunelveli","state":"Tamil Nadu","latitude":8.7139,"longitude":77.7567,"temp":28.4,"humidity":73,"rain":0.0,"pressure":1002.6,"uv_index":9.2,"wind_gusts":37.4,"aqi":51,"pm10":12.2,"pm2_5":11.7,"mosquito_risk":7,"arthritis_risk":5,"migraine_risk":4,"frizz_risk":1,"updated_at":"2026-04-27T00:29:57.068496+05:30"},{"city":"Vellore","state":"Tamil Nadu","latitude":12.9165,"longitude":79.1325,"temp":27.1,"humidity":77,"rain":0.0,"pressure":983.3,"uv_index":9.3,"wind_gusts":34.6,"aqi":84,"pm10":34.8,"pm2_5":32.5,"mosquito_risk":7,"arthritis_risk":5,"migraine_risk":7,"frizz_risk":1,"updated_at":"2026-04-27T00:29:57.068502+05:30"},{"city":"Erode","state":"Tamil Nadu","latitude":11.341,"longitude":77.7172,"temp":30.1,"humidity":50,"rain":0.0,"pressure":987.9,"uv_index":9.3,"wind_gusts":39.2,"aqi":61,"pm10":13.0,"pm2_5":12.5,"mosquito_risk":0,"arthritis_risk":5,"migraine_risk":7,"frizz_risk":1,"updated_at":"2026-04-27T00:29:57.068507+05:30"},{"city":"Kochi","state":"Kerala","latitude":9.9312,"longitude":76.2673,"temp":28.1,"humidity":89,"rain":0.0,"pressure":1008.1,"uv_index":9.0,"wind_gusts":39.2,"aqi":69,"pm10":28.5,"pm2_5":27.4,"mosquito_risk":7,"arthritis_risk":0,"migraine_risk":4,"frizz_risk":1,"updated_at":"2026-04-27T00:29:57.068514+05:30"},{"city":"Thiruvananthapuram","state":"Kerala","latitude":8.5241,"longitude":76.9366,"temp":26.4,"humidity":87,"rain":0.0,"pressure":1007.6,"uv_index":8.8,"wind_gusts":32.4,"aqi":47,"pm10":11.9,"pm2_5":9.6,"mosquito_risk":7,"arthritis_risk":5,"migraine_risk":4,"frizz_risk":1,"updated_at":"2026-04-27T00:29:57.068519+05:30"},{"city":"Kozhikode","state":"Kerala","latitude":11.2588,"longitude":75.7804,"temp":27.4,"humidity":87,"rain":0.0,"pressure":1007.0,"uv_index":8.4,"wind_gusts":38.2,"aqi":53,"pm10":21.9,"pm2_5":15.9,"mosquito_risk":7,"arthritis_risk":5,"migraine_risk":4,"frizz_risk":1,"updated_at":"2026-04-27T00:29:57.068525+05:30"},{"city":"Thrissur","state":"Kerala","latitude":10.5276,"longitude":76.2144,"temp":27.6,"humidity":90,"rain":0.0,"pressure":1006.5,"uv_index":9.0,"wind_gusts":41.0,"aqi":66,"pm10":30.7,"pm2_5":29.1,"mosquito_risk":7,"arthritis_risk":5,"migraine_risk":4,"frizz_risk":1,"updated_at":"2026-04-27T00:29:57.068531+05:30"},{"city":"Kannur","state":"Kerala","latitude":11.8745,"longitude":75.3704,"temp":28.4,"humidity":84,"rain":0.0,"pressure":1006.1,"uv_index":9.0,"wind_gusts":39.6,"aqi":69,"pm10":32.7,"pm2_5":26.8,"mosquito_risk":7,"arthritis_risk":5,"migraine_risk":4,"frizz_risk":1,"updated_at":"2026-04-27T00:29:57.068537+05:30"},{"city":"Patna","state":"Bihar","latitude":25.5941,"longitude":85.1376,"temp":26.4,"humidity":74,"rain":0.0,"pressure":997.2,"uv_index":8.65,"wind_gusts":45.4,"aqi":156,"pm10":59.6,"pm2_5":53.6,"mosquito_risk":7,"arthritis_risk":5,"migraine_risk":7,"frizz_risk":1,"updated_at":"2026-04-27T00:29:57.068543+05:30"},{"city":"Gaya","state":"Bihar","latitude":24.7914,"longitude":85.0002,"temp":27.6,"humidity":71,"rain":0.0,"pressure":989.2,"uv_index":8.7,"wind_gusts":36.7,"aqi":158,"pm10":63.3,"pm2_5":60.1,"mosquito_risk":7,"arthritis_risk":5,"migraine_risk":7,"frizz_risk":1,"updated_at":"2026-04-27T00:29:57.068549+05:30"},{"city":"Muzaffarpur","state":"Bihar","latitude":26.1209,"longitude":85.3647,"temp":24.4,"humidity":75,"rain":0.0,"pressure":998.0,"uv_index":8.65,"wind_gusts":48.6,"aqi":153,"pm10":62.4,"pm2_5":55.2,"mosquito_risk":3,"arthritis_risk":5,"migraine_risk":7,"frizz_risk":1,"updated_at":"2026-04-27T00:29:57.068555+05:30"},{"city":"Bhagalpur","state":"Bihar","latitude":25.2425,"longitude":87.0117,"temp":25.4,"humidity":78,"rain":0.0,"pressure":998.6,"uv_index":8.6,"wind_gusts":40.3,"aqi":133,"pm10":23.5,"pm2_5":19.5,"mosquito_risk":7,"arthritis_risk":5,"migraine_risk":7,"frizz_risk":1,"updated_at":"2026-04-27T00:29:57.068560+05:30"},{"city":"Ranchi","state":"Jharkhand","latitude":23.3441,"longitude":85.3096,"temp":23.6,"humidity":72,"rain":0.0,"pressure":933.0,"uv_index":9.15,"wind_gusts":44.3,"aqi":121,"pm10":108.3,"pm2_5":44.0,"mosquito_risk":3,"arthritis_risk":5,"migraine_risk":7,"frizz_risk":1,"updated_at":"2026-04-27T00:29:57.068566+05:30"},{"city":"Jamshedpur","state":"Jharkhand","latitude":22.8046,"longitude":86.2029,"temp":28.6,"humidity":75,"rain":0.0,"pressure":986.6,"uv_index":8.85,"wind_gusts":37.8,"aqi":132,"pm10":46.2,"pm2_5":39.5,"mosquito_risk":7,"arthritis_risk":5,"migraine_risk":7,"frizz_risk":1,"updated_at":"2026-04-27T00:29:57.068571+05:30"},{"city":"Dhanbad","state":"Jharkhand","latitude":23.7957,"longitude":86.4304,"temp":26.8,"humidity":93,"rain":0.0,"pressure":975.8,"uv_index":8.95,"wind_gusts":42.5,"aqi":153,"pm10":84.3,"pm2_5":65.9,"mosquito_risk":7,"arthritis_risk":5,"migraine_risk":7,"frizz_risk":1,"updated_at":"2026-04-27T00:29:57.068577+05:30"},{"city":"Bokaro","state":"Jharkhand","latitude":23.6693,"longitude":86.1511,"temp":27.6,"humidity":89,"rain":0.0,"pressure":979.5,"uv_index":8.95,"wind_gusts":41.0,"aqi":154,"pm10":95.9,"pm2_5":74.3,"mosquito_risk":7,"arthritis_risk":5,"migraine_risk":7,"frizz_risk":1,"updated_at":"2026-04-27T00:29:57.068582+05:30"},{"city":"Bhubaneswar","state":"Odisha","latitude":20.2961,"longitude":85.8245,"temp":27.4,"humidity":89,"rain":0.0,"pressure":999.2,"uv_index":9.1,"wind_gusts":50.4,"aqi":53,"pm10":15.4,"pm2_5":10.7,"mosquito_risk":7,"arthritis_risk":5,"migraine_risk":7,"frizz_risk":1,"updated_at":"2026-04-27T00:29:57.068588+05:30"},{"city":"Cuttack","state":"Odisha","latitude":20.4625,"longitude":85.8828,"temp":27.5,"humidity":89,"rain":0.0,"pressure":1000.9,"uv_index":9.1,"wind_gusts":47.2,"aqi":53,"pm10":15.4,"pm2_5":10.7,"mosquito_risk":7,"arthritis_risk":5,"migraine_risk":4,"frizz_risk":1,"updated_at":"2026-04-27T00:29:57.068593+05:30"},{"city":"Rourkela","state":"Odisha","latitude":22.2604,"longitude":84.8536,"temp":28.4,"humidity":74,"rain":0.0,"pressure":980.7,"uv_index":8.65,"wind_gusts":46.4,"aqi":166,"pm10":50.6,"pm2_5":38.1,"mosquito_risk":7,"arthritis_risk":5,"migraine_risk":7,"frizz_risk":1,"updated_at":"2026-04-27T00:29:57.068599+05:30"},{"city":"Raipur","state":"Chhattisgarh","latitude":21.2514,"longitude":81.6296,"temp":31.8,"humidity":23,"rain":0.0,"pressure":970.6,"uv_index":8.95,"wind_gusts":41.0,"aqi":115,"pm10":53.8,"pm2_5":49.4,"mosquito_risk":0,"arthritis_risk":5,"migraine_risk":7,"frizz_risk":0,"updated_at":"2026-04-27T00:29:57.068604+05:30"},{"city":"Bhilai","state":"Chhattisgarh","latitude":21.1938,"longitude":81.3509,"temp":31.2,"humidity":27,"rain":0.0,"pressure":970.9,"uv_index":9.0,"wind_gusts":44.3,"aqi":104,"pm10":48.9,"pm2_5":42.0,"mosquito_risk":0,"arthritis_risk":5,"migraine_risk":7,"frizz_risk":0,"updated_at":"2026-04-27T00:29:57.068610+05:30"},{"city":"Guwahati","state":"Assam","latitude":26.1158,"longitude":91.7086,"temp":20.6,"humidity":96,"rain":0.0,"pressure":1001.1,"uv_index":3.7,"wind_gusts":40.3,"aqi":131,"pm10":59.4,"pm2_5":40.0,"mosquito_risk":3,"arthritis_risk":5,"migraine_risk":0,"frizz_risk":1,"updated_at":"2026-04-27T00:29:57.068615+05:30"},{"city":"Agartala","state":"Tripura","latitude":23.8315,"longitude":91.2868,"temp":22.5,"humidity":100,"rain":0.0,"pressure":1004.6,"uv_index":8.8,"wind_gusts":32.0,"aqi":78,"pm10":16.5,"pm2_5":12.6,"mosquito_risk":3,"arthritis_risk":5,"migraine_risk":4,"frizz_risk":1,"updated_at":"2026-04-27T00:29:57.068621+05:30"},{"city":"Shillong","state":"Meghalaya","latitude":25.5788,"longitude":91.8933,"temp":15.6,"humidity":86,"rain":0.0,"pressure":854.2,"uv_index":4.65,"wind_gusts":45.4,"aqi":122,"pm10":24.7,"pm2_5":14.9,"mosquito_risk":3,"arthritis_risk":10,"migraine_risk":3,"frizz_risk":0,"updated_at":"2026-04-27T00:29:57.068627+05:30"},{"city":"Imphal","state":"Manipur","latitude":24.817,"longitude":93.9368,"temp":19.0,"humidity":92,"rain":0.0,"pressure":922.0,"uv_index":5.7,"wind_gusts":24.1,"aqi":153,"pm10":90.3,"pm2_5":60.1,"mosquito_risk":3,"arthritis_risk":10,"migraine_risk":3,"frizz_risk":1,"updated_at":"2026-04-27T00:29:57.068633+05:30"},{"city":"Aizawl","state":"Mizoram","latitude":23.7271,"longitude":92.7176,"temp":16.5,"humidity":99,"rain":0.0,"pressure":890.2,"uv_index":9.0,"wind_gusts":34.9,"aqi":102,"pm10":34.3,"pm2_5":21.7,"mosquito_risk":3,"arthritis_risk":10,"migraine_risk":7,"frizz_risk":1,"updated_at":"2026-04-27T00:29:57.068639+05:30"},{"city":"Kohima","state":"Nagaland","latitude":25.6701,"longitude":94.1077,"temp":16.0,"humidity":85,"rain":0.0,"pressure":852.9,"uv_index":6.95,"wind_gusts":32.0,"aqi":143,"pm10":63.1,"pm2_5":37.6,"mosquito_risk":3,"arthritis_risk":10,"migraine_risk":7,"frizz_risk":0,"updated_at":"2026-04-27T00:29:57.068644+05:30"},{"city":"Gangtok","state":"Sikkim","latitude":27.3314,"longitude":88.6138,"temp":13.4,"humidity":94,"rain":0.0,"pressure":834.2,"uv_index":6.75,"wind_gusts":41.0,"aqi":101,"pm10":40.3,"pm2_5":24.7,"mosquito_risk":3,"arthritis_risk":10,"migraine_risk":7,"frizz_risk":0,"updated_at":"2026-04-27T00:29:57.068650+05:30"},{"city":"Siliguri","state":"West Bengal","latitude":26.7271,"longitude":88.3953,"temp":21.0,"humidity":86,"rain":0.0,"pressure":991.5,"uv_index":8.4,"wind_gusts":28.4,"aqi":116,"pm10":54.4,"pm2_5":34.6,"mosquito_risk":3,"arthritis_risk":5,"migraine_risk":7,"frizz_risk":1,"updated_at":"2026-04-27T00:30:44.030147+05:30"},{"city":"Durgapur","state":"West Bengal","latitude":23.5204,"longitude":87.3119,"temp":26.8,"humidity":96,"rain":0.0,"pressure":990.6,"uv_index":8.8,"wind_gusts":52.9,"aqi":115,"pm10":37.1,"pm2_5":32.8,"mosquito_risk":7,"arthritis_risk":5,"migraine_risk":7,"frizz_risk":1,"updated_at":"2026-04-27T00:30:44.030177+05:30"},{"city":"Asansol","state":"West Bengal","latitude":23.6739,"longitude":86.9524,"temp":26.6,"humidity":95,"rain":0.0,"pressure":989.3,"uv_index":8.75,"wind_gusts":34.9,"aqi":127,"pm10":35.7,"pm2_5":32.9,"mosquito_risk":7,"arthritis_risk":5,"migraine_risk":7,"frizz_risk":1,"updated_at":"2026-04-27T00:30:44.030187+05:30"},{"city":"Pondicherry","state":"Puducherry","latitude":11.9139,"longitude":79.8145,"temp":28.6,"humidity":87,"rain":0.0,"pressure":1007.1,"uv_index":9.2,"wind_gusts":49.0,"aqi":40,"pm10":17.8,"pm2_5":11.8,"mosquito_risk":7,"arthritis_risk":5,"migraine_risk":4,"frizz_risk":1,"updated_at":"2026-04-27T00:30:44.030195+05:30"},{"city":"Port Blair","state":"Andaman and Nicobar Islands","latitude":11.6234,"longitude":92.7265,"temp":27.1,"humidity":87,"rain":0.0,"pressure":1005.6,"uv_index":9.1,"wind_gusts":35.6,"aqi":56,"pm10":17.8,"pm2_5":13.2,"mosquito_risk":7,"arthritis_risk":5,"migraine_risk":4,"frizz_risk":1,"updated_at":"2026-04-27T00:30:44.030203+05:30"},{"city":"Haridwar","state":"Uttarakhand","latitude":29.9457,"longitude":78.1642,"temp":21.0,"humidity":56,"rain":0.0,"pressure":967.9,"uv_index":7.25,"wind_gusts":27.7,"aqi":68,"pm10":26.1,"pm2_5":19.5,"mosquito_risk":0,"arthritis_risk":5,"migraine_risk":7,"frizz_risk":0,"updated_at":"2026-04-27T00:30:44.030210+05:30"},{"city":"Rishikesh","state":"Uttarakhand","latitude":30.0869,"longitude":78.2676,"temp":18.2,"humidity":62,"rain":0.0,"pressure":960.5,"uv_index":7.35,"wind_gusts":27.7,"aqi":82,"pm10":28.6,"pm2_5":18.8,"mosquito_risk":3,"arthritis_risk":5,"migraine_risk":7,"frizz_risk":0,"updated_at":"2026-04-27T00:30:44.030219+05:30"},{"city":"Nainital","state":"Uttarakhand","latitude":29.3919,"longitude":79.4542,"temp":16.2,"humidity":38,"rain":0.0,"pressure":802.8,"uv_index":8.2,"wind_gusts":37.1,"aqi":73,"pm10":67.5,"pm2_5":21.1,"mosquito_risk":0,"arthritis_risk":5,"migraine_risk":7,"frizz_risk":0,"updated_at":"2026-04-27T00:30:44.030226+05:30"},{"city":"Mussoorie","state":"Uttarakhand","latitude":30.4599,"longitude":78.0664,"temp":15.7,"humidity":38,"rain":0.0,"pressure":799.3,"uv_index":7.75,"wind_gusts":51.8,"aqi":76,"pm10":28.0,"pm2_5":21.4,"mosquito_risk":0,"arthritis_risk":5,"migraine_risk":7,"frizz_risk":0,"updated_at":"2026-04-27T00:30:44.030233+05:30"},{"city":"Dharamshala","state":"Himachal Pradesh","latitude":32.219,"longitude":76.3234,"temp":22.3,"humidity":34,"rain":0.0,"pressure":866.5,"uv_index":8.0,"wind_gusts":49.0,"aqi":51,"pm10":22.1,"pm2_5":11.1,"mosquito_risk":0,"arthritis_risk":5,"migraine_risk":7,"frizz_risk":0,"updated_at":"2026-04-27T00:30:44.030240+05:30"},{"city":"Dalhousie","state":"Himachal Pradesh","latitude":32.5387,"longitude":75.971,"temp":12.5,"humidity":65,"rain":0.0,"pressure":799.3,"uv_index":8.25,"wind_gusts":43.9,"aqi":60,"pm10":29.2,"pm2_5":21.0,"mosquito_risk":3,"arthritis_risk":5,"migraine_risk":7,"frizz_risk":0,"updated_at":"2026-04-27T00:30:44.030248+05:30"},{"city":"Patiala","state":"Punjab","latitude":30.3398,"longitude":76.3869,"temp":28.6,"humidity":29,"rain":0.0,"pressure":973.2,"uv_index":7.25,"wind_gusts":43.6,"aqi":389,"pm10":529.0,"pm2_5":76.4,"mosquito_risk":4,"arthritis_risk":5,"migraine_risk":7,"frizz_risk":0,"updated_at":"2026-04-27T00:30:44.030255+05:30"},{"city":"Bhatinda","state":"Punjab","latitude":30.211,"longitude":74.9455,"temp":29.4,"humidity":28,"rain":0.0,"pressure":978.7,"uv_index":7.8,"wind_gusts":54.4,"aqi":87,"pm10":69.6,"pm2_5":30.6,"mosquito_risk":4,"arthritis_risk":5,"migraine_risk":7,"frizz_risk":0,"updated_at":"2026-04-27T00:30:44.030263+05:30"},{"city":"Rohtak","state":"Haryana","latitude":28.8955,"longitude":76.6066,"temp":30.2,"humidity":24,"rain":0.0,"pressure":976.9,"uv_index":7.5,"wind_gusts":40.3,"aqi":682,"pm10":787.9,"pm2_5":119.7,"mosquito_risk":0,"arthritis_risk":5,"migraine_risk":7,"frizz_risk":0,"updated_at":"2026-04-27T00:30:44.030270+05:30"},{"city":"Panipat","state":"Haryana","latitude":29.3909,"longitude":76.9635,"temp":30.5,"humidity":23,"rain":0.0,"pressure":975.5,"uv_index":7.3,"wind_gusts":45.4,"aqi":1422,"pm10":1464.0,"pm2_5":185.8,"mosquito_risk":0,"arthritis_risk":5,"migraine_risk":7,"frizz_risk":0,"updated_at":"2026-04-27T00:30:44.030276+05:30"},{"city":"Mathura","state":"Uttar Pradesh","latitude":27.4924,"longitude":77.6737,"temp":30.9,"humidity":31,"rain":0.0,"pressure":981.6,"uv_index":7.75,"wind_gusts":48.2,"aqi":821,"pm10":179.3,"pm2_5":53.0,"mosquito_risk":0,"arthritis_risk":5,"migraine_risk":7,"frizz_risk":0,"updated_at":"2026-04-27T00:30:44.030283+05:30"},{"city":"Vrindavan","state":"Uttar Pradesh","latitude":27.5823,"longitude":77.7027,"temp":31.0,"humidity":31,"rain":0.0,"pressure":982.0,"uv_index":7.7,"wind_gusts":48.6,"aqi":821,"pm10":179.3,"pm2_5":53.0,"mosquito_risk":0,"arthritis_risk":5,"migraine_risk":7,"frizz_risk":0,"updated_at":"2026-04-27T00:30:44.030289+05:30"},{"city":"Ayodhya","state":"Uttar Pradesh","latitude":26.7922,"longitude":82.1998,"temp":27.2,"humidity":65,"rain":0.0,"pressure":992.0,"uv_index":8.1,"wind_gusts":34.9,"aqi":150,"pm10":68.9,"pm2_5":60.1,"mosquito_risk":7,"arthritis_risk":5,"migraine_risk":7,"frizz_risk":1,"updated_at":"2026-04-27T00:30:44.030296+05:30"},{"city":"Ratlam","state":"Madhya Pradesh","latitude":23.3315,"longitude":75.0367,"temp":29.5,"humidity":21,"rain":0.0,"pressure":952.2,"uv_index":8.45,"wind_gusts":45.4,"aqi":63,"pm10":30.3,"pm2_5":22.2,"mosquito_risk":4,"arthritis_risk":5,"migraine_risk":7,"frizz_risk":0,"updated_at":"2026-04-27T00:30:44.030302+05:30"},{"city":"Sagar","state":"Madhya Pradesh","latitude":23.8388,"longitude":78.7378,"temp":29.9,"humidity":28,"rain":0.0,"pressure":947.3,"uv_index":8.65,"wind_gusts":37.1,"aqi":76,"pm10":64.7,"pm2_5":27.9,"mosquito_risk":4,"arthritis_risk":5,"migraine_risk":7,"frizz_risk":0,"updated_at":"2026-04-27T00:30:44.030308+05:30"},{"city":"Satna","state":"Madhya Pradesh","latitude":24.6005,"longitude":80.8322,"temp":31.0,"humidity":26,"rain":0.0,"pressure":966.8,"uv_index":8.65,"wind_gusts":50.4,"aqi":95,"pm10":59.5,"pm2_5":22.5,"mosquito_risk":0,"arthritis_risk":5,"migraine_risk":7,"frizz_risk":0,"updated_at":"2026-04-27T00:30:44.030314+05:30"},{"city":"Akola","state":"Maharashtra","latitude":20.7002,"longitude":77.0082,"temp":32.5,"humidity":20,"rain":0.0,"pressure":971.1,"uv_index":8.9,"wind_gusts":32.4,"aqi":59,"pm10":35.5,"pm2_5":24.9,"mosquito_risk":0,"arthritis_risk":5,"migraine_risk":7,"frizz_risk":0,"updated_at":"2026-04-27T00:30:44.030321+05:30"},{"city":"Amravati","state":"Maharashtra","latitude":20.9374,"longitude":77.7796,"temp":33.7,"humidity":20,"rain":0.0,"pressure":963.6,"uv_index":8.9,"wind_gusts":32.4,"aqi":72,"pm10":51.6,"pm2_5":36.1,"mosquito_risk":0,"arthritis_risk":5,"migraine_risk":7,"frizz_risk":0,"updated_at":"2026-04-27T00:30:44.030328+05:30"},{"city":"Latur","state":"Maharashtra","latitude":18.4088,"longitude":76.5604,"temp":30.3,"humidity":27,"rain":0.0,"pressure":937.5,"uv_index":9.1,"wind_gusts":42.5,"aqi":97,"pm10":47.4,"pm2_5":39.7,"mosquito_risk":0,"arthritis_risk":5,"migraine_risk":7,"frizz_risk":0,"updated_at":"2026-04-27T00:30:44.030334+05:30"},{"city":"Nanded","state":"Maharashtra","latitude":19.1383,"longitude":77.3091,"temp":30.5,"humidity":29,"rain":0.0,"pressure":965.1,"uv_index":9.0,"wind_gusts":27.0,"aqi":91,"pm10":32.6,"pm2_5":27.2,"mosquito_risk":0,"arthritis_risk":5,"migraine_risk":7,"frizz_risk":0,"updated_at":"2026-04-27T00:30:44.030340+05:30"},{"city":"Gulbarga","state":"Karnataka","latitude":17.3297,"longitude":76.8343,"temp":31.2,"humidity":33,"rain":0.0,"pressure":956.5,"uv_index":9.1,"wind_gusts":30.2,"aqi":123,"pm10":38.8,"pm2_5":34.9,"mosquito_risk":0,"arthritis_risk":5,"migraine_risk":7,"frizz_risk":0,"updated_at":"2026-04-27T00:30:44.030346+05:30"},{"city":"Bidar","state":"Karnataka","latitude":17.9104,"longitude":77.5199,"temp":29.7,"humidity":35,"rain":0.0,"pressure":933.1,"uv_index":9.1,"wind_gusts":36.4,"aqi":105,"pm10":43.2,"pm2_5":39.3,"mosquito_risk":4,"arthritis_risk":5,"migraine_risk":7,"frizz_risk":0,"updated_at":"2026-04-27T00:30:44.030353+05:30"},{"city":"Hospet","state":"Karnataka","latitude":15.2689,"longitude":76.3909,"temp":28.2,"humidity":69,"rain":0.0,"pressure":954.3,"uv_index":9.25,"wind_gusts":33.5,"aqi":119,"pm10":39.1,"pm2_5":36.8,"mosquito_risk":7,"arthritis_risk":5,"migraine_risk":7,"frizz_risk":1,"updated_at":"2026-04-27T00:30:44.030359+05:30"},{"city":"Tirupur","state":"Tamil Nadu","latitude":11.1085,"longitude":77.3411,"temp":28.3,"humidity":74,"rain":0.0,"pressure":974.2,"uv_index":9.35,"wind_gusts":31.0,"aqi":65,"pm10":24.4,"pm2_5":23.2,"mosquito_risk":7,"arthritis_risk":5,"migraine_risk":7,"frizz_risk":1,"updated_at":"2026-04-27T00:30:44.030365+05:30"},{"city":"Alappuzha","state":"Kerala","latitude":9.4981,"longitude":76.3388,"temp":26.5,"humidity":98,"rain":0.0,"pressure":1008.1,"uv_index":8.1,"wind_gusts":31.7,"aqi":62,"pm10":24.6,"pm2_5":21.0,"mosquito_risk":7,"arthritis_risk":0,"migraine_risk":4,"frizz_risk":1,"updated_at":"2026-04-27T00:30:44.030372+05:30"},{"city":"Munnar","state":"Kerala","latitude":10.0889,"longitude":77.0595,"temp":18.1,"humidity":68,"rain":0.0,"pressure":856.2,"uv_index":9.6,"wind_gusts":28.1,"aqi":67,"pm10":30.3,"pm2_5":29.2,"mosquito_risk":3,"arthritis_risk":5,"migraine_risk":7,"frizz_risk":0,"updated_at":"2026-04-27T00:30:44.030379+05:30"},{"city":"Silchar","state":"Assam","latitude":24.8333,"longitude":92.7789,"temp":22.8,"humidity":92,"rain":0.1,"pressure":1004.8,"uv_index":8.75,"wind_gusts":45.0,"aqi":159,"pm10":76.4,"pm2_5":48.8,"mosquito_risk":6,"arthritis_risk":5,"migraine_risk":4,"frizz_risk":1,"updated_at":"2026-04-27T00:30:44.030385+05:30"},{"city":"Dibrugarh","state":"Assam","latitude":27.4728,"longitude":94.912,"temp":20.9,"humidity":97,"rain":0.0,"pressure":995.4,"uv_index":4.3,"wind_gusts":20.9,"aqi":91,"pm10":64.0,"pm2_5":40.3,"mosquito_risk":3,"arthritis_risk":5,"migraine_risk":3,"frizz_risk":1,"updated_at":"2026-04-27T00:30:44.030392+05:30"}]