[{"city":"Delhi","state":"Delhi","latitude":28.6139,"longitude":77.209,"temp":24.0,"humidity":55,"rain":0.0,"pressure":988.8,"uv_index":5.8,"wind_gusts":39.2,"aqi":244,"pm10":373.5,"pm2_5":90.3,"mosquito_risk":0,"arthritis_risk":5,"migraine_risk":3,"frizz_risk":0,"updated_at":"2026-03-03T10:19:01.603847+05:30"},{"city":"Mumbai","state":"Maharashtra","latitude":19.076,"longitude":72.8777,"temp":26.8,"humidity":74,"rain":0.0,"pressure":1012.9,"uv_index":7.35,"wind_gusts":28.8,"aqi":92,"pm10":44.9,"pm2_5":37.4,"mosquito_risk":7,"arthritis_risk":0,"migraine_risk":4,"frizz_risk":1,"updated_at":"2026-03-03T10:19:01.603894+05:30"},{"city":"Bangalore","state":"Karnataka","latitude":12.9716,"longitude":77.5946,"temp":27.8,"humidity":33,"rain":0.0,"pressure":916.1,"uv_index":9.1,"wind_gusts":38.2,"aqi":118,"pm10":37.7,"pm2_5":36.9,"mosquito_risk":4,"arthritis_risk":5,"migraine_risk":7,"frizz_risk":0,"updated_at":"2026-03-03T10:19:01.603909+05:30"},{"city":"Hyderabad","state":"Telangana","latitude":17.385,"longitude":78.4867,"temp":30.1,"humidity":45,"rain":0.0,"pressure":958.8,"uv_index":8.35,"wind_gusts":23.8,"aqi":146,"pm10":51.2,"pm2_5":49.9,"mosquito_risk":0,"arthritis_risk":5,"migraine_risk":7,"frizz_risk":1,"updated_at":"2026-03-03T10:19:01.603919+05:30"},{"city":"Chennai","state":"Tamil Nadu","latitude":13.0827,"longitude":80.2707,"temp":30.1,"humidity":53,"rain":0.0,"pressure":1012.5,"uv_index":8.8,"wind_gusts":29.5,"aqi":120,"pm10":45.3,"pm2_5":40.9,"mosquito_risk":0,"arthritis_risk":0,"migraine_risk":4,"frizz_risk":1,"updated_at":"2026-03-03T10:19:01.603927+05:30"},{"city":"Kolkata","state":"West Bengal","latitude":22.5726,"longitude":88.3639,"temp":29.6,"humidity":41,"rain":0.0,"pressure":1012.2,"uv_index":7.7,"wind_gusts":20.5,"aqi":178,"pm10":137.4,"pm2_5":122.9,"mosquito_risk":4,"arthritis_risk":0,"migraine_risk":4,"frizz_risk":0,"updated_at":"2026-03-03T10:19:01.603936+05:30"},{"city":"Pune","state":"Maharashtra","latitude":18.5204,"longitude":73.8567,"temp":30.5,"humidity":33,"rain":0.0,"pressure":953.8,"uv_index":7.9,"wind_gusts":33.1,"aqi":84,"pm10":28.8,"pm2_5":27.6,"mosquito_risk":0,"arthritis_risk":5,"migraine_risk":7,"frizz_risk":0,"updated_at":"2026-03-03T10:19:01.603946+05:30"},{"city":"Ahmedabad","state":"Gujarat","latitude":23.0225,"longitude":72.5714,"temp":29.4,"humidity":41,"rain":0.0,"pressure":1008.5,"uv_index":7.15,"wind_gusts":15.5,"aqi":102,"pm10":34.0,"pm2_5":28.0,"mosquito_risk":4,"arthritis_risk":0,"migraine_risk":4,"frizz_risk":0,"updated_at":"2026-03-03T10:19:01.603953+05:30"},{"city":"Jaipur","state":"Rajasthan","latitude":26.9124,"longitude":75.7873,"temp":28.9,"humidity":33,"rain":0.0,"pressure":966.5,"uv_index":6.6,"wind_gusts":31.0,"aqi":98,"pm10":131.3,"pm2_5":51.9,"mosquito_risk":4,"arthritis_risk":5,"migraine_risk":7,"frizz_risk":0,"updated_at":"2026-03-03T10:19:01.603959+05:30"},{"city":"Lucknow","state":"Uttar Pradesh","latitude":26.8467,"longitude":80.9462,"temp":24.6,"humidity":55,"rain":0.0,"pressure":999.4,"uv_index":6.3,"wind_gusts":38.5,"aqi":153,"pm10":197.4,"pm2_5":71.0,"mosquito_risk":0,"arthritis_risk":5,"migraine_risk":7,"frizz_risk":0,"updated_at":"2026-03-03T10:19:01.603966+05:30"},{"city":"Kanpur","state":"Uttar Pradesh","latitude":26.4499,"longitude":80.3319,"temp":25.4,"humidity":57,"rain":0.0,"pressure":998.0,"uv_index":6.3,"wind_gusts":31.7,"aqi":182,"pm10":293.4,"pm2_5":76.1,"mosquito_risk":4,"arthritis_risk":5,"migraine_risk":7,"frizz_risk":1,"updated_at":"2026-03-03T10:19:01.603972+05:30"},{"city":"Chandigarh","state":"Chandigarh","latitude":30.7333,"longitude":76.7794,"temp":22.7,"humidity":61,"rain":0.0,"pressure":973.1,"uv_index":5.7,"wind_gusts":35.6,"aqi":80,"pm10":35.6,"pm2_5":31.9,"mosquito_risk":3,"arthritis_risk":5,"migraine_risk":3,"frizz_risk":0,"updated_at":"2026-03-03T10:19:01.603979+05:30"},{"city":"Srinagar","state":"Jammu and Kashmir","latitude":34.0837,"longitude":74.7973,"temp":12.1,"humidity":49,"rain":0.0,"pressure":847.1,"uv_index":6.6,"wind_gusts":15.8,"aqi":141,"pm10":56.9,"pm2_5":45.9,"mosquito_risk":0,"arthritis_risk":5,"migraine_risk":7,"frizz_risk":0,"updated_at":"2026-03-03T10:19:01.603984+05:30"},{"city":"Jammu","state":"Jammu and Kashmir","latitude":32.7266,"longitude":74.857,"temp":22.6,"humidity":56,"rain":0.0,"pressure":977.1,"uv_index":6.3,"wind_gusts":23.8,"aqi":101,"pm10":37.3,"pm2_5":35.2,"mosquito_risk":0,"arthritis_risk":5,"migraine_risk":7,"frizz_risk":0,"updated_at":"2026-03-03T10:19:01.603991+05:30"},{"city":"Amritsar","state":"Punjab","latitude":31.634,"longitude":74.8723,"temp":22.5,"humidity":57,"rain":0.0,"pressure":986.0,"uv_index":6.25,"wind_gusts":29.5,"aqi":94,"pm10":42.3,"pm2_5":38.6,"mosquito_risk":0,"arthritis_risk":5,"migraine_risk":7,"frizz_risk":0,"updated_at":"2026-03-03T10:19:01.603996+05:30"},{"city":"Ludhiana","state":"Punjab","latitude":30.901,"longitude":75.8573,"temp":22.2,"humidity":56,"rain":0.0,"pressure":984.0,"uv_index":5.9,"wind_gusts":31.7,"aqi":142,"pm10":66.1,"pm2_5":53.0,"mosquito_risk":0,"arthritis_risk":5,"migraine_risk":3,"frizz_risk":0,"updated_at":"2026-03-03T10:19:01.604001+05:30"},{"city":"Jalandhar","state":"Punjab","latitude":31.326,"longitude":75.5762,"temp":21.6,"humidity":56,"rain":0.0,"pressure":985.1,"uv_index":6.1,"wind_gusts":27.0,"aqi":144,"pm10":85.9,"pm2_5":61.0,"mosquito_risk":0,"arthritis_risk":5,"migraine_risk":7,"frizz_risk":0,"updated_at":"2026-03-03T10:19:01.604008+05:30"},{"city":"Dehradun","state":"Uttarakhand","latitude":30.6284,"longitude":78.0322,"temp":19.3,"humidity":39,"rain":0.0,"pressure":832.6,"uv_index":6.05,"wind_gusts":31.3,"aqi":57,"pm10":10.6,"pm2_5":7.4,"mosquito_risk":0,"arthritis_risk":5,"migraine_risk":7,"frizz_risk":0,"updated_at":"2026-03-03T10:19:01.604015+05:30"},{"city":"Shimla","state":"Himachal Pradesh","latitude":31.1048,"longitude":77.1734,"temp":17.6,"humidity":38,"rain":0.0,"pressure":788.2,"uv_index":6.1,"wind_gusts":44.3,"aqi":72,"pm10":25.6,"pm2_5":18.2,"mosquito_risk":0,"arthritis_risk":5,"migraine_risk":7,"frizz_risk":0,"updated_at":"2026-03-03T10:19:01.604021+05:30"},{"city":"Manali","state":"Himachal Pradesh","latitude":32.2396,"longitude":77.1887,"temp":21.6,"humidity":8,"rain":0.0,"pressure":823.8,"uv_index":7.45,"wind_gusts":34.6,"aqi":53,"pm10":13.8,"pm2_5":10.8,"mosquito_risk":0,"arthritis_risk":5,"migraine_risk":7,"frizz_risk":1,"updated_at":"2026-03-03T10:19:01.604027+05:30"},{"city":"Gurgaon","state":"Haryana","latitude":28.4595,"longitude":77.0266,"temp":24.3,"humidity":57,"rain":0.0,"pressure":987.4,"uv_index":5.9,"wind_gusts":36.0,"aqi":989,"pm10":1341.1,"pm2_5":195.1,"mosquito_risk":0,"arthritis_risk":5,"migraine_risk":3,"frizz_risk":0,"updated_at":"2026-03-03T10:19:01.604033+05:30"},{"city":"Noida","state":"Uttar Pradesh","latitude":28.5355,"longitude":77.391,"temp":24.5,"humidity":52,"rain":0.0,"pressure":990.3,"uv_index":5.85,"wind_gusts":38.5,"aqi":989,"pm10":1341.1,"pm2_5":195.1,"mosquito_risk":0,"arthritis_risk":5,"migraine_risk":3,"frizz_risk":0,"updated_at":"2026-03-03T10:19:01.604039+05:30"},{"city":"Ghaziabad","state":"Uttar Pradesh","latitude":28.6692,"longitude":77.4538,"temp":23.4,"humidity":59,"rain":0.0,"pressure":988.2,"uv_index":5.8,"wind_gusts":38.2,"aqi":187,"pm10":316.6,"pm2_5":80.6,"mosquito_risk":0,"arthritis_risk":5,"migraine_risk":3,"frizz_risk":0,"updated_at":"2026-03-03T10:19:01.604044+05:30"},{"city":"Faridabad","state":"Haryana","latitude":28.4089,"longitude":77.3178,"temp":23.9,"humidity":60,"rain":0.0,"pressure":989.6,"uv_index":5.85,"wind_gusts":35.3,"aqi":989,"pm10":1341.1,"pm2_5":195.1,"mosquito_risk":0,"arthritis_risk":5,"migraine_risk":3,"frizz_risk":0,"updated_at":"2026-03-03T10:19:01.604049+05:30"},{"city":"Meerut","state":"Uttar Pradesh","latitude":28.9845,"longitude":77.7064,"temp":24.1,"humidity":54,"rain":0.0,"pressure":986.3,"uv_index":5.65,"wind_gusts":43.9,"aqi":187,"pm10":316.6,"pm2_5":80.6,"mosquito_risk":0,"arthritis_risk":5,"migraine_risk":3,"frizz_risk":0,"updated_at":"2026-03-03T10:19:01.604054+05:30"},{"city":"Agra","state":"Uttar Pradesh","latitude":27.1767,"longitude":78.0081,"temp":27.0,"humidity":50,"rain":0.0,"pressure":994.3,"uv_index":6.15,"wind_gusts":31.0,"aqi":431,"pm10":474.0,"pm2_5":86.1,"mosquito_risk":4,"arthritis_risk":5,"migraine_risk":7,"frizz_risk":0,"updated_at":"2026-03-03T10:19:01.604060+05:30"},{"city":"Varanasi","state":"Uttar Pradesh","latitude":25.3176,"longitude":82.9739,"temp":25.8,"humidity":61,"rain":0.0,"pressure":1004.1,"uv_index":6.95,"wind_gusts":25.6,"aqi":94,"pm10":154.1,"pm2_5":45.2,"mosquito_risk":7,"arthritis_risk":5,"migraine_risk":4,"frizz_risk":1,"updated_at":"2026-03-03T10:19:01.604067+05:30"},{"city":"Prayagraj","state":"Uttar Pradesh","latitude":25.4358,"longitude":81.8463,"temp":26.3,"humidity":59,"rain":0.0,"pressure":1002.6,"uv_index":6.8,"wind_gusts":25.6,"aqi":113,"pm10":180.2,"pm2_5":54.6,"mosquito_risk":4,"arthritis_risk":5,"migraine_risk":4,"frizz_risk":1,"updated_at":"2026-03-03T10:19:01.604073+05:30"},{"city":"Gorakhpur","state":"Uttar Pradesh","latitude":26.7606,"longitude":83.3732,"temp":23.4,"humidity":68,"rain":0.0,"pressure":1003.2,"uv_index":6.7,"wind_gusts":19.4,"aqi":142,"pm10":201.6,"pm2_5":69.8,"mosquito_risk":3,"arthritis_risk":5,"migraine_risk":4,"frizz_risk":1,"updated_at":"2026-03-03T10:19:01.604078+05:30"},{"city":"Bareilly","state":"Uttar Pradesh","latitude":28.367,"longitude":79.4304,"temp":22.6,"humidity":65,"rain":0.0,"pressure":991.7,"uv_index":6.0,"wind_gusts":32.0,"aqi":125,"pm10":86.6,"pm2_5":56.2,"mosquito_risk":3,"arthritis_risk":5,"migraine_risk":3,"frizz_risk":0,"updated_at":"2026-03-03T10:19:01.604085+05:30"},{"city":"Aligarh","state":"Uttar Pradesh","latitude":27.8974,"longitude":78.088,"temp":25.1,"humidity":55,"rain":0.0,"pressure":991.4,"uv_index":5.95,"wind_gusts":37.1,"aqi":557,"pm10":715.3,"pm2_5":129.9,"mosquito_risk":4,"arthritis_risk":5,"migraine_risk":3,"frizz_risk":0,"updated_at":"2026-03-03T10:19:01.604091+05:30"},{"city":"Moradabad","state":"Uttar Pradesh","latitude":28.8386,"longitude":78.7733,"temp":22.6,"humidity":62,"rain":0.0,"pressure":988.3,"uv_index":5.85,"wind_gusts":31.7,"aqi":132,"pm10":90.1,"pm2_5":52.4,"mosquito_risk":3,"arthritis_risk":5,"migraine_risk":3,"frizz_risk":0,"updated_at":"2026-03-03T10:19:01.604096+05:30"},{"city":"Saharanpur","state":"Uttar Pradesh","latitude":29.9637,"longitude":77.546,"temp":22.7,"humidity":64,"rain":0.0,"pressure":979.5,"uv_index":5.45,"wind_gusts":47.9,"aqi":116,"pm10":114.3,"pm2_5":57.5,"mosquito_risk":3,"arthritis_risk":5,"migraine_risk":3,"frizz_risk":0,"updated_at":"2026-03-03T10:19:01.604101+05:30"},{"city":"Jhansi","state":"Uttar Pradesh","latitude":25.4484,"longitude":78.5685,"temp":28.3,"humidity":45,"rain":0.0,"pressure":984.8,"uv_index":6.75,"wind_gusts":27.0,"aqi":79,"pm10":173.2,"pm2_5":45.2,"mosquito_risk":4,"arthritis_risk":5,"migraine_risk":7,"frizz_risk":0,"updated_at":"2026-03-03T10:19:04.846560+05:30"},{"city":"Surat","state":"Gujarat","latitude":21.1702,"longitude":72.8311,"temp":28.9,"humidity":44,"rain":0.0,"pressure":1012.3,"uv_index":7.05,"wind_gusts":26.3,"aqi":160,"pm10":103.6,"pm2_5":97.3,"mosquito_risk":4,"arthritis_risk":0,"migraine_risk":4,"frizz_risk":0,"updated_at":"2026-03-03T10:19:04.846589+05:30"},{"city":"Vadodara","state":"Gujarat","latitude":22.3072,"longitude":73.1812,"temp":29.7,"humidity":43,"rain":0.0,"pressure":1010.5,"uv_index":7.15,"wind_gusts":13.3,"aqi":155,"pm10":68.2,"pm2_5":64.3,"mosquito_risk":4,"arthritis_risk":0,"migraine_risk":4,"frizz_risk":0,"updated_at":"2026-03-03T10:19:04.846600+05:30"},{"city":"Rajkot","state":"Gujarat","latitude":22.3039,"longitude":70.8022,"temp":27.6,"humidity":53,"rain":0.0,"pressure":1000.4,"uv_index":7.0,"wind_gusts":18.0,"aqi":65,"pm10":26.4,"pm2_5":16.9,"mosquito_risk":4,"arthritis_risk":5,"migraine_risk":4,"frizz_risk":1,"updated_at":"2026-03-03T10:19:04.846607+05:30"},{"city":"Thane","state":"Maharashtra","latitude":19.2183,"longitude":72.9781,"temp":29.8,"humidity":48,"rain":0.0,"pressure":1012.6,"uv_index":7.35,"wind_gusts":39.6,"aqi":92,"pm10":44.9,"pm2_5":37.4,"mosquito_risk":4,"arthritis_risk":0,"migraine_risk":4,"frizz_risk":1,"updated_at":"2026-03-03T10:19:04.846615+05:30"},{"city":"Nagpur","state":"Maharashtra","latitude":21.1458,"longitude":79.0882,"temp":29.9,"humidity":37,"rain":0.0,"pressure":980.1,"uv_index":7.75,"wind_gusts":18.0,"aqi":69,"pm10":27.5,"pm2_5":21.4,"mosquito_risk":4,"arthritis_risk":5,"migraine_risk":7,"frizz_risk":0,"updated_at":"2026-03-03T10:19:04.846622+05:30"},{"city":"Nashik","state":"Maharashtra","latitude":19.9975,"longitude":73.7898,"temp":29.3,"humidity":32,"rain":0.0,"pressure":951.3,"uv_index":7.55,"wind_gusts":32.0,"aqi":85,"pm10":33.4,"pm2_5":31.9,"mosquito_risk":4,"arthritis_risk":5,"migraine_risk":7,"frizz_risk":0,"updated_at":"2026-03-03T10:19:04.846630+05:30"},{"city":"Aurangabad","state":"Maharashtra","latitude":19.8762,"longitude":75.3433,"temp":30.1,"humidity":32,"rain":0.0,"pressure":950.1,"uv_index":8.05,"wind_gusts":25.2,"aqi":75,"pm10":23.7,"pm2_5":22.0,"mosquito_risk":0,"arthritis_risk":5,"migraine_risk":7,"frizz_risk":0,"updated_at":"2026-03-03T10:19:04.846635+05:30"},{"city":"Solapur","state":"Maharashtra","latitude":17.6599,"longitude":75.9064,"temp":29.3,"humidity":45,"rain":0.0,"pressure":962.8,"uv_index":8.3,"wind_gusts":18.0,"aqi":121,"pm10":39.8,"pm2_5":39.3,"mosquito_risk":4,"arthritis_risk":5,"migraine_risk":7,"frizz_risk":1,"updated_at":"2026-03-03T10:19:04.846641+05:30"},{"city":"Kolhapur","state":"Maharashtra","latitude":16.705,"longitude":74.2433,"temp":29.0,"humidity":44,"rain":0.0,"pressure":952.6,"uv_index":8.4,"wind_gusts":41.4,"aqi":121,"pm10":46.9,"pm2_5":46.0,"mosquito_risk":4,"arthritis_risk":5,"migraine_risk":7,"frizz_risk":0,"updated_at":"2026-03-03T10:19:04.846647+05:30"},{"city":"Goa","state":"Goa","latitude":15.2993,"longitude":74.124,"temp":29.3,"humidity":62,"rain":0.0,"pressure":1001.8,"uv_index":8.4,"wind_gusts":35.6,"aqi":73,"pm10":27.5,"pm2_5":22.8,"mosquito_risk":7,"arthritis_risk":5,"migraine_risk":4,"frizz_risk":1,"updated_at":"2026-03-03T10:19:04.846652+05:30"},{"city":"Jodhpur","state":"Rajasthan","latitude":26.2389,"longitude":73.0243,"temp":28.2,"humidity":37,"rain":0.0,"pressure":990.2,"uv_index":6.85,"wind_gusts":15.5,"aqi":75,"pm10":39.7,"pm2_5":21.6,"mosquito_risk":4,"arthritis_risk":5,"migraine_risk":7,"frizz_risk":0,"updated_at":"2026-03-03T10:19:04.846658+05:30"},{"city":"Udaipur","state":"Rajasthan","latitude":24.5854,"longitude":73.7125,"temp":29.0,"humidity":30,"rain":0.0,"pressure":953.0,"uv_index":7.45,"wind_gusts":18.7,"aqi":66,"pm10":34.8,"pm2_5":17.7,"mosquito_risk":4,"arthritis_risk":5,"migraine_risk":7,"frizz_risk":0,"updated_at":"2026-03-03T10:19:04.846663+05:30"},{"city":"Kota","state":"Rajasthan","latitude":25.2138,"longitude":75.8648,"temp":28.2,"humidity":44,"rain":0.0,"pressure":985.5,"uv_index":6.85,"wind_gusts":21.2,"aqi":87,"pm10":47.4,"pm2_5":32.2,"mosquito_risk":4,"arthritis_risk":5,"migraine_risk":7,"frizz_risk":0,"updated_at":"2026-03-03T10:19:04.846669+05:30"},{"city":"Bikaner","state":"Rajasthan","latitude":28.0229,"longitude":73.3119,"temp":26.6,"humidity":45,"rain":0.0,"pressure":988.8,"uv_index":6.55,"wind_gusts":20.9,"aqi":69,"pm10":42.5,"pm2_5":24.3,"mosquito_risk":4,"arthritis_risk":5,"migraine_risk":7,"frizz_risk":0,"updated_at":"2026-03-03T10:19:04.846675+05:30"},{"city":"Ajmer","state":"Rajasthan","latitude":26.4499,"longitude":74.6399,"temp":28.9,"humidity":35,"rain":0.0,"pressure":961.2,"uv_index":6.8,"wind_gusts":25.6,"aqi":73,"pm10":87.1,"pm2_5":32.6,"mosquito_risk":4,"arthritis_risk":5,"migraine_risk":7,"frizz_risk":0,"updated_at":"2026-03-03T10:19:04.846680+05:30"},{"city":"Gwalior","state":"Madhya Pradesh","latitude":26.2183,"longitude":78.1828,"temp":28.3,"humidity":48,"rain":0.0,"pressure":989.9,"uv_index":6.45,"wind_gusts":29.5,"aqi":126,"pm10":125.3,"pm2_5":44.9,"mosquito_risk":4,"arthritis_risk":5,"migraine_risk":7,"frizz_risk":1,"updated_at":"2026-03-03T10:19:04.846686+05:30"},{"city":"Indore","state":"Madhya Pradesh","latitude":22.7196,"longitude":75.8577,"temp":28.3,"humidity":46,"rain":0.0,"pressure":954.5,"uv_index":7.45,"wind_gusts":16.6,"aqi":91,"pm10":37.3,"pm2_5":30.7,"mosquito_risk":4,"arthritis_risk":5,"migraine_risk":7,"frizz_risk":0,"updated_at":"2026-03-03T10:19:04.846692+05:30"},{"city":"Bhopal","state":"Madhya Pradesh","latitude":23.2599,"longitude":77.4126,"temp":29.8,"humidity":38,"rain":0.0,"pressure":960.2,"uv_index":7.3,"wind_gusts":23.8,"aqi":80,"pm10":35.7,"pm2_5":22.6,"mosquito_risk":4,"arthritis_risk":5,"migraine_risk":7,"frizz_risk":0,"updated_at":"2026-03-03T10:19:04.846697+05:30"},{"city":"Jabalpur","state":"Madhya Pradesh","latitude":23.1815,"longitude":79.9864,"temp":27.7,"humidity":45,"rain":0.0,"pressure":968.4,"uv_index":7.4,"wind_gusts":21.6,"aqi":71,"pm10":33.4,"pm2_5":22.7,"mosquito_risk":4,"arthritis_risk":5,"migraine_risk":7,"frizz_risk":0,"updated_at":"2026-03-03T10:19:04.846703+05:30"},{"city":"Ujjain","state":"Madhya Pradesh","latitude":23.1765,"longitude":75.7885,"temp":27.4,"humidity":51,"rain":0.0,"pressure":960.4,"uv_index":7.35,"wind_gusts":15.5,"aqi":105,"pm10":43.7,"pm2_5":40.3,"mosquito_risk":4,"arthritis_risk":5,"migraine_risk":7,"frizz_risk":1,"updated_at":"2026-03-03T10:19:04.846709+05:30"},{"city":"Visakhapatnam","state":"Andhra Pradesh","latitude":17.6868,"longitude":83.2185,"temp":31.1,"humidity":46,"rain":0.0,"pressure":1008.9,"uv_index":8.35,"wind_gusts":36.0,"aqi":131,"pm10":63.3,"pm2_5":61.2,"mosquito_risk":0,"arthritis_risk":0,"migraine_risk":4,"frizz_risk":1,"updated_at":"2026-03-03T10:19:04.846715+05:30"},{"city":"Vijayawada","state":"Andhra Pradesh","latitude":16.5062,"longitude":80.648,"temp":29.4,"humidity":56,"rain":0.0,"pressure":1008.3,"uv_index":8.4,"wind_gusts":25.9,"aqi":141,"pm10":52.3,"pm2_5":49.5,"mosquito_risk":4,"arthritis_risk":0,"migraine_risk":4,"frizz_risk":1,"updated_at":"2026-03-03T10:19:04.846720+05:30"},{"city":"Guntur","state":"Andhra Pradesh","latitude":16.3067,"longitude":80.4365,"temp":30.3,"humidity":49,"rain":0.0,"pressure":1009.4,"uv_index":8.4,"wind_gusts":28.4,"aqi":134,"pm10":49.6,"pm2_5":47.1,"mosquito_risk":0,"arthritis_risk":0,"migraine_risk":4,"frizz_risk":1,"updated_at":"2026-03-03T10:19:04.846726+05:30"},{"city":"Nellore","state":"Andhra Pradesh","latitude":14.4426,"longitude":79.9865,"temp":31.0,"humidity":46,"rain":0.0,"pressure":1011.1,"uv_index":8.65,"wind_gusts":29.2,"aqi":117,"pm10":48.1,"pm2_5":44.9,"mosquito_risk":0,"arthritis_risk":0,"migraine_risk":4,"frizz_risk":1,"updated_at":"2026-03-03T10:19:04.846732+05:30"},{"city":"Kurnool","state":"Andhra Pradesh","latitude":15.8281,"longitude":78.0373,"temp":32.0,"humidity":35,"rain":0.0,"pressure":982.2,"uv_index":8.45,"wind_gusts":28.8,"aqi":124,"pm10":49.7,"pm2_5":48.2,"mosquito_risk":0,"arthritis_risk":5,"migraine_risk":7,"frizz_risk":0,"updated_at":"2026-03-03T10:19:04.846739+05:30"},{"city":"Kakinada","state":"Andhra Pradesh","latitude":16.9891,"longitude":82.2475,"temp":31.4,"humidity":46,"rain":0.0,"pressure":1012.7,"uv_index":8.35,"wind_gusts":35.3,"aqi":128,"pm10":51.7,"pm2_5":48.5,"mosquito_risk":0,"arthritis_risk":0,"migraine_risk":4,"frizz_risk":1,"updated_at":"2026-03-03T10:19:04.846744+05:30"},{"city":"Tirupati","state":"Andhra Pradesh","latitude":13.6288,"longitude":79.4192,"temp":31.3,"humidity":28,"rain":0.0,"pressure":996.6,"uv_index":8.75,"wind_gusts":36.0,"aqi":153,"pm10":47.8,"pm2_5":45.2,"mosquito_risk":0,"arthritis_risk":5,"migraine_risk":7,"frizz_risk":0,"updated_at":"2026-03-03T10:19:04.846750+05:30"},{"city":"Warangal","state":"Telangana","latitude":17.9689,"longitude":79.5941,"temp":29.6,"humidity":57,"rain":0.0,"pressure":984.6,"uv_index":8.2,"wind_gusts":16.2,"aqi":152,"pm10":53.2,"pm2_5":52.3,"mosquito_risk":4,"arthritis_risk":5,"migraine_risk":7,"frizz_risk":1,"updated_at":"2026-03-03T10:19:04.846755+05:30"},{"city":"Nizamabad","state":"Telangana","latitude":18.6725,"longitude":78.0941,"temp":30.2,"humidity":38,"rain":0.0,"pressure":970.7,"uv_index":8.1,"wind_gusts":26.3,"aqi":91,"pm10":28.9,"pm2_5":27.0,"mosquito_risk":0,"arthritis_risk":5,"migraine_risk":7,"frizz_risk":0,"updated_at":"2026-03-03T10:19:04.846760+05:30"},{"city":"Mysore","state":"Karnataka","latitude":12.2958,"longitude":76.6396,"temp":27.5,"humidity":50,"rain":0.0,"pressure":932.6,"uv_index":9.15,"wind_gusts":33.8,"aqi":137,"pm10":49.6,"pm2_5":48.4,"mosquito_risk":4,"arthritis_risk":5,"migraine_risk":7,"frizz_risk":1,"updated_at":"2026-03-03T10:19:04.846765+05:30"},{"city":"Mangalore","state":"Karnataka","latitude":12.9141,"longitude":74.856,"temp":27.8,"humidity":81,"rain":0.0,"pressure":1010.4,"uv_index":8.75,"wind_gusts":28.8,"aqi":60,"pm10":23.2,"pm2_5":17.7,"mosquito_risk":7,"arthritis_risk":0,"migraine_risk":4,"frizz_risk":1,"updated_at":"2026-03-03T10:19:04.846771+05:30"},{"city":"Hubli-Dharwad","state":"Karnataka","latitude":15.3647,"longitude":75.124,"temp":29.1,"humidity":50,"rain":0.0,"pressure":945.3,"uv_index":8.6,"wind_gusts":29.2,"aqi":88,"pm10":32.9,"pm2_5":31.8,"mosquito_risk":4,"arthritis_risk":5,"migraine_risk":7,"frizz_risk":1,"updated_at":"2026-03-03T10:19:04.846777+05:30"},{"city":"Belgaum","state":"Karnataka","latitude":15.8497,"longitude":74.4977,"temp":28.8,"humidity":46,"rain":0.0,"pressure":930.1,"uv_index":8.65,"wind_gusts":33.5,"aqi":81,"pm10":31.8,"pm2_5":30.2,"mosquito_risk":4,"arthritis_risk":5,"migraine_risk":7,"frizz_risk":0,"updated_at":"2026-03-03T10:19:08.085909+05:30"},{"city":"Coimbatore","state":"Tamil Nadu","latitude":11.0168,"longitude":76.9558,"temp":28.8,"humidity":49,"rain":0.0,"pressure":966.3,"uv_index":9.15,"wind_gusts":42.1,"aqi":131,"pm10":41.9,"pm2_5":40.9,"mosquito_risk":4,"arthritis_risk":5,"migraine_risk":7,"frizz_risk":1,"updated_at":"2026-03-03T10:19:08.085939+05:30"},{"city":"Madurai","state":"Tamil Nadu","latitude":9.9252,"longitude":78.1198,"temp":28.8,"humidity":57,"rain":0.0,"pressure":998.1,"uv_index":9.1,"wind_gusts":32.4,"aqi":119,"pm10":41.2,"pm2_5":38.2,"mosquito_risk":4,"arthritis_risk":5,"migraine_risk":7,"frizz_risk":1,"updated_at":"2026-03-03T10:19:08.085949+05:30"},{"city":"Trichy","state":"Tamil Nadu","latitude":10.7905,"longitude":78.7047,"temp":28.5,"humidity":59,"rain":0.0,"pressure":1005.1,"uv_index":9.0,"wind_gusts":29.9,"aqi":121,"pm10":45.4,"pm2_5":41.2,"mosquito_risk":4,"arthritis_risk":5,"migraine_risk":4,"frizz_risk":1,"updated_at":"2026-03-03T10:19:08.085957+05:30"},{"city":"Salem","state":"Tamil Nadu","latitude":11.6643,"longitude":78.146,"temp":29.3,"humidity":57,"rain":0.0,"pressure":982.1,"uv_index":9.0,"wind_gusts":38.5,"aqi":137,"pm10":51.3,"pm2_5":49.6,"mosquito_risk":4,"arthritis_risk":5,"migraine_risk":7,"frizz_risk":1,"updated_at":"2026-03-03T10:19:08.085964+05:30"},{"city":"Tirunelveli","state":"Tamil Nadu","latitude":8.7139,"longitude":77.7567,"temp":29.6,"humidity":50,"rain":0.0,"pressure":1008.3,"uv_index":9.1,"wind_gusts":40.0,"aqi":113,"pm10":32.9,"pm2_5":30.9,"mosquito_risk":4,"arthritis_risk":0,"migraine_risk":4,"frizz_risk":1,"updated_at":"2026-03-03T10:19:08.085971+05:30"},{"city":"Vellore","state":"Tamil Nadu","latitude":12.9165,"longitude":79.1325,"temp":30.4,"humidity":30,"rain":0.0,"pressure":989.7,"uv_index":8.9,"wind_gusts":38.2,"aqi":151,"pm10":47.0,"pm2_5":44.5,"mosquito_risk":0,"arthritis_risk":5,"migraine_risk":7,"frizz_risk":0,"updated_at":"2026-03-03T10:19:08.085979+05:30"},{"city":"Erode","state":"Tamil Nadu","latitude":11.341,"longitude":77.7172,"temp":29.4,"humidity":56,"rain":0.0,"pressure":994.0,"uv_index":9.05,"wind_gusts":33.5,"aqi":119,"pm10":44.4,"pm2_5":42.3,"mosquito_risk":4,"arthritis_risk":5,"migraine_risk":7,"frizz_risk":1,"updated_at":"2026-03-03T10:19:08.085986+05:30"},{"city":"Kochi","state":"Kerala","latitude":9.9312,"longitude":76.2673,"temp":28.0,"humidity":76,"rain":0.0,"pressure":1012.4,"uv_index":8.95,"wind_gusts":32.8,"aqi":106,"pm10":36.1,"pm2_5":33.9,"mosquito_risk":7,"arthritis_risk":0,"migraine_risk":4,"frizz_risk":1,"updated_at":"2026-03-03T10:19:08.085993+05:30"},{"city":"Thiruvananthapuram","state":"Kerala","latitude":8.5241,"longitude":76.9366,"temp":27.2,"humidity":82,"rain":0.0,"pressure":1011.9,"uv_index":9.0,"wind_gusts":27.4,"aqi":81,"pm10":35.4,"pm2_5":33.1,"mosquito_risk":7,"arthritis_risk":0,"migraine_risk":4,"frizz_risk":1,"updated_at":"2026-03-03T10:19:08.086000+05:30"},{"city":"Kozhikode","state":"Kerala","latitude":11.2588,"longitude":75.7804,"temp":29.0,"humidity":68,"rain":0.0,"pressure":1011.7,"uv_index":8.85,"wind_gusts":34.2,"aqi":64,"pm10":26.5,"pm2_5":24.2,"mosquito_risk":7,"arthritis_risk":0,"migraine_risk":4,"frizz_risk":1,"updated_at":"2026-03-03T10:19:08.086007+05:30"},{"city":"Thrissur","state":"Kerala","latitude":10.5276,"longitude":76.2144,"temp":31.2,"humidity":59,"rain":0.0,"pressure":1010.7,"uv_index":8.95,"wind_gusts":42.5,"aqi":105,"pm10":35.9,"pm2_5":33.9,"mosquito_risk":0,"arthritis_risk":0,"migraine_risk":4,"frizz_risk":1,"updated_at":"2026-03-03T10:19:08.086014+05:30"},{"city":"Kannur","state":"Kerala","latitude":11.8745,"longitude":75.3704,"temp":30.1,"humidity":58,"rain":0.0,"pressure":1010.9,"uv_index":8.85,"wind_gusts":36.4,"aqi":61,"pm10":20.3,"pm2_5":17.1,"mosquito_risk":0,"arthritis_risk":0,"migraine_risk":4,"frizz_risk":1,"updated_at":"2026-03-03T10:19:08.086021+05:30"},{"city":"Patna","state":"Bihar","latitude":25.5941,"longitude":85.1376,"temp":25.6,"humidity":56,"rain":0.0,"pressure":1006.8,"uv_index":7.15,"wind_gusts":19.4,"aqi":132,"pm10":115.0,"pm2_5":62.9,"mosquito_risk":4,"arthritis_risk":5,"migraine_risk":4,"frizz_risk":1,"updated_at":"2026-03-03T10:19:08.086027+05:30"},{"city":"Gaya","state":"Bihar","latitude":24.7914,"longitude":85.0002,"temp":27.1,"humidity":53,"rain":0.0,"pressure":1000.0,"uv_index":7.25,"wind_gusts":25.9,"aqi":90,"pm10":73.1,"pm2_5":30.9,"mosquito_risk":4,"arthritis_risk":5,"migraine_risk":4,"frizz_risk":1,"updated_at":"2026-03-03T10:19:08.086034+05:30"},{"city":"Muzaffarpur","state":"Bihar","latitude":26.1209,"longitude":85.3647,"temp":25.0,"humidity":53,"rain":0.0,"pressure":1006.9,"uv_index":7.1,"wind_gusts":11.2,"aqi":151,"pm10":116.9,"pm2_5":73.3,"mosquito_risk":4,"arthritis_risk":5,"migraine_risk":4,"frizz_risk":0,"updated_at":"2026-03-03T10:19:08.086040+05:30"},{"city":"Bhagalpur","state":"Bihar","latitude":25.2425,"longitude":87.0117,"temp":25.3,"humidity":58,"rain":0.0,"pressure":1007.8,"uv_index":7.15,"wind_gusts":14.4,"aqi":119,"pm10":79.9,"pm2_5":52.9,"mosquito_risk":4,"arthritis_risk":5,"migraine_risk":4,"frizz_risk":1,"updated_at":"2026-03-03T10:19:08.086047+05:30"},{"city":"Ranchi","state":"Jharkhand","latitude":23.3441,"longitude":85.3096,"temp":26.8,"humidity":30,"rain":0.0,"pressure":943.7,"uv_index":7.9,"wind_gusts":44.3,"aqi":61,"pm10":122.5,"pm2_5":31.7,"mosquito_risk":4,"arthritis_risk":5,"migraine_risk":7,"frizz_risk":0,"updated_at":"2026-03-03T10:19:08.086053+05:30"},{"city":"Jamshedpur","state":"Jharkhand","latitude":22.8046,"longitude":86.2029,"temp":28.7,"humidity":33,"rain":0.0,"pressure":997.7,"uv_index":7.75,"wind_gusts":14.4,"aqi":94,"pm10":55.8,"pm2_5":34.5,"mosquito_risk":4,"arthritis_risk":5,"migraine_risk":7,"frizz_risk":0,"updated_at":"2026-03-03T10:19:08.086060+05:30"},{"city":"Dhanbad","state":"Jharkhand","latitude":23.7957,"longitude":86.4304,"temp":29.7,"humidity":25,"rain":0.0,"pressure":986.2,"uv_index":7.65,"wind_gusts":32.8,"aqi":96,"pm10":65.9,"pm2_5":43.7,"mosquito_risk":4,"arthritis_risk":5,"migraine_risk":7,"frizz_risk":0,"updated_at":"2026-03-03T10:19:08.086067+05:30"},{"city":"Bokaro","state":"Jharkhand","latitude":23.6693,"longitude":86.1511,"temp":29.6,"humidity":26,"rain":0.0,"pressure":990.1,"uv_index":7.65,"wind_gusts":36.4,"aqi":99,"pm10":68.0,"pm2_5":41.6,"mosquito_risk":4,"arthritis_risk":5,"migraine_risk":7,"frizz_risk":0,"updated_at":"2026-03-03T10:19:08.086074+05:30"},{"city":"Bhubaneswar","state":"Odisha","latitude":20.2961,"longitude":85.8245,"temp":31.8,"humidity":51,"rain":0.0,"pressure":1008.4,"uv_index":8.1,"wind_gusts":27.0,"aqi":155,"pm10":73.3,"pm2_5":63.8,"mosquito_risk":0,"arthritis_risk":0,"migraine_risk":4,"frizz_risk":1,"updated_at":"2026-03-03T10:19:08.086081+05:30"},{"city":"Cuttack","state":"Odisha","latitude":20.4625,"longitude":85.8828,"temp":32.6,"humidity":43,"rain":0.0,"pressure":1010.4,"uv_index":8.1,"wind_gusts":25.2,"aqi":155,"pm10":73.3,"pm2_5":63.8,"mosquito_risk":0,"arthritis_risk":0,"migraine_risk":4,"frizz_risk":1,"updated_at":"2026-03-03T10:19:08.086087+05:30"},{"city":"Rourkela","state":"Odisha","latitude":22.2604,"longitude":84.8536,"temp":29.4,"humidity":32,"rain":0.0,"pressure":992.0,"uv_index":7.7,"wind_gusts":25.9,"aqi":78,"pm10":55.2,"pm2_5":32.8,"mosquito_risk":4,"arthritis_risk":5,"migraine_risk":7,"frizz_risk":0,"updated_at":"2026-03-03T10:19:08.086094+05:30"},{"city":"Raipur","state":"Chhattisgarh","latitude":21.2514,"longitude":81.6296,"temp":29.7,"humidity":32,"rain":0.0,"pressure":981.7,"uv_index":7.8,"wind_gusts":14.4,"aqi":115,"pm10":51.9,"pm2_5":41.7,"mosquito_risk":4,"arthritis_risk":5,"migraine_risk":7,"frizz_risk":0,"updated_at":"2026-03-03T10:19:08.086100+05:30"},{"city":"Bhilai","state":"Chhattisgarh","latitude":21.1938,"longitude":81.3509,"temp":29.8,"humidity":35,"rain":0.0,"pressure":982.0,"uv_index":7.8,"wind_gusts":13.7,"aqi":112,"pm10":57.5,"pm2_5":47.8,"mosquito_risk":4,"arthritis_risk":5,"migraine_risk":7,"frizz_risk":0,"updated_at":"2026-03-03T10:19:08.086107+05:30"},{"city":"Guwahati","state":"Assam","latitude":26.1158,"longitude":91.7086,"temp":26.0,"humidity":66,"rain":0.0,"pressure":1008.2,"uv_index":7.1,"wind_gusts":22.0,"aqi":153,"pm10":94.5,"pm2_5":74.5,"mosquito_risk":7,"arthritis_risk":0,"migraine_risk":4,"frizz_risk":1,"updated_at":"2026-03-03T10:19:08.086113+05:30"},{"city":"Agartala","state":"Tripura","latitude":23.8315,"longitude":91.2868,"temp":27.4,"humidity":68,"rain":0.0,"pressure":1012.0,"uv_index":7.45,"wind_gusts":15.8,"aqi":178,"pm10":87.5,"pm2_5":85.7,"mosquito_risk":7,"arthritis_risk":0,"migraine_risk":4,"frizz_risk":1,"updated_at":"2026-03-03T10:19:08.086119+05:30"},{"city":"Shillong","state":"Meghalaya","latitude":25.5788,"longitude":91.8933,"temp":17.4,"humidity":30,"rain":0.0,"pressure":860.6,"uv_index":7.45,"wind_gusts":28.1,"aqi":128,"pm10":81.7,"pm2_5":58.3,"mosquito_risk":0,"arthritis_risk":5,"migraine_risk":7,"frizz_risk":1,"updated_at":"2026-03-03T10:19:08.086124+05:30"},{"city":"Imphal","state":"Manipur","latitude":24.817,"longitude":93.9368,"temp":20.1,"humidity":59,"rain":0.0,"pressure":927.8,"uv_index":7.6,"wind_gusts":28.8,"aqi":158,"pm10":85.0,"pm2_5":76.1,"mosquito_risk":0,"arthritis_risk":5,"migraine_risk":7,"frizz_risk":0,"updated_at":"2026-03-03T10:19:08.086129+05:30"},{"city":"Aizawl","state":"Mizoram","latitude":23.7271,"longitude":92.7176,"temp":22.7,"humidity":50,"rain":0.0,"pressure":897.9,"uv_index":7.65,"wind_gusts":32.8,"aqi":162,"pm10":71.9,"pm2_5":65.7,"mosquito_risk":0,"arthritis_risk":5,"migraine_risk":7,"frizz_risk":0,"updated_at":"2026-03-03T10:19:08.086134+05:30"},{"city":"Kohima","state":"Nagaland","latitude":25.6701,"longitude":94.1077,"temp":16.0,"humidity":59,"rain":0.0,"pressure":858.9,"uv_index":6.5,"wind_gusts":45.0,"aqi":150,"pm10":83.8,"pm2_5":63.6,"mosquito_risk":0,"arthritis_risk":5,"migraine_risk":7,"frizz_risk":0,"updated_at":"2026-03-03T10:19:08.086140+05:30"},{"city":"Gangtok","state":"Sikkim","latitude":27.3314,"longitude":88.6138,"temp":15.9,"humidity":66,"rain":0.0,"pressure":841.4,"uv_index":7.4,"wind_gusts":18.4,"aqi":147,"pm10":52.9,"pm2_5":38.3,"mosquito_risk":3,"arthritis_risk":5,"migraine_risk":7,"frizz_risk":0,"updated_at":"2026-03-03T10:19:08.086145+05:30"},{"city":"Siliguri","state":"West Bengal","latitude":26.7271,"longitude":88.3953,"temp":22.1,"humidity":63,"rain":0.0,"pressure":1000.4,"uv_index":7.1,"wind_gusts":20.2,"aqi":166,"pm10":99.2,"pm2_5":69.4,"mosquito_risk":3,"arthritis_risk":5,"migraine_risk":4,"frizz_risk":0,"updated_at":"2026-03-03T10:19:11.328236+05:30"},{"city":"Durgapur","state":"West Bengal","latitude":23.5204,"longitude":87.3119,"temp":31.3,"humidity":22,"rain":0.0,"pressure":1001.2,"uv_index":7.65,"wind_gusts":28.4,"aqi":84,"pm10":69.2,"pm2_5":45.3,"mosquito_risk":0,"arthritis_risk":5,"migraine_risk":4,"frizz_risk":0,"updated_at":"2026-03-03T10:19:11.328264+05:30"},{"city":"Asansol","state":"West Bengal","latitude":23.6739,"longitude":86.9524,"temp":31.0,"humidity":23,"rain":0.0,"pressure":999.9,"uv_index":7.65,"wind_gusts":23.8,"aqi":79,"pm10":61.9,"pm2_5":42.3,"mosquito_risk":0,"arthritis_risk":5,"migraine_risk":7,"frizz_risk":0,"updated_at":"2026-03-03T10:19:11.328274+05:30"},{"city":"Pondicherry","state":"Puducherry","latitude":11.9139,"longitude":79.8145,"temp":29.0,"humidity":65,"rain":0.0,"pressure":1013.6,"uv_index":8.85,"wind_gusts":25.9,"aqi":110,"pm10":49.0,"pm2_5":44.8,"mosquito_risk":7,"arthritis_risk":0,"migraine_risk":4,"frizz_risk":1,"updated_at":"2026-03-03T10:19:11.328283+05:30"},{"city":"Port Blair","state":"Andaman and Nicobar Islands","latitude":11.6234,"longitude":92.7265,"temp":27.0,"humidity":75,"rain":0.0,"pressure":1010.7,"uv_index":8.8,"wind_gusts":17.6,"aqi":84,"pm10":38.5,"pm2_5":27.5,"mosquito_risk":7,"arthritis_risk":0,"migraine_risk":4,"frizz_risk":1,"updated_at":"2026-03-03T10:19:11.328291+05:30"},{"city":"Haridwar","state":"Uttarakhand","latitude":29.9457,"longitude":78.1642,"temp":22.7,"humidity":61,"rain":0.0,"pressure":977.9,"uv_index":5.55,"wind_gusts":23.0,"aqi":97,"pm10":32.5,"pm2_5":29.6,"mosquito_risk":3,"arthritis_risk":5,"migraine_risk":3,"frizz_risk":0,"updated_at":"2026-03-03T10:19:11.328299+05:30"},{"city":"Rishikesh","state":"Uttarakhand","latitude":30.0869,"longitude":78.2676,"temp":24.4,"humidity":56,"rain":0.0,"pressure":970.3,"uv_index":5.6,"wind_gusts":23.8,"aqi":75,"pm10":23.6,"pm2_5":21.8,"mosquito_risk":0,"arthritis_risk":5,"migraine_risk":3,"frizz_risk":0,"updated_at":"2026-03-03T10:19:11.328307+05:30"},{"city":"Nainital","state":"Uttarakhand","latitude":29.3919,"longitude":79.4542,"temp":18.5,"humidity":59,"rain":0.0,"pressure":808.2,"uv_index":6.45,"wind_gusts":51.5,"aqi":81,"pm10":35.0,"pm2_5":27.7,"mosquito_risk":0,"arthritis_risk":5,"migraine_risk":7,"frizz_risk":0,"updated_at":"2026-03-03T10:19:11.328314+05:30"},{"city":"Mussoorie","state":"Uttarakhand","latitude":30.4599,"longitude":78.0664,"temp":18.6,"humidity":47,"rain":0.0,"pressure":805.0,"uv_index":5.95,"wind_gusts":40.0,"aqi":78,"pm10":20.4,"pm2_5":19.8,"mosquito_risk":0,"arthritis_risk":5,"migraine_risk":3,"frizz_risk":0,"updated_at":"2026-03-03T10:19:11.328321+05:30"},{"city":"Dharamshala","state":"Himachal Pradesh","latitude":32.219,"longitude":76.3234,"temp":21.6,"humidity":37,"rain":0.0,"pressure":872.3,"uv_index":6.2,"wind_gusts":23.0,"aqi":52,"pm10":9.4,"pm2_5":5.4,"mosquito_risk":0,"arthritis_risk":5,"migraine_risk":7,"frizz_risk":0,"updated_at":"2026-03-03T10:19:11.328329+05:30"},{"city":"Dalhousie","state":"Himachal Pradesh","latitude":32.5387,"longitude":75.971,"temp":20.8,"humidity":20,"rain":0.0,"pressure":807.7,"uv_index":6.4,"wind_gusts":20.5,"aqi":92,"pm10":25.4,"pm2_5":21.5,"mosquito_risk":0,"arthritis_risk":5,"migraine_risk":7,"frizz_risk":1,"updated_at":"2026-03-03T10:19:11.328336+05:30"},{"city":"Patiala","state":"Punjab","latitude":30.3398,"longitude":76.3869,"temp":23.0,"humidity":56,"rain":0.0,"pressure":983.2,"uv_index":5.6,"wind_gusts":36.4,"aqi":174,"pm10":402.3,"pm2_5":79.4,"mosquito_risk":0,"arthritis_risk":5,"migraine_risk":3,"frizz_risk":0,"updated_at":"2026-03-03T10:19:11.328343+05:30"},{"city":"Bhatinda","state":"Punjab","latitude":30.211,"longitude":74.9455,"temp":24.0,"humidity":59,"rain":0.0,"pressure":989.8,"uv_index":6.25,"wind_gusts":30.2,"aqi":143,"pm10":72.6,"pm2_5":58.8,"mosquito_risk":0,"arthritis_risk":5,"migraine_risk":7,"frizz_risk":0,"updated_at":"2026-03-03T10:19:11.328350+05:30"},{"city":"Rohtak","state":"Haryana","latitude":28.8955,"longitude":76.6066,"temp":24.0,"humidity":58,"rain":0.0,"pressure":987.8,"uv_index":5.8,"wind_gusts":36.4,"aqi":364,"pm10":506.6,"pm2_5":99.9,"mosquito_risk":0,"arthritis_risk":5,"migraine_risk":3,"frizz_risk":0,"updated_at":"2026-03-03T10:19:11.328357+05:30"},{"city":"Panipat","state":"Haryana","latitude":29.3909,"longitude":76.9635,"temp":23.5,"humidity":58,"rain":0.0,"pressure":985.7,"uv_index":5.6,"wind_gusts":40.7,"aqi":873,"pm10":1065.4,"pm2_5":159.3,"mosquito_risk":0,"arthritis_risk":5,"migraine_risk":3,"frizz_risk":0,"updated_at":"2026-03-03T10:19:11.328363+05:30"},{"city":"Mathura","state":"Uttar Pradesh","latitude":27.4924,"longitude":77.6737,"temp":26.9,"humidity":48,"rain":0.0,"pressure":993.2,"uv_index":6.1,"wind_gusts":30.6,"aqi":472,"pm10":545.8,"pm2_5":90.6,"mosquito_risk":4,"arthritis_risk":5,"migraine_risk":7,"frizz_risk":0,"updated_at":"2026-03-03T10:19:11.328370+05:30"},{"city":"Vrindavan","state":"Uttar Pradesh","latitude":27.5823,"longitude":77.7027,"temp":26.2,"humidity":51,"rain":0.0,"pressure":993.5,"uv_index":6.05,"wind_gusts":33.8,"aqi":472,"pm10":545.8,"pm2_5":90.6,"mosquito_risk":4,"arthritis_risk":5,"migraine_risk":7,"frizz_risk":0,"updated_at":"2026-03-03T10:19:11.328377+05:30"},{"city":"Ayodhya","state":"Uttar Pradesh","latitude":26.7922,"longitude":82.1998,"temp":24.2,"humidity":58,"rain":0.0,"pressure":1001.3,"uv_index":6.45,"wind_gusts":28.8,"aqi":142,"pm10":165.8,"pm2_5":63.3,"mosquito_risk":0,"arthritis_risk":5,"migraine_risk":4,"frizz_risk":0,"updated_at":"2026-03-03T10:19:11.328384+05:30"},{"city":"Ratlam","state":"Madhya Pradesh","latitude":23.3315,"longitude":75.0367,"temp":27.8,"humidity":46,"rain":0.0,"pressure":960.9,"uv_index":7.3,"wind_gusts":12.2,"aqi":92,"pm10":34.9,"pm2_5":29.7,"mosquito_risk":4,"arthritis_risk":5,"migraine_risk":7,"frizz_risk":0,"updated_at":"2026-03-03T10:19:11.328391+05:30"},{"city":"Sagar","state":"Madhya Pradesh","latitude":23.8388,"longitude":78.7378,"temp":28.7,"humidity":41,"rain":0.0,"pressure":956.8,"uv_index":7.25,"wind_gusts":27.4,"aqi":63,"pm10":27.0,"pm2_5":17.2,"mosquito_risk":4,"arthritis_risk":5,"migraine_risk":7,"frizz_risk":0,"updated_at":"2026-03-03T10:19:11.328397+05:30"},{"city":"Satna","state":"Madhya Pradesh","latitude":24.6005,"longitude":80.8322,"temp":28.8,"humidity":39,"rain":0.0,"pressure":978.1,"uv_index":7.2,"wind_gusts":33.1,"aqi":67,"pm10":184.9,"pm2_5":39.9,"mosquito_risk":4,"arthritis_risk":5,"migraine_risk":7,"frizz_risk":0,"updated_at":"2026-03-03T10:19:11.328404+05:30"},{"city":"Akola","state":"Maharashtra","latitude":20.7002,"longitude":77.0082,"temp":30.1,"humidity":39,"rain":0.0,"pressure":981.8,"uv_index":7.8,"wind_gusts":20.2,"aqi":77,"pm10":29.2,"pm2_5":23.7,"mosquito_risk":0,"arthritis_risk":5,"migraine_risk":7,"frizz_risk":0,"updated_at":"2026-03-03T10:19:11.328411+05:30"},{"city":"Amravati","state":"Maharashtra","latitude":20.9374,"longitude":77.7796,"temp":31.4,"humidity":32,"rain":0.0,"pressure":974.0,"uv_index":7.75,"wind_gusts":16.6,"aqi":75,"pm10":28.8,"pm2_5":22.5,"mosquito_risk":0,"arthritis_risk":5,"migraine_risk":7,"frizz_risk":0,"updated_at":"2026-03-03T10:19:11.328419+05:30"},{"city":"Latur","state":"Maharashtra","latitude":18.4088,"longitude":76.5604,"temp":29.2,"humidity":35,"rain":0.0,"pressure":945.7,"uv_index":8.2,"wind_gusts":31.0,"aqi":84,"pm10":27.3,"pm2_5":26.8,"mosquito_risk":4,"arthritis_risk":5,"migraine_risk":7,"frizz_risk":0,"updated_at":"2026-03-03T10:19:11.328460+05:30"},{"city":"Nanded","state":"Maharashtra","latitude":19.1383,"longitude":77.3091,"temp":30.4,"humidity":36,"rain":0.0,"pressure":974.9,"uv_index":8.0,"wind_gusts":20.9,"aqi":96,"pm10":27.0,"pm2_5":24.6,"mosquito_risk":0,"arthritis_risk":5,"migraine_risk":7,"frizz_risk":0,"updated_at":"2026-03-03T10:19:11.328468+05:30"},{"city":"Gulbarga","state":"Karnataka","latitude":17.3297,"longitude":76.8343,"temp":31.1,"humidity":42,"rain":0.0,"pressure":964.3,"uv_index":8.3,"wind_gusts":18.7,"aqi":136,"pm10":48.1,"pm2_5":47.3,"mosquito_risk":0,"arthritis_risk":5,"migraine_risk":7,"frizz_risk":1,"updated_at":"2026-03-03T10:19:11.328474+05:30"},{"city":"Bidar","state":"Karnataka","latitude":17.9104,"longitude":77.5199,"temp":29.8,"humidity":44,"rain":0.0,"pressure":941.2,"uv_index":8.25,"wind_gusts":21.6,"aqi":110,"pm10":49.0,"pm2_5":48.1,"mosquito_risk":4,"arthritis_risk":5,"migraine_risk":7,"frizz_risk":1,"updated_at":"2026-03-03T10:19:11.328482+05:30"},{"city":"Hospet","state":"Karnataka","latitude":15.2689,"longitude":76.3909,"temp":28.6,"humidity":56,"rain":0.0,"pressure":960.8,"uv_index":8.6,"wind_gusts":26.3,"aqi":107,"pm10":42.4,"pm2_5":41.8,"mosquito_risk":4,"arthritis_risk":5,"migraine_risk":7,"frizz_risk":1,"updated_at":"2026-03-03T10:19:11.328489+05:30"},{"city":"Tirupur","state":"Tamil Nadu","latitude":11.1085,"longitude":77.3411,"temp":29.3,"humidity":43,"rain":0.0,"pressure":980.1,"uv_index":9.15,"wind_gusts":31.7,"aqi":132,"pm10":45.1,"pm2_5":43.8,"mosquito_risk":4,"arthritis_risk":5,"migraine_risk":7,"frizz_risk":0,"updated_at":"2026-03-03T10:19:11.328495+05:30"},{"city":"Alappuzha","state":"Kerala","latitude":9.4981,"longitude":76.3388,"temp":27.6,"humidity":77,"rain":0.0,"pressure":1012.6,"uv_index":8.95,"wind_gusts":28.4,"aqi":95,"pm10":37.3,"pm2_5":34.7,"mosquito_risk":7,"arthritis_risk":0,"migraine_risk":4,"frizz_risk":1,"updated_at":"2026-03-03T10:19:11.328502+05:30"},{"city":"Munnar","state":"Kerala","latitude":10.0889,"longitude":77.0595,"temp":25.8,"humidity":52,"rain":0.0,"pressure":861.3,"uv_index":9.45,"wind_gusts":20.2,"aqi":106,"pm10":34.8,"pm2_5":33.9,"mosquito_risk":4,"arthritis_risk":5,"migraine_risk":7,"frizz_risk":0,"updated_at":"2026-03-03T10:19:11.328509+05:30"},{"city":"Silchar","state":"Assam","latitude":24.8333,"longitude":92.7789,"temp":27.3,"humidity":61,"rain":0.0,"pressure":1011.2,"uv_index":7.4,"wind_gusts":20.2,"aqi":160,"pm10":97.6,"pm2_5":81.0,"mosquito_risk":7,"arthritis_risk":0,"migraine_risk":4,"frizz_risk":1,"updated_at":"2026-03-03T10:19:11.328516+05:30"},{"city":"Dibrugarh","state":"Assam","latitude":27.4728,"longitude":94.912,"temp":23.8,"humidity":68,"rain":0.0,"pressure":1003.0,"uv_index":7.1,"wind_gusts":11.2,"aqi":157,"pm10":82.9,"pm2_5":57.3,"mosquito_risk":3,"arthritis_risk":5,"migraine_risk":4,"frizz_risk":1,"updated_at":"2026-03-03T10:19:11.328523+05:30"}]