[{"city":"Delhi","state":"Delhi","latitude":28.6139,"longitude":77.209,"temp":37.9,"humidity":17,"rain":0.0,"pressure":979.0,"uv_index":7.3,"wind_gusts":37.1,"aqi":473,"pm10":644.5,"pm2_5":71.7,"mosquito_risk":0,"arthritis_risk":5,"migraine_risk":10,"frizz_risk":0,"updated_at":"2026-04-21T16:41:09.466906+05:30"},{"city":"Mumbai","state":"Maharashtra","latitude":19.076,"longitude":72.8777,"temp":30.1,"humidity":72,"rain":0.0,"pressure":1004.7,"uv_index":7.25,"wind_gusts":24.8,"aqi":173,"pm10":39.1,"pm2_5":27.0,"mosquito_risk":3,"arthritis_risk":5,"migraine_risk":4,"frizz_risk":1,"updated_at":"2026-04-21T16:41:09.466950+05:30"},{"city":"Bangalore","state":"Karnataka","latitude":12.9716,"longitude":77.5946,"temp":36.0,"humidity":15,"rain":0.0,"pressure":908.8,"uv_index":9.6,"wind_gusts":28.4,"aqi":126,"pm10":18.7,"pm2_5":15.5,"mosquito_risk":0,"arthritis_risk":5,"migraine_risk":10,"frizz_risk":0,"updated_at":"2026-04-21T16:41:09.466965+05:30"},{"city":"Hyderabad","state":"Telangana","latitude":17.385,"longitude":78.4867,"temp":36.0,"humidity":35,"rain":0.0,"pressure":949.9,"uv_index":8.75,"wind_gusts":29.2,"aqi":152,"pm10":43.1,"pm2_5":37.0,"mosquito_risk":0,"arthritis_risk":5,"migraine_risk":10,"frizz_risk":1,"updated_at":"2026-04-21T16:41:09.466975+05:30"},{"city":"Chennai","state":"Tamil Nadu","latitude":13.0827,"longitude":80.2707,"temp":34.0,"humidity":52,"rain":0.0,"pressure":1003.1,"uv_index":9.3,"wind_gusts":36.0,"aqi":46,"pm10":15.3,"pm2_5":11.8,"mosquito_risk":0,"arthritis_risk":5,"migraine_risk":4,"frizz_risk":1,"updated_at":"2026-04-21T16:41:09.466984+05:30"},{"city":"Kolkata","state":"West Bengal","latitude":22.5726,"longitude":88.3639,"temp":34.3,"humidity":62,"rain":0.0,"pressure":999.5,"uv_index":8.95,"wind_gusts":32.0,"aqi":118,"pm10":49.2,"pm2_5":39.5,"mosquito_risk":3,"arthritis_risk":5,"migraine_risk":7,"frizz_risk":1,"updated_at":"2026-04-21T16:41:09.466997+05:30"},{"city":"Pune","state":"Maharashtra","latitude":18.5204,"longitude":73.8567,"temp":36.5,"humidity":27,"rain":0.0,"pressure":946.0,"uv_index":8.5,"wind_gusts":36.7,"aqi":132,"pm10":34.6,"pm2_5":28.7,"mosquito_risk":0,"arthritis_risk":5,"migraine_risk":10,"frizz_risk":0,"updated_at":"2026-04-21T16:41:09.467005+05:30"},{"city":"Ahmedabad","state":"Gujarat","latitude":23.0225,"longitude":72.5714,"temp":40.2,"humidity":12,"rain":0.0,"pressure":999.2,"uv_index":8.15,"wind_gusts":27.0,"aqi":66,"pm10":15.3,"pm2_5":7.2,"mosquito_risk":0,"arthritis_risk":5,"migraine_risk":10,"frizz_risk":0,"updated_at":"2026-04-21T16:41:09.467013+05:30"},{"city":"Jaipur","state":"Rajasthan","latitude":26.9124,"longitude":75.7873,"temp":38.6,"humidity":12,"rain":0.0,"pressure":956.8,"uv_index":7.95,"wind_gusts":33.8,"aqi":124,"pm10":261.7,"pm2_5":34.1,"mosquito_risk":0,"arthritis_risk":5,"migraine_risk":10,"frizz_risk":0,"updated_at":"2026-04-21T16:41:09.467021+05:30"},{"city":"Lucknow","state":"Uttar Pradesh","latitude":26.8467,"longitude":80.9462,"temp":39.7,"humidity":15,"rain":0.0,"pressure":987.9,"uv_index":7.9,"wind_gusts":48.6,"aqi":114,"pm10":271.9,"pm2_5":38.1,"mosquito_risk":0,"arthritis_risk":5,"migraine_risk":10,"frizz_risk":0,"updated_at":"2026-04-21T16:41:09.467029+05:30"},{"city":"Kanpur","state":"Uttar Pradesh","latitude":26.4499,"longitude":80.3319,"temp":38.5,"humidity":16,"rain":0.0,"pressure":987.0,"uv_index":7.9,"wind_gusts":40.3,"aqi":269,"pm10":651.9,"pm2_5":67.8,"mosquito_risk":0,"arthritis_risk":5,"migraine_risk":10,"frizz_risk":0,"updated_at":"2026-04-21T16:41:09.467036+05:30"},{"city":"Chandigarh","state":"Chandigarh","latitude":30.7333,"longitude":76.7794,"temp":37.2,"humidity":16,"rain":0.0,"pressure":965.0,"uv_index":7.25,"wind_gusts":34.2,"aqi":123,"pm10":23.4,"pm2_5":11.8,"mosquito_risk":0,"arthritis_risk":5,"migraine_risk":10,"frizz_risk":0,"updated_at":"2026-04-21T16:41:09.467044+05:30"},{"city":"Srinagar","state":"Jammu and Kashmir","latitude":34.0837,"longitude":74.7973,"temp":23.5,"humidity":28,"rain":0.0,"pressure":842.5,"uv_index":8.45,"wind_gusts":15.5,"aqi":88,"pm10":23.9,"pm2_5":9.0,"mosquito_risk":0,"arthritis_risk":5,"migraine_risk":7,"frizz_risk":0,"updated_at":"2026-04-21T16:41:09.467052+05:30"},{"city":"Jammu","state":"Jammu and Kashmir","latitude":32.7266,"longitude":74.857,"temp":36.7,"humidity":17,"rain":0.0,"pressure":969.3,"uv_index":8.0,"wind_gusts":29.9,"aqi":85,"pm10":28.8,"pm2_5":11.4,"mosquito_risk":0,"arthritis_risk":5,"migraine_risk":10,"frizz_risk":0,"updated_at":"2026-04-21T16:41:09.467059+05:30"},{"city":"Amritsar","state":"Punjab","latitude":31.634,"longitude":74.8723,"temp":37.8,"humidity":14,"rain":0.0,"pressure":977.3,"uv_index":7.95,"wind_gusts":31.3,"aqi":108,"pm10":24.3,"pm2_5":10.7,"mosquito_risk":0,"arthritis_risk":5,"migraine_risk":10,"frizz_risk":0,"updated_at":"2026-04-21T16:41:09.467066+05:30"},{"city":"Ludhiana","state":"Punjab","latitude":30.901,"longitude":75.8573,"temp":38.9,"humidity":11,"rain":0.0,"pressure":974.6,"uv_index":7.5,"wind_gusts":31.0,"aqi":107,"pm10":55.3,"pm2_5":14.4,"mosquito_risk":0,"arthritis_risk":5,"migraine_risk":10,"frizz_risk":0,"updated_at":"2026-04-21T16:41:09.467075+05:30"},{"city":"Jalandhar","state":"Punjab","latitude":31.326,"longitude":75.5762,"temp":38.4,"humidity":12,"rain":0.0,"pressure":976.0,"uv_index":7.7,"wind_gusts":32.0,"aqi":112,"pm10":58.8,"pm2_5":15.8,"mosquito_risk":0,"arthritis_risk":5,"migraine_risk":10,"frizz_risk":0,"updated_at":"2026-04-21T16:41:09.467082+05:30"},{"city":"Dehradun","state":"Uttarakhand","latitude":30.6284,"longitude":78.0322,"temp":25.0,"humidity":33,"rain":0.0,"pressure":830.9,"uv_index":7.7,"wind_gusts":41.0,"aqi":119,"pm10":20.0,"pm2_5":9.6,"mosquito_risk":4,"arthritis_risk":5,"migraine_risk":7,"frizz_risk":0,"updated_at":"2026-04-21T16:41:09.467089+05:30"},{"city":"Shimla","state":"Himachal Pradesh","latitude":31.1048,"longitude":77.1734,"temp":23.9,"humidity":27,"rain":0.0,"pressure":787.0,"uv_index":7.75,"wind_gusts":48.2,"aqi":106,"pm10":22.4,"pm2_5":9.6,"mosquito_risk":0,"arthritis_risk":5,"migraine_risk":7,"frizz_risk":0,"updated_at":"2026-04-21T16:41:09.467097+05:30"},{"city":"Manali","state":"Himachal Pradesh","latitude":32.2396,"longitude":77.1887,"temp":23.6,"humidity":45,"rain":0.0,"pressure":821.7,"uv_index":9.9,"wind_gusts":34.6,"aqi":114,"pm10":23.3,"pm2_5":7.1,"mosquito_risk":0,"arthritis_risk":5,"migraine_risk":7,"frizz_risk":0,"updated_at":"2026-04-21T16:41:09.467104+05:30"},{"city":"Gurgaon","state":"Haryana","latitude":28.4595,"longitude":77.0266,"temp":38.5,"humidity":17,"rain":0.0,"pressure":977.3,"uv_index":7.4,"wind_gusts":35.3,"aqi":1364,"pm10":2138.3,"pm2_5":197.4,"mosquito_risk":0,"arthritis_risk":5,"migraine_risk":10,"frizz_risk":0,"updated_at":"2026-04-21T16:41:09.467113+05:30"},{"city":"Noida","state":"Uttar Pradesh","latitude":28.5355,"longitude":77.391,"temp":38.2,"humidity":17,"rain":0.0,"pressure":980.4,"uv_index":7.35,"wind_gusts":36.7,"aqi":1364,"pm10":2138.3,"pm2_5":197.4,"mosquito_risk":0,"arthritis_risk":5,"migraine_risk":10,"frizz_risk":0,"updated_at":"2026-04-21T16:41:09.467119+05:30"},{"city":"Ghaziabad","state":"Uttar Pradesh","latitude":28.6692,"longitude":77.4538,"temp":37.8,"humidity":17,"rain":0.0,"pressure":978.6,"uv_index":7.3,"wind_gusts":37.1,"aqi":332,"pm10":583.0,"pm2_5":66.6,"mosquito_risk":0,"arthritis_risk":5,"migraine_risk":10,"frizz_risk":0,"updated_at":"2026-04-21T16:41:09.467126+05:30"},{"city":"Faridabad","state":"Haryana","latitude":28.4089,"longitude":77.3178,"temp":38.5,"humidity":18,"rain":0.0,"pressure":979.6,"uv_index":7.35,"wind_gusts":34.2,"aqi":1364,"pm10":2138.3,"pm2_5":197.4,"mosquito_risk":0,"arthritis_risk":5,"migraine_risk":10,"frizz_risk":0,"updated_at":"2026-04-21T16:41:09.467132+05:30"},{"city":"Meerut","state":"Uttar Pradesh","latitude":28.9845,"longitude":77.7064,"temp":37.8,"humidity":17,"rain":0.0,"pressure":977.1,"uv_index":7.2,"wind_gusts":38.9,"aqi":332,"pm10":583.0,"pm2_5":66.6,"mosquito_risk":0,"arthritis_risk":5,"migraine_risk":10,"frizz_risk":0,"updated_at":"2026-04-21T16:41:09.467138+05:30"},{"city":"Agra","state":"Uttar Pradesh","latitude":27.1767,"longitude":78.0081,"temp":39.5,"humidity":14,"rain":0.0,"pressure":983.4,"uv_index":7.7,"wind_gusts":30.2,"aqi":990,"pm10":797.2,"pm2_5":72.4,"mosquito_risk":0,"arthritis_risk":5,"migraine_risk":10,"frizz_risk":0,"updated_at":"2026-04-21T16:41:09.467147+05:30"},{"city":"Varanasi","state":"Uttar Pradesh","latitude":25.3176,"longitude":82.9739,"temp":41.2,"humidity":11,"rain":0.0,"pressure":991.3,"uv_index":8.55,"wind_gusts":40.7,"aqi":152,"pm10":129.9,"pm2_5":27.0,"mosquito_risk":0,"arthritis_risk":5,"migraine_risk":10,"frizz_risk":0,"updated_at":"2026-04-21T16:41:09.467155+05:30"},{"city":"Prayagraj","state":"Uttar Pradesh","latitude":25.4358,"longitude":81.8463,"temp":40.1,"humidity":13,"rain":0.0,"pressure":990.5,"uv_index":8.35,"wind_gusts":33.1,"aqi":137,"pm10":84.3,"pm2_5":20.3,"mosquito_risk":0,"arthritis_risk":5,"migraine_risk":10,"frizz_risk":0,"updated_at":"2026-04-21T16:41:09.467163+05:30"},{"city":"Gorakhpur","state":"Uttar Pradesh","latitude":26.7606,"longitude":83.3732,"temp":40.8,"humidity":10,"rain":0.0,"pressure":990.1,"uv_index":8.3,"wind_gusts":47.9,"aqi":121,"pm10":24.2,"pm2_5":12.3,"mosquito_risk":0,"arthritis_risk":5,"migraine_risk":10,"frizz_risk":0,"updated_at":"2026-04-21T16:41:09.467170+05:30"},{"city":"Bareilly","state":"Uttar Pradesh","latitude":28.367,"longitude":79.4304,"temp":38.5,"humidity":14,"rain":0.0,"pressure":981.7,"uv_index":7.6,"wind_gusts":42.1,"aqi":120,"pm10":35.0,"pm2_5":15.0,"mosquito_risk":0,"arthritis_risk":5,"migraine_risk":10,"frizz_risk":0,"updated_at":"2026-04-21T16:41:09.467176+05:30"},{"city":"Aligarh","state":"Uttar Pradesh","latitude":27.8974,"longitude":78.088,"temp":39.3,"humidity":14,"rain":0.0,"pressure":981.0,"uv_index":7.45,"wind_gusts":38.9,"aqi":831,"pm10":1322.5,"pm2_5":126.2,"mosquito_risk":0,"arthritis_risk":5,"migraine_risk":10,"frizz_risk":0,"updated_at":"2026-04-21T16:41:09.467182+05:30"},{"city":"Moradabad","state":"Uttar Pradesh","latitude":28.8386,"longitude":78.7733,"temp":37.9,"humidity":14,"rain":0.0,"pressure":978.8,"uv_index":7.4,"wind_gusts":38.5,"aqi":114,"pm10":121.5,"pm2_5":25.7,"mosquito_risk":0,"arthritis_risk":5,"migraine_risk":10,"frizz_risk":0,"updated_at":"2026-04-21T16:41:09.467189+05:30"},{"city":"Saharanpur","state":"Uttar Pradesh","latitude":29.9637,"longitude":77.546,"temp":36.7,"humidity":17,"rain":0.0,"pressure":971.6,"uv_index":7.0,"wind_gusts":31.7,"aqi":121,"pm10":129.5,"pm2_5":24.2,"mosquito_risk":0,"arthritis_risk":5,"migraine_risk":10,"frizz_risk":0,"updated_at":"2026-04-21T16:41:09.467195+05:30"},{"city":"Jhansi","state":"Uttar Pradesh","latitude":25.4484,"longitude":78.5685,"temp":41.2,"humidity":11,"rain":0.0,"pressure":972.9,"uv_index":8.25,"wind_gusts":33.8,"aqi":124,"pm10":143.0,"pm2_5":26.3,"mosquito_risk":0,"arthritis_risk":5,"migraine_risk":10,"frizz_risk":0,"updated_at":"2026-04-21T16:41:12.816127+05:30"},{"city":"Surat","state":"Gujarat","latitude":21.1702,"longitude":72.8311,"temp":33.6,"humidity":41,"rain":0.0,"pressure":1003.9,"uv_index":7.85,"wind_gusts":27.4,"aqi":103,"pm10":50.8,"pm2_5":38.3,"mosquito_risk":0,"arthritis_risk":5,"migraine_risk":4,"frizz_risk":1,"updated_at":"2026-04-21T16:41:12.816159+05:30"},{"city":"Vadodara","state":"Gujarat","latitude":22.3072,"longitude":73.1812,"temp":40.5,"humidity":15,"rain":0.0,"pressure":1001.2,"uv_index":8.15,"wind_gusts":28.8,"aqi":105,"pm10":23.1,"pm2_5":13.3,"mosquito_risk":0,"arthritis_risk":5,"migraine_risk":7,"frizz_risk":0,"updated_at":"2026-04-21T16:41:12.816168+05:30"},{"city":"Rajkot","state":"Gujarat","latitude":22.3039,"longitude":70.8022,"temp":37.7,"humidity":22,"rain":0.0,"pressure":992.1,"uv_index":7.85,"wind_gusts":30.2,"aqi":72,"pm10":29.8,"pm2_5":10.9,"mosquito_risk":0,"arthritis_risk":5,"migraine_risk":10,"frizz_risk":0,"updated_at":"2026-04-21T16:41:12.816176+05:30"},{"city":"Thane","state":"Maharashtra","latitude":19.2183,"longitude":72.9781,"temp":33.0,"humidity":53,"rain":0.0,"pressure":1004.4,"uv_index":7.65,"wind_gusts":33.8,"aqi":173,"pm10":39.1,"pm2_5":27.0,"mosquito_risk":0,"arthritis_risk":5,"migraine_risk":4,"frizz_risk":1,"updated_at":"2026-04-21T16:41:12.816184+05:30"},{"city":"Nagpur","state":"Maharashtra","latitude":21.1458,"longitude":79.0882,"temp":40.1,"humidity":16,"rain":0.0,"pressure":968.7,"uv_index":8.95,"wind_gusts":28.1,"aqi":148,"pm10":24.8,"pm2_5":19.7,"mosquito_risk":0,"arthritis_risk":5,"migraine_risk":10,"frizz_risk":0,"updated_at":"2026-04-21T16:41:12.816191+05:30"},{"city":"Nashik","state":"Maharashtra","latitude":19.9975,"longitude":73.7898,"temp":35.7,"humidity":25,"rain":0.0,"pressure":943.4,"uv_index":8.3,"wind_gusts":39.2,"aqi":120,"pm10":36.8,"pm2_5":26.6,"mosquito_risk":0,"arthritis_risk":5,"migraine_risk":10,"frizz_risk":0,"updated_at":"2026-04-21T16:41:12.816198+05:30"},{"city":"Aurangabad","state":"Maharashtra","latitude":19.8762,"longitude":75.3433,"temp":37.9,"humidity":17,"rain":0.0,"pressure":941.4,"uv_index":8.2,"wind_gusts":35.3,"aqi":130,"pm10":32.9,"pm2_5":25.9,"mosquito_risk":0,"arthritis_risk":5,"migraine_risk":10,"frizz_risk":0,"updated_at":"2026-04-21T16:41:12.816204+05:30"},{"city":"Solapur","state":"Maharashtra","latitude":17.6599,"longitude":75.9064,"temp":38.6,"humidity":20,"rain":0.0,"pressure":953.4,"uv_index":9.0,"wind_gusts":32.0,"aqi":159,"pm10":36.1,"pm2_5":30.4,"mosquito_risk":0,"arthritis_risk":5,"migraine_risk":10,"frizz_risk":0,"updated_at":"2026-04-21T16:41:12.816211+05:30"},{"city":"Kolhapur","state":"Maharashtra","latitude":16.705,"longitude":74.2433,"temp":32.2,"humidity":50,"rain":0.0,"pressure":945.7,"uv_index":9.05,"wind_gusts":39.6,"aqi":147,"pm10":42.7,"pm2_5":36.2,"mosquito_risk":0,"arthritis_risk":5,"migraine_risk":7,"frizz_risk":1,"updated_at":"2026-04-21T16:41:12.816217+05:30"},{"city":"Goa","state":"Goa","latitude":15.2993,"longitude":74.124,"temp":30.9,"humidity":72,"rain":0.0,"pressure":994.4,"uv_index":9.05,"wind_gusts":26.3,"aqi":76,"pm10":28.7,"pm2_5":18.9,"mosquito_risk":3,"arthritis_risk":5,"migraine_risk":7,"frizz_risk":1,"updated_at":"2026-04-21T16:41:12.816223+05:30"},{"city":"Jodhpur","state":"Rajasthan","latitude":26.2389,"longitude":73.0243,"temp":39.7,"humidity":16,"rain":0.0,"pressure":980.1,"uv_index":8.1,"wind_gusts":31.0,"aqi":116,"pm10":195.6,"pm2_5":28.7,"mosquito_risk":0,"arthritis_risk":5,"migraine_risk":10,"frizz_risk":0,"updated_at":"2026-04-21T16:41:12.816230+05:30"},{"city":"Udaipur","state":"Rajasthan","latitude":24.5854,"longitude":73.7125,"temp":36.4,"humidity":11,"rain":0.0,"pressure":945.6,"uv_index":8.7,"wind_gusts":46.1,"aqi":76,"pm10":8.4,"pm2_5":6.3,"mosquito_risk":0,"arthritis_risk":5,"migraine_risk":10,"frizz_risk":0,"updated_at":"2026-04-21T16:41:12.816237+05:30"},{"city":"Kota","state":"Rajasthan","latitude":25.2138,"longitude":75.8648,"temp":40.9,"humidity":12,"rain":0.0,"pressure":974.6,"uv_index":8.2,"wind_gusts":31.7,"aqi":86,"pm10":48.7,"pm2_5":13.5,"mosquito_risk":0,"arthritis_risk":5,"migraine_risk":10,"frizz_risk":0,"updated_at":"2026-04-21T16:41:12.816243+05:30"},{"city":"Bikaner","state":"Rajasthan","latitude":28.0229,"longitude":73.3119,"temp":40.2,"humidity":13,"rain":0.0,"pressure":978.6,"uv_index":8.05,"wind_gusts":27.7,"aqi":97,"pm10":35.7,"pm2_5":11.1,"mosquito_risk":0,"arthritis_risk":5,"migraine_risk":10,"frizz_risk":0,"updated_at":"2026-04-21T16:41:12.816249+05:30"},{"city":"Ajmer","state":"Rajasthan","latitude":26.4499,"longitude":74.6399,"temp":37.0,"humidity":18,"rain":0.0,"pressure":952.5,"uv_index":8.15,"wind_gusts":34.6,"aqi":83,"pm10":106.9,"pm2_5":21.2,"mosquito_risk":0,"arthritis_risk":5,"migraine_risk":10,"frizz_risk":0,"updated_at":"2026-04-21T16:41:12.816255+05:30"},{"city":"Gwalior","state":"Madhya Pradesh","latitude":26.2183,"longitude":78.1828,"temp":38.9,"humidity":16,"rain":0.0,"pressure":979.2,"uv_index":7.95,"wind_gusts":32.4,"aqi":216,"pm10":57.7,"pm2_5":13.4,"mosquito_risk":0,"arthritis_risk":5,"migraine_risk":10,"frizz_risk":0,"updated_at":"2026-04-21T16:41:12.816262+05:30"},{"city":"Indore","state":"Madhya Pradesh","latitude":22.7196,"longitude":75.8577,"temp":36.9,"humidity":18,"rain":0.0,"pressure":946.2,"uv_index":8.6,"wind_gusts":39.2,"aqi":90,"pm10":20.4,"pm2_5":14.2,"mosquito_risk":0,"arthritis_risk":5,"migraine_risk":10,"frizz_risk":0,"updated_at":"2026-04-21T16:41:12.816269+05:30"},{"city":"Bhopal","state":"Madhya Pradesh","latitude":23.2599,"longitude":77.4126,"temp":38.9,"humidity":12,"rain":0.0,"pressure":950.8,"uv_index":8.6,"wind_gusts":35.6,"aqi":89,"pm10":17.9,"pm2_5":12.3,"mosquito_risk":0,"arthritis_risk":5,"migraine_risk":10,"frizz_risk":0,"updated_at":"2026-04-21T16:41:12.816275+05:30"},{"city":"Jabalpur","state":"Madhya Pradesh","latitude":23.1815,"longitude":79.9864,"temp":38.8,"humidity":14,"rain":0.0,"pressure":957.7,"uv_index":8.8,"wind_gusts":35.3,"aqi":116,"pm10":46.7,"pm2_5":14.3,"mosquito_risk":0,"arthritis_risk":5,"migraine_risk":10,"frizz_risk":0,"updated_at":"2026-04-21T16:41:12.816281+05:30"},{"city":"Ujjain","state":"Madhya Pradesh","latitude":23.1765,"longitude":75.7885,"temp":37.6,"humidity":16,"rain":0.0,"pressure":952.0,"uv_index":8.55,"wind_gusts":41.0,"aqi":79,"pm10":19.3,"pm2_5":13.5,"mosquito_risk":0,"arthritis_risk":5,"migraine_risk":10,"frizz_risk":0,"updated_at":"2026-04-21T16:41:12.816288+05:30"},{"city":"Visakhapatnam","state":"Andhra Pradesh","latitude":17.6868,"longitude":83.2185,"temp":33.1,"humidity":62,"rain":0.0,"pressure":1000.1,"uv_index":9.15,"wind_gusts":40.7,"aqi":58,"pm10":20.1,"pm2_5":15.3,"mosquito_risk":3,"arthritis_risk":5,"migraine_risk":4,"frizz_risk":1,"updated_at":"2026-04-21T16:41:12.816294+05:30"},{"city":"Vijayawada","state":"Andhra Pradesh","latitude":16.5062,"longitude":80.648,"temp":38.5,"humidity":34,"rain":0.0,"pressure":997.2,"uv_index":8.95,"wind_gusts":30.2,"aqi":56,"pm10":24.9,"pm2_5":20.0,"mosquito_risk":0,"arthritis_risk":5,"migraine_risk":10,"frizz_risk":1,"updated_at":"2026-04-21T16:41:12.816301+05:30"},{"city":"Guntur","state":"Andhra Pradesh","latitude":16.3067,"longitude":80.4365,"temp":38.2,"humidity":36,"rain":0.0,"pressure":998.6,"uv_index":8.85,"wind_gusts":32.4,"aqi":75,"pm10":28.6,"pm2_5":22.9,"mosquito_risk":0,"arthritis_risk":5,"migraine_risk":10,"frizz_risk":1,"updated_at":"2026-04-21T16:41:12.816307+05:30"},{"city":"Nellore","state":"Andhra Pradesh","latitude":14.4426,"longitude":79.9865,"temp":35.3,"humidity":51,"rain":0.0,"pressure":1000.9,"uv_index":9.3,"wind_gusts":37.8,"aqi":59,"pm10":19.8,"pm2_5":15.7,"mosquito_risk":0,"arthritis_risk":5,"migraine_risk":7,"frizz_risk":1,"updated_at":"2026-04-21T16:41:12.816315+05:30"},{"city":"Kurnool","state":"Andhra Pradesh","latitude":15.8281,"longitude":78.0373,"temp":38.8,"humidity":29,"rain":0.0,"pressure":972.2,"uv_index":9.25,"wind_gusts":51.5,"aqi":131,"pm10":39.2,"pm2_5":32.6,"mosquito_risk":0,"arthritis_risk":5,"migraine_risk":10,"frizz_risk":1,"updated_at":"2026-04-21T16:41:12.816322+05:30"},{"city":"Kakinada","state":"Andhra Pradesh","latitude":16.9891,"longitude":82.2475,"temp":37.4,"humidity":40,"rain":0.0,"pressure":1002.5,"uv_index":9.2,"wind_gusts":25.9,"aqi":47,"pm10":15.7,"pm2_5":10.2,"mosquito_risk":0,"arthritis_risk":5,"migraine_risk":7,"frizz_risk":1,"updated_at":"2026-04-21T16:41:12.816329+05:30"},{"city":"Tirupati","state":"Andhra Pradesh","latitude":13.6288,"longitude":79.4192,"temp":38.0,"humidity":25,"rain":0.0,"pressure":986.8,"uv_index":9.35,"wind_gusts":33.5,"aqi":67,"pm10":19.4,"pm2_5":15.8,"mosquito_risk":0,"arthritis_risk":5,"migraine_risk":10,"frizz_risk":0,"updated_at":"2026-04-21T16:41:12.816335+05:30"},{"city":"Warangal","state":"Telangana","latitude":17.9689,"longitude":79.5941,"temp":37.5,"humidity":34,"rain":0.0,"pressure":974.4,"uv_index":9.15,"wind_gusts":30.2,"aqi":119,"pm10":38.5,"pm2_5":33.2,"mosquito_risk":0,"arthritis_risk":5,"migraine_risk":10,"frizz_risk":1,"updated_at":"2026-04-21T16:41:12.816341+05:30"},{"city":"Nizamabad","state":"Telangana","latitude":18.6725,"longitude":78.0941,"temp":38.6,"humidity":22,"rain":0.0,"pressure":960.8,"uv_index":9.1,"wind_gusts":23.4,"aqi":133,"pm10":29.7,"pm2_5":24.8,"mosquito_risk":0,"arthritis_risk":5,"migraine_risk":10,"frizz_risk":0,"updated_at":"2026-04-21T16:41:12.816347+05:30"},{"city":"Mysore","state":"Karnataka","latitude":12.2958,"longitude":76.6396,"temp":36.4,"humidity":16,"rain":0.0,"pressure":925.1,"uv_index":9.5,"wind_gusts":40.7,"aqi":136,"pm10":22.8,"pm2_5":18.5,"mosquito_risk":0,"arthritis_risk":5,"migraine_risk":10,"frizz_risk":0,"updated_at":"2026-04-21T16:41:12.816354+05:30"},{"city":"Mangalore","state":"Karnataka","latitude":12.9141,"longitude":74.856,"temp":29.2,"humidity":83,"rain":0.0,"pressure":1002.6,"uv_index":9.1,"wind_gusts":24.8,"aqi":83,"pm10":35.3,"pm2_5":26.9,"mosquito_risk":7,"arthritis_risk":5,"migraine_risk":4,"frizz_risk":1,"updated_at":"2026-04-21T16:41:12.816360+05:30"},{"city":"Hubli-Dharwad","state":"Karnataka","latitude":15.3647,"longitude":75.124,"temp":32.5,"humidity":46,"rain":0.0,"pressure":938.3,"uv_index":9.25,"wind_gusts":29.5,"aqi":142,"pm10":41.0,"pm2_5":32.9,"mosquito_risk":0,"arthritis_risk":5,"migraine_risk":7,"frizz_risk":1,"updated_at":"2026-04-21T16:41:12.816366+05:30"},{"city":"Belgaum","state":"Karnataka","latitude":15.8497,"longitude":74.4977,"temp":29.8,"humidity":57,"rain":0.0,"pressure":923.8,"uv_index":9.25,"wind_gusts":29.9,"aqi":158,"pm10":38.0,"pm2_5":31.1,"mosquito_risk":4,"arthritis_risk":5,"migraine_risk":7,"frizz_risk":1,"updated_at":"2026-04-21T16:41:16.161379+05:30"},{"city":"Coimbatore","state":"Tamil Nadu","latitude":11.0168,"longitude":76.9558,"temp":35.7,"humidity":34,"rain":0.0,"pressure":957.5,"uv_index":9.4,"wind_gusts":52.9,"aqi":123,"pm10":19.2,"pm2_5":15.5,"mosquito_risk":0,"arthritis_risk":5,"migraine_risk":10,"frizz_risk":1,"updated_at":"2026-04-21T16:41:16.161411+05:30"},{"city":"Madurai","state":"Tamil Nadu","latitude":9.9252,"longitude":78.1198,"temp":38.4,"humidity":28,"rain":0.0,"pressure":987.4,"uv_index":9.15,"wind_gusts":41.8,"aqi":89,"pm10":15.3,"pm2_5":12.4,"mosquito_risk":0,"arthritis_risk":5,"migraine_risk":10,"frizz_risk":1,"updated_at":"2026-04-21T16:41:16.161421+05:30"},{"city":"Trichy","state":"Tamil Nadu","latitude":10.7905,"longitude":78.7047,"temp":37.7,"humidity":32,"rain":0.0,"pressure":994.3,"uv_index":9.3,"wind_gusts":28.4,"aqi":67,"pm10":10.0,"pm2_5":8.4,"mosquito_risk":0,"arthritis_risk":5,"migraine_risk":10,"frizz_risk":1,"updated_at":"2026-04-21T16:41:16.161429+05:30"},{"city":"Salem","state":"Tamil Nadu","latitude":11.6643,"longitude":78.146,"temp":38.7,"humidity":19,"rain":0.0,"pressure":972.4,"uv_index":9.4,"wind_gusts":20.5,"aqi":109,"pm10":17.6,"pm2_5":13.2,"mosquito_risk":0,"arthritis_risk":5,"migraine_risk":10,"frizz_risk":0,"updated_at":"2026-04-21T16:41:16.161436+05:30"},{"city":"Tirunelveli","state":"Tamil Nadu","latitude":8.7139,"longitude":77.7567,"temp":34.8,"humidity":48,"rain":0.0,"pressure":998.5,"uv_index":8.75,"wind_gusts":53.6,"aqi":86,"pm10":18.3,"pm2_5":16.2,"mosquito_risk":0,"arthritis_risk":5,"migraine_risk":7,"frizz_risk":1,"updated_at":"2026-04-21T16:41:16.161444+05:30"},{"city":"Vellore","state":"Tamil Nadu","latitude":12.9165,"longitude":79.1325,"temp":37.1,"humidity":23,"rain":0.0,"pressure":980.0,"uv_index":9.4,"wind_gusts":28.8,"aqi":73,"pm10":15.3,"pm2_5":12.0,"mosquito_risk":0,"arthritis_risk":5,"migraine_risk":10,"frizz_risk":0,"updated_at":"2026-04-21T16:41:16.161451+05:30"},{"city":"Erode","state":"Tamil Nadu","latitude":11.341,"longitude":77.7172,"temp":39.8,"humidity":21,"rain":0.0,"pressure":983.5,"uv_index":9.35,"wind_gusts":24.8,"aqi":85,"pm10":16.3,"pm2_5":11.8,"mosquito_risk":0,"arthritis_risk":5,"migraine_risk":10,"frizz_risk":0,"updated_at":"2026-04-21T16:41:16.161458+05:30"},{"city":"Kochi","state":"Kerala","latitude":9.9312,"longitude":76.2673,"temp":29.8,"humidity":80,"rain":0.0,"pressure":1004.4,"uv_index":9.05,"wind_gusts":31.7,"aqi":73,"pm10":22.6,"pm2_5":17.5,"mosquito_risk":7,"arthritis_risk":5,"migraine_risk":4,"frizz_risk":1,"updated_at":"2026-04-21T16:41:16.161465+05:30"},{"city":"Thiruvananthapuram","state":"Kerala","latitude":8.5241,"longitude":76.9366,"temp":29.7,"humidity":81,"rain":0.0,"pressure":1004.0,"uv_index":8.7,"wind_gusts":30.2,"aqi":55,"pm10":17.6,"pm2_5":12.1,"mosquito_risk":7,"arthritis_risk":5,"migraine_risk":4,"frizz_risk":1,"updated_at":"2026-04-21T16:41:16.161473+05:30"},{"city":"Kozhikode","state":"Kerala","latitude":11.2588,"longitude":75.7804,"temp":31.0,"humidity":73,"rain":0.0,"pressure":1003.6,"uv_index":9.1,"wind_gusts":31.7,"aqi":68,"pm10":32.1,"pm2_5":21.0,"mosquito_risk":3,"arthritis_risk":5,"migraine_risk":4,"frizz_risk":1,"updated_at":"2026-04-21T16:41:16.161479+05:30"},{"city":"Thrissur","state":"Kerala","latitude":10.5276,"longitude":76.2144,"temp":32.7,"humidity":64,"rain":0.0,"pressure":1002.9,"uv_index":9.05,"wind_gusts":38.2,"aqi":74,"pm10":22.7,"pm2_5":17.6,"mosquito_risk":3,"arthritis_risk":5,"migraine_risk":4,"frizz_risk":1,"updated_at":"2026-04-21T16:41:16.161486+05:30"},{"city":"Kannur","state":"Kerala","latitude":11.8745,"longitude":75.3704,"temp":31.5,"humidity":69,"rain":0.0,"pressure":1003.0,"uv_index":9.1,"wind_gusts":32.8,"aqi":74,"pm10":31.7,"pm2_5":22.9,"mosquito_risk":3,"arthritis_risk":5,"migraine_risk":4,"frizz_risk":1,"updated_at":"2026-04-21T16:41:16.161493+05:30"},{"city":"Patna","state":"Bihar","latitude":25.5941,"longitude":85.1376,"temp":40.4,"humidity":14,"rain":0.0,"pressure":993.2,"uv_index":8.7,"wind_gusts":37.4,"aqi":141,"pm10":124.8,"pm2_5":29.3,"mosquito_risk":0,"arthritis_risk":5,"migraine_risk":10,"frizz_risk":0,"updated_at":"2026-04-21T16:41:16.161499+05:30"},{"city":"Gaya","state":"Bihar","latitude":24.7914,"longitude":85.0002,"temp":40.6,"humidity":11,"rain":0.0,"pressure":987.4,"uv_index":8.75,"wind_gusts":33.8,"aqi":155,"pm10":141.1,"pm2_5":34.3,"mosquito_risk":0,"arthritis_risk":5,"migraine_risk":10,"frizz_risk":0,"updated_at":"2026-04-21T16:41:16.161505+05:30"},{"city":"Muzaffarpur","state":"Bihar","latitude":26.1209,"longitude":85.3647,"temp":40.1,"humidity":14,"rain":0.0,"pressure":992.7,"uv_index":8.65,"wind_gusts":36.7,"aqi":132,"pm10":107.1,"pm2_5":26.7,"mosquito_risk":0,"arthritis_risk":5,"migraine_risk":10,"frizz_risk":0,"updated_at":"2026-04-21T16:41:16.161512+05:30"},{"city":"Bhagalpur","state":"Bihar","latitude":25.2425,"longitude":87.0117,"temp":38.0,"humidity":26,"rain":0.0,"pressure":993.8,"uv_index":8.7,"wind_gusts":27.4,"aqi":159,"pm10":80.8,"pm2_5":24.3,"mosquito_risk":0,"arthritis_risk":5,"migraine_risk":10,"frizz_risk":0,"updated_at":"2026-04-21T16:41:16.161517+05:30"},{"city":"Ranchi","state":"Jharkhand","latitude":23.3441,"longitude":85.3096,"temp":36.5,"humidity":18,"rain":0.0,"pressure":933.9,"uv_index":9.25,"wind_gusts":34.2,"aqi":155,"pm10":27.0,"pm2_5":21.8,"mosquito_risk":0,"arthritis_risk":5,"migraine_risk":10,"frizz_risk":0,"updated_at":"2026-04-21T16:41:16.161524+05:30"},{"city":"Jamshedpur","state":"Jharkhand","latitude":22.8046,"longitude":86.2029,"temp":39.4,"humidity":23,"rain":0.0,"pressure":984.8,"uv_index":9.05,"wind_gusts":22.7,"aqi":196,"pm10":37.5,"pm2_5":25.4,"mosquito_risk":0,"arthritis_risk":5,"migraine_risk":10,"frizz_risk":0,"updated_at":"2026-04-21T16:41:16.161530+05:30"},{"city":"Dhanbad","state":"Jharkhand","latitude":23.7957,"longitude":86.4304,"temp":41.1,"humidity":12,"rain":0.0,"pressure":973.1,"uv_index":9.05,"wind_gusts":28.1,"aqi":156,"pm10":58.7,"pm2_5":25.2,"mosquito_risk":0,"arthritis_risk":5,"migraine_risk":10,"frizz_risk":0,"updated_at":"2026-04-21T16:41:16.161536+05:30"},{"city":"Bokaro","state":"Jharkhand","latitude":23.6693,"longitude":86.1511,"temp":41.0,"humidity":11,"rain":0.0,"pressure":977.0,"uv_index":9.05,"wind_gusts":34.6,"aqi":160,"pm10":49.6,"pm2_5":24.0,"mosquito_risk":0,"arthritis_risk":5,"migraine_risk":10,"frizz_risk":0,"updated_at":"2026-04-21T16:41:16.161543+05:30"},{"city":"Bhubaneswar","state":"Odisha","latitude":20.2961,"longitude":85.8245,"temp":32.9,"humidity":66,"rain":0.0,"pressure":997.5,"uv_index":9.15,"wind_gusts":27.7,"aqi":161,"pm10":38.4,"pm2_5":32.1,"mosquito_risk":3,"arthritis_risk":5,"migraine_risk":7,"frizz_risk":1,"updated_at":"2026-04-21T16:41:16.161548+05:30"},{"city":"Cuttack","state":"Odisha","latitude":20.4625,"longitude":85.8828,"temp":35.2,"humidity":53,"rain":0.0,"pressure":1000.0,"uv_index":9.15,"wind_gusts":25.2,"aqi":161,"pm10":38.4,"pm2_5":32.1,"mosquito_risk":0,"arthritis_risk":5,"migraine_risk":7,"frizz_risk":1,"updated_at":"2026-04-21T16:41:16.161555+05:30"},{"city":"Rourkela","state":"Odisha","latitude":22.2604,"longitude":84.8536,"temp":39.7,"humidity":21,"rain":0.0,"pressure":979.0,"uv_index":8.95,"wind_gusts":31.0,"aqi":205,"pm10":36.9,"pm2_5":33.6,"mosquito_risk":0,"arthritis_risk":5,"migraine_risk":10,"frizz_risk":0,"updated_at":"2026-04-21T16:41:16.161561+05:30"},{"city":"Raipur","state":"Chhattisgarh","latitude":21.2514,"longitude":81.6296,"temp":40.2,"humidity":17,"rain":0.0,"pressure":969.7,"uv_index":9.0,"wind_gusts":33.5,"aqi":148,"pm10":31.3,"pm2_5":27.2,"mosquito_risk":0,"arthritis_risk":5,"migraine_risk":10,"frizz_risk":0,"updated_at":"2026-04-21T16:41:16.161567+05:30"},{"city":"Bhilai","state":"Chhattisgarh","latitude":21.1938,"longitude":81.3509,"temp":40.1,"humidity":18,"rain":0.0,"pressure":970.1,"uv_index":9.0,"wind_gusts":31.0,"aqi":144,"pm10":29.5,"pm2_5":25.3,"mosquito_risk":0,"arthritis_risk":5,"migraine_risk":10,"frizz_risk":0,"updated_at":"2026-04-21T16:41:16.161573+05:30"},{"city":"Guwahati","state":"Assam","latitude":26.1158,"longitude":91.7086,"temp":29.8,"humidity":76,"rain":0.0,"pressure":994.6,"uv_index":8.6,"wind_gusts":44.6,"aqi":99,"pm10":53.1,"pm2_5":35.5,"mosquito_risk":7,"arthritis_risk":5,"migraine_risk":7,"frizz_risk":1,"updated_at":"2026-04-21T16:41:16.161579+05:30"},{"city":"Agartala","state":"Tripura","latitude":23.8315,"longitude":91.2868,"temp":32.9,"humidity":62,"rain":0.0,"pressure":1000.7,"uv_index":8.8,"wind_gusts":33.5,"aqi":84,"pm10":36.2,"pm2_5":32.0,"mosquito_risk":3,"arthritis_risk":5,"migraine_risk":4,"frizz_risk":1,"updated_at":"2026-04-21T16:41:16.161585+05:30"},{"city":"Shillong","state":"Meghalaya","latitude":25.5788,"longitude":91.8933,"temp":19.9,"humidity":76,"rain":0.0,"pressure":853.8,"uv_index":9.05,"wind_gusts":70.6,"aqi":69,"pm10":49.1,"pm2_5":31.1,"mosquito_risk":3,"arthritis_risk":5,"migraine_risk":7,"frizz_risk":0,"updated_at":"2026-04-21T16:41:16.161591+05:30"},{"city":"Imphal","state":"Manipur","latitude":24.817,"longitude":93.9368,"temp":23.3,"humidity":77,"rain":0.0,"pressure":919.9,"uv_index":9.2,"wind_gusts":83.2,"aqi":153,"pm10":55.4,"pm2_5":44.9,"mosquito_risk":3,"arthritis_risk":5,"migraine_risk":7,"frizz_risk":1,"updated_at":"2026-04-21T16:41:16.161598+05:30"},{"city":"Aizawl","state":"Mizoram","latitude":23.7271,"longitude":92.7176,"temp":24.9,"humidity":73,"rain":0.0,"pressure":890.8,"uv_index":9.05,"wind_gusts":65.2,"aqi":102,"pm10":50.9,"pm2_5":41.1,"mosquito_risk":3,"arthritis_risk":5,"migraine_risk":7,"frizz_risk":1,"updated_at":"2026-04-21T16:41:16.161604+05:30"},{"city":"Kohima","state":"Nagaland","latitude":25.6701,"longitude":94.1077,"temp":22.5,"humidity":54,"rain":0.0,"pressure":852.5,"uv_index":9.15,"wind_gusts":107.6,"aqi":122,"pm10":59.4,"pm2_5":34.2,"mosquito_risk":0,"arthritis_risk":5,"migraine_risk":7,"frizz_risk":0,"updated_at":"2026-04-21T16:41:16.161610+05:30"},{"city":"Gangtok","state":"Sikkim","latitude":27.3314,"longitude":88.6138,"temp":22.0,"humidity":65,"rain":0.0,"pressure":835.6,"uv_index":9.0,"wind_gusts":18.4,"aqi":116,"pm10":31.3,"pm2_5":16.5,"mosquito_risk":3,"arthritis_risk":5,"migraine_risk":7,"frizz_risk":0,"updated_at":"2026-04-21T16:41:16.161616+05:30"},{"city":"Siliguri","state":"West Bengal","latitude":26.7271,"longitude":88.3953,"temp":27.3,"humidity":74,"rain":0.0,"pressure":988.1,"uv_index":8.6,"wind_gusts":31.0,"aqi":137,"pm10":72.6,"pm2_5":47.3,"mosquito_risk":7,"arthritis_risk":5,"migraine_risk":7,"frizz_risk":1,"updated_at":"2026-04-21T16:41:19.513532+05:30"},{"city":"Durgapur","state":"West Bengal","latitude":23.5204,"longitude":87.3119,"temp":36.9,"humidity":35,"rain":0.0,"pressure":988.3,"uv_index":8.95,"wind_gusts":43.6,"aqi":160,"pm10":82.7,"pm2_5":31.4,"mosquito_risk":0,"arthritis_risk":5,"migraine_risk":10,"frizz_risk":1,"updated_at":"2026-04-21T16:41:19.513566+05:30"},{"city":"Asansol","state":"West Bengal","latitude":23.6739,"longitude":86.9524,"temp":41.6,"humidity":13,"rain":0.0,"pressure":986.1,"uv_index":9.0,"wind_gusts":37.8,"aqi":156,"pm10":71.2,"pm2_5":27.8,"mosquito_risk":0,"arthritis_risk":5,"migraine_risk":10,"frizz_risk":0,"updated_at":"2026-04-21T16:41:19.513577+05:30"},{"city":"Pondicherry","state":"Puducherry","latitude":11.9139,"longitude":79.8145,"temp":35.1,"humidity":53,"rain":0.0,"pressure":1003.7,"uv_index":9.25,"wind_gusts":32.0,"aqi":100,"pm10":13.0,"pm2_5":10.5,"mosquito_risk":0,"arthritis_risk":5,"migraine_risk":7,"frizz_risk":1,"updated_at":"2026-04-21T16:41:19.513585+05:30"},{"city":"Port Blair","state":"Andaman and Nicobar Islands","latitude":11.6234,"longitude":92.7265,"temp":29.9,"humidity":71,"rain":0.0,"pressure":1004.7,"uv_index":9.1,"wind_gusts":16.2,"aqi":59,"pm10":16.1,"pm2_5":13.6,"mosquito_risk":7,"arthritis_risk":5,"migraine_risk":4,"frizz_risk":1,"updated_at":"2026-04-21T16:41:19.513593+05:30"},{"city":"Haridwar","state":"Uttarakhand","latitude":29.9457,"longitude":78.1642,"temp":36.6,"humidity":20,"rain":0.0,"pressure":970.1,"uv_index":7.1,"wind_gusts":35.3,"aqi":132,"pm10":43.7,"pm2_5":13.5,"mosquito_risk":0,"arthritis_risk":5,"migraine_risk":10,"frizz_risk":0,"updated_at":"2026-04-21T16:41:19.513601+05:30"},{"city":"Rishikesh","state":"Uttarakhand","latitude":30.0869,"longitude":78.2676,"temp":35.0,"humidity":24,"rain":0.0,"pressure":963.2,"uv_index":7.2,"wind_gusts":36.4,"aqi":123,"pm10":19.4,"pm2_5":11.1,"mosquito_risk":0,"arthritis_risk":5,"migraine_risk":7,"frizz_risk":0,"updated_at":"2026-04-21T16:41:19.513609+05:30"},{"city":"Nainital","state":"Uttarakhand","latitude":29.3919,"longitude":79.4542,"temp":27.7,"humidity":17,"rain":0.0,"pressure":807.3,"uv_index":8.05,"wind_gusts":53.6,"aqi":133,"pm10":19.5,"pm2_5":10.7,"mosquito_risk":4,"arthritis_risk":5,"migraine_risk":7,"frizz_risk":0,"updated_at":"2026-04-21T16:41:19.513617+05:30"},{"city":"Mussoorie","state":"Uttarakhand","latitude":30.4599,"longitude":78.0664,"temp":25.3,"humidity":35,"rain":0.0,"pressure":804.0,"uv_index":7.55,"wind_gusts":38.5,"aqi":129,"pm10":19.7,"pm2_5":11.8,"mosquito_risk":4,"arthritis_risk":5,"migraine_risk":7,"frizz_risk":0,"updated_at":"2026-04-21T16:41:19.513624+05:30"},{"city":"Dharamshala","state":"Himachal Pradesh","latitude":32.219,"longitude":76.3234,"temp":29.4,"humidity":23,"rain":0.0,"pressure":869.3,"uv_index":7.85,"wind_gusts":32.4,"aqi":97,"pm10":22.9,"pm2_5":8.6,"mosquito_risk":4,"arthritis_risk":5,"migraine_risk":7,"frizz_risk":0,"updated_at":"2026-04-21T16:41:19.513633+05:30"},{"city":"Dalhousie","state":"Himachal Pradesh","latitude":32.5387,"longitude":75.971,"temp":27.9,"humidity":21,"rain":0.0,"pressure":806.1,"uv_index":8.1,"wind_gusts":32.0,"aqi":115,"pm10":26.1,"pm2_5":10.7,"mosquito_risk":4,"arthritis_risk":5,"migraine_risk":7,"frizz_risk":0,"updated_at":"2026-04-21T16:41:19.513641+05:30"},{"city":"Patiala","state":"Punjab","latitude":30.3398,"longitude":76.3869,"temp":38.5,"humidity":14,"rain":0.0,"pressure":973.9,"uv_index":7.2,"wind_gusts":30.2,"aqi":410,"pm10":687.3,"pm2_5":64.3,"mosquito_risk":0,"arthritis_risk":5,"migraine_risk":10,"frizz_risk":0,"updated_at":"2026-04-21T16:41:19.513648+05:30"},{"city":"Bhatinda","state":"Punjab","latitude":30.211,"longitude":74.9455,"temp":40.0,"humidity":13,"rain":0.0,"pressure":979.4,"uv_index":7.85,"wind_gusts":34.2,"aqi":106,"pm10":43.5,"pm2_5":12.7,"mosquito_risk":0,"arthritis_risk":5,"migraine_risk":10,"frizz_risk":0,"updated_at":"2026-04-21T16:41:19.513655+05:30"},{"city":"Rohtak","state":"Haryana","latitude":28.8955,"longitude":76.6066,"temp":38.4,"humidity":15,"rain":0.0,"pressure":977.8,"uv_index":7.35,"wind_gusts":38.2,"aqi":675,"pm10":897.8,"pm2_5":86.6,"mosquito_risk":0,"arthritis_risk":5,"migraine_risk":10,"frizz_risk":0,"updated_at":"2026-04-21T16:41:19.513663+05:30"},{"city":"Panipat","state":"Haryana","latitude":29.3909,"longitude":76.9635,"temp":38.6,"humidity":14,"rain":0.0,"pressure":976.1,"uv_index":7.15,"wind_gusts":36.4,"aqi":1245,"pm10":1631.7,"pm2_5":144.8,"mosquito_risk":0,"arthritis_risk":5,"migraine_risk":10,"frizz_risk":0,"updated_at":"2026-04-21T16:41:19.513670+05:30"},{"city":"Mathura","state":"Uttar Pradesh","latitude":27.4924,"longitude":77.6737,"temp":39.8,"humidity":14,"rain":0.0,"pressure":982.4,"uv_index":7.6,"wind_gusts":32.4,"aqi":1075,"pm10":933.2,"pm2_5":85.4,"mosquito_risk":0,"arthritis_risk":5,"migraine_risk":10,"frizz_risk":0,"updated_at":"2026-04-21T16:41:19.513677+05:30"},{"city":"Vrindavan","state":"Uttar Pradesh","latitude":27.5823,"longitude":77.7027,"temp":39.9,"humidity":13,"rain":0.0,"pressure":982.7,"uv_index":7.55,"wind_gusts":35.3,"aqi":1075,"pm10":933.2,"pm2_5":85.4,"mosquito_risk":0,"arthritis_risk":5,"migraine_risk":10,"frizz_risk":0,"updated_at":"2026-04-21T16:41:19.513684+05:30"},{"city":"Ayodhya","state":"Uttar Pradesh","latitude":26.7922,"longitude":82.1998,"temp":40.6,"humidity":11,"rain":0.0,"pressure":988.9,"uv_index":8.05,"wind_gusts":49.7,"aqi":118,"pm10":51.3,"pm2_5":15.2,"mosquito_risk":0,"arthritis_risk":5,"migraine_risk":10,"frizz_risk":0,"updated_at":"2026-04-21T16:41:19.513690+05:30"},{"city":"Ratlam","state":"Madhya Pradesh","latitude":23.3315,"longitude":75.0367,"temp":36.1,"humidity":21,"rain":0.0,"pressure":953.1,"uv_index":8.4,"wind_gusts":33.8,"aqi":83,"pm10":18.9,"pm2_5":13.0,"mosquito_risk":0,"arthritis_risk":5,"migraine_risk":10,"frizz_risk":0,"updated_at":"2026-04-21T16:41:19.513697+05:30"},{"city":"Sagar","state":"Madhya Pradesh","latitude":23.8388,"longitude":78.7378,"temp":39.0,"humidity":12,"rain":0.0,"pressure":946.9,"uv_index":8.65,"wind_gusts":36.7,"aqi":103,"pm10":17.1,"pm2_5":9.7,"mosquito_risk":0,"arthritis_risk":5,"migraine_risk":10,"frizz_risk":0,"updated_at":"2026-04-21T16:41:19.513704+05:30"},{"city":"Satna","state":"Madhya Pradesh","latitude":24.6005,"longitude":80.8322,"temp":39.8,"humidity":14,"rain":0.0,"pressure":966.8,"uv_index":8.65,"wind_gusts":35.3,"aqi":121,"pm10":154.6,"pm2_5":25.3,"mosquito_risk":0,"arthritis_risk":5,"migraine_risk":10,"frizz_risk":0,"updated_at":"2026-04-21T16:41:19.513710+05:30"},{"city":"Akola","state":"Maharashtra","latitude":20.7002,"longitude":77.0082,"temp":41.2,"humidity":15,"rain":0.0,"pressure":971.0,"uv_index":8.85,"wind_gusts":27.4,"aqi":119,"pm10":25.8,"pm2_5":20.1,"mosquito_risk":0,"arthritis_risk":5,"migraine_risk":10,"frizz_risk":0,"updated_at":"2026-04-21T16:41:19.513717+05:30"},{"city":"Amravati","state":"Maharashtra","latitude":20.9374,"longitude":77.7796,"temp":40.3,"humidity":16,"rain":0.0,"pressure":963.2,"uv_index":8.8,"wind_gusts":37.8,"aqi":116,"pm10":25.0,"pm2_5":18.7,"mosquito_risk":0,"arthritis_risk":5,"migraine_risk":10,"frizz_risk":0,"updated_at":"2026-04-21T16:41:19.513724+05:30"},{"city":"Latur","state":"Maharashtra","latitude":18.4088,"longitude":76.5604,"temp":37.3,"humidity":18,"rain":0.0,"pressure":936.7,"uv_index":9.1,"wind_gusts":35.3,"aqi":161,"pm10":45.6,"pm2_5":38.8,"mosquito_risk":0,"arthritis_risk":5,"migraine_risk":10,"frizz_risk":0,"updated_at":"2026-04-21T16:41:19.513731+05:30"},{"city":"Nanded","state":"Maharashtra","latitude":19.1383,"longitude":77.3091,"temp":40.3,"humidity":15,"rain":0.0,"pressure":964.4,"uv_index":9.0,"wind_gusts":24.5,"aqi":137,"pm10":26.8,"pm2_5":21.5,"mosquito_risk":0,"arthritis_risk":5,"migraine_risk":10,"frizz_risk":0,"updated_at":"2026-04-21T16:41:19.513737+05:30"},{"city":"Gulbarga","state":"Karnataka","latitude":17.3297,"longitude":76.8343,"temp":38.7,"humidity":22,"rain":0.0,"pressure":954.6,"uv_index":9.15,"wind_gusts":29.5,"aqi":165,"pm10":37.3,"pm2_5":31.9,"mosquito_risk":0,"arthritis_risk":5,"migraine_risk":10,"frizz_risk":0,"updated_at":"2026-04-21T16:41:19.513743+05:30"},{"city":"Bidar","state":"Karnataka","latitude":17.9104,"longitude":77.5199,"temp":37.3,"humidity":22,"rain":0.0,"pressure":932.6,"uv_index":8.1,"wind_gusts":22.3,"aqi":139,"pm10":34.2,"pm2_5":28.9,"mosquito_risk":0,"arthritis_risk":5,"migraine_risk":10,"frizz_risk":0,"updated_at":"2026-04-21T16:41:19.513750+05:30"},{"city":"Hospet","state":"Karnataka","latitude":15.2689,"longitude":76.3909,"temp":36.0,"humidity":33,"rain":0.0,"pressure":952.1,"uv_index":9.3,"wind_gusts":35.3,"aqi":142,"pm10":38.9,"pm2_5":30.5,"mosquito_risk":0,"arthritis_risk":5,"migraine_risk":10,"frizz_risk":1,"updated_at":"2026-04-21T16:41:19.513756+05:30"},{"city":"Tirupur","state":"Tamil Nadu","latitude":11.1085,"longitude":77.3411,"temp":38.9,"humidity":23,"rain":0.0,"pressure":970.2,"uv_index":9.45,"wind_gusts":40.3,"aqi":109,"pm10":17.6,"pm2_5":13.2,"mosquito_risk":0,"arthritis_risk":5,"migraine_risk":10,"frizz_risk":0,"updated_at":"2026-04-21T16:41:19.513762+05:30"},{"city":"Alappuzha","state":"Kerala","latitude":9.4981,"longitude":76.3388,"temp":29.8,"humidity":82,"rain":0.0,"pressure":1004.5,"uv_index":8.4,"wind_gusts":29.2,"aqi":68,"pm10":24.5,"pm2_5":17.6,"mosquito_risk":7,"arthritis_risk":5,"migraine_risk":4,"frizz_risk":1,"updated_at":"2026-04-21T16:41:19.513768+05:30"},{"city":"Munnar","state":"Kerala","latitude":10.0889,"longitude":77.0595,"temp":26.7,"humidity":72,"rain":0.0,"pressure":855.6,"uv_index":9.65,"wind_gusts":40.0,"aqi":88,"pm10":19.4,"pm2_5":15.4,"mosquito_risk":7,"arthritis_risk":5,"migraine_risk":7,"frizz_risk":1,"updated_at":"2026-04-21T16:41:19.513795+05:30"},{"city":"Silchar","state":"Assam","latitude":24.8333,"longitude":92.7789,"temp":28.8,"humidity":75,"rain":0.0,"pressure":1000.9,"uv_index":8.8,"wind_gusts":47.5,"aqi":151,"pm10":59.8,"pm2_5":48.7,"mosquito_risk":7,"arthritis_risk":5,"migraine_risk":4,"frizz_risk":1,"updated_at":"2026-04-21T16:41:19.513805+05:30"},{"city":"Dibrugarh","state":"Assam","latitude":27.4728,"longitude":94.912,"temp":24.9,"humidity":83,"rain":0.0,"pressure":990.3,"uv_index":7.95,"wind_gusts":34.6,"aqi":77,"pm10":16.8,"pm2_5":12.4,"mosquito_risk":3,"arthritis_risk":5,"migraine_risk":7,"frizz_risk":1,"updated_at":"2026-04-21T16:41:19.513812+05:30"}]