[{"city":"Delhi","state":"Delhi","latitude":28.6139,"longitude":77.209,"temp":21.8,"humidity":60,"rain":0.0,"pressure":984.4,"uv_index":6.15,"wind_gusts":38.9,"aqi":162,"pm10":136.4,"pm2_5":41.4,"mosquito_risk":0,"arthritis_risk":5,"migraine_risk":7,"frizz_risk":0,"updated_at":"2026-04-07T02:10:22.297534+05:30"},{"city":"Mumbai","state":"Maharashtra","latitude":19.076,"longitude":72.8777,"temp":27.5,"humidity":68,"rain":0.0,"pressure":1010.9,"uv_index":7.95,"wind_gusts":22.0,"aqi":63,"pm10":31.1,"pm2_5":16.6,"mosquito_risk":7,"arthritis_risk":0,"migraine_risk":4,"frizz_risk":1,"updated_at":"2026-04-07T02:10:22.297576+05:30"},{"city":"Bangalore","state":"Karnataka","latitude":12.9716,"longitude":77.5946,"temp":23.7,"humidity":76,"rain":0.0,"pressure":912.3,"uv_index":9.6,"wind_gusts":28.1,"aqi":61,"pm10":17.1,"pm2_5":14.8,"mosquito_risk":3,"arthritis_risk":5,"migraine_risk":7,"frizz_risk":1,"updated_at":"2026-04-07T02:10:22.297591+05:30"},{"city":"Hyderabad","state":"Telangana","latitude":17.385,"longitude":78.4867,"temp":25.9,"humidity":79,"rain":0.0,"pressure":953.0,"uv_index":9.2,"wind_gusts":32.8,"aqi":89,"pm10":32.1,"pm2_5":26.8,"mosquito_risk":7,"arthritis_risk":5,"migraine_risk":7,"frizz_risk":1,"updated_at":"2026-04-07T02:10:22.297600+05:30"},{"city":"Chennai","state":"Tamil Nadu","latitude":13.0827,"longitude":80.2707,"temp":28.2,"humidity":90,"rain":0.0,"pressure":1007.5,"uv_index":9.35,"wind_gusts":34.9,"aqi":61,"pm10":23.3,"pm2_5":17.5,"mosquito_risk":7,"arthritis_risk":5,"migraine_risk":4,"frizz_risk":1,"updated_at":"2026-04-07T02:10:22.297608+05:30"},{"city":"Kolkata","state":"West Bengal","latitude":22.5726,"longitude":88.3639,"temp":24.8,"humidity":90,"rain":0.0,"pressure":1006.1,"uv_index":8.45,"wind_gusts":20.5,"aqi":147,"pm10":60.1,"pm2_5":57.3,"mosquito_risk":3,"arthritis_risk":5,"migraine_risk":4,"frizz_risk":1,"updated_at":"2026-04-07T02:10:22.297615+05:30"},{"city":"Pune","state":"Maharashtra","latitude":18.5204,"longitude":73.8567,"temp":21.0,"humidity":88,"rain":0.0,"pressure":949.7,"uv_index":8.55,"wind_gusts":37.4,"aqi":110,"pm10":25.6,"pm2_5":21.2,"mosquito_risk":3,"arthritis_risk":5,"migraine_risk":7,"frizz_risk":1,"updated_at":"2026-04-07T02:10:22.297625+05:30"},{"city":"Ahmedabad","state":"Gujarat","latitude":23.0225,"longitude":72.5714,"temp":24.8,"humidity":64,"rain":0.0,"pressure":1003.7,"uv_index":7.9,"wind_gusts":45.7,"aqi":57,"pm10":39.3,"pm2_5":16.1,"mosquito_risk":3,"arthritis_risk":5,"migraine_risk":4,"frizz_risk":1,"updated_at":"2026-04-07T02:10:22.297632+05:30"},{"city":"Jaipur","state":"Rajasthan","latitude":26.9124,"longitude":75.7873,"temp":21.2,"humidity":59,"rain":0.0,"pressure":960.3,"uv_index":4.6,"wind_gusts":43.2,"aqi":110,"pm10":249.6,"pm2_5":45.4,"mosquito_risk":0,"arthritis_risk":5,"migraine_risk":3,"frizz_risk":0,"updated_at":"2026-04-07T02:10:22.297639+05:30"},{"city":"Lucknow","state":"Uttar Pradesh","latitude":26.8467,"longitude":80.9462,"temp":22.5,"humidity":59,"rain":0.0,"pressure":994.9,"uv_index":7.4,"wind_gusts":24.8,"aqi":99,"pm10":218.9,"pm2_5":47.6,"mosquito_risk":0,"arthritis_risk":5,"migraine_risk":7,"frizz_risk":0,"updated_at":"2026-04-07T02:10:22.297645+05:30"},{"city":"Kanpur","state":"Uttar Pradesh","latitude":26.4499,"longitude":80.3319,"temp":21.8,"humidity":71,"rain":0.0,"pressure":992.9,"uv_index":7.25,"wind_gusts":19.4,"aqi":139,"pm10":232.8,"pm2_5":51.1,"mosquito_risk":3,"arthritis_risk":5,"migraine_risk":7,"frizz_risk":1,"updated_at":"2026-04-07T02:10:22.297651+05:30"},{"city":"Chandigarh","state":"Chandigarh","latitude":30.7333,"longitude":76.7794,"temp":20.8,"humidity":55,"rain":0.0,"pressure":969.9,"uv_index":6.65,"wind_gusts":52.2,"aqi":61,"pm10":17.5,"pm2_5":16.4,"mosquito_risk":0,"arthritis_risk":5,"migraine_risk":7,"frizz_risk":0,"updated_at":"2026-04-07T02:10:22.297657+05:30"},{"city":"Srinagar","state":"Jammu and Kashmir","latitude":34.0837,"longitude":74.7973,"temp":7.5,"humidity":92,"rain":0.0,"pressure":837.5,"uv_index":7.7,"wind_gusts":28.4,"aqi":88,"pm10":57.3,"pm2_5":53.2,"mosquito_risk":3,"arthritis_risk":10,"migraine_risk":7,"frizz_risk":0,"updated_at":"2026-04-07T02:10:22.297664+05:30"},{"city":"Jammu","state":"Jammu and Kashmir","latitude":32.7266,"longitude":74.857,"temp":19.8,"humidity":63,"rain":0.0,"pressure":972.8,"uv_index":7.05,"wind_gusts":51.1,"aqi":79,"pm10":30.7,"pm2_5":28.5,"mosquito_risk":3,"arthritis_risk":5,"migraine_risk":7,"frizz_risk":0,"updated_at":"2026-04-07T02:10:22.297671+05:30"},{"city":"Amritsar","state":"Punjab","latitude":31.634,"longitude":74.8723,"temp":19.5,"humidity":67,"rain":0.0,"pressure":980.7,"uv_index":5.85,"wind_gusts":47.9,"aqi":97,"pm10":37.5,"pm2_5":33.5,"mosquito_risk":3,"arthritis_risk":5,"migraine_risk":3,"frizz_risk":0,"updated_at":"2026-04-07T02:10:22.297676+05:30"},{"city":"Ludhiana","state":"Punjab","latitude":30.901,"longitude":75.8573,"temp":21.4,"humidity":54,"rain":0.0,"pressure":979.5,"uv_index":6.15,"wind_gusts":55.8,"aqi":104,"pm10":41.8,"pm2_5":38.3,"mosquito_risk":0,"arthritis_risk":5,"migraine_risk":7,"frizz_risk":0,"updated_at":"2026-04-07T02:10:22.297682+05:30"},{"city":"Jalandhar","state":"Punjab","latitude":31.326,"longitude":75.5762,"temp":19.5,"humidity":66,"rain":0.0,"pressure":980.3,"uv_index":6.5,"wind_gusts":61.9,"aqi":94,"pm10":59.0,"pm2_5":51.3,"mosquito_risk":3,"arthritis_risk":5,"migraine_risk":7,"frizz_risk":0,"updated_at":"2026-04-07T02:10:22.297689+05:30"},{"city":"Dehradun","state":"Uttarakhand","latitude":30.6284,"longitude":78.0322,"temp":11.0,"humidity":73,"rain":0.0,"pressure":829.3,"uv_index":6.75,"wind_gusts":34.9,"aqi":42,"pm10":16.5,"pm2_5":12.1,"mosquito_risk":3,"arthritis_risk":5,"migraine_risk":7,"frizz_risk":0,"updated_at":"2026-04-07T02:10:22.297695+05:30"},{"city":"Shimla","state":"Himachal Pradesh","latitude":31.1048,"longitude":77.1734,"temp":9.6,"humidity":67,"rain":0.0,"pressure":782.4,"uv_index":6.75,"wind_gusts":57.2,"aqi":52,"pm10":13.2,"pm2_5":9.9,"mosquito_risk":3,"arthritis_risk":5,"migraine_risk":7,"frizz_risk":0,"updated_at":"2026-04-07T02:10:22.297700+05:30"},{"city":"Manali","state":"Himachal Pradesh","latitude":32.2396,"longitude":77.1887,"temp":10.7,"humidity":71,"rain":0.0,"pressure":817.1,"uv_index":9.4,"wind_gusts":31.0,"aqi":61,"pm10":9.7,"pm2_5":8.6,"mosquito_risk":3,"arthritis_risk":5,"migraine_risk":7,"frizz_risk":0,"updated_at":"2026-04-07T02:10:22.297706+05:30"},{"city":"Gurgaon","state":"Haryana","latitude":28.4595,"longitude":77.0266,"temp":20.0,"humidity":69,"rain":0.0,"pressure":982.7,"uv_index":5.7,"wind_gusts":40.3,"aqi":425,"pm10":162.1,"pm2_5":50.5,"mosquito_risk":3,"arthritis_risk":5,"migraine_risk":3,"frizz_risk":0,"updated_at":"2026-04-07T02:10:22.297712+05:30"},{"city":"Noida","state":"Uttar Pradesh","latitude":28.5355,"longitude":77.391,"temp":21.9,"humidity":59,"rain":0.0,"pressure":985.9,"uv_index":6.25,"wind_gusts":40.7,"aqi":425,"pm10":162.1,"pm2_5":50.5,"mosquito_risk":0,"arthritis_risk":5,"migraine_risk":7,"frizz_risk":0,"updated_at":"2026-04-07T02:10:22.297718+05:30"},{"city":"Ghaziabad","state":"Uttar Pradesh","latitude":28.6692,"longitude":77.4538,"temp":21.3,"humidity":62,"rain":0.0,"pressure":983.9,"uv_index":6.05,"wind_gusts":41.4,"aqi":150,"pm10":173.2,"pm2_5":48.3,"mosquito_risk":3,"arthritis_risk":5,"migraine_risk":7,"frizz_risk":0,"updated_at":"2026-04-07T02:10:22.297723+05:30"},{"city":"Faridabad","state":"Haryana","latitude":28.4089,"longitude":77.3178,"temp":20.8,"humidity":62,"rain":0.0,"pressure":985.1,"uv_index":6.6,"wind_gusts":37.8,"aqi":425,"pm10":162.1,"pm2_5":50.5,"mosquito_risk":3,"arthritis_risk":5,"migraine_risk":7,"frizz_risk":0,"updated_at":"2026-04-07T02:10:22.297728+05:30"},{"city":"Meerut","state":"Uttar Pradesh","latitude":28.9845,"longitude":77.7064,"temp":20.0,"humidity":69,"rain":0.0,"pressure":982.9,"uv_index":6.15,"wind_gusts":41.0,"aqi":150,"pm10":173.2,"pm2_5":48.3,"mosquito_risk":3,"arthritis_risk":5,"migraine_risk":7,"frizz_risk":0,"updated_at":"2026-04-07T02:10:22.297734+05:30"},{"city":"Agra","state":"Uttar Pradesh","latitude":27.1767,"longitude":78.0081,"temp":20.7,"humidity":74,"rain":0.0,"pressure":989.0,"uv_index":6.3,"wind_gusts":32.4,"aqi":351,"pm10":387.4,"pm2_5":69.4,"mosquito_risk":3,"arthritis_risk":5,"migraine_risk":7,"frizz_risk":0,"updated_at":"2026-04-07T02:10:22.297739+05:30"},{"city":"Varanasi","state":"Uttar Pradesh","latitude":25.3176,"longitude":82.9739,"temp":22.4,"humidity":58,"rain":0.0,"pressure":998.7,"uv_index":8.05,"wind_gusts":28.4,"aqi":84,"pm10":68.5,"pm2_5":33.2,"mosquito_risk":0,"arthritis_risk":5,"migraine_risk":7,"frizz_risk":0,"updated_at":"2026-04-07T02:10:22.297747+05:30"},{"city":"Prayagraj","state":"Uttar Pradesh","latitude":25.4358,"longitude":81.8463,"temp":24.3,"humidity":55,"rain":0.0,"pressure":997.1,"uv_index":7.9,"wind_gusts":22.7,"aqi":87,"pm10":100.8,"pm2_5":44.1,"mosquito_risk":0,"arthritis_risk":5,"migraine_risk":7,"frizz_risk":0,"updated_at":"2026-04-07T02:10:22.297753+05:30"},{"city":"Gorakhpur","state":"Uttar Pradesh","latitude":26.7606,"longitude":83.3732,"temp":21.8,"humidity":63,"rain":0.0,"pressure":998.6,"uv_index":7.85,"wind_gusts":23.4,"aqi":70,"pm10":48.8,"pm2_5":27.1,"mosquito_risk":3,"arthritis_risk":5,"migraine_risk":7,"frizz_risk":0,"updated_at":"2026-04-07T02:10:22.297758+05:30"},{"city":"Bareilly","state":"Uttar Pradesh","latitude":28.367,"longitude":79.4304,"temp":19.5,"humidity":70,"rain":0.0,"pressure":988.7,"uv_index":7.2,"wind_gusts":28.8,"aqi":88,"pm10":142.5,"pm2_5":55.5,"mosquito_risk":3,"arthritis_risk":5,"migraine_risk":7,"frizz_risk":0,"updated_at":"2026-04-07T02:10:22.297763+05:30"},{"city":"Aligarh","state":"Uttar Pradesh","latitude":27.8974,"longitude":78.088,"temp":19.9,"humidity":68,"rain":0.0,"pressure":986.6,"uv_index":6.6,"wind_gusts":45.0,"aqi":304,"pm10":284.1,"pm2_5":58.8,"mosquito_risk":3,"arthritis_risk":5,"migraine_risk":7,"frizz_risk":0,"updated_at":"2026-04-07T02:10:22.297769+05:30"},{"city":"Moradabad","state":"Uttar Pradesh","latitude":28.8386,"longitude":78.7733,"temp":20.1,"humidity":67,"rain":0.0,"pressure":985.3,"uv_index":7.0,"wind_gusts":42.5,"aqi":117,"pm10":170.4,"pm2_5":74.5,"mosquito_risk":3,"arthritis_risk":5,"migraine_risk":7,"frizz_risk":0,"updated_at":"2026-04-07T02:10:22.297774+05:30"},{"city":"Saharanpur","state":"Uttar Pradesh","latitude":29.9637,"longitude":77.546,"temp":19.6,"humidity":62,"rain":0.0,"pressure":977.3,"uv_index":6.45,"wind_gusts":47.2,"aqi":103,"pm10":95.2,"pm2_5":57.2,"mosquito_risk":3,"arthritis_risk":5,"migraine_risk":7,"frizz_risk":0,"updated_at":"2026-04-07T02:10:22.297779+05:30"},{"city":"Jhansi","state":"Uttar Pradesh","latitude":25.4484,"longitude":78.5685,"temp":20.2,"humidity":71,"rain":0.0,"pressure":979.0,"uv_index":7.8,"wind_gusts":39.2,"aqi":79,"pm10":67.5,"pm2_5":26.5,"mosquito_risk":3,"arthritis_risk":5,"migraine_risk":7,"frizz_risk":0,"updated_at":"2026-04-07T02:10:25.599975+05:30"},{"city":"Surat","state":"Gujarat","latitude":21.1702,"longitude":72.8311,"temp":26.2,"humidity":74,"rain":0.0,"pressure":1008.8,"uv_index":7.75,"wind_gusts":38.2,"aqi":73,"pm10":26.7,"pm2_5":18.6,"mosquito_risk":7,"arthritis_risk":0,"migraine_risk":4,"frizz_risk":1,"updated_at":"2026-04-07T02:10:25.600003+05:30"},{"city":"Vadodara","state":"Gujarat","latitude":22.3072,"longitude":73.1812,"temp":25.9,"humidity":70,"rain":0.0,"pressure":1006.0,"uv_index":8.0,"wind_gusts":41.4,"aqi":61,"pm10":16.2,"pm2_5":11.9,"mosquito_risk":7,"arthritis_risk":5,"migraine_risk":4,"frizz_risk":1,"updated_at":"2026-04-07T02:10:25.600012+05:30"},{"city":"Rajkot","state":"Gujarat","latitude":22.3039,"longitude":70.8022,"temp":23.5,"humidity":79,"rain":0.0,"pressure":996.0,"uv_index":7.7,"wind_gusts":51.1,"aqi":53,"pm10":29.7,"pm2_5":15.1,"mosquito_risk":3,"arthritis_risk":5,"migraine_risk":7,"frizz_risk":1,"updated_at":"2026-04-07T02:10:25.600021+05:30"},{"city":"Thane","state":"Maharashtra","latitude":19.2183,"longitude":72.9781,"temp":26.0,"humidity":74,"rain":0.0,"pressure":1010.3,"uv_index":7.95,"wind_gusts":37.8,"aqi":63,"pm10":31.1,"pm2_5":16.6,"mosquito_risk":7,"arthritis_risk":0,"migraine_risk":4,"frizz_risk":1,"updated_at":"2026-04-07T02:10:25.600028+05:30"},{"city":"Nagpur","state":"Maharashtra","latitude":21.1458,"longitude":79.0882,"temp":24.4,"humidity":52,"rain":0.0,"pressure":972.5,"uv_index":8.75,"wind_gusts":24.8,"aqi":55,"pm10":20.7,"pm2_5":17.7,"mosquito_risk":0,"arthritis_risk":5,"migraine_risk":7,"frizz_risk":0,"updated_at":"2026-04-07T02:10:25.600036+05:30"},{"city":"Nashik","state":"Maharashtra","latitude":19.9975,"longitude":73.7898,"temp":19.9,"humidity":86,"rain":0.0,"pressure":946.9,"uv_index":8.2,"wind_gusts":38.9,"aqi":52,"pm10":24.2,"pm2_5":13.3,"mosquito_risk":3,"arthritis_risk":10,"migraine_risk":7,"frizz_risk":1,"updated_at":"2026-04-07T02:10:25.600043+05:30"},{"city":"Aurangabad","state":"Maharashtra","latitude":19.8762,"longitude":75.3433,"temp":23.0,"humidity":64,"rain":0.0,"pressure":945.0,"uv_index":8.9,"wind_gusts":36.4,"aqi":54,"pm10":19.0,"pm2_5":14.5,"mosquito_risk":3,"arthritis_risk":5,"migraine_risk":7,"frizz_risk":0,"updated_at":"2026-04-07T02:10:25.600050+05:30"},{"city":"Solapur","state":"Maharashtra","latitude":17.6599,"longitude":75.9064,"temp":25.2,"humidity":55,"rain":0.0,"pressure":957.9,"uv_index":9.0,"wind_gusts":25.2,"aqi":51,"pm10":15.7,"pm2_5":14.2,"mosquito_risk":4,"arthritis_risk":5,"migraine_risk":7,"frizz_risk":0,"updated_at":"2026-04-07T02:10:25.600057+05:30"},{"city":"Kolhapur","state":"Maharashtra","latitude":16.705,"longitude":74.2433,"temp":17.7,"humidity":91,"rain":0.0,"pressure":948.8,"uv_index":9.05,"wind_gusts":39.6,"aqi":61,"pm10":21.0,"pm2_5":17.5,"mosquito_risk":3,"arthritis_risk":10,"migraine_risk":7,"frizz_risk":1,"updated_at":"2026-04-07T02:10:25.600064+05:30"},{"city":"Goa","state":"Goa","latitude":15.2993,"longitude":74.124,"temp":25.6,"humidity":77,"rain":0.0,"pressure":999.9,"uv_index":9.0,"wind_gusts":34.2,"aqi":63,"pm10":28.9,"pm2_5":20.3,"mosquito_risk":7,"arthritis_risk":5,"migraine_risk":7,"frizz_risk":1,"updated_at":"2026-04-07T02:10:25.600071+05:30"},{"city":"Jodhpur","state":"Rajasthan","latitude":26.2389,"longitude":73.0243,"temp":22.6,"humidity":55,"rain":0.0,"pressure":983.5,"uv_index":7.9,"wind_gusts":61.9,"aqi":92,"pm10":134.1,"pm2_5":23.7,"mosquito_risk":0,"arthritis_risk":5,"migraine_risk":7,"frizz_risk":0,"updated_at":"2026-04-07T02:10:25.600078+05:30"},{"city":"Udaipur","state":"Rajasthan","latitude":24.5854,"longitude":73.7125,"temp":21.4,"humidity":51,"rain":0.0,"pressure":946.2,"uv_index":8.5,"wind_gusts":56.5,"aqi":57,"pm10":23.2,"pm2_5":10.1,"mosquito_risk":0,"arthritis_risk":5,"migraine_risk":7,"frizz_risk":0,"updated_at":"2026-04-07T02:10:25.600084+05:30"},{"city":"Kota","state":"Rajasthan","latitude":25.2138,"longitude":75.8648,"temp":24.1,"humidity":47,"rain":0.0,"pressure":979.4,"uv_index":7.15,"wind_gusts":46.1,"aqi":72,"pm10":82.7,"pm2_5":41.8,"mosquito_risk":0,"arthritis_risk":5,"migraine_risk":7,"frizz_risk":0,"updated_at":"2026-04-07T02:10:25.600091+05:30"},{"city":"Bikaner","state":"Rajasthan","latitude":28.0229,"longitude":73.3119,"temp":22.2,"humidity":54,"rain":0.0,"pressure":980.6,"uv_index":7.65,"wind_gusts":40.3,"aqi":58,"pm10":267.3,"pm2_5":55.6,"mosquito_risk":0,"arthritis_risk":5,"migraine_risk":7,"frizz_risk":0,"updated_at":"2026-04-07T02:10:25.600098+05:30"},{"city":"Ajmer","state":"Rajasthan","latitude":26.4499,"longitude":74.6399,"temp":22.2,"humidity":47,"rain":0.0,"pressure":954.4,"uv_index":7.25,"wind_gusts":54.4,"aqi":60,"pm10":27.9,"pm2_5":15.6,"mosquito_risk":0,"arthritis_risk":5,"migraine_risk":7,"frizz_risk":0,"updated_at":"2026-04-07T02:10:25.600105+05:30"},{"city":"Gwalior","state":"Madhya Pradesh","latitude":26.2183,"longitude":78.1828,"temp":20.8,"humidity":73,"rain":0.0,"pressure":984.8,"uv_index":7.25,"wind_gusts":47.5,"aqi":82,"pm10":283.1,"pm2_5":51.8,"mosquito_risk":3,"arthritis_risk":5,"migraine_risk":7,"frizz_risk":0,"updated_at":"2026-04-07T02:10:25.600111+05:30"},{"city":"Indore","state":"Madhya Pradesh","latitude":22.7196,"longitude":75.8577,"temp":21.5,"humidity":55,"rain":0.0,"pressure":948.5,"uv_index":8.4,"wind_gusts":39.6,"aqi":56,"pm10":20.5,"pm2_5":16.5,"mosquito_risk":0,"arthritis_risk":5,"migraine_risk":7,"frizz_risk":0,"updated_at":"2026-04-07T02:10:25.600118+05:30"},{"city":"Bhopal","state":"Madhya Pradesh","latitude":23.2599,"longitude":77.4126,"temp":23.2,"humidity":43,"rain":0.0,"pressure":954.2,"uv_index":8.4,"wind_gusts":38.2,"aqi":51,"pm10":37.7,"pm2_5":23.2,"mosquito_risk":0,"arthritis_risk":5,"migraine_risk":7,"frizz_risk":0,"updated_at":"2026-04-07T02:10:25.600125+05:30"},{"city":"Jabalpur","state":"Madhya Pradesh","latitude":23.1815,"longitude":79.9864,"temp":24.7,"humidity":46,"rain":0.0,"pressure":961.7,"uv_index":8.5,"wind_gusts":36.7,"aqi":59,"pm10":44.6,"pm2_5":32.6,"mosquito_risk":0,"arthritis_risk":5,"migraine_risk":7,"frizz_risk":0,"updated_at":"2026-04-07T02:10:25.600131+05:30"},{"city":"Ujjain","state":"Madhya Pradesh","latitude":23.1765,"longitude":75.7885,"temp":21.7,"humidity":55,"rain":0.0,"pressure":954.4,"uv_index":8.3,"wind_gusts":40.0,"aqi":51,"pm10":19.3,"pm2_5":15.1,"mosquito_risk":0,"arthritis_risk":5,"migraine_risk":7,"frizz_risk":0,"updated_at":"2026-04-07T02:10:25.600138+05:30"},{"city":"Visakhapatnam","state":"Andhra Pradesh","latitude":17.6868,"longitude":83.2185,"temp":26.5,"humidity":91,"rain":0.0,"pressure":1003.8,"uv_index":9.1,"wind_gusts":37.8,"aqi":96,"pm10":31.2,"pm2_5":27.3,"mosquito_risk":7,"arthritis_risk":5,"migraine_risk":4,"frizz_risk":1,"updated_at":"2026-04-07T02:10:25.600145+05:30"},{"city":"Vijayawada","state":"Andhra Pradesh","latitude":16.5062,"longitude":80.648,"temp":26.9,"humidity":90,"rain":0.0,"pressure":1002.8,"uv_index":9.2,"wind_gusts":33.1,"aqi":69,"pm10":21.1,"pm2_5":18.8,"mosquito_risk":7,"arthritis_risk":5,"migraine_risk":4,"frizz_risk":1,"updated_at":"2026-04-07T02:10:25.600151+05:30"},{"city":"Guntur","state":"Andhra Pradesh","latitude":16.3067,"longitude":80.4365,"temp":27.2,"humidity":91,"rain":0.0,"pressure":1003.9,"uv_index":9.2,"wind_gusts":29.9,"aqi":79,"pm10":21.8,"pm2_5":19.8,"mosquito_risk":7,"arthritis_risk":5,"migraine_risk":4,"frizz_risk":1,"updated_at":"2026-04-07T02:10:25.600158+05:30"},{"city":"Nellore","state":"Andhra Pradesh","latitude":14.4426,"longitude":79.9865,"temp":27.6,"humidity":90,"rain":0.0,"pressure":1005.9,"uv_index":9.3,"wind_gusts":37.8,"aqi":75,"pm10":21.0,"pm2_5":17.5,"mosquito_risk":7,"arthritis_risk":5,"migraine_risk":4,"frizz_risk":1,"updated_at":"2026-04-07T02:10:25.600166+05:30"},{"city":"Kurnool","state":"Andhra Pradesh","latitude":15.8281,"longitude":78.0373,"temp":27.9,"humidity":34,"rain":0.0,"pressure":976.4,"uv_index":9.2,"wind_gusts":25.2,"aqi":72,"pm10":27.9,"pm2_5":22.1,"mosquito_risk":4,"arthritis_risk":5,"migraine_risk":7,"frizz_risk":0,"updated_at":"2026-04-07T02:10:25.600173+05:30"},{"city":"Kakinada","state":"Andhra Pradesh","latitude":16.9891,"longitude":82.2475,"temp":26.3,"humidity":94,"rain":0.0,"pressure":1007.6,"uv_index":9.15,"wind_gusts":28.1,"aqi":57,"pm10":19.9,"pm2_5":14.9,"mosquito_risk":7,"arthritis_risk":5,"migraine_risk":4,"frizz_risk":1,"updated_at":"2026-04-07T02:10:25.600180+05:30"},{"city":"Tirupati","state":"Andhra Pradesh","latitude":13.6288,"longitude":79.4192,"temp":26.7,"humidity":91,"rain":0.0,"pressure":992.2,"uv_index":9.4,"wind_gusts":29.2,"aqi":97,"pm10":33.5,"pm2_5":32.0,"mosquito_risk":7,"arthritis_risk":5,"migraine_risk":7,"frizz_risk":1,"updated_at":"2026-04-07T02:10:25.600187+05:30"},{"city":"Warangal","state":"Telangana","latitude":17.9689,"longitude":79.5941,"temp":27.0,"humidity":83,"rain":0.0,"pressure":978.6,"uv_index":9.05,"wind_gusts":29.5,"aqi":112,"pm10":53.6,"pm2_5":48.7,"mosquito_risk":7,"arthritis_risk":5,"migraine_risk":7,"frizz_risk":1,"updated_at":"2026-04-07T02:10:25.600193+05:30"},{"city":"Nizamabad","state":"Telangana","latitude":18.6725,"longitude":78.0941,"temp":26.1,"humidity":52,"rain":0.0,"pressure":964.6,"uv_index":9.0,"wind_gusts":29.9,"aqi":67,"pm10":26.0,"pm2_5":21.3,"mosquito_risk":4,"arthritis_risk":5,"migraine_risk":7,"frizz_risk":0,"updated_at":"2026-04-07T02:10:25.600199+05:30"},{"city":"Mysore","state":"Karnataka","latitude":12.2958,"longitude":76.6396,"temp":22.1,"humidity":89,"rain":0.0,"pressure":929.3,"uv_index":9.55,"wind_gusts":38.5,"aqi":62,"pm10":17.9,"pm2_5":14.9,"mosquito_risk":3,"arthritis_risk":5,"migraine_risk":7,"frizz_risk":1,"updated_at":"2026-04-07T02:10:25.600205+05:30"},{"city":"Mangalore","state":"Karnataka","latitude":12.9141,"longitude":74.856,"temp":28.8,"humidity":73,"rain":0.0,"pressure":1008.5,"uv_index":9.15,"wind_gusts":34.6,"aqi":60,"pm10":31.4,"pm2_5":17.9,"mosquito_risk":7,"arthritis_risk":0,"migraine_risk":4,"frizz_risk":1,"updated_at":"2026-04-07T02:10:25.600210+05:30"},{"city":"Hubli-Dharwad","state":"Karnataka","latitude":15.3647,"longitude":75.124,"temp":19.4,"humidity":87,"rain":0.0,"pressure":941.4,"uv_index":9.2,"wind_gusts":36.7,"aqi":46,"pm10":21.2,"pm2_5":13.7,"mosquito_risk":3,"arthritis_risk":10,"migraine_risk":7,"frizz_risk":1,"updated_at":"2026-04-07T02:10:25.600216+05:30"},{"city":"Belgaum","state":"Karnataka","latitude":15.8497,"longitude":74.4977,"temp":17.9,"humidity":90,"rain":0.0,"pressure":925.9,"uv_index":9.25,"wind_gusts":33.5,"aqi":57,"pm10":22.9,"pm2_5":18.3,"mosquito_risk":3,"arthritis_risk":10,"migraine_risk":7,"frizz_risk":1,"updated_at":"2026-04-07T02:10:28.902625+05:30"},{"city":"Coimbatore","state":"Tamil Nadu","latitude":11.0168,"longitude":76.9558,"temp":24.6,"humidity":78,"rain":0.0,"pressure":962.5,"uv_index":9.35,"wind_gusts":56.5,"aqi":68,"pm10":28.8,"pm2_5":21.9,"mosquito_risk":3,"arthritis_risk":5,"migraine_risk":7,"frizz_risk":1,"updated_at":"2026-04-07T02:10:28.902652+05:30"},{"city":"Madurai","state":"Tamil Nadu","latitude":9.9252,"longitude":78.1198,"temp":27.7,"humidity":89,"rain":0.0,"pressure":993.5,"uv_index":8.05,"wind_gusts":31.0,"aqi":85,"pm10":28.5,"pm2_5":26.8,"mosquito_risk":7,"arthritis_risk":5,"migraine_risk":7,"frizz_risk":1,"updated_at":"2026-04-07T02:10:28.902661+05:30"},{"city":"Trichy","state":"Tamil Nadu","latitude":10.7905,"longitude":78.7047,"temp":26.8,"humidity":87,"rain":0.0,"pressure":1000.0,"uv_index":9.05,"wind_gusts":30.2,"aqi":86,"pm10":34.9,"pm2_5":33.1,"mosquito_risk":7,"arthritis_risk":5,"migraine_risk":4,"frizz_risk":1,"updated_at":"2026-04-07T02:10:28.902678+05:30"},{"city":"Salem","state":"Tamil Nadu","latitude":11.6643,"longitude":78.146,"temp":27.8,"humidity":74,"rain":0.0,"pressure":978.1,"uv_index":9.45,"wind_gusts":32.0,"aqi":69,"pm10":25.0,"pm2_5":21.8,"mosquito_risk":7,"arthritis_risk":5,"migraine_risk":7,"frizz_risk":1,"updated_at":"2026-04-07T02:10:28.902685+05:30"},{"city":"Tirunelveli","state":"Tamil Nadu","latitude":8.7139,"longitude":77.7567,"temp":27.5,"humidity":78,"rain":0.0,"pressure":1003.4,"uv_index":8.75,"wind_gusts":24.1,"aqi":59,"pm10":28.0,"pm2_5":21.6,"mosquito_risk":7,"arthritis_risk":5,"migraine_risk":4,"frizz_risk":1,"updated_at":"2026-04-07T02:10:28.902691+05:30"},{"city":"Vellore","state":"Tamil Nadu","latitude":12.9165,"longitude":79.1325,"temp":26.9,"humidity":85,"rain":0.0,"pressure":985.2,"uv_index":9.45,"wind_gusts":28.8,"aqi":108,"pm10":40.7,"pm2_5":38.9,"mosquito_risk":7,"arthritis_risk":5,"migraine_risk":7,"frizz_risk":1,"updated_at":"2026-04-07T02:10:28.902698+05:30"},{"city":"Erode","state":"Tamil Nadu","latitude":11.341,"longitude":77.7172,"temp":28.5,"humidity":66,"rain":0.0,"pressure":989.6,"uv_index":9.45,"wind_gusts":38.9,"aqi":66,"pm10":23.2,"pm2_5":18.7,"mosquito_risk":7,"arthritis_risk":5,"migraine_risk":7,"frizz_risk":1,"updated_at":"2026-04-07T02:10:28.902704+05:30"},{"city":"Kochi","state":"Kerala","latitude":9.9312,"longitude":76.2673,"temp":29.2,"humidity":74,"rain":0.0,"pressure":1010.1,"uv_index":8.9,"wind_gusts":42.1,"aqi":68,"pm10":29.6,"pm2_5":22.0,"mosquito_risk":7,"arthritis_risk":0,"migraine_risk":4,"frizz_risk":1,"updated_at":"2026-04-07T02:10:28.902710+05:30"},{"city":"Thiruvananthapuram","state":"Kerala","latitude":8.5241,"longitude":76.9366,"temp":29.0,"humidity":80,"rain":0.0,"pressure":1008.8,"uv_index":8.8,"wind_gusts":52.9,"aqi":60,"pm10":30.9,"pm2_5":18.1,"mosquito_risk":7,"arthritis_risk":0,"migraine_risk":4,"frizz_risk":1,"updated_at":"2026-04-07T02:10:28.902716+05:30"},{"city":"Kozhikode","state":"Kerala","latitude":11.2588,"longitude":75.7804,"temp":28.7,"humidity":76,"rain":0.0,"pressure":1009.5,"uv_index":9.15,"wind_gusts":38.2,"aqi":61,"pm10":27.4,"pm2_5":15.3,"mosquito_risk":7,"arthritis_risk":0,"migraine_risk":4,"frizz_risk":1,"updated_at":"2026-04-07T02:10:28.902722+05:30"},{"city":"Thrissur","state":"Kerala","latitude":10.5276,"longitude":76.2144,"temp":27.5,"humidity":80,"rain":0.0,"pressure":1008.5,"uv_index":9.2,"wind_gusts":41.8,"aqi":68,"pm10":31.8,"pm2_5":21.5,"mosquito_risk":7,"arthritis_risk":0,"migraine_risk":4,"frizz_risk":1,"updated_at":"2026-04-07T02:10:28.902729+05:30"},{"city":"Kannur","state":"Kerala","latitude":11.8745,"longitude":75.3704,"temp":27.6,"humidity":79,"rain":0.0,"pressure":1009.0,"uv_index":9.15,"wind_gusts":40.3,"aqi":58,"pm10":24.4,"pm2_5":14.5,"mosquito_risk":7,"arthritis_risk":0,"migraine_risk":4,"frizz_risk":1,"updated_at":"2026-04-07T02:10:28.902735+05:30"},{"city":"Patna","state":"Bihar","latitude":25.5941,"longitude":85.1376,"temp":24.1,"humidity":62,"rain":0.0,"pressure":1001.3,"uv_index":8.2,"wind_gusts":24.5,"aqi":73,"pm10":41.3,"pm2_5":32.6,"mosquito_risk":3,"arthritis_risk":5,"migraine_risk":4,"frizz_risk":1,"updated_at":"2026-04-07T02:10:28.902741+05:30"},{"city":"Gaya","state":"Bihar","latitude":24.7914,"longitude":85.0002,"temp":23.4,"humidity":72,"rain":0.0,"pressure":994.9,"uv_index":8.3,"wind_gusts":23.4,"aqi":69,"pm10":40.5,"pm2_5":32.2,"mosquito_risk":3,"arthritis_risk":5,"migraine_risk":7,"frizz_risk":1,"updated_at":"2026-04-07T02:10:28.902746+05:30"},{"city":"Muzaffarpur","state":"Bihar","latitude":26.1209,"longitude":85.3647,"temp":22.5,"humidity":67,"rain":0.0,"pressure":1001.3,"uv_index":8.15,"wind_gusts":22.0,"aqi":76,"pm10":52.4,"pm2_5":41.8,"mosquito_risk":3,"arthritis_risk":5,"migraine_risk":4,"frizz_risk":1,"updated_at":"2026-04-07T02:10:28.902751+05:30"},{"city":"Bhagalpur","state":"Bihar","latitude":25.2425,"longitude":87.0117,"temp":22.6,"humidity":76,"rain":0.0,"pressure":1002.2,"uv_index":8.05,"wind_gusts":25.2,"aqi":64,"pm10":26.5,"pm2_5":20.1,"mosquito_risk":3,"arthritis_risk":5,"migraine_risk":4,"frizz_risk":1,"updated_at":"2026-04-07T02:10:28.902757+05:30"},{"city":"Ranchi","state":"Jharkhand","latitude":23.3441,"longitude":85.3096,"temp":20.2,"humidity":83,"rain":0.0,"pressure":938.1,"uv_index":8.9,"wind_gusts":36.0,"aqi":74,"pm10":32.6,"pm2_5":23.1,"mosquito_risk":3,"arthritis_risk":5,"migraine_risk":7,"frizz_risk":1,"updated_at":"2026-04-07T02:10:28.902762+05:30"},{"city":"Jamshedpur","state":"Jharkhand","latitude":22.8046,"longitude":86.2029,"temp":22.9,"humidity":86,"rain":0.1,"pressure":992.0,"uv_index":8.75,"wind_gusts":25.2,"aqi":110,"pm10":43.3,"pm2_5":36.3,"mosquito_risk":6,"arthritis_risk":5,"migraine_risk":7,"frizz_risk":1,"updated_at":"2026-04-07T02:10:28.902768+05:30"},{"city":"Dhanbad","state":"Jharkhand","latitude":23.7957,"longitude":86.4304,"temp":23.6,"humidity":73,"rain":0.0,"pressure":980.5,"uv_index":8.65,"wind_gusts":32.8,"aqi":125,"pm10":96.4,"pm2_5":85.9,"mosquito_risk":3,"arthritis_risk":5,"migraine_risk":7,"frizz_risk":1,"updated_at":"2026-04-07T02:10:28.902774+05:30"},{"city":"Bokaro","state":"Jharkhand","latitude":23.6693,"longitude":86.1511,"temp":22.8,"humidity":80,"rain":0.0,"pressure":984.8,"uv_index":8.65,"wind_gusts":33.1,"aqi":109,"pm10":75.4,"pm2_5":65.0,"mosquito_risk":3,"arthritis_risk":5,"migraine_risk":7,"frizz_risk":1,"updated_at":"2026-04-07T02:10:28.902780+05:30"},{"city":"Bhubaneswar","state":"Odisha","latitude":20.2961,"longitude":85.8245,"temp":24.5,"humidity":95,"rain":0.0,"pressure":1002.7,"uv_index":8.95,"wind_gusts":39.6,"aqi":74,"pm10":43.0,"pm2_5":40.5,"mosquito_risk":3,"arthritis_risk":5,"migraine_risk":4,"frizz_risk":1,"updated_at":"2026-04-07T02:10:28.902786+05:30"},{"city":"Cuttack","state":"Odisha","latitude":20.4625,"longitude":85.8828,"temp":24.1,"humidity":95,"rain":0.0,"pressure":1004.5,"uv_index":9.0,"wind_gusts":34.9,"aqi":74,"pm10":43.0,"pm2_5":40.5,"mosquito_risk":3,"arthritis_risk":5,"migraine_risk":4,"frizz_risk":1,"updated_at":"2026-04-07T02:10:28.902815+05:30"},{"city":"Rourkela","state":"Odisha","latitude":22.2604,"longitude":84.8536,"temp":21.2,"humidity":87,"rain":0.0,"pressure":987.6,"uv_index":8.7,"wind_gusts":25.2,"aqi":106,"pm10":43.5,"pm2_5":37.4,"mosquito_risk":3,"arthritis_risk":5,"migraine_risk":7,"frizz_risk":1,"updated_at":"2026-04-07T02:10:28.902828+05:30"},{"city":"Raipur","state":"Chhattisgarh","latitude":21.2514,"longitude":81.6296,"temp":25.2,"humidity":72,"rain":0.0,"pressure":974.2,"uv_index":8.8,"wind_gusts":26.3,"aqi":116,"pm10":58.8,"pm2_5":51.1,"mosquito_risk":7,"arthritis_risk":5,"migraine_risk":7,"frizz_risk":1,"updated_at":"2026-04-07T02:10:28.902834+05:30"},{"city":"Bhilai","state":"Chhattisgarh","latitude":21.1938,"longitude":81.3509,"temp":25.2,"humidity":75,"rain":0.0,"pressure":974.5,"uv_index":8.8,"wind_gusts":24.1,"aqi":115,"pm10":61.5,"pm2_5":55.5,"mosquito_risk":7,"arthritis_risk":5,"migraine_risk":7,"frizz_risk":1,"updated_at":"2026-04-07T02:10:28.902849+05:30"},{"city":"Guwahati","state":"Assam","latitude":26.1158,"longitude":91.7086,"temp":23.7,"humidity":83,"rain":0.0,"pressure":1001.7,"uv_index":6.8,"wind_gusts":29.2,"aqi":98,"pm10":40.4,"pm2_5":37.3,"mosquito_risk":3,"arthritis_risk":5,"migraine_risk":4,"frizz_risk":1,"updated_at":"2026-04-07T02:10:28.902855+05:30"},{"city":"Agartala","state":"Tripura","latitude":23.8315,"longitude":91.2868,"temp":25.5,"humidity":84,"rain":0.0,"pressure":1005.9,"uv_index":8.0,"wind_gusts":30.2,"aqi":160,"pm10":103.6,"pm2_5":98.3,"mosquito_risk":7,"arthritis_risk":5,"migraine_risk":4,"frizz_risk":1,"updated_at":"2026-04-07T02:10:28.902861+05:30"},{"city":"Shillong","state":"Meghalaya","latitude":25.5788,"longitude":91.8933,"temp":13.6,"humidity":84,"rain":0.0,"pressure":855.3,"uv_index":5.0,"wind_gusts":36.7,"aqi":89,"pm10":41.2,"pm2_5":37.0,"mosquito_risk":3,"arthritis_risk":10,"migraine_risk":3,"frizz_risk":0,"updated_at":"2026-04-07T02:10:28.902867+05:30"},{"city":"Imphal","state":"Manipur","latitude":24.817,"longitude":93.9368,"temp":18.5,"humidity":75,"rain":0.0,"pressure":923.2,"uv_index":3.6,"wind_gusts":42.5,"aqi":119,"pm10":55.2,"pm2_5":49.8,"mosquito_risk":3,"arthritis_risk":5,"migraine_risk":3,"frizz_risk":0,"updated_at":"2026-04-07T02:10:28.902873+05:30"},{"city":"Aizawl","state":"Mizoram","latitude":23.7271,"longitude":92.7176,"temp":18.9,"humidity":78,"rain":0.0,"pressure":892.1,"uv_index":5.35,"wind_gusts":52.2,"aqi":130,"pm10":58.8,"pm2_5":52.6,"mosquito_risk":3,"arthritis_risk":5,"migraine_risk":3,"frizz_risk":0,"updated_at":"2026-04-07T02:10:28.902879+05:30"},{"city":"Kohima","state":"Nagaland","latitude":25.6701,"longitude":94.1077,"temp":16.3,"humidity":69,"rain":0.0,"pressure":854.8,"uv_index":3.8,"wind_gusts":61.6,"aqi":84,"pm10":38.8,"pm2_5":33.3,"mosquito_risk":3,"arthritis_risk":5,"migraine_risk":3,"frizz_risk":0,"updated_at":"2026-04-07T02:10:28.902884+05:30"},{"city":"Gangtok","state":"Sikkim","latitude":27.3314,"longitude":88.6138,"temp":11.9,"humidity":68,"rain":0.0,"pressure":836.0,"uv_index":8.45,"wind_gusts":24.1,"aqi":59,"pm10":25.6,"pm2_5":21.8,"mosquito_risk":3,"arthritis_risk":5,"migraine_risk":7,"frizz_risk":0,"updated_at":"2026-04-07T02:10:28.902890+05:30"},{"city":"Siliguri","state":"West Bengal","latitude":26.7271,"longitude":88.3953,"temp":21.2,"humidity":60,"rain":0.0,"pressure":994.5,"uv_index":8.1,"wind_gusts":24.1,"aqi":79,"pm10":37.4,"pm2_5":33.5,"mosquito_risk":0,"arthritis_risk":5,"migraine_risk":7,"frizz_risk":0,"updated_at":"2026-04-07T02:10:32.217949+05:30"},{"city":"Durgapur","state":"West Bengal","latitude":23.5204,"longitude":87.3119,"temp":24.0,"humidity":86,"rain":0.0,"pressure":995.8,"uv_index":8.6,"wind_gusts":28.4,"aqi":128,"pm10":76.6,"pm2_5":68.0,"mosquito_risk":3,"arthritis_risk":5,"migraine_risk":7,"frizz_risk":1,"updated_at":"2026-04-07T02:10:32.217975+05:30"},{"city":"Asansol","state":"West Bengal","latitude":23.6739,"longitude":86.9524,"temp":25.2,"humidity":80,"rain":0.0,"pressure":994.3,"uv_index":8.65,"wind_gusts":14.8,"aqi":120,"pm10":73.3,"pm2_5":64.7,"mosquito_risk":7,"arthritis_risk":5,"migraine_risk":7,"frizz_risk":1,"updated_at":"2026-04-07T02:10:32.217984+05:30"},{"city":"Pondicherry","state":"Puducherry","latitude":11.9139,"longitude":79.8145,"temp":26.6,"humidity":94,"rain":0.0,"pressure":1008.8,"uv_index":8.85,"wind_gusts":26.6,"aqi":71,"pm10":26.7,"pm2_5":21.8,"mosquito_risk":7,"arthritis_risk":0,"migraine_risk":4,"frizz_risk":1,"updated_at":"2026-04-07T02:10:32.217991+05:30"},{"city":"Port Blair","state":"Andaman and Nicobar Islands","latitude":11.6234,"longitude":92.7265,"temp":28.5,"humidity":73,"rain":0.0,"pressure":1007.7,"uv_index":9.2,"wind_gusts":13.3,"aqi":28,"pm10":9.2,"pm2_5":5.9,"mosquito_risk":7,"arthritis_risk":5,"migraine_risk":4,"frizz_risk":1,"updated_at":"2026-04-07T02:10:32.217998+05:30"},{"city":"Haridwar","state":"Uttarakhand","latitude":29.9457,"longitude":78.1642,"temp":19.7,"humidity":67,"rain":0.0,"pressure":976.3,"uv_index":6.2,"wind_gusts":44.6,"aqi":65,"pm10":32.9,"pm2_5":27.8,"mosquito_risk":3,"arthritis_risk":5,"migraine_risk":7,"frizz_risk":0,"updated_at":"2026-04-07T02:10:32.218004+05:30"},{"city":"Rishikesh","state":"Uttarakhand","latitude":30.0869,"longitude":78.2676,"temp":20.0,"humidity":61,"rain":0.0,"pressure":969.2,"uv_index":6.25,"wind_gusts":31.0,"aqi":52,"pm10":25.6,"pm2_5":17.9,"mosquito_risk":3,"arthritis_risk":5,"migraine_risk":7,"frizz_risk":0,"updated_at":"2026-04-07T02:10:32.218010+05:30"},{"city":"Nainital","state":"Uttarakhand","latitude":29.3919,"longitude":79.4542,"temp":15.1,"humidity":57,"rain":0.0,"pressure":805.8,"uv_index":5.9,"wind_gusts":34.6,"aqi":55,"pm10":15.4,"pm2_5":11.4,"mosquito_risk":0,"arthritis_risk":5,"migraine_risk":3,"frizz_risk":0,"updated_at":"2026-04-07T02:10:32.218016+05:30"},{"city":"Mussoorie","state":"Uttarakhand","latitude":30.4599,"longitude":78.0664,"temp":13.4,"humidity":59,"rain":0.0,"pressure":802.2,"uv_index":6.6,"wind_gusts":38.9,"aqi":60,"pm10":29.6,"pm2_5":25.0,"mosquito_risk":0,"arthritis_risk":5,"migraine_risk":7,"frizz_risk":0,"updated_at":"2026-04-07T02:10:32.218022+05:30"},{"city":"Dharamshala","state":"Himachal Pradesh","latitude":32.219,"longitude":76.3234,"temp":16.7,"humidity":53,"rain":0.0,"pressure":868.3,"uv_index":7.4,"wind_gusts":43.2,"aqi":47,"pm10":8.6,"pm2_5":6.8,"mosquito_risk":0,"arthritis_risk":5,"migraine_risk":7,"frizz_risk":0,"updated_at":"2026-04-07T02:10:32.218028+05:30"},{"city":"Dalhousie","state":"Himachal Pradesh","latitude":32.5387,"longitude":75.971,"temp":12.8,"humidity":57,"rain":0.0,"pressure":801.7,"uv_index":5.85,"wind_gusts":43.2,"aqi":60,"pm10":24.9,"pm2_5":23.2,"mosquito_risk":0,"arthritis_risk":5,"migraine_risk":3,"frizz_risk":0,"updated_at":"2026-04-07T02:10:32.218034+05:30"},{"city":"Patiala","state":"Punjab","latitude":30.3398,"longitude":76.3869,"temp":19.9,"humidity":59,"rain":0.0,"pressure":979.2,"uv_index":5.9,"wind_gusts":47.5,"aqi":108,"pm10":52.9,"pm2_5":44.8,"mosquito_risk":0,"arthritis_risk":5,"migraine_risk":3,"frizz_risk":0,"updated_at":"2026-04-07T02:10:32.218039+05:30"},{"city":"Bhatinda","state":"Punjab","latitude":30.211,"longitude":74.9455,"temp":20.1,"humidity":74,"rain":0.0,"pressure":984.0,"uv_index":6.3,"wind_gusts":63.7,"aqi":89,"pm10":34.0,"pm2_5":27.0,"mosquito_risk":3,"arthritis_risk":5,"migraine_risk":7,"frizz_risk":0,"updated_at":"2026-04-07T02:10:32.218044+05:30"},{"city":"Rohtak","state":"Haryana","latitude":28.8955,"longitude":76.6066,"temp":19.9,"humidity":70,"rain":0.0,"pressure":982.9,"uv_index":5.0,"wind_gusts":45.4,"aqi":183,"pm10":122.9,"pm2_5":41.4,"mosquito_risk":3,"arthritis_risk":5,"migraine_risk":3,"frizz_risk":0,"updated_at":"2026-04-07T02:10:32.218050+05:30"},{"city":"Panipat","state":"Haryana","latitude":29.3909,"longitude":76.9635,"temp":19.3,"humidity":69,"rain":0.0,"pressure":981.6,"uv_index":5.85,"wind_gusts":42.8,"aqi":322,"pm10":369.7,"pm2_5":62.9,"mosquito_risk":3,"arthritis_risk":5,"migraine_risk":3,"frizz_risk":0,"updated_at":"2026-04-07T02:10:32.218055+05:30"},{"city":"Mathura","state":"Uttar Pradesh","latitude":27.4924,"longitude":77.6737,"temp":22.0,"humidity":64,"rain":0.0,"pressure":987.9,"uv_index":6.1,"wind_gusts":36.7,"aqi":329,"pm10":184.9,"pm2_5":52.0,"mosquito_risk":3,"arthritis_risk":5,"migraine_risk":7,"frizz_risk":0,"updated_at":"2026-04-07T02:10:32.218061+05:30"},{"city":"Vrindavan","state":"Uttar Pradesh","latitude":27.5823,"longitude":77.7027,"temp":20.4,"humidity":69,"rain":0.0,"pressure":988.3,"uv_index":5.7,"wind_gusts":36.0,"aqi":329,"pm10":184.9,"pm2_5":52.0,"mosquito_risk":3,"arthritis_risk":5,"migraine_risk":3,"frizz_risk":0,"updated_at":"2026-04-07T02:10:32.218066+05:30"},{"city":"Ayodhya","state":"Uttar Pradesh","latitude":26.7922,"longitude":82.1998,"temp":21.8,"humidity":57,"rain":0.0,"pressure":996.7,"uv_index":7.6,"wind_gusts":26.6,"aqi":84,"pm10":139.2,"pm2_5":35.3,"mosquito_risk":0,"arthritis_risk":5,"migraine_risk":7,"frizz_risk":0,"updated_at":"2026-04-07T02:10:32.218071+05:30"},{"city":"Ratlam","state":"Madhya Pradesh","latitude":23.3315,"longitude":75.0367,"temp":22.6,"humidity":56,"rain":0.0,"pressure":955.5,"uv_index":8.25,"wind_gusts":41.8,"aqi":69,"pm10":18.7,"pm2_5":13.6,"mosquito_risk":0,"arthritis_risk":5,"migraine_risk":7,"frizz_risk":0,"updated_at":"2026-04-07T02:10:32.218077+05:30"},{"city":"Sagar","state":"Madhya Pradesh","latitude":23.8388,"longitude":78.7378,"temp":23.2,"humidity":57,"rain":0.0,"pressure":950.5,"uv_index":8.35,"wind_gusts":33.8,"aqi":51,"pm10":41.3,"pm2_5":16.5,"mosquito_risk":0,"arthritis_risk":5,"migraine_risk":7,"frizz_risk":0,"updated_at":"2026-04-07T02:10:32.218082+05:30"},{"city":"Satna","state":"Madhya Pradesh","latitude":24.6005,"longitude":80.8322,"temp":24.2,"humidity":48,"rain":0.0,"pressure":972.3,"uv_index":8.0,"wind_gusts":18.7,"aqi":72,"pm10":71.7,"pm2_5":24.2,"mosquito_risk":0,"arthritis_risk":5,"migraine_risk":7,"frizz_risk":0,"updated_at":"2026-04-07T02:10:32.218087+05:30"},{"city":"Akola","state":"Maharashtra","latitude":20.7002,"longitude":77.0082,"temp":25.3,"humidity":50,"rain":0.0,"pressure":975.6,"uv_index":8.7,"wind_gusts":31.0,"aqi":74,"pm10":21.4,"pm2_5":17.3,"mosquito_risk":4,"arthritis_risk":5,"migraine_risk":7,"frizz_risk":0,"updated_at":"2026-04-07T02:10:32.218093+05:30"},{"city":"Amravati","state":"Maharashtra","latitude":20.9374,"longitude":77.7796,"temp":24.8,"humidity":54,"rain":0.0,"pressure":967.4,"uv_index":8.7,"wind_gusts":28.8,"aqi":71,"pm10":22.8,"pm2_5":18.6,"mosquito_risk":0,"arthritis_risk":5,"migraine_risk":7,"frizz_risk":0,"updated_at":"2026-04-07T02:10:32.218099+05:30"},{"city":"Latur","state":"Maharashtra","latitude":18.4088,"longitude":76.5604,"temp":22.7,"humidity":54,"rain":0.0,"pressure":939.7,"uv_index":9.0,"wind_gusts":27.4,"aqi":58,"pm10":32.4,"pm2_5":25.4,"mosquito_risk":0,"arthritis_risk":5,"migraine_risk":7,"frizz_risk":0,"updated_at":"2026-04-07T02:10:32.218105+05:30"},{"city":"Nanded","state":"Maharashtra","latitude":19.1383,"longitude":77.3091,"temp":23.8,"humidity":56,"rain":0.0,"pressure":968.5,"uv_index":8.85,"wind_gusts":24.8,"aqi":57,"pm10":29.0,"pm2_5":23.7,"mosquito_risk":0,"arthritis_risk":5,"migraine_risk":7,"frizz_risk":0,"updated_at":"2026-04-07T02:10:32.218110+05:30"},{"city":"Gulbarga","state":"Karnataka","latitude":17.3297,"longitude":76.8343,"temp":27.0,"humidity":36,"rain":0.0,"pressure":959.0,"uv_index":9.05,"wind_gusts":28.1,"aqi":50,"pm10":11.1,"pm2_5":9.4,"mosquito_risk":4,"arthritis_risk":5,"migraine_risk":7,"frizz_risk":0,"updated_at":"2026-04-07T02:10:32.218115+05:30"},{"city":"Bidar","state":"Karnataka","latitude":17.9104,"longitude":77.5199,"temp":25.2,"humidity":40,"rain":0.0,"pressure":935.2,"uv_index":9.05,"wind_gusts":33.1,"aqi":67,"pm10":26.4,"pm2_5":21.8,"mosquito_risk":4,"arthritis_risk":5,"migraine_risk":7,"frizz_risk":0,"updated_at":"2026-04-07T02:10:32.218120+05:30"},{"city":"Hospet","state":"Karnataka","latitude":15.2689,"longitude":76.3909,"temp":25.0,"humidity":67,"rain":0.0,"pressure":956.8,"uv_index":9.25,"wind_gusts":29.5,"aqi":43,"pm10":16.5,"pm2_5":11.9,"mosquito_risk":7,"arthritis_risk":5,"migraine_risk":7,"frizz_risk":1,"updated_at":"2026-04-07T02:10:32.218126+05:30"},{"city":"Tirupur","state":"Tamil Nadu","latitude":11.1085,"longitude":77.3411,"temp":26.0,"humidity":76,"rain":0.0,"pressure":975.7,"uv_index":9.5,"wind_gusts":47.5,"aqi":71,"pm10":27.0,"pm2_5":22.3,"mosquito_risk":7,"arthritis_risk":5,"migraine_risk":7,"frizz_risk":1,"updated_at":"2026-04-07T02:10:32.218131+05:30"},{"city":"Alappuzha","state":"Kerala","latitude":9.4981,"longitude":76.3388,"temp":29.4,"humidity":75,"rain":0.0,"pressure":1010.1,"uv_index":8.65,"wind_gusts":41.8,"aqi":68,"pm10":31.9,"pm2_5":20.1,"mosquito_risk":7,"arthritis_risk":0,"migraine_risk":4,"frizz_risk":1,"updated_at":"2026-04-07T02:10:32.218136+05:30"},{"city":"Munnar","state":"Kerala","latitude":10.0889,"longitude":77.0595,"temp":20.6,"humidity":99,"rain":0.0,"pressure":857.8,"uv_index":9.75,"wind_gusts":39.2,"aqi":60,"pm10":31.5,"pm2_5":24.6,"mosquito_risk":3,"arthritis_risk":5,"migraine_risk":7,"frizz_risk":1,"updated_at":"2026-04-07T02:10:32.218142+05:30"},{"city":"Silchar","state":"Assam","latitude":24.8333,"longitude":92.7789,"temp":24.1,"humidity":82,"rain":0.0,"pressure":1004.7,"uv_index":6.7,"wind_gusts":27.4,"aqi":153,"pm10":68.7,"pm2_5":60.1,"mosquito_risk":3,"arthritis_risk":5,"migraine_risk":4,"frizz_risk":1,"updated_at":"2026-04-07T02:10:32.218147+05:30"},{"city":"Dibrugarh","state":"Assam","latitude":27.4728,"longitude":94.912,"temp":21.8,"humidity":88,"rain":0.0,"pressure":996.5,"uv_index":5.55,"wind_gusts":25.2,"aqi":89,"pm10":13.0,"pm2_5":11.1,"mosquito_risk":3,"arthritis_risk":5,"migraine_risk":3,"frizz_risk":1,"updated_at":"2026-04-07T02:10:32.218152+05:30"}]