[{"city":"Delhi","state":"Delhi","latitude":28.6139,"longitude":77.209,"temp":32.1,"humidity":20,"rain":0.0,"pressure":978.5,"uv_index":7.75,"wind_gusts":34.9,"aqi":696,"pm10":543.9,"pm2_5":118.3,"no2":21.0,"co":216.0,"o3":48.0,"so2":8.8,"mosquito_risk":0,"arthritis_risk":5,"migraine_risk":7,"frizz_risk":0,"updated_at":"2026-05-22T03:51:20.197069+05:30"},{"city":"Mumbai","state":"Maharashtra","latitude":19.076,"longitude":72.8777,"temp":29.8,"humidity":76,"rain":0.0,"pressure":1006.9,"uv_index":7.45,"wind_gusts":34.2,"aqi":55,"pm10":21.4,"pm2_5":13.3,"no2":10.1,"co":169.0,"o3":42.0,"so2":8.2,"mosquito_risk":7,"arthritis_risk":5,"migraine_risk":4,"frizz_risk":1,"updated_at":"2026-05-22T03:51:20.197117+05:30"},{"city":"Bangalore","state":"Karnataka","latitude":12.9716,"longitude":77.5946,"temp":22.1,"humidity":96,"rain":0.0,"pressure":910.7,"uv_index":6.3,"wind_gusts":33.1,"aqi":41,"pm10":6.7,"pm2_5":6.4,"no2":11.4,"co":159.0,"o3":44.0,"so2":3.5,"mosquito_risk":3,"arthritis_risk":5,"migraine_risk":7,"frizz_risk":1,"updated_at":"2026-05-22T03:51:20.197138+05:30"},{"city":"Hyderabad","state":"Telangana","latitude":17.385,"longitude":78.4867,"temp":30.8,"humidity":52,"rain":0.0,"pressure":950.5,"uv_index":8.75,"wind_gusts":45.7,"aqi":103,"pm10":31.0,"pm2_5":25.8,"no2":7.8,"co":237.0,"o3":88.0,"so2":7.9,"mosquito_risk":0,"arthritis_risk":5,"migraine_risk":7,"frizz_risk":1,"updated_at":"2026-05-22T03:51:20.197154+05:30"},{"city":"Chennai","state":"Tamil Nadu","latitude":13.0827,"longitude":80.2707,"temp":28.2,"humidity":77,"rain":0.0,"pressure":1003.5,"uv_index":9.05,"wind_gusts":40.3,"aqi":69,"pm10":22.9,"pm2_5":19.2,"no2":15.5,"co":304.0,"o3":60.0,"so2":10.5,"mosquito_risk":7,"arthritis_risk":5,"migraine_risk":4,"frizz_risk":1,"updated_at":"2026-05-22T03:51:20.197163+05:30"},{"city":"Kolkata","state":"West Bengal","latitude":22.5726,"longitude":88.3639,"temp":29.2,"humidity":95,"rain":0.0,"pressure":1002.1,"uv_index":8.95,"wind_gusts":29.2,"aqi":117,"pm10":42.5,"pm2_5":35.6,"no2":7.1,"co":388.0,"o3":79.0,"so2":5.5,"mosquito_risk":7,"arthritis_risk":5,"migraine_risk":4,"frizz_risk":1,"updated_at":"2026-05-22T03:51:20.197171+05:30"},{"city":"Pune","state":"Maharashtra","latitude":18.5204,"longitude":73.8567,"temp":25.5,"humidity":84,"rain":0.0,"pressure":947.3,"uv_index":8.45,"wind_gusts":47.2,"aqi":58,"pm10":14.8,"pm2_5":11.2,"no2":11.3,"co":167.0,"o3":49.0,"so2":11.6,"mosquito_risk":7,"arthritis_risk":5,"migraine_risk":7,"frizz_risk":1,"updated_at":"2026-05-22T03:51:20.197178+05:30"},{"city":"Ahmedabad","state":"Gujarat","latitude":23.0225,"longitude":72.5714,"temp":31.2,"humidity":37,"rain":0.0,"pressure":1000.0,"uv_index":8.2,"wind_gusts":35.6,"aqi":74,"pm10":33.5,"pm2_5":20.3,"no2":5.5,"co":145.0,"o3":51.0,"so2":3.1,"mosquito_risk":0,"arthritis_risk":5,"migraine_risk":4,"frizz_risk":0,"updated_at":"2026-05-22T03:51:20.197185+05:30"},{"city":"Jaipur","state":"Rajasthan","latitude":26.9124,"longitude":75.7873,"temp":31.3,"humidity":25,"rain":0.0,"pressure":957.0,"uv_index":8.25,"wind_gusts":41.4,"aqi":173,"pm10":282.2,"pm2_5":58.6,"no2":5.5,"co":190.0,"o3":60.0,"so2":4.1,"mosquito_risk":0,"arthritis_risk":5,"migraine_risk":7,"frizz_risk":0,"updated_at":"2026-05-22T03:51:20.197193+05:30"},{"city":"Lucknow","state":"Uttar Pradesh","latitude":26.8467,"longitude":80.9462,"temp":31.1,"humidity":43,"rain":0.0,"pressure":988.4,"uv_index":8.25,"wind_gusts":32.8,"aqi":270,"pm10":223.5,"pm2_5":68.5,"no2":14.7,"co":423.0,"o3":51.0,"so2":6.0,"mosquito_risk":0,"arthritis_risk":5,"migraine_risk":7,"frizz_risk":1,"updated_at":"2026-05-22T03:51:20.197200+05:30"},{"city":"Kanpur","state":"Uttar Pradesh","latitude":26.4499,"longitude":80.3319,"temp":32.7,"humidity":31,"rain":0.0,"pressure":986.8,"uv_index":8.25,"wind_gusts":39.6,"aqi":432,"pm10":473.1,"pm2_5":76.8,"no2":10.1,"co":222.0,"o3":58.0,"so2":5.0,"mosquito_risk":0,"arthritis_risk":5,"migraine_risk":7,"frizz_risk":0,"updated_at":"2026-05-22T03:51:20.197206+05:30"},{"city":"Chandigarh","state":"Chandigarh","latitude":30.7333,"longitude":76.7794,"temp":27.2,"humidity":39,"rain":0.0,"pressure":962.9,"uv_index":7.75,"wind_gusts":50.4,"aqi":93,"pm10":48.5,"pm2_5":30.0,"no2":18.4,"co":253.0,"o3":53.0,"so2":11.6,"mosquito_risk":4,"arthritis_risk":5,"migraine_risk":7,"frizz_risk":0,"updated_at":"2026-05-22T03:51:20.197213+05:30"},{"city":"Srinagar","state":"Jammu and Kashmir","latitude":34.0837,"longitude":74.7973,"temp":12.7,"humidity":97,"rain":0.0,"pressure":842.9,"uv_index":8.95,"wind_gusts":37.1,"aqi":67,"pm10":45.5,"pm2_5":20.3,"no2":19.0,"co":251.0,"o3":44.0,"so2":2.5,"mosquito_risk":3,"arthritis_risk":10,"migraine_risk":7,"frizz_risk":0,"updated_at":"2026-05-22T03:51:20.197220+05:30"},{"city":"Jammu","state":"Jammu and Kashmir","latitude":32.7266,"longitude":74.857,"temp":28.0,"humidity":38,"rain":0.0,"pressure":969.0,"uv_index":8.55,"wind_gusts":45.0,"aqi":84,"pm10":44.2,"pm2_5":22.8,"no2":16.4,"co":172.0,"o3":42.0,"so2":2.3,"mosquito_risk":4,"arthritis_risk":5,"migraine_risk":7,"frizz_risk":0,"updated_at":"2026-05-22T03:51:20.197226+05:30"},{"city":"Amritsar","state":"Punjab","latitude":31.634,"longitude":74.8723,"temp":29.6,"humidity":36,"rain":0.0,"pressure":976.6,"uv_index":8.45,"wind_gusts":45.4,"aqi":93,"pm10":64.5,"pm2_5":31.5,"no2":6.6,"co":249.0,"o3":90.0,"so2":6.2,"mosquito_risk":4,"arthritis_risk":5,"migraine_risk":7,"frizz_risk":0,"updated_at":"2026-05-22T03:51:20.197232+05:30"},{"city":"Ludhiana","state":"Punjab","latitude":30.901,"longitude":75.8573,"temp":28.2,"humidity":36,"rain":0.0,"pressure":973.9,"uv_index":8.0,"wind_gusts":32.8,"aqi":111,"pm10":48.4,"pm2_5":27.5,"no2":10.6,"co":335.0,"o3":64.0,"so2":6.2,"mosquito_risk":4,"arthritis_risk":5,"migraine_risk":7,"frizz_risk":0,"updated_at":"2026-05-22T03:51:20.197238+05:30"},{"city":"Jalandhar","state":"Punjab","latitude":31.326,"longitude":75.5762,"temp":29.2,"humidity":32,"rain":0.0,"pressure":975.0,"uv_index":7.7,"wind_gusts":34.2,"aqi":100,"pm10":109.4,"pm2_5":40.0,"no2":13.4,"co":289.0,"o3":60.0,"so2":6.4,"mosquito_risk":4,"arthritis_risk":5,"migraine_risk":7,"frizz_risk":0,"updated_at":"2026-05-22T03:51:20.197244+05:30"},{"city":"Dehradun","state":"Uttarakhand","latitude":30.6284,"longitude":78.0322,"temp":14.7,"humidity":66,"rain":0.0,"pressure":826.2,"uv_index":8.2,"wind_gusts":42.8,"aqi":71,"pm10":26.9,"pm2_5":16.6,"no2":26.6,"co":259.0,"o3":5.0,"so2":0.4,"mosquito_risk":3,"arthritis_risk":5,"migraine_risk":7,"frizz_risk":0,"updated_at":"2026-05-22T03:51:20.197250+05:30"},{"city":"Shimla","state":"Himachal Pradesh","latitude":31.1048,"longitude":77.1734,"temp":15.4,"humidity":39,"rain":0.0,"pressure":782.2,"uv_index":8.3,"wind_gusts":45.7,"aqi":71,"pm10":47.1,"pm2_5":23.8,"no2":23.2,"co":199.0,"o3":51.0,"so2":5.6,"mosquito_risk":0,"arthritis_risk":5,"migraine_risk":7,"frizz_risk":0,"updated_at":"2026-05-22T03:51:20.197258+05:30"},{"city":"Manali","state":"Himachal Pradesh","latitude":32.2396,"longitude":77.1887,"temp":11.4,"humidity":69,"rain":0.0,"pressure":816.2,"uv_index":7.75,"wind_gusts":50.4,"aqi":34,"pm10":5.4,"pm2_5":2.1,"no2":19.7,"co":164.0,"o3":91.0,"so2":0.0,"mosquito_risk":3,"arthritis_risk":5,"migraine_risk":7,"frizz_risk":0,"updated_at":"2026-05-22T03:51:20.197265+05:30"},{"city":"Gurgaon","state":"Haryana","latitude":28.4595,"longitude":77.0266,"temp":30.8,"humidity":23,"rain":0.0,"pressure":976.9,"uv_index":7.85,"wind_gusts":35.3,"aqi":1916,"pm10":1944.6,"pm2_5":300.8,"no2":15.1,"co":196.0,"o3":60.0,"so2":8.2,"mosquito_risk":0,"arthritis_risk":5,"migraine_risk":7,"frizz_risk":0,"updated_at":"2026-05-22T03:51:20.197271+05:30"},{"city":"Noida","state":"Uttar Pradesh","latitude":28.5355,"longitude":77.391,"temp":32.0,"humidity":21,"rain":0.0,"pressure":979.8,"uv_index":7.8,"wind_gusts":30.6,"aqi":1916,"pm10":1944.6,"pm2_5":300.8,"no2":15.1,"co":198.0,"o3":60.0,"so2":8.2,"mosquito_risk":0,"arthritis_risk":5,"migraine_risk":7,"frizz_risk":0,"updated_at":"2026-05-22T03:51:20.197276+05:30"},{"city":"Ghaziabad","state":"Uttar Pradesh","latitude":28.6692,"longitude":77.4538,"temp":32.3,"humidity":21,"rain":0.0,"pressure":978.0,"uv_index":7.75,"wind_gusts":31.3,"aqi":605,"pm10":413.5,"pm2_5":104.3,"no2":23.9,"co":221.0,"o3":44.0,"so2":12.0,"mosquito_risk":0,"arthritis_risk":5,"migraine_risk":7,"frizz_risk":0,"updated_at":"2026-05-22T03:51:20.197282+05:30"},{"city":"Faridabad","state":"Haryana","latitude":28.4089,"longitude":77.3178,"temp":32.5,"humidity":19,"rain":0.0,"pressure":979.1,"uv_index":7.85,"wind_gusts":38.5,"aqi":1916,"pm10":1944.6,"pm2_5":300.8,"no2":15.1,"co":202.0,"o3":60.0,"so2":8.2,"mosquito_risk":0,"arthritis_risk":5,"migraine_risk":7,"frizz_risk":0,"updated_at":"2026-05-22T03:51:20.197288+05:30"},{"city":"Meerut","state":"Uttar Pradesh","latitude":28.9845,"longitude":77.7064,"temp":31.9,"humidity":23,"rain":0.0,"pressure":976.6,"uv_index":7.65,"wind_gusts":29.2,"aqi":605,"pm10":413.5,"pm2_5":104.3,"no2":23.9,"co":228.0,"o3":44.0,"so2":12.0,"mosquito_risk":0,"arthritis_risk":5,"migraine_risk":7,"frizz_risk":0,"updated_at":"2026-05-22T03:51:20.197294+05:30"},{"city":"Agra","state":"Uttar Pradesh","latitude":27.1767,"longitude":78.0081,"temp":31.4,"humidity":22,"rain":0.0,"pressure":983.2,"uv_index":8.1,"wind_gusts":41.0,"aqi":945,"pm10":1348.6,"pm2_5":176.5,"no2":9.4,"co":184.0,"o3":63.0,"so2":5.1,"mosquito_risk":0,"arthritis_risk":5,"migraine_risk":7,"frizz_risk":0,"updated_at":"2026-05-22T03:51:20.197300+05:30"},{"city":"Varanasi","state":"Uttar Pradesh","latitude":25.3176,"longitude":82.9739,"temp":30.5,"humidity":76,"rain":0.0,"pressure":992.9,"uv_index":8.75,"wind_gusts":34.2,"aqi":134,"pm10":63.6,"pm2_5":39.2,"no2":33.4,"co":553.0,"o3":27.0,"so2":9.6,"mosquito_risk":3,"arthritis_risk":5,"migraine_risk":7,"frizz_risk":1,"updated_at":"2026-05-22T03:51:20.197306+05:30"},{"city":"Prayagraj","state":"Uttar Pradesh","latitude":25.4358,"longitude":81.8463,"temp":31.5,"humidity":30,"rain":0.0,"pressure":991.4,"uv_index":8.65,"wind_gusts":37.8,"aqi":147,"pm10":101.7,"pm2_5":46.1,"no2":32.4,"co":215.0,"o3":27.0,"so2":8.0,"mosquito_risk":0,"arthritis_risk":5,"migraine_risk":7,"frizz_risk":0,"updated_at":"2026-05-22T03:51:20.197311+05:30"},{"city":"Gorakhpur","state":"Uttar Pradesh","latitude":26.7606,"longitude":83.3732,"temp":28.7,"humidity":79,"rain":0.0,"pressure":993.6,"uv_index":8.65,"wind_gusts":32.0,"aqi":160,"pm10":61.2,"pm2_5":53.2,"no2":12.9,"co":483.0,"o3":81.0,"so2":9.4,"mosquito_risk":7,"arthritis_risk":5,"migraine_risk":7,"frizz_risk":1,"updated_at":"2026-05-22T03:51:20.197318+05:30"},{"city":"Bareilly","state":"Uttar Pradesh","latitude":28.367,"longitude":79.4304,"temp":28.1,"humidity":61,"rain":0.0,"pressure":981.5,"uv_index":8.05,"wind_gusts":23.8,"aqi":198,"pm10":389.3,"pm2_5":130.9,"no2":36.1,"co":471.0,"o3":32.0,"so2":12.8,"mosquito_risk":7,"arthritis_risk":5,"migraine_risk":7,"frizz_risk":1,"updated_at":"2026-05-22T03:51:20.197324+05:30"},{"city":"Aligarh","state":"Uttar Pradesh","latitude":27.8974,"longitude":78.088,"temp":30.3,"humidity":27,"rain":0.0,"pressure":980.9,"uv_index":7.9,"wind_gusts":30.6,"aqi":1110,"pm10":1020.7,"pm2_5":174.6,"no2":19.1,"co":229.0,"o3":46.0,"so2":7.1,"mosquito_risk":0,"arthritis_risk":5,"migraine_risk":7,"frizz_risk":0,"updated_at":"2026-05-22T03:51:20.197330+05:30"},{"city":"Moradabad","state":"Uttar Pradesh","latitude":28.8386,"longitude":78.7733,"temp":31.1,"humidity":34,"rain":0.0,"pressure":978.8,"uv_index":7.9,"wind_gusts":26.3,"aqi":242,"pm10":284.1,"pm2_5":112.7,"no2":40.2,"co":467.0,"o3":17.0,"so2":14.6,"mosquito_risk":0,"arthritis_risk":5,"migraine_risk":7,"frizz_risk":0,"updated_at":"2026-05-22T03:51:20.197335+05:30"},{"city":"Saharanpur","state":"Uttar Pradesh","latitude":29.9637,"longitude":77.546,"temp":29.0,"humidity":34,"rain":0.0,"pressure":970.7,"uv_index":7.4,"wind_gusts":45.4,"aqi":153,"pm10":59.5,"pm2_5":37.7,"no2":25.2,"co":340.0,"o3":61.0,"so2":13.7,"mosquito_risk":4,"arthritis_risk":5,"migraine_risk":7,"frizz_risk":0,"updated_at":"2026-05-22T03:51:20.197341+05:30"},{"city":"Jhansi","state":"Uttar Pradesh","latitude":25.4484,"longitude":78.5685,"temp":30.8,"humidity":19,"rain":0.0,"pressure":974.1,"uv_index":8.5,"wind_gusts":45.0,"aqi":62,"pm10":26.7,"pm2_5":14.8,"no2":3.8,"co":145.0,"o3":70.0,"so2":1.6,"mosquito_risk":0,"arthritis_risk":5,"migraine_risk":7,"frizz_risk":0,"updated_at":"2026-05-22T03:51:23.561501+05:30"},{"city":"Surat","state":"Gujarat","latitude":21.1702,"longitude":72.8311,"temp":28.9,"humidity":86,"rain":0.0,"pressure":1005.0,"uv_index":7.75,"wind_gusts":40.3,"aqi":77,"pm10":29.6,"pm2_5":20.6,"no2":27.0,"co":400.0,"o3":24.0,"so2":43.9,"mosquito_risk":7,"arthritis_risk":5,"migraine_risk":4,"frizz_risk":1,"updated_at":"2026-05-22T03:51:23.561534+05:30"},{"city":"Vadodara","state":"Gujarat","latitude":22.3072,"longitude":73.1812,"temp":30.5,"humidity":59,"rain":0.0,"pressure":1002.2,"uv_index":8.15,"wind_gusts":40.7,"aqi":81,"pm10":25.1,"pm2_5":15.8,"no2":13.9,"co":126.0,"o3":34.0,"so2":15.0,"mosquito_risk":0,"arthritis_risk":5,"migraine_risk":4,"frizz_risk":1,"updated_at":"2026-05-22T03:51:23.561545+05:30"},{"city":"Rajkot","state":"Gujarat","latitude":22.3039,"longitude":70.8022,"temp":27.6,"humidity":78,"rain":0.0,"pressure":992.6,"uv_index":7.75,"wind_gusts":43.6,"aqi":70,"pm10":40.3,"pm2_5":19.7,"no2":6.3,"co":131.0,"o3":43.0,"so2":6.1,"mosquito_risk":7,"arthritis_risk":5,"migraine_risk":7,"frizz_risk":1,"updated_at":"2026-05-22T03:51:23.561553+05:30"},{"city":"Thane","state":"Maharashtra","latitude":19.2183,"longitude":72.9781,"temp":29.6,"humidity":76,"rain":0.0,"pressure":1006.4,"uv_index":7.7,"wind_gusts":31.7,"aqi":55,"pm10":21.4,"pm2_5":13.3,"no2":10.1,"co":184.0,"o3":42.0,"so2":8.2,"mosquito_risk":7,"arthritis_risk":5,"migraine_risk":4,"frizz_risk":1,"updated_at":"2026-05-22T03:51:23.561561+05:30"},{"city":"Nagpur","state":"Maharashtra","latitude":21.1458,"longitude":79.0882,"temp":34.7,"humidity":26,"rain":0.0,"pressure":968.7,"uv_index":8.95,"wind_gusts":46.4,"aqi":73,"pm10":34.5,"pm2_5":25.7,"no2":13.7,"co":242.0,"o3":57.0,"so2":9.6,"mosquito_risk":0,"arthritis_risk":5,"migraine_risk":7,"frizz_risk":0,"updated_at":"2026-05-22T03:51:23.561569+05:30"},{"city":"Nashik","state":"Maharashtra","latitude":19.9975,"longitude":73.7898,"temp":25.5,"humidity":79,"rain":0.0,"pressure":944.3,"uv_index":8.15,"wind_gusts":34.2,"aqi":49,"pm10":16.8,"pm2_5":9.8,"no2":8.1,"co":149.0,"o3":38.0,"so2":4.6,"mosquito_risk":7,"arthritis_risk":5,"migraine_risk":7,"frizz_risk":1,"updated_at":"2026-05-22T03:51:23.561576+05:30"},{"city":"Aurangabad","state":"Maharashtra","latitude":19.8762,"longitude":75.3433,"temp":28.6,"humidity":60,"rain":0.0,"pressure":942.5,"uv_index":8.3,"wind_gusts":49.7,"aqi":67,"pm10":20.8,"pm2_5":13.6,"no2":9.1,"co":160.0,"o3":50.0,"so2":5.6,"mosquito_risk":4,"arthritis_risk":5,"migraine_risk":7,"frizz_risk":1,"updated_at":"2026-05-22T03:51:23.561584+05:30"},{"city":"Solapur","state":"Maharashtra","latitude":17.6599,"longitude":75.9064,"temp":29.2,"humidity":61,"rain":0.0,"pressure":955.7,"uv_index":8.8,"wind_gusts":37.1,"aqi":78,"pm10":14.2,"pm2_5":11.4,"no2":6.9,"co":202.0,"o3":56.0,"so2":3.3,"mosquito_risk":7,"arthritis_risk":5,"migraine_risk":7,"frizz_risk":1,"updated_at":"2026-05-22T03:51:23.561592+05:30"},{"city":"Kolhapur","state":"Maharashtra","latitude":16.705,"longitude":74.2433,"temp":24.3,"humidity":89,"rain":0.0,"pressure":946.8,"uv_index":8.35,"wind_gusts":42.8,"aqi":55,"pm10":13.8,"pm2_5":10.9,"no2":7.5,"co":173.0,"o3":46.0,"so2":3.0,"mosquito_risk":3,"arthritis_risk":5,"migraine_risk":7,"frizz_risk":1,"updated_at":"2026-05-22T03:51:23.561599+05:30"},{"city":"Goa","state":"Goa","latitude":15.2993,"longitude":74.124,"temp":26.5,"humidity":91,"rain":0.0,"pressure":996.6,"uv_index":6.85,"wind_gusts":30.2,"aqi":45,"pm10":19.7,"pm2_5":16.1,"no2":7.4,"co":325.0,"o3":46.0,"so2":1.5,"mosquito_risk":7,"arthritis_risk":5,"migraine_risk":7,"frizz_risk":1,"updated_at":"2026-05-22T03:51:23.561607+05:30"},{"city":"Jodhpur","state":"Rajasthan","latitude":26.2389,"longitude":73.0243,"temp":31.2,"humidity":36,"rain":0.0,"pressure":980.3,"uv_index":8.45,"wind_gusts":37.4,"aqi":171,"pm10":280.3,"pm2_5":65.2,"no2":3.7,"co":147.0,"o3":56.0,"so2":3.2,"mosquito_risk":0,"arthritis_risk":5,"migraine_risk":7,"frizz_risk":0,"updated_at":"2026-05-22T03:51:23.561614+05:30"},{"city":"Udaipur","state":"Rajasthan","latitude":24.5854,"longitude":73.7125,"temp":27.8,"humidity":29,"rain":0.0,"pressure":944.4,"uv_index":8.85,"wind_gusts":40.7,"aqi":66,"pm10":39.5,"pm2_5":18.7,"no2":4.0,"co":136.0,"o3":67.0,"so2":2.9,"mosquito_risk":4,"arthritis_risk":5,"migraine_risk":7,"frizz_risk":0,"updated_at":"2026-05-22T03:51:23.561622+05:30"},{"city":"Kota","state":"Rajasthan","latitude":25.2138,"longitude":75.8648,"temp":31.1,"humidity":22,"rain":0.0,"pressure":976.1,"uv_index":8.45,"wind_gusts":43.6,"aqi":73,"pm10":31.3,"pm2_5":19.9,"no2":7.8,"co":177.0,"o3":46.0,"so2":4.0,"mosquito_risk":0,"arthritis_risk":5,"migraine_risk":7,"frizz_risk":0,"updated_at":"2026-05-22T03:51:23.561629+05:30"},{"city":"Bikaner","state":"Rajasthan","latitude":28.0229,"longitude":73.3119,"temp":32.6,"humidity":33,"rain":0.0,"pressure":978.0,"uv_index":8.4,"wind_gusts":38.5,"aqi":168,"pm10":347.4,"pm2_5":115.3,"no2":3.1,"co":133.0,"o3":58.0,"so2":2.3,"mosquito_risk":0,"arthritis_risk":5,"migraine_risk":7,"frizz_risk":0,"updated_at":"2026-05-22T03:51:23.561637+05:30"},{"city":"Ajmer","state":"Rajasthan","latitude":26.4499,"longitude":74.6399,"temp":29.2,"humidity":31,"rain":0.0,"pressure":952.4,"uv_index":8.4,"wind_gusts":44.6,"aqi":84,"pm10":53.7,"pm2_5":22.9,"no2":4.0,"co":155.0,"o3":64.0,"so2":3.5,"mosquito_risk":4,"arthritis_risk":5,"migraine_risk":7,"frizz_risk":0,"updated_at":"2026-05-22T03:51:23.561643+05:30"},{"city":"Gwalior","state":"Madhya Pradesh","latitude":26.2183,"longitude":78.1828,"temp":31.9,"humidity":21,"rain":0.0,"pressure":979.4,"uv_index":8.3,"wind_gusts":45.0,"aqi":71,"pm10":40.9,"pm2_5":18.2,"no2":4.9,"co":147.0,"o3":67.0,"so2":2.6,"mosquito_risk":0,"arthritis_risk":5,"migraine_risk":7,"frizz_risk":0,"updated_at":"2026-05-22T03:51:23.561651+05:30"},{"city":"Indore","state":"Madhya Pradesh","latitude":22.7196,"longitude":75.8577,"temp":30.8,"humidity":28,"rain":0.0,"pressure":946.2,"uv_index":8.7,"wind_gusts":43.2,"aqi":74,"pm10":44.8,"pm2_5":24.3,"no2":4.0,"co":214.0,"o3":92.0,"so2":6.6,"mosquito_risk":0,"arthritis_risk":5,"migraine_risk":7,"frizz_risk":0,"updated_at":"2026-05-22T03:51:23.561659+05:30"},{"city":"Bhopal","state":"Madhya Pradesh","latitude":23.2599,"longitude":77.4126,"temp":31.3,"humidity":24,"rain":0.0,"pressure":951.2,"uv_index":8.7,"wind_gusts":42.5,"aqi":70,"pm10":35.2,"pm2_5":23.8,"no2":7.5,"co":246.0,"o3":54.0,"so2":4.4,"mosquito_risk":0,"arthritis_risk":5,"migraine_risk":7,"frizz_risk":0,"updated_at":"2026-05-22T03:51:23.561666+05:30"},{"city":"Jabalpur","state":"Madhya Pradesh","latitude":23.1815,"longitude":79.9864,"temp":31.1,"humidity":21,"rain":0.0,"pressure":957.6,"uv_index":8.9,"wind_gusts":37.8,"aqi":66,"pm10":38.8,"pm2_5":27.2,"no2":30.7,"co":219.0,"o3":37.0,"so2":5.6,"mosquito_risk":0,"arthritis_risk":5,"migraine_risk":7,"frizz_risk":0,"updated_at":"2026-05-22T03:51:23.561673+05:30"},{"city":"Ujjain","state":"Madhya Pradesh","latitude":23.1765,"longitude":75.7885,"temp":30.5,"humidity":29,"rain":0.0,"pressure":951.8,"uv_index":8.65,"wind_gusts":40.7,"aqi":74,"pm10":46.0,"pm2_5":25.6,"no2":4.5,"co":208.0,"o3":85.0,"so2":7.7,"mosquito_risk":0,"arthritis_risk":5,"migraine_risk":7,"frizz_risk":0,"updated_at":"2026-05-22T03:51:23.561681+05:30"},{"city":"Visakhapatnam","state":"Andhra Pradesh","latitude":17.6868,"longitude":83.2185,"temp":30.7,"humidity":80,"rain":0.0,"pressure":998.0,"uv_index":9.1,"wind_gusts":39.2,"aqi":141,"pm10":47.6,"pm2_5":37.6,"no2":25.0,"co":408.0,"o3":94.0,"so2":37.9,"mosquito_risk":3,"arthritis_risk":5,"migraine_risk":7,"frizz_risk":1,"updated_at":"2026-05-22T03:51:23.561688+05:30"},{"city":"Vijayawada","state":"Andhra Pradesh","latitude":16.5062,"longitude":80.648,"temp":32.4,"humidity":70,"rain":0.0,"pressure":997.0,"uv_index":9.15,"wind_gusts":49.0,"aqi":124,"pm10":43.5,"pm2_5":35.3,"no2":6.6,"co":293.0,"o3":111.0,"so2":7.8,"mosquito_risk":3,"arthritis_risk":5,"migraine_risk":7,"frizz_risk":1,"updated_at":"2026-05-22T03:51:23.561696+05:30"},{"city":"Guntur","state":"Andhra Pradesh","latitude":16.3067,"longitude":80.4365,"temp":32.8,"humidity":59,"rain":0.0,"pressure":998.2,"uv_index":9.15,"wind_gusts":47.9,"aqi":124,"pm10":52.5,"pm2_5":43.1,"no2":8.8,"co":281.0,"o3":93.0,"so2":8.0,"mosquito_risk":0,"arthritis_risk":5,"migraine_risk":7,"frizz_risk":1,"updated_at":"2026-05-22T03:51:23.561703+05:30"},{"city":"Nellore","state":"Andhra Pradesh","latitude":14.4426,"longitude":79.9865,"temp":30.6,"humidity":57,"rain":0.0,"pressure":1001.8,"uv_index":9.0,"wind_gusts":46.8,"aqi":80,"pm10":22.2,"pm2_5":17.3,"no2":5.1,"co":168.0,"o3":98.0,"so2":6.2,"mosquito_risk":0,"arthritis_risk":5,"migraine_risk":4,"frizz_risk":1,"updated_at":"2026-05-22T03:51:23.561711+05:30"},{"city":"Kurnool","state":"Andhra Pradesh","latitude":15.8281,"longitude":78.0373,"temp":29.9,"humidity":64,"rain":0.0,"pressure":974.9,"uv_index":9.05,"wind_gusts":55.4,"aqi":84,"pm10":14.5,"pm2_5":12.9,"no2":9.5,"co":197.0,"o3":58.0,"so2":3.5,"mosquito_risk":7,"arthritis_risk":5,"migraine_risk":7,"frizz_risk":1,"updated_at":"2026-05-22T03:51:23.561719+05:30"},{"city":"Kakinada","state":"Andhra Pradesh","latitude":16.9891,"longitude":82.2475,"temp":31.8,"humidity":73,"rain":0.0,"pressure":1002.0,"uv_index":9.1,"wind_gusts":43.6,"aqi":93,"pm10":35.4,"pm2_5":25.8,"no2":3.9,"co":267.0,"o3":129.0,"so2":4.5,"mosquito_risk":3,"arthritis_risk":5,"migraine_risk":4,"frizz_risk":1,"updated_at":"2026-05-22T03:51:23.561726+05:30"},{"city":"Tirupati","state":"Andhra Pradesh","latitude":13.6288,"longitude":79.4192,"temp":25.7,"humidity":80,"rain":0.0,"pressure":988.1,"uv_index":9.1,"wind_gusts":39.2,"aqi":69,"pm10":17.5,"pm2_5":14.5,"no2":4.8,"co":203.0,"o3":88.0,"so2":1.5,"mosquito_risk":7,"arthritis_risk":5,"migraine_risk":7,"frizz_risk":1,"updated_at":"2026-05-22T03:51:23.561733+05:30"},{"city":"Warangal","state":"Telangana","latitude":17.9689,"longitude":79.5941,"temp":32.6,"humidity":37,"rain":0.0,"pressure":973.5,"uv_index":9.0,"wind_gusts":46.8,"aqi":122,"pm10":60.8,"pm2_5":48.7,"no2":22.0,"co":287.0,"o3":54.0,"so2":6.7,"mosquito_risk":0,"arthritis_risk":5,"migraine_risk":7,"frizz_risk":0,"updated_at":"2026-05-22T03:51:23.561740+05:30"},{"city":"Nizamabad","state":"Telangana","latitude":18.6725,"longitude":78.0941,"temp":33.0,"humidity":40,"rain":0.0,"pressure":961.2,"uv_index":9.1,"wind_gusts":37.4,"aqi":117,"pm10":62.2,"pm2_5":51.0,"no2":27.4,"co":208.0,"o3":44.0,"so2":7.1,"mosquito_risk":0,"arthritis_risk":5,"migraine_risk":7,"frizz_risk":1,"updated_at":"2026-05-22T03:51:23.561747+05:30"},{"city":"Mysore","state":"Karnataka","latitude":12.2958,"longitude":76.6396,"temp":23.0,"humidity":89,"rain":0.0,"pressure":927.7,"uv_index":2.35,"wind_gusts":43.9,"aqi":24,"pm10":5.4,"pm2_5":4.8,"no2":7.2,"co":136.0,"o3":41.0,"so2":1.9,"mosquito_risk":3,"arthritis_risk":5,"migraine_risk":3,"frizz_risk":1,"updated_at":"2026-05-22T03:51:23.561754+05:30"},{"city":"Mangalore","state":"Karnataka","latitude":12.9141,"longitude":74.856,"temp":25.4,"humidity":96,"rain":0.0,"pressure":1006.1,"uv_index":8.75,"wind_gusts":38.2,"aqi":44,"pm10":12.0,"pm2_5":9.7,"no2":8.4,"co":203.0,"o3":32.0,"so2":2.5,"mosquito_risk":7,"arthritis_risk":5,"migraine_risk":4,"frizz_risk":1,"updated_at":"2026-05-22T03:51:23.561761+05:30"},{"city":"Hubli-Dharwad","state":"Karnataka","latitude":15.3647,"longitude":75.124,"temp":23.2,"humidity":96,"rain":0.0,"pressure":939.7,"uv_index":9.05,"wind_gusts":51.5,"aqi":23,"pm10":5.9,"pm2_5":4.9,"no2":6.4,"co":134.0,"o3":38.0,"so2":1.2,"mosquito_risk":3,"arthritis_risk":5,"migraine_risk":7,"frizz_risk":1,"updated_at":"2026-05-22T03:51:23.561769+05:30"},{"city":"Belgaum","state":"Karnataka","latitude":15.8497,"longitude":74.4977,"temp":22.3,"humidity":96,"rain":0.0,"pressure":924.4,"uv_index":8.85,"wind_gusts":35.6,"aqi":45,"pm10":10.2,"pm2_5":8.6,"no2":5.5,"co":166.0,"o3":42.0,"so2":1.0,"mosquito_risk":3,"arthritis_risk":5,"migraine_risk":7,"frizz_risk":1,"updated_at":"2026-05-22T03:51:26.938702+05:30"},{"city":"Coimbatore","state":"Tamil Nadu","latitude":11.0168,"longitude":76.9558,"temp":25.2,"humidity":85,"rain":0.0,"pressure":960.2,"uv_index":8.85,"wind_gusts":57.6,"aqi":23,"pm10":5.6,"pm2_5":4.7,"no2":6.0,"co":144.0,"o3":39.0,"so2":2.4,"mosquito_risk":7,"arthritis_risk":5,"migraine_risk":7,"frizz_risk":1,"updated_at":"2026-05-22T03:51:26.938737+05:30"},{"city":"Madurai","state":"Tamil Nadu","latitude":9.9252,"longitude":78.1198,"temp":29.0,"humidity":64,"rain":0.0,"pressure":990.9,"uv_index":8.4,"wind_gusts":49.0,"aqi":64,"pm10":24.8,"pm2_5":24.3,"no2":40.0,"co":162.0,"o3":0.0,"so2":6.2,"mosquito_risk":7,"arthritis_risk":5,"migraine_risk":7,"frizz_risk":1,"updated_at":"2026-05-22T03:51:26.938748+05:30"},{"city":"Trichy","state":"Tamil Nadu","latitude":10.7905,"longitude":78.7047,"temp":28.5,"humidity":66,"rain":0.0,"pressure":997.6,"uv_index":8.95,"wind_gusts":46.8,"aqi":33,"pm10":6.8,"pm2_5":5.6,"no2":6.8,"co":136.0,"o3":42.0,"so2":3.0,"mosquito_risk":7,"arthritis_risk":5,"migraine_risk":7,"frizz_risk":1,"updated_at":"2026-05-22T03:51:26.938758+05:30"},{"city":"Salem","state":"Tamil Nadu","latitude":11.6643,"longitude":78.146,"temp":28.0,"humidity":71,"rain":0.0,"pressure":976.1,"uv_index":9.0,"wind_gusts":31.7,"aqi":54,"pm10":16.5,"pm2_5":15.1,"no2":22.7,"co":212.0,"o3":26.0,"so2":6.4,"mosquito_risk":7,"arthritis_risk":5,"migraine_risk":7,"frizz_risk":1,"updated_at":"2026-05-22T03:51:26.938768+05:30"},{"city":"Tirunelveli","state":"Tamil Nadu","latitude":8.7139,"longitude":77.7567,"temp":28.6,"humidity":72,"rain":0.0,"pressure":1001.2,"uv_index":7.95,"wind_gusts":46.8,"aqi":22,"pm10":6.1,"pm2_5":5.2,"no2":5.8,"co":165.0,"o3":35.0,"so2":2.0,"mosquito_risk":7,"arthritis_risk":5,"migraine_risk":4,"frizz_risk":1,"updated_at":"2026-05-22T03:51:26.938777+05:30"},{"city":"Vellore","state":"Tamil Nadu","latitude":12.9165,"longitude":79.1325,"temp":27.5,"humidity":69,"rain":0.0,"pressure":982.4,"uv_index":8.7,"wind_gusts":44.3,"aqi":66,"pm10":9.5,"pm2_5":9.0,"no2":9.4,"co":202.0,"o3":70.0,"so2":3.7,"mosquito_risk":7,"arthritis_risk":5,"migraine_risk":7,"frizz_risk":1,"updated_at":"2026-05-22T03:51:26.938786+05:30"},{"city":"Erode","state":"Tamil Nadu","latitude":11.341,"longitude":77.7172,"temp":28.4,"humidity":67,"rain":0.0,"pressure":987.6,"uv_index":8.2,"wind_gusts":51.8,"aqi":39,"pm10":12.1,"pm2_5":10.7,"no2":14.7,"co":168.0,"o3":33.0,"so2":3.8,"mosquito_risk":7,"arthritis_risk":5,"migraine_risk":7,"frizz_risk":1,"updated_at":"2026-05-22T03:51:26.938793+05:30"},{"city":"Kochi","state":"Kerala","latitude":9.9312,"longitude":76.2673,"temp":25.4,"humidity":96,"rain":0.1,"pressure":1008.2,"uv_index":6.7,"wind_gusts":37.4,"aqi":55,"pm10":16.9,"pm2_5":15.9,"no2":22.6,"co":131.0,"o3":9.0,"so2":5.2,"mosquito_risk":10,"arthritis_risk":0,"migraine_risk":4,"frizz_risk":1,"updated_at":"2026-05-22T03:51:26.938802+05:30"},{"city":"Thiruvananthapuram","state":"Kerala","latitude":8.5241,"longitude":76.9366,"temp":25.5,"humidity":98,"rain":0.1,"pressure":1007.7,"uv_index":7.55,"wind_gusts":38.9,"aqi":26,"pm10":8.9,"pm2_5":6.0,"no2":3.0,"co":108.0,"o3":52.0,"so2":1.1,"mosquito_risk":10,"arthritis_risk":5,"migraine_risk":4,"frizz_risk":1,"updated_at":"2026-05-22T03:51:26.938809+05:30"},{"city":"Kozhikode","state":"Kerala","latitude":11.2588,"longitude":75.7804,"temp":26.0,"humidity":97,"rain":0.0,"pressure":1007.1,"uv_index":8.0,"wind_gusts":33.1,"aqi":27,"pm10":9.5,"pm2_5":6.2,"no2":1.7,"co":161.0,"o3":57.0,"so2":0.8,"mosquito_risk":7,"arthritis_risk":5,"migraine_risk":4,"frizz_risk":1,"updated_at":"2026-05-22T03:51:26.938816+05:30"},{"city":"Thrissur","state":"Kerala","latitude":10.5276,"longitude":76.2144,"temp":25.3,"humidity":95,"rain":0.1,"pressure":1006.3,"uv_index":7.15,"wind_gusts":34.6,"aqi":55,"pm10":18.3,"pm2_5":17.4,"no2":21.0,"co":186.0,"o3":8.0,"so2":4.6,"mosquito_risk":10,"arthritis_risk":5,"migraine_risk":4,"frizz_risk":1,"updated_at":"2026-05-22T03:51:26.938825+05:30"},{"city":"Kannur","state":"Kerala","latitude":11.8745,"longitude":75.3704,"temp":25.4,"humidity":97,"rain":0.0,"pressure":1006.3,"uv_index":7.6,"wind_gusts":32.4,"aqi":31,"pm10":7.7,"pm2_5":6.4,"no2":9.4,"co":157.0,"o3":28.0,"so2":2.4,"mosquito_risk":7,"arthritis_risk":5,"migraine_risk":4,"frizz_risk":1,"updated_at":"2026-05-22T03:51:26.938832+05:30"},{"city":"Patna","state":"Bihar","latitude":25.5941,"longitude":85.1376,"temp":28.1,"humidity":86,"rain":0.0,"pressure":996.8,"uv_index":8.85,"wind_gusts":28.8,"aqi":155,"pm10":37.6,"pm2_5":32.9,"no2":14.5,"co":407.0,"o3":83.0,"so2":16.0,"mosquito_risk":7,"arthritis_risk":5,"migraine_risk":7,"frizz_risk":1,"updated_at":"2026-05-22T03:51:26.938839+05:30"},{"city":"Gaya","state":"Bihar","latitude":24.7914,"longitude":85.0002,"temp":29.4,"humidity":81,"rain":0.0,"pressure":989.6,"uv_index":8.9,"wind_gusts":30.6,"aqi":155,"pm10":53.3,"pm2_5":49.5,"no2":13.6,"co":443.0,"o3":99.0,"so2":18.7,"mosquito_risk":7,"arthritis_risk":5,"migraine_risk":7,"frizz_risk":1,"updated_at":"2026-05-22T03:51:26.938845+05:30"},{"city":"Muzaffarpur","state":"Bihar","latitude":26.1209,"longitude":85.3647,"temp":27.2,"humidity":88,"rain":0.0,"pressure":997.3,"uv_index":8.85,"wind_gusts":33.5,"aqi":152,"pm10":32.8,"pm2_5":29.7,"no2":15.0,"co":408.0,"o3":73.0,"so2":11.8,"mosquito_risk":7,"arthritis_risk":5,"migraine_risk":7,"frizz_risk":1,"updated_at":"2026-05-22T03:51:26.938852+05:30"},{"city":"Bhagalpur","state":"Bihar","latitude":25.2425,"longitude":87.0117,"temp":27.2,"humidity":91,"rain":0.0,"pressure":998.2,"uv_index":8.85,"wind_gusts":33.1,"aqi":123,"pm10":48.1,"pm2_5":41.9,"no2":13.9,"co":499.0,"o3":82.0,"so2":12.9,"mosquito_risk":7,"arthritis_risk":5,"migraine_risk":7,"frizz_risk":1,"updated_at":"2026-05-22T03:51:26.938859+05:30"},{"city":"Ranchi","state":"Jharkhand","latitude":23.3441,"longitude":85.3096,"temp":25.5,"humidity":68,"rain":0.0,"pressure":934.2,"uv_index":9.3,"wind_gusts":31.3,"aqi":146,"pm10":122.0,"pm2_5":73.3,"no2":39.4,"co":555.0,"o3":45.0,"so2":22.4,"mosquito_risk":7,"arthritis_risk":5,"migraine_risk":7,"frizz_risk":1,"updated_at":"2026-05-22T03:51:26.938866+05:30"},{"city":"Jamshedpur","state":"Jharkhand","latitude":22.8046,"longitude":86.2029,"temp":28.4,"humidity":95,"rain":0.0,"pressure":986.9,"uv_index":9.1,"wind_gusts":27.4,"aqi":156,"pm10":90.3,"pm2_5":68.2,"no2":23.7,"co":387.0,"o3":45.0,"so2":15.6,"mosquito_risk":7,"arthritis_risk":5,"migraine_risk":7,"frizz_risk":1,"updated_at":"2026-05-22T03:51:26.938872+05:30"},{"city":"Dhanbad","state":"Jharkhand","latitude":23.7957,"longitude":86.4304,"temp":28.8,"humidity":87,"rain":0.0,"pressure":976.2,"uv_index":9.1,"wind_gusts":30.6,"aqi":167,"pm10":108.7,"pm2_5":95.2,"no2":45.6,"co":567.0,"o3":42.0,"so2":137.2,"mosquito_risk":7,"arthritis_risk":5,"migraine_risk":7,"frizz_risk":1,"updated_at":"2026-05-22T03:51:26.938880+05:30"},{"city":"Bokaro","state":"Jharkhand","latitude":23.6693,"longitude":86.1511,"temp":28.2,"humidity":88,"rain":0.0,"pressure":980.0,"uv_index":9.1,"wind_gusts":24.8,"aqi":166,"pm10":110.8,"pm2_5":96.4,"no2":41.2,"co":597.0,"o3":68.0,"so2":130.6,"mosquito_risk":7,"arthritis_risk":5,"migraine_risk":7,"frizz_risk":1,"updated_at":"2026-05-22T03:51:26.938887+05:30"},{"city":"Bhubaneswar","state":"Odisha","latitude":20.2961,"longitude":85.8245,"temp":29.2,"humidity":98,"rain":0.0,"pressure":997.7,"uv_index":9.15,"wind_gusts":36.7,"aqi":157,"pm10":40.2,"pm2_5":32.2,"no2":5.6,"co":329.0,"o3":103.0,"so2":6.2,"mosquito_risk":7,"arthritis_risk":5,"migraine_risk":7,"frizz_risk":1,"updated_at":"2026-05-22T03:51:26.938894+05:30"},{"city":"Cuttack","state":"Odisha","latitude":20.4625,"longitude":85.8828,"temp":29.4,"humidity":98,"rain":0.0,"pressure":999.5,"uv_index":9.2,"wind_gusts":33.5,"aqi":157,"pm10":40.2,"pm2_5":32.2,"no2":5.6,"co":343.0,"o3":103.0,"so2":6.2,"mosquito_risk":7,"arthritis_risk":5,"migraine_risk":7,"frizz_risk":1,"updated_at":"2026-05-22T03:51:26.938901+05:30"},{"city":"Rourkela","state":"Odisha","latitude":22.2604,"longitude":84.8536,"temp":29.5,"humidity":63,"rain":0.0,"pressure":980.9,"uv_index":9.05,"wind_gusts":34.6,"aqi":161,"pm10":190.0,"pm2_5":114.3,"no2":59.5,"co":726.0,"o3":12.0,"so2":25.6,"mosquito_risk":7,"arthritis_risk":5,"migraine_risk":7,"frizz_risk":1,"updated_at":"2026-05-22T03:51:26.938909+05:30"},{"city":"Raipur","state":"Chhattisgarh","latitude":21.2514,"longitude":81.6296,"temp":32.2,"humidity":40,"rain":0.0,"pressure":969.6,"uv_index":8.9,"wind_gusts":38.5,"aqi":152,"pm10":98.5,"pm2_5":82.4,"no2":71.1,"co":638.0,"o3":1.0,"so2":55.3,"mosquito_risk":0,"arthritis_risk":5,"migraine_risk":7,"frizz_risk":1,"updated_at":"2026-05-22T03:51:26.938916+05:30"},{"city":"Bhilai","state":"Chhattisgarh","latitude":21.1938,"longitude":81.3509,"temp":31.2,"humidity":34,"rain":0.0,"pressure":969.9,"uv_index":8.5,"wind_gusts":36.4,"aqi":119,"pm10":66.6,"pm2_5":52.5,"no2":46.0,"co":653.0,"o3":18.0,"so2":39.4,"mosquito_risk":0,"arthritis_risk":5,"migraine_risk":7,"frizz_risk":0,"updated_at":"2026-05-22T03:51:26.938923+05:30"},{"city":"Guwahati","state":"Assam","latitude":26.1158,"longitude":91.7086,"temp":24.8,"humidity":98,"rain":0.0,"pressure":999.0,"uv_index":8.8,"wind_gusts":26.6,"aqi":104,"pm10":57.4,"pm2_5":53.4,"no2":16.6,"co":441.0,"o3":31.0,"so2":2.8,"mosquito_risk":3,"arthritis_risk":5,"migraine_risk":7,"frizz_risk":1,"updated_at":"2026-05-22T03:51:26.938930+05:30"},{"city":"Agartala","state":"Tripura","latitude":23.8315,"longitude":91.2868,"temp":26.0,"humidity":98,"rain":0.0,"pressure":1003.4,"uv_index":8.8,"wind_gusts":33.5,"aqi":86,"pm10":32.0,"pm2_5":20.2,"no2":12.3,"co":233.0,"o3":54.0,"so2":2.5,"mosquito_risk":7,"arthritis_risk":5,"migraine_risk":4,"frizz_risk":1,"updated_at":"2026-05-22T03:51:26.938937+05:30"},{"city":"Shillong","state":"Meghalaya","latitude":25.5788,"longitude":91.8933,"temp":18.5,"humidity":96,"rain":0.0,"pressure":855.4,"uv_index":7.4,"wind_gusts":25.9,"aqi":84,"pm10":26.1,"pm2_5":20.8,"no2":6.0,"co":255.0,"o3":66.0,"so2":4.9,"mosquito_risk":3,"arthritis_risk":10,"migraine_risk":7,"frizz_risk":1,"updated_at":"2026-05-22T03:51:26.938944+05:30"},{"city":"Imphal","state":"Manipur","latitude":24.817,"longitude":93.9368,"temp":22.1,"humidity":98,"rain":0.0,"pressure":921.4,"uv_index":8.75,"wind_gusts":34.9,"aqi":134,"pm10":63.6,"pm2_5":57.4,"no2":23.3,"co":463.0,"o3":20.0,"so2":2.2,"mosquito_risk":3,"arthritis_risk":5,"migraine_risk":7,"frizz_risk":1,"updated_at":"2026-05-22T03:51:26.938951+05:30"},{"city":"Aizawl","state":"Mizoram","latitude":23.7271,"longitude":92.7176,"temp":19.8,"humidity":100,"rain":0.0,"pressure":890.1,"uv_index":8.5,"wind_gusts":30.6,"aqi":78,"pm10":23.8,"pm2_5":18.9,"no2":5.6,"co":238.0,"o3":39.0,"so2":1.4,"mosquito_risk":3,"arthritis_risk":10,"migraine_risk":7,"frizz_risk":1,"updated_at":"2026-05-22T03:51:26.938958+05:30"},{"city":"Kohima","state":"Nagaland","latitude":25.6701,"longitude":94.1077,"temp":17.4,"humidity":93,"rain":0.0,"pressure":853.2,"uv_index":9.0,"wind_gusts":26.6,"aqi":112,"pm10":43.7,"pm2_5":34.9,"no2":9.6,"co":219.0,"o3":29.0,"so2":1.0,"mosquito_risk":3,"arthritis_risk":10,"migraine_risk":7,"frizz_risk":1,"updated_at":"2026-05-22T03:51:26.938965+05:30"},{"city":"Gangtok","state":"Sikkim","latitude":27.3314,"longitude":88.6138,"temp":16.6,"humidity":89,"rain":0.3,"pressure":836.1,"uv_index":9.15,"wind_gusts":35.6,"aqi":71,"pm10":15.8,"pm2_5":13.2,"no2":4.9,"co":485.0,"o3":107.0,"so2":1.9,"mosquito_risk":6,"arthritis_risk":10,"migraine_risk":7,"frizz_risk":0,"updated_at":"2026-05-22T03:51:26.938972+05:30"},{"city":"Siliguri","state":"West Bengal","latitude":26.7271,"longitude":88.3953,"temp":25.5,"humidity":86,"rain":0.0,"pressure":990.4,"uv_index":8.0,"wind_gusts":21.2,"aqi":135,"pm10":55.2,"pm2_5":46.7,"no2":14.7,"co":346.0,"o3":98.0,"so2":6.1,"mosquito_risk":7,"arthritis_risk":5,"migraine_risk":7,"frizz_risk":1,"updated_at":"2026-05-22T03:51:30.310276+05:30"},{"city":"Durgapur","state":"West Bengal","latitude":23.5204,"longitude":87.3119,"temp":28.9,"humidity":95,"rain":0.0,"pressure":991.1,"uv_index":9.0,"wind_gusts":30.2,"aqi":161,"pm10":75.9,"pm2_5":67.5,"no2":29.8,"co":520.0,"o3":41.0,"so2":34.7,"mosquito_risk":7,"arthritis_risk":5,"migraine_risk":7,"frizz_risk":1,"updated_at":"2026-05-22T03:51:30.310312+05:30"},{"city":"Asansol","state":"West Bengal","latitude":23.6739,"longitude":86.9524,"temp":28.8,"humidity":94,"rain":0.0,"pressure":989.9,"uv_index":9.05,"wind_gusts":30.6,"aqi":160,"pm10":73.3,"pm2_5":66.1,"no2":31.9,"co":605.0,"o3":44.0,"so2":41.7,"mosquito_risk":7,"arthritis_risk":5,"migraine_risk":7,"frizz_risk":1,"updated_at":"2026-05-22T03:51:30.310324+05:30"},{"city":"Pondicherry","state":"Puducherry","latitude":11.9139,"longitude":79.8145,"temp":29.2,"humidity":70,"rain":0.0,"pressure":1005.8,"uv_index":8.95,"wind_gusts":45.4,"aqi":67,"pm10":16.5,"pm2_5":14.6,"no2":16.7,"co":340.0,"o3":41.0,"so2":5.9,"mosquito_risk":7,"arthritis_risk":5,"migraine_risk":4,"frizz_risk":1,"updated_at":"2026-05-22T03:51:30.310334+05:30"},{"city":"Port Blair","state":"Andaman and Nicobar Islands","latitude":11.6234,"longitude":92.7265,"temp":24.9,"humidity":98,"rain":0.1,"pressure":1005.4,"uv_index":3.7,"wind_gusts":39.2,"aqi":28,"pm10":8.2,"pm2_5":5.4,"no2":0.3,"co":116.0,"o3":64.0,"so2":0.3,"mosquito_risk":6,"arthritis_risk":5,"migraine_risk":0,"frizz_risk":1,"updated_at":"2026-05-22T03:51:30.310344+05:30"},{"city":"Haridwar","state":"Uttarakhand","latitude":29.9457,"longitude":78.1642,"temp":26.9,"humidity":53,"rain":0.0,"pressure":968.9,"uv_index":7.55,"wind_gusts":33.1,"aqi":130,"pm10":64.5,"pm2_5":46.2,"no2":31.3,"co":265.0,"o3":35.0,"so2":9.4,"mosquito_risk":4,"arthritis_risk":5,"migraine_risk":7,"frizz_risk":1,"updated_at":"2026-05-22T03:51:30.310354+05:30"},{"city":"Rishikesh","state":"Uttarakhand","latitude":30.0869,"longitude":78.2676,"temp":23.0,"humidity":66,"rain":0.0,"pressure":961.4,"uv_index":7.7,"wind_gusts":27.0,"aqi":109,"pm10":64.0,"pm2_5":41.9,"no2":20.2,"co":266.0,"o3":59.0,"so2":8.3,"mosquito_risk":3,"arthritis_risk":5,"migraine_risk":7,"frizz_risk":1,"updated_at":"2026-05-22T03:51:30.310364+05:30"},{"city":"Nainital","state":"Uttarakhand","latitude":29.3919,"longitude":79.4542,"temp":16.8,"humidity":54,"rain":0.0,"pressure":803.8,"uv_index":8.5,"wind_gusts":45.4,"aqi":153,"pm10":204.4,"pm2_5":66.4,"no2":22.3,"co":265.0,"o3":76.0,"so2":7.2,"mosquito_risk":0,"arthritis_risk":5,"migraine_risk":7,"frizz_risk":0,"updated_at":"2026-05-22T03:51:30.310390+05:30"},{"city":"Mussoorie","state":"Uttarakhand","latitude":30.4599,"longitude":78.0664,"temp":18.8,"humidity":36,"rain":0.0,"pressure":801.8,"uv_index":8.1,"wind_gusts":51.1,"aqi":105,"pm10":63.1,"pm2_5":42.5,"no2":42.7,"co":213.0,"o3":16.0,"so2":7.6,"mosquito_risk":0,"arthritis_risk":5,"migraine_risk":7,"frizz_risk":0,"updated_at":"2026-05-22T03:51:30.310398+05:30"},{"city":"Dharamshala","state":"Himachal Pradesh","latitude":32.219,"longitude":76.3234,"temp":23.5,"humidity":30,"rain":0.0,"pressure":867.4,"uv_index":8.3,"wind_gusts":52.6,"aqi":51,"pm10":13.7,"pm2_5":8.6,"no2":11.1,"co":171.0,"o3":39.0,"so2":0.0,"mosquito_risk":0,"arthritis_risk":5,"migraine_risk":7,"frizz_risk":0,"updated_at":"2026-05-22T03:51:30.310405+05:30"},{"city":"Dalhousie","state":"Himachal Pradesh","latitude":32.5387,"longitude":75.971,"temp":13.3,"humidity":57,"rain":0.0,"pressure":800.7,"uv_index":6.95,"wind_gusts":62.3,"aqi":71,"pm10":31.1,"pm2_5":19.8,"no2":36.2,"co":249.0,"o3":6.0,"so2":0.9,"mosquito_risk":0,"arthritis_risk":5,"migraine_risk":7,"frizz_risk":0,"updated_at":"2026-05-22T03:51:30.310414+05:30"},{"city":"Patiala","state":"Punjab","latitude":30.3398,"longitude":76.3869,"temp":28.9,"humidity":39,"rain":0.0,"pressure":972.8,"uv_index":7.7,"wind_gusts":54.0,"aqi":152,"pm10":314.8,"pm2_5":61.7,"no2":13.3,"co":482.0,"o3":51.0,"so2":6.3,"mosquito_risk":4,"arthritis_risk":5,"migraine_risk":7,"frizz_risk":0,"updated_at":"2026-05-22T03:51:30.310422+05:30"},{"city":"Bhatinda","state":"Punjab","latitude":30.211,"longitude":74.9455,"temp":30.7,"humidity":34,"rain":0.0,"pressure":979.2,"uv_index":8.35,"wind_gusts":40.3,"aqi":106,"pm10":71.5,"pm2_5":29.9,"no2":14.4,"co":261.0,"o3":53.0,"so2":6.5,"mosquito_risk":0,"arthritis_risk":5,"migraine_risk":7,"frizz_risk":0,"updated_at":"2026-05-22T03:51:30.310429+05:30"},{"city":"Rohtak","state":"Haryana","latitude":28.8955,"longitude":76.6066,"temp":30.5,"humidity":25,"rain":0.0,"pressure":977.1,"uv_index":7.8,"wind_gusts":30.2,"aqi":947,"pm10":705.9,"pm2_5":130.4,"no2":15.5,"co":177.0,"o3":53.0,"so2":3.6,"mosquito_risk":0,"arthritis_risk":5,"migraine_risk":7,"frizz_risk":0,"updated_at":"2026-05-22T03:51:30.310436+05:30"},{"city":"Panipat","state":"Haryana","latitude":29.3909,"longitude":76.9635,"temp":31.6,"humidity":24,"rain":0.0,"pressure":975.4,"uv_index":7.6,"wind_gusts":43.9,"aqi":1715,"pm10":1367.2,"pm2_5":219.8,"no2":19.1,"co":253.0,"o3":42.0,"so2":4.7,"mosquito_risk":0,"arthritis_risk":5,"migraine_risk":7,"frizz_risk":0,"updated_at":"2026-05-22T03:51:30.310444+05:30"},{"city":"Mathura","state":"Uttar Pradesh","latitude":27.4924,"longitude":77.6737,"temp":31.5,"humidity":22,"rain":0.0,"pressure":982.1,"uv_index":8.0,"wind_gusts":32.4,"aqi":864,"pm10":1076.6,"pm2_5":141.6,"no2":8.4,"co":166.0,"o3":66.0,"so2":3.8,"mosquito_risk":0,"arthritis_risk":5,"migraine_risk":7,"frizz_risk":0,"updated_at":"2026-05-22T03:51:30.310451+05:30"},{"city":"Vrindavan","state":"Uttar Pradesh","latitude":27.5823,"longitude":77.7027,"temp":31.2,"humidity":23,"rain":0.0,"pressure":982.5,"uv_index":8.0,"wind_gusts":32.0,"aqi":864,"pm10":1076.6,"pm2_5":141.6,"no2":8.4,"co":171.0,"o3":66.0,"so2":3.8,"mosquito_risk":0,"arthritis_risk":5,"migraine_risk":7,"frizz_risk":0,"updated_at":"2026-05-22T03:51:30.310458+05:30"},{"city":"Ayodhya","state":"Uttar Pradesh","latitude":26.7922,"longitude":82.1998,"temp":29.3,"humidity":79,"rain":0.0,"pressure":991.2,"uv_index":8.4,"wind_gusts":29.5,"aqi":158,"pm10":73.3,"pm2_5":68.0,"no2":13.4,"co":491.0,"o3":86.0,"so2":10.9,"mosquito_risk":7,"arthritis_risk":5,"migraine_risk":7,"frizz_risk":1,"updated_at":"2026-05-22T03:51:30.310465+05:30"},{"city":"Ratlam","state":"Madhya Pradesh","latitude":23.3315,"longitude":75.0367,"temp":29.9,"humidity":33,"rain":0.0,"pressure":953.3,"uv_index":8.6,"wind_gusts":38.9,"aqi":74,"pm10":47.1,"pm2_5":26.5,"no2":5.8,"co":194.0,"o3":76.0,"so2":10.2,"mosquito_risk":4,"arthritis_risk":5,"migraine_risk":7,"frizz_risk":0,"updated_at":"2026-05-22T03:51:30.310472+05:30"},{"city":"Sagar","state":"Madhya Pradesh","latitude":23.8388,"longitude":78.7378,"temp":30.4,"humidity":18,"rain":0.0,"pressure":947.3,"uv_index":8.75,"wind_gusts":39.6,"aqi":58,"pm10":29.3,"pm2_5":15.8,"no2":8.1,"co":168.0,"o3":69.0,"so2":4.3,"mosquito_risk":0,"arthritis_risk":5,"migraine_risk":7,"frizz_risk":0,"updated_at":"2026-05-22T03:51:30.310479+05:30"},{"city":"Satna","state":"Madhya Pradesh","latitude":24.6005,"longitude":80.8322,"temp":30.8,"humidity":24,"rain":0.0,"pressure":967.0,"uv_index":8.8,"wind_gusts":38.9,"aqi":67,"pm10":25.4,"pm2_5":14.8,"no2":10.3,"co":173.0,"o3":71.0,"so2":4.4,"mosquito_risk":0,"arthritis_risk":5,"migraine_risk":7,"frizz_risk":0,"updated_at":"2026-05-22T03:51:30.310486+05:30"},{"city":"Akola","state":"Maharashtra","latitude":20.7002,"longitude":77.0082,"temp":33.8,"humidity":30,"rain":0.0,"pressure":971.7,"uv_index":8.9,"wind_gusts":47.2,"aqi":82,"pm10":41.4,"pm2_5":26.5,"no2":9.6,"co":227.0,"o3":66.0,"so2":6.5,"mosquito_risk":0,"arthritis_risk":5,"migraine_risk":7,"frizz_risk":0,"updated_at":"2026-05-22T03:51:30.310495+05:30"},{"city":"Amravati","state":"Maharashtra","latitude":20.9374,"longitude":77.7796,"temp":34.4,"humidity":27,"rain":0.0,"pressure":963.7,"uv_index":8.9,"wind_gusts":42.1,"aqi":82,"pm10":39.9,"pm2_5":27.8,"no2":13.3,"co":224.0,"o3":59.0,"so2":5.2,"mosquito_risk":0,"arthritis_risk":5,"migraine_risk":7,"frizz_risk":0,"updated_at":"2026-05-22T03:51:30.310504+05:30"},{"city":"Latur","state":"Maharashtra","latitude":18.4088,"longitude":76.5604,"temp":30.0,"humidity":55,"rain":0.0,"pressure":937.5,"uv_index":9.0,"wind_gusts":42.8,"aqi":83,"pm10":28.8,"pm2_5":23.3,"no2":7.0,"co":208.0,"o3":91.0,"so2":8.6,"mosquito_risk":4,"arthritis_risk":5,"migraine_risk":7,"frizz_risk":1,"updated_at":"2026-05-22T03:51:30.310512+05:30"},{"city":"Nanded","state":"Maharashtra","latitude":19.1383,"longitude":77.3091,"temp":34.2,"humidity":35,"rain":0.0,"pressure":965.2,"uv_index":9.0,"wind_gusts":39.6,"aqi":94,"pm10":47.3,"pm2_5":37.5,"no2":20.8,"co":174.0,"o3":48.0,"so2":6.4,"mosquito_risk":0,"arthritis_risk":5,"migraine_risk":7,"frizz_risk":1,"updated_at":"2026-05-22T03:51:30.310520+05:30"},{"city":"Gulbarga","state":"Karnataka","latitude":17.3297,"longitude":76.8343,"temp":29.5,"humidity":62,"rain":0.0,"pressure":956.7,"uv_index":8.75,"wind_gusts":62.6,"aqi":80,"pm10":10.9,"pm2_5":9.4,"no2":8.1,"co":195.0,"o3":56.0,"so2":2.9,"mosquito_risk":7,"arthritis_risk":5,"migraine_risk":7,"frizz_risk":1,"updated_at":"2026-05-22T03:51:30.310527+05:30"},{"city":"Bidar","state":"Karnataka","latitude":17.9104,"longitude":77.5199,"temp":29.1,"humidity":57,"rain":0.0,"pressure":932.9,"uv_index":9.05,"wind_gusts":42.8,"aqi":92,"pm10":37.1,"pm2_5":29.3,"no2":8.0,"co":215.0,"o3":89.0,"so2":5.0,"mosquito_risk":4,"arthritis_risk":5,"migraine_risk":7,"frizz_risk":1,"updated_at":"2026-05-22T03:51:30.310534+05:30"},{"city":"Hospet","state":"Karnataka","latitude":15.2689,"longitude":76.3909,"temp":25.0,"humidity":85,"rain":0.2,"pressure":955.2,"uv_index":8.25,"wind_gusts":43.9,"aqi":37,"pm10":5.9,"pm2_5":5.1,"no2":6.4,"co":148.0,"o3":42.0,"so2":1.4,"mosquito_risk":10,"arthritis_risk":5,"migraine_risk":7,"frizz_risk":1,"updated_at":"2026-05-22T03:51:30.310541+05:30"},{"city":"Tirupur","state":"Tamil Nadu","latitude":11.1085,"longitude":77.3411,"temp":26.6,"humidity":80,"rain":0.0,"pressure":973.7,"uv_index":9.05,"wind_gusts":61.9,"aqi":42,"pm10":13.4,"pm2_5":12.1,"no2":17.1,"co":145.0,"o3":29.0,"so2":4.3,"mosquito_risk":7,"arthritis_risk":5,"migraine_risk":7,"frizz_risk":1,"updated_at":"2026-05-22T03:51:30.310548+05:30"},{"city":"Alappuzha","state":"Kerala","latitude":9.4981,"longitude":76.3388,"temp":26.2,"humidity":93,"rain":0.0,"pressure":1008.1,"uv_index":8.35,"wind_gusts":36.0,"aqi":41,"pm10":10.4,"pm2_5":8.2,"no2":10.4,"co":97.0,"o3":38.0,"so2":2.8,"mosquito_risk":7,"arthritis_risk":0,"migraine_risk":4,"frizz_risk":1,"updated_at":"2026-05-22T03:51:30.310555+05:30"},{"city":"Munnar","state":"Kerala","latitude":10.0889,"longitude":77.0595,"temp":17.0,"humidity":98,"rain":0.0,"pressure":855.2,"uv_index":6.45,"wind_gusts":31.7,"aqi":22,"pm10":6.7,"pm2_5":6.0,"no2":7.4,"co":117.0,"o3":26.0,"so2":1.4,"mosquito_risk":3,"arthritis_risk":10,"migraine_risk":7,"frizz_risk":1,"updated_at":"2026-05-22T03:51:30.310563+05:30"},{"city":"Silchar","state":"Assam","latitude":24.8333,"longitude":92.7789,"temp":25.6,"humidity":99,"rain":0.2,"pressure":1003.0,"uv_index":8.9,"wind_gusts":32.0,"aqi":106,"pm10":47.4,"pm2_5":36.4,"no2":8.7,"co":323.0,"o3":75.0,"so2":5.8,"mosquito_risk":10,"arthritis_risk":5,"migraine_risk":4,"frizz_risk":1,"updated_at":"2026-05-22T03:51:30.310570+05:30"},{"city":"Dibrugarh","state":"Assam","latitude":27.4728,"longitude":94.912,"temp":25.6,"humidity":95,"rain":0.2,"pressure":993.2,"uv_index":8.95,"wind_gusts":22.3,"aqi":91,"pm10":28.9,"pm2_5":26.7,"no2":26.0,"co":522.0,"o3":12.0,"so2":1.1,"mosquito_risk":10,"arthritis_risk":5,"migraine_risk":7,"frizz_risk":1,"updated_at":"2026-05-22T03:51:30.310577+05:30"}]