[{"city":"Delhi","state":"Delhi","latitude":28.6139,"longitude":77.209,"temp":30.2,"humidity":32,"rain":0.0,"pressure":979.4,"uv_index":7.4,"wind_gusts":27.7,"aqi":170,"pm10":147.6,"pm2_5":48.2,"mosquito_risk":0,"arthritis_risk":5,"migraine_risk":7,"frizz_risk":0,"updated_at":"2026-04-24T02:26:26.794221+05:30"},{"city":"Mumbai","state":"Maharashtra","latitude":19.076,"longitude":72.8777,"temp":29.1,"humidity":79,"rain":0.0,"pressure":1005.5,"uv_index":8.05,"wind_gusts":24.8,"aqi":80,"pm10":24.7,"pm2_5":14.8,"mosquito_risk":7,"arthritis_risk":5,"migraine_risk":4,"frizz_risk":1,"updated_at":"2026-04-24T02:26:26.794261+05:30"},{"city":"Bangalore","state":"Karnataka","latitude":12.9716,"longitude":77.5946,"temp":24.9,"humidity":68,"rain":0.0,"pressure":909.6,"uv_index":9.6,"wind_gusts":31.3,"aqi":75,"pm10":26.9,"pm2_5":25.3,"mosquito_risk":3,"arthritis_risk":5,"migraine_risk":7,"frizz_risk":1,"updated_at":"2026-04-24T02:26:26.794274+05:30"},{"city":"Hyderabad","state":"Telangana","latitude":17.385,"longitude":78.4867,"temp":28.2,"humidity":56,"rain":0.0,"pressure":951.0,"uv_index":9.3,"wind_gusts":28.4,"aqi":109,"pm10":36.3,"pm2_5":32.1,"mosquito_risk":4,"arthritis_risk":5,"migraine_risk":7,"frizz_risk":1,"updated_at":"2026-04-24T02:26:26.794282+05:30"},{"city":"Chennai","state":"Tamil Nadu","latitude":13.0827,"longitude":80.2707,"temp":28.8,"humidity":84,"rain":0.0,"pressure":1004.2,"uv_index":8.9,"wind_gusts":30.6,"aqi":29,"pm10":10.0,"pm2_5":7.0,"mosquito_risk":7,"arthritis_risk":5,"migraine_risk":4,"frizz_risk":1,"updated_at":"2026-04-24T02:26:26.794290+05:30"},{"city":"Kolkata","state":"West Bengal","latitude":22.5726,"longitude":88.3639,"temp":27.9,"humidity":92,"rain":0.0,"pressure":1003.1,"uv_index":8.9,"wind_gusts":25.2,"aqi":102,"pm10":24.9,"pm2_5":21.4,"mosquito_risk":7,"arthritis_risk":5,"migraine_risk":4,"frizz_risk":1,"updated_at":"2026-04-24T02:26:26.794300+05:30"},{"city":"Pune","state":"Maharashtra","latitude":18.5204,"longitude":73.8567,"temp":25.9,"humidity":71,"rain":0.0,"pressure":946.4,"uv_index":8.6,"wind_gusts":34.2,"aqi":105,"pm10":50.9,"pm2_5":46.0,"mosquito_risk":7,"arthritis_risk":5,"migraine_risk":7,"frizz_risk":1,"updated_at":"2026-04-24T02:26:26.794307+05:30"},{"city":"Ahmedabad","state":"Gujarat","latitude":23.0225,"longitude":72.5714,"temp":27.5,"humidity":47,"rain":0.0,"pressure":1000.2,"uv_index":8.2,"wind_gusts":23.8,"aqi":52,"pm10":17.2,"pm2_5":8.9,"mosquito_risk":4,"arthritis_risk":5,"migraine_risk":4,"frizz_risk":0,"updated_at":"2026-04-24T02:26:26.794313+05:30"},{"city":"Jaipur","state":"Rajasthan","latitude":26.9124,"longitude":75.7873,"temp":28.8,"humidity":27,"rain":0.0,"pressure":957.7,"uv_index":8.05,"wind_gusts":24.1,"aqi":94,"pm10":57.6,"pm2_5":22.8,"mosquito_risk":4,"arthritis_risk":5,"migraine_risk":7,"frizz_risk":0,"updated_at":"2026-04-24T02:26:26.794320+05:30"},{"city":"Lucknow","state":"Uttar Pradesh","latitude":26.8467,"longitude":80.9462,"temp":27.2,"humidity":39,"rain":0.0,"pressure":989.9,"uv_index":7.9,"wind_gusts":22.3,"aqi":175,"pm10":261.7,"pm2_5":52.6,"mosquito_risk":4,"arthritis_risk":5,"migraine_risk":7,"frizz_risk":0,"updated_at":"2026-04-24T02:26:26.794327+05:30"},{"city":"Kanpur","state":"Uttar Pradesh","latitude":26.4499,"longitude":80.3319,"temp":26.2,"humidity":51,"rain":0.0,"pressure":988.3,"uv_index":7.95,"wind_gusts":20.2,"aqi":276,"pm10":211.4,"pm2_5":48.4,"mosquito_risk":4,"arthritis_risk":5,"migraine_risk":7,"frizz_risk":0,"updated_at":"2026-04-24T02:26:26.794332+05:30"},{"city":"Chandigarh","state":"Chandigarh","latitude":30.7333,"longitude":76.7794,"temp":25.9,"humidity":48,"rain":0.0,"pressure":965.3,"uv_index":7.35,"wind_gusts":30.6,"aqi":69,"pm10":29.9,"pm2_5":23.9,"mosquito_risk":4,"arthritis_risk":5,"migraine_risk":7,"frizz_risk":0,"updated_at":"2026-04-24T02:26:26.794338+05:30"},{"city":"Srinagar","state":"Jammu and Kashmir","latitude":34.0837,"longitude":74.7973,"temp":12.6,"humidity":73,"rain":0.0,"pressure":840.6,"uv_index":8.6,"wind_gusts":19.8,"aqi":87,"pm10":82.4,"pm2_5":63.8,"mosquito_risk":3,"arthritis_risk":5,"migraine_risk":7,"frizz_risk":0,"updated_at":"2026-04-24T02:26:26.794344+05:30"},{"city":"Jammu","state":"Jammu and Kashmir","latitude":32.7266,"longitude":74.857,"temp":24.4,"humidity":62,"rain":0.0,"pressure":969.9,"uv_index":8.2,"wind_gusts":36.4,"aqi":72,"pm10":30.2,"pm2_5":25.6,"mosquito_risk":3,"arthritis_risk":5,"migraine_risk":7,"frizz_risk":1,"updated_at":"2026-04-24T02:26:26.794349+05:30"},{"city":"Amritsar","state":"Punjab","latitude":31.634,"longitude":74.8723,"temp":25.2,"humidity":65,"rain":0.0,"pressure":978.0,"uv_index":8.1,"wind_gusts":35.6,"aqi":96,"pm10":53.1,"pm2_5":33.6,"mosquito_risk":7,"arthritis_risk":5,"migraine_risk":7,"frizz_risk":1,"updated_at":"2026-04-24T02:26:26.794355+05:30"},{"city":"Ludhiana","state":"Punjab","latitude":30.901,"longitude":75.8573,"temp":26.7,"humidity":57,"rain":0.0,"pressure":975.7,"uv_index":7.6,"wind_gusts":33.5,"aqi":85,"pm10":31.0,"pm2_5":25.1,"mosquito_risk":4,"arthritis_risk":5,"migraine_risk":7,"frizz_risk":1,"updated_at":"2026-04-24T02:26:26.794362+05:30"},{"city":"Jalandhar","state":"Punjab","latitude":31.326,"longitude":75.5762,"temp":25.3,"humidity":64,"rain":0.0,"pressure":976.9,"uv_index":7.85,"wind_gusts":31.3,"aqi":87,"pm10":43.0,"pm2_5":30.6,"mosquito_risk":7,"arthritis_risk":5,"migraine_risk":7,"frizz_risk":1,"updated_at":"2026-04-24T02:26:26.794367+05:30"},{"city":"Dehradun","state":"Uttarakhand","latitude":30.6284,"longitude":78.0322,"temp":17.9,"humidity":57,"rain":0.0,"pressure":829.8,"uv_index":7.85,"wind_gusts":46.1,"aqi":55,"pm10":22.2,"pm2_5":16.9,"mosquito_risk":0,"arthritis_risk":5,"migraine_risk":7,"frizz_risk":0,"updated_at":"2026-04-24T02:26:26.794373+05:30"},{"city":"Shimla","state":"Himachal Pradesh","latitude":31.1048,"longitude":77.1734,"temp":15.5,"humidity":61,"rain":0.0,"pressure":783.9,"uv_index":7.95,"wind_gusts":53.3,"aqi":86,"pm10":37.6,"pm2_5":24.4,"mosquito_risk":3,"arthritis_risk":5,"migraine_risk":7,"frizz_risk":0,"updated_at":"2026-04-24T02:26:26.794379+05:30"},{"city":"Manali","state":"Himachal Pradesh","latitude":32.2396,"longitude":77.1887,"temp":18.2,"humidity":52,"rain":0.0,"pressure":821.4,"uv_index":9.3,"wind_gusts":31.7,"aqi":73,"pm10":26.3,"pm2_5":16.8,"mosquito_risk":0,"arthritis_risk":5,"migraine_risk":7,"frizz_risk":0,"updated_at":"2026-04-24T02:26:26.794384+05:30"},{"city":"Gurgaon","state":"Haryana","latitude":28.4595,"longitude":77.0266,"temp":25.2,"humidity":47,"rain":0.0,"pressure":977.5,"uv_index":7.55,"wind_gusts":24.8,"aqi":731,"pm10":136.9,"pm2_5":56.6,"mosquito_risk":4,"arthritis_risk":5,"migraine_risk":7,"frizz_risk":0,"updated_at":"2026-04-24T02:26:26.794389+05:30"},{"city":"Noida","state":"Uttar Pradesh","latitude":28.5355,"longitude":77.391,"temp":28.9,"humidity":38,"rain":0.0,"pressure":980.8,"uv_index":7.45,"wind_gusts":26.3,"aqi":731,"pm10":136.9,"pm2_5":56.6,"mosquito_risk":4,"arthritis_risk":5,"migraine_risk":7,"frizz_risk":0,"updated_at":"2026-04-24T02:26:26.794395+05:30"},{"city":"Ghaziabad","state":"Uttar Pradesh","latitude":28.6692,"longitude":77.4538,"temp":29.7,"humidity":35,"rain":0.0,"pressure":979.1,"uv_index":7.4,"wind_gusts":27.7,"aqi":153,"pm10":184.9,"pm2_5":60.5,"mosquito_risk":4,"arthritis_risk":5,"migraine_risk":7,"frizz_risk":0,"updated_at":"2026-04-24T02:26:26.794400+05:30"},{"city":"Faridabad","state":"Haryana","latitude":28.4089,"longitude":77.3178,"temp":29.9,"humidity":31,"rain":0.0,"pressure":980.0,"uv_index":7.5,"wind_gusts":25.2,"aqi":731,"pm10":136.9,"pm2_5":56.6,"mosquito_risk":4,"arthritis_risk":5,"migraine_risk":7,"frizz_risk":0,"updated_at":"2026-04-24T02:26:26.794405+05:30"},{"city":"Meerut","state":"Uttar Pradesh","latitude":28.9845,"longitude":77.7064,"temp":26.1,"humidity":47,"rain":0.0,"pressure":977.7,"uv_index":7.35,"wind_gusts":33.5,"aqi":153,"pm10":184.9,"pm2_5":60.5,"mosquito_risk":4,"arthritis_risk":5,"migraine_risk":7,"frizz_risk":0,"updated_at":"2026-04-24T02:26:26.794410+05:30"},{"city":"Agra","state":"Uttar Pradesh","latitude":27.1767,"longitude":78.0081,"temp":25.1,"humidity":48,"rain":0.0,"pressure":984.2,"uv_index":7.8,"wind_gusts":22.3,"aqi":496,"pm10":804.7,"pm2_5":78.5,"mosquito_risk":4,"arthritis_risk":5,"migraine_risk":7,"frizz_risk":0,"updated_at":"2026-04-24T02:26:26.794416+05:30"},{"city":"Varanasi","state":"Uttar Pradesh","latitude":25.3176,"longitude":82.9739,"temp":28.4,"humidity":41,"rain":0.0,"pressure":993.6,"uv_index":8.5,"wind_gusts":20.2,"aqi":131,"pm10":212.3,"pm2_5":58.0,"mosquito_risk":4,"arthritis_risk":5,"migraine_risk":7,"frizz_risk":0,"updated_at":"2026-04-24T02:26:26.794421+05:30"},{"city":"Prayagraj","state":"Uttar Pradesh","latitude":25.4358,"longitude":81.8463,"temp":28.7,"humidity":38,"rain":0.0,"pressure":992.6,"uv_index":8.35,"wind_gusts":20.2,"aqi":141,"pm10":181.1,"pm2_5":57.3,"mosquito_risk":4,"arthritis_risk":5,"migraine_risk":7,"frizz_risk":0,"updated_at":"2026-04-24T02:26:26.794426+05:30"},{"city":"Gorakhpur","state":"Uttar Pradesh","latitude":26.7606,"longitude":83.3732,"temp":26.3,"humidity":49,"rain":0.0,"pressure":993.7,"uv_index":8.3,"wind_gusts":22.3,"aqi":118,"pm10":117.1,"pm2_5":37.6,"mosquito_risk":4,"arthritis_risk":5,"migraine_risk":7,"frizz_risk":0,"updated_at":"2026-04-24T02:26:26.794431+05:30"},{"city":"Bareilly","state":"Uttar Pradesh","latitude":28.367,"longitude":79.4304,"temp":25.3,"humidity":53,"rain":0.0,"pressure":983.0,"uv_index":7.7,"wind_gusts":22.7,"aqi":116,"pm10":137.4,"pm2_5":39.2,"mosquito_risk":4,"arthritis_risk":5,"migraine_risk":7,"frizz_risk":0,"updated_at":"2026-04-24T02:26:26.794437+05:30"},{"city":"Aligarh","state":"Uttar Pradesh","latitude":27.8974,"longitude":78.088,"temp":24.7,"humidity":41,"rain":0.0,"pressure":981.8,"uv_index":7.6,"wind_gusts":28.1,"aqi":472,"pm10":383.7,"pm2_5":53.0,"mosquito_risk":0,"arthritis_risk":5,"migraine_risk":7,"frizz_risk":0,"updated_at":"2026-04-24T02:26:26.794443+05:30"},{"city":"Moradabad","state":"Uttar Pradesh","latitude":28.8386,"longitude":78.7733,"temp":26.1,"humidity":50,"rain":0.0,"pressure":979.8,"uv_index":7.5,"wind_gusts":33.5,"aqi":132,"pm10":141.1,"pm2_5":61.5,"mosquito_risk":4,"arthritis_risk":5,"migraine_risk":7,"frizz_risk":0,"updated_at":"2026-04-24T02:26:26.794448+05:30"},{"city":"Saharanpur","state":"Uttar Pradesh","latitude":29.9637,"longitude":77.546,"temp":24.0,"humidity":66,"rain":0.0,"pressure":972.3,"uv_index":7.15,"wind_gusts":29.9,"aqi":105,"pm10":60.5,"pm2_5":48.8,"mosquito_risk":3,"arthritis_risk":5,"migraine_risk":7,"frizz_risk":1,"updated_at":"2026-04-24T02:26:26.794453+05:30"},{"city":"Jhansi","state":"Uttar Pradesh","latitude":25.4484,"longitude":78.5685,"temp":27.6,"humidity":33,"rain":0.0,"pressure":975.3,"uv_index":8.3,"wind_gusts":28.8,"aqi":50,"pm10":22.8,"pm2_5":21.7,"mosquito_risk":4,"arthritis_risk":5,"migraine_risk":7,"frizz_risk":0,"updated_at":"2026-04-24T02:26:30.096580+05:30"},{"city":"Surat","state":"Gujarat","latitude":21.1702,"longitude":72.8311,"temp":27.7,"humidity":88,"rain":0.0,"pressure":1004.4,"uv_index":7.9,"wind_gusts":23.0,"aqi":98,"pm10":26.7,"pm2_5":21.6,"mosquito_risk":7,"arthritis_risk":5,"migraine_risk":4,"frizz_risk":1,"updated_at":"2026-04-24T02:26:30.096611+05:30"},{"city":"Vadodara","state":"Gujarat","latitude":22.3072,"longitude":73.1812,"temp":29.3,"humidity":63,"rain":0.0,"pressure":1002.0,"uv_index":8.2,"wind_gusts":26.6,"aqi":78,"pm10":39.0,"pm2_5":32.5,"mosquito_risk":7,"arthritis_risk":5,"migraine_risk":4,"frizz_risk":1,"updated_at":"2026-04-24T02:26:30.096619+05:30"},{"city":"Rajkot","state":"Gujarat","latitude":22.3039,"longitude":70.8022,"temp":24.7,"humidity":92,"rain":0.0,"pressure":993.3,"uv_index":7.9,"wind_gusts":32.4,"aqi":40,"pm10":18.6,"pm2_5":8.6,"mosquito_risk":3,"arthritis_risk":5,"migraine_risk":7,"frizz_risk":1,"updated_at":"2026-04-24T02:26:30.096626+05:30"},{"city":"Thane","state":"Maharashtra","latitude":19.2183,"longitude":72.9781,"temp":27.8,"humidity":77,"rain":0.0,"pressure":1005.0,"uv_index":8.05,"wind_gusts":38.5,"aqi":80,"pm10":24.7,"pm2_5":14.8,"mosquito_risk":7,"arthritis_risk":5,"migraine_risk":4,"frizz_risk":1,"updated_at":"2026-04-24T02:26:30.096632+05:30"},{"city":"Nagpur","state":"Maharashtra","latitude":21.1458,"longitude":79.0882,"temp":29.5,"humidity":50,"rain":0.0,"pressure":970.5,"uv_index":8.95,"wind_gusts":27.0,"aqi":89,"pm10":56.7,"pm2_5":53.0,"mosquito_risk":4,"arthritis_risk":5,"migraine_risk":7,"frizz_risk":1,"updated_at":"2026-04-24T02:26:30.096637+05:30"},{"city":"Nashik","state":"Maharashtra","latitude":19.9975,"longitude":73.7898,"temp":27.4,"humidity":50,"rain":0.0,"pressure":943.9,"uv_index":8.35,"wind_gusts":34.9,"aqi":85,"pm10":32.8,"pm2_5":28.8,"mosquito_risk":4,"arthritis_risk":5,"migraine_risk":7,"frizz_risk":1,"updated_at":"2026-04-24T02:26:30.096643+05:30"},{"city":"Aurangabad","state":"Maharashtra","latitude":19.8762,"longitude":75.3433,"temp":30.2,"humidity":34,"rain":0.0,"pressure":942.3,"uv_index":9.05,"wind_gusts":33.5,"aqi":83,"pm10":38.6,"pm2_5":32.2,"mosquito_risk":0,"arthritis_risk":5,"migraine_risk":7,"frizz_risk":0,"updated_at":"2026-04-24T02:26:30.096648+05:30"},{"city":"Solapur","state":"Maharashtra","latitude":17.6599,"longitude":75.9064,"temp":26.4,"humidity":66,"rain":0.0,"pressure":954.9,"uv_index":9.1,"wind_gusts":29.9,"aqi":104,"pm10":42.5,"pm2_5":39.0,"mosquito_risk":7,"arthritis_risk":5,"migraine_risk":7,"frizz_risk":1,"updated_at":"2026-04-24T02:26:30.096655+05:30"},{"city":"Kolhapur","state":"Maharashtra","latitude":16.705,"longitude":74.2433,"temp":25.1,"humidity":82,"rain":0.0,"pressure":945.7,"uv_index":9.0,"wind_gusts":39.6,"aqi":136,"pm10":86.4,"pm2_5":81.0,"mosquito_risk":7,"arthritis_risk":5,"migraine_risk":7,"frizz_risk":1,"updated_at":"2026-04-24T02:26:30.096660+05:30"},{"city":"Goa","state":"Goa","latitude":15.2993,"longitude":74.124,"temp":28.6,"humidity":88,"rain":0.0,"pressure":994.5,"uv_index":9.0,"wind_gusts":31.0,"aqi":88,"pm10":46.4,"pm2_5":35.5,"mosquito_risk":7,"arthritis_risk":5,"migraine_risk":7,"frizz_risk":1,"updated_at":"2026-04-24T02:26:30.096666+05:30"},{"city":"Jodhpur","state":"Rajasthan","latitude":26.2389,"longitude":73.0243,"temp":29.7,"humidity":44,"rain":0.0,"pressure":980.7,"uv_index":8.25,"wind_gusts":21.6,"aqi":59,"pm10":88.7,"pm2_5":19.0,"mosquito_risk":4,"arthritis_risk":5,"migraine_risk":7,"frizz_risk":1,"updated_at":"2026-04-24T02:26:30.096671+05:30"},{"city":"Udaipur","state":"Rajasthan","latitude":24.5854,"longitude":73.7125,"temp":25.5,"humidity":54,"rain":0.0,"pressure":945.2,"uv_index":8.8,"wind_gusts":32.4,"aqi":48,"pm10":57.7,"pm2_5":16.4,"mosquito_risk":4,"arthritis_risk":5,"migraine_risk":7,"frizz_risk":0,"updated_at":"2026-04-24T02:26:30.096676+05:30"},{"city":"Kota","state":"Rajasthan","latitude":25.2138,"longitude":75.8648,"temp":27.1,"humidity":37,"rain":0.0,"pressure":976.3,"uv_index":8.3,"wind_gusts":23.0,"aqi":58,"pm10":25.5,"pm2_5":13.8,"mosquito_risk":4,"arthritis_risk":5,"migraine_risk":7,"frizz_risk":0,"updated_at":"2026-04-24T02:26:30.096681+05:30"},{"city":"Bikaner","state":"Rajasthan","latitude":28.0229,"longitude":73.3119,"temp":31.8,"humidity":36,"rain":0.0,"pressure":979.0,"uv_index":8.0,"wind_gusts":20.9,"aqi":67,"pm10":100.8,"pm2_5":29.7,"mosquito_risk":0,"arthritis_risk":5,"migraine_risk":7,"frizz_risk":0,"updated_at":"2026-04-24T02:26:30.096687+05:30"},{"city":"Ajmer","state":"Rajasthan","latitude":26.4499,"longitude":74.6399,"temp":26.5,"humidity":47,"rain":0.0,"pressure":952.8,"uv_index":8.25,"wind_gusts":30.6,"aqi":45,"pm10":27.9,"pm2_5":12.5,"mosquito_risk":4,"arthritis_risk":5,"migraine_risk":7,"frizz_risk":0,"updated_at":"2026-04-24T02:26:30.096692+05:30"},{"city":"Gwalior","state":"Madhya Pradesh","latitude":26.2183,"longitude":78.1828,"temp":27.3,"humidity":44,"rain":0.0,"pressure":980.4,"uv_index":8.05,"wind_gusts":29.5,"aqi":42,"pm10":8.4,"pm2_5":7.0,"mosquito_risk":4,"arthritis_risk":5,"migraine_risk":7,"frizz_risk":0,"updated_at":"2026-04-24T02:26:30.096697+05:30"},{"city":"Indore","state":"Madhya Pradesh","latitude":22.7196,"longitude":75.8577,"temp":26.4,"humidity":46,"rain":0.0,"pressure":946.6,"uv_index":8.65,"wind_gusts":30.6,"aqi":71,"pm10":22.4,"pm2_5":18.9,"mosquito_risk":4,"arthritis_risk":5,"migraine_risk":7,"frizz_risk":0,"updated_at":"2026-04-24T02:26:30.096701+05:30"},{"city":"Bhopal","state":"Madhya Pradesh","latitude":23.2599,"longitude":77.4126,"temp":26.4,"humidity":42,"rain":0.0,"pressure":952.0,"uv_index":8.65,"wind_gusts":23.0,"aqi":71,"pm10":26.2,"pm2_5":24.3,"mosquito_risk":4,"arthritis_risk":5,"migraine_risk":7,"frizz_risk":0,"updated_at":"2026-04-24T02:26:30.096706+05:30"},{"city":"Jabalpur","state":"Madhya Pradesh","latitude":23.1815,"longitude":79.9864,"temp":28.5,"humidity":40,"rain":0.0,"pressure":958.6,"uv_index":8.8,"wind_gusts":21.2,"aqi":74,"pm10":41.2,"pm2_5":37.3,"mosquito_risk":4,"arthritis_risk":5,"migraine_risk":7,"frizz_risk":0,"updated_at":"2026-04-24T02:26:30.096711+05:30"},{"city":"Ujjain","state":"Madhya Pradesh","latitude":23.1765,"longitude":75.7885,"temp":27.2,"humidity":39,"rain":0.0,"pressure":952.3,"uv_index":8.55,"wind_gusts":29.5,"aqi":68,"pm10":24.7,"pm2_5":18.3,"mosquito_risk":4,"arthritis_risk":5,"migraine_risk":7,"frizz_risk":0,"updated_at":"2026-04-24T02:26:30.096716+05:30"},{"city":"Visakhapatnam","state":"Andhra Pradesh","latitude":17.6868,"longitude":83.2185,"temp":27.6,"humidity":84,"rain":0.0,"pressure":1000.2,"uv_index":9.15,"wind_gusts":41.8,"aqi":64,"pm10":18.2,"pm2_5":14.6,"mosquito_risk":7,"arthritis_risk":5,"migraine_risk":4,"frizz_risk":1,"updated_at":"2026-04-24T02:26:30.096721+05:30"},{"city":"Vijayawada","state":"Andhra Pradesh","latitude":16.5062,"longitude":80.648,"temp":26.9,"humidity":94,"rain":0.0,"pressure":999.9,"uv_index":9.2,"wind_gusts":28.4,"aqi":53,"pm10":11.3,"pm2_5":9.3,"mosquito_risk":7,"arthritis_risk":5,"migraine_risk":7,"frizz_risk":1,"updated_at":"2026-04-24T02:26:30.096726+05:30"},{"city":"Guntur","state":"Andhra Pradesh","latitude":16.3067,"longitude":80.4365,"temp":26.9,"humidity":94,"rain":0.0,"pressure":1001.1,"uv_index":9.25,"wind_gusts":31.7,"aqi":53,"pm10":11.9,"pm2_5":9.6,"mosquito_risk":7,"arthritis_risk":5,"migraine_risk":4,"frizz_risk":1,"updated_at":"2026-04-24T02:26:30.096731+05:30"},{"city":"Nellore","state":"Andhra Pradesh","latitude":14.4426,"longitude":79.9865,"temp":27.1,"humidity":88,"rain":0.0,"pressure":1002.6,"uv_index":9.3,"wind_gusts":38.9,"aqi":41,"pm10":8.3,"pm2_5":6.8,"mosquito_risk":7,"arthritis_risk":5,"migraine_risk":4,"frizz_risk":1,"updated_at":"2026-04-24T02:26:30.096736+05:30"},{"city":"Kurnool","state":"Andhra Pradesh","latitude":15.8281,"longitude":78.0373,"temp":30.9,"humidity":53,"rain":0.0,"pressure":973.9,"uv_index":9.25,"wind_gusts":20.2,"aqi":85,"pm10":20.7,"pm2_5":17.3,"mosquito_risk":0,"arthritis_risk":5,"migraine_risk":7,"frizz_risk":1,"updated_at":"2026-04-24T02:26:30.096742+05:30"},{"city":"Kakinada","state":"Andhra Pradesh","latitude":16.9891,"longitude":82.2475,"temp":27.2,"humidity":92,"rain":0.0,"pressure":1004.4,"uv_index":9.25,"wind_gusts":31.3,"aqi":43,"pm10":12.9,"pm2_5":8.7,"mosquito_risk":7,"arthritis_risk":5,"migraine_risk":4,"frizz_risk":1,"updated_at":"2026-04-24T02:26:30.096747+05:30"},{"city":"Tirupati","state":"Andhra Pradesh","latitude":13.6288,"longitude":79.4192,"temp":26.6,"humidity":84,"rain":0.0,"pressure":989.3,"uv_index":9.35,"wind_gusts":32.8,"aqi":56,"pm10":15.7,"pm2_5":14.4,"mosquito_risk":7,"arthritis_risk":5,"migraine_risk":7,"frizz_risk":1,"updated_at":"2026-04-24T02:26:30.096751+05:30"},{"city":"Warangal","state":"Telangana","latitude":17.9689,"longitude":79.5941,"temp":29.0,"humidity":63,"rain":0.0,"pressure":975.8,"uv_index":9.2,"wind_gusts":19.4,"aqi":102,"pm10":27.6,"pm2_5":25.8,"mosquito_risk":7,"arthritis_risk":5,"migraine_risk":7,"frizz_risk":1,"updated_at":"2026-04-24T02:26:30.096756+05:30"},{"city":"Nizamabad","state":"Telangana","latitude":18.6725,"longitude":78.0941,"temp":29.2,"humidity":55,"rain":0.0,"pressure":962.5,"uv_index":9.05,"wind_gusts":39.6,"aqi":118,"pm10":50.1,"pm2_5":46.3,"mosquito_risk":4,"arthritis_risk":5,"migraine_risk":7,"frizz_risk":1,"updated_at":"2026-04-24T02:26:30.096761+05:30"},{"city":"Mysore","state":"Karnataka","latitude":12.2958,"longitude":76.6396,"temp":24.2,"humidity":87,"rain":0.0,"pressure":926.2,"uv_index":9.5,"wind_gusts":35.6,"aqi":87,"pm10":34.3,"pm2_5":31.2,"mosquito_risk":3,"arthritis_risk":5,"migraine_risk":7,"frizz_risk":1,"updated_at":"2026-04-24T02:26:30.096765+05:30"},{"city":"Mangalore","state":"Karnataka","latitude":12.9141,"longitude":74.856,"temp":29.5,"humidity":84,"rain":0.0,"pressure":1003.6,"uv_index":9.1,"wind_gusts":23.4,"aqi":86,"pm10":35.2,"pm2_5":27.1,"mosquito_risk":7,"arthritis_risk":5,"migraine_risk":4,"frizz_risk":1,"updated_at":"2026-04-24T02:26:30.096770+05:30"},{"city":"Hubli-Dharwad","state":"Karnataka","latitude":15.3647,"longitude":75.124,"temp":25.5,"humidity":69,"rain":0.0,"pressure":938.5,"uv_index":9.2,"wind_gusts":38.5,"aqi":93,"pm10":35.6,"pm2_5":33.4,"mosquito_risk":7,"arthritis_risk":5,"migraine_risk":7,"frizz_risk":1,"updated_at":"2026-04-24T02:26:30.096775+05:30"},{"city":"Belgaum","state":"Karnataka","latitude":15.8497,"longitude":74.4977,"temp":23.8,"humidity":88,"rain":0.0,"pressure":923.4,"uv_index":9.25,"wind_gusts":37.8,"aqi":100,"pm10":49.1,"pm2_5":44.8,"mosquito_risk":3,"arthritis_risk":5,"migraine_risk":7,"frizz_risk":1,"updated_at":"2026-04-24T02:26:33.401650+05:30"},{"city":"Coimbatore","state":"Tamil Nadu","latitude":11.0168,"longitude":76.9558,"temp":24.9,"humidity":89,"rain":0.0,"pressure":959.2,"uv_index":9.45,"wind_gusts":35.6,"aqi":89,"pm10":39.3,"pm2_5":36.6,"mosquito_risk":3,"arthritis_risk":5,"migraine_risk":7,"frizz_risk":1,"updated_at":"2026-04-24T02:26:33.401680+05:30"},{"city":"Madurai","state":"Tamil Nadu","latitude":9.9252,"longitude":78.1198,"temp":27.6,"humidity":86,"rain":0.0,"pressure":990.4,"uv_index":9.3,"wind_gusts":38.9,"aqi":49,"pm10":14.1,"pm2_5":13.1,"mosquito_risk":7,"arthritis_risk":5,"migraine_risk":7,"frizz_risk":1,"updated_at":"2026-04-24T02:26:33.401690+05:30"},{"city":"Trichy","state":"Tamil Nadu","latitude":10.7905,"longitude":78.7047,"temp":27.5,"humidity":89,"rain":0.0,"pressure":997.1,"uv_index":9.15,"wind_gusts":22.3,"aqi":40,"pm10":12.8,"pm2_5":11.6,"mosquito_risk":7,"arthritis_risk":5,"migraine_risk":7,"frizz_risk":1,"updated_at":"2026-04-24T02:26:33.401697+05:30"},{"city":"Salem","state":"Tamil Nadu","latitude":11.6643,"longitude":78.146,"temp":26.8,"humidity":82,"rain":0.0,"pressure":974.7,"uv_index":9.4,"wind_gusts":25.2,"aqi":61,"pm10":21.0,"pm2_5":20.3,"mosquito_risk":7,"arthritis_risk":5,"migraine_risk":7,"frizz_risk":1,"updated_at":"2026-04-24T02:26:33.401703+05:30"},{"city":"Tirunelveli","state":"Tamil Nadu","latitude":8.7139,"longitude":77.7567,"temp":26.9,"humidity":81,"rain":0.0,"pressure":1000.4,"uv_index":9.25,"wind_gusts":50.4,"aqi":67,"pm10":24.0,"pm2_5":22.4,"mosquito_risk":7,"arthritis_risk":5,"migraine_risk":4,"frizz_risk":1,"updated_at":"2026-04-24T02:26:33.401709+05:30"},{"city":"Vellore","state":"Tamil Nadu","latitude":12.9165,"longitude":79.1325,"temp":25.8,"humidity":86,"rain":0.0,"pressure":982.2,"uv_index":9.4,"wind_gusts":31.0,"aqi":73,"pm10":30.3,"pm2_5":29.2,"mosquito_risk":7,"arthritis_risk":5,"migraine_risk":7,"frizz_risk":1,"updated_at":"2026-04-24T02:26:33.401715+05:30"},{"city":"Erode","state":"Tamil Nadu","latitude":11.341,"longitude":77.7172,"temp":28.3,"humidity":77,"rain":0.0,"pressure":986.5,"uv_index":9.35,"wind_gusts":27.7,"aqi":45,"pm10":7.3,"pm2_5":7.0,"mosquito_risk":7,"arthritis_risk":5,"migraine_risk":7,"frizz_risk":1,"updated_at":"2026-04-24T02:26:33.401721+05:30"},{"city":"Kochi","state":"Kerala","latitude":9.9312,"longitude":76.2673,"temp":28.5,"humidity":84,"rain":0.0,"pressure":1005.7,"uv_index":9.05,"wind_gusts":30.2,"aqi":74,"pm10":27.5,"pm2_5":26.4,"mosquito_risk":7,"arthritis_risk":5,"migraine_risk":4,"frizz_risk":1,"updated_at":"2026-04-24T02:26:33.401728+05:30"},{"city":"Thiruvananthapuram","state":"Kerala","latitude":8.5241,"longitude":76.9366,"temp":28.5,"humidity":85,"rain":0.0,"pressure":1004.9,"uv_index":9.05,"wind_gusts":28.8,"aqi":61,"pm10":20.1,"pm2_5":16.0,"mosquito_risk":7,"arthritis_risk":5,"migraine_risk":4,"frizz_risk":1,"updated_at":"2026-04-24T02:26:33.401733+05:30"},{"city":"Kozhikode","state":"Kerala","latitude":11.2588,"longitude":75.7804,"temp":29.3,"humidity":83,"rain":0.0,"pressure":1004.8,"uv_index":9.1,"wind_gusts":30.6,"aqi":81,"pm10":35.2,"pm2_5":25.3,"mosquito_risk":7,"arthritis_risk":5,"migraine_risk":4,"frizz_risk":1,"updated_at":"2026-04-24T02:26:33.401738+05:30"},{"city":"Thrissur","state":"Kerala","latitude":10.5276,"longitude":76.2144,"temp":27.7,"humidity":90,"rain":0.0,"pressure":1004.1,"uv_index":9.1,"wind_gusts":33.5,"aqi":76,"pm10":26.3,"pm2_5":24.2,"mosquito_risk":7,"arthritis_risk":5,"migraine_risk":4,"frizz_risk":1,"updated_at":"2026-04-24T02:26:33.401745+05:30"},{"city":"Kannur","state":"Kerala","latitude":11.8745,"longitude":75.3704,"temp":29.1,"humidity":79,"rain":0.0,"pressure":1004.1,"uv_index":9.1,"wind_gusts":30.6,"aqi":87,"pm10":36.7,"pm2_5":29.8,"mosquito_risk":7,"arthritis_risk":5,"migraine_risk":4,"frizz_risk":1,"updated_at":"2026-04-24T02:26:33.401750+05:30"},{"city":"Patna","state":"Bihar","latitude":25.5941,"longitude":85.1376,"temp":27.6,"humidity":80,"rain":0.0,"pressure":996.9,"uv_index":8.6,"wind_gusts":23.0,"aqi":151,"pm10":111.5,"pm2_5":62.9,"mosquito_risk":7,"arthritis_risk":5,"migraine_risk":7,"frizz_risk":1,"updated_at":"2026-04-24T02:26:33.401756+05:30"},{"city":"Gaya","state":"Bihar","latitude":24.7914,"longitude":85.0002,"temp":27.9,"humidity":49,"rain":0.0,"pressure":990.3,"uv_index":8.7,"wind_gusts":19.8,"aqi":136,"pm10":193.2,"pm2_5":68.0,"mosquito_risk":4,"arthritis_risk":5,"migraine_risk":7,"frizz_risk":1,"updated_at":"2026-04-24T02:26:33.401761+05:30"},{"city":"Muzaffarpur","state":"Bihar","latitude":26.1209,"longitude":85.3647,"temp":26.9,"humidity":87,"rain":0.0,"pressure":997.1,"uv_index":8.6,"wind_gusts":28.1,"aqi":151,"pm10":105.2,"pm2_5":69.8,"mosquito_risk":7,"arthritis_risk":5,"migraine_risk":7,"frizz_risk":1,"updated_at":"2026-04-24T02:26:33.401767+05:30"},{"city":"Bhagalpur","state":"Bihar","latitude":25.2425,"longitude":87.0117,"temp":27.4,"humidity":95,"rain":0.0,"pressure":998.1,"uv_index":8.6,"wind_gusts":21.6,"aqi":153,"pm10":79.2,"pm2_5":61.5,"mosquito_risk":7,"arthritis_risk":5,"migraine_risk":7,"frizz_risk":1,"updated_at":"2026-04-24T02:26:33.401771+05:30"},{"city":"Ranchi","state":"Jharkhand","latitude":23.3441,"longitude":85.3096,"temp":26.0,"humidity":36,"rain":0.0,"pressure":935.6,"uv_index":9.2,"wind_gusts":25.6,"aqi":93,"pm10":183.0,"pm2_5":47.0,"mosquito_risk":4,"arthritis_risk":5,"migraine_risk":7,"frizz_risk":0,"updated_at":"2026-04-24T02:26:33.401777+05:30"},{"city":"Jamshedpur","state":"Jharkhand","latitude":22.8046,"longitude":86.2029,"temp":28.2,"humidity":87,"rain":0.0,"pressure":987.6,"uv_index":9.0,"wind_gusts":33.5,"aqi":152,"pm10":140.2,"pm2_5":79.4,"mosquito_risk":7,"arthritis_risk":5,"migraine_risk":7,"frizz_risk":1,"updated_at":"2026-04-24T02:26:33.401782+05:30"},{"city":"Dhanbad","state":"Jharkhand","latitude":23.7957,"longitude":86.4304,"temp":29.7,"humidity":70,"rain":0.0,"pressure":976.9,"uv_index":8.95,"wind_gusts":35.6,"aqi":160,"pm10":192.8,"pm2_5":95.7,"mosquito_risk":7,"arthritis_risk":5,"migraine_risk":7,"frizz_risk":1,"updated_at":"2026-04-24T02:26:33.401787+05:30"},{"city":"Bokaro","state":"Jharkhand","latitude":23.6693,"longitude":86.1511,"temp":29.4,"humidity":49,"rain":0.0,"pressure":981.2,"uv_index":8.95,"wind_gusts":27.4,"aqi":156,"pm10":235.2,"pm2_5":98.7,"mosquito_risk":4,"arthritis_risk":5,"migraine_risk":7,"frizz_risk":1,"updated_at":"2026-04-24T02:26:33.401793+05:30"},{"city":"Bhubaneswar","state":"Odisha","latitude":20.2961,"longitude":85.8245,"temp":26.8,"humidity":92,"rain":0.0,"pressure":998.9,"uv_index":9.15,"wind_gusts":33.5,"aqi":90,"pm10":22.9,"pm2_5":19.8,"mosquito_risk":7,"arthritis_risk":5,"migraine_risk":7,"frizz_risk":1,"updated_at":"2026-04-24T02:26:33.401798+05:30"},{"city":"Cuttack","state":"Odisha","latitude":20.4625,"longitude":85.8828,"temp":27.1,"humidity":92,"rain":0.0,"pressure":1000.7,"uv_index":9.15,"wind_gusts":32.4,"aqi":90,"pm10":22.9,"pm2_5":19.8,"mosquito_risk":7,"arthritis_risk":5,"migraine_risk":4,"frizz_risk":1,"updated_at":"2026-04-24T02:26:33.401804+05:30"},{"city":"Rourkela","state":"Odisha","latitude":22.2604,"longitude":84.8536,"temp":26.5,"humidity":66,"rain":0.0,"pressure":981.3,"uv_index":8.65,"wind_gusts":31.3,"aqi":107,"pm10":91.5,"pm2_5":48.9,"mosquito_risk":7,"arthritis_risk":5,"migraine_risk":7,"frizz_risk":1,"updated_at":"2026-04-24T02:26:33.401809+05:30"},{"city":"Raipur","state":"Chhattisgarh","latitude":21.2514,"longitude":81.6296,"temp":28.6,"humidity":39,"rain":0.0,"pressure":971.4,"uv_index":9.0,"wind_gusts":21.6,"aqi":102,"pm10":47.5,"pm2_5":45.8,"mosquito_risk":4,"arthritis_risk":5,"migraine_risk":7,"frizz_risk":0,"updated_at":"2026-04-24T02:26:33.401815+05:30"},{"city":"Bhilai","state":"Chhattisgarh","latitude":21.1938,"longitude":81.3509,"temp":27.9,"humidity":44,"rain":0.0,"pressure":971.8,"uv_index":9.0,"wind_gusts":19.1,"aqi":105,"pm10":63.1,"pm2_5":59.6,"mosquito_risk":4,"arthritis_risk":5,"migraine_risk":7,"frizz_risk":0,"updated_at":"2026-04-24T02:26:33.401820+05:30"},{"city":"Guwahati","state":"Assam","latitude":26.1158,"longitude":91.7086,"temp":27.1,"humidity":86,"rain":0.0,"pressure":1000.1,"uv_index":8.55,"wind_gusts":23.8,"aqi":120,"pm10":71.0,"pm2_5":53.8,"mosquito_risk":7,"arthritis_risk":5,"migraine_risk":4,"frizz_risk":1,"updated_at":"2026-04-24T02:26:33.401824+05:30"},{"city":"Agartala","state":"Tripura","latitude":23.8315,"longitude":91.2868,"temp":27.4,"humidity":92,"rain":0.0,"pressure":1004.0,"uv_index":8.75,"wind_gusts":21.6,"aqi":98,"pm10":56.2,"pm2_5":48.3,"mosquito_risk":7,"arthritis_risk":5,"migraine_risk":4,"frizz_risk":1,"updated_at":"2026-04-24T02:26:33.401829+05:30"},{"city":"Shillong","state":"Meghalaya","latitude":25.5788,"longitude":91.8933,"temp":13.8,"humidity":88,"rain":0.0,"pressure":854.5,"uv_index":6.35,"wind_gusts":30.6,"aqi":102,"pm10":51.1,"pm2_5":34.5,"mosquito_risk":3,"arthritis_risk":10,"migraine_risk":7,"frizz_risk":0,"updated_at":"2026-04-24T02:26:33.401865+05:30"},{"city":"Imphal","state":"Manipur","latitude":24.817,"longitude":93.9368,"temp":20.0,"humidity":85,"rain":0.0,"pressure":922.6,"uv_index":9.1,"wind_gusts":38.2,"aqi":133,"pm10":112.2,"pm2_5":69.6,"mosquito_risk":3,"arthritis_risk":5,"migraine_risk":7,"frizz_risk":1,"updated_at":"2026-04-24T02:26:33.401871+05:30"},{"city":"Aizawl","state":"Mizoram","latitude":23.7271,"longitude":92.7176,"temp":21.3,"humidity":80,"rain":0.0,"pressure":891.6,"uv_index":8.45,"wind_gusts":31.3,"aqi":128,"pm10":116.9,"pm2_5":52.3,"mosquito_risk":3,"arthritis_risk":5,"migraine_risk":7,"frizz_risk":1,"updated_at":"2026-04-24T02:26:33.401877+05:30"},{"city":"Kohima","state":"Nagaland","latitude":25.6701,"longitude":94.1077,"temp":17.5,"humidity":92,"rain":0.0,"pressure":854.7,"uv_index":9.05,"wind_gusts":40.0,"aqi":107,"pm10":68.9,"pm2_5":47.3,"mosquito_risk":3,"arthritis_risk":10,"migraine_risk":7,"frizz_risk":1,"updated_at":"2026-04-24T02:26:33.401882+05:30"},{"city":"Gangtok","state":"Sikkim","latitude":27.3314,"longitude":88.6138,"temp":17.6,"humidity":99,"rain":0.0,"pressure":837.4,"uv_index":8.85,"wind_gusts":23.8,"aqi":102,"pm10":53.9,"pm2_5":40.2,"mosquito_risk":3,"arthritis_risk":10,"migraine_risk":7,"frizz_risk":1,"updated_at":"2026-04-24T02:26:33.401886+05:30"},{"city":"Siliguri","state":"West Bengal","latitude":26.7271,"longitude":88.3953,"temp":23.6,"humidity":81,"rain":0.0,"pressure":992.4,"uv_index":8.4,"wind_gusts":16.6,"aqi":147,"pm10":99.7,"pm2_5":72.6,"mosquito_risk":3,"arthritis_risk":5,"migraine_risk":7,"frizz_risk":1,"updated_at":"2026-04-24T02:26:36.709625+05:30"},{"city":"Durgapur","state":"West Bengal","latitude":23.5204,"longitude":87.3119,"temp":28.8,"humidity":82,"rain":0.0,"pressure":992.2,"uv_index":8.9,"wind_gusts":40.0,"aqi":159,"pm10":94.5,"pm2_5":77.1,"mosquito_risk":7,"arthritis_risk":5,"migraine_risk":7,"frizz_risk":1,"updated_at":"2026-04-24T02:26:36.709655+05:30"},{"city":"Asansol","state":"West Bengal","latitude":23.6739,"longitude":86.9524,"temp":29.9,"humidity":81,"rain":0.0,"pressure":990.6,"uv_index":8.9,"wind_gusts":41.8,"aqi":154,"pm10":120.6,"pm2_5":68.0,"mosquito_risk":7,"arthritis_risk":5,"migraine_risk":7,"frizz_risk":1,"updated_at":"2026-04-24T02:26:36.709663+05:30"},{"city":"Pondicherry","state":"Puducherry","latitude":11.9139,"longitude":79.8145,"temp":27.1,"humidity":95,"rain":0.0,"pressure":1005.8,"uv_index":8.6,"wind_gusts":24.8,"aqi":23,"pm10":9.3,"pm2_5":6.0,"mosquito_risk":7,"arthritis_risk":5,"migraine_risk":4,"frizz_risk":1,"updated_at":"2026-04-24T02:26:36.709670+05:30"},{"city":"Port Blair","state":"Andaman and Nicobar Islands","latitude":11.6234,"longitude":92.7265,"temp":29.5,"humidity":73,"rain":0.0,"pressure":1003.9,"uv_index":9.15,"wind_gusts":23.0,"aqi":31,"pm10":11.5,"pm2_5":5.2,"mosquito_risk":7,"arthritis_risk":5,"migraine_risk":4,"frizz_risk":1,"updated_at":"2026-04-24T02:26:36.709677+05:30"},{"city":"Haridwar","state":"Uttarakhand","latitude":29.9457,"longitude":78.1642,"temp":23.7,"humidity":62,"rain":0.0,"pressure":970.9,"uv_index":7.25,"wind_gusts":38.5,"aqi":83,"pm10":43.2,"pm2_5":34.8,"mosquito_risk":3,"arthritis_risk":5,"migraine_risk":7,"frizz_risk":0,"updated_at":"2026-04-24T02:26:36.709683+05:30"},{"city":"Rishikesh","state":"Uttarakhand","latitude":30.0869,"longitude":78.2676,"temp":24.2,"humidity":57,"rain":0.0,"pressure":964.2,"uv_index":7.35,"wind_gusts":39.6,"aqi":104,"pm10":43.7,"pm2_5":30.4,"mosquito_risk":0,"arthritis_risk":5,"migraine_risk":7,"frizz_risk":0,"updated_at":"2026-04-24T02:26:36.709689+05:30"},{"city":"Nainital","state":"Uttarakhand","latitude":29.3919,"longitude":79.4542,"temp":23.6,"humidity":38,"rain":0.0,"pressure":806.5,"uv_index":8.2,"wind_gusts":45.7,"aqi":104,"pm10":35.9,"pm2_5":25.0,"mosquito_risk":0,"arthritis_risk":5,"migraine_risk":7,"frizz_risk":0,"updated_at":"2026-04-24T02:26:36.709695+05:30"},{"city":"Mussoorie","state":"Uttarakhand","latitude":30.4599,"longitude":78.0664,"temp":21.2,"humidity":45,"rain":0.0,"pressure":803.3,"uv_index":7.75,"wind_gusts":51.5,"aqi":74,"pm10":38.9,"pm2_5":31.8,"mosquito_risk":0,"arthritis_risk":5,"migraine_risk":7,"frizz_risk":0,"updated_at":"2026-04-24T02:26:36.709701+05:30"},{"city":"Dharamshala","state":"Himachal Pradesh","latitude":32.219,"longitude":76.3234,"temp":25.1,"humidity":31,"rain":0.0,"pressure":869.0,"uv_index":8.05,"wind_gusts":33.8,"aqi":53,"pm10":22.3,"pm2_5":14.6,"mosquito_risk":4,"arthritis_risk":5,"migraine_risk":7,"frizz_risk":0,"updated_at":"2026-04-24T02:26:36.709707+05:30"},{"city":"Dalhousie","state":"Himachal Pradesh","latitude":32.5387,"longitude":75.971,"temp":21.0,"humidity":33,"rain":0.0,"pressure":804.1,"uv_index":8.3,"wind_gusts":30.6,"aqi":60,"pm10":26.8,"pm2_5":23.3,"mosquito_risk":0,"arthritis_risk":5,"migraine_risk":7,"frizz_risk":0,"updated_at":"2026-04-24T02:26:36.709713+05:30"},{"city":"Patiala","state":"Punjab","latitude":30.3398,"longitude":76.3869,"temp":25.5,"humidity":58,"rain":0.0,"pressure":974.6,"uv_index":7.35,"wind_gusts":25.2,"aqi":149,"pm10":349.2,"pm2_5":56.1,"mosquito_risk":4,"arthritis_risk":5,"migraine_risk":7,"frizz_risk":1,"updated_at":"2026-04-24T02:26:36.709719+05:30"},{"city":"Bhatinda","state":"Punjab","latitude":30.211,"longitude":74.9455,"temp":27.1,"humidity":50,"rain":0.0,"pressure":980.9,"uv_index":8.0,"wind_gusts":34.9,"aqi":84,"pm10":42.1,"pm2_5":29.1,"mosquito_risk":4,"arthritis_risk":5,"migraine_risk":7,"frizz_risk":0,"updated_at":"2026-04-24T02:26:36.709725+05:30"},{"city":"Rohtak","state":"Haryana","latitude":28.8955,"longitude":76.6066,"temp":25.0,"humidity":59,"rain":0.0,"pressure":978.1,"uv_index":7.45,"wind_gusts":29.5,"aqi":225,"pm10":148.1,"pm2_5":51.2,"mosquito_risk":4,"arthritis_risk":5,"migraine_risk":7,"frizz_risk":1,"updated_at":"2026-04-24T02:26:36.709730+05:30"},{"city":"Panipat","state":"Haryana","latitude":29.3909,"longitude":76.9635,"temp":25.4,"humidity":53,"rain":0.0,"pressure":976.7,"uv_index":7.3,"wind_gusts":29.5,"aqi":514,"pm10":243.1,"pm2_5":69.6,"mosquito_risk":4,"arthritis_risk":5,"migraine_risk":7,"frizz_risk":0,"updated_at":"2026-04-24T02:26:36.709736+05:30"},{"city":"Mathura","state":"Uttar Pradesh","latitude":27.4924,"longitude":77.6737,"temp":24.0,"humidity":56,"rain":0.0,"pressure":983.2,"uv_index":7.7,"wind_gusts":21.2,"aqi":405,"pm10":586.7,"pm2_5":62.2,"mosquito_risk":0,"arthritis_risk":5,"migraine_risk":7,"frizz_risk":0,"updated_at":"2026-04-24T02:26:36.709742+05:30"},{"city":"Vrindavan","state":"Uttar Pradesh","latitude":27.5823,"longitude":77.7027,"temp":23.6,"humidity":54,"rain":0.0,"pressure":983.5,"uv_index":7.7,"wind_gusts":24.5,"aqi":405,"pm10":586.7,"pm2_5":62.2,"mosquito_risk":0,"arthritis_risk":5,"migraine_risk":7,"frizz_risk":0,"updated_at":"2026-04-24T02:26:36.709747+05:30"},{"city":"Ayodhya","state":"Uttar Pradesh","latitude":26.7922,"longitude":82.1998,"temp":25.9,"humidity":44,"rain":0.0,"pressure":991.5,"uv_index":8.05,"wind_gusts":20.2,"aqi":135,"pm10":189.5,"pm2_5":41.4,"mosquito_risk":4,"arthritis_risk":5,"migraine_risk":7,"frizz_risk":0,"updated_at":"2026-04-24T02:26:36.709752+05:30"},{"city":"Ratlam","state":"Madhya Pradesh","latitude":23.3315,"longitude":75.0367,"temp":26.7,"humidity":43,"rain":0.0,"pressure":952.8,"uv_index":8.5,"wind_gusts":25.6,"aqi":78,"pm10":27.5,"pm2_5":19.7,"mosquito_risk":4,"arthritis_risk":5,"migraine_risk":7,"frizz_risk":0,"updated_at":"2026-04-24T02:26:36.709758+05:30"},{"city":"Sagar","state":"Madhya Pradesh","latitude":23.8388,"longitude":78.7378,"temp":28.2,"humidity":36,"rain":0.0,"pressure":948.4,"uv_index":8.65,"wind_gusts":27.0,"aqi":62,"pm10":31.7,"pm2_5":29.3,"mosquito_risk":4,"arthritis_risk":5,"migraine_risk":7,"frizz_risk":0,"updated_at":"2026-04-24T02:26:36.709764+05:30"},{"city":"Satna","state":"Madhya Pradesh","latitude":24.6005,"longitude":80.8322,"temp":28.1,"humidity":36,"rain":0.0,"pressure":968.8,"uv_index":8.65,"wind_gusts":25.6,"aqi":63,"pm10":27.6,"pm2_5":25.4,"mosquito_risk":4,"arthritis_risk":5,"migraine_risk":7,"frizz_risk":0,"updated_at":"2026-04-24T02:26:36.709769+05:30"},{"city":"Akola","state":"Maharashtra","latitude":20.7002,"longitude":77.0082,"temp":29.5,"humidity":48,"rain":0.0,"pressure":972.8,"uv_index":8.9,"wind_gusts":27.7,"aqi":87,"pm10":38.0,"pm2_5":33.5,"mosquito_risk":4,"arthritis_risk":5,"migraine_risk":7,"frizz_risk":1,"updated_at":"2026-04-24T02:26:36.709775+05:30"},{"city":"Amravati","state":"Maharashtra","latitude":20.9374,"longitude":77.7796,"temp":28.9,"humidity":48,"rain":0.0,"pressure":964.8,"uv_index":8.9,"wind_gusts":25.2,"aqi":84,"pm10":36.1,"pm2_5":31.8,"mosquito_risk":4,"arthritis_risk":5,"migraine_risk":7,"frizz_risk":1,"updated_at":"2026-04-24T02:26:36.709781+05:30"},{"city":"Latur","state":"Maharashtra","latitude":18.4088,"longitude":76.5604,"temp":25.7,"humidity":59,"rain":0.0,"pressure":938.1,"uv_index":9.1,"wind_gusts":37.8,"aqi":103,"pm10":43.5,"pm2_5":39.6,"mosquito_risk":4,"arthritis_risk":5,"migraine_risk":7,"frizz_risk":1,"updated_at":"2026-04-24T02:26:36.709786+05:30"},{"city":"Nanded","state":"Maharashtra","latitude":19.1383,"longitude":77.3091,"temp":28.2,"humidity":55,"rain":0.0,"pressure":966.4,"uv_index":9.05,"wind_gusts":31.7,"aqi":119,"pm10":62.4,"pm2_5":56.9,"mosquito_risk":4,"arthritis_risk":5,"migraine_risk":7,"frizz_risk":1,"updated_at":"2026-04-24T02:26:36.709791+05:30"},{"city":"Gulbarga","state":"Karnataka","latitude":17.3297,"longitude":76.8343,"temp":26.7,"humidity":65,"rain":0.0,"pressure":956.7,"uv_index":9.15,"wind_gusts":29.9,"aqi":112,"pm10":53.0,"pm2_5":48.0,"mosquito_risk":7,"arthritis_risk":5,"migraine_risk":7,"frizz_risk":1,"updated_at":"2026-04-24T02:26:36.709796+05:30"},{"city":"Bidar","state":"Karnataka","latitude":17.9104,"longitude":77.5199,"temp":28.0,"humidity":52,"rain":0.0,"pressure":933.6,"uv_index":8.5,"wind_gusts":31.7,"aqi":115,"pm10":49.6,"pm2_5":45.2,"mosquito_risk":4,"arthritis_risk":5,"migraine_risk":7,"frizz_risk":1,"updated_at":"2026-04-24T02:26:36.709801+05:30"},{"city":"Hospet","state":"Karnataka","latitude":15.2689,"longitude":76.3909,"temp":28.3,"humidity":61,"rain":0.0,"pressure":953.7,"uv_index":9.25,"wind_gusts":41.0,"aqi":98,"pm10":38.3,"pm2_5":35.5,"mosquito_risk":7,"arthritis_risk":5,"migraine_risk":7,"frizz_risk":1,"updated_at":"2026-04-24T02:26:36.709806+05:30"},{"city":"Tirupur","state":"Tamil Nadu","latitude":11.1085,"longitude":77.3411,"temp":27.1,"humidity":82,"rain":0.0,"pressure":972.6,"uv_index":9.45,"wind_gusts":33.1,"aqi":62,"pm10":18.0,"pm2_5":16.5,"mosquito_risk":7,"arthritis_risk":5,"migraine_risk":7,"frizz_risk":1,"updated_at":"2026-04-24T02:26:36.709811+05:30"},{"city":"Alappuzha","state":"Kerala","latitude":9.4981,"longitude":76.3388,"temp":28.1,"humidity":84,"rain":0.0,"pressure":1005.8,"uv_index":9.0,"wind_gusts":26.3,"aqi":76,"pm10":28.2,"pm2_5":24.7,"mosquito_risk":7,"arthritis_risk":5,"migraine_risk":4,"frizz_risk":1,"updated_at":"2026-04-24T02:26:36.709815+05:30"},{"city":"Munnar","state":"Kerala","latitude":10.0889,"longitude":77.0595,"temp":21.7,"humidity":91,"rain":0.0,"pressure":854.5,"uv_index":9.65,"wind_gusts":31.3,"aqi":67,"pm10":25.7,"pm2_5":24.7,"mosquito_risk":3,"arthritis_risk":5,"migraine_risk":7,"frizz_risk":1,"updated_at":"2026-04-24T02:26:36.709821+05:30"},{"city":"Silchar","state":"Assam","latitude":24.8333,"longitude":92.7789,"temp":26.2,"humidity":84,"rain":0.0,"pressure":1003.0,"uv_index":8.75,"wind_gusts":20.9,"aqi":151,"pm10":124.3,"pm2_5":69.4,"mosquito_risk":7,"arthritis_risk":5,"migraine_risk":4,"frizz_risk":1,"updated_at":"2026-04-24T02:26:36.709827+05:30"},{"city":"Dibrugarh","state":"Assam","latitude":27.4728,"longitude":94.912,"temp":26.2,"humidity":81,"rain":0.0,"pressure":993.9,"uv_index":8.65,"wind_gusts":14.4,"aqi":75,"pm10":30.7,"pm2_5":28.3,"mosquito_risk":7,"arthritis_risk":5,"migraine_risk":7,"frizz_risk":1,"updated_at":"2026-04-24T02:26:36.709855+05:30"}]