[{"city":"Delhi","state":"Delhi","latitude":28.6139,"longitude":77.209,"temp":27.4,"humidity":91,"rain":0.0,"pressure":974.2,"uv_index":7.65,"wind_gusts":24.5,"aqi":162,"pm10":133.2,"pm2_5":72.9,"no2":68.2,"co":341.0,"o3":11.0,"so2":31.3,"mosquito_risk":7,"arthritis_risk":5,"migraine_risk":7,"frizz_risk":1,"updated_at":"2026-07-11T03:36:11.954137+05:30"},{"city":"Mumbai","state":"Maharashtra","latitude":19.076,"longitude":72.8777,"temp":27.4,"humidity":88,"rain":0.1,"pressure":1006.6,"uv_index":5.9,"wind_gusts":55.8,"aqi":58,"pm10":39.1,"pm2_5":15.1,"no2":2.9,"co":101.0,"o3":45.0,"so2":2.8,"mosquito_risk":10,"arthritis_risk":5,"migraine_risk":0,"frizz_risk":1,"updated_at":"2026-07-11T03:36:11.954191+05:30"},{"city":"Bangalore","state":"Karnataka","latitude":12.9716,"longitude":77.5946,"temp":20.3,"humidity":94,"rain":0.0,"pressure":910.9,"uv_index":8.1,"wind_gusts":47.2,"aqi":39,"pm10":12.2,"pm2_5":7.2,"no2":10.0,"co":143.0,"o3":30.0,"so2":4.1,"mosquito_risk":3,"arthritis_risk":5,"migraine_risk":7,"frizz_risk":1,"updated_at":"2026-07-11T03:36:11.954208+05:30"},{"city":"Hyderabad","state":"Telangana","latitude":17.385,"longitude":78.4867,"temp":26.4,"humidity":70,"rain":0.0,"pressure":950.8,"uv_index":7.6,"wind_gusts":50.0,"aqi":67,"pm10":24.3,"pm2_5":16.1,"no2":10.8,"co":178.0,"o3":39.0,"so2":5.6,"mosquito_risk":7,"arthritis_risk":5,"migraine_risk":7,"frizz_risk":1,"updated_at":"2026-07-11T03:36:11.954218+05:30"},{"city":"Chennai","state":"Tamil Nadu","latitude":13.0827,"longitude":80.2707,"temp":27.2,"humidity":81,"rain":0.0,"pressure":1005.2,"uv_index":8.0,"wind_gusts":34.6,"aqi":68,"pm10":17.9,"pm2_5":13.7,"no2":15.1,"co":264.0,"o3":52.0,"so2":11.5,"mosquito_risk":7,"arthritis_risk":5,"migraine_risk":4,"frizz_risk":1,"updated_at":"2026-07-11T03:36:11.954226+05:30"},{"city":"Kolkata","state":"West Bengal","latitude":22.5726,"longitude":88.3639,"temp":27.4,"humidity":92,"rain":0.1,"pressure":998.7,"uv_index":7.95,"wind_gusts":27.4,"aqi":85,"pm10":44.0,"pm2_5":35.4,"no2":12.3,"co":312.0,"o3":61.0,"so2":14.1,"mosquito_risk":10,"arthritis_risk":5,"migraine_risk":7,"frizz_risk":1,"updated_at":"2026-07-11T03:36:11.954234+05:30"},{"city":"Pune","state":"Maharashtra","latitude":18.5204,"longitude":73.8567,"temp":23.6,"humidity":92,"rain":0.0,"pressure":945.8,"uv_index":8.0,"wind_gusts":56.2,"aqi":33,"pm10":8.7,"pm2_5":3.7,"no2":4.5,"co":97.0,"o3":38.0,"so2":4.5,"mosquito_risk":3,"arthritis_risk":5,"migraine_risk":7,"frizz_risk":1,"updated_at":"2026-07-11T03:36:11.954240+05:30"},{"city":"Ahmedabad","state":"Gujarat","latitude":23.0225,"longitude":72.5714,"temp":27.4,"humidity":82,"rain":0.0,"pressure":997.2,"uv_index":4.1,"wind_gusts":46.8,"aqi":71,"pm10":35.7,"pm2_5":18.6,"no2":6.1,"co":111.0,"o3":37.0,"so2":4.2,"mosquito_risk":7,"arthritis_risk":5,"migraine_risk":3,"frizz_risk":1,"updated_at":"2026-07-11T03:36:11.954248+05:30"},{"city":"Jaipur","state":"Rajasthan","latitude":26.9124,"longitude":75.7873,"temp":27.1,"humidity":72,"rain":0.0,"pressure":952.2,"uv_index":7.4,"wind_gusts":37.1,"aqi":442,"pm10":542.0,"pm2_5":99.9,"no2":6.8,"co":145.0,"o3":59.0,"so2":4.4,"mosquito_risk":7,"arthritis_risk":5,"migraine_risk":7,"frizz_risk":1,"updated_at":"2026-07-11T03:36:11.954254+05:30"},{"city":"Lucknow","state":"Uttar Pradesh","latitude":26.8467,"longitude":80.9462,"temp":26.2,"humidity":95,"rain":0.0,"pressure":984.7,"uv_index":6.6,"wind_gusts":45.0,"aqi":127,"pm10":109.7,"pm2_5":51.9,"no2":18.5,"co":201.0,"o3":51.0,"so2":6.2,"mosquito_risk":7,"arthritis_risk":5,"migraine_risk":7,"frizz_risk":1,"updated_at":"2026-07-11T03:36:11.954265+05:30"},{"city":"Kanpur","state":"Uttar Pradesh","latitude":26.4499,"longitude":80.3319,"temp":26.4,"humidity":93,"rain":0.0,"pressure":983.2,"uv_index":5.65,"wind_gusts":48.2,"aqi":114,"pm10":65.9,"pm2_5":40.6,"no2":21.7,"co":190.0,"o3":41.0,"so2":7.5,"mosquito_risk":7,"arthritis_risk":5,"migraine_risk":3,"frizz_risk":1,"updated_at":"2026-07-11T03:36:11.954272+05:30"},{"city":"Chandigarh","state":"Chandigarh","latitude":30.7333,"longitude":76.7794,"temp":25.1,"humidity":90,"rain":0.0,"pressure":959.7,"uv_index":7.7,"wind_gusts":19.4,"aqi":124,"pm10":61.2,"pm2_5":47.7,"no2":42.6,"co":457.0,"o3":27.0,"so2":9.2,"mosquito_risk":7,"arthritis_risk":5,"migraine_risk":7,"frizz_risk":1,"updated_at":"2026-07-11T03:36:11.954279+05:30"},{"city":"Srinagar","state":"Jammu and Kashmir","latitude":34.0837,"longitude":74.7973,"temp":22.0,"humidity":72,"rain":0.0,"pressure":834.9,"uv_index":9.05,"wind_gusts":31.3,"aqi":89,"pm10":48.5,"pm2_5":45.9,"no2":25.7,"co":618.0,"o3":40.0,"so2":2.0,"mosquito_risk":3,"arthritis_risk":5,"migraine_risk":7,"frizz_risk":1,"updated_at":"2026-07-11T03:36:11.954286+05:30"},{"city":"Jammu","state":"Jammu and Kashmir","latitude":32.7266,"longitude":74.857,"temp":26.5,"humidity":93,"rain":0.1,"pressure":963.5,"uv_index":7.95,"wind_gusts":25.6,"aqi":163,"pm10":73.6,"pm2_5":64.5,"no2":39.0,"co":506.0,"o3":49.0,"so2":4.7,"mosquito_risk":10,"arthritis_risk":5,"migraine_risk":7,"frizz_risk":1,"updated_at":"2026-07-11T03:36:11.954292+05:30"},{"city":"Amritsar","state":"Punjab","latitude":31.634,"longitude":74.8723,"temp":27.4,"humidity":95,"rain":0.2,"pressure":971.1,"uv_index":8.45,"wind_gusts":54.4,"aqi":158,"pm10":164.8,"pm2_5":72.6,"no2":15.7,"co":626.0,"o3":87.0,"so2":4.7,"mosquito_risk":10,"arthritis_risk":5,"migraine_risk":7,"frizz_risk":1,"updated_at":"2026-07-11T03:36:11.954299+05:30"},{"city":"Ludhiana","state":"Punjab","latitude":30.901,"longitude":75.8573,"temp":26.9,"humidity":92,"rain":0.0,"pressure":969.8,"uv_index":7.95,"wind_gusts":23.0,"aqi":154,"pm10":105.9,"pm2_5":44.8,"no2":17.1,"co":626.0,"o3":76.0,"so2":6.1,"mosquito_risk":7,"arthritis_risk":5,"migraine_risk":7,"frizz_risk":1,"updated_at":"2026-07-11T03:36:11.954305+05:30"},{"city":"Jalandhar","state":"Punjab","latitude":31.326,"longitude":75.5762,"temp":24.7,"humidity":97,"rain":0.2,"pressure":971.2,"uv_index":8.2,"wind_gusts":29.9,"aqi":160,"pm10":152.7,"pm2_5":62.4,"no2":18.9,"co":680.0,"o3":79.0,"so2":5.0,"mosquito_risk":6,"arthritis_risk":5,"migraine_risk":7,"frizz_risk":1,"updated_at":"2026-07-11T03:36:11.954311+05:30"},{"city":"Dehradun","state":"Uttarakhand","latitude":30.6284,"longitude":78.0322,"temp":18.4,"humidity":97,"rain":0.0,"pressure":824.4,"uv_index":7.5,"wind_gusts":24.1,"aqi":41,"pm10":6.8,"pm2_5":6.5,"no2":21.0,"co":247.0,"o3":49.0,"so2":0.6,"mosquito_risk":3,"arthritis_risk":10,"migraine_risk":7,"frizz_risk":1,"updated_at":"2026-07-11T03:36:11.954318+05:30"},{"city":"Shimla","state":"Himachal Pradesh","latitude":31.1048,"longitude":77.1734,"temp":15.2,"humidity":90,"rain":0.0,"pressure":778.3,"uv_index":8.25,"wind_gusts":32.8,"aqi":49,"pm10":21.2,"pm2_5":20.0,"no2":20.7,"co":273.0,"o3":62.0,"so2":4.3,"mosquito_risk":3,"arthritis_risk":10,"migraine_risk":7,"frizz_risk":0,"updated_at":"2026-07-11T03:36:11.954324+05:30"},{"city":"Manali","state":"Himachal Pradesh","latitude":32.2396,"longitude":77.1887,"temp":19.5,"humidity":90,"rain":0.0,"pressure":813.8,"uv_index":8.2,"wind_gusts":33.1,"aqi":51,"pm10":17.8,"pm2_5":17.4,"no2":71.1,"co":325.0,"o3":1.0,"so2":0.2,"mosquito_risk":3,"arthritis_risk":10,"migraine_risk":7,"frizz_risk":1,"updated_at":"2026-07-11T03:36:11.954336+05:30"},{"city":"Gurgaon","state":"Haryana","latitude":28.4595,"longitude":77.0266,"temp":27.2,"humidity":92,"rain":0.0,"pressure":972.5,"uv_index":7.7,"wind_gusts":28.1,"aqi":175,"pm10":330.6,"pm2_5":118.3,"no2":75.0,"co":932.0,"o3":16.0,"so2":37.3,"mosquito_risk":7,"arthritis_risk":5,"migraine_risk":7,"frizz_risk":1,"updated_at":"2026-07-11T03:36:11.954342+05:30"},{"city":"Noida","state":"Uttar Pradesh","latitude":28.5355,"longitude":77.391,"temp":27.6,"humidity":90,"rain":0.0,"pressure":975.6,"uv_index":7.7,"wind_gusts":23.8,"aqi":175,"pm10":330.6,"pm2_5":118.3,"no2":75.0,"co":273.0,"o3":16.0,"so2":37.3,"mosquito_risk":7,"arthritis_risk":5,"migraine_risk":7,"frizz_risk":1,"updated_at":"2026-07-11T03:36:11.954348+05:30"},{"city":"Ghaziabad","state":"Uttar Pradesh","latitude":28.6692,"longitude":77.4538,"temp":26.4,"humidity":93,"rain":0.0,"pressure":973.9,"uv_index":7.4,"wind_gusts":24.1,"aqi":121,"pm10":53.9,"pm2_5":50.2,"no2":46.9,"co":318.0,"o3":15.0,"so2":9.5,"mosquito_risk":7,"arthritis_risk":5,"migraine_risk":7,"frizz_risk":1,"updated_at":"2026-07-11T03:36:11.954355+05:30"},{"city":"Faridabad","state":"Haryana","latitude":28.4089,"longitude":77.3178,"temp":27.6,"humidity":92,"rain":0.0,"pressure":974.9,"uv_index":7.75,"wind_gusts":25.9,"aqi":175,"pm10":330.6,"pm2_5":118.3,"no2":75.0,"co":308.0,"o3":16.0,"so2":37.3,"mosquito_risk":7,"arthritis_risk":5,"migraine_risk":7,"frizz_risk":1,"updated_at":"2026-07-11T03:36:11.954361+05:30"},{"city":"Meerut","state":"Uttar Pradesh","latitude":28.9845,"longitude":77.7064,"temp":25.7,"humidity":90,"rain":0.0,"pressure":972.5,"uv_index":7.5,"wind_gusts":47.5,"aqi":121,"pm10":53.9,"pm2_5":50.2,"no2":46.9,"co":539.0,"o3":15.0,"so2":9.5,"mosquito_risk":7,"arthritis_risk":5,"migraine_risk":7,"frizz_risk":1,"updated_at":"2026-07-11T03:36:11.954367+05:30"},{"city":"Agra","state":"Uttar Pradesh","latitude":27.1767,"longitude":78.0081,"temp":29.7,"humidity":67,"rain":0.0,"pressure":979.0,"uv_index":6.5,"wind_gusts":37.8,"aqi":159,"pm10":120.1,"pm2_5":50.9,"no2":25.0,"co":216.0,"o3":36.0,"so2":7.1,"mosquito_risk":7,"arthritis_risk":5,"migraine_risk":7,"frizz_risk":1,"updated_at":"2026-07-11T03:36:11.954373+05:30"},{"city":"Varanasi","state":"Uttar Pradesh","latitude":25.3176,"longitude":82.9739,"temp":26.1,"humidity":98,"rain":0.4,"pressure":990.0,"uv_index":8.2,"wind_gusts":36.0,"aqi":99,"pm10":49.4,"pm2_5":32.1,"no2":11.6,"co":268.0,"o3":57.0,"so2":6.9,"mosquito_risk":10,"arthritis_risk":5,"migraine_risk":7,"frizz_risk":1,"updated_at":"2026-07-11T03:36:11.954380+05:30"},{"city":"Prayagraj","state":"Uttar Pradesh","latitude":25.4358,"longitude":81.8463,"temp":28.0,"humidity":84,"rain":0.0,"pressure":987.7,"uv_index":8.6,"wind_gusts":43.2,"aqi":106,"pm10":42.5,"pm2_5":30.9,"no2":15.0,"co":200.0,"o3":49.0,"so2":4.8,"mosquito_risk":7,"arthritis_risk":5,"migraine_risk":7,"frizz_risk":1,"updated_at":"2026-07-11T03:36:11.954386+05:30"},{"city":"Gorakhpur","state":"Uttar Pradesh","latitude":26.7606,"longitude":83.3732,"temp":26.6,"humidity":96,"rain":0.1,"pressure":988.9,"uv_index":6.4,"wind_gusts":33.8,"aqi":83,"pm10":29.3,"pm2_5":18.5,"no2":12.2,"co":259.0,"o3":76.0,"so2":3.9,"mosquito_risk":10,"arthritis_risk":5,"migraine_risk":7,"frizz_risk":1,"updated_at":"2026-07-11T03:36:11.954393+05:30"},{"city":"Bareilly","state":"Uttar Pradesh","latitude":28.367,"longitude":79.4304,"temp":26.6,"humidity":98,"rain":0.1,"pressure":977.3,"uv_index":7.75,"wind_gusts":28.1,"aqi":89,"pm10":60.1,"pm2_5":55.2,"no2":37.3,"co":377.0,"o3":28.0,"so2":9.7,"mosquito_risk":10,"arthritis_risk":5,"migraine_risk":7,"frizz_risk":1,"updated_at":"2026-07-11T03:36:11.954401+05:30"},{"city":"Aligarh","state":"Uttar Pradesh","latitude":27.8974,"longitude":78.088,"temp":27.5,"humidity":89,"rain":0.0,"pressure":976.5,"uv_index":7.8,"wind_gusts":32.0,"aqi":158,"pm10":141.1,"pm2_5":82.4,"no2":42.7,"co":484.0,"o3":38.0,"so2":14.2,"mosquito_risk":7,"arthritis_risk":5,"migraine_risk":7,"frizz_risk":1,"updated_at":"2026-07-11T03:36:11.954407+05:30"},{"city":"Moradabad","state":"Uttar Pradesh","latitude":28.8386,"longitude":78.7733,"temp":26.5,"humidity":94,"rain":0.0,"pressure":974.4,"uv_index":7.3,"wind_gusts":31.7,"aqi":86,"pm10":61.9,"pm2_5":56.7,"no2":38.5,"co":438.0,"o3":24.0,"so2":10.9,"mosquito_risk":7,"arthritis_risk":5,"migraine_risk":7,"frizz_risk":1,"updated_at":"2026-07-11T03:36:11.954412+05:30"},{"city":"Saharanpur","state":"Uttar Pradesh","latitude":29.9637,"longitude":77.546,"temp":25.0,"humidity":97,"rain":0.0,"pressure":966.9,"uv_index":7.35,"wind_gusts":26.3,"aqi":66,"pm10":41.6,"pm2_5":40.7,"no2":36.8,"co":388.0,"o3":17.0,"so2":5.9,"mosquito_risk":7,"arthritis_risk":5,"migraine_risk":7,"frizz_risk":1,"updated_at":"2026-07-11T03:36:11.954419+05:30"},{"city":"Jhansi","state":"Uttar Pradesh","latitude":25.4484,"longitude":78.5685,"temp":29.1,"humidity":66,"rain":0.0,"pressure":970.5,"uv_index":8.05,"wind_gusts":43.9,"aqi":102,"pm10":57.6,"pm2_5":33.2,"no2":7.5,"co":145.0,"o3":71.0,"so2":10.2,"mosquito_risk":7,"arthritis_risk":5,"migraine_risk":7,"frizz_risk":1,"updated_at":"2026-07-11T03:36:15.313589+05:30"},{"city":"Surat","state":"Gujarat","latitude":21.1702,"longitude":72.8311,"temp":28.1,"humidity":87,"rain":0.0,"pressure":1003.1,"uv_index":6.1,"wind_gusts":63.7,"aqi":64,"pm10":32.0,"pm2_5":17.2,"no2":14.5,"co":257.0,"o3":32.0,"so2":25.5,"mosquito_risk":7,"arthritis_risk":5,"migraine_risk":4,"frizz_risk":1,"updated_at":"2026-07-11T03:36:15.313611+05:30"},{"city":"Vadodara","state":"Gujarat","latitude":22.3072,"longitude":73.1812,"temp":27.5,"humidity":83,"rain":0.0,"pressure":999.9,"uv_index":7.5,"wind_gusts":55.1,"aqi":65,"pm10":27.8,"pm2_5":13.9,"no2":5.7,"co":109.0,"o3":37.0,"so2":3.5,"mosquito_risk":7,"arthritis_risk":5,"migraine_risk":7,"frizz_risk":1,"updated_at":"2026-07-11T03:36:15.313622+05:30"},{"city":"Rajkot","state":"Gujarat","latitude":22.3039,"longitude":70.8022,"temp":26.8,"humidity":87,"rain":0.0,"pressure":989.5,"uv_index":7.15,"wind_gusts":57.6,"aqi":63,"pm10":24.6,"pm2_5":11.0,"no2":3.2,"co":91.0,"o3":41.0,"so2":3.0,"mosquito_risk":7,"arthritis_risk":5,"migraine_risk":7,"frizz_risk":1,"updated_at":"2026-07-11T03:36:15.313629+05:30"},{"city":"Thane","state":"Maharashtra","latitude":19.2183,"longitude":72.9781,"temp":26.4,"humidity":94,"rain":0.0,"pressure":1006.0,"uv_index":5.65,"wind_gusts":47.5,"aqi":58,"pm10":39.1,"pm2_5":15.1,"no2":2.9,"co":117.0,"o3":45.0,"so2":2.8,"mosquito_risk":7,"arthritis_risk":5,"migraine_risk":0,"frizz_risk":1,"updated_at":"2026-07-11T03:36:15.313636+05:30"},{"city":"Nagpur","state":"Maharashtra","latitude":21.1458,"longitude":79.0882,"temp":26.9,"humidity":74,"rain":0.0,"pressure":969.1,"uv_index":6.6,"wind_gusts":48.2,"aqi":90,"pm10":54.4,"pm2_5":29.9,"no2":9.4,"co":146.0,"o3":54.0,"so2":9.3,"mosquito_risk":7,"arthritis_risk":5,"migraine_risk":7,"frizz_risk":1,"updated_at":"2026-07-11T03:36:15.313643+05:30"},{"city":"Nashik","state":"Maharashtra","latitude":19.9975,"longitude":73.7898,"temp":23.7,"humidity":94,"rain":0.0,"pressure":942.3,"uv_index":7.6,"wind_gusts":63.0,"aqi":39,"pm10":7.7,"pm2_5":4.1,"no2":5.2,"co":90.0,"o3":35.0,"so2":3.2,"mosquito_risk":3,"arthritis_risk":5,"migraine_risk":7,"frizz_risk":1,"updated_at":"2026-07-11T03:36:15.313650+05:30"},{"city":"Aurangabad","state":"Maharashtra","latitude":19.8762,"longitude":75.3433,"temp":23.9,"humidity":87,"rain":0.0,"pressure":940.6,"uv_index":8.85,"wind_gusts":62.6,"aqi":51,"pm10":20.1,"pm2_5":9.1,"no2":8.3,"co":119.0,"o3":32.0,"so2":9.0,"mosquito_risk":3,"arthritis_risk":5,"migraine_risk":7,"frizz_risk":1,"updated_at":"2026-07-11T03:36:15.313657+05:30"},{"city":"Solapur","state":"Maharashtra","latitude":17.6599,"longitude":75.9064,"temp":24.4,"humidity":82,"rain":0.0,"pressure":955.4,"uv_index":7.75,"wind_gusts":48.6,"aqi":49,"pm10":14.6,"pm2_5":8.1,"no2":5.9,"co":118.0,"o3":30.0,"so2":2.3,"mosquito_risk":3,"arthritis_risk":5,"migraine_risk":7,"frizz_risk":1,"updated_at":"2026-07-11T03:36:15.313664+05:30"},{"city":"Kolhapur","state":"Maharashtra","latitude":16.705,"longitude":74.2433,"temp":23.0,"humidity":94,"rain":0.0,"pressure":947.0,"uv_index":7.85,"wind_gusts":54.0,"aqi":35,"pm10":7.2,"pm2_5":3.7,"no2":2.9,"co":104.0,"o3":38.0,"so2":2.0,"mosquito_risk":3,"arthritis_risk":5,"migraine_risk":7,"frizz_risk":1,"updated_at":"2026-07-11T03:36:15.313670+05:30"},{"city":"Goa","state":"Goa","latitude":15.2993,"longitude":74.124,"temp":24.9,"humidity":99,"rain":0.0,"pressure":998.3,"uv_index":7.5,"wind_gusts":38.9,"aqi":57,"pm10":39.2,"pm2_5":19.2,"no2":4.5,"co":288.0,"o3":35.0,"so2":1.8,"mosquito_risk":3,"arthritis_risk":5,"migraine_risk":7,"frizz_risk":1,"updated_at":"2026-07-11T03:36:15.313676+05:30"},{"city":"Jodhpur","state":"Rajasthan","latitude":26.2389,"longitude":73.0243,"temp":27.9,"humidity":70,"rain":0.0,"pressure":975.0,"uv_index":8.4,"wind_gusts":53.6,"aqi":200,"pm10":426.5,"pm2_5":101.0,"no2":2.5,"co":104.0,"o3":56.0,"so2":2.8,"mosquito_risk":7,"arthritis_risk":5,"migraine_risk":7,"frizz_risk":1,"updated_at":"2026-07-11T03:36:15.313683+05:30"},{"city":"Udaipur","state":"Rajasthan","latitude":24.5854,"longitude":73.7125,"temp":23.5,"humidity":87,"rain":0.0,"pressure":940.0,"uv_index":8.85,"wind_gusts":53.3,"aqi":77,"pm10":48.4,"pm2_5":22.2,"no2":3.6,"co":100.0,"o3":49.0,"so2":3.3,"mosquito_risk":3,"arthritis_risk":5,"migraine_risk":7,"frizz_risk":1,"updated_at":"2026-07-11T03:36:15.313689+05:30"},{"city":"Kota","state":"Rajasthan","latitude":25.2138,"longitude":75.8648,"temp":27.9,"humidity":68,"rain":0.0,"pressure":971.9,"uv_index":8.3,"wind_gusts":37.1,"aqi":94,"pm10":48.0,"pm2_5":29.5,"no2":7.2,"co":146.0,"o3":66.0,"so2":6.9,"mosquito_risk":7,"arthritis_risk":5,"migraine_risk":7,"frizz_risk":1,"updated_at":"2026-07-11T03:36:15.313695+05:30"},{"city":"Bikaner","state":"Rajasthan","latitude":28.0229,"longitude":73.3119,"temp":29.7,"humidity":65,"rain":0.0,"pressure":972.7,"uv_index":7.85,"wind_gusts":39.6,"aqi":156,"pm10":185.8,"pm2_5":74.5,"no2":2.8,"co":103.0,"o3":56.0,"so2":4.8,"mosquito_risk":7,"arthritis_risk":5,"migraine_risk":7,"frizz_risk":1,"updated_at":"2026-07-11T03:36:15.313701+05:30"},{"city":"Ajmer","state":"Rajasthan","latitude":26.4499,"longitude":74.6399,"temp":26.3,"humidity":74,"rain":0.0,"pressure":947.3,"uv_index":8.05,"wind_gusts":51.5,"aqi":87,"pm10":51.8,"pm2_5":27.0,"no2":4.6,"co":113.0,"o3":59.0,"so2":3.6,"mosquito_risk":7,"arthritis_risk":5,"migraine_risk":7,"frizz_risk":1,"updated_at":"2026-07-11T03:36:15.313707+05:30"},{"city":"Gwalior","state":"Madhya Pradesh","latitude":26.2183,"longitude":78.1828,"temp":28.6,"humidity":69,"rain":0.0,"pressure":975.0,"uv_index":7.35,"wind_gusts":42.5,"aqi":98,"pm10":44.0,"pm2_5":28.5,"no2":7.4,"co":132.0,"o3":63.0,"so2":5.3,"mosquito_risk":7,"arthritis_risk":5,"migraine_risk":7,"frizz_risk":1,"updated_at":"2026-07-11T03:36:15.313713+05:30"},{"city":"Indore","state":"Madhya Pradesh","latitude":22.7196,"longitude":75.8577,"temp":24.5,"humidity":90,"rain":0.0,"pressure":943.5,"uv_index":8.6,"wind_gusts":54.4,"aqi":75,"pm10":23.1,"pm2_5":12.6,"no2":7.7,"co":141.0,"o3":35.0,"so2":9.0,"mosquito_risk":3,"arthritis_risk":5,"migraine_risk":7,"frizz_risk":1,"updated_at":"2026-07-11T03:36:15.313720+05:30"},{"city":"Bhopal","state":"Madhya Pradesh","latitude":23.2599,"longitude":77.4126,"temp":25.4,"humidity":83,"rain":0.0,"pressure":948.6,"uv_index":8.6,"wind_gusts":46.8,"aqi":85,"pm10":41.2,"pm2_5":25.6,"no2":6.5,"co":167.0,"o3":59.0,"so2":7.2,"mosquito_risk":7,"arthritis_risk":5,"migraine_risk":7,"frizz_risk":1,"updated_at":"2026-07-11T03:36:15.313726+05:30"},{"city":"Jabalpur","state":"Madhya Pradesh","latitude":23.1815,"longitude":79.9864,"temp":26.5,"humidity":75,"rain":0.0,"pressure":956.1,"uv_index":8.05,"wind_gusts":36.7,"aqi":89,"pm10":58.6,"pm2_5":33.6,"no2":5.5,"co":182.0,"o3":70.0,"so2":4.7,"mosquito_risk":7,"arthritis_risk":5,"migraine_risk":7,"frizz_risk":1,"updated_at":"2026-07-11T03:36:15.313732+05:30"},{"city":"Ujjain","state":"Madhya Pradesh","latitude":23.1765,"longitude":75.7885,"temp":25.1,"humidity":88,"rain":0.0,"pressure":948.9,"uv_index":8.5,"wind_gusts":55.4,"aqi":75,"pm10":22.4,"pm2_5":12.9,"no2":8.0,"co":155.0,"o3":35.0,"so2":9.6,"mosquito_risk":7,"arthritis_risk":5,"migraine_risk":7,"frizz_risk":1,"updated_at":"2026-07-11T03:36:15.313738+05:30"},{"city":"Visakhapatnam","state":"Andhra Pradesh","latitude":17.6868,"longitude":83.2185,"temp":27.7,"humidity":85,"rain":0.0,"pressure":999.4,"uv_index":8.4,"wind_gusts":42.1,"aqi":86,"pm10":37.8,"pm2_5":26.7,"no2":20.7,"co":360.0,"o3":48.0,"so2":32.3,"mosquito_risk":7,"arthritis_risk":5,"migraine_risk":7,"frizz_risk":1,"updated_at":"2026-07-11T03:36:15.313744+05:30"},{"city":"Vijayawada","state":"Andhra Pradesh","latitude":16.5062,"longitude":80.648,"temp":30.4,"humidity":56,"rain":0.0,"pressure":998.8,"uv_index":8.15,"wind_gusts":42.1,"aqi":89,"pm10":47.3,"pm2_5":31.8,"no2":16.8,"co":154.0,"o3":39.0,"so2":5.4,"mosquito_risk":0,"arthritis_risk":5,"migraine_risk":7,"frizz_risk":1,"updated_at":"2026-07-11T03:36:15.313751+05:30"},{"city":"Guntur","state":"Andhra Pradesh","latitude":16.3067,"longitude":80.4365,"temp":30.8,"humidity":54,"rain":0.0,"pressure":1000.1,"uv_index":8.45,"wind_gusts":45.7,"aqi":86,"pm10":50.3,"pm2_5":31.5,"no2":19.4,"co":148.0,"o3":30.0,"so2":6.8,"mosquito_risk":0,"arthritis_risk":5,"migraine_risk":4,"frizz_risk":1,"updated_at":"2026-07-11T03:36:15.313757+05:30"},{"city":"Nellore","state":"Andhra Pradesh","latitude":14.4426,"longitude":79.9865,"temp":28.9,"humidity":67,"rain":0.0,"pressure":1003.2,"uv_index":8.4,"wind_gusts":43.9,"aqi":64,"pm10":22.8,"pm2_5":15.5,"no2":12.7,"co":133.0,"o3":38.0,"so2":5.5,"mosquito_risk":7,"arthritis_risk":5,"migraine_risk":4,"frizz_risk":1,"updated_at":"2026-07-11T03:36:15.313764+05:30"},{"city":"Kurnool","state":"Andhra Pradesh","latitude":15.8281,"longitude":78.0373,"temp":27.3,"humidity":71,"rain":0.0,"pressure":975.3,"uv_index":8.6,"wind_gusts":47.9,"aqi":61,"pm10":20.4,"pm2_5":11.6,"no2":7.7,"co":128.0,"o3":35.0,"so2":2.4,"mosquito_risk":7,"arthritis_risk":5,"migraine_risk":7,"frizz_risk":1,"updated_at":"2026-07-11T03:36:15.313771+05:30"},{"city":"Kakinada","state":"Andhra Pradesh","latitude":16.9891,"longitude":82.2475,"temp":28.4,"humidity":78,"rain":0.0,"pressure":1003.2,"uv_index":5.45,"wind_gusts":43.6,"aqi":76,"pm10":35.2,"pm2_5":21.3,"no2":4.9,"co":172.0,"o3":86.0,"so2":4.1,"mosquito_risk":7,"arthritis_risk":5,"migraine_risk":0,"frizz_risk":1,"updated_at":"2026-07-11T03:36:15.313777+05:30"},{"city":"Tirupati","state":"Andhra Pradesh","latitude":13.6288,"longitude":79.4192,"temp":28.5,"humidity":61,"rain":0.0,"pressure":989.0,"uv_index":8.25,"wind_gusts":36.0,"aqi":62,"pm10":19.4,"pm2_5":11.5,"no2":9.1,"co":116.0,"o3":34.0,"so2":2.0,"mosquito_risk":7,"arthritis_risk":5,"migraine_risk":7,"frizz_risk":1,"updated_at":"2026-07-11T03:36:15.313783+05:30"},{"city":"Warangal","state":"Telangana","latitude":17.9689,"longitude":79.5941,"temp":28.1,"humidity":65,"rain":0.0,"pressure":975.4,"uv_index":7.45,"wind_gusts":43.9,"aqi":79,"pm10":49.0,"pm2_5":28.4,"no2":12.3,"co":181.0,"o3":40.0,"so2":4.0,"mosquito_risk":7,"arthritis_risk":5,"migraine_risk":7,"frizz_risk":1,"updated_at":"2026-07-11T03:36:15.313789+05:30"},{"city":"Nizamabad","state":"Telangana","latitude":18.6725,"longitude":78.0941,"temp":26.3,"humidity":71,"rain":0.0,"pressure":962.2,"uv_index":8.4,"wind_gusts":45.7,"aqi":73,"pm10":22.5,"pm2_5":15.4,"no2":9.7,"co":128.0,"o3":39.0,"so2":6.7,"mosquito_risk":7,"arthritis_risk":5,"migraine_risk":7,"frizz_risk":1,"updated_at":"2026-07-11T03:36:15.313795+05:30"},{"city":"Mysore","state":"Karnataka","latitude":12.2958,"longitude":76.6396,"temp":20.9,"humidity":97,"rain":0.0,"pressure":928.2,"uv_index":7.05,"wind_gusts":46.8,"aqi":28,"pm10":14.6,"pm2_5":7.5,"no2":8.2,"co":105.0,"o3":28.0,"so2":2.2,"mosquito_risk":3,"arthritis_risk":5,"migraine_risk":7,"frizz_risk":1,"updated_at":"2026-07-11T03:36:15.313801+05:30"},{"city":"Mangalore","state":"Karnataka","latitude":12.9141,"longitude":74.856,"temp":24.9,"humidity":98,"rain":0.1,"pressure":1007.9,"uv_index":7.9,"wind_gusts":42.8,"aqi":52,"pm10":27.1,"pm2_5":13.1,"no2":5.7,"co":174.0,"o3":32.0,"so2":2.6,"mosquito_risk":6,"arthritis_risk":5,"migraine_risk":4,"frizz_risk":1,"updated_at":"2026-07-11T03:36:15.313808+05:30"},{"city":"Hubli-Dharwad","state":"Karnataka","latitude":15.3647,"longitude":75.124,"temp":22.6,"humidity":93,"rain":0.0,"pressure":940.2,"uv_index":8.3,"wind_gusts":54.0,"aqi":32,"pm10":10.8,"pm2_5":4.9,"no2":2.7,"co":99.0,"o3":37.0,"so2":1.7,"mosquito_risk":3,"arthritis_risk":5,"migraine_risk":7,"frizz_risk":1,"updated_at":"2026-07-11T03:36:15.313814+05:30"},{"city":"Belgaum","state":"Karnataka","latitude":15.8497,"longitude":74.4977,"temp":21.1,"humidity":97,"rain":0.0,"pressure":924.8,"uv_index":8.4,"wind_gusts":54.7,"aqi":28,"pm10":6.9,"pm2_5":3.1,"no2":2.3,"co":96.0,"o3":39.0,"so2":1.3,"mosquito_risk":3,"arthritis_risk":5,"migraine_risk":7,"frizz_risk":1,"updated_at":"2026-07-11T03:36:18.661377+05:30"},{"city":"Coimbatore","state":"Tamil Nadu","latitude":11.0168,"longitude":76.9558,"temp":23.4,"humidity":95,"rain":0.0,"pressure":961.5,"uv_index":7.9,"wind_gusts":49.3,"aqi":29,"pm10":17.6,"pm2_5":8.9,"no2":7.6,"co":167.0,"o3":27.0,"so2":3.0,"mosquito_risk":3,"arthritis_risk":5,"migraine_risk":7,"frizz_risk":1,"updated_at":"2026-07-11T03:36:18.661402+05:30"},{"city":"Madurai","state":"Tamil Nadu","latitude":9.9252,"longitude":78.1198,"temp":27.7,"humidity":74,"rain":0.0,"pressure":992.7,"uv_index":8.4,"wind_gusts":25.9,"aqi":55,"pm10":21.7,"pm2_5":19.2,"no2":33.8,"co":138.0,"o3":3.0,"so2":6.6,"mosquito_risk":7,"arthritis_risk":5,"migraine_risk":7,"frizz_risk":1,"updated_at":"2026-07-11T03:36:18.661412+05:30"},{"city":"Trichy","state":"Tamil Nadu","latitude":10.7905,"longitude":78.7047,"temp":27.7,"humidity":72,"rain":0.0,"pressure":999.0,"uv_index":8.0,"wind_gusts":50.0,"aqi":43,"pm10":15.1,"pm2_5":8.2,"no2":6.2,"co":108.0,"o3":33.0,"so2":3.0,"mosquito_risk":7,"arthritis_risk":5,"migraine_risk":7,"frizz_risk":1,"updated_at":"2026-07-11T03:36:18.661420+05:30"},{"city":"Salem","state":"Tamil Nadu","latitude":11.6643,"longitude":78.146,"temp":24.6,"humidity":96,"rain":0.0,"pressure":977.0,"uv_index":7.8,"wind_gusts":32.4,"aqi":58,"pm10":21.7,"pm2_5":16.4,"no2":22.2,"co":380.0,"o3":19.0,"so2":6.6,"mosquito_risk":3,"arthritis_risk":5,"migraine_risk":7,"frizz_risk":1,"updated_at":"2026-07-11T03:36:18.661427+05:30"},{"city":"Tirunelveli","state":"Tamil Nadu","latitude":8.7139,"longitude":77.7567,"temp":28.4,"humidity":68,"rain":0.0,"pressure":1003.8,"uv_index":8.55,"wind_gusts":50.0,"aqi":27,"pm10":12.2,"pm2_5":7.9,"no2":7.4,"co":119.0,"o3":31.0,"so2":2.5,"mosquito_risk":7,"arthritis_risk":5,"migraine_risk":4,"frizz_risk":1,"updated_at":"2026-07-11T03:36:18.661434+05:30"},{"city":"Vellore","state":"Tamil Nadu","latitude":12.9165,"longitude":79.1325,"temp":26.9,"humidity":71,"rain":0.0,"pressure":983.1,"uv_index":8.0,"wind_gusts":42.1,"aqi":56,"pm10":19.1,"pm2_5":12.4,"no2":13.6,"co":152.0,"o3":31.0,"so2":4.8,"mosquito_risk":7,"arthritis_risk":5,"migraine_risk":7,"frizz_risk":1,"updated_at":"2026-07-11T03:36:18.661441+05:30"},{"city":"Erode","state":"Tamil Nadu","latitude":11.341,"longitude":77.7172,"temp":25.0,"humidity":87,"rain":0.0,"pressure":988.8,"uv_index":7.8,"wind_gusts":39.6,"aqi":45,"pm10":20.4,"pm2_5":13.9,"no2":15.0,"co":136.0,"o3":24.0,"so2":4.0,"mosquito_risk":7,"arthritis_risk":5,"migraine_risk":7,"frizz_risk":1,"updated_at":"2026-07-11T03:36:18.661448+05:30"},{"city":"Kochi","state":"Kerala","latitude":9.9312,"longitude":76.2673,"temp":25.8,"humidity":95,"rain":0.0,"pressure":1010.2,"uv_index":7.8,"wind_gusts":40.3,"aqi":50,"pm10":19.4,"pm2_5":13.4,"no2":13.1,"co":84.0,"o3":21.0,"so2":3.8,"mosquito_risk":7,"arthritis_risk":0,"migraine_risk":4,"frizz_risk":1,"updated_at":"2026-07-11T03:36:18.661455+05:30"},{"city":"Thiruvananthapuram","state":"Kerala","latitude":8.5241,"longitude":76.9366,"temp":24.7,"humidity":96,"rain":0.0,"pressure":1009.9,"uv_index":8.0,"wind_gusts":50.0,"aqi":40,"pm10":15.5,"pm2_5":8.5,"no2":4.2,"co":99.0,"o3":43.0,"so2":2.0,"mosquito_risk":3,"arthritis_risk":0,"migraine_risk":4,"frizz_risk":1,"updated_at":"2026-07-11T03:36:18.661462+05:30"},{"city":"Kozhikode","state":"Kerala","latitude":11.2588,"longitude":75.7804,"temp":24.3,"humidity":98,"rain":0.0,"pressure":1009.2,"uv_index":7.95,"wind_gusts":40.3,"aqi":38,"pm10":21.2,"pm2_5":9.2,"no2":1.7,"co":190.0,"o3":47.0,"so2":1.2,"mosquito_risk":3,"arthritis_risk":0,"migraine_risk":4,"frizz_risk":1,"updated_at":"2026-07-11T03:36:18.661469+05:30"},{"city":"Thrissur","state":"Kerala","latitude":10.5276,"longitude":76.2144,"temp":24.6,"humidity":98,"rain":0.1,"pressure":1008.6,"uv_index":7.8,"wind_gusts":38.2,"aqi":52,"pm10":19.4,"pm2_5":12.7,"no2":9.7,"co":212.0,"o3":26.0,"so2":3.4,"mosquito_risk":6,"arthritis_risk":0,"migraine_risk":4,"frizz_risk":1,"updated_at":"2026-07-11T03:36:18.661476+05:30"},{"city":"Kannur","state":"Kerala","latitude":11.8745,"longitude":75.3704,"temp":24.9,"humidity":97,"rain":0.1,"pressure":1008.5,"uv_index":7.85,"wind_gusts":43.9,"aqi":49,"pm10":23.6,"pm2_5":10.7,"no2":4.8,"co":246.0,"o3":31.0,"so2":1.8,"mosquito_risk":6,"arthritis_risk":0,"migraine_risk":4,"frizz_risk":1,"updated_at":"2026-07-11T03:36:18.661483+05:30"},{"city":"Patna","state":"Bihar","latitude":25.5941,"longitude":85.1376,"temp":27.1,"humidity":91,"rain":0.0,"pressure":992.5,"uv_index":5.35,"wind_gusts":35.3,"aqi":80,"pm10":60.8,"pm2_5":47.6,"no2":22.2,"co":264.0,"o3":45.0,"so2":10.1,"mosquito_risk":7,"arthritis_risk":5,"migraine_risk":3,"frizz_risk":1,"updated_at":"2026-07-11T03:36:18.661489+05:30"},{"city":"Gaya","state":"Bihar","latitude":24.7914,"longitude":85.0002,"temp":26.6,"humidity":95,"rain":0.1,"pressure":986.5,"uv_index":6.35,"wind_gusts":38.9,"aqi":81,"pm10":72.4,"pm2_5":48.1,"no2":18.5,"co":272.0,"o3":44.0,"so2":20.4,"mosquito_risk":10,"arthritis_risk":5,"migraine_risk":7,"frizz_risk":1,"updated_at":"2026-07-11T03:36:18.661496+05:30"},{"city":"Muzaffarpur","state":"Bihar","latitude":26.1209,"longitude":85.3647,"temp":26.0,"humidity":98,"rain":0.1,"pressure":992.3,"uv_index":2.55,"wind_gusts":26.6,"aqi":91,"pm10":60.1,"pm2_5":53.7,"no2":23.1,"co":360.0,"o3":48.0,"so2":8.9,"mosquito_risk":10,"arthritis_risk":5,"migraine_risk":3,"frizz_risk":1,"updated_at":"2026-07-11T03:36:18.661503+05:30"},{"city":"Bhagalpur","state":"Bihar","latitude":25.2425,"longitude":87.0117,"temp":27.2,"humidity":95,"rain":0.2,"pressure":993.0,"uv_index":7.15,"wind_gusts":31.3,"aqi":84,"pm10":31.1,"pm2_5":27.1,"no2":10.9,"co":291.0,"o3":72.0,"so2":6.1,"mosquito_risk":10,"arthritis_risk":5,"migraine_risk":7,"frizz_risk":1,"updated_at":"2026-07-11T03:36:18.661509+05:30"},{"city":"Ranchi","state":"Jharkhand","latitude":23.3441,"longitude":85.3096,"temp":23.8,"humidity":96,"rain":0.0,"pressure":931.5,"uv_index":4.75,"wind_gusts":38.5,"aqi":81,"pm10":57.7,"pm2_5":34.1,"no2":7.1,"co":201.0,"o3":75.0,"so2":8.9,"mosquito_risk":3,"arthritis_risk":5,"migraine_risk":3,"frizz_risk":1,"updated_at":"2026-07-11T03:36:18.661516+05:30"},{"city":"Jamshedpur","state":"Jharkhand","latitude":22.8046,"longitude":86.2029,"temp":25.6,"humidity":96,"rain":0.1,"pressure":984.5,"uv_index":2.1,"wind_gusts":35.6,"aqi":86,"pm10":60.8,"pm2_5":39.7,"no2":14.0,"co":237.0,"o3":72.0,"so2":26.0,"mosquito_risk":10,"arthritis_risk":5,"migraine_risk":3,"frizz_risk":1,"updated_at":"2026-07-11T03:36:18.661523+05:30"},{"city":"Dhanbad","state":"Jharkhand","latitude":23.7957,"longitude":86.4304,"temp":26.0,"humidity":89,"rain":0.0,"pressure":972.7,"uv_index":2.75,"wind_gusts":37.8,"aqi":113,"pm10":66.4,"pm2_5":53.1,"no2":34.1,"co":202.0,"o3":45.0,"so2":84.6,"mosquito_risk":7,"arthritis_risk":5,"migraine_risk":3,"frizz_risk":1,"updated_at":"2026-07-11T03:36:18.661529+05:30"},{"city":"Bokaro","state":"Jharkhand","latitude":23.6693,"longitude":86.1511,"temp":25.9,"humidity":92,"rain":0.1,"pressure":976.7,"uv_index":2.45,"wind_gusts":40.7,"aqi":107,"pm10":67.3,"pm2_5":49.6,"no2":24.7,"co":223.0,"o3":57.0,"so2":64.1,"mosquito_risk":10,"arthritis_risk":5,"migraine_risk":3,"frizz_risk":1,"updated_at":"2026-07-11T03:36:18.661536+05:30"},{"city":"Bhubaneswar","state":"Odisha","latitude":20.2961,"longitude":85.8245,"temp":27.8,"humidity":85,"rain":0.0,"pressure":996.9,"uv_index":8.3,"wind_gusts":35.3,"aqi":76,"pm10":26.5,"pm2_5":22.1,"no2":8.4,"co":265.0,"o3":71.0,"so2":5.9,"mosquito_risk":7,"arthritis_risk":5,"migraine_risk":7,"frizz_risk":1,"updated_at":"2026-07-11T03:36:18.661542+05:30"},{"city":"Cuttack","state":"Odisha","latitude":20.4625,"longitude":85.8828,"temp":27.7,"humidity":89,"rain":0.0,"pressure":998.6,"uv_index":8.05,"wind_gusts":36.7,"aqi":76,"pm10":26.5,"pm2_5":22.1,"no2":8.4,"co":259.0,"o3":71.0,"so2":5.9,"mosquito_risk":7,"arthritis_risk":5,"migraine_risk":7,"frizz_risk":1,"updated_at":"2026-07-11T03:36:18.661549+05:30"},{"city":"Rourkela","state":"Odisha","latitude":22.2604,"longitude":84.8536,"temp":25.7,"humidity":97,"rain":0.2,"pressure":979.4,"uv_index":2.05,"wind_gusts":38.9,"aqi":115,"pm10":113.4,"pm2_5":54.8,"no2":15.6,"co":297.0,"o3":54.0,"so2":14.5,"mosquito_risk":10,"arthritis_risk":5,"migraine_risk":3,"frizz_risk":1,"updated_at":"2026-07-11T03:36:18.661555+05:30"},{"city":"Raipur","state":"Chhattisgarh","latitude":21.2514,"longitude":81.6296,"temp":27.1,"humidity":76,"rain":0.0,"pressure":969.6,"uv_index":7.55,"wind_gusts":39.6,"aqi":117,"pm10":67.8,"pm2_5":42.5,"no2":29.2,"co":477.0,"o3":43.0,"so2":48.8,"mosquito_risk":7,"arthritis_risk":5,"migraine_risk":7,"frizz_risk":1,"updated_at":"2026-07-11T03:36:18.661562+05:30"},{"city":"Bhilai","state":"Chhattisgarh","latitude":21.1938,"longitude":81.3509,"temp":26.9,"humidity":77,"rain":0.0,"pressure":970.0,"uv_index":7.65,"wind_gusts":43.6,"aqi":111,"pm10":63.6,"pm2_5":39.3,"no2":23.8,"co":588.0,"o3":46.0,"so2":39.1,"mosquito_risk":7,"arthritis_risk":5,"migraine_risk":7,"frizz_risk":1,"updated_at":"2026-07-11T03:36:18.661568+05:30"},{"city":"Guwahati","state":"Assam","latitude":26.1158,"longitude":91.7086,"temp":25.9,"humidity":99,"rain":0.1,"pressure":993.1,"uv_index":7.65,"wind_gusts":16.6,"aqi":46,"pm10":8.4,"pm2_5":8.3,"no2":6.5,"co":242.0,"o3":62.0,"so2":1.4,"mosquito_risk":10,"arthritis_risk":5,"migraine_risk":7,"frizz_risk":1,"updated_at":"2026-07-11T03:36:18.661574+05:30"},{"city":"Agartala","state":"Tripura","latitude":23.8315,"longitude":91.2868,"temp":25.1,"humidity":99,"rain":0.1,"pressure":999.1,"uv_index":8.05,"wind_gusts":37.8,"aqi":53,"pm10":25.6,"pm2_5":23.9,"no2":9.9,"co":207.0,"o3":62.0,"so2":4.0,"mosquito_risk":10,"arthritis_risk":5,"migraine_risk":7,"frizz_risk":1,"updated_at":"2026-07-11T03:36:18.661581+05:30"},{"city":"Shillong","state":"Meghalaya","latitude":25.5788,"longitude":91.8933,"temp":20.4,"humidity":98,"rain":0.0,"pressure":851.1,"uv_index":3.25,"wind_gusts":29.2,"aqi":28,"pm10":0.8,"pm2_5":0.8,"no2":4.5,"co":174.0,"o3":51.0,"so2":2.3,"mosquito_risk":3,"arthritis_risk":5,"migraine_risk":3,"frizz_risk":1,"updated_at":"2026-07-11T03:36:18.661588+05:30"},{"city":"Imphal","state":"Manipur","latitude":24.817,"longitude":93.9368,"temp":23.4,"humidity":97,"rain":0.1,"pressure":917.2,"uv_index":5.7,"wind_gusts":29.5,"aqi":36,"pm10":9.3,"pm2_5":8.7,"no2":7.6,"co":451.0,"o3":40.0,"so2":2.4,"mosquito_risk":6,"arthritis_risk":5,"migraine_risk":3,"frizz_risk":1,"updated_at":"2026-07-11T03:36:18.661594+05:30"},{"city":"Aizawl","state":"Mizoram","latitude":23.7271,"longitude":92.7176,"temp":19.3,"humidity":98,"rain":0.0,"pressure":886.4,"uv_index":8.6,"wind_gusts":42.5,"aqi":25,"pm10":0.6,"pm2_5":0.6,"no2":2.0,"co":132.0,"o3":54.0,"so2":0.9,"mosquito_risk":3,"arthritis_risk":10,"migraine_risk":7,"frizz_risk":1,"updated_at":"2026-07-11T03:36:18.661601+05:30"},{"city":"Kohima","state":"Nagaland","latitude":25.6701,"longitude":94.1077,"temp":21.4,"humidity":91,"rain":0.1,"pressure":850.2,"uv_index":7.25,"wind_gusts":23.0,"aqi":22,"pm10":2.7,"pm2_5":2.5,"no2":4.0,"co":224.0,"o3":46.0,"so2":0.9,"mosquito_risk":6,"arthritis_risk":5,"migraine_risk":7,"frizz_risk":1,"updated_at":"2026-07-11T03:36:18.661608+05:30"},{"city":"Gangtok","state":"Sikkim","latitude":27.3314,"longitude":88.6138,"temp":19.0,"humidity":96,"rain":0.1,"pressure":831.9,"uv_index":7.65,"wind_gusts":29.2,"aqi":46,"pm10":7.9,"pm2_5":7.7,"no2":4.1,"co":320.0,"o3":99.0,"so2":2.6,"mosquito_risk":6,"arthritis_risk":10,"migraine_risk":7,"frizz_risk":1,"updated_at":"2026-07-11T03:36:18.661615+05:30"},{"city":"Siliguri","state":"West Bengal","latitude":26.7271,"longitude":88.3953,"temp":25.3,"humidity":99,"rain":0.2,"pressure":984.9,"uv_index":8.1,"wind_gusts":19.8,"aqi":85,"pm10":45.5,"pm2_5":44.2,"no2":9.1,"co":730.0,"o3":87.0,"so2":5.9,"mosquito_risk":10,"arthritis_risk":5,"migraine_risk":7,"frizz_risk":1,"updated_at":"2026-07-11T03:36:22.029261+05:30"},{"city":"Durgapur","state":"West Bengal","latitude":23.5204,"longitude":87.3119,"temp":26.6,"humidity":93,"rain":0.0,"pressure":987.6,"uv_index":2.5,"wind_gusts":36.4,"aqi":110,"pm10":57.0,"pm2_5":48.8,"no2":35.6,"co":339.0,"o3":45.0,"so2":56.8,"mosquito_risk":7,"arthritis_risk":5,"migraine_risk":3,"frizz_risk":1,"updated_at":"2026-07-11T03:36:22.029292+05:30"},{"city":"Asansol","state":"West Bengal","latitude":23.6739,"longitude":86.9524,"temp":26.6,"humidity":90,"rain":0.0,"pressure":986.1,"uv_index":3.7,"wind_gusts":35.3,"aqi":98,"pm10":54.2,"pm2_5":44.1,"no2":31.0,"co":1280.0,"o3":49.0,"so2":51.1,"mosquito_risk":7,"arthritis_risk":5,"migraine_risk":3,"frizz_risk":1,"updated_at":"2026-07-11T03:36:22.029302+05:30"},{"city":"Pondicherry","state":"Puducherry","latitude":11.9139,"longitude":79.8145,"temp":27.3,"humidity":82,"rain":0.0,"pressure":1006.9,"uv_index":8.05,"wind_gusts":40.7,"aqi":64,"pm10":17.9,"pm2_5":14.2,"no2":17.7,"co":305.0,"o3":41.0,"so2":12.7,"mosquito_risk":7,"arthritis_risk":5,"migraine_risk":4,"frizz_risk":1,"updated_at":"2026-07-11T03:36:22.029310+05:30"},{"city":"Port Blair","state":"Andaman and Nicobar Islands","latitude":11.6234,"longitude":92.7265,"temp":27.5,"humidity":80,"rain":0.0,"pressure":1006.7,"uv_index":8.8,"wind_gusts":55.8,"aqi":40,"pm10":12.3,"pm2_5":6.8,"no2":0.1,"co":84.0,"o3":44.0,"so2":0.3,"mosquito_risk":7,"arthritis_risk":5,"migraine_risk":4,"frizz_risk":1,"updated_at":"2026-07-11T03:36:22.029318+05:30"},{"city":"Haridwar","state":"Uttarakhand","latitude":29.9457,"longitude":78.1642,"temp":24.9,"humidity":98,"rain":0.5,"pressure":965.7,"uv_index":7.5,"wind_gusts":28.8,"aqi":59,"pm10":23.7,"pm2_5":23.0,"no2":21.7,"co":351.0,"o3":36.0,"so2":2.9,"mosquito_risk":6,"arthritis_risk":5,"migraine_risk":7,"frizz_risk":1,"updated_at":"2026-07-11T03:36:22.029326+05:30"},{"city":"Rishikesh","state":"Uttarakhand","latitude":30.0869,"longitude":78.2676,"temp":24.7,"humidity":98,"rain":0.2,"pressure":958.4,"uv_index":7.6,"wind_gusts":25.6,"aqi":48,"pm10":5.8,"pm2_5":5.2,"no2":6.9,"co":252.0,"o3":84.0,"so2":1.4,"mosquito_risk":6,"arthritis_risk":5,"migraine_risk":7,"frizz_risk":1,"updated_at":"2026-07-11T03:36:22.029333+05:30"},{"city":"Nainital","state":"Uttarakhand","latitude":29.3919,"longitude":79.4542,"temp":16.7,"humidity":99,"rain":0.0,"pressure":799.0,"uv_index":5.4,"wind_gusts":22.3,"aqi":35,"pm10":13.6,"pm2_5":10.7,"no2":11.5,"co":248.0,"o3":72.0,"so2":1.9,"mosquito_risk":3,"arthritis_risk":10,"migraine_risk":3,"frizz_risk":1,"updated_at":"2026-07-11T03:36:22.029340+05:30"},{"city":"Mussoorie","state":"Uttarakhand","latitude":30.4599,"longitude":78.0664,"temp":16.4,"humidity":100,"rain":0.0,"pressure":797.1,"uv_index":7.3,"wind_gusts":29.9,"aqi":54,"pm10":9.8,"pm2_5":8.9,"no2":12.1,"co":240.0,"o3":74.0,"so2":1.6,"mosquito_risk":3,"arthritis_risk":10,"migraine_risk":7,"frizz_risk":1,"updated_at":"2026-07-11T03:36:22.029347+05:30"},{"city":"Dharamshala","state":"Himachal Pradesh","latitude":32.219,"longitude":76.3234,"temp":20.9,"humidity":84,"rain":0.0,"pressure":862.1,"uv_index":8.45,"wind_gusts":33.8,"aqi":57,"pm10":5.2,"pm2_5":5.0,"no2":11.3,"co":273.0,"o3":52.0,"so2":0.4,"mosquito_risk":3,"arthritis_risk":5,"migraine_risk":7,"frizz_risk":1,"updated_at":"2026-07-11T03:36:22.029354+05:30"},{"city":"Dalhousie","state":"Himachal Pradesh","latitude":32.5387,"longitude":75.971,"temp":16.7,"humidity":94,"rain":0.0,"pressure":798.1,"uv_index":8.7,"wind_gusts":25.6,"aqi":127,"pm10":29.7,"pm2_5":28.3,"no2":32.5,"co":614.0,"o3":50.0,"so2":1.8,"mosquito_risk":3,"arthritis_risk":10,"migraine_risk":7,"frizz_risk":0,"updated_at":"2026-07-11T03:36:22.029361+05:30"},{"city":"Patiala","state":"Punjab","latitude":30.3398,"longitude":76.3869,"temp":26.2,"humidity":90,"rain":0.0,"pressure":969.2,"uv_index":6.9,"wind_gusts":16.2,"aqi":129,"pm10":142.5,"pm2_5":58.9,"no2":25.5,"co":544.0,"o3":44.0,"so2":11.0,"mosquito_risk":7,"arthritis_risk":5,"migraine_risk":7,"frizz_risk":1,"updated_at":"2026-07-11T03:36:22.029369+05:30"},{"city":"Bhatinda","state":"Punjab","latitude":30.211,"longitude":74.9455,"temp":28.8,"humidity":80,"rain":0.0,"pressure":974.2,"uv_index":8.3,"wind_gusts":27.7,"aqi":168,"pm10":190.0,"pm2_5":66.8,"no2":11.1,"co":412.0,"o3":96.0,"so2":4.9,"mosquito_risk":7,"arthritis_risk":5,"migraine_risk":7,"frizz_risk":1,"updated_at":"2026-07-11T03:36:22.029376+05:30"},{"city":"Rohtak","state":"Haryana","latitude":28.8955,"longitude":76.6066,"temp":27.7,"humidity":91,"rain":0.0,"pressure":972.7,"uv_index":7.65,"wind_gusts":25.6,"aqi":369,"pm10":353.0,"pm2_5":108.5,"no2":49.5,"co":624.0,"o3":30.0,"so2":20.6,"mosquito_risk":7,"arthritis_risk":5,"migraine_risk":7,"frizz_risk":1,"updated_at":"2026-07-11T03:36:22.029383+05:30"},{"city":"Panipat","state":"Haryana","latitude":29.3909,"longitude":76.9635,"temp":25.5,"humidity":95,"rain":0.0,"pressure":971.6,"uv_index":7.4,"wind_gusts":22.0,"aqi":484,"pm10":200.7,"pm2_5":75.2,"no2":34.5,"co":538.0,"o3":30.0,"so2":8.5,"mosquito_risk":7,"arthritis_risk":5,"migraine_risk":7,"frizz_risk":1,"updated_at":"2026-07-11T03:36:22.029391+05:30"},{"city":"Mathura","state":"Uttar Pradesh","latitude":27.4924,"longitude":77.6737,"temp":28.5,"humidity":78,"rain":0.0,"pressure":978.0,"uv_index":7.95,"wind_gusts":33.1,"aqi":240,"pm10":208.2,"pm2_5":97.3,"no2":60.5,"co":300.0,"o3":3.0,"so2":9.5,"mosquito_risk":7,"arthritis_risk":5,"migraine_risk":7,"frizz_risk":1,"updated_at":"2026-07-11T03:36:22.029398+05:30"},{"city":"Vrindavan","state":"Uttar Pradesh","latitude":27.5823,"longitude":77.7027,"temp":28.8,"humidity":76,"rain":0.0,"pressure":978.4,"uv_index":7.9,"wind_gusts":32.4,"aqi":240,"pm10":208.2,"pm2_5":97.3,"no2":60.5,"co":369.0,"o3":3.0,"so2":9.5,"mosquito_risk":7,"arthritis_risk":5,"migraine_risk":7,"frizz_risk":1,"updated_at":"2026-07-11T03:36:22.029404+05:30"},{"city":"Ayodhya","state":"Uttar Pradesh","latitude":26.7922,"longitude":82.1998,"temp":26.0,"humidity":98,"rain":0.0,"pressure":986.9,"uv_index":8.05,"wind_gusts":34.6,"aqi":102,"pm10":75.9,"pm2_5":48.7,"no2":20.0,"co":256.0,"o3":45.0,"so2":5.4,"mosquito_risk":7,"arthritis_risk":5,"migraine_risk":7,"frizz_risk":1,"updated_at":"2026-07-11T03:36:22.029411+05:30"},{"city":"Ratlam","state":"Madhya Pradesh","latitude":23.3315,"longitude":75.0367,"temp":24.6,"humidity":93,"rain":0.0,"pressure":949.6,"uv_index":8.5,"wind_gusts":52.9,"aqi":73,"pm10":23.2,"pm2_5":13.2,"no2":8.2,"co":136.0,"o3":35.0,"so2":9.3,"mosquito_risk":3,"arthritis_risk":5,"migraine_risk":7,"frizz_risk":1,"updated_at":"2026-07-11T03:36:22.029417+05:30"},{"city":"Sagar","state":"Madhya Pradesh","latitude":23.8388,"longitude":78.7378,"temp":26.5,"humidity":72,"rain":0.0,"pressure":944.5,"uv_index":8.65,"wind_gusts":46.4,"aqi":91,"pm10":60.5,"pm2_5":35.6,"no2":5.5,"co":177.0,"o3":72.0,"so2":5.5,"mosquito_risk":7,"arthritis_risk":5,"migraine_risk":7,"frizz_risk":1,"updated_at":"2026-07-11T03:36:22.029424+05:30"},{"city":"Satna","state":"Madhya Pradesh","latitude":24.6005,"longitude":80.8322,"temp":27.8,"humidity":72,"rain":0.0,"pressure":964.3,"uv_index":8.2,"wind_gusts":42.5,"aqi":101,"pm10":58.4,"pm2_5":32.6,"no2":5.2,"co":173.0,"o3":69.0,"so2":4.3,"mosquito_risk":7,"arthritis_risk":5,"migraine_risk":7,"frizz_risk":1,"updated_at":"2026-07-11T03:36:22.029431+05:30"},{"city":"Akola","state":"Maharashtra","latitude":20.7002,"longitude":77.0082,"temp":26.5,"humidity":74,"rain":0.0,"pressure":971.7,"uv_index":8.75,"wind_gusts":52.6,"aqi":67,"pm10":26.7,"pm2_5":12.5,"no2":7.0,"co":113.0,"o3":36.0,"so2":7.2,"mosquito_risk":7,"arthritis_risk":5,"migraine_risk":7,"frizz_risk":1,"updated_at":"2026-07-11T03:36:22.029438+05:30"},{"city":"Amravati","state":"Maharashtra","latitude":20.9374,"longitude":77.7796,"temp":26.2,"humidity":76,"rain":0.0,"pressure":963.6,"uv_index":8.5,"wind_gusts":60.1,"aqi":70,"pm10":28.8,"pm2_5":14.3,"no2":7.9,"co":131.0,"o3":36.0,"so2":8.3,"mosquito_risk":7,"arthritis_risk":5,"migraine_risk":7,"frizz_risk":1,"updated_at":"2026-07-11T03:36:22.029445+05:30"},{"city":"Latur","state":"Maharashtra","latitude":18.4088,"longitude":76.5604,"temp":23.9,"humidity":83,"rain":0.0,"pressure":937.3,"uv_index":8.2,"wind_gusts":48.2,"aqi":52,"pm10":14.6,"pm2_5":7.7,"no2":6.3,"co":108.0,"o3":34.0,"so2":3.5,"mosquito_risk":3,"arthritis_risk":5,"migraine_risk":7,"frizz_risk":1,"updated_at":"2026-07-11T03:36:22.029453+05:30"},{"city":"Nanded","state":"Maharashtra","latitude":19.1383,"longitude":77.3091,"temp":26.3,"humidity":75,"rain":0.0,"pressure":965.9,"uv_index":8.65,"wind_gusts":44.3,"aqi":63,"pm10":20.8,"pm2_5":12.5,"no2":6.6,"co":122.0,"o3":47.0,"so2":5.3,"mosquito_risk":7,"arthritis_risk":5,"migraine_risk":7,"frizz_risk":1,"updated_at":"2026-07-11T03:36:22.029460+05:30"},{"city":"Gulbarga","state":"Karnataka","latitude":17.3297,"longitude":76.8343,"temp":24.7,"humidity":79,"rain":0.0,"pressure":956.9,"uv_index":8.0,"wind_gusts":52.2,"aqi":55,"pm10":18.7,"pm2_5":9.5,"no2":6.0,"co":112.0,"o3":33.0,"so2":2.9,"mosquito_risk":3,"arthritis_risk":5,"migraine_risk":7,"frizz_risk":1,"updated_at":"2026-07-11T03:36:22.029466+05:30"},{"city":"Bidar","state":"Karnataka","latitude":17.9104,"longitude":77.5199,"temp":24.6,"humidity":80,"rain":0.0,"pressure":933.2,"uv_index":7.5,"wind_gusts":46.1,"aqi":62,"pm10":18.0,"pm2_5":10.9,"no2":6.5,"co":122.0,"o3":39.0,"so2":2.8,"mosquito_risk":3,"arthritis_risk":5,"migraine_risk":7,"frizz_risk":1,"updated_at":"2026-07-11T03:36:22.029473+05:30"},{"city":"Hospet","state":"Karnataka","latitude":15.2689,"longitude":76.3909,"temp":23.5,"humidity":89,"rain":0.0,"pressure":955.3,"uv_index":8.35,"wind_gusts":50.4,"aqi":40,"pm10":14.3,"pm2_5":6.9,"no2":4.6,"co":113.0,"o3":33.0,"so2":1.9,"mosquito_risk":3,"arthritis_risk":5,"migraine_risk":7,"frizz_risk":1,"updated_at":"2026-07-11T03:36:22.029479+05:30"},{"city":"Tirupur","state":"Tamil Nadu","latitude":11.1085,"longitude":77.3411,"temp":23.7,"humidity":93,"rain":0.0,"pressure":975.0,"uv_index":8.3,"wind_gusts":48.2,"aqi":50,"pm10":21.5,"pm2_5":15.7,"no2":18.8,"co":135.0,"o3":17.0,"so2":4.8,"mosquito_risk":3,"arthritis_risk":5,"migraine_risk":7,"frizz_risk":1,"updated_at":"2026-07-11T03:36:22.029486+05:30"},{"city":"Alappuzha","state":"Kerala","latitude":9.4981,"longitude":76.3388,"temp":25.8,"humidity":95,"rain":0.1,"pressure":1010.4,"uv_index":8.2,"wind_gusts":42.8,"aqi":46,"pm10":19.5,"pm2_5":12.0,"no2":8.8,"co":82.0,"o3":35.0,"so2":3.2,"mosquito_risk":10,"arthritis_risk":0,"migraine_risk":4,"frizz_risk":1,"updated_at":"2026-07-11T03:36:22.029492+05:30"},{"city":"Munnar","state":"Kerala","latitude":10.0889,"longitude":77.0595,"temp":17.3,"humidity":100,"rain":0.0,"pressure":856.9,"uv_index":8.3,"wind_gusts":40.3,"aqi":19,"pm10":11.3,"pm2_5":5.5,"no2":4.9,"co":85.0,"o3":23.0,"so2":0.9,"mosquito_risk":3,"arthritis_risk":10,"migraine_risk":7,"frizz_risk":1,"updated_at":"2026-07-11T03:36:22.029499+05:30"},{"city":"Silchar","state":"Assam","latitude":24.8333,"longitude":92.7789,"temp":26.4,"humidity":97,"rain":0.0,"pressure":997.8,"uv_index":6.85,"wind_gusts":29.2,"aqi":35,"pm10":8.6,"pm2_5":7.9,"no2":6.4,"co":299.0,"o3":50.0,"so2":2.9,"mosquito_risk":7,"arthritis_risk":5,"migraine_risk":7,"frizz_risk":1,"updated_at":"2026-07-11T03:36:22.029506+05:30"},{"city":"Dibrugarh","state":"Assam","latitude":27.4728,"longitude":94.912,"temp":25.2,"humidity":98,"rain":0.1,"pressure":988.0,"uv_index":7.25,"wind_gusts":27.4,"aqi":58,"pm10":12.5,"pm2_5":11.1,"no2":7.9,"co":174.0,"o3":61.0,"so2":1.3,"mosquito_risk":10,"arthritis_risk":5,"migraine_risk":7,"frizz_risk":1,"updated_at":"2026-07-11T03:36:22.029512+05:30"}]