[{"city":"Delhi","state":"Delhi","latitude":28.6139,"longitude":77.209,"temp":30.7,"humidity":32,"rain":0.0,"pressure":980.9,"uv_index":7.35,"wind_gusts":41.0,"aqi":155,"pm10":416.3,"pm2_5":85.7,"mosquito_risk":0,"arthritis_risk":5,"migraine_risk":7,"frizz_risk":0,"updated_at":"2026-04-25T01:25:20.600950+05:30"},{"city":"Mumbai","state":"Maharashtra","latitude":19.076,"longitude":72.8777,"temp":28.5,"humidity":58,"rain":0.0,"pressure":1006.5,"uv_index":8.0,"wind_gusts":43.9,"aqi":78,"pm10":26.1,"pm2_5":13.2,"mosquito_risk":4,"arthritis_risk":5,"migraine_risk":4,"frizz_risk":1,"updated_at":"2026-04-25T01:25:20.600997+05:30"},{"city":"Bangalore","state":"Karnataka","latitude":12.9716,"longitude":77.5946,"temp":25.9,"humidity":43,"rain":0.0,"pressure":910.8,"uv_index":8.6,"wind_gusts":41.8,"aqi":82,"pm10":21.9,"pm2_5":21.0,"mosquito_risk":4,"arthritis_risk":5,"migraine_risk":7,"frizz_risk":0,"updated_at":"2026-04-25T01:25:20.601014+05:30"},{"city":"Hyderabad","state":"Telangana","latitude":17.385,"longitude":78.4867,"temp":29.9,"humidity":37,"rain":0.0,"pressure":952.2,"uv_index":9.3,"wind_gusts":37.4,"aqi":114,"pm10":40.9,"pm2_5":36.0,"mosquito_risk":4,"arthritis_risk":5,"migraine_risk":7,"frizz_risk":0,"updated_at":"2026-04-25T01:25:20.601025+05:30"},{"city":"Chennai","state":"Tamil Nadu","latitude":13.0827,"longitude":80.2707,"temp":28.8,"humidity":83,"rain":0.0,"pressure":1005.6,"uv_index":8.85,"wind_gusts":50.8,"aqi":28,"pm10":9.3,"pm2_5":6.5,"mosquito_risk":7,"arthritis_risk":5,"migraine_risk":4,"frizz_risk":1,"updated_at":"2026-04-25T01:25:20.601034+05:30"},{"city":"Kolkata","state":"West Bengal","latitude":22.5726,"longitude":88.3639,"temp":27.6,"humidity":92,"rain":0.0,"pressure":1004.9,"uv_index":8.6,"wind_gusts":41.0,"aqi":75,"pm10":23.5,"pm2_5":19.5,"mosquito_risk":7,"arthritis_risk":5,"migraine_risk":4,"frizz_risk":1,"updated_at":"2026-04-25T01:25:20.601049+05:30"},{"city":"Pune","state":"Maharashtra","latitude":18.5204,"longitude":73.8567,"temp":28.5,"humidity":41,"rain":0.0,"pressure":946.9,"uv_index":8.5,"wind_gusts":38.2,"aqi":109,"pm10":47.1,"pm2_5":44.1,"mosquito_risk":4,"arthritis_risk":5,"migraine_risk":7,"frizz_risk":0,"updated_at":"2026-04-25T01:25:20.601057+05:30"},{"city":"Ahmedabad","state":"Gujarat","latitude":23.0225,"longitude":72.5714,"temp":32.4,"humidity":21,"rain":0.0,"pressure":1001.0,"uv_index":8.2,"wind_gusts":24.1,"aqi":59,"pm10":37.3,"pm2_5":21.7,"mosquito_risk":0,"arthritis_risk":5,"migraine_risk":4,"frizz_risk":0,"updated_at":"2026-04-25T01:25:20.601065+05:30"},{"city":"Jaipur","state":"Rajasthan","latitude":26.9124,"longitude":75.7873,"temp":30.0,"humidity":25,"rain":0.0,"pressure":958.4,"uv_index":8.05,"wind_gusts":33.5,"aqi":110,"pm10":139.2,"pm2_5":36.6,"mosquito_risk":4,"arthritis_risk":5,"migraine_risk":7,"frizz_risk":0,"updated_at":"2026-04-25T01:25:20.601074+05:30"},{"city":"Lucknow","state":"Uttar Pradesh","latitude":26.8467,"longitude":80.9462,"temp":31.9,"humidity":20,"rain":0.0,"pressure":990.7,"uv_index":7.9,"wind_gusts":40.7,"aqi":127,"pm10":224.4,"pm2_5":53.6,"mosquito_risk":0,"arthritis_risk":5,"migraine_risk":7,"frizz_risk":0,"updated_at":"2026-04-25T01:25:20.601083+05:30"},{"city":"Kanpur","state":"Uttar Pradesh","latitude":26.4499,"longitude":80.3319,"temp":31.0,"humidity":23,"rain":0.0,"pressure":989.1,"uv_index":7.9,"wind_gusts":44.3,"aqi":128,"pm10":204.4,"pm2_5":50.4,"mosquito_risk":0,"arthritis_risk":5,"migraine_risk":7,"frizz_risk":0,"updated_at":"2026-04-25T01:25:20.601089+05:30"},{"city":"Chandigarh","state":"Chandigarh","latitude":30.7333,"longitude":76.7794,"temp":27.6,"humidity":33,"rain":0.0,"pressure":966.7,"uv_index":7.15,"wind_gusts":59.4,"aqi":69,"pm10":27.5,"pm2_5":21.3,"mosquito_risk":4,"arthritis_risk":5,"migraine_risk":7,"frizz_risk":0,"updated_at":"2026-04-25T01:25:20.601096+05:30"},{"city":"Srinagar","state":"Jammu and Kashmir","latitude":34.0837,"longitude":74.7973,"temp":11.7,"humidity":97,"rain":0.0,"pressure":845.2,"uv_index":8.6,"wind_gusts":34.6,"aqi":75,"pm10":51.5,"pm2_5":24.2,"mosquito_risk":3,"arthritis_risk":10,"migraine_risk":7,"frizz_risk":0,"updated_at":"2026-04-25T01:25:20.601104+05:30"},{"city":"Jammu","state":"Jammu and Kashmir","latitude":32.7266,"longitude":74.857,"temp":26.1,"humidity":32,"rain":0.0,"pressure":971.9,"uv_index":8.2,"wind_gusts":40.7,"aqi":75,"pm10":33.9,"pm2_5":24.4,"mosquito_risk":4,"arthritis_risk":5,"migraine_risk":7,"frizz_risk":0,"updated_at":"2026-04-25T01:25:20.601111+05:30"},{"city":"Amritsar","state":"Punjab","latitude":31.634,"longitude":74.8723,"temp":29.0,"humidity":31,"rain":0.0,"pressure":979.8,"uv_index":8.1,"wind_gusts":42.8,"aqi":97,"pm10":84.8,"pm2_5":39.1,"mosquito_risk":4,"arthritis_risk":5,"migraine_risk":7,"frizz_risk":0,"updated_at":"2026-04-25T01:25:20.601117+05:30"},{"city":"Ludhiana","state":"Punjab","latitude":30.901,"longitude":75.8573,"temp":27.5,"humidity":34,"rain":0.0,"pressure":977.5,"uv_index":7.65,"wind_gusts":46.8,"aqi":82,"pm10":46.2,"pm2_5":23.6,"mosquito_risk":4,"arthritis_risk":5,"migraine_risk":7,"frizz_risk":0,"updated_at":"2026-04-25T01:25:20.601126+05:30"},{"city":"Jalandhar","state":"Punjab","latitude":31.326,"longitude":75.5762,"temp":27.4,"humidity":36,"rain":0.0,"pressure":978.5,"uv_index":7.8,"wind_gusts":38.5,"aqi":87,"pm10":75.4,"pm2_5":30.4,"mosquito_risk":4,"arthritis_risk":5,"migraine_risk":7,"frizz_risk":0,"updated_at":"2026-04-25T01:25:20.601133+05:30"},{"city":"Dehradun","state":"Uttarakhand","latitude":30.6284,"longitude":78.0322,"temp":14.3,"humidity":61,"rain":0.0,"pressure":828.7,"uv_index":7.85,"wind_gusts":47.9,"aqi":54,"pm10":25.1,"pm2_5":17.3,"mosquito_risk":3,"arthritis_risk":5,"migraine_risk":7,"frizz_risk":0,"updated_at":"2026-04-25T01:25:20.601141+05:30"},{"city":"Shimla","state":"Himachal Pradesh","latitude":31.1048,"longitude":77.1734,"temp":14.2,"humidity":47,"rain":0.0,"pressure":784.4,"uv_index":7.65,"wind_gusts":51.1,"aqi":66,"pm10":44.9,"pm2_5":21.6,"mosquito_risk":0,"arthritis_risk":5,"migraine_risk":7,"frizz_risk":0,"updated_at":"2026-04-25T01:25:20.601148+05:30"},{"city":"Manali","state":"Himachal Pradesh","latitude":32.2396,"longitude":77.1887,"temp":8.9,"humidity":72,"rain":0.0,"pressure":816.6,"uv_index":8.5,"wind_gusts":42.8,"aqi":74,"pm10":35.4,"pm2_5":21.7,"mosquito_risk":3,"arthritis_risk":5,"migraine_risk":7,"frizz_risk":0,"updated_at":"2026-04-25T01:25:20.601156+05:30"},{"city":"Gurgaon","state":"Haryana","latitude":28.4595,"longitude":77.0266,"temp":27.7,"humidity":33,"rain":0.0,"pressure":979.4,"uv_index":7.45,"wind_gusts":46.4,"aqi":608,"pm10":356.7,"pm2_5":79.4,"mosquito_risk":4,"arthritis_risk":5,"migraine_risk":7,"frizz_risk":0,"updated_at":"2026-04-25T01:25:20.601162+05:30"},{"city":"Noida","state":"Uttar Pradesh","latitude":28.5355,"longitude":77.391,"temp":29.5,"humidity":30,"rain":0.0,"pressure":982.0,"uv_index":7.35,"wind_gusts":31.7,"aqi":608,"pm10":356.7,"pm2_5":79.4,"mosquito_risk":4,"arthritis_risk":5,"migraine_risk":7,"frizz_risk":0,"updated_at":"2026-04-25T01:25:20.601169+05:30"},{"city":"Ghaziabad","state":"Uttar Pradesh","latitude":28.6692,"longitude":77.4538,"temp":28.0,"humidity":36,"rain":0.0,"pressure":980.2,"uv_index":7.4,"wind_gusts":49.3,"aqi":151,"pm10":351.1,"pm2_5":77.5,"mosquito_risk":4,"arthritis_risk":5,"migraine_risk":7,"frizz_risk":0,"updated_at":"2026-04-25T01:25:20.601174+05:30"},{"city":"Faridabad","state":"Haryana","latitude":28.4089,"longitude":77.3178,"temp":32.3,"humidity":24,"rain":0.0,"pressure":981.5,"uv_index":7.45,"wind_gusts":40.0,"aqi":608,"pm10":356.7,"pm2_5":79.4,"mosquito_risk":0,"arthritis_risk":5,"migraine_risk":7,"frizz_risk":0,"updated_at":"2026-04-25T01:25:20.601180+05:30"},{"city":"Meerut","state":"Uttar Pradesh","latitude":28.9845,"longitude":77.7064,"temp":26.6,"humidity":49,"rain":0.0,"pressure":979.1,"uv_index":7.3,"wind_gusts":41.8,"aqi":151,"pm10":351.1,"pm2_5":77.5,"mosquito_risk":4,"arthritis_risk":5,"migraine_risk":7,"frizz_risk":0,"updated_at":"2026-04-25T01:25:20.601189+05:30"},{"city":"Agra","state":"Uttar Pradesh","latitude":27.1767,"longitude":78.0081,"temp":29.2,"humidity":36,"rain":0.0,"pressure":985.0,"uv_index":7.8,"wind_gusts":42.8,"aqi":396,"pm10":252.4,"pm2_5":102.9,"mosquito_risk":4,"arthritis_risk":5,"migraine_risk":7,"frizz_risk":0,"updated_at":"2026-04-25T01:25:20.601198+05:30"},{"city":"Varanasi","state":"Uttar Pradesh","latitude":25.3176,"longitude":82.9739,"temp":30.2,"humidity":18,"rain":0.0,"pressure":994.9,"uv_index":8.55,"wind_gusts":40.3,"aqi":126,"pm10":67.5,"pm2_5":43.0,"mosquito_risk":0,"arthritis_risk":5,"migraine_risk":7,"frizz_risk":0,"updated_at":"2026-04-25T01:25:20.601205+05:30"},{"city":"Prayagraj","state":"Uttar Pradesh","latitude":25.4358,"longitude":81.8463,"temp":28.1,"humidity":27,"rain":0.0,"pressure":993.4,"uv_index":8.4,"wind_gusts":33.5,"aqi":115,"pm10":58.0,"pm2_5":32.7,"mosquito_risk":4,"arthritis_risk":5,"migraine_risk":7,"frizz_risk":0,"updated_at":"2026-04-25T01:25:20.601212+05:30"},{"city":"Gorakhpur","state":"Uttar Pradesh","latitude":26.7606,"longitude":83.3732,"temp":28.9,"humidity":54,"rain":0.0,"pressure":994.8,"uv_index":8.3,"wind_gusts":46.8,"aqi":150,"pm10":124.8,"pm2_5":71.5,"mosquito_risk":4,"arthritis_risk":5,"migraine_risk":7,"frizz_risk":1,"updated_at":"2026-04-25T01:25:20.601218+05:30"},{"city":"Bareilly","state":"Uttar Pradesh","latitude":28.367,"longitude":79.4304,"temp":27.8,"humidity":42,"rain":0.0,"pressure":984.0,"uv_index":7.35,"wind_gusts":42.5,"aqi":131,"pm10":67.3,"pm2_5":56.5,"mosquito_risk":4,"arthritis_risk":5,"migraine_risk":7,"frizz_risk":0,"updated_at":"2026-04-25T01:25:20.601224+05:30"},{"city":"Aligarh","state":"Uttar Pradesh","latitude":27.8974,"longitude":78.088,"temp":27.7,"humidity":37,"rain":0.0,"pressure":983.0,"uv_index":7.6,"wind_gusts":42.1,"aqi":248,"pm10":420.0,"pm2_5":108.0,"mosquito_risk":4,"arthritis_risk":5,"migraine_risk":7,"frizz_risk":0,"updated_at":"2026-04-25T01:25:20.601233+05:30"},{"city":"Moradabad","state":"Uttar Pradesh","latitude":28.8386,"longitude":78.7733,"temp":27.2,"humidity":46,"rain":0.0,"pressure":980.9,"uv_index":7.3,"wind_gusts":51.8,"aqi":155,"pm10":137.4,"pm2_5":90.8,"mosquito_risk":4,"arthritis_risk":5,"migraine_risk":7,"frizz_risk":0,"updated_at":"2026-04-25T01:25:20.601240+05:30"},{"city":"Saharanpur","state":"Uttar Pradesh","latitude":29.9637,"longitude":77.546,"temp":25.9,"humidity":40,"rain":0.0,"pressure":973.4,"uv_index":7.15,"wind_gusts":60.5,"aqi":109,"pm10":112.0,"pm2_5":65.0,"mosquito_risk":4,"arthritis_risk":5,"migraine_risk":7,"frizz_risk":0,"updated_at":"2026-04-25T01:25:20.601246+05:30"},{"city":"Jhansi","state":"Uttar Pradesh","latitude":25.4484,"longitude":78.5685,"temp":30.6,"humidity":22,"rain":0.0,"pressure":975.9,"uv_index":8.3,"wind_gusts":30.2,"aqi":76,"pm10":32.9,"pm2_5":26.4,"mosquito_risk":0,"arthritis_risk":5,"migraine_risk":7,"frizz_risk":0,"updated_at":"2026-04-25T01:25:23.884713+05:30"},{"city":"Surat","state":"Gujarat","latitude":21.1702,"longitude":72.8311,"temp":29.9,"humidity":51,"rain":0.0,"pressure":1004.8,"uv_index":7.85,"wind_gusts":35.6,"aqi":94,"pm10":31.3,"pm2_5":22.9,"mosquito_risk":4,"arthritis_risk":5,"migraine_risk":4,"frizz_risk":1,"updated_at":"2026-04-25T01:25:23.884747+05:30"},{"city":"Vadodara","state":"Gujarat","latitude":22.3072,"longitude":73.1812,"temp":30.0,"humidity":39,"rain":0.0,"pressure":1002.8,"uv_index":8.15,"wind_gusts":28.1,"aqi":76,"pm10":40.7,"pm2_5":34.1,"mosquito_risk":4,"arthritis_risk":5,"migraine_risk":4,"frizz_risk":0,"updated_at":"2026-04-25T01:25:23.884757+05:30"},{"city":"Rajkot","state":"Gujarat","latitude":22.3039,"longitude":70.8022,"temp":24.8,"humidity":70,"rain":0.0,"pressure":993.9,"uv_index":7.9,"wind_gusts":33.1,"aqi":41,"pm10":24.7,"pm2_5":9.3,"mosquito_risk":3,"arthritis_risk":5,"migraine_risk":7,"frizz_risk":1,"updated_at":"2026-04-25T01:25:23.884765+05:30"},{"city":"Thane","state":"Maharashtra","latitude":19.2183,"longitude":72.9781,"temp":28.6,"humidity":57,"rain":0.0,"pressure":1005.9,"uv_index":8.0,"wind_gusts":42.1,"aqi":78,"pm10":26.1,"pm2_5":13.2,"mosquito_risk":4,"arthritis_risk":5,"migraine_risk":4,"frizz_risk":1,"updated_at":"2026-04-25T01:25:23.884772+05:30"},{"city":"Nagpur","state":"Maharashtra","latitude":21.1458,"longitude":79.0882,"temp":33.8,"humidity":18,"rain":0.0,"pressure":971.2,"uv_index":8.9,"wind_gusts":33.1,"aqi":101,"pm10":56.8,"pm2_5":50.4,"mosquito_risk":0,"arthritis_risk":5,"migraine_risk":7,"frizz_risk":0,"updated_at":"2026-04-25T01:25:23.884779+05:30"},{"city":"Nashik","state":"Maharashtra","latitude":19.9975,"longitude":73.7898,"temp":28.0,"humidity":36,"rain":0.0,"pressure":944.4,"uv_index":8.3,"wind_gusts":32.0,"aqi":102,"pm10":31.2,"pm2_5":22.2,"mosquito_risk":4,"arthritis_risk":5,"migraine_risk":7,"frizz_risk":0,"updated_at":"2026-04-25T01:25:23.884786+05:30"},{"city":"Aurangabad","state":"Maharashtra","latitude":19.8762,"longitude":75.3433,"temp":30.8,"humidity":23,"rain":0.0,"pressure":943.3,"uv_index":9.0,"wind_gusts":30.6,"aqi":89,"pm10":25.5,"pm2_5":20.2,"mosquito_risk":0,"arthritis_risk":5,"migraine_risk":7,"frizz_risk":0,"updated_at":"2026-04-25T01:25:23.884793+05:30"},{"city":"Solapur","state":"Maharashtra","latitude":17.6599,"longitude":75.9064,"temp":30.2,"humidity":32,"rain":0.0,"pressure":955.7,"uv_index":8.95,"wind_gusts":24.8,"aqi":112,"pm10":49.5,"pm2_5":44.1,"mosquito_risk":0,"arthritis_risk":5,"migraine_risk":7,"frizz_risk":0,"updated_at":"2026-04-25T01:25:23.884799+05:30"},{"city":"Kolhapur","state":"Maharashtra","latitude":16.705,"longitude":74.2433,"temp":25.5,"humidity":59,"rain":0.0,"pressure":946.3,"uv_index":9.05,"wind_gusts":31.7,"aqi":151,"pm10":84.5,"pm2_5":76.1,"mosquito_risk":4,"arthritis_risk":5,"migraine_risk":7,"frizz_risk":1,"updated_at":"2026-04-25T01:25:23.884807+05:30"},{"city":"Goa","state":"Goa","latitude":15.2993,"longitude":74.124,"temp":27.9,"humidity":90,"rain":0.0,"pressure":996.0,"uv_index":9.0,"wind_gusts":34.2,"aqi":85,"pm10":43.3,"pm2_5":34.6,"mosquito_risk":7,"arthritis_risk":5,"migraine_risk":7,"frizz_risk":1,"updated_at":"2026-04-25T01:25:23.884813+05:30"},{"city":"Jodhpur","state":"Rajasthan","latitude":26.2389,"longitude":73.0243,"temp":33.0,"humidity":21,"rain":0.0,"pressure":981.5,"uv_index":8.3,"wind_gusts":29.5,"aqi":72,"pm10":124.8,"pm2_5":26.6,"mosquito_risk":0,"arthritis_risk":5,"migraine_risk":7,"frizz_risk":0,"updated_at":"2026-04-25T01:25:23.884821+05:30"},{"city":"Udaipur","state":"Rajasthan","latitude":24.5854,"longitude":73.7125,"temp":26.5,"humidity":30,"rain":0.0,"pressure":945.1,"uv_index":8.8,"wind_gusts":39.6,"aqi":51,"pm10":56.0,"pm2_5":17.0,"mosquito_risk":4,"arthritis_risk":5,"migraine_risk":7,"frizz_risk":0,"updated_at":"2026-04-25T01:25:23.884828+05:30"},{"city":"Kota","state":"Rajasthan","latitude":25.2138,"longitude":75.8648,"temp":31.0,"humidity":26,"rain":0.0,"pressure":976.7,"uv_index":8.3,"wind_gusts":31.3,"aqi":57,"pm10":40.6,"pm2_5":27.7,"mosquito_risk":0,"arthritis_risk":5,"migraine_risk":7,"frizz_risk":0,"updated_at":"2026-04-25T01:25:23.884834+05:30"},{"city":"Bikaner","state":"Rajasthan","latitude":28.0229,"longitude":73.3119,"temp":30.7,"humidity":25,"rain":0.0,"pressure":980.2,"uv_index":8.15,"wind_gusts":29.5,"aqi":59,"pm10":71.7,"pm2_5":25.7,"mosquito_risk":0,"arthritis_risk":5,"migraine_risk":7,"frizz_risk":0,"updated_at":"2026-04-25T01:25:23.884841+05:30"},{"city":"Ajmer","state":"Rajasthan","latitude":26.4499,"longitude":74.6399,"temp":31.0,"humidity":24,"rain":0.0,"pressure":953.9,"uv_index":8.25,"wind_gusts":31.3,"aqi":55,"pm10":77.1,"pm2_5":22.0,"mosquito_risk":0,"arthritis_risk":5,"migraine_risk":7,"frizz_risk":0,"updated_at":"2026-04-25T01:25:23.884864+05:30"},{"city":"Gwalior","state":"Madhya Pradesh","latitude":26.2183,"longitude":78.1828,"temp":30.7,"humidity":25,"rain":0.0,"pressure":981.2,"uv_index":8.05,"wind_gusts":39.2,"aqi":58,"pm10":98.5,"pm2_5":31.9,"mosquito_risk":0,"arthritis_risk":5,"migraine_risk":7,"frizz_risk":0,"updated_at":"2026-04-25T01:25:23.884870+05:30"},{"city":"Indore","state":"Madhya Pradesh","latitude":22.7196,"longitude":75.8577,"temp":29.6,"humidity":19,"rain":0.0,"pressure":947.6,"uv_index":8.6,"wind_gusts":29.2,"aqi":52,"pm10":23.1,"pm2_5":13.8,"mosquito_risk":4,"arthritis_risk":5,"migraine_risk":7,"frizz_risk":0,"updated_at":"2026-04-25T01:25:23.884877+05:30"},{"city":"Bhopal","state":"Madhya Pradesh","latitude":23.2599,"longitude":77.4126,"temp":30.0,"humidity":22,"rain":0.0,"pressure":952.8,"uv_index":8.6,"wind_gusts":31.7,"aqi":52,"pm10":39.6,"pm2_5":26.4,"mosquito_risk":4,"arthritis_risk":5,"migraine_risk":7,"frizz_risk":0,"updated_at":"2026-04-25T01:25:23.884882+05:30"},{"city":"Jabalpur","state":"Madhya Pradesh","latitude":23.1815,"longitude":79.9864,"temp":28.6,"humidity":22,"rain":0.0,"pressure":959.3,"uv_index":8.8,"wind_gusts":40.0,"aqi":66,"pm10":26.2,"pm2_5":17.9,"mosquito_risk":4,"arthritis_risk":5,"migraine_risk":7,"frizz_risk":0,"updated_at":"2026-04-25T01:25:23.884889+05:30"},{"city":"Ujjain","state":"Madhya Pradesh","latitude":23.1765,"longitude":75.7885,"temp":28.8,"humidity":22,"rain":0.0,"pressure":953.3,"uv_index":8.55,"wind_gusts":37.8,"aqi":56,"pm10":26.6,"pm2_5":15.1,"mosquito_risk":4,"arthritis_risk":5,"migraine_risk":7,"frizz_risk":0,"updated_at":"2026-04-25T01:25:23.884896+05:30"},{"city":"Visakhapatnam","state":"Andhra Pradesh","latitude":17.6868,"longitude":83.2185,"temp":27.1,"humidity":93,"rain":0.0,"pressure":1002.0,"uv_index":8.5,"wind_gusts":42.8,"aqi":58,"pm10":15.4,"pm2_5":12.3,"mosquito_risk":7,"arthritis_risk":5,"migraine_risk":4,"frizz_risk":1,"updated_at":"2026-04-25T01:25:23.884903+05:30"},{"city":"Vijayawada","state":"Andhra Pradesh","latitude":16.5062,"longitude":80.648,"temp":27.5,"humidity":90,"rain":0.0,"pressure":1000.9,"uv_index":8.7,"wind_gusts":34.2,"aqi":52,"pm10":12.7,"pm2_5":10.9,"mosquito_risk":7,"arthritis_risk":5,"migraine_risk":4,"frizz_risk":1,"updated_at":"2026-04-25T01:25:23.884909+05:30"},{"city":"Guntur","state":"Andhra Pradesh","latitude":16.3067,"longitude":80.4365,"temp":27.0,"humidity":94,"rain":0.0,"pressure":1002.2,"uv_index":8.5,"wind_gusts":38.5,"aqi":53,"pm10":12.4,"pm2_5":10.6,"mosquito_risk":7,"arthritis_risk":5,"migraine_risk":4,"frizz_risk":1,"updated_at":"2026-04-25T01:25:23.884916+05:30"},{"city":"Nellore","state":"Andhra Pradesh","latitude":14.4426,"longitude":79.9865,"temp":27.4,"humidity":87,"rain":0.0,"pressure":1004.4,"uv_index":9.15,"wind_gusts":43.2,"aqi":40,"pm10":8.3,"pm2_5":6.7,"mosquito_risk":7,"arthritis_risk":5,"migraine_risk":4,"frizz_risk":1,"updated_at":"2026-04-25T01:25:23.884922+05:30"},{"city":"Kurnool","state":"Andhra Pradesh","latitude":15.8281,"longitude":78.0373,"temp":30.5,"humidity":44,"rain":0.0,"pressure":975.6,"uv_index":9.2,"wind_gusts":36.4,"aqi":84,"pm10":21.3,"pm2_5":18.9,"mosquito_risk":0,"arthritis_risk":5,"migraine_risk":7,"frizz_risk":1,"updated_at":"2026-04-25T01:25:23.884929+05:30"},{"city":"Kakinada","state":"Andhra Pradesh","latitude":16.9891,"longitude":82.2475,"temp":27.6,"humidity":89,"rain":0.0,"pressure":1006.0,"uv_index":8.4,"wind_gusts":39.2,"aqi":36,"pm10":11.9,"pm2_5":8.4,"mosquito_risk":7,"arthritis_risk":5,"migraine_risk":4,"frizz_risk":1,"updated_at":"2026-04-25T01:25:23.884935+05:30"},{"city":"Tirupati","state":"Andhra Pradesh","latitude":13.6288,"longitude":79.4192,"temp":27.8,"humidity":72,"rain":0.0,"pressure":990.0,"uv_index":9.0,"wind_gusts":36.7,"aqi":55,"pm10":19.4,"pm2_5":18.2,"mosquito_risk":7,"arthritis_risk":5,"migraine_risk":7,"frizz_risk":1,"updated_at":"2026-04-25T01:25:23.884941+05:30"},{"city":"Warangal","state":"Telangana","latitude":17.9689,"longitude":79.5941,"temp":29.0,"humidity":46,"rain":0.0,"pressure":977.0,"uv_index":8.95,"wind_gusts":31.7,"aqi":113,"pm10":33.2,"pm2_5":30.7,"mosquito_risk":4,"arthritis_risk":5,"migraine_risk":7,"frizz_risk":1,"updated_at":"2026-04-25T01:25:23.884947+05:30"},{"city":"Nizamabad","state":"Telangana","latitude":18.6725,"longitude":78.0941,"temp":29.4,"humidity":38,"rain":0.0,"pressure":963.1,"uv_index":8.8,"wind_gusts":28.1,"aqi":127,"pm10":73.1,"pm2_5":66.6,"mosquito_risk":4,"arthritis_risk":5,"migraine_risk":7,"frizz_risk":0,"updated_at":"2026-04-25T01:25:23.884954+05:30"},{"city":"Mysore","state":"Karnataka","latitude":12.2958,"longitude":76.6396,"temp":23.5,"humidity":73,"rain":0.0,"pressure":926.5,"uv_index":8.75,"wind_gusts":52.6,"aqi":92,"pm10":24.6,"pm2_5":22.1,"mosquito_risk":3,"arthritis_risk":5,"migraine_risk":7,"frizz_risk":1,"updated_at":"2026-04-25T01:25:23.884960+05:30"},{"city":"Mangalore","state":"Karnataka","latitude":12.9141,"longitude":74.856,"temp":29.0,"humidity":84,"rain":0.0,"pressure":1004.6,"uv_index":8.0,"wind_gusts":40.7,"aqi":70,"pm10":25.8,"pm2_5":19.1,"mosquito_risk":7,"arthritis_risk":5,"migraine_risk":4,"frizz_risk":1,"updated_at":"2026-04-25T01:25:23.884966+05:30"},{"city":"Hubli-Dharwad","state":"Karnataka","latitude":15.3647,"longitude":75.124,"temp":25.6,"humidity":84,"rain":0.0,"pressure":938.9,"uv_index":9.25,"wind_gusts":36.4,"aqi":110,"pm10":52.4,"pm2_5":48.2,"mosquito_risk":7,"arthritis_risk":5,"migraine_risk":7,"frizz_risk":1,"updated_at":"2026-04-25T01:25:23.884972+05:30"},{"city":"Belgaum","state":"Karnataka","latitude":15.8497,"longitude":74.4977,"temp":25.0,"humidity":74,"rain":0.0,"pressure":924.2,"uv_index":9.3,"wind_gusts":32.8,"aqi":124,"pm10":72.2,"pm2_5":63.6,"mosquito_risk":7,"arthritis_risk":5,"migraine_risk":7,"frizz_risk":1,"updated_at":"2026-04-25T01:25:27.162086+05:30"},{"city":"Coimbatore","state":"Tamil Nadu","latitude":11.0168,"longitude":76.9558,"temp":28.0,"humidity":66,"rain":0.0,"pressure":960.1,"uv_index":8.8,"wind_gusts":43.9,"aqi":84,"pm10":26.8,"pm2_5":25.0,"mosquito_risk":7,"arthritis_risk":5,"migraine_risk":7,"frizz_risk":1,"updated_at":"2026-04-25T01:25:27.162122+05:30"},{"city":"Madurai","state":"Tamil Nadu","latitude":9.9252,"longitude":78.1198,"temp":27.9,"humidity":81,"rain":0.0,"pressure":992.0,"uv_index":8.75,"wind_gusts":40.0,"aqi":44,"pm10":12.3,"pm2_5":11.5,"mosquito_risk":7,"arthritis_risk":5,"migraine_risk":7,"frizz_risk":1,"updated_at":"2026-04-25T01:25:27.162134+05:30"},{"city":"Trichy","state":"Tamil Nadu","latitude":10.7905,"longitude":78.7047,"temp":27.6,"humidity":79,"rain":0.0,"pressure":998.3,"uv_index":9.0,"wind_gusts":32.4,"aqi":47,"pm10":10.4,"pm2_5":9.5,"mosquito_risk":7,"arthritis_risk":5,"migraine_risk":7,"frizz_risk":1,"updated_at":"2026-04-25T01:25:27.162143+05:30"},{"city":"Salem","state":"Tamil Nadu","latitude":11.6643,"longitude":78.146,"temp":28.5,"humidity":59,"rain":0.0,"pressure":975.6,"uv_index":9.0,"wind_gusts":42.8,"aqi":65,"pm10":21.2,"pm2_5":20.7,"mosquito_risk":4,"arthritis_risk":5,"migraine_risk":7,"frizz_risk":1,"updated_at":"2026-04-25T01:25:27.162150+05:30"},{"city":"Tirunelveli","state":"Tamil Nadu","latitude":8.7139,"longitude":77.7567,"temp":27.0,"humidity":86,"rain":0.0,"pressure":1001.8,"uv_index":8.95,"wind_gusts":37.8,"aqi":64,"pm10":20.6,"pm2_5":19.6,"mosquito_risk":7,"arthritis_risk":5,"migraine_risk":4,"frizz_risk":1,"updated_at":"2026-04-25T01:25:27.162158+05:30"},{"city":"Vellore","state":"Tamil Nadu","latitude":12.9165,"longitude":79.1325,"temp":27.0,"humidity":75,"rain":0.0,"pressure":983.2,"uv_index":9.0,"wind_gusts":36.7,"aqi":71,"pm10":32.2,"pm2_5":31.5,"mosquito_risk":7,"arthritis_risk":5,"migraine_risk":7,"frizz_risk":1,"updated_at":"2026-04-25T01:25:27.162165+05:30"},{"city":"Erode","state":"Tamil Nadu","latitude":11.341,"longitude":77.7172,"temp":29.1,"humidity":57,"rain":0.0,"pressure":987.4,"uv_index":9.0,"wind_gusts":40.3,"aqi":48,"pm10":9.6,"pm2_5":9.3,"mosquito_risk":4,"arthritis_risk":5,"migraine_risk":7,"frizz_risk":1,"updated_at":"2026-04-25T01:25:27.162172+05:30"},{"city":"Kochi","state":"Kerala","latitude":9.9312,"longitude":76.2673,"temp":28.0,"humidity":92,"rain":0.0,"pressure":1006.4,"uv_index":8.65,"wind_gusts":40.7,"aqi":89,"pm10":42.0,"pm2_5":39.9,"mosquito_risk":7,"arthritis_risk":5,"migraine_risk":4,"frizz_risk":1,"updated_at":"2026-04-25T01:25:27.162179+05:30"},{"city":"Thiruvananthapuram","state":"Kerala","latitude":8.5241,"longitude":76.9366,"temp":25.9,"humidity":95,"rain":0.0,"pressure":1006.4,"uv_index":8.2,"wind_gusts":34.2,"aqi":62,"pm10":23.1,"pm2_5":18.4,"mosquito_risk":7,"arthritis_risk":5,"migraine_risk":4,"frizz_risk":1,"updated_at":"2026-04-25T01:25:27.162186+05:30"},{"city":"Kozhikode","state":"Kerala","latitude":11.2588,"longitude":75.7804,"temp":27.0,"humidity":94,"rain":0.0,"pressure":1005.6,"uv_index":8.6,"wind_gusts":39.6,"aqi":79,"pm10":29.0,"pm2_5":21.7,"mosquito_risk":7,"arthritis_risk":5,"migraine_risk":4,"frizz_risk":1,"updated_at":"2026-04-25T01:25:27.162192+05:30"},{"city":"Thrissur","state":"Kerala","latitude":10.5276,"longitude":76.2144,"temp":27.1,"humidity":89,"rain":0.0,"pressure":1004.7,"uv_index":8.45,"wind_gusts":48.2,"aqi":95,"pm10":42.4,"pm2_5":39.0,"mosquito_risk":7,"arthritis_risk":5,"migraine_risk":4,"frizz_risk":1,"updated_at":"2026-04-25T01:25:27.162199+05:30"},{"city":"Kannur","state":"Kerala","latitude":11.8745,"longitude":75.3704,"temp":27.8,"humidity":86,"rain":0.0,"pressure":1005.0,"uv_index":8.85,"wind_gusts":40.7,"aqi":77,"pm10":28.8,"pm2_5":22.8,"mosquito_risk":7,"arthritis_risk":5,"migraine_risk":4,"frizz_risk":1,"updated_at":"2026-04-25T01:25:27.162207+05:30"},{"city":"Patna","state":"Bihar","latitude":25.5941,"longitude":85.1376,"temp":28.8,"humidity":73,"rain":0.0,"pressure":998.6,"uv_index":8.65,"wind_gusts":50.0,"aqi":153,"pm10":97.3,"pm2_5":58.4,"mosquito_risk":7,"arthritis_risk":5,"migraine_risk":7,"frizz_risk":1,"updated_at":"2026-04-25T01:25:27.162214+05:30"},{"city":"Gaya","state":"Bihar","latitude":24.7914,"longitude":85.0002,"temp":28.5,"humidity":42,"rain":0.0,"pressure":991.7,"uv_index":8.7,"wind_gusts":55.4,"aqi":134,"pm10":88.5,"pm2_5":40.6,"mosquito_risk":4,"arthritis_risk":5,"migraine_risk":7,"frizz_risk":0,"updated_at":"2026-04-25T01:25:27.162221+05:30"},{"city":"Muzaffarpur","state":"Bihar","latitude":26.1209,"longitude":85.3647,"temp":27.4,"humidity":81,"rain":0.0,"pressure":998.9,"uv_index":8.65,"wind_gusts":33.5,"aqi":153,"pm10":88.5,"pm2_5":60.5,"mosquito_risk":7,"arthritis_risk":5,"migraine_risk":7,"frizz_risk":1,"updated_at":"2026-04-25T01:25:27.162228+05:30"},{"city":"Bhagalpur","state":"Bihar","latitude":25.2425,"longitude":87.0117,"temp":27.3,"humidity":81,"rain":0.0,"pressure":1000.0,"uv_index":8.6,"wind_gusts":56.9,"aqi":151,"pm10":64.0,"pm2_5":56.8,"mosquito_risk":7,"arthritis_risk":5,"migraine_risk":4,"frizz_risk":1,"updated_at":"2026-04-25T01:25:27.162235+05:30"},{"city":"Ranchi","state":"Jharkhand","latitude":23.3441,"longitude":85.3096,"temp":24.5,"humidity":31,"rain":0.0,"pressure":935.8,"uv_index":9.2,"wind_gusts":34.9,"aqi":117,"pm10":115.5,"pm2_5":42.4,"mosquito_risk":0,"arthritis_risk":5,"migraine_risk":7,"frizz_risk":0,"updated_at":"2026-04-25T01:25:27.162241+05:30"},{"city":"Jamshedpur","state":"Jharkhand","latitude":22.8046,"longitude":86.2029,"temp":28.0,"humidity":81,"rain":0.0,"pressure":989.4,"uv_index":8.85,"wind_gusts":34.2,"aqi":152,"pm10":63.6,"pm2_5":44.1,"mosquito_risk":7,"arthritis_risk":5,"migraine_risk":7,"frizz_risk":1,"updated_at":"2026-04-25T01:25:27.162248+05:30"},{"city":"Dhanbad","state":"Jharkhand","latitude":23.7957,"longitude":86.4304,"temp":28.1,"humidity":77,"rain":0.0,"pressure":978.8,"uv_index":8.95,"wind_gusts":49.7,"aqi":165,"pm10":153.2,"pm2_5":95.2,"mosquito_risk":7,"arthritis_risk":5,"migraine_risk":7,"frizz_risk":1,"updated_at":"2026-04-25T01:25:27.162254+05:30"},{"city":"Bokaro","state":"Jharkhand","latitude":23.6693,"longitude":86.1511,"temp":26.1,"humidity":45,"rain":0.0,"pressure":982.1,"uv_index":8.95,"wind_gusts":43.9,"aqi":161,"pm10":150.4,"pm2_5":84.5,"mosquito_risk":4,"arthritis_risk":5,"migraine_risk":7,"frizz_risk":0,"updated_at":"2026-04-25T01:25:27.162260+05:30"},{"city":"Bhubaneswar","state":"Odisha","latitude":20.2961,"longitude":85.8245,"temp":26.4,"humidity":97,"rain":0.0,"pressure":1001.0,"uv_index":9.05,"wind_gusts":40.7,"aqi":71,"pm10":17.1,"pm2_5":13.2,"mosquito_risk":7,"arthritis_risk":5,"migraine_risk":4,"frizz_risk":1,"updated_at":"2026-04-25T01:25:27.162266+05:30"},{"city":"Cuttack","state":"Odisha","latitude":20.4625,"longitude":85.8828,"temp":26.6,"humidity":96,"rain":0.0,"pressure":1002.8,"uv_index":9.1,"wind_gusts":36.4,"aqi":71,"pm10":17.1,"pm2_5":13.2,"mosquito_risk":7,"arthritis_risk":5,"migraine_risk":4,"frizz_risk":1,"updated_at":"2026-04-25T01:25:27.162273+05:30"},{"city":"Rourkela","state":"Odisha","latitude":22.2604,"longitude":84.8536,"temp":28.0,"humidity":64,"rain":0.0,"pressure":983.6,"uv_index":8.3,"wind_gusts":40.7,"aqi":130,"pm10":87.5,"pm2_5":48.8,"mosquito_risk":7,"arthritis_risk":5,"migraine_risk":7,"frizz_risk":1,"updated_at":"2026-04-25T01:25:27.162279+05:30"},{"city":"Raipur","state":"Chhattisgarh","latitude":21.2514,"longitude":81.6296,"temp":29.7,"humidity":24,"rain":0.0,"pressure":972.3,"uv_index":9.0,"wind_gusts":28.1,"aqi":111,"pm10":69.2,"pm2_5":60.3,"mosquito_risk":4,"arthritis_risk":5,"migraine_risk":7,"frizz_risk":0,"updated_at":"2026-04-25T01:25:27.162284+05:30"},{"city":"Bhilai","state":"Chhattisgarh","latitude":21.1938,"longitude":81.3509,"temp":29.8,"humidity":32,"rain":0.0,"pressure":972.6,"uv_index":9.0,"wind_gusts":34.6,"aqi":108,"pm10":53.3,"pm2_5":49.2,"mosquito_risk":4,"arthritis_risk":5,"migraine_risk":7,"frizz_risk":0,"updated_at":"2026-04-25T01:25:27.162290+05:30"},{"city":"Guwahati","state":"Assam","latitude":26.1158,"longitude":91.7086,"temp":23.6,"humidity":97,"rain":0.0,"pressure":1001.7,"uv_index":8.55,"wind_gusts":31.7,"aqi":151,"pm10":77.1,"pm2_5":61.2,"mosquito_risk":3,"arthritis_risk":5,"migraine_risk":4,"frizz_risk":1,"updated_at":"2026-04-25T01:25:27.162295+05:30"},{"city":"Agartala","state":"Tripura","latitude":23.8315,"longitude":91.2868,"temp":26.3,"humidity":87,"rain":0.0,"pressure":1005.3,"uv_index":8.75,"wind_gusts":26.3,"aqi":126,"pm10":76.1,"pm2_5":59.8,"mosquito_risk":7,"arthritis_risk":5,"migraine_risk":4,"frizz_risk":1,"updated_at":"2026-04-25T01:25:27.162301+05:30"},{"city":"Shillong","state":"Meghalaya","latitude":25.5788,"longitude":91.8933,"temp":17.1,"humidity":80,"rain":0.0,"pressure":856.7,"uv_index":8.2,"wind_gusts":31.0,"aqi":126,"pm10":64.3,"pm2_5":45.2,"mosquito_risk":3,"arthritis_risk":5,"migraine_risk":7,"frizz_risk":0,"updated_at":"2026-04-25T01:25:27.162307+05:30"},{"city":"Imphal","state":"Manipur","latitude":24.817,"longitude":93.9368,"temp":19.0,"humidity":87,"rain":0.0,"pressure":922.7,"uv_index":9.1,"wind_gusts":35.6,"aqi":151,"pm10":119.0,"pm2_5":77.1,"mosquito_risk":3,"arthritis_risk":10,"migraine_risk":7,"frizz_risk":1,"updated_at":"2026-04-25T01:25:27.162314+05:30"},{"city":"Aizawl","state":"Mizoram","latitude":23.7271,"longitude":92.7176,"temp":18.7,"humidity":76,"rain":0.0,"pressure":891.5,"uv_index":9.0,"wind_gusts":34.2,"aqi":116,"pm10":108.3,"pm2_5":50.5,"mosquito_risk":3,"arthritis_risk":5,"migraine_risk":7,"frizz_risk":0,"updated_at":"2026-04-25T01:25:27.162320+05:30"},{"city":"Kohima","state":"Nagaland","latitude":25.6701,"longitude":94.1077,"temp":16.0,"humidity":93,"rain":0.0,"pressure":854.5,"uv_index":8.4,"wind_gusts":32.0,"aqi":142,"pm10":102.7,"pm2_5":65.0,"mosquito_risk":3,"arthritis_risk":10,"migraine_risk":7,"frizz_risk":0,"updated_at":"2026-04-25T01:25:27.162326+05:30"},{"city":"Gangtok","state":"Sikkim","latitude":27.3314,"longitude":88.6138,"temp":14.3,"humidity":78,"rain":0.0,"pressure":837.2,"uv_index":8.9,"wind_gusts":46.8,"aqi":96,"pm10":38.3,"pm2_5":29.3,"mosquito_risk":3,"arthritis_risk":5,"migraine_risk":7,"frizz_risk":0,"updated_at":"2026-04-25T01:25:27.162332+05:30"},{"city":"Siliguri","state":"West Bengal","latitude":26.7271,"longitude":88.3953,"temp":22.1,"humidity":94,"rain":0.0,"pressure":992.7,"uv_index":8.45,"wind_gusts":47.2,"aqi":157,"pm10":98.7,"pm2_5":74.5,"mosquito_risk":3,"arthritis_risk":5,"migraine_risk":7,"frizz_risk":1,"updated_at":"2026-04-25T01:25:30.443917+05:30"},{"city":"Durgapur","state":"West Bengal","latitude":23.5204,"longitude":87.3119,"temp":27.0,"humidity":96,"rain":0.0,"pressure":994.1,"uv_index":8.9,"wind_gusts":39.6,"aqi":151,"pm10":65.7,"pm2_5":56.3,"mosquito_risk":7,"arthritis_risk":5,"migraine_risk":7,"frizz_risk":1,"updated_at":"2026-04-25T01:25:30.443953+05:30"},{"city":"Asansol","state":"West Bengal","latitude":23.6739,"longitude":86.9524,"temp":27.8,"humidity":91,"rain":0.0,"pressure":992.5,"uv_index":8.95,"wind_gusts":45.7,"aqi":153,"pm10":88.7,"pm2_5":58.8,"mosquito_risk":7,"arthritis_risk":5,"migraine_risk":7,"frizz_risk":1,"updated_at":"2026-04-25T01:25:30.443964+05:30"},{"city":"Pondicherry","state":"Puducherry","latitude":11.9139,"longitude":79.8145,"temp":29.0,"humidity":80,"rain":0.0,"pressure":1006.8,"uv_index":8.8,"wind_gusts":43.2,"aqi":23,"pm10":7.8,"pm2_5":5.0,"mosquito_risk":7,"arthritis_risk":5,"migraine_risk":4,"frizz_risk":1,"updated_at":"2026-04-25T01:25:30.443973+05:30"},{"city":"Port Blair","state":"Andaman and Nicobar Islands","latitude":11.6234,"longitude":92.7265,"temp":26.4,"humidity":87,"rain":0.0,"pressure":1005.9,"uv_index":9.15,"wind_gusts":30.2,"aqi":37,"pm10":11.8,"pm2_5":6.1,"mosquito_risk":7,"arthritis_risk":5,"migraine_risk":4,"frizz_risk":1,"updated_at":"2026-04-25T01:25:30.443982+05:30"},{"city":"Haridwar","state":"Uttarakhand","latitude":29.9457,"longitude":78.1642,"temp":21.4,"humidity":64,"rain":0.0,"pressure":971.4,"uv_index":7.2,"wind_gusts":32.8,"aqi":82,"pm10":44.4,"pm2_5":37.3,"mosquito_risk":3,"arthritis_risk":5,"migraine_risk":7,"frizz_risk":0,"updated_at":"2026-04-25T01:25:30.443989+05:30"},{"city":"Rishikesh","state":"Uttarakhand","latitude":30.0869,"longitude":78.2676,"temp":20.0,"humidity":63,"rain":0.0,"pressure":964.0,"uv_index":7.35,"wind_gusts":31.7,"aqi":67,"pm10":27.5,"pm2_5":23.0,"mosquito_risk":3,"arthritis_risk":5,"migraine_risk":7,"frizz_risk":0,"updated_at":"2026-04-25T01:25:30.443997+05:30"},{"city":"Nainital","state":"Uttarakhand","latitude":29.3919,"longitude":79.4542,"temp":17.0,"humidity":45,"rain":0.0,"pressure":806.1,"uv_index":7.8,"wind_gusts":43.2,"aqi":108,"pm10":36.4,"pm2_5":30.9,"mosquito_risk":0,"arthritis_risk":5,"migraine_risk":7,"frizz_risk":0,"updated_at":"2026-04-25T01:25:30.444005+05:30"},{"city":"Mussoorie","state":"Uttarakhand","latitude":30.4599,"longitude":78.0664,"temp":15.7,"humidity":48,"rain":0.0,"pressure":802.5,"uv_index":7.75,"wind_gusts":58.0,"aqi":73,"pm10":31.5,"pm2_5":26.5,"mosquito_risk":0,"arthritis_risk":5,"migraine_risk":7,"frizz_risk":0,"updated_at":"2026-04-25T01:25:30.444012+05:30"},{"city":"Dharamshala","state":"Himachal Pradesh","latitude":32.219,"longitude":76.3234,"temp":23.9,"humidity":30,"rain":0.0,"pressure":870.7,"uv_index":7.35,"wind_gusts":61.9,"aqi":48,"pm10":24.4,"pm2_5":15.7,"mosquito_risk":0,"arthritis_risk":5,"migraine_risk":7,"frizz_risk":0,"updated_at":"2026-04-25T01:25:30.444019+05:30"},{"city":"Dalhousie","state":"Himachal Pradesh","latitude":32.5387,"longitude":75.971,"temp":11.2,"humidity":68,"rain":0.0,"pressure":802.1,"uv_index":8.2,"wind_gusts":47.2,"aqi":61,"pm10":31.3,"pm2_5":24.5,"mosquito_risk":3,"arthritis_risk":5,"migraine_risk":7,"frizz_risk":0,"updated_at":"2026-04-25T01:25:30.444028+05:30"},{"city":"Patiala","state":"Punjab","latitude":30.3398,"longitude":76.3869,"temp":29.0,"humidity":33,"rain":0.0,"pressure":976.8,"uv_index":7.35,"wind_gusts":52.6,"aqi":311,"pm10":994.7,"pm2_5":114.6,"mosquito_risk":4,"arthritis_risk":5,"migraine_risk":7,"frizz_risk":0,"updated_at":"2026-04-25T01:25:30.444035+05:30"},{"city":"Bhatinda","state":"Punjab","latitude":30.211,"longitude":74.9455,"temp":30.1,"humidity":23,"rain":0.0,"pressure":982.4,"uv_index":8.0,"wind_gusts":41.8,"aqi":87,"pm10":74.3,"pm2_5":31.7,"mosquito_risk":0,"arthritis_risk":5,"migraine_risk":7,"frizz_risk":0,"updated_at":"2026-04-25T01:25:30.444042+05:30"},{"city":"Rohtak","state":"Haryana","latitude":28.8955,"longitude":76.6066,"temp":27.7,"humidity":27,"rain":0.0,"pressure":979.9,"uv_index":7.45,"wind_gusts":44.3,"aqi":182,"pm10":726.4,"pm2_5":110.8,"mosquito_risk":4,"arthritis_risk":5,"migraine_risk":7,"frizz_risk":0,"updated_at":"2026-04-25T01:25:30.444048+05:30"},{"city":"Panipat","state":"Haryana","latitude":29.3909,"longitude":76.9635,"temp":29.7,"humidity":26,"rain":0.0,"pressure":978.4,"uv_index":7.3,"wind_gusts":63.7,"aqi":398,"pm10":1687.6,"pm2_5":197.0,"mosquito_risk":4,"arthritis_risk":5,"migraine_risk":7,"frizz_risk":0,"updated_at":"2026-04-25T01:25:30.444055+05:30"},{"city":"Mathura","state":"Uttar Pradesh","latitude":27.4924,"longitude":77.6737,"temp":28.5,"humidity":32,"rain":0.0,"pressure":984.3,"uv_index":7.55,"wind_gusts":41.8,"aqi":345,"pm10":434.9,"pm2_5":80.3,"mosquito_risk":4,"arthritis_risk":5,"migraine_risk":7,"frizz_risk":0,"updated_at":"2026-04-25T01:25:30.444062+05:30"},{"city":"Vrindavan","state":"Uttar Pradesh","latitude":27.5823,"longitude":77.7027,"temp":28.2,"humidity":32,"rain":0.0,"pressure":984.6,"uv_index":7.7,"wind_gusts":40.3,"aqi":345,"pm10":434.9,"pm2_5":80.3,"mosquito_risk":4,"arthritis_risk":5,"migraine_risk":7,"frizz_risk":0,"updated_at":"2026-04-25T01:25:30.444069+05:30"},{"city":"Ayodhya","state":"Uttar Pradesh","latitude":26.7922,"longitude":82.1998,"temp":28.0,"humidity":35,"rain":0.0,"pressure":992.8,"uv_index":8.1,"wind_gusts":37.1,"aqi":137,"pm10":156.9,"pm2_5":47.8,"mosquito_risk":4,"arthritis_risk":5,"migraine_risk":7,"frizz_risk":0,"updated_at":"2026-04-25T01:25:30.444075+05:30"},{"city":"Ratlam","state":"Madhya Pradesh","latitude":23.3315,"longitude":75.0367,"temp":27.9,"humidity":26,"rain":0.0,"pressure":953.9,"uv_index":8.5,"wind_gusts":29.9,"aqi":53,"pm10":28.2,"pm2_5":13.1,"mosquito_risk":4,"arthritis_risk":5,"migraine_risk":7,"frizz_risk":0,"updated_at":"2026-04-25T01:25:30.444081+05:30"},{"city":"Sagar","state":"Madhya Pradesh","latitude":23.8388,"longitude":78.7378,"temp":27.8,"humidity":23,"rain":0.0,"pressure":948.5,"uv_index":8.65,"wind_gusts":28.8,"aqi":60,"pm10":21.2,"pm2_5":13.9,"mosquito_risk":4,"arthritis_risk":5,"migraine_risk":7,"frizz_risk":0,"updated_at":"2026-04-25T01:25:30.444087+05:30"},{"city":"Satna","state":"Madhya Pradesh","latitude":24.6005,"longitude":80.8322,"temp":26.9,"humidity":25,"rain":0.0,"pressure":969.3,"uv_index":8.65,"wind_gusts":41.4,"aqi":69,"pm10":35.2,"pm2_5":31.9,"mosquito_risk":4,"arthritis_risk":5,"migraine_risk":7,"frizz_risk":0,"updated_at":"2026-04-25T01:25:30.444093+05:30"},{"city":"Akola","state":"Maharashtra","latitude":20.7002,"longitude":77.0082,"temp":30.6,"humidity":26,"rain":0.0,"pressure":973.4,"uv_index":8.6,"wind_gusts":31.3,"aqi":75,"pm10":24.9,"pm2_5":21.9,"mosquito_risk":0,"arthritis_risk":5,"migraine_risk":7,"frizz_risk":0,"updated_at":"2026-04-25T01:25:30.444100+05:30"},{"city":"Amravati","state":"Maharashtra","latitude":20.9374,"longitude":77.7796,"temp":31.0,"humidity":23,"rain":0.0,"pressure":965.3,"uv_index":8.6,"wind_gusts":30.6,"aqi":82,"pm10":31.4,"pm2_5":27.1,"mosquito_risk":0,"arthritis_risk":5,"migraine_risk":7,"frizz_risk":0,"updated_at":"2026-04-25T01:25:30.444107+05:30"},{"city":"Latur","state":"Maharashtra","latitude":18.4088,"longitude":76.5604,"temp":30.2,"humidity":30,"rain":0.0,"pressure":939.0,"uv_index":9.05,"wind_gusts":32.4,"aqi":104,"pm10":44.7,"pm2_5":40.5,"mosquito_risk":0,"arthritis_risk":5,"migraine_risk":7,"frizz_risk":0,"updated_at":"2026-04-25T01:25:30.444113+05:30"},{"city":"Nanded","state":"Maharashtra","latitude":19.1383,"longitude":77.3091,"temp":30.2,"humidity":32,"rain":0.0,"pressure":967.2,"uv_index":8.9,"wind_gusts":31.0,"aqi":104,"pm10":52.6,"pm2_5":47.0,"mosquito_risk":0,"arthritis_risk":5,"migraine_risk":7,"frizz_risk":0,"updated_at":"2026-04-25T01:25:30.444119+05:30"},{"city":"Gulbarga","state":"Karnataka","latitude":17.3297,"longitude":76.8343,"temp":29.2,"humidity":40,"rain":0.0,"pressure":957.3,"uv_index":9.05,"wind_gusts":26.6,"aqi":111,"pm10":43.0,"pm2_5":36.4,"mosquito_risk":4,"arthritis_risk":5,"migraine_risk":7,"frizz_risk":0,"updated_at":"2026-04-25T01:25:30.444125+05:30"},{"city":"Bidar","state":"Karnataka","latitude":17.9104,"longitude":77.5199,"temp":27.3,"humidity":43,"rain":0.0,"pressure":934.2,"uv_index":8.3,"wind_gusts":31.7,"aqi":119,"pm10":51.9,"pm2_5":47.5,"mosquito_risk":4,"arthritis_risk":5,"migraine_risk":7,"frizz_risk":0,"updated_at":"2026-04-25T01:25:30.444131+05:30"},{"city":"Hospet","state":"Karnataka","latitude":15.2689,"longitude":76.3909,"temp":29.8,"humidity":31,"rain":0.0,"pressure":954.4,"uv_index":9.3,"wind_gusts":27.4,"aqi":98,"pm10":31.4,"pm2_5":27.4,"mosquito_risk":4,"arthritis_risk":5,"migraine_risk":7,"frizz_risk":0,"updated_at":"2026-04-25T01:25:30.444137+05:30"},{"city":"Tirupur","state":"Tamil Nadu","latitude":11.1085,"longitude":77.3411,"temp":29.5,"humidity":41,"rain":0.0,"pressure":973.4,"uv_index":9.05,"wind_gusts":37.1,"aqi":63,"pm10":12.0,"pm2_5":11.6,"mosquito_risk":4,"arthritis_risk":5,"migraine_risk":7,"frizz_risk":0,"updated_at":"2026-04-25T01:25:30.444144+05:30"},{"city":"Alappuzha","state":"Kerala","latitude":9.4981,"longitude":76.3388,"temp":26.5,"humidity":94,"rain":0.0,"pressure":1006.6,"uv_index":8.6,"wind_gusts":36.7,"aqi":83,"pm10":38.4,"pm2_5":32.6,"mosquito_risk":7,"arthritis_risk":5,"migraine_risk":4,"frizz_risk":1,"updated_at":"2026-04-25T01:25:30.444150+05:30"},{"city":"Munnar","state":"Kerala","latitude":10.0889,"longitude":77.0595,"temp":16.7,"humidity":73,"rain":0.0,"pressure":854.4,"uv_index":9.4,"wind_gusts":26.3,"aqi":65,"pm10":23.0,"pm2_5":22.4,"mosquito_risk":3,"arthritis_risk":5,"migraine_risk":7,"frizz_risk":0,"updated_at":"2026-04-25T01:25:30.444157+05:30"},{"city":"Silchar","state":"Assam","latitude":24.8333,"longitude":92.7789,"temp":25.1,"humidity":94,"rain":0.0,"pressure":1004.3,"uv_index":8.75,"wind_gusts":23.4,"aqi":158,"pm10":125.7,"pm2_5":83.6,"mosquito_risk":7,"arthritis_risk":5,"migraine_risk":4,"frizz_risk":1,"updated_at":"2026-04-25T01:25:30.444164+05:30"},{"city":"Dibrugarh","state":"Assam","latitude":27.4728,"longitude":94.912,"temp":24.0,"humidity":90,"rain":0.0,"pressure":995.1,"uv_index":8.7,"wind_gusts":23.0,"aqi":85,"pm10":16.4,"pm2_5":14.0,"mosquito_risk":3,"arthritis_risk":5,"migraine_risk":7,"frizz_risk":1,"updated_at":"2026-04-25T01:25:30.444170+05:30"}]