[{"city":"Delhi","state":"Delhi","latitude":28.6139,"longitude":77.209,"temp":38.1,"humidity":20,"rain":0.0,"pressure":975.7,"uv_index":7.7,"wind_gusts":25.2,"aqi":227,"pm10":309.2,"pm2_5":102.2,"no2":16.4,"co":387.0,"o3":252.0,"so2":36.8,"mosquito_risk":0,"arthritis_risk":5,"migraine_risk":10,"frizz_risk":0,"updated_at":"2026-05-14T17:57:19.034444+05:30"},{"city":"Mumbai","state":"Maharashtra","latitude":19.076,"longitude":72.8777,"temp":31.2,"humidity":67,"rain":0.0,"pressure":1002.0,"uv_index":7.9,"wind_gusts":45.4,"aqi":87,"pm10":24.1,"pm2_5":16.5,"no2":8.9,"co":245.0,"o3":80.0,"so2":4.8,"mosquito_risk":3,"arthritis_risk":5,"migraine_risk":4,"frizz_risk":1,"updated_at":"2026-05-14T17:57:19.034486+05:30"},{"city":"Bangalore","state":"Karnataka","latitude":12.9716,"longitude":77.5946,"temp":32.7,"humidity":28,"rain":0.0,"pressure":907.3,"uv_index":7.95,"wind_gusts":39.6,"aqi":94,"pm10":50.6,"pm2_5":26.1,"no2":17.4,"co":361.0,"o3":111.0,"so2":6.1,"mosquito_risk":0,"arthritis_risk":5,"migraine_risk":7,"frizz_risk":0,"updated_at":"2026-05-14T17:57:19.034501+05:30"},{"city":"Hyderabad","state":"Telangana","latitude":17.385,"longitude":78.4867,"temp":35.0,"humidity":37,"rain":0.0,"pressure":947.1,"uv_index":8.3,"wind_gusts":22.0,"aqi":146,"pm10":76.8,"pm2_5":40.6,"no2":5.7,"co":324.0,"o3":170.0,"so2":7.4,"mosquito_risk":0,"arthritis_risk":5,"migraine_risk":7,"frizz_risk":1,"updated_at":"2026-05-14T17:57:19.034510+05:30"},{"city":"Chennai","state":"Tamil Nadu","latitude":13.0827,"longitude":80.2707,"temp":30.9,"humidity":68,"rain":0.0,"pressure":1000.6,"uv_index":8.4,"wind_gusts":42.1,"aqi":28,"pm10":10.9,"pm2_5":6.4,"no2":4.6,"co":161.0,"o3":42.0,"so2":5.1,"mosquito_risk":3,"arthritis_risk":5,"migraine_risk":4,"frizz_risk":1,"updated_at":"2026-05-14T17:57:19.034518+05:30"},{"city":"Kolkata","state":"West Bengal","latitude":22.5726,"longitude":88.3639,"temp":31.0,"humidity":68,"rain":0.0,"pressure":1000.0,"uv_index":8.95,"wind_gusts":38.2,"aqi":65,"pm10":25.3,"pm2_5":16.9,"no2":7.4,"co":257.0,"o3":75.0,"so2":6.7,"mosquito_risk":3,"arthritis_risk":5,"migraine_risk":4,"frizz_risk":1,"updated_at":"2026-05-14T17:57:19.034528+05:30"},{"city":"Pune","state":"Maharashtra","latitude":18.5204,"longitude":73.8567,"temp":35.1,"humidity":33,"rain":0.0,"pressure":942.4,"uv_index":5.95,"wind_gusts":45.4,"aqi":109,"pm10":51.1,"pm2_5":30.3,"no2":4.9,"co":271.0,"o3":175.0,"so2":14.0,"mosquito_risk":0,"arthritis_risk":5,"migraine_risk":6,"frizz_risk":1,"updated_at":"2026-05-14T17:57:19.034535+05:30"},{"city":"Ahmedabad","state":"Gujarat","latitude":23.0225,"longitude":72.5714,"temp":42.5,"humidity":15,"rain":0.0,"pressure":992.9,"uv_index":8.15,"wind_gusts":41.4,"aqi":63,"pm10":44.2,"pm2_5":13.0,"no2":2.3,"co":178.0,"o3":104.0,"so2":1.9,"mosquito_risk":0,"arthritis_risk":5,"migraine_risk":10,"frizz_risk":0,"updated_at":"2026-05-14T17:57:19.034544+05:30"},{"city":"Jaipur","state":"Rajasthan","latitude":26.9124,"longitude":75.7873,"temp":38.5,"humidity":15,"rain":0.0,"pressure":953.4,"uv_index":8.25,"wind_gusts":34.2,"aqi":125,"pm10":137.8,"pm2_5":32.0,"no2":2.3,"co":186.0,"o3":126.0,"so2":3.5,"mosquito_risk":0,"arthritis_risk":5,"migraine_risk":10,"frizz_risk":0,"updated_at":"2026-05-14T17:57:19.034551+05:30"},{"city":"Lucknow","state":"Uttar Pradesh","latitude":26.8467,"longitude":80.9462,"temp":35.2,"humidity":39,"rain":0.0,"pressure":985.9,"uv_index":8.15,"wind_gusts":24.8,"aqi":188,"pm10":147.6,"pm2_5":62.6,"no2":8.7,"co":355.0,"o3":162.0,"so2":13.5,"mosquito_risk":0,"arthritis_risk":5,"migraine_risk":10,"frizz_risk":1,"updated_at":"2026-05-14T17:57:19.034558+05:30"},{"city":"Kanpur","state":"Uttar Pradesh","latitude":26.4499,"longitude":80.3319,"temp":37.3,"humidity":29,"rain":0.0,"pressure":984.0,"uv_index":8.2,"wind_gusts":28.4,"aqi":164,"pm10":358.6,"pm2_5":80.6,"no2":5.8,"co":291.0,"o3":150.0,"so2":12.4,"mosquito_risk":0,"arthritis_risk":5,"migraine_risk":10,"frizz_risk":1,"updated_at":"2026-05-14T17:57:19.034564+05:30"},{"city":"Chandigarh","state":"Chandigarh","latitude":30.7333,"longitude":76.7794,"temp":30.6,"humidity":50,"rain":0.0,"pressure":963.0,"uv_index":7.65,"wind_gusts":29.2,"aqi":151,"pm10":35.7,"pm2_5":28.8,"no2":6.7,"co":312.0,"o3":161.0,"so2":9.8,"mosquito_risk":0,"arthritis_risk":5,"migraine_risk":7,"frizz_risk":1,"updated_at":"2026-05-14T17:57:19.034571+05:30"},{"city":"Srinagar","state":"Jammu and Kashmir","latitude":34.0837,"longitude":74.7973,"temp":18.1,"humidity":63,"rain":0.0,"pressure":841.5,"uv_index":8.7,"wind_gusts":39.2,"aqi":83,"pm10":15.9,"pm2_5":10.1,"no2":5.7,"co":384.0,"o3":111.0,"so2":2.1,"mosquito_risk":3,"arthritis_risk":5,"migraine_risk":7,"frizz_risk":0,"updated_at":"2026-05-14T17:57:19.034578+05:30"},{"city":"Jammu","state":"Jammu and Kashmir","latitude":32.7266,"longitude":74.857,"temp":32.5,"humidity":35,"rain":0.0,"pressure":967.6,"uv_index":8.4,"wind_gusts":34.2,"aqi":102,"pm10":40.4,"pm2_5":20.0,"no2":4.6,"co":236.0,"o3":137.0,"so2":2.8,"mosquito_risk":0,"arthritis_risk":5,"migraine_risk":7,"frizz_risk":0,"updated_at":"2026-05-14T17:57:19.034585+05:30"},{"city":"Amritsar","state":"Punjab","latitude":31.634,"longitude":74.8723,"temp":33.0,"humidity":34,"rain":0.0,"pressure":975.5,"uv_index":8.3,"wind_gusts":27.7,"aqi":135,"pm10":60.8,"pm2_5":32.1,"no2":4.1,"co":259.0,"o3":166.0,"so2":6.7,"mosquito_risk":0,"arthritis_risk":5,"migraine_risk":7,"frizz_risk":0,"updated_at":"2026-05-14T17:57:19.034591+05:30"},{"city":"Ludhiana","state":"Punjab","latitude":30.901,"longitude":75.8573,"temp":34.5,"humidity":27,"rain":0.0,"pressure":973.0,"uv_index":7.9,"wind_gusts":27.7,"aqi":154,"pm10":65.0,"pm2_5":34.0,"no2":4.2,"co":301.0,"o3":147.0,"so2":5.4,"mosquito_risk":0,"arthritis_risk":5,"migraine_risk":7,"frizz_risk":0,"updated_at":"2026-05-14T17:57:19.034596+05:30"},{"city":"Jalandhar","state":"Punjab","latitude":31.326,"longitude":75.5762,"temp":34.5,"humidity":28,"rain":0.0,"pressure":974.0,"uv_index":8.1,"wind_gusts":25.9,"aqi":133,"pm10":62.9,"pm2_5":32.2,"no2":5.9,"co":412.0,"o3":132.0,"so2":4.3,"mosquito_risk":0,"arthritis_risk":5,"migraine_risk":7,"frizz_risk":0,"updated_at":"2026-05-14T17:57:19.034602+05:30"},{"city":"Dehradun","state":"Uttarakhand","latitude":30.6284,"longitude":78.0322,"temp":21.0,"humidity":59,"rain":0.0,"pressure":828.2,"uv_index":8.1,"wind_gusts":40.0,"aqi":127,"pm10":36.2,"pm2_5":23.5,"no2":2.0,"co":280.0,"o3":168.0,"so2":7.5,"mosquito_risk":0,"arthritis_risk":5,"migraine_risk":7,"frizz_risk":0,"updated_at":"2026-05-14T17:57:19.034610+05:30"},{"city":"Shimla","state":"Himachal Pradesh","latitude":31.1048,"longitude":77.1734,"temp":18.8,"humidity":38,"rain":0.0,"pressure":783.5,"uv_index":8.15,"wind_gusts":50.8,"aqi":112,"pm10":27.2,"pm2_5":15.2,"no2":2.1,"co":197.0,"o3":148.0,"so2":5.2,"mosquito_risk":0,"arthritis_risk":5,"migraine_risk":7,"frizz_risk":0,"updated_at":"2026-05-14T17:57:19.034616+05:30"},{"city":"Manali","state":"Himachal Pradesh","latitude":32.2396,"longitude":77.1887,"temp":16.1,"humidity":59,"rain":0.0,"pressure":815.3,"uv_index":9.95,"wind_gusts":43.6,"aqi":110,"pm10":18.6,"pm2_5":7.8,"no2":8.0,"co":160.0,"o3":133.0,"so2":0.7,"mosquito_risk":0,"arthritis_risk":5,"migraine_risk":7,"frizz_risk":0,"updated_at":"2026-05-14T17:57:19.034622+05:30"},{"city":"Gurgaon","state":"Haryana","latitude":28.4595,"longitude":77.0266,"temp":37.0,"humidity":22,"rain":0.0,"pressure":974.1,"uv_index":7.8,"wind_gusts":36.0,"aqi":671,"pm10":892.2,"pm2_5":177.9,"no2":19.3,"co":340.0,"o3":231.0,"so2":32.1,"mosquito_risk":0,"arthritis_risk":5,"migraine_risk":10,"frizz_risk":0,"updated_at":"2026-05-14T17:57:19.034628+05:30"},{"city":"Noida","state":"Uttar Pradesh","latitude":28.5355,"longitude":77.391,"temp":35.8,"humidity":34,"rain":0.0,"pressure":976.9,"uv_index":7.7,"wind_gusts":27.7,"aqi":671,"pm10":892.2,"pm2_5":177.9,"no2":19.3,"co":391.0,"o3":231.0,"so2":32.1,"mosquito_risk":0,"arthritis_risk":5,"migraine_risk":10,"frizz_risk":1,"updated_at":"2026-05-14T17:57:19.034634+05:30"},{"city":"Ghaziabad","state":"Uttar Pradesh","latitude":28.6692,"longitude":77.4538,"temp":34.6,"humidity":39,"rain":0.0,"pressure":975.5,"uv_index":7.7,"wind_gusts":27.7,"aqi":211,"pm10":239.3,"pm2_5":82.7,"no2":9.0,"co":418.0,"o3":220.0,"so2":33.3,"mosquito_risk":0,"arthritis_risk":5,"migraine_risk":7,"frizz_risk":1,"updated_at":"2026-05-14T17:57:19.034639+05:30"},{"city":"Faridabad","state":"Haryana","latitude":28.4089,"longitude":77.3178,"temp":37.9,"humidity":19,"rain":0.0,"pressure":976.2,"uv_index":7.75,"wind_gusts":36.0,"aqi":671,"pm10":892.2,"pm2_5":177.9,"no2":19.3,"co":294.0,"o3":231.0,"so2":32.1,"mosquito_risk":0,"arthritis_risk":5,"migraine_risk":10,"frizz_risk":0,"updated_at":"2026-05-14T17:57:19.034645+05:30"},{"city":"Meerut","state":"Uttar Pradesh","latitude":28.9845,"longitude":77.7064,"temp":35.3,"humidity":31,"rain":0.0,"pressure":974.6,"uv_index":7.6,"wind_gusts":21.6,"aqi":211,"pm10":239.3,"pm2_5":82.7,"no2":9.0,"co":374.0,"o3":220.0,"so2":33.3,"mosquito_risk":0,"arthritis_risk":5,"migraine_risk":10,"frizz_risk":0,"updated_at":"2026-05-14T17:57:19.034650+05:30"},{"city":"Agra","state":"Uttar Pradesh","latitude":27.1767,"longitude":78.0081,"temp":37.0,"humidity":29,"rain":0.0,"pressure":980.1,"uv_index":7.8,"wind_gusts":32.0,"aqi":326,"pm10":202.6,"pm2_5":57.3,"no2":12.9,"co":237.0,"o3":119.0,"so2":7.8,"mosquito_risk":0,"arthritis_risk":5,"migraine_risk":10,"frizz_risk":1,"updated_at":"2026-05-14T17:57:19.034655+05:30"},{"city":"Varanasi","state":"Uttar Pradesh","latitude":25.3176,"longitude":82.9739,"temp":36.0,"humidity":38,"rain":0.0,"pressure":989.3,"uv_index":8.7,"wind_gusts":27.7,"aqi":185,"pm10":106.2,"pm2_5":50.4,"no2":7.5,"co":342.0,"o3":178.0,"so2":14.8,"mosquito_risk":0,"arthritis_risk":5,"migraine_risk":10,"frizz_risk":1,"updated_at":"2026-05-14T17:57:19.034661+05:30"},{"city":"Prayagraj","state":"Uttar Pradesh","latitude":25.4358,"longitude":81.8463,"temp":37.3,"humidity":32,"rain":0.0,"pressure":987.6,"uv_index":8.6,"wind_gusts":27.7,"aqi":191,"pm10":119.7,"pm2_5":52.2,"no2":6.6,"co":298.0,"o3":169.0,"so2":15.5,"mosquito_risk":0,"arthritis_risk":5,"migraine_risk":10,"frizz_risk":1,"updated_at":"2026-05-14T17:57:19.034668+05:30"},{"city":"Gorakhpur","state":"Uttar Pradesh","latitude":26.7606,"longitude":83.3732,"temp":31.2,"humidity":59,"rain":0.0,"pressure":989.5,"uv_index":8.6,"wind_gusts":34.6,"aqi":153,"pm10":77.8,"pm2_5":45.6,"no2":4.1,"co":365.0,"o3":173.0,"so2":10.5,"mosquito_risk":0,"arthritis_risk":5,"migraine_risk":7,"frizz_risk":1,"updated_at":"2026-05-14T17:57:19.034674+05:30"},{"city":"Bareilly","state":"Uttar Pradesh","latitude":28.367,"longitude":79.4304,"temp":32.7,"humidity":52,"rain":0.0,"pressure":979.7,"uv_index":8.0,"wind_gusts":34.9,"aqi":169,"pm10":101.7,"pm2_5":50.1,"no2":5.8,"co":385.0,"o3":160.0,"so2":11.1,"mosquito_risk":0,"arthritis_risk":5,"migraine_risk":7,"frizz_risk":1,"updated_at":"2026-05-14T17:57:19.034679+05:30"},{"city":"Aligarh","state":"Uttar Pradesh","latitude":27.8974,"longitude":78.088,"temp":35.4,"humidity":35,"rain":0.0,"pressure":978.2,"uv_index":7.85,"wind_gusts":48.6,"aqi":287,"pm10":419.1,"pm2_5":111.1,"no2":6.5,"co":338.0,"o3":185.0,"so2":22.6,"mosquito_risk":0,"arthritis_risk":5,"migraine_risk":10,"frizz_risk":1,"updated_at":"2026-05-14T17:57:19.034685+05:30"},{"city":"Moradabad","state":"Uttar Pradesh","latitude":28.8386,"longitude":78.7733,"temp":33.5,"humidity":43,"rain":0.0,"pressure":976.9,"uv_index":7.8,"wind_gusts":53.3,"aqi":180,"pm10":112.9,"pm2_5":54.8,"no2":7.3,"co":427.0,"o3":182.0,"so2":19.6,"mosquito_risk":0,"arthritis_risk":5,"migraine_risk":7,"frizz_risk":1,"updated_at":"2026-05-14T17:57:19.034690+05:30"},{"city":"Saharanpur","state":"Uttar Pradesh","latitude":29.9637,"longitude":77.546,"temp":32.2,"humidity":49,"rain":0.0,"pressure":969.5,"uv_index":7.35,"wind_gusts":28.4,"aqi":172,"pm10":110.6,"pm2_5":51.3,"no2":11.2,"co":338.0,"o3":174.0,"so2":17.5,"mosquito_risk":0,"arthritis_risk":5,"migraine_risk":7,"frizz_risk":1,"updated_at":"2026-05-14T17:57:19.034695+05:30"},{"city":"Jhansi","state":"Uttar Pradesh","latitude":25.4484,"longitude":78.5685,"temp":38.5,"humidity":22,"rain":0.0,"pressure":970.4,"uv_index":8.5,"wind_gusts":28.8,"aqi":129,"pm10":85.0,"pm2_5":30.5,"no2":2.8,"co":171.0,"o3":124.0,"so2":7.4,"mosquito_risk":0,"arthritis_risk":5,"migraine_risk":10,"frizz_risk":0,"updated_at":"2026-05-14T17:57:22.352740+05:30"},{"city":"Surat","state":"Gujarat","latitude":21.1702,"longitude":72.8311,"temp":33.4,"humidity":54,"rain":0.0,"pressure":999.0,"uv_index":7.8,"wind_gusts":43.2,"aqi":89,"pm10":31.5,"pm2_5":25.5,"no2":25.2,"co":466.0,"o3":73.0,"so2":51.4,"mosquito_risk":0,"arthritis_risk":5,"migraine_risk":7,"frizz_risk":1,"updated_at":"2026-05-14T17:57:22.352771+05:30"},{"city":"Vadodara","state":"Gujarat","latitude":22.3072,"longitude":73.1812,"temp":42.5,"humidity":16,"rain":0.0,"pressure":994.9,"uv_index":8.15,"wind_gusts":39.6,"aqi":103,"pm10":54.6,"pm2_5":18.3,"no2":3.6,"co":202.0,"o3":135.0,"so2":7.1,"mosquito_risk":0,"arthritis_risk":5,"migraine_risk":10,"frizz_risk":0,"updated_at":"2026-05-14T17:57:22.352781+05:30"},{"city":"Rajkot","state":"Gujarat","latitude":22.3039,"longitude":70.8022,"temp":36.1,"humidity":26,"rain":0.0,"pressure":988.1,"uv_index":7.8,"wind_gusts":59.8,"aqi":59,"pm10":17.4,"pm2_5":11.1,"no2":1.8,"co":150.0,"o3":105.0,"so2":3.7,"mosquito_risk":0,"arthritis_risk":5,"migraine_risk":10,"frizz_risk":0,"updated_at":"2026-05-14T17:57:22.352789+05:30"},{"city":"Thane","state":"Maharashtra","latitude":19.2183,"longitude":72.9781,"temp":33.0,"humidity":55,"rain":0.0,"pressure":1001.1,"uv_index":7.95,"wind_gusts":40.3,"aqi":87,"pm10":24.1,"pm2_5":16.5,"no2":8.9,"co":206.0,"o3":80.0,"so2":4.8,"mosquito_risk":0,"arthritis_risk":5,"migraine_risk":4,"frizz_risk":1,"updated_at":"2026-05-14T17:57:22.352795+05:30"},{"city":"Nagpur","state":"Maharashtra","latitude":21.1458,"longitude":79.0882,"temp":41.1,"humidity":19,"rain":0.0,"pressure":965.2,"uv_index":8.95,"wind_gusts":34.9,"aqi":169,"pm10":48.4,"pm2_5":30.4,"no2":8.4,"co":221.0,"o3":172.0,"so2":24.5,"mosquito_risk":0,"arthritis_risk":5,"migraine_risk":10,"frizz_risk":0,"updated_at":"2026-05-14T17:57:22.352802+05:30"},{"city":"Nashik","state":"Maharashtra","latitude":19.9975,"longitude":73.7898,"temp":35.5,"humidity":25,"rain":0.0,"pressure":940.1,"uv_index":8.25,"wind_gusts":41.0,"aqi":76,"pm10":36.6,"pm2_5":16.9,"no2":2.3,"co":181.0,"o3":148.0,"so2":5.9,"mosquito_risk":0,"arthritis_risk":5,"migraine_risk":10,"frizz_risk":0,"updated_at":"2026-05-14T17:57:22.352808+05:30"},{"city":"Aurangabad","state":"Maharashtra","latitude":19.8762,"longitude":75.3433,"temp":38.3,"humidity":18,"rain":0.0,"pressure":938.1,"uv_index":9.1,"wind_gusts":38.5,"aqi":81,"pm10":58.6,"pm2_5":24.6,"no2":1.6,"co":193.0,"o3":127.0,"so2":3.2,"mosquito_risk":0,"arthritis_risk":5,"migraine_risk":10,"frizz_risk":0,"updated_at":"2026-05-14T17:57:22.352814+05:30"},{"city":"Solapur","state":"Maharashtra","latitude":17.6599,"longitude":75.9064,"temp":36.5,"humidity":30,"rain":0.1,"pressure":950.6,"uv_index":8.75,"wind_gusts":32.0,"aqi":114,"pm10":67.3,"pm2_5":33.6,"no2":2.1,"co":213.0,"o3":150.0,"so2":6.8,"mosquito_risk":3,"arthritis_risk":5,"migraine_risk":10,"frizz_risk":1,"updated_at":"2026-05-14T17:57:22.352820+05:30"},{"city":"Kolhapur","state":"Maharashtra","latitude":16.705,"longitude":74.2433,"temp":30.3,"humidity":67,"rain":0.0,"pressure":942.3,"uv_index":8.95,"wind_gusts":38.9,"aqi":105,"pm10":62.9,"pm2_5":32.1,"no2":3.8,"co":172.0,"o3":128.0,"so2":4.4,"mosquito_risk":3,"arthritis_risk":5,"migraine_risk":7,"frizz_risk":1,"updated_at":"2026-05-14T17:57:22.352825+05:30"},{"city":"Goa","state":"Goa","latitude":15.2993,"longitude":74.124,"temp":31.9,"humidity":69,"rain":0.0,"pressure":991.6,"uv_index":7.4,"wind_gusts":34.9,"aqi":86,"pm10":35.6,"pm2_5":21.1,"no2":1.7,"co":155.0,"o3":79.0,"so2":1.1,"mosquito_risk":3,"arthritis_risk":5,"migraine_risk":7,"frizz_risk":1,"updated_at":"2026-05-14T17:57:22.352831+05:30"},{"city":"Jodhpur","state":"Rajasthan","latitude":26.2389,"longitude":73.0243,"temp":41.1,"humidity":17,"rain":0.0,"pressure":974.3,"uv_index":8.4,"wind_gusts":36.7,"aqi":107,"pm10":188.6,"pm2_5":41.0,"no2":1.4,"co":158.0,"o3":119.0,"so2":3.5,"mosquito_risk":0,"arthritis_risk":5,"migraine_risk":10,"frizz_risk":0,"updated_at":"2026-05-14T17:57:22.352837+05:30"},{"city":"Udaipur","state":"Rajasthan","latitude":24.5854,"longitude":73.7125,"temp":38.1,"humidity":15,"rain":0.0,"pressure":939.9,"uv_index":8.85,"wind_gusts":40.0,"aqi":77,"pm10":63.3,"pm2_5":17.8,"no2":0.9,"co":144.0,"o3":106.0,"so2":2.4,"mosquito_risk":0,"arthritis_risk":5,"migraine_risk":10,"frizz_risk":0,"updated_at":"2026-05-14T17:57:22.352843+05:30"},{"city":"Kota","state":"Rajasthan","latitude":25.2138,"longitude":75.8648,"temp":41.5,"humidity":14,"rain":0.0,"pressure":969.9,"uv_index":8.4,"wind_gusts":32.0,"aqi":126,"pm10":41.7,"pm2_5":18.9,"no2":2.0,"co":189.0,"o3":152.0,"so2":7.3,"mosquito_risk":0,"arthritis_risk":5,"migraine_risk":10,"frizz_risk":0,"updated_at":"2026-05-14T17:57:22.352850+05:30"},{"city":"Bikaner","state":"Rajasthan","latitude":28.0229,"longitude":73.3119,"temp":40.7,"humidity":15,"rain":0.0,"pressure":973.5,"uv_index":8.35,"wind_gusts":32.8,"aqi":87,"pm10":117.1,"pm2_5":29.7,"no2":0.6,"co":215.0,"o3":113.0,"so2":2.6,"mosquito_risk":0,"arthritis_risk":5,"migraine_risk":10,"frizz_risk":0,"updated_at":"2026-05-14T17:57:22.352855+05:30"},{"city":"Ajmer","state":"Rajasthan","latitude":26.4499,"longitude":74.6399,"temp":37.7,"humidity":19,"rain":0.0,"pressure":948.0,"uv_index":8.4,"wind_gusts":32.4,"aqi":86,"pm10":75.0,"pm2_5":24.0,"no2":1.3,"co":152.0,"o3":121.0,"so2":2.6,"mosquito_risk":0,"arthritis_risk":5,"migraine_risk":10,"frizz_risk":0,"updated_at":"2026-05-14T17:57:22.352861+05:30"},{"city":"Gwalior","state":"Madhya Pradesh","latitude":26.2183,"longitude":78.1828,"temp":38.8,"humidity":19,"rain":0.0,"pressure":975.5,"uv_index":8.25,"wind_gusts":33.1,"aqi":139,"pm10":103.4,"pm2_5":31.9,"no2":1.6,"co":192.0,"o3":123.0,"so2":4.3,"mosquito_risk":0,"arthritis_risk":5,"migraine_risk":10,"frizz_risk":0,"updated_at":"2026-05-14T17:57:22.352866+05:30"},{"city":"Indore","state":"Madhya Pradesh","latitude":22.7196,"longitude":75.8577,"temp":39.0,"humidity":17,"rain":0.0,"pressure":941.7,"uv_index":8.75,"wind_gusts":41.8,"aqi":95,"pm10":38.3,"pm2_5":18.5,"no2":1.9,"co":223.0,"o3":129.0,"so2":3.6,"mosquito_risk":0,"arthritis_risk":5,"migraine_risk":10,"frizz_risk":0,"updated_at":"2026-05-14T17:57:22.352872+05:30"},{"city":"Bhopal","state":"Madhya Pradesh","latitude":23.2599,"longitude":77.4126,"temp":39.7,"humidity":16,"rain":0.0,"pressure":946.6,"uv_index":8.75,"wind_gusts":36.4,"aqi":102,"pm10":59.6,"pm2_5":29.5,"no2":1.6,"co":210.0,"o3":132.0,"so2":4.0,"mosquito_risk":0,"arthritis_risk":5,"migraine_risk":10,"frizz_risk":0,"updated_at":"2026-05-14T17:57:22.352878+05:30"},{"city":"Jabalpur","state":"Madhya Pradesh","latitude":23.1815,"longitude":79.9864,"temp":39.9,"humidity":17,"rain":0.0,"pressure":954.0,"uv_index":8.9,"wind_gusts":40.3,"aqi":129,"pm10":53.0,"pm2_5":26.6,"no2":2.9,"co":184.0,"o3":131.0,"so2":4.9,"mosquito_risk":0,"arthritis_risk":5,"migraine_risk":10,"frizz_risk":0,"updated_at":"2026-05-14T17:57:22.352884+05:30"},{"city":"Ujjain","state":"Madhya Pradesh","latitude":23.1765,"longitude":75.7885,"temp":39.3,"humidity":16,"rain":0.0,"pressure":946.8,"uv_index":8.65,"wind_gusts":41.4,"aqi":81,"pm10":41.4,"pm2_5":19.6,"no2":1.0,"co":190.0,"o3":123.0,"so2":3.1,"mosquito_risk":0,"arthritis_risk":5,"migraine_risk":10,"frizz_risk":0,"updated_at":"2026-05-14T17:57:22.352891+05:30"},{"city":"Visakhapatnam","state":"Andhra Pradesh","latitude":17.6868,"longitude":83.2185,"temp":30.5,"humidity":72,"rain":0.0,"pressure":998.1,"uv_index":8.8,"wind_gusts":45.4,"aqi":68,"pm10":14.1,"pm2_5":11.2,"no2":15.1,"co":343.0,"o3":33.0,"so2":37.1,"mosquito_risk":3,"arthritis_risk":5,"migraine_risk":7,"frizz_risk":1,"updated_at":"2026-05-14T17:57:22.352897+05:30"},{"city":"Vijayawada","state":"Andhra Pradesh","latitude":16.5062,"longitude":80.648,"temp":34.4,"humidity":55,"rain":0.2,"pressure":995.9,"uv_index":8.2,"wind_gusts":27.7,"aqi":73,"pm10":21.1,"pm2_5":14.8,"no2":4.7,"co":242.0,"o3":87.0,"so2":8.3,"mosquito_risk":3,"arthritis_risk":5,"migraine_risk":7,"frizz_risk":1,"updated_at":"2026-05-14T17:57:22.352902+05:30"},{"city":"Guntur","state":"Andhra Pradesh","latitude":16.3067,"longitude":80.4365,"temp":34.3,"humidity":55,"rain":0.0,"pressure":996.9,"uv_index":8.15,"wind_gusts":32.0,"aqi":77,"pm10":30.2,"pm2_5":20.5,"no2":4.2,"co":186.0,"o3":114.0,"so2":7.7,"mosquito_risk":0,"arthritis_risk":5,"migraine_risk":7,"frizz_risk":1,"updated_at":"2026-05-14T17:57:22.352908+05:30"},{"city":"Nellore","state":"Andhra Pradesh","latitude":14.4426,"longitude":79.9865,"temp":32.0,"humidity":62,"rain":0.0,"pressure":999.4,"uv_index":9.0,"wind_gusts":37.1,"aqi":32,"pm10":15.2,"pm2_5":8.3,"no2":2.5,"co":130.0,"o3":53.0,"so2":2.5,"mosquito_risk":3,"arthritis_risk":5,"migraine_risk":7,"frizz_risk":1,"updated_at":"2026-05-14T17:57:22.352915+05:30"},{"city":"Kurnool","state":"Andhra Pradesh","latitude":15.8281,"longitude":78.0373,"temp":37.3,"humidity":31,"rain":0.0,"pressure":969.9,"uv_index":9.0,"wind_gusts":34.9,"aqi":104,"pm10":54.0,"pm2_5":29.3,"no2":1.6,"co":201.0,"o3":140.0,"so2":6.2,"mosquito_risk":0,"arthritis_risk":5,"migraine_risk":10,"frizz_risk":1,"updated_at":"2026-05-14T17:57:22.352921+05:30"},{"city":"Kakinada","state":"Andhra Pradesh","latitude":16.9891,"longitude":82.2475,"temp":30.4,"humidity":74,"rain":0.0,"pressure":1001.6,"uv_index":6.7,"wind_gusts":43.9,"aqi":29,"pm10":8.4,"pm2_5":4.9,"no2":1.2,"co":143.0,"o3":51.0,"so2":0.8,"mosquito_risk":3,"arthritis_risk":5,"migraine_risk":4,"frizz_risk":1,"updated_at":"2026-05-14T17:57:22.352927+05:30"},{"city":"Tirupati","state":"Andhra Pradesh","latitude":13.6288,"longitude":79.4192,"temp":32.5,"humidity":55,"rain":0.0,"pressure":984.7,"uv_index":9.1,"wind_gusts":37.4,"aqi":57,"pm10":23.5,"pm2_5":12.0,"no2":3.3,"co":171.0,"o3":78.0,"so2":2.5,"mosquito_risk":0,"arthritis_risk":5,"migraine_risk":7,"frizz_risk":1,"updated_at":"2026-05-14T17:57:22.352932+05:30"},{"city":"Warangal","state":"Telangana","latitude":17.9689,"longitude":79.5941,"temp":36.5,"humidity":38,"rain":0.0,"pressure":971.7,"uv_index":8.3,"wind_gusts":30.2,"aqi":102,"pm10":63.1,"pm2_5":33.8,"no2":3.4,"co":228.0,"o3":147.0,"so2":5.9,"mosquito_risk":0,"arthritis_risk":5,"migraine_risk":10,"frizz_risk":1,"updated_at":"2026-05-14T17:57:22.352937+05:30"},{"city":"Nizamabad","state":"Telangana","latitude":18.6725,"longitude":78.0941,"temp":37.5,"humidity":29,"rain":0.0,"pressure":957.9,"uv_index":9.15,"wind_gusts":34.2,"aqi":131,"pm10":75.9,"pm2_5":37.1,"no2":1.9,"co":231.0,"o3":145.0,"so2":6.2,"mosquito_risk":0,"arthritis_risk":5,"migraine_risk":10,"frizz_risk":1,"updated_at":"2026-05-14T17:57:22.352943+05:30"},{"city":"Mysore","state":"Karnataka","latitude":12.2958,"longitude":76.6396,"temp":31.4,"humidity":40,"rain":0.0,"pressure":923.3,"uv_index":9.25,"wind_gusts":35.3,"aqi":105,"pm10":62.6,"pm2_5":31.3,"no2":9.2,"co":238.0,"o3":129.0,"so2":5.2,"mosquito_risk":0,"arthritis_risk":5,"migraine_risk":7,"frizz_risk":1,"updated_at":"2026-05-14T17:57:22.352948+05:30"},{"city":"Mangalore","state":"Karnataka","latitude":12.9141,"longitude":74.856,"temp":27.2,"humidity":94,"rain":0.0,"pressure":1000.9,"uv_index":8.95,"wind_gusts":42.1,"aqi":80,"pm10":67.3,"pm2_5":29.0,"no2":2.7,"co":160.0,"o3":83.0,"so2":1.9,"mosquito_risk":7,"arthritis_risk":5,"migraine_risk":4,"frizz_risk":1,"updated_at":"2026-05-14T17:57:22.352954+05:30"},{"city":"Hubli-Dharwad","state":"Karnataka","latitude":15.3647,"longitude":75.124,"temp":31.5,"humidity":48,"rain":0.0,"pressure":935.3,"uv_index":8.65,"wind_gusts":37.4,"aqi":117,"pm10":47.8,"pm2_5":30.3,"no2":5.8,"co":223.0,"o3":130.0,"so2":2.8,"mosquito_risk":0,"arthritis_risk":5,"migraine_risk":7,"frizz_risk":1,"updated_at":"2026-05-14T17:57:22.352959+05:30"},{"city":"Belgaum","state":"Karnataka","latitude":15.8497,"longitude":74.4977,"temp":29.9,"humidity":63,"rain":0.0,"pressure":920.8,"uv_index":9.0,"wind_gusts":35.6,"aqi":119,"pm10":46.4,"pm2_5":27.2,"no2":4.0,"co":190.0,"o3":111.0,"so2":2.7,"mosquito_risk":7,"arthritis_risk":5,"migraine_risk":7,"frizz_risk":1,"updated_at":"2026-05-14T17:57:25.673816+05:30"},{"city":"Coimbatore","state":"Tamil Nadu","latitude":11.0168,"longitude":76.9558,"temp":28.4,"humidity":73,"rain":0.0,"pressure":956.4,"uv_index":9.1,"wind_gusts":40.0,"aqi":97,"pm10":55.2,"pm2_5":29.5,"no2":6.8,"co":246.0,"o3":115.0,"so2":4.0,"mosquito_risk":7,"arthritis_risk":5,"migraine_risk":7,"frizz_risk":1,"updated_at":"2026-05-14T17:57:25.673849+05:30"},{"city":"Madurai","state":"Tamil Nadu","latitude":9.9252,"longitude":78.1198,"temp":31.4,"humidity":66,"rain":0.0,"pressure":986.8,"uv_index":7.35,"wind_gusts":24.8,"aqi":93,"pm10":42.5,"pm2_5":33.8,"no2":22.5,"co":243.0,"o3":119.0,"so2":9.2,"mosquito_risk":3,"arthritis_risk":5,"migraine_risk":7,"frizz_risk":1,"updated_at":"2026-05-14T17:57:25.673859+05:30"},{"city":"Trichy","state":"Tamil Nadu","latitude":10.7905,"longitude":78.7047,"temp":30.8,"humidity":73,"rain":0.0,"pressure":993.2,"uv_index":7.7,"wind_gusts":25.6,"aqi":92,"pm10":45.1,"pm2_5":35.9,"no2":18.5,"co":283.0,"o3":117.0,"so2":14.1,"mosquito_risk":3,"arthritis_risk":5,"migraine_risk":7,"frizz_risk":1,"updated_at":"2026-05-14T17:57:25.673866+05:30"},{"city":"Salem","state":"Tamil Nadu","latitude":11.6643,"longitude":78.146,"temp":33.6,"humidity":42,"rain":0.0,"pressure":970.6,"uv_index":9.1,"wind_gusts":35.3,"aqi":160,"pm10":51.5,"pm2_5":29.3,"no2":10.1,"co":315.0,"o3":139.0,"so2":9.7,"mosquito_risk":0,"arthritis_risk":5,"migraine_risk":7,"frizz_risk":1,"updated_at":"2026-05-14T17:57:25.673872+05:30"},{"city":"Tirunelveli","state":"Tamil Nadu","latitude":8.7139,"longitude":77.7567,"temp":30.8,"humidity":71,"rain":0.0,"pressure":997.6,"uv_index":3.45,"wind_gusts":17.3,"aqi":61,"pm10":7.9,"pm2_5":6.4,"no2":5.2,"co":223.0,"o3":87.0,"so2":1.7,"mosquito_risk":3,"arthritis_risk":5,"migraine_risk":3,"frizz_risk":1,"updated_at":"2026-05-14T17:57:25.673879+05:30"},{"city":"Vellore","state":"Tamil Nadu","latitude":12.9165,"longitude":79.1325,"temp":33.2,"humidity":49,"rain":0.0,"pressure":978.1,"uv_index":8.15,"wind_gusts":36.4,"aqi":86,"pm10":36.1,"pm2_5":18.9,"no2":5.0,"co":243.0,"o3":113.0,"so2":6.7,"mosquito_risk":0,"arthritis_risk":5,"migraine_risk":7,"frizz_risk":1,"updated_at":"2026-05-14T17:57:25.673884+05:30"},{"city":"Erode","state":"Tamil Nadu","latitude":11.341,"longitude":77.7172,"temp":34.6,"humidity":38,"rain":0.0,"pressure":982.1,"uv_index":9.1,"wind_gusts":28.1,"aqi":131,"pm10":61.5,"pm2_5":34.1,"no2":12.6,"co":395.0,"o3":149.0,"so2":5.7,"mosquito_risk":0,"arthritis_risk":5,"migraine_risk":7,"frizz_risk":1,"updated_at":"2026-05-14T17:57:25.673890+05:30"},{"city":"Kochi","state":"Kerala","latitude":9.9312,"longitude":76.2673,"temp":27.2,"humidity":84,"rain":0.2,"pressure":1004.6,"uv_index":8.3,"wind_gusts":41.8,"aqi":84,"pm10":21.8,"pm2_5":13.2,"no2":9.5,"co":192.0,"o3":77.0,"so2":3.5,"mosquito_risk":10,"arthritis_risk":5,"migraine_risk":4,"frizz_risk":1,"updated_at":"2026-05-14T17:57:25.673897+05:30"},{"city":"Thiruvananthapuram","state":"Kerala","latitude":8.5241,"longitude":76.9366,"temp":26.8,"humidity":89,"rain":0.0,"pressure":1003.9,"uv_index":7.5,"wind_gusts":42.1,"aqi":56,"pm10":16.2,"pm2_5":9.6,"no2":2.5,"co":168.0,"o3":99.0,"so2":1.1,"mosquito_risk":7,"arthritis_risk":5,"migraine_risk":4,"frizz_risk":1,"updated_at":"2026-05-14T17:57:25.673903+05:30"},{"city":"Kozhikode","state":"Kerala","latitude":11.2588,"longitude":75.7804,"temp":27.3,"humidity":90,"rain":0.0,"pressure":1002.8,"uv_index":8.25,"wind_gusts":40.3,"aqi":74,"pm10":58.0,"pm2_5":25.6,"no2":1.2,"co":180.0,"o3":90.0,"so2":0.9,"mosquito_risk":7,"arthritis_risk":5,"migraine_risk":4,"frizz_risk":1,"updated_at":"2026-05-14T17:57:25.673908+05:30"},{"city":"Thrissur","state":"Kerala","latitude":10.5276,"longitude":76.2144,"temp":24.5,"humidity":98,"rain":0.0,"pressure":1002.8,"uv_index":8.9,"wind_gusts":37.8,"aqi":87,"pm10":22.0,"pm2_5":14.2,"no2":6.9,"co":196.0,"o3":83.0,"so2":2.7,"mosquito_risk":3,"arthritis_risk":5,"migraine_risk":4,"frizz_risk":1,"updated_at":"2026-05-14T17:57:25.673915+05:30"},{"city":"Kannur","state":"Kerala","latitude":11.8745,"longitude":75.3704,"temp":28.8,"humidity":87,"rain":0.0,"pressure":1001.5,"uv_index":8.95,"wind_gusts":41.8,"aqi":88,"pm10":61.5,"pm2_5":32.7,"no2":4.3,"co":172.0,"o3":89.0,"so2":1.8,"mosquito_risk":7,"arthritis_risk":5,"migraine_risk":4,"frizz_risk":1,"updated_at":"2026-05-14T17:57:25.673921+05:30"},{"city":"Patna","state":"Bihar","latitude":25.5941,"longitude":85.1376,"temp":30.9,"humidity":64,"rain":0.0,"pressure":993.1,"uv_index":8.8,"wind_gusts":30.2,"aqi":176,"pm10":64.5,"pm2_5":49.6,"no2":8.4,"co":394.0,"o3":184.0,"so2":17.9,"mosquito_risk":3,"arthritis_risk":5,"migraine_risk":7,"frizz_risk":1,"updated_at":"2026-05-14T17:57:25.673926+05:30"},{"city":"Gaya","state":"Bihar","latitude":24.7914,"longitude":85.0002,"temp":33.0,"humidity":50,"rain":0.0,"pressure":986.2,"uv_index":8.85,"wind_gusts":21.2,"aqi":189,"pm10":74.0,"pm2_5":56.7,"no2":7.3,"co":395.0,"o3":187.0,"so2":17.7,"mosquito_risk":0,"arthritis_risk":5,"migraine_risk":7,"frizz_risk":1,"updated_at":"2026-05-14T17:57:25.673931+05:30"},{"city":"Muzaffarpur","state":"Bihar","latitude":26.1209,"longitude":85.3647,"temp":29.9,"humidity":69,"rain":0.0,"pressure":993.3,"uv_index":8.85,"wind_gusts":34.2,"aqi":161,"pm10":66.8,"pm2_5":49.6,"no2":12.9,"co":420.0,"o3":149.0,"so2":16.1,"mosquito_risk":7,"arthritis_risk":5,"migraine_risk":7,"frizz_risk":1,"updated_at":"2026-05-14T17:57:25.673937+05:30"},{"city":"Bhagalpur","state":"Bihar","latitude":25.2425,"longitude":87.0117,"temp":30.3,"humidity":65,"rain":0.0,"pressure":994.4,"uv_index":8.75,"wind_gusts":26.6,"aqi":142,"pm10":74.0,"pm2_5":45.4,"no2":9.1,"co":355.0,"o3":173.0,"so2":25.4,"mosquito_risk":3,"arthritis_risk":5,"migraine_risk":7,"frizz_risk":1,"updated_at":"2026-05-14T17:57:25.673941+05:30"},{"city":"Ranchi","state":"Jharkhand","latitude":23.3441,"longitude":85.3096,"temp":30.6,"humidity":47,"rain":0.0,"pressure":931.6,"uv_index":9.3,"wind_gusts":33.8,"aqi":147,"pm10":49.7,"pm2_5":28.2,"no2":7.3,"co":317.0,"o3":134.0,"so2":9.7,"mosquito_risk":0,"arthritis_risk":5,"migraine_risk":7,"frizz_risk":1,"updated_at":"2026-05-14T17:57:25.673947+05:30"},{"city":"Jamshedpur","state":"Jharkhand","latitude":22.8046,"longitude":86.2029,"temp":34.0,"humidity":50,"rain":0.0,"pressure":983.4,"uv_index":9.1,"wind_gusts":31.0,"aqi":173,"pm10":63.8,"pm2_5":41.0,"no2":9.7,"co":270.0,"o3":158.0,"so2":17.9,"mosquito_risk":0,"arthritis_risk":5,"migraine_risk":7,"frizz_risk":1,"updated_at":"2026-05-14T17:57:25.673953+05:30"},{"city":"Dhanbad","state":"Jharkhand","latitude":23.7957,"longitude":86.4304,"temp":32.7,"humidity":55,"rain":0.0,"pressure":972.7,"uv_index":9.05,"wind_gusts":32.0,"aqi":201,"pm10":107.6,"pm2_5":78.0,"no2":34.8,"co":280.0,"o3":169.0,"so2":95.6,"mosquito_risk":0,"arthritis_risk":5,"migraine_risk":7,"frizz_risk":1,"updated_at":"2026-05-14T17:57:25.673958+05:30"},{"city":"Bokaro","state":"Jharkhand","latitude":23.6693,"longitude":86.1511,"temp":32.8,"humidity":49,"rain":0.0,"pressure":976.2,"uv_index":9.1,"wind_gusts":23.4,"aqi":184,"pm10":93.6,"pm2_5":63.6,"no2":29.2,"co":289.0,"o3":129.0,"so2":88.8,"mosquito_risk":0,"arthritis_risk":5,"migraine_risk":7,"frizz_risk":1,"updated_at":"2026-05-14T17:57:25.673964+05:30"},{"city":"Bhubaneswar","state":"Odisha","latitude":20.2961,"longitude":85.8245,"temp":30.0,"humidity":74,"rain":0.0,"pressure":997.2,"uv_index":9.15,"wind_gusts":44.3,"aqi":43,"pm10":9.4,"pm2_5":6.7,"no2":4.0,"co":175.0,"o3":50.0,"so2":2.2,"mosquito_risk":7,"arthritis_risk":5,"migraine_risk":7,"frizz_risk":1,"updated_at":"2026-05-14T17:57:25.673969+05:30"},{"city":"Cuttack","state":"Odisha","latitude":20.4625,"longitude":85.8828,"temp":30.9,"humidity":71,"rain":0.0,"pressure":998.9,"uv_index":9.2,"wind_gusts":47.5,"aqi":43,"pm10":9.4,"pm2_5":6.7,"no2":4.0,"co":181.0,"o3":50.0,"so2":2.2,"mosquito_risk":3,"arthritis_risk":5,"migraine_risk":7,"frizz_risk":1,"updated_at":"2026-05-14T17:57:25.673974+05:30"},{"city":"Rourkela","state":"Odisha","latitude":22.2604,"longitude":84.8536,"temp":34.9,"humidity":48,"rain":0.0,"pressure":977.9,"uv_index":9.05,"wind_gusts":55.1,"aqi":160,"pm10":70.3,"pm2_5":39.8,"no2":11.1,"co":300.0,"o3":143.0,"so2":11.2,"mosquito_risk":0,"arthritis_risk":5,"migraine_risk":7,"frizz_risk":1,"updated_at":"2026-05-14T17:57:25.673979+05:30"},{"city":"Raipur","state":"Chhattisgarh","latitude":21.2514,"longitude":81.6296,"temp":38.5,"humidity":26,"rain":0.0,"pressure":967.4,"uv_index":9.1,"wind_gusts":39.2,"aqi":144,"pm10":92.7,"pm2_5":49.0,"no2":16.6,"co":214.0,"o3":139.0,"so2":34.3,"mosquito_risk":0,"arthritis_risk":5,"migraine_risk":10,"frizz_risk":0,"updated_at":"2026-05-14T17:57:25.673984+05:30"},{"city":"Bhilai","state":"Chhattisgarh","latitude":21.1938,"longitude":81.3509,"temp":38.7,"humidity":24,"rain":0.0,"pressure":967.7,"uv_index":9.1,"wind_gusts":37.8,"aqi":119,"pm10":91.3,"pm2_5":46.1,"no2":17.0,"co":219.0,"o3":125.0,"so2":32.8,"mosquito_risk":0,"arthritis_risk":5,"migraine_risk":10,"frizz_risk":0,"updated_at":"2026-05-14T17:57:25.673989+05:30"},{"city":"Guwahati","state":"Assam","latitude":26.1158,"longitude":91.7086,"temp":25.8,"humidity":87,"rain":0.0,"pressure":995.8,"uv_index":8.7,"wind_gusts":29.9,"aqi":71,"pm10":14.0,"pm2_5":11.1,"no2":4.4,"co":326.0,"o3":94.0,"so2":1.9,"mosquito_risk":7,"arthritis_risk":5,"migraine_risk":7,"frizz_risk":1,"updated_at":"2026-05-14T17:57:25.673994+05:30"},{"city":"Agartala","state":"Tripura","latitude":23.8315,"longitude":91.2868,"temp":25.1,"humidity":96,"rain":0.1,"pressure":1001.3,"uv_index":8.8,"wind_gusts":27.7,"aqi":69,"pm10":20.1,"pm2_5":16.1,"no2":10.8,"co":188.0,"o3":85.0,"so2":4.3,"mosquito_risk":10,"arthritis_risk":5,"migraine_risk":4,"frizz_risk":1,"updated_at":"2026-05-14T17:57:25.673999+05:30"},{"city":"Shillong","state":"Meghalaya","latitude":25.5788,"longitude":91.8933,"temp":18.3,"humidity":92,"rain":0.0,"pressure":852.7,"uv_index":8.75,"wind_gusts":29.9,"aqi":59,"pm10":15.4,"pm2_5":11.1,"no2":5.7,"co":253.0,"o3":101.0,"so2":2.5,"mosquito_risk":3,"arthritis_risk":10,"migraine_risk":7,"frizz_risk":1,"updated_at":"2026-05-14T17:57:25.674004+05:30"},{"city":"Imphal","state":"Manipur","latitude":24.817,"longitude":93.9368,"temp":25.4,"humidity":69,"rain":0.0,"pressure":918.7,"uv_index":9.25,"wind_gusts":29.9,"aqi":91,"pm10":20.7,"pm2_5":14.8,"no2":6.7,"co":281.0,"o3":82.0,"so2":2.4,"mosquito_risk":7,"arthritis_risk":5,"migraine_risk":7,"frizz_risk":1,"updated_at":"2026-05-14T17:57:25.674010+05:30"},{"city":"Aizawl","state":"Mizoram","latitude":23.7271,"longitude":92.7176,"temp":23.0,"humidity":67,"rain":0.0,"pressure":888.8,"uv_index":8.5,"wind_gusts":29.2,"aqi":57,"pm10":13.6,"pm2_5":8.5,"no2":4.1,"co":177.0,"o3":68.0,"so2":1.3,"mosquito_risk":3,"arthritis_risk":5,"migraine_risk":7,"frizz_risk":1,"updated_at":"2026-05-14T17:57:25.674015+05:30"},{"city":"Kohima","state":"Nagaland","latitude":25.6701,"longitude":94.1077,"temp":19.0,"humidity":99,"rain":0.0,"pressure":851.6,"uv_index":8.65,"wind_gusts":29.9,"aqi":65,"pm10":17.5,"pm2_5":13.4,"no2":6.1,"co":238.0,"o3":74.0,"so2":1.5,"mosquito_risk":3,"arthritis_risk":10,"migraine_risk":7,"frizz_risk":1,"updated_at":"2026-05-14T17:57:25.674021+05:30"},{"city":"Gangtok","state":"Sikkim","latitude":27.3314,"longitude":88.6138,"temp":16.1,"humidity":98,"rain":0.2,"pressure":832.4,"uv_index":9.0,"wind_gusts":38.5,"aqi":77,"pm10":11.7,"pm2_5":10.0,"no2":5.2,"co":325.0,"o3":116.0,"so2":1.9,"mosquito_risk":6,"arthritis_risk":10,"migraine_risk":7,"frizz_risk":0,"updated_at":"2026-05-14T17:57:25.674026+05:30"},{"city":"Siliguri","state":"West Bengal","latitude":26.7271,"longitude":88.3953,"temp":27.0,"humidity":77,"rain":0.0,"pressure":986.9,"uv_index":8.65,"wind_gusts":26.3,"aqi":88,"pm10":25.8,"pm2_5":21.1,"no2":8.9,"co":610.0,"o3":122.0,"so2":3.8,"mosquito_risk":7,"arthritis_risk":5,"migraine_risk":7,"frizz_risk":1,"updated_at":"2026-05-14T17:57:28.996025+05:30"},{"city":"Durgapur","state":"West Bengal","latitude":23.5204,"longitude":87.3119,"temp":32.0,"humidity":65,"rain":0.0,"pressure":987.9,"uv_index":9.0,"wind_gusts":39.2,"aqi":203,"pm10":110.4,"pm2_5":89.2,"no2":30.3,"co":252.0,"o3":194.0,"so2":65.7,"mosquito_risk":3,"arthritis_risk":5,"migraine_risk":7,"frizz_risk":1,"updated_at":"2026-05-14T17:57:28.996057+05:30"},{"city":"Asansol","state":"West Bengal","latitude":23.6739,"longitude":86.9524,"temp":32.6,"humidity":57,"rain":0.0,"pressure":986.4,"uv_index":9.05,"wind_gusts":34.6,"aqi":204,"pm10":99.0,"pm2_5":78.9,"no2":29.5,"co":633.0,"o3":186.0,"so2":52.9,"mosquito_risk":0,"arthritis_risk":5,"migraine_risk":7,"frizz_risk":1,"updated_at":"2026-05-14T17:57:28.996066+05:30"},{"city":"Pondicherry","state":"Puducherry","latitude":11.9139,"longitude":79.8145,"temp":29.5,"humidity":78,"rain":0.0,"pressure":1002.0,"uv_index":8.45,"wind_gusts":36.0,"aqi":52,"pm10":12.7,"pm2_5":8.7,"no2":4.5,"co":243.0,"o3":53.0,"so2":3.9,"mosquito_risk":7,"arthritis_risk":5,"migraine_risk":4,"frizz_risk":1,"updated_at":"2026-05-14T17:57:28.996074+05:30"},{"city":"Port Blair","state":"Andaman and Nicobar Islands","latitude":11.6234,"longitude":92.7265,"temp":25.3,"humidity":99,"rain":0.2,"pressure":1004.2,"uv_index":7.95,"wind_gusts":36.4,"aqi":30,"pm10":3.9,"pm2_5":2.6,"no2":0.6,"co":152.0,"o3":57.0,"so2":0.1,"mosquito_risk":10,"arthritis_risk":5,"migraine_risk":4,"frizz_risk":1,"updated_at":"2026-05-14T17:57:28.996081+05:30"},{"city":"Haridwar","state":"Uttarakhand","latitude":29.9457,"longitude":78.1642,"temp":32.3,"humidity":48,"rain":0.0,"pressure":968.0,"uv_index":7.5,"wind_gusts":41.4,"aqi":167,"pm10":59.3,"pm2_5":38.4,"no2":2.8,"co":370.0,"o3":184.0,"so2":12.3,"mosquito_risk":0,"arthritis_risk":5,"migraine_risk":7,"frizz_risk":1,"updated_at":"2026-05-14T17:57:28.996088+05:30"},{"city":"Rishikesh","state":"Uttarakhand","latitude":30.0869,"longitude":78.2676,"temp":31.5,"humidity":50,"rain":0.0,"pressure":960.8,"uv_index":7.6,"wind_gusts":37.1,"aqi":159,"pm10":41.4,"pm2_5":30.6,"no2":1.5,"co":310.0,"o3":179.0,"so2":8.4,"mosquito_risk":0,"arthritis_risk":5,"migraine_risk":7,"frizz_risk":1,"updated_at":"2026-05-14T17:57:28.996094+05:30"},{"city":"Nainital","state":"Uttarakhand","latitude":29.3919,"longitude":79.4542,"temp":19.0,"humidity":73,"rain":0.0,"pressure":802.8,"uv_index":8.45,"wind_gusts":41.8,"aqi":152,"pm10":74.3,"pm2_5":41.2,"no2":2.7,"co":256.0,"o3":182.0,"so2":12.4,"mosquito_risk":3,"arthritis_risk":5,"migraine_risk":7,"frizz_risk":0,"updated_at":"2026-05-14T17:57:28.996101+05:30"},{"city":"Mussoorie","state":"Uttarakhand","latitude":30.4599,"longitude":78.0664,"temp":18.7,"humidity":63,"rain":0.0,"pressure":800.9,"uv_index":7.95,"wind_gusts":50.0,"aqi":163,"pm10":57.6,"pm2_5":37.5,"no2":2.9,"co":283.0,"o3":189.0,"so2":12.8,"mosquito_risk":3,"arthritis_risk":5,"migraine_risk":7,"frizz_risk":0,"updated_at":"2026-05-14T17:57:28.996108+05:30"},{"city":"Dharamshala","state":"Himachal Pradesh","latitude":32.219,"longitude":76.3234,"temp":23.8,"humidity":43,"rain":0.0,"pressure":866.4,"uv_index":8.35,"wind_gusts":48.6,"aqi":94,"pm10":16.8,"pm2_5":8.4,"no2":1.2,"co":211.0,"o3":137.0,"so2":1.0,"mosquito_risk":0,"arthritis_risk":5,"migraine_risk":7,"frizz_risk":0,"updated_at":"2026-05-14T17:57:28.996114+05:30"},{"city":"Dalhousie","state":"Himachal Pradesh","latitude":32.5387,"longitude":75.971,"temp":20.3,"humidity":35,"rain":0.0,"pressure":803.1,"uv_index":8.55,"wind_gusts":36.4,"aqi":115,"pm10":22.4,"pm2_5":12.6,"no2":3.8,"co":181.0,"o3":149.0,"so2":1.6,"mosquito_risk":0,"arthritis_risk":5,"migraine_risk":7,"frizz_risk":0,"updated_at":"2026-05-14T17:57:28.996120+05:30"},{"city":"Patiala","state":"Punjab","latitude":30.3398,"longitude":76.3869,"temp":35.7,"humidity":23,"rain":0.0,"pressure":972.1,"uv_index":7.6,"wind_gusts":33.8,"aqi":155,"pm10":237.5,"pm2_5":53.8,"no2":5.0,"co":245.0,"o3":140.0,"so2":6.6,"mosquito_risk":0,"arthritis_risk":5,"migraine_risk":10,"frizz_risk":0,"updated_at":"2026-05-14T17:57:28.996157+05:30"},{"city":"Bhatinda","state":"Punjab","latitude":30.211,"longitude":74.9455,"temp":37.5,"humidity":20,"rain":0.0,"pressure":976.9,"uv_index":8.25,"wind_gusts":33.1,"aqi":175,"pm10":271.9,"pm2_5":72.6,"no2":3.7,"co":287.0,"o3":162.0,"so2":17.2,"mosquito_risk":0,"arthritis_risk":5,"migraine_risk":10,"frizz_risk":0,"updated_at":"2026-05-14T17:57:28.996164+05:30"},{"city":"Rohtak","state":"Haryana","latitude":28.8955,"longitude":76.6066,"temp":36.2,"humidity":27,"rain":0.0,"pressure":974.5,"uv_index":7.75,"wind_gusts":26.3,"aqi":284,"pm10":381.8,"pm2_5":95.7,"no2":7.9,"co":271.0,"o3":190.0,"so2":15.1,"mosquito_risk":0,"arthritis_risk":5,"migraine_risk":10,"frizz_risk":0,"updated_at":"2026-05-14T17:57:28.996171+05:30"},{"city":"Panipat","state":"Haryana","latitude":29.3909,"longitude":76.9635,"temp":35.8,"humidity":28,"rain":0.0,"pressure":973.6,"uv_index":7.55,"wind_gusts":21.2,"aqi":284,"pm10":389.3,"pm2_5":93.8,"no2":7.8,"co":304.0,"o3":191.0,"so2":30.1,"mosquito_risk":0,"arthritis_risk":5,"migraine_risk":10,"frizz_risk":0,"updated_at":"2026-05-14T17:57:28.996176+05:30"},{"city":"Mathura","state":"Uttar Pradesh","latitude":27.4924,"longitude":77.6737,"temp":36.8,"humidity":28,"rain":0.0,"pressure":979.2,"uv_index":7.8,"wind_gusts":31.7,"aqi":301,"pm10":216.1,"pm2_5":53.6,"no2":10.6,"co":247.0,"o3":115.0,"so2":5.2,"mosquito_risk":0,"arthritis_risk":5,"migraine_risk":10,"frizz_risk":0,"updated_at":"2026-05-14T17:57:28.996182+05:30"},{"city":"Vrindavan","state":"Uttar Pradesh","latitude":27.5823,"longitude":77.7027,"temp":36.5,"humidity":31,"rain":0.0,"pressure":979.6,"uv_index":7.8,"wind_gusts":34.6,"aqi":301,"pm10":216.1,"pm2_5":53.6,"no2":10.6,"co":240.0,"o3":115.0,"so2":5.2,"mosquito_risk":0,"arthritis_risk":5,"migraine_risk":10,"frizz_risk":1,"updated_at":"2026-05-14T17:57:28.996189+05:30"},{"city":"Ayodhya","state":"Uttar Pradesh","latitude":26.7922,"longitude":82.1998,"temp":32.5,"humidity":51,"rain":0.0,"pressure":987.7,"uv_index":8.35,"wind_gusts":32.0,"aqi":160,"pm10":90.3,"pm2_5":46.8,"no2":4.5,"co":367.0,"o3":164.0,"so2":10.4,"mosquito_risk":0,"arthritis_risk":5,"migraine_risk":7,"frizz_risk":1,"updated_at":"2026-05-14T17:57:28.996194+05:30"},{"city":"Ratlam","state":"Madhya Pradesh","latitude":23.3315,"longitude":75.0367,"temp":37.5,"humidity":24,"rain":0.0,"pressure":948.3,"uv_index":8.6,"wind_gusts":38.2,"aqi":79,"pm10":53.1,"pm2_5":23.6,"no2":0.8,"co":171.0,"o3":119.0,"so2":3.3,"mosquito_risk":0,"arthritis_risk":5,"migraine_risk":10,"frizz_risk":0,"updated_at":"2026-05-14T17:57:28.996200+05:30"},{"city":"Sagar","state":"Madhya Pradesh","latitude":23.8388,"longitude":78.7378,"temp":38.3,"humidity":18,"rain":0.0,"pressure":943.6,"uv_index":8.8,"wind_gusts":37.1,"aqi":104,"pm10":47.5,"pm2_5":20.7,"no2":1.0,"co":178.0,"o3":131.0,"so2":3.2,"mosquito_risk":0,"arthritis_risk":5,"migraine_risk":10,"frizz_risk":0,"updated_at":"2026-05-14T17:57:28.996206+05:30"},{"city":"Satna","state":"Madhya Pradesh","latitude":24.6005,"longitude":80.8322,"temp":38.4,"humidity":18,"rain":0.0,"pressure":963.9,"uv_index":8.8,"wind_gusts":41.4,"aqi":119,"pm10":109.9,"pm2_5":34.1,"no2":2.1,"co":206.0,"o3":131.0,"so2":4.7,"mosquito_risk":0,"arthritis_risk":5,"migraine_risk":10,"frizz_risk":0,"updated_at":"2026-05-14T17:57:28.996212+05:30"},{"city":"Akola","state":"Maharashtra","latitude":20.7002,"longitude":77.0082,"temp":41.1,"humidity":19,"rain":0.0,"pressure":966.8,"uv_index":8.95,"wind_gusts":42.8,"aqi":113,"pm10":56.3,"pm2_5":27.6,"no2":2.3,"co":193.0,"o3":136.0,"so2":6.3,"mosquito_risk":0,"arthritis_risk":5,"migraine_risk":10,"frizz_risk":0,"updated_at":"2026-05-14T17:57:28.996219+05:30"},{"city":"Amravati","state":"Maharashtra","latitude":20.9374,"longitude":77.7796,"temp":41.2,"humidity":16,"rain":0.0,"pressure":959.1,"uv_index":9.0,"wind_gusts":45.0,"aqi":127,"pm10":51.2,"pm2_5":27.0,"no2":3.0,"co":203.0,"o3":144.0,"so2":8.4,"mosquito_risk":0,"arthritis_risk":5,"migraine_risk":10,"frizz_risk":0,"updated_at":"2026-05-14T17:57:28.996225+05:30"},{"city":"Latur","state":"Maharashtra","latitude":18.4088,"longitude":76.5604,"temp":36.8,"humidity":27,"rain":0.0,"pressure":934.0,"uv_index":8.5,"wind_gusts":34.6,"aqi":120,"pm10":66.4,"pm2_5":31.2,"no2":2.0,"co":217.0,"o3":148.0,"so2":6.7,"mosquito_risk":0,"arthritis_risk":5,"migraine_risk":10,"frizz_risk":0,"updated_at":"2026-05-14T17:57:28.996231+05:30"},{"city":"Nanded","state":"Maharashtra","latitude":19.1383,"longitude":77.3091,"temp":39.1,"humidity":25,"rain":0.0,"pressure":961.0,"uv_index":9.1,"wind_gusts":29.9,"aqi":123,"pm10":68.9,"pm2_5":31.3,"no2":2.1,"co":223.0,"o3":141.0,"so2":5.4,"mosquito_risk":0,"arthritis_risk":5,"migraine_risk":10,"frizz_risk":0,"updated_at":"2026-05-14T17:57:28.996236+05:30"},{"city":"Gulbarga","state":"Karnataka","latitude":17.3297,"longitude":76.8343,"temp":33.9,"humidity":41,"rain":0.0,"pressure":952.4,"uv_index":8.55,"wind_gusts":31.0,"aqi":135,"pm10":81.3,"pm2_5":44.2,"no2":3.4,"co":230.0,"o3":161.0,"so2":6.9,"mosquito_risk":0,"arthritis_risk":5,"migraine_risk":7,"frizz_risk":1,"updated_at":"2026-05-14T17:57:28.996241+05:30"},{"city":"Bidar","state":"Karnataka","latitude":17.9104,"longitude":77.5199,"temp":35.5,"humidity":31,"rain":0.0,"pressure":930.0,"uv_index":9.0,"wind_gusts":26.3,"aqi":133,"pm10":85.7,"pm2_5":45.3,"no2":2.8,"co":235.0,"o3":151.0,"so2":5.9,"mosquito_risk":0,"arthritis_risk":5,"migraine_risk":10,"frizz_risk":0,"updated_at":"2026-05-14T17:57:28.996247+05:30"},{"city":"Hospet","state":"Karnataka","latitude":15.2689,"longitude":76.3909,"temp":29.2,"humidity":74,"rain":0.0,"pressure":949.8,"uv_index":9.05,"wind_gusts":38.9,"aqi":134,"pm10":68.0,"pm2_5":37.5,"no2":6.1,"co":258.0,"o3":155.0,"so2":11.2,"mosquito_risk":7,"arthritis_risk":5,"migraine_risk":7,"frizz_risk":1,"updated_at":"2026-05-14T17:57:28.996252+05:30"},{"city":"Tirupur","state":"Tamil Nadu","latitude":11.1085,"longitude":77.3411,"temp":34.6,"humidity":39,"rain":0.0,"pressure":968.8,"uv_index":9.15,"wind_gusts":45.7,"aqi":119,"pm10":64.3,"pm2_5":34.0,"no2":12.3,"co":254.0,"o3":130.0,"so2":5.1,"mosquito_risk":0,"arthritis_risk":5,"migraine_risk":7,"frizz_risk":1,"updated_at":"2026-05-14T17:57:28.996257+05:30"},{"city":"Alappuzha","state":"Kerala","latitude":9.4981,"longitude":76.3388,"temp":26.3,"humidity":92,"rain":0.0,"pressure":1004.6,"uv_index":7.6,"wind_gusts":36.7,"aqi":68,"pm10":22.2,"pm2_5":12.8,"no2":6.5,"co":151.0,"o3":89.0,"so2":2.3,"mosquito_risk":7,"arthritis_risk":5,"migraine_risk":4,"frizz_risk":1,"updated_at":"2026-05-14T17:57:28.996262+05:30"},{"city":"Munnar","state":"Kerala","latitude":10.0889,"longitude":77.0595,"temp":18.5,"humidity":98,"rain":0.0,"pressure":853.0,"uv_index":9.2,"wind_gusts":26.3,"aqi":66,"pm10":29.4,"pm2_5":19.7,"no2":6.4,"co":199.0,"o3":91.0,"so2":2.5,"mosquito_risk":3,"arthritis_risk":10,"migraine_risk":7,"frizz_risk":1,"updated_at":"2026-05-14T17:57:28.996268+05:30"},{"city":"Silchar","state":"Assam","latitude":24.8333,"longitude":92.7789,"temp":26.6,"humidity":88,"rain":0.0,"pressure":999.7,"uv_index":8.9,"wind_gusts":38.9,"aqi":107,"pm10":28.8,"pm2_5":20.4,"no2":6.8,"co":245.0,"o3":96.0,"so2":4.6,"mosquito_risk":7,"arthritis_risk":5,"migraine_risk":7,"frizz_risk":1,"updated_at":"2026-05-14T17:57:28.996274+05:30"},{"city":"Dibrugarh","state":"Assam","latitude":27.4728,"longitude":94.912,"temp":26.5,"humidity":77,"rain":0.0,"pressure":990.7,"uv_index":7.75,"wind_gusts":24.5,"aqi":86,"pm10":32.6,"pm2_5":28.9,"no2":10.6,"co":266.0,"o3":83.0,"so2":2.2,"mosquito_risk":7,"arthritis_risk":5,"migraine_risk":7,"frizz_risk":1,"updated_at":"2026-05-14T17:57:28.996280+05:30"}]