[{"city":"Delhi","state":"Delhi","latitude":28.6139,"longitude":77.209,"temp":17.8,"humidity":58,"rain":0.0,"pressure":987.6,"uv_index":5.5,"aqi":165,"mosquito_risk":0,"arthritis_risk":5,"migraine_risk":3,"frizz_risk":0,"updated_at":"2026-02-25T02:10:12.421871+05:30"},{"city":"Mumbai","state":"Maharashtra","latitude":19.076,"longitude":72.8777,"temp":26.7,"humidity":74,"rain":0.0,"pressure":1009.3,"uv_index":7.25,"aqi":153,"mosquito_risk":7,"arthritis_risk":0,"migraine_risk":4,"frizz_risk":1,"updated_at":"2026-02-25T02:10:12.421911+05:30"},{"city":"Bangalore","state":"Karnataka","latitude":12.9716,"longitude":77.5946,"temp":20.4,"humidity":81,"rain":0.0,"pressure":911.7,"uv_index":8.8,"aqi":79,"mosquito_risk":3,"arthritis_risk":5,"migraine_risk":7,"frizz_risk":1,"updated_at":"2026-02-25T02:10:12.421926+05:30"},{"city":"Hyderabad","state":"Telangana","latitude":17.385,"longitude":78.4867,"temp":20.9,"humidity":84,"rain":0.0,"pressure":954.2,"uv_index":8.05,"aqi":125,"mosquito_risk":3,"arthritis_risk":5,"migraine_risk":7,"frizz_risk":1,"updated_at":"2026-02-25T02:10:12.421936+05:30"},{"city":"Chennai","state":"Tamil Nadu","latitude":13.0827,"longitude":80.2707,"temp":25.5,"humidity":86,"rain":0.0,"pressure":1008.4,"uv_index":8.6,"aqi":44,"mosquito_risk":7,"arthritis_risk":0,"migraine_risk":4,"frizz_risk":1,"updated_at":"2026-02-25T02:10:12.421944+05:30"},{"city":"Kolkata","state":"West Bengal","latitude":22.5726,"longitude":88.3639,"temp":20.2,"humidity":96,"rain":0.0,"pressure":1009.6,"uv_index":7.35,"aqi":176,"mosquito_risk":3,"arthritis_risk":0,"migraine_risk":4,"frizz_risk":1,"updated_at":"2026-02-25T02:10:12.421952+05:30"},{"city":"Pune","state":"Maharashtra","latitude":18.5204,"longitude":73.8567,"temp":20.9,"humidity":62,"rain":0.0,"pressure":949.1,"uv_index":7.75,"aqi":150,"mosquito_risk":3,"arthritis_risk":5,"migraine_risk":7,"frizz_risk":0,"updated_at":"2026-02-25T02:10:12.421960+05:30"},{"city":"Ahmedabad","state":"Gujarat","latitude":23.0225,"longitude":72.5714,"temp":21.7,"humidity":53,"rain":0.0,"pressure":1003.9,"uv_index":7.05,"aqi":85,"mosquito_risk":0,"arthritis_risk":5,"migraine_risk":4,"frizz_risk":0,"updated_at":"2026-02-25T02:10:12.421967+05:30"},{"city":"Jaipur","state":"Rajasthan","latitude":26.9124,"longitude":75.7873,"temp":19.8,"humidity":46,"rain":0.0,"pressure":963.0,"uv_index":6.35,"aqi":138,"mosquito_risk":0,"arthritis_risk":5,"migraine_risk":7,"frizz_risk":0,"updated_at":"2026-02-25T02:10:12.421974+05:30"},{"city":"Lucknow","state":"Uttar Pradesh","latitude":26.8467,"longitude":80.9462,"temp":18.6,"humidity":62,"rain":0.0,"pressure":997.9,"uv_index":5.95,"aqi":164,"mosquito_risk":3,"arthritis_risk":5,"migraine_risk":3,"frizz_risk":0,"updated_at":"2026-02-25T02:10:12.421986+05:30"},{"city":"Kanpur","state":"Uttar Pradesh","latitude":26.4499,"longitude":80.3319,"temp":18.7,"humidity":62,"rain":0.0,"pressure":996.3,"uv_index":6.0,"aqi":159,"mosquito_risk":3,"arthritis_risk":5,"migraine_risk":3,"frizz_risk":0,"updated_at":"2026-02-25T02:10:12.421993+05:30"},{"city":"Chandigarh","state":"Chandigarh","latitude":30.7333,"longitude":76.7794,"temp":15.7,"humidity":81,"rain":0.0,"pressure":972.8,"uv_index":5.45,"aqi":152,"mosquito_risk":3,"arthritis_risk":10,"migraine_risk":3,"frizz_risk":0,"updated_at":"2026-02-25T02:10:12.422003+05:30"},{"city":"Srinagar","state":"Jammu and Kashmir","latitude":34.0837,"longitude":74.7973,"temp":2.5,"humidity":90,"rain":0.0,"pressure":838.2,"uv_index":6.3,"aqi":153,"mosquito_risk":3,"arthritis_risk":10,"migraine_risk":7,"frizz_risk":0,"updated_at":"2026-02-25T02:10:12.422010+05:30"},{"city":"Jammu","state":"Jammu and Kashmir","latitude":32.7266,"longitude":74.857,"temp":15.6,"humidity":88,"rain":0.0,"pressure":976.9,"uv_index":6.0,"aqi":151,"mosquito_risk":3,"arthritis_risk":10,"migraine_risk":3,"frizz_risk":0,"updated_at":"2026-02-25T02:10:12.422016+05:30"},{"city":"Amritsar","state":"Punjab","latitude":31.634,"longitude":74.8723,"temp":15.6,"humidity":81,"rain":0.0,"pressure":985.2,"uv_index":6.0,"aqi":182,"mosquito_risk":3,"arthritis_risk":10,"migraine_risk":3,"frizz_risk":0,"updated_at":"2026-02-25T02:10:12.422023+05:30"},{"city":"Ludhiana","state":"Punjab","latitude":30.901,"longitude":75.8573,"temp":16.4,"humidity":80,"rain":0.0,"pressure":983.3,"uv_index":5.65,"aqi":184,"mosquito_risk":3,"arthritis_risk":5,"migraine_risk":3,"frizz_risk":0,"updated_at":"2026-02-25T02:10:12.422029+05:30"},{"city":"Jalandhar","state":"Punjab","latitude":31.326,"longitude":75.5762,"temp":15.5,"humidity":86,"rain":0.0,"pressure":984.4,"uv_index":5.8,"aqi":184,"mosquito_risk":3,"arthritis_risk":10,"migraine_risk":3,"frizz_risk":0,"updated_at":"2026-02-25T02:10:12.422036+05:30"},{"city":"Dehradun","state":"Uttarakhand","latitude":30.6284,"longitude":78.0322,"temp":8.6,"humidity":88,"rain":0.0,"pressure":829.2,"uv_index":5.75,"aqi":81,"mosquito_risk":3,"arthritis_risk":10,"migraine_risk":3,"frizz_risk":0,"updated_at":"2026-02-25T02:10:12.422042+05:30"},{"city":"Shimla","state":"Himachal Pradesh","latitude":31.1048,"longitude":77.1734,"temp":7.3,"humidity":87,"rain":0.0,"pressure":782.6,"uv_index":5.85,"aqi":105,"mosquito_risk":3,"arthritis_risk":10,"migraine_risk":3,"frizz_risk":0,"updated_at":"2026-02-25T02:10:12.422048+05:30"},{"city":"Manali","state":"Himachal Pradesh","latitude":32.2396,"longitude":77.1887,"temp":10.7,"humidity":22,"rain":0.0,"pressure":817.8,"uv_index":7.2,"aqi":53,"mosquito_risk":0,"arthritis_risk":5,"migraine_risk":7,"frizz_risk":1,"updated_at":"2026-02-25T02:10:12.422057+05:30"},{"city":"Gurgaon","state":"Haryana","latitude":28.4595,"longitude":77.0266,"temp":14.3,"humidity":74,"rain":0.0,"pressure":985.8,"uv_index":5.65,"aqi":165,"mosquito_risk":3,"arthritis_risk":5,"migraine_risk":3,"frizz_risk":0,"updated_at":"2026-02-25T02:10:12.422064+05:30"},{"city":"Noida","state":"Uttar Pradesh","latitude":28.5355,"longitude":77.391,"temp":17.0,"humidity":62,"rain":0.0,"pressure":989.2,"uv_index":5.55,"aqi":165,"mosquito_risk":3,"arthritis_risk":5,"migraine_risk":3,"frizz_risk":0,"updated_at":"2026-02-25T02:10:12.422071+05:30"},{"city":"Ghaziabad","state":"Uttar Pradesh","latitude":28.6692,"longitude":77.4538,"temp":15.2,"humidity":69,"rain":0.0,"pressure":987.2,"uv_index":5.5,"aqi":163,"mosquito_risk":3,"arthritis_risk":5,"migraine_risk":3,"frizz_risk":0,"updated_at":"2026-02-25T02:10:12.422077+05:30"},{"city":"Faridabad","state":"Haryana","latitude":28.4089,"longitude":77.3178,"temp":14.3,"humidity":72,"rain":0.0,"pressure":988.2,"uv_index":5.55,"aqi":165,"mosquito_risk":3,"arthritis_risk":5,"migraine_risk":3,"frizz_risk":0,"updated_at":"2026-02-25T02:10:12.422084+05:30"},{"city":"Meerut","state":"Uttar Pradesh","latitude":28.9845,"longitude":77.7064,"temp":13.5,"humidity":74,"rain":0.0,"pressure":985.9,"uv_index":5.4,"aqi":163,"mosquito_risk":3,"arthritis_risk":5,"migraine_risk":3,"frizz_risk":0,"updated_at":"2026-02-25T02:10:12.422090+05:30"},{"city":"Agra","state":"Uttar Pradesh","latitude":27.1767,"longitude":78.0081,"temp":14.8,"humidity":75,"rain":0.0,"pressure":992.4,"uv_index":5.85,"aqi":174,"mosquito_risk":3,"arthritis_risk":5,"migraine_risk":3,"frizz_risk":0,"updated_at":"2026-02-25T02:10:12.422097+05:30"},{"city":"Varanasi","state":"Uttar Pradesh","latitude":25.3176,"longitude":82.9739,"temp":15.4,"humidity":75,"rain":0.0,"pressure":1002.3,"uv_index":6.65,"aqi":161,"mosquito_risk":3,"arthritis_risk":5,"migraine_risk":4,"frizz_risk":0,"updated_at":"2026-02-25T02:10:12.422106+05:30"},{"city":"Prayagraj","state":"Uttar Pradesh","latitude":25.4358,"longitude":81.8463,"temp":17.0,"humidity":68,"rain":0.0,"pressure":1000.7,"uv_index":6.5,"aqi":164,"mosquito_risk":3,"arthritis_risk":5,"migraine_risk":4,"frizz_risk":0,"updated_at":"2026-02-25T02:10:12.422113+05:30"},{"city":"Gorakhpur","state":"Uttar Pradesh","latitude":26.7606,"longitude":83.3732,"temp":15.0,"humidity":86,"rain":0.0,"pressure":1001.5,"uv_index":6.35,"aqi":164,"mosquito_risk":3,"arthritis_risk":10,"migraine_risk":4,"frizz_risk":0,"updated_at":"2026-02-25T02:10:12.422119+05:30"},{"city":"Bareilly","state":"Uttar Pradesh","latitude":28.367,"longitude":79.4304,"temp":16.2,"humidity":90,"rain":0.0,"pressure":991.3,"uv_index":5.65,"aqi":168,"mosquito_risk":3,"arthritis_risk":10,"migraine_risk":3,"frizz_risk":0,"updated_at":"2026-02-25T02:10:12.422127+05:30"},{"city":"Aligarh","state":"Uttar Pradesh","latitude":27.8974,"longitude":78.088,"temp":14.5,"humidity":75,"rain":0.0,"pressure":990.1,"uv_index":5.6,"aqi":170,"mosquito_risk":3,"arthritis_risk":5,"migraine_risk":3,"frizz_risk":0,"updated_at":"2026-02-25T02:10:12.422134+05:30"},{"city":"Moradabad","state":"Uttar Pradesh","latitude":28.8386,"longitude":78.7733,"temp":15.5,"humidity":92,"rain":0.0,"pressure":988.1,"uv_index":5.5,"aqi":176,"mosquito_risk":3,"arthritis_risk":10,"migraine_risk":3,"frizz_risk":0,"updated_at":"2026-02-25T02:10:12.422140+05:30"},{"city":"Saharanpur","state":"Uttar Pradesh","latitude":29.9637,"longitude":77.546,"temp":14.7,"humidity":79,"rain":0.0,"pressure":980.1,"uv_index":5.2,"aqi":164,"mosquito_risk":3,"arthritis_risk":5,"migraine_risk":3,"frizz_risk":0,"updated_at":"2026-02-25T02:10:12.422146+05:30"},{"city":"Jhansi","state":"Uttar Pradesh","latitude":25.4484,"longitude":78.5685,"temp":18.8,"humidity":54,"rain":0.0,"pressure":981.9,"uv_index":6.45,"aqi":143,"mosquito_risk":0,"arthritis_risk":5,"migraine_risk":7,"frizz_risk":0,"updated_at":"2026-02-25T02:10:15.752926+05:30"},{"city":"Surat","state":"Gujarat","latitude":21.1702,"longitude":72.8311,"temp":22.2,"humidity":82,"rain":0.0,"pressure":1008.2,"uv_index":7.0,"aqi":161,"mosquito_risk":3,"arthritis_risk":0,"migraine_risk":4,"frizz_risk":1,"updated_at":"2026-02-25T02:10:15.752958+05:30"},{"city":"Vadodara","state":"Gujarat","latitude":22.3072,"longitude":73.1812,"temp":23.0,"humidity":50,"rain":0.0,"pressure":1005.8,"uv_index":7.05,"aqi":97,"mosquito_risk":0,"arthritis_risk":5,"migraine_risk":4,"frizz_risk":0,"updated_at":"2026-02-25T02:10:15.752968+05:30"},{"city":"Rajkot","state":"Gujarat","latitude":22.3039,"longitude":70.8022,"temp":23.8,"humidity":64,"rain":0.0,"pressure":996.1,"uv_index":6.95,"aqi":97,"mosquito_risk":3,"arthritis_risk":5,"migraine_risk":7,"frizz_risk":1,"updated_at":"2026-02-25T02:10:15.752975+05:30"},{"city":"Thane","state":"Maharashtra","latitude":19.2183,"longitude":72.9781,"temp":23.9,"humidity":72,"rain":0.0,"pressure":1008.8,"uv_index":7.25,"aqi":153,"mosquito_risk":3,"arthritis_risk":0,"migraine_risk":4,"frizz_risk":1,"updated_at":"2026-02-25T02:10:15.752982+05:30"},{"city":"Nagpur","state":"Maharashtra","latitude":21.1458,"longitude":79.0882,"temp":18.7,"humidity":91,"rain":0.0,"pressure":975.4,"uv_index":7.35,"aqi":159,"mosquito_risk":3,"arthritis_risk":10,"migraine_risk":7,"frizz_risk":1,"updated_at":"2026-02-25T02:10:15.752990+05:30"},{"city":"Nashik","state":"Maharashtra","latitude":19.9975,"longitude":73.7898,"temp":21.5,"humidity":54,"rain":0.0,"pressure":946.4,"uv_index":7.45,"aqi":90,"mosquito_risk":0,"arthritis_risk":5,"migraine_risk":7,"frizz_risk":0,"updated_at":"2026-02-25T02:10:15.752997+05:30"},{"city":"Aurangabad","state":"Maharashtra","latitude":19.8762,"longitude":75.3433,"temp":20.4,"humidity":59,"rain":0.0,"pressure":944.8,"uv_index":7.75,"aqi":102,"mosquito_risk":0,"arthritis_risk":5,"migraine_risk":7,"frizz_risk":0,"updated_at":"2026-02-25T02:10:15.753004+05:30"},{"city":"Solapur","state":"Maharashtra","latitude":17.6599,"longitude":75.9064,"temp":22.6,"humidity":81,"rain":0.0,"pressure":958.1,"uv_index":8.0,"aqi":122,"mosquito_risk":3,"arthritis_risk":5,"migraine_risk":7,"frizz_risk":1,"updated_at":"2026-02-25T02:10:15.753010+05:30"},{"city":"Kolhapur","state":"Maharashtra","latitude":16.705,"longitude":74.2433,"temp":20.1,"humidity":89,"rain":0.0,"pressure":948.4,"uv_index":8.2,"aqi":151,"mosquito_risk":3,"arthritis_risk":5,"migraine_risk":7,"frizz_risk":1,"updated_at":"2026-02-25T02:10:15.753017+05:30"},{"city":"Goa","state":"Goa","latitude":15.2993,"longitude":74.124,"temp":26.7,"humidity":87,"rain":0.0,"pressure":998.6,"uv_index":8.2,"aqi":151,"mosquito_risk":7,"arthritis_risk":5,"migraine_risk":7,"frizz_risk":1,"updated_at":"2026-02-25T02:10:15.753024+05:30"},{"city":"Jodhpur","state":"Rajasthan","latitude":26.2389,"longitude":73.0243,"temp":22.1,"humidity":38,"rain":0.0,"pressure":985.6,"uv_index":6.6,"aqi":70,"mosquito_risk":0,"arthritis_risk":5,"migraine_risk":7,"frizz_risk":0,"updated_at":"2026-02-25T02:10:15.753030+05:30"},{"city":"Udaipur","state":"Rajasthan","latitude":24.5854,"longitude":73.7125,"temp":17.5,"humidity":47,"rain":0.0,"pressure":948.5,"uv_index":7.25,"aqi":42,"mosquito_risk":0,"arthritis_risk":5,"migraine_risk":7,"frizz_risk":0,"updated_at":"2026-02-25T02:10:15.753036+05:30"},{"city":"Kota","state":"Rajasthan","latitude":25.2138,"longitude":75.8648,"temp":15.3,"humidity":82,"rain":0.0,"pressure":981.6,"uv_index":6.65,"aqi":120,"mosquito_risk":3,"arthritis_risk":10,"migraine_risk":7,"frizz_risk":0,"updated_at":"2026-02-25T02:10:15.753043+05:30"},{"city":"Bikaner","state":"Rajasthan","latitude":28.0229,"longitude":73.3119,"temp":20.4,"humidity":43,"rain":0.0,"pressure":985.6,"uv_index":6.25,"aqi":70,"mosquito_risk":0,"arthritis_risk":5,"migraine_risk":7,"frizz_risk":0,"updated_at":"2026-02-25T02:10:15.753050+05:30"},{"city":"Ajmer","state":"Rajasthan","latitude":26.4499,"longitude":74.6399,"temp":19.2,"humidity":41,"rain":0.0,"pressure":956.8,"uv_index":6.6,"aqi":102,"mosquito_risk":0,"arthritis_risk":5,"migraine_risk":7,"frizz_risk":0,"updated_at":"2026-02-25T02:10:15.753056+05:30"},{"city":"Gwalior","state":"Madhya Pradesh","latitude":26.2183,"longitude":78.1828,"temp":20.5,"humidity":47,"rain":0.0,"pressure":987.4,"uv_index":6.2,"aqi":128,"mosquito_risk":0,"arthritis_risk":5,"migraine_risk":7,"frizz_risk":0,"updated_at":"2026-02-25T02:10:15.753062+05:30"},{"city":"Indore","state":"Madhya Pradesh","latitude":22.7196,"longitude":75.8577,"temp":19.1,"humidity":60,"rain":0.0,"pressure":949.2,"uv_index":7.2,"aqi":95,"mosquito_risk":0,"arthritis_risk":5,"migraine_risk":7,"frizz_risk":0,"updated_at":"2026-02-25T02:10:15.753069+05:30"},{"city":"Bhopal","state":"Madhya Pradesh","latitude":23.2599,"longitude":77.4126,"temp":19.1,"humidity":59,"rain":0.0,"pressure":955.4,"uv_index":7.05,"aqi":87,"mosquito_risk":0,"arthritis_risk":5,"migraine_risk":7,"frizz_risk":0,"updated_at":"2026-02-25T02:10:15.753075+05:30"},{"city":"Jabalpur","state":"Madhya Pradesh","latitude":23.1815,"longitude":79.9864,"temp":18.2,"humidity":62,"rain":0.0,"pressure":964.0,"uv_index":7.1,"aqi":92,"mosquito_risk":3,"arthritis_risk":5,"migraine_risk":7,"frizz_risk":0,"updated_at":"2026-02-25T02:10:15.753082+05:30"},{"city":"Ujjain","state":"Madhya Pradesh","latitude":23.1765,"longitude":75.7885,"temp":19.5,"humidity":61,"rain":0.0,"pressure":955.4,"uv_index":7.1,"aqi":106,"mosquito_risk":3,"arthritis_risk":5,"migraine_risk":7,"frizz_risk":0,"updated_at":"2026-02-25T02:10:15.753089+05:30"},{"city":"Visakhapatnam","state":"Andhra Pradesh","latitude":17.6868,"longitude":83.2185,"temp":22.5,"humidity":93,"rain":0.0,"pressure":1006.2,"uv_index":7.6,"aqi":114,"mosquito_risk":3,"arthritis_risk":5,"migraine_risk":4,"frizz_risk":1,"updated_at":"2026-02-25T02:10:15.753096+05:30"},{"city":"Vijayawada","state":"Andhra Pradesh","latitude":16.5062,"longitude":80.648,"temp":23.9,"humidity":91,"rain":0.0,"pressure":1004.8,"uv_index":8.15,"aqi":115,"mosquito_risk":3,"arthritis_risk":5,"migraine_risk":4,"frizz_risk":1,"updated_at":"2026-02-25T02:10:15.753102+05:30"},{"city":"Guntur","state":"Andhra Pradesh","latitude":16.3067,"longitude":80.4365,"temp":23.6,"humidity":92,"rain":0.0,"pressure":1006.0,"uv_index":8.15,"aqi":110,"mosquito_risk":3,"arthritis_risk":5,"migraine_risk":4,"frizz_risk":1,"updated_at":"2026-02-25T02:10:15.753109+05:30"},{"city":"Nellore","state":"Andhra Pradesh","latitude":14.4426,"longitude":79.9865,"temp":23.0,"humidity":92,"rain":0.0,"pressure":1007.5,"uv_index":8.4,"aqi":44,"mosquito_risk":3,"arthritis_risk":5,"migraine_risk":4,"frizz_risk":1,"updated_at":"2026-02-25T02:10:15.753116+05:30"},{"city":"Kurnool","state":"Andhra Pradesh","latitude":15.8281,"longitude":78.0373,"temp":23.5,"humidity":75,"rain":0.0,"pressure":978.3,"uv_index":8.2,"aqi":99,"mosquito_risk":3,"arthritis_risk":5,"migraine_risk":7,"frizz_risk":1,"updated_at":"2026-02-25T02:10:15.753123+05:30"},{"city":"Kakinada","state":"Andhra Pradesh","latitude":16.9891,"longitude":82.2475,"temp":21.2,"humidity":92,"rain":0.0,"pressure":1009.9,"uv_index":8.1,"aqi":60,"mosquito_risk":3,"arthritis_risk":0,"migraine_risk":4,"frizz_risk":1,"updated_at":"2026-02-25T02:10:15.753130+05:30"},{"city":"Tirupati","state":"Andhra Pradesh","latitude":13.6288,"longitude":79.4192,"temp":20.5,"humidity":89,"rain":0.0,"pressure":993.1,"uv_index":8.55,"aqi":57,"mosquito_risk":3,"arthritis_risk":5,"migraine_risk":7,"frizz_risk":1,"updated_at":"2026-02-25T02:10:15.753136+05:30"},{"city":"Warangal","state":"Telangana","latitude":17.9689,"longitude":79.5941,"temp":22.3,"humidity":84,"rain":0.0,"pressure":980.4,"uv_index":7.9,"aqi":153,"mosquito_risk":3,"arthritis_risk":5,"migraine_risk":7,"frizz_risk":1,"updated_at":"2026-02-25T02:10:15.753142+05:30"},{"city":"Nizamabad","state":"Telangana","latitude":18.6725,"longitude":78.0941,"temp":21.8,"humidity":86,"rain":0.0,"pressure":966.2,"uv_index":7.7,"aqi":154,"mosquito_risk":3,"arthritis_risk":5,"migraine_risk":7,"frizz_risk":1,"updated_at":"2026-02-25T02:10:15.753148+05:30"},{"city":"Mysore","state":"Karnataka","latitude":12.2958,"longitude":76.6396,"temp":21.5,"humidity":90,"rain":0.0,"pressure":928.6,"uv_index":8.75,"aqi":95,"mosquito_risk":3,"arthritis_risk":5,"migraine_risk":7,"frizz_risk":1,"updated_at":"2026-02-25T02:10:15.753155+05:30"},{"city":"Mangalore","state":"Karnataka","latitude":12.9141,"longitude":74.856,"temp":28.2,"humidity":81,"rain":0.0,"pressure":1007.2,"uv_index":8.45,"aqi":135,"mosquito_risk":7,"arthritis_risk":5,"migraine_risk":4,"frizz_risk":1,"updated_at":"2026-02-25T02:10:15.753161+05:30"},{"city":"Hubli-Dharwad","state":"Karnataka","latitude":15.3647,"longitude":75.124,"temp":22.7,"humidity":87,"rain":0.0,"pressure":941.2,"uv_index":8.2,"aqi":111,"mosquito_risk":3,"arthritis_risk":5,"migraine_risk":7,"frizz_risk":1,"updated_at":"2026-02-25T02:10:15.753168+05:30"},{"city":"Belgaum","state":"Karnataka","latitude":15.8497,"longitude":74.4977,"temp":21.4,"humidity":92,"rain":0.0,"pressure":926.0,"uv_index":8.2,"aqi":137,"mosquito_risk":3,"arthritis_risk":5,"migraine_risk":7,"frizz_risk":1,"updated_at":"2026-02-25T02:10:19.082873+05:30"},{"city":"Coimbatore","state":"Tamil Nadu","latitude":11.0168,"longitude":76.9558,"temp":21.9,"humidity":87,"rain":0.0,"pressure":962.7,"uv_index":8.9,"aqi":95,"mosquito_risk":3,"arthritis_risk":5,"migraine_risk":7,"frizz_risk":1,"updated_at":"2026-02-25T02:10:19.082907+05:30"},{"city":"Madurai","state":"Tamil Nadu","latitude":9.9252,"longitude":78.1198,"temp":24.9,"humidity":87,"rain":0.0,"pressure":994.0,"uv_index":8.9,"aqi":79,"mosquito_risk":3,"arthritis_risk":5,"migraine_risk":7,"frizz_risk":1,"updated_at":"2026-02-25T02:10:19.082919+05:30"},{"city":"Trichy","state":"Tamil Nadu","latitude":10.7905,"longitude":78.7047,"temp":23.8,"humidity":93,"rain":0.0,"pressure":1001.2,"uv_index":8.75,"aqi":60,"mosquito_risk":3,"arthritis_risk":5,"migraine_risk":4,"frizz_risk":1,"updated_at":"2026-02-25T02:10:19.082929+05:30"},{"city":"Salem","state":"Tamil Nadu","latitude":11.6643,"longitude":78.146,"temp":24.8,"humidity":78,"rain":0.0,"pressure":978.6,"uv_index":8.75,"aqi":81,"mosquito_risk":3,"arthritis_risk":5,"migraine_risk":7,"frizz_risk":1,"updated_at":"2026-02-25T02:10:19.082938+05:30"},{"city":"Tirunelveli","state":"Tamil Nadu","latitude":8.7139,"longitude":77.7567,"temp":24.5,"humidity":88,"rain":0.0,"pressure":1003.9,"uv_index":8.9,"aqi":72,"mosquito_risk":3,"arthritis_risk":5,"migraine_risk":4,"frizz_risk":1,"updated_at":"2026-02-25T02:10:19.082946+05:30"},{"city":"Vellore","state":"Tamil Nadu","latitude":12.9165,"longitude":79.1325,"temp":22.0,"humidity":93,"rain":0.0,"pressure":986.2,"uv_index":8.65,"aqi":72,"mosquito_risk":3,"arthritis_risk":5,"migraine_risk":7,"frizz_risk":1,"updated_at":"2026-02-25T02:10:19.082953+05:30"},{"city":"Erode","state":"Tamil Nadu","latitude":11.341,"longitude":77.7172,"temp":25.3,"humidity":79,"rain":0.0,"pressure":990.5,"uv_index":8.8,"aqi":72,"mosquito_risk":7,"arthritis_risk":5,"migraine_risk":7,"frizz_risk":1,"updated_at":"2026-02-25T02:10:19.082961+05:30"},{"city":"Kochi","state":"Kerala","latitude":9.9312,"longitude":76.2673,"temp":26.2,"humidity":80,"rain":0.0,"pressure":1009.5,"uv_index":8.75,"aqi":95,"mosquito_risk":7,"arthritis_risk":0,"migraine_risk":4,"frizz_risk":1,"updated_at":"2026-02-25T02:10:19.082969+05:30"},{"city":"Thiruvananthapuram","state":"Kerala","latitude":8.5241,"longitude":76.9366,"temp":27.4,"humidity":82,"rain":0.0,"pressure":1008.1,"uv_index":8.75,"aqi":78,"mosquito_risk":7,"arthritis_risk":0,"migraine_risk":4,"frizz_risk":1,"updated_at":"2026-02-25T02:10:19.082977+05:30"},{"city":"Kozhikode","state":"Kerala","latitude":11.2588,"longitude":75.7804,"temp":26.5,"humidity":86,"rain":0.0,"pressure":1008.8,"uv_index":8.6,"aqi":80,"mosquito_risk":7,"arthritis_risk":0,"migraine_risk":4,"frizz_risk":1,"updated_at":"2026-02-25T02:10:19.082986+05:30"},{"city":"Thrissur","state":"Kerala","latitude":10.5276,"longitude":76.2144,"temp":24.7,"humidity":89,"rain":0.0,"pressure":1008.0,"uv_index":8.7,"aqi":96,"mosquito_risk":3,"arthritis_risk":0,"migraine_risk":4,"frizz_risk":1,"updated_at":"2026-02-25T02:10:19.082995+05:30"},{"city":"Kannur","state":"Kerala","latitude":11.8745,"longitude":75.3704,"temp":26.9,"humidity":84,"rain":0.0,"pressure":1007.8,"uv_index":8.55,"aqi":110,"mosquito_risk":7,"arthritis_risk":5,"migraine_risk":4,"frizz_risk":1,"updated_at":"2026-02-25T02:10:19.083003+05:30"},{"city":"Patna","state":"Bihar","latitude":25.5941,"longitude":85.1376,"temp":19.1,"humidity":71,"rain":0.0,"pressure":1005.0,"uv_index":6.8,"aqi":166,"mosquito_risk":3,"arthritis_risk":5,"migraine_risk":4,"frizz_risk":0,"updated_at":"2026-02-25T02:10:19.083012+05:30"},{"city":"Gaya","state":"Bihar","latitude":24.7914,"longitude":85.0002,"temp":18.0,"humidity":68,"rain":0.0,"pressure":998.6,"uv_index":6.9,"aqi":155,"mosquito_risk":3,"arthritis_risk":5,"migraine_risk":7,"frizz_risk":0,"updated_at":"2026-02-25T02:10:19.083019+05:30"},{"city":"Muzaffarpur","state":"Bihar","latitude":26.1209,"longitude":85.3647,"temp":16.4,"humidity":74,"rain":0.0,"pressure":1004.8,"uv_index":6.75,"aqi":169,"mosquito_risk":3,"arthritis_risk":5,"migraine_risk":4,"frizz_risk":0,"updated_at":"2026-02-25T02:10:19.083027+05:30"},{"city":"Bhagalpur","state":"Bihar","latitude":25.2425,"longitude":87.0117,"temp":17.5,"humidity":78,"rain":0.0,"pressure":1005.5,"uv_index":6.85,"aqi":157,"mosquito_risk":3,"arthritis_risk":5,"migraine_risk":4,"frizz_risk":0,"updated_at":"2026-02-25T02:10:19.083034+05:30"},{"city":"Ranchi","state":"Jharkhand","latitude":23.3441,"longitude":85.3096,"temp":14.1,"humidity":75,"rain":0.0,"pressure":940.0,"uv_index":7.55,"aqi":130,"mosquito_risk":3,"arthritis_risk":5,"migraine_risk":7,"frizz_risk":0,"updated_at":"2026-02-25T02:10:19.083041+05:30"},{"city":"Jamshedpur","state":"Jharkhand","latitude":22.8046,"longitude":86.2029,"temp":21.0,"humidity":80,"rain":0.0,"pressure":994.8,"uv_index":7.45,"aqi":167,"mosquito_risk":3,"arthritis_risk":5,"migraine_risk":7,"frizz_risk":1,"updated_at":"2026-02-25T02:10:19.083049+05:30"},{"city":"Dhanbad","state":"Jharkhand","latitude":23.7957,"longitude":86.4304,"temp":17.9,"humidity":65,"rain":0.0,"pressure":983.5,"uv_index":7.35,"aqi":156,"mosquito_risk":3,"arthritis_risk":5,"migraine_risk":7,"frizz_risk":0,"updated_at":"2026-02-25T02:10:19.083056+05:30"},{"city":"Bokaro","state":"Jharkhand","latitude":23.6693,"longitude":86.1511,"temp":18.5,"humidity":56,"rain":0.0,"pressure":988.0,"uv_index":7.35,"aqi":154,"mosquito_risk":0,"arthritis_risk":5,"migraine_risk":7,"frizz_risk":0,"updated_at":"2026-02-25T02:10:19.083064+05:30"},{"city":"Bhubaneswar","state":"Odisha","latitude":20.2961,"longitude":85.8245,"temp":23.1,"humidity":92,"rain":0.0,"pressure":1006.2,"uv_index":7.75,"aqi":113,"mosquito_risk":3,"arthritis_risk":5,"migraine_risk":4,"frizz_risk":1,"updated_at":"2026-02-25T02:10:19.083072+05:30"},{"city":"Cuttack","state":"Odisha","latitude":20.4625,"longitude":85.8828,"temp":21.9,"humidity":92,"rain":0.0,"pressure":1008.3,"uv_index":7.8,"aqi":113,"mosquito_risk":3,"arthritis_risk":0,"migraine_risk":4,"frizz_risk":1,"updated_at":"2026-02-25T02:10:19.083078+05:30"},{"city":"Rourkela","state":"Odisha","latitude":22.2604,"longitude":84.8536,"temp":20.8,"humidity":71,"rain":0.0,"pressure":988.7,"uv_index":7.35,"aqi":137,"mosquito_risk":3,"arthritis_risk":5,"migraine_risk":7,"frizz_risk":0,"updated_at":"2026-02-25T02:10:19.083084+05:30"},{"city":"Raipur","state":"Chhattisgarh","latitude":21.2514,"longitude":81.6296,"temp":20.2,"humidity":78,"rain":0.0,"pressure":976.9,"uv_index":7.5,"aqi":166,"mosquito_risk":3,"arthritis_risk":5,"migraine_risk":7,"frizz_risk":1,"updated_at":"2026-02-25T02:10:19.083090+05:30"},{"city":"Bhilai","state":"Chhattisgarh","latitude":21.1938,"longitude":81.3509,"temp":19.0,"humidity":86,"rain":0.0,"pressure":977.2,"uv_index":7.5,"aqi":168,"mosquito_risk":3,"arthritis_risk":10,"migraine_risk":7,"frizz_risk":1,"updated_at":"2026-02-25T02:10:19.083096+05:30"},{"city":"Guwahati","state":"Assam","latitude":26.1158,"longitude":91.7086,"temp":19.5,"humidity":89,"rain":0.0,"pressure":1004.7,"uv_index":6.75,"aqi":159,"mosquito_risk":3,"arthritis_risk":10,"migraine_risk":4,"frizz_risk":1,"updated_at":"2026-02-25T02:10:19.083101+05:30"},{"city":"Agartala","state":"Tripura","latitude":23.8315,"longitude":91.2868,"temp":18.6,"humidity":83,"rain":0.0,"pressure":1009.3,"uv_index":7.15,"aqi":161,"mosquito_risk":3,"arthritis_risk":5,"migraine_risk":4,"frizz_risk":0,"updated_at":"2026-02-25T02:10:19.083107+05:30"},{"city":"Shillong","state":"Meghalaya","latitude":25.5788,"longitude":91.8933,"temp":7.1,"humidity":77,"rain":0.0,"pressure":853.4,"uv_index":6.15,"aqi":154,"mosquito_risk":3,"arthritis_risk":5,"migraine_risk":7,"frizz_risk":0,"updated_at":"2026-02-25T02:10:19.083113+05:30"},{"city":"Imphal","state":"Manipur","latitude":24.817,"longitude":93.9368,"temp":14.1,"humidity":69,"rain":0.0,"pressure":924.2,"uv_index":7.15,"aqi":165,"mosquito_risk":3,"arthritis_risk":5,"migraine_risk":7,"frizz_risk":0,"updated_at":"2026-02-25T02:10:19.083119+05:30"},{"city":"Aizawl","state":"Mizoram","latitude":23.7271,"longitude":92.7176,"temp":13.5,"humidity":54,"rain":0.0,"pressure":892.5,"uv_index":7.1,"aqi":158,"mosquito_risk":0,"arthritis_risk":5,"migraine_risk":7,"frizz_risk":0,"updated_at":"2026-02-25T02:10:19.083125+05:30"},{"city":"Kohima","state":"Nagaland","latitude":25.6701,"longitude":94.1077,"temp":12.1,"humidity":70,"rain":0.0,"pressure":854.5,"uv_index":6.9,"aqi":154,"mosquito_risk":3,"arthritis_risk":5,"migraine_risk":7,"frizz_risk":0,"updated_at":"2026-02-25T02:10:19.083131+05:30"},{"city":"Gangtok","state":"Sikkim","latitude":27.3314,"longitude":88.6138,"temp":8.7,"humidity":71,"rain":0.0,"pressure":835.6,"uv_index":7.0,"aqi":140,"mosquito_risk":3,"arthritis_risk":5,"migraine_risk":7,"frizz_risk":0,"updated_at":"2026-02-25T02:10:19.083137+05:30"},{"city":"Siliguri","state":"West Bengal","latitude":26.7271,"longitude":88.3953,"temp":18.1,"humidity":55,"rain":0.0,"pressure":997.4,"uv_index":6.75,"aqi":168,"mosquito_risk":0,"arthritis_risk":5,"migraine_risk":7,"frizz_risk":0,"updated_at":"2026-02-25T02:10:22.419748+05:30"},{"city":"Durgapur","state":"West Bengal","latitude":23.5204,"longitude":87.3119,"temp":20.3,"humidity":81,"rain":0.0,"pressure":998.9,"uv_index":7.35,"aqi":173,"mosquito_risk":3,"arthritis_risk":5,"migraine_risk":7,"frizz_risk":1,"updated_at":"2026-02-25T02:10:22.419780+05:30"},{"city":"Asansol","state":"West Bengal","latitude":23.6739,"longitude":86.9524,"temp":21.0,"humidity":68,"rain":0.0,"pressure":997.5,"uv_index":7.35,"aqi":160,"mosquito_risk":3,"arthritis_risk":5,"migraine_risk":7,"frizz_risk":0,"updated_at":"2026-02-25T02:10:22.419790+05:30"},{"city":"Pondicherry","state":"Puducherry","latitude":11.9139,"longitude":79.8145,"temp":24.2,"humidity":97,"rain":0.0,"pressure":1009.7,"uv_index":8.6,"aqi":40,"mosquito_risk":3,"arthritis_risk":0,"migraine_risk":4,"frizz_risk":1,"updated_at":"2026-02-25T02:10:22.419798+05:30"},{"city":"Port Blair","state":"Andaman and Nicobar Islands","latitude":11.6234,"longitude":92.7265,"temp":26.7,"humidity":86,"rain":0.0,"pressure":1006.0,"uv_index":8.55,"aqi":33,"mosquito_risk":7,"arthritis_risk":5,"migraine_risk":4,"frizz_risk":1,"updated_at":"2026-02-25T02:10:22.419806+05:30"},{"city":"Haridwar","state":"Uttarakhand","latitude":29.9457,"longitude":78.1642,"temp":15.8,"humidity":91,"rain":0.0,"pressure":978.8,"uv_index":5.3,"aqi":139,"mosquito_risk":3,"arthritis_risk":10,"migraine_risk":3,"frizz_risk":0,"updated_at":"2026-02-25T02:10:22.419812+05:30"},{"city":"Rishikesh","state":"Uttarakhand","latitude":30.0869,"longitude":78.2676,"temp":15.9,"humidity":83,"rain":0.0,"pressure":971.2,"uv_index":5.35,"aqi":119,"mosquito_risk":3,"arthritis_risk":10,"migraine_risk":3,"frizz_risk":0,"updated_at":"2026-02-25T02:10:22.419820+05:30"},{"city":"Nainital","state":"Uttarakhand","latitude":29.3919,"longitude":79.4542,"temp":12.7,"humidity":72,"rain":0.0,"pressure":805.9,"uv_index":6.1,"aqi":140,"mosquito_risk":3,"arthritis_risk":5,"migraine_risk":7,"frizz_risk":0,"updated_at":"2026-02-25T02:10:22.419827+05:30"},{"city":"Mussoorie","state":"Uttarakhand","latitude":30.4599,"longitude":78.0664,"temp":10.6,"humidity":80,"rain":0.0,"pressure":802.1,"uv_index":5.65,"aqi":122,"mosquito_risk":3,"arthritis_risk":5,"migraine_risk":3,"frizz_risk":0,"updated_at":"2026-02-25T02:10:22.419833+05:30"},{"city":"Dharamshala","state":"Himachal Pradesh","latitude":32.219,"longitude":76.3234,"temp":14.5,"humidity":57,"rain":0.0,"pressure":869.9,"uv_index":5.9,"aqi":87,"mosquito_risk":0,"arthritis_risk":5,"migraine_risk":3,"frizz_risk":0,"updated_at":"2026-02-25T02:10:22.419840+05:30"},{"city":"Dalhousie","state":"Himachal Pradesh","latitude":32.5387,"longitude":75.971,"temp":10.6,"humidity":60,"rain":0.0,"pressure":802.9,"uv_index":6.1,"aqi":132,"mosquito_risk":0,"arthritis_risk":5,"migraine_risk":7,"frizz_risk":0,"updated_at":"2026-02-25T02:10:22.419847+05:30"},{"city":"Patiala","state":"Punjab","latitude":30.3398,"longitude":76.3869,"temp":14.4,"humidity":85,"rain":0.0,"pressure":982.6,"uv_index":5.35,"aqi":182,"mosquito_risk":3,"arthritis_risk":10,"migraine_risk":3,"frizz_risk":0,"updated_at":"2026-02-25T02:10:22.419859+05:30"},{"city":"Bhatinda","state":"Punjab","latitude":30.211,"longitude":74.9455,"temp":15.5,"humidity":74,"rain":0.0,"pressure":988.2,"uv_index":6.0,"aqi":162,"mosquito_risk":3,"arthritis_risk":5,"migraine_risk":3,"frizz_risk":0,"updated_at":"2026-02-25T02:10:22.419866+05:30"},{"city":"Rohtak","state":"Haryana","latitude":28.8955,"longitude":76.6066,"temp":14.7,"humidity":68,"rain":0.0,"pressure":986.0,"uv_index":5.55,"aqi":166,"mosquito_risk":3,"arthritis_risk":5,"migraine_risk":3,"frizz_risk":0,"updated_at":"2026-02-25T02:10:22.419872+05:30"},{"city":"Panipat","state":"Haryana","latitude":29.3909,"longitude":76.9635,"temp":14.1,"humidity":68,"rain":0.0,"pressure":984.8,"uv_index":5.35,"aqi":169,"mosquito_risk":3,"arthritis_risk":5,"migraine_risk":3,"frizz_risk":0,"updated_at":"2026-02-25T02:10:22.419879+05:30"},{"city":"Mathura","state":"Uttar Pradesh","latitude":27.4924,"longitude":77.6737,"temp":15.3,"humidity":76,"rain":0.0,"pressure":991.3,"uv_index":5.8,"aqi":170,"mosquito_risk":3,"arthritis_risk":5,"migraine_risk":3,"frizz_risk":0,"updated_at":"2026-02-25T02:10:22.419885+05:30"},{"city":"Vrindavan","state":"Uttar Pradesh","latitude":27.5823,"longitude":77.7027,"temp":15.3,"humidity":75,"rain":0.0,"pressure":991.8,"uv_index":5.75,"aqi":170,"mosquito_risk":3,"arthritis_risk":5,"migraine_risk":3,"frizz_risk":0,"updated_at":"2026-02-25T02:10:22.419891+05:30"},{"city":"Ayodhya","state":"Uttar Pradesh","latitude":26.7922,"longitude":82.1998,"temp":16.4,"humidity":76,"rain":0.0,"pressure":999.6,"uv_index":6.15,"aqi":169,"mosquito_risk":3,"arthritis_risk":5,"migraine_risk":7,"frizz_risk":0,"updated_at":"2026-02-25T02:10:22.419898+05:30"},{"city":"Ratlam","state":"Madhya Pradesh","latitude":23.3315,"longitude":75.0367,"temp":15.8,"humidity":92,"rain":0.0,"pressure":955.6,"uv_index":7.05,"aqi":89,"mosquito_risk":3,"arthritis_risk":10,"migraine_risk":7,"frizz_risk":0,"updated_at":"2026-02-25T02:10:22.419905+05:30"},{"city":"Sagar","state":"Madhya Pradesh","latitude":23.8388,"longitude":78.7378,"temp":19.1,"humidity":56,"rain":0.0,"pressure":952.6,"uv_index":7.0,"aqi":89,"mosquito_risk":0,"arthritis_risk":5,"migraine_risk":7,"frizz_risk":0,"updated_at":"2026-02-25T02:10:22.419912+05:30"},{"city":"Satna","state":"Madhya Pradesh","latitude":24.6005,"longitude":80.8322,"temp":17.6,"humidity":57,"rain":0.0,"pressure":975.0,"uv_index":6.9,"aqi":116,"mosquito_risk":0,"arthritis_risk":5,"migraine_risk":7,"frizz_risk":0,"updated_at":"2026-02-25T02:10:22.419918+05:30"},{"city":"Akola","state":"Maharashtra","latitude":20.7002,"longitude":77.0082,"temp":20.9,"humidity":81,"rain":0.0,"pressure":976.8,"uv_index":7.5,"aqi":134,"mosquito_risk":3,"arthritis_risk":5,"migraine_risk":7,"frizz_risk":1,"updated_at":"2026-02-25T02:10:22.419925+05:30"},{"city":"Amravati","state":"Maharashtra","latitude":20.9374,"longitude":77.7796,"temp":21.4,"humidity":74,"rain":0.0,"pressure":969.2,"uv_index":7.45,"aqi":150,"mosquito_risk":3,"arthritis_risk":5,"migraine_risk":7,"frizz_risk":1,"updated_at":"2026-02-25T02:10:22.419932+05:30"},{"city":"Latur","state":"Maharashtra","latitude":18.4088,"longitude":76.5604,"temp":19.8,"humidity":83,"rain":0.0,"pressure":940.3,"uv_index":7.75,"aqi":138,"mosquito_risk":3,"arthritis_risk":10,"migraine_risk":7,"frizz_risk":1,"updated_at":"2026-02-25T02:10:22.419939+05:30"},{"city":"Nanded","state":"Maharashtra","latitude":19.1383,"longitude":77.3091,"temp":20.9,"humidity":85,"rain":0.0,"pressure":970.2,"uv_index":7.7,"aqi":151,"mosquito_risk":3,"arthritis_risk":5,"migraine_risk":7,"frizz_risk":1,"updated_at":"2026-02-25T02:10:22.419945+05:30"},{"city":"Gulbarga","state":"Karnataka","latitude":17.3297,"longitude":76.8343,"temp":22.1,"humidity":81,"rain":0.0,"pressure":959.8,"uv_index":8.0,"aqi":121,"mosquito_risk":3,"arthritis_risk":5,"migraine_risk":7,"frizz_risk":1,"updated_at":"2026-02-25T02:10:22.419951+05:30"},{"city":"Bidar","state":"Karnataka","latitude":17.9104,"longitude":77.5199,"temp":21.5,"humidity":79,"rain":0.0,"pressure":936.1,"uv_index":7.9,"aqi":147,"mosquito_risk":3,"arthritis_risk":5,"migraine_risk":7,"frizz_risk":1,"updated_at":"2026-02-25T02:10:22.419958+05:30"},{"city":"Hospet","state":"Karnataka","latitude":15.2689,"longitude":76.3909,"temp":25.6,"humidity":61,"rain":0.0,"pressure":956.8,"uv_index":8.35,"aqi":100,"mosquito_risk":7,"arthritis_risk":5,"migraine_risk":7,"frizz_risk":1,"updated_at":"2026-02-25T02:10:22.419964+05:30"},{"city":"Tirupur","state":"Tamil Nadu","latitude":11.1085,"longitude":77.3411,"temp":24.0,"humidity":82,"rain":0.0,"pressure":976.7,"uv_index":8.9,"aqi":86,"mosquito_risk":3,"arthritis_risk":5,"migraine_risk":7,"frizz_risk":1,"updated_at":"2026-02-25T02:10:22.419971+05:30"},{"city":"Alappuzha","state":"Kerala","latitude":9.4981,"longitude":76.3388,"temp":26.5,"humidity":84,"rain":0.0,"pressure":1009.4,"uv_index":8.75,"aqi":95,"mosquito_risk":7,"arthritis_risk":0,"migraine_risk":4,"frizz_risk":1,"updated_at":"2026-02-25T02:10:22.419976+05:30"},{"city":"Munnar","state":"Kerala","latitude":10.0889,"longitude":77.0595,"temp":19.0,"humidity":93,"rain":0.0,"pressure":856.1,"uv_index":9.1,"aqi":69,"mosquito_risk":3,"arthritis_risk":10,"migraine_risk":7,"frizz_risk":1,"updated_at":"2026-02-25T02:10:22.419983+05:30"},{"city":"Silchar","state":"Assam","latitude":24.8333,"longitude":92.7789,"temp":18.6,"humidity":78,"rain":0.0,"pressure":1008.1,"uv_index":7.05,"aqi":160,"mosquito_risk":3,"arthritis_risk":0,"migraine_risk":4,"frizz_risk":0,"updated_at":"2026-02-25T02:10:22.419989+05:30"},{"city":"Dibrugarh","state":"Assam","latitude":27.4728,"longitude":94.912,"temp":20.7,"humidity":82,"rain":0.0,"pressure":998.4,"uv_index":6.7,"aqi":125,"mosquito_risk":3,"arthritis_risk":5,"migraine_risk":7,"frizz_risk":1,"updated_at":"2026-02-25T02:10:22.419996+05:30"}]