[{"city":"Delhi","state":"Delhi","latitude":28.6139,"longitude":77.209,"temp":25.1,"humidity":62,"rain":0.0,"pressure":986.2,"uv_index":3.95,"wind_gusts":33.1,"aqi":119,"pm10":98.5,"pm2_5":35.7,"mosquito_risk":7,"arthritis_risk":5,"migraine_risk":3,"frizz_risk":1,"updated_at":"2026-03-19T15:20:19.243012+05:30"},{"city":"Mumbai","state":"Maharashtra","latitude":19.076,"longitude":72.8777,"temp":27.1,"humidity":71,"rain":0.0,"pressure":1009.9,"uv_index":7.75,"wind_gusts":20.2,"aqi":77,"pm10":39.3,"pm2_5":28.6,"mosquito_risk":7,"arthritis_risk":0,"migraine_risk":4,"frizz_risk":1,"updated_at":"2026-03-19T15:20:19.243051+05:30"},{"city":"Bangalore","state":"Karnataka","latitude":12.9716,"longitude":77.5946,"temp":30.2,"humidity":35,"rain":0.0,"pressure":911.8,"uv_index":9.35,"wind_gusts":24.1,"aqi":93,"pm10":28.2,"pm2_5":23.7,"mosquito_risk":0,"arthritis_risk":5,"migraine_risk":7,"frizz_risk":0,"updated_at":"2026-03-19T15:20:19.243066+05:30"},{"city":"Hyderabad","state":"Telangana","latitude":17.385,"longitude":78.4867,"temp":30.6,"humidity":40,"rain":0.0,"pressure":954.0,"uv_index":8.75,"wind_gusts":33.5,"aqi":80,"pm10":25.6,"pm2_5":18.2,"mosquito_risk":0,"arthritis_risk":5,"migraine_risk":7,"frizz_risk":0,"updated_at":"2026-03-19T15:20:19.243076+05:30"},{"city":"Chennai","state":"Tamil Nadu","latitude":13.0827,"longitude":80.2707,"temp":30.5,"humidity":63,"rain":0.0,"pressure":1007.7,"uv_index":9.1,"wind_gusts":28.8,"aqi":46,"pm10":15.8,"pm2_5":12.5,"mosquito_risk":3,"arthritis_risk":5,"migraine_risk":4,"frizz_risk":1,"updated_at":"2026-03-19T15:20:19.243085+05:30"},{"city":"Kolkata","state":"West Bengal","latitude":22.5726,"longitude":88.3639,"temp":30.1,"humidity":60,"rain":0.0,"pressure":1007.1,"uv_index":7.7,"wind_gusts":25.2,"aqi":91,"pm10":54.7,"pm2_5":46.6,"mosquito_risk":0,"arthritis_risk":5,"migraine_risk":4,"frizz_risk":1,"updated_at":"2026-03-19T15:20:19.243093+05:30"},{"city":"Pune","state":"Maharashtra","latitude":18.5204,"longitude":73.8567,"temp":32.5,"humidity":30,"rain":0.0,"pressure":949.3,"uv_index":8.3,"wind_gusts":34.9,"aqi":128,"pm10":39.2,"pm2_5":27.1,"mosquito_risk":0,"arthritis_risk":5,"migraine_risk":7,"frizz_risk":0,"updated_at":"2026-03-19T15:20:19.243106+05:30"},{"city":"Ahmedabad","state":"Gujarat","latitude":23.0225,"longitude":72.5714,"temp":34.0,"humidity":29,"rain":0.0,"pressure":1003.2,"uv_index":7.55,"wind_gusts":49.7,"aqi":69,"pm10":28.7,"pm2_5":19.8,"mosquito_risk":0,"arthritis_risk":5,"migraine_risk":4,"frizz_risk":0,"updated_at":"2026-03-19T15:20:19.243114+05:30"},{"city":"Jaipur","state":"Rajasthan","latitude":26.9124,"longitude":75.7873,"temp":27.3,"humidity":47,"rain":0.0,"pressure":961.4,"uv_index":7.05,"wind_gusts":34.2,"aqi":136,"pm10":135.0,"pm2_5":30.7,"mosquito_risk":4,"arthritis_risk":5,"migraine_risk":7,"frizz_risk":0,"updated_at":"2026-03-19T15:20:19.243121+05:30"},{"city":"Lucknow","state":"Uttar Pradesh","latitude":26.8467,"longitude":80.9462,"temp":33.6,"humidity":24,"rain":0.0,"pressure":994.5,"uv_index":6.8,"wind_gusts":28.1,"aqi":95,"pm10":44.7,"pm2_5":15.7,"mosquito_risk":0,"arthritis_risk":5,"migraine_risk":7,"frizz_risk":0,"updated_at":"2026-03-19T15:20:19.243129+05:30"},{"city":"Kanpur","state":"Uttar Pradesh","latitude":26.4499,"longitude":80.3319,"temp":33.2,"humidity":31,"rain":0.0,"pressure":992.6,"uv_index":6.85,"wind_gusts":26.6,"aqi":121,"pm10":216.5,"pm2_5":32.5,"mosquito_risk":0,"arthritis_risk":5,"migraine_risk":7,"frizz_risk":0,"updated_at":"2026-03-19T15:20:19.243135+05:30"},{"city":"Chandigarh","state":"Chandigarh","latitude":30.7333,"longitude":76.7794,"temp":20.2,"humidity":75,"rain":0.1,"pressure":972.6,"uv_index":3.9,"wind_gusts":15.8,"aqi":60,"pm10":67.5,"pm2_5":22.1,"mosquito_risk":6,"arthritis_risk":5,"migraine_risk":3,"frizz_risk":0,"updated_at":"2026-03-19T15:20:19.243159+05:30"},{"city":"Srinagar","state":"Jammu and Kashmir","latitude":34.0837,"longitude":74.7973,"temp":8.5,"humidity":85,"rain":0.2,"pressure":841.2,"uv_index":0.95,"wind_gusts":15.1,"aqi":89,"pm10":18.3,"pm2_5":16.6,"mosquito_risk":6,"arthritis_risk":10,"migraine_risk":3,"frizz_risk":0,"updated_at":"2026-03-19T15:20:19.243168+05:30"},{"city":"Jammu","state":"Jammu and Kashmir","latitude":32.7266,"longitude":74.857,"temp":20.6,"humidity":73,"rain":0.0,"pressure":976.9,"uv_index":3.0,"wind_gusts":35.3,"aqi":58,"pm10":54.7,"pm2_5":18.2,"mosquito_risk":3,"arthritis_risk":5,"migraine_risk":3,"frizz_risk":0,"updated_at":"2026-03-19T15:20:19.243175+05:30"},{"city":"Amritsar","state":"Punjab","latitude":31.634,"longitude":74.8723,"temp":18.2,"humidity":88,"rain":0.0,"pressure":985.0,"uv_index":2.45,"wind_gusts":24.8,"aqi":83,"pm10":115.5,"pm2_5":39.0,"mosquito_risk":3,"arthritis_risk":10,"migraine_risk":3,"frizz_risk":1,"updated_at":"2026-03-19T15:20:19.243182+05:30"},{"city":"Ludhiana","state":"Punjab","latitude":30.901,"longitude":75.8573,"temp":18.5,"humidity":81,"rain":0.2,"pressure":983.0,"uv_index":1.6,"wind_gusts":20.9,"aqi":77,"pm10":59.0,"pm2_5":26.4,"mosquito_risk":6,"arthritis_risk":10,"migraine_risk":3,"frizz_risk":0,"updated_at":"2026-03-19T15:20:19.243189+05:30"},{"city":"Jalandhar","state":"Punjab","latitude":31.326,"longitude":75.5762,"temp":17.9,"humidity":88,"rain":0.1,"pressure":984.4,"uv_index":2.7,"wind_gusts":20.2,"aqi":77,"pm10":75.7,"pm2_5":30.4,"mosquito_risk":6,"arthritis_risk":10,"migraine_risk":3,"frizz_risk":0,"updated_at":"2026-03-19T15:20:19.243199+05:30"},{"city":"Dehradun","state":"Uttarakhand","latitude":30.6284,"longitude":78.0322,"temp":12.7,"humidity":79,"rain":0.4,"pressure":831.0,"uv_index":5.3,"wind_gusts":28.8,"aqi":42,"pm10":26.5,"pm2_5":7.6,"mosquito_risk":6,"arthritis_risk":5,"migraine_risk":3,"frizz_risk":0,"updated_at":"2026-03-19T15:20:19.243206+05:30"},{"city":"Shimla","state":"Himachal Pradesh","latitude":31.1048,"longitude":77.1734,"temp":11.2,"humidity":83,"rain":0.1,"pressure":783.9,"uv_index":3.7,"wind_gusts":36.4,"aqi":44,"pm10":24.7,"pm2_5":8.3,"mosquito_risk":6,"arthritis_risk":10,"migraine_risk":3,"frizz_risk":0,"updated_at":"2026-03-19T15:20:19.243215+05:30"},{"city":"Manali","state":"Himachal Pradesh","latitude":32.2396,"longitude":77.1887,"temp":11.3,"humidity":88,"rain":0.1,"pressure":817.6,"uv_index":4.3,"wind_gusts":23.8,"aqi":47,"pm10":6.4,"pm2_5":3.5,"mosquito_risk":6,"arthritis_risk":10,"migraine_risk":3,"frizz_risk":0,"updated_at":"2026-03-19T15:20:19.243222+05:30"},{"city":"Gurgaon","state":"Haryana","latitude":28.4595,"longitude":77.0266,"temp":23.4,"humidity":75,"rain":0.0,"pressure":984.8,"uv_index":5.05,"wind_gusts":29.9,"aqi":144,"pm10":514.1,"pm2_5":65.9,"mosquito_risk":3,"arthritis_risk":5,"migraine_risk":3,"frizz_risk":1,"updated_at":"2026-03-19T15:20:19.243229+05:30"},{"city":"Noida","state":"Uttar Pradesh","latitude":28.5355,"longitude":77.391,"temp":25.2,"humidity":63,"rain":0.0,"pressure":987.6,"uv_index":4.25,"wind_gusts":32.8,"aqi":144,"pm10":514.1,"pm2_5":65.9,"mosquito_risk":7,"arthritis_risk":5,"migraine_risk":3,"frizz_risk":1,"updated_at":"2026-03-19T15:20:19.243236+05:30"},{"city":"Ghaziabad","state":"Uttar Pradesh","latitude":28.6692,"longitude":77.4538,"temp":25.1,"humidity":62,"rain":0.0,"pressure":986.1,"uv_index":4.2,"wind_gusts":34.2,"aqi":106,"pm10":78.7,"pm2_5":23.2,"mosquito_risk":7,"arthritis_risk":5,"migraine_risk":3,"frizz_risk":1,"updated_at":"2026-03-19T15:20:19.243243+05:30"},{"city":"Faridabad","state":"Haryana","latitude":28.4089,"longitude":77.3178,"temp":24.8,"humidity":65,"rain":0.0,"pressure":986.8,"uv_index":5.9,"wind_gusts":33.5,"aqi":144,"pm10":514.1,"pm2_5":65.9,"mosquito_risk":3,"arthritis_risk":5,"migraine_risk":3,"frizz_risk":1,"updated_at":"2026-03-19T15:20:19.243250+05:30"},{"city":"Meerut","state":"Uttar Pradesh","latitude":28.9845,"longitude":77.7064,"temp":25.3,"humidity":58,"rain":0.0,"pressure":984.7,"uv_index":3.35,"wind_gusts":34.6,"aqi":106,"pm10":78.7,"pm2_5":23.2,"mosquito_risk":4,"arthritis_risk":5,"migraine_risk":3,"frizz_risk":1,"updated_at":"2026-03-19T15:20:19.243256+05:30"},{"city":"Agra","state":"Uttar Pradesh","latitude":27.1767,"longitude":78.0081,"temp":32.7,"humidity":29,"rain":0.0,"pressure":989.2,"uv_index":6.7,"wind_gusts":37.8,"aqi":652,"pm10":828.9,"pm2_5":81.3,"mosquito_risk":0,"arthritis_risk":5,"migraine_risk":7,"frizz_risk":0,"updated_at":"2026-03-19T15:20:19.243263+05:30"},{"city":"Varanasi","state":"Uttar Pradesh","latitude":25.3176,"longitude":82.9739,"temp":34.5,"humidity":32,"rain":0.0,"pressure":997.9,"uv_index":7.5,"wind_gusts":19.8,"aqi":124,"pm10":49.4,"pm2_5":32.9,"mosquito_risk":0,"arthritis_risk":5,"migraine_risk":7,"frizz_risk":0,"updated_at":"2026-03-19T15:20:19.243272+05:30"},{"city":"Prayagraj","state":"Uttar Pradesh","latitude":25.4358,"longitude":81.8463,"temp":34.5,"humidity":31,"rain":0.0,"pressure":995.8,"uv_index":7.35,"wind_gusts":22.0,"aqi":107,"pm10":55.5,"pm2_5":25.7,"mosquito_risk":0,"arthritis_risk":5,"migraine_risk":7,"frizz_risk":0,"updated_at":"2026-03-19T15:20:19.243280+05:30"},{"city":"Gorakhpur","state":"Uttar Pradesh","latitude":26.7606,"longitude":83.3732,"temp":34.2,"humidity":26,"rain":0.0,"pressure":997.3,"uv_index":7.2,"wind_gusts":20.9,"aqi":125,"pm10":53.8,"pm2_5":20.5,"mosquito_risk":0,"arthritis_risk":5,"migraine_risk":7,"frizz_risk":0,"updated_at":"2026-03-19T15:20:19.243286+05:30"},{"city":"Bareilly","state":"Uttar Pradesh","latitude":28.367,"longitude":79.4304,"temp":28.7,"humidity":42,"rain":0.0,"pressure":989.6,"uv_index":6.15,"wind_gusts":34.9,"aqi":82,"pm10":29.3,"pm2_5":11.6,"mosquito_risk":4,"arthritis_risk":5,"migraine_risk":7,"frizz_risk":0,"updated_at":"2026-03-19T15:20:19.243292+05:30"},{"city":"Aligarh","state":"Uttar Pradesh","latitude":27.8974,"longitude":78.088,"temp":29.1,"humidity":40,"rain":0.0,"pressure":988.0,"uv_index":6.4,"wind_gusts":37.1,"aqi":160,"pm10":318.5,"pm2_5":45.9,"mosquito_risk":4,"arthritis_risk":5,"migraine_risk":7,"frizz_risk":0,"updated_at":"2026-03-19T15:20:19.243299+05:30"},{"city":"Moradabad","state":"Uttar Pradesh","latitude":28.8386,"longitude":78.7733,"temp":27.2,"humidity":48,"rain":0.0,"pressure":986.8,"uv_index":5.5,"wind_gusts":46.1,"aqi":111,"pm10":55.3,"pm2_5":18.9,"mosquito_risk":4,"arthritis_risk":5,"migraine_risk":3,"frizz_risk":0,"updated_at":"2026-03-19T15:20:19.243305+05:30"},{"city":"Saharanpur","state":"Uttar Pradesh","latitude":29.9637,"longitude":77.546,"temp":20.0,"humidity":78,"rain":0.4,"pressure":979.9,"uv_index":3.55,"wind_gusts":22.7,"aqi":72,"pm10":71.7,"pm2_5":22.9,"mosquito_risk":6,"arthritis_risk":5,"migraine_risk":3,"frizz_risk":1,"updated_at":"2026-03-19T15:20:19.243311+05:30"},{"city":"Jhansi","state":"Uttar Pradesh","latitude":25.4484,"longitude":78.5685,"temp":34.4,"humidity":24,"rain":0.0,"pressure":977.6,"uv_index":7.3,"wind_gusts":38.9,"aqi":85,"pm10":53.7,"pm2_5":27.4,"mosquito_risk":0,"arthritis_risk":5,"migraine_risk":7,"frizz_risk":0,"updated_at":"2026-03-19T15:20:22.472435+05:30"},{"city":"Surat","state":"Gujarat","latitude":21.1702,"longitude":72.8311,"temp":29.2,"humidity":50,"rain":0.0,"pressure":1008.3,"uv_index":7.45,"wind_gusts":28.1,"aqi":77,"pm10":28.5,"pm2_5":21.3,"mosquito_risk":4,"arthritis_risk":0,"migraine_risk":4,"frizz_risk":1,"updated_at":"2026-03-19T15:20:22.472465+05:30"},{"city":"Vadodara","state":"Gujarat","latitude":22.3072,"longitude":73.1812,"temp":35.1,"humidity":32,"rain":0.0,"pressure":1004.9,"uv_index":7.35,"wind_gusts":47.9,"aqi":63,"pm10":18.3,"pm2_5":13.3,"mosquito_risk":0,"arthritis_risk":5,"migraine_risk":7,"frizz_risk":0,"updated_at":"2026-03-19T15:20:22.472475+05:30"},{"city":"Rajkot","state":"Gujarat","latitude":22.3039,"longitude":70.8022,"temp":28.8,"humidity":52,"rain":0.0,"pressure":997.1,"uv_index":7.4,"wind_gusts":51.5,"aqi":47,"pm10":40.0,"pm2_5":17.6,"mosquito_risk":4,"arthritis_risk":5,"migraine_risk":7,"frizz_risk":1,"updated_at":"2026-03-19T15:20:22.472484+05:30"},{"city":"Thane","state":"Maharashtra","latitude":19.2183,"longitude":72.9781,"temp":29.5,"humidity":59,"rain":0.0,"pressure":1009.3,"uv_index":7.75,"wind_gusts":33.5,"aqi":77,"pm10":39.3,"pm2_5":28.6,"mosquito_risk":4,"arthritis_risk":0,"migraine_risk":4,"frizz_risk":1,"updated_at":"2026-03-19T15:20:22.472492+05:30"},{"city":"Nagpur","state":"Maharashtra","latitude":21.1458,"longitude":79.0882,"temp":32.9,"humidity":33,"rain":0.0,"pressure":973.8,"uv_index":7.85,"wind_gusts":26.3,"aqi":106,"pm10":48.3,"pm2_5":38.0,"mosquito_risk":0,"arthritis_risk":5,"migraine_risk":7,"frizz_risk":0,"updated_at":"2026-03-19T15:20:22.472500+05:30"},{"city":"Nashik","state":"Maharashtra","latitude":19.9975,"longitude":73.7898,"temp":28.9,"humidity":44,"rain":0.0,"pressure":946.9,"uv_index":7.95,"wind_gusts":28.8,"aqi":56,"pm10":20.6,"pm2_5":15.5,"mosquito_risk":4,"arthritis_risk":5,"migraine_risk":7,"frizz_risk":0,"updated_at":"2026-03-19T15:20:22.472508+05:30"},{"city":"Aurangabad","state":"Maharashtra","latitude":19.8762,"longitude":75.3433,"temp":29.5,"humidity":37,"rain":0.0,"pressure":945.2,"uv_index":8.45,"wind_gusts":41.8,"aqi":82,"pm10":31.9,"pm2_5":20.4,"mosquito_risk":4,"arthritis_risk":5,"migraine_risk":7,"frizz_risk":0,"updated_at":"2026-03-19T15:20:22.472516+05:30"},{"city":"Solapur","state":"Maharashtra","latitude":17.6599,"longitude":75.9064,"temp":27.7,"humidity":51,"rain":0.0,"pressure":958.5,"uv_index":8.65,"wind_gusts":39.6,"aqi":78,"pm10":30.4,"pm2_5":20.7,"mosquito_risk":4,"arthritis_risk":5,"migraine_risk":7,"frizz_risk":1,"updated_at":"2026-03-19T15:20:22.472524+05:30"},{"city":"Kolhapur","state":"Maharashtra","latitude":16.705,"longitude":74.2433,"temp":31.0,"humidity":33,"rain":0.0,"pressure":948.8,"uv_index":8.8,"wind_gusts":49.0,"aqi":116,"pm10":33.9,"pm2_5":23.6,"mosquito_risk":0,"arthritis_risk":5,"migraine_risk":7,"frizz_risk":0,"updated_at":"2026-03-19T15:20:22.472531+05:30"},{"city":"Goa","state":"Goa","latitude":15.2993,"longitude":74.124,"temp":31.0,"humidity":57,"rain":0.0,"pressure":999.3,"uv_index":8.8,"wind_gusts":33.1,"aqi":80,"pm10":32.9,"pm2_5":21.1,"mosquito_risk":0,"arthritis_risk":5,"migraine_risk":7,"frizz_risk":1,"updated_at":"2026-03-19T15:20:22.472539+05:30"},{"city":"Jodhpur","state":"Rajasthan","latitude":26.2389,"longitude":73.0243,"temp":28.4,"humidity":44,"rain":0.0,"pressure":984.9,"uv_index":6.8,"wind_gusts":44.6,"aqi":69,"pm10":124.8,"pm2_5":25.4,"mosquito_risk":4,"arthritis_risk":5,"migraine_risk":7,"frizz_risk":0,"updated_at":"2026-03-19T15:20:22.472546+05:30"},{"city":"Udaipur","state":"Rajasthan","latitude":24.5854,"longitude":73.7125,"temp":26.2,"humidity":49,"rain":0.0,"pressure":948.0,"uv_index":6.6,"wind_gusts":49.3,"aqi":47,"pm10":54.6,"pm2_5":16.4,"mosquito_risk":4,"arthritis_risk":5,"migraine_risk":7,"frizz_risk":0,"updated_at":"2026-03-19T15:20:22.472553+05:30"},{"city":"Kota","state":"Rajasthan","latitude":25.2138,"longitude":75.8648,"temp":29.2,"humidity":44,"rain":0.0,"pressure":980.4,"uv_index":7.35,"wind_gusts":32.8,"aqi":86,"pm10":96.4,"pm2_5":35.3,"mosquito_risk":4,"arthritis_risk":5,"migraine_risk":7,"frizz_risk":0,"updated_at":"2026-03-19T15:20:22.472561+05:30"},{"city":"Bikaner","state":"Rajasthan","latitude":28.0229,"longitude":73.3119,"temp":24.1,"humidity":62,"rain":0.0,"pressure":984.8,"uv_index":5.9,"wind_gusts":31.0,"aqi":64,"pm10":96.6,"pm2_5":22.9,"mosquito_risk":3,"arthritis_risk":5,"migraine_risk":3,"frizz_risk":1,"updated_at":"2026-03-19T15:20:22.472568+05:30"},{"city":"Ajmer","state":"Rajasthan","latitude":26.4499,"longitude":74.6399,"temp":27.5,"humidity":45,"rain":0.0,"pressure":955.9,"uv_index":5.2,"wind_gusts":30.2,"aqi":67,"pm10":84.1,"pm2_5":20.7,"mosquito_risk":4,"arthritis_risk":5,"migraine_risk":3,"frizz_risk":0,"updated_at":"2026-03-19T15:20:22.472575+05:30"},{"city":"Gwalior","state":"Madhya Pradesh","latitude":26.2183,"longitude":78.1828,"temp":32.1,"humidity":33,"rain":0.0,"pressure":984.0,"uv_index":7.0,"wind_gusts":30.2,"aqi":136,"pm10":127.1,"pm2_5":35.6,"mosquito_risk":0,"arthritis_risk":5,"migraine_risk":7,"frizz_risk":0,"updated_at":"2026-03-19T15:20:22.472583+05:30"},{"city":"Indore","state":"Madhya Pradesh","latitude":22.7196,"longitude":75.8577,"temp":33.6,"humidity":16,"rain":0.0,"pressure":948.2,"uv_index":7.9,"wind_gusts":33.5,"aqi":74,"pm10":26.5,"pm2_5":19.3,"mosquito_risk":0,"arthritis_risk":5,"migraine_risk":7,"frizz_risk":0,"updated_at":"2026-03-19T15:20:22.472591+05:30"},{"city":"Bhopal","state":"Madhya Pradesh","latitude":23.2599,"longitude":77.4126,"temp":33.1,"humidity":20,"rain":0.0,"pressure":954.6,"uv_index":7.8,"wind_gusts":35.6,"aqi":71,"pm10":21.9,"pm2_5":17.3,"mosquito_risk":0,"arthritis_risk":5,"migraine_risk":7,"frizz_risk":0,"updated_at":"2026-03-19T15:20:22.472598+05:30"},{"city":"Jabalpur","state":"Madhya Pradesh","latitude":23.1815,"longitude":79.9864,"temp":33.6,"humidity":23,"rain":0.0,"pressure":961.8,"uv_index":7.9,"wind_gusts":34.6,"aqi":75,"pm10":29.0,"pm2_5":22.2,"mosquito_risk":0,"arthritis_risk":5,"migraine_risk":7,"frizz_risk":0,"updated_at":"2026-03-19T15:20:22.472605+05:30"},{"city":"Ujjain","state":"Madhya Pradesh","latitude":23.1765,"longitude":75.7885,"temp":32.6,"humidity":22,"rain":0.0,"pressure":954.0,"uv_index":7.8,"wind_gusts":29.2,"aqi":56,"pm10":19.2,"pm2_5":14.2,"mosquito_risk":0,"arthritis_risk":5,"migraine_risk":7,"frizz_risk":0,"updated_at":"2026-03-19T15:20:22.472613+05:30"},{"city":"Visakhapatnam","state":"Andhra Pradesh","latitude":17.6868,"longitude":83.2185,"temp":30.9,"humidity":53,"rain":0.0,"pressure":1004.9,"uv_index":7.8,"wind_gusts":32.8,"aqi":66,"pm10":17.9,"pm2_5":13.8,"mosquito_risk":0,"arthritis_risk":5,"migraine_risk":4,"frizz_risk":1,"updated_at":"2026-03-19T15:20:22.472621+05:30"},{"city":"Vijayawada","state":"Andhra Pradesh","latitude":16.5062,"longitude":80.648,"temp":30.3,"humidity":53,"rain":0.0,"pressure":1003.9,"uv_index":8.35,"wind_gusts":28.8,"aqi":64,"pm10":14.9,"pm2_5":10.8,"mosquito_risk":0,"arthritis_risk":5,"migraine_risk":4,"frizz_risk":1,"updated_at":"2026-03-19T15:20:22.472628+05:30"},{"city":"Guntur","state":"Andhra Pradesh","latitude":16.3067,"longitude":80.4365,"temp":27.3,"humidity":69,"rain":0.0,"pressure":1005.5,"uv_index":8.4,"wind_gusts":31.3,"aqi":64,"pm10":18.3,"pm2_5":10.7,"mosquito_risk":7,"arthritis_risk":5,"migraine_risk":4,"frizz_risk":1,"updated_at":"2026-03-19T15:20:22.472636+05:30"},{"city":"Nellore","state":"Andhra Pradesh","latitude":14.4426,"longitude":79.9865,"temp":31.2,"humidity":55,"rain":0.0,"pressure":1006.5,"uv_index":9.0,"wind_gusts":27.0,"aqi":37,"pm10":14.6,"pm2_5":10.6,"mosquito_risk":0,"arthritis_risk":5,"migraine_risk":4,"frizz_risk":1,"updated_at":"2026-03-19T15:20:22.472643+05:30"},{"city":"Kurnool","state":"Andhra Pradesh","latitude":15.8281,"longitude":78.0373,"temp":32.5,"humidity":35,"rain":0.0,"pressure":977.4,"uv_index":8.85,"wind_gusts":33.1,"aqi":61,"pm10":16.0,"pm2_5":11.2,"mosquito_risk":0,"arthritis_risk":5,"migraine_risk":7,"frizz_risk":0,"updated_at":"2026-03-19T15:20:22.472652+05:30"},{"city":"Kakinada","state":"Andhra Pradesh","latitude":16.9891,"longitude":82.2475,"temp":31.0,"humidity":51,"rain":0.0,"pressure":1008.4,"uv_index":8.5,"wind_gusts":23.0,"aqi":41,"pm10":11.3,"pm2_5":8.3,"mosquito_risk":0,"arthritis_risk":0,"migraine_risk":4,"frizz_risk":1,"updated_at":"2026-03-19T15:20:22.472659+05:30"},{"city":"Tirupati","state":"Andhra Pradesh","latitude":13.6288,"longitude":79.4192,"temp":29.7,"humidity":55,"rain":0.0,"pressure":991.6,"uv_index":9.1,"wind_gusts":21.6,"aqi":60,"pm10":15.1,"pm2_5":11.5,"mosquito_risk":4,"arthritis_risk":5,"migraine_risk":7,"frizz_risk":1,"updated_at":"2026-03-19T15:20:22.472666+05:30"},{"city":"Warangal","state":"Telangana","latitude":17.9689,"longitude":79.5941,"temp":29.9,"humidity":52,"rain":0.0,"pressure":979.9,"uv_index":8.0,"wind_gusts":19.8,"aqi":146,"pm10":35.0,"pm2_5":27.1,"mosquito_risk":4,"arthritis_risk":5,"migraine_risk":7,"frizz_risk":1,"updated_at":"2026-03-19T15:20:22.472673+05:30"},{"city":"Nizamabad","state":"Telangana","latitude":18.6725,"longitude":78.0941,"temp":32.3,"humidity":31,"rain":0.0,"pressure":965.4,"uv_index":8.45,"wind_gusts":19.4,"aqi":112,"pm10":28.6,"pm2_5":21.0,"mosquito_risk":0,"arthritis_risk":5,"migraine_risk":7,"frizz_risk":0,"updated_at":"2026-03-19T15:20:22.472681+05:30"},{"city":"Mysore","state":"Karnataka","latitude":12.2958,"longitude":76.6396,"temp":32.2,"humidity":27,"rain":0.0,"pressure":928.2,"uv_index":9.35,"wind_gusts":36.4,"aqi":97,"pm10":26.7,"pm2_5":23.5,"mosquito_risk":0,"arthritis_risk":5,"migraine_risk":7,"frizz_risk":0,"updated_at":"2026-03-19T15:20:22.472688+05:30"},{"city":"Mangalore","state":"Karnataka","latitude":12.9141,"longitude":74.856,"temp":28.4,"humidity":75,"rain":0.0,"pressure":1007.2,"uv_index":8.95,"wind_gusts":26.6,"aqi":96,"pm10":23.9,"pm2_5":18.0,"mosquito_risk":7,"arthritis_risk":5,"migraine_risk":4,"frizz_risk":1,"updated_at":"2026-03-19T15:20:22.472695+05:30"},{"city":"Hubli-Dharwad","state":"Karnataka","latitude":15.3647,"longitude":75.124,"temp":31.2,"humidity":33,"rain":0.0,"pressure":941.5,"uv_index":8.95,"wind_gusts":32.4,"aqi":94,"pm10":33.4,"pm2_5":26.1,"mosquito_risk":0,"arthritis_risk":5,"migraine_risk":7,"frizz_risk":0,"updated_at":"2026-03-19T15:20:22.472703+05:30"},{"city":"Belgaum","state":"Karnataka","latitude":15.8497,"longitude":74.4977,"temp":29.5,"humidity":37,"rain":0.0,"pressure":926.7,"uv_index":9.0,"wind_gusts":37.4,"aqi":99,"pm10":34.2,"pm2_5":23.1,"mosquito_risk":4,"arthritis_risk":5,"migraine_risk":7,"frizz_risk":0,"updated_at":"2026-03-19T15:20:25.699366+05:30"},{"city":"Coimbatore","state":"Tamil Nadu","latitude":11.0168,"longitude":76.9558,"temp":32.0,"humidity":46,"rain":0.0,"pressure":961.4,"uv_index":9.3,"wind_gusts":47.9,"aqi":68,"pm10":18.4,"pm2_5":14.9,"mosquito_risk":0,"arthritis_risk":5,"migraine_risk":7,"frizz_risk":1,"updated_at":"2026-03-19T15:20:25.699399+05:30"},{"city":"Madurai","state":"Tamil Nadu","latitude":9.9252,"longitude":78.1198,"temp":34.2,"humidity":42,"rain":0.0,"pressure":992.0,"uv_index":9.25,"wind_gusts":23.0,"aqi":50,"pm10":13.4,"pm2_5":11.3,"mosquito_risk":0,"arthritis_risk":5,"migraine_risk":7,"frizz_risk":1,"updated_at":"2026-03-19T15:20:25.699413+05:30"},{"city":"Trichy","state":"Tamil Nadu","latitude":10.7905,"longitude":78.7047,"temp":35.2,"humidity":39,"rain":0.0,"pressure":998.2,"uv_index":9.2,"wind_gusts":29.5,"aqi":52,"pm10":17.9,"pm2_5":14.9,"mosquito_risk":0,"arthritis_risk":5,"migraine_risk":10,"frizz_risk":1,"updated_at":"2026-03-19T15:20:25.699424+05:30"},{"city":"Salem","state":"Tamil Nadu","latitude":11.6643,"longitude":78.146,"temp":35.2,"humidity":33,"rain":0.0,"pressure":976.1,"uv_index":9.25,"wind_gusts":25.6,"aqi":74,"pm10":22.5,"pm2_5":19.8,"mosquito_risk":0,"arthritis_risk":5,"migraine_risk":10,"frizz_risk":1,"updated_at":"2026-03-19T15:20:25.699433+05:30"},{"city":"Tirunelveli","state":"Tamil Nadu","latitude":8.7139,"longitude":77.7567,"temp":32.7,"humidity":48,"rain":0.0,"pressure":1002.8,"uv_index":8.5,"wind_gusts":23.0,"aqi":64,"pm10":20.1,"pm2_5":18.5,"mosquito_risk":0,"arthritis_risk":5,"migraine_risk":4,"frizz_risk":1,"updated_at":"2026-03-19T15:20:25.699441+05:30"},{"city":"Vellore","state":"Tamil Nadu","latitude":12.9165,"longitude":79.1325,"temp":31.9,"humidity":49,"rain":0.0,"pressure":984.2,"uv_index":9.15,"wind_gusts":28.1,"aqi":57,"pm10":17.0,"pm2_5":10.9,"mosquito_risk":0,"arthritis_risk":5,"migraine_risk":7,"frizz_risk":1,"updated_at":"2026-03-19T15:20:25.699448+05:30"},{"city":"Erode","state":"Tamil Nadu","latitude":11.341,"longitude":77.7172,"temp":35.7,"humidity":35,"rain":0.0,"pressure":987.4,"uv_index":9.25,"wind_gusts":36.7,"aqi":61,"pm10":15.0,"pm2_5":13.2,"mosquito_risk":0,"arthritis_risk":5,"migraine_risk":10,"frizz_risk":1,"updated_at":"2026-03-19T15:20:25.699456+05:30"},{"city":"Kochi","state":"Kerala","latitude":9.9312,"longitude":76.2673,"temp":28.9,"humidity":74,"rain":0.0,"pressure":1008.4,"uv_index":9.1,"wind_gusts":29.2,"aqi":68,"pm10":15.4,"pm2_5":13.9,"mosquito_risk":7,"arthritis_risk":0,"migraine_risk":4,"frizz_risk":1,"updated_at":"2026-03-19T15:20:25.699463+05:30"},{"city":"Thiruvananthapuram","state":"Kerala","latitude":8.5241,"longitude":76.9366,"temp":28.6,"humidity":77,"rain":0.0,"pressure":1007.5,"uv_index":8.1,"wind_gusts":27.7,"aqi":72,"pm10":13.1,"pm2_5":12.4,"mosquito_risk":7,"arthritis_risk":5,"migraine_risk":4,"frizz_risk":1,"updated_at":"2026-03-19T15:20:25.699471+05:30"},{"city":"Kozhikode","state":"Kerala","latitude":11.2588,"longitude":75.7804,"temp":29.7,"humidity":71,"rain":0.0,"pressure":1007.8,"uv_index":9.05,"wind_gusts":31.0,"aqi":80,"pm10":11.9,"pm2_5":10.4,"mosquito_risk":7,"arthritis_risk":5,"migraine_risk":4,"frizz_risk":1,"updated_at":"2026-03-19T15:20:25.699478+05:30"},{"city":"Thrissur","state":"Kerala","latitude":10.5276,"longitude":76.2144,"temp":32.3,"humidity":58,"rain":0.0,"pressure":1006.7,"uv_index":9.1,"wind_gusts":34.6,"aqi":63,"pm10":14.6,"pm2_5":13.3,"mosquito_risk":0,"arthritis_risk":5,"migraine_risk":4,"frizz_risk":1,"updated_at":"2026-03-19T15:20:25.699487+05:30"},{"city":"Kannur","state":"Kerala","latitude":11.8745,"longitude":75.3704,"temp":30.8,"humidity":63,"rain":0.0,"pressure":1007.4,"uv_index":9.0,"wind_gusts":35.3,"aqi":64,"pm10":19.3,"pm2_5":15.0,"mosquito_risk":3,"arthritis_risk":5,"migraine_risk":4,"frizz_risk":1,"updated_at":"2026-03-19T15:20:25.699494+05:30"},{"city":"Patna","state":"Bihar","latitude":25.5941,"longitude":85.1376,"temp":32.0,"humidity":40,"rain":0.0,"pressure":1001.5,"uv_index":7.25,"wind_gusts":21.6,"aqi":163,"pm10":68.5,"pm2_5":47.3,"mosquito_risk":0,"arthritis_risk":5,"migraine_risk":4,"frizz_risk":1,"updated_at":"2026-03-19T15:20:25.699502+05:30"},{"city":"Gaya","state":"Bihar","latitude":24.7914,"longitude":85.0002,"temp":32.8,"humidity":39,"rain":0.0,"pressure":994.2,"uv_index":7.55,"wind_gusts":20.5,"aqi":116,"pm10":46.1,"pm2_5":35.3,"mosquito_risk":0,"arthritis_risk":5,"migraine_risk":7,"frizz_risk":1,"updated_at":"2026-03-19T15:20:25.699509+05:30"},{"city":"Muzaffarpur","state":"Bihar","latitude":26.1209,"longitude":85.3647,"temp":31.6,"humidity":38,"rain":0.0,"pressure":1001.4,"uv_index":7.0,"wind_gusts":23.4,"aqi":162,"pm10":68.0,"pm2_5":40.5,"mosquito_risk":0,"arthritis_risk":5,"migraine_risk":4,"frizz_risk":0,"updated_at":"2026-03-19T15:20:25.699517+05:30"},{"city":"Bhagalpur","state":"Bihar","latitude":25.2425,"longitude":87.0117,"temp":30.1,"humidity":53,"rain":0.0,"pressure":1002.2,"uv_index":6.95,"wind_gusts":27.4,"aqi":133,"pm10":62.4,"pm2_5":53.8,"mosquito_risk":0,"arthritis_risk":5,"migraine_risk":4,"frizz_risk":1,"updated_at":"2026-03-19T15:20:25.699524+05:30"},{"city":"Ranchi","state":"Jharkhand","latitude":23.3441,"longitude":85.3096,"temp":30.3,"humidity":31,"rain":0.0,"pressure":938.7,"uv_index":6.75,"wind_gusts":38.5,"aqi":96,"pm10":38.6,"pm2_5":28.5,"mosquito_risk":0,"arthritis_risk":5,"migraine_risk":7,"frizz_risk":0,"updated_at":"2026-03-19T15:20:25.699532+05:30"},{"city":"Jamshedpur","state":"Jharkhand","latitude":22.8046,"longitude":86.2029,"temp":34.4,"humidity":30,"rain":0.0,"pressure":990.8,"uv_index":7.7,"wind_gusts":30.6,"aqi":136,"pm10":47.1,"pm2_5":36.0,"mosquito_risk":0,"arthritis_risk":5,"migraine_risk":7,"frizz_risk":0,"updated_at":"2026-03-19T15:20:25.699539+05:30"},{"city":"Dhanbad","state":"Jharkhand","latitude":23.7957,"longitude":86.4304,"temp":34.0,"humidity":25,"rain":0.0,"pressure":979.9,"uv_index":7.2,"wind_gusts":20.5,"aqi":157,"pm10":48.3,"pm2_5":38.0,"mosquito_risk":0,"arthritis_risk":5,"migraine_risk":7,"frizz_risk":0,"updated_at":"2026-03-19T15:20:25.699547+05:30"},{"city":"Bokaro","state":"Jharkhand","latitude":23.6693,"longitude":86.1511,"temp":33.5,"humidity":25,"rain":0.0,"pressure":984.0,"uv_index":7.15,"wind_gusts":41.0,"aqi":143,"pm10":41.4,"pm2_5":31.4,"mosquito_risk":0,"arthritis_risk":5,"migraine_risk":7,"frizz_risk":0,"updated_at":"2026-03-19T15:20:25.699554+05:30"},{"city":"Bhubaneswar","state":"Odisha","latitude":20.2961,"longitude":85.8245,"temp":32.6,"humidity":51,"rain":0.0,"pressure":1003.1,"uv_index":7.95,"wind_gusts":20.9,"aqi":86,"pm10":34.1,"pm2_5":26.1,"mosquito_risk":0,"arthritis_risk":5,"migraine_risk":4,"frizz_risk":1,"updated_at":"2026-03-19T15:20:25.699562+05:30"},{"city":"Cuttack","state":"Odisha","latitude":20.4625,"longitude":85.8828,"temp":32.0,"humidity":48,"rain":0.0,"pressure":1005.3,"uv_index":7.9,"wind_gusts":24.8,"aqi":86,"pm10":34.1,"pm2_5":26.1,"mosquito_risk":0,"arthritis_risk":5,"migraine_risk":4,"frizz_risk":1,"updated_at":"2026-03-19T15:20:25.699569+05:30"},{"city":"Rourkela","state":"Odisha","latitude":22.2604,"longitude":84.8536,"temp":33.2,"humidity":35,"rain":0.0,"pressure":985.4,"uv_index":7.15,"wind_gusts":24.8,"aqi":123,"pm10":53.1,"pm2_5":42.7,"mosquito_risk":0,"arthritis_risk":5,"migraine_risk":7,"frizz_risk":0,"updated_at":"2026-03-19T15:20:25.699576+05:30"},{"city":"Raipur","state":"Chhattisgarh","latitude":21.2514,"longitude":81.6296,"temp":33.6,"humidity":31,"rain":0.0,"pressure":974.9,"uv_index":7.75,"wind_gusts":25.9,"aqi":139,"pm10":53.2,"pm2_5":43.2,"mosquito_risk":0,"arthritis_risk":5,"migraine_risk":7,"frizz_risk":0,"updated_at":"2026-03-19T15:20:25.699584+05:30"},{"city":"Bhilai","state":"Chhattisgarh","latitude":21.1938,"longitude":81.3509,"temp":33.0,"humidity":33,"rain":0.0,"pressure":975.6,"uv_index":7.6,"wind_gusts":24.8,"aqi":142,"pm10":50.3,"pm2_5":39.7,"mosquito_risk":0,"arthritis_risk":5,"migraine_risk":7,"frizz_risk":0,"updated_at":"2026-03-19T15:20:25.699591+05:30"},{"city":"Guwahati","state":"Assam","latitude":26.1158,"longitude":91.7086,"temp":27.8,"humidity":58,"rain":0.0,"pressure":1003.2,"uv_index":7.5,"wind_gusts":25.2,"aqi":115,"pm10":49.7,"pm2_5":34.2,"mosquito_risk":4,"arthritis_risk":5,"migraine_risk":4,"frizz_risk":1,"updated_at":"2026-03-19T15:20:25.699598+05:30"},{"city":"Agartala","state":"Tripura","latitude":23.8315,"longitude":91.2868,"temp":30.5,"humidity":49,"rain":0.0,"pressure":1007.5,"uv_index":7.85,"wind_gusts":23.0,"aqi":90,"pm10":30.3,"pm2_5":25.6,"mosquito_risk":0,"arthritis_risk":5,"migraine_risk":4,"frizz_risk":1,"updated_at":"2026-03-19T15:20:25.699606+05:30"},{"city":"Shillong","state":"Meghalaya","latitude":25.5788,"longitude":91.8933,"temp":17.5,"humidity":55,"rain":0.0,"pressure":857.4,"uv_index":7.15,"wind_gusts":47.2,"aqi":90,"pm10":46.0,"pm2_5":27.0,"mosquito_risk":0,"arthritis_risk":5,"migraine_risk":7,"frizz_risk":0,"updated_at":"2026-03-19T15:20:25.699613+05:30"},{"city":"Imphal","state":"Manipur","latitude":24.817,"longitude":93.9368,"temp":21.5,"humidity":62,"rain":0.0,"pressure":924.3,"uv_index":8.25,"wind_gusts":60.8,"aqi":94,"pm10":38.8,"pm2_5":22.8,"mosquito_risk":3,"arthritis_risk":5,"migraine_risk":7,"frizz_risk":0,"updated_at":"2026-03-19T15:20:25.699620+05:30"},{"city":"Aizawl","state":"Mizoram","latitude":23.7271,"longitude":92.7176,"temp":24.5,"humidity":51,"rain":0.0,"pressure":894.9,"uv_index":8.05,"wind_gusts":38.5,"aqi":75,"pm10":33.2,"pm2_5":23.5,"mosquito_risk":0,"arthritis_risk":5,"migraine_risk":7,"frizz_risk":0,"updated_at":"2026-03-19T15:20:25.699628+05:30"},{"city":"Kohima","state":"Nagaland","latitude":25.6701,"longitude":94.1077,"temp":16.6,"humidity":82,"rain":0.0,"pressure":855.9,"uv_index":7.95,"wind_gusts":86.8,"aqi":85,"pm10":40.9,"pm2_5":23.7,"mosquito_risk":3,"arthritis_risk":10,"migraine_risk":7,"frizz_risk":0,"updated_at":"2026-03-19T15:20:25.699635+05:30"},{"city":"Gangtok","state":"Sikkim","latitude":27.3314,"longitude":88.6138,"temp":17.6,"humidity":65,"rain":0.0,"pressure":837.9,"uv_index":7.7,"wind_gusts":20.2,"aqi":102,"pm10":54.7,"pm2_5":35.7,"mosquito_risk":3,"arthritis_risk":5,"migraine_risk":7,"frizz_risk":0,"updated_at":"2026-03-19T15:20:25.699643+05:30"},{"city":"Siliguri","state":"West Bengal","latitude":26.7271,"longitude":88.3953,"temp":22.9,"humidity":73,"rain":0.0,"pressure":995.4,"uv_index":7.4,"wind_gusts":24.8,"aqi":143,"pm10":71.0,"pm2_5":53.1,"mosquito_risk":3,"arthritis_risk":5,"migraine_risk":7,"frizz_risk":1,"updated_at":"2026-03-19T15:20:28.931108+05:30"},{"city":"Durgapur","state":"West Bengal","latitude":23.5204,"longitude":87.3119,"temp":32.0,"humidity":40,"rain":0.0,"pressure":995.5,"uv_index":7.75,"wind_gusts":26.3,"aqi":149,"pm10":67.5,"pm2_5":56.2,"mosquito_risk":0,"arthritis_risk":5,"migraine_risk":7,"frizz_risk":1,"updated_at":"2026-03-19T15:20:28.931176+05:30"},{"city":"Asansol","state":"West Bengal","latitude":23.6739,"longitude":86.9524,"temp":33.2,"humidity":33,"rain":0.0,"pressure":993.8,"uv_index":7.65,"wind_gusts":31.0,"aqi":153,"pm10":54.8,"pm2_5":44.2,"mosquito_risk":0,"arthritis_risk":5,"migraine_risk":7,"frizz_risk":0,"updated_at":"2026-03-19T15:20:28.931196+05:30"},{"city":"Pondicherry","state":"Puducherry","latitude":11.9139,"longitude":79.8145,"temp":31.7,"humidity":62,"rain":0.0,"pressure":1008.1,"uv_index":9.1,"wind_gusts":28.4,"aqi":37,"pm10":14.4,"pm2_5":10.6,"mosquito_risk":3,"arthritis_risk":0,"migraine_risk":4,"frizz_risk":1,"updated_at":"2026-03-19T15:20:28.931207+05:30"},{"city":"Port Blair","state":"Andaman and Nicobar Islands","latitude":11.6234,"longitude":92.7265,"temp":27.2,"humidity":81,"rain":0.0,"pressure":1007.6,"uv_index":9.05,"wind_gusts":22.0,"aqi":52,"pm10":16.6,"pm2_5":12.9,"mosquito_risk":7,"arthritis_risk":5,"migraine_risk":4,"frizz_risk":1,"updated_at":"2026-03-19T15:20:28.931218+05:30"},{"city":"Haridwar","state":"Uttarakhand","latitude":29.9457,"longitude":78.1642,"temp":23.9,"humidity":63,"rain":0.0,"pressure":978.4,"uv_index":3.9,"wind_gusts":24.8,"aqi":67,"pm10":68.9,"pm2_5":19.7,"mosquito_risk":3,"arthritis_risk":5,"migraine_risk":3,"frizz_risk":1,"updated_at":"2026-03-19T15:20:28.931228+05:30"},{"city":"Rishikesh","state":"Uttarakhand","latitude":30.0869,"longitude":78.2676,"temp":24.7,"humidity":50,"rain":0.1,"pressure":971.0,"uv_index":4.2,"wind_gusts":24.5,"aqi":63,"pm10":48.9,"pm2_5":12.9,"mosquito_risk":3,"arthritis_risk":5,"migraine_risk":3,"frizz_risk":0,"updated_at":"2026-03-19T15:20:28.931238+05:30"},{"city":"Nainital","state":"Uttarakhand","latitude":29.3919,"longitude":79.4542,"temp":18.8,"humidity":54,"rain":0.0,"pressure":808.4,"uv_index":5.75,"wind_gusts":55.4,"aqi":75,"pm10":55.6,"pm2_5":14.1,"mosquito_risk":0,"arthritis_risk":5,"migraine_risk":3,"frizz_risk":0,"updated_at":"2026-03-19T15:20:28.931251+05:30"},{"city":"Mussoorie","state":"Uttarakhand","latitude":30.4599,"longitude":78.0664,"temp":13.5,"humidity":82,"rain":0.3,"pressure":803.5,"uv_index":5.1,"wind_gusts":38.9,"aqi":61,"pm10":66.1,"pm2_5":18.6,"mosquito_risk":6,"arthritis_risk":10,"migraine_risk":3,"frizz_risk":0,"updated_at":"2026-03-19T15:20:28.931261+05:30"},{"city":"Dharamshala","state":"Himachal Pradesh","latitude":32.219,"longitude":76.3234,"temp":14.5,"humidity":88,"rain":0.2,"pressure":869.6,"uv_index":3.8,"wind_gusts":29.9,"aqi":48,"pm10":20.8,"pm2_5":8.4,"mosquito_risk":6,"arthritis_risk":10,"migraine_risk":3,"frizz_risk":0,"updated_at":"2026-03-19T15:20:28.931271+05:30"},{"city":"Dalhousie","state":"Himachal Pradesh","latitude":32.5387,"longitude":75.971,"temp":11.7,"humidity":91,"rain":0.0,"pressure":803.1,"uv_index":4.55,"wind_gusts":25.2,"aqi":56,"pm10":61.0,"pm2_5":20.3,"mosquito_risk":3,"arthritis_risk":10,"migraine_risk":3,"frizz_risk":0,"updated_at":"2026-03-19T15:20:28.931282+05:30"},{"city":"Patiala","state":"Punjab","latitude":30.3398,"longitude":76.3869,"temp":20.4,"humidity":79,"rain":0.0,"pressure":982.3,"uv_index":3.85,"wind_gusts":21.6,"aqi":93,"pm10":53.8,"pm2_5":24.6,"mosquito_risk":3,"arthritis_risk":5,"migraine_risk":3,"frizz_risk":1,"updated_at":"2026-03-19T15:20:28.931291+05:30"},{"city":"Bhatinda","state":"Punjab","latitude":30.211,"longitude":74.9455,"temp":20.8,"humidity":85,"rain":0.0,"pressure":986.9,"uv_index":1.4,"wind_gusts":20.9,"aqi":87,"pm10":83.1,"pm2_5":31.2,"mosquito_risk":3,"arthritis_risk":5,"migraine_risk":3,"frizz_risk":1,"updated_at":"2026-03-19T15:20:28.931301+05:30"},{"city":"Rohtak","state":"Haryana","latitude":28.8955,"longitude":76.6066,"temp":22.1,"humidity":78,"rain":0.0,"pressure":985.5,"uv_index":4.9,"wind_gusts":28.1,"aqi":131,"pm10":112.2,"pm2_5":40.5,"mosquito_risk":3,"arthritis_risk":5,"migraine_risk":3,"frizz_risk":1,"updated_at":"2026-03-19T15:20:28.931310+05:30"},{"city":"Panipat","state":"Haryana","latitude":29.3909,"longitude":76.9635,"temp":22.3,"humidity":74,"rain":0.0,"pressure":984.3,"uv_index":3.65,"wind_gusts":32.8,"aqi":122,"pm10":98.7,"pm2_5":42.3,"mosquito_risk":3,"arthritis_risk":5,"migraine_risk":3,"frizz_risk":1,"updated_at":"2026-03-19T15:20:28.931319+05:30"},{"city":"Mathura","state":"Uttar Pradesh","latitude":27.4924,"longitude":77.6737,"temp":28.8,"humidity":40,"rain":0.0,"pressure":989.4,"uv_index":6.6,"wind_gusts":37.4,"aqi":133,"pm10":453.6,"pm2_5":58.6,"mosquito_risk":4,"arthritis_risk":5,"migraine_risk":7,"frizz_risk":0,"updated_at":"2026-03-19T15:20:28.931328+05:30"},{"city":"Vrindavan","state":"Uttar Pradesh","latitude":27.5823,"longitude":77.7027,"temp":28.5,"humidity":42,"rain":0.0,"pressure":990.2,"uv_index":6.55,"wind_gusts":40.7,"aqi":133,"pm10":453.6,"pm2_5":58.6,"mosquito_risk":4,"arthritis_risk":5,"migraine_risk":7,"frizz_risk":0,"updated_at":"2026-03-19T15:20:28.931337+05:30"},{"city":"Ayodhya","state":"Uttar Pradesh","latitude":26.7922,"longitude":82.1998,"temp":35.2,"humidity":21,"rain":0.0,"pressure":995.6,"uv_index":6.9,"wind_gusts":32.4,"aqi":120,"pm10":51.0,"pm2_5":20.4,"mosquito_risk":0,"arthritis_risk":5,"migraine_risk":10,"frizz_risk":0,"updated_at":"2026-03-19T15:20:28.931347+05:30"},{"city":"Ratlam","state":"Madhya Pradesh","latitude":23.3315,"longitude":75.0367,"temp":31.8,"humidity":27,"rain":0.0,"pressure":955.1,"uv_index":7.75,"wind_gusts":31.7,"aqi":56,"pm10":17.3,"pm2_5":13.4,"mosquito_risk":0,"arthritis_risk":5,"migraine_risk":7,"frizz_risk":0,"updated_at":"2026-03-19T15:20:28.931356+05:30"},{"city":"Sagar","state":"Madhya Pradesh","latitude":23.8388,"longitude":78.7378,"temp":32.7,"humidity":20,"rain":0.0,"pressure":951.1,"uv_index":7.75,"wind_gusts":45.0,"aqi":73,"pm10":15.4,"pm2_5":11.6,"mosquito_risk":0,"arthritis_risk":5,"migraine_risk":7,"frizz_risk":0,"updated_at":"2026-03-19T15:20:28.931365+05:30"},{"city":"Satna","state":"Madhya Pradesh","latitude":24.6005,"longitude":80.8322,"temp":34.8,"humidity":21,"rain":0.0,"pressure":971.5,"uv_index":7.7,"wind_gusts":42.5,"aqi":98,"pm10":29.8,"pm2_5":18.3,"mosquito_risk":0,"arthritis_risk":5,"migraine_risk":7,"frizz_risk":0,"updated_at":"2026-03-19T15:20:28.931374+05:30"},{"city":"Akola","state":"Maharashtra","latitude":20.7002,"longitude":77.0082,"temp":33.4,"humidity":27,"rain":0.0,"pressure":975.8,"uv_index":8.2,"wind_gusts":26.3,"aqi":95,"pm10":36.2,"pm2_5":27.2,"mosquito_risk":0,"arthritis_risk":5,"migraine_risk":7,"frizz_risk":0,"updated_at":"2026-03-19T15:20:28.931385+05:30"},{"city":"Amravati","state":"Maharashtra","latitude":20.9374,"longitude":77.7796,"temp":33.8,"humidity":28,"rain":0.0,"pressure":967.9,"uv_index":8.15,"wind_gusts":33.8,"aqi":98,"pm10":39.1,"pm2_5":29.1,"mosquito_risk":0,"arthritis_risk":5,"migraine_risk":7,"frizz_risk":0,"updated_at":"2026-03-19T15:20:28.931395+05:30"},{"city":"Latur","state":"Maharashtra","latitude":18.4088,"longitude":76.5604,"temp":24.8,"humidity":59,"rain":0.0,"pressure":941.3,"uv_index":8.55,"wind_gusts":45.7,"aqi":88,"pm10":30.6,"pm2_5":21.0,"mosquito_risk":0,"arthritis_risk":5,"migraine_risk":7,"frizz_risk":1,"updated_at":"2026-03-19T15:20:28.931404+05:30"},{"city":"Nanded","state":"Maharashtra","latitude":19.1383,"longitude":77.3091,"temp":33.4,"humidity":27,"rain":0.0,"pressure":968.9,"uv_index":8.4,"wind_gusts":48.6,"aqi":95,"pm10":34.1,"pm2_5":25.5,"mosquito_risk":0,"arthritis_risk":5,"migraine_risk":7,"frizz_risk":0,"updated_at":"2026-03-19T15:20:28.931413+05:30"},{"city":"Gulbarga","state":"Karnataka","latitude":17.3297,"longitude":76.8343,"temp":30.7,"humidity":38,"rain":0.0,"pressure":959.9,"uv_index":8.65,"wind_gusts":23.4,"aqi":83,"pm10":25.5,"pm2_5":18.2,"mosquito_risk":0,"arthritis_risk":5,"migraine_risk":7,"frizz_risk":0,"updated_at":"2026-03-19T15:20:28.931422+05:30"},{"city":"Bidar","state":"Karnataka","latitude":17.9104,"longitude":77.5199,"temp":28.3,"humidity":44,"rain":0.0,"pressure":936.5,"uv_index":8.6,"wind_gusts":31.3,"aqi":87,"pm10":24.8,"pm2_5":17.1,"mosquito_risk":4,"arthritis_risk":5,"migraine_risk":7,"frizz_risk":0,"updated_at":"2026-03-19T15:20:28.931432+05:30"},{"city":"Hospet","state":"Karnataka","latitude":15.2689,"longitude":76.3909,"temp":31.6,"humidity":37,"rain":0.0,"pressure":956.3,"uv_index":8.9,"wind_gusts":21.2,"aqi":94,"pm10":33.1,"pm2_5":26.6,"mosquito_risk":0,"arthritis_risk":5,"migraine_risk":7,"frizz_risk":0,"updated_at":"2026-03-19T15:20:28.931441+05:30"},{"city":"Tirupur","state":"Tamil Nadu","latitude":11.1085,"longitude":77.3411,"temp":35.0,"humidity":32,"rain":0.0,"pressure":974.2,"uv_index":9.35,"wind_gusts":34.9,"aqi":71,"pm10":20.1,"pm2_5":16.9,"mosquito_risk":0,"arthritis_risk":5,"migraine_risk":7,"frizz_risk":0,"updated_at":"2026-03-19T15:20:28.931450+05:30"},{"city":"Alappuzha","state":"Kerala","latitude":9.4981,"longitude":76.3388,"temp":28.8,"humidity":76,"rain":0.0,"pressure":1008.6,"uv_index":9.1,"wind_gusts":27.4,"aqi":76,"pm10":15.7,"pm2_5":14.1,"mosquito_risk":7,"arthritis_risk":0,"migraine_risk":4,"frizz_risk":1,"updated_at":"2026-03-19T15:20:28.931459+05:30"},{"city":"Munnar","state":"Kerala","latitude":10.0889,"longitude":77.0595,"temp":26.7,"humidity":61,"rain":0.0,"pressure":858.5,"uv_index":9.6,"wind_gusts":38.9,"aqi":63,"pm10":12.7,"pm2_5":11.6,"mosquito_risk":7,"arthritis_risk":5,"migraine_risk":7,"frizz_risk":1,"updated_at":"2026-03-19T15:20:28.931468+05:30"},{"city":"Silchar","state":"Assam","latitude":24.8333,"longitude":92.7789,"temp":30.0,"humidity":50,"rain":0.0,"pressure":1006.3,"uv_index":7.9,"wind_gusts":21.2,"aqi":97,"pm10":36.6,"pm2_5":28.4,"mosquito_risk":4,"arthritis_risk":5,"migraine_risk":4,"frizz_risk":1,"updated_at":"2026-03-19T15:20:28.931478+05:30"},{"city":"Dibrugarh","state":"Assam","latitude":27.4728,"longitude":94.912,"temp":22.6,"humidity":73,"rain":0.0,"pressure":998.9,"uv_index":6.3,"wind_gusts":23.4,"aqi":95,"pm10":39.1,"pm2_5":24.7,"mosquito_risk":3,"arthritis_risk":5,"migraine_risk":7,"frizz_risk":1,"updated_at":"2026-03-19T15:20:28.931488+05:30"}]