[{"city":"Delhi","state":"Delhi","latitude":28.6139,"longitude":77.209,"temp":28.2,"humidity":70,"rain":0.0,"pressure":978.7,"uv_index":7.75,"wind_gusts":39.2,"aqi":164,"pm10":181.6,"pm2_5":85.4,"no2":50.6,"co":613.0,"o3":33.0,"so2":35.2,"mosquito_risk":7,"arthritis_risk":5,"migraine_risk":7,"frizz_risk":1,"updated_at":"2026-06-06T05:39:06.653308+05:30"},{"city":"Mumbai","state":"Maharashtra","latitude":19.076,"longitude":72.8777,"temp":27.9,"humidity":88,"rain":0.0,"pressure":1005.1,"uv_index":6.0,"wind_gusts":41.8,"aqi":75,"pm10":48.3,"pm2_5":21.5,"no2":7.0,"co":156.0,"o3":45.0,"so2":5.9,"mosquito_risk":7,"arthritis_risk":5,"migraine_risk":0,"frizz_risk":1,"updated_at":"2026-06-06T05:39:06.653359+05:30"},{"city":"Bangalore","state":"Karnataka","latitude":12.9716,"longitude":77.5946,"temp":20.5,"humidity":95,"rain":0.0,"pressure":909.8,"uv_index":9.1,"wind_gusts":38.2,"aqi":20,"pm10":4.5,"pm2_5":4.1,"no2":9.9,"co":187.0,"o3":33.0,"so2":5.0,"mosquito_risk":3,"arthritis_risk":5,"migraine_risk":7,"frizz_risk":1,"updated_at":"2026-06-06T05:39:06.653402+05:30"},{"city":"Hyderabad","state":"Telangana","latitude":17.385,"longitude":78.4867,"temp":26.7,"humidity":71,"rain":0.0,"pressure":949.6,"uv_index":9.15,"wind_gusts":38.9,"aqi":82,"pm10":44.5,"pm2_5":29.7,"no2":8.3,"co":251.0,"o3":81.0,"so2":5.3,"mosquito_risk":7,"arthritis_risk":5,"migraine_risk":7,"frizz_risk":1,"updated_at":"2026-06-06T05:39:06.653414+05:30"},{"city":"Chennai","state":"Tamil Nadu","latitude":13.0827,"longitude":80.2707,"temp":30.1,"humidity":58,"rain":0.0,"pressure":1003.7,"uv_index":8.95,"wind_gusts":42.1,"aqi":59,"pm10":18.3,"pm2_5":16.0,"no2":19.7,"co":186.0,"o3":32.0,"so2":8.7,"mosquito_risk":0,"arthritis_risk":5,"migraine_risk":4,"frizz_risk":1,"updated_at":"2026-06-06T05:39:06.653423+05:30"},{"city":"Kolkata","state":"West Bengal","latitude":22.5726,"longitude":88.3639,"temp":27.9,"humidity":94,"rain":0.0,"pressure":1000.5,"uv_index":8.45,"wind_gusts":28.4,"aqi":137,"pm10":54.2,"pm2_5":48.9,"no2":14.2,"co":674.0,"o3":82.0,"so2":8.3,"mosquito_risk":7,"arthritis_risk":5,"migraine_risk":4,"frizz_risk":1,"updated_at":"2026-06-06T05:39:06.653432+05:30"},{"city":"Pune","state":"Maharashtra","latitude":18.5204,"longitude":73.8567,"temp":25.2,"humidity":85,"rain":0.0,"pressure":945.2,"uv_index":8.35,"wind_gusts":42.5,"aqi":48,"pm10":23.2,"pm2_5":12.4,"no2":9.3,"co":131.0,"o3":36.0,"so2":8.5,"mosquito_risk":7,"arthritis_risk":5,"migraine_risk":7,"frizz_risk":1,"updated_at":"2026-06-06T05:39:06.653439+05:30"},{"city":"Ahmedabad","state":"Gujarat","latitude":23.0225,"longitude":72.5714,"temp":30.6,"humidity":66,"rain":0.0,"pressure":998.1,"uv_index":8.05,"wind_gusts":35.3,"aqi":89,"pm10":49.2,"pm2_5":25.9,"no2":5.6,"co":137.0,"o3":40.0,"so2":4.9,"mosquito_risk":3,"arthritis_risk":5,"migraine_risk":7,"frizz_risk":1,"updated_at":"2026-06-06T05:39:06.653447+05:30"},{"city":"Jaipur","state":"Rajasthan","latitude":26.9124,"longitude":75.7873,"temp":26.8,"humidity":57,"rain":0.0,"pressure":955.6,"uv_index":8.25,"wind_gusts":28.8,"aqi":113,"pm10":50.2,"pm2_5":24.6,"no2":13.7,"co":252.0,"o3":45.0,"so2":7.2,"mosquito_risk":4,"arthritis_risk":5,"migraine_risk":7,"frizz_risk":1,"updated_at":"2026-06-06T05:39:06.653459+05:30"},{"city":"Lucknow","state":"Uttar Pradesh","latitude":26.8467,"longitude":80.9462,"temp":29.5,"humidity":65,"rain":0.0,"pressure":988.6,"uv_index":8.3,"wind_gusts":41.4,"aqi":153,"pm10":186.3,"pm2_5":83.1,"no2":24.4,"co":483.0,"o3":62.0,"so2":17.9,"mosquito_risk":7,"arthritis_risk":5,"migraine_risk":7,"frizz_risk":1,"updated_at":"2026-06-06T05:39:06.653466+05:30"},{"city":"Kanpur","state":"Uttar Pradesh","latitude":26.4499,"longitude":80.3319,"temp":30.0,"humidity":61,"rain":0.0,"pressure":987.2,"uv_index":8.3,"wind_gusts":34.6,"aqi":168,"pm10":251.5,"pm2_5":91.0,"no2":18.5,"co":384.0,"o3":82.0,"so2":18.3,"mosquito_risk":7,"arthritis_risk":5,"migraine_risk":7,"frizz_risk":1,"updated_at":"2026-06-06T05:39:06.653473+05:30"},{"city":"Chandigarh","state":"Chandigarh","latitude":30.7333,"longitude":76.7794,"temp":23.8,"humidity":74,"rain":0.0,"pressure":964.0,"uv_index":7.8,"wind_gusts":28.8,"aqi":128,"pm10":68.7,"pm2_5":52.7,"no2":30.1,"co":589.0,"o3":32.0,"so2":4.1,"mosquito_risk":3,"arthritis_risk":5,"migraine_risk":7,"frizz_risk":1,"updated_at":"2026-06-06T05:39:06.653480+05:30"},{"city":"Srinagar","state":"Jammu and Kashmir","latitude":34.0837,"longitude":74.7973,"temp":11.8,"humidity":100,"rain":0.0,"pressure":839.9,"uv_index":9.0,"wind_gusts":20.2,"aqi":78,"pm10":29.3,"pm2_5":25.8,"no2":12.0,"co":386.0,"o3":41.0,"so2":0.1,"mosquito_risk":3,"arthritis_risk":10,"migraine_risk":7,"frizz_risk":0,"updated_at":"2026-06-06T05:39:06.653488+05:30"},{"city":"Jammu","state":"Jammu and Kashmir","latitude":32.7266,"longitude":74.857,"temp":22.0,"humidity":68,"rain":0.0,"pressure":967.4,"uv_index":8.6,"wind_gusts":28.4,"aqi":95,"pm10":31.1,"pm2_5":27.9,"no2":19.0,"co":270.0,"o3":24.0,"so2":0.8,"mosquito_risk":3,"arthritis_risk":5,"migraine_risk":7,"frizz_risk":0,"updated_at":"2026-06-06T05:39:06.653495+05:30"},{"city":"Amritsar","state":"Punjab","latitude":31.634,"longitude":74.8723,"temp":26.4,"humidity":58,"rain":0.0,"pressure":975.8,"uv_index":8.45,"wind_gusts":20.9,"aqi":135,"pm10":86.6,"pm2_5":82.0,"no2":69.3,"co":655.0,"o3":10.0,"so2":12.1,"mosquito_risk":4,"arthritis_risk":5,"migraine_risk":7,"frizz_risk":1,"updated_at":"2026-06-06T05:39:06.653502+05:30"},{"city":"Ludhiana","state":"Punjab","latitude":30.901,"longitude":75.8573,"temp":26.6,"humidity":72,"rain":0.0,"pressure":973.9,"uv_index":8.05,"wind_gusts":26.6,"aqi":155,"pm10":246.8,"pm2_5":92.0,"no2":25.9,"co":763.0,"o3":48.0,"so2":11.1,"mosquito_risk":7,"arthritis_risk":5,"migraine_risk":7,"frizz_risk":1,"updated_at":"2026-06-06T05:39:06.653508+05:30"},{"city":"Jalandhar","state":"Punjab","latitude":31.326,"longitude":75.5762,"temp":25.9,"humidity":69,"rain":0.0,"pressure":974.8,"uv_index":8.25,"wind_gusts":22.3,"aqi":142,"pm10":144.4,"pm2_5":82.4,"no2":48.1,"co":754.0,"o3":23.0,"so2":12.0,"mosquito_risk":7,"arthritis_risk":5,"migraine_risk":7,"frizz_risk":1,"updated_at":"2026-06-06T05:39:06.653514+05:30"},{"city":"Dehradun","state":"Uttarakhand","latitude":30.6284,"longitude":78.0322,"temp":12.4,"humidity":91,"rain":0.0,"pressure":825.1,"uv_index":8.2,"wind_gusts":36.7,"aqi":67,"pm10":21.5,"pm2_5":14.4,"no2":22.9,"co":250.0,"o3":18.0,"so2":0.1,"mosquito_risk":3,"arthritis_risk":10,"migraine_risk":7,"frizz_risk":0,"updated_at":"2026-06-06T05:39:06.653521+05:30"},{"city":"Shimla","state":"Himachal Pradesh","latitude":31.1048,"longitude":77.1734,"temp":10.9,"humidity":77,"rain":0.0,"pressure":779.5,"uv_index":8.35,"wind_gusts":41.8,"aqi":91,"pm10":41.6,"pm2_5":30.5,"no2":9.9,"co":215.0,"o3":76.0,"so2":0.2,"mosquito_risk":3,"arthritis_risk":5,"migraine_risk":7,"frizz_risk":0,"updated_at":"2026-06-06T05:39:06.653532+05:30"},{"city":"Manali","state":"Himachal Pradesh","latitude":32.2396,"longitude":77.1887,"temp":12.7,"humidity":69,"rain":0.0,"pressure":814.3,"uv_index":9.65,"wind_gusts":37.1,"aqi":48,"pm10":1.8,"pm2_5":1.7,"no2":9.9,"co":162.0,"o3":117.0,"so2":0.0,"mosquito_risk":3,"arthritis_risk":5,"migraine_risk":7,"frizz_risk":0,"updated_at":"2026-06-06T05:39:06.653539+05:30"},{"city":"Gurgaon","state":"Haryana","latitude":28.4595,"longitude":77.0266,"temp":26.8,"humidity":74,"rain":0.0,"pressure":977.1,"uv_index":7.85,"wind_gusts":33.5,"aqi":364,"pm10":315.7,"pm2_5":106.4,"no2":47.3,"co":711.0,"o3":33.0,"so2":24.2,"mosquito_risk":7,"arthritis_risk":5,"migraine_risk":7,"frizz_risk":1,"updated_at":"2026-06-06T05:39:06.653546+05:30"},{"city":"Noida","state":"Uttar Pradesh","latitude":28.5355,"longitude":77.391,"temp":26.6,"humidity":82,"rain":0.0,"pressure":980.2,"uv_index":7.8,"wind_gusts":18.7,"aqi":364,"pm10":315.7,"pm2_5":106.4,"no2":47.3,"co":749.0,"o3":33.0,"so2":24.2,"mosquito_risk":7,"arthritis_risk":5,"migraine_risk":7,"frizz_risk":1,"updated_at":"2026-06-06T05:39:06.653553+05:30"},{"city":"Ghaziabad","state":"Uttar Pradesh","latitude":28.6692,"longitude":77.4538,"temp":25.5,"humidity":90,"rain":0.0,"pressure":978.3,"uv_index":7.75,"wind_gusts":25.9,"aqi":166,"pm10":189.5,"pm2_5":96.6,"no2":51.5,"co":893.0,"o3":23.0,"so2":14.4,"mosquito_risk":7,"arthritis_risk":5,"migraine_risk":7,"frizz_risk":1,"updated_at":"2026-06-06T05:39:06.653560+05:30"},{"city":"Faridabad","state":"Haryana","latitude":28.4089,"longitude":77.3178,"temp":27.3,"humidity":78,"rain":0.0,"pressure":979.4,"uv_index":7.8,"wind_gusts":34.2,"aqi":364,"pm10":315.7,"pm2_5":106.4,"no2":47.3,"co":741.0,"o3":33.0,"so2":24.2,"mosquito_risk":7,"arthritis_risk":5,"migraine_risk":7,"frizz_risk":1,"updated_at":"2026-06-06T05:39:06.653566+05:30"},{"city":"Meerut","state":"Uttar Pradesh","latitude":28.9845,"longitude":77.7064,"temp":25.3,"humidity":90,"rain":0.0,"pressure":977.0,"uv_index":7.7,"wind_gusts":28.1,"aqi":166,"pm10":189.5,"pm2_5":96.6,"no2":51.5,"co":868.0,"o3":23.0,"so2":14.4,"mosquito_risk":7,"arthritis_risk":5,"migraine_risk":7,"frizz_risk":1,"updated_at":"2026-06-06T05:39:06.653573+05:30"},{"city":"Agra","state":"Uttar Pradesh","latitude":27.1767,"longitude":78.0081,"temp":26.7,"humidity":79,"rain":0.0,"pressure":983.4,"uv_index":8.1,"wind_gusts":26.6,"aqi":294,"pm10":581.1,"pm2_5":139.7,"no2":51.8,"co":384.0,"o3":18.0,"so2":20.4,"mosquito_risk":7,"arthritis_risk":5,"migraine_risk":7,"frizz_risk":1,"updated_at":"2026-06-06T05:39:06.653581+05:30"},{"city":"Varanasi","state":"Uttar Pradesh","latitude":25.3176,"longitude":82.9739,"temp":27.7,"humidity":80,"rain":0.0,"pressure":992.0,"uv_index":8.8,"wind_gusts":58.0,"aqi":151,"pm10":104.3,"pm2_5":60.8,"no2":21.9,"co":650.0,"o3":66.0,"so2":13.8,"mosquito_risk":7,"arthritis_risk":5,"migraine_risk":7,"frizz_risk":1,"updated_at":"2026-06-06T05:39:06.653589+05:30"},{"city":"Prayagraj","state":"Uttar Pradesh","latitude":25.4358,"longitude":81.8463,"temp":29.9,"humidity":65,"rain":0.0,"pressure":991.0,"uv_index":8.7,"wind_gusts":43.6,"aqi":150,"pm10":105.9,"pm2_5":55.8,"no2":18.2,"co":355.0,"o3":67.0,"so2":13.0,"mosquito_risk":7,"arthritis_risk":5,"migraine_risk":7,"frizz_risk":1,"updated_at":"2026-06-06T05:39:06.653596+05:30"},{"city":"Gorakhpur","state":"Uttar Pradesh","latitude":26.7606,"longitude":83.3732,"temp":28.1,"humidity":75,"rain":0.0,"pressure":992.4,"uv_index":8.7,"wind_gusts":25.9,"aqi":164,"pm10":97.3,"pm2_5":84.3,"no2":22.9,"co":686.0,"o3":59.0,"so2":8.1,"mosquito_risk":7,"arthritis_risk":5,"migraine_risk":7,"frizz_risk":1,"updated_at":"2026-06-06T05:39:06.653604+05:30"},{"city":"Bareilly","state":"Uttar Pradesh","latitude":28.367,"longitude":79.4304,"temp":26.0,"humidity":89,"rain":0.0,"pressure":982.5,"uv_index":8.1,"wind_gusts":21.2,"aqi":150,"pm10":106.9,"pm2_5":90.1,"no2":51.4,"co":578.0,"o3":27.0,"so2":15.9,"mosquito_risk":7,"arthritis_risk":5,"migraine_risk":7,"frizz_risk":1,"updated_at":"2026-06-06T05:39:06.653610+05:30"},{"city":"Aligarh","state":"Uttar Pradesh","latitude":27.8974,"longitude":78.088,"temp":26.2,"humidity":88,"rain":0.0,"pressure":981.3,"uv_index":7.95,"wind_gusts":25.2,"aqi":337,"pm10":232.4,"pm2_5":103.8,"no2":52.2,"co":833.0,"o3":22.0,"so2":15.1,"mosquito_risk":7,"arthritis_risk":5,"migraine_risk":7,"frizz_risk":1,"updated_at":"2026-06-06T05:39:06.653617+05:30"},{"city":"Moradabad","state":"Uttar Pradesh","latitude":28.8386,"longitude":78.7733,"temp":25.9,"humidity":86,"rain":0.0,"pressure":979.5,"uv_index":7.9,"wind_gusts":29.9,"aqi":155,"pm10":177.0,"pm2_5":108.5,"no2":56.0,"co":822.0,"o3":31.0,"so2":15.9,"mosquito_risk":7,"arthritis_risk":5,"migraine_risk":7,"frizz_risk":1,"updated_at":"2026-06-06T05:39:06.653623+05:30"},{"city":"Saharanpur","state":"Uttar Pradesh","latitude":29.9637,"longitude":77.546,"temp":25.0,"humidity":84,"rain":0.0,"pressure":971.4,"uv_index":7.5,"wind_gusts":25.2,"aqi":154,"pm10":110.4,"pm2_5":84.3,"no2":53.4,"co":745.0,"o3":7.0,"so2":10.0,"mosquito_risk":7,"arthritis_risk":5,"migraine_risk":7,"frizz_risk":1,"updated_at":"2026-06-06T05:39:06.653629+05:30"},{"city":"Jhansi","state":"Uttar Pradesh","latitude":25.4484,"longitude":78.5685,"temp":27.1,"humidity":69,"rain":0.0,"pressure":973.5,"uv_index":8.5,"wind_gusts":29.9,"aqi":70,"pm10":67.8,"pm2_5":22.4,"no2":12.4,"co":196.0,"o3":36.0,"so2":3.1,"mosquito_risk":7,"arthritis_risk":5,"migraine_risk":7,"frizz_risk":1,"updated_at":"2026-06-06T05:39:09.930676+05:30"},{"city":"Surat","state":"Gujarat","latitude":21.1702,"longitude":72.8311,"temp":28.7,"humidity":89,"rain":0.0,"pressure":1003.0,"uv_index":7.6,"wind_gusts":45.4,"aqi":88,"pm10":60.1,"pm2_5":32.6,"no2":25.4,"co":358.0,"o3":27.0,"so2":42.4,"mosquito_risk":7,"arthritis_risk":5,"migraine_risk":4,"frizz_risk":1,"updated_at":"2026-06-06T05:39:09.930707+05:30"},{"city":"Vadodara","state":"Gujarat","latitude":22.3072,"longitude":73.1812,"temp":29.7,"humidity":75,"rain":0.0,"pressure":1000.5,"uv_index":8.0,"wind_gusts":40.0,"aqi":81,"pm10":45.4,"pm2_5":26.8,"no2":10.2,"co":135.0,"o3":34.0,"so2":9.3,"mosquito_risk":7,"arthritis_risk":5,"migraine_risk":4,"frizz_risk":1,"updated_at":"2026-06-06T05:39:09.930717+05:30"},{"city":"Rajkot","state":"Gujarat","latitude":22.3039,"longitude":70.8022,"temp":28.3,"humidity":82,"rain":0.0,"pressure":990.2,"uv_index":7.55,"wind_gusts":43.6,"aqi":83,"pm10":46.9,"pm2_5":21.8,"no2":5.4,"co":106.0,"o3":40.0,"so2":3.8,"mosquito_risk":7,"arthritis_risk":5,"migraine_risk":7,"frizz_risk":1,"updated_at":"2026-06-06T05:39:09.930726+05:30"},{"city":"Thane","state":"Maharashtra","latitude":19.2183,"longitude":72.9781,"temp":27.9,"humidity":89,"rain":0.0,"pressure":1004.6,"uv_index":6.7,"wind_gusts":40.0,"aqi":75,"pm10":48.3,"pm2_5":21.5,"no2":7.0,"co":156.0,"o3":45.0,"so2":5.9,"mosquito_risk":7,"arthritis_risk":5,"migraine_risk":4,"frizz_risk":1,"updated_at":"2026-06-06T05:39:09.930735+05:30"},{"city":"Nagpur","state":"Maharashtra","latitude":21.1458,"longitude":79.0882,"temp":30.9,"humidity":41,"rain":0.0,"pressure":969.0,"uv_index":8.85,"wind_gusts":45.4,"aqi":80,"pm10":43.9,"pm2_5":23.5,"no2":16.7,"co":248.0,"o3":46.0,"so2":10.2,"mosquito_risk":0,"arthritis_risk":5,"migraine_risk":7,"frizz_risk":1,"updated_at":"2026-06-06T05:39:09.930742+05:30"},{"city":"Nashik","state":"Maharashtra","latitude":19.9975,"longitude":73.7898,"temp":24.9,"humidity":88,"rain":0.0,"pressure":942.7,"uv_index":8.05,"wind_gusts":37.8,"aqi":60,"pm10":32.9,"pm2_5":16.6,"no2":7.1,"co":117.0,"o3":39.0,"so2":4.5,"mosquito_risk":3,"arthritis_risk":5,"migraine_risk":7,"frizz_risk":1,"updated_at":"2026-06-06T05:39:09.930750+05:30"},{"city":"Aurangabad","state":"Maharashtra","latitude":19.8762,"longitude":75.3433,"temp":26.1,"humidity":76,"rain":0.0,"pressure":941.5,"uv_index":8.95,"wind_gusts":40.7,"aqi":62,"pm10":24.3,"pm2_5":14.6,"no2":8.5,"co":125.0,"o3":36.0,"so2":6.6,"mosquito_risk":7,"arthritis_risk":5,"migraine_risk":7,"frizz_risk":1,"updated_at":"2026-06-06T05:39:09.930758+05:30"},{"city":"Solapur","state":"Maharashtra","latitude":17.6599,"longitude":75.9064,"temp":25.5,"humidity":86,"rain":0.0,"pressure":954.7,"uv_index":8.95,"wind_gusts":51.5,"aqi":67,"pm10":17.7,"pm2_5":14.6,"no2":10.5,"co":180.0,"o3":51.0,"so2":2.6,"mosquito_risk":7,"arthritis_risk":5,"migraine_risk":7,"frizz_risk":1,"updated_at":"2026-06-06T05:39:09.930766+05:30"},{"city":"Kolhapur","state":"Maharashtra","latitude":16.705,"longitude":74.2433,"temp":24.1,"humidity":88,"rain":0.0,"pressure":945.2,"uv_index":8.65,"wind_gusts":45.7,"aqi":33,"pm10":9.1,"pm2_5":6.1,"no2":3.7,"co":110.0,"o3":44.0,"so2":1.1,"mosquito_risk":3,"arthritis_risk":5,"migraine_risk":7,"frizz_risk":1,"updated_at":"2026-06-06T05:39:09.930774+05:30"},{"city":"Goa","state":"Goa","latitude":15.2993,"longitude":74.124,"temp":26.2,"humidity":95,"rain":0.0,"pressure":995.6,"uv_index":7.55,"wind_gusts":26.6,"aqi":31,"pm10":18.0,"pm2_5":12.7,"no2":5.9,"co":221.0,"o3":42.0,"so2":1.1,"mosquito_risk":7,"arthritis_risk":5,"migraine_risk":7,"frizz_risk":1,"updated_at":"2026-06-06T05:39:09.930782+05:30"},{"city":"Jodhpur","state":"Rajasthan","latitude":26.2389,"longitude":73.0243,"temp":29.9,"humidity":61,"rain":0.0,"pressure":977.9,"uv_index":8.45,"wind_gusts":32.8,"aqi":130,"pm10":180.2,"pm2_5":48.0,"no2":4.2,"co":139.0,"o3":55.0,"so2":2.3,"mosquito_risk":7,"arthritis_risk":5,"migraine_risk":7,"frizz_risk":1,"updated_at":"2026-06-06T05:39:09.930790+05:30"},{"city":"Udaipur","state":"Rajasthan","latitude":24.5854,"longitude":73.7125,"temp":26.6,"humidity":73,"rain":0.0,"pressure":942.3,"uv_index":8.8,"wind_gusts":28.4,"aqi":90,"pm10":61.7,"pm2_5":33.3,"no2":9.0,"co":168.0,"o3":43.0,"so2":6.1,"mosquito_risk":7,"arthritis_risk":5,"migraine_risk":7,"frizz_risk":1,"updated_at":"2026-06-06T05:39:09.930797+05:30"},{"city":"Kota","state":"Rajasthan","latitude":25.2138,"longitude":75.8648,"temp":27.6,"humidity":60,"rain":0.0,"pressure":974.1,"uv_index":8.4,"wind_gusts":29.9,"aqi":76,"pm10":26.8,"pm2_5":15.5,"no2":8.5,"co":229.0,"o3":55.0,"so2":9.9,"mosquito_risk":4,"arthritis_risk":5,"migraine_risk":7,"frizz_risk":1,"updated_at":"2026-06-06T05:39:09.930805+05:30"},{"city":"Bikaner","state":"Rajasthan","latitude":28.0229,"longitude":73.3119,"temp":29.3,"humidity":55,"rain":0.0,"pressure":976.0,"uv_index":8.5,"wind_gusts":27.7,"aqi":125,"pm10":75.4,"pm2_5":30.6,"no2":2.3,"co":129.0,"o3":60.0,"so2":2.1,"mosquito_risk":4,"arthritis_risk":5,"migraine_risk":7,"frizz_risk":1,"updated_at":"2026-06-06T05:39:09.930812+05:30"},{"city":"Ajmer","state":"Rajasthan","latitude":26.4499,"longitude":74.6399,"temp":26.6,"humidity":64,"rain":0.0,"pressure":950.1,"uv_index":8.35,"wind_gusts":33.8,"aqi":94,"pm10":61.2,"pm2_5":29.6,"no2":9.9,"co":174.0,"o3":44.0,"so2":4.1,"mosquito_risk":7,"arthritis_risk":5,"migraine_risk":7,"frizz_risk":1,"updated_at":"2026-06-06T05:39:09.930819+05:30"},{"city":"Gwalior","state":"Madhya Pradesh","latitude":26.2183,"longitude":78.1828,"temp":26.5,"humidity":70,"rain":0.0,"pressure":978.7,"uv_index":8.3,"wind_gusts":47.2,"aqi":160,"pm10":456.3,"pm2_5":86.4,"no2":18.1,"co":179.0,"o3":40.0,"so2":7.7,"mosquito_risk":7,"arthritis_risk":5,"migraine_risk":7,"frizz_risk":1,"updated_at":"2026-06-06T05:39:09.930827+05:30"},{"city":"Indore","state":"Madhya Pradesh","latitude":22.7196,"longitude":75.8577,"temp":25.7,"humidity":82,"rain":0.0,"pressure":944.8,"uv_index":8.65,"wind_gusts":31.7,"aqi":90,"pm10":40.3,"pm2_5":27.3,"no2":7.8,"co":261.0,"o3":53.0,"so2":12.0,"mosquito_risk":7,"arthritis_risk":5,"migraine_risk":7,"frizz_risk":1,"updated_at":"2026-06-06T05:39:09.930833+05:30"},{"city":"Bhopal","state":"Madhya Pradesh","latitude":23.2599,"longitude":77.4126,"temp":25.8,"humidity":69,"rain":0.0,"pressure":949.4,"uv_index":8.7,"wind_gusts":36.0,"aqi":90,"pm10":49.4,"pm2_5":31.4,"no2":19.8,"co":345.0,"o3":33.0,"so2":6.3,"mosquito_risk":7,"arthritis_risk":5,"migraine_risk":7,"frizz_risk":1,"updated_at":"2026-06-06T05:39:09.930840+05:30"},{"city":"Jabalpur","state":"Madhya Pradesh","latitude":23.1815,"longitude":79.9864,"temp":26.9,"humidity":67,"rain":0.0,"pressure":957.2,"uv_index":8.35,"wind_gusts":37.8,"aqi":84,"pm10":83.6,"pm2_5":39.2,"no2":23.3,"co":264.0,"o3":34.0,"so2":4.7,"mosquito_risk":7,"arthritis_risk":5,"migraine_risk":7,"frizz_risk":1,"updated_at":"2026-06-06T05:39:09.930847+05:30"},{"city":"Ujjain","state":"Madhya Pradesh","latitude":23.1765,"longitude":75.7885,"temp":26.2,"humidity":80,"rain":0.0,"pressure":950.3,"uv_index":8.6,"wind_gusts":34.2,"aqi":89,"pm10":38.6,"pm2_5":25.6,"no2":7.5,"co":226.0,"o3":45.0,"so2":12.1,"mosquito_risk":7,"arthritis_risk":5,"migraine_risk":7,"frizz_risk":1,"updated_at":"2026-06-06T05:39:09.930855+05:30"},{"city":"Visakhapatnam","state":"Andhra Pradesh","latitude":17.6868,"longitude":83.2185,"temp":29.6,"humidity":74,"rain":0.0,"pressure":997.4,"uv_index":8.7,"wind_gusts":39.2,"aqi":98,"pm10":39.6,"pm2_5":34.1,"no2":36.1,"co":528.0,"o3":42.0,"so2":44.0,"mosquito_risk":7,"arthritis_risk":5,"migraine_risk":7,"frizz_risk":1,"updated_at":"2026-06-06T05:39:09.930861+05:30"},{"city":"Vijayawada","state":"Andhra Pradesh","latitude":16.5062,"longitude":80.648,"temp":29.9,"humidity":64,"rain":0.0,"pressure":997.5,"uv_index":9.0,"wind_gusts":34.6,"aqi":69,"pm10":20.8,"pm2_5":17.6,"no2":10.7,"co":222.0,"o3":56.0,"so2":4.5,"mosquito_risk":7,"arthritis_risk":5,"migraine_risk":7,"frizz_risk":1,"updated_at":"2026-06-06T05:39:09.930868+05:30"},{"city":"Guntur","state":"Andhra Pradesh","latitude":16.3067,"longitude":80.4365,"temp":29.4,"humidity":65,"rain":0.0,"pressure":998.8,"uv_index":9.0,"wind_gusts":33.8,"aqi":63,"pm10":19.0,"pm2_5":16.7,"no2":11.7,"co":210.0,"o3":53.0,"so2":4.7,"mosquito_risk":7,"arthritis_risk":5,"migraine_risk":7,"frizz_risk":1,"updated_at":"2026-06-06T05:39:09.930875+05:30"},{"city":"Nellore","state":"Andhra Pradesh","latitude":14.4426,"longitude":79.9865,"temp":29.3,"humidity":64,"rain":0.0,"pressure":1002.0,"uv_index":8.9,"wind_gusts":38.9,"aqi":42,"pm10":14.3,"pm2_5":11.6,"no2":13.0,"co":195.0,"o3":35.0,"so2":4.7,"mosquito_risk":7,"arthritis_risk":5,"migraine_risk":4,"frizz_risk":1,"updated_at":"2026-06-06T05:39:09.930883+05:30"},{"city":"Kurnool","state":"Andhra Pradesh","latitude":15.8281,"longitude":78.0373,"temp":27.2,"humidity":76,"rain":0.0,"pressure":974.0,"uv_index":7.05,"wind_gusts":57.2,"aqi":33,"pm10":11.7,"pm2_5":9.3,"no2":10.8,"co":185.0,"o3":38.0,"so2":3.5,"mosquito_risk":7,"arthritis_risk":5,"migraine_risk":7,"frizz_risk":1,"updated_at":"2026-06-06T05:39:09.930891+05:30"},{"city":"Kakinada","state":"Andhra Pradesh","latitude":16.9891,"longitude":82.2475,"temp":29.2,"humidity":75,"rain":0.0,"pressure":1001.8,"uv_index":8.95,"wind_gusts":39.2,"aqi":73,"pm10":24.3,"pm2_5":19.6,"no2":6.8,"co":275.0,"o3":83.0,"so2":3.9,"mosquito_risk":7,"arthritis_risk":5,"migraine_risk":4,"frizz_risk":1,"updated_at":"2026-06-06T05:39:09.930899+05:30"},{"city":"Tirupati","state":"Andhra Pradesh","latitude":13.6288,"longitude":79.4192,"temp":27.2,"humidity":69,"rain":0.0,"pressure":988.1,"uv_index":8.95,"wind_gusts":31.0,"aqi":46,"pm10":11.4,"pm2_5":10.1,"no2":17.2,"co":140.0,"o3":23.0,"so2":3.8,"mosquito_risk":7,"arthritis_risk":5,"migraine_risk":7,"frizz_risk":1,"updated_at":"2026-06-06T05:39:09.930905+05:30"},{"city":"Warangal","state":"Telangana","latitude":17.9689,"longitude":79.5941,"temp":28.8,"humidity":65,"rain":0.0,"pressure":974.1,"uv_index":9.05,"wind_gusts":31.7,"aqi":99,"pm10":46.8,"pm2_5":35.5,"no2":9.4,"co":252.0,"o3":79.0,"so2":5.8,"mosquito_risk":7,"arthritis_risk":5,"migraine_risk":7,"frizz_risk":1,"updated_at":"2026-06-06T05:39:09.930912+05:30"},{"city":"Nizamabad","state":"Telangana","latitude":18.6725,"longitude":78.0941,"temp":28.2,"humidity":60,"rain":0.0,"pressure":961.2,"uv_index":9.05,"wind_gusts":36.0,"aqi":96,"pm10":32.2,"pm2_5":26.2,"no2":11.3,"co":246.0,"o3":61.0,"so2":4.4,"mosquito_risk":4,"arthritis_risk":5,"migraine_risk":7,"frizz_risk":1,"updated_at":"2026-06-06T05:39:09.930919+05:30"},{"city":"Mysore","state":"Karnataka","latitude":12.2958,"longitude":76.6396,"temp":21.6,"humidity":91,"rain":0.0,"pressure":926.7,"uv_index":8.4,"wind_gusts":41.8,"aqi":16,"pm10":2.8,"pm2_5":2.5,"no2":5.5,"co":149.0,"o3":39.0,"so2":1.9,"mosquito_risk":3,"arthritis_risk":5,"migraine_risk":7,"frizz_risk":1,"updated_at":"2026-06-06T05:39:09.930926+05:30"},{"city":"Mangalore","state":"Karnataka","latitude":12.9141,"longitude":74.856,"temp":23.6,"humidity":99,"rain":0.6,"pressure":1005.9,"uv_index":0.45,"wind_gusts":30.2,"aqi":27,"pm10":6.3,"pm2_5":4.5,"no2":4.3,"co":138.0,"o3":44.0,"so2":1.0,"mosquito_risk":6,"arthritis_risk":5,"migraine_risk":0,"frizz_risk":1,"updated_at":"2026-06-06T05:39:09.930934+05:30"},{"city":"Hubli-Dharwad","state":"Karnataka","latitude":15.3647,"longitude":75.124,"temp":23.6,"humidity":91,"rain":0.0,"pressure":938.6,"uv_index":7.15,"wind_gusts":36.7,"aqi":20,"pm10":2.7,"pm2_5":2.0,"no2":3.2,"co":113.0,"o3":45.0,"so2":1.0,"mosquito_risk":3,"arthritis_risk":5,"migraine_risk":7,"frizz_risk":1,"updated_at":"2026-06-06T05:39:09.930941+05:30"},{"city":"Belgaum","state":"Karnataka","latitude":15.8497,"longitude":74.4977,"temp":22.8,"humidity":92,"rain":0.0,"pressure":923.3,"uv_index":8.7,"wind_gusts":37.8,"aqi":23,"pm10":5.4,"pm2_5":3.5,"no2":3.1,"co":105.0,"o3":48.0,"so2":1.7,"mosquito_risk":3,"arthritis_risk":5,"migraine_risk":7,"frizz_risk":1,"updated_at":"2026-06-06T05:39:13.213453+05:30"},{"city":"Coimbatore","state":"Tamil Nadu","latitude":11.0168,"longitude":76.9558,"temp":24.0,"humidity":86,"rain":0.0,"pressure":960.3,"uv_index":8.8,"wind_gusts":59.0,"aqi":15,"pm10":3.9,"pm2_5":2.5,"no2":3.8,"co":140.0,"o3":40.0,"so2":1.9,"mosquito_risk":3,"arthritis_risk":5,"migraine_risk":7,"frizz_risk":1,"updated_at":"2026-06-06T05:39:13.213485+05:30"},{"city":"Madurai","state":"Tamil Nadu","latitude":9.9252,"longitude":78.1198,"temp":28.2,"humidity":62,"rain":0.0,"pressure":991.3,"uv_index":8.65,"wind_gusts":68.0,"aqi":22,"pm10":12.4,"pm2_5":9.7,"no2":14.8,"co":171.0,"o3":16.0,"so2":4.3,"mosquito_risk":7,"arthritis_risk":5,"migraine_risk":7,"frizz_risk":1,"updated_at":"2026-06-06T05:39:13.213496+05:30"},{"city":"Trichy","state":"Tamil Nadu","latitude":10.7905,"longitude":78.7047,"temp":29.2,"humidity":61,"rain":0.0,"pressure":997.7,"uv_index":8.7,"wind_gusts":47.5,"aqi":19,"pm10":11.4,"pm2_5":7.2,"no2":8.2,"co":118.0,"o3":31.0,"so2":3.2,"mosquito_risk":7,"arthritis_risk":5,"migraine_risk":7,"frizz_risk":1,"updated_at":"2026-06-06T05:39:13.213506+05:30"},{"city":"Salem","state":"Tamil Nadu","latitude":11.6643,"longitude":78.146,"temp":25.9,"humidity":77,"rain":0.0,"pressure":976.0,"uv_index":8.8,"wind_gusts":42.1,"aqi":33,"pm10":13.4,"pm2_5":10.4,"no2":15.2,"co":176.0,"o3":25.0,"so2":7.2,"mosquito_risk":7,"arthritis_risk":5,"migraine_risk":7,"frizz_risk":1,"updated_at":"2026-06-06T05:39:13.213514+05:30"},{"city":"Tirunelveli","state":"Tamil Nadu","latitude":8.7139,"longitude":77.7567,"temp":27.3,"humidity":75,"rain":0.0,"pressure":1002.6,"uv_index":6.95,"wind_gusts":49.0,"aqi":18,"pm10":5.7,"pm2_5":4.3,"no2":6.8,"co":131.0,"o3":26.0,"so2":2.2,"mosquito_risk":7,"arthritis_risk":5,"migraine_risk":4,"frizz_risk":1,"updated_at":"2026-06-06T05:39:13.213523+05:30"},{"city":"Vellore","state":"Tamil Nadu","latitude":12.9165,"longitude":79.1325,"temp":27.3,"humidity":65,"rain":0.0,"pressure":981.8,"uv_index":8.95,"wind_gusts":50.0,"aqi":36,"pm10":5.3,"pm2_5":4.6,"no2":8.4,"co":140.0,"o3":35.0,"so2":3.8,"mosquito_risk":7,"arthritis_risk":5,"migraine_risk":7,"frizz_risk":1,"updated_at":"2026-06-06T05:39:13.213531+05:30"},{"city":"Erode","state":"Tamil Nadu","latitude":11.341,"longitude":77.7172,"temp":25.9,"humidity":78,"rain":0.0,"pressure":987.7,"uv_index":8.85,"wind_gusts":55.4,"aqi":24,"pm10":9.2,"pm2_5":7.3,"no2":10.6,"co":133.0,"o3":30.0,"so2":3.5,"mosquito_risk":7,"arthritis_risk":5,"migraine_risk":7,"frizz_risk":1,"updated_at":"2026-06-06T05:39:13.213538+05:30"},{"city":"Kochi","state":"Kerala","latitude":9.9312,"longitude":76.2673,"temp":24.6,"humidity":95,"rain":0.4,"pressure":1009.1,"uv_index":8.35,"wind_gusts":36.7,"aqi":50,"pm10":14.7,"pm2_5":8.5,"no2":8.5,"co":94.0,"o3":28.0,"so2":2.6,"mosquito_risk":6,"arthritis_risk":0,"migraine_risk":4,"frizz_risk":1,"updated_at":"2026-06-06T05:39:13.213546+05:30"},{"city":"Thiruvananthapuram","state":"Kerala","latitude":8.5241,"longitude":76.9366,"temp":24.9,"humidity":96,"rain":0.1,"pressure":1008.4,"uv_index":7.85,"wind_gusts":46.1,"aqi":25,"pm10":16.6,"pm2_5":7.1,"no2":1.8,"co":104.0,"o3":42.0,"so2":0.5,"mosquito_risk":6,"arthritis_risk":0,"migraine_risk":4,"frizz_risk":1,"updated_at":"2026-06-06T05:39:13.213554+05:30"},{"city":"Kozhikode","state":"Kerala","latitude":11.2588,"longitude":75.7804,"temp":23.4,"humidity":100,"rain":0.3,"pressure":1007.8,"uv_index":1.15,"wind_gusts":29.9,"aqi":27,"pm10":13.4,"pm2_5":5.6,"no2":0.8,"co":117.0,"o3":55.0,"so2":0.4,"mosquito_risk":6,"arthritis_risk":5,"migraine_risk":0,"frizz_risk":1,"updated_at":"2026-06-06T05:39:13.213561+05:30"},{"city":"Thrissur","state":"Kerala","latitude":10.5276,"longitude":76.2144,"temp":24.0,"humidity":99,"rain":0.3,"pressure":1007.4,"uv_index":7.45,"wind_gusts":31.7,"aqi":46,"pm10":14.1,"pm2_5":8.6,"no2":8.1,"co":160.0,"o3":31.0,"so2":2.7,"mosquito_risk":6,"arthritis_risk":5,"migraine_risk":4,"frizz_risk":1,"updated_at":"2026-06-06T05:39:13.213569+05:30"},{"city":"Kannur","state":"Kerala","latitude":11.8745,"longitude":75.3704,"temp":24.4,"humidity":96,"rain":1.3,"pressure":1006.6,"uv_index":1.15,"wind_gusts":22.7,"aqi":26,"pm10":9.0,"pm2_5":4.9,"no2":1.8,"co":129.0,"o3":51.0,"so2":0.7,"mosquito_risk":6,"arthritis_risk":5,"migraine_risk":0,"frizz_risk":1,"updated_at":"2026-06-06T05:39:13.213576+05:30"},{"city":"Patna","state":"Bihar","latitude":25.5941,"longitude":85.1376,"temp":28.2,"humidity":83,"rain":0.0,"pressure":995.2,"uv_index":8.9,"wind_gusts":23.8,"aqi":174,"pm10":68.0,"pm2_5":65.9,"no2":14.2,"co":434.0,"o3":90.0,"so2":20.1,"mosquito_risk":7,"arthritis_risk":5,"migraine_risk":7,"frizz_risk":1,"updated_at":"2026-06-06T05:39:13.213582+05:30"},{"city":"Gaya","state":"Bihar","latitude":24.7914,"longitude":85.0002,"temp":27.7,"humidity":78,"rain":0.0,"pressure":988.3,"uv_index":8.7,"wind_gusts":31.0,"aqi":156,"pm10":60.8,"pm2_5":53.7,"no2":26.5,"co":399.0,"o3":47.0,"so2":15.8,"mosquito_risk":7,"arthritis_risk":5,"migraine_risk":7,"frizz_risk":1,"updated_at":"2026-06-06T05:39:13.213589+05:30"},{"city":"Muzaffarpur","state":"Bihar","latitude":26.1209,"longitude":85.3647,"temp":26.9,"humidity":83,"rain":0.0,"pressure":995.8,"uv_index":8.9,"wind_gusts":28.4,"aqi":174,"pm10":68.2,"pm2_5":65.7,"no2":11.3,"co":496.0,"o3":106.0,"so2":14.8,"mosquito_risk":7,"arthritis_risk":5,"migraine_risk":7,"frizz_risk":1,"updated_at":"2026-06-06T05:39:13.213596+05:30"},{"city":"Bhagalpur","state":"Bihar","latitude":25.2425,"longitude":87.0117,"temp":26.7,"humidity":90,"rain":0.0,"pressure":996.7,"uv_index":8.9,"wind_gusts":33.1,"aqi":160,"pm10":33.9,"pm2_5":32.9,"no2":11.8,"co":416.0,"o3":71.0,"so2":6.7,"mosquito_risk":7,"arthritis_risk":5,"migraine_risk":7,"frizz_risk":1,"updated_at":"2026-06-06T05:39:13.213603+05:30"},{"city":"Ranchi","state":"Jharkhand","latitude":23.3441,"longitude":85.3096,"temp":25.2,"humidity":76,"rain":0.0,"pressure":933.1,"uv_index":9.15,"wind_gusts":25.9,"aqi":118,"pm10":69.6,"pm2_5":54.8,"no2":9.0,"co":349.0,"o3":107.0,"so2":9.9,"mosquito_risk":7,"arthritis_risk":5,"migraine_risk":7,"frizz_risk":1,"updated_at":"2026-06-06T05:39:13.213610+05:30"},{"city":"Jamshedpur","state":"Jharkhand","latitude":22.8046,"longitude":86.2029,"temp":27.9,"humidity":92,"rain":0.0,"pressure":985.7,"uv_index":8.95,"wind_gusts":36.4,"aqi":154,"pm10":90.8,"pm2_5":80.3,"no2":31.9,"co":418.0,"o3":56.0,"so2":33.8,"mosquito_risk":7,"arthritis_risk":5,"migraine_risk":7,"frizz_risk":1,"updated_at":"2026-06-06T05:39:13.213617+05:30"},{"city":"Dhanbad","state":"Jharkhand","latitude":23.7957,"longitude":86.4304,"temp":27.7,"humidity":91,"rain":0.0,"pressure":975.1,"uv_index":7.75,"wind_gusts":33.8,"aqi":167,"pm10":156.5,"pm2_5":148.5,"no2":64.7,"co":1405.0,"o3":21.0,"so2":250.6,"mosquito_risk":7,"arthritis_risk":5,"migraine_risk":7,"frizz_risk":1,"updated_at":"2026-06-06T05:39:13.213624+05:30"},{"city":"Bokaro","state":"Jharkhand","latitude":23.6693,"longitude":86.1511,"temp":27.3,"humidity":94,"rain":0.0,"pressure":978.8,"uv_index":8.75,"wind_gusts":34.6,"aqi":160,"pm10":124.3,"pm2_5":111.3,"no2":42.4,"co":732.0,"o3":61.0,"so2":194.2,"mosquito_risk":7,"arthritis_risk":5,"migraine_risk":7,"frizz_risk":1,"updated_at":"2026-06-06T05:39:13.213631+05:30"},{"city":"Bhubaneswar","state":"Odisha","latitude":20.2961,"longitude":85.8245,"temp":29.2,"humidity":89,"rain":0.0,"pressure":996.4,"uv_index":9.1,"wind_gusts":29.9,"aqi":148,"pm10":123.4,"pm2_5":116.4,"no2":43.8,"co":348.0,"o3":33.0,"so2":6.2,"mosquito_risk":7,"arthritis_risk":5,"migraine_risk":7,"frizz_risk":1,"updated_at":"2026-06-06T05:39:13.213638+05:30"},{"city":"Cuttack","state":"Odisha","latitude":20.4625,"longitude":85.8828,"temp":29.2,"humidity":86,"rain":0.0,"pressure":998.3,"uv_index":9.1,"wind_gusts":29.2,"aqi":148,"pm10":123.4,"pm2_5":116.4,"no2":43.8,"co":406.0,"o3":33.0,"so2":6.2,"mosquito_risk":7,"arthritis_risk":5,"migraine_risk":7,"frizz_risk":1,"updated_at":"2026-06-06T05:39:13.213645+05:30"},{"city":"Rourkela","state":"Odisha","latitude":22.2604,"longitude":84.8536,"temp":28.7,"humidity":72,"rain":0.0,"pressure":980.0,"uv_index":9.05,"wind_gusts":42.5,"aqi":149,"pm10":95.5,"pm2_5":73.6,"no2":17.0,"co":647.0,"o3":83.0,"so2":8.6,"mosquito_risk":7,"arthritis_risk":5,"migraine_risk":7,"frizz_risk":1,"updated_at":"2026-06-06T05:39:13.213652+05:30"},{"city":"Raipur","state":"Chhattisgarh","latitude":21.2514,"longitude":81.6296,"temp":30.9,"humidity":45,"rain":0.0,"pressure":969.5,"uv_index":9.0,"wind_gusts":38.5,"aqi":133,"pm10":82.7,"pm2_5":61.2,"no2":58.6,"co":297.0,"o3":12.0,"so2":64.5,"mosquito_risk":0,"arthritis_risk":5,"migraine_risk":7,"frizz_risk":1,"updated_at":"2026-06-06T05:39:13.213658+05:30"},{"city":"Bhilai","state":"Chhattisgarh","latitude":21.1938,"longitude":81.3509,"temp":30.2,"humidity":47,"rain":0.0,"pressure":970.0,"uv_index":8.95,"wind_gusts":43.6,"aqi":125,"pm10":62.9,"pm2_5":41.0,"no2":35.4,"co":733.0,"o3":30.0,"so2":45.5,"mosquito_risk":0,"arthritis_risk":5,"migraine_risk":7,"frizz_risk":1,"updated_at":"2026-06-06T05:39:13.213665+05:30"},{"city":"Guwahati","state":"Assam","latitude":26.1158,"longitude":91.7086,"temp":24.1,"humidity":99,"rain":0.1,"pressure":998.7,"uv_index":8.8,"wind_gusts":24.5,"aqi":91,"pm10":24.8,"pm2_5":23.6,"no2":9.1,"co":423.0,"o3":45.0,"so2":2.2,"mosquito_risk":6,"arthritis_risk":5,"migraine_risk":7,"frizz_risk":1,"updated_at":"2026-06-06T05:39:13.213672+05:30"},{"city":"Agartala","state":"Tripura","latitude":23.8315,"longitude":91.2868,"temp":25.7,"humidity":95,"rain":0.0,"pressure":1002.2,"uv_index":8.8,"wind_gusts":19.1,"aqi":151,"pm10":92.9,"pm2_5":88.7,"no2":41.7,"co":391.0,"o3":15.0,"so2":5.7,"mosquito_risk":7,"arthritis_risk":5,"migraine_risk":4,"frizz_risk":1,"updated_at":"2026-06-06T05:39:13.213678+05:30"},{"city":"Shillong","state":"Meghalaya","latitude":25.5788,"longitude":91.8933,"temp":17.8,"humidity":98,"rain":0.0,"pressure":854.0,"uv_index":8.15,"wind_gusts":21.6,"aqi":63,"pm10":13.9,"pm2_5":12.7,"no2":8.1,"co":283.0,"o3":43.0,"so2":1.4,"mosquito_risk":3,"arthritis_risk":10,"migraine_risk":7,"frizz_risk":1,"updated_at":"2026-06-06T05:39:13.213685+05:30"},{"city":"Imphal","state":"Manipur","latitude":24.817,"longitude":93.9368,"temp":22.6,"humidity":89,"rain":0.0,"pressure":920.4,"uv_index":9.05,"wind_gusts":30.6,"aqi":120,"pm10":64.0,"pm2_5":62.2,"no2":18.3,"co":758.0,"o3":21.0,"so2":1.8,"mosquito_risk":3,"arthritis_risk":5,"migraine_risk":7,"frizz_risk":1,"updated_at":"2026-06-06T05:39:13.213692+05:30"},{"city":"Aizawl","state":"Mizoram","latitude":23.7271,"longitude":92.7176,"temp":19.7,"humidity":99,"rain":0.0,"pressure":888.9,"uv_index":8.65,"wind_gusts":26.6,"aqi":119,"pm10":53.9,"pm2_5":45.9,"no2":10.7,"co":270.0,"o3":56.0,"so2":3.3,"mosquito_risk":3,"arthritis_risk":10,"migraine_risk":7,"frizz_risk":1,"updated_at":"2026-06-06T05:39:13.213699+05:30"},{"city":"Kohima","state":"Nagaland","latitude":25.6701,"longitude":94.1077,"temp":18.9,"humidity":96,"rain":0.0,"pressure":852.7,"uv_index":9.25,"wind_gusts":25.2,"aqi":74,"pm10":17.6,"pm2_5":16.8,"no2":8.4,"co":265.0,"o3":30.0,"so2":0.7,"mosquito_risk":3,"arthritis_risk":10,"migraine_risk":7,"frizz_risk":1,"updated_at":"2026-06-06T05:39:13.213706+05:30"},{"city":"Gangtok","state":"Sikkim","latitude":27.3314,"longitude":88.6138,"temp":17.1,"humidity":90,"rain":0.1,"pressure":834.8,"uv_index":9.05,"wind_gusts":36.7,"aqi":105,"pm10":11.8,"pm2_5":10.1,"no2":3.3,"co":367.0,"o3":140.0,"so2":2.8,"mosquito_risk":6,"arthritis_risk":10,"migraine_risk":7,"frizz_risk":0,"updated_at":"2026-06-06T05:39:13.213713+05:30"},{"city":"Siliguri","state":"West Bengal","latitude":26.7271,"longitude":88.3953,"temp":23.5,"humidity":98,"rain":0.0,"pressure":989.9,"uv_index":8.8,"wind_gusts":22.0,"aqi":123,"pm10":21.2,"pm2_5":18.3,"no2":5.7,"co":369.0,"o3":133.0,"so2":4.3,"mosquito_risk":3,"arthritis_risk":5,"migraine_risk":7,"frizz_risk":1,"updated_at":"2026-06-06T05:39:16.526628+05:30"},{"city":"Durgapur","state":"West Bengal","latitude":23.5204,"longitude":87.3119,"temp":27.6,"humidity":94,"rain":0.0,"pressure":989.8,"uv_index":9.05,"wind_gusts":34.9,"aqi":171,"pm10":131.8,"pm2_5":127.1,"no2":44.2,"co":993.0,"o3":30.0,"so2":57.0,"mosquito_risk":7,"arthritis_risk":5,"migraine_risk":7,"frizz_risk":1,"updated_at":"2026-06-06T05:39:16.526661+05:30"},{"city":"Asansol","state":"West Bengal","latitude":23.6739,"longitude":86.9524,"temp":27.5,"humidity":95,"rain":0.0,"pressure":988.5,"uv_index":8.9,"wind_gusts":35.3,"aqi":166,"pm10":121.1,"pm2_5":115.9,"no2":49.5,"co":840.0,"o3":28.0,"so2":67.5,"mosquito_risk":7,"arthritis_risk":5,"migraine_risk":7,"frizz_risk":1,"updated_at":"2026-06-06T05:39:16.526672+05:30"},{"city":"Pondicherry","state":"Puducherry","latitude":11.9139,"longitude":79.8145,"temp":28.6,"humidity":65,"rain":0.0,"pressure":1005.6,"uv_index":8.45,"wind_gusts":44.3,"aqi":58,"pm10":17.3,"pm2_5":14.8,"no2":20.5,"co":321.0,"o3":21.0,"so2":8.6,"mosquito_risk":7,"arthritis_risk":5,"migraine_risk":4,"frizz_risk":1,"updated_at":"2026-06-06T05:39:16.526681+05:30"},{"city":"Port Blair","state":"Andaman and Nicobar Islands","latitude":11.6234,"longitude":92.7265,"temp":26.2,"humidity":94,"rain":0.0,"pressure":1005.1,"uv_index":7.75,"wind_gusts":47.5,"aqi":25,"pm10":7.7,"pm2_5":4.7,"no2":0.3,"co":103.0,"o3":54.0,"so2":0.3,"mosquito_risk":7,"arthritis_risk":5,"migraine_risk":4,"frizz_risk":1,"updated_at":"2026-06-06T05:39:16.526690+05:30"},{"city":"Haridwar","state":"Uttarakhand","latitude":29.9457,"longitude":78.1642,"temp":23.0,"humidity":81,"rain":0.0,"pressure":969.8,"uv_index":7.6,"wind_gusts":23.4,"aqi":135,"pm10":87.8,"pm2_5":60.5,"no2":39.7,"co":289.0,"o3":25.0,"so2":5.5,"mosquito_risk":3,"arthritis_risk":5,"migraine_risk":7,"frizz_risk":1,"updated_at":"2026-06-06T05:39:16.526698+05:30"},{"city":"Rishikesh","state":"Uttarakhand","latitude":30.0869,"longitude":78.2676,"temp":20.9,"humidity":85,"rain":0.0,"pressure":962.5,"uv_index":7.7,"wind_gusts":28.1,"aqi":106,"pm10":71.9,"pm2_5":39.3,"no2":14.7,"co":350.0,"o3":79.0,"so2":3.1,"mosquito_risk":3,"arthritis_risk":5,"migraine_risk":7,"frizz_risk":1,"updated_at":"2026-06-06T05:39:16.526705+05:30"},{"city":"Nainital","state":"Uttarakhand","latitude":29.3919,"longitude":79.4542,"temp":12.6,"humidity":91,"rain":0.0,"pressure":801.6,"uv_index":7.25,"wind_gusts":25.6,"aqi":90,"pm10":41.6,"pm2_5":29.9,"no2":15.1,"co":253.0,"o3":71.0,"so2":1.5,"mosquito_risk":3,"arthritis_risk":10,"migraine_risk":7,"frizz_risk":0,"updated_at":"2026-06-06T05:39:16.526713+05:30"},{"city":"Mussoorie","state":"Uttarakhand","latitude":30.4599,"longitude":78.0664,"temp":13.9,"humidity":70,"rain":0.0,"pressure":799.0,"uv_index":8.1,"wind_gusts":42.8,"aqi":95,"pm10":52.6,"pm2_5":35.7,"no2":39.5,"co":220.0,"o3":24.0,"so2":4.0,"mosquito_risk":3,"arthritis_risk":5,"migraine_risk":7,"frizz_risk":0,"updated_at":"2026-06-06T05:39:16.526722+05:30"},{"city":"Dharamshala","state":"Himachal Pradesh","latitude":32.219,"longitude":76.3234,"temp":20.8,"humidity":55,"rain":0.0,"pressure":866.1,"uv_index":8.5,"wind_gusts":38.5,"aqi":53,"pm10":10.5,"pm2_5":8.4,"no2":6.2,"co":220.0,"o3":71.0,"so2":0.1,"mosquito_risk":0,"arthritis_risk":5,"migraine_risk":7,"frizz_risk":0,"updated_at":"2026-06-06T05:39:16.526730+05:30"},{"city":"Dalhousie","state":"Himachal Pradesh","latitude":32.5387,"longitude":75.971,"temp":10.3,"humidity":87,"rain":0.0,"pressure":798.7,"uv_index":8.75,"wind_gusts":32.4,"aqi":70,"pm10":21.9,"pm2_5":17.6,"no2":10.0,"co":231.0,"o3":64.0,"so2":0.5,"mosquito_risk":3,"arthritis_risk":10,"migraine_risk":7,"frizz_risk":0,"updated_at":"2026-06-06T05:39:16.526738+05:30"},{"city":"Patiala","state":"Punjab","latitude":30.3398,"longitude":76.3869,"temp":26.2,"humidity":76,"rain":0.0,"pressure":973.6,"uv_index":7.7,"wind_gusts":30.6,"aqi":179,"pm10":150.9,"pm2_5":71.7,"no2":15.6,"co":538.0,"o3":66.0,"so2":9.3,"mosquito_risk":7,"arthritis_risk":5,"migraine_risk":7,"frizz_risk":1,"updated_at":"2026-06-06T05:39:16.526746+05:30"},{"city":"Bhatinda","state":"Punjab","latitude":30.211,"longitude":74.9455,"temp":29.4,"humidity":55,"rain":0.0,"pressure":978.8,"uv_index":8.35,"wind_gusts":21.6,"aqi":158,"pm10":195.1,"pm2_5":90.3,"no2":50.7,"co":391.0,"o3":17.0,"so2":9.5,"mosquito_risk":4,"arthritis_risk":5,"migraine_risk":7,"frizz_risk":1,"updated_at":"2026-06-06T05:39:16.526753+05:30"},{"city":"Rohtak","state":"Haryana","latitude":28.8955,"longitude":76.6066,"temp":26.9,"humidity":73,"rain":0.0,"pressure":977.0,"uv_index":7.8,"wind_gusts":26.6,"aqi":213,"pm10":324.1,"pm2_5":109.2,"no2":41.4,"co":671.0,"o3":37.0,"so2":30.4,"mosquito_risk":7,"arthritis_risk":5,"migraine_risk":7,"frizz_risk":1,"updated_at":"2026-06-06T05:39:16.526760+05:30"},{"city":"Panipat","state":"Haryana","latitude":29.3909,"longitude":76.9635,"temp":26.0,"humidity":86,"rain":0.0,"pressure":975.8,"uv_index":7.65,"wind_gusts":35.6,"aqi":470,"pm10":220.7,"pm2_5":88.5,"no2":39.5,"co":619.0,"o3":28.0,"so2":16.9,"mosquito_risk":7,"arthritis_risk":5,"migraine_risk":7,"frizz_risk":1,"updated_at":"2026-06-06T05:39:16.526768+05:30"},{"city":"Mathura","state":"Uttar Pradesh","latitude":27.4924,"longitude":77.6737,"temp":26.3,"humidity":81,"rain":0.0,"pressure":982.5,"uv_index":8.05,"wind_gusts":24.5,"aqi":362,"pm10":439.6,"pm2_5":115.5,"no2":53.7,"co":582.0,"o3":16.0,"so2":14.1,"mosquito_risk":7,"arthritis_risk":5,"migraine_risk":7,"frizz_risk":1,"updated_at":"2026-06-06T05:39:16.526775+05:30"},{"city":"Vrindavan","state":"Uttar Pradesh","latitude":27.5823,"longitude":77.7027,"temp":26.4,"humidity":81,"rain":0.0,"pressure":982.9,"uv_index":8.05,"wind_gusts":24.8,"aqi":362,"pm10":439.6,"pm2_5":115.5,"no2":53.7,"co":696.0,"o3":16.0,"so2":14.1,"mosquito_risk":7,"arthritis_risk":5,"migraine_risk":7,"frizz_risk":1,"updated_at":"2026-06-06T05:39:16.526783+05:30"},{"city":"Ayodhya","state":"Uttar Pradesh","latitude":26.7922,"longitude":82.1998,"temp":27.7,"humidity":83,"rain":0.0,"pressure":990.4,"uv_index":8.45,"wind_gusts":30.2,"aqi":155,"pm10":87.8,"pm2_5":56.6,"no2":15.2,"co":517.0,"o3":80.0,"so2":7.7,"mosquito_risk":7,"arthritis_risk":5,"migraine_risk":7,"frizz_risk":1,"updated_at":"2026-06-06T05:39:16.526790+05:30"},{"city":"Ratlam","state":"Madhya Pradesh","latitude":23.3315,"longitude":75.0367,"temp":26.2,"humidity":83,"rain":0.0,"pressure":951.1,"uv_index":8.5,"wind_gusts":37.4,"aqi":86,"pm10":34.7,"pm2_5":22.1,"no2":8.5,"co":207.0,"o3":38.0,"so2":13.1,"mosquito_risk":7,"arthritis_risk":5,"migraine_risk":7,"frizz_risk":1,"updated_at":"2026-06-06T05:39:16.526797+05:30"},{"city":"Sagar","state":"Madhya Pradesh","latitude":23.8388,"longitude":78.7378,"temp":25.8,"humidity":67,"rain":0.0,"pressure":945.9,"uv_index":8.7,"wind_gusts":40.7,"aqi":78,"pm10":16.6,"pm2_5":12.7,"no2":12.5,"co":229.0,"o3":49.0,"so2":2.9,"mosquito_risk":7,"arthritis_risk":5,"migraine_risk":7,"frizz_risk":1,"updated_at":"2026-06-06T05:39:16.526803+05:30"},{"city":"Satna","state":"Madhya Pradesh","latitude":24.6005,"longitude":80.8322,"temp":27.0,"humidity":68,"rain":0.0,"pressure":967.2,"uv_index":8.8,"wind_gusts":31.7,"aqi":97,"pm10":47.0,"pm2_5":27.5,"no2":28.3,"co":185.0,"o3":25.0,"so2":3.4,"mosquito_risk":7,"arthritis_risk":5,"migraine_risk":7,"frizz_risk":1,"updated_at":"2026-06-06T05:39:16.526810+05:30"},{"city":"Akola","state":"Maharashtra","latitude":20.7002,"longitude":77.0082,"temp":26.4,"humidity":81,"rain":0.1,"pressure":971.6,"uv_index":8.8,"wind_gusts":54.7,"aqi":78,"pm10":32.1,"pm2_5":21.5,"no2":9.1,"co":147.0,"o3":58.0,"so2":10.8,"mosquito_risk":10,"arthritis_risk":5,"migraine_risk":7,"frizz_risk":1,"updated_at":"2026-06-06T05:39:16.526818+05:30"},{"city":"Amravati","state":"Maharashtra","latitude":20.9374,"longitude":77.7796,"temp":26.0,"humidity":73,"rain":0.0,"pressure":964.1,"uv_index":8.85,"wind_gusts":47.2,"aqi":83,"pm10":33.8,"pm2_5":23.2,"no2":12.3,"co":191.0,"o3":56.0,"so2":7.5,"mosquito_risk":7,"arthritis_risk":5,"migraine_risk":7,"frizz_risk":1,"updated_at":"2026-06-06T05:39:16.526826+05:30"},{"city":"Latur","state":"Maharashtra","latitude":18.4088,"longitude":76.5604,"temp":23.3,"humidity":94,"rain":0.1,"pressure":936.7,"uv_index":9.0,"wind_gusts":45.4,"aqi":72,"pm10":20.4,"pm2_5":15.0,"no2":7.3,"co":225.0,"o3":70.0,"so2":4.8,"mosquito_risk":6,"arthritis_risk":5,"migraine_risk":7,"frizz_risk":1,"updated_at":"2026-06-06T05:39:16.526833+05:30"},{"city":"Nanded","state":"Maharashtra","latitude":19.1383,"longitude":77.3091,"temp":28.0,"humidity":61,"rain":0.0,"pressure":965.5,"uv_index":8.9,"wind_gusts":34.6,"aqi":90,"pm10":31.4,"pm2_5":23.8,"no2":7.5,"co":174.0,"o3":73.0,"so2":5.8,"mosquito_risk":7,"arthritis_risk":5,"migraine_risk":7,"frizz_risk":1,"updated_at":"2026-06-06T05:39:16.526841+05:30"},{"city":"Gulbarga","state":"Karnataka","latitude":17.3297,"longitude":76.8343,"temp":26.1,"humidity":76,"rain":0.0,"pressure":955.9,"uv_index":8.95,"wind_gusts":60.1,"aqi":70,"pm10":24.4,"pm2_5":17.6,"no2":10.9,"co":186.0,"o3":51.0,"so2":3.8,"mosquito_risk":7,"arthritis_risk":5,"migraine_risk":7,"frizz_risk":1,"updated_at":"2026-06-06T05:39:16.526847+05:30"},{"city":"Bidar","state":"Karnataka","latitude":17.9104,"longitude":77.5199,"temp":26.0,"humidity":72,"rain":0.0,"pressure":932.5,"uv_index":9.0,"wind_gusts":44.6,"aqi":94,"pm10":30.2,"pm2_5":22.0,"no2":8.2,"co":179.0,"o3":74.0,"so2":3.2,"mosquito_risk":7,"arthritis_risk":5,"migraine_risk":7,"frizz_risk":1,"updated_at":"2026-06-06T05:39:16.526854+05:30"},{"city":"Hospet","state":"Karnataka","latitude":15.2689,"longitude":76.3909,"temp":24.6,"humidity":84,"rain":0.0,"pressure":953.5,"uv_index":8.4,"wind_gusts":46.1,"aqi":20,"pm10":3.3,"pm2_5":2.7,"no2":5.6,"co":131.0,"o3":40.0,"so2":1.6,"mosquito_risk":3,"arthritis_risk":5,"migraine_risk":7,"frizz_risk":1,"updated_at":"2026-06-06T05:39:16.526862+05:30"},{"city":"Tirupur","state":"Tamil Nadu","latitude":11.1085,"longitude":77.3411,"temp":24.9,"humidity":83,"rain":0.0,"pressure":973.7,"uv_index":8.95,"wind_gusts":65.5,"aqi":28,"pm10":10.0,"pm2_5":7.9,"no2":12.0,"co":122.0,"o3":29.0,"so2":4.0,"mosquito_risk":3,"arthritis_risk":5,"migraine_risk":7,"frizz_risk":1,"updated_at":"2026-06-06T05:39:16.526869+05:30"},{"city":"Alappuzha","state":"Kerala","latitude":9.4981,"longitude":76.3388,"temp":25.2,"humidity":93,"rain":0.1,"pressure":1009.3,"uv_index":8.35,"wind_gusts":40.7,"aqi":39,"pm10":16.4,"pm2_5":7.4,"no2":5.3,"co":85.0,"o3":40.0,"so2":1.3,"mosquito_risk":10,"arthritis_risk":0,"migraine_risk":4,"frizz_risk":1,"updated_at":"2026-06-06T05:39:16.526876+05:30"},{"city":"Munnar","state":"Kerala","latitude":10.0889,"longitude":77.0595,"temp":17.1,"humidity":100,"rain":0.1,"pressure":856.0,"uv_index":8.55,"wind_gusts":46.8,"aqi":13,"pm10":3.0,"pm2_5":2.3,"no2":5.1,"co":96.0,"o3":28.0,"so2":1.9,"mosquito_risk":6,"arthritis_risk":10,"migraine_risk":7,"frizz_risk":1,"updated_at":"2026-06-06T05:39:16.526883+05:30"},{"city":"Silchar","state":"Assam","latitude":24.8333,"longitude":92.7789,"temp":25.2,"humidity":98,"rain":0.0,"pressure":1001.1,"uv_index":8.9,"wind_gusts":21.6,"aqi":119,"pm10":79.6,"pm2_5":73.3,"no2":23.2,"co":525.0,"o3":45.0,"so2":7.2,"mosquito_risk":7,"arthritis_risk":5,"migraine_risk":4,"frizz_risk":1,"updated_at":"2026-06-06T05:39:16.526890+05:30"},{"city":"Dibrugarh","state":"Assam","latitude":27.4728,"longitude":94.912,"temp":26.0,"humidity":87,"rain":0.0,"pressure":992.1,"uv_index":8.95,"wind_gusts":28.8,"aqi":104,"pm10":59.4,"pm2_5":55.3,"no2":24.0,"co":606.0,"o3":44.0,"so2":2.2,"mosquito_risk":7,"arthritis_risk":5,"migraine_risk":7,"frizz_risk":1,"updated_at":"2026-06-06T05:39:16.526897+05:30"}]