[{"city":"Delhi","state":"Delhi","latitude":28.6139,"longitude":77.209,"temp":42.1,"humidity":11,"rain":0.0,"pressure":979.6,"uv_index":7.7,"wind_gusts":42.8,"aqi":469,"pm10":241.2,"pm2_5":49.1,"no2":3.0,"co":237.0,"o3":191.0,"so2":12.3,"mosquito_risk":0,"arthritis_risk":5,"migraine_risk":10,"frizz_risk":0,"updated_at":"2026-05-26T13:22:47.650847+05:30"},{"city":"Mumbai","state":"Maharashtra","latitude":19.076,"longitude":72.8777,"temp":34.2,"humidity":56,"rain":0.1,"pressure":1008.1,"uv_index":7.45,"wind_gusts":38.9,"aqi":44,"pm10":18.2,"pm2_5":13.5,"no2":4.2,"co":176.0,"o3":106.0,"so2":6.2,"mosquito_risk":3,"arthritis_risk":0,"migraine_risk":4,"frizz_risk":1,"updated_at":"2026-05-26T13:22:47.650899+05:30"},{"city":"Bangalore","state":"Karnataka","latitude":12.9716,"longitude":77.5946,"temp":31.1,"humidity":53,"rain":0.0,"pressure":913.2,"uv_index":9.3,"wind_gusts":30.2,"aqi":88,"pm10":29.6,"pm2_5":24.0,"no2":2.4,"co":308.0,"o3":168.0,"so2":5.2,"mosquito_risk":0,"arthritis_risk":5,"migraine_risk":7,"frizz_risk":1,"updated_at":"2026-05-26T13:22:47.650916+05:30"},{"city":"Hyderabad","state":"Telangana","latitude":17.385,"longitude":78.4867,"temp":36.3,"humidity":35,"rain":0.0,"pressure":953.1,"uv_index":9.2,"wind_gusts":39.6,"aqi":81,"pm10":44.6,"pm2_5":28.4,"no2":1.6,"co":219.0,"o3":162.0,"so2":6.1,"mosquito_risk":0,"arthritis_risk":5,"migraine_risk":10,"frizz_risk":1,"updated_at":"2026-05-26T13:22:47.650927+05:30"},{"city":"Chennai","state":"Tamil Nadu","latitude":13.0827,"longitude":80.2707,"temp":39.1,"humidity":40,"rain":0.0,"pressure":1004.4,"uv_index":9.05,"wind_gusts":41.0,"aqi":85,"pm10":42.1,"pm2_5":33.4,"no2":4.3,"co":348.0,"o3":191.0,"so2":10.8,"mosquito_risk":0,"arthritis_risk":5,"migraine_risk":7,"frizz_risk":1,"updated_at":"2026-05-26T13:22:47.650937+05:30"},{"city":"Kolkata","state":"West Bengal","latitude":22.5726,"longitude":88.3639,"temp":38.4,"humidity":48,"rain":0.0,"pressure":1000.9,"uv_index":8.95,"wind_gusts":39.2,"aqi":97,"pm10":53.3,"pm2_5":42.0,"no2":2.1,"co":298.0,"o3":138.0,"so2":8.0,"mosquito_risk":0,"arthritis_risk":5,"migraine_risk":7,"frizz_risk":1,"updated_at":"2026-05-26T13:22:47.650947+05:30"},{"city":"Pune","state":"Maharashtra","latitude":18.5204,"longitude":73.8567,"temp":35.1,"humidity":38,"rain":0.0,"pressure":948.5,"uv_index":8.0,"wind_gusts":36.4,"aqi":46,"pm10":14.4,"pm2_5":10.3,"no2":1.8,"co":170.0,"o3":117.0,"so2":7.2,"mosquito_risk":0,"arthritis_risk":5,"migraine_risk":10,"frizz_risk":1,"updated_at":"2026-05-26T13:22:47.650954+05:30"},{"city":"Ahmedabad","state":"Gujarat","latitude":23.0225,"longitude":72.5714,"temp":39.5,"humidity":31,"rain":0.0,"pressure":1000.2,"uv_index":8.15,"wind_gusts":35.6,"aqi":84,"pm10":109.7,"pm2_5":33.3,"no2":1.7,"co":156.0,"o3":98.0,"so2":5.4,"mosquito_risk":0,"arthritis_risk":5,"migraine_risk":7,"frizz_risk":1,"updated_at":"2026-05-26T13:22:47.650963+05:30"},{"city":"Jaipur","state":"Rajasthan","latitude":26.9124,"longitude":75.7873,"temp":41.5,"humidity":18,"rain":0.0,"pressure":958.0,"uv_index":8.25,"wind_gusts":41.4,"aqi":205,"pm10":292.4,"pm2_5":56.1,"no2":0.9,"co":145.0,"o3":116.0,"so2":4.0,"mosquito_risk":0,"arthritis_risk":5,"migraine_risk":10,"frizz_risk":0,"updated_at":"2026-05-26T13:22:47.650975+05:30"},{"city":"Lucknow","state":"Uttar Pradesh","latitude":26.8467,"longitude":80.9462,"temp":42.2,"humidity":17,"rain":0.0,"pressure":988.3,"uv_index":8.2,"wind_gusts":47.2,"aqi":250,"pm10":236.6,"pm2_5":75.7,"no2":1.9,"co":262.0,"o3":208.0,"so2":12.4,"mosquito_risk":0,"arthritis_risk":5,"migraine_risk":10,"frizz_risk":0,"updated_at":"2026-05-26T13:22:47.650982+05:30"},{"city":"Kanpur","state":"Uttar Pradesh","latitude":26.4499,"longitude":80.3319,"temp":43.2,"humidity":12,"rain":0.0,"pressure":986.9,"uv_index":8.2,"wind_gusts":52.9,"aqi":384,"pm10":551.3,"pm2_5":92.0,"no2":1.6,"co":196.0,"o3":181.0,"so2":10.0,"mosquito_risk":0,"arthritis_risk":5,"migraine_risk":10,"frizz_risk":0,"updated_at":"2026-05-26T13:22:47.650990+05:30"},{"city":"Chandigarh","state":"Chandigarh","latitude":30.7333,"longitude":76.7794,"temp":39.2,"humidity":12,"rain":0.0,"pressure":965.1,"uv_index":7.75,"wind_gusts":47.9,"aqi":75,"pm10":16.9,"pm2_5":10.5,"no2":1.5,"co":149.0,"o3":178.0,"so2":7.6,"mosquito_risk":0,"arthritis_risk":5,"migraine_risk":10,"frizz_risk":0,"updated_at":"2026-05-26T13:22:47.650998+05:30"},{"city":"Srinagar","state":"Jammu and Kashmir","latitude":34.0837,"longitude":74.7973,"temp":22.0,"humidity":46,"rain":0.0,"pressure":844.8,"uv_index":8.95,"wind_gusts":18.7,"aqi":68,"pm10":16.5,"pm2_5":8.7,"no2":0.9,"co":268.0,"o3":157.0,"so2":2.1,"mosquito_risk":0,"arthritis_risk":5,"migraine_risk":7,"frizz_risk":0,"updated_at":"2026-05-26T13:22:47.651007+05:30"},{"city":"Jammu","state":"Jammu and Kashmir","latitude":32.7266,"longitude":74.857,"temp":38.7,"humidity":13,"rain":0.0,"pressure":969.2,"uv_index":8.55,"wind_gusts":43.2,"aqi":74,"pm10":23.5,"pm2_5":11.5,"no2":0.8,"co":170.0,"o3":168.0,"so2":2.2,"mosquito_risk":0,"arthritis_risk":5,"migraine_risk":10,"frizz_risk":0,"updated_at":"2026-05-26T13:22:47.651015+05:30"},{"city":"Amritsar","state":"Punjab","latitude":31.634,"longitude":74.8723,"temp":39.8,"humidity":12,"rain":0.0,"pressure":977.4,"uv_index":8.4,"wind_gusts":28.1,"aqi":76,"pm10":19.9,"pm2_5":10.5,"no2":0.8,"co":217.0,"o3":168.0,"so2":3.4,"mosquito_risk":0,"arthritis_risk":5,"migraine_risk":10,"frizz_risk":0,"updated_at":"2026-05-26T13:22:47.651022+05:30"},{"city":"Ludhiana","state":"Punjab","latitude":30.901,"longitude":75.8573,"temp":40.7,"humidity":10,"rain":0.0,"pressure":975.2,"uv_index":8.0,"wind_gusts":42.8,"aqi":74,"pm10":15.3,"pm2_5":8.2,"no2":0.8,"co":165.0,"o3":165.0,"so2":2.9,"mosquito_risk":0,"arthritis_risk":5,"migraine_risk":10,"frizz_risk":0,"updated_at":"2026-05-26T13:22:47.651028+05:30"},{"city":"Jalandhar","state":"Punjab","latitude":31.326,"longitude":75.5762,"temp":40.5,"humidity":11,"rain":0.0,"pressure":976.1,"uv_index":8.2,"wind_gusts":36.0,"aqi":78,"pm10":31.5,"pm2_5":11.1,"no2":0.6,"co":202.0,"o3":164.0,"so2":2.4,"mosquito_risk":0,"arthritis_risk":5,"migraine_risk":10,"frizz_risk":0,"updated_at":"2026-05-26T13:22:47.651035+05:30"},{"city":"Dehradun","state":"Uttarakhand","latitude":30.6284,"longitude":78.0322,"temp":26.0,"humidity":26,"rain":0.0,"pressure":832.1,"uv_index":8.2,"wind_gusts":43.2,"aqi":73,"pm10":27.0,"pm2_5":10.8,"no2":0.6,"co":171.0,"o3":155.0,"so2":1.7,"mosquito_risk":4,"arthritis_risk":5,"migraine_risk":7,"frizz_risk":0,"updated_at":"2026-05-26T13:22:47.651043+05:30"},{"city":"Shimla","state":"Himachal Pradesh","latitude":31.1048,"longitude":77.1734,"temp":24.8,"humidity":15,"rain":0.0,"pressure":788.1,"uv_index":8.25,"wind_gusts":53.3,"aqi":64,"pm10":15.9,"pm2_5":7.2,"no2":0.6,"co":137.0,"o3":159.0,"so2":2.3,"mosquito_risk":0,"arthritis_risk":5,"migraine_risk":7,"frizz_risk":1,"updated_at":"2026-05-26T13:22:47.651053+05:30"},{"city":"Manali","state":"Himachal Pradesh","latitude":32.2396,"longitude":77.1887,"temp":24.8,"humidity":25,"rain":0.0,"pressure":820.7,"uv_index":9.95,"wind_gusts":45.7,"aqi":69,"pm10":8.2,"pm2_5":5.1,"no2":1.6,"co":121.0,"o3":159.0,"so2":0.5,"mosquito_risk":0,"arthritis_risk":5,"migraine_risk":7,"frizz_risk":0,"updated_at":"2026-05-26T13:22:47.651060+05:30"},{"city":"Gurgaon","state":"Haryana","latitude":28.4595,"longitude":77.0266,"temp":42.0,"humidity":10,"rain":0.0,"pressure":978.3,"uv_index":7.8,"wind_gusts":38.2,"aqi":954,"pm10":901.5,"pm2_5":117.8,"no2":3.5,"co":225.0,"o3":197.0,"so2":13.8,"mosquito_risk":0,"arthritis_risk":5,"migraine_risk":10,"frizz_risk":0,"updated_at":"2026-05-26T13:22:47.651068+05:30"},{"city":"Noida","state":"Uttar Pradesh","latitude":28.5355,"longitude":77.391,"temp":42.5,"humidity":10,"rain":0.0,"pressure":980.7,"uv_index":7.75,"wind_gusts":39.2,"aqi":954,"pm10":901.5,"pm2_5":117.8,"no2":3.5,"co":256.0,"o3":197.0,"so2":13.8,"mosquito_risk":0,"arthritis_risk":5,"migraine_risk":10,"frizz_risk":0,"updated_at":"2026-05-26T13:22:47.651075+05:30"},{"city":"Ghaziabad","state":"Uttar Pradesh","latitude":28.6692,"longitude":77.4538,"temp":41.3,"humidity":13,"rain":0.0,"pressure":979.1,"uv_index":7.7,"wind_gusts":41.0,"aqi":290,"pm10":81.7,"pm2_5":28.8,"no2":2.3,"co":209.0,"o3":196.0,"so2":12.4,"mosquito_risk":0,"arthritis_risk":5,"migraine_risk":10,"frizz_risk":0,"updated_at":"2026-05-26T13:22:47.651082+05:30"},{"city":"Faridabad","state":"Haryana","latitude":28.4089,"longitude":77.3178,"temp":42.3,"humidity":10,"rain":0.0,"pressure":980.1,"uv_index":7.75,"wind_gusts":42.8,"aqi":954,"pm10":901.5,"pm2_5":117.8,"no2":3.5,"co":254.0,"o3":197.0,"so2":13.8,"mosquito_risk":0,"arthritis_risk":5,"migraine_risk":10,"frizz_risk":0,"updated_at":"2026-05-26T13:22:47.651091+05:30"},{"city":"Meerut","state":"Uttar Pradesh","latitude":28.9845,"longitude":77.7064,"temp":40.5,"humidity":14,"rain":0.0,"pressure":977.9,"uv_index":7.65,"wind_gusts":42.8,"aqi":290,"pm10":81.7,"pm2_5":28.8,"no2":2.3,"co":254.0,"o3":196.0,"so2":12.4,"mosquito_risk":0,"arthritis_risk":5,"migraine_risk":10,"frizz_risk":0,"updated_at":"2026-05-26T13:22:47.651098+05:30"},{"city":"Agra","state":"Uttar Pradesh","latitude":27.1767,"longitude":78.0081,"temp":43.0,"humidity":10,"rain":0.0,"pressure":984.2,"uv_index":8.05,"wind_gusts":39.6,"aqi":1080,"pm10":972.3,"pm2_5":114.6,"no2":1.6,"co":198.0,"o3":184.0,"so2":11.5,"mosquito_risk":0,"arthritis_risk":5,"migraine_risk":10,"frizz_risk":0,"updated_at":"2026-05-26T13:22:47.651105+05:30"},{"city":"Varanasi","state":"Uttar Pradesh","latitude":25.3176,"longitude":82.9739,"temp":42.5,"humidity":19,"rain":0.0,"pressure":992.1,"uv_index":8.75,"wind_gusts":42.8,"aqi":128,"pm10":91.7,"pm2_5":48.9,"no2":2.2,"co":526.0,"o3":215.0,"so2":14.3,"mosquito_risk":0,"arthritis_risk":5,"migraine_risk":10,"frizz_risk":0,"updated_at":"2026-05-26T13:22:47.651112+05:30"},{"city":"Prayagraj","state":"Uttar Pradesh","latitude":25.4358,"longitude":81.8463,"temp":42.2,"humidity":20,"rain":0.0,"pressure":990.8,"uv_index":8.6,"wind_gusts":51.8,"aqi":152,"pm10":121.1,"pm2_5":53.9,"no2":2.0,"co":161.0,"o3":201.0,"so2":12.9,"mosquito_risk":0,"arthritis_risk":5,"migraine_risk":10,"frizz_risk":0,"updated_at":"2026-05-26T13:22:47.651119+05:30"},{"city":"Gorakhpur","state":"Uttar Pradesh","latitude":26.7606,"longitude":83.3732,"temp":36.8,"humidity":40,"rain":0.0,"pressure":993.3,"uv_index":8.6,"wind_gusts":37.8,"aqi":156,"pm10":82.9,"pm2_5":55.8,"no2":1.9,"co":335.0,"o3":190.0,"so2":11.6,"mosquito_risk":0,"arthritis_risk":5,"migraine_risk":10,"frizz_risk":1,"updated_at":"2026-05-26T13:22:47.651128+05:30"},{"city":"Bareilly","state":"Uttar Pradesh","latitude":28.367,"longitude":79.4304,"temp":39.0,"humidity":21,"rain":0.0,"pressure":982.5,"uv_index":8.0,"wind_gusts":37.8,"aqi":156,"pm10":261.7,"pm2_5":85.2,"no2":2.4,"co":329.0,"o3":228.0,"so2":18.4,"mosquito_risk":0,"arthritis_risk":5,"migraine_risk":10,"frizz_risk":0,"updated_at":"2026-05-26T13:22:47.651135+05:30"},{"city":"Aligarh","state":"Uttar Pradesh","latitude":27.8974,"longitude":78.088,"temp":41.2,"humidity":14,"rain":0.0,"pressure":982.2,"uv_index":7.85,"wind_gusts":38.5,"aqi":636,"pm10":625.8,"pm2_5":89.6,"no2":2.2,"co":237.0,"o3":208.0,"so2":16.2,"mosquito_risk":0,"arthritis_risk":5,"migraine_risk":10,"frizz_risk":0,"updated_at":"2026-05-26T13:22:47.651142+05:30"},{"city":"Moradabad","state":"Uttar Pradesh","latitude":28.8386,"longitude":78.7733,"temp":39.0,"humidity":20,"rain":0.0,"pressure":979.8,"uv_index":7.85,"wind_gusts":40.7,"aqi":167,"pm10":148.5,"pm2_5":57.6,"no2":1.9,"co":300.0,"o3":252.0,"so2":21.3,"mosquito_risk":0,"arthritis_risk":5,"migraine_risk":10,"frizz_risk":0,"updated_at":"2026-05-26T13:22:47.651152+05:30"},{"city":"Saharanpur","state":"Uttar Pradesh","latitude":29.9637,"longitude":77.546,"temp":39.3,"humidity":13,"rain":0.0,"pressure":971.9,"uv_index":7.4,"wind_gusts":52.2,"aqi":140,"pm10":31.7,"pm2_5":13.0,"no2":1.4,"co":237.0,"o3":175.0,"so2":6.6,"mosquito_risk":0,"arthritis_risk":5,"migraine_risk":10,"frizz_risk":0,"updated_at":"2026-05-26T13:22:47.651159+05:30"},{"city":"Jhansi","state":"Uttar Pradesh","latitude":25.4484,"longitude":78.5685,"temp":42.8,"humidity":13,"rain":0.0,"pressure":974.8,"uv_index":8.45,"wind_gusts":43.9,"aqi":61,"pm10":149.9,"pm2_5":44.0,"no2":0.9,"co":135.0,"o3":113.0,"so2":4.8,"mosquito_risk":0,"arthritis_risk":5,"migraine_risk":10,"frizz_risk":0,"updated_at":"2026-05-26T13:22:50.911866+05:30"},{"city":"Surat","state":"Gujarat","latitude":21.1702,"longitude":72.8311,"temp":35.6,"humidity":50,"rain":0.0,"pressure":1005.9,"uv_index":7.75,"wind_gusts":43.2,"aqi":61,"pm10":38.2,"pm2_5":22.1,"no2":13.4,"co":413.0,"o3":59.0,"so2":44.1,"mosquito_risk":0,"arthritis_risk":5,"migraine_risk":7,"frizz_risk":1,"updated_at":"2026-05-26T13:22:50.911903+05:30"},{"city":"Vadodara","state":"Gujarat","latitude":22.3072,"longitude":73.1812,"temp":39.1,"humidity":31,"rain":0.0,"pressure":1002.8,"uv_index":8.1,"wind_gusts":39.2,"aqi":55,"pm10":75.2,"pm2_5":28.2,"no2":1.4,"co":156.0,"o3":99.0,"so2":3.6,"mosquito_risk":0,"arthritis_risk":5,"migraine_risk":7,"frizz_risk":1,"updated_at":"2026-05-26T13:22:50.911913+05:30"},{"city":"Rajkot","state":"Gujarat","latitude":22.3039,"longitude":70.8022,"temp":40.0,"humidity":30,"rain":0.0,"pressure":992.6,"uv_index":7.7,"wind_gusts":47.5,"aqi":73,"pm10":86.4,"pm2_5":27.2,"no2":1.0,"co":125.0,"o3":96.0,"so2":4.5,"mosquito_risk":0,"arthritis_risk":5,"migraine_risk":10,"frizz_risk":1,"updated_at":"2026-05-26T13:22:50.911922+05:30"},{"city":"Thane","state":"Maharashtra","latitude":19.2183,"longitude":72.9781,"temp":34.8,"humidity":55,"rain":0.1,"pressure":1007.2,"uv_index":7.55,"wind_gusts":32.0,"aqi":44,"pm10":18.2,"pm2_5":13.5,"no2":4.2,"co":191.0,"o3":106.0,"so2":6.2,"mosquito_risk":3,"arthritis_risk":5,"migraine_risk":4,"frizz_risk":1,"updated_at":"2026-05-26T13:22:50.911931+05:30"},{"city":"Nagpur","state":"Maharashtra","latitude":21.1458,"longitude":79.0882,"temp":42.5,"humidity":20,"rain":0.0,"pressure":971.0,"uv_index":8.9,"wind_gusts":41.0,"aqi":79,"pm10":46.0,"pm2_5":20.5,"no2":3.7,"co":164.0,"o3":152.0,"so2":17.1,"mosquito_risk":0,"arthritis_risk":5,"migraine_risk":10,"frizz_risk":0,"updated_at":"2026-05-26T13:22:50.911939+05:30"},{"city":"Nashik","state":"Maharashtra","latitude":19.9975,"longitude":73.7898,"temp":34.8,"humidity":43,"rain":0.0,"pressure":946.0,"uv_index":8.15,"wind_gusts":33.8,"aqi":33,"pm10":12.8,"pm2_5":7.6,"no2":0.8,"co":133.0,"o3":81.0,"so2":0.9,"mosquito_risk":0,"arthritis_risk":5,"migraine_risk":7,"frizz_risk":1,"updated_at":"2026-05-26T13:22:50.911946+05:30"},{"city":"Aurangabad","state":"Maharashtra","latitude":19.8762,"longitude":75.3433,"temp":37.5,"humidity":31,"rain":0.0,"pressure":944.5,"uv_index":9.05,"wind_gusts":37.4,"aqi":54,"pm10":18.6,"pm2_5":10.9,"no2":0.8,"co":137.0,"o3":105.0,"so2":2.3,"mosquito_risk":0,"arthritis_risk":5,"migraine_risk":10,"frizz_risk":1,"updated_at":"2026-05-26T13:22:50.911954+05:30"},{"city":"Solapur","state":"Maharashtra","latitude":17.6599,"longitude":75.9064,"temp":36.7,"humidity":37,"rain":0.0,"pressure":957.3,"uv_index":8.6,"wind_gusts":41.8,"aqi":61,"pm10":20.7,"pm2_5":14.6,"no2":1.2,"co":150.0,"o3":133.0,"so2":5.9,"mosquito_risk":0,"arthritis_risk":5,"migraine_risk":10,"frizz_risk":1,"updated_at":"2026-05-26T13:22:50.911961+05:30"},{"city":"Kolhapur","state":"Maharashtra","latitude":16.705,"longitude":74.2433,"temp":34.3,"humidity":48,"rain":0.0,"pressure":948.8,"uv_index":8.7,"wind_gusts":49.0,"aqi":34,"pm10":12.2,"pm2_5":8.4,"no2":1.3,"co":141.0,"o3":101.0,"so2":1.8,"mosquito_risk":0,"arthritis_risk":5,"migraine_risk":7,"frizz_risk":1,"updated_at":"2026-05-26T13:22:50.911969+05:30"},{"city":"Goa","state":"Goa","latitude":15.2993,"longitude":74.124,"temp":34.4,"humidity":59,"rain":0.1,"pressure":998.0,"uv_index":7.0,"wind_gusts":29.9,"aqi":43,"pm10":9.6,"pm2_5":7.0,"no2":0.7,"co":154.0,"o3":71.0,"so2":1.5,"mosquito_risk":3,"arthritis_risk":5,"migraine_risk":7,"frizz_risk":1,"updated_at":"2026-05-26T13:22:50.911975+05:30"},{"city":"Jodhpur","state":"Rajasthan","latitude":26.2389,"longitude":73.0243,"temp":39.5,"humidity":33,"rain":0.0,"pressure":980.8,"uv_index":8.4,"wind_gusts":38.9,"aqi":207,"pm10":316.6,"pm2_5":62.2,"no2":0.6,"co":128.0,"o3":94.0,"so2":3.1,"mosquito_risk":0,"arthritis_risk":5,"migraine_risk":10,"frizz_risk":1,"updated_at":"2026-05-26T13:22:50.911982+05:30"},{"city":"Udaipur","state":"Rajasthan","latitude":24.5854,"longitude":73.7125,"temp":37.9,"humidity":24,"rain":0.0,"pressure":946.2,"uv_index":8.8,"wind_gusts":39.6,"aqi":84,"pm10":137.8,"pm2_5":39.7,"no2":0.6,"co":127.0,"o3":87.0,"so2":2.3,"mosquito_risk":0,"arthritis_risk":5,"migraine_risk":10,"frizz_risk":0,"updated_at":"2026-05-26T13:22:50.911990+05:30"},{"city":"Kota","state":"Rajasthan","latitude":25.2138,"longitude":75.8648,"temp":43.0,"humidity":18,"rain":0.0,"pressure":976.3,"uv_index":8.4,"wind_gusts":37.4,"aqi":70,"pm10":215.1,"pm2_5":53.2,"no2":0.9,"co":142.0,"o3":116.0,"so2":6.3,"mosquito_risk":0,"arthritis_risk":5,"migraine_risk":10,"frizz_risk":0,"updated_at":"2026-05-26T13:22:50.911997+05:30"},{"city":"Bikaner","state":"Rajasthan","latitude":28.0229,"longitude":73.3119,"temp":43.3,"humidity":14,"rain":0.0,"pressure":978.1,"uv_index":8.4,"wind_gusts":42.1,"aqi":156,"pm10":124.8,"pm2_5":51.3,"no2":0.3,"co":134.0,"o3":113.0,"so2":4.1,"mosquito_risk":0,"arthritis_risk":5,"migraine_risk":10,"frizz_risk":0,"updated_at":"2026-05-26T13:22:50.912004+05:30"},{"city":"Ajmer","state":"Rajasthan","latitude":26.4499,"longitude":74.6399,"temp":39.2,"humidity":24,"rain":0.0,"pressure":953.6,"uv_index":8.35,"wind_gusts":46.4,"aqi":108,"pm10":211.4,"pm2_5":48.8,"no2":0.5,"co":133.0,"o3":102.0,"so2":3.1,"mosquito_risk":0,"arthritis_risk":5,"migraine_risk":10,"frizz_risk":0,"updated_at":"2026-05-26T13:22:50.912011+05:30"},{"city":"Gwalior","state":"Madhya Pradesh","latitude":26.2183,"longitude":78.1828,"temp":43.1,"humidity":13,"rain":0.0,"pressure":979.8,"uv_index":8.25,"wind_gusts":47.2,"aqi":83,"pm10":129.9,"pm2_5":37.8,"no2":0.6,"co":153.0,"o3":128.0,"so2":4.6,"mosquito_risk":0,"arthritis_risk":5,"migraine_risk":10,"frizz_risk":0,"updated_at":"2026-05-26T13:22:50.912018+05:30"},{"city":"Indore","state":"Madhya Pradesh","latitude":22.7196,"longitude":75.8577,"temp":39.9,"humidity":21,"rain":0.0,"pressure":947.9,"uv_index":8.65,"wind_gusts":42.1,"aqi":60,"pm10":54.7,"pm2_5":25.7,"no2":1.1,"co":169.0,"o3":119.0,"so2":6.8,"mosquito_risk":0,"arthritis_risk":5,"migraine_risk":10,"frizz_risk":0,"updated_at":"2026-05-26T13:22:50.912024+05:30"},{"city":"Bhopal","state":"Madhya Pradesh","latitude":23.2599,"longitude":77.4126,"temp":41.5,"humidity":16,"rain":0.0,"pressure":952.5,"uv_index":8.7,"wind_gusts":39.2,"aqi":65,"pm10":54.5,"pm2_5":21.3,"no2":0.7,"co":148.0,"o3":114.0,"so2":4.1,"mosquito_risk":0,"arthritis_risk":5,"migraine_risk":10,"frizz_risk":0,"updated_at":"2026-05-26T13:22:50.912031+05:30"},{"city":"Jabalpur","state":"Madhya Pradesh","latitude":23.1815,"longitude":79.9864,"temp":42.7,"humidity":13,"rain":0.0,"pressure":959.2,"uv_index":8.85,"wind_gusts":41.0,"aqi":72,"pm10":50.4,"pm2_5":19.8,"no2":0.7,"co":138.0,"o3":121.0,"so2":3.4,"mosquito_risk":0,"arthritis_risk":5,"migraine_risk":10,"frizz_risk":0,"updated_at":"2026-05-26T13:22:50.912038+05:30"},{"city":"Ujjain","state":"Madhya Pradesh","latitude":23.1765,"longitude":75.7885,"temp":40.0,"humidity":19,"rain":0.0,"pressure":953.2,"uv_index":8.6,"wind_gusts":42.1,"aqi":58,"pm10":64.5,"pm2_5":26.6,"no2":0.7,"co":151.0,"o3":113.0,"so2":6.1,"mosquito_risk":0,"arthritis_risk":5,"migraine_risk":10,"frizz_risk":0,"updated_at":"2026-05-26T13:22:50.912045+05:30"},{"city":"Visakhapatnam","state":"Andhra Pradesh","latitude":17.6868,"longitude":83.2185,"temp":39.3,"humidity":49,"rain":0.0,"pressure":998.7,"uv_index":8.95,"wind_gusts":40.7,"aqi":123,"pm10":61.9,"pm2_5":50.9,"no2":9.5,"co":432.0,"o3":187.0,"so2":42.9,"mosquito_risk":0,"arthritis_risk":5,"migraine_risk":10,"frizz_risk":1,"updated_at":"2026-05-26T13:22:50.912052+05:30"},{"city":"Vijayawada","state":"Andhra Pradesh","latitude":16.5062,"longitude":80.648,"temp":42.5,"humidity":25,"rain":0.0,"pressure":998.6,"uv_index":9.1,"wind_gusts":39.6,"aqi":132,"pm10":53.6,"pm2_5":34.6,"no2":1.7,"co":209.0,"o3":167.0,"so2":7.5,"mosquito_risk":0,"arthritis_risk":5,"migraine_risk":10,"frizz_risk":1,"updated_at":"2026-05-26T13:22:50.912059+05:30"},{"city":"Guntur","state":"Andhra Pradesh","latitude":16.3067,"longitude":80.4365,"temp":42.2,"humidity":25,"rain":0.0,"pressure":1000.0,"uv_index":9.1,"wind_gusts":42.1,"aqi":122,"pm10":53.2,"pm2_5":32.5,"no2":1.2,"co":188.0,"o3":156.0,"so2":6.1,"mosquito_risk":0,"arthritis_risk":5,"migraine_risk":7,"frizz_risk":1,"updated_at":"2026-05-26T13:22:50.912065+05:30"},{"city":"Nellore","state":"Andhra Pradesh","latitude":14.4426,"longitude":79.9865,"temp":40.0,"humidity":36,"rain":0.0,"pressure":1002.8,"uv_index":9.05,"wind_gusts":42.1,"aqi":90,"pm10":27.2,"pm2_5":21.5,"no2":2.2,"co":174.0,"o3":153.0,"so2":7.2,"mosquito_risk":0,"arthritis_risk":5,"migraine_risk":7,"frizz_risk":1,"updated_at":"2026-05-26T13:22:50.912072+05:30"},{"city":"Kurnool","state":"Andhra Pradesh","latitude":15.8281,"longitude":78.0373,"temp":37.5,"humidity":40,"rain":0.0,"pressure":976.1,"uv_index":8.9,"wind_gusts":70.9,"aqi":63,"pm10":20.7,"pm2_5":16.2,"no2":1.5,"co":179.0,"o3":143.0,"so2":10.0,"mosquito_risk":0,"arthritis_risk":5,"migraine_risk":10,"frizz_risk":1,"updated_at":"2026-05-26T13:22:50.912079+05:30"},{"city":"Kakinada","state":"Andhra Pradesh","latitude":16.9891,"longitude":82.2475,"temp":41.2,"humidity":39,"rain":0.0,"pressure":1002.6,"uv_index":9.0,"wind_gusts":38.2,"aqi":105,"pm10":51.5,"pm2_5":39.6,"no2":2.7,"co":285.0,"o3":165.0,"so2":5.8,"mosquito_risk":0,"arthritis_risk":5,"migraine_risk":7,"frizz_risk":1,"updated_at":"2026-05-26T13:22:50.912087+05:30"},{"city":"Tirupati","state":"Andhra Pradesh","latitude":13.6288,"longitude":79.4192,"temp":39.7,"humidity":33,"rain":0.0,"pressure":988.7,"uv_index":9.1,"wind_gusts":33.8,"aqi":89,"pm10":33.9,"pm2_5":24.3,"no2":0.8,"co":155.0,"o3":145.0,"so2":3.6,"mosquito_risk":0,"arthritis_risk":5,"migraine_risk":10,"frizz_risk":1,"updated_at":"2026-05-26T13:22:50.912093+05:30"},{"city":"Warangal","state":"Telangana","latitude":17.9689,"longitude":79.5941,"temp":40.8,"humidity":26,"rain":0.0,"pressure":976.4,"uv_index":9.1,"wind_gusts":38.2,"aqi":96,"pm10":49.7,"pm2_5":29.7,"no2":1.3,"co":208.0,"o3":146.0,"so2":6.7,"mosquito_risk":0,"arthritis_risk":5,"migraine_risk":10,"frizz_risk":1,"updated_at":"2026-05-26T13:22:50.912100+05:30"},{"city":"Nizamabad","state":"Telangana","latitude":18.6725,"longitude":78.0941,"temp":40.0,"humidity":27,"rain":0.0,"pressure":963.8,"uv_index":9.1,"wind_gusts":34.9,"aqi":82,"pm10":49.8,"pm2_5":26.4,"no2":0.9,"co":155.0,"o3":123.0,"so2":2.5,"mosquito_risk":0,"arthritis_risk":5,"migraine_risk":10,"frizz_risk":1,"updated_at":"2026-05-26T13:22:50.912107+05:30"},{"city":"Mysore","state":"Karnataka","latitude":12.2958,"longitude":76.6396,"temp":32.8,"humidity":47,"rain":0.0,"pressure":929.7,"uv_index":9.1,"wind_gusts":53.6,"aqi":60,"pm10":22.8,"pm2_5":17.1,"no2":1.6,"co":185.0,"o3":130.0,"so2":2.4,"mosquito_risk":0,"arthritis_risk":5,"migraine_risk":7,"frizz_risk":1,"updated_at":"2026-05-26T13:22:50.912113+05:30"},{"city":"Mangalore","state":"Karnataka","latitude":12.9141,"longitude":74.856,"temp":30.6,"humidity":74,"rain":0.0,"pressure":1007.4,"uv_index":7.55,"wind_gusts":27.4,"aqi":66,"pm10":15.1,"pm2_5":10.2,"no2":1.0,"co":156.0,"o3":83.0,"so2":1.9,"mosquito_risk":3,"arthritis_risk":5,"migraine_risk":4,"frizz_risk":1,"updated_at":"2026-05-26T13:22:50.912121+05:30"},{"city":"Hubli-Dharwad","state":"Karnataka","latitude":15.3647,"longitude":75.124,"temp":34.1,"humidity":47,"rain":0.0,"pressure":942.1,"uv_index":9.0,"wind_gusts":52.6,"aqi":30,"pm10":14.6,"pm2_5":9.5,"no2":1.1,"co":149.0,"o3":96.0,"so2":1.1,"mosquito_risk":0,"arthritis_risk":5,"migraine_risk":7,"frizz_risk":1,"updated_at":"2026-05-26T13:22:50.912128+05:30"},{"city":"Belgaum","state":"Karnataka","latitude":15.8497,"longitude":74.4977,"temp":33.5,"humidity":47,"rain":0.0,"pressure":927.2,"uv_index":9.05,"wind_gusts":55.4,"aqi":25,"pm10":12.6,"pm2_5":8.3,"no2":1.0,"co":133.0,"o3":88.0,"so2":1.5,"mosquito_risk":0,"arthritis_risk":5,"migraine_risk":7,"frizz_risk":1,"updated_at":"2026-05-26T13:22:54.171528+05:30"},{"city":"Coimbatore","state":"Tamil Nadu","latitude":11.0168,"longitude":76.9558,"temp":34.6,"humidity":41,"rain":0.1,"pressure":962.1,"uv_index":8.9,"wind_gusts":52.9,"aqi":49,"pm10":20.2,"pm2_5":15.0,"no2":1.2,"co":165.0,"o3":107.0,"so2":2.3,"mosquito_risk":3,"arthritis_risk":5,"migraine_risk":7,"frizz_risk":1,"updated_at":"2026-05-26T13:22:54.171564+05:30"},{"city":"Madurai","state":"Tamil Nadu","latitude":9.9252,"longitude":78.1198,"temp":37.8,"humidity":36,"rain":0.0,"pressure":991.8,"uv_index":8.85,"wind_gusts":46.8,"aqi":92,"pm10":26.7,"pm2_5":20.3,"no2":1.7,"co":201.0,"o3":165.0,"so2":4.4,"mosquito_risk":0,"arthritis_risk":5,"migraine_risk":10,"frizz_risk":1,"updated_at":"2026-05-26T13:22:54.171575+05:30"},{"city":"Trichy","state":"Tamil Nadu","latitude":10.7905,"longitude":78.7047,"temp":38.0,"humidity":37,"rain":0.0,"pressure":998.3,"uv_index":8.95,"wind_gusts":42.1,"aqi":64,"pm10":19.3,"pm2_5":14.7,"no2":1.3,"co":146.0,"o3":124.0,"so2":3.0,"mosquito_risk":0,"arthritis_risk":5,"migraine_risk":10,"frizz_risk":1,"updated_at":"2026-05-26T13:22:54.171584+05:30"},{"city":"Salem","state":"Tamil Nadu","latitude":11.6643,"longitude":78.146,"temp":37.7,"humidity":34,"rain":0.0,"pressure":976.8,"uv_index":9.05,"wind_gusts":42.1,"aqi":69,"pm10":30.2,"pm2_5":24.6,"no2":2.8,"co":201.0,"o3":179.0,"so2":12.5,"mosquito_risk":0,"arthritis_risk":5,"migraine_risk":10,"frizz_risk":1,"updated_at":"2026-05-26T13:22:54.171593+05:30"},{"city":"Tirunelveli","state":"Tamil Nadu","latitude":8.7139,"longitude":77.7567,"temp":40.1,"humidity":33,"rain":0.0,"pressure":1001.6,"uv_index":8.8,"wind_gusts":32.0,"aqi":34,"pm10":8.1,"pm2_5":5.8,"no2":1.0,"co":136.0,"o3":86.0,"so2":0.9,"mosquito_risk":0,"arthritis_risk":5,"migraine_risk":7,"frizz_risk":1,"updated_at":"2026-05-26T13:22:54.171600+05:30"},{"city":"Vellore","state":"Tamil Nadu","latitude":12.9165,"longitude":79.1325,"temp":38.2,"humidity":36,"rain":0.0,"pressure":982.6,"uv_index":8.85,"wind_gusts":38.9,"aqi":95,"pm10":35.2,"pm2_5":27.6,"no2":1.2,"co":195.0,"o3":166.0,"so2":4.1,"mosquito_risk":0,"arthritis_risk":5,"migraine_risk":10,"frizz_risk":1,"updated_at":"2026-05-26T13:22:54.171608+05:30"},{"city":"Erode","state":"Tamil Nadu","latitude":11.341,"longitude":77.7172,"temp":38.2,"humidity":33,"rain":0.0,"pressure":988.1,"uv_index":9.0,"wind_gusts":54.0,"aqi":55,"pm10":22.4,"pm2_5":17.1,"no2":1.6,"co":197.0,"o3":140.0,"so2":2.6,"mosquito_risk":0,"arthritis_risk":5,"migraine_risk":10,"frizz_risk":1,"updated_at":"2026-05-26T13:22:54.171616+05:30"},{"city":"Kochi","state":"Kerala","latitude":9.9312,"longitude":76.2673,"temp":29.5,"humidity":77,"rain":0.1,"pressure":1010.0,"uv_index":8.45,"wind_gusts":27.4,"aqi":58,"pm10":10.0,"pm2_5":7.3,"no2":2.0,"co":119.0,"o3":89.0,"so2":3.2,"mosquito_risk":10,"arthritis_risk":0,"migraine_risk":4,"frizz_risk":1,"updated_at":"2026-05-26T13:22:54.171624+05:30"},{"city":"Thiruvananthapuram","state":"Kerala","latitude":8.5241,"longitude":76.9366,"temp":29.0,"humidity":79,"rain":0.0,"pressure":1009.7,"uv_index":8.25,"wind_gusts":32.4,"aqi":33,"pm10":10.0,"pm2_5":6.1,"no2":0.7,"co":103.0,"o3":77.0,"so2":0.6,"mosquito_risk":7,"arthritis_risk":0,"migraine_risk":4,"frizz_risk":1,"updated_at":"2026-05-26T13:22:54.171632+05:30"},{"city":"Kozhikode","state":"Kerala","latitude":11.2588,"longitude":75.7804,"temp":30.1,"humidity":76,"rain":0.1,"pressure":1009.2,"uv_index":8.45,"wind_gusts":31.0,"aqi":37,"pm10":7.1,"pm2_5":4.5,"no2":0.3,"co":168.0,"o3":69.0,"so2":0.6,"mosquito_risk":6,"arthritis_risk":0,"migraine_risk":4,"frizz_risk":1,"updated_at":"2026-05-26T13:22:54.171639+05:30"},{"city":"Thrissur","state":"Kerala","latitude":10.5276,"longitude":76.2144,"temp":29.1,"humidity":79,"rain":0.1,"pressure":1008.3,"uv_index":8.55,"wind_gusts":32.8,"aqi":53,"pm10":9.9,"pm2_5":7.4,"no2":1.4,"co":126.0,"o3":90.0,"so2":2.6,"mosquito_risk":10,"arthritis_risk":0,"migraine_risk":4,"frizz_risk":1,"updated_at":"2026-05-26T13:22:54.171647+05:30"},{"city":"Kannur","state":"Kerala","latitude":11.8745,"longitude":75.3704,"temp":31.2,"humidity":70,"rain":0.0,"pressure":1008.0,"uv_index":8.65,"wind_gusts":28.4,"aqi":71,"pm10":12.3,"pm2_5":8.2,"no2":0.7,"co":161.0,"o3":75.0,"so2":1.3,"mosquito_risk":3,"arthritis_risk":0,"migraine_risk":4,"frizz_risk":1,"updated_at":"2026-05-26T13:22:54.171654+05:30"},{"city":"Patna","state":"Bihar","latitude":25.5941,"longitude":85.1376,"temp":36.4,"humidity":44,"rain":0.0,"pressure":996.0,"uv_index":8.8,"wind_gusts":33.8,"aqi":151,"pm10":73.3,"pm2_5":49.2,"no2":2.6,"co":389.0,"o3":198.0,"so2":16.8,"mosquito_risk":0,"arthritis_risk":5,"migraine_risk":10,"frizz_risk":1,"updated_at":"2026-05-26T13:22:54.171661+05:30"},{"city":"Gaya","state":"Bihar","latitude":24.7914,"longitude":85.0002,"temp":40.0,"humidity":26,"rain":0.0,"pressure":988.8,"uv_index":8.9,"wind_gusts":33.1,"aqi":152,"pm10":66.1,"pm2_5":46.8,"no2":2.0,"co":367.0,"o3":210.0,"so2":13.9,"mosquito_risk":0,"arthritis_risk":5,"migraine_risk":10,"frizz_risk":1,"updated_at":"2026-05-26T13:22:54.171668+05:30"},{"city":"Muzaffarpur","state":"Bihar","latitude":26.1209,"longitude":85.3647,"temp":33.8,"humidity":56,"rain":0.0,"pressure":996.6,"uv_index":8.8,"wind_gusts":33.8,"aqi":151,"pm10":74.7,"pm2_5":49.5,"no2":2.4,"co":319.0,"o3":185.0,"so2":15.2,"mosquito_risk":0,"arthritis_risk":5,"migraine_risk":7,"frizz_risk":1,"updated_at":"2026-05-26T13:22:54.171675+05:30"},{"city":"Bhagalpur","state":"Bihar","latitude":25.2425,"longitude":87.0117,"temp":35.5,"humidity":50,"rain":0.0,"pressure":997.0,"uv_index":8.8,"wind_gusts":34.9,"aqi":97,"pm10":38.6,"pm2_5":31.8,"no2":5.0,"co":335.0,"o3":157.0,"so2":19.4,"mosquito_risk":0,"arthritis_risk":5,"migraine_risk":10,"frizz_risk":1,"updated_at":"2026-05-26T13:22:54.171682+05:30"},{"city":"Ranchi","state":"Jharkhand","latitude":23.3441,"longitude":85.3096,"temp":36.8,"humidity":25,"rain":0.0,"pressure":936.0,"uv_index":9.05,"wind_gusts":33.5,"aqi":113,"pm10":59.6,"pm2_5":31.9,"no2":1.4,"co":171.0,"o3":179.0,"so2":10.9,"mosquito_risk":0,"arthritis_risk":5,"migraine_risk":10,"frizz_risk":0,"updated_at":"2026-05-26T13:22:54.171689+05:30"},{"city":"Jamshedpur","state":"Jharkhand","latitude":22.8046,"longitude":86.2029,"temp":40.0,"humidity":31,"rain":0.0,"pressure":986.4,"uv_index":9.05,"wind_gusts":24.1,"aqi":120,"pm10":83.8,"pm2_5":61.2,"no2":2.9,"co":278.0,"o3":233.0,"so2":24.0,"mosquito_risk":0,"arthritis_risk":5,"migraine_risk":10,"frizz_risk":1,"updated_at":"2026-05-26T13:22:54.171696+05:30"},{"city":"Dhanbad","state":"Jharkhand","latitude":23.7957,"longitude":86.4304,"temp":37.8,"humidity":43,"rain":0.0,"pressure":975.9,"uv_index":9.05,"wind_gusts":29.5,"aqi":156,"pm10":77.8,"pm2_5":56.0,"no2":8.1,"co":220.0,"o3":252.0,"so2":45.8,"mosquito_risk":0,"arthritis_risk":5,"migraine_risk":10,"frizz_risk":1,"updated_at":"2026-05-26T13:22:54.171704+05:30"},{"city":"Bokaro","state":"Jharkhand","latitude":23.6693,"longitude":86.1511,"temp":38.1,"humidity":40,"rain":0.0,"pressure":979.7,"uv_index":9.05,"wind_gusts":25.9,"aqi":155,"pm10":51.3,"pm2_5":28.5,"no2":7.5,"co":238.0,"o3":195.0,"so2":33.8,"mosquito_risk":0,"arthritis_risk":5,"migraine_risk":10,"frizz_risk":1,"updated_at":"2026-05-26T13:22:54.171711+05:30"},{"city":"Bhubaneswar","state":"Odisha","latitude":20.2961,"longitude":85.8245,"temp":38.3,"humidity":51,"rain":0.0,"pressure":998.0,"uv_index":9.1,"wind_gusts":38.5,"aqi":101,"pm10":60.3,"pm2_5":47.6,"no2":2.0,"co":240.0,"o3":156.0,"so2":10.4,"mosquito_risk":0,"arthritis_risk":5,"migraine_risk":10,"frizz_risk":1,"updated_at":"2026-05-26T13:22:54.171718+05:30"},{"city":"Cuttack","state":"Odisha","latitude":20.4625,"longitude":85.8828,"temp":37.2,"humidity":56,"rain":0.0,"pressure":999.6,"uv_index":9.15,"wind_gusts":34.6,"aqi":101,"pm10":60.3,"pm2_5":47.6,"no2":2.0,"co":256.0,"o3":156.0,"so2":10.4,"mosquito_risk":0,"arthritis_risk":5,"migraine_risk":10,"frizz_risk":1,"updated_at":"2026-05-26T13:22:54.171724+05:30"},{"city":"Rourkela","state":"Odisha","latitude":22.2604,"longitude":84.8536,"temp":42.3,"humidity":19,"rain":0.0,"pressure":980.8,"uv_index":9.0,"wind_gusts":42.1,"aqi":124,"pm10":85.4,"pm2_5":59.5,"no2":1.8,"co":273.0,"o3":220.0,"so2":14.9,"mosquito_risk":0,"arthritis_risk":5,"migraine_risk":10,"frizz_risk":0,"updated_at":"2026-05-26T13:22:54.171731+05:30"},{"city":"Raipur","state":"Chhattisgarh","latitude":21.2514,"longitude":81.6296,"temp":43.1,"humidity":14,"rain":0.0,"pressure":971.5,"uv_index":8.95,"wind_gusts":36.7,"aqi":126,"pm10":81.5,"pm2_5":31.2,"no2":3.7,"co":136.0,"o3":142.0,"so2":17.5,"mosquito_risk":0,"arthritis_risk":5,"migraine_risk":10,"frizz_risk":0,"updated_at":"2026-05-26T13:22:54.171738+05:30"},{"city":"Bhilai","state":"Chhattisgarh","latitude":21.1938,"longitude":81.3509,"temp":42.3,"humidity":15,"rain":0.0,"pressure":971.9,"uv_index":8.95,"wind_gusts":39.6,"aqi":116,"pm10":67.1,"pm2_5":26.3,"no2":4.1,"co":102.0,"o3":135.0,"so2":16.7,"mosquito_risk":0,"arthritis_risk":5,"migraine_risk":10,"frizz_risk":0,"updated_at":"2026-05-26T13:22:54.171744+05:30"},{"city":"Guwahati","state":"Assam","latitude":26.1158,"longitude":91.7086,"temp":30.2,"humidity":63,"rain":0.0,"pressure":998.6,"uv_index":8.75,"wind_gusts":24.1,"aqi":68,"pm10":26.1,"pm2_5":15.3,"no2":0.9,"co":272.0,"o3":130.0,"so2":3.0,"mosquito_risk":3,"arthritis_risk":5,"migraine_risk":7,"frizz_risk":1,"updated_at":"2026-05-26T13:22:54.171752+05:30"},{"city":"Agartala","state":"Tripura","latitude":23.8315,"longitude":91.2868,"temp":28.5,"humidity":86,"rain":0.1,"pressure":1004.3,"uv_index":8.8,"wind_gusts":37.1,"aqi":78,"pm10":28.0,"pm2_5":20.3,"no2":3.2,"co":197.0,"o3":114.0,"so2":2.2,"mosquito_risk":10,"arthritis_risk":5,"migraine_risk":4,"frizz_risk":1,"updated_at":"2026-05-26T13:22:54.171759+05:30"},{"city":"Shillong","state":"Meghalaya","latitude":25.5788,"longitude":91.8933,"temp":24.6,"humidity":60,"rain":0.0,"pressure":857.4,"uv_index":9.0,"wind_gusts":39.6,"aqi":45,"pm10":23.5,"pm2_5":11.2,"no2":1.0,"co":208.0,"o3":120.0,"so2":2.9,"mosquito_risk":0,"arthritis_risk":5,"migraine_risk":7,"frizz_risk":1,"updated_at":"2026-05-26T13:22:54.171765+05:30"},{"city":"Imphal","state":"Manipur","latitude":24.817,"longitude":93.9368,"temp":26.6,"humidity":67,"rain":0.0,"pressure":922.6,"uv_index":7.35,"wind_gusts":27.0,"aqi":75,"pm10":22.5,"pm2_5":11.5,"no2":0.8,"co":183.0,"o3":101.0,"so2":1.8,"mosquito_risk":7,"arthritis_risk":5,"migraine_risk":7,"frizz_risk":1,"updated_at":"2026-05-26T13:22:54.171772+05:30"},{"city":"Aizawl","state":"Mizoram","latitude":23.7271,"longitude":92.7176,"temp":24.4,"humidity":72,"rain":0.0,"pressure":893.4,"uv_index":9.05,"wind_gusts":33.8,"aqi":52,"pm10":44.5,"pm2_5":20.1,"no2":0.4,"co":155.0,"o3":101.0,"so2":2.5,"mosquito_risk":3,"arthritis_risk":5,"migraine_risk":7,"frizz_risk":1,"updated_at":"2026-05-26T13:22:54.171780+05:30"},{"city":"Kohima","state":"Nagaland","latitude":25.6701,"longitude":94.1077,"temp":25.2,"humidity":64,"rain":0.0,"pressure":855.8,"uv_index":8.1,"wind_gusts":38.9,"aqi":50,"pm10":15.2,"pm2_5":7.3,"no2":0.5,"co":197.0,"o3":108.0,"so2":2.2,"mosquito_risk":7,"arthritis_risk":5,"migraine_risk":7,"frizz_risk":1,"updated_at":"2026-05-26T13:22:54.171787+05:30"},{"city":"Gangtok","state":"Sikkim","latitude":27.3314,"longitude":88.6138,"temp":19.8,"humidity":77,"rain":0.2,"pressure":836.6,"uv_index":9.2,"wind_gusts":35.3,"aqi":98,"pm10":58.0,"pm2_5":24.7,"no2":0.6,"co":248.0,"o3":148.0,"so2":4.0,"mosquito_risk":6,"arthritis_risk":5,"migraine_risk":7,"frizz_risk":0,"updated_at":"2026-05-26T13:22:54.171794+05:30"},{"city":"Siliguri","state":"West Bengal","latitude":26.7271,"longitude":88.3953,"temp":29.4,"humidity":66,"rain":0.0,"pressure":990.5,"uv_index":8.7,"wind_gusts":30.2,"aqi":149,"pm10":59.8,"pm2_5":33.4,"no2":1.4,"co":325.0,"o3":156.0,"so2":5.9,"mosquito_risk":7,"arthritis_risk":5,"migraine_risk":7,"frizz_risk":1,"updated_at":"2026-05-26T13:22:57.430196+05:30"},{"city":"Durgapur","state":"West Bengal","latitude":23.5204,"longitude":87.3119,"temp":35.5,"humidity":62,"rain":0.0,"pressure":990.5,"uv_index":9.0,"wind_gusts":32.4,"aqi":152,"pm10":104.8,"pm2_5":89.6,"no2":10.7,"co":936.0,"o3":286.0,"so2":64.3,"mosquito_risk":3,"arthritis_risk":5,"migraine_risk":10,"frizz_risk":1,"updated_at":"2026-05-26T13:22:57.430233+05:30"},{"city":"Asansol","state":"West Bengal","latitude":23.6739,"longitude":86.9524,"temp":35.6,"humidity":57,"rain":0.0,"pressure":989.3,"uv_index":9.0,"wind_gusts":29.9,"aqi":151,"pm10":101.7,"pm2_5":85.0,"no2":9.2,"co":398.0,"o3":283.0,"so2":56.1,"mosquito_risk":0,"arthritis_risk":5,"migraine_risk":10,"frizz_risk":1,"updated_at":"2026-05-26T13:22:57.430245+05:30"},{"city":"Pondicherry","state":"Puducherry","latitude":11.9139,"longitude":79.8145,"temp":37.0,"humidity":44,"rain":0.0,"pressure":1006.3,"uv_index":8.7,"wind_gusts":45.0,"aqi":72,"pm10":34.9,"pm2_5":29.7,"no2":4.9,"co":308.0,"o3":182.0,"so2":14.3,"mosquito_risk":0,"arthritis_risk":5,"migraine_risk":7,"frizz_risk":1,"updated_at":"2026-05-26T13:22:57.430253+05:30"},{"city":"Port Blair","state":"Andaman and Nicobar Islands","latitude":11.6234,"longitude":92.7265,"temp":26.0,"humidity":95,"rain":0.3,"pressure":1007.9,"uv_index":7.55,"wind_gusts":31.7,"aqi":32,"pm10":12.2,"pm2_5":7.2,"no2":0.4,"co":110.0,"o3":69.0,"so2":0.4,"mosquito_risk":10,"arthritis_risk":5,"migraine_risk":4,"frizz_risk":1,"updated_at":"2026-05-26T13:22:57.430262+05:30"},{"city":"Haridwar","state":"Uttarakhand","latitude":29.9457,"longitude":78.1642,"temp":38.7,"humidity":16,"rain":0.0,"pressure":970.1,"uv_index":7.55,"wind_gusts":40.7,"aqi":113,"pm10":18.3,"pm2_5":11.2,"no2":0.9,"co":259.0,"o3":170.0,"so2":4.0,"mosquito_risk":0,"arthritis_risk":5,"migraine_risk":10,"frizz_risk":0,"updated_at":"2026-05-26T13:22:57.430271+05:30"},{"city":"Rishikesh","state":"Uttarakhand","latitude":30.0869,"longitude":78.2676,"temp":38.1,"humidity":16,"rain":0.0,"pressure":963.1,"uv_index":7.65,"wind_gusts":32.8,"aqi":103,"pm10":25.7,"pm2_5":12.3,"no2":0.6,"co":215.0,"o3":165.0,"so2":3.1,"mosquito_risk":0,"arthritis_risk":5,"migraine_risk":10,"frizz_risk":0,"updated_at":"2026-05-26T13:22:57.430279+05:30"},{"city":"Nainital","state":"Uttarakhand","latitude":29.3919,"longitude":79.4542,"temp":22.9,"humidity":35,"rain":0.0,"pressure":807.4,"uv_index":8.5,"wind_gusts":46.8,"aqi":108,"pm10":104.3,"pm2_5":38.6,"no2":1.1,"co":233.0,"o3":189.0,"so2":8.9,"mosquito_risk":0,"arthritis_risk":5,"migraine_risk":7,"frizz_risk":0,"updated_at":"2026-05-26T13:22:57.430286+05:30"},{"city":"Mussoorie","state":"Uttarakhand","latitude":30.4599,"longitude":78.0664,"temp":24.5,"humidity":22,"rain":0.0,"pressure":805.3,"uv_index":8.05,"wind_gusts":56.5,"aqi":92,"pm10":27.1,"pm2_5":12.6,"no2":0.8,"co":162.0,"o3":162.0,"so2":2.8,"mosquito_risk":0,"arthritis_risk":5,"migraine_risk":7,"frizz_risk":0,"updated_at":"2026-05-26T13:22:57.430293+05:30"},{"city":"Dharamshala","state":"Himachal Pradesh","latitude":32.219,"longitude":76.3234,"temp":27.9,"humidity":26,"rain":0.0,"pressure":869.9,"uv_index":8.45,"wind_gusts":43.6,"aqi":50,"pm10":14.1,"pm2_5":5.9,"no2":0.4,"co":150.0,"o3":159.0,"so2":1.1,"mosquito_risk":4,"arthritis_risk":5,"migraine_risk":7,"frizz_risk":0,"updated_at":"2026-05-26T13:22:57.430301+05:30"},{"city":"Dalhousie","state":"Himachal Pradesh","latitude":32.5387,"longitude":75.971,"temp":24.5,"humidity":26,"rain":0.0,"pressure":807.3,"uv_index":8.65,"wind_gusts":40.7,"aqi":50,"pm10":18.0,"pm2_5":8.7,"no2":0.8,"co":157.0,"o3":167.0,"so2":1.9,"mosquito_risk":0,"arthritis_risk":5,"migraine_risk":7,"frizz_risk":0,"updated_at":"2026-05-26T13:22:57.430309+05:30"},{"city":"Patiala","state":"Punjab","latitude":30.3398,"longitude":76.3869,"temp":41.1,"humidity":10,"rain":0.0,"pressure":974.7,"uv_index":7.65,"wind_gusts":48.6,"aqi":192,"pm10":426.5,"pm2_5":49.5,"no2":1.1,"co":164.0,"o3":172.0,"so2":6.2,"mosquito_risk":0,"arthritis_risk":5,"migraine_risk":10,"frizz_risk":0,"updated_at":"2026-05-26T13:22:57.430316+05:30"},{"city":"Bhatinda","state":"Punjab","latitude":30.211,"longitude":74.9455,"temp":42.1,"humidity":13,"rain":0.0,"pressure":980.0,"uv_index":8.25,"wind_gusts":33.1,"aqi":83,"pm10":28.9,"pm2_5":13.9,"no2":2.0,"co":166.0,"o3":177.0,"so2":11.6,"mosquito_risk":0,"arthritis_risk":5,"migraine_risk":10,"frizz_risk":0,"updated_at":"2026-05-26T13:22:57.430323+05:30"},{"city":"Rohtak","state":"Haryana","latitude":28.8955,"longitude":76.6066,"temp":41.2,"humidity":14,"rain":0.0,"pressure":978.4,"uv_index":7.75,"wind_gusts":35.3,"aqi":678,"pm10":391.2,"pm2_5":60.3,"no2":1.0,"co":193.0,"o3":177.0,"so2":6.3,"mosquito_risk":0,"arthritis_risk":5,"migraine_risk":10,"frizz_risk":0,"updated_at":"2026-05-26T13:22:57.430330+05:30"},{"city":"Panipat","state":"Haryana","latitude":29.3909,"longitude":76.9635,"temp":41.0,"humidity":12,"rain":0.0,"pressure":976.8,"uv_index":7.6,"wind_gusts":43.6,"aqi":1134,"pm10":1058.0,"pm2_5":114.6,"no2":1.9,"co":159.0,"o3":174.0,"so2":10.2,"mosquito_risk":0,"arthritis_risk":5,"migraine_risk":10,"frizz_risk":0,"updated_at":"2026-05-26T13:22:57.430337+05:30"},{"city":"Mathura","state":"Uttar Pradesh","latitude":27.4924,"longitude":77.6737,"temp":43.1,"humidity":10,"rain":0.0,"pressure":983.3,"uv_index":8.0,"wind_gusts":33.8,"aqi":615,"pm10":338.1,"pm2_5":57.3,"no2":1.3,"co":197.0,"o3":179.0,"so2":10.1,"mosquito_risk":0,"arthritis_risk":5,"migraine_risk":10,"frizz_risk":0,"updated_at":"2026-05-26T13:22:57.430343+05:30"},{"city":"Vrindavan","state":"Uttar Pradesh","latitude":27.5823,"longitude":77.7027,"temp":42.5,"humidity":11,"rain":0.0,"pressure":983.7,"uv_index":8.0,"wind_gusts":32.8,"aqi":615,"pm10":338.1,"pm2_5":57.3,"no2":1.3,"co":204.0,"o3":179.0,"so2":10.1,"mosquito_risk":0,"arthritis_risk":5,"migraine_risk":10,"frizz_risk":0,"updated_at":"2026-05-26T13:22:57.430350+05:30"},{"city":"Ayodhya","state":"Uttar Pradesh","latitude":26.7922,"longitude":82.1998,"temp":37.2,"humidity":41,"rain":0.0,"pressure":990.9,"uv_index":8.35,"wind_gusts":37.4,"aqi":160,"pm10":122.5,"pm2_5":63.6,"no2":1.7,"co":373.0,"o3":194.0,"so2":11.7,"mosquito_risk":0,"arthritis_risk":5,"migraine_risk":10,"frizz_risk":1,"updated_at":"2026-05-26T13:22:57.430357+05:30"},{"city":"Ratlam","state":"Madhya Pradesh","latitude":23.3315,"longitude":75.0367,"temp":38.2,"humidity":26,"rain":0.0,"pressure":954.7,"uv_index":8.55,"wind_gusts":41.8,"aqi":56,"pm10":59.4,"pm2_5":26.5,"no2":0.7,"co":129.0,"o3":111.0,"so2":6.3,"mosquito_risk":0,"arthritis_risk":5,"migraine_risk":10,"frizz_risk":0,"updated_at":"2026-05-26T13:22:57.430363+05:30"},{"city":"Sagar","state":"Madhya Pradesh","latitude":23.8388,"longitude":78.7378,"temp":42.0,"humidity":12,"rain":0.0,"pressure":948.8,"uv_index":8.75,"wind_gusts":42.8,"aqi":62,"pm10":82.4,"pm2_5":25.8,"no2":0.6,"co":134.0,"o3":115.0,"so2":3.0,"mosquito_risk":0,"arthritis_risk":5,"migraine_risk":10,"frizz_risk":0,"updated_at":"2026-05-26T13:22:57.430369+05:30"},{"city":"Satna","state":"Madhya Pradesh","latitude":24.6005,"longitude":80.8322,"temp":42.2,"humidity":14,"rain":0.0,"pressure":968.0,"uv_index":8.8,"wind_gusts":46.1,"aqi":66,"pm10":145.8,"pm2_5":43.0,"no2":0.7,"co":140.0,"o3":132.0,"so2":5.6,"mosquito_risk":0,"arthritis_risk":5,"migraine_risk":10,"frizz_risk":0,"updated_at":"2026-05-26T13:22:57.430376+05:30"},{"city":"Akola","state":"Maharashtra","latitude":20.7002,"longitude":77.0082,"temp":40.2,"humidity":30,"rain":0.0,"pressure":973.8,"uv_index":8.1,"wind_gusts":42.1,"aqi":64,"pm10":23.1,"pm2_5":13.4,"no2":1.2,"co":141.0,"o3":120.0,"so2":6.9,"mosquito_risk":0,"arthritis_risk":5,"migraine_risk":10,"frizz_risk":1,"updated_at":"2026-05-26T13:22:57.430384+05:30"},{"city":"Amravati","state":"Maharashtra","latitude":20.9374,"longitude":77.7796,"temp":41.1,"humidity":24,"rain":0.0,"pressure":965.8,"uv_index":8.85,"wind_gusts":42.5,"aqi":68,"pm10":27.0,"pm2_5":15.2,"no2":1.5,"co":150.0,"o3":129.0,"so2":8.2,"mosquito_risk":0,"arthritis_risk":5,"migraine_risk":10,"frizz_risk":1,"updated_at":"2026-05-26T13:22:57.430410+05:30"},{"city":"Latur","state":"Maharashtra","latitude":18.4088,"longitude":76.5604,"temp":35.8,"humidity":37,"rain":0.0,"pressure":940.4,"uv_index":8.8,"wind_gusts":29.2,"aqi":82,"pm10":31.4,"pm2_5":19.3,"no2":0.9,"co":149.0,"o3":132.0,"so2":4.6,"mosquito_risk":0,"arthritis_risk":5,"migraine_risk":10,"frizz_risk":1,"updated_at":"2026-05-26T13:22:57.430418+05:30"},{"city":"Nanded","state":"Maharashtra","latitude":19.1383,"longitude":77.3091,"temp":40.1,"humidity":27,"rain":0.0,"pressure":967.6,"uv_index":8.8,"wind_gusts":33.8,"aqi":79,"pm10":35.9,"pm2_5":20.0,"no2":0.9,"co":153.0,"o3":119.0,"so2":2.4,"mosquito_risk":0,"arthritis_risk":5,"migraine_risk":10,"frizz_risk":1,"updated_at":"2026-05-26T13:22:57.430425+05:30"},{"city":"Gulbarga","state":"Karnataka","latitude":17.3297,"longitude":76.8343,"temp":36.7,"humidity":39,"rain":0.0,"pressure":958.6,"uv_index":7.9,"wind_gusts":37.4,"aqi":64,"pm10":25.0,"pm2_5":17.2,"no2":1.5,"co":167.0,"o3":143.0,"so2":6.5,"mosquito_risk":0,"arthritis_risk":5,"migraine_risk":10,"frizz_risk":1,"updated_at":"2026-05-26T13:22:57.430431+05:30"},{"city":"Bidar","state":"Karnataka","latitude":17.9104,"longitude":77.5199,"temp":36.3,"humidity":35,"rain":0.0,"pressure":935.9,"uv_index":8.9,"wind_gusts":33.1,"aqi":79,"pm10":41.1,"pm2_5":24.6,"no2":1.2,"co":161.0,"o3":141.0,"so2":5.5,"mosquito_risk":0,"arthritis_risk":5,"migraine_risk":10,"frizz_risk":1,"updated_at":"2026-05-26T13:22:57.430438+05:30"},{"city":"Hospet","state":"Karnataka","latitude":15.2689,"longitude":76.3909,"temp":33.8,"humidity":54,"rain":0.0,"pressure":956.4,"uv_index":8.35,"wind_gusts":69.1,"aqi":46,"pm10":14.5,"pm2_5":10.0,"no2":1.3,"co":164.0,"o3":110.0,"so2":3.0,"mosquito_risk":0,"arthritis_risk":5,"migraine_risk":7,"frizz_risk":1,"updated_at":"2026-05-26T13:22:57.430445+05:30"},{"city":"Tirupur","state":"Tamil Nadu","latitude":11.1085,"longitude":77.3411,"temp":38.5,"humidity":32,"rain":0.0,"pressure":974.7,"uv_index":8.9,"wind_gusts":59.0,"aqi":58,"pm10":22.5,"pm2_5":17.1,"no2":1.6,"co":155.0,"o3":132.0,"so2":3.0,"mosquito_risk":0,"arthritis_risk":5,"migraine_risk":10,"frizz_risk":1,"updated_at":"2026-05-26T13:22:57.430452+05:30"},{"city":"Alappuzha","state":"Kerala","latitude":9.4981,"longitude":76.3388,"temp":27.2,"humidity":88,"rain":0.1,"pressure":1010.4,"uv_index":8.5,"wind_gusts":28.8,"aqi":46,"pm10":9.3,"pm2_5":6.4,"no2":1.4,"co":105.0,"o3":83.0,"so2":1.5,"mosquito_risk":10,"arthritis_risk":0,"migraine_risk":4,"frizz_risk":1,"updated_at":"2026-05-26T13:22:57.430459+05:30"},{"city":"Munnar","state":"Kerala","latitude":10.0889,"longitude":77.0595,"temp":20.7,"humidity":86,"rain":0.1,"pressure":858.7,"uv_index":9.2,"wind_gusts":27.7,"aqi":43,"pm10":19.3,"pm2_5":12.4,"no2":1.0,"co":132.0,"o3":94.0,"so2":1.7,"mosquito_risk":6,"arthritis_risk":5,"migraine_risk":7,"frizz_risk":1,"updated_at":"2026-05-26T13:22:57.430467+05:30"},{"city":"Silchar","state":"Assam","latitude":24.8333,"longitude":92.7789,"temp":29.5,"humidity":69,"rain":0.0,"pressure":1003.9,"uv_index":8.9,"wind_gusts":30.2,"aqi":65,"pm10":15.4,"pm2_5":9.2,"no2":0.9,"co":196.0,"o3":103.0,"so2":2.8,"mosquito_risk":7,"arthritis_risk":5,"migraine_risk":4,"frizz_risk":1,"updated_at":"2026-05-26T13:22:57.430473+05:30"},{"city":"Dibrugarh","state":"Assam","latitude":27.4728,"longitude":94.912,"temp":27.1,"humidity":76,"rain":0.0,"pressure":993.9,"uv_index":8.2,"wind_gusts":20.9,"aqi":95,"pm10":58.3,"pm2_5":28.3,"no2":0.7,"co":215.0,"o3":130.0,"so2":2.3,"mosquito_risk":7,"arthritis_risk":5,"migraine_risk":7,"frizz_risk":1,"updated_at":"2026-05-26T13:22:57.430481+05:30"}]