[{"city":"Delhi","state":"Delhi","latitude":28.6139,"longitude":77.209,"temp":20.3,"humidity":72,"rain":0.0,"pressure":983.5,"uv_index":5.55,"wind_gusts":25.9,"aqi":444,"pm10":391.2,"pm2_5":82.4,"mosquito_risk":3,"arthritis_risk":5,"migraine_risk":3,"frizz_risk":0,"updated_at":"2026-03-14T04:01:47.488042+05:30"},{"city":"Mumbai","state":"Maharashtra","latitude":19.076,"longitude":72.8777,"temp":28.5,"humidity":70,"rain":0.0,"pressure":1008.1,"uv_index":7.7,"wind_gusts":18.0,"aqi":125,"pm10":59.3,"pm2_5":39.6,"mosquito_risk":7,"arthritis_risk":0,"migraine_risk":4,"frizz_risk":1,"updated_at":"2026-03-14T04:01:47.488082+05:30"},{"city":"Bangalore","state":"Karnataka","latitude":12.9716,"longitude":77.5946,"temp":20.7,"humidity":77,"rain":0.0,"pressure":911.5,"uv_index":9.3,"wind_gusts":31.7,"aqi":100,"pm10":46.2,"pm2_5":40.0,"mosquito_risk":3,"arthritis_risk":5,"migraine_risk":7,"frizz_risk":1,"updated_at":"2026-03-14T04:01:47.488098+05:30"},{"city":"Hyderabad","state":"Telangana","latitude":17.385,"longitude":78.4867,"temp":23.3,"humidity":64,"rain":0.0,"pressure":953.1,"uv_index":8.7,"wind_gusts":32.4,"aqi":106,"pm10":41.6,"pm2_5":34.0,"mosquito_risk":3,"arthritis_risk":5,"migraine_risk":7,"frizz_risk":1,"updated_at":"2026-03-14T04:01:47.488108+05:30"},{"city":"Chennai","state":"Tamil Nadu","latitude":13.0827,"longitude":80.2707,"temp":25.3,"humidity":88,"rain":0.0,"pressure":1008.5,"uv_index":9.05,"wind_gusts":31.3,"aqi":60,"pm10":21.8,"pm2_5":17.3,"mosquito_risk":7,"arthritis_risk":0,"migraine_risk":4,"frizz_risk":1,"updated_at":"2026-03-14T04:01:47.488117+05:30"},{"city":"Kolkata","state":"West Bengal","latitude":22.5726,"longitude":88.3639,"temp":25.6,"humidity":88,"rain":0.0,"pressure":1006.8,"uv_index":8.05,"wind_gusts":33.5,"aqi":106,"pm10":24.2,"pm2_5":19.2,"mosquito_risk":7,"arthritis_risk":5,"migraine_risk":4,"frizz_risk":1,"updated_at":"2026-03-14T04:01:47.488125+05:30"},{"city":"Pune","state":"Maharashtra","latitude":18.5204,"longitude":73.8567,"temp":20.6,"humidity":69,"rain":0.0,"pressure":947.9,"uv_index":8.25,"wind_gusts":44.6,"aqi":135,"pm10":47.8,"pm2_5":43.8,"mosquito_risk":3,"arthritis_risk":5,"migraine_risk":7,"frizz_risk":0,"updated_at":"2026-03-14T04:01:47.488137+05:30"},{"city":"Ahmedabad","state":"Gujarat","latitude":23.0225,"longitude":72.5714,"temp":21.5,"humidity":55,"rain":0.0,"pressure":1002.3,"uv_index":7.5,"wind_gusts":22.0,"aqi":91,"pm10":52.9,"pm2_5":21.7,"mosquito_risk":0,"arthritis_risk":5,"migraine_risk":4,"frizz_risk":0,"updated_at":"2026-03-14T04:01:47.488145+05:30"},{"city":"Jaipur","state":"Rajasthan","latitude":26.9124,"longitude":75.7873,"temp":22.5,"humidity":38,"rain":0.0,"pressure":959.9,"uv_index":6.75,"wind_gusts":23.0,"aqi":139,"pm10":357.6,"pm2_5":57.9,"mosquito_risk":0,"arthritis_risk":5,"migraine_risk":7,"frizz_risk":0,"updated_at":"2026-03-14T04:01:47.488152+05:30"},{"city":"Lucknow","state":"Uttar Pradesh","latitude":26.8467,"longitude":80.9462,"temp":21.8,"humidity":63,"rain":0.0,"pressure":993.5,"uv_index":6.7,"wind_gusts":25.2,"aqi":162,"pm10":407.9,"pm2_5":95.7,"mosquito_risk":3,"arthritis_risk":5,"migraine_risk":7,"frizz_risk":0,"updated_at":"2026-03-14T04:01:47.488160+05:30"},{"city":"Kanpur","state":"Uttar Pradesh","latitude":26.4499,"longitude":80.3319,"temp":20.8,"humidity":68,"rain":0.0,"pressure":992.0,"uv_index":6.7,"wind_gusts":20.2,"aqi":274,"pm10":620.3,"pm2_5":115.3,"mosquito_risk":3,"arthritis_risk":5,"migraine_risk":7,"frizz_risk":0,"updated_at":"2026-03-14T04:01:47.488167+05:30"},{"city":"Chandigarh","state":"Chandigarh","latitude":30.7333,"longitude":76.7794,"temp":18.5,"humidity":78,"rain":0.0,"pressure":968.4,"uv_index":4.8,"wind_gusts":18.7,"aqi":72,"pm10":22.9,"pm2_5":22.6,"mosquito_risk":3,"arthritis_risk":5,"migraine_risk":3,"frizz_risk":0,"updated_at":"2026-03-14T04:01:47.488174+05:30"},{"city":"Srinagar","state":"Jammu and Kashmir","latitude":34.0837,"longitude":74.7973,"temp":5.2,"humidity":82,"rain":0.0,"pressure":839.0,"uv_index":6.6,"wind_gusts":14.8,"aqi":87,"pm10":50.3,"pm2_5":37.3,"mosquito_risk":3,"arthritis_risk":10,"migraine_risk":7,"frizz_risk":0,"updated_at":"2026-03-14T04:01:47.488181+05:30"},{"city":"Jammu","state":"Jammu and Kashmir","latitude":32.7266,"longitude":74.857,"temp":16.1,"humidity":73,"rain":0.0,"pressure":972.9,"uv_index":6.35,"wind_gusts":19.1,"aqi":67,"pm10":33.4,"pm2_5":31.1,"mosquito_risk":3,"arthritis_risk":5,"migraine_risk":7,"frizz_risk":0,"updated_at":"2026-03-14T04:01:47.488188+05:30"},{"city":"Amritsar","state":"Punjab","latitude":31.634,"longitude":74.8723,"temp":17.2,"humidity":70,"rain":0.0,"pressure":981.5,"uv_index":6.15,"wind_gusts":16.6,"aqi":83,"pm10":26.9,"pm2_5":23.9,"mosquito_risk":3,"arthritis_risk":5,"migraine_risk":7,"frizz_risk":0,"updated_at":"2026-03-14T04:01:47.488195+05:30"},{"city":"Ludhiana","state":"Punjab","latitude":30.901,"longitude":75.8573,"temp":18.2,"humidity":72,"rain":0.0,"pressure":979.2,"uv_index":5.85,"wind_gusts":19.8,"aqi":91,"pm10":42.0,"pm2_5":31.3,"mosquito_risk":3,"arthritis_risk":5,"migraine_risk":3,"frizz_risk":0,"updated_at":"2026-03-14T04:01:47.488202+05:30"},{"city":"Jalandhar","state":"Punjab","latitude":31.326,"longitude":75.5762,"temp":17.7,"humidity":74,"rain":0.0,"pressure":980.5,"uv_index":6.15,"wind_gusts":19.4,"aqi":93,"pm10":59.5,"pm2_5":37.3,"mosquito_risk":3,"arthritis_risk":5,"migraine_risk":7,"frizz_risk":0,"updated_at":"2026-03-14T04:01:47.488210+05:30"},{"city":"Dehradun","state":"Uttarakhand","latitude":30.6284,"longitude":78.0322,"temp":13.1,"humidity":47,"rain":0.0,"pressure":828.3,"uv_index":5.75,"wind_gusts":21.6,"aqi":50,"pm10":22.2,"pm2_5":12.5,"mosquito_risk":0,"arthritis_risk":5,"migraine_risk":3,"frizz_risk":0,"updated_at":"2026-03-14T04:01:47.488217+05:30"},{"city":"Shimla","state":"Himachal Pradesh","latitude":31.1048,"longitude":77.1734,"temp":10.5,"humidity":68,"rain":0.0,"pressure":781.6,"uv_index":5.55,"wind_gusts":33.1,"aqi":54,"pm10":28.2,"pm2_5":20.0,"mosquito_risk":3,"arthritis_risk":5,"migraine_risk":3,"frizz_risk":0,"updated_at":"2026-03-14T04:01:47.488224+05:30"},{"city":"Manali","state":"Himachal Pradesh","latitude":32.2396,"longitude":77.1887,"temp":11.8,"humidity":29,"rain":0.0,"pressure":818.1,"uv_index":6.5,"wind_gusts":31.7,"aqi":33,"pm10":31.4,"pm2_5":16.6,"mosquito_risk":0,"arthritis_risk":5,"migraine_risk":7,"frizz_risk":1,"updated_at":"2026-03-14T04:01:47.488230+05:30"},{"city":"Gurgaon","state":"Haryana","latitude":28.4595,"longitude":77.0266,"temp":18.2,"humidity":80,"rain":0.0,"pressure":981.9,"uv_index":6.0,"wind_gusts":21.2,"aqi":1319,"pm10":1031.9,"pm2_5":143.9,"mosquito_risk":3,"arthritis_risk":5,"migraine_risk":3,"frizz_risk":0,"updated_at":"2026-03-14T04:01:47.488237+05:30"},{"city":"Noida","state":"Uttar Pradesh","latitude":28.5355,"longitude":77.391,"temp":20.2,"humidity":72,"rain":0.0,"pressure":985.0,"uv_index":5.95,"wind_gusts":25.6,"aqi":1319,"pm10":1031.9,"pm2_5":143.9,"mosquito_risk":3,"arthritis_risk":5,"migraine_risk":3,"frizz_risk":0,"updated_at":"2026-03-14T04:01:47.488244+05:30"},{"city":"Ghaziabad","state":"Uttar Pradesh","latitude":28.6692,"longitude":77.4538,"temp":19.5,"humidity":75,"rain":0.0,"pressure":983.1,"uv_index":5.85,"wind_gusts":24.8,"aqi":279,"pm10":325.0,"pm2_5":76.6,"mosquito_risk":3,"arthritis_risk":5,"migraine_risk":3,"frizz_risk":0,"updated_at":"2026-03-14T04:01:47.488250+05:30"},{"city":"Faridabad","state":"Haryana","latitude":28.4089,"longitude":77.3178,"temp":19.3,"humidity":74,"rain":0.0,"pressure":984.2,"uv_index":6.2,"wind_gusts":23.4,"aqi":1319,"pm10":1031.9,"pm2_5":143.9,"mosquito_risk":3,"arthritis_risk":5,"migraine_risk":7,"frizz_risk":0,"updated_at":"2026-03-14T04:01:47.488257+05:30"},{"city":"Meerut","state":"Uttar Pradesh","latitude":28.9845,"longitude":77.7064,"temp":17.7,"humidity":83,"rain":0.0,"pressure":981.5,"uv_index":5.65,"wind_gusts":24.8,"aqi":279,"pm10":325.0,"pm2_5":76.6,"mosquito_risk":3,"arthritis_risk":10,"migraine_risk":3,"frizz_risk":0,"updated_at":"2026-03-14T04:01:47.488264+05:30"},{"city":"Agra","state":"Uttar Pradesh","latitude":27.1767,"longitude":78.0081,"temp":19.4,"humidity":65,"rain":0.0,"pressure":988.5,"uv_index":6.2,"wind_gusts":33.5,"aqi":766,"pm10":1054.3,"pm2_5":160.2,"mosquito_risk":3,"arthritis_risk":5,"migraine_risk":7,"frizz_risk":0,"updated_at":"2026-03-14T04:01:47.488273+05:30"},{"city":"Varanasi","state":"Uttar Pradesh","latitude":25.3176,"longitude":82.9739,"temp":21.5,"humidity":67,"rain":0.0,"pressure":997.3,"uv_index":7.1,"wind_gusts":26.6,"aqi":129,"pm10":110.8,"pm2_5":52.6,"mosquito_risk":3,"arthritis_risk":5,"migraine_risk":7,"frizz_risk":0,"updated_at":"2026-03-14T04:01:47.488282+05:30"},{"city":"Prayagraj","state":"Uttar Pradesh","latitude":25.4358,"longitude":81.8463,"temp":22.3,"humidity":65,"rain":0.0,"pressure":995.9,"uv_index":7.2,"wind_gusts":16.9,"aqi":142,"pm10":207.2,"pm2_5":66.8,"mosquito_risk":3,"arthritis_risk":5,"migraine_risk":7,"frizz_risk":0,"updated_at":"2026-03-14T04:01:47.488290+05:30"},{"city":"Gorakhpur","state":"Uttar Pradesh","latitude":26.7606,"longitude":83.3732,"temp":19.4,"humidity":80,"rain":0.0,"pressure":996.6,"uv_index":6.45,"wind_gusts":24.5,"aqi":169,"pm10":130.4,"pm2_5":48.0,"mosquito_risk":3,"arthritis_risk":5,"migraine_risk":7,"frizz_risk":0,"updated_at":"2026-03-14T04:01:47.488296+05:30"},{"city":"Bareilly","state":"Uttar Pradesh","latitude":28.367,"longitude":79.4304,"temp":19.0,"humidity":76,"rain":0.0,"pressure":986.7,"uv_index":6.1,"wind_gusts":21.6,"aqi":144,"pm10":230.5,"pm2_5":71.2,"mosquito_risk":3,"arthritis_risk":5,"migraine_risk":7,"frizz_risk":0,"updated_at":"2026-03-14T04:01:47.488302+05:30"},{"city":"Aligarh","state":"Uttar Pradesh","latitude":27.8974,"longitude":78.088,"temp":18.8,"humidity":74,"rain":0.0,"pressure":986.0,"uv_index":6.25,"wind_gusts":35.3,"aqi":727,"pm10":737.6,"pm2_5":133.6,"mosquito_risk":3,"arthritis_risk":5,"migraine_risk":7,"frizz_risk":0,"updated_at":"2026-03-14T04:01:47.488311+05:30"},{"city":"Moradabad","state":"Uttar Pradesh","latitude":28.8386,"longitude":78.7733,"temp":18.2,"humidity":78,"rain":0.0,"pressure":983.5,"uv_index":6.0,"wind_gusts":22.0,"aqi":150,"pm10":204.0,"pm2_5":71.0,"mosquito_risk":3,"arthritis_risk":5,"migraine_risk":3,"frizz_risk":0,"updated_at":"2026-03-14T04:01:47.488317+05:30"},{"city":"Saharanpur","state":"Uttar Pradesh","latitude":29.9637,"longitude":77.546,"temp":17.7,"humidity":84,"rain":0.0,"pressure":975.4,"uv_index":5.15,"wind_gusts":21.6,"aqi":124,"pm10":144.8,"pm2_5":57.5,"mosquito_risk":3,"arthritis_risk":10,"migraine_risk":3,"frizz_risk":0,"updated_at":"2026-03-14T04:01:47.488323+05:30"},{"city":"Jhansi","state":"Uttar Pradesh","latitude":25.4484,"longitude":78.5685,"temp":21.2,"humidity":66,"rain":0.0,"pressure":978.0,"uv_index":7.15,"wind_gusts":20.9,"aqi":84,"pm10":288.7,"pm2_5":55.8,"mosquito_risk":3,"arthritis_risk":5,"migraine_risk":7,"frizz_risk":0,"updated_at":"2026-03-14T04:01:50.706106+05:30"},{"city":"Surat","state":"Gujarat","latitude":21.1702,"longitude":72.8311,"temp":25.4,"humidity":76,"rain":0.0,"pressure":1006.5,"uv_index":7.35,"wind_gusts":22.3,"aqi":135,"pm10":42.3,"pm2_5":34.2,"mosquito_risk":7,"arthritis_risk":5,"migraine_risk":4,"frizz_risk":1,"updated_at":"2026-03-14T04:01:50.706141+05:30"},{"city":"Vadodara","state":"Gujarat","latitude":22.3072,"longitude":73.1812,"temp":24.2,"humidity":51,"rain":0.0,"pressure":1004.3,"uv_index":7.55,"wind_gusts":25.6,"aqi":105,"pm10":25.1,"pm2_5":19.3,"mosquito_risk":0,"arthritis_risk":5,"migraine_risk":4,"frizz_risk":0,"updated_at":"2026-03-14T04:01:50.706155+05:30"},{"city":"Rajkot","state":"Gujarat","latitude":22.3039,"longitude":70.8022,"temp":21.8,"humidity":70,"rain":0.0,"pressure":994.8,"uv_index":7.35,"wind_gusts":29.2,"aqi":86,"pm10":212.3,"pm2_5":48.9,"mosquito_risk":3,"arthritis_risk":5,"migraine_risk":7,"frizz_risk":1,"updated_at":"2026-03-14T04:01:50.706167+05:30"},{"city":"Thane","state":"Maharashtra","latitude":19.2183,"longitude":72.9781,"temp":26.2,"humidity":72,"rain":0.0,"pressure":1007.6,"uv_index":7.65,"wind_gusts":34.6,"aqi":125,"pm10":59.3,"pm2_5":39.6,"mosquito_risk":7,"arthritis_risk":5,"migraine_risk":4,"frizz_risk":1,"updated_at":"2026-03-14T04:01:50.706178+05:30"},{"city":"Nagpur","state":"Maharashtra","latitude":21.1458,"longitude":79.0882,"temp":22.5,"humidity":58,"rain":0.0,"pressure":972.5,"uv_index":8.1,"wind_gusts":16.9,"aqi":99,"pm10":43.4,"pm2_5":40.7,"mosquito_risk":0,"arthritis_risk":5,"migraine_risk":7,"frizz_risk":0,"updated_at":"2026-03-14T04:01:50.706188+05:30"},{"city":"Nashik","state":"Maharashtra","latitude":19.9975,"longitude":73.7898,"temp":22.9,"humidity":47,"rain":0.0,"pressure":945.5,"uv_index":7.85,"wind_gusts":36.7,"aqi":82,"pm10":52.7,"pm2_5":40.0,"mosquito_risk":0,"arthritis_risk":5,"migraine_risk":7,"frizz_risk":0,"updated_at":"2026-03-14T04:01:50.706199+05:30"},{"city":"Aurangabad","state":"Maharashtra","latitude":19.8762,"longitude":75.3433,"temp":23.1,"humidity":48,"rain":0.0,"pressure":943.8,"uv_index":8.4,"wind_gusts":21.6,"aqi":82,"pm10":31.9,"pm2_5":29.6,"mosquito_risk":0,"arthritis_risk":5,"migraine_risk":7,"frizz_risk":0,"updated_at":"2026-03-14T04:01:50.706209+05:30"},{"city":"Solapur","state":"Maharashtra","latitude":17.6599,"longitude":75.9064,"temp":24.6,"humidity":63,"rain":0.0,"pressure":956.4,"uv_index":8.6,"wind_gusts":18.7,"aqi":103,"pm10":48.9,"pm2_5":42.4,"mosquito_risk":3,"arthritis_risk":5,"migraine_risk":7,"frizz_risk":1,"updated_at":"2026-03-14T04:01:50.706219+05:30"},{"city":"Kolhapur","state":"Maharashtra","latitude":16.705,"longitude":74.2433,"temp":20.2,"humidity":98,"rain":0.0,"pressure":947.3,"uv_index":8.7,"wind_gusts":45.4,"aqi":149,"pm10":73.8,"pm2_5":71.7,"mosquito_risk":3,"arthritis_risk":5,"migraine_risk":7,"frizz_risk":1,"updated_at":"2026-03-14T04:01:50.706229+05:30"},{"city":"Goa","state":"Goa","latitude":15.2993,"longitude":74.124,"temp":26.4,"humidity":90,"rain":0.0,"pressure":997.8,"uv_index":8.75,"wind_gusts":34.6,"aqi":134,"pm10":66.6,"pm2_5":62.4,"mosquito_risk":7,"arthritis_risk":5,"migraine_risk":7,"frizz_risk":1,"updated_at":"2026-03-14T04:01:50.706240+05:30"},{"city":"Jodhpur","state":"Rajasthan","latitude":26.2389,"longitude":73.0243,"temp":23.5,"humidity":48,"rain":0.0,"pressure":982.4,"uv_index":7.15,"wind_gusts":36.4,"aqi":86,"pm10":60.5,"pm2_5":23.6,"mosquito_risk":0,"arthritis_risk":5,"migraine_risk":7,"frizz_risk":0,"updated_at":"2026-03-14T04:01:50.706249+05:30"},{"city":"Udaipur","state":"Rajasthan","latitude":24.5854,"longitude":73.7125,"temp":21.1,"humidity":41,"rain":0.0,"pressure":946.4,"uv_index":7.85,"wind_gusts":32.0,"aqi":64,"pm10":46.6,"pm2_5":21.8,"mosquito_risk":0,"arthritis_risk":5,"migraine_risk":7,"frizz_risk":0,"updated_at":"2026-03-14T04:01:50.706260+05:30"},{"city":"Kota","state":"Rajasthan","latitude":25.2138,"longitude":75.8648,"temp":21.1,"humidity":46,"rain":0.0,"pressure":978.5,"uv_index":6.75,"wind_gusts":17.6,"aqi":59,"pm10":33.9,"pm2_5":23.1,"mosquito_risk":0,"arthritis_risk":5,"migraine_risk":7,"frizz_risk":0,"updated_at":"2026-03-14T04:01:50.706269+05:30"},{"city":"Bikaner","state":"Rajasthan","latitude":28.0229,"longitude":73.3119,"temp":24.6,"humidity":42,"rain":0.0,"pressure":982.3,"uv_index":6.5,"wind_gusts":25.9,"aqi":69,"pm10":21.8,"pm2_5":13.5,"mosquito_risk":0,"arthritis_risk":5,"migraine_risk":7,"frizz_risk":0,"updated_at":"2026-03-14T04:01:50.706279+05:30"},{"city":"Ajmer","state":"Rajasthan","latitude":26.4499,"longitude":74.6399,"temp":23.8,"humidity":32,"rain":0.0,"pressure":954.5,"uv_index":7.25,"wind_gusts":32.8,"aqi":72,"pm10":89.6,"pm2_5":26.6,"mosquito_risk":0,"arthritis_risk":5,"migraine_risk":7,"frizz_risk":0,"updated_at":"2026-03-14T04:01:50.706288+05:30"},{"city":"Gwalior","state":"Madhya Pradesh","latitude":26.2183,"longitude":78.1828,"temp":23.6,"humidity":55,"rain":0.0,"pressure":983.9,"uv_index":6.5,"wind_gusts":19.8,"aqi":127,"pm10":728.3,"pm2_5":104.3,"mosquito_risk":0,"arthritis_risk":5,"migraine_risk":7,"frizz_risk":0,"updated_at":"2026-03-14T04:01:50.706299+05:30"},{"city":"Indore","state":"Madhya Pradesh","latitude":22.7196,"longitude":75.8577,"temp":21.0,"humidity":45,"rain":0.0,"pressure":947.6,"uv_index":7.8,"wind_gusts":30.2,"aqi":67,"pm10":33.5,"pm2_5":29.0,"mosquito_risk":0,"arthritis_risk":5,"migraine_risk":7,"frizz_risk":0,"updated_at":"2026-03-14T04:01:50.706309+05:30"},{"city":"Bhopal","state":"Madhya Pradesh","latitude":23.2599,"longitude":77.4126,"temp":19.9,"humidity":41,"rain":0.0,"pressure":953.4,"uv_index":7.65,"wind_gusts":32.8,"aqi":66,"pm10":23.0,"pm2_5":22.9,"mosquito_risk":0,"arthritis_risk":5,"migraine_risk":7,"frizz_risk":0,"updated_at":"2026-03-14T04:01:50.706319+05:30"},{"city":"Jabalpur","state":"Madhya Pradesh","latitude":23.1815,"longitude":79.9864,"temp":20.7,"humidity":52,"rain":0.0,"pressure":961.0,"uv_index":7.8,"wind_gusts":28.4,"aqi":79,"pm10":34.6,"pm2_5":34.2,"mosquito_risk":0,"arthritis_risk":5,"migraine_risk":7,"frizz_risk":0,"updated_at":"2026-03-14T04:01:50.706329+05:30"},{"city":"Ujjain","state":"Madhya Pradesh","latitude":23.1765,"longitude":75.7885,"temp":20.6,"humidity":49,"rain":0.0,"pressure":953.3,"uv_index":7.7,"wind_gusts":34.9,"aqi":64,"pm10":36.0,"pm2_5":29.7,"mosquito_risk":0,"arthritis_risk":5,"migraine_risk":7,"frizz_risk":0,"updated_at":"2026-03-14T04:01:50.706339+05:30"},{"city":"Visakhapatnam","state":"Andhra Pradesh","latitude":17.6868,"longitude":83.2185,"temp":24.8,"humidity":89,"rain":0.0,"pressure":1005.3,"uv_index":8.65,"wind_gusts":40.7,"aqi":75,"pm10":23.3,"pm2_5":20.0,"mosquito_risk":3,"arthritis_risk":5,"migraine_risk":4,"frizz_risk":1,"updated_at":"2026-03-14T04:01:50.706349+05:30"},{"city":"Vijayawada","state":"Andhra Pradesh","latitude":16.5062,"longitude":80.648,"temp":24.5,"humidity":93,"rain":0.0,"pressure":1003.8,"uv_index":8.75,"wind_gusts":31.7,"aqi":80,"pm10":19.4,"pm2_5":16.5,"mosquito_risk":3,"arthritis_risk":5,"migraine_risk":4,"frizz_risk":1,"updated_at":"2026-03-14T04:01:50.706359+05:30"},{"city":"Guntur","state":"Andhra Pradesh","latitude":16.3067,"longitude":80.4365,"temp":24.4,"humidity":95,"rain":0.0,"pressure":1005.0,"uv_index":8.75,"wind_gusts":34.9,"aqi":76,"pm10":16.9,"pm2_5":14.2,"mosquito_risk":3,"arthritis_risk":5,"migraine_risk":4,"frizz_risk":1,"updated_at":"2026-03-14T04:01:50.706369+05:30"},{"city":"Nellore","state":"Andhra Pradesh","latitude":14.4426,"longitude":79.9865,"temp":24.1,"humidity":95,"rain":0.0,"pressure":1006.8,"uv_index":8.9,"wind_gusts":31.0,"aqi":69,"pm10":17.2,"pm2_5":14.7,"mosquito_risk":3,"arthritis_risk":5,"migraine_risk":4,"frizz_risk":1,"updated_at":"2026-03-14T04:01:50.706380+05:30"},{"city":"Kurnool","state":"Andhra Pradesh","latitude":15.8281,"longitude":78.0373,"temp":25.8,"humidity":63,"rain":0.0,"pressure":976.8,"uv_index":8.75,"wind_gusts":24.1,"aqi":112,"pm10":28.9,"pm2_5":26.1,"mosquito_risk":7,"arthritis_risk":5,"migraine_risk":7,"frizz_risk":1,"updated_at":"2026-03-14T04:01:50.706391+05:30"},{"city":"Kakinada","state":"Andhra Pradesh","latitude":16.9891,"longitude":82.2475,"temp":24.0,"humidity":94,"rain":0.0,"pressure":1009.3,"uv_index":8.7,"wind_gusts":31.7,"aqi":67,"pm10":23.3,"pm2_5":17.8,"mosquito_risk":3,"arthritis_risk":0,"migraine_risk":4,"frizz_risk":1,"updated_at":"2026-03-14T04:01:50.706401+05:30"},{"city":"Tirupati","state":"Andhra Pradesh","latitude":13.6288,"longitude":79.4192,"temp":21.9,"humidity":94,"rain":0.0,"pressure":992.9,"uv_index":9.05,"wind_gusts":30.2,"aqi":83,"pm10":30.7,"pm2_5":27.5,"mosquito_risk":3,"arthritis_risk":5,"migraine_risk":7,"frizz_risk":1,"updated_at":"2026-03-14T04:01:50.706411+05:30"},{"city":"Warangal","state":"Telangana","latitude":17.9689,"longitude":79.5941,"temp":23.0,"humidity":91,"rain":0.0,"pressure":978.8,"uv_index":8.55,"wind_gusts":28.8,"aqi":118,"pm10":23.5,"pm2_5":21.7,"mosquito_risk":3,"arthritis_risk":5,"migraine_risk":7,"frizz_risk":1,"updated_at":"2026-03-14T04:01:50.706421+05:30"},{"city":"Nizamabad","state":"Telangana","latitude":18.6725,"longitude":78.0941,"temp":26.2,"humidity":49,"rain":0.0,"pressure":964.2,"uv_index":8.45,"wind_gusts":30.6,"aqi":126,"pm10":49.2,"pm2_5":41.8,"mosquito_risk":4,"arthritis_risk":5,"migraine_risk":7,"frizz_risk":0,"updated_at":"2026-03-14T04:01:50.706437+05:30"},{"city":"Mysore","state":"Karnataka","latitude":12.2958,"longitude":76.6396,"temp":21.3,"humidity":97,"rain":0.0,"pressure":928.3,"uv_index":9.3,"wind_gusts":29.9,"aqi":94,"pm10":46.4,"pm2_5":42.4,"mosquito_risk":3,"arthritis_risk":5,"migraine_risk":7,"frizz_risk":1,"updated_at":"2026-03-14T04:01:50.706448+05:30"},{"city":"Mangalore","state":"Karnataka","latitude":12.9141,"longitude":74.856,"temp":28.2,"humidity":83,"rain":0.0,"pressure":1006.7,"uv_index":8.95,"wind_gusts":26.6,"aqi":110,"pm10":44.1,"pm2_5":39.1,"mosquito_risk":7,"arthritis_risk":5,"migraine_risk":4,"frizz_risk":1,"updated_at":"2026-03-14T04:01:50.706458+05:30"},{"city":"Hubli-Dharwad","state":"Karnataka","latitude":15.3647,"longitude":75.124,"temp":21.7,"humidity":96,"rain":0.0,"pressure":940.5,"uv_index":8.95,"wind_gusts":41.0,"aqi":92,"pm10":46.0,"pm2_5":43.5,"mosquito_risk":3,"arthritis_risk":5,"migraine_risk":7,"frizz_risk":1,"updated_at":"2026-03-14T04:01:50.706468+05:30"},{"city":"Belgaum","state":"Karnataka","latitude":15.8497,"longitude":74.4977,"temp":21.3,"humidity":98,"rain":0.0,"pressure":925.2,"uv_index":9.0,"wind_gusts":43.2,"aqi":119,"pm10":58.0,"pm2_5":54.0,"mosquito_risk":3,"arthritis_risk":5,"migraine_risk":7,"frizz_risk":1,"updated_at":"2026-03-14T04:01:53.924110+05:30"},{"city":"Coimbatore","state":"Tamil Nadu","latitude":11.0168,"longitude":76.9558,"temp":21.6,"humidity":75,"rain":0.0,"pressure":962.1,"uv_index":9.3,"wind_gusts":31.3,"aqi":81,"pm10":24.3,"pm2_5":23.1,"mosquito_risk":3,"arthritis_risk":5,"migraine_risk":7,"frizz_risk":1,"updated_at":"2026-03-14T04:01:53.924142+05:30"},{"city":"Madurai","state":"Tamil Nadu","latitude":9.9252,"longitude":78.1198,"temp":24.7,"humidity":85,"rain":0.0,"pressure":994.3,"uv_index":9.3,"wind_gusts":30.6,"aqi":71,"pm10":30.4,"pm2_5":27.9,"mosquito_risk":3,"arthritis_risk":5,"migraine_risk":7,"frizz_risk":1,"updated_at":"2026-03-14T04:01:53.924154+05:30"},{"city":"Trichy","state":"Tamil Nadu","latitude":10.7905,"longitude":78.7047,"temp":23.7,"humidity":95,"rain":0.0,"pressure":1001.3,"uv_index":9.2,"wind_gusts":19.8,"aqi":76,"pm10":31.2,"pm2_5":27.8,"mosquito_risk":3,"arthritis_risk":5,"migraine_risk":4,"frizz_risk":1,"updated_at":"2026-03-14T04:01:53.924163+05:30"},{"city":"Salem","state":"Tamil Nadu","latitude":11.6643,"longitude":78.146,"temp":22.1,"humidity":95,"rain":0.0,"pressure":978.2,"uv_index":9.2,"wind_gusts":16.9,"aqi":105,"pm10":48.0,"pm2_5":44.9,"mosquito_risk":3,"arthritis_risk":5,"migraine_risk":7,"frizz_risk":1,"updated_at":"2026-03-14T04:01:53.924172+05:30"},{"city":"Tirunelveli","state":"Tamil Nadu","latitude":8.7139,"longitude":77.7567,"temp":23.5,"humidity":81,"rain":0.0,"pressure":1004.4,"uv_index":9.25,"wind_gusts":38.5,"aqi":57,"pm10":19.8,"pm2_5":18.0,"mosquito_risk":3,"arthritis_risk":5,"migraine_risk":4,"frizz_risk":1,"updated_at":"2026-03-14T04:01:53.924181+05:30"},{"city":"Vellore","state":"Tamil Nadu","latitude":12.9165,"longitude":79.1325,"temp":20.4,"humidity":99,"rain":0.0,"pressure":985.9,"uv_index":9.1,"wind_gusts":32.4,"aqi":105,"pm10":52.9,"pm2_5":49.7,"mosquito_risk":3,"arthritis_risk":5,"migraine_risk":7,"frizz_risk":1,"updated_at":"2026-03-14T04:01:53.924188+05:30"},{"city":"Erode","state":"Tamil Nadu","latitude":11.341,"longitude":77.7172,"temp":24.0,"humidity":91,"rain":0.0,"pressure":990.2,"uv_index":9.2,"wind_gusts":20.9,"aqi":78,"pm10":20.7,"pm2_5":19.5,"mosquito_risk":3,"arthritis_risk":5,"migraine_risk":7,"frizz_risk":1,"updated_at":"2026-03-14T04:01:53.924197+05:30"},{"city":"Kochi","state":"Kerala","latitude":9.9312,"longitude":76.2673,"temp":26.3,"humidity":85,"rain":0.0,"pressure":1009.1,"uv_index":9.1,"wind_gusts":32.0,"aqi":84,"pm10":34.2,"pm2_5":33.4,"mosquito_risk":7,"arthritis_risk":0,"migraine_risk":4,"frizz_risk":1,"updated_at":"2026-03-14T04:01:53.924205+05:30"},{"city":"Thiruvananthapuram","state":"Kerala","latitude":8.5241,"longitude":76.9366,"temp":27.2,"humidity":84,"rain":0.0,"pressure":1008.3,"uv_index":9.1,"wind_gusts":22.7,"aqi":60,"pm10":18.0,"pm2_5":14.8,"mosquito_risk":7,"arthritis_risk":0,"migraine_risk":4,"frizz_risk":1,"updated_at":"2026-03-14T04:01:53.924213+05:30"},{"city":"Kozhikode","state":"Kerala","latitude":11.2588,"longitude":75.7804,"temp":26.7,"humidity":85,"rain":0.0,"pressure":1008.4,"uv_index":9.05,"wind_gusts":27.7,"aqi":87,"pm10":27.1,"pm2_5":24.2,"mosquito_risk":7,"arthritis_risk":0,"migraine_risk":4,"frizz_risk":1,"updated_at":"2026-03-14T04:01:53.924221+05:30"},{"city":"Thrissur","state":"Kerala","latitude":10.5276,"longitude":76.2144,"temp":25.2,"humidity":88,"rain":0.0,"pressure":1007.5,"uv_index":9.1,"wind_gusts":36.4,"aqi":101,"pm10":40.7,"pm2_5":38.9,"mosquito_risk":7,"arthritis_risk":5,"migraine_risk":4,"frizz_risk":1,"updated_at":"2026-03-14T04:01:53.924229+05:30"},{"city":"Kannur","state":"Kerala","latitude":11.8745,"longitude":75.3704,"temp":26.4,"humidity":86,"rain":0.0,"pressure":1007.6,"uv_index":9.0,"wind_gusts":32.0,"aqi":104,"pm10":40.0,"pm2_5":36.7,"mosquito_risk":7,"arthritis_risk":5,"migraine_risk":4,"frizz_risk":1,"updated_at":"2026-03-14T04:01:53.924237+05:30"},{"city":"Patna","state":"Bihar","latitude":25.5941,"longitude":85.1376,"temp":22.9,"humidity":75,"rain":0.0,"pressure":999.9,"uv_index":7.5,"wind_gusts":19.8,"aqi":164,"pm10":74.7,"pm2_5":45.3,"mosquito_risk":3,"arthritis_risk":5,"migraine_risk":7,"frizz_risk":1,"updated_at":"2026-03-14T04:01:53.924245+05:30"},{"city":"Gaya","state":"Bihar","latitude":24.7914,"longitude":85.0002,"temp":20.8,"humidity":72,"rain":0.0,"pressure":993.5,"uv_index":7.6,"wind_gusts":19.1,"aqi":141,"pm10":117.8,"pm2_5":50.3,"mosquito_risk":3,"arthritis_risk":5,"migraine_risk":7,"frizz_risk":0,"updated_at":"2026-03-14T04:01:53.924252+05:30"},{"city":"Muzaffarpur","state":"Bihar","latitude":26.1209,"longitude":85.3647,"temp":21.3,"humidity":95,"rain":0.0,"pressure":999.9,"uv_index":7.15,"wind_gusts":20.9,"aqi":170,"pm10":123.9,"pm2_5":83.4,"mosquito_risk":3,"arthritis_risk":5,"migraine_risk":7,"frizz_risk":1,"updated_at":"2026-03-14T04:01:53.924260+05:30"},{"city":"Bhagalpur","state":"Bihar","latitude":25.2425,"longitude":87.0117,"temp":22.8,"humidity":97,"rain":0.0,"pressure":1001.1,"uv_index":7.45,"wind_gusts":22.0,"aqi":163,"pm10":204.9,"pm2_5":84.8,"mosquito_risk":3,"arthritis_risk":5,"migraine_risk":4,"frizz_risk":1,"updated_at":"2026-03-14T04:01:53.924268+05:30"},{"city":"Ranchi","state":"Jharkhand","latitude":23.3441,"longitude":85.3096,"temp":21.8,"humidity":39,"rain":0.0,"pressure":937.6,"uv_index":8.25,"wind_gusts":33.5,"aqi":68,"pm10":111.8,"pm2_5":34.5,"mosquito_risk":0,"arthritis_risk":5,"migraine_risk":7,"frizz_risk":0,"updated_at":"2026-03-14T04:01:53.924275+05:30"},{"city":"Jamshedpur","state":"Jharkhand","latitude":22.8046,"longitude":86.2029,"temp":23.8,"humidity":74,"rain":0.0,"pressure":990.7,"uv_index":8.1,"wind_gusts":17.6,"aqi":150,"pm10":115.7,"pm2_5":79.6,"mosquito_risk":3,"arthritis_risk":5,"migraine_risk":7,"frizz_risk":1,"updated_at":"2026-03-14T04:01:53.924283+05:30"},{"city":"Dhanbad","state":"Jharkhand","latitude":23.7957,"longitude":86.4304,"temp":21.5,"humidity":62,"rain":0.0,"pressure":979.7,"uv_index":7.65,"wind_gusts":21.2,"aqi":158,"pm10":198.8,"pm2_5":107.8,"mosquito_risk":3,"arthritis_risk":5,"migraine_risk":7,"frizz_risk":0,"updated_at":"2026-03-14T04:01:53.924291+05:30"},{"city":"Bokaro","state":"Jharkhand","latitude":23.6693,"longitude":86.1511,"temp":20.8,"humidity":59,"rain":0.0,"pressure":984.1,"uv_index":7.7,"wind_gusts":26.6,"aqi":147,"pm10":176.0,"pm2_5":90.3,"mosquito_risk":0,"arthritis_risk":5,"migraine_risk":7,"frizz_risk":0,"updated_at":"2026-03-14T04:01:53.924299+05:30"},{"city":"Bhubaneswar","state":"Odisha","latitude":20.2961,"longitude":85.8245,"temp":25.0,"humidity":89,"rain":0.0,"pressure":1003.2,"uv_index":8.4,"wind_gusts":38.9,"aqi":88,"pm10":14.4,"pm2_5":11.7,"mosquito_risk":7,"arthritis_risk":5,"migraine_risk":4,"frizz_risk":1,"updated_at":"2026-03-14T04:01:53.924307+05:30"},{"city":"Cuttack","state":"Odisha","latitude":20.4625,"longitude":85.8828,"temp":24.8,"humidity":90,"rain":0.0,"pressure":1005.1,"uv_index":8.45,"wind_gusts":38.5,"aqi":88,"pm10":14.4,"pm2_5":11.7,"mosquito_risk":3,"arthritis_risk":5,"migraine_risk":4,"frizz_risk":1,"updated_at":"2026-03-14T04:01:53.924314+05:30"},{"city":"Rourkela","state":"Odisha","latitude":22.2604,"longitude":84.8536,"temp":21.7,"humidity":85,"rain":0.0,"pressure":984.9,"uv_index":8.05,"wind_gusts":29.2,"aqi":91,"pm10":51.2,"pm2_5":36.8,"mosquito_risk":3,"arthritis_risk":5,"migraine_risk":7,"frizz_risk":1,"updated_at":"2026-03-14T04:01:53.924322+05:30"},{"city":"Raipur","state":"Chhattisgarh","latitude":21.2514,"longitude":81.6296,"temp":23.0,"humidity":47,"rain":0.0,"pressure":973.8,"uv_index":8.15,"wind_gusts":31.0,"aqi":132,"pm10":69.8,"pm2_5":61.2,"mosquito_risk":0,"arthritis_risk":5,"migraine_risk":7,"frizz_risk":0,"updated_at":"2026-03-14T04:01:53.924330+05:30"},{"city":"Bhilai","state":"Chhattisgarh","latitude":21.1938,"longitude":81.3509,"temp":21.7,"humidity":47,"rain":0.0,"pressure":974.1,"uv_index":8.15,"wind_gusts":31.0,"aqi":127,"pm10":71.5,"pm2_5":62.2,"mosquito_risk":0,"arthritis_risk":5,"migraine_risk":7,"frizz_risk":0,"updated_at":"2026-03-14T04:01:53.924337+05:30"},{"city":"Guwahati","state":"Assam","latitude":26.1158,"longitude":91.7086,"temp":21.0,"humidity":94,"rain":0.0,"pressure":1003.4,"uv_index":7.45,"wind_gusts":42.5,"aqi":115,"pm10":24.0,"pm2_5":16.2,"mosquito_risk":3,"arthritis_risk":5,"migraine_risk":4,"frizz_risk":1,"updated_at":"2026-03-14T04:01:53.924343+05:30"},{"city":"Agartala","state":"Tripura","latitude":23.8315,"longitude":91.2868,"temp":21.4,"humidity":95,"rain":0.0,"pressure":1008.4,"uv_index":7.85,"wind_gusts":39.2,"aqi":87,"pm10":19.8,"pm2_5":16.9,"mosquito_risk":3,"arthritis_risk":0,"migraine_risk":4,"frizz_risk":1,"updated_at":"2026-03-14T04:01:53.924350+05:30"},{"city":"Shillong","state":"Meghalaya","latitude":25.5788,"longitude":91.8933,"temp":12.8,"humidity":94,"rain":0.0,"pressure":855.1,"uv_index":7.8,"wind_gusts":67.7,"aqi":79,"pm10":8.2,"pm2_5":5.6,"mosquito_risk":3,"arthritis_risk":10,"migraine_risk":7,"frizz_risk":0,"updated_at":"2026-03-14T04:01:53.924356+05:30"},{"city":"Imphal","state":"Manipur","latitude":24.817,"longitude":93.9368,"temp":15.7,"humidity":95,"rain":0.1,"pressure":924.4,"uv_index":7.6,"wind_gusts":69.8,"aqi":158,"pm10":38.9,"pm2_5":34.0,"mosquito_risk":6,"arthritis_risk":10,"migraine_risk":7,"frizz_risk":0,"updated_at":"2026-03-14T04:01:53.924363+05:30"},{"city":"Aizawl","state":"Mizoram","latitude":23.7271,"longitude":92.7176,"temp":17.4,"humidity":83,"rain":0.0,"pressure":893.8,"uv_index":8.0,"wind_gusts":58.7,"aqi":139,"pm10":42.5,"pm2_5":36.7,"mosquito_risk":3,"arthritis_risk":10,"migraine_risk":7,"frizz_risk":0,"updated_at":"2026-03-14T04:01:53.924369+05:30"},{"city":"Kohima","state":"Nagaland","latitude":25.6701,"longitude":94.1077,"temp":14.1,"humidity":87,"rain":0.0,"pressure":854.2,"uv_index":6.95,"wind_gusts":104.8,"aqi":134,"pm10":32.8,"pm2_5":28.9,"mosquito_risk":3,"arthritis_risk":10,"migraine_risk":7,"frizz_risk":0,"updated_at":"2026-03-14T04:01:53.924375+05:30"},{"city":"Gangtok","state":"Sikkim","latitude":27.3314,"longitude":88.6138,"temp":13.0,"humidity":80,"rain":0.0,"pressure":834.6,"uv_index":7.55,"wind_gusts":22.0,"aqi":93,"pm10":40.4,"pm2_5":34.7,"mosquito_risk":3,"arthritis_risk":5,"migraine_risk":7,"frizz_risk":0,"updated_at":"2026-03-14T04:01:53.924381+05:30"},{"city":"Siliguri","state":"West Bengal","latitude":26.7271,"longitude":88.3953,"temp":18.4,"humidity":91,"rain":0.0,"pressure":994.4,"uv_index":7.35,"wind_gusts":29.2,"aqi":139,"pm10":67.3,"pm2_5":53.0,"mosquito_risk":3,"arthritis_risk":10,"migraine_risk":7,"frizz_risk":1,"updated_at":"2026-03-14T04:01:57.141434+05:30"},{"city":"Durgapur","state":"West Bengal","latitude":23.5204,"longitude":87.3119,"temp":24.0,"humidity":96,"rain":0.0,"pressure":995.1,"uv_index":7.95,"wind_gusts":25.9,"aqi":154,"pm10":103.1,"pm2_5":77.8,"mosquito_risk":3,"arthritis_risk":5,"migraine_risk":7,"frizz_risk":1,"updated_at":"2026-03-14T04:01:57.141466+05:30"},{"city":"Asansol","state":"West Bengal","latitude":23.6739,"longitude":86.9524,"temp":23.9,"humidity":93,"rain":0.0,"pressure":993.6,"uv_index":7.75,"wind_gusts":24.8,"aqi":152,"pm10":130.4,"pm2_5":69.6,"mosquito_risk":3,"arthritis_risk":5,"migraine_risk":7,"frizz_risk":1,"updated_at":"2026-03-14T04:01:57.141477+05:30"},{"city":"Pondicherry","state":"Puducherry","latitude":11.9139,"longitude":79.8145,"temp":22.9,"humidity":99,"rain":0.0,"pressure":1010.1,"uv_index":9.05,"wind_gusts":30.2,"aqi":57,"pm10":19.4,"pm2_5":15.1,"mosquito_risk":3,"arthritis_risk":0,"migraine_risk":4,"frizz_risk":1,"updated_at":"2026-03-14T04:01:57.141487+05:30"},{"city":"Port Blair","state":"Andaman and Nicobar Islands","latitude":11.6234,"longitude":92.7265,"temp":27.2,"humidity":81,"rain":0.0,"pressure":1007.9,"uv_index":8.95,"wind_gusts":26.6,"aqi":62,"pm10":11.8,"pm2_5":9.0,"mosquito_risk":7,"arthritis_risk":5,"migraine_risk":4,"frizz_risk":1,"updated_at":"2026-03-14T04:01:57.141497+05:30"},{"city":"Haridwar","state":"Uttarakhand","latitude":29.9457,"longitude":78.1642,"temp":18.0,"humidity":83,"rain":0.0,"pressure":973.7,"uv_index":5.55,"wind_gusts":22.3,"aqi":87,"pm10":54.0,"pm2_5":46.2,"mosquito_risk":3,"arthritis_risk":10,"migraine_risk":3,"frizz_risk":0,"updated_at":"2026-03-14T04:01:57.141506+05:30"},{"city":"Rishikesh","state":"Uttarakhand","latitude":30.0869,"longitude":78.2676,"temp":18.9,"humidity":62,"rain":0.0,"pressure":966.4,"uv_index":5.35,"wind_gusts":22.0,"aqi":64,"pm10":25.6,"pm2_5":24.6,"mosquito_risk":3,"arthritis_risk":5,"migraine_risk":3,"frizz_risk":0,"updated_at":"2026-03-14T04:01:57.141516+05:30"},{"city":"Nainital","state":"Uttarakhand","latitude":29.3919,"longitude":79.4542,"temp":17.7,"humidity":38,"rain":0.0,"pressure":804.8,"uv_index":6.1,"wind_gusts":34.9,"aqi":82,"pm10":32.2,"pm2_5":30.0,"mosquito_risk":0,"arthritis_risk":5,"migraine_risk":7,"frizz_risk":0,"updated_at":"2026-03-14T04:01:57.141549+05:30"},{"city":"Mussoorie","state":"Uttarakhand","latitude":30.4599,"longitude":78.0664,"temp":15.2,"humidity":51,"rain":0.0,"pressure":801.2,"uv_index":5.55,"wind_gusts":25.9,"aqi":70,"pm10":27.1,"pm2_5":25.8,"mosquito_risk":0,"arthritis_risk":5,"migraine_risk":3,"frizz_risk":0,"updated_at":"2026-03-14T04:01:57.141559+05:30"},{"city":"Dharamshala","state":"Himachal Pradesh","latitude":32.219,"longitude":76.3234,"temp":18.2,"humidity":19,"rain":0.0,"pressure":868.1,"uv_index":4.6,"wind_gusts":20.9,"aqi":38,"pm10":15.3,"pm2_5":8.7,"mosquito_risk":0,"arthritis_risk":5,"migraine_risk":3,"frizz_risk":1,"updated_at":"2026-03-14T04:01:57.141568+05:30"},{"city":"Dalhousie","state":"Himachal Pradesh","latitude":32.5387,"longitude":75.971,"temp":14.3,"humidity":24,"rain":0.0,"pressure":801.9,"uv_index":5.5,"wind_gusts":18.7,"aqi":62,"pm10":26.9,"pm2_5":22.5,"mosquito_risk":0,"arthritis_risk":5,"migraine_risk":3,"frizz_risk":1,"updated_at":"2026-03-14T04:01:57.141577+05:30"},{"city":"Patiala","state":"Punjab","latitude":30.3398,"longitude":76.3869,"temp":17.7,"humidity":78,"rain":0.0,"pressure":978.5,"uv_index":5.5,"wind_gusts":22.7,"aqi":351,"pm10":458.2,"pm2_5":64.5,"mosquito_risk":3,"arthritis_risk":5,"migraine_risk":3,"frizz_risk":0,"updated_at":"2026-03-14T04:01:57.141586+05:30"},{"city":"Bhatinda","state":"Punjab","latitude":30.211,"longitude":74.9455,"temp":19.3,"humidity":80,"rain":0.0,"pressure":984.4,"uv_index":5.95,"wind_gusts":16.2,"aqi":99,"pm10":45.9,"pm2_5":36.4,"mosquito_risk":3,"arthritis_risk":5,"migraine_risk":3,"frizz_risk":0,"updated_at":"2026-03-14T04:01:57.141596+05:30"},{"city":"Rohtak","state":"Haryana","latitude":28.8955,"longitude":76.6066,"temp":18.1,"humidity":81,"rain":0.0,"pressure":982.2,"uv_index":5.55,"wind_gusts":21.2,"aqi":579,"pm10":429.3,"pm2_5":80.3,"mosquito_risk":3,"arthritis_risk":10,"migraine_risk":3,"frizz_risk":0,"updated_at":"2026-03-14T04:01:57.141605+05:30"},{"city":"Panipat","state":"Haryana","latitude":29.3909,"longitude":76.9635,"temp":17.7,"humidity":82,"rain":0.0,"pressure":980.7,"uv_index":5.35,"wind_gusts":24.5,"aqi":1049,"pm10":1009.6,"pm2_5":130.9,"mosquito_risk":3,"arthritis_risk":10,"migraine_risk":3,"frizz_risk":0,"updated_at":"2026-03-14T04:01:57.141613+05:30"},{"city":"Mathura","state":"Uttar Pradesh","latitude":27.4924,"longitude":77.6737,"temp":19.9,"humidity":63,"rain":0.0,"pressure":987.4,"uv_index":6.15,"wind_gusts":37.8,"aqi":826,"pm10":907.1,"pm2_5":150.4,"mosquito_risk":3,"arthritis_risk":5,"migraine_risk":7,"frizz_risk":0,"updated_at":"2026-03-14T04:01:57.141621+05:30"},{"city":"Vrindavan","state":"Uttar Pradesh","latitude":27.5823,"longitude":77.7027,"temp":19.3,"humidity":68,"rain":0.0,"pressure":987.8,"uv_index":6.3,"wind_gusts":35.3,"aqi":826,"pm10":907.1,"pm2_5":150.4,"mosquito_risk":3,"arthritis_risk":5,"migraine_risk":7,"frizz_risk":0,"updated_at":"2026-03-14T04:01:57.141629+05:30"},{"city":"Ayodhya","state":"Uttar Pradesh","latitude":26.7922,"longitude":82.1998,"temp":20.0,"humidity":77,"rain":0.0,"pressure":994.8,"uv_index":6.75,"wind_gusts":24.1,"aqi":154,"pm10":243.1,"pm2_5":71.2,"mosquito_risk":3,"arthritis_risk":5,"migraine_risk":7,"frizz_risk":0,"updated_at":"2026-03-14T04:01:57.141637+05:30"},{"city":"Ratlam","state":"Madhya Pradesh","latitude":23.3315,"longitude":75.0367,"temp":24.4,"humidity":39,"rain":0.0,"pressure":954.5,"uv_index":7.65,"wind_gusts":36.0,"aqi":70,"pm10":38.4,"pm2_5":29.6,"mosquito_risk":0,"arthritis_risk":5,"migraine_risk":7,"frizz_risk":0,"updated_at":"2026-03-14T04:01:57.141645+05:30"},{"city":"Sagar","state":"Madhya Pradesh","latitude":23.8388,"longitude":78.7378,"temp":20.6,"humidity":39,"rain":0.0,"pressure":949.4,"uv_index":7.65,"wind_gusts":31.7,"aqi":58,"pm10":19.6,"pm2_5":15.5,"mosquito_risk":0,"arthritis_risk":5,"migraine_risk":7,"frizz_risk":0,"updated_at":"2026-03-14T04:01:57.141653+05:30"},{"city":"Satna","state":"Madhya Pradesh","latitude":24.6005,"longitude":80.8322,"temp":20.8,"humidity":46,"rain":0.0,"pressure":971.3,"uv_index":7.6,"wind_gusts":29.5,"aqi":55,"pm10":106.6,"pm2_5":30.9,"mosquito_risk":0,"arthritis_risk":5,"migraine_risk":7,"frizz_risk":0,"updated_at":"2026-03-14T04:01:57.141661+05:30"},{"city":"Akola","state":"Maharashtra","latitude":20.7002,"longitude":77.0082,"temp":23.3,"humidity":49,"rain":0.0,"pressure":974.6,"uv_index":8.1,"wind_gusts":15.1,"aqi":91,"pm10":45.9,"pm2_5":43.9,"mosquito_risk":0,"arthritis_risk":5,"migraine_risk":7,"frizz_risk":0,"updated_at":"2026-03-14T04:01:57.141669+05:30"},{"city":"Amravati","state":"Maharashtra","latitude":20.9374,"longitude":77.7796,"temp":22.4,"humidity":50,"rain":0.0,"pressure":966.3,"uv_index":8.1,"wind_gusts":11.2,"aqi":96,"pm10":55.5,"pm2_5":52.0,"mosquito_risk":0,"arthritis_risk":5,"migraine_risk":7,"frizz_risk":0,"updated_at":"2026-03-14T04:01:57.141678+05:30"},{"city":"Latur","state":"Maharashtra","latitude":18.4088,"longitude":76.5604,"temp":23.9,"humidity":51,"rain":0.0,"pressure":939.1,"uv_index":8.5,"wind_gusts":22.7,"aqi":104,"pm10":47.5,"pm2_5":38.8,"mosquito_risk":0,"arthritis_risk":5,"migraine_risk":7,"frizz_risk":0,"updated_at":"2026-03-14T04:01:57.141684+05:30"},{"city":"Nanded","state":"Maharashtra","latitude":19.1383,"longitude":77.3091,"temp":24.3,"humidity":47,"rain":0.0,"pressure":968.2,"uv_index":8.3,"wind_gusts":28.1,"aqi":121,"pm10":56.2,"pm2_5":48.3,"mosquito_risk":0,"arthritis_risk":5,"migraine_risk":7,"frizz_risk":0,"updated_at":"2026-03-14T04:01:57.141690+05:30"},{"city":"Gulbarga","state":"Karnataka","latitude":17.3297,"longitude":76.8343,"temp":26.4,"humidity":47,"rain":0.0,"pressure":958.5,"uv_index":8.6,"wind_gusts":41.8,"aqi":99,"pm10":41.6,"pm2_5":36.3,"mosquito_risk":4,"arthritis_risk":5,"migraine_risk":7,"frizz_risk":0,"updated_at":"2026-03-14T04:01:57.141697+05:30"},{"city":"Bidar","state":"Karnataka","latitude":17.9104,"longitude":77.5199,"temp":24.9,"humidity":49,"rain":0.0,"pressure":935.2,"uv_index":8.55,"wind_gusts":41.0,"aqi":102,"pm10":43.4,"pm2_5":37.3,"mosquito_risk":0,"arthritis_risk":5,"migraine_risk":7,"frizz_risk":0,"updated_at":"2026-03-14T04:01:57.141703+05:30"},{"city":"Hospet","state":"Karnataka","latitude":15.2689,"longitude":76.3909,"temp":24.8,"humidity":84,"rain":0.0,"pressure":955.9,"uv_index":8.9,"wind_gusts":27.0,"aqi":106,"pm10":51.8,"pm2_5":44.6,"mosquito_risk":3,"arthritis_risk":5,"migraine_risk":7,"frizz_risk":1,"updated_at":"2026-03-14T04:01:57.141709+05:30"},{"city":"Tirupur","state":"Tamil Nadu","latitude":11.1085,"longitude":77.3411,"temp":24.5,"humidity":71,"rain":0.0,"pressure":976.1,"uv_index":9.3,"wind_gusts":27.0,"aqi":86,"pm10":21.7,"pm2_5":20.4,"mosquito_risk":3,"arthritis_risk":5,"migraine_risk":7,"frizz_risk":1,"updated_at":"2026-03-14T04:01:57.141715+05:30"},{"city":"Alappuzha","state":"Kerala","latitude":9.4981,"longitude":76.3388,"temp":26.1,"humidity":85,"rain":0.0,"pressure":1009.2,"uv_index":9.1,"wind_gusts":28.1,"aqi":82,"pm10":21.4,"pm2_5":19.8,"mosquito_risk":7,"arthritis_risk":0,"migraine_risk":4,"frizz_risk":1,"updated_at":"2026-03-14T04:01:57.141722+05:30"},{"city":"Munnar","state":"Kerala","latitude":10.0889,"longitude":77.0595,"temp":17.1,"humidity":87,"rain":0.0,"pressure":855.1,"uv_index":9.6,"wind_gusts":31.3,"aqi":68,"pm10":20.0,"pm2_5":18.5,"mosquito_risk":3,"arthritis_risk":10,"migraine_risk":7,"frizz_risk":0,"updated_at":"2026-03-14T04:01:57.141729+05:30"},{"city":"Silchar","state":"Assam","latitude":24.8333,"longitude":92.7789,"temp":20.5,"humidity":96,"rain":0.0,"pressure":1008.5,"uv_index":7.75,"wind_gusts":41.8,"aqi":156,"pm10":26.4,"pm2_5":22.8,"mosquito_risk":3,"arthritis_risk":0,"migraine_risk":4,"frizz_risk":1,"updated_at":"2026-03-14T04:01:57.141735+05:30"},{"city":"Dibrugarh","state":"Assam","latitude":27.4728,"longitude":94.912,"temp":20.1,"humidity":91,"rain":0.0,"pressure":997.9,"uv_index":1.2,"wind_gusts":19.8,"aqi":121,"pm10":19.5,"pm2_5":18.6,"mosquito_risk":3,"arthritis_risk":5,"migraine_risk":3,"frizz_risk":1,"updated_at":"2026-03-14T04:01:57.141742+05:30"}]