[{"city":"Delhi","state":"Delhi","latitude":28.6139,"longitude":77.209,"temp":28.6,"humidity":38,"rain":0.0,"pressure":979.6,"uv_index":7.4,"wind_gusts":30.6,"aqi":361,"pm10":543.9,"pm2_5":98.3,"mosquito_risk":4,"arthritis_risk":5,"migraine_risk":7,"frizz_risk":0,"updated_at":"2026-04-23T00:48:44.800039+05:30"},{"city":"Mumbai","state":"Maharashtra","latitude":19.076,"longitude":72.8777,"temp":29.4,"humidity":73,"rain":0.0,"pressure":1007.3,"uv_index":8.05,"wind_gusts":24.5,"aqi":85,"pm10":35.7,"pm2_5":21.6,"mosquito_risk":7,"arthritis_risk":5,"migraine_risk":4,"frizz_risk":1,"updated_at":"2026-04-23T00:48:44.800093+05:30"},{"city":"Bangalore","state":"Karnataka","latitude":12.9716,"longitude":77.5946,"temp":24.9,"humidity":64,"rain":0.0,"pressure":910.4,"uv_index":9.35,"wind_gusts":27.0,"aqi":71,"pm10":21.0,"pm2_5":19.7,"mosquito_risk":3,"arthritis_risk":5,"migraine_risk":7,"frizz_risk":1,"updated_at":"2026-04-23T00:48:44.800107+05:30"},{"city":"Hyderabad","state":"Telangana","latitude":17.385,"longitude":78.4867,"temp":27.5,"humidity":63,"rain":0.0,"pressure":951.9,"uv_index":7.5,"wind_gusts":30.2,"aqi":122,"pm10":45.2,"pm2_5":41.2,"mosquito_risk":7,"arthritis_risk":5,"migraine_risk":7,"frizz_risk":1,"updated_at":"2026-04-23T00:48:44.800116+05:30"},{"city":"Chennai","state":"Tamil Nadu","latitude":13.0827,"longitude":80.2707,"temp":28.6,"humidity":83,"rain":0.0,"pressure":1005.7,"uv_index":9.1,"wind_gusts":34.9,"aqi":30,"pm10":8.9,"pm2_5":6.2,"mosquito_risk":7,"arthritis_risk":5,"migraine_risk":4,"frizz_risk":1,"updated_at":"2026-04-23T00:48:44.800126+05:30"},{"city":"Kolkata","state":"West Bengal","latitude":22.5726,"longitude":88.3639,"temp":27.7,"humidity":92,"rain":0.0,"pressure":1003.5,"uv_index":8.55,"wind_gusts":26.6,"aqi":96,"pm10":30.2,"pm2_5":25.8,"mosquito_risk":7,"arthritis_risk":5,"migraine_risk":4,"frizz_risk":1,"updated_at":"2026-04-23T00:48:44.800137+05:30"},{"city":"Pune","state":"Maharashtra","latitude":18.5204,"longitude":73.8567,"temp":26.6,"humidity":80,"rain":0.0,"pressure":947.8,"uv_index":8.65,"wind_gusts":31.7,"aqi":152,"pm10":47.5,"pm2_5":41.3,"mosquito_risk":7,"arthritis_risk":5,"migraine_risk":7,"frizz_risk":1,"updated_at":"2026-04-23T00:48:44.800144+05:30"},{"city":"Ahmedabad","state":"Gujarat","latitude":23.0225,"longitude":72.5714,"temp":29.1,"humidity":27,"rain":0.0,"pressure":1001.4,"uv_index":8.2,"wind_gusts":24.8,"aqi":47,"pm10":12.1,"pm2_5":7.9,"mosquito_risk":4,"arthritis_risk":5,"migraine_risk":4,"frizz_risk":0,"updated_at":"2026-04-23T00:48:44.800150+05:30"},{"city":"Jaipur","state":"Rajasthan","latitude":26.9124,"longitude":75.7873,"temp":29.1,"humidity":19,"rain":0.0,"pressure":958.6,"uv_index":8.05,"wind_gusts":29.2,"aqi":135,"pm10":322.2,"pm2_5":44.5,"mosquito_risk":4,"arthritis_risk":5,"migraine_risk":7,"frizz_risk":0,"updated_at":"2026-04-23T00:48:44.800157+05:30"},{"city":"Lucknow","state":"Uttar Pradesh","latitude":26.8467,"longitude":80.9462,"temp":28.3,"humidity":46,"rain":0.0,"pressure":989.7,"uv_index":7.85,"wind_gusts":34.2,"aqi":236,"pm10":465.7,"pm2_5":84.1,"mosquito_risk":4,"arthritis_risk":5,"migraine_risk":7,"frizz_risk":0,"updated_at":"2026-04-23T00:48:44.800164+05:30"},{"city":"Kanpur","state":"Uttar Pradesh","latitude":26.4499,"longitude":80.3319,"temp":26.8,"humidity":50,"rain":0.0,"pressure":988.2,"uv_index":7.85,"wind_gusts":31.0,"aqi":406,"pm10":502.9,"pm2_5":86.4,"mosquito_risk":4,"arthritis_risk":5,"migraine_risk":7,"frizz_risk":0,"updated_at":"2026-04-23T00:48:44.800171+05:30"},{"city":"Chandigarh","state":"Chandigarh","latitude":30.7333,"longitude":76.7794,"temp":23.2,"humidity":47,"rain":0.0,"pressure":965.2,"uv_index":7.4,"wind_gusts":29.2,"aqi":78,"pm10":26.0,"pm2_5":21.9,"mosquito_risk":0,"arthritis_risk":5,"migraine_risk":7,"frizz_risk":0,"updated_at":"2026-04-23T00:48:44.800177+05:30"},{"city":"Srinagar","state":"Jammu and Kashmir","latitude":34.0837,"longitude":74.7973,"temp":13.2,"humidity":81,"rain":0.0,"pressure":840.3,"uv_index":8.6,"wind_gusts":26.6,"aqi":70,"pm10":46.9,"pm2_5":36.9,"mosquito_risk":3,"arthritis_risk":10,"migraine_risk":7,"frizz_risk":0,"updated_at":"2026-04-23T00:48:44.800184+05:30"},{"city":"Jammu","state":"Jammu and Kashmir","latitude":32.7266,"longitude":74.857,"temp":24.2,"humidity":62,"rain":0.0,"pressure":969.8,"uv_index":8.2,"wind_gusts":28.1,"aqi":72,"pm10":31.4,"pm2_5":28.3,"mosquito_risk":3,"arthritis_risk":5,"migraine_risk":7,"frizz_risk":1,"updated_at":"2026-04-23T00:48:44.800190+05:30"},{"city":"Amritsar","state":"Punjab","latitude":31.634,"longitude":74.8723,"temp":26.1,"humidity":55,"rain":0.0,"pressure":977.5,"uv_index":8.1,"wind_gusts":34.2,"aqi":96,"pm10":61.5,"pm2_5":47.0,"mosquito_risk":4,"arthritis_risk":5,"migraine_risk":7,"frizz_risk":1,"updated_at":"2026-04-23T00:48:44.800197+05:30"},{"city":"Ludhiana","state":"Punjab","latitude":30.901,"longitude":75.8573,"temp":28.6,"humidity":40,"rain":0.0,"pressure":975.4,"uv_index":7.7,"wind_gusts":24.8,"aqi":81,"pm10":45.9,"pm2_5":32.9,"mosquito_risk":4,"arthritis_risk":5,"migraine_risk":7,"frizz_risk":0,"updated_at":"2026-04-23T00:48:44.800205+05:30"},{"city":"Jalandhar","state":"Punjab","latitude":31.326,"longitude":75.5762,"temp":26.0,"humidity":48,"rain":0.0,"pressure":976.4,"uv_index":7.85,"wind_gusts":27.4,"aqi":84,"pm10":54.4,"pm2_5":41.1,"mosquito_risk":4,"arthritis_risk":5,"migraine_risk":7,"frizz_risk":0,"updated_at":"2026-04-23T00:48:44.800211+05:30"},{"city":"Dehradun","state":"Uttarakhand","latitude":30.6284,"longitude":78.0322,"temp":18.5,"humidity":58,"rain":0.0,"pressure":830.0,"uv_index":7.85,"wind_gusts":42.5,"aqi":85,"pm10":22.5,"pm2_5":17.1,"mosquito_risk":0,"arthritis_risk":5,"migraine_risk":7,"frizz_risk":0,"updated_at":"2026-04-23T00:48:44.800217+05:30"},{"city":"Shimla","state":"Himachal Pradesh","latitude":31.1048,"longitude":77.1734,"temp":16.6,"humidity":40,"rain":0.0,"pressure":784.6,"uv_index":7.9,"wind_gusts":53.6,"aqi":90,"pm10":29.7,"pm2_5":18.6,"mosquito_risk":0,"arthritis_risk":5,"migraine_risk":7,"frizz_risk":0,"updated_at":"2026-04-23T00:48:44.800224+05:30"},{"city":"Manali","state":"Himachal Pradesh","latitude":32.2396,"longitude":77.1887,"temp":19.5,"humidity":50,"rain":0.0,"pressure":821.9,"uv_index":9.3,"wind_gusts":31.7,"aqi":94,"pm10":30.0,"pm2_5":18.1,"mosquito_risk":0,"arthritis_risk":5,"migraine_risk":7,"frizz_risk":0,"updated_at":"2026-04-23T00:48:44.800230+05:30"},{"city":"Gurgaon","state":"Haryana","latitude":28.4595,"longitude":77.0266,"temp":26.1,"humidity":45,"rain":0.0,"pressure":978.2,"uv_index":7.5,"wind_gusts":26.3,"aqi":908,"pm10":517.8,"pm2_5":105.5,"mosquito_risk":4,"arthritis_risk":5,"migraine_risk":7,"frizz_risk":0,"updated_at":"2026-04-23T00:48:44.800236+05:30"},{"city":"Noida","state":"Uttar Pradesh","latitude":28.5355,"longitude":77.391,"temp":29.1,"humidity":36,"rain":0.0,"pressure":981.1,"uv_index":7.4,"wind_gusts":31.3,"aqi":908,"pm10":517.8,"pm2_5":105.5,"mosquito_risk":4,"arthritis_risk":5,"migraine_risk":7,"frizz_risk":0,"updated_at":"2026-04-23T00:48:44.800241+05:30"},{"city":"Ghaziabad","state":"Uttar Pradesh","latitude":28.6692,"longitude":77.4538,"temp":28.3,"humidity":37,"rain":0.0,"pressure":979.3,"uv_index":7.4,"wind_gusts":29.9,"aqi":290,"pm10":547.6,"pm2_5":90.1,"mosquito_risk":4,"arthritis_risk":5,"migraine_risk":7,"frizz_risk":0,"updated_at":"2026-04-23T00:48:44.800247+05:30"},{"city":"Faridabad","state":"Haryana","latitude":28.4089,"longitude":77.3178,"temp":31.1,"humidity":29,"rain":0.0,"pressure":980.5,"uv_index":7.45,"wind_gusts":32.0,"aqi":908,"pm10":517.8,"pm2_5":105.5,"mosquito_risk":0,"arthritis_risk":5,"migraine_risk":7,"frizz_risk":0,"updated_at":"2026-04-23T00:48:44.800255+05:30"},{"city":"Meerut","state":"Uttar Pradesh","latitude":28.9845,"longitude":77.7064,"temp":26.0,"humidity":43,"rain":0.0,"pressure":977.8,"uv_index":7.3,"wind_gusts":29.5,"aqi":290,"pm10":547.6,"pm2_5":90.1,"mosquito_risk":4,"arthritis_risk":5,"migraine_risk":7,"frizz_risk":0,"updated_at":"2026-04-23T00:48:44.800260+05:30"},{"city":"Agra","state":"Uttar Pradesh","latitude":27.1767,"longitude":78.0081,"temp":27.3,"humidity":46,"rain":0.0,"pressure":984.6,"uv_index":7.75,"wind_gusts":29.5,"aqi":671,"pm10":291.5,"pm2_5":60.1,"mosquito_risk":4,"arthritis_risk":5,"migraine_risk":7,"frizz_risk":0,"updated_at":"2026-04-23T00:48:44.800269+05:30"},{"city":"Varanasi","state":"Uttar Pradesh","latitude":25.3176,"longitude":82.9739,"temp":29.4,"humidity":36,"rain":0.0,"pressure":993.9,"uv_index":8.5,"wind_gusts":34.9,"aqi":112,"pm10":141.6,"pm2_5":49.1,"mosquito_risk":4,"arthritis_risk":5,"migraine_risk":7,"frizz_risk":0,"updated_at":"2026-04-23T00:48:44.800275+05:30"},{"city":"Prayagraj","state":"Uttar Pradesh","latitude":25.4358,"longitude":81.8463,"temp":30.4,"humidity":34,"rain":0.0,"pressure":992.7,"uv_index":8.35,"wind_gusts":32.4,"aqi":128,"pm10":190.5,"pm2_5":54.2,"mosquito_risk":0,"arthritis_risk":5,"migraine_risk":7,"frizz_risk":0,"updated_at":"2026-04-23T00:48:44.800282+05:30"},{"city":"Gorakhpur","state":"Uttar Pradesh","latitude":26.7606,"longitude":83.3732,"temp":27.6,"humidity":35,"rain":0.0,"pressure":993.2,"uv_index":8.25,"wind_gusts":26.6,"aqi":116,"pm10":127.1,"pm2_5":38.9,"mosquito_risk":4,"arthritis_risk":5,"migraine_risk":7,"frizz_risk":0,"updated_at":"2026-04-23T00:48:44.800290+05:30"},{"city":"Bareilly","state":"Uttar Pradesh","latitude":28.367,"longitude":79.4304,"temp":26.1,"humidity":50,"rain":0.0,"pressure":983.0,"uv_index":7.65,"wind_gusts":27.7,"aqi":99,"pm10":186.3,"pm2_5":43.7,"mosquito_risk":4,"arthritis_risk":5,"migraine_risk":7,"frizz_risk":0,"updated_at":"2026-04-23T00:48:44.800296+05:30"},{"city":"Aligarh","state":"Uttar Pradesh","latitude":27.8974,"longitude":78.088,"temp":26.4,"humidity":44,"rain":0.0,"pressure":982.2,"uv_index":7.55,"wind_gusts":32.0,"aqi":630,"pm10":560.7,"pm2_5":100.8,"mosquito_risk":4,"arthritis_risk":5,"migraine_risk":7,"frizz_risk":0,"updated_at":"2026-04-23T00:48:44.800301+05:30"},{"city":"Moradabad","state":"Uttar Pradesh","latitude":28.8386,"longitude":78.7733,"temp":26.4,"humidity":46,"rain":0.0,"pressure":979.9,"uv_index":7.5,"wind_gusts":28.8,"aqi":117,"pm10":257.0,"pm2_5":62.6,"mosquito_risk":4,"arthritis_risk":5,"migraine_risk":7,"frizz_risk":0,"updated_at":"2026-04-23T00:48:44.800307+05:30"},{"city":"Saharanpur","state":"Uttar Pradesh","latitude":29.9637,"longitude":77.546,"temp":25.6,"humidity":50,"rain":0.0,"pressure":972.3,"uv_index":7.1,"wind_gusts":33.5,"aqi":96,"pm10":107.1,"pm2_5":41.1,"mosquito_risk":4,"arthritis_risk":5,"migraine_risk":7,"frizz_risk":0,"updated_at":"2026-04-23T00:48:44.800312+05:30"},{"city":"Jhansi","state":"Uttar Pradesh","latitude":25.4484,"longitude":78.5685,"temp":28.2,"humidity":22,"rain":0.0,"pressure":975.2,"uv_index":8.25,"wind_gusts":31.3,"aqi":51,"pm10":11.7,"pm2_5":7.9,"mosquito_risk":4,"arthritis_risk":5,"migraine_risk":7,"frizz_risk":0,"updated_at":"2026-04-23T00:48:48.107855+05:30"},{"city":"Surat","state":"Gujarat","latitude":21.1702,"longitude":72.8311,"temp":27.3,"humidity":84,"rain":0.0,"pressure":1005.6,"uv_index":7.9,"wind_gusts":20.5,"aqi":103,"pm10":38.4,"pm2_5":31.9,"mosquito_risk":7,"arthritis_risk":5,"migraine_risk":4,"frizz_risk":1,"updated_at":"2026-04-23T00:48:48.107887+05:30"},{"city":"Vadodara","state":"Gujarat","latitude":22.3072,"longitude":73.1812,"temp":28.0,"humidity":63,"rain":0.0,"pressure":1003.1,"uv_index":8.2,"wind_gusts":23.0,"aqi":89,"pm10":52.3,"pm2_5":47.5,"mosquito_risk":7,"arthritis_risk":5,"migraine_risk":4,"frizz_risk":1,"updated_at":"2026-04-23T00:48:48.107896+05:30"},{"city":"Rajkot","state":"Gujarat","latitude":22.3039,"longitude":70.8022,"temp":25.8,"humidity":83,"rain":0.0,"pressure":994.2,"uv_index":7.9,"wind_gusts":29.9,"aqi":53,"pm10":25.8,"pm2_5":13.1,"mosquito_risk":7,"arthritis_risk":5,"migraine_risk":7,"frizz_risk":1,"updated_at":"2026-04-23T00:48:48.107903+05:30"},{"city":"Thane","state":"Maharashtra","latitude":19.2183,"longitude":72.9781,"temp":27.3,"humidity":79,"rain":0.0,"pressure":1006.8,"uv_index":8.05,"wind_gusts":38.9,"aqi":85,"pm10":35.7,"pm2_5":21.6,"mosquito_risk":7,"arthritis_risk":5,"migraine_risk":4,"frizz_risk":1,"updated_at":"2026-04-23T00:48:48.107909+05:30"},{"city":"Nagpur","state":"Maharashtra","latitude":21.1458,"longitude":79.0882,"temp":30.8,"humidity":38,"rain":0.0,"pressure":970.8,"uv_index":8.95,"wind_gusts":24.8,"aqi":79,"pm10":33.1,"pm2_5":28.8,"mosquito_risk":0,"arthritis_risk":5,"migraine_risk":7,"frizz_risk":0,"updated_at":"2026-04-23T00:48:48.107915+05:30"},{"city":"Nashik","state":"Maharashtra","latitude":19.9975,"longitude":73.7898,"temp":25.9,"humidity":56,"rain":0.0,"pressure":945.0,"uv_index":8.35,"wind_gusts":28.1,"aqi":114,"pm10":41.2,"pm2_5":32.9,"mosquito_risk":4,"arthritis_risk":5,"migraine_risk":7,"frizz_risk":1,"updated_at":"2026-04-23T00:48:48.107920+05:30"},{"city":"Aurangabad","state":"Maharashtra","latitude":19.8762,"longitude":75.3433,"temp":30.3,"humidity":35,"rain":0.0,"pressure":943.1,"uv_index":9.05,"wind_gusts":29.9,"aqi":87,"pm10":44.5,"pm2_5":36.9,"mosquito_risk":0,"arthritis_risk":5,"migraine_risk":7,"frizz_risk":0,"updated_at":"2026-04-23T00:48:48.107925+05:30"},{"city":"Solapur","state":"Maharashtra","latitude":17.6599,"longitude":75.9064,"temp":30.0,"humidity":55,"rain":0.0,"pressure":955.6,"uv_index":9.1,"wind_gusts":32.4,"aqi":114,"pm10":53.2,"pm2_5":47.1,"mosquito_risk":4,"arthritis_risk":5,"migraine_risk":7,"frizz_risk":1,"updated_at":"2026-04-23T00:48:48.107931+05:30"},{"city":"Kolhapur","state":"Maharashtra","latitude":16.705,"longitude":74.2433,"temp":24.4,"humidity":91,"rain":0.0,"pressure":946.7,"uv_index":8.8,"wind_gusts":43.9,"aqi":110,"pm10":59.8,"pm2_5":56.7,"mosquito_risk":3,"arthritis_risk":5,"migraine_risk":7,"frizz_risk":1,"updated_at":"2026-04-23T00:48:48.107937+05:30"},{"city":"Goa","state":"Goa","latitude":15.2993,"longitude":74.124,"temp":28.5,"humidity":85,"rain":0.0,"pressure":995.5,"uv_index":9.05,"wind_gusts":32.0,"aqi":83,"pm10":47.0,"pm2_5":33.9,"mosquito_risk":7,"arthritis_risk":5,"migraine_risk":7,"frizz_risk":1,"updated_at":"2026-04-23T00:48:48.107943+05:30"},{"city":"Jodhpur","state":"Rajasthan","latitude":26.2389,"longitude":73.0243,"temp":27.3,"humidity":36,"rain":0.0,"pressure":981.7,"uv_index":8.1,"wind_gusts":24.1,"aqi":92,"pm10":122.0,"pm2_5":20.0,"mosquito_risk":4,"arthritis_risk":5,"migraine_risk":7,"frizz_risk":0,"updated_at":"2026-04-23T00:48:48.107948+05:30"},{"city":"Udaipur","state":"Rajasthan","latitude":24.5854,"longitude":73.7125,"temp":25.6,"humidity":37,"rain":0.0,"pressure":946.5,"uv_index":8.8,"wind_gusts":28.1,"aqi":50,"pm10":17.6,"pm2_5":10.5,"mosquito_risk":4,"arthritis_risk":5,"migraine_risk":7,"frizz_risk":0,"updated_at":"2026-04-23T00:48:48.107953+05:30"},{"city":"Kota","state":"Rajasthan","latitude":25.2138,"longitude":75.8648,"temp":28.4,"humidity":28,"rain":0.0,"pressure":977.8,"uv_index":8.3,"wind_gusts":30.6,"aqi":49,"pm10":17.4,"pm2_5":16.0,"mosquito_risk":4,"arthritis_risk":5,"migraine_risk":7,"frizz_risk":0,"updated_at":"2026-04-23T00:48:48.107959+05:30"},{"city":"Bikaner","state":"Rajasthan","latitude":28.0229,"longitude":73.3119,"temp":31.3,"humidity":22,"rain":0.0,"pressure":979.2,"uv_index":8.0,"wind_gusts":24.5,"aqi":77,"pm10":49.5,"pm2_5":11.7,"mosquito_risk":0,"arthritis_risk":5,"migraine_risk":7,"frizz_risk":0,"updated_at":"2026-04-23T00:48:48.107964+05:30"},{"city":"Ajmer","state":"Rajasthan","latitude":26.4499,"longitude":74.6399,"temp":25.1,"humidity":28,"rain":0.0,"pressure":953.7,"uv_index":8.0,"wind_gusts":31.7,"aqi":52,"pm10":15.2,"pm2_5":8.2,"mosquito_risk":4,"arthritis_risk":5,"migraine_risk":7,"frizz_risk":0,"updated_at":"2026-04-23T00:48:48.107997+05:30"},{"city":"Gwalior","state":"Madhya Pradesh","latitude":26.2183,"longitude":78.1828,"temp":29.7,"humidity":30,"rain":0.0,"pressure":980.4,"uv_index":8.0,"wind_gusts":39.2,"aqi":60,"pm10":8.8,"pm2_5":6.4,"mosquito_risk":4,"arthritis_risk":5,"migraine_risk":7,"frizz_risk":0,"updated_at":"2026-04-23T00:48:48.108005+05:30"},{"city":"Indore","state":"Madhya Pradesh","latitude":22.7196,"longitude":75.8577,"temp":26.4,"humidity":43,"rain":0.0,"pressure":947.4,"uv_index":8.65,"wind_gusts":35.3,"aqi":58,"pm10":23.4,"pm2_5":21.7,"mosquito_risk":4,"arthritis_risk":5,"migraine_risk":7,"frizz_risk":0,"updated_at":"2026-04-23T00:48:48.108011+05:30"},{"city":"Bhopal","state":"Madhya Pradesh","latitude":23.2599,"longitude":77.4126,"temp":26.8,"humidity":37,"rain":0.0,"pressure":952.7,"uv_index":8.65,"wind_gusts":29.9,"aqi":55,"pm10":21.3,"pm2_5":19.8,"mosquito_risk":4,"arthritis_risk":5,"migraine_risk":7,"frizz_risk":0,"updated_at":"2026-04-23T00:48:48.108017+05:30"},{"city":"Jabalpur","state":"Madhya Pradesh","latitude":23.1815,"longitude":79.9864,"temp":29.2,"humidity":39,"rain":0.0,"pressure":959.4,"uv_index":8.8,"wind_gusts":22.7,"aqi":58,"pm10":20.0,"pm2_5":17.8,"mosquito_risk":4,"arthritis_risk":5,"migraine_risk":7,"frizz_risk":0,"updated_at":"2026-04-23T00:48:48.108023+05:30"},{"city":"Ujjain","state":"Madhya Pradesh","latitude":23.1765,"longitude":75.7885,"temp":27.4,"humidity":38,"rain":0.0,"pressure":953.2,"uv_index":8.6,"wind_gusts":34.6,"aqi":60,"pm10":23.8,"pm2_5":22.0,"mosquito_risk":4,"arthritis_risk":5,"migraine_risk":7,"frizz_risk":0,"updated_at":"2026-04-23T00:48:48.108029+05:30"},{"city":"Visakhapatnam","state":"Andhra Pradesh","latitude":17.6868,"longitude":83.2185,"temp":27.4,"humidity":88,"rain":0.0,"pressure":1001.4,"uv_index":9.2,"wind_gusts":36.7,"aqi":62,"pm10":20.3,"pm2_5":17.3,"mosquito_risk":7,"arthritis_risk":5,"migraine_risk":4,"frizz_risk":1,"updated_at":"2026-04-23T00:48:48.108036+05:30"},{"city":"Vijayawada","state":"Andhra Pradesh","latitude":16.5062,"longitude":80.648,"temp":27.3,"humidity":89,"rain":0.0,"pressure":1001.0,"uv_index":8.8,"wind_gusts":26.3,"aqi":57,"pm10":13.0,"pm2_5":10.9,"mosquito_risk":7,"arthritis_risk":5,"migraine_risk":4,"frizz_risk":1,"updated_at":"2026-04-23T00:48:48.108041+05:30"},{"city":"Guntur","state":"Andhra Pradesh","latitude":16.3067,"longitude":80.4365,"temp":27.4,"humidity":89,"rain":0.0,"pressure":1002.3,"uv_index":9.0,"wind_gusts":29.9,"aqi":60,"pm10":13.0,"pm2_5":10.9,"mosquito_risk":7,"arthritis_risk":5,"migraine_risk":4,"frizz_risk":1,"updated_at":"2026-04-23T00:48:48.108046+05:30"},{"city":"Nellore","state":"Andhra Pradesh","latitude":14.4426,"longitude":79.9865,"temp":26.9,"humidity":89,"rain":0.0,"pressure":1004.0,"uv_index":9.2,"wind_gusts":34.6,"aqi":46,"pm10":8.5,"pm2_5":6.7,"mosquito_risk":7,"arthritis_risk":5,"migraine_risk":4,"frizz_risk":1,"updated_at":"2026-04-23T00:48:48.108053+05:30"},{"city":"Kurnool","state":"Andhra Pradesh","latitude":15.8281,"longitude":78.0373,"temp":30.9,"humidity":54,"rain":0.0,"pressure":975.2,"uv_index":8.95,"wind_gusts":36.0,"aqi":114,"pm10":36.4,"pm2_5":32.8,"mosquito_risk":0,"arthritis_risk":5,"migraine_risk":7,"frizz_risk":1,"updated_at":"2026-04-23T00:48:48.108059+05:30"},{"city":"Kakinada","state":"Andhra Pradesh","latitude":16.9891,"longitude":82.2475,"temp":27.4,"humidity":89,"rain":0.0,"pressure":1005.5,"uv_index":9.25,"wind_gusts":31.3,"aqi":41,"pm10":13.7,"pm2_5":9.8,"mosquito_risk":7,"arthritis_risk":5,"migraine_risk":4,"frizz_risk":1,"updated_at":"2026-04-23T00:48:48.108065+05:30"},{"city":"Tirupati","state":"Andhra Pradesh","latitude":13.6288,"longitude":79.4192,"temp":27.1,"humidity":77,"rain":0.0,"pressure":990.7,"uv_index":8.95,"wind_gusts":33.1,"aqi":63,"pm10":23.1,"pm2_5":21.4,"mosquito_risk":7,"arthritis_risk":5,"migraine_risk":7,"frizz_risk":1,"updated_at":"2026-04-23T00:48:48.108070+05:30"},{"city":"Warangal","state":"Telangana","latitude":17.9689,"longitude":79.5941,"temp":30.8,"humidity":59,"rain":0.0,"pressure":976.8,"uv_index":8.7,"wind_gusts":17.3,"aqi":108,"pm10":41.7,"pm2_5":39.2,"mosquito_risk":0,"arthritis_risk":5,"migraine_risk":7,"frizz_risk":1,"updated_at":"2026-04-23T00:48:48.108075+05:30"},{"city":"Nizamabad","state":"Telangana","latitude":18.6725,"longitude":78.0941,"temp":30.0,"humidity":49,"rain":0.0,"pressure":963.3,"uv_index":7.4,"wind_gusts":34.2,"aqi":118,"pm10":57.7,"pm2_5":52.9,"mosquito_risk":4,"arthritis_risk":5,"migraine_risk":7,"frizz_risk":1,"updated_at":"2026-04-23T00:48:48.108080+05:30"},{"city":"Mysore","state":"Karnataka","latitude":12.2958,"longitude":76.6396,"temp":24.7,"humidity":85,"rain":0.0,"pressure":927.5,"uv_index":8.9,"wind_gusts":40.0,"aqi":75,"pm10":23.2,"pm2_5":21.7,"mosquito_risk":3,"arthritis_risk":5,"migraine_risk":7,"frizz_risk":1,"updated_at":"2026-04-23T00:48:48.108086+05:30"},{"city":"Mangalore","state":"Karnataka","latitude":12.9141,"longitude":74.856,"temp":30.1,"humidity":82,"rain":0.0,"pressure":1005.0,"uv_index":9.1,"wind_gusts":26.3,"aqi":81,"pm10":32.8,"pm2_5":23.3,"mosquito_risk":3,"arthritis_risk":5,"migraine_risk":4,"frizz_risk":1,"updated_at":"2026-04-23T00:48:48.108091+05:30"},{"city":"Hubli-Dharwad","state":"Karnataka","latitude":15.3647,"longitude":75.124,"temp":25.9,"humidity":78,"rain":0.0,"pressure":939.1,"uv_index":9.25,"wind_gusts":50.0,"aqi":103,"pm10":35.2,"pm2_5":31.3,"mosquito_risk":7,"arthritis_risk":5,"migraine_risk":7,"frizz_risk":1,"updated_at":"2026-04-23T00:48:48.108097+05:30"},{"city":"Belgaum","state":"Karnataka","latitude":15.8497,"longitude":74.4977,"temp":24.7,"humidity":81,"rain":0.0,"pressure":924.3,"uv_index":9.25,"wind_gusts":42.5,"aqi":99,"pm10":49.7,"pm2_5":43.9,"mosquito_risk":3,"arthritis_risk":5,"migraine_risk":7,"frizz_risk":1,"updated_at":"2026-04-23T00:48:51.422390+05:30"},{"city":"Coimbatore","state":"Tamil Nadu","latitude":11.0168,"longitude":76.9558,"temp":25.6,"humidity":88,"rain":0.0,"pressure":960.5,"uv_index":9.05,"wind_gusts":34.9,"aqi":72,"pm10":36.9,"pm2_5":35.3,"mosquito_risk":7,"arthritis_risk":5,"migraine_risk":7,"frizz_risk":1,"updated_at":"2026-04-23T00:48:51.422422+05:30"},{"city":"Madurai","state":"Tamil Nadu","latitude":9.9252,"longitude":78.1198,"temp":28.5,"humidity":80,"rain":0.0,"pressure":992.0,"uv_index":9.3,"wind_gusts":37.4,"aqi":54,"pm10":11.6,"pm2_5":10.9,"mosquito_risk":7,"arthritis_risk":5,"migraine_risk":7,"frizz_risk":1,"updated_at":"2026-04-23T00:48:51.422430+05:30"},{"city":"Trichy","state":"Tamil Nadu","latitude":10.7905,"longitude":78.7047,"temp":28.0,"humidity":86,"rain":0.0,"pressure":998.6,"uv_index":9.3,"wind_gusts":20.9,"aqi":56,"pm10":11.7,"pm2_5":10.8,"mosquito_risk":7,"arthritis_risk":5,"migraine_risk":7,"frizz_risk":1,"updated_at":"2026-04-23T00:48:51.422437+05:30"},{"city":"Salem","state":"Tamil Nadu","latitude":11.6643,"longitude":78.146,"temp":27.1,"humidity":68,"rain":0.0,"pressure":975.9,"uv_index":9.4,"wind_gusts":27.7,"aqi":62,"pm10":29.9,"pm2_5":28.9,"mosquito_risk":7,"arthritis_risk":5,"migraine_risk":7,"frizz_risk":1,"updated_at":"2026-04-23T00:48:51.422444+05:30"},{"city":"Tirunelveli","state":"Tamil Nadu","latitude":8.7139,"longitude":77.7567,"temp":27.3,"humidity":84,"rain":0.0,"pressure":1001.8,"uv_index":9.1,"wind_gusts":41.4,"aqi":66,"pm10":24.7,"pm2_5":23.3,"mosquito_risk":7,"arthritis_risk":5,"migraine_risk":4,"frizz_risk":1,"updated_at":"2026-04-23T00:48:51.422450+05:30"},{"city":"Vellore","state":"Tamil Nadu","latitude":12.9165,"longitude":79.1325,"temp":25.9,"humidity":78,"rain":0.0,"pressure":983.5,"uv_index":9.4,"wind_gusts":31.7,"aqi":75,"pm10":36.8,"pm2_5":35.7,"mosquito_risk":7,"arthritis_risk":5,"migraine_risk":7,"frizz_risk":1,"updated_at":"2026-04-23T00:48:51.422456+05:30"},{"city":"Erode","state":"Tamil Nadu","latitude":11.341,"longitude":77.7172,"temp":29.0,"humidity":67,"rain":0.0,"pressure":987.7,"uv_index":9.3,"wind_gusts":28.8,"aqi":54,"pm10":13.8,"pm2_5":13.1,"mosquito_risk":7,"arthritis_risk":5,"migraine_risk":7,"frizz_risk":1,"updated_at":"2026-04-23T00:48:51.422462+05:30"},{"city":"Kochi","state":"Kerala","latitude":9.9312,"longitude":76.2673,"temp":28.9,"humidity":83,"rain":0.0,"pressure":1007.1,"uv_index":8.9,"wind_gusts":33.5,"aqi":73,"pm10":39.1,"pm2_5":36.9,"mosquito_risk":7,"arthritis_risk":5,"migraine_risk":4,"frizz_risk":1,"updated_at":"2026-04-23T00:48:51.422468+05:30"},{"city":"Thiruvananthapuram","state":"Kerala","latitude":8.5241,"longitude":76.9366,"temp":28.8,"humidity":84,"rain":0.0,"pressure":1006.2,"uv_index":8.95,"wind_gusts":23.4,"aqi":73,"pm10":19.6,"pm2_5":15.0,"mosquito_risk":7,"arthritis_risk":5,"migraine_risk":4,"frizz_risk":1,"updated_at":"2026-04-23T00:48:51.422474+05:30"},{"city":"Kozhikode","state":"Kerala","latitude":11.2588,"longitude":75.7804,"temp":29.7,"humidity":85,"rain":0.0,"pressure":1006.1,"uv_index":8.9,"wind_gusts":30.2,"aqi":68,"pm10":27.8,"pm2_5":22.4,"mosquito_risk":7,"arthritis_risk":5,"migraine_risk":4,"frizz_risk":1,"updated_at":"2026-04-23T00:48:51.422479+05:30"},{"city":"Thrissur","state":"Kerala","latitude":10.5276,"longitude":76.2144,"temp":28.3,"humidity":86,"rain":0.0,"pressure":1005.5,"uv_index":8.95,"wind_gusts":39.6,"aqi":70,"pm10":40.7,"pm2_5":37.0,"mosquito_risk":7,"arthritis_risk":5,"migraine_risk":4,"frizz_risk":1,"updated_at":"2026-04-23T00:48:51.422485+05:30"},{"city":"Kannur","state":"Kerala","latitude":11.8745,"longitude":75.3704,"temp":29.4,"humidity":82,"rain":0.0,"pressure":1005.5,"uv_index":8.9,"wind_gusts":31.7,"aqi":80,"pm10":31.2,"pm2_5":26.5,"mosquito_risk":7,"arthritis_risk":5,"migraine_risk":4,"frizz_risk":1,"updated_at":"2026-04-23T00:48:51.422491+05:30"},{"city":"Patna","state":"Bihar","latitude":25.5941,"longitude":85.1376,"temp":28.3,"humidity":56,"rain":0.0,"pressure":996.9,"uv_index":8.65,"wind_gusts":19.4,"aqi":125,"pm10":155.5,"pm2_5":76.8,"mosquito_risk":4,"arthritis_risk":5,"migraine_risk":7,"frizz_risk":1,"updated_at":"2026-04-23T00:48:51.422496+05:30"},{"city":"Gaya","state":"Bihar","latitude":24.7914,"longitude":85.0002,"temp":30.0,"humidity":41,"rain":0.0,"pressure":990.6,"uv_index":8.75,"wind_gusts":24.8,"aqi":112,"pm10":115.7,"pm2_5":43.9,"mosquito_risk":4,"arthritis_risk":5,"migraine_risk":7,"frizz_risk":0,"updated_at":"2026-04-23T00:48:51.422500+05:30"},{"city":"Muzaffarpur","state":"Bihar","latitude":26.1209,"longitude":85.3647,"temp":26.0,"humidity":63,"rain":0.0,"pressure":996.9,"uv_index":8.6,"wind_gusts":24.1,"aqi":130,"pm10":138.8,"pm2_5":75.7,"mosquito_risk":7,"arthritis_risk":5,"migraine_risk":7,"frizz_risk":1,"updated_at":"2026-04-23T00:48:51.422505+05:30"},{"city":"Bhagalpur","state":"Bihar","latitude":25.2425,"longitude":87.0117,"temp":27.5,"humidity":62,"rain":0.0,"pressure":997.7,"uv_index":8.65,"wind_gusts":15.1,"aqi":111,"pm10":165.8,"pm2_5":58.8,"mosquito_risk":7,"arthritis_risk":5,"migraine_risk":7,"frizz_risk":1,"updated_at":"2026-04-23T00:48:51.422510+05:30"},{"city":"Ranchi","state":"Jharkhand","latitude":23.3441,"longitude":85.3096,"temp":26.4,"humidity":33,"rain":0.0,"pressure":935.7,"uv_index":8.75,"wind_gusts":34.6,"aqi":89,"pm10":106.6,"pm2_5":37.6,"mosquito_risk":4,"arthritis_risk":5,"migraine_risk":7,"frizz_risk":0,"updated_at":"2026-04-23T00:48:51.422515+05:30"},{"city":"Jamshedpur","state":"Jharkhand","latitude":22.8046,"longitude":86.2029,"temp":29.6,"humidity":70,"rain":0.0,"pressure":987.8,"uv_index":9.0,"wind_gusts":22.0,"aqi":137,"pm10":118.5,"pm2_5":44.1,"mosquito_risk":7,"arthritis_risk":5,"migraine_risk":7,"frizz_risk":1,"updated_at":"2026-04-23T00:48:51.422520+05:30"},{"city":"Dhanbad","state":"Jharkhand","latitude":23.7957,"longitude":86.4304,"temp":30.2,"humidity":59,"rain":0.0,"pressure":977.1,"uv_index":8.7,"wind_gusts":36.0,"aqi":153,"pm10":201.6,"pm2_5":108.0,"mosquito_risk":0,"arthritis_risk":5,"migraine_risk":7,"frizz_risk":1,"updated_at":"2026-04-23T00:48:51.422525+05:30"},{"city":"Bokaro","state":"Jharkhand","latitude":23.6693,"longitude":86.1511,"temp":29.1,"humidity":42,"rain":0.0,"pressure":981.3,"uv_index":8.45,"wind_gusts":34.6,"aqi":150,"pm10":183.9,"pm2_5":88.2,"mosquito_risk":4,"arthritis_risk":5,"migraine_risk":7,"frizz_risk":0,"updated_at":"2026-04-23T00:48:51.422531+05:30"},{"city":"Bhubaneswar","state":"Odisha","latitude":20.2961,"longitude":85.8245,"temp":26.9,"humidity":91,"rain":0.0,"pressure":999.4,"uv_index":9.2,"wind_gusts":32.4,"aqi":87,"pm10":23.0,"pm2_5":20.5,"mosquito_risk":7,"arthritis_risk":5,"migraine_risk":7,"frizz_risk":1,"updated_at":"2026-04-23T00:48:51.422536+05:30"},{"city":"Cuttack","state":"Odisha","latitude":20.4625,"longitude":85.8828,"temp":27.8,"humidity":87,"rain":0.0,"pressure":1001.2,"uv_index":9.2,"wind_gusts":26.6,"aqi":87,"pm10":23.0,"pm2_5":20.5,"mosquito_risk":7,"arthritis_risk":5,"migraine_risk":4,"frizz_risk":1,"updated_at":"2026-04-23T00:48:51.422541+05:30"},{"city":"Rourkela","state":"Odisha","latitude":22.2604,"longitude":84.8536,"temp":29.2,"humidity":51,"rain":0.0,"pressure":981.6,"uv_index":8.55,"wind_gusts":20.9,"aqi":105,"pm10":86.6,"pm2_5":53.2,"mosquito_risk":4,"arthritis_risk":5,"migraine_risk":7,"frizz_risk":1,"updated_at":"2026-04-23T00:48:51.422545+05:30"},{"city":"Raipur","state":"Chhattisgarh","latitude":21.2514,"longitude":81.6296,"temp":31.5,"humidity":35,"rain":0.0,"pressure":972.0,"uv_index":8.05,"wind_gusts":25.9,"aqi":110,"pm10":49.5,"pm2_5":43.5,"mosquito_risk":0,"arthritis_risk":5,"migraine_risk":7,"frizz_risk":0,"updated_at":"2026-04-23T00:48:51.422550+05:30"},{"city":"Bhilai","state":"Chhattisgarh","latitude":21.1938,"longitude":81.3509,"temp":31.0,"humidity":40,"rain":0.0,"pressure":972.2,"uv_index":8.45,"wind_gusts":23.4,"aqi":102,"pm10":52.5,"pm2_5":45.1,"mosquito_risk":0,"arthritis_risk":5,"migraine_risk":7,"frizz_risk":0,"updated_at":"2026-04-23T00:48:51.422554+05:30"},{"city":"Guwahati","state":"Assam","latitude":26.1158,"longitude":91.7086,"temp":24.6,"humidity":93,"rain":0.0,"pressure":999.8,"uv_index":8.6,"wind_gusts":19.1,"aqi":104,"pm10":44.4,"pm2_5":32.4,"mosquito_risk":3,"arthritis_risk":5,"migraine_risk":7,"frizz_risk":1,"updated_at":"2026-04-23T00:48:51.422559+05:30"},{"city":"Agartala","state":"Tripura","latitude":23.8315,"longitude":91.2868,"temp":26.9,"humidity":93,"rain":0.0,"pressure":1004.2,"uv_index":8.25,"wind_gusts":19.8,"aqi":80,"pm10":22.7,"pm2_5":20.5,"mosquito_risk":7,"arthritis_risk":5,"migraine_risk":4,"frizz_risk":1,"updated_at":"2026-04-23T00:48:51.422564+05:30"},{"city":"Shillong","state":"Meghalaya","latitude":25.5788,"longitude":91.8933,"temp":15.3,"humidity":78,"rain":0.0,"pressure":854.6,"uv_index":8.95,"wind_gusts":38.2,"aqi":62,"pm10":57.9,"pm2_5":28.2,"mosquito_risk":3,"arthritis_risk":5,"migraine_risk":7,"frizz_risk":0,"updated_at":"2026-04-23T00:48:51.422569+05:30"},{"city":"Imphal","state":"Manipur","latitude":24.817,"longitude":93.9368,"temp":20.9,"humidity":84,"rain":0.0,"pressure":922.2,"uv_index":8.9,"wind_gusts":56.9,"aqi":119,"pm10":54.6,"pm2_5":35.3,"mosquito_risk":3,"arthritis_risk":5,"migraine_risk":7,"frizz_risk":1,"updated_at":"2026-04-23T00:48:51.422574+05:30"},{"city":"Aizawl","state":"Mizoram","latitude":23.7271,"longitude":92.7176,"temp":20.8,"humidity":88,"rain":0.0,"pressure":891.5,"uv_index":9.05,"wind_gusts":35.6,"aqi":95,"pm10":48.3,"pm2_5":32.1,"mosquito_risk":3,"arthritis_risk":5,"migraine_risk":7,"frizz_risk":1,"updated_at":"2026-04-23T00:48:51.422579+05:30"},{"city":"Kohima","state":"Nagaland","latitude":25.6701,"longitude":94.1077,"temp":16.7,"humidity":80,"rain":0.0,"pressure":853.9,"uv_index":9.1,"wind_gusts":51.8,"aqi":91,"pm10":30.7,"pm2_5":13.3,"mosquito_risk":3,"arthritis_risk":5,"migraine_risk":7,"frizz_risk":0,"updated_at":"2026-04-23T00:48:51.422583+05:30"},{"city":"Gangtok","state":"Sikkim","latitude":27.3314,"longitude":88.6138,"temp":16.2,"humidity":85,"rain":0.0,"pressure":836.7,"uv_index":8.9,"wind_gusts":21.6,"aqi":84,"pm10":55.4,"pm2_5":35.7,"mosquito_risk":3,"arthritis_risk":10,"migraine_risk":7,"frizz_risk":0,"updated_at":"2026-04-23T00:48:51.422589+05:30"},{"city":"Siliguri","state":"West Bengal","latitude":26.7271,"longitude":88.3953,"temp":23.3,"humidity":72,"rain":0.0,"pressure":992.5,"uv_index":8.55,"wind_gusts":22.0,"aqi":126,"pm10":99.7,"pm2_5":68.0,"mosquito_risk":3,"arthritis_risk":5,"migraine_risk":7,"frizz_risk":1,"updated_at":"2026-04-23T00:48:54.743788+05:30"},{"city":"Durgapur","state":"West Bengal","latitude":23.5204,"longitude":87.3119,"temp":29.4,"humidity":73,"rain":0.0,"pressure":992.5,"uv_index":8.9,"wind_gusts":31.7,"aqi":158,"pm10":131.3,"pm2_5":71.7,"mosquito_risk":7,"arthritis_risk":5,"migraine_risk":7,"frizz_risk":1,"updated_at":"2026-04-23T00:48:54.743820+05:30"},{"city":"Asansol","state":"West Bengal","latitude":23.6739,"longitude":86.9524,"temp":30.2,"humidity":74,"rain":0.0,"pressure":990.9,"uv_index":8.95,"wind_gusts":33.8,"aqi":150,"pm10":144.4,"pm2_5":69.8,"mosquito_risk":3,"arthritis_risk":5,"migraine_risk":7,"frizz_risk":1,"updated_at":"2026-04-23T00:48:54.743829+05:30"},{"city":"Pondicherry","state":"Puducherry","latitude":11.9139,"longitude":79.8145,"temp":27.0,"humidity":93,"rain":0.0,"pressure":1007.2,"uv_index":8.95,"wind_gusts":31.0,"aqi":25,"pm10":7.1,"pm2_5":4.5,"mosquito_risk":7,"arthritis_risk":5,"migraine_risk":4,"frizz_risk":1,"updated_at":"2026-04-23T00:48:54.743836+05:30"},{"city":"Port Blair","state":"Andaman and Nicobar Islands","latitude":11.6234,"longitude":92.7265,"temp":30.0,"humidity":69,"rain":0.0,"pressure":1004.8,"uv_index":9.15,"wind_gusts":20.9,"aqi":34,"pm10":15.5,"pm2_5":10.4,"mosquito_risk":7,"arthritis_risk":5,"migraine_risk":4,"frizz_risk":1,"updated_at":"2026-04-23T00:48:54.743843+05:30"},{"city":"Haridwar","state":"Uttarakhand","latitude":29.9457,"longitude":78.1642,"temp":23.3,"humidity":59,"rain":0.0,"pressure":971.0,"uv_index":7.2,"wind_gusts":37.4,"aqi":71,"pm10":37.7,"pm2_5":30.0,"mosquito_risk":0,"arthritis_risk":5,"migraine_risk":7,"frizz_risk":0,"updated_at":"2026-04-23T00:48:54.743850+05:30"},{"city":"Rishikesh","state":"Uttarakhand","latitude":30.0869,"longitude":78.2676,"temp":23.8,"humidity":55,"rain":0.0,"pressure":964.2,"uv_index":7.3,"wind_gusts":36.7,"aqi":109,"pm10":37.3,"pm2_5":23.5,"mosquito_risk":0,"arthritis_risk":5,"migraine_risk":7,"frizz_risk":0,"updated_at":"2026-04-23T00:48:54.743856+05:30"},{"city":"Nainital","state":"Uttarakhand","latitude":29.3919,"longitude":79.4542,"temp":23.2,"humidity":36,"rain":0.0,"pressure":806.4,"uv_index":8.15,"wind_gusts":50.8,"aqi":108,"pm10":27.4,"pm2_5":18.5,"mosquito_risk":0,"arthritis_risk":5,"migraine_risk":7,"frizz_risk":0,"updated_at":"2026-04-23T00:48:54.743863+05:30"},{"city":"Mussoorie","state":"Uttarakhand","latitude":30.4599,"longitude":78.0664,"temp":20.9,"humidity":43,"rain":0.0,"pressure":803.1,"uv_index":7.7,"wind_gusts":40.0,"aqi":82,"pm10":36.9,"pm2_5":30.5,"mosquito_risk":0,"arthritis_risk":5,"migraine_risk":7,"frizz_risk":0,"updated_at":"2026-04-23T00:48:54.743868+05:30"},{"city":"Dharamshala","state":"Himachal Pradesh","latitude":32.219,"longitude":76.3234,"temp":24.4,"humidity":48,"rain":0.0,"pressure":869.2,"uv_index":8.05,"wind_gusts":32.0,"aqi":90,"pm10":23.2,"pm2_5":15.4,"mosquito_risk":0,"arthritis_risk":5,"migraine_risk":7,"frizz_risk":0,"updated_at":"2026-04-23T00:48:54.743874+05:30"},{"city":"Dalhousie","state":"Himachal Pradesh","latitude":32.5387,"longitude":75.971,"temp":21.0,"humidity":48,"rain":0.0,"pressure":804.3,"uv_index":8.35,"wind_gusts":36.7,"aqi":71,"pm10":31.3,"pm2_5":26.7,"mosquito_risk":0,"arthritis_risk":5,"migraine_risk":7,"frizz_risk":0,"updated_at":"2026-04-23T00:48:54.743880+05:30"},{"city":"Patiala","state":"Punjab","latitude":30.3398,"longitude":76.3869,"temp":27.1,"humidity":47,"rain":0.0,"pressure":975.3,"uv_index":7.3,"wind_gusts":20.2,"aqi":192,"pm10":392.1,"pm2_5":68.5,"mosquito_risk":4,"arthritis_risk":5,"migraine_risk":7,"frizz_risk":0,"updated_at":"2026-04-23T00:48:54.743886+05:30"},{"city":"Bhatinda","state":"Punjab","latitude":30.211,"longitude":74.9455,"temp":28.6,"humidity":38,"rain":0.0,"pressure":980.5,"uv_index":8.0,"wind_gusts":24.8,"aqi":77,"pm10":45.2,"pm2_5":29.0,"mosquito_risk":4,"arthritis_risk":5,"migraine_risk":7,"frizz_risk":0,"updated_at":"2026-04-23T00:48:54.743892+05:30"},{"city":"Rohtak","state":"Haryana","latitude":28.8955,"longitude":76.6066,"temp":25.8,"humidity":45,"rain":0.0,"pressure":978.1,"uv_index":7.4,"wind_gusts":26.6,"aqi":462,"pm10":596.0,"pm2_5":105.0,"mosquito_risk":4,"arthritis_risk":5,"migraine_risk":7,"frizz_risk":0,"updated_at":"2026-04-23T00:48:54.743897+05:30"},{"city":"Panipat","state":"Haryana","latitude":29.3909,"longitude":76.9635,"temp":25.0,"humidity":49,"rain":0.0,"pressure":977.0,"uv_index":7.25,"wind_gusts":24.5,"aqi":805,"pm10":901.5,"pm2_5":121.1,"mosquito_risk":4,"arthritis_risk":5,"migraine_risk":7,"frizz_risk":0,"updated_at":"2026-04-23T00:48:54.743903+05:30"},{"city":"Mathura","state":"Uttar Pradesh","latitude":27.4924,"longitude":77.6737,"temp":26.4,"humidity":46,"rain":0.0,"pressure":983.7,"uv_index":7.7,"wind_gusts":28.1,"aqi":678,"pm10":491.7,"pm2_5":91.3,"mosquito_risk":4,"arthritis_risk":5,"migraine_risk":7,"frizz_risk":0,"updated_at":"2026-04-23T00:48:54.743908+05:30"},{"city":"Vrindavan","state":"Uttar Pradesh","latitude":27.5823,"longitude":77.7027,"temp":28.1,"humidity":41,"rain":0.0,"pressure":984.0,"uv_index":7.65,"wind_gusts":29.5,"aqi":678,"pm10":491.7,"pm2_5":91.3,"mosquito_risk":4,"arthritis_risk":5,"migraine_risk":7,"frizz_risk":0,"updated_at":"2026-04-23T00:48:54.743913+05:30"},{"city":"Ayodhya","state":"Uttar Pradesh","latitude":26.7922,"longitude":82.1998,"temp":27.4,"humidity":37,"rain":0.0,"pressure":991.5,"uv_index":8.05,"wind_gusts":32.4,"aqi":148,"pm10":238.4,"pm2_5":53.4,"mosquito_risk":4,"arthritis_risk":5,"migraine_risk":7,"frizz_risk":0,"updated_at":"2026-04-23T00:48:54.743918+05:30"},{"city":"Ratlam","state":"Madhya Pradesh","latitude":23.3315,"longitude":75.0367,"temp":28.5,"humidity":36,"rain":0.0,"pressure":954.1,"uv_index":8.5,"wind_gusts":31.3,"aqi":68,"pm10":22.9,"pm2_5":20.6,"mosquito_risk":4,"arthritis_risk":5,"migraine_risk":7,"frizz_risk":0,"updated_at":"2026-04-23T00:48:54.743924+05:30"},{"city":"Sagar","state":"Madhya Pradesh","latitude":23.8388,"longitude":78.7378,"temp":30.2,"humidity":32,"rain":0.0,"pressure":949.2,"uv_index":8.65,"wind_gusts":31.7,"aqi":66,"pm10":15.0,"pm2_5":14.0,"mosquito_risk":0,"arthritis_risk":5,"migraine_risk":7,"frizz_risk":0,"updated_at":"2026-04-23T00:48:54.743929+05:30"},{"city":"Satna","state":"Madhya Pradesh","latitude":24.6005,"longitude":80.8322,"temp":30.8,"humidity":30,"rain":0.0,"pressure":969.5,"uv_index":8.65,"wind_gusts":33.1,"aqi":64,"pm10":22.8,"pm2_5":11.4,"mosquito_risk":0,"arthritis_risk":5,"migraine_risk":7,"frizz_risk":0,"updated_at":"2026-04-23T00:48:54.743934+05:30"},{"city":"Akola","state":"Maharashtra","latitude":20.7002,"longitude":77.0082,"temp":30.4,"humidity":43,"rain":0.0,"pressure":973.0,"uv_index":8.9,"wind_gusts":24.5,"aqi":78,"pm10":35.7,"pm2_5":30.4,"mosquito_risk":0,"arthritis_risk":5,"migraine_risk":7,"frizz_risk":1,"updated_at":"2026-04-23T00:48:54.743939+05:30"},{"city":"Amravati","state":"Maharashtra","latitude":20.9374,"longitude":77.7796,"temp":29.0,"humidity":43,"rain":0.0,"pressure":965.4,"uv_index":8.9,"wind_gusts":23.0,"aqi":82,"pm10":40.4,"pm2_5":35.6,"mosquito_risk":4,"arthritis_risk":5,"migraine_risk":7,"frizz_risk":0,"updated_at":"2026-04-23T00:48:54.743944+05:30"},{"city":"Latur","state":"Maharashtra","latitude":18.4088,"longitude":76.5604,"temp":26.1,"humidity":65,"rain":0.0,"pressure":938.4,"uv_index":9.1,"wind_gusts":44.3,"aqi":114,"pm10":54.5,"pm2_5":49.5,"mosquito_risk":7,"arthritis_risk":5,"migraine_risk":7,"frizz_risk":1,"updated_at":"2026-04-23T00:48:54.743949+05:30"},{"city":"Nanded","state":"Maharashtra","latitude":19.1383,"longitude":77.3091,"temp":30.3,"humidity":51,"rain":0.0,"pressure":966.9,"uv_index":9.0,"wind_gusts":31.3,"aqi":107,"pm10":63.6,"pm2_5":58.7,"mosquito_risk":0,"arthritis_risk":5,"migraine_risk":7,"frizz_risk":1,"updated_at":"2026-04-23T00:48:54.743954+05:30"},{"city":"Gulbarga","state":"Karnataka","latitude":17.3297,"longitude":76.8343,"temp":29.4,"humidity":57,"rain":0.0,"pressure":957.6,"uv_index":9.15,"wind_gusts":31.3,"aqi":99,"pm10":40.4,"pm2_5":37.1,"mosquito_risk":4,"arthritis_risk":5,"migraine_risk":7,"frizz_risk":1,"updated_at":"2026-04-23T00:48:54.743959+05:30"},{"city":"Bidar","state":"Karnataka","latitude":17.9104,"longitude":77.5199,"temp":27.2,"humidity":58,"rain":0.0,"pressure":934.8,"uv_index":8.4,"wind_gusts":34.6,"aqi":111,"pm10":46.4,"pm2_5":43.1,"mosquito_risk":4,"arthritis_risk":5,"migraine_risk":7,"frizz_risk":1,"updated_at":"2026-04-23T00:48:54.743964+05:30"},{"city":"Hospet","state":"Karnataka","latitude":15.2689,"longitude":76.3909,"temp":29.1,"humidity":59,"rain":0.0,"pressure":954.0,"uv_index":9.15,"wind_gusts":27.4,"aqi":120,"pm10":40.4,"pm2_5":36.7,"mosquito_risk":4,"arthritis_risk":5,"migraine_risk":7,"frizz_risk":1,"updated_at":"2026-04-23T00:48:54.743983+05:30"},{"city":"Tirupur","state":"Tamil Nadu","latitude":11.1085,"longitude":77.3411,"temp":28.2,"humidity":76,"rain":0.0,"pressure":974.0,"uv_index":9.4,"wind_gusts":32.4,"aqi":63,"pm10":21.8,"pm2_5":20.7,"mosquito_risk":7,"arthritis_risk":5,"migraine_risk":7,"frizz_risk":1,"updated_at":"2026-04-23T00:48:54.743988+05:30"},{"city":"Alappuzha","state":"Kerala","latitude":9.4981,"longitude":76.3388,"temp":28.4,"humidity":85,"rain":0.0,"pressure":1007.3,"uv_index":8.6,"wind_gusts":28.8,"aqi":71,"pm10":36.6,"pm2_5":31.0,"mosquito_risk":7,"arthritis_risk":5,"migraine_risk":4,"frizz_risk":1,"updated_at":"2026-04-23T00:48:54.743993+05:30"},{"city":"Munnar","state":"Kerala","latitude":10.0889,"longitude":77.0595,"temp":21.8,"humidity":90,"rain":0.0,"pressure":855.9,"uv_index":9.65,"wind_gusts":27.7,"aqi":71,"pm10":29.6,"pm2_5":28.1,"mosquito_risk":3,"arthritis_risk":5,"migraine_risk":7,"frizz_risk":1,"updated_at":"2026-04-23T00:48:54.744000+05:30"},{"city":"Silchar","state":"Assam","latitude":24.8333,"longitude":92.7789,"temp":25.7,"humidity":90,"rain":0.0,"pressure":1003.2,"uv_index":8.8,"wind_gusts":23.0,"aqi":129,"pm10":61.7,"pm2_5":41.8,"mosquito_risk":7,"arthritis_risk":5,"migraine_risk":4,"frizz_risk":1,"updated_at":"2026-04-23T00:48:54.744005+05:30"},{"city":"Dibrugarh","state":"Assam","latitude":27.4728,"longitude":94.912,"temp":22.9,"humidity":93,"rain":0.0,"pressure":995.2,"uv_index":8.65,"wind_gusts":10.4,"aqi":63,"pm10":34.3,"pm2_5":31.8,"mosquito_risk":3,"arthritis_risk":5,"migraine_risk":7,"frizz_risk":1,"updated_at":"2026-04-23T00:48:54.744009+05:30"}]