[{"city":"Delhi","state":"Delhi","latitude":28.6139,"longitude":77.209,"temp":24.2,"humidity":57,"rain":0.0,"pressure":982.2,"uv_index":5.95,"wind_gusts":19.1,"aqi":135,"pm10":177.4,"pm2_5":62.2,"mosquito_risk":0,"arthritis_risk":5,"migraine_risk":3,"frizz_risk":0,"updated_at":"2026-03-28T01:16:49.061180+05:30"},{"city":"Mumbai","state":"Maharashtra","latitude":19.076,"longitude":72.8777,"temp":28.3,"humidity":79,"rain":0.0,"pressure":1008.1,"uv_index":8.0,"wind_gusts":23.4,"aqi":103,"pm10":30.4,"pm2_5":20.8,"mosquito_risk":7,"arthritis_risk":0,"migraine_risk":4,"frizz_risk":1,"updated_at":"2026-03-28T01:16:49.061223+05:30"},{"city":"Bangalore","state":"Karnataka","latitude":12.9716,"longitude":77.5946,"temp":23.5,"humidity":60,"rain":0.0,"pressure":911.6,"uv_index":9.55,"wind_gusts":39.2,"aqi":73,"pm10":34.9,"pm2_5":29.7,"mosquito_risk":0,"arthritis_risk":5,"migraine_risk":7,"frizz_risk":0,"updated_at":"2026-03-28T01:16:49.061239+05:30"},{"city":"Hyderabad","state":"Telangana","latitude":17.385,"longitude":78.4867,"temp":25.2,"humidity":64,"rain":0.0,"pressure":952.6,"uv_index":9.0,"wind_gusts":24.1,"aqi":90,"pm10":56.3,"pm2_5":50.4,"mosquito_risk":7,"arthritis_risk":5,"migraine_risk":7,"frizz_risk":1,"updated_at":"2026-03-28T01:16:49.061249+05:30"},{"city":"Chennai","state":"Tamil Nadu","latitude":13.0827,"longitude":80.2707,"temp":25.3,"humidity":90,"rain":0.0,"pressure":1007.1,"uv_index":9.3,"wind_gusts":34.9,"aqi":67,"pm10":26.5,"pm2_5":16.9,"mosquito_risk":7,"arthritis_risk":5,"migraine_risk":4,"frizz_risk":1,"updated_at":"2026-03-28T01:16:49.061257+05:30"},{"city":"Kolkata","state":"West Bengal","latitude":22.5726,"longitude":88.3639,"temp":26.3,"humidity":91,"rain":0.0,"pressure":1004.2,"uv_index":8.4,"wind_gusts":39.2,"aqi":100,"pm10":34.5,"pm2_5":30.7,"mosquito_risk":7,"arthritis_risk":5,"migraine_risk":4,"frizz_risk":1,"updated_at":"2026-03-28T01:16:49.061266+05:30"},{"city":"Pune","state":"Maharashtra","latitude":18.5204,"longitude":73.8567,"temp":24.6,"humidity":61,"rain":0.0,"pressure":948.3,"uv_index":8.55,"wind_gusts":42.1,"aqi":105,"pm10":42.5,"pm2_5":36.4,"mosquito_risk":3,"arthritis_risk":5,"migraine_risk":7,"frizz_risk":1,"updated_at":"2026-03-28T01:16:49.061278+05:30"},{"city":"Ahmedabad","state":"Gujarat","latitude":23.0225,"longitude":72.5714,"temp":26.1,"humidity":62,"rain":0.0,"pressure":1001.9,"uv_index":7.95,"wind_gusts":29.9,"aqi":62,"pm10":25.8,"pm2_5":18.3,"mosquito_risk":7,"arthritis_risk":5,"migraine_risk":4,"frizz_risk":1,"updated_at":"2026-03-28T01:16:49.061285+05:30"},{"city":"Jaipur","state":"Rajasthan","latitude":26.9124,"longitude":75.7873,"temp":25.5,"humidity":44,"rain":0.0,"pressure":959.1,"uv_index":7.2,"wind_gusts":33.8,"aqi":117,"pm10":80.8,"pm2_5":30.4,"mosquito_risk":4,"arthritis_risk":5,"migraine_risk":7,"frizz_risk":0,"updated_at":"2026-03-28T01:16:49.061292+05:30"},{"city":"Lucknow","state":"Uttar Pradesh","latitude":26.8467,"longitude":80.9462,"temp":22.2,"humidity":71,"rain":0.0,"pressure":993.1,"uv_index":6.85,"wind_gusts":31.3,"aqi":95,"pm10":159.3,"pm2_5":52.5,"mosquito_risk":3,"arthritis_risk":5,"migraine_risk":7,"frizz_risk":1,"updated_at":"2026-03-28T01:16:49.061300+05:30"},{"city":"Kanpur","state":"Uttar Pradesh","latitude":26.4499,"longitude":80.3319,"temp":22.0,"humidity":75,"rain":0.0,"pressure":991.1,"uv_index":6.85,"wind_gusts":29.2,"aqi":136,"pm10":250.5,"pm2_5":67.1,"mosquito_risk":3,"arthritis_risk":5,"migraine_risk":7,"frizz_risk":1,"updated_at":"2026-03-28T01:16:49.061306+05:30"},{"city":"Chandigarh","state":"Chandigarh","latitude":30.7333,"longitude":76.7794,"temp":20.4,"humidity":72,"rain":0.0,"pressure":967.6,"uv_index":5.45,"wind_gusts":19.8,"aqi":79,"pm10":51.0,"pm2_5":41.9,"mosquito_risk":3,"arthritis_risk":5,"migraine_risk":3,"frizz_risk":0,"updated_at":"2026-03-28T01:16:49.061314+05:30"},{"city":"Srinagar","state":"Jammu and Kashmir","latitude":34.0837,"longitude":74.7973,"temp":7.6,"humidity":82,"rain":0.0,"pressure":835.2,"uv_index":6.15,"wind_gusts":17.3,"aqi":100,"pm10":62.2,"pm2_5":52.2,"mosquito_risk":3,"arthritis_risk":10,"migraine_risk":7,"frizz_risk":0,"updated_at":"2026-03-28T01:16:49.061321+05:30"},{"city":"Jammu","state":"Jammu and Kashmir","latitude":32.7266,"longitude":74.857,"temp":20.3,"humidity":84,"rain":0.0,"pressure":971.3,"uv_index":6.0,"wind_gusts":14.8,"aqi":83,"pm10":42.6,"pm2_5":37.6,"mosquito_risk":3,"arthritis_risk":5,"migraine_risk":3,"frizz_risk":1,"updated_at":"2026-03-28T01:16:49.061329+05:30"},{"city":"Amritsar","state":"Punjab","latitude":31.634,"longitude":74.8723,"temp":20.3,"humidity":70,"rain":0.0,"pressure":979.5,"uv_index":5.55,"wind_gusts":13.7,"aqi":89,"pm10":64.7,"pm2_5":56.3,"mosquito_risk":3,"arthritis_risk":5,"migraine_risk":3,"frizz_risk":0,"updated_at":"2026-03-28T01:16:49.061335+05:30"},{"city":"Ludhiana","state":"Punjab","latitude":30.901,"longitude":75.8573,"temp":20.9,"humidity":69,"rain":0.0,"pressure":977.8,"uv_index":6.25,"wind_gusts":17.3,"aqi":91,"pm10":94.1,"pm2_5":52.4,"mosquito_risk":3,"arthritis_risk":5,"migraine_risk":7,"frizz_risk":0,"updated_at":"2026-03-28T01:16:49.061342+05:30"},{"city":"Jalandhar","state":"Punjab","latitude":31.326,"longitude":75.5762,"temp":21.0,"humidity":68,"rain":0.0,"pressure":979.0,"uv_index":5.4,"wind_gusts":10.4,"aqi":91,"pm10":82.0,"pm2_5":57.7,"mosquito_risk":3,"arthritis_risk":5,"migraine_risk":3,"frizz_risk":0,"updated_at":"2026-03-28T01:16:49.061351+05:30"},{"city":"Dehradun","state":"Uttarakhand","latitude":30.6284,"longitude":78.0322,"temp":11.7,"humidity":89,"rain":0.0,"pressure":826.6,"uv_index":5.8,"wind_gusts":23.4,"aqi":54,"pm10":33.5,"pm2_5":22.8,"mosquito_risk":3,"arthritis_risk":10,"migraine_risk":3,"frizz_risk":0,"updated_at":"2026-03-28T01:16:49.061358+05:30"},{"city":"Shimla","state":"Himachal Pradesh","latitude":31.1048,"longitude":77.1734,"temp":10.3,"humidity":80,"rain":0.0,"pressure":780.6,"uv_index":5.65,"wind_gusts":30.6,"aqi":63,"pm10":37.7,"pm2_5":28.8,"mosquito_risk":3,"arthritis_risk":5,"migraine_risk":3,"frizz_risk":0,"updated_at":"2026-03-28T01:16:49.061365+05:30"},{"city":"Manali","state":"Himachal Pradesh","latitude":32.2396,"longitude":77.1887,"temp":13.8,"humidity":72,"rain":0.0,"pressure":815.1,"uv_index":8.45,"wind_gusts":26.6,"aqi":91,"pm10":28.1,"pm2_5":12.7,"mosquito_risk":3,"arthritis_risk":5,"migraine_risk":7,"frizz_risk":0,"updated_at":"2026-03-28T01:16:49.061372+05:30"},{"city":"Gurgaon","state":"Haryana","latitude":28.4595,"longitude":77.0266,"temp":22.5,"humidity":65,"rain":0.0,"pressure":980.6,"uv_index":6.7,"wind_gusts":16.9,"aqi":723,"pm10":305.5,"pm2_5":80.3,"mosquito_risk":3,"arthritis_risk":5,"migraine_risk":7,"frizz_risk":0,"updated_at":"2026-03-28T01:16:49.061378+05:30"},{"city":"Noida","state":"Uttar Pradesh","latitude":28.5355,"longitude":77.391,"temp":23.0,"humidity":68,"rain":0.0,"pressure":983.8,"uv_index":6.1,"wind_gusts":18.7,"aqi":723,"pm10":305.5,"pm2_5":80.3,"mosquito_risk":3,"arthritis_risk":5,"migraine_risk":7,"frizz_risk":1,"updated_at":"2026-03-28T01:16:49.061384+05:30"},{"city":"Ghaziabad","state":"Uttar Pradesh","latitude":28.6692,"longitude":77.4538,"temp":22.7,"humidity":66,"rain":0.0,"pressure":982.0,"uv_index":5.8,"wind_gusts":17.6,"aqi":127,"pm10":153.2,"pm2_5":55.8,"mosquito_risk":3,"arthritis_risk":5,"migraine_risk":3,"frizz_risk":0,"updated_at":"2026-03-28T01:16:49.061390+05:30"},{"city":"Faridabad","state":"Haryana","latitude":28.4089,"longitude":77.3178,"temp":22.0,"humidity":72,"rain":0.0,"pressure":983.0,"uv_index":6.05,"wind_gusts":18.4,"aqi":723,"pm10":305.5,"pm2_5":80.3,"mosquito_risk":3,"arthritis_risk":5,"migraine_risk":7,"frizz_risk":1,"updated_at":"2026-03-28T01:16:49.061397+05:30"},{"city":"Meerut","state":"Uttar Pradesh","latitude":28.9845,"longitude":77.7064,"temp":21.3,"humidity":70,"rain":0.0,"pressure":980.7,"uv_index":5.4,"wind_gusts":20.2,"aqi":127,"pm10":153.2,"pm2_5":55.8,"mosquito_risk":3,"arthritis_risk":5,"migraine_risk":3,"frizz_risk":0,"updated_at":"2026-03-28T01:16:49.061403+05:30"},{"city":"Agra","state":"Uttar Pradesh","latitude":27.1767,"longitude":78.0081,"temp":21.9,"humidity":77,"rain":0.0,"pressure":987.3,"uv_index":7.05,"wind_gusts":24.1,"aqi":706,"pm10":414.4,"pm2_5":82.7,"mosquito_risk":3,"arthritis_risk":5,"migraine_risk":7,"frizz_risk":1,"updated_at":"2026-03-28T01:16:49.061409+05:30"},{"city":"Varanasi","state":"Uttar Pradesh","latitude":25.3176,"longitude":82.9739,"temp":21.3,"humidity":78,"rain":0.0,"pressure":997.6,"uv_index":7.8,"wind_gusts":31.7,"aqi":87,"pm10":52.7,"pm2_5":43.5,"mosquito_risk":3,"arthritis_risk":5,"migraine_risk":7,"frizz_risk":1,"updated_at":"2026-03-28T01:16:49.061418+05:30"},{"city":"Prayagraj","state":"Uttar Pradesh","latitude":25.4358,"longitude":81.8463,"temp":20.3,"humidity":82,"rain":0.0,"pressure":995.7,"uv_index":7.7,"wind_gusts":33.1,"aqi":86,"pm10":44.5,"pm2_5":27.4,"mosquito_risk":3,"arthritis_risk":5,"migraine_risk":7,"frizz_risk":1,"updated_at":"2026-03-28T01:16:49.061425+05:30"},{"city":"Gorakhpur","state":"Uttar Pradesh","latitude":26.7606,"longitude":83.3732,"temp":20.1,"humidity":76,"rain":0.0,"pressure":996.7,"uv_index":7.5,"wind_gusts":29.2,"aqi":94,"pm10":58.1,"pm2_5":33.4,"mosquito_risk":3,"arthritis_risk":5,"migraine_risk":7,"frizz_risk":0,"updated_at":"2026-03-28T01:16:49.061431+05:30"},{"city":"Bareilly","state":"Uttar Pradesh","latitude":28.367,"longitude":79.4304,"temp":20.2,"humidity":83,"rain":0.0,"pressure":986.1,"uv_index":6.85,"wind_gusts":27.4,"aqi":75,"pm10":33.6,"pm2_5":27.1,"mosquito_risk":3,"arthritis_risk":5,"migraine_risk":7,"frizz_risk":1,"updated_at":"2026-03-28T01:16:49.061438+05:30"},{"city":"Aligarh","state":"Uttar Pradesh","latitude":27.8974,"longitude":78.088,"temp":21.0,"humidity":81,"rain":0.0,"pressure":984.8,"uv_index":6.65,"wind_gusts":20.9,"aqi":308,"pm10":280.3,"pm2_5":77.5,"mosquito_risk":3,"arthritis_risk":5,"migraine_risk":7,"frizz_risk":1,"updated_at":"2026-03-28T01:16:49.061445+05:30"},{"city":"Moradabad","state":"Uttar Pradesh","latitude":28.8386,"longitude":78.7733,"temp":20.2,"humidity":82,"rain":0.0,"pressure":983.0,"uv_index":6.15,"wind_gusts":24.8,"aqi":80,"pm10":44.4,"pm2_5":35.3,"mosquito_risk":3,"arthritis_risk":5,"migraine_risk":7,"frizz_risk":1,"updated_at":"2026-03-28T01:16:49.061452+05:30"},{"city":"Saharanpur","state":"Uttar Pradesh","latitude":29.9637,"longitude":77.546,"temp":19.7,"humidity":77,"rain":0.0,"pressure":974.8,"uv_index":5.4,"wind_gusts":22.0,"aqi":91,"pm10":68.7,"pm2_5":58.0,"mosquito_risk":3,"arthritis_risk":5,"migraine_risk":3,"frizz_risk":0,"updated_at":"2026-03-28T01:16:49.061460+05:30"},{"city":"Jhansi","state":"Uttar Pradesh","latitude":25.4484,"longitude":78.5685,"temp":21.0,"humidity":71,"rain":0.0,"pressure":977.3,"uv_index":7.7,"wind_gusts":26.6,"aqi":83,"pm10":106.9,"pm2_5":33.8,"mosquito_risk":3,"arthritis_risk":5,"migraine_risk":7,"frizz_risk":0,"updated_at":"2026-03-28T01:16:52.415533+05:30"},{"city":"Surat","state":"Gujarat","latitude":21.1702,"longitude":72.8311,"temp":26.8,"humidity":83,"rain":0.0,"pressure":1006.0,"uv_index":7.75,"wind_gusts":26.6,"aqi":109,"pm10":37.8,"pm2_5":32.9,"mosquito_risk":7,"arthritis_risk":5,"migraine_risk":4,"frizz_risk":1,"updated_at":"2026-03-28T01:16:52.415561+05:30"},{"city":"Vadodara","state":"Gujarat","latitude":22.3072,"longitude":73.1812,"temp":27.0,"humidity":55,"rain":0.0,"pressure":1003.9,"uv_index":7.95,"wind_gusts":31.0,"aqi":71,"pm10":53.7,"pm2_5":38.5,"mosquito_risk":4,"arthritis_risk":5,"migraine_risk":4,"frizz_risk":1,"updated_at":"2026-03-28T01:16:52.415570+05:30"},{"city":"Rajkot","state":"Gujarat","latitude":22.3039,"longitude":70.8022,"temp":24.1,"humidity":86,"rain":0.0,"pressure":995.1,"uv_index":7.8,"wind_gusts":40.3,"aqi":52,"pm10":13.8,"pm2_5":9.2,"mosquito_risk":3,"arthritis_risk":5,"migraine_risk":7,"frizz_risk":1,"updated_at":"2026-03-28T01:16:52.415578+05:30"},{"city":"Thane","state":"Maharashtra","latitude":19.2183,"longitude":72.9781,"temp":27.0,"humidity":80,"rain":0.0,"pressure":1007.6,"uv_index":8.0,"wind_gusts":36.7,"aqi":103,"pm10":30.4,"pm2_5":20.8,"mosquito_risk":7,"arthritis_risk":5,"migraine_risk":4,"frizz_risk":1,"updated_at":"2026-03-28T01:16:52.415586+05:30"},{"city":"Nagpur","state":"Maharashtra","latitude":21.1458,"longitude":79.0882,"temp":24.9,"humidity":36,"rain":0.0,"pressure":971.1,"uv_index":8.5,"wind_gusts":27.4,"aqi":88,"pm10":29.9,"pm2_5":26.0,"mosquito_risk":0,"arthritis_risk":5,"migraine_risk":7,"frizz_risk":0,"updated_at":"2026-03-28T01:16:52.415593+05:30"},{"city":"Nashik","state":"Maharashtra","latitude":19.9975,"longitude":73.7898,"temp":25.0,"humidity":47,"rain":0.0,"pressure":945.3,"uv_index":8.25,"wind_gusts":40.0,"aqi":66,"pm10":36.2,"pm2_5":28.2,"mosquito_risk":4,"arthritis_risk":5,"migraine_risk":7,"frizz_risk":0,"updated_at":"2026-03-28T01:16:52.415600+05:30"},{"city":"Aurangabad","state":"Maharashtra","latitude":19.8762,"longitude":75.3433,"temp":26.8,"humidity":30,"rain":0.0,"pressure":943.7,"uv_index":8.75,"wind_gusts":33.8,"aqi":64,"pm10":21.3,"pm2_5":17.1,"mosquito_risk":4,"arthritis_risk":5,"migraine_risk":7,"frizz_risk":0,"updated_at":"2026-03-28T01:16:52.415607+05:30"},{"city":"Solapur","state":"Maharashtra","latitude":17.6599,"longitude":75.9064,"temp":28.2,"humidity":50,"rain":0.0,"pressure":956.6,"uv_index":8.85,"wind_gusts":27.4,"aqi":103,"pm10":43.8,"pm2_5":39.3,"mosquito_risk":4,"arthritis_risk":5,"migraine_risk":7,"frizz_risk":1,"updated_at":"2026-03-28T01:16:52.415614+05:30"},{"city":"Kolhapur","state":"Maharashtra","latitude":16.705,"longitude":74.2433,"temp":24.4,"humidity":93,"rain":0.0,"pressure":947.9,"uv_index":8.95,"wind_gusts":46.4,"aqi":153,"pm10":56.7,"pm2_5":53.1,"mosquito_risk":3,"arthritis_risk":5,"migraine_risk":7,"frizz_risk":1,"updated_at":"2026-03-28T01:16:52.415621+05:30"},{"city":"Goa","state":"Goa","latitude":15.2993,"longitude":74.124,"temp":28.9,"humidity":86,"rain":0.0,"pressure":997.5,"uv_index":8.95,"wind_gusts":33.1,"aqi":92,"pm10":43.9,"pm2_5":36.1,"mosquito_risk":7,"arthritis_risk":5,"migraine_risk":7,"frizz_risk":1,"updated_at":"2026-03-28T01:16:52.415628+05:30"},{"city":"Jodhpur","state":"Rajasthan","latitude":26.2389,"longitude":73.0243,"temp":26.2,"humidity":44,"rain":0.0,"pressure":982.3,"uv_index":7.65,"wind_gusts":31.0,"aqi":71,"pm10":70.1,"pm2_5":21.5,"mosquito_risk":4,"arthritis_risk":5,"migraine_risk":7,"frizz_risk":0,"updated_at":"2026-03-28T01:16:52.415634+05:30"},{"city":"Udaipur","state":"Rajasthan","latitude":24.5854,"longitude":73.7125,"temp":23.6,"humidity":53,"rain":0.0,"pressure":946.1,"uv_index":8.4,"wind_gusts":32.0,"aqi":51,"pm10":61.5,"pm2_5":20.3,"mosquito_risk":0,"arthritis_risk":5,"migraine_risk":7,"frizz_risk":0,"updated_at":"2026-03-28T01:16:52.415641+05:30"},{"city":"Kota","state":"Rajasthan","latitude":25.2138,"longitude":75.8648,"temp":26.2,"humidity":42,"rain":0.0,"pressure":977.9,"uv_index":7.75,"wind_gusts":21.6,"aqi":64,"pm10":27.7,"pm2_5":18.5,"mosquito_risk":4,"arthritis_risk":5,"migraine_risk":7,"frizz_risk":0,"updated_at":"2026-03-28T01:16:52.415647+05:30"},{"city":"Bikaner","state":"Rajasthan","latitude":28.0229,"longitude":73.3119,"temp":24.9,"humidity":47,"rain":0.0,"pressure":980.8,"uv_index":6.8,"wind_gusts":25.6,"aqi":61,"pm10":39.9,"pm2_5":14.0,"mosquito_risk":0,"arthritis_risk":5,"migraine_risk":7,"frizz_risk":0,"updated_at":"2026-03-28T01:16:52.415655+05:30"},{"city":"Ajmer","state":"Rajasthan","latitude":26.4499,"longitude":74.6399,"temp":25.3,"humidity":46,"rain":0.0,"pressure":953.8,"uv_index":7.65,"wind_gusts":31.0,"aqi":58,"pm10":25.2,"pm2_5":15.0,"mosquito_risk":4,"arthritis_risk":5,"migraine_risk":7,"frizz_risk":0,"updated_at":"2026-03-28T01:16:52.415661+05:30"},{"city":"Gwalior","state":"Madhya Pradesh","latitude":26.2183,"longitude":78.1828,"temp":23.7,"humidity":63,"rain":0.0,"pressure":982.8,"uv_index":7.4,"wind_gusts":34.2,"aqi":126,"pm10":393.0,"pm2_5":78.5,"mosquito_risk":3,"arthritis_risk":5,"migraine_risk":7,"frizz_risk":1,"updated_at":"2026-03-28T01:16:52.415667+05:30"},{"city":"Indore","state":"Madhya Pradesh","latitude":22.7196,"longitude":75.8577,"temp":23.6,"humidity":58,"rain":0.0,"pressure":947.2,"uv_index":8.25,"wind_gusts":33.5,"aqi":42,"pm10":22.9,"pm2_5":14.5,"mosquito_risk":0,"arthritis_risk":5,"migraine_risk":7,"frizz_risk":0,"updated_at":"2026-03-28T01:16:52.415674+05:30"},{"city":"Bhopal","state":"Madhya Pradesh","latitude":23.2599,"longitude":77.4126,"temp":24.9,"humidity":46,"rain":0.0,"pressure":952.5,"uv_index":8.15,"wind_gusts":29.2,"aqi":45,"pm10":33.4,"pm2_5":16.3,"mosquito_risk":0,"arthritis_risk":5,"migraine_risk":7,"frizz_risk":0,"updated_at":"2026-03-28T01:16:52.415680+05:30"},{"city":"Jabalpur","state":"Madhya Pradesh","latitude":23.1815,"longitude":79.9864,"temp":24.5,"humidity":55,"rain":0.0,"pressure":959.1,"uv_index":8.25,"wind_gusts":27.0,"aqi":54,"pm10":32.5,"pm2_5":17.4,"mosquito_risk":0,"arthritis_risk":5,"migraine_risk":7,"frizz_risk":0,"updated_at":"2026-03-28T01:16:52.415686+05:30"},{"city":"Ujjain","state":"Madhya Pradesh","latitude":23.1765,"longitude":75.7885,"temp":24.1,"humidity":57,"rain":0.0,"pressure":953.0,"uv_index":8.15,"wind_gusts":30.6,"aqi":44,"pm10":24.3,"pm2_5":15.5,"mosquito_risk":0,"arthritis_risk":5,"migraine_risk":7,"frizz_risk":0,"updated_at":"2026-03-28T01:16:52.415693+05:30"},{"city":"Visakhapatnam","state":"Andhra Pradesh","latitude":17.6868,"longitude":83.2185,"temp":26.3,"humidity":90,"rain":0.0,"pressure":1003.0,"uv_index":9.0,"wind_gusts":49.3,"aqi":78,"pm10":32.9,"pm2_5":25.3,"mosquito_risk":7,"arthritis_risk":5,"migraine_risk":4,"frizz_risk":1,"updated_at":"2026-03-28T01:16:52.415699+05:30"},{"city":"Vijayawada","state":"Andhra Pradesh","latitude":16.5062,"longitude":80.648,"temp":25.4,"humidity":93,"rain":0.0,"pressure":1002.2,"uv_index":9.05,"wind_gusts":29.2,"aqi":75,"pm10":23.7,"pm2_5":18.3,"mosquito_risk":7,"arthritis_risk":5,"migraine_risk":4,"frizz_risk":1,"updated_at":"2026-03-28T01:16:52.415706+05:30"},{"city":"Guntur","state":"Andhra Pradesh","latitude":16.3067,"longitude":80.4365,"temp":25.4,"humidity":93,"rain":0.0,"pressure":1003.2,"uv_index":9.05,"wind_gusts":32.4,"aqi":70,"pm10":22.9,"pm2_5":18.1,"mosquito_risk":7,"arthritis_risk":5,"migraine_risk":4,"frizz_risk":1,"updated_at":"2026-03-28T01:16:52.415712+05:30"},{"city":"Nellore","state":"Andhra Pradesh","latitude":14.4426,"longitude":79.9865,"temp":25.2,"humidity":90,"rain":0.0,"pressure":1005.2,"uv_index":9.2,"wind_gusts":27.4,"aqi":66,"pm10":20.5,"pm2_5":14.6,"mosquito_risk":7,"arthritis_risk":5,"migraine_risk":4,"frizz_risk":1,"updated_at":"2026-03-28T01:16:52.415719+05:30"},{"city":"Kurnool","state":"Andhra Pradesh","latitude":15.8281,"longitude":78.0373,"temp":29.5,"humidity":45,"rain":0.0,"pressure":977.1,"uv_index":9.05,"wind_gusts":19.8,"aqi":73,"pm10":39.1,"pm2_5":32.8,"mosquito_risk":4,"arthritis_risk":5,"migraine_risk":7,"frizz_risk":1,"updated_at":"2026-03-28T01:16:52.415726+05:30"},{"city":"Kakinada","state":"Andhra Pradesh","latitude":16.9891,"longitude":82.2475,"temp":24.3,"humidity":96,"rain":0.0,"pressure":1007.2,"uv_index":9.0,"wind_gusts":32.8,"aqi":67,"pm10":28.3,"pm2_5":18.2,"mosquito_risk":3,"arthritis_risk":5,"migraine_risk":4,"frizz_risk":1,"updated_at":"2026-03-28T01:16:52.415733+05:30"},{"city":"Tirupati","state":"Andhra Pradesh","latitude":13.6288,"longitude":79.4192,"temp":24.6,"humidity":87,"rain":0.0,"pressure":991.6,"uv_index":9.3,"wind_gusts":22.0,"aqi":95,"pm10":37.5,"pm2_5":32.7,"mosquito_risk":3,"arthritis_risk":5,"migraine_risk":7,"frizz_risk":1,"updated_at":"2026-03-28T01:16:52.415739+05:30"},{"city":"Warangal","state":"Telangana","latitude":17.9689,"longitude":79.5941,"temp":27.2,"humidity":62,"rain":0.0,"pressure":977.4,"uv_index":8.9,"wind_gusts":44.6,"aqi":82,"pm10":34.6,"pm2_5":30.7,"mosquito_risk":7,"arthritis_risk":5,"migraine_risk":7,"frizz_risk":1,"updated_at":"2026-03-28T01:16:52.415745+05:30"},{"city":"Nizamabad","state":"Telangana","latitude":18.6725,"longitude":78.0941,"temp":27.3,"humidity":54,"rain":0.0,"pressure":964.0,"uv_index":8.8,"wind_gusts":24.5,"aqi":95,"pm10":48.0,"pm2_5":38.9,"mosquito_risk":4,"arthritis_risk":5,"migraine_risk":7,"frizz_risk":1,"updated_at":"2026-03-28T01:16:52.415751+05:30"},{"city":"Mysore","state":"Karnataka","latitude":12.2958,"longitude":76.6396,"temp":23.7,"humidity":86,"rain":0.0,"pressure":928.6,"uv_index":9.45,"wind_gusts":37.4,"aqi":79,"pm10":39.0,"pm2_5":35.7,"mosquito_risk":3,"arthritis_risk":5,"migraine_risk":7,"frizz_risk":1,"updated_at":"2026-03-28T01:16:52.415758+05:30"},{"city":"Mangalore","state":"Karnataka","latitude":12.9141,"longitude":74.856,"temp":29.1,"humidity":82,"rain":0.0,"pressure":1006.7,"uv_index":9.1,"wind_gusts":23.8,"aqi":96,"pm10":43.4,"pm2_5":36.9,"mosquito_risk":7,"arthritis_risk":5,"migraine_risk":4,"frizz_risk":1,"updated_at":"2026-03-28T01:16:52.415765+05:30"},{"city":"Hubli-Dharwad","state":"Karnataka","latitude":15.3647,"longitude":75.124,"temp":24.0,"humidity":90,"rain":0.0,"pressure":940.7,"uv_index":6.5,"wind_gusts":33.5,"aqi":81,"pm10":29.4,"pm2_5":26.9,"mosquito_risk":3,"arthritis_risk":5,"migraine_risk":7,"frizz_risk":1,"updated_at":"2026-03-28T01:16:52.415772+05:30"},{"city":"Belgaum","state":"Karnataka","latitude":15.8497,"longitude":74.4977,"temp":22.4,"humidity":94,"rain":0.0,"pressure":925.4,"uv_index":9.1,"wind_gusts":38.5,"aqi":108,"pm10":42.1,"pm2_5":38.4,"mosquito_risk":3,"arthritis_risk":5,"migraine_risk":7,"frizz_risk":1,"updated_at":"2026-03-28T01:16:55.770457+05:30"},{"city":"Coimbatore","state":"Tamil Nadu","latitude":11.0168,"longitude":76.9558,"temp":24.6,"humidity":85,"rain":0.0,"pressure":961.9,"uv_index":9.45,"wind_gusts":49.3,"aqi":81,"pm10":36.7,"pm2_5":34.5,"mosquito_risk":3,"arthritis_risk":5,"migraine_risk":7,"frizz_risk":1,"updated_at":"2026-03-28T01:16:55.770489+05:30"},{"city":"Madurai","state":"Tamil Nadu","latitude":9.9252,"longitude":78.1198,"temp":25.9,"humidity":85,"rain":0.0,"pressure":993.2,"uv_index":9.4,"wind_gusts":33.8,"aqi":81,"pm10":38.0,"pm2_5":32.9,"mosquito_risk":7,"arthritis_risk":5,"migraine_risk":7,"frizz_risk":1,"updated_at":"2026-03-28T01:16:55.770502+05:30"},{"city":"Trichy","state":"Tamil Nadu","latitude":10.7905,"longitude":78.7047,"temp":24.5,"humidity":90,"rain":0.0,"pressure":999.8,"uv_index":9.35,"wind_gusts":23.4,"aqi":91,"pm10":31.1,"pm2_5":27.1,"mosquito_risk":3,"arthritis_risk":5,"migraine_risk":7,"frizz_risk":1,"updated_at":"2026-03-28T01:16:55.770511+05:30"},{"city":"Salem","state":"Tamil Nadu","latitude":11.6643,"longitude":78.146,"temp":25.5,"humidity":77,"rain":0.0,"pressure":977.2,"uv_index":9.4,"wind_gusts":28.8,"aqi":98,"pm10":48.8,"pm2_5":42.3,"mosquito_risk":7,"arthritis_risk":5,"migraine_risk":7,"frizz_risk":1,"updated_at":"2026-03-28T01:16:55.770520+05:30"},{"city":"Tirunelveli","state":"Tamil Nadu","latitude":8.7139,"longitude":77.7567,"temp":26.7,"humidity":80,"rain":0.0,"pressure":1003.1,"uv_index":9.35,"wind_gusts":45.4,"aqi":61,"pm10":24.3,"pm2_5":21.0,"mosquito_risk":7,"arthritis_risk":5,"migraine_risk":4,"frizz_risk":1,"updated_at":"2026-03-28T01:16:55.770529+05:30"},{"city":"Vellore","state":"Tamil Nadu","latitude":12.9165,"longitude":79.1325,"temp":24.2,"humidity":88,"rain":0.0,"pressure":984.6,"uv_index":9.35,"wind_gusts":26.3,"aqi":97,"pm10":53.4,"pm2_5":47.0,"mosquito_risk":3,"arthritis_risk":5,"migraine_risk":7,"frizz_risk":1,"updated_at":"2026-03-28T01:16:55.770538+05:30"},{"city":"Erode","state":"Tamil Nadu","latitude":11.341,"longitude":77.7172,"temp":27.2,"humidity":65,"rain":0.0,"pressure":989.0,"uv_index":9.35,"wind_gusts":14.8,"aqi":86,"pm10":36.9,"pm2_5":30.9,"mosquito_risk":7,"arthritis_risk":5,"migraine_risk":7,"frizz_risk":1,"updated_at":"2026-03-28T01:16:55.770547+05:30"},{"city":"Kochi","state":"Kerala","latitude":9.9312,"longitude":76.2673,"temp":28.5,"humidity":80,"rain":0.0,"pressure":1009.0,"uv_index":9.15,"wind_gusts":31.3,"aqi":82,"pm10":33.8,"pm2_5":31.4,"mosquito_risk":7,"arthritis_risk":0,"migraine_risk":4,"frizz_risk":1,"updated_at":"2026-03-28T01:16:55.770554+05:30"},{"city":"Thiruvananthapuram","state":"Kerala","latitude":8.5241,"longitude":76.9366,"temp":28.0,"humidity":84,"rain":0.0,"pressure":1008.1,"uv_index":9.15,"wind_gusts":41.4,"aqi":74,"pm10":25.8,"pm2_5":19.4,"mosquito_risk":7,"arthritis_risk":0,"migraine_risk":4,"frizz_risk":1,"updated_at":"2026-03-28T01:16:55.770561+05:30"},{"city":"Kozhikode","state":"Kerala","latitude":11.2588,"longitude":75.7804,"temp":28.0,"humidity":83,"rain":0.0,"pressure":1008.4,"uv_index":9.1,"wind_gusts":28.1,"aqi":87,"pm10":32.6,"pm2_5":25.3,"mosquito_risk":7,"arthritis_risk":0,"migraine_risk":4,"frizz_risk":1,"updated_at":"2026-03-28T01:16:55.770568+05:30"},{"city":"Thrissur","state":"Kerala","latitude":10.5276,"longitude":76.2144,"temp":27.6,"humidity":85,"rain":0.0,"pressure":1007.4,"uv_index":9.15,"wind_gusts":36.7,"aqi":94,"pm10":34.9,"pm2_5":31.1,"mosquito_risk":7,"arthritis_risk":5,"migraine_risk":4,"frizz_risk":1,"updated_at":"2026-03-28T01:16:55.770575+05:30"},{"city":"Kannur","state":"Kerala","latitude":11.8745,"longitude":75.3704,"temp":27.9,"humidity":85,"rain":0.0,"pressure":1007.5,"uv_index":9.1,"wind_gusts":29.5,"aqi":98,"pm10":36.4,"pm2_5":29.7,"mosquito_risk":7,"arthritis_risk":5,"migraine_risk":4,"frizz_risk":1,"updated_at":"2026-03-28T01:16:55.770582+05:30"},{"city":"Patna","state":"Bihar","latitude":25.5941,"longitude":85.1376,"temp":23.2,"humidity":73,"rain":0.0,"pressure":1000.1,"uv_index":7.9,"wind_gusts":24.1,"aqi":132,"pm10":36.8,"pm2_5":25.6,"mosquito_risk":3,"arthritis_risk":5,"migraine_risk":4,"frizz_risk":1,"updated_at":"2026-03-28T01:16:55.770589+05:30"},{"city":"Gaya","state":"Bihar","latitude":24.7914,"longitude":85.0002,"temp":22.0,"humidity":76,"rain":0.0,"pressure":994.8,"uv_index":8.05,"wind_gusts":22.3,"aqi":67,"pm10":39.1,"pm2_5":26.8,"mosquito_risk":3,"arthritis_risk":5,"migraine_risk":7,"frizz_risk":1,"updated_at":"2026-03-28T01:16:55.770595+05:30"},{"city":"Muzaffarpur","state":"Bihar","latitude":26.1209,"longitude":85.3647,"temp":21.2,"humidity":93,"rain":0.0,"pressure":999.7,"uv_index":7.85,"wind_gusts":29.2,"aqi":153,"pm10":47.5,"pm2_5":38.2,"mosquito_risk":3,"arthritis_risk":5,"migraine_risk":7,"frizz_risk":1,"updated_at":"2026-03-28T01:16:55.770602+05:30"},{"city":"Bhagalpur","state":"Bihar","latitude":25.2425,"longitude":87.0117,"temp":21.8,"humidity":90,"rain":0.0,"pressure":1000.2,"uv_index":7.6,"wind_gusts":29.9,"aqi":123,"pm10":46.9,"pm2_5":24.0,"mosquito_risk":3,"arthritis_risk":5,"migraine_risk":4,"frizz_risk":1,"updated_at":"2026-03-28T01:16:55.770608+05:30"},{"city":"Ranchi","state":"Jharkhand","latitude":23.3441,"longitude":85.3096,"temp":19.6,"humidity":78,"rain":0.0,"pressure":937.6,"uv_index":8.65,"wind_gusts":35.6,"aqi":77,"pm10":34.7,"pm2_5":29.4,"mosquito_risk":3,"arthritis_risk":5,"migraine_risk":7,"frizz_risk":0,"updated_at":"2026-03-28T01:16:55.770615+05:30"},{"city":"Jamshedpur","state":"Jharkhand","latitude":22.8046,"longitude":86.2029,"temp":25.3,"humidity":67,"rain":0.0,"pressure":990.4,"uv_index":8.5,"wind_gusts":39.2,"aqi":127,"pm10":43.8,"pm2_5":30.6,"mosquito_risk":7,"arthritis_risk":5,"migraine_risk":7,"frizz_risk":1,"updated_at":"2026-03-28T01:16:55.770621+05:30"},{"city":"Dhanbad","state":"Jharkhand","latitude":23.7957,"longitude":86.4304,"temp":24.3,"humidity":64,"rain":0.0,"pressure":979.2,"uv_index":8.4,"wind_gusts":32.4,"aqi":116,"pm10":72.9,"pm2_5":56.1,"mosquito_risk":3,"arthritis_risk":5,"migraine_risk":7,"frizz_risk":1,"updated_at":"2026-03-28T01:16:55.770628+05:30"},{"city":"Bokaro","state":"Jharkhand","latitude":23.6693,"longitude":86.1511,"temp":22.8,"humidity":70,"rain":0.0,"pressure":983.7,"uv_index":8.45,"wind_gusts":29.9,"aqi":113,"pm10":73.8,"pm2_5":57.5,"mosquito_risk":3,"arthritis_risk":5,"migraine_risk":7,"frizz_risk":1,"updated_at":"2026-03-28T01:16:55.770634+05:30"},{"city":"Bhubaneswar","state":"Odisha","latitude":20.2961,"longitude":85.8245,"temp":25.4,"humidity":95,"rain":0.0,"pressure":1001.4,"uv_index":8.8,"wind_gusts":31.3,"aqi":97,"pm10":35.6,"pm2_5":31.5,"mosquito_risk":7,"arthritis_risk":5,"migraine_risk":4,"frizz_risk":1,"updated_at":"2026-03-28T01:16:55.770641+05:30"},{"city":"Cuttack","state":"Odisha","latitude":20.4625,"longitude":85.8828,"temp":25.7,"humidity":79,"rain":0.0,"pressure":1003.4,"uv_index":8.8,"wind_gusts":37.1,"aqi":97,"pm10":35.6,"pm2_5":31.5,"mosquito_risk":7,"arthritis_risk":5,"migraine_risk":4,"frizz_risk":1,"updated_at":"2026-03-28T01:16:55.770647+05:30"},{"city":"Rourkela","state":"Odisha","latitude":22.2604,"longitude":84.8536,"temp":23.7,"humidity":83,"rain":0.0,"pressure":984.1,"uv_index":8.45,"wind_gusts":39.2,"aqi":123,"pm10":34.8,"pm2_5":31.9,"mosquito_risk":3,"arthritis_risk":5,"migraine_risk":7,"frizz_risk":1,"updated_at":"2026-03-28T01:16:55.770654+05:30"},{"city":"Raipur","state":"Chhattisgarh","latitude":21.2514,"longitude":81.6296,"temp":25.6,"humidity":63,"rain":0.0,"pressure":972.0,"uv_index":8.55,"wind_gusts":36.0,"aqi":119,"pm10":32.1,"pm2_5":30.0,"mosquito_risk":7,"arthritis_risk":5,"migraine_risk":7,"frizz_risk":1,"updated_at":"2026-03-28T01:16:55.770660+05:30"},{"city":"Bhilai","state":"Chhattisgarh","latitude":21.1938,"longitude":81.3509,"temp":25.2,"humidity":64,"rain":0.0,"pressure":972.1,"uv_index":8.55,"wind_gusts":37.8,"aqi":107,"pm10":27.2,"pm2_5":24.9,"mosquito_risk":7,"arthritis_risk":5,"migraine_risk":7,"frizz_risk":1,"updated_at":"2026-03-28T01:16:55.770666+05:30"},{"city":"Guwahati","state":"Assam","latitude":26.1158,"longitude":91.7086,"temp":22.9,"humidity":87,"rain":0.0,"pressure":1001.2,"uv_index":4.15,"wind_gusts":29.5,"aqi":156,"pm10":99.4,"pm2_5":79.9,"mosquito_risk":3,"arthritis_risk":5,"migraine_risk":0,"frizz_risk":1,"updated_at":"2026-03-28T01:16:55.770673+05:30"},{"city":"Agartala","state":"Tripura","latitude":23.8315,"longitude":91.2868,"temp":23.6,"humidity":91,"rain":0.0,"pressure":1003.7,"uv_index":7.3,"wind_gusts":34.6,"aqi":155,"pm10":74.3,"pm2_5":67.3,"mosquito_risk":3,"arthritis_risk":5,"migraine_risk":4,"frizz_risk":1,"updated_at":"2026-03-28T01:16:55.770680+05:30"},{"city":"Shillong","state":"Meghalaya","latitude":25.5788,"longitude":91.8933,"temp":12.1,"humidity":87,"rain":0.0,"pressure":853.5,"uv_index":2.55,"wind_gusts":56.2,"aqi":121,"pm10":45.9,"pm2_5":38.2,"mosquito_risk":3,"arthritis_risk":10,"migraine_risk":3,"frizz_risk":0,"updated_at":"2026-03-28T01:16:55.770686+05:30"},{"city":"Imphal","state":"Manipur","latitude":24.817,"longitude":93.9368,"temp":15.7,"humidity":79,"rain":0.0,"pressure":921.3,"uv_index":7.6,"wind_gusts":56.9,"aqi":132,"pm10":86.8,"pm2_5":71.5,"mosquito_risk":3,"arthritis_risk":5,"migraine_risk":7,"frizz_risk":0,"updated_at":"2026-03-28T01:16:55.770693+05:30"},{"city":"Aizawl","state":"Mizoram","latitude":23.7271,"longitude":92.7176,"temp":17.8,"humidity":66,"rain":0.0,"pressure":890.1,"uv_index":7.55,"wind_gusts":55.4,"aqi":106,"pm10":62.6,"pm2_5":49.0,"mosquito_risk":3,"arthritis_risk":5,"migraine_risk":7,"frizz_risk":0,"updated_at":"2026-03-28T01:16:55.770699+05:30"},{"city":"Kohima","state":"Nagaland","latitude":25.6701,"longitude":94.1077,"temp":14.2,"humidity":69,"rain":0.0,"pressure":852.5,"uv_index":7.1,"wind_gusts":70.9,"aqi":99,"pm10":55.4,"pm2_5":43.4,"mosquito_risk":3,"arthritis_risk":5,"migraine_risk":7,"frizz_risk":0,"updated_at":"2026-03-28T01:16:55.770705+05:30"},{"city":"Gangtok","state":"Sikkim","latitude":27.3314,"longitude":88.6138,"temp":12.3,"humidity":92,"rain":0.0,"pressure":834.1,"uv_index":7.55,"wind_gusts":17.6,"aqi":110,"pm10":56.9,"pm2_5":43.8,"mosquito_risk":3,"arthritis_risk":10,"migraine_risk":7,"frizz_risk":0,"updated_at":"2026-03-28T01:16:55.770712+05:30"},{"city":"Siliguri","state":"West Bengal","latitude":26.7271,"longitude":88.3953,"temp":18.9,"humidity":82,"rain":0.0,"pressure":993.3,"uv_index":7.5,"wind_gusts":25.2,"aqi":159,"pm10":67.5,"pm2_5":49.6,"mosquito_risk":3,"arthritis_risk":10,"migraine_risk":7,"frizz_risk":0,"updated_at":"2026-03-28T01:16:59.136830+05:30"},{"city":"Durgapur","state":"West Bengal","latitude":23.5204,"longitude":87.3119,"temp":26.9,"humidity":56,"rain":0.0,"pressure":994.0,"uv_index":8.35,"wind_gusts":28.8,"aqi":139,"pm10":40.3,"pm2_5":25.3,"mosquito_risk":4,"arthritis_risk":5,"migraine_risk":7,"frizz_risk":1,"updated_at":"2026-03-28T01:16:59.136863+05:30"},{"city":"Asansol","state":"West Bengal","latitude":23.6739,"longitude":86.9524,"temp":25.6,"humidity":65,"rain":0.0,"pressure":992.6,"uv_index":8.35,"wind_gusts":31.3,"aqi":95,"pm10":44.1,"pm2_5":28.1,"mosquito_risk":7,"arthritis_risk":5,"migraine_risk":7,"frizz_risk":1,"updated_at":"2026-03-28T01:16:59.136875+05:30"},{"city":"Pondicherry","state":"Puducherry","latitude":11.9139,"longitude":79.8145,"temp":23.6,"humidity":93,"rain":0.0,"pressure":1008.2,"uv_index":9.25,"wind_gusts":29.2,"aqi":67,"pm10":26.1,"pm2_5":16.5,"mosquito_risk":3,"arthritis_risk":0,"migraine_risk":4,"frizz_risk":1,"updated_at":"2026-03-28T01:16:59.136913+05:30"},{"city":"Port Blair","state":"Andaman and Nicobar Islands","latitude":11.6234,"longitude":92.7265,"temp":28.2,"humidity":79,"rain":0.0,"pressure":1005.3,"uv_index":9.2,"wind_gusts":19.4,"aqi":68,"pm10":29.0,"pm2_5":21.9,"mosquito_risk":7,"arthritis_risk":5,"migraine_risk":4,"frizz_risk":1,"updated_at":"2026-03-28T01:16:59.136926+05:30"},{"city":"Haridwar","state":"Uttarakhand","latitude":29.9457,"longitude":78.1642,"temp":18.7,"humidity":86,"rain":0.0,"pressure":973.4,"uv_index":5.25,"wind_gusts":25.6,"aqi":87,"pm10":49.0,"pm2_5":42.5,"mosquito_risk":3,"arthritis_risk":10,"migraine_risk":3,"frizz_risk":1,"updated_at":"2026-03-28T01:16:59.136935+05:30"},{"city":"Rishikesh","state":"Uttarakhand","latitude":30.0869,"longitude":78.2676,"temp":18.7,"humidity":77,"rain":0.0,"pressure":966.1,"uv_index":5.1,"wind_gusts":28.4,"aqi":65,"pm10":43.4,"pm2_5":30.5,"mosquito_risk":3,"arthritis_risk":5,"migraine_risk":3,"frizz_risk":0,"updated_at":"2026-03-28T01:16:59.136943+05:30"},{"city":"Nainital","state":"Uttarakhand","latitude":29.3919,"longitude":79.4542,"temp":15.0,"humidity":59,"rain":0.0,"pressure":803.1,"uv_index":5.2,"wind_gusts":30.2,"aqi":58,"pm10":27.6,"pm2_5":20.4,"mosquito_risk":0,"arthritis_risk":5,"migraine_risk":3,"frizz_risk":0,"updated_at":"2026-03-28T01:16:59.136950+05:30"},{"city":"Mussoorie","state":"Uttarakhand","latitude":30.4599,"longitude":78.0664,"temp":13.3,"humidity":77,"rain":0.0,"pressure":799.6,"uv_index":4.9,"wind_gusts":25.6,"aqi":72,"pm10":49.2,"pm2_5":38.2,"mosquito_risk":3,"arthritis_risk":5,"migraine_risk":3,"frizz_risk":0,"updated_at":"2026-03-28T01:16:59.136958+05:30"},{"city":"Dharamshala","state":"Himachal Pradesh","latitude":32.219,"longitude":76.3234,"temp":17.5,"humidity":68,"rain":0.0,"pressure":866.8,"uv_index":6.25,"wind_gusts":22.0,"aqi":46,"pm10":25.3,"pm2_5":14.8,"mosquito_risk":3,"arthritis_risk":5,"migraine_risk":7,"frizz_risk":0,"updated_at":"2026-03-28T01:16:59.136965+05:30"},{"city":"Dalhousie","state":"Himachal Pradesh","latitude":32.5387,"longitude":75.971,"temp":13.6,"humidity":77,"rain":0.0,"pressure":800.3,"uv_index":6.1,"wind_gusts":18.7,"aqi":72,"pm10":46.4,"pm2_5":37.3,"mosquito_risk":3,"arthritis_risk":5,"migraine_risk":7,"frizz_risk":0,"updated_at":"2026-03-28T01:16:59.136972+05:30"},{"city":"Patiala","state":"Punjab","latitude":30.3398,"longitude":76.3869,"temp":19.2,"humidity":78,"rain":0.0,"pressure":977.3,"uv_index":5.4,"wind_gusts":13.7,"aqi":93,"pm10":72.4,"pm2_5":53.6,"mosquito_risk":3,"arthritis_risk":5,"migraine_risk":3,"frizz_risk":0,"updated_at":"2026-03-28T01:16:59.136979+05:30"},{"city":"Bhatinda","state":"Punjab","latitude":30.211,"longitude":74.9455,"temp":20.9,"humidity":69,"rain":0.0,"pressure":982.5,"uv_index":6.6,"wind_gusts":17.3,"aqi":87,"pm10":37.1,"pm2_5":31.7,"mosquito_risk":3,"arthritis_risk":5,"migraine_risk":7,"frizz_risk":0,"updated_at":"2026-03-28T01:16:59.136986+05:30"},{"city":"Rohtak","state":"Haryana","latitude":28.8955,"longitude":76.6066,"temp":21.3,"humidity":72,"rain":0.0,"pressure":980.8,"uv_index":6.1,"wind_gusts":15.1,"aqi":136,"pm10":166.2,"pm2_5":60.5,"mosquito_risk":3,"arthritis_risk":5,"migraine_risk":7,"frizz_risk":0,"updated_at":"2026-03-28T01:16:59.136993+05:30"},{"city":"Panipat","state":"Haryana","latitude":29.3909,"longitude":76.9635,"temp":21.1,"humidity":68,"rain":0.0,"pressure":979.5,"uv_index":5.6,"wind_gusts":18.0,"aqi":154,"pm10":74.0,"pm2_5":48.4,"mosquito_risk":3,"arthritis_risk":5,"migraine_risk":3,"frizz_risk":0,"updated_at":"2026-03-28T01:16:59.137000+05:30"},{"city":"Mathura","state":"Uttar Pradesh","latitude":27.4924,"longitude":77.6737,"temp":21.7,"humidity":77,"rain":0.0,"pressure":986.3,"uv_index":7.0,"wind_gusts":20.9,"aqi":711,"pm10":434.9,"pm2_5":93.8,"mosquito_risk":3,"arthritis_risk":5,"migraine_risk":7,"frizz_risk":1,"updated_at":"2026-03-28T01:16:59.137007+05:30"},{"city":"Vrindavan","state":"Uttar Pradesh","latitude":27.5823,"longitude":77.7027,"temp":22.1,"humidity":74,"rain":0.0,"pressure":986.7,"uv_index":6.95,"wind_gusts":21.2,"aqi":711,"pm10":434.9,"pm2_5":93.8,"mosquito_risk":3,"arthritis_risk":5,"migraine_risk":7,"frizz_risk":1,"updated_at":"2026-03-28T01:16:59.137014+05:30"},{"city":"Ayodhya","state":"Uttar Pradesh","latitude":26.7922,"longitude":82.1998,"temp":20.6,"humidity":82,"rain":0.0,"pressure":994.6,"uv_index":7.3,"wind_gusts":30.2,"aqi":83,"pm10":70.3,"pm2_5":34.8,"mosquito_risk":3,"arthritis_risk":5,"migraine_risk":7,"frizz_risk":1,"updated_at":"2026-03-28T01:16:59.137020+05:30"},{"city":"Ratlam","state":"Madhya Pradesh","latitude":23.3315,"longitude":75.0367,"temp":24.8,"humidity":59,"rain":0.0,"pressure":953.8,"uv_index":8.1,"wind_gusts":32.4,"aqi":38,"pm10":24.5,"pm2_5":13.9,"mosquito_risk":0,"arthritis_risk":5,"migraine_risk":7,"frizz_risk":1,"updated_at":"2026-03-28T01:16:59.137027+05:30"},{"city":"Sagar","state":"Madhya Pradesh","latitude":23.8388,"longitude":78.7378,"temp":24.5,"humidity":47,"rain":0.0,"pressure":948.7,"uv_index":8.15,"wind_gusts":28.1,"aqi":51,"pm10":36.1,"pm2_5":16.5,"mosquito_risk":0,"arthritis_risk":5,"migraine_risk":7,"frizz_risk":0,"updated_at":"2026-03-28T01:16:59.137033+05:30"},{"city":"Satna","state":"Madhya Pradesh","latitude":24.6005,"longitude":80.8322,"temp":21.7,"humidity":65,"rain":0.0,"pressure":970.8,"uv_index":8.1,"wind_gusts":25.6,"aqi":67,"pm10":57.7,"pm2_5":21.9,"mosquito_risk":3,"arthritis_risk":5,"migraine_risk":7,"frizz_risk":0,"updated_at":"2026-03-28T01:16:59.137040+05:30"},{"city":"Akola","state":"Maharashtra","latitude":20.7002,"longitude":77.0082,"temp":24.8,"humidity":50,"rain":0.0,"pressure":974.1,"uv_index":8.5,"wind_gusts":30.6,"aqi":58,"pm10":15.7,"pm2_5":12.3,"mosquito_risk":0,"arthritis_risk":5,"migraine_risk":7,"frizz_risk":0,"updated_at":"2026-03-28T01:16:59.137047+05:30"},{"city":"Amravati","state":"Maharashtra","latitude":20.9374,"longitude":77.7796,"temp":24.5,"humidity":42,"rain":0.0,"pressure":965.8,"uv_index":8.5,"wind_gusts":29.9,"aqi":59,"pm10":15.9,"pm2_5":12.3,"mosquito_risk":0,"arthritis_risk":5,"migraine_risk":7,"frizz_risk":0,"updated_at":"2026-03-28T01:16:59.137053+05:30"},{"city":"Latur","state":"Maharashtra","latitude":18.4088,"longitude":76.5604,"temp":26.1,"humidity":43,"rain":0.0,"pressure":939.3,"uv_index":8.85,"wind_gusts":30.2,"aqi":93,"pm10":50.3,"pm2_5":37.8,"mosquito_risk":4,"arthritis_risk":5,"migraine_risk":7,"frizz_risk":0,"updated_at":"2026-03-28T01:16:59.137060+05:30"},{"city":"Nanded","state":"Maharashtra","latitude":19.1383,"longitude":77.3091,"temp":28.0,"humidity":47,"rain":0.0,"pressure":968.1,"uv_index":8.7,"wind_gusts":23.8,"aqi":84,"pm10":39.7,"pm2_5":32.7,"mosquito_risk":4,"arthritis_risk":5,"migraine_risk":7,"frizz_risk":0,"updated_at":"2026-03-28T01:16:59.137067+05:30"},{"city":"Gulbarga","state":"Karnataka","latitude":17.3297,"longitude":76.8343,"temp":29.4,"humidity":40,"rain":0.0,"pressure":958.2,"uv_index":8.9,"wind_gusts":22.0,"aqi":97,"pm10":37.3,"pm2_5":32.9,"mosquito_risk":4,"arthritis_risk":5,"migraine_risk":7,"frizz_risk":0,"updated_at":"2026-03-28T01:16:59.137073+05:30"},{"city":"Bidar","state":"Karnataka","latitude":17.9104,"longitude":77.5199,"temp":27.4,"humidity":49,"rain":0.0,"pressure":935.4,"uv_index":8.9,"wind_gusts":22.7,"aqi":89,"pm10":49.2,"pm2_5":42.1,"mosquito_risk":4,"arthritis_risk":5,"migraine_risk":7,"frizz_risk":0,"updated_at":"2026-03-28T01:16:59.137079+05:30"},{"city":"Hospet","state":"Karnataka","latitude":15.2689,"longitude":76.3909,"temp":27.8,"humidity":71,"rain":0.0,"pressure":955.6,"uv_index":9.15,"wind_gusts":38.5,"aqi":84,"pm10":34.1,"pm2_5":29.7,"mosquito_risk":7,"arthritis_risk":5,"migraine_risk":7,"frizz_risk":1,"updated_at":"2026-03-28T01:16:59.137085+05:30"},{"city":"Tirupur","state":"Tamil Nadu","latitude":11.1085,"longitude":77.3411,"temp":26.4,"humidity":81,"rain":0.0,"pressure":975.1,"uv_index":9.45,"wind_gusts":36.4,"aqi":95,"pm10":43.2,"pm2_5":39.1,"mosquito_risk":7,"arthritis_risk":5,"migraine_risk":7,"frizz_risk":1,"updated_at":"2026-03-28T01:16:59.137092+05:30"},{"city":"Alappuzha","state":"Kerala","latitude":9.4981,"longitude":76.3388,"temp":28.1,"humidity":84,"rain":0.0,"pressure":1009.0,"uv_index":9.15,"wind_gusts":31.7,"aqi":82,"pm10":36.2,"pm2_5":31.0,"mosquito_risk":7,"arthritis_risk":0,"migraine_risk":4,"frizz_risk":1,"updated_at":"2026-03-28T01:16:59.137099+05:30"},{"city":"Munnar","state":"Kerala","latitude":10.0889,"longitude":77.0595,"temp":19.8,"humidity":98,"rain":0.0,"pressure":856.4,"uv_index":9.7,"wind_gusts":42.5,"aqi":76,"pm10":35.4,"pm2_5":31.5,"mosquito_risk":3,"arthritis_risk":10,"migraine_risk":7,"frizz_risk":1,"updated_at":"2026-03-28T01:16:59.137107+05:30"},{"city":"Silchar","state":"Assam","latitude":24.8333,"longitude":92.7789,"temp":22.8,"humidity":79,"rain":0.0,"pressure":1003.0,"uv_index":5.55,"wind_gusts":38.9,"aqi":156,"pm10":100.8,"pm2_5":83.8,"mosquito_risk":3,"arthritis_risk":5,"migraine_risk":0,"frizz_risk":1,"updated_at":"2026-03-28T01:16:59.137113+05:30"},{"city":"Dibrugarh","state":"Assam","latitude":27.4728,"longitude":94.912,"temp":22.8,"humidity":78,"rain":0.0,"pressure":996.1,"uv_index":6.8,"wind_gusts":26.6,"aqi":123,"pm10":49.5,"pm2_5":41.2,"mosquito_risk":3,"arthritis_risk":5,"migraine_risk":7,"frizz_risk":1,"updated_at":"2026-03-28T01:16:59.137119+05:30"}]