[{"city":"Delhi","state":"Delhi","latitude":28.6139,"longitude":77.209,"temp":31.0,"humidity":40,"rain":0.0,"pressure":986.0,"uv_index":7.55,"wind_gusts":33.1,"aqi":194,"pm10":285.9,"pm2_5":61.0,"no2":18.9,"co":690.0,"o3":149.0,"so2":29.6,"mosquito_risk":0,"arthritis_risk":5,"migraine_risk":7,"frizz_risk":0,"updated_at":"2026-05-09T09:54:32.545586+05:30"},{"city":"Mumbai","state":"Maharashtra","latitude":19.076,"longitude":72.8777,"temp":35.0,"humidity":42,"rain":0.0,"pressure":1008.6,"uv_index":7.85,"wind_gusts":48.6,"aqi":91,"pm10":64.3,"pm2_5":33.3,"no2":19.6,"co":406.0,"o3":122.0,"so2":37.6,"mosquito_risk":0,"arthritis_risk":0,"migraine_risk":4,"frizz_risk":1,"updated_at":"2026-05-09T09:54:32.545633+05:30"},{"city":"Bangalore","state":"Karnataka","latitude":12.9716,"longitude":77.5946,"temp":27.4,"humidity":58,"rain":0.0,"pressure":913.4,"uv_index":9.5,"wind_gusts":37.8,"aqi":49,"pm10":9.8,"pm2_5":8.1,"no2":7.0,"co":386.0,"o3":50.0,"so2":8.9,"mosquito_risk":4,"arthritis_risk":5,"migraine_risk":7,"frizz_risk":1,"updated_at":"2026-05-09T09:54:32.545650+05:30"},{"city":"Hyderabad","state":"Telangana","latitude":17.385,"longitude":78.4867,"temp":30.4,"humidity":52,"rain":0.0,"pressure":955.9,"uv_index":9.1,"wind_gusts":32.0,"aqi":50,"pm10":10.5,"pm2_5":8.1,"no2":4.8,"co":335.0,"o3":85.0,"so2":6.2,"mosquito_risk":0,"arthritis_risk":5,"migraine_risk":7,"frizz_risk":1,"updated_at":"2026-05-09T09:54:32.545666+05:30"},{"city":"Chennai","state":"Tamil Nadu","latitude":13.0827,"longitude":80.2707,"temp":30.2,"humidity":67,"rain":0.0,"pressure":1008.7,"uv_index":8.7,"wind_gusts":38.2,"aqi":19,"pm10":5.3,"pm2_5":3.9,"no2":3.6,"co":168.0,"o3":52.0,"so2":5.8,"mosquito_risk":3,"arthritis_risk":0,"migraine_risk":4,"frizz_risk":1,"updated_at":"2026-05-09T09:54:32.545677+05:30"},{"city":"Kolkata","state":"West Bengal","latitude":22.5726,"longitude":88.3639,"temp":30.8,"humidity":65,"rain":0.0,"pressure":1009.5,"uv_index":8.9,"wind_gusts":31.0,"aqi":134,"pm10":40.6,"pm2_5":37.7,"no2":6.8,"co":698.0,"o3":178.0,"so2":20.6,"mosquito_risk":3,"arthritis_risk":0,"migraine_risk":4,"frizz_risk":1,"updated_at":"2026-05-09T09:54:32.545686+05:30"},{"city":"Pune","state":"Maharashtra","latitude":18.5204,"longitude":73.8567,"temp":33.7,"humidity":29,"rain":0.0,"pressure":950.0,"uv_index":8.45,"wind_gusts":38.2,"aqi":92,"pm10":57.6,"pm2_5":28.2,"no2":8.6,"co":351.0,"o3":135.0,"so2":17.4,"mosquito_risk":0,"arthritis_risk":5,"migraine_risk":7,"frizz_risk":0,"updated_at":"2026-05-09T09:54:32.545694+05:30"},{"city":"Ahmedabad","state":"Gujarat","latitude":23.0225,"longitude":72.5714,"temp":34.1,"humidity":35,"rain":0.0,"pressure":1002.9,"uv_index":8.1,"wind_gusts":32.8,"aqi":69,"pm10":37.1,"pm2_5":15.3,"no2":5.2,"co":289.0,"o3":89.0,"so2":5.3,"mosquito_risk":0,"arthritis_risk":5,"migraine_risk":4,"frizz_risk":1,"updated_at":"2026-05-09T09:54:32.545704+05:30"},{"city":"Jaipur","state":"Rajasthan","latitude":26.9124,"longitude":75.7873,"temp":31.4,"humidity":36,"rain":0.0,"pressure":961.9,"uv_index":8.15,"wind_gusts":33.5,"aqi":175,"pm10":296.2,"pm2_5":57.6,"no2":4.6,"co":386.0,"o3":149.0,"so2":9.9,"mosquito_risk":0,"arthritis_risk":5,"migraine_risk":7,"frizz_risk":0,"updated_at":"2026-05-09T09:54:32.545713+05:30"},{"city":"Lucknow","state":"Uttar Pradesh","latitude":26.8467,"longitude":80.9462,"temp":29.2,"humidity":56,"rain":0.0,"pressure":996.5,"uv_index":7.7,"wind_gusts":35.3,"aqi":84,"pm10":56.6,"pm2_5":41.1,"no2":4.9,"co":415.0,"o3":160.0,"so2":13.2,"mosquito_risk":4,"arthritis_risk":5,"migraine_risk":7,"frizz_risk":1,"updated_at":"2026-05-09T09:54:32.545721+05:30"},{"city":"Kanpur","state":"Uttar Pradesh","latitude":26.4499,"longitude":80.3319,"temp":31.1,"humidity":48,"rain":0.0,"pressure":994.1,"uv_index":7.95,"wind_gusts":38.2,"aqi":161,"pm10":371.6,"pm2_5":67.8,"no2":4.4,"co":390.0,"o3":170.0,"so2":14.4,"mosquito_risk":0,"arthritis_risk":5,"migraine_risk":7,"frizz_risk":1,"updated_at":"2026-05-09T09:54:32.545729+05:30"},{"city":"Chandigarh","state":"Chandigarh","latitude":30.7333,"longitude":76.7794,"temp":30.5,"humidity":38,"rain":0.0,"pressure":972.3,"uv_index":7.6,"wind_gusts":25.6,"aqi":84,"pm10":96.2,"pm2_5":25.7,"no2":4.4,"co":453.0,"o3":179.0,"so2":7.4,"mosquito_risk":0,"arthritis_risk":5,"migraine_risk":7,"frizz_risk":0,"updated_at":"2026-05-09T09:54:32.545738+05:30"},{"city":"Srinagar","state":"Jammu and Kashmir","latitude":34.0837,"longitude":74.7973,"temp":18.6,"humidity":52,"rain":0.0,"pressure":846.0,"uv_index":8.9,"wind_gusts":18.0,"aqi":95,"pm10":63.6,"pm2_5":22.2,"no2":5.4,"co":422.0,"o3":123.0,"so2":4.5,"mosquito_risk":0,"arthritis_risk":5,"migraine_risk":7,"frizz_risk":0,"updated_at":"2026-05-09T09:54:32.545747+05:30"},{"city":"Jammu","state":"Jammu and Kashmir","latitude":32.7266,"longitude":74.857,"temp":30.4,"humidity":40,"rain":0.0,"pressure":976.0,"uv_index":8.4,"wind_gusts":30.2,"aqi":151,"pm10":142.0,"pm2_5":49.5,"no2":5.6,"co":304.0,"o3":176.0,"so2":9.2,"mosquito_risk":0,"arthritis_risk":5,"migraine_risk":7,"frizz_risk":0,"updated_at":"2026-05-09T09:54:32.545756+05:30"},{"city":"Amritsar","state":"Punjab","latitude":31.634,"longitude":74.8723,"temp":31.4,"humidity":41,"rain":0.0,"pressure":983.8,"uv_index":8.3,"wind_gusts":30.2,"aqi":137,"pm10":174.6,"pm2_5":48.7,"no2":4.8,"co":440.0,"o3":150.0,"so2":15.8,"mosquito_risk":0,"arthritis_risk":5,"migraine_risk":7,"frizz_risk":1,"updated_at":"2026-05-09T09:54:32.545764+05:30"},{"city":"Ludhiana","state":"Punjab","latitude":30.901,"longitude":75.8573,"temp":31.1,"humidity":40,"rain":0.0,"pressure":981.8,"uv_index":7.9,"wind_gusts":33.1,"aqi":139,"pm10":118.0,"pm2_5":36.6,"no2":7.5,"co":545.0,"o3":153.0,"so2":8.0,"mosquito_risk":0,"arthritis_risk":5,"migraine_risk":7,"frizz_risk":0,"updated_at":"2026-05-09T09:54:32.545771+05:30"},{"city":"Jalandhar","state":"Punjab","latitude":31.326,"longitude":75.5762,"temp":30.7,"humidity":42,"rain":0.0,"pressure":982.9,"uv_index":8.05,"wind_gusts":26.6,"aqi":143,"pm10":82.9,"pm2_5":34.6,"no2":6.5,"co":517.0,"o3":147.0,"so2":12.1,"mosquito_risk":0,"arthritis_risk":5,"migraine_risk":7,"frizz_risk":1,"updated_at":"2026-05-09T09:54:32.545779+05:30"},{"city":"Dehradun","state":"Uttarakhand","latitude":30.6284,"longitude":78.0322,"temp":19.8,"humidity":55,"rain":0.0,"pressure":834.4,"uv_index":8.0,"wind_gusts":30.6,"aqi":53,"pm10":21.8,"pm2_5":9.2,"no2":0.2,"co":199.0,"o3":155.0,"so2":1.1,"mosquito_risk":0,"arthritis_risk":5,"migraine_risk":7,"frizz_risk":0,"updated_at":"2026-05-09T09:54:32.545789+05:30"},{"city":"Shimla","state":"Himachal Pradesh","latitude":31.1048,"longitude":77.1734,"temp":17.8,"humidity":52,"rain":0.0,"pressure":788.7,"uv_index":8.05,"wind_gusts":34.2,"aqi":65,"pm10":38.5,"pm2_5":17.3,"no2":0.5,"co":222.0,"o3":172.0,"so2":3.8,"mosquito_risk":0,"arthritis_risk":5,"migraine_risk":7,"frizz_risk":0,"updated_at":"2026-05-09T09:54:32.545800+05:30"},{"city":"Manali","state":"Himachal Pradesh","latitude":32.2396,"longitude":77.1887,"temp":21.7,"humidity":18,"rain":0.0,"pressure":820.9,"uv_index":9.45,"wind_gusts":39.2,"aqi":82,"pm10":30.6,"pm2_5":6.6,"no2":8.1,"co":184.0,"o3":134.0,"so2":0.4,"mosquito_risk":0,"arthritis_risk":5,"migraine_risk":7,"frizz_risk":1,"updated_at":"2026-05-09T09:54:32.545807+05:30"},{"city":"Gurgaon","state":"Haryana","latitude":28.4595,"longitude":77.0266,"temp":30.9,"humidity":42,"rain":0.0,"pressure":984.2,"uv_index":7.65,"wind_gusts":27.0,"aqi":1261,"pm10":910.8,"pm2_5":114.6,"no2":14.2,"co":567.0,"o3":138.0,"so2":22.9,"mosquito_risk":0,"arthritis_risk":5,"migraine_risk":7,"frizz_risk":1,"updated_at":"2026-05-09T09:54:32.545815+05:30"},{"city":"Noida","state":"Uttar Pradesh","latitude":28.5355,"longitude":77.391,"temp":30.4,"humidity":47,"rain":0.0,"pressure":987.5,"uv_index":7.6,"wind_gusts":24.1,"aqi":1261,"pm10":910.8,"pm2_5":114.6,"no2":14.2,"co":544.0,"o3":138.0,"so2":22.9,"mosquito_risk":0,"arthritis_risk":5,"migraine_risk":7,"frizz_risk":1,"updated_at":"2026-05-09T09:54:32.545823+05:30"},{"city":"Ghaziabad","state":"Uttar Pradesh","latitude":28.6692,"longitude":77.4538,"temp":30.8,"humidity":43,"rain":0.0,"pressure":985.8,"uv_index":7.55,"wind_gusts":27.7,"aqi":136,"pm10":207.2,"pm2_5":42.1,"no2":6.2,"co":382.0,"o3":142.0,"so2":12.7,"mosquito_risk":0,"arthritis_risk":5,"migraine_risk":7,"frizz_risk":1,"updated_at":"2026-05-09T09:54:32.545830+05:30"},{"city":"Faridabad","state":"Haryana","latitude":28.4089,"longitude":77.3178,"temp":30.0,"humidity":45,"rain":0.0,"pressure":986.7,"uv_index":7.6,"wind_gusts":25.2,"aqi":1261,"pm10":910.8,"pm2_5":114.6,"no2":14.2,"co":491.0,"o3":138.0,"so2":22.9,"mosquito_risk":4,"arthritis_risk":5,"migraine_risk":7,"frizz_risk":1,"updated_at":"2026-05-09T09:54:32.545837+05:30"},{"city":"Meerut","state":"Uttar Pradesh","latitude":28.9845,"longitude":77.7064,"temp":29.6,"humidity":52,"rain":0.0,"pressure":984.8,"uv_index":7.45,"wind_gusts":28.4,"aqi":136,"pm10":207.2,"pm2_5":42.1,"no2":6.2,"co":399.0,"o3":142.0,"so2":12.7,"mosquito_risk":4,"arthritis_risk":5,"migraine_risk":7,"frizz_risk":1,"updated_at":"2026-05-09T09:54:32.545843+05:30"},{"city":"Agra","state":"Uttar Pradesh","latitude":27.1767,"longitude":78.0081,"temp":30.1,"humidity":51,"rain":0.0,"pressure":990.0,"uv_index":7.9,"wind_gusts":26.6,"aqi":873,"pm10":827.0,"pm2_5":100.6,"no2":5.6,"co":396.0,"o3":152.0,"so2":12.7,"mosquito_risk":0,"arthritis_risk":5,"migraine_risk":7,"frizz_risk":1,"updated_at":"2026-05-09T09:54:32.545850+05:30"},{"city":"Varanasi","state":"Uttar Pradesh","latitude":25.3176,"longitude":82.9739,"temp":30.9,"humidity":50,"rain":0.0,"pressure":1000.0,"uv_index":8.55,"wind_gusts":49.0,"aqi":112,"pm10":64.3,"pm2_5":53.0,"no2":6.9,"co":479.0,"o3":171.0,"so2":25.6,"mosquito_risk":0,"arthritis_risk":5,"migraine_risk":4,"frizz_risk":1,"updated_at":"2026-05-09T09:54:32.545858+05:30"},{"city":"Prayagraj","state":"Uttar Pradesh","latitude":25.4358,"longitude":81.8463,"temp":31.6,"humidity":48,"rain":0.0,"pressure":998.0,"uv_index":8.3,"wind_gusts":41.8,"aqi":105,"pm10":61.7,"pm2_5":50.8,"no2":5.9,"co":462.0,"o3":171.0,"so2":20.1,"mosquito_risk":0,"arthritis_risk":5,"migraine_risk":7,"frizz_risk":1,"updated_at":"2026-05-09T09:54:32.545868+05:30"},{"city":"Gorakhpur","state":"Uttar Pradesh","latitude":26.7606,"longitude":83.3732,"temp":29.8,"humidity":52,"rain":0.0,"pressure":1001.2,"uv_index":8.4,"wind_gusts":36.7,"aqi":86,"pm10":53.6,"pm2_5":39.5,"no2":3.1,"co":416.0,"o3":170.0,"so2":9.1,"mosquito_risk":4,"arthritis_risk":5,"migraine_risk":4,"frizz_risk":1,"updated_at":"2026-05-09T09:54:32.545875+05:30"},{"city":"Bareilly","state":"Uttar Pradesh","latitude":28.367,"longitude":79.4304,"temp":29.2,"humidity":52,"rain":0.0,"pressure":990.4,"uv_index":7.85,"wind_gusts":29.5,"aqi":84,"pm10":55.9,"pm2_5":24.0,"no2":4.8,"co":343.0,"o3":152.0,"so2":9.8,"mosquito_risk":4,"arthritis_risk":5,"migraine_risk":7,"frizz_risk":1,"updated_at":"2026-05-09T09:54:32.545883+05:30"},{"city":"Aligarh","state":"Uttar Pradesh","latitude":27.8974,"longitude":78.088,"temp":30.6,"humidity":45,"rain":0.0,"pressure":988.4,"uv_index":7.7,"wind_gusts":27.4,"aqi":538,"pm10":482.4,"pm2_5":67.8,"no2":4.9,"co":354.0,"o3":143.0,"so2":12.8,"mosquito_risk":0,"arthritis_risk":5,"migraine_risk":7,"frizz_risk":1,"updated_at":"2026-05-09T09:54:32.545890+05:30"},{"city":"Moradabad","state":"Uttar Pradesh","latitude":28.8386,"longitude":78.7733,"temp":28.6,"humidity":54,"rain":0.0,"pressure":987.4,"uv_index":7.65,"wind_gusts":29.2,"aqi":88,"pm10":33.4,"pm2_5":22.9,"no2":5.6,"co":366.0,"o3":152.0,"so2":11.9,"mosquito_risk":4,"arthritis_risk":5,"migraine_risk":7,"frizz_risk":1,"updated_at":"2026-05-09T09:54:32.545897+05:30"},{"city":"Saharanpur","state":"Uttar Pradesh","latitude":29.9637,"longitude":77.546,"temp":28.8,"humidity":50,"rain":0.0,"pressure":979.5,"uv_index":7.3,"wind_gusts":25.9,"aqi":106,"pm10":48.8,"pm2_5":27.7,"no2":4.9,"co":375.0,"o3":176.0,"so2":9.9,"mosquito_risk":4,"arthritis_risk":5,"migraine_risk":7,"frizz_risk":1,"updated_at":"2026-05-09T09:54:32.545904+05:30"},{"city":"Jhansi","state":"Uttar Pradesh","latitude":25.4484,"longitude":78.5685,"temp":31.3,"humidity":44,"rain":0.0,"pressure":979.3,"uv_index":8.3,"wind_gusts":33.8,"aqi":65,"pm10":41.1,"pm2_5":28.2,"no2":3.3,"co":291.0,"o3":150.0,"so2":18.3,"mosquito_risk":0,"arthritis_risk":5,"migraine_risk":7,"frizz_risk":1,"updated_at":"2026-05-09T09:54:35.775185+05:30"},{"city":"Surat","state":"Gujarat","latitude":21.1702,"longitude":72.8311,"temp":35.6,"humidity":27,"rain":0.0,"pressure":1007.4,"uv_index":7.7,"wind_gusts":35.3,"aqi":101,"pm10":56.3,"pm2_5":37.3,"no2":34.7,"co":232.0,"o3":57.0,"so2":96.0,"mosquito_risk":0,"arthritis_risk":5,"migraine_risk":7,"frizz_risk":0,"updated_at":"2026-05-09T09:54:35.775217+05:30"},{"city":"Vadodara","state":"Gujarat","latitude":22.3072,"longitude":73.1812,"temp":35.0,"humidity":32,"rain":0.0,"pressure":1005.0,"uv_index":8.05,"wind_gusts":32.0,"aqi":76,"pm10":38.5,"pm2_5":19.6,"no2":8.3,"co":334.0,"o3":106.0,"so2":10.0,"mosquito_risk":0,"arthritis_risk":5,"migraine_risk":4,"frizz_risk":0,"updated_at":"2026-05-09T09:54:35.775228+05:30"},{"city":"Rajkot","state":"Gujarat","latitude":22.3039,"longitude":70.8022,"temp":31.5,"humidity":57,"rain":0.0,"pressure":995.7,"uv_index":7.7,"wind_gusts":39.6,"aqi":55,"pm10":48.8,"pm2_5":15.2,"no2":4.7,"co":194.0,"o3":84.0,"so2":5.4,"mosquito_risk":0,"arthritis_risk":5,"migraine_risk":7,"frizz_risk":1,"updated_at":"2026-05-09T09:54:35.775236+05:30"},{"city":"Thane","state":"Maharashtra","latitude":19.2183,"longitude":72.9781,"temp":35.3,"humidity":38,"rain":0.0,"pressure":1007.9,"uv_index":7.9,"wind_gusts":46.4,"aqi":91,"pm10":64.3,"pm2_5":33.3,"no2":19.6,"co":272.0,"o3":122.0,"so2":37.6,"mosquito_risk":0,"arthritis_risk":5,"migraine_risk":7,"frizz_risk":1,"updated_at":"2026-05-09T09:54:35.775244+05:30"},{"city":"Nagpur","state":"Maharashtra","latitude":21.1458,"longitude":79.0882,"temp":35.1,"humidity":34,"rain":0.0,"pressure":975.4,"uv_index":8.9,"wind_gusts":46.4,"aqi":108,"pm10":30.4,"pm2_5":25.7,"no2":7.7,"co":314.0,"o3":162.0,"so2":17.5,"mosquito_risk":0,"arthritis_risk":5,"migraine_risk":10,"frizz_risk":1,"updated_at":"2026-05-09T09:54:35.775252+05:30"},{"city":"Nashik","state":"Maharashtra","latitude":19.9975,"longitude":73.7898,"temp":34.6,"humidity":24,"rain":0.0,"pressure":947.5,"uv_index":8.15,"wind_gusts":50.0,"aqi":84,"pm10":53.1,"pm2_5":21.8,"no2":5.9,"co":258.0,"o3":119.0,"so2":18.9,"mosquito_risk":0,"arthritis_risk":5,"migraine_risk":7,"frizz_risk":0,"updated_at":"2026-05-09T09:54:35.775259+05:30"},{"city":"Aurangabad","state":"Maharashtra","latitude":19.8762,"longitude":75.3433,"temp":34.8,"humidity":23,"rain":0.0,"pressure":946.6,"uv_index":9.05,"wind_gusts":38.9,"aqi":104,"pm10":48.8,"pm2_5":30.2,"no2":3.1,"co":294.0,"o3":153.0,"so2":11.2,"mosquito_risk":0,"arthritis_risk":5,"migraine_risk":7,"frizz_risk":0,"updated_at":"2026-05-09T09:54:35.775266+05:30"},{"city":"Solapur","state":"Maharashtra","latitude":17.6599,"longitude":75.9064,"temp":33.5,"humidity":39,"rain":0.0,"pressure":959.8,"uv_index":9.05,"wind_gusts":29.9,"aqi":71,"pm10":15.9,"pm2_5":12.6,"no2":3.8,"co":218.0,"o3":108.0,"so2":8.3,"mosquito_risk":0,"arthritis_risk":5,"migraine_risk":7,"frizz_risk":1,"updated_at":"2026-05-09T09:54:35.775274+05:30"},{"city":"Kolhapur","state":"Maharashtra","latitude":16.705,"longitude":74.2433,"temp":32.8,"humidity":36,"rain":0.0,"pressure":949.9,"uv_index":8.95,"wind_gusts":34.6,"aqi":149,"pm10":21.0,"pm2_5":18.2,"no2":8.0,"co":367.0,"o3":106.0,"so2":6.6,"mosquito_risk":0,"arthritis_risk":5,"migraine_risk":7,"frizz_risk":0,"updated_at":"2026-05-09T09:54:35.775281+05:30"},{"city":"Goa","state":"Goa","latitude":15.2993,"longitude":74.124,"temp":35.2,"humidity":45,"rain":0.0,"pressure":997.9,"uv_index":8.7,"wind_gusts":50.8,"aqi":91,"pm10":36.6,"pm2_5":26.8,"no2":6.7,"co":278.0,"o3":113.0,"so2":3.9,"mosquito_risk":0,"arthritis_risk":5,"migraine_risk":10,"frizz_risk":1,"updated_at":"2026-05-09T09:54:35.775289+05:30"},{"city":"Jodhpur","state":"Rajasthan","latitude":26.2389,"longitude":73.0243,"temp":35.0,"humidity":33,"rain":0.0,"pressure":984.4,"uv_index":8.35,"wind_gusts":35.6,"aqi":116,"pm10":300.8,"pm2_5":62.4,"no2":2.2,"co":281.0,"o3":94.0,"so2":2.1,"mosquito_risk":0,"arthritis_risk":5,"migraine_risk":7,"frizz_risk":1,"updated_at":"2026-05-09T09:54:35.775296+05:30"},{"city":"Udaipur","state":"Rajasthan","latitude":24.5854,"longitude":73.7125,"temp":35.2,"humidity":18,"rain":0.0,"pressure":948.3,"uv_index":8.8,"wind_gusts":42.1,"aqi":42,"pm10":36.2,"pm2_5":10.7,"no2":1.8,"co":168.0,"o3":110.0,"so2":4.6,"mosquito_risk":0,"arthritis_risk":5,"migraine_risk":10,"frizz_risk":0,"updated_at":"2026-05-09T09:54:35.775304+05:30"},{"city":"Kota","state":"Rajasthan","latitude":25.2138,"longitude":75.8648,"temp":33.8,"humidity":22,"rain":0.0,"pressure":979.9,"uv_index":8.35,"wind_gusts":46.1,"aqi":64,"pm10":32.2,"pm2_5":20.5,"no2":3.0,"co":326.0,"o3":133.0,"so2":9.2,"mosquito_risk":0,"arthritis_risk":5,"migraine_risk":7,"frizz_risk":0,"updated_at":"2026-05-09T09:54:35.775311+05:30"},{"city":"Bikaner","state":"Rajasthan","latitude":28.0229,"longitude":73.3119,"temp":33.9,"humidity":27,"rain":0.0,"pressure":983.6,"uv_index":8.3,"wind_gusts":25.6,"aqi":89,"pm10":160.2,"pm2_5":40.3,"no2":2.2,"co":310.0,"o3":133.0,"so2":9.0,"mosquito_risk":0,"arthritis_risk":5,"migraine_risk":7,"frizz_risk":0,"updated_at":"2026-05-09T09:54:35.775318+05:30"},{"city":"Ajmer","state":"Rajasthan","latitude":26.4499,"longitude":74.6399,"temp":32.2,"humidity":21,"rain":0.0,"pressure":956.6,"uv_index":8.3,"wind_gusts":43.6,"aqi":74,"pm10":120.6,"pm2_5":35.9,"no2":2.7,"co":328.0,"o3":132.0,"so2":8.4,"mosquito_risk":0,"arthritis_risk":5,"migraine_risk":7,"frizz_risk":0,"updated_at":"2026-05-09T09:54:35.775325+05:30"},{"city":"Gwalior","state":"Madhya Pradesh","latitude":26.2183,"longitude":78.1828,"temp":30.2,"humidity":50,"rain":0.0,"pressure":984.7,"uv_index":8.1,"wind_gusts":30.2,"aqi":86,"pm10":92.2,"pm2_5":36.2,"no2":2.6,"co":341.0,"o3":148.0,"so2":10.1,"mosquito_risk":0,"arthritis_risk":5,"migraine_risk":7,"frizz_risk":1,"updated_at":"2026-05-09T09:54:35.775331+05:30"},{"city":"Indore","state":"Madhya Pradesh","latitude":22.7196,"longitude":75.8577,"temp":36.8,"humidity":12,"rain":0.0,"pressure":950.0,"uv_index":8.65,"wind_gusts":43.6,"aqi":75,"pm10":14.1,"pm2_5":7.6,"no2":4.0,"co":319.0,"o3":118.0,"so2":3.9,"mosquito_risk":0,"arthritis_risk":5,"migraine_risk":10,"frizz_risk":0,"updated_at":"2026-05-09T09:54:35.775338+05:30"},{"city":"Bhopal","state":"Madhya Pradesh","latitude":23.2599,"longitude":77.4126,"temp":35.8,"humidity":21,"rain":0.0,"pressure":955.1,"uv_index":8.6,"wind_gusts":47.2,"aqi":75,"pm10":39.6,"pm2_5":19.8,"no2":2.5,"co":295.0,"o3":139.0,"so2":6.4,"mosquito_risk":0,"arthritis_risk":5,"migraine_risk":10,"frizz_risk":0,"updated_at":"2026-05-09T09:54:35.775345+05:30"},{"city":"Jabalpur","state":"Madhya Pradesh","latitude":23.1815,"longitude":79.9864,"temp":35.2,"humidity":29,"rain":0.0,"pressure":963.0,"uv_index":8.8,"wind_gusts":58.0,"aqi":71,"pm10":34.9,"pm2_5":20.5,"no2":3.3,"co":260.0,"o3":159.0,"so2":7.6,"mosquito_risk":0,"arthritis_risk":5,"migraine_risk":10,"frizz_risk":0,"updated_at":"2026-05-09T09:54:35.775352+05:30"},{"city":"Ujjain","state":"Madhya Pradesh","latitude":23.1765,"longitude":75.7885,"temp":37.0,"humidity":13,"rain":0.0,"pressure":955.4,"uv_index":8.55,"wind_gusts":38.9,"aqi":74,"pm10":15.1,"pm2_5":8.1,"no2":2.9,"co":235.0,"o3":108.0,"so2":3.7,"mosquito_risk":0,"arthritis_risk":5,"migraine_risk":10,"frizz_risk":0,"updated_at":"2026-05-09T09:54:35.775359+05:30"},{"city":"Visakhapatnam","state":"Andhra Pradesh","latitude":17.6868,"longitude":83.2185,"temp":32.3,"humidity":56,"rain":0.0,"pressure":1006.2,"uv_index":9.15,"wind_gusts":34.6,"aqi":71,"pm10":31.3,"pm2_5":26.7,"no2":38.8,"co":819.0,"o3":29.0,"so2":45.2,"mosquito_risk":0,"arthritis_risk":5,"migraine_risk":4,"frizz_risk":1,"updated_at":"2026-05-09T09:54:35.775365+05:30"},{"city":"Vijayawada","state":"Andhra Pradesh","latitude":16.5062,"longitude":80.648,"temp":32.8,"humidity":54,"rain":0.0,"pressure":1004.7,"uv_index":9.2,"wind_gusts":37.4,"aqi":43,"pm10":12.7,"pm2_5":10.1,"no2":2.7,"co":161.0,"o3":69.0,"so2":6.6,"mosquito_risk":0,"arthritis_risk":5,"migraine_risk":4,"frizz_risk":1,"updated_at":"2026-05-09T09:54:35.775372+05:30"},{"city":"Guntur","state":"Andhra Pradesh","latitude":16.3067,"longitude":80.4365,"temp":33.6,"humidity":50,"rain":0.0,"pressure":1005.7,"uv_index":9.25,"wind_gusts":36.7,"aqi":43,"pm10":12.9,"pm2_5":10.1,"no2":2.6,"co":151.0,"o3":70.0,"so2":7.0,"mosquito_risk":0,"arthritis_risk":5,"migraine_risk":4,"frizz_risk":1,"updated_at":"2026-05-09T09:54:35.775379+05:30"},{"city":"Nellore","state":"Andhra Pradesh","latitude":14.4426,"longitude":79.9865,"temp":31.9,"humidity":60,"rain":0.0,"pressure":1007.4,"uv_index":9.2,"wind_gusts":37.4,"aqi":19,"pm10":6.7,"pm2_5":4.9,"no2":1.6,"co":129.0,"o3":56.0,"so2":2.1,"mosquito_risk":0,"arthritis_risk":5,"migraine_risk":4,"frizz_risk":1,"updated_at":"2026-05-09T09:54:35.775386+05:30"},{"city":"Kurnool","state":"Andhra Pradesh","latitude":15.8281,"longitude":78.0373,"temp":33.2,"humidity":44,"rain":0.0,"pressure":978.7,"uv_index":9.15,"wind_gusts":37.1,"aqi":29,"pm10":9.2,"pm2_5":6.1,"no2":1.2,"co":167.0,"o3":68.0,"so2":1.3,"mosquito_risk":0,"arthritis_risk":5,"migraine_risk":7,"frizz_risk":1,"updated_at":"2026-05-09T09:54:35.775394+05:30"},{"city":"Kakinada","state":"Andhra Pradesh","latitude":16.9891,"longitude":82.2475,"temp":30.9,"humidity":67,"rain":0.0,"pressure":1009.9,"uv_index":9.15,"wind_gusts":37.8,"aqi":25,"pm10":12.8,"pm2_5":9.6,"no2":4.9,"co":158.0,"o3":65.0,"so2":6.7,"mosquito_risk":3,"arthritis_risk":0,"migraine_risk":4,"frizz_risk":1,"updated_at":"2026-05-09T09:54:35.775401+05:30"},{"city":"Tirupati","state":"Andhra Pradesh","latitude":13.6288,"longitude":79.4192,"temp":31.2,"humidity":56,"rain":0.0,"pressure":992.8,"uv_index":8.7,"wind_gusts":39.6,"aqi":30,"pm10":5.4,"pm2_5":4.2,"no2":1.5,"co":139.0,"o3":57.0,"so2":1.0,"mosquito_risk":0,"arthritis_risk":5,"migraine_risk":7,"frizz_risk":1,"updated_at":"2026-05-09T09:54:35.775409+05:30"},{"city":"Warangal","state":"Telangana","latitude":17.9689,"longitude":79.5941,"temp":32.2,"humidity":50,"rain":0.0,"pressure":981.5,"uv_index":9.15,"wind_gusts":31.7,"aqi":52,"pm10":11.4,"pm2_5":9.6,"no2":3.8,"co":189.0,"o3":78.0,"so2":9.3,"mosquito_risk":0,"arthritis_risk":5,"migraine_risk":7,"frizz_risk":1,"updated_at":"2026-05-09T09:54:35.775415+05:30"},{"city":"Nizamabad","state":"Telangana","latitude":18.6725,"longitude":78.0941,"temp":32.7,"humidity":45,"rain":0.0,"pressure":967.6,"uv_index":9.1,"wind_gusts":31.0,"aqi":67,"pm10":17.8,"pm2_5":14.8,"no2":4.6,"co":249.0,"o3":112.0,"so2":6.4,"mosquito_risk":0,"arthritis_risk":5,"migraine_risk":7,"frizz_risk":1,"updated_at":"2026-05-09T09:54:35.775422+05:30"},{"city":"Mysore","state":"Karnataka","latitude":12.2958,"longitude":76.6396,"temp":28.0,"humidity":60,"rain":0.0,"pressure":929.6,"uv_index":9.4,"wind_gusts":31.7,"aqi":59,"pm10":12.4,"pm2_5":10.9,"no2":4.5,"co":218.0,"o3":78.0,"so2":7.5,"mosquito_risk":4,"arthritis_risk":5,"migraine_risk":7,"frizz_risk":1,"updated_at":"2026-05-09T09:54:35.775428+05:30"},{"city":"Mangalore","state":"Karnataka","latitude":12.9141,"longitude":74.856,"temp":32.0,"humidity":65,"rain":0.0,"pressure":1006.9,"uv_index":8.85,"wind_gusts":38.9,"aqi":87,"pm10":39.1,"pm2_5":28.8,"no2":4.7,"co":287.0,"o3":119.0,"so2":4.7,"mosquito_risk":3,"arthritis_risk":5,"migraine_risk":4,"frizz_risk":1,"updated_at":"2026-05-09T09:54:35.775435+05:30"},{"city":"Hubli-Dharwad","state":"Karnataka","latitude":15.3647,"longitude":75.124,"temp":31.6,"humidity":41,"rain":0.0,"pressure":942.7,"uv_index":9.15,"wind_gusts":47.2,"aqi":55,"pm10":12.5,"pm2_5":8.6,"no2":4.0,"co":185.0,"o3":87.0,"so2":4.5,"mosquito_risk":0,"arthritis_risk":5,"migraine_risk":7,"frizz_risk":1,"updated_at":"2026-05-09T09:54:35.775442+05:30"},{"city":"Belgaum","state":"Karnataka","latitude":15.8497,"longitude":74.4977,"temp":31.0,"humidity":40,"rain":0.0,"pressure":928.0,"uv_index":9.2,"wind_gusts":40.7,"aqi":87,"pm10":15.3,"pm2_5":12.2,"no2":6.6,"co":229.0,"o3":101.0,"so2":7.8,"mosquito_risk":0,"arthritis_risk":5,"migraine_risk":7,"frizz_risk":0,"updated_at":"2026-05-09T09:54:39.003523+05:30"},{"city":"Coimbatore","state":"Tamil Nadu","latitude":11.0168,"longitude":76.9558,"temp":27.9,"humidity":72,"rain":0.1,"pressure":962.7,"uv_index":7.2,"wind_gusts":35.3,"aqi":63,"pm10":17.5,"pm2_5":15.3,"no2":4.1,"co":263.0,"o3":91.0,"so2":8.8,"mosquito_risk":10,"arthritis_risk":5,"migraine_risk":7,"frizz_risk":1,"updated_at":"2026-05-09T09:54:39.003557+05:30"},{"city":"Madurai","state":"Tamil Nadu","latitude":9.9252,"longitude":78.1198,"temp":29.4,"humidity":70,"rain":0.0,"pressure":993.4,"uv_index":1.65,"wind_gusts":37.8,"aqi":69,"pm10":9.0,"pm2_5":8.3,"no2":7.4,"co":234.0,"o3":66.0,"so2":17.2,"mosquito_risk":7,"arthritis_risk":5,"migraine_risk":3,"frizz_risk":1,"updated_at":"2026-05-09T09:54:39.003572+05:30"},{"city":"Trichy","state":"Tamil Nadu","latitude":10.7905,"longitude":78.7047,"temp":29.0,"humidity":72,"rain":0.0,"pressure":1000.5,"uv_index":2.6,"wind_gusts":37.1,"aqi":43,"pm10":9.5,"pm2_5":7.9,"no2":8.5,"co":177.0,"o3":42.0,"so2":17.9,"mosquito_risk":7,"arthritis_risk":5,"migraine_risk":0,"frizz_risk":1,"updated_at":"2026-05-09T09:54:39.003581+05:30"},{"city":"Salem","state":"Tamil Nadu","latitude":11.6643,"longitude":78.146,"temp":29.4,"humidity":68,"rain":0.0,"pressure":978.2,"uv_index":7.15,"wind_gusts":37.8,"aqi":52,"pm10":10.8,"pm2_5":9.4,"no2":8.6,"co":243.0,"o3":64.0,"so2":20.9,"mosquito_risk":7,"arthritis_risk":5,"migraine_risk":7,"frizz_risk":1,"updated_at":"2026-05-09T09:54:39.003589+05:30"},{"city":"Tirunelveli","state":"Tamil Nadu","latitude":8.7139,"longitude":77.7567,"temp":28.4,"humidity":76,"rain":0.0,"pressure":1003.8,"uv_index":3.6,"wind_gusts":31.3,"aqi":56,"pm10":12.5,"pm2_5":11.8,"no2":3.5,"co":207.0,"o3":87.0,"so2":6.7,"mosquito_risk":7,"arthritis_risk":5,"migraine_risk":0,"frizz_risk":1,"updated_at":"2026-05-09T09:54:39.003596+05:30"},{"city":"Vellore","state":"Tamil Nadu","latitude":12.9165,"longitude":79.1325,"temp":31.0,"humidity":58,"rain":0.0,"pressure":986.0,"uv_index":7.65,"wind_gusts":40.7,"aqi":48,"pm10":10.1,"pm2_5":8.5,"no2":5.1,"co":152.0,"o3":52.0,"so2":11.4,"mosquito_risk":0,"arthritis_risk":5,"migraine_risk":7,"frizz_risk":1,"updated_at":"2026-05-09T09:54:39.003604+05:30"},{"city":"Erode","state":"Tamil Nadu","latitude":11.341,"longitude":77.7172,"temp":29.6,"humidity":67,"rain":0.0,"pressure":989.9,"uv_index":7.0,"wind_gusts":33.5,"aqi":61,"pm10":14.3,"pm2_5":13.5,"no2":7.0,"co":260.0,"o3":79.0,"so2":13.2,"mosquito_risk":7,"arthritis_risk":5,"migraine_risk":7,"frizz_risk":1,"updated_at":"2026-05-09T09:54:39.003612+05:30"},{"city":"Kochi","state":"Kerala","latitude":9.9312,"longitude":76.2673,"temp":27.4,"humidity":89,"rain":0.0,"pressure":1009.3,"uv_index":5.4,"wind_gusts":24.8,"aqi":74,"pm10":21.9,"pm2_5":20.8,"no2":8.9,"co":338.0,"o3":126.0,"so2":6.4,"mosquito_risk":7,"arthritis_risk":0,"migraine_risk":0,"frizz_risk":1,"updated_at":"2026-05-09T09:54:39.003619+05:30"},{"city":"Thiruvananthapuram","state":"Kerala","latitude":8.5241,"longitude":76.9366,"temp":26.9,"humidity":91,"rain":0.2,"pressure":1008.5,"uv_index":4.3,"wind_gusts":22.0,"aqi":45,"pm10":9.2,"pm2_5":7.9,"no2":3.2,"co":370.0,"o3":111.0,"so2":2.4,"mosquito_risk":10,"arthritis_risk":0,"migraine_risk":0,"frizz_risk":1,"updated_at":"2026-05-09T09:54:39.003627+05:30"},{"city":"Kozhikode","state":"Kerala","latitude":11.2588,"longitude":75.7804,"temp":29.8,"humidity":79,"rain":0.0,"pressure":1008.2,"uv_index":8.6,"wind_gusts":33.5,"aqi":66,"pm10":21.2,"pm2_5":18.6,"no2":2.8,"co":341.0,"o3":121.0,"so2":3.9,"mosquito_risk":7,"arthritis_risk":0,"migraine_risk":4,"frizz_risk":1,"updated_at":"2026-05-09T09:54:39.003634+05:30"},{"city":"Thrissur","state":"Kerala","latitude":10.5276,"longitude":76.2144,"temp":28.4,"humidity":77,"rain":0.0,"pressure":1007.5,"uv_index":6.7,"wind_gusts":23.0,"aqi":77,"pm10":25.4,"pm2_5":23.9,"no2":8.5,"co":295.0,"o3":103.0,"so2":6.0,"mosquito_risk":7,"arthritis_risk":5,"migraine_risk":4,"frizz_risk":1,"updated_at":"2026-05-09T09:54:39.003642+05:30"},{"city":"Kannur","state":"Kerala","latitude":11.8745,"longitude":75.3704,"temp":29.5,"humidity":76,"rain":0.0,"pressure":1007.6,"uv_index":7.9,"wind_gusts":31.7,"aqi":75,"pm10":24.4,"pm2_5":18.4,"no2":4.5,"co":316.0,"o3":104.0,"so2":3.0,"mosquito_risk":7,"arthritis_risk":5,"migraine_risk":4,"frizz_risk":1,"updated_at":"2026-05-09T09:54:39.003649+05:30"},{"city":"Patna","state":"Bihar","latitude":25.5941,"longitude":85.1376,"temp":29.1,"humidity":62,"rain":0.0,"pressure":1004.3,"uv_index":8.1,"wind_gusts":32.4,"aqi":137,"pm10":51.1,"pm2_5":45.6,"no2":5.5,"co":450.0,"o3":171.0,"so2":21.6,"mosquito_risk":7,"arthritis_risk":5,"migraine_risk":4,"frizz_risk":1,"updated_at":"2026-05-09T09:54:39.003656+05:30"},{"city":"Gaya","state":"Bihar","latitude":24.7914,"longitude":85.0002,"temp":31.1,"humidity":52,"rain":0.0,"pressure":997.0,"uv_index":8.2,"wind_gusts":34.9,"aqi":124,"pm10":45.9,"pm2_5":40.3,"no2":7.8,"co":405.0,"o3":169.0,"so2":37.0,"mosquito_risk":0,"arthritis_risk":5,"migraine_risk":7,"frizz_risk":1,"updated_at":"2026-05-09T09:54:39.003663+05:30"},{"city":"Muzaffarpur","state":"Bihar","latitude":26.1209,"longitude":85.3647,"temp":29.2,"humidity":61,"rain":0.0,"pressure":1004.7,"uv_index":8.65,"wind_gusts":32.8,"aqi":147,"pm10":52.6,"pm2_5":45.9,"no2":4.6,"co":437.0,"o3":170.0,"so2":15.0,"mosquito_risk":7,"arthritis_risk":5,"migraine_risk":4,"frizz_risk":1,"updated_at":"2026-05-09T09:54:39.003670+05:30"},{"city":"Bhagalpur","state":"Bihar","latitude":25.2425,"longitude":87.0117,"temp":30.2,"humidity":52,"rain":0.0,"pressure":1005.7,"uv_index":8.7,"wind_gusts":50.0,"aqi":150,"pm10":47.3,"pm2_5":38.5,"no2":5.5,"co":377.0,"o3":175.0,"so2":10.7,"mosquito_risk":0,"arthritis_risk":5,"migraine_risk":4,"frizz_risk":1,"updated_at":"2026-05-09T09:54:39.003676+05:30"},{"city":"Ranchi","state":"Jharkhand","latitude":23.3441,"longitude":85.3096,"temp":29.6,"humidity":45,"rain":0.0,"pressure":941.2,"uv_index":8.95,"wind_gusts":39.2,"aqi":90,"pm10":33.4,"pm2_5":26.9,"no2":3.8,"co":382.0,"o3":172.0,"so2":36.4,"mosquito_risk":4,"arthritis_risk":5,"migraine_risk":7,"frizz_risk":1,"updated_at":"2026-05-09T09:54:39.003683+05:30"},{"city":"Jamshedpur","state":"Jharkhand","latitude":22.8046,"longitude":86.2029,"temp":30.9,"humidity":53,"rain":0.0,"pressure":994.5,"uv_index":9.05,"wind_gusts":37.4,"aqi":87,"pm10":36.9,"pm2_5":30.2,"no2":10.0,"co":629.0,"o3":149.0,"so2":35.1,"mosquito_risk":0,"arthritis_risk":5,"migraine_risk":7,"frizz_risk":1,"updated_at":"2026-05-09T09:54:39.003690+05:30"},{"city":"Dhanbad","state":"Jharkhand","latitude":23.7957,"longitude":86.4304,"temp":29.2,"humidity":60,"rain":0.0,"pressure":983.8,"uv_index":8.8,"wind_gusts":41.8,"aqi":145,"pm10":56.7,"pm2_5":49.0,"no2":38.2,"co":439.0,"o3":113.0,"so2":98.3,"mosquito_risk":4,"arthritis_risk":5,"migraine_risk":7,"frizz_risk":1,"updated_at":"2026-05-09T09:54:39.003697+05:30"},{"city":"Bokaro","state":"Jharkhand","latitude":23.6693,"longitude":86.1511,"temp":30.3,"humidity":55,"rain":0.0,"pressure":987.4,"uv_index":8.8,"wind_gusts":47.5,"aqi":141,"pm10":54.0,"pm2_5":45.3,"no2":27.5,"co":1754.0,"o3":144.0,"so2":84.3,"mosquito_risk":0,"arthritis_risk":5,"migraine_risk":7,"frizz_risk":1,"updated_at":"2026-05-09T09:54:39.003704+05:30"},{"city":"Bhubaneswar","state":"Odisha","latitude":20.2961,"longitude":85.8245,"temp":32.3,"humidity":60,"rain":0.0,"pressure":1005.4,"uv_index":9.1,"wind_gusts":32.0,"aqi":44,"pm10":13.8,"pm2_5":10.1,"no2":1.8,"co":199.0,"o3":88.0,"so2":4.0,"mosquito_risk":0,"arthritis_risk":5,"migraine_risk":4,"frizz_risk":1,"updated_at":"2026-05-09T09:54:39.003710+05:30"},{"city":"Cuttack","state":"Odisha","latitude":20.4625,"longitude":85.8828,"temp":32.2,"humidity":62,"rain":0.0,"pressure":1007.2,"uv_index":9.15,"wind_gusts":53.6,"aqi":44,"pm10":13.8,"pm2_5":10.1,"no2":1.8,"co":219.0,"o3":88.0,"so2":4.0,"mosquito_risk":3,"arthritis_risk":5,"migraine_risk":4,"frizz_risk":1,"updated_at":"2026-05-09T09:54:39.003717+05:30"},{"city":"Rourkela","state":"Odisha","latitude":22.2604,"longitude":84.8536,"temp":32.0,"humidity":53,"rain":0.0,"pressure":988.0,"uv_index":8.95,"wind_gusts":43.6,"aqi":100,"pm10":36.8,"pm2_5":32.1,"no2":5.0,"co":374.0,"o3":164.0,"so2":66.3,"mosquito_risk":0,"arthritis_risk":5,"migraine_risk":7,"frizz_risk":1,"updated_at":"2026-05-09T09:54:39.003723+05:30"},{"city":"Raipur","state":"Chhattisgarh","latitude":21.2514,"longitude":81.6296,"temp":33.5,"humidity":38,"rain":0.0,"pressure":977.3,"uv_index":8.95,"wind_gusts":60.8,"aqi":115,"pm10":25.6,"pm2_5":22.9,"no2":14.9,"co":706.0,"o3":179.0,"so2":5.7,"mosquito_risk":0,"arthritis_risk":5,"migraine_risk":7,"frizz_risk":1,"updated_at":"2026-05-09T09:54:39.003730+05:30"},{"city":"Bhilai","state":"Chhattisgarh","latitude":21.1938,"longitude":81.3509,"temp":33.1,"humidity":41,"rain":0.0,"pressure":977.7,"uv_index":8.95,"wind_gusts":76.3,"aqi":114,"pm10":21.0,"pm2_5":18.2,"no2":12.3,"co":1248.0,"o3":144.0,"so2":4.3,"mosquito_risk":0,"arthritis_risk":5,"migraine_risk":7,"frizz_risk":1,"updated_at":"2026-05-09T09:54:39.003736+05:30"},{"city":"Guwahati","state":"Assam","latitude":26.1158,"longitude":91.7086,"temp":29.4,"humidity":61,"rain":0.0,"pressure":1005.9,"uv_index":8.65,"wind_gusts":24.1,"aqi":114,"pm10":37.8,"pm2_5":27.9,"no2":0.4,"co":369.0,"o3":152.0,"so2":2.6,"mosquito_risk":7,"arthritis_risk":5,"migraine_risk":4,"frizz_risk":1,"updated_at":"2026-05-09T09:54:39.003742+05:30"},{"city":"Agartala","state":"Tripura","latitude":23.8315,"longitude":91.2868,"temp":31.2,"humidity":55,"rain":0.0,"pressure":1009.5,"uv_index":8.8,"wind_gusts":19.8,"aqi":152,"pm10":46.1,"pm2_5":38.3,"no2":4.0,"co":410.0,"o3":191.0,"so2":5.9,"mosquito_risk":0,"arthritis_risk":0,"migraine_risk":4,"frizz_risk":1,"updated_at":"2026-05-09T09:54:39.003749+05:30"},{"city":"Shillong","state":"Meghalaya","latitude":25.5788,"longitude":91.8933,"temp":23.4,"humidity":51,"rain":0.0,"pressure":862.4,"uv_index":8.4,"wind_gusts":29.2,"aqi":77,"pm10":30.4,"pm2_5":20.5,"no2":0.3,"co":261.0,"o3":149.0,"so2":2.3,"mosquito_risk":0,"arthritis_risk":5,"migraine_risk":7,"frizz_risk":0,"updated_at":"2026-05-09T09:54:39.003755+05:30"},{"city":"Imphal","state":"Manipur","latitude":24.817,"longitude":93.9368,"temp":27.2,"humidity":54,"rain":0.0,"pressure":927.7,"uv_index":9.2,"wind_gusts":24.5,"aqi":92,"pm10":26.6,"pm2_5":17.7,"no2":0.0,"co":285.0,"o3":160.0,"so2":4.0,"mosquito_risk":4,"arthritis_risk":5,"migraine_risk":7,"frizz_risk":1,"updated_at":"2026-05-09T09:54:39.003761+05:30"},{"city":"Aizawl","state":"Mizoram","latitude":23.7271,"longitude":92.7176,"temp":26.7,"humidity":45,"rain":0.0,"pressure":897.0,"uv_index":9.0,"wind_gusts":25.9,"aqi":78,"pm10":31.7,"pm2_5":18.8,"no2":0.1,"co":248.0,"o3":153.0,"so2":2.7,"mosquito_risk":4,"arthritis_risk":5,"migraine_risk":7,"frizz_risk":0,"updated_at":"2026-05-09T09:54:39.003768+05:30"},{"city":"Kohima","state":"Nagaland","latitude":25.6701,"longitude":94.1077,"temp":23.7,"humidity":59,"rain":0.0,"pressure":860.6,"uv_index":9.15,"wind_gusts":30.6,"aqi":78,"pm10":25.9,"pm2_5":16.9,"no2":0.2,"co":229.0,"o3":142.0,"so2":1.9,"mosquito_risk":0,"arthritis_risk":5,"migraine_risk":7,"frizz_risk":0,"updated_at":"2026-05-09T09:54:39.003774+05:30"},{"city":"Gangtok","state":"Sikkim","latitude":27.3314,"longitude":88.6138,"temp":17.6,"humidity":76,"rain":0.0,"pressure":842.1,"uv_index":8.8,"wind_gusts":42.1,"aqi":71,"pm10":23.6,"pm2_5":14.0,"no2":0.2,"co":201.0,"o3":137.0,"so2":0.9,"mosquito_risk":3,"arthritis_risk":5,"migraine_risk":7,"frizz_risk":0,"updated_at":"2026-05-09T09:54:39.003781+05:30"},{"city":"Siliguri","state":"West Bengal","latitude":26.7271,"longitude":88.3953,"temp":30.4,"humidity":44,"rain":0.0,"pressure":997.5,"uv_index":8.5,"wind_gusts":28.1,"aqi":120,"pm10":39.7,"pm2_5":26.0,"no2":1.1,"co":536.0,"o3":151.0,"so2":2.5,"mosquito_risk":0,"arthritis_risk":5,"migraine_risk":7,"frizz_risk":1,"updated_at":"2026-05-09T09:54:42.230533+05:30"},{"city":"Durgapur","state":"West Bengal","latitude":23.5204,"longitude":87.3119,"temp":30.1,"humidity":63,"rain":0.0,"pressure":999.1,"uv_index":8.9,"wind_gusts":35.6,"aqi":143,"pm10":45.3,"pm2_5":40.9,"no2":23.6,"co":357.0,"o3":113.0,"so2":66.9,"mosquito_risk":3,"arthritis_risk":5,"migraine_risk":7,"frizz_risk":1,"updated_at":"2026-05-09T09:54:42.230568+05:30"},{"city":"Asansol","state":"West Bengal","latitude":23.6739,"longitude":86.9524,"temp":30.5,"humidity":59,"rain":0.0,"pressure":997.7,"uv_index":8.95,"wind_gusts":52.6,"aqi":130,"pm10":44.5,"pm2_5":39.8,"no2":23.6,"co":817.0,"o3":111.0,"so2":68.6,"mosquito_risk":0,"arthritis_risk":5,"migraine_risk":7,"frizz_risk":1,"updated_at":"2026-05-09T09:54:42.230579+05:30"},{"city":"Pondicherry","state":"Puducherry","latitude":11.9139,"longitude":79.8145,"temp":26.5,"humidity":87,"rain":0.1,"pressure":1009.7,"uv_index":5.2,"wind_gusts":35.6,"aqi":22,"pm10":5.0,"pm2_5":3.7,"no2":2.5,"co":159.0,"o3":56.0,"so2":0.6,"mosquito_risk":10,"arthritis_risk":0,"migraine_risk":0,"frizz_risk":1,"updated_at":"2026-05-09T09:54:42.230588+05:30"},{"city":"Port Blair","state":"Andaman and Nicobar Islands","latitude":11.6234,"longitude":92.7265,"temp":30.0,"humidity":75,"rain":0.0,"pressure":1007.2,"uv_index":8.15,"wind_gusts":40.0,"aqi":28,"pm10":3.6,"pm2_5":2.4,"no2":0.3,"co":128.0,"o3":60.0,"so2":0.1,"mosquito_risk":7,"arthritis_risk":5,"migraine_risk":4,"frizz_risk":1,"updated_at":"2026-05-09T09:54:42.230596+05:30"},{"city":"Haridwar","state":"Uttarakhand","latitude":29.9457,"longitude":78.1642,"temp":29.5,"humidity":45,"rain":0.0,"pressure":977.9,"uv_index":7.4,"wind_gusts":27.4,"aqi":86,"pm10":40.3,"pm2_5":20.4,"no2":0.3,"co":283.0,"o3":174.0,"so2":6.7,"mosquito_risk":4,"arthritis_risk":5,"migraine_risk":7,"frizz_risk":1,"updated_at":"2026-05-09T09:54:42.230604+05:30"},{"city":"Rishikesh","state":"Uttarakhand","latitude":30.0869,"longitude":78.2676,"temp":28.8,"humidity":46,"rain":0.0,"pressure":970.4,"uv_index":7.5,"wind_gusts":28.1,"aqi":69,"pm10":34.1,"pm2_5":16.4,"no2":0.1,"co":250.0,"o3":175.0,"so2":4.8,"mosquito_risk":4,"arthritis_risk":5,"migraine_risk":7,"frizz_risk":0,"updated_at":"2026-05-09T09:54:42.230612+05:30"},{"city":"Nainital","state":"Uttarakhand","latitude":29.3919,"longitude":79.4542,"temp":18.1,"humidity":54,"rain":0.0,"pressure":809.6,"uv_index":8.25,"wind_gusts":32.0,"aqi":63,"pm10":35.4,"pm2_5":14.3,"no2":0.0,"co":249.0,"o3":155.0,"so2":3.1,"mosquito_risk":0,"arthritis_risk":5,"migraine_risk":7,"frizz_risk":0,"updated_at":"2026-05-09T09:54:42.230620+05:30"},{"city":"Mussoorie","state":"Uttarakhand","latitude":30.4599,"longitude":78.0664,"temp":18.0,"humidity":60,"rain":0.0,"pressure":806.8,"uv_index":7.85,"wind_gusts":40.0,"aqi":78,"pm10":32.2,"pm2_5":15.8,"no2":0.0,"co":233.0,"o3":168.0,"so2":6.2,"mosquito_risk":0,"arthritis_risk":5,"migraine_risk":7,"frizz_risk":0,"updated_at":"2026-05-09T09:54:42.230627+05:30"},{"city":"Dharamshala","state":"Himachal Pradesh","latitude":32.219,"longitude":76.3234,"temp":21.7,"humidity":65,"rain":0.0,"pressure":872.5,"uv_index":8.25,"wind_gusts":37.4,"aqi":66,"pm10":45.3,"pm2_5":12.7,"no2":0.5,"co":269.0,"o3":156.0,"so2":1.3,"mosquito_risk":3,"arthritis_risk":5,"migraine_risk":7,"frizz_risk":0,"updated_at":"2026-05-09T09:54:42.230634+05:30"},{"city":"Dalhousie","state":"Himachal Pradesh","latitude":32.5387,"longitude":75.971,"temp":19.0,"humidity":60,"rain":0.0,"pressure":808.3,"uv_index":8.55,"wind_gusts":34.9,"aqi":115,"pm10":100.6,"pm2_5":39.9,"no2":2.9,"co":268.0,"o3":170.0,"so2":5.4,"mosquito_risk":0,"arthritis_risk":5,"migraine_risk":7,"frizz_risk":0,"updated_at":"2026-05-09T09:54:42.230642+05:30"},{"city":"Patiala","state":"Punjab","latitude":30.3398,"longitude":76.3869,"temp":30.7,"humidity":44,"rain":0.0,"pressure":981.3,"uv_index":7.5,"wind_gusts":25.2,"aqi":292,"pm10":466.6,"pm2_5":64.7,"no2":4.5,"co":329.0,"o3":162.0,"so2":12.0,"mosquito_risk":0,"arthritis_risk":5,"migraine_risk":7,"frizz_risk":1,"updated_at":"2026-05-09T09:54:42.230649+05:30"},{"city":"Bhatinda","state":"Punjab","latitude":30.211,"longitude":74.9455,"temp":32.8,"humidity":37,"rain":0.0,"pressure":986.3,"uv_index":8.2,"wind_gusts":28.1,"aqi":579,"pm10":484.3,"pm2_5":102.7,"no2":5.2,"co":344.0,"o3":146.0,"so2":18.0,"mosquito_risk":0,"arthritis_risk":5,"migraine_risk":7,"frizz_risk":1,"updated_at":"2026-05-09T09:54:42.230656+05:30"},{"city":"Rohtak","state":"Haryana","latitude":28.8955,"longitude":76.6066,"temp":31.6,"humidity":40,"rain":0.0,"pressure":984.7,"uv_index":7.6,"wind_gusts":25.9,"aqi":514,"pm10":488.0,"pm2_5":84.8,"no2":14.1,"co":472.0,"o3":150.0,"so2":29.2,"mosquito_risk":0,"arthritis_risk":5,"migraine_risk":7,"frizz_risk":1,"updated_at":"2026-05-09T09:54:42.230663+05:30"},{"city":"Panipat","state":"Haryana","latitude":29.3909,"longitude":76.9635,"temp":30.7,"humidity":45,"rain":0.0,"pressure":983.7,"uv_index":7.45,"wind_gusts":28.1,"aqi":765,"pm10":776.7,"pm2_5":98.5,"no2":10.9,"co":426.0,"o3":150.0,"so2":25.2,"mosquito_risk":0,"arthritis_risk":5,"migraine_risk":7,"frizz_risk":1,"updated_at":"2026-05-09T09:54:42.230669+05:30"},{"city":"Mathura","state":"Uttar Pradesh","latitude":27.4924,"longitude":77.6737,"temp":30.6,"humidity":46,"rain":0.0,"pressure":989.3,"uv_index":7.85,"wind_gusts":22.3,"aqi":865,"pm10":646.3,"pm2_5":83.4,"no2":5.3,"co":376.0,"o3":144.0,"so2":8.9,"mosquito_risk":0,"arthritis_risk":5,"migraine_risk":7,"frizz_risk":1,"updated_at":"2026-05-09T09:54:42.230676+05:30"},{"city":"Vrindavan","state":"Uttar Pradesh","latitude":27.5823,"longitude":77.7027,"temp":30.8,"humidity":45,"rain":0.0,"pressure":989.8,"uv_index":7.8,"wind_gusts":25.6,"aqi":865,"pm10":646.3,"pm2_5":83.4,"no2":5.3,"co":369.0,"o3":144.0,"so2":8.9,"mosquito_risk":0,"arthritis_risk":5,"migraine_risk":7,"frizz_risk":1,"updated_at":"2026-05-09T09:54:42.230684+05:30"},{"city":"Ayodhya","state":"Uttar Pradesh","latitude":26.7922,"longitude":82.1998,"temp":29.6,"humidity":52,"rain":0.0,"pressure":999.1,"uv_index":8.15,"wind_gusts":37.1,"aqi":84,"pm10":50.1,"pm2_5":38.5,"no2":3.9,"co":422.0,"o3":158.0,"so2":9.8,"mosquito_risk":4,"arthritis_risk":5,"migraine_risk":7,"frizz_risk":1,"updated_at":"2026-05-09T09:54:42.230691+05:30"},{"city":"Ratlam","state":"Madhya Pradesh","latitude":23.3315,"longitude":75.0367,"temp":35.5,"humidity":17,"rain":0.0,"pressure":956.3,"uv_index":8.5,"wind_gusts":40.7,"aqi":60,"pm10":15.7,"pm2_5":7.0,"no2":1.7,"co":228.0,"o3":117.0,"so2":3.7,"mosquito_risk":0,"arthritis_risk":5,"migraine_risk":10,"frizz_risk":0,"updated_at":"2026-05-09T09:54:42.230698+05:30"},{"city":"Sagar","state":"Madhya Pradesh","latitude":23.8388,"longitude":78.7378,"temp":35.7,"humidity":20,"rain":0.0,"pressure":951.9,"uv_index":8.55,"wind_gusts":49.7,"aqi":69,"pm10":37.7,"pm2_5":19.6,"no2":1.9,"co":207.0,"o3":146.0,"so2":5.8,"mosquito_risk":0,"arthritis_risk":5,"migraine_risk":10,"frizz_risk":0,"updated_at":"2026-05-09T09:54:42.230705+05:30"},{"city":"Satna","state":"Madhya Pradesh","latitude":24.6005,"longitude":80.8322,"temp":33.0,"humidity":33,"rain":0.0,"pressure":972.6,"uv_index":8.65,"wind_gusts":66.2,"aqi":81,"pm10":49.4,"pm2_5":29.3,"no2":5.9,"co":290.0,"o3":159.0,"so2":21.2,"mosquito_risk":0,"arthritis_risk":5,"migraine_risk":7,"frizz_risk":0,"updated_at":"2026-05-09T09:54:42.230712+05:30"},{"city":"Akola","state":"Maharashtra","latitude":20.7002,"longitude":77.0082,"temp":36.4,"humidity":29,"rain":0.0,"pressure":976.8,"uv_index":8.85,"wind_gusts":36.0,"aqi":77,"pm10":31.4,"pm2_5":24.4,"no2":5.8,"co":274.0,"o3":131.0,"so2":8.0,"mosquito_risk":0,"arthritis_risk":5,"migraine_risk":10,"frizz_risk":0,"updated_at":"2026-05-09T09:54:42.230720+05:30"},{"city":"Amravati","state":"Maharashtra","latitude":20.9374,"longitude":77.7796,"temp":35.4,"humidity":31,"rain":0.0,"pressure":969.5,"uv_index":8.85,"wind_gusts":32.4,"aqi":79,"pm10":27.1,"pm2_5":21.7,"no2":5.0,"co":258.0,"o3":132.0,"so2":5.8,"mosquito_risk":0,"arthritis_risk":5,"migraine_risk":10,"frizz_risk":0,"updated_at":"2026-05-09T09:54:42.230729+05:30"},{"city":"Latur","state":"Maharashtra","latitude":18.4088,"longitude":76.5604,"temp":32.5,"humidity":40,"rain":0.0,"pressure":943.1,"uv_index":9.05,"wind_gusts":31.7,"aqi":75,"pm10":19.3,"pm2_5":15.0,"no2":3.1,"co":225.0,"o3":118.0,"so2":4.5,"mosquito_risk":0,"arthritis_risk":5,"migraine_risk":7,"frizz_risk":1,"updated_at":"2026-05-09T09:54:42.230736+05:30"},{"city":"Nanded","state":"Maharashtra","latitude":19.1383,"longitude":77.3091,"temp":34.7,"humidity":36,"rain":0.0,"pressure":970.9,"uv_index":9.0,"wind_gusts":54.4,"aqi":73,"pm10":19.7,"pm2_5":16.2,"no2":4.6,"co":288.0,"o3":124.0,"so2":6.4,"mosquito_risk":0,"arthritis_risk":5,"migraine_risk":7,"frizz_risk":1,"updated_at":"2026-05-09T09:54:42.230742+05:30"},{"city":"Gulbarga","state":"Karnataka","latitude":17.3297,"longitude":76.8343,"temp":32.6,"humidity":43,"rain":0.0,"pressure":961.2,"uv_index":9.0,"wind_gusts":35.6,"aqi":58,"pm10":12.9,"pm2_5":10.2,"no2":5.0,"co":209.0,"o3":95.0,"so2":8.8,"mosquito_risk":0,"arthritis_risk":5,"migraine_risk":7,"frizz_risk":1,"updated_at":"2026-05-09T09:54:42.230749+05:30"},{"city":"Bidar","state":"Karnataka","latitude":17.9104,"longitude":77.5199,"temp":32.1,"humidity":41,"rain":0.0,"pressure":938.6,"uv_index":9.0,"wind_gusts":36.7,"aqi":65,"pm10":15.4,"pm2_5":12.2,"no2":4.0,"co":229.0,"o3":106.0,"so2":4.5,"mosquito_risk":0,"arthritis_risk":5,"migraine_risk":7,"frizz_risk":1,"updated_at":"2026-05-09T09:54:42.230755+05:30"},{"city":"Hospet","state":"Karnataka","latitude":15.2689,"longitude":76.3909,"temp":30.6,"humidity":49,"rain":0.0,"pressure":957.6,"uv_index":9.25,"wind_gusts":36.4,"aqi":47,"pm10":10.7,"pm2_5":7.6,"no2":7.7,"co":175.0,"o3":60.0,"so2":12.8,"mosquito_risk":0,"arthritis_risk":5,"migraine_risk":7,"frizz_risk":1,"updated_at":"2026-05-09T09:54:42.230762+05:30"},{"city":"Tirupur","state":"Tamil Nadu","latitude":11.1085,"longitude":77.3411,"temp":29.8,"humidity":64,"rain":0.0,"pressure":976.0,"uv_index":6.7,"wind_gusts":42.1,"aqi":77,"pm10":20.0,"pm2_5":18.3,"no2":5.6,"co":213.0,"o3":92.0,"so2":9.9,"mosquito_risk":7,"arthritis_risk":5,"migraine_risk":7,"frizz_risk":1,"updated_at":"2026-05-09T09:54:42.230769+05:30"},{"city":"Alappuzha","state":"Kerala","latitude":9.4981,"longitude":76.3388,"temp":27.7,"humidity":84,"rain":0.0,"pressure":1009.5,"uv_index":3.1,"wind_gusts":28.1,"aqi":70,"pm10":19.6,"pm2_5":18.5,"no2":6.8,"co":275.0,"o3":125.0,"so2":8.1,"mosquito_risk":7,"arthritis_risk":0,"migraine_risk":0,"frizz_risk":1,"updated_at":"2026-05-09T09:54:42.230775+05:30"},{"city":"Munnar","state":"Kerala","latitude":10.0889,"longitude":77.0595,"temp":20.4,"humidity":81,"rain":0.0,"pressure":857.7,"uv_index":3.0,"wind_gusts":20.9,"aqi":52,"pm10":9.1,"pm2_5":8.1,"no2":2.1,"co":154.0,"o3":80.0,"so2":4.0,"mosquito_risk":3,"arthritis_risk":5,"migraine_risk":3,"frizz_risk":1,"updated_at":"2026-05-09T09:54:42.230783+05:30"},{"city":"Silchar","state":"Assam","latitude":24.8333,"longitude":92.7789,"temp":31.0,"humidity":59,"rain":0.0,"pressure":1008.4,"uv_index":8.85,"wind_gusts":18.7,"aqi":120,"pm10":36.3,"pm2_5":27.4,"no2":0.7,"co":347.0,"o3":151.0,"so2":5.5,"mosquito_risk":0,"arthritis_risk":0,"migraine_risk":4,"frizz_risk":1,"updated_at":"2026-05-09T09:54:42.230790+05:30"},{"city":"Dibrugarh","state":"Assam","latitude":27.4728,"longitude":94.912,"temp":29.8,"humidity":65,"rain":0.0,"pressure":999.8,"uv_index":8.8,"wind_gusts":14.0,"aqi":98,"pm10":34.5,"pm2_5":25.7,"no2":0.7,"co":284.0,"o3":151.0,"so2":2.7,"mosquito_risk":7,"arthritis_risk":5,"migraine_risk":7,"frizz_risk":1,"updated_at":"2026-05-09T09:54:42.230796+05:30"}]