[{"city":"Delhi","state":"Delhi","latitude":28.6139,"longitude":77.209,"temp":22.8,"humidity":53,"rain":0.0,"pressure":984.9,"uv_index":5.7,"wind_gusts":31.7,"aqi":157,"pm10":385.6,"pm2_5":79.6,"mosquito_risk":0,"arthritis_risk":5,"migraine_risk":3,"frizz_risk":0,"updated_at":"2026-03-01T19:57:49.432508+05:30"},{"city":"Mumbai","state":"Maharashtra","latitude":19.076,"longitude":72.8777,"temp":26.3,"humidity":71,"rain":0.0,"pressure":1009.4,"uv_index":7.25,"wind_gusts":24.1,"aqi":92,"pm10":52.9,"pm2_5":27.5,"mosquito_risk":7,"arthritis_risk":0,"migraine_risk":4,"frizz_risk":1,"updated_at":"2026-03-01T19:57:49.432549+05:30"},{"city":"Bangalore","state":"Karnataka","latitude":12.9716,"longitude":77.5946,"temp":26.5,"humidity":45,"rain":0.0,"pressure":911.9,"uv_index":9.05,"wind_gusts":22.7,"aqi":153,"pm10":57.7,"pm2_5":56.8,"mosquito_risk":4,"arthritis_risk":5,"migraine_risk":7,"frizz_risk":0,"updated_at":"2026-03-01T19:57:49.432565+05:30"},{"city":"Hyderabad","state":"Telangana","latitude":17.385,"longitude":78.4867,"temp":28.5,"humidity":51,"rain":0.0,"pressure":953.6,"uv_index":8.3,"wind_gusts":27.4,"aqi":129,"pm10":62.2,"pm2_5":61.9,"mosquito_risk":4,"arthritis_risk":5,"migraine_risk":7,"frizz_risk":1,"updated_at":"2026-03-01T19:57:49.432575+05:30"},{"city":"Chennai","state":"Tamil Nadu","latitude":13.0827,"longitude":80.2707,"temp":26.8,"humidity":70,"rain":0.0,"pressure":1009.2,"uv_index":8.75,"wind_gusts":33.1,"aqi":139,"pm10":44.9,"pm2_5":41.1,"mosquito_risk":7,"arthritis_risk":0,"migraine_risk":4,"frizz_risk":1,"updated_at":"2026-03-01T19:57:49.432584+05:30"},{"city":"Kolkata","state":"West Bengal","latitude":22.5726,"longitude":88.3639,"temp":25.5,"humidity":72,"rain":0.0,"pressure":1006.9,"uv_index":7.6,"wind_gusts":25.2,"aqi":106,"pm10":51.9,"pm2_5":50.5,"mosquito_risk":7,"arthritis_risk":5,"migraine_risk":4,"frizz_risk":1,"updated_at":"2026-03-01T19:57:49.432594+05:30"},{"city":"Pune","state":"Maharashtra","latitude":18.5204,"longitude":73.8567,"temp":26.1,"humidity":57,"rain":0.0,"pressure":948.5,"uv_index":7.8,"wind_gusts":34.2,"aqi":160,"pm10":32.1,"pm2_5":29.9,"mosquito_risk":4,"arthritis_risk":5,"migraine_risk":7,"frizz_risk":1,"updated_at":"2026-03-01T19:57:49.432606+05:30"},{"city":"Ahmedabad","state":"Gujarat","latitude":23.0225,"longitude":72.5714,"temp":29.3,"humidity":42,"rain":0.0,"pressure":1002.9,"uv_index":7.05,"wind_gusts":21.2,"aqi":95,"pm10":43.0,"pm2_5":29.7,"mosquito_risk":4,"arthritis_risk":5,"migraine_risk":4,"frizz_risk":0,"updated_at":"2026-03-01T19:57:49.432614+05:30"},{"city":"Jaipur","state":"Rajasthan","latitude":26.9124,"longitude":75.7873,"temp":27.3,"humidity":26,"rain":0.0,"pressure":961.6,"uv_index":6.45,"wind_gusts":25.2,"aqi":90,"pm10":71.9,"pm2_5":30.2,"mosquito_risk":4,"arthritis_risk":5,"migraine_risk":7,"frizz_risk":0,"updated_at":"2026-03-01T19:57:49.432621+05:30"},{"city":"Lucknow","state":"Uttar Pradesh","latitude":26.8467,"longitude":80.9462,"temp":23.5,"humidity":35,"rain":0.0,"pressure":994.9,"uv_index":6.2,"wind_gusts":38.5,"aqi":127,"pm10":125.7,"pm2_5":38.9,"mosquito_risk":0,"arthritis_risk":5,"migraine_risk":7,"frizz_risk":0,"updated_at":"2026-03-01T19:57:49.432629+05:30"},{"city":"Kanpur","state":"Uttar Pradesh","latitude":26.4499,"longitude":80.3319,"temp":21.2,"humidity":46,"rain":0.0,"pressure":993.5,"uv_index":6.2,"wind_gusts":31.3,"aqi":152,"pm10":232.4,"pm2_5":48.5,"mosquito_risk":0,"arthritis_risk":5,"migraine_risk":7,"frizz_risk":0,"updated_at":"2026-03-01T19:57:49.432636+05:30"},{"city":"Chandigarh","state":"Chandigarh","latitude":30.7333,"longitude":76.7794,"temp":18.6,"humidity":55,"rain":0.0,"pressure":970.3,"uv_index":5.6,"wind_gusts":31.0,"aqi":106,"pm10":36.7,"pm2_5":31.9,"mosquito_risk":0,"arthritis_risk":5,"migraine_risk":3,"frizz_risk":0,"updated_at":"2026-03-01T19:57:49.432644+05:30"},{"city":"Srinagar","state":"Jammu and Kashmir","latitude":34.0837,"longitude":74.7973,"temp":11.1,"humidity":45,"rain":0.0,"pressure":839.6,"uv_index":6.45,"wind_gusts":15.1,"aqi":150,"pm10":61.9,"pm2_5":52.7,"mosquito_risk":0,"arthritis_risk":5,"migraine_risk":7,"frizz_risk":1,"updated_at":"2026-03-01T19:57:49.432651+05:30"},{"city":"Jammu","state":"Jammu and Kashmir","latitude":32.7266,"longitude":74.857,"temp":21.5,"humidity":58,"rain":0.0,"pressure":974.4,"uv_index":6.15,"wind_gusts":25.2,"aqi":98,"pm10":51.7,"pm2_5":42.1,"mosquito_risk":0,"arthritis_risk":5,"migraine_risk":7,"frizz_risk":0,"updated_at":"2026-03-01T19:57:49.432659+05:30"},{"city":"Amritsar","state":"Punjab","latitude":31.634,"longitude":74.8723,"temp":20.7,"humidity":62,"rain":0.0,"pressure":983.0,"uv_index":6.1,"wind_gusts":20.5,"aqi":127,"pm10":56.3,"pm2_5":39.6,"mosquito_risk":3,"arthritis_risk":5,"migraine_risk":7,"frizz_risk":0,"updated_at":"2026-03-01T19:57:49.432669+05:30"},{"city":"Ludhiana","state":"Punjab","latitude":30.901,"longitude":75.8573,"temp":21.5,"humidity":53,"rain":0.0,"pressure":980.9,"uv_index":5.8,"wind_gusts":25.9,"aqi":153,"pm10":82.7,"pm2_5":56.0,"mosquito_risk":0,"arthritis_risk":5,"migraine_risk":3,"frizz_risk":0,"updated_at":"2026-03-01T19:57:49.432676+05:30"},{"city":"Jalandhar","state":"Punjab","latitude":31.326,"longitude":75.5762,"temp":21.1,"humidity":54,"rain":0.0,"pressure":982.0,"uv_index":5.95,"wind_gusts":23.0,"aqi":155,"pm10":68.7,"pm2_5":52.6,"mosquito_risk":0,"arthritis_risk":5,"migraine_risk":3,"frizz_risk":0,"updated_at":"2026-03-01T19:57:49.432684+05:30"},{"city":"Dehradun","state":"Uttarakhand","latitude":30.6284,"longitude":78.0322,"temp":11.7,"humidity":60,"rain":0.0,"pressure":827.7,"uv_index":5.95,"wind_gusts":32.4,"aqi":99,"pm10":22.5,"pm2_5":17.4,"mosquito_risk":0,"arthritis_risk":5,"migraine_risk":3,"frizz_risk":0,"updated_at":"2026-03-01T19:57:49.432692+05:30"},{"city":"Shimla","state":"Himachal Pradesh","latitude":31.1048,"longitude":77.1734,"temp":10.2,"humidity":53,"rain":0.0,"pressure":782.6,"uv_index":6.0,"wind_gusts":50.4,"aqi":97,"pm10":22.9,"pm2_5":16.5,"mosquito_risk":0,"arthritis_risk":5,"migraine_risk":3,"frizz_risk":0,"updated_at":"2026-03-01T19:57:49.432698+05:30"},{"city":"Manali","state":"Himachal Pradesh","latitude":32.2396,"longitude":77.1887,"temp":12.2,"humidity":83,"rain":0.0,"pressure":818.0,"uv_index":7.6,"wind_gusts":34.9,"aqi":98,"pm10":21.0,"pm2_5":13.6,"mosquito_risk":3,"arthritis_risk":10,"migraine_risk":7,"frizz_risk":0,"updated_at":"2026-03-01T19:57:49.432706+05:30"},{"city":"Gurgaon","state":"Haryana","latitude":28.4595,"longitude":77.0266,"temp":20.4,"humidity":59,"rain":0.0,"pressure":983.2,"uv_index":5.8,"wind_gusts":31.0,"aqi":528,"pm10":719.0,"pm2_5":115.9,"mosquito_risk":0,"arthritis_risk":5,"migraine_risk":3,"frizz_risk":0,"updated_at":"2026-03-01T19:57:49.432713+05:30"},{"city":"Noida","state":"Uttar Pradesh","latitude":28.5355,"longitude":77.391,"temp":23.2,"humidity":50,"rain":0.0,"pressure":986.4,"uv_index":5.75,"wind_gusts":31.3,"aqi":528,"pm10":719.0,"pm2_5":115.9,"mosquito_risk":0,"arthritis_risk":5,"migraine_risk":3,"frizz_risk":0,"updated_at":"2026-03-01T19:57:49.432720+05:30"},{"city":"Ghaziabad","state":"Uttar Pradesh","latitude":28.6692,"longitude":77.4538,"temp":22.3,"humidity":55,"rain":0.0,"pressure":984.5,"uv_index":5.7,"wind_gusts":28.1,"aqi":153,"pm10":312.0,"pm2_5":67.1,"mosquito_risk":0,"arthritis_risk":5,"migraine_risk":3,"frizz_risk":0,"updated_at":"2026-03-01T19:57:49.432726+05:30"},{"city":"Faridabad","state":"Haryana","latitude":28.4089,"longitude":77.3178,"temp":22.1,"humidity":49,"rain":0.0,"pressure":985.7,"uv_index":5.75,"wind_gusts":28.8,"aqi":528,"pm10":719.0,"pm2_5":115.9,"mosquito_risk":0,"arthritis_risk":5,"migraine_risk":3,"frizz_risk":0,"updated_at":"2026-03-01T19:57:49.432733+05:30"},{"city":"Meerut","state":"Uttar Pradesh","latitude":28.9845,"longitude":77.7064,"temp":19.9,"humidity":59,"rain":0.0,"pressure":983.0,"uv_index":5.6,"wind_gusts":31.7,"aqi":153,"pm10":312.0,"pm2_5":67.1,"mosquito_risk":0,"arthritis_risk":5,"migraine_risk":3,"frizz_risk":0,"updated_at":"2026-03-01T19:57:49.432739+05:30"},{"city":"Agra","state":"Uttar Pradesh","latitude":27.1767,"longitude":78.0081,"temp":22.1,"humidity":49,"rain":0.0,"pressure":989.6,"uv_index":6.05,"wind_gusts":27.4,"aqi":193,"pm10":423.8,"pm2_5":68.5,"mosquito_risk":0,"arthritis_risk":5,"migraine_risk":7,"frizz_risk":0,"updated_at":"2026-03-01T19:57:49.432746+05:30"},{"city":"Varanasi","state":"Uttar Pradesh","latitude":25.3176,"longitude":82.9739,"temp":22.1,"humidity":65,"rain":0.0,"pressure":998.8,"uv_index":6.85,"wind_gusts":26.6,"aqi":141,"pm10":55.2,"pm2_5":39.6,"mosquito_risk":3,"arthritis_risk":5,"migraine_risk":7,"frizz_risk":0,"updated_at":"2026-03-01T19:57:49.432755+05:30"},{"city":"Prayagraj","state":"Uttar Pradesh","latitude":25.4358,"longitude":81.8463,"temp":22.8,"humidity":49,"rain":0.0,"pressure":997.4,"uv_index":6.7,"wind_gusts":28.1,"aqi":140,"pm10":52.3,"pm2_5":28.6,"mosquito_risk":0,"arthritis_risk":5,"migraine_risk":7,"frizz_risk":0,"updated_at":"2026-03-01T19:57:49.432762+05:30"},{"city":"Gorakhpur","state":"Uttar Pradesh","latitude":26.7606,"longitude":83.3732,"temp":21.2,"humidity":50,"rain":0.0,"pressure":997.8,"uv_index":6.55,"wind_gusts":32.4,"aqi":110,"pm10":36.4,"pm2_5":30.6,"mosquito_risk":0,"arthritis_risk":5,"migraine_risk":7,"frizz_risk":0,"updated_at":"2026-03-01T19:57:49.432768+05:30"},{"city":"Bareilly","state":"Uttar Pradesh","latitude":28.367,"longitude":79.4304,"temp":20.3,"humidity":57,"rain":0.0,"pressure":988.0,"uv_index":5.9,"wind_gusts":35.6,"aqi":129,"pm10":81.5,"pm2_5":38.8,"mosquito_risk":0,"arthritis_risk":5,"migraine_risk":3,"frizz_risk":0,"updated_at":"2026-03-01T19:57:49.432778+05:30"},{"city":"Aligarh","state":"Uttar Pradesh","latitude":27.8974,"longitude":78.088,"temp":20.8,"humidity":50,"rain":0.0,"pressure":987.2,"uv_index":5.8,"wind_gusts":31.3,"aqi":240,"pm10":627.7,"pm2_5":100.8,"mosquito_risk":0,"arthritis_risk":5,"migraine_risk":3,"frizz_risk":0,"updated_at":"2026-03-01T19:57:49.432784+05:30"},{"city":"Moradabad","state":"Uttar Pradesh","latitude":28.8386,"longitude":78.7733,"temp":19.9,"humidity":57,"rain":0.0,"pressure":984.9,"uv_index":5.7,"wind_gusts":33.8,"aqi":129,"pm10":64.7,"pm2_5":33.5,"mosquito_risk":0,"arthritis_risk":5,"migraine_risk":3,"frizz_risk":0,"updated_at":"2026-03-01T19:57:49.432791+05:30"},{"city":"Saharanpur","state":"Uttar Pradesh","latitude":29.9637,"longitude":77.546,"temp":19.3,"humidity":53,"rain":0.0,"pressure":976.7,"uv_index":5.35,"wind_gusts":38.2,"aqi":136,"pm10":85.0,"pm2_5":36.7,"mosquito_risk":0,"arthritis_risk":5,"migraine_risk":3,"frizz_risk":0,"updated_at":"2026-03-01T19:57:49.432797+05:30"},{"city":"Jhansi","state":"Uttar Pradesh","latitude":25.4484,"longitude":78.5685,"temp":22.8,"humidity":54,"rain":0.0,"pressure":979.7,"uv_index":6.65,"wind_gusts":24.5,"aqi":83,"pm10":48.1,"pm2_5":25.3,"mosquito_risk":0,"arthritis_risk":5,"migraine_risk":7,"frizz_risk":0,"updated_at":"2026-03-01T19:57:52.764147+05:30"},{"city":"Surat","state":"Gujarat","latitude":21.1702,"longitude":72.8311,"temp":25.9,"humidity":64,"rain":0.0,"pressure":1007.4,"uv_index":6.95,"wind_gusts":28.4,"aqi":107,"pm10":72.6,"pm2_5":61.7,"mosquito_risk":7,"arthritis_risk":5,"migraine_risk":4,"frizz_risk":1,"updated_at":"2026-03-01T19:57:52.764182+05:30"},{"city":"Vadodara","state":"Gujarat","latitude":22.3072,"longitude":73.1812,"temp":28.3,"humidity":51,"rain":0.0,"pressure":1005.1,"uv_index":7.05,"wind_gusts":11.9,"aqi":129,"pm10":52.5,"pm2_5":44.1,"mosquito_risk":4,"arthritis_risk":5,"migraine_risk":4,"frizz_risk":1,"updated_at":"2026-03-01T19:57:52.764194+05:30"},{"city":"Rajkot","state":"Gujarat","latitude":22.3039,"longitude":70.8022,"temp":28.2,"humidity":36,"rain":0.0,"pressure":995.3,"uv_index":6.9,"wind_gusts":23.4,"aqi":98,"pm10":38.9,"pm2_5":25.3,"mosquito_risk":4,"arthritis_risk":5,"migraine_risk":7,"frizz_risk":0,"updated_at":"2026-03-01T19:57:52.764204+05:30"},{"city":"Thane","state":"Maharashtra","latitude":19.2183,"longitude":72.9781,"temp":25.2,"humidity":71,"rain":0.0,"pressure":1008.8,"uv_index":7.25,"wind_gusts":36.4,"aqi":92,"pm10":52.9,"pm2_5":27.5,"mosquito_risk":7,"arthritis_risk":0,"migraine_risk":4,"frizz_risk":1,"updated_at":"2026-03-01T19:57:52.764213+05:30"},{"city":"Nagpur","state":"Maharashtra","latitude":21.1458,"longitude":79.0882,"temp":27.3,"humidity":51,"rain":0.0,"pressure":973.6,"uv_index":7.65,"wind_gusts":30.6,"aqi":105,"pm10":27.9,"pm2_5":27.2,"mosquito_risk":4,"arthritis_risk":5,"migraine_risk":7,"frizz_risk":1,"updated_at":"2026-03-01T19:57:52.764222+05:30"},{"city":"Nashik","state":"Maharashtra","latitude":19.9975,"longitude":73.7898,"temp":25.4,"humidity":49,"rain":0.0,"pressure":945.7,"uv_index":7.45,"wind_gusts":28.8,"aqi":94,"pm10":22.6,"pm2_5":18.8,"mosquito_risk":4,"arthritis_risk":5,"migraine_risk":7,"frizz_risk":0,"updated_at":"2026-03-01T19:57:52.764231+05:30"},{"city":"Aurangabad","state":"Maharashtra","latitude":19.8762,"longitude":75.3433,"temp":28.2,"humidity":37,"rain":0.0,"pressure":944.0,"uv_index":7.95,"wind_gusts":28.8,"aqi":122,"pm10":27.4,"pm2_5":26.4,"mosquito_risk":4,"arthritis_risk":5,"migraine_risk":7,"frizz_risk":0,"updated_at":"2026-03-01T19:57:52.764240+05:30"},{"city":"Solapur","state":"Maharashtra","latitude":17.6599,"longitude":75.9064,"temp":28.1,"humidity":48,"rain":0.0,"pressure":956.9,"uv_index":8.25,"wind_gusts":19.8,"aqi":152,"pm10":32.8,"pm2_5":32.2,"mosquito_risk":4,"arthritis_risk":5,"migraine_risk":7,"frizz_risk":0,"updated_at":"2026-03-01T19:57:52.764248+05:30"},{"city":"Kolhapur","state":"Maharashtra","latitude":16.705,"longitude":74.2433,"temp":24.1,"humidity":59,"rain":0.0,"pressure":947.9,"uv_index":8.35,"wind_gusts":38.2,"aqi":126,"pm10":31.9,"pm2_5":31.3,"mosquito_risk":0,"arthritis_risk":5,"migraine_risk":7,"frizz_risk":0,"updated_at":"2026-03-01T19:57:52.764257+05:30"},{"city":"Goa","state":"Goa","latitude":15.2993,"longitude":74.124,"temp":26.4,"humidity":70,"rain":0.0,"pressure":999.0,"uv_index":8.4,"wind_gusts":35.3,"aqi":65,"pm10":23.3,"pm2_5":19.2,"mosquito_risk":7,"arthritis_risk":5,"migraine_risk":7,"frizz_risk":1,"updated_at":"2026-03-01T19:57:52.764264+05:30"},{"city":"Jodhpur","state":"Rajasthan","latitude":26.2389,"longitude":73.0243,"temp":27.1,"humidity":37,"rain":0.0,"pressure":984.1,"uv_index":6.75,"wind_gusts":18.0,"aqi":95,"pm10":43.4,"pm2_5":22.9,"mosquito_risk":4,"arthritis_risk":5,"migraine_risk":7,"frizz_risk":0,"updated_at":"2026-03-01T19:57:52.764273+05:30"},{"city":"Udaipur","state":"Rajasthan","latitude":24.5854,"longitude":73.7125,"temp":25.1,"humidity":47,"rain":0.0,"pressure":947.9,"uv_index":7.35,"wind_gusts":25.2,"aqi":86,"pm10":26.8,"pm2_5":16.4,"mosquito_risk":4,"arthritis_risk":5,"migraine_risk":7,"frizz_risk":0,"updated_at":"2026-03-01T19:57:52.764281+05:30"},{"city":"Kota","state":"Rajasthan","latitude":25.2138,"longitude":75.8648,"temp":26.2,"humidity":43,"rain":0.0,"pressure":980.1,"uv_index":6.8,"wind_gusts":20.2,"aqi":84,"pm10":40.6,"pm2_5":27.5,"mosquito_risk":4,"arthritis_risk":5,"migraine_risk":7,"frizz_risk":0,"updated_at":"2026-03-01T19:57:52.764289+05:30"},{"city":"Bikaner","state":"Rajasthan","latitude":28.0229,"longitude":73.3119,"temp":28.2,"humidity":31,"rain":0.0,"pressure":983.4,"uv_index":6.45,"wind_gusts":16.2,"aqi":79,"pm10":31.0,"pm2_5":19.2,"mosquito_risk":4,"arthritis_risk":5,"migraine_risk":7,"frizz_risk":0,"updated_at":"2026-03-01T19:57:52.764297+05:30"},{"city":"Ajmer","state":"Rajasthan","latitude":26.4499,"longitude":74.6399,"temp":26.0,"humidity":37,"rain":0.0,"pressure":956.0,"uv_index":6.7,"wind_gusts":17.6,"aqi":95,"pm10":45.1,"pm2_5":26.1,"mosquito_risk":4,"arthritis_risk":5,"migraine_risk":7,"frizz_risk":0,"updated_at":"2026-03-01T19:57:52.764304+05:30"},{"city":"Gwalior","state":"Madhya Pradesh","latitude":26.2183,"longitude":78.1828,"temp":24.1,"humidity":51,"rain":0.0,"pressure":985.1,"uv_index":6.35,"wind_gusts":28.8,"aqi":98,"pm10":83.6,"pm2_5":27.0,"mosquito_risk":0,"arthritis_risk":5,"migraine_risk":7,"frizz_risk":0,"updated_at":"2026-03-01T19:57:52.764312+05:30"},{"city":"Indore","state":"Madhya Pradesh","latitude":22.7196,"longitude":75.8577,"temp":23.4,"humidity":55,"rain":0.0,"pressure":948.7,"uv_index":7.35,"wind_gusts":22.3,"aqi":85,"pm10":32.4,"pm2_5":28.1,"mosquito_risk":0,"arthritis_risk":5,"migraine_risk":7,"frizz_risk":0,"updated_at":"2026-03-01T19:57:52.764319+05:30"},{"city":"Bhopal","state":"Madhya Pradesh","latitude":23.2599,"longitude":77.4126,"temp":23.6,"humidity":53,"rain":0.0,"pressure":954.9,"uv_index":7.2,"wind_gusts":25.9,"aqi":88,"pm10":23.8,"pm2_5":20.7,"mosquito_risk":0,"arthritis_risk":5,"migraine_risk":7,"frizz_risk":0,"updated_at":"2026-03-01T19:57:52.764327+05:30"},{"city":"Jabalpur","state":"Madhya Pradesh","latitude":23.1815,"longitude":79.9864,"temp":23.2,"humidity":55,"rain":0.0,"pressure":962.2,"uv_index":7.3,"wind_gusts":39.2,"aqi":79,"pm10":21.8,"pm2_5":20.8,"mosquito_risk":0,"arthritis_risk":5,"migraine_risk":7,"frizz_risk":0,"updated_at":"2026-03-01T19:57:52.764334+05:30"},{"city":"Ujjain","state":"Madhya Pradesh","latitude":23.1765,"longitude":75.7885,"temp":23.5,"humidity":62,"rain":0.0,"pressure":954.7,"uv_index":7.2,"wind_gusts":20.5,"aqi":86,"pm10":39.5,"pm2_5":33.6,"mosquito_risk":3,"arthritis_risk":5,"migraine_risk":7,"frizz_risk":0,"updated_at":"2026-03-01T19:57:52.764343+05:30"},{"city":"Visakhapatnam","state":"Andhra Pradesh","latitude":17.6868,"longitude":83.2185,"temp":26.1,"humidity":75,"rain":0.0,"pressure":1005.7,"uv_index":8.3,"wind_gusts":39.2,"aqi":151,"pm10":52.2,"pm2_5":48.5,"mosquito_risk":7,"arthritis_risk":5,"migraine_risk":4,"frizz_risk":1,"updated_at":"2026-03-01T19:57:52.764350+05:30"},{"city":"Vijayawada","state":"Andhra Pradesh","latitude":16.5062,"longitude":80.648,"temp":27.2,"humidity":61,"rain":0.0,"pressure":1003.9,"uv_index":8.4,"wind_gusts":28.1,"aqi":149,"pm10":42.1,"pm2_5":40.7,"mosquito_risk":7,"arthritis_risk":5,"migraine_risk":4,"frizz_risk":1,"updated_at":"2026-03-01T19:57:52.764356+05:30"},{"city":"Guntur","state":"Andhra Pradesh","latitude":16.3067,"longitude":80.4365,"temp":26.4,"humidity":68,"rain":0.0,"pressure":1005.2,"uv_index":8.4,"wind_gusts":28.4,"aqi":143,"pm10":42.1,"pm2_5":41.1,"mosquito_risk":7,"arthritis_risk":5,"migraine_risk":4,"frizz_risk":1,"updated_at":"2026-03-01T19:57:52.764362+05:30"},{"city":"Nellore","state":"Andhra Pradesh","latitude":14.4426,"longitude":79.9865,"temp":26.9,"humidity":69,"rain":0.0,"pressure":1007.6,"uv_index":8.6,"wind_gusts":31.0,"aqi":138,"pm10":39.2,"pm2_5":36.8,"mosquito_risk":7,"arthritis_risk":5,"migraine_risk":4,"frizz_risk":1,"updated_at":"2026-03-01T19:57:52.764369+05:30"},{"city":"Kurnool","state":"Andhra Pradesh","latitude":15.8281,"longitude":78.0373,"temp":31.1,"humidity":34,"rain":0.0,"pressure":976.8,"uv_index":8.4,"wind_gusts":20.5,"aqi":139,"pm10":35.3,"pm2_5":34.9,"mosquito_risk":0,"arthritis_risk":5,"migraine_risk":7,"frizz_risk":0,"updated_at":"2026-03-01T19:57:52.764377+05:30"},{"city":"Kakinada","state":"Andhra Pradesh","latitude":16.9891,"longitude":82.2475,"temp":25.8,"humidity":74,"rain":0.0,"pressure":1009.1,"uv_index":8.3,"wind_gusts":33.5,"aqi":151,"pm10":45.1,"pm2_5":41.6,"mosquito_risk":7,"arthritis_risk":0,"migraine_risk":4,"frizz_risk":1,"updated_at":"2026-03-01T19:57:52.764384+05:30"},{"city":"Tirupati","state":"Andhra Pradesh","latitude":13.6288,"longitude":79.4192,"temp":27.3,"humidity":57,"rain":0.0,"pressure":993.1,"uv_index":8.7,"wind_gusts":28.4,"aqi":152,"pm10":42.6,"pm2_5":41.6,"mosquito_risk":4,"arthritis_risk":5,"migraine_risk":7,"frizz_risk":1,"updated_at":"2026-03-01T19:57:52.764390+05:30"},{"city":"Warangal","state":"Telangana","latitude":17.9689,"longitude":79.5941,"temp":28.3,"humidity":59,"rain":0.0,"pressure":979.2,"uv_index":8.1,"wind_gusts":27.7,"aqi":138,"pm10":68.5,"pm2_5":68.0,"mosquito_risk":4,"arthritis_risk":5,"migraine_risk":7,"frizz_risk":1,"updated_at":"2026-03-01T19:57:52.764397+05:30"},{"city":"Nizamabad","state":"Telangana","latitude":18.6725,"longitude":78.0941,"temp":29.8,"humidity":41,"rain":0.0,"pressure":965.1,"uv_index":8.0,"wind_gusts":20.9,"aqi":115,"pm10":36.8,"pm2_5":36.4,"mosquito_risk":4,"arthritis_risk":5,"migraine_risk":7,"frizz_risk":0,"updated_at":"2026-03-01T19:57:52.764404+05:30"},{"city":"Mysore","state":"Karnataka","latitude":12.2958,"longitude":76.6396,"temp":27.5,"humidity":44,"rain":0.0,"pressure":928.0,"uv_index":9.05,"wind_gusts":36.0,"aqi":156,"pm10":63.6,"pm2_5":62.4,"mosquito_risk":4,"arthritis_risk":5,"migraine_risk":7,"frizz_risk":0,"updated_at":"2026-03-01T19:57:52.764410+05:30"},{"city":"Mangalore","state":"Karnataka","latitude":12.9141,"longitude":74.856,"temp":28.2,"humidity":73,"rain":0.0,"pressure":1007.4,"uv_index":8.65,"wind_gusts":32.0,"aqi":49,"pm10":16.9,"pm2_5":12.0,"mosquito_risk":7,"arthritis_risk":5,"migraine_risk":4,"frizz_risk":1,"updated_at":"2026-03-01T19:57:52.764416+05:30"},{"city":"Hubli-Dharwad","state":"Karnataka","latitude":15.3647,"longitude":75.124,"temp":25.0,"humidity":62,"rain":0.0,"pressure":940.7,"uv_index":8.55,"wind_gusts":33.5,"aqi":139,"pm10":40.5,"pm2_5":39.7,"mosquito_risk":7,"arthritis_risk":5,"migraine_risk":7,"frizz_risk":1,"updated_at":"2026-03-01T19:57:52.764423+05:30"},{"city":"Belgaum","state":"Karnataka","latitude":15.8497,"longitude":74.4977,"temp":23.0,"humidity":68,"rain":0.0,"pressure":925.7,"uv_index":8.6,"wind_gusts":38.5,"aqi":134,"pm10":20.1,"pm2_5":19.2,"mosquito_risk":3,"arthritis_risk":5,"migraine_risk":7,"frizz_risk":1,"updated_at":"2026-03-01T19:57:56.093956+05:30"},{"city":"Coimbatore","state":"Tamil Nadu","latitude":11.0168,"longitude":76.9558,"temp":26.4,"humidity":67,"rain":0.0,"pressure":962.1,"uv_index":9.05,"wind_gusts":34.9,"aqi":153,"pm10":54.9,"pm2_5":54.0,"mosquito_risk":7,"arthritis_risk":5,"migraine_risk":7,"frizz_risk":1,"updated_at":"2026-03-01T19:57:56.093990+05:30"},{"city":"Madurai","state":"Tamil Nadu","latitude":9.9252,"longitude":78.1198,"temp":28.4,"humidity":51,"rain":0.0,"pressure":993.8,"uv_index":9.0,"wind_gusts":26.3,"aqi":150,"pm10":35.4,"pm2_5":34.5,"mosquito_risk":4,"arthritis_risk":5,"migraine_risk":7,"frizz_risk":1,"updated_at":"2026-03-01T19:57:56.094000+05:30"},{"city":"Trichy","state":"Tamil Nadu","latitude":10.7905,"longitude":78.7047,"temp":28.5,"humidity":57,"rain":0.0,"pressure":1000.7,"uv_index":8.9,"wind_gusts":27.7,"aqi":148,"pm10":41.9,"pm2_5":40.4,"mosquito_risk":4,"arthritis_risk":5,"migraine_risk":4,"frizz_risk":1,"updated_at":"2026-03-01T19:57:56.094009+05:30"},{"city":"Salem","state":"Tamil Nadu","latitude":11.6643,"longitude":78.146,"temp":30.2,"humidity":43,"rain":0.0,"pressure":977.6,"uv_index":8.95,"wind_gusts":26.3,"aqi":150,"pm10":42.6,"pm2_5":41.7,"mosquito_risk":0,"arthritis_risk":5,"migraine_risk":7,"frizz_risk":1,"updated_at":"2026-03-01T19:57:56.094017+05:30"},{"city":"Tirunelveli","state":"Tamil Nadu","latitude":8.7139,"longitude":77.7567,"temp":27.4,"humidity":73,"rain":0.0,"pressure":1004.2,"uv_index":9.05,"wind_gusts":43.6,"aqi":135,"pm10":36.7,"pm2_5":35.5,"mosquito_risk":7,"arthritis_risk":5,"migraine_risk":4,"frizz_risk":1,"updated_at":"2026-03-01T19:57:56.094025+05:30"},{"city":"Vellore","state":"Tamil Nadu","latitude":12.9165,"longitude":79.1325,"temp":27.3,"humidity":55,"rain":0.0,"pressure":985.8,"uv_index":8.8,"wind_gusts":36.7,"aqi":155,"pm10":41.3,"pm2_5":40.3,"mosquito_risk":4,"arthritis_risk":5,"migraine_risk":7,"frizz_risk":1,"updated_at":"2026-03-01T19:57:56.094033+05:30"},{"city":"Erode","state":"Tamil Nadu","latitude":11.341,"longitude":77.7172,"temp":31.2,"humidity":38,"rain":0.0,"pressure":988.5,"uv_index":8.95,"wind_gusts":27.7,"aqi":140,"pm10":41.0,"pm2_5":40.0,"mosquito_risk":0,"arthritis_risk":5,"migraine_risk":7,"frizz_risk":0,"updated_at":"2026-03-01T19:57:56.094040+05:30"},{"city":"Kochi","state":"Kerala","latitude":9.9312,"longitude":76.2673,"temp":28.5,"humidity":75,"rain":0.0,"pressure":1009.1,"uv_index":8.9,"wind_gusts":36.4,"aqi":118,"pm10":32.0,"pm2_5":30.2,"mosquito_risk":7,"arthritis_risk":0,"migraine_risk":4,"frizz_risk":1,"updated_at":"2026-03-01T19:57:56.094052+05:30"},{"city":"Thiruvananthapuram","state":"Kerala","latitude":8.5241,"longitude":76.9366,"temp":27.6,"humidity":80,"rain":0.0,"pressure":1008.9,"uv_index":8.95,"wind_gusts":24.1,"aqi":152,"pm10":22.8,"pm2_5":19.2,"mosquito_risk":7,"arthritis_risk":0,"migraine_risk":4,"frizz_risk":1,"updated_at":"2026-03-01T19:57:56.094059+05:30"},{"city":"Kozhikode","state":"Kerala","latitude":11.2588,"longitude":75.7804,"temp":28.4,"humidity":74,"rain":0.0,"pressure":1008.2,"uv_index":8.75,"wind_gusts":31.3,"aqi":64,"pm10":16.8,"pm2_5":11.7,"mosquito_risk":7,"arthritis_risk":0,"migraine_risk":4,"frizz_risk":1,"updated_at":"2026-03-01T19:57:56.094065+05:30"},{"city":"Thrissur","state":"Kerala","latitude":10.5276,"longitude":76.2144,"temp":27.6,"humidity":78,"rain":0.0,"pressure":1007.4,"uv_index":8.85,"wind_gusts":40.3,"aqi":109,"pm10":23.8,"pm2_5":21.7,"mosquito_risk":7,"arthritis_risk":5,"migraine_risk":4,"frizz_risk":1,"updated_at":"2026-03-01T19:57:56.094073+05:30"},{"city":"Kannur","state":"Kerala","latitude":11.8745,"longitude":75.3704,"temp":27.9,"humidity":72,"rain":0.0,"pressure":1007.8,"uv_index":8.75,"wind_gusts":38.2,"aqi":56,"pm10":16.7,"pm2_5":12.3,"mosquito_risk":7,"arthritis_risk":5,"migraine_risk":4,"frizz_risk":1,"updated_at":"2026-03-01T19:57:56.094080+05:30"},{"city":"Patna","state":"Bihar","latitude":25.5941,"longitude":85.1376,"temp":24.7,"humidity":53,"rain":0.0,"pressure":1001.0,"uv_index":7.0,"wind_gusts":28.8,"aqi":137,"pm10":84.5,"pm2_5":55.5,"mosquito_risk":0,"arthritis_risk":5,"migraine_risk":4,"frizz_risk":0,"updated_at":"2026-03-01T19:57:56.094087+05:30"},{"city":"Gaya","state":"Bihar","latitude":24.7914,"longitude":85.0002,"temp":24.5,"humidity":57,"rain":0.0,"pressure":994.9,"uv_index":7.1,"wind_gusts":19.1,"aqi":116,"pm10":81.3,"pm2_5":50.8,"mosquito_risk":0,"arthritis_risk":5,"migraine_risk":7,"frizz_risk":0,"updated_at":"2026-03-01T19:57:56.094093+05:30"},{"city":"Muzaffarpur","state":"Bihar","latitude":26.1209,"longitude":85.3647,"temp":23.2,"humidity":54,"rain":0.0,"pressure":1000.8,"uv_index":6.95,"wind_gusts":31.0,"aqi":131,"pm10":73.3,"pm2_5":47.4,"mosquito_risk":0,"arthritis_risk":5,"migraine_risk":4,"frizz_risk":0,"updated_at":"2026-03-01T19:57:56.094099+05:30"},{"city":"Bhagalpur","state":"Bihar","latitude":25.2425,"longitude":87.0117,"temp":22.5,"humidity":65,"rain":0.0,"pressure":1001.9,"uv_index":7.05,"wind_gusts":22.3,"aqi":145,"pm10":86.8,"pm2_5":52.3,"mosquito_risk":3,"arthritis_risk":5,"migraine_risk":4,"frizz_risk":0,"updated_at":"2026-03-01T19:57:56.094106+05:30"},{"city":"Ranchi","state":"Jharkhand","latitude":23.3441,"longitude":85.3096,"temp":23.5,"humidity":46,"rain":0.0,"pressure":938.6,"uv_index":7.75,"wind_gusts":24.5,"aqi":98,"pm10":37.3,"pm2_5":35.5,"mosquito_risk":0,"arthritis_risk":5,"migraine_risk":7,"frizz_risk":0,"updated_at":"2026-03-01T19:57:56.094112+05:30"},{"city":"Jamshedpur","state":"Jharkhand","latitude":22.8046,"longitude":86.2029,"temp":27.9,"humidity":41,"rain":0.0,"pressure":991.5,"uv_index":7.7,"wind_gusts":10.8,"aqi":151,"pm10":67.5,"pm2_5":63.8,"mosquito_risk":4,"arthritis_risk":5,"migraine_risk":7,"frizz_risk":0,"updated_at":"2026-03-01T19:57:56.094119+05:30"},{"city":"Dhanbad","state":"Jharkhand","latitude":23.7957,"longitude":86.4304,"temp":27.7,"humidity":31,"rain":0.0,"pressure":980.7,"uv_index":7.55,"wind_gusts":24.1,"aqi":155,"pm10":65.0,"pm2_5":59.0,"mosquito_risk":4,"arthritis_risk":5,"migraine_risk":7,"frizz_risk":0,"updated_at":"2026-03-01T19:57:56.094126+05:30"},{"city":"Bokaro","state":"Jharkhand","latitude":23.6693,"longitude":86.1511,"temp":24.9,"humidity":42,"rain":0.0,"pressure":984.8,"uv_index":7.55,"wind_gusts":22.0,"aqi":154,"pm10":62.6,"pm2_5":58.1,"mosquito_risk":0,"arthritis_risk":5,"migraine_risk":7,"frizz_risk":0,"updated_at":"2026-03-01T19:57:56.094133+05:30"},{"city":"Bhubaneswar","state":"Odisha","latitude":20.2961,"longitude":85.8245,"temp":25.7,"humidity":79,"rain":0.0,"pressure":1003.9,"uv_index":8.05,"wind_gusts":27.0,"aqi":117,"pm10":53.3,"pm2_5":51.9,"mosquito_risk":7,"arthritis_risk":5,"migraine_risk":4,"frizz_risk":1,"updated_at":"2026-03-01T19:57:56.094139+05:30"},{"city":"Cuttack","state":"Odisha","latitude":20.4625,"longitude":85.8828,"temp":27.0,"humidity":65,"rain":0.0,"pressure":1005.4,"uv_index":8.05,"wind_gusts":27.0,"aqi":117,"pm10":53.3,"pm2_5":51.9,"mosquito_risk":7,"arthritis_risk":5,"migraine_risk":4,"frizz_risk":1,"updated_at":"2026-03-01T19:57:56.094146+05:30"},{"city":"Rourkela","state":"Odisha","latitude":22.2604,"longitude":84.8536,"temp":26.9,"humidity":50,"rain":0.0,"pressure":985.1,"uv_index":7.6,"wind_gusts":18.0,"aqi":147,"pm10":80.8,"pm2_5":79.6,"mosquito_risk":4,"arthritis_risk":5,"migraine_risk":7,"frizz_risk":0,"updated_at":"2026-03-01T19:57:56.094151+05:30"},{"city":"Raipur","state":"Chhattisgarh","latitude":21.2514,"longitude":81.6296,"temp":28.1,"humidity":38,"rain":0.0,"pressure":974.8,"uv_index":7.75,"wind_gusts":27.4,"aqi":155,"pm10":51.7,"pm2_5":51.2,"mosquito_risk":4,"arthritis_risk":5,"migraine_risk":7,"frizz_risk":0,"updated_at":"2026-03-01T19:57:56.094158+05:30"},{"city":"Bhilai","state":"Chhattisgarh","latitude":21.1938,"longitude":81.3509,"temp":26.7,"humidity":42,"rain":0.0,"pressure":975.0,"uv_index":7.75,"wind_gusts":28.1,"aqi":155,"pm10":36.3,"pm2_5":36.0,"mosquito_risk":4,"arthritis_risk":5,"migraine_risk":7,"frizz_risk":0,"updated_at":"2026-03-01T19:57:56.094164+05:30"},{"city":"Guwahati","state":"Assam","latitude":26.1158,"longitude":91.7086,"temp":21.7,"humidity":82,"rain":0.0,"pressure":1003.2,"uv_index":7.0,"wind_gusts":32.0,"aqi":161,"pm10":79.4,"pm2_5":68.7,"mosquito_risk":3,"arthritis_risk":5,"migraine_risk":4,"frizz_risk":1,"updated_at":"2026-03-01T19:57:56.094170+05:30"},{"city":"Agartala","state":"Tripura","latitude":23.8315,"longitude":91.2868,"temp":23.9,"humidity":70,"rain":0.0,"pressure":1007.1,"uv_index":7.35,"wind_gusts":27.4,"aqi":121,"pm10":54.6,"pm2_5":51.0,"mosquito_risk":3,"arthritis_risk":5,"migraine_risk":4,"frizz_risk":1,"updated_at":"2026-03-01T19:57:56.094177+05:30"},{"city":"Shillong","state":"Meghalaya","latitude":25.5788,"longitude":91.8933,"temp":10.7,"humidity":87,"rain":0.0,"pressure":854.2,"uv_index":6.8,"wind_gusts":56.9,"aqi":145,"pm10":73.8,"pm2_5":57.6,"mosquito_risk":3,"arthritis_risk":10,"migraine_risk":7,"frizz_risk":0,"updated_at":"2026-03-01T19:57:56.094184+05:30"},{"city":"Imphal","state":"Manipur","latitude":24.817,"longitude":93.9368,"temp":14.8,"humidity":70,"rain":0.0,"pressure":922.9,"uv_index":7.55,"wind_gusts":49.3,"aqi":153,"pm10":78.2,"pm2_5":62.9,"mosquito_risk":3,"arthritis_risk":5,"migraine_risk":7,"frizz_risk":0,"updated_at":"2026-03-01T19:57:56.094190+05:30"},{"city":"Aizawl","state":"Mizoram","latitude":23.7271,"longitude":92.7176,"temp":17.1,"humidity":66,"rain":0.0,"pressure":892.4,"uv_index":7.55,"wind_gusts":40.3,"aqi":128,"pm10":65.0,"pm2_5":51.1,"mosquito_risk":3,"arthritis_risk":5,"migraine_risk":7,"frizz_risk":0,"updated_at":"2026-03-01T19:57:56.094197+05:30"},{"city":"Kohima","state":"Nagaland","latitude":25.6701,"longitude":94.1077,"temp":12.7,"humidity":80,"rain":0.0,"pressure":853.4,"uv_index":7.4,"wind_gusts":70.9,"aqi":154,"pm10":99.4,"pm2_5":77.3,"mosquito_risk":3,"arthritis_risk":5,"migraine_risk":7,"frizz_risk":0,"updated_at":"2026-03-01T19:57:56.094203+05:30"},{"city":"Gangtok","state":"Sikkim","latitude":27.3314,"longitude":88.6138,"temp":11.3,"humidity":88,"rain":0.0,"pressure":835.0,"uv_index":5.3,"wind_gusts":12.6,"aqi":134,"pm10":78.0,"pm2_5":57.2,"mosquito_risk":3,"arthritis_risk":10,"migraine_risk":3,"frizz_risk":0,"updated_at":"2026-03-01T19:57:56.094210+05:30"},{"city":"Siliguri","state":"West Bengal","latitude":26.7271,"longitude":88.3953,"temp":19.1,"humidity":68,"rain":0.0,"pressure":994.6,"uv_index":7.0,"wind_gusts":31.0,"aqi":173,"pm10":124.8,"pm2_5":92.2,"mosquito_risk":3,"arthritis_risk":5,"migraine_risk":7,"frizz_risk":0,"updated_at":"2026-03-01T19:57:59.434052+05:30"},{"city":"Durgapur","state":"West Bengal","latitude":23.5204,"longitude":87.3119,"temp":28.9,"humidity":35,"rain":0.0,"pressure":995.5,"uv_index":7.55,"wind_gusts":26.3,"aqi":143,"pm10":64.3,"pm2_5":56.7,"mosquito_risk":4,"arthritis_risk":5,"migraine_risk":7,"frizz_risk":0,"updated_at":"2026-03-01T19:57:59.434089+05:30"},{"city":"Asansol","state":"West Bengal","latitude":23.6739,"longitude":86.9524,"temp":29.4,"humidity":33,"rain":0.0,"pressure":994.1,"uv_index":7.5,"wind_gusts":22.7,"aqi":127,"pm10":55.3,"pm2_5":48.1,"mosquito_risk":4,"arthritis_risk":5,"migraine_risk":7,"frizz_risk":0,"updated_at":"2026-03-01T19:57:59.434102+05:30"},{"city":"Pondicherry","state":"Puducherry","latitude":11.9139,"longitude":79.8145,"temp":25.1,"humidity":85,"rain":0.0,"pressure":1010.3,"uv_index":8.8,"wind_gusts":28.1,"aqi":135,"pm10":44.1,"pm2_5":39.8,"mosquito_risk":7,"arthritis_risk":0,"migraine_risk":4,"frizz_risk":1,"updated_at":"2026-03-01T19:57:59.434113+05:30"},{"city":"Port Blair","state":"Andaman and Nicobar Islands","latitude":11.6234,"longitude":92.7265,"temp":28.0,"humidity":68,"rain":0.0,"pressure":1007.6,"uv_index":8.75,"wind_gusts":25.6,"aqi":78,"pm10":24.8,"pm2_5":21.7,"mosquito_risk":7,"arthritis_risk":5,"migraine_risk":4,"frizz_risk":1,"updated_at":"2026-03-01T19:57:59.434121+05:30"},{"city":"Haridwar","state":"Uttarakhand","latitude":29.9457,"longitude":78.1642,"temp":20.7,"humidity":53,"rain":0.0,"pressure":975.3,"uv_index":5.4,"wind_gusts":37.1,"aqi":114,"pm10":40.7,"pm2_5":27.3,"mosquito_risk":0,"arthritis_risk":5,"migraine_risk":3,"frizz_risk":0,"updated_at":"2026-03-01T19:57:59.434129+05:30"},{"city":"Rishikesh","state":"Uttarakhand","latitude":30.0869,"longitude":78.2676,"temp":20.2,"humidity":52,"rain":0.0,"pressure":967.9,"uv_index":5.5,"wind_gusts":34.9,"aqi":119,"pm10":24.9,"pm2_5":20.3,"mosquito_risk":0,"arthritis_risk":5,"migraine_risk":3,"frizz_risk":0,"updated_at":"2026-03-01T19:57:59.434137+05:30"},{"city":"Nainital","state":"Uttarakhand","latitude":29.3919,"longitude":79.4542,"temp":14.6,"humidity":51,"rain":0.0,"pressure":804.3,"uv_index":6.3,"wind_gusts":40.0,"aqi":124,"pm10":31.8,"pm2_5":23.7,"mosquito_risk":0,"arthritis_risk":5,"migraine_risk":7,"frizz_risk":0,"updated_at":"2026-03-01T19:57:59.434144+05:30"},{"city":"Mussoorie","state":"Uttarakhand","latitude":30.4599,"longitude":78.0664,"temp":12.8,"humidity":53,"rain":0.0,"pressure":800.4,"uv_index":5.85,"wind_gusts":39.6,"aqi":117,"pm10":28.0,"pm2_5":23.9,"mosquito_risk":0,"arthritis_risk":5,"migraine_risk":3,"frizz_risk":0,"updated_at":"2026-03-01T19:57:59.434152+05:30"},{"city":"Dharamshala","state":"Himachal Pradesh","latitude":32.219,"longitude":76.3234,"temp":16.7,"humidity":51,"rain":0.0,"pressure":869.1,"uv_index":6.05,"wind_gusts":27.4,"aqi":107,"pm10":37.8,"pm2_5":26.6,"mosquito_risk":0,"arthritis_risk":5,"migraine_risk":7,"frizz_risk":0,"updated_at":"2026-03-01T19:57:59.434159+05:30"},{"city":"Dalhousie","state":"Himachal Pradesh","latitude":32.5387,"longitude":75.971,"temp":14.9,"humidity":40,"rain":0.0,"pressure":803.3,"uv_index":6.25,"wind_gusts":30.2,"aqi":113,"pm10":51.5,"pm2_5":41.4,"mosquito_risk":0,"arthritis_risk":5,"migraine_risk":7,"frizz_risk":0,"updated_at":"2026-03-01T19:57:59.434166+05:30"},{"city":"Patiala","state":"Punjab","latitude":30.3398,"longitude":76.3869,"temp":19.5,"humidity":59,"rain":0.0,"pressure":980.0,"uv_index":5.5,"wind_gusts":28.4,"aqi":154,"pm10":303.6,"pm2_5":72.2,"mosquito_risk":0,"arthritis_risk":5,"migraine_risk":3,"frizz_risk":0,"updated_at":"2026-03-01T19:57:59.434174+05:30"},{"city":"Bhatinda","state":"Punjab","latitude":30.211,"longitude":74.9455,"temp":21.8,"humidity":60,"rain":0.0,"pressure":985.8,"uv_index":6.2,"wind_gusts":21.2,"aqi":152,"pm10":88.9,"pm2_5":66.6,"mosquito_risk":0,"arthritis_risk":5,"migraine_risk":7,"frizz_risk":0,"updated_at":"2026-03-01T19:57:59.434180+05:30"},{"city":"Rohtak","state":"Haryana","latitude":28.8955,"longitude":76.6066,"temp":21.5,"humidity":59,"rain":0.0,"pressure":983.7,"uv_index":5.7,"wind_gusts":30.6,"aqi":159,"pm10":407.0,"pm2_5":83.8,"mosquito_risk":0,"arthritis_risk":5,"migraine_risk":3,"frizz_risk":0,"updated_at":"2026-03-01T19:57:59.434187+05:30"},{"city":"Panipat","state":"Haryana","latitude":29.3909,"longitude":76.9635,"temp":19.8,"humidity":59,"rain":0.0,"pressure":982.2,"uv_index":5.5,"wind_gusts":29.9,"aqi":323,"pm10":814.0,"pm2_5":120.6,"mosquito_risk":0,"arthritis_risk":5,"migraine_risk":3,"frizz_risk":0,"updated_at":"2026-03-01T19:57:59.434194+05:30"},{"city":"Mathura","state":"Uttar Pradesh","latitude":27.4924,"longitude":77.6737,"temp":22.8,"humidity":42,"rain":0.0,"pressure":988.7,"uv_index":5.95,"wind_gusts":25.6,"aqi":206,"pm10":489.9,"pm2_5":76.1,"mosquito_risk":0,"arthritis_risk":5,"migraine_risk":3,"frizz_risk":0,"updated_at":"2026-03-01T19:57:59.434200+05:30"},{"city":"Vrindavan","state":"Uttar Pradesh","latitude":27.5823,"longitude":77.7027,"temp":21.3,"humidity":49,"rain":0.0,"pressure":989.2,"uv_index":5.95,"wind_gusts":28.4,"aqi":206,"pm10":489.9,"pm2_5":76.1,"mosquito_risk":0,"arthritis_risk":5,"migraine_risk":3,"frizz_risk":0,"updated_at":"2026-03-01T19:57:59.434207+05:30"},{"city":"Ayodhya","state":"Uttar Pradesh","latitude":26.7922,"longitude":82.1998,"temp":21.8,"humidity":43,"rain":0.0,"pressure":996.4,"uv_index":6.35,"wind_gusts":36.4,"aqi":112,"pm10":41.8,"pm2_5":26.9,"mosquito_risk":0,"arthritis_risk":5,"migraine_risk":7,"frizz_risk":0,"updated_at":"2026-03-01T19:57:59.434213+05:30"},{"city":"Ratlam","state":"Madhya Pradesh","latitude":23.3315,"longitude":75.0367,"temp":25.4,"humidity":52,"rain":0.0,"pressure":955.6,"uv_index":7.2,"wind_gusts":27.7,"aqi":84,"pm10":33.6,"pm2_5":27.7,"mosquito_risk":4,"arthritis_risk":5,"migraine_risk":7,"frizz_risk":0,"updated_at":"2026-03-01T19:57:59.434219+05:30"},{"city":"Sagar","state":"Madhya Pradesh","latitude":23.8388,"longitude":78.7378,"temp":23.8,"humidity":50,"rain":0.0,"pressure":951.1,"uv_index":7.15,"wind_gusts":20.2,"aqi":97,"pm10":23.2,"pm2_5":18.5,"mosquito_risk":0,"arthritis_risk":5,"migraine_risk":7,"frizz_risk":0,"updated_at":"2026-03-01T19:57:59.434226+05:30"},{"city":"Satna","state":"Madhya Pradesh","latitude":24.6005,"longitude":80.8322,"temp":23.8,"humidity":43,"rain":0.0,"pressure":972.7,"uv_index":7.1,"wind_gusts":31.7,"aqi":93,"pm10":36.1,"pm2_5":22.4,"mosquito_risk":0,"arthritis_risk":5,"migraine_risk":7,"frizz_risk":0,"updated_at":"2026-03-01T19:57:59.434233+05:30"},{"city":"Akola","state":"Maharashtra","latitude":20.7002,"longitude":77.0082,"temp":28.1,"humidity":36,"rain":0.0,"pressure":975.5,"uv_index":7.7,"wind_gusts":28.4,"aqi":112,"pm10":24.3,"pm2_5":23.5,"mosquito_risk":4,"arthritis_risk":5,"migraine_risk":7,"frizz_risk":0,"updated_at":"2026-03-01T19:57:59.434240+05:30"},{"city":"Amravati","state":"Maharashtra","latitude":20.9374,"longitude":77.7796,"temp":27.3,"humidity":44,"rain":0.0,"pressure":967.7,"uv_index":7.65,"wind_gusts":27.4,"aqi":112,"pm10":20.8,"pm2_5":20.3,"mosquito_risk":4,"arthritis_risk":5,"migraine_risk":7,"frizz_risk":0,"updated_at":"2026-03-01T19:57:59.434247+05:30"},{"city":"Latur","state":"Maharashtra","latitude":18.4088,"longitude":76.5604,"temp":27.9,"humidity":48,"rain":0.0,"pressure":939.9,"uv_index":8.15,"wind_gusts":25.6,"aqi":129,"pm10":28.9,"pm2_5":28.5,"mosquito_risk":4,"arthritis_risk":5,"migraine_risk":7,"frizz_risk":0,"updated_at":"2026-03-01T19:57:59.434253+05:30"},{"city":"Nanded","state":"Maharashtra","latitude":19.1383,"longitude":77.3091,"temp":28.7,"humidity":47,"rain":0.0,"pressure":968.7,"uv_index":7.9,"wind_gusts":15.5,"aqi":119,"pm10":22.9,"pm2_5":22.6,"mosquito_risk":4,"arthritis_risk":5,"migraine_risk":7,"frizz_risk":1,"updated_at":"2026-03-01T19:57:59.434260+05:30"},{"city":"Gulbarga","state":"Karnataka","latitude":17.3297,"longitude":76.8343,"temp":30.7,"humidity":42,"rain":0.0,"pressure":958.6,"uv_index":8.25,"wind_gusts":17.6,"aqi":157,"pm10":43.0,"pm2_5":42.5,"mosquito_risk":0,"arthritis_risk":5,"migraine_risk":7,"frizz_risk":1,"updated_at":"2026-03-01T19:57:59.434266+05:30"},{"city":"Bidar","state":"Karnataka","latitude":17.9104,"longitude":77.5199,"temp":29.1,"humidity":45,"rain":0.0,"pressure":936.0,"uv_index":8.2,"wind_gusts":20.5,"aqi":152,"pm10":37.3,"pm2_5":37.0,"mosquito_risk":4,"arthritis_risk":5,"migraine_risk":7,"frizz_risk":0,"updated_at":"2026-03-01T19:57:59.434272+05:30"},{"city":"Hospet","state":"Karnataka","latitude":15.2689,"longitude":76.3909,"temp":31.5,"humidity":34,"rain":0.0,"pressure":955.7,"uv_index":8.55,"wind_gusts":24.5,"aqi":168,"pm10":46.7,"pm2_5":46.2,"mosquito_risk":0,"arthritis_risk":5,"migraine_risk":7,"frizz_risk":0,"updated_at":"2026-03-01T19:57:59.434278+05:30"},{"city":"Tirupur","state":"Tamil Nadu","latitude":11.1085,"longitude":77.3411,"temp":30.9,"humidity":37,"rain":0.0,"pressure":974.8,"uv_index":9.05,"wind_gusts":21.2,"aqi":156,"pm10":58.7,"pm2_5":57.5,"mosquito_risk":0,"arthritis_risk":5,"migraine_risk":7,"frizz_risk":0,"updated_at":"2026-03-01T19:57:59.434285+05:30"},{"city":"Alappuzha","state":"Kerala","latitude":9.4981,"longitude":76.3388,"temp":28.6,"humidity":75,"rain":0.0,"pressure":1009.3,"uv_index":8.9,"wind_gusts":34.9,"aqi":125,"pm10":24.9,"pm2_5":21.0,"mosquito_risk":7,"arthritis_risk":0,"migraine_risk":4,"frizz_risk":1,"updated_at":"2026-03-01T19:57:59.434291+05:30"},{"city":"Munnar","state":"Kerala","latitude":10.0889,"longitude":77.0595,"temp":21.6,"humidity":90,"rain":0.0,"pressure":857.5,"uv_index":9.35,"wind_gusts":25.2,"aqi":131,"pm10":49.4,"pm2_5":48.4,"mosquito_risk":3,"arthritis_risk":5,"migraine_risk":7,"frizz_risk":1,"updated_at":"2026-03-01T19:57:59.434299+05:30"},{"city":"Silchar","state":"Assam","latitude":24.8333,"longitude":92.7789,"temp":24.0,"humidity":67,"rain":0.0,"pressure":1005.8,"uv_index":7.3,"wind_gusts":20.5,"aqi":157,"pm10":96.4,"pm2_5":75.0,"mosquito_risk":3,"arthritis_risk":5,"migraine_risk":4,"frizz_risk":1,"updated_at":"2026-03-01T19:57:59.434306+05:30"},{"city":"Dibrugarh","state":"Assam","latitude":27.4728,"longitude":94.912,"temp":20.4,"humidity":81,"rain":0.0,"pressure":998.1,"uv_index":7.0,"wind_gusts":13.7,"aqi":158,"pm10":100.4,"pm2_5":86.6,"mosquito_risk":3,"arthritis_risk":5,"migraine_risk":7,"frizz_risk":1,"updated_at":"2026-03-01T19:57:59.434312+05:30"}]