[{"city":"Delhi","state":"Delhi","latitude":28.6139,"longitude":77.209,"temp":26.1,"humidity":91,"rain":0.0,"pressure":975.3,"uv_index":6.5,"wind_gusts":36.0,"aqi":88,"pm10":37.3,"pm2_5":37.1,"no2":18.6,"co":306.0,"o3":69.0,"so2":19.2,"mosquito_risk":7,"arthritis_risk":5,"migraine_risk":7,"frizz_risk":1,"updated_at":"2026-07-24T05:32:57.760524+05:30"},{"city":"Mumbai","state":"Maharashtra","latitude":19.076,"longitude":72.8777,"temp":26.6,"humidity":85,"rain":0.0,"pressure":1002.6,"uv_index":7.7,"wind_gusts":64.4,"aqi":58,"pm10":35.0,"pm2_5":13.5,"no2":3.6,"co":102.0,"o3":42.0,"so2":3.3,"mosquito_risk":7,"arthritis_risk":5,"migraine_risk":4,"frizz_risk":1,"updated_at":"2026-07-24T05:32:57.760571+05:30"},{"city":"Bangalore","state":"Karnataka","latitude":12.9716,"longitude":77.5946,"temp":20.1,"humidity":97,"rain":0.0,"pressure":910.5,"uv_index":8.75,"wind_gusts":51.1,"aqi":40,"pm10":11.2,"pm2_5":6.0,"no2":7.2,"co":186.0,"o3":30.0,"so2":4.0,"mosquito_risk":3,"arthritis_risk":5,"migraine_risk":7,"frizz_risk":1,"updated_at":"2026-07-24T05:32:57.760588+05:30"},{"city":"Hyderabad","state":"Telangana","latitude":17.385,"longitude":78.4867,"temp":23.7,"humidity":82,"rain":0.0,"pressure":949.4,"uv_index":6.55,"wind_gusts":62.3,"aqi":64,"pm10":20.5,"pm2_5":12.7,"no2":5.8,"co":146.0,"o3":39.0,"so2":4.1,"mosquito_risk":3,"arthritis_risk":5,"migraine_risk":7,"frizz_risk":1,"updated_at":"2026-07-24T05:32:57.760598+05:30"},{"city":"Chennai","state":"Tamil Nadu","latitude":13.0827,"longitude":80.2707,"temp":26.6,"humidity":86,"rain":0.0,"pressure":1005.3,"uv_index":7.95,"wind_gusts":43.9,"aqi":71,"pm10":25.1,"pm2_5":19.0,"no2":17.9,"co":244.0,"o3":48.0,"so2":16.2,"mosquito_risk":7,"arthritis_risk":5,"migraine_risk":4,"frizz_risk":1,"updated_at":"2026-07-24T05:32:57.760607+05:30"},{"city":"Kolkata","state":"West Bengal","latitude":22.5726,"longitude":88.3639,"temp":25.8,"humidity":95,"rain":0.0,"pressure":1000.5,"uv_index":3.3,"wind_gusts":31.3,"aqi":69,"pm10":27.2,"pm2_5":23.0,"no2":9.8,"co":236.0,"o3":65.0,"so2":8.7,"mosquito_risk":7,"arthritis_risk":5,"migraine_risk":0,"frizz_risk":1,"updated_at":"2026-07-24T05:32:57.760615+05:30"},{"city":"Pune","state":"Maharashtra","latitude":18.5204,"longitude":73.8567,"temp":22.4,"humidity":90,"rain":0.0,"pressure":942.1,"uv_index":7.15,"wind_gusts":67.3,"aqi":35,"pm10":4.0,"pm2_5":2.0,"no2":2.7,"co":101.0,"o3":39.0,"so2":2.3,"mosquito_risk":3,"arthritis_risk":5,"migraine_risk":7,"frizz_risk":1,"updated_at":"2026-07-24T05:32:57.760621+05:30"},{"city":"Ahmedabad","state":"Gujarat","latitude":23.0225,"longitude":72.5714,"temp":25.4,"humidity":97,"rain":0.3,"pressure":991.3,"uv_index":2.0,"wind_gusts":58.3,"aqi":55,"pm10":7.2,"pm2_5":4.6,"no2":8.0,"co":114.0,"o3":40.0,"so2":3.0,"mosquito_risk":10,"arthritis_risk":5,"migraine_risk":3,"frizz_risk":1,"updated_at":"2026-07-24T05:32:57.760628+05:30"},{"city":"Jaipur","state":"Rajasthan","latitude":26.9124,"longitude":75.7873,"temp":24.8,"humidity":97,"rain":0.1,"pressure":950.5,"uv_index":6.3,"wind_gusts":28.4,"aqi":71,"pm10":19.2,"pm2_5":19.1,"no2":9.3,"co":282.0,"o3":76.0,"so2":6.0,"mosquito_risk":6,"arthritis_risk":5,"migraine_risk":7,"frizz_risk":1,"updated_at":"2026-07-24T05:32:57.760634+05:30"},{"city":"Lucknow","state":"Uttar Pradesh","latitude":26.8467,"longitude":80.9462,"temp":25.1,"humidity":98,"rain":0.1,"pressure":987.2,"uv_index":6.5,"wind_gusts":26.3,"aqi":76,"pm10":16.7,"pm2_5":16.6,"no2":13.8,"co":214.0,"o3":46.0,"so2":8.5,"mosquito_risk":10,"arthritis_risk":5,"migraine_risk":7,"frizz_risk":1,"updated_at":"2026-07-24T05:32:57.760644+05:30"},{"city":"Kanpur","state":"Uttar Pradesh","latitude":26.4499,"longitude":80.3319,"temp":25.3,"humidity":98,"rain":0.0,"pressure":984.6,"uv_index":7.15,"wind_gusts":27.4,"aqi":67,"pm10":9.7,"pm2_5":9.5,"no2":12.2,"co":232.0,"o3":44.0,"so2":3.6,"mosquito_risk":7,"arthritis_risk":5,"migraine_risk":7,"frizz_risk":1,"updated_at":"2026-07-24T05:32:57.760650+05:30"},{"city":"Chandigarh","state":"Chandigarh","latitude":30.7333,"longitude":76.7794,"temp":26.8,"humidity":80,"rain":0.0,"pressure":962.8,"uv_index":7.55,"wind_gusts":28.1,"aqi":84,"pm10":22.5,"pm2_5":22.4,"no2":21.0,"co":241.0,"o3":40.0,"so2":5.8,"mosquito_risk":7,"arthritis_risk":5,"migraine_risk":7,"frizz_risk":1,"updated_at":"2026-07-24T05:32:57.760657+05:30"},{"city":"Srinagar","state":"Jammu and Kashmir","latitude":34.0837,"longitude":74.7973,"temp":17.5,"humidity":93,"rain":0.1,"pressure":838.7,"uv_index":6.85,"wind_gusts":22.3,"aqi":72,"pm10":18.0,"pm2_5":17.5,"no2":16.8,"co":214.0,"o3":40.0,"so2":3.1,"mosquito_risk":6,"arthritis_risk":10,"migraine_risk":7,"frizz_risk":1,"updated_at":"2026-07-24T05:32:57.760665+05:30"},{"city":"Jammu","state":"Jammu and Kashmir","latitude":32.7266,"longitude":74.857,"temp":23.5,"humidity":93,"rain":0.1,"pressure":967.3,"uv_index":8.3,"wind_gusts":28.1,"aqi":93,"pm10":33.5,"pm2_5":32.1,"no2":27.6,"co":208.0,"o3":29.0,"so2":2.2,"mosquito_risk":6,"arthritis_risk":5,"migraine_risk":7,"frizz_risk":1,"updated_at":"2026-07-24T05:32:57.760671+05:30"},{"city":"Amritsar","state":"Punjab","latitude":31.634,"longitude":74.8723,"temp":24.7,"humidity":95,"rain":0.3,"pressure":974.9,"uv_index":8.05,"wind_gusts":30.2,"aqi":91,"pm10":35.6,"pm2_5":35.2,"no2":23.0,"co":312.0,"o3":38.0,"so2":3.7,"mosquito_risk":6,"arthritis_risk":5,"migraine_risk":7,"frizz_risk":1,"updated_at":"2026-07-24T05:32:57.760677+05:30"},{"city":"Ludhiana","state":"Punjab","latitude":30.901,"longitude":75.8573,"temp":27.1,"humidity":88,"rain":0.0,"pressure":972.2,"uv_index":7.85,"wind_gusts":36.7,"aqi":124,"pm10":35.0,"pm2_5":34.6,"no2":24.9,"co":474.0,"o3":44.0,"so2":10.7,"mosquito_risk":7,"arthritis_risk":5,"migraine_risk":7,"frizz_risk":1,"updated_at":"2026-07-24T05:32:57.760683+05:30"},{"city":"Jalandhar","state":"Punjab","latitude":31.326,"longitude":75.5762,"temp":25.1,"humidity":96,"rain":0.0,"pressure":973.6,"uv_index":8.05,"wind_gusts":28.8,"aqi":117,"pm10":53.3,"pm2_5":53.1,"no2":30.3,"co":651.0,"o3":35.0,"so2":13.3,"mosquito_risk":7,"arthritis_risk":5,"migraine_risk":7,"frizz_risk":1,"updated_at":"2026-07-24T05:32:57.760688+05:30"},{"city":"Dehradun","state":"Uttarakhand","latitude":30.6284,"longitude":78.0322,"temp":17.2,"humidity":98,"rain":0.0,"pressure":826.2,"uv_index":7.6,"wind_gusts":27.4,"aqi":52,"pm10":14.2,"pm2_5":14.0,"no2":23.9,"co":171.0,"o3":28.0,"so2":1.3,"mosquito_risk":3,"arthritis_risk":10,"migraine_risk":7,"frizz_risk":1,"updated_at":"2026-07-24T05:32:57.760694+05:30"},{"city":"Shimla","state":"Himachal Pradesh","latitude":31.1048,"longitude":77.1734,"temp":13.2,"humidity":100,"rain":0.1,"pressure":779.5,"uv_index":5.05,"wind_gusts":24.8,"aqi":49,"pm10":4.9,"pm2_5":4.8,"no2":8.9,"co":290.0,"o3":60.0,"so2":1.0,"mosquito_risk":6,"arthritis_risk":10,"migraine_risk":3,"frizz_risk":0,"updated_at":"2026-07-24T05:32:57.760702+05:30"},{"city":"Manali","state":"Himachal Pradesh","latitude":32.2396,"longitude":77.1887,"temp":17.9,"humidity":85,"rain":0.0,"pressure":814.4,"uv_index":9.3,"wind_gusts":30.2,"aqi":15,"pm10":3.1,"pm2_5":3.0,"no2":12.9,"co":217.0,"o3":30.0,"so2":0.0,"mosquito_risk":3,"arthritis_risk":10,"migraine_risk":7,"frizz_risk":0,"updated_at":"2026-07-24T05:32:57.760712+05:30"},{"city":"Gurgaon","state":"Haryana","latitude":28.4595,"longitude":77.0266,"temp":25.7,"humidity":94,"rain":0.1,"pressure":973.6,"uv_index":6.65,"wind_gusts":37.1,"aqi":99,"pm10":37.6,"pm2_5":37.6,"no2":15.4,"co":274.0,"o3":74.0,"so2":15.2,"mosquito_risk":10,"arthritis_risk":5,"migraine_risk":7,"frizz_risk":1,"updated_at":"2026-07-24T05:32:57.760717+05:30"},{"city":"Noida","state":"Uttar Pradesh","latitude":28.5355,"longitude":77.391,"temp":26.3,"humidity":90,"rain":0.0,"pressure":976.8,"uv_index":6.05,"wind_gusts":38.9,"aqi":99,"pm10":37.6,"pm2_5":37.6,"no2":15.4,"co":293.0,"o3":74.0,"so2":15.2,"mosquito_risk":7,"arthritis_risk":5,"migraine_risk":7,"frizz_risk":1,"updated_at":"2026-07-24T05:32:57.760723+05:30"},{"city":"Ghaziabad","state":"Uttar Pradesh","latitude":28.6692,"longitude":77.4538,"temp":26.2,"humidity":90,"rain":0.0,"pressure":975.2,"uv_index":6.5,"wind_gusts":43.9,"aqi":77,"pm10":36.0,"pm2_5":35.9,"no2":13.0,"co":308.0,"o3":72.0,"so2":10.6,"mosquito_risk":7,"arthritis_risk":5,"migraine_risk":7,"frizz_risk":1,"updated_at":"2026-07-24T05:32:57.760729+05:30"},{"city":"Faridabad","state":"Haryana","latitude":28.4089,"longitude":77.3178,"temp":26.1,"humidity":91,"rain":0.0,"pressure":975.9,"uv_index":5.95,"wind_gusts":42.8,"aqi":99,"pm10":37.6,"pm2_5":37.6,"no2":15.4,"co":274.0,"o3":74.0,"so2":15.2,"mosquito_risk":7,"arthritis_risk":5,"migraine_risk":3,"frizz_risk":1,"updated_at":"2026-07-24T05:32:57.760735+05:30"},{"city":"Meerut","state":"Uttar Pradesh","latitude":28.9845,"longitude":77.7064,"temp":26.1,"humidity":90,"rain":0.0,"pressure":974.4,"uv_index":6.15,"wind_gusts":49.3,"aqi":77,"pm10":36.0,"pm2_5":35.9,"no2":13.0,"co":323.0,"o3":72.0,"so2":10.6,"mosquito_risk":7,"arthritis_risk":5,"migraine_risk":7,"frizz_risk":1,"updated_at":"2026-07-24T05:32:57.760741+05:30"},{"city":"Agra","state":"Uttar Pradesh","latitude":27.1767,"longitude":78.0081,"temp":25.4,"humidity":98,"rain":0.1,"pressure":979.2,"uv_index":6.55,"wind_gusts":32.8,"aqi":91,"pm10":21.1,"pm2_5":21.0,"no2":12.8,"co":240.0,"o3":60.0,"so2":8.1,"mosquito_risk":10,"arthritis_risk":5,"migraine_risk":7,"frizz_risk":1,"updated_at":"2026-07-24T05:32:57.760747+05:30"},{"city":"Varanasi","state":"Uttar Pradesh","latitude":25.3176,"longitude":82.9739,"temp":25.8,"humidity":95,"rain":0.2,"pressure":991.7,"uv_index":8.15,"wind_gusts":22.7,"aqi":76,"pm10":25.6,"pm2_5":25.3,"no2":37.7,"co":361.0,"o3":13.0,"so2":29.3,"mosquito_risk":10,"arthritis_risk":5,"migraine_risk":7,"frizz_risk":1,"updated_at":"2026-07-24T05:32:57.760755+05:30"},{"city":"Prayagraj","state":"Uttar Pradesh","latitude":25.4358,"longitude":81.8463,"temp":26.3,"humidity":96,"rain":0.1,"pressure":989.8,"uv_index":8.35,"wind_gusts":19.8,"aqi":66,"pm10":16.5,"pm2_5":16.1,"no2":19.1,"co":249.0,"o3":35.0,"so2":7.4,"mosquito_risk":10,"arthritis_risk":5,"migraine_risk":7,"frizz_risk":1,"updated_at":"2026-07-24T05:32:57.760761+05:30"},{"city":"Gorakhpur","state":"Uttar Pradesh","latitude":26.7606,"longitude":83.3732,"temp":25.5,"humidity":97,"rain":0.0,"pressure":992.0,"uv_index":6.6,"wind_gusts":28.8,"aqi":79,"pm10":30.2,"pm2_5":30.0,"no2":14.4,"co":288.0,"o3":65.0,"so2":8.0,"mosquito_risk":7,"arthritis_risk":5,"migraine_risk":7,"frizz_risk":1,"updated_at":"2026-07-24T05:32:57.760768+05:30"},{"city":"Bareilly","state":"Uttar Pradesh","latitude":28.367,"longitude":79.4304,"temp":25.4,"humidity":92,"rain":0.0,"pressure":979.9,"uv_index":6.75,"wind_gusts":43.2,"aqi":74,"pm10":32.9,"pm2_5":32.8,"no2":11.0,"co":331.0,"o3":80.0,"so2":8.6,"mosquito_risk":7,"arthritis_risk":5,"migraine_risk":7,"frizz_risk":1,"updated_at":"2026-07-24T05:32:57.760776+05:30"},{"city":"Aligarh","state":"Uttar Pradesh","latitude":27.8974,"longitude":78.088,"temp":25.9,"humidity":93,"rain":0.0,"pressure":977.4,"uv_index":6.95,"wind_gusts":35.6,"aqi":85,"pm10":40.3,"pm2_5":40.3,"no2":12.4,"co":257.0,"o3":70.0,"so2":12.4,"mosquito_risk":7,"arthritis_risk":5,"migraine_risk":7,"frizz_risk":1,"updated_at":"2026-07-24T05:32:57.760782+05:30"},{"city":"Moradabad","state":"Uttar Pradesh","latitude":28.8386,"longitude":78.7733,"temp":26.3,"humidity":86,"rain":0.0,"pressure":976.9,"uv_index":6.5,"wind_gusts":50.0,"aqi":70,"pm10":30.2,"pm2_5":30.0,"no2":10.3,"co":319.0,"o3":84.0,"so2":9.0,"mosquito_risk":7,"arthritis_risk":5,"migraine_risk":7,"frizz_risk":1,"updated_at":"2026-07-24T05:32:57.760788+05:30"},{"city":"Saharanpur","state":"Uttar Pradesh","latitude":29.9637,"longitude":77.546,"temp":26.4,"humidity":86,"rain":0.0,"pressure":969.4,"uv_index":7.05,"wind_gusts":46.8,"aqi":74,"pm10":30.2,"pm2_5":29.5,"no2":21.3,"co":308.0,"o3":38.0,"so2":7.2,"mosquito_risk":7,"arthritis_risk":5,"migraine_risk":7,"frizz_risk":1,"updated_at":"2026-07-24T05:32:57.760794+05:30"},{"city":"Jhansi","state":"Uttar Pradesh","latitude":25.4484,"longitude":78.5685,"temp":25.9,"humidity":84,"rain":0.0,"pressure":969.8,"uv_index":6.95,"wind_gusts":36.0,"aqi":66,"pm10":11.2,"pm2_5":10.9,"no2":12.4,"co":179.0,"o3":31.0,"so2":4.6,"mosquito_risk":7,"arthritis_risk":5,"migraine_risk":7,"frizz_risk":1,"updated_at":"2026-07-24T05:33:01.052165+05:30"},{"city":"Surat","state":"Gujarat","latitude":21.1702,"longitude":72.8311,"temp":26.6,"humidity":89,"rain":0.1,"pressure":997.6,"uv_index":6.3,"wind_gusts":63.7,"aqi":61,"pm10":23.1,"pm2_5":13.0,"no2":14.2,"co":234.0,"o3":28.0,"so2":24.1,"mosquito_risk":10,"arthritis_risk":5,"migraine_risk":7,"frizz_risk":1,"updated_at":"2026-07-24T05:33:01.052209+05:30"},{"city":"Vadodara","state":"Gujarat","latitude":22.3072,"longitude":73.1812,"temp":25.7,"humidity":94,"rain":0.1,"pressure":994.3,"uv_index":5.7,"wind_gusts":59.4,"aqi":50,"pm10":7.4,"pm2_5":4.7,"no2":5.8,"co":109.0,"o3":34.0,"so2":3.3,"mosquito_risk":10,"arthritis_risk":5,"migraine_risk":3,"frizz_risk":1,"updated_at":"2026-07-24T05:33:01.052220+05:30"},{"city":"Rajkot","state":"Gujarat","latitude":22.3039,"longitude":70.8022,"temp":25.1,"humidity":95,"rain":1.1,"pressure":983.9,"uv_index":1.25,"wind_gusts":51.5,"aqi":53,"pm10":14.1,"pm2_5":6.9,"no2":3.3,"co":92.0,"o3":41.0,"so2":2.8,"mosquito_risk":10,"arthritis_risk":5,"migraine_risk":3,"frizz_risk":1,"updated_at":"2026-07-24T05:33:01.052230+05:30"},{"city":"Thane","state":"Maharashtra","latitude":19.2183,"longitude":72.9781,"temp":25.3,"humidity":94,"rain":0.0,"pressure":1001.7,"uv_index":7.75,"wind_gusts":52.6,"aqi":58,"pm10":35.0,"pm2_5":13.5,"no2":3.6,"co":109.0,"o3":42.0,"so2":3.3,"mosquito_risk":7,"arthritis_risk":5,"migraine_risk":4,"frizz_risk":1,"updated_at":"2026-07-24T05:33:01.052239+05:30"},{"city":"Nagpur","state":"Maharashtra","latitude":21.1458,"longitude":79.0882,"temp":24.6,"humidity":85,"rain":0.0,"pressure":967.9,"uv_index":7.4,"wind_gusts":46.1,"aqi":58,"pm10":8.5,"pm2_5":6.8,"no2":9.7,"co":145.0,"o3":32.0,"so2":8.5,"mosquito_risk":3,"arthritis_risk":5,"migraine_risk":7,"frizz_risk":1,"updated_at":"2026-07-24T05:33:01.052247+05:30"},{"city":"Nashik","state":"Maharashtra","latitude":19.9975,"longitude":73.7898,"temp":22.0,"humidity":97,"rain":0.1,"pressure":937.9,"uv_index":4.2,"wind_gusts":68.0,"aqi":17,"pm10":9.1,"pm2_5":4.6,"no2":3.7,"co":96.0,"o3":37.0,"so2":3.0,"mosquito_risk":6,"arthritis_risk":5,"migraine_risk":3,"frizz_risk":1,"updated_at":"2026-07-24T05:33:01.052255+05:30"},{"city":"Aurangabad","state":"Maharashtra","latitude":19.8762,"longitude":75.3433,"temp":22.6,"humidity":91,"rain":0.0,"pressure":937.5,"uv_index":7.95,"wind_gusts":66.6,"aqi":21,"pm10":5.3,"pm2_5":2.9,"no2":4.8,"co":108.0,"o3":36.0,"so2":4.9,"mosquito_risk":3,"arthritis_risk":5,"migraine_risk":7,"frizz_risk":1,"updated_at":"2026-07-24T05:33:01.052264+05:30"},{"city":"Solapur","state":"Maharashtra","latitude":17.6599,"longitude":75.9064,"temp":24.1,"humidity":81,"rain":0.0,"pressure":953.1,"uv_index":5.35,"wind_gusts":66.2,"aqi":59,"pm10":3.5,"pm2_5":2.3,"no2":3.4,"co":100.0,"o3":35.0,"so2":1.8,"mosquito_risk":3,"arthritis_risk":5,"migraine_risk":3,"frizz_risk":1,"updated_at":"2026-07-24T05:33:01.052272+05:30"},{"city":"Kolhapur","state":"Maharashtra","latitude":16.705,"longitude":74.2433,"temp":22.1,"humidity":94,"rain":0.0,"pressure":944.1,"uv_index":8.85,"wind_gusts":68.4,"aqi":59,"pm10":7.0,"pm2_5":4.1,"no2":2.0,"co":95.0,"o3":36.0,"so2":1.2,"mosquito_risk":3,"arthritis_risk":5,"migraine_risk":7,"frizz_risk":1,"updated_at":"2026-07-24T05:33:01.052279+05:30"},{"city":"Goa","state":"Goa","latitude":15.2993,"longitude":74.124,"temp":22.9,"humidity":98,"rain":0.1,"pressure":996.1,"uv_index":8.7,"wind_gusts":48.6,"aqi":94,"pm10":61.2,"pm2_5":25.0,"no2":1.9,"co":219.0,"o3":37.0,"so2":0.7,"mosquito_risk":6,"arthritis_risk":5,"migraine_risk":7,"frizz_risk":1,"updated_at":"2026-07-24T05:33:01.052287+05:30"},{"city":"Jodhpur","state":"Rajasthan","latitude":26.2389,"longitude":73.0243,"temp":26.9,"humidity":96,"rain":0.0,"pressure":972.5,"uv_index":8.1,"wind_gusts":23.4,"aqi":61,"pm10":21.7,"pm2_5":20.9,"no2":15.5,"co":241.0,"o3":51.0,"so2":2.9,"mosquito_risk":7,"arthritis_risk":5,"migraine_risk":7,"frizz_risk":1,"updated_at":"2026-07-24T05:33:01.052295+05:30"},{"city":"Udaipur","state":"Rajasthan","latitude":24.5854,"longitude":73.7125,"temp":23.5,"humidity":98,"rain":0.0,"pressure":935.8,"uv_index":5.1,"wind_gusts":42.1,"aqi":51,"pm10":19.6,"pm2_5":19.0,"no2":13.8,"co":217.0,"o3":37.0,"so2":4.3,"mosquito_risk":3,"arthritis_risk":5,"migraine_risk":3,"frizz_risk":1,"updated_at":"2026-07-24T05:33:01.052303+05:30"},{"city":"Kota","state":"Rajasthan","latitude":25.2138,"longitude":75.8648,"temp":25.8,"humidity":91,"rain":0.0,"pressure":968.9,"uv_index":8.2,"wind_gusts":40.0,"aqi":70,"pm10":11.5,"pm2_5":10.9,"no2":15.0,"co":293.0,"o3":24.0,"so2":5.7,"mosquito_risk":7,"arthritis_risk":5,"migraine_risk":7,"frizz_risk":1,"updated_at":"2026-07-24T05:33:01.052310+05:30"},{"city":"Bikaner","state":"Rajasthan","latitude":28.0229,"longitude":73.3119,"temp":27.7,"humidity":82,"rain":0.0,"pressure":972.0,"uv_index":8.2,"wind_gusts":28.8,"aqi":71,"pm10":35.2,"pm2_5":28.2,"no2":6.3,"co":316.0,"o3":73.0,"so2":5.1,"mosquito_risk":7,"arthritis_risk":5,"migraine_risk":7,"frizz_risk":1,"updated_at":"2026-07-24T05:33:01.052318+05:30"},{"city":"Ajmer","state":"Rajasthan","latitude":26.4499,"longitude":74.6399,"temp":24.7,"humidity":96,"rain":0.1,"pressure":944.8,"uv_index":8.2,"wind_gusts":32.8,"aqi":62,"pm10":26.3,"pm2_5":25.8,"no2":12.1,"co":270.0,"o3":62.0,"so2":5.1,"mosquito_risk":6,"arthritis_risk":5,"migraine_risk":7,"frizz_risk":1,"updated_at":"2026-07-24T05:33:01.052326+05:30"},{"city":"Gwalior","state":"Madhya Pradesh","latitude":26.2183,"longitude":78.1828,"temp":25.5,"humidity":94,"rain":0.0,"pressure":974.6,"uv_index":7.85,"wind_gusts":32.0,"aqi":75,"pm10":14.3,"pm2_5":14.1,"no2":12.4,"co":215.0,"o3":46.0,"so2":4.3,"mosquito_risk":7,"arthritis_risk":5,"migraine_risk":7,"frizz_risk":1,"updated_at":"2026-07-24T05:33:01.052333+05:30"},{"city":"Indore","state":"Madhya Pradesh","latitude":22.7196,"longitude":75.8577,"temp":23.7,"humidity":90,"rain":0.0,"pressure":939.7,"uv_index":5.9,"wind_gusts":51.8,"aqi":28,"pm10":4.0,"pm2_5":3.2,"no2":6.4,"co":131.0,"o3":40.0,"so2":7.1,"mosquito_risk":3,"arthritis_risk":5,"migraine_risk":3,"frizz_risk":1,"updated_at":"2026-07-24T05:33:01.052339+05:30"},{"city":"Bhopal","state":"Madhya Pradesh","latitude":23.2599,"longitude":77.4126,"temp":23.5,"humidity":92,"rain":0.0,"pressure":945.9,"uv_index":8.45,"wind_gusts":46.8,"aqi":36,"pm10":5.8,"pm2_5":4.5,"no2":6.8,"co":138.0,"o3":35.0,"so2":5.4,"mosquito_risk":3,"arthritis_risk":5,"migraine_risk":7,"frizz_risk":1,"updated_at":"2026-07-24T05:33:01.052347+05:30"},{"city":"Jabalpur","state":"Madhya Pradesh","latitude":23.1815,"longitude":79.9864,"temp":24.0,"humidity":88,"rain":0.0,"pressure":955.1,"uv_index":7.0,"wind_gusts":37.1,"aqi":50,"pm10":16.2,"pm2_5":13.8,"no2":10.0,"co":166.0,"o3":32.0,"so2":6.6,"mosquito_risk":3,"arthritis_risk":5,"migraine_risk":7,"frizz_risk":1,"updated_at":"2026-07-24T05:33:01.052355+05:30"},{"city":"Ujjain","state":"Madhya Pradesh","latitude":23.1765,"longitude":75.7885,"temp":23.5,"humidity":94,"rain":0.1,"pressure":944.7,"uv_index":5.6,"wind_gusts":54.0,"aqi":31,"pm10":2.4,"pm2_5":2.2,"no2":6.2,"co":148.0,"o3":37.0,"so2":4.2,"mosquito_risk":6,"arthritis_risk":5,"migraine_risk":3,"frizz_risk":1,"updated_at":"2026-07-24T05:33:01.052363+05:30"},{"city":"Visakhapatnam","state":"Andhra Pradesh","latitude":17.6868,"longitude":83.2185,"temp":25.0,"humidity":91,"rain":0.2,"pressure":1000.3,"uv_index":8.0,"wind_gusts":47.9,"aqi":71,"pm10":25.4,"pm2_5":18.7,"no2":17.8,"co":300.0,"o3":73.0,"so2":31.9,"mosquito_risk":10,"arthritis_risk":5,"migraine_risk":4,"frizz_risk":1,"updated_at":"2026-07-24T05:33:01.052371+05:30"},{"city":"Vijayawada","state":"Andhra Pradesh","latitude":16.5062,"longitude":80.648,"temp":28.8,"humidity":64,"rain":0.0,"pressure":999.5,"uv_index":5.25,"wind_gusts":45.4,"aqi":64,"pm10":29.8,"pm2_5":20.5,"no2":9.9,"co":190.0,"o3":53.0,"so2":6.6,"mosquito_risk":7,"arthritis_risk":5,"migraine_risk":3,"frizz_risk":1,"updated_at":"2026-07-24T05:33:01.052379+05:30"},{"city":"Guntur","state":"Andhra Pradesh","latitude":16.3067,"longitude":80.4365,"temp":29.5,"humidity":62,"rain":0.0,"pressure":1000.9,"uv_index":4.85,"wind_gusts":45.0,"aqi":65,"pm10":30.3,"pm2_5":20.5,"no2":11.8,"co":185.0,"o3":41.0,"so2":5.6,"mosquito_risk":7,"arthritis_risk":5,"migraine_risk":0,"frizz_risk":1,"updated_at":"2026-07-24T05:33:01.052387+05:30"},{"city":"Nellore","state":"Andhra Pradesh","latitude":14.4426,"longitude":79.9865,"temp":25.5,"humidity":88,"rain":0.0,"pressure":1004.0,"uv_index":7.6,"wind_gusts":43.2,"aqi":65,"pm10":35.9,"pm2_5":21.9,"no2":9.9,"co":282.0,"o3":46.0,"so2":6.5,"mosquito_risk":7,"arthritis_risk":5,"migraine_risk":4,"frizz_risk":1,"updated_at":"2026-07-24T05:33:01.052395+05:30"},{"city":"Kurnool","state":"Andhra Pradesh","latitude":15.8281,"longitude":78.0373,"temp":25.6,"humidity":74,"rain":0.0,"pressure":974.7,"uv_index":7.5,"wind_gusts":56.5,"aqi":60,"pm10":45.2,"pm2_5":21.2,"no2":6.1,"co":118.0,"o3":43.0,"so2":4.9,"mosquito_risk":7,"arthritis_risk":5,"migraine_risk":7,"frizz_risk":1,"updated_at":"2026-07-24T05:33:01.052404+05:30"},{"city":"Kakinada","state":"Andhra Pradesh","latitude":16.9891,"longitude":82.2475,"temp":28.8,"humidity":81,"rain":0.0,"pressure":1004.0,"uv_index":8.85,"wind_gusts":57.6,"aqi":64,"pm10":32.0,"pm2_5":19.6,"no2":3.5,"co":218.0,"o3":85.0,"so2":5.5,"mosquito_risk":7,"arthritis_risk":5,"migraine_risk":4,"frizz_risk":1,"updated_at":"2026-07-24T05:33:01.052412+05:30"},{"city":"Tirupati","state":"Andhra Pradesh","latitude":13.6288,"longitude":79.4192,"temp":25.4,"humidity":81,"rain":0.0,"pressure":989.5,"uv_index":6.5,"wind_gusts":36.7,"aqi":66,"pm10":28.8,"pm2_5":18.8,"no2":15.3,"co":162.0,"o3":27.0,"so2":4.6,"mosquito_risk":7,"arthritis_risk":5,"migraine_risk":7,"frizz_risk":1,"updated_at":"2026-07-24T05:33:01.052421+05:30"},{"city":"Warangal","state":"Telangana","latitude":17.9689,"longitude":79.5941,"temp":26.0,"humidity":71,"rain":0.0,"pressure":975.2,"uv_index":3.8,"wind_gusts":48.6,"aqi":70,"pm10":29.2,"pm2_5":17.6,"no2":7.8,"co":152.0,"o3":36.0,"so2":3.6,"mosquito_risk":7,"arthritis_risk":5,"migraine_risk":3,"frizz_risk":1,"updated_at":"2026-07-24T05:33:01.052428+05:30"},{"city":"Nizamabad","state":"Telangana","latitude":18.6725,"longitude":78.0941,"temp":24.7,"humidity":77,"rain":0.0,"pressure":960.3,"uv_index":6.4,"wind_gusts":54.7,"aqi":62,"pm10":10.3,"pm2_5":5.5,"no2":5.4,"co":120.0,"o3":31.0,"so2":2.3,"mosquito_risk":3,"arthritis_risk":5,"migraine_risk":7,"frizz_risk":1,"updated_at":"2026-07-24T05:33:01.052437+05:30"},{"city":"Mysore","state":"Karnataka","latitude":12.2958,"longitude":76.6396,"temp":20.4,"humidity":96,"rain":0.0,"pressure":927.5,"uv_index":7.2,"wind_gusts":46.4,"aqi":28,"pm10":8.2,"pm2_5":4.4,"no2":4.4,"co":111.0,"o3":31.0,"so2":1.6,"mosquito_risk":3,"arthritis_risk":5,"migraine_risk":7,"frizz_risk":1,"updated_at":"2026-07-24T05:33:01.052445+05:30"},{"city":"Mangalore","state":"Karnataka","latitude":12.9141,"longitude":74.856,"temp":23.2,"humidity":99,"rain":0.1,"pressure":1006.5,"uv_index":8.65,"wind_gusts":43.2,"aqi":51,"pm10":21.7,"pm2_5":10.5,"no2":3.5,"co":149.0,"o3":29.0,"so2":1.7,"mosquito_risk":6,"arthritis_risk":5,"migraine_risk":4,"frizz_risk":1,"updated_at":"2026-07-24T05:33:01.052454+05:30"},{"city":"Hubli-Dharwad","state":"Karnataka","latitude":15.3647,"longitude":75.124,"temp":21.2,"humidity":98,"rain":0.0,"pressure":938.1,"uv_index":8.95,"wind_gusts":64.1,"aqi":58,"pm10":24.7,"pm2_5":10.7,"no2":1.7,"co":96.0,"o3":43.0,"so2":0.9,"mosquito_risk":3,"arthritis_risk":5,"migraine_risk":7,"frizz_risk":1,"updated_at":"2026-07-24T05:33:01.052462+05:30"},{"city":"Belgaum","state":"Karnataka","latitude":15.8497,"longitude":74.4977,"temp":20.6,"humidity":96,"rain":0.0,"pressure":922.3,"uv_index":8.9,"wind_gusts":67.7,"aqi":61,"pm10":14.1,"pm2_5":6.9,"no2":1.9,"co":94.0,"o3":37.0,"so2":1.2,"mosquito_risk":3,"arthritis_risk":5,"migraine_risk":7,"frizz_risk":1,"updated_at":"2026-07-24T05:33:04.309218+05:30"},{"city":"Coimbatore","state":"Tamil Nadu","latitude":11.0168,"longitude":76.9558,"temp":22.3,"humidity":94,"rain":0.0,"pressure":960.7,"uv_index":8.8,"wind_gusts":51.1,"aqi":38,"pm10":8.0,"pm2_5":5.9,"no2":7.5,"co":175.0,"o3":20.0,"so2":2.6,"mosquito_risk":3,"arthritis_risk":5,"migraine_risk":7,"frizz_risk":1,"updated_at":"2026-07-24T05:33:04.309258+05:30"},{"city":"Madurai","state":"Tamil Nadu","latitude":9.9252,"longitude":78.1198,"temp":27.4,"humidity":65,"rain":0.0,"pressure":992.0,"uv_index":8.85,"wind_gusts":33.1,"aqi":64,"pm10":26.1,"pm2_5":23.4,"no2":35.3,"co":157.0,"o3":2.0,"so2":6.1,"mosquito_risk":7,"arthritis_risk":5,"migraine_risk":7,"frizz_risk":1,"updated_at":"2026-07-24T05:33:04.309269+05:30"},{"city":"Trichy","state":"Tamil Nadu","latitude":10.7905,"longitude":78.7047,"temp":27.5,"humidity":67,"rain":0.0,"pressure":998.8,"uv_index":8.75,"wind_gusts":44.6,"aqi":54,"pm10":8.6,"pm2_5":6.1,"no2":6.9,"co":105.0,"o3":25.0,"so2":3.3,"mosquito_risk":7,"arthritis_risk":5,"migraine_risk":7,"frizz_risk":1,"updated_at":"2026-07-24T05:33:04.309278+05:30"},{"city":"Salem","state":"Tamil Nadu","latitude":11.6643,"longitude":78.146,"temp":24.8,"humidity":77,"rain":0.0,"pressure":976.7,"uv_index":8.0,"wind_gusts":33.8,"aqi":63,"pm10":24.4,"pm2_5":18.0,"no2":21.0,"co":351.0,"o3":20.0,"so2":7.5,"mosquito_risk":3,"arthritis_risk":5,"migraine_risk":7,"frizz_risk":1,"updated_at":"2026-07-24T05:33:04.309287+05:30"},{"city":"Tirunelveli","state":"Tamil Nadu","latitude":8.7139,"longitude":77.7567,"temp":27.4,"humidity":73,"rain":0.0,"pressure":1002.5,"uv_index":8.75,"wind_gusts":50.8,"aqi":42,"pm10":7.0,"pm2_5":5.8,"no2":6.7,"co":153.0,"o3":26.0,"so2":2.4,"mosquito_risk":7,"arthritis_risk":5,"migraine_risk":4,"frizz_risk":1,"updated_at":"2026-07-24T05:33:04.309294+05:30"},{"city":"Vellore","state":"Tamil Nadu","latitude":12.9165,"longitude":79.1325,"temp":26.3,"humidity":69,"rain":0.0,"pressure":983.3,"uv_index":6.85,"wind_gusts":39.6,"aqi":75,"pm10":36.2,"pm2_5":26.4,"no2":24.7,"co":149.0,"o3":14.0,"so2":6.0,"mosquito_risk":7,"arthritis_risk":5,"migraine_risk":7,"frizz_risk":1,"updated_at":"2026-07-24T05:33:04.309302+05:30"},{"city":"Erode","state":"Tamil Nadu","latitude":11.341,"longitude":77.7172,"temp":24.9,"humidity":81,"rain":0.0,"pressure":988.6,"uv_index":8.35,"wind_gusts":40.7,"aqi":53,"pm10":14.4,"pm2_5":11.8,"no2":15.1,"co":155.0,"o3":20.0,"so2":4.3,"mosquito_risk":3,"arthritis_risk":5,"migraine_risk":7,"frizz_risk":1,"updated_at":"2026-07-24T05:33:04.309310+05:30"},{"city":"Kochi","state":"Kerala","latitude":9.9312,"longitude":76.2673,"temp":25.0,"humidity":94,"rain":0.1,"pressure":1009.1,"uv_index":8.25,"wind_gusts":35.6,"aqi":55,"pm10":10.3,"pm2_5":9.1,"no2":13.2,"co":185.0,"o3":11.0,"so2":4.6,"mosquito_risk":10,"arthritis_risk":0,"migraine_risk":4,"frizz_risk":1,"updated_at":"2026-07-24T05:33:04.309318+05:30"},{"city":"Thiruvananthapuram","state":"Kerala","latitude":8.5241,"longitude":76.9366,"temp":24.2,"humidity":96,"rain":0.0,"pressure":1008.2,"uv_index":8.55,"wind_gusts":41.4,"aqi":51,"pm10":10.7,"pm2_5":7.1,"no2":4.8,"co":184.0,"o3":35.0,"so2":3.2,"mosquito_risk":3,"arthritis_risk":0,"migraine_risk":4,"frizz_risk":1,"updated_at":"2026-07-24T05:33:04.309325+05:30"},{"city":"Kozhikode","state":"Kerala","latitude":11.2588,"longitude":75.7804,"temp":23.5,"humidity":96,"rain":0.0,"pressure":1008.1,"uv_index":8.5,"wind_gusts":35.6,"aqi":37,"pm10":12.7,"pm2_5":6.2,"no2":2.7,"co":280.0,"o3":38.0,"so2":1.6,"mosquito_risk":3,"arthritis_risk":0,"migraine_risk":4,"frizz_risk":1,"updated_at":"2026-07-24T05:33:04.309332+05:30"},{"city":"Thrissur","state":"Kerala","latitude":10.5276,"longitude":76.2144,"temp":23.6,"humidity":98,"rain":0.0,"pressure":1007.6,"uv_index":8.6,"wind_gusts":36.7,"aqi":52,"pm10":11.3,"pm2_5":10.2,"no2":13.2,"co":349.0,"o3":7.0,"so2":3.5,"mosquito_risk":3,"arthritis_risk":5,"migraine_risk":4,"frizz_risk":1,"updated_at":"2026-07-24T05:33:04.309339+05:30"},{"city":"Kannur","state":"Kerala","latitude":11.8745,"longitude":75.3704,"temp":23.1,"humidity":98,"rain":0.1,"pressure":1007.4,"uv_index":8.4,"wind_gusts":38.9,"aqi":42,"pm10":7.2,"pm2_5":3.7,"no2":5.3,"co":149.0,"o3":27.0,"so2":1.6,"mosquito_risk":6,"arthritis_risk":5,"migraine_risk":4,"frizz_risk":1,"updated_at":"2026-07-24T05:33:04.309347+05:30"},{"city":"Patna","state":"Bihar","latitude":25.5941,"longitude":85.1376,"temp":25.7,"humidity":97,"rain":0.0,"pressure":995.0,"uv_index":6.85,"wind_gusts":24.5,"aqi":82,"pm10":34.8,"pm2_5":34.7,"no2":18.9,"co":308.0,"o3":51.0,"so2":13.0,"mosquito_risk":7,"arthritis_risk":5,"migraine_risk":7,"frizz_risk":1,"updated_at":"2026-07-24T05:33:04.309353+05:30"},{"city":"Gaya","state":"Bihar","latitude":24.7914,"longitude":85.0002,"temp":25.9,"humidity":94,"rain":0.0,"pressure":988.3,"uv_index":7.55,"wind_gusts":25.2,"aqi":74,"pm10":41.4,"pm2_5":41.3,"no2":24.8,"co":246.0,"o3":33.0,"so2":10.9,"mosquito_risk":7,"arthritis_risk":5,"migraine_risk":7,"frizz_risk":1,"updated_at":"2026-07-24T05:33:04.309360+05:30"},{"city":"Muzaffarpur","state":"Bihar","latitude":26.1209,"longitude":85.3647,"temp":25.8,"humidity":96,"rain":0.0,"pressure":995.1,"uv_index":6.35,"wind_gusts":27.7,"aqi":84,"pm10":33.9,"pm2_5":33.8,"no2":16.6,"co":360.0,"o3":56.0,"so2":10.2,"mosquito_risk":7,"arthritis_risk":5,"migraine_risk":7,"frizz_risk":1,"updated_at":"2026-07-24T05:33:04.309367+05:30"},{"city":"Bhagalpur","state":"Bihar","latitude":25.2425,"longitude":87.0117,"temp":26.2,"humidity":94,"rain":0.0,"pressure":995.7,"uv_index":6.5,"wind_gusts":26.3,"aqi":67,"pm10":30.4,"pm2_5":30.3,"no2":18.5,"co":253.0,"o3":36.0,"so2":17.0,"mosquito_risk":7,"arthritis_risk":5,"migraine_risk":7,"frizz_risk":1,"updated_at":"2026-07-24T05:33:04.309374+05:30"},{"city":"Ranchi","state":"Jharkhand","latitude":23.3441,"longitude":85.3096,"temp":21.7,"humidity":93,"rain":0.0,"pressure":932.2,"uv_index":6.1,"wind_gusts":28.8,"aqi":50,"pm10":20.7,"pm2_5":17.9,"no2":12.2,"co":176.0,"o3":43.0,"so2":19.7,"mosquito_risk":3,"arthritis_risk":5,"migraine_risk":7,"frizz_risk":1,"updated_at":"2026-07-24T05:33:04.309381+05:30"},{"city":"Jamshedpur","state":"Jharkhand","latitude":22.8046,"longitude":86.2029,"temp":25.5,"humidity":84,"rain":0.0,"pressure":985.8,"uv_index":8.45,"wind_gusts":38.9,"aqi":61,"pm10":22.2,"pm2_5":19.0,"no2":20.1,"co":238.0,"o3":32.0,"so2":28.3,"mosquito_risk":7,"arthritis_risk":5,"migraine_risk":7,"frizz_risk":1,"updated_at":"2026-07-24T05:33:04.309388+05:30"},{"city":"Dhanbad","state":"Jharkhand","latitude":23.7957,"longitude":86.4304,"temp":24.3,"humidity":94,"rain":0.0,"pressure":974.3,"uv_index":7.45,"wind_gusts":27.4,"aqi":81,"pm10":31.7,"pm2_5":30.2,"no2":34.9,"co":176.0,"o3":24.0,"so2":80.0,"mosquito_risk":3,"arthritis_risk":5,"migraine_risk":7,"frizz_risk":1,"updated_at":"2026-07-24T05:33:04.309395+05:30"},{"city":"Bokaro","state":"Jharkhand","latitude":23.6693,"longitude":86.1511,"temp":24.8,"humidity":94,"rain":0.0,"pressure":978.2,"uv_index":7.6,"wind_gusts":29.5,"aqi":66,"pm10":28.2,"pm2_5":26.6,"no2":26.9,"co":195.0,"o3":30.0,"so2":64.7,"mosquito_risk":3,"arthritis_risk":5,"migraine_risk":7,"frizz_risk":1,"updated_at":"2026-07-24T05:33:04.309401+05:30"},{"city":"Bhubaneswar","state":"Odisha","latitude":20.2961,"longitude":85.8245,"temp":26.0,"humidity":95,"rain":0.1,"pressure":998.3,"uv_index":7.85,"wind_gusts":37.1,"aqi":69,"pm10":23.7,"pm2_5":19.2,"no2":10.8,"co":231.0,"o3":57.0,"so2":9.0,"mosquito_risk":10,"arthritis_risk":5,"migraine_risk":7,"frizz_risk":1,"updated_at":"2026-07-24T05:33:04.309408+05:30"},{"city":"Cuttack","state":"Odisha","latitude":20.4625,"longitude":85.8828,"temp":26.2,"humidity":95,"rain":0.0,"pressure":1000.0,"uv_index":8.1,"wind_gusts":38.9,"aqi":69,"pm10":23.7,"pm2_5":19.2,"no2":10.8,"co":246.0,"o3":57.0,"so2":9.0,"mosquito_risk":7,"arthritis_risk":5,"migraine_risk":4,"frizz_risk":1,"updated_at":"2026-07-24T05:33:04.309415+05:30"},{"city":"Rourkela","state":"Odisha","latitude":22.2604,"longitude":84.8536,"temp":24.6,"humidity":95,"rain":0.1,"pressure":980.6,"uv_index":5.05,"wind_gusts":36.0,"aqi":56,"pm10":25.6,"pm2_5":20.4,"no2":12.0,"co":255.0,"o3":37.0,"so2":7.1,"mosquito_risk":6,"arthritis_risk":5,"migraine_risk":3,"frizz_risk":1,"updated_at":"2026-07-24T05:33:04.309422+05:30"},{"city":"Raipur","state":"Chhattisgarh","latitude":21.2514,"longitude":81.6296,"temp":24.8,"humidity":83,"rain":0.0,"pressure":969.7,"uv_index":6.1,"wind_gusts":47.2,"aqi":69,"pm10":45.8,"pm2_5":31.7,"no2":24.3,"co":245.0,"o3":33.0,"so2":37.8,"mosquito_risk":3,"arthritis_risk":5,"migraine_risk":7,"frizz_risk":1,"updated_at":"2026-07-24T05:33:04.309428+05:30"},{"city":"Bhilai","state":"Chhattisgarh","latitude":21.1938,"longitude":81.3509,"temp":24.6,"humidity":84,"rain":0.0,"pressure":970.1,"uv_index":5.6,"wind_gusts":52.2,"aqi":68,"pm10":41.2,"pm2_5":29.2,"no2":21.4,"co":371.0,"o3":34.0,"so2":34.5,"mosquito_risk":3,"arthritis_risk":5,"migraine_risk":3,"frizz_risk":1,"updated_at":"2026-07-24T05:33:04.309434+05:30"},{"city":"Guwahati","state":"Assam","latitude":26.1158,"longitude":91.7086,"temp":25.5,"humidity":97,"rain":0.0,"pressure":997.1,"uv_index":8.5,"wind_gusts":19.4,"aqi":50,"pm10":13.9,"pm2_5":13.4,"no2":7.8,"co":256.0,"o3":45.0,"so2":3.2,"mosquito_risk":7,"arthritis_risk":5,"migraine_risk":7,"frizz_risk":1,"updated_at":"2026-07-24T05:33:04.309441+05:30"},{"city":"Agartala","state":"Tripura","latitude":23.8315,"longitude":91.2868,"temp":24.5,"humidity":96,"rain":0.0,"pressure":1002.3,"uv_index":7.9,"wind_gusts":35.3,"aqi":46,"pm10":9.4,"pm2_5":7.4,"no2":7.4,"co":167.0,"o3":49.0,"so2":2.4,"mosquito_risk":3,"arthritis_risk":5,"migraine_risk":4,"frizz_risk":1,"updated_at":"2026-07-24T05:33:04.309447+05:30"},{"city":"Shillong","state":"Meghalaya","latitude":25.5788,"longitude":91.8933,"temp":19.9,"humidity":94,"rain":0.0,"pressure":854.2,"uv_index":8.05,"wind_gusts":25.6,"aqi":25,"pm10":2.3,"pm2_5":2.1,"no2":3.5,"co":186.0,"o3":54.0,"so2":2.2,"mosquito_risk":3,"arthritis_risk":10,"migraine_risk":7,"frizz_risk":1,"updated_at":"2026-07-24T05:33:04.309454+05:30"},{"city":"Imphal","state":"Manipur","latitude":24.817,"longitude":93.9368,"temp":22.4,"humidity":97,"rain":0.0,"pressure":920.0,"uv_index":8.5,"wind_gusts":17.3,"aqi":40,"pm10":8.8,"pm2_5":7.9,"no2":5.3,"co":272.0,"o3":37.0,"so2":1.9,"mosquito_risk":3,"arthritis_risk":5,"migraine_risk":7,"frizz_risk":1,"updated_at":"2026-07-24T05:33:04.309460+05:30"},{"city":"Aizawl","state":"Mizoram","latitude":23.7271,"longitude":92.7176,"temp":19.8,"humidity":92,"rain":0.0,"pressure":889.2,"uv_index":8.75,"wind_gusts":27.7,"aqi":21,"pm10":1.7,"pm2_5":1.4,"no2":2.4,"co":140.0,"o3":41.0,"so2":1.0,"mosquito_risk":3,"arthritis_risk":10,"migraine_risk":7,"frizz_risk":1,"updated_at":"2026-07-24T05:33:04.309466+05:30"},{"city":"Kohima","state":"Nagaland","latitude":25.6701,"longitude":94.1077,"temp":20.0,"humidity":95,"rain":0.1,"pressure":852.8,"uv_index":8.5,"wind_gusts":22.0,"aqi":22,"pm10":4.4,"pm2_5":3.9,"no2":5.3,"co":231.0,"o3":35.0,"so2":0.8,"mosquito_risk":6,"arthritis_risk":5,"migraine_risk":7,"frizz_risk":1,"updated_at":"2026-07-24T05:33:04.309472+05:30"},{"city":"Gangtok","state":"Sikkim","latitude":27.3314,"longitude":88.6138,"temp":16.9,"humidity":97,"rain":0.1,"pressure":834.0,"uv_index":7.65,"wind_gusts":32.4,"aqi":35,"pm10":12.3,"pm2_5":12.1,"no2":9.1,"co":376.0,"o3":63.0,"so2":1.9,"mosquito_risk":6,"arthritis_risk":10,"migraine_risk":7,"frizz_risk":1,"updated_at":"2026-07-24T05:33:04.309479+05:30"},{"city":"Siliguri","state":"West Bengal","latitude":26.7271,"longitude":88.3953,"temp":24.7,"humidity":95,"rain":0.0,"pressure":988.3,"uv_index":7.95,"wind_gusts":27.7,"aqi":58,"pm10":25.8,"pm2_5":25.3,"no2":10.7,"co":218.0,"o3":75.0,"so2":4.6,"mosquito_risk":3,"arthritis_risk":5,"migraine_risk":7,"frizz_risk":1,"updated_at":"2026-07-24T05:33:07.569502+05:30"},{"city":"Durgapur","state":"West Bengal","latitude":23.5204,"longitude":87.3119,"temp":25.7,"humidity":94,"rain":0.0,"pressure":989.3,"uv_index":5.25,"wind_gusts":30.6,"aqi":83,"pm10":38.3,"pm2_5":37.0,"no2":43.3,"co":720.0,"o3":12.0,"so2":64.7,"mosquito_risk":7,"arthritis_risk":5,"migraine_risk":3,"frizz_risk":1,"updated_at":"2026-07-24T05:33:07.569540+05:30"},{"city":"Asansol","state":"West Bengal","latitude":23.6739,"longitude":86.9524,"temp":25.2,"humidity":94,"rain":0.0,"pressure":987.9,"uv_index":6.35,"wind_gusts":26.3,"aqi":75,"pm10":28.0,"pm2_5":27.0,"no2":35.4,"co":431.0,"o3":23.0,"so2":59.5,"mosquito_risk":7,"arthritis_risk":5,"migraine_risk":7,"frizz_risk":1,"updated_at":"2026-07-24T05:33:07.569552+05:30"},{"city":"Pondicherry","state":"Puducherry","latitude":11.9139,"longitude":79.8145,"temp":27.6,"humidity":77,"rain":0.0,"pressure":1007.0,"uv_index":7.65,"wind_gusts":50.4,"aqi":67,"pm10":12.5,"pm2_5":10.1,"no2":11.2,"co":236.0,"o3":47.0,"so2":8.9,"mosquito_risk":7,"arthritis_risk":5,"migraine_risk":4,"frizz_risk":1,"updated_at":"2026-07-24T05:33:07.569560+05:30"},{"city":"Port Blair","state":"Andaman and Nicobar Islands","latitude":11.6234,"longitude":92.7265,"temp":27.0,"humidity":84,"rain":0.0,"pressure":1006.2,"uv_index":5.3,"wind_gusts":45.7,"aqi":36,"pm10":12.6,"pm2_5":7.5,"no2":0.2,"co":96.0,"o3":46.0,"so2":0.4,"mosquito_risk":7,"arthritis_risk":5,"migraine_risk":0,"frizz_risk":1,"updated_at":"2026-07-24T05:33:07.569568+05:30"},{"city":"Haridwar","state":"Uttarakhand","latitude":29.9457,"longitude":78.1642,"temp":25.5,"humidity":96,"rain":0.0,"pressure":967.5,"uv_index":6.25,"wind_gusts":38.2,"aqi":71,"pm10":33.6,"pm2_5":33.1,"no2":25.6,"co":306.0,"o3":29.0,"so2":5.5,"mosquito_risk":7,"arthritis_risk":5,"migraine_risk":7,"frizz_risk":1,"updated_at":"2026-07-24T05:33:07.569576+05:30"},{"city":"Rishikesh","state":"Uttarakhand","latitude":30.0869,"longitude":78.2676,"temp":25.4,"humidity":84,"rain":0.0,"pressure":960.3,"uv_index":6.45,"wind_gusts":24.8,"aqi":55,"pm10":16.7,"pm2_5":16.5,"no2":9.7,"co":255.0,"o3":66.0,"so2":3.8,"mosquito_risk":7,"arthritis_risk":5,"migraine_risk":7,"frizz_risk":1,"updated_at":"2026-07-24T05:33:07.569583+05:30"},{"city":"Nainital","state":"Uttarakhand","latitude":29.3919,"longitude":79.4542,"temp":15.0,"humidity":100,"rain":0.0,"pressure":800.9,"uv_index":7.8,"wind_gusts":44.3,"aqi":53,"pm10":16.1,"pm2_5":16.1,"no2":7.3,"co":238.0,"o3":66.0,"so2":2.6,"mosquito_risk":3,"arthritis_risk":10,"migraine_risk":7,"frizz_risk":0,"updated_at":"2026-07-24T05:33:07.569591+05:30"},{"city":"Mussoorie","state":"Uttarakhand","latitude":30.4599,"longitude":78.0664,"temp":15.6,"humidity":100,"rain":0.0,"pressure":798.6,"uv_index":7.25,"wind_gusts":33.5,"aqi":60,"pm10":22.5,"pm2_5":22.3,"no2":27.9,"co":202.0,"o3":33.0,"so2":4.6,"mosquito_risk":3,"arthritis_risk":10,"migraine_risk":7,"frizz_risk":0,"updated_at":"2026-07-24T05:33:07.569598+05:30"},{"city":"Dharamshala","state":"Himachal Pradesh","latitude":32.219,"longitude":76.3234,"temp":19.7,"humidity":90,"rain":0.0,"pressure":864.8,"uv_index":6.4,"wind_gusts":31.3,"aqi":39,"pm10":9.0,"pm2_5":8.7,"no2":11.7,"co":312.0,"o3":33.0,"so2":1.0,"mosquito_risk":3,"arthritis_risk":10,"migraine_risk":7,"frizz_risk":1,"updated_at":"2026-07-24T05:33:07.569606+05:30"},{"city":"Dalhousie","state":"Himachal Pradesh","latitude":32.5387,"longitude":75.971,"temp":16.6,"humidity":91,"rain":0.1,"pressure":801.3,"uv_index":8.6,"wind_gusts":30.2,"aqi":77,"pm10":36.4,"pm2_5":35.7,"no2":30.0,"co":180.0,"o3":33.0,"so2":3.5,"mosquito_risk":6,"arthritis_risk":10,"migraine_risk":7,"frizz_risk":0,"updated_at":"2026-07-24T05:33:07.569615+05:30"},{"city":"Patiala","state":"Punjab","latitude":30.3398,"longitude":76.3869,"temp":26.9,"humidity":87,"rain":0.0,"pressure":971.6,"uv_index":7.5,"wind_gusts":46.1,"aqi":81,"pm10":25.7,"pm2_5":25.6,"no2":17.2,"co":347.0,"o3":60.0,"so2":10.3,"mosquito_risk":7,"arthritis_risk":5,"migraine_risk":7,"frizz_risk":1,"updated_at":"2026-07-24T05:33:07.569622+05:30"},{"city":"Bhatinda","state":"Punjab","latitude":30.211,"longitude":74.9455,"temp":27.6,"humidity":83,"rain":0.0,"pressure":976.1,"uv_index":7.75,"wind_gusts":33.8,"aqi":102,"pm10":40.6,"pm2_5":40.4,"no2":22.5,"co":361.0,"o3":46.0,"so2":7.1,"mosquito_risk":7,"arthritis_risk":5,"migraine_risk":7,"frizz_risk":1,"updated_at":"2026-07-24T05:33:07.569629+05:30"},{"city":"Rohtak","state":"Haryana","latitude":28.8955,"longitude":76.6066,"temp":26.2,"humidity":91,"rain":0.0,"pressure":974.2,"uv_index":5.95,"wind_gusts":40.0,"aqi":90,"pm10":36.3,"pm2_5":36.3,"no2":18.3,"co":295.0,"o3":72.0,"so2":20.9,"mosquito_risk":7,"arthritis_risk":5,"migraine_risk":3,"frizz_risk":1,"updated_at":"2026-07-24T05:33:07.569636+05:30"},{"city":"Panipat","state":"Haryana","latitude":29.3909,"longitude":76.9635,"temp":26.7,"humidity":86,"rain":0.0,"pressure":973.2,"uv_index":6.7,"wind_gusts":43.9,"aqi":81,"pm10":32.9,"pm2_5":32.8,"no2":15.4,"co":315.0,"o3":71.0,"so2":15.5,"mosquito_risk":7,"arthritis_risk":5,"migraine_risk":7,"frizz_risk":1,"updated_at":"2026-07-24T05:33:07.569644+05:30"},{"city":"Mathura","state":"Uttar Pradesh","latitude":27.4924,"longitude":77.6737,"temp":25.8,"humidity":95,"rain":0.0,"pressure":978.3,"uv_index":6.6,"wind_gusts":34.2,"aqi":86,"pm10":32.1,"pm2_5":32.1,"no2":12.0,"co":240.0,"o3":66.0,"so2":8.0,"mosquito_risk":7,"arthritis_risk":5,"migraine_risk":7,"frizz_risk":1,"updated_at":"2026-07-24T05:33:07.569651+05:30"},{"city":"Vrindavan","state":"Uttar Pradesh","latitude":27.5823,"longitude":77.7027,"temp":25.9,"humidity":94,"rain":0.0,"pressure":978.8,"uv_index":6.35,"wind_gusts":33.8,"aqi":86,"pm10":32.1,"pm2_5":32.1,"no2":12.0,"co":248.0,"o3":66.0,"so2":8.0,"mosquito_risk":7,"arthritis_risk":5,"migraine_risk":7,"frizz_risk":1,"updated_at":"2026-07-24T05:33:07.569657+05:30"},{"city":"Ayodhya","state":"Uttar Pradesh","latitude":26.7922,"longitude":82.1998,"temp":25.4,"humidity":97,"rain":0.4,"pressure":989.6,"uv_index":6.2,"wind_gusts":26.6,"aqi":84,"pm10":38.2,"pm2_5":38.2,"no2":16.0,"co":364.0,"o3":57.0,"so2":8.4,"mosquito_risk":10,"arthritis_risk":5,"migraine_risk":7,"frizz_risk":1,"updated_at":"2026-07-24T05:33:07.569664+05:30"},{"city":"Ratlam","state":"Madhya Pradesh","latitude":23.3315,"longitude":75.0367,"temp":23.1,"humidity":98,"rain":0.3,"pressure":945.0,"uv_index":7.8,"wind_gusts":54.7,"aqi":25,"pm10":1.6,"pm2_5":1.6,"no2":6.4,"co":189.0,"o3":34.0,"so2":3.8,"mosquito_risk":6,"arthritis_risk":5,"migraine_risk":7,"frizz_risk":1,"updated_at":"2026-07-24T05:33:07.569670+05:30"},{"city":"Sagar","state":"Madhya Pradesh","latitude":23.8388,"longitude":78.7378,"temp":23.7,"humidity":86,"rain":0.0,"pressure":942.8,"uv_index":7.7,"wind_gusts":41.0,"aqi":36,"pm10":6.8,"pm2_5":5.3,"no2":7.4,"co":146.0,"o3":37.0,"so2":6.2,"mosquito_risk":3,"arthritis_risk":5,"migraine_risk":7,"frizz_risk":1,"updated_at":"2026-07-24T05:33:07.569677+05:30"},{"city":"Satna","state":"Madhya Pradesh","latitude":24.6005,"longitude":80.8322,"temp":24.7,"humidity":86,"rain":0.0,"pressure":964.9,"uv_index":7.35,"wind_gusts":32.0,"aqi":46,"pm10":12.1,"pm2_5":11.2,"no2":9.5,"co":178.0,"o3":37.0,"so2":7.5,"mosquito_risk":3,"arthritis_risk":5,"migraine_risk":7,"frizz_risk":1,"updated_at":"2026-07-24T05:33:07.569684+05:30"},{"city":"Akola","state":"Maharashtra","latitude":20.7002,"longitude":77.0082,"temp":24.5,"humidity":90,"rain":0.1,"pressure":968.9,"uv_index":8.05,"wind_gusts":51.5,"aqi":40,"pm10":5.2,"pm2_5":3.9,"no2":8.3,"co":119.0,"o3":28.0,"so2":4.5,"mosquito_risk":6,"arthritis_risk":5,"migraine_risk":7,"frizz_risk":1,"updated_at":"2026-07-24T05:33:07.569691+05:30"},{"city":"Amravati","state":"Maharashtra","latitude":20.9374,"longitude":77.7796,"temp":23.5,"humidity":96,"rain":0.1,"pressure":961.5,"uv_index":7.85,"wind_gusts":50.8,"aqi":47,"pm10":5.1,"pm2_5":3.9,"no2":7.8,"co":124.0,"o3":28.0,"so2":4.0,"mosquito_risk":6,"arthritis_risk":5,"migraine_risk":7,"frizz_risk":1,"updated_at":"2026-07-24T05:33:07.569698+05:30"},{"city":"Latur","state":"Maharashtra","latitude":18.4088,"longitude":76.5604,"temp":22.8,"humidity":84,"rain":0.0,"pressure":934.8,"uv_index":7.7,"wind_gusts":59.8,"aqi":56,"pm10":6.9,"pm2_5":4.1,"no2":3.2,"co":104.0,"o3":36.0,"so2":1.5,"mosquito_risk":3,"arthritis_risk":5,"migraine_risk":7,"frizz_risk":1,"updated_at":"2026-07-24T05:33:07.569705+05:30"},{"city":"Nanded","state":"Maharashtra","latitude":19.1383,"longitude":77.3091,"temp":24.7,"humidity":79,"rain":0.0,"pressure":963.6,"uv_index":7.75,"wind_gusts":54.0,"aqi":57,"pm10":12.7,"pm2_5":6.4,"no2":5.0,"co":115.0,"o3":34.0,"so2":3.2,"mosquito_risk":3,"arthritis_risk":5,"migraine_risk":7,"frizz_risk":1,"updated_at":"2026-07-24T05:33:07.569711+05:30"},{"city":"Gulbarga","state":"Karnataka","latitude":17.3297,"longitude":76.8343,"temp":24.2,"humidity":79,"rain":0.0,"pressure":955.2,"uv_index":7.2,"wind_gusts":61.6,"aqi":62,"pm10":7.9,"pm2_5":4.9,"no2":4.8,"co":103.0,"o3":36.0,"so2":2.6,"mosquito_risk":3,"arthritis_risk":5,"migraine_risk":7,"frizz_risk":1,"updated_at":"2026-07-24T05:33:07.569718+05:30"},{"city":"Bidar","state":"Karnataka","latitude":17.9104,"longitude":77.5199,"temp":22.6,"humidity":84,"rain":0.0,"pressure":931.0,"uv_index":6.2,"wind_gusts":61.2,"aqi":62,"pm10":11.0,"pm2_5":5.8,"no2":4.8,"co":107.0,"o3":34.0,"so2":2.3,"mosquito_risk":3,"arthritis_risk":5,"migraine_risk":7,"frizz_risk":1,"updated_at":"2026-07-24T05:33:07.569724+05:30"},{"city":"Hospet","state":"Karnataka","latitude":15.2689,"longitude":76.3909,"temp":23.2,"humidity":86,"rain":0.0,"pressure":953.6,"uv_index":8.9,"wind_gusts":65.9,"aqi":53,"pm10":35.3,"pm2_5":15.0,"no2":2.9,"co":98.0,"o3":46.0,"so2":1.4,"mosquito_risk":3,"arthritis_risk":5,"migraine_risk":7,"frizz_risk":1,"updated_at":"2026-07-24T05:33:07.569731+05:30"},{"city":"Tirupur","state":"Tamil Nadu","latitude":11.1085,"longitude":77.3411,"temp":23.4,"humidity":88,"rain":0.0,"pressure":974.7,"uv_index":8.65,"wind_gusts":52.6,"aqi":56,"pm10":18.3,"pm2_5":15.2,"no2":19.8,"co":148.0,"o3":13.0,"so2":5.2,"mosquito_risk":3,"arthritis_risk":5,"migraine_risk":7,"frizz_risk":1,"updated_at":"2026-07-24T05:33:07.569737+05:30"},{"city":"Alappuzha","state":"Kerala","latitude":9.4981,"longitude":76.3388,"temp":25.4,"humidity":96,"rain":0.0,"pressure":1008.9,"uv_index":8.6,"wind_gusts":33.5,"aqi":56,"pm10":11.5,"pm2_5":8.5,"no2":9.2,"co":161.0,"o3":26.0,"so2":4.8,"mosquito_risk":7,"arthritis_risk":0,"migraine_risk":4,"frizz_risk":1,"updated_at":"2026-07-24T05:33:07.569744+05:30"},{"city":"Munnar","state":"Kerala","latitude":10.0889,"longitude":77.0595,"temp":15.5,"humidity":97,"rain":0.0,"pressure":855.5,"uv_index":9.0,"wind_gusts":39.6,"aqi":37,"pm10":4.6,"pm2_5":3.9,"no2":6.4,"co":87.0,"o3":17.0,"so2":1.2,"mosquito_risk":3,"arthritis_risk":10,"migraine_risk":7,"frizz_risk":0,"updated_at":"2026-07-24T05:33:07.569751+05:30"},{"city":"Silchar","state":"Assam","latitude":24.8333,"longitude":92.7789,"temp":25.6,"humidity":96,"rain":0.0,"pressure":1001.5,"uv_index":8.8,"wind_gusts":23.4,"aqi":53,"pm10":11.7,"pm2_5":10.0,"no2":6.5,"co":264.0,"o3":54.0,"so2":4.4,"mosquito_risk":7,"arthritis_risk":5,"migraine_risk":4,"frizz_risk":1,"updated_at":"2026-07-24T05:33:07.569757+05:30"},{"city":"Dibrugarh","state":"Assam","latitude":27.4728,"longitude":94.912,"temp":25.1,"humidity":97,"rain":0.1,"pressure":991.9,"uv_index":6.15,"wind_gusts":22.0,"aqi":53,"pm10":7.9,"pm2_5":7.7,"no2":6.2,"co":182.0,"o3":56.0,"so2":1.0,"mosquito_risk":10,"arthritis_risk":5,"migraine_risk":7,"frizz_risk":1,"updated_at":"2026-07-24T05:33:07.569764+05:30"}]