[{"city":"Delhi","state":"Delhi","latitude":28.6139,"longitude":77.209,"temp":38.4,"humidity":20,"rain":0.0,"pressure":979.6,"uv_index":7.2,"wind_gusts":28.4,"aqi":169,"pm10":267.3,"pm2_5":38.3,"mosquito_risk":0,"arthritis_risk":5,"migraine_risk":10,"frizz_risk":0,"updated_at":"2026-04-19T16:15:39.299469+05:30"},{"city":"Mumbai","state":"Maharashtra","latitude":19.076,"longitude":72.8777,"temp":29.8,"humidity":69,"rain":0.0,"pressure":1005.8,"uv_index":7.9,"wind_gusts":25.9,"aqi":90,"pm10":35.6,"pm2_5":22.0,"mosquito_risk":7,"arthritis_risk":5,"migraine_risk":4,"frizz_risk":1,"updated_at":"2026-04-19T16:15:39.299509+05:30"},{"city":"Bangalore","state":"Karnataka","latitude":12.9716,"longitude":77.5946,"temp":35.6,"humidity":20,"rain":0.0,"pressure":910.0,"uv_index":9.6,"wind_gusts":29.2,"aqi":126,"pm10":30.6,"pm2_5":24.3,"mosquito_risk":0,"arthritis_risk":5,"migraine_risk":10,"frizz_risk":0,"updated_at":"2026-04-19T16:15:39.299525+05:30"},{"city":"Hyderabad","state":"Telangana","latitude":17.385,"longitude":78.4867,"temp":37.4,"humidity":31,"rain":0.0,"pressure":950.3,"uv_index":9.25,"wind_gusts":27.0,"aqi":114,"pm10":47.5,"pm2_5":36.2,"mosquito_risk":0,"arthritis_risk":5,"migraine_risk":10,"frizz_risk":1,"updated_at":"2026-04-19T16:15:39.299536+05:30"},{"city":"Chennai","state":"Tamil Nadu","latitude":13.0827,"longitude":80.2707,"temp":33.9,"humidity":53,"rain":0.0,"pressure":1004.4,"uv_index":9.3,"wind_gusts":36.0,"aqi":36,"pm10":12.7,"pm2_5":8.4,"mosquito_risk":0,"arthritis_risk":5,"migraine_risk":4,"frizz_risk":1,"updated_at":"2026-04-19T16:15:39.299544+05:30"},{"city":"Kolkata","state":"West Bengal","latitude":22.5726,"longitude":88.3639,"temp":32.8,"humidity":69,"rain":0.0,"pressure":1001.7,"uv_index":8.9,"wind_gusts":32.4,"aqi":80,"pm10":37.7,"pm2_5":28.2,"mosquito_risk":3,"arthritis_risk":5,"migraine_risk":4,"frizz_risk":1,"updated_at":"2026-04-19T16:15:39.299556+05:30"},{"city":"Pune","state":"Maharashtra","latitude":18.5204,"longitude":73.8567,"temp":33.7,"humidity":49,"rain":0.0,"pressure":947.2,"uv_index":8.65,"wind_gusts":37.1,"aqi":120,"pm10":41.1,"pm2_5":34.1,"mosquito_risk":0,"arthritis_risk":5,"migraine_risk":7,"frizz_risk":1,"updated_at":"2026-04-19T16:15:39.299564+05:30"},{"city":"Ahmedabad","state":"Gujarat","latitude":23.0225,"longitude":72.5714,"temp":40.3,"humidity":12,"rain":0.0,"pressure":999.1,"uv_index":8.0,"wind_gusts":25.6,"aqi":61,"pm10":27.6,"pm2_5":10.6,"mosquito_risk":0,"arthritis_risk":5,"migraine_risk":10,"frizz_risk":0,"updated_at":"2026-04-19T16:15:39.299572+05:30"},{"city":"Jaipur","state":"Rajasthan","latitude":26.9124,"longitude":75.7873,"temp":39.6,"humidity":10,"rain":0.0,"pressure":957.5,"uv_index":7.85,"wind_gusts":40.3,"aqi":108,"pm10":211.9,"pm2_5":28.5,"mosquito_risk":0,"arthritis_risk":5,"migraine_risk":10,"frizz_risk":0,"updated_at":"2026-04-19T16:15:39.299579+05:30"},{"city":"Lucknow","state":"Uttar Pradesh","latitude":26.8467,"longitude":80.9462,"temp":41.4,"humidity":14,"rain":0.0,"pressure":988.4,"uv_index":7.9,"wind_gusts":37.4,"aqi":139,"pm10":146.2,"pm2_5":28.6,"mosquito_risk":0,"arthritis_risk":5,"migraine_risk":10,"frizz_risk":0,"updated_at":"2026-04-19T16:15:39.299587+05:30"},{"city":"Kanpur","state":"Uttar Pradesh","latitude":26.4499,"longitude":80.3319,"temp":39.8,"humidity":21,"rain":0.0,"pressure":987.2,"uv_index":7.9,"wind_gusts":23.4,"aqi":194,"pm10":327.8,"pm2_5":40.3,"mosquito_risk":0,"arthritis_risk":5,"migraine_risk":10,"frizz_risk":0,"updated_at":"2026-04-19T16:15:39.299594+05:30"},{"city":"Chandigarh","state":"Chandigarh","latitude":30.7333,"longitude":76.7794,"temp":34.9,"humidity":24,"rain":0.0,"pressure":967.1,"uv_index":6.1,"wind_gusts":33.8,"aqi":96,"pm10":65.7,"pm2_5":17.1,"mosquito_risk":0,"arthritis_risk":5,"migraine_risk":7,"frizz_risk":0,"updated_at":"2026-04-19T16:15:39.299601+05:30"},{"city":"Srinagar","state":"Jammu and Kashmir","latitude":34.0837,"longitude":74.7973,"temp":16.9,"humidity":66,"rain":0.0,"pressure":843.9,"uv_index":7.25,"wind_gusts":21.2,"aqi":63,"pm10":27.8,"pm2_5":10.2,"mosquito_risk":3,"arthritis_risk":5,"migraine_risk":7,"frizz_risk":0,"updated_at":"2026-04-19T16:15:39.299609+05:30"},{"city":"Jammu","state":"Jammu and Kashmir","latitude":32.7266,"longitude":74.857,"temp":34.1,"humidity":28,"rain":0.0,"pressure":972.5,"uv_index":5.4,"wind_gusts":32.4,"aqi":59,"pm10":53.9,"pm2_5":13.5,"mosquito_risk":0,"arthritis_risk":5,"migraine_risk":3,"frizz_risk":0,"updated_at":"2026-04-19T16:15:39.299616+05:30"},{"city":"Amritsar","state":"Punjab","latitude":31.634,"longitude":74.8723,"temp":33.6,"humidity":31,"rain":0.0,"pressure":980.1,"uv_index":7.35,"wind_gusts":25.9,"aqi":64,"pm10":57.7,"pm2_5":16.0,"mosquito_risk":0,"arthritis_risk":5,"migraine_risk":7,"frizz_risk":0,"updated_at":"2026-04-19T16:15:39.299623+05:30"},{"city":"Ludhiana","state":"Punjab","latitude":30.901,"longitude":75.8573,"temp":34.9,"humidity":24,"rain":0.0,"pressure":977.8,"uv_index":7.3,"wind_gusts":42.5,"aqi":90,"pm10":82.4,"pm2_5":18.8,"mosquito_risk":0,"arthritis_risk":5,"migraine_risk":7,"frizz_risk":0,"updated_at":"2026-04-19T16:15:39.299632+05:30"},{"city":"Jalandhar","state":"Punjab","latitude":31.326,"longitude":75.5762,"temp":34.0,"humidity":30,"rain":0.0,"pressure":979.2,"uv_index":6.45,"wind_gusts":28.1,"aqi":73,"pm10":82.7,"pm2_5":18.2,"mosquito_risk":0,"arthritis_risk":5,"migraine_risk":7,"frizz_risk":0,"updated_at":"2026-04-19T16:15:39.299639+05:30"},{"city":"Dehradun","state":"Uttarakhand","latitude":30.6284,"longitude":78.0322,"temp":24.4,"humidity":34,"rain":0.0,"pressure":832.5,"uv_index":6.3,"wind_gusts":46.1,"aqi":75,"pm10":48.0,"pm2_5":10.9,"mosquito_risk":0,"arthritis_risk":5,"migraine_risk":7,"frizz_risk":0,"updated_at":"2026-04-19T16:15:39.299647+05:30"},{"city":"Shimla","state":"Himachal Pradesh","latitude":31.1048,"longitude":77.1734,"temp":23.1,"humidity":31,"rain":0.0,"pressure":787.9,"uv_index":6.75,"wind_gusts":45.7,"aqi":81,"pm10":48.1,"pm2_5":12.2,"mosquito_risk":0,"arthritis_risk":5,"migraine_risk":7,"frizz_risk":0,"updated_at":"2026-04-19T16:15:39.299655+05:30"},{"city":"Manali","state":"Himachal Pradesh","latitude":32.2396,"longitude":77.1887,"temp":16.9,"humidity":67,"rain":0.1,"pressure":823.6,"uv_index":6.95,"wind_gusts":40.7,"aqi":70,"pm10":10.7,"pm2_5":3.6,"mosquito_risk":6,"arthritis_risk":5,"migraine_risk":7,"frizz_risk":0,"updated_at":"2026-04-19T16:15:39.299662+05:30"},{"city":"Gurgaon","state":"Haryana","latitude":28.4595,"longitude":77.0266,"temp":38.6,"humidity":19,"rain":0.0,"pressure":978.2,"uv_index":7.3,"wind_gusts":25.2,"aqi":475,"pm10":1147.4,"pm2_5":107.8,"mosquito_risk":0,"arthritis_risk":5,"migraine_risk":10,"frizz_risk":0,"updated_at":"2026-04-19T16:15:39.299669+05:30"},{"city":"Noida","state":"Uttar Pradesh","latitude":28.5355,"longitude":77.391,"temp":38.4,"humidity":21,"rain":0.0,"pressure":981.0,"uv_index":7.25,"wind_gusts":26.6,"aqi":475,"pm10":1147.4,"pm2_5":107.8,"mosquito_risk":0,"arthritis_risk":5,"migraine_risk":10,"frizz_risk":0,"updated_at":"2026-04-19T16:15:39.299676+05:30"},{"city":"Ghaziabad","state":"Uttar Pradesh","latitude":28.6692,"longitude":77.4538,"temp":38.2,"humidity":21,"rain":0.0,"pressure":979.3,"uv_index":7.2,"wind_gusts":29.2,"aqi":153,"pm10":224.9,"pm2_5":37.1,"mosquito_risk":0,"arthritis_risk":5,"migraine_risk":10,"frizz_risk":0,"updated_at":"2026-04-19T16:15:39.299683+05:30"},{"city":"Faridabad","state":"Haryana","latitude":28.4089,"longitude":77.3178,"temp":38.3,"humidity":19,"rain":0.0,"pressure":980.4,"uv_index":7.3,"wind_gusts":28.8,"aqi":475,"pm10":1147.4,"pm2_5":107.8,"mosquito_risk":0,"arthritis_risk":5,"migraine_risk":10,"frizz_risk":0,"updated_at":"2026-04-19T16:15:39.299689+05:30"},{"city":"Meerut","state":"Uttar Pradesh","latitude":28.9845,"longitude":77.7064,"temp":38.9,"humidity":19,"rain":0.0,"pressure":977.8,"uv_index":6.6,"wind_gusts":31.7,"aqi":153,"pm10":224.9,"pm2_5":37.1,"mosquito_risk":0,"arthritis_risk":5,"migraine_risk":10,"frizz_risk":0,"updated_at":"2026-04-19T16:15:39.299695+05:30"},{"city":"Agra","state":"Uttar Pradesh","latitude":27.1767,"longitude":78.0081,"temp":40.7,"humidity":17,"rain":0.0,"pressure":983.5,"uv_index":7.55,"wind_gusts":27.7,"aqi":352,"pm10":732.0,"pm2_5":67.8,"mosquito_risk":0,"arthritis_risk":5,"migraine_risk":10,"frizz_risk":0,"updated_at":"2026-04-19T16:15:39.299704+05:30"},{"city":"Varanasi","state":"Uttar Pradesh","latitude":25.3176,"longitude":82.9739,"temp":42.3,"humidity":13,"rain":0.0,"pressure":992.1,"uv_index":8.45,"wind_gusts":29.5,"aqi":139,"pm10":116.6,"pm2_5":25.8,"mosquito_risk":0,"arthritis_risk":5,"migraine_risk":10,"frizz_risk":0,"updated_at":"2026-04-19T16:15:39.299711+05:30"},{"city":"Prayagraj","state":"Uttar Pradesh","latitude":25.4358,"longitude":81.8463,"temp":41.6,"humidity":15,"rain":0.0,"pressure":990.9,"uv_index":8.35,"wind_gusts":29.9,"aqi":143,"pm10":116.6,"pm2_5":25.0,"mosquito_risk":0,"arthritis_risk":5,"migraine_risk":10,"frizz_risk":0,"updated_at":"2026-04-19T16:15:39.299717+05:30"},{"city":"Gorakhpur","state":"Uttar Pradesh","latitude":26.7606,"longitude":83.3732,"temp":40.4,"humidity":23,"rain":0.0,"pressure":991.4,"uv_index":8.3,"wind_gusts":32.4,"aqi":141,"pm10":72.2,"pm2_5":29.6,"mosquito_risk":0,"arthritis_risk":5,"migraine_risk":10,"frizz_risk":0,"updated_at":"2026-04-19T16:15:39.299724+05:30"},{"city":"Bareilly","state":"Uttar Pradesh","latitude":28.367,"longitude":79.4304,"temp":40.1,"humidity":17,"rain":0.0,"pressure":982.3,"uv_index":7.35,"wind_gusts":32.8,"aqi":126,"pm10":70.8,"pm2_5":18.9,"mosquito_risk":0,"arthritis_risk":5,"migraine_risk":10,"frizz_risk":0,"updated_at":"2026-04-19T16:15:39.299731+05:30"},{"city":"Aligarh","state":"Uttar Pradesh","latitude":27.8974,"longitude":78.088,"temp":40.2,"humidity":14,"rain":0.0,"pressure":981.5,"uv_index":7.5,"wind_gusts":39.6,"aqi":202,"pm10":556.9,"pm2_5":56.9,"mosquito_risk":0,"arthritis_risk":5,"migraine_risk":10,"frizz_risk":0,"updated_at":"2026-04-19T16:15:39.299740+05:30"},{"city":"Moradabad","state":"Uttar Pradesh","latitude":28.8386,"longitude":78.7733,"temp":39.1,"humidity":18,"rain":0.0,"pressure":979.7,"uv_index":7.4,"wind_gusts":37.1,"aqi":128,"pm10":75.9,"pm2_5":20.0,"mosquito_risk":0,"arthritis_risk":5,"migraine_risk":10,"frizz_risk":0,"updated_at":"2026-04-19T16:15:39.299746+05:30"},{"city":"Saharanpur","state":"Uttar Pradesh","latitude":29.9637,"longitude":77.546,"temp":37.6,"humidity":20,"rain":0.0,"pressure":972.3,"uv_index":6.75,"wind_gusts":36.0,"aqi":122,"pm10":87.3,"pm2_5":21.2,"mosquito_risk":0,"arthritis_risk":5,"migraine_risk":10,"frizz_risk":0,"updated_at":"2026-04-19T16:15:39.299752+05:30"},{"city":"Jhansi","state":"Uttar Pradesh","latitude":25.4484,"longitude":78.5685,"temp":38.4,"humidity":23,"rain":0.0,"pressure":974.5,"uv_index":8.25,"wind_gusts":32.0,"aqi":84,"pm10":44.9,"pm2_5":11.8,"mosquito_risk":0,"arthritis_risk":5,"migraine_risk":10,"frizz_risk":0,"updated_at":"2026-04-19T16:15:42.642027+05:30"},{"city":"Surat","state":"Gujarat","latitude":21.1702,"longitude":72.8311,"temp":32.9,"humidity":41,"rain":0.0,"pressure":1004.4,"uv_index":7.75,"wind_gusts":25.2,"aqi":97,"pm10":53.7,"pm2_5":38.2,"mosquito_risk":0,"arthritis_risk":5,"migraine_risk":4,"frizz_risk":1,"updated_at":"2026-04-19T16:15:42.642060+05:30"},{"city":"Vadodara","state":"Gujarat","latitude":22.3072,"longitude":73.1812,"temp":40.0,"humidity":16,"rain":0.0,"pressure":1001.2,"uv_index":8.15,"wind_gusts":29.9,"aqi":75,"pm10":31.4,"pm2_5":17.0,"mosquito_risk":0,"arthritis_risk":5,"migraine_risk":7,"frizz_risk":0,"updated_at":"2026-04-19T16:15:42.642079+05:30"},{"city":"Rajkot","state":"Gujarat","latitude":22.3039,"longitude":70.8022,"temp":37.8,"humidity":15,"rain":0.0,"pressure":992.4,"uv_index":7.55,"wind_gusts":27.0,"aqi":62,"pm10":14.0,"pm2_5":7.6,"mosquito_risk":0,"arthritis_risk":5,"migraine_risk":10,"frizz_risk":0,"updated_at":"2026-04-19T16:15:42.642089+05:30"},{"city":"Thane","state":"Maharashtra","latitude":19.2183,"longitude":72.9781,"temp":32.1,"humidity":60,"rain":0.0,"pressure":1005.4,"uv_index":8.05,"wind_gusts":37.4,"aqi":90,"pm10":35.6,"pm2_5":22.0,"mosquito_risk":0,"arthritis_risk":5,"migraine_risk":4,"frizz_risk":1,"updated_at":"2026-04-19T16:15:42.642098+05:30"},{"city":"Nagpur","state":"Maharashtra","latitude":21.1458,"longitude":79.0882,"temp":41.9,"humidity":13,"rain":0.0,"pressure":968.5,"uv_index":8.9,"wind_gusts":21.6,"aqi":126,"pm10":28.4,"pm2_5":25.3,"mosquito_risk":0,"arthritis_risk":5,"migraine_risk":10,"frizz_risk":0,"updated_at":"2026-04-19T16:15:42.642107+05:30"},{"city":"Nashik","state":"Maharashtra","latitude":19.9975,"longitude":73.7898,"temp":35.8,"humidity":27,"rain":0.0,"pressure":944.3,"uv_index":6.8,"wind_gusts":33.5,"aqi":96,"pm10":41.3,"pm2_5":33.1,"mosquito_risk":0,"arthritis_risk":5,"migraine_risk":10,"frizz_risk":0,"updated_at":"2026-04-19T16:15:42.642116+05:30"},{"city":"Aurangabad","state":"Maharashtra","latitude":19.8762,"longitude":75.3433,"temp":35.4,"humidity":29,"rain":0.0,"pressure":942.6,"uv_index":9.05,"wind_gusts":46.8,"aqi":117,"pm10":34.3,"pm2_5":27.2,"mosquito_risk":0,"arthritis_risk":5,"migraine_risk":10,"frizz_risk":0,"updated_at":"2026-04-19T16:15:42.642124+05:30"},{"city":"Solapur","state":"Maharashtra","latitude":17.6599,"longitude":75.9064,"temp":38.7,"humidity":24,"rain":0.0,"pressure":953.6,"uv_index":8.85,"wind_gusts":52.6,"aqi":145,"pm10":49.5,"pm2_5":40.9,"mosquito_risk":0,"arthritis_risk":5,"migraine_risk":10,"frizz_risk":0,"updated_at":"2026-04-19T16:15:42.642133+05:30"},{"city":"Kolhapur","state":"Maharashtra","latitude":16.705,"longitude":74.2433,"temp":31.7,"humidity":61,"rain":0.0,"pressure":946.0,"uv_index":9.0,"wind_gusts":45.7,"aqi":133,"pm10":42.7,"pm2_5":35.5,"mosquito_risk":3,"arthritis_risk":5,"migraine_risk":7,"frizz_risk":1,"updated_at":"2026-04-19T16:15:42.642142+05:30"},{"city":"Goa","state":"Goa","latitude":15.2993,"longitude":74.124,"temp":31.4,"humidity":67,"rain":0.0,"pressure":995.9,"uv_index":9.0,"wind_gusts":28.8,"aqi":86,"pm10":49.5,"pm2_5":24.7,"mosquito_risk":3,"arthritis_risk":5,"migraine_risk":7,"frizz_risk":1,"updated_at":"2026-04-19T16:15:42.642150+05:30"},{"city":"Jodhpur","state":"Rajasthan","latitude":26.2389,"longitude":73.0243,"temp":39.2,"humidity":13,"rain":0.0,"pressure":980.6,"uv_index":8.15,"wind_gusts":28.4,"aqi":101,"pm10":101.3,"pm2_5":17.6,"mosquito_risk":0,"arthritis_risk":5,"migraine_risk":10,"frizz_risk":0,"updated_at":"2026-04-19T16:15:42.642159+05:30"},{"city":"Udaipur","state":"Rajasthan","latitude":24.5854,"longitude":73.7125,"temp":37.6,"humidity":15,"rain":0.0,"pressure":945.2,"uv_index":8.65,"wind_gusts":40.3,"aqi":67,"pm10":15.8,"pm2_5":9.0,"mosquito_risk":0,"arthritis_risk":5,"migraine_risk":10,"frizz_risk":0,"updated_at":"2026-04-19T16:15:42.642168+05:30"},{"city":"Kota","state":"Rajasthan","latitude":25.2138,"longitude":75.8648,"temp":42.1,"humidity":11,"rain":0.0,"pressure":974.8,"uv_index":8.2,"wind_gusts":36.7,"aqi":67,"pm10":33.4,"pm2_5":10.3,"mosquito_risk":0,"arthritis_risk":5,"migraine_risk":10,"frizz_risk":0,"updated_at":"2026-04-19T16:15:42.642177+05:30"},{"city":"Bikaner","state":"Rajasthan","latitude":28.0229,"longitude":73.3119,"temp":39.3,"humidity":14,"rain":0.0,"pressure":979.2,"uv_index":7.9,"wind_gusts":25.2,"aqi":100,"pm10":139.2,"pm2_5":21.7,"mosquito_risk":0,"arthritis_risk":5,"migraine_risk":10,"frizz_risk":0,"updated_at":"2026-04-19T16:15:42.642185+05:30"},{"city":"Ajmer","state":"Rajasthan","latitude":26.4499,"longitude":74.6399,"temp":38.0,"humidity":11,"rain":0.0,"pressure":953.2,"uv_index":7.6,"wind_gusts":32.4,"aqi":73,"pm10":84.1,"pm2_5":16.9,"mosquito_risk":0,"arthritis_risk":5,"migraine_risk":10,"frizz_risk":0,"updated_at":"2026-04-19T16:15:42.642194+05:30"},{"city":"Gwalior","state":"Madhya Pradesh","latitude":26.2183,"longitude":78.1828,"temp":40.4,"humidity":16,"rain":0.0,"pressure":979.5,"uv_index":7.45,"wind_gusts":29.9,"aqi":91,"pm10":49.7,"pm2_5":13.7,"mosquito_risk":0,"arthritis_risk":5,"migraine_risk":10,"frizz_risk":0,"updated_at":"2026-04-19T16:15:42.642202+05:30"},{"city":"Indore","state":"Madhya Pradesh","latitude":22.7196,"longitude":75.8577,"temp":38.4,"humidity":17,"rain":0.0,"pressure":946.1,"uv_index":8.6,"wind_gusts":31.0,"aqi":77,"pm10":19.2,"pm2_5":12.6,"mosquito_risk":0,"arthritis_risk":5,"migraine_risk":10,"frizz_risk":0,"updated_at":"2026-04-19T16:15:42.642211+05:30"},{"city":"Bhopal","state":"Madhya Pradesh","latitude":23.2599,"longitude":77.4126,"temp":39.8,"humidity":14,"rain":0.0,"pressure":951.4,"uv_index":8.6,"wind_gusts":34.9,"aqi":103,"pm10":37.0,"pm2_5":20.1,"mosquito_risk":0,"arthritis_risk":5,"migraine_risk":10,"frizz_risk":0,"updated_at":"2026-04-19T16:15:42.642219+05:30"},{"city":"Jabalpur","state":"Madhya Pradesh","latitude":23.1815,"longitude":79.9864,"temp":40.5,"humidity":18,"rain":0.0,"pressure":957.7,"uv_index":8.75,"wind_gusts":21.2,"aqi":110,"pm10":25.7,"pm2_5":14.0,"mosquito_risk":0,"arthritis_risk":5,"migraine_risk":10,"frizz_risk":0,"updated_at":"2026-04-19T16:15:42.642228+05:30"},{"city":"Ujjain","state":"Madhya Pradesh","latitude":23.1765,"longitude":75.7885,"temp":39.1,"humidity":16,"rain":0.0,"pressure":951.7,"uv_index":8.5,"wind_gusts":33.5,"aqi":66,"pm10":21.1,"pm2_5":15.8,"mosquito_risk":0,"arthritis_risk":5,"migraine_risk":10,"frizz_risk":0,"updated_at":"2026-04-19T16:15:42.642237+05:30"},{"city":"Visakhapatnam","state":"Andhra Pradesh","latitude":17.6868,"longitude":83.2185,"temp":32.0,"humidity":64,"rain":0.0,"pressure":1001.0,"uv_index":9.15,"wind_gusts":36.7,"aqi":64,"pm10":24.0,"pm2_5":17.0,"mosquito_risk":3,"arthritis_risk":5,"migraine_risk":4,"frizz_risk":1,"updated_at":"2026-04-19T16:15:42.642246+05:30"},{"city":"Vijayawada","state":"Andhra Pradesh","latitude":16.5062,"longitude":80.648,"temp":37.3,"humidity":38,"rain":0.0,"pressure":998.7,"uv_index":9.25,"wind_gusts":31.0,"aqi":57,"pm10":24.3,"pm2_5":16.9,"mosquito_risk":0,"arthritis_risk":5,"migraine_risk":10,"frizz_risk":1,"updated_at":"2026-04-19T16:15:42.642278+05:30"},{"city":"Guntur","state":"Andhra Pradesh","latitude":16.3067,"longitude":80.4365,"temp":36.2,"humidity":41,"rain":0.0,"pressure":1000.2,"uv_index":9.25,"wind_gusts":34.6,"aqi":61,"pm10":28.3,"pm2_5":20.5,"mosquito_risk":0,"arthritis_risk":5,"migraine_risk":7,"frizz_risk":1,"updated_at":"2026-04-19T16:15:42.642290+05:30"},{"city":"Nellore","state":"Andhra Pradesh","latitude":14.4426,"longitude":79.9865,"temp":35.9,"humidity":54,"rain":0.0,"pressure":1002.2,"uv_index":9.25,"wind_gusts":33.8,"aqi":49,"pm10":22.6,"pm2_5":16.6,"mosquito_risk":0,"arthritis_risk":5,"migraine_risk":7,"frizz_risk":1,"updated_at":"2026-04-19T16:15:42.642300+05:30"},{"city":"Kurnool","state":"Andhra Pradesh","latitude":15.8281,"longitude":78.0373,"temp":41.9,"humidity":18,"rain":0.0,"pressure":971.9,"uv_index":9.2,"wind_gusts":32.4,"aqi":107,"pm10":47.5,"pm2_5":36.6,"mosquito_risk":0,"arthritis_risk":5,"migraine_risk":10,"frizz_risk":0,"updated_at":"2026-04-19T16:15:42.642309+05:30"},{"city":"Kakinada","state":"Andhra Pradesh","latitude":16.9891,"longitude":82.2475,"temp":36.1,"humidity":45,"rain":0.0,"pressure":1004.1,"uv_index":9.2,"wind_gusts":32.0,"aqi":51,"pm10":18.5,"pm2_5":10.4,"mosquito_risk":0,"arthritis_risk":5,"migraine_risk":7,"frizz_risk":1,"updated_at":"2026-04-19T16:15:42.642317+05:30"},{"city":"Tirupati","state":"Andhra Pradesh","latitude":13.6288,"longitude":79.4192,"temp":37.5,"humidity":30,"rain":0.0,"pressure":988.3,"uv_index":9.35,"wind_gusts":34.6,"aqi":63,"pm10":26.4,"pm2_5":20.3,"mosquito_risk":0,"arthritis_risk":5,"migraine_risk":10,"frizz_risk":1,"updated_at":"2026-04-19T16:15:42.642326+05:30"},{"city":"Warangal","state":"Telangana","latitude":17.9689,"longitude":79.5941,"temp":39.5,"humidity":31,"rain":0.0,"pressure":974.6,"uv_index":9.15,"wind_gusts":30.6,"aqi":92,"pm10":45.5,"pm2_5":35.6,"mosquito_risk":0,"arthritis_risk":5,"migraine_risk":10,"frizz_risk":1,"updated_at":"2026-04-19T16:15:42.642335+05:30"},{"city":"Nizamabad","state":"Telangana","latitude":18.6725,"longitude":78.0941,"temp":41.3,"humidity":12,"rain":0.0,"pressure":960.7,"uv_index":9.0,"wind_gusts":41.0,"aqi":139,"pm10":40.6,"pm2_5":31.7,"mosquito_risk":0,"arthritis_risk":5,"migraine_risk":10,"frizz_risk":0,"updated_at":"2026-04-19T16:15:42.642342+05:30"},{"city":"Mysore","state":"Karnataka","latitude":12.2958,"longitude":76.6396,"temp":36.8,"humidity":20,"rain":0.0,"pressure":926.1,"uv_index":9.5,"wind_gusts":43.6,"aqi":107,"pm10":30.2,"pm2_5":23.3,"mosquito_risk":0,"arthritis_risk":5,"migraine_risk":10,"frizz_risk":0,"updated_at":"2026-04-19T16:15:42.642349+05:30"},{"city":"Mangalore","state":"Karnataka","latitude":12.9141,"longitude":74.856,"temp":29.8,"humidity":82,"rain":0.0,"pressure":1004.0,"uv_index":9.1,"wind_gusts":22.3,"aqi":69,"pm10":35.3,"pm2_5":21.4,"mosquito_risk":7,"arthritis_risk":5,"migraine_risk":4,"frizz_risk":1,"updated_at":"2026-04-19T16:15:42.642357+05:30"},{"city":"Hubli-Dharwad","state":"Karnataka","latitude":15.3647,"longitude":75.124,"temp":33.0,"humidity":50,"rain":0.0,"pressure":938.8,"uv_index":9.2,"wind_gusts":32.0,"aqi":101,"pm10":37.7,"pm2_5":31.1,"mosquito_risk":0,"arthritis_risk":5,"migraine_risk":7,"frizz_risk":1,"updated_at":"2026-04-19T16:15:42.642364+05:30"},{"city":"Belgaum","state":"Karnataka","latitude":15.8497,"longitude":74.4977,"temp":28.0,"humidity":69,"rain":0.0,"pressure":924.5,"uv_index":9.25,"wind_gusts":32.4,"aqi":116,"pm10":41.6,"pm2_5":31.4,"mosquito_risk":7,"arthritis_risk":5,"migraine_risk":7,"frizz_risk":1,"updated_at":"2026-04-19T16:15:45.988032+05:30"},{"city":"Coimbatore","state":"Tamil Nadu","latitude":11.0168,"longitude":76.9558,"temp":37.5,"humidity":23,"rain":0.0,"pressure":958.7,"uv_index":9.4,"wind_gusts":55.4,"aqi":109,"pm10":32.0,"pm2_5":25.1,"mosquito_risk":0,"arthritis_risk":5,"migraine_risk":10,"frizz_risk":0,"updated_at":"2026-04-19T16:15:45.988061+05:30"},{"city":"Madurai","state":"Tamil Nadu","latitude":9.9252,"longitude":78.1198,"temp":39.0,"humidity":25,"rain":0.0,"pressure":989.1,"uv_index":9.3,"wind_gusts":41.8,"aqi":81,"pm10":20.3,"pm2_5":14.7,"mosquito_risk":0,"arthritis_risk":5,"migraine_risk":10,"frizz_risk":0,"updated_at":"2026-04-19T16:15:45.988072+05:30"},{"city":"Trichy","state":"Tamil Nadu","latitude":10.7905,"longitude":78.7047,"temp":38.1,"humidity":28,"rain":0.0,"pressure":996.1,"uv_index":9.3,"wind_gusts":28.4,"aqi":56,"pm10":17.4,"pm2_5":12.2,"mosquito_risk":0,"arthritis_risk":5,"migraine_risk":10,"frizz_risk":1,"updated_at":"2026-04-19T16:15:45.988080+05:30"},{"city":"Salem","state":"Tamil Nadu","latitude":11.6643,"longitude":78.146,"temp":38.1,"humidity":32,"rain":0.0,"pressure":973.9,"uv_index":9.35,"wind_gusts":21.6,"aqi":74,"pm10":25.6,"pm2_5":18.0,"mosquito_risk":0,"arthritis_risk":5,"migraine_risk":10,"frizz_risk":1,"updated_at":"2026-04-19T16:15:45.988087+05:30"},{"city":"Tirunelveli","state":"Tamil Nadu","latitude":8.7139,"longitude":77.7567,"temp":36.0,"humidity":42,"rain":0.0,"pressure":999.6,"uv_index":9.25,"wind_gusts":51.5,"aqi":74,"pm10":20.5,"pm2_5":15.4,"mosquito_risk":0,"arthritis_risk":5,"migraine_risk":10,"frizz_risk":1,"updated_at":"2026-04-19T16:15:45.988095+05:30"},{"city":"Vellore","state":"Tamil Nadu","latitude":12.9165,"longitude":79.1325,"temp":36.5,"humidity":31,"rain":0.0,"pressure":981.7,"uv_index":9.4,"wind_gusts":29.9,"aqi":82,"pm10":23.7,"pm2_5":17.2,"mosquito_risk":0,"arthritis_risk":5,"migraine_risk":10,"frizz_risk":1,"updated_at":"2026-04-19T16:15:45.988103+05:30"},{"city":"Erode","state":"Tamil Nadu","latitude":11.341,"longitude":77.7172,"temp":40.0,"humidity":23,"rain":0.0,"pressure":985.0,"uv_index":9.35,"wind_gusts":28.4,"aqi":90,"pm10":27.2,"pm2_5":19.6,"mosquito_risk":0,"arthritis_risk":5,"migraine_risk":10,"frizz_risk":0,"updated_at":"2026-04-19T16:15:45.988110+05:30"},{"city":"Kochi","state":"Kerala","latitude":9.9312,"longitude":76.2673,"temp":30.1,"humidity":80,"rain":0.0,"pressure":1005.5,"uv_index":9.15,"wind_gusts":25.2,"aqi":68,"pm10":17.8,"pm2_5":13.9,"mosquito_risk":3,"arthritis_risk":5,"migraine_risk":4,"frizz_risk":1,"updated_at":"2026-04-19T16:15:45.988117+05:30"},{"city":"Thiruvananthapuram","state":"Kerala","latitude":8.5241,"longitude":76.9366,"temp":29.6,"humidity":80,"rain":0.0,"pressure":1005.2,"uv_index":9.1,"wind_gusts":27.4,"aqi":69,"pm10":25.1,"pm2_5":17.5,"mosquito_risk":7,"arthritis_risk":5,"migraine_risk":4,"frizz_risk":1,"updated_at":"2026-04-19T16:15:45.988124+05:30"},{"city":"Kozhikode","state":"Kerala","latitude":11.2588,"longitude":75.7804,"temp":31.4,"humidity":72,"rain":0.0,"pressure":1004.9,"uv_index":9.1,"wind_gusts":31.3,"aqi":63,"pm10":26.2,"pm2_5":16.8,"mosquito_risk":3,"arthritis_risk":5,"migraine_risk":4,"frizz_risk":1,"updated_at":"2026-04-19T16:15:45.988131+05:30"},{"city":"Thrissur","state":"Kerala","latitude":10.5276,"longitude":76.2144,"temp":33.2,"humidity":64,"rain":0.0,"pressure":1004.0,"uv_index":9.15,"wind_gusts":33.8,"aqi":68,"pm10":23.4,"pm2_5":16.8,"mosquito_risk":3,"arthritis_risk":5,"migraine_risk":4,"frizz_risk":1,"updated_at":"2026-04-19T16:15:45.988137+05:30"},{"city":"Kannur","state":"Kerala","latitude":11.8745,"longitude":75.3704,"temp":31.9,"humidity":66,"rain":0.0,"pressure":1005.0,"uv_index":9.1,"wind_gusts":34.2,"aqi":69,"pm10":33.6,"pm2_5":20.6,"mosquito_risk":3,"arthritis_risk":5,"migraine_risk":4,"frizz_risk":1,"updated_at":"2026-04-19T16:15:45.988144+05:30"},{"city":"Patna","state":"Bihar","latitude":25.5941,"longitude":85.1376,"temp":38.2,"humidity":36,"rain":0.0,"pressure":995.0,"uv_index":8.6,"wind_gusts":27.0,"aqi":150,"pm10":94.1,"pm2_5":39.1,"mosquito_risk":0,"arthritis_risk":5,"migraine_risk":10,"frizz_risk":1,"updated_at":"2026-04-19T16:15:45.988151+05:30"},{"city":"Gaya","state":"Bihar","latitude":24.7914,"longitude":85.0002,"temp":41.2,"humidity":14,"rain":0.0,"pressure":988.4,"uv_index":8.7,"wind_gusts":34.9,"aqi":156,"pm10":107.6,"pm2_5":26.3,"mosquito_risk":0,"arthritis_risk":5,"migraine_risk":10,"frizz_risk":0,"updated_at":"2026-04-19T16:15:45.988157+05:30"},{"city":"Muzaffarpur","state":"Bihar","latitude":26.1209,"longitude":85.3647,"temp":36.1,"humidity":44,"rain":0.0,"pressure":995.6,"uv_index":8.6,"wind_gusts":29.5,"aqi":143,"pm10":79.2,"pm2_5":44.4,"mosquito_risk":0,"arthritis_risk":5,"migraine_risk":10,"frizz_risk":1,"updated_at":"2026-04-19T16:15:45.988164+05:30"},{"city":"Bhagalpur","state":"Bihar","latitude":25.2425,"longitude":87.0117,"temp":34.3,"humidity":55,"rain":0.0,"pressure":996.4,"uv_index":8.65,"wind_gusts":27.0,"aqi":140,"pm10":70.1,"pm2_5":48.3,"mosquito_risk":0,"arthritis_risk":5,"migraine_risk":7,"frizz_risk":1,"updated_at":"2026-04-19T16:15:45.988170+05:30"},{"city":"Ranchi","state":"Jharkhand","latitude":23.3441,"longitude":85.3096,"temp":37.8,"humidity":13,"rain":0.0,"pressure":935.0,"uv_index":9.2,"wind_gusts":45.0,"aqi":176,"pm10":49.7,"pm2_5":24.7,"mosquito_risk":0,"arthritis_risk":5,"migraine_risk":10,"frizz_risk":0,"updated_at":"2026-04-19T16:15:45.988176+05:30"},{"city":"Jamshedpur","state":"Jharkhand","latitude":22.8046,"longitude":86.2029,"temp":40.4,"humidity":24,"rain":0.0,"pressure":985.0,"uv_index":9.0,"wind_gusts":37.1,"aqi":198,"pm10":77.1,"pm2_5":54.2,"mosquito_risk":0,"arthritis_risk":5,"migraine_risk":10,"frizz_risk":0,"updated_at":"2026-04-19T16:15:45.988183+05:30"},{"city":"Dhanbad","state":"Jharkhand","latitude":23.7957,"longitude":86.4304,"temp":41.7,"humidity":14,"rain":0.0,"pressure":974.4,"uv_index":8.95,"wind_gusts":33.8,"aqi":157,"pm10":68.7,"pm2_5":24.7,"mosquito_risk":0,"arthritis_risk":5,"migraine_risk":10,"frizz_risk":0,"updated_at":"2026-04-19T16:15:45.988190+05:30"},{"city":"Bokaro","state":"Jharkhand","latitude":23.6693,"longitude":86.1511,"temp":41.4,"humidity":13,"rain":0.0,"pressure":978.3,"uv_index":8.95,"wind_gusts":42.1,"aqi":142,"pm10":64.5,"pm2_5":22.4,"mosquito_risk":0,"arthritis_risk":5,"migraine_risk":10,"frizz_risk":0,"updated_at":"2026-04-19T16:15:45.988197+05:30"},{"city":"Bhubaneswar","state":"Odisha","latitude":20.2961,"longitude":85.8245,"temp":30.8,"humidity":75,"rain":0.0,"pressure":999.4,"uv_index":9.1,"wind_gusts":34.2,"aqi":68,"pm10":32.5,"pm2_5":24.3,"mosquito_risk":3,"arthritis_risk":5,"migraine_risk":7,"frizz_risk":1,"updated_at":"2026-04-19T16:15:45.988204+05:30"},{"city":"Cuttack","state":"Odisha","latitude":20.4625,"longitude":85.8828,"temp":33.3,"humidity":65,"rain":0.0,"pressure":1000.8,"uv_index":9.15,"wind_gusts":34.6,"aqi":68,"pm10":32.5,"pm2_5":24.3,"mosquito_risk":3,"arthritis_risk":5,"migraine_risk":4,"frizz_risk":1,"updated_at":"2026-04-19T16:15:45.988211+05:30"},{"city":"Rourkela","state":"Odisha","latitude":22.2604,"longitude":84.8536,"temp":38.6,"humidity":36,"rain":0.0,"pressure":980.2,"uv_index":8.9,"wind_gusts":43.2,"aqi":202,"pm10":73.3,"pm2_5":51.0,"mosquito_risk":0,"arthritis_risk":5,"migraine_risk":10,"frizz_risk":1,"updated_at":"2026-04-19T16:15:45.988218+05:30"},{"city":"Raipur","state":"Chhattisgarh","latitude":21.2514,"longitude":81.6296,"temp":42.6,"humidity":14,"rain":0.0,"pressure":969.6,"uv_index":8.95,"wind_gusts":33.8,"aqi":172,"pm10":29.8,"pm2_5":25.9,"mosquito_risk":0,"arthritis_risk":5,"migraine_risk":10,"frizz_risk":0,"updated_at":"2026-04-19T16:15:45.988225+05:30"},{"city":"Bhilai","state":"Chhattisgarh","latitude":21.1938,"longitude":81.3509,"temp":41.8,"humidity":17,"rain":0.0,"pressure":970.2,"uv_index":9.0,"wind_gusts":31.7,"aqi":150,"pm10":28.6,"pm2_5":24.3,"mosquito_risk":0,"arthritis_risk":5,"migraine_risk":10,"frizz_risk":0,"updated_at":"2026-04-19T16:15:45.988231+05:30"},{"city":"Guwahati","state":"Assam","latitude":26.1158,"longitude":91.7086,"temp":28.7,"humidity":76,"rain":0.0,"pressure":998.8,"uv_index":8.55,"wind_gusts":29.2,"aqi":123,"pm10":61.9,"pm2_5":45.5,"mosquito_risk":7,"arthritis_risk":5,"migraine_risk":7,"frizz_risk":1,"updated_at":"2026-04-19T16:15:45.988238+05:30"},{"city":"Agartala","state":"Tripura","latitude":23.8315,"longitude":91.2868,"temp":32.1,"humidity":65,"rain":0.0,"pressure":1002.7,"uv_index":8.75,"wind_gusts":25.2,"aqi":124,"pm10":36.7,"pm2_5":27.2,"mosquito_risk":3,"arthritis_risk":5,"migraine_risk":4,"frizz_risk":1,"updated_at":"2026-04-19T16:15:45.988245+05:30"},{"city":"Shillong","state":"Meghalaya","latitude":25.5788,"longitude":91.8933,"temp":19.3,"humidity":74,"rain":0.0,"pressure":855.6,"uv_index":8.75,"wind_gusts":48.2,"aqi":109,"pm10":31.2,"pm2_5":22.1,"mosquito_risk":3,"arthritis_risk":5,"migraine_risk":7,"frizz_risk":0,"updated_at":"2026-04-19T16:15:45.988252+05:30"},{"city":"Imphal","state":"Manipur","latitude":24.817,"longitude":93.9368,"temp":22.0,"humidity":79,"rain":0.0,"pressure":921.9,"uv_index":8.65,"wind_gusts":61.2,"aqi":150,"pm10":58.1,"pm2_5":40.2,"mosquito_risk":3,"arthritis_risk":5,"migraine_risk":7,"frizz_risk":1,"updated_at":"2026-04-19T16:15:45.988281+05:30"},{"city":"Aizawl","state":"Mizoram","latitude":23.7271,"longitude":92.7176,"temp":24.4,"humidity":69,"rain":0.0,"pressure":892.2,"uv_index":8.3,"wind_gusts":40.0,"aqi":148,"pm10":81.3,"pm2_5":63.3,"mosquito_risk":3,"arthritis_risk":5,"migraine_risk":7,"frizz_risk":1,"updated_at":"2026-04-19T16:15:45.988289+05:30"},{"city":"Kohima","state":"Nagaland","latitude":25.6701,"longitude":94.1077,"temp":19.1,"humidity":88,"rain":0.0,"pressure":854.0,"uv_index":8.85,"wind_gusts":50.8,"aqi":120,"pm10":57.2,"pm2_5":40.6,"mosquito_risk":3,"arthritis_risk":10,"migraine_risk":7,"frizz_risk":1,"updated_at":"2026-04-19T16:15:45.988296+05:30"},{"city":"Gangtok","state":"Sikkim","latitude":27.3314,"longitude":88.6138,"temp":19.3,"humidity":81,"rain":0.0,"pressure":837.1,"uv_index":8.85,"wind_gusts":23.4,"aqi":101,"pm10":14.4,"pm2_5":11.5,"mosquito_risk":3,"arthritis_risk":10,"migraine_risk":7,"frizz_risk":0,"updated_at":"2026-04-19T16:15:45.988303+05:30"},{"city":"Siliguri","state":"West Bengal","latitude":26.7271,"longitude":88.3953,"temp":23.9,"humidity":87,"rain":0.0,"pressure":992.0,"uv_index":8.4,"wind_gusts":21.2,"aqi":134,"pm10":31.2,"pm2_5":23.5,"mosquito_risk":3,"arthritis_risk":5,"migraine_risk":7,"frizz_risk":1,"updated_at":"2026-04-19T16:15:49.338500+05:30"},{"city":"Durgapur","state":"West Bengal","latitude":23.5204,"longitude":87.3119,"temp":31.2,"humidity":72,"rain":0.0,"pressure":990.7,"uv_index":8.9,"wind_gusts":28.1,"aqi":163,"pm10":93.8,"pm2_5":52.4,"mosquito_risk":3,"arthritis_risk":5,"migraine_risk":7,"frizz_risk":1,"updated_at":"2026-04-19T16:15:49.338531+05:30"},{"city":"Asansol","state":"West Bengal","latitude":23.6739,"longitude":86.9524,"temp":33.3,"humidity":62,"rain":0.0,"pressure":989.0,"uv_index":8.95,"wind_gusts":33.8,"aqi":160,"pm10":77.8,"pm2_5":32.0,"mosquito_risk":3,"arthritis_risk":5,"migraine_risk":7,"frizz_risk":1,"updated_at":"2026-04-19T16:15:49.338541+05:30"},{"city":"Pondicherry","state":"Puducherry","latitude":11.9139,"longitude":79.8145,"temp":35.4,"humidity":55,"rain":0.0,"pressure":1005.3,"uv_index":9.25,"wind_gusts":31.0,"aqi":34,"pm10":12.5,"pm2_5":8.6,"mosquito_risk":0,"arthritis_risk":5,"migraine_risk":7,"frizz_risk":1,"updated_at":"2026-04-19T16:15:49.338549+05:30"},{"city":"Port Blair","state":"Andaman and Nicobar Islands","latitude":11.6234,"longitude":92.7265,"temp":30.2,"humidity":68,"rain":0.0,"pressure":1006.0,"uv_index":9.15,"wind_gusts":13.0,"aqi":54,"pm10":14.7,"pm2_5":12.5,"mosquito_risk":3,"arthritis_risk":5,"migraine_risk":4,"frizz_risk":1,"updated_at":"2026-04-19T16:15:49.338557+05:30"},{"city":"Haridwar","state":"Uttarakhand","latitude":29.9457,"longitude":78.1642,"temp":37.3,"humidity":23,"rain":0.0,"pressure":971.1,"uv_index":6.3,"wind_gusts":28.8,"aqi":103,"pm10":60.3,"pm2_5":16.5,"mosquito_risk":0,"arthritis_risk":5,"migraine_risk":10,"frizz_risk":0,"updated_at":"2026-04-19T16:15:49.338565+05:30"},{"city":"Rishikesh","state":"Uttarakhand","latitude":30.0869,"longitude":78.2676,"temp":35.6,"humidity":25,"rain":0.0,"pressure":964.2,"uv_index":6.65,"wind_gusts":31.7,"aqi":88,"pm10":51.7,"pm2_5":13.4,"mosquito_risk":0,"arthritis_risk":5,"migraine_risk":10,"frizz_risk":0,"updated_at":"2026-04-19T16:15:49.338573+05:30"},{"city":"Nainital","state":"Uttarakhand","latitude":29.3919,"longitude":79.4542,"temp":29.3,"humidity":22,"rain":0.0,"pressure":809.0,"uv_index":7.85,"wind_gusts":70.9,"aqi":107,"pm10":37.4,"pm2_5":10.8,"mosquito_risk":4,"arthritis_risk":5,"migraine_risk":7,"frizz_risk":0,"updated_at":"2026-04-19T16:15:49.338581+05:30"},{"city":"Mussoorie","state":"Uttarakhand","latitude":30.4599,"longitude":78.0664,"temp":26.5,"humidity":24,"rain":0.0,"pressure":805.5,"uv_index":6.35,"wind_gusts":45.7,"aqi":97,"pm10":53.2,"pm2_5":13.4,"mosquito_risk":4,"arthritis_risk":5,"migraine_risk":7,"frizz_risk":0,"updated_at":"2026-04-19T16:15:49.338588+05:30"},{"city":"Dharamshala","state":"Himachal Pradesh","latitude":32.219,"longitude":76.3234,"temp":24.2,"humidity":44,"rain":0.0,"pressure":871.0,"uv_index":6.1,"wind_gusts":38.5,"aqi":61,"pm10":26.5,"pm2_5":6.7,"mosquito_risk":0,"arthritis_risk":5,"migraine_risk":7,"frizz_risk":0,"updated_at":"2026-04-19T16:15:49.338596+05:30"},{"city":"Dalhousie","state":"Himachal Pradesh","latitude":32.5387,"longitude":75.971,"temp":22.4,"humidity":37,"rain":0.0,"pressure":806.5,"uv_index":6.7,"wind_gusts":35.3,"aqi":58,"pm10":32.7,"pm2_5":8.6,"mosquito_risk":0,"arthritis_risk":5,"migraine_risk":7,"frizz_risk":0,"updated_at":"2026-04-19T16:15:49.338604+05:30"},{"city":"Patiala","state":"Punjab","latitude":30.3398,"longitude":76.3869,"temp":35.2,"humidity":25,"rain":0.0,"pressure":976.5,"uv_index":6.8,"wind_gusts":45.0,"aqi":162,"pm10":452.6,"pm2_5":47.0,"mosquito_risk":0,"arthritis_risk":5,"migraine_risk":10,"frizz_risk":0,"updated_at":"2026-04-19T16:15:49.338612+05:30"},{"city":"Bhatinda","state":"Punjab","latitude":30.211,"longitude":74.9455,"temp":36.1,"humidity":23,"rain":0.0,"pressure":982.3,"uv_index":7.85,"wind_gusts":41.0,"aqi":95,"pm10":82.9,"pm2_5":20.3,"mosquito_risk":0,"arthritis_risk":5,"migraine_risk":10,"frizz_risk":0,"updated_at":"2026-04-19T16:15:49.338619+05:30"},{"city":"Rohtak","state":"Haryana","latitude":28.8955,"longitude":76.6066,"temp":37.7,"humidity":20,"rain":0.0,"pressure":978.7,"uv_index":7.0,"wind_gusts":28.4,"aqi":194,"pm10":329.7,"pm2_5":38.9,"mosquito_risk":0,"arthritis_risk":5,"migraine_risk":10,"frizz_risk":0,"updated_at":"2026-04-19T16:15:49.338626+05:30"},{"city":"Panipat","state":"Haryana","latitude":29.3909,"longitude":76.9635,"temp":38.5,"humidity":18,"rain":0.0,"pressure":977.1,"uv_index":6.3,"wind_gusts":51.5,"aqi":396,"pm10":512.2,"pm2_5":55.3,"mosquito_risk":0,"arthritis_risk":5,"migraine_risk":10,"frizz_risk":0,"updated_at":"2026-04-19T16:15:49.338633+05:30"},{"city":"Mathura","state":"Uttar Pradesh","latitude":27.4924,"longitude":77.6737,"temp":39.9,"humidity":17,"rain":0.0,"pressure":983.0,"uv_index":7.65,"wind_gusts":44.3,"aqi":297,"pm10":584.9,"pm2_5":54.7,"mosquito_risk":0,"arthritis_risk":5,"migraine_risk":10,"frizz_risk":0,"updated_at":"2026-04-19T16:15:49.338641+05:30"},{"city":"Vrindavan","state":"Uttar Pradesh","latitude":27.5823,"longitude":77.7027,"temp":39.9,"humidity":16,"rain":0.0,"pressure":983.7,"uv_index":7.65,"wind_gusts":43.9,"aqi":297,"pm10":584.9,"pm2_5":54.7,"mosquito_risk":0,"arthritis_risk":5,"migraine_risk":10,"frizz_risk":0,"updated_at":"2026-04-19T16:15:49.338647+05:30"},{"city":"Ayodhya","state":"Uttar Pradesh","latitude":26.7922,"longitude":82.1998,"temp":42.0,"humidity":14,"rain":0.0,"pressure":989.5,"uv_index":8.05,"wind_gusts":40.0,"aqi":142,"pm10":108.5,"pm2_5":29.2,"mosquito_risk":0,"arthritis_risk":5,"migraine_risk":10,"frizz_risk":0,"updated_at":"2026-04-19T16:15:49.338655+05:30"},{"city":"Ratlam","state":"Madhya Pradesh","latitude":23.3315,"longitude":75.0367,"temp":37.0,"humidity":25,"rain":0.0,"pressure":952.8,"uv_index":8.45,"wind_gusts":27.4,"aqi":76,"pm10":23.4,"pm2_5":17.6,"mosquito_risk":0,"arthritis_risk":5,"migraine_risk":10,"frizz_risk":0,"updated_at":"2026-04-19T16:15:49.338662+05:30"},{"city":"Sagar","state":"Madhya Pradesh","latitude":23.8388,"longitude":78.7378,"temp":40.0,"humidity":14,"rain":0.0,"pressure":947.5,"uv_index":8.6,"wind_gusts":38.2,"aqi":110,"pm10":28.8,"pm2_5":13.5,"mosquito_risk":0,"arthritis_risk":5,"migraine_risk":10,"frizz_risk":0,"updated_at":"2026-04-19T16:15:49.338669+05:30"},{"city":"Satna","state":"Madhya Pradesh","latitude":24.6005,"longitude":80.8322,"temp":41.4,"humidity":13,"rain":0.0,"pressure":967.3,"uv_index":8.65,"wind_gusts":32.8,"aqi":127,"pm10":67.1,"pm2_5":16.9,"mosquito_risk":0,"arthritis_risk":5,"migraine_risk":10,"frizz_risk":0,"updated_at":"2026-04-19T16:15:49.338676+05:30"},{"city":"Akola","state":"Maharashtra","latitude":20.7002,"longitude":77.0082,"temp":40.9,"humidity":17,"rain":0.0,"pressure":971.1,"uv_index":8.85,"wind_gusts":32.0,"aqi":91,"pm10":32.6,"pm2_5":24.9,"mosquito_risk":0,"arthritis_risk":5,"migraine_risk":10,"frizz_risk":0,"updated_at":"2026-04-19T16:15:49.338684+05:30"},{"city":"Amravati","state":"Maharashtra","latitude":20.9374,"longitude":77.7796,"temp":41.1,"humidity":16,"rain":0.0,"pressure":963.3,"uv_index":8.85,"wind_gusts":15.8,"aqi":93,"pm10":23.6,"pm2_5":17.3,"mosquito_risk":0,"arthritis_risk":5,"migraine_risk":10,"frizz_risk":0,"updated_at":"2026-04-19T16:15:49.338691+05:30"},{"city":"Latur","state":"Maharashtra","latitude":18.4088,"longitude":76.5604,"temp":36.8,"humidity":26,"rain":0.0,"pressure":937.5,"uv_index":9.1,"wind_gusts":32.0,"aqi":121,"pm10":40.5,"pm2_5":32.8,"mosquito_risk":0,"arthritis_risk":5,"migraine_risk":10,"frizz_risk":0,"updated_at":"2026-04-19T16:15:49.338699+05:30"},{"city":"Nanded","state":"Maharashtra","latitude":19.1383,"longitude":77.3091,"temp":40.6,"humidity":18,"rain":0.0,"pressure":964.7,"uv_index":9.0,"wind_gusts":20.5,"aqi":106,"pm10":32.5,"pm2_5":25.0,"mosquito_risk":0,"arthritis_risk":5,"migraine_risk":10,"frizz_risk":0,"updated_at":"2026-04-19T16:15:49.338706+05:30"},{"city":"Gulbarga","state":"Karnataka","latitude":17.3297,"longitude":76.8343,"temp":32.4,"humidity":48,"rain":0.0,"pressure":956.7,"uv_index":9.1,"wind_gusts":56.5,"aqi":128,"pm10":46.4,"pm2_5":37.6,"mosquito_risk":0,"arthritis_risk":5,"migraine_risk":7,"frizz_risk":1,"updated_at":"2026-04-19T16:15:49.338712+05:30"},{"city":"Bidar","state":"Karnataka","latitude":17.9104,"longitude":77.5199,"temp":32.7,"humidity":43,"rain":0.0,"pressure":933.9,"uv_index":9.15,"wind_gusts":40.7,"aqi":132,"pm10":46.7,"pm2_5":38.0,"mosquito_risk":0,"arthritis_risk":5,"migraine_risk":7,"frizz_risk":1,"updated_at":"2026-04-19T16:15:49.338719+05:30"},{"city":"Hospet","state":"Karnataka","latitude":15.2689,"longitude":76.3909,"temp":37.7,"humidity":29,"rain":0.0,"pressure":952.5,"uv_index":9.3,"wind_gusts":36.4,"aqi":116,"pm10":43.5,"pm2_5":34.7,"mosquito_risk":0,"arthritis_risk":5,"migraine_risk":10,"frizz_risk":1,"updated_at":"2026-04-19T16:15:49.338726+05:30"},{"city":"Tirupur","state":"Tamil Nadu","latitude":11.1085,"longitude":77.3411,"temp":39.0,"humidity":23,"rain":0.0,"pressure":971.6,"uv_index":9.4,"wind_gusts":32.4,"aqi":112,"pm10":29.5,"pm2_5":21.4,"mosquito_risk":0,"arthritis_risk":5,"migraine_risk":10,"frizz_risk":0,"updated_at":"2026-04-19T16:15:49.338733+05:30"},{"city":"Alappuzha","state":"Kerala","latitude":9.4981,"longitude":76.3388,"temp":30.0,"humidity":79,"rain":0.0,"pressure":1005.7,"uv_index":9.1,"wind_gusts":22.7,"aqi":77,"pm10":21.1,"pm2_5":16.7,"mosquito_risk":7,"arthritis_risk":5,"migraine_risk":4,"frizz_risk":1,"updated_at":"2026-04-19T16:15:49.338740+05:30"},{"city":"Munnar","state":"Kerala","latitude":10.0889,"longitude":77.0595,"temp":27.4,"humidity":71,"rain":0.0,"pressure":856.9,"uv_index":9.65,"wind_gusts":39.6,"aqi":78,"pm10":24.2,"pm2_5":16.4,"mosquito_risk":7,"arthritis_risk":5,"migraine_risk":7,"frizz_risk":1,"updated_at":"2026-04-19T16:15:49.338747+05:30"},{"city":"Silchar","state":"Assam","latitude":24.8333,"longitude":92.7789,"temp":28.9,"humidity":73,"rain":0.0,"pressure":1002.7,"uv_index":8.8,"wind_gusts":28.1,"aqi":156,"pm10":40.6,"pm2_5":30.7,"mosquito_risk":7,"arthritis_risk":5,"migraine_risk":4,"frizz_risk":1,"updated_at":"2026-04-19T16:15:49.338754+05:30"},{"city":"Dibrugarh","state":"Assam","latitude":27.4728,"longitude":94.912,"temp":30.9,"humidity":56,"rain":0.0,"pressure":991.8,"uv_index":8.65,"wind_gusts":19.4,"aqi":142,"pm10":59.8,"pm2_5":38.5,"mosquito_risk":0,"arthritis_risk":5,"migraine_risk":7,"frizz_risk":1,"updated_at":"2026-04-19T16:15:49.338763+05:30"}]