[{"city":"Delhi","state":"Delhi","latitude":28.6139,"longitude":77.209,"temp":33.8,"humidity":33,"rain":0.0,"pressure":984.0,"uv_index":7.55,"wind_gusts":36.7,"aqi":406,"pm10":543.9,"pm2_5":78.5,"no2":5.2,"co":347.0,"o3":217.0,"so2":23.0,"mosquito_risk":0,"arthritis_risk":5,"migraine_risk":7,"frizz_risk":0,"updated_at":"2026-05-08T13:23:09.352180+05:30"},{"city":"Mumbai","state":"Maharashtra","latitude":19.076,"longitude":72.8777,"temp":35.0,"humidity":52,"rain":0.0,"pressure":1006.6,"uv_index":7.85,"wind_gusts":47.2,"aqi":91,"pm10":94.3,"pm2_5":48.1,"no2":9.3,"co":322.0,"o3":209.0,"so2":37.6,"mosquito_risk":0,"arthritis_risk":5,"migraine_risk":4,"frizz_risk":1,"updated_at":"2026-05-08T13:23:09.352236+05:30"},{"city":"Bangalore","state":"Karnataka","latitude":12.9716,"longitude":77.5946,"temp":33.1,"humidity":33,"rain":0.0,"pressure":911.5,"uv_index":9.45,"wind_gusts":45.0,"aqi":55,"pm10":8.6,"pm2_5":7.7,"no2":2.7,"co":229.0,"o3":95.0,"so2":4.6,"mosquito_risk":0,"arthritis_risk":5,"migraine_risk":7,"frizz_risk":0,"updated_at":"2026-05-08T13:23:09.352253+05:30"},{"city":"Hyderabad","state":"Telangana","latitude":17.385,"longitude":78.4867,"temp":33.8,"humidity":37,"rain":0.0,"pressure":953.8,"uv_index":9.25,"wind_gusts":31.3,"aqi":53,"pm10":16.4,"pm2_5":11.1,"no2":1.5,"co":216.0,"o3":135.0,"so2":3.2,"mosquito_risk":0,"arthritis_risk":5,"migraine_risk":7,"frizz_risk":1,"updated_at":"2026-05-08T13:23:09.352264+05:30"},{"city":"Chennai","state":"Tamil Nadu","latitude":13.0827,"longitude":80.2707,"temp":31.4,"humidity":64,"rain":0.0,"pressure":1006.1,"uv_index":7.6,"wind_gusts":36.7,"aqi":22,"pm10":3.9,"pm2_5":2.8,"no2":2.0,"co":138.0,"o3":53.0,"so2":5.1,"mosquito_risk":3,"arthritis_risk":5,"migraine_risk":4,"frizz_risk":1,"updated_at":"2026-05-08T13:23:09.352275+05:30"},{"city":"Kolkata","state":"West Bengal","latitude":22.5726,"longitude":88.3639,"temp":31.9,"humidity":69,"rain":0.0,"pressure":1007.2,"uv_index":8.9,"wind_gusts":41.4,"aqi":147,"pm10":40.7,"pm2_5":35.5,"no2":2.2,"co":339.0,"o3":209.0,"so2":18.1,"mosquito_risk":3,"arthritis_risk":5,"migraine_risk":4,"frizz_risk":1,"updated_at":"2026-05-08T13:23:09.352285+05:30"},{"city":"Pune","state":"Maharashtra","latitude":18.5204,"longitude":73.8567,"temp":36.2,"humidity":21,"rain":0.0,"pressure":947.7,"uv_index":8.45,"wind_gusts":34.6,"aqi":115,"pm10":65.7,"pm2_5":31.1,"no2":1.0,"co":193.0,"o3":178.0,"so2":9.7,"mosquito_risk":0,"arthritis_risk":5,"migraine_risk":10,"frizz_risk":0,"updated_at":"2026-05-08T13:23:09.352294+05:30"},{"city":"Ahmedabad","state":"Gujarat","latitude":23.0225,"longitude":72.5714,"temp":41.5,"humidity":13,"rain":0.0,"pressure":1000.6,"uv_index":8.1,"wind_gusts":29.2,"aqi":86,"pm10":45.9,"pm2_5":14.1,"no2":1.8,"co":218.0,"o3":137.0,"so2":4.8,"mosquito_risk":0,"arthritis_risk":5,"migraine_risk":7,"frizz_risk":0,"updated_at":"2026-05-08T13:23:09.352313+05:30"},{"city":"Jaipur","state":"Rajasthan","latitude":26.9124,"longitude":75.7873,"temp":36.0,"humidity":25,"rain":0.0,"pressure":959.7,"uv_index":8.1,"wind_gusts":40.3,"aqi":153,"pm10":204.0,"pm2_5":39.8,"no2":1.4,"co":238.0,"o3":155.0,"so2":5.2,"mosquito_risk":0,"arthritis_risk":5,"migraine_risk":10,"frizz_risk":0,"updated_at":"2026-05-08T13:23:09.352322+05:30"},{"city":"Lucknow","state":"Uttar Pradesh","latitude":26.8467,"longitude":80.9462,"temp":32.7,"humidity":40,"rain":0.0,"pressure":995.1,"uv_index":8.05,"wind_gusts":28.4,"aqi":97,"pm10":60.3,"pm2_5":24.7,"no2":1.1,"co":311.0,"o3":184.0,"so2":7.8,"mosquito_risk":0,"arthritis_risk":5,"migraine_risk":7,"frizz_risk":1,"updated_at":"2026-05-08T13:23:09.352331+05:30"},{"city":"Kanpur","state":"Uttar Pradesh","latitude":26.4499,"longitude":80.3319,"temp":33.8,"humidity":35,"rain":0.0,"pressure":993.1,"uv_index":8.05,"wind_gusts":27.4,"aqi":141,"pm10":277.5,"pm2_5":42.5,"no2":1.3,"co":286.0,"o3":192.0,"so2":9.1,"mosquito_risk":0,"arthritis_risk":5,"migraine_risk":7,"frizz_risk":1,"updated_at":"2026-05-08T13:23:09.352339+05:30"},{"city":"Chandigarh","state":"Chandigarh","latitude":30.7333,"longitude":76.7794,"temp":32.3,"humidity":30,"rain":0.0,"pressure":971.2,"uv_index":7.6,"wind_gusts":38.2,"aqi":90,"pm10":191.4,"pm2_5":40.2,"no2":1.6,"co":253.0,"o3":202.0,"so2":7.6,"mosquito_risk":0,"arthritis_risk":5,"migraine_risk":7,"frizz_risk":0,"updated_at":"2026-05-08T13:23:09.352348+05:30"},{"city":"Srinagar","state":"Jammu and Kashmir","latitude":34.0837,"longitude":74.7973,"temp":24.0,"humidity":42,"rain":0.0,"pressure":843.8,"uv_index":8.8,"wind_gusts":22.0,"aqi":81,"pm10":57.6,"pm2_5":12.3,"no2":1.2,"co":300.0,"o3":135.0,"so2":1.7,"mosquito_risk":0,"arthritis_risk":5,"migraine_risk":7,"frizz_risk":0,"updated_at":"2026-05-08T13:23:09.352356+05:30"},{"city":"Jammu","state":"Jammu and Kashmir","latitude":32.7266,"longitude":74.857,"temp":31.9,"humidity":35,"rain":0.0,"pressure":975.1,"uv_index":8.35,"wind_gusts":34.9,"aqi":100,"pm10":212.8,"pm2_5":45.1,"no2":0.8,"co":270.0,"o3":189.0,"so2":10.0,"mosquito_risk":0,"arthritis_risk":5,"migraine_risk":7,"frizz_risk":0,"updated_at":"2026-05-08T13:23:09.352365+05:30"},{"city":"Amritsar","state":"Punjab","latitude":31.634,"longitude":74.8723,"temp":34.0,"humidity":31,"rain":0.0,"pressure":982.6,"uv_index":8.25,"wind_gusts":31.3,"aqi":142,"pm10":488.0,"pm2_5":78.0,"no2":1.1,"co":275.0,"o3":185.0,"so2":11.2,"mosquito_risk":0,"arthritis_risk":5,"migraine_risk":7,"frizz_risk":0,"updated_at":"2026-05-08T13:23:09.352374+05:30"},{"city":"Ludhiana","state":"Punjab","latitude":30.901,"longitude":75.8573,"temp":33.0,"humidity":33,"rain":0.0,"pressure":980.4,"uv_index":7.8,"wind_gusts":30.2,"aqi":215,"pm10":618.4,"pm2_5":82.7,"no2":1.2,"co":272.0,"o3":194.0,"so2":8.6,"mosquito_risk":0,"arthritis_risk":5,"migraine_risk":7,"frizz_risk":0,"updated_at":"2026-05-08T13:23:09.352382+05:30"},{"city":"Jalandhar","state":"Punjab","latitude":31.326,"longitude":75.5762,"temp":32.7,"humidity":35,"rain":0.0,"pressure":981.8,"uv_index":8.0,"wind_gusts":31.3,"aqi":144,"pm10":448.0,"pm2_5":69.8,"no2":1.1,"co":278.0,"o3":191.0,"so2":10.4,"mosquito_risk":0,"arthritis_risk":5,"migraine_risk":7,"frizz_risk":0,"updated_at":"2026-05-08T13:23:09.352390+05:30"},{"city":"Dehradun","state":"Uttarakhand","latitude":30.6284,"longitude":78.0322,"temp":20.2,"humidity":54,"rain":0.0,"pressure":834.0,"uv_index":5.7,"wind_gusts":22.7,"aqi":64,"pm10":28.6,"pm2_5":13.1,"no2":1.0,"co":198.0,"o3":162.0,"so2":1.3,"mosquito_risk":0,"arthritis_risk":5,"migraine_risk":3,"frizz_risk":0,"updated_at":"2026-05-08T13:23:09.352400+05:30"},{"city":"Shimla","state":"Himachal Pradesh","latitude":31.1048,"longitude":77.1734,"temp":16.2,"humidity":59,"rain":0.0,"pressure":787.7,"uv_index":7.45,"wind_gusts":25.9,"aqi":93,"pm10":75.9,"pm2_5":25.6,"no2":1.0,"co":203.0,"o3":175.0,"so2":4.5,"mosquito_risk":0,"arthritis_risk":5,"migraine_risk":7,"frizz_risk":0,"updated_at":"2026-05-08T13:23:09.352407+05:30"},{"city":"Manali","state":"Himachal Pradesh","latitude":32.2396,"longitude":77.1887,"temp":16.4,"humidity":65,"rain":0.0,"pressure":820.1,"uv_index":9.9,"wind_gusts":34.6,"aqi":66,"pm10":33.8,"pm2_5":6.5,"no2":0.4,"co":166.0,"o3":155.0,"so2":0.3,"mosquito_risk":3,"arthritis_risk":5,"migraine_risk":7,"frizz_risk":0,"updated_at":"2026-05-08T13:23:09.352415+05:30"},{"city":"Gurgaon","state":"Haryana","latitude":28.4595,"longitude":77.0266,"temp":33.8,"humidity":32,"rain":0.0,"pressure":982.2,"uv_index":7.65,"wind_gusts":40.3,"aqi":1868,"pm10":1937.2,"pm2_5":195.6,"no2":3.2,"co":299.0,"o3":201.0,"so2":17.5,"mosquito_risk":0,"arthritis_risk":5,"migraine_risk":7,"frizz_risk":0,"updated_at":"2026-05-08T13:23:09.352422+05:30"},{"city":"Noida","state":"Uttar Pradesh","latitude":28.5355,"longitude":77.391,"temp":33.2,"humidity":36,"rain":0.0,"pressure":985.6,"uv_index":7.6,"wind_gusts":34.9,"aqi":1868,"pm10":1937.2,"pm2_5":195.6,"no2":3.2,"co":295.0,"o3":201.0,"so2":17.5,"mosquito_risk":0,"arthritis_risk":5,"migraine_risk":7,"frizz_risk":1,"updated_at":"2026-05-08T13:23:09.352429+05:30"},{"city":"Ghaziabad","state":"Uttar Pradesh","latitude":28.6692,"longitude":77.4538,"temp":33.2,"humidity":36,"rain":0.0,"pressure":984.1,"uv_index":7.55,"wind_gusts":37.4,"aqi":166,"pm10":348.3,"pm2_5":50.9,"no2":2.1,"co":257.0,"o3":189.0,"so2":8.3,"mosquito_risk":0,"arthritis_risk":5,"migraine_risk":7,"frizz_risk":0,"updated_at":"2026-05-08T13:23:09.352436+05:30"},{"city":"Faridabad","state":"Haryana","latitude":28.4089,"longitude":77.3178,"temp":33.0,"humidity":36,"rain":0.0,"pressure":984.6,"uv_index":7.6,"wind_gusts":37.4,"aqi":1868,"pm10":1937.2,"pm2_5":195.6,"no2":3.2,"co":285.0,"o3":201.0,"so2":17.5,"mosquito_risk":0,"arthritis_risk":5,"migraine_risk":7,"frizz_risk":0,"updated_at":"2026-05-08T13:23:09.352443+05:30"},{"city":"Meerut","state":"Uttar Pradesh","latitude":28.9845,"longitude":77.7064,"temp":31.5,"humidity":43,"rain":0.0,"pressure":983.4,"uv_index":7.5,"wind_gusts":38.2,"aqi":166,"pm10":348.3,"pm2_5":50.9,"no2":2.1,"co":280.0,"o3":189.0,"so2":8.3,"mosquito_risk":0,"arthritis_risk":5,"migraine_risk":7,"frizz_risk":1,"updated_at":"2026-05-08T13:23:09.352451+05:30"},{"city":"Agra","state":"Uttar Pradesh","latitude":27.1767,"longitude":78.0081,"temp":33.8,"humidity":34,"rain":0.0,"pressure":988.0,"uv_index":7.9,"wind_gusts":32.4,"aqi":1197,"pm10":1099.0,"pm2_5":109.2,"no2":1.1,"co":287.0,"o3":185.0,"so2":10.6,"mosquito_risk":0,"arthritis_risk":5,"migraine_risk":7,"frizz_risk":0,"updated_at":"2026-05-08T13:23:09.352457+05:30"},{"city":"Varanasi","state":"Uttar Pradesh","latitude":25.3176,"longitude":82.9739,"temp":35.2,"humidity":31,"rain":0.0,"pressure":998.6,"uv_index":8.55,"wind_gusts":28.1,"aqi":95,"pm10":52.9,"pm2_5":27.5,"no2":1.3,"co":327.0,"o3":201.0,"so2":10.2,"mosquito_risk":0,"arthritis_risk":5,"migraine_risk":10,"frizz_risk":0,"updated_at":"2026-05-08T13:23:09.352465+05:30"},{"city":"Prayagraj","state":"Uttar Pradesh","latitude":25.4358,"longitude":81.8463,"temp":35.8,"humidity":29,"rain":0.0,"pressure":997.1,"uv_index":8.45,"wind_gusts":32.0,"aqi":88,"pm10":52.2,"pm2_5":26.2,"no2":1.7,"co":295.0,"o3":196.0,"so2":8.6,"mosquito_risk":0,"arthritis_risk":5,"migraine_risk":10,"frizz_risk":0,"updated_at":"2026-05-08T13:23:09.352474+05:30"},{"city":"Gorakhpur","state":"Uttar Pradesh","latitude":26.7606,"longitude":83.3732,"temp":32.0,"humidity":41,"rain":0.0,"pressure":999.9,"uv_index":8.4,"wind_gusts":28.1,"aqi":102,"pm10":54.4,"pm2_5":24.8,"no2":1.3,"co":349.0,"o3":183.0,"so2":5.3,"mosquito_risk":0,"arthritis_risk":5,"migraine_risk":7,"frizz_risk":1,"updated_at":"2026-05-08T13:23:09.352481+05:30"},{"city":"Bareilly","state":"Uttar Pradesh","latitude":28.367,"longitude":79.4304,"temp":32.0,"humidity":41,"rain":0.0,"pressure":989.0,"uv_index":7.85,"wind_gusts":34.9,"aqi":85,"pm10":149.9,"pm2_5":34.1,"no2":2.1,"co":270.0,"o3":189.0,"so2":10.8,"mosquito_risk":0,"arthritis_risk":5,"migraine_risk":7,"frizz_risk":1,"updated_at":"2026-05-08T13:23:09.352488+05:30"},{"city":"Aligarh","state":"Uttar Pradesh","latitude":27.8974,"longitude":78.088,"temp":33.8,"humidity":33,"rain":0.0,"pressure":986.7,"uv_index":7.75,"wind_gusts":36.4,"aqi":720,"pm10":871.7,"pm2_5":90.6,"no2":1.3,"co":250.0,"o3":185.0,"so2":10.5,"mosquito_risk":0,"arthritis_risk":5,"migraine_risk":7,"frizz_risk":0,"updated_at":"2026-05-08T13:23:09.352494+05:30"},{"city":"Moradabad","state":"Uttar Pradesh","latitude":28.8386,"longitude":78.7733,"temp":31.4,"humidity":43,"rain":0.0,"pressure":986.1,"uv_index":7.65,"wind_gusts":37.1,"aqi":89,"pm10":60.3,"pm2_5":23.2,"no2":2.0,"co":274.0,"o3":195.0,"so2":12.3,"mosquito_risk":0,"arthritis_risk":5,"migraine_risk":7,"frizz_risk":1,"updated_at":"2026-05-08T13:23:09.352501+05:30"},{"city":"Saharanpur","state":"Uttar Pradesh","latitude":29.9637,"longitude":77.546,"temp":30.6,"humidity":42,"rain":0.0,"pressure":978.3,"uv_index":7.25,"wind_gusts":36.0,"aqi":109,"pm10":105.2,"pm2_5":26.7,"no2":1.2,"co":274.0,"o3":187.0,"so2":6.5,"mosquito_risk":0,"arthritis_risk":5,"migraine_risk":7,"frizz_risk":0,"updated_at":"2026-05-08T13:23:09.352507+05:30"},{"city":"Jhansi","state":"Uttar Pradesh","latitude":25.4484,"longitude":78.5685,"temp":37.2,"humidity":24,"rain":0.0,"pressure":978.3,"uv_index":8.35,"wind_gusts":24.1,"aqi":80,"pm10":38.3,"pm2_5":25.2,"no2":2.0,"co":236.0,"o3":190.0,"so2":22.0,"mosquito_risk":0,"arthritis_risk":5,"migraine_risk":10,"frizz_risk":0,"updated_at":"2026-05-08T13:23:12.582177+05:30"},{"city":"Surat","state":"Gujarat","latitude":21.1702,"longitude":72.8311,"temp":37.3,"humidity":42,"rain":0.0,"pressure":1005.6,"uv_index":7.7,"wind_gusts":33.5,"aqi":128,"pm10":82.9,"pm2_5":49.1,"no2":47.5,"co":558.0,"o3":75.0,"so2":118.7,"mosquito_risk":0,"arthritis_risk":5,"migraine_risk":7,"frizz_risk":1,"updated_at":"2026-05-08T13:23:12.582213+05:30"},{"city":"Vadodara","state":"Gujarat","latitude":22.3072,"longitude":73.1812,"temp":40.8,"humidity":15,"rain":0.0,"pressure":1003.0,"uv_index":8.05,"wind_gusts":28.8,"aqi":93,"pm10":51.9,"pm2_5":21.2,"no2":3.6,"co":269.0,"o3":176.0,"so2":14.8,"mosquito_risk":0,"arthritis_risk":5,"migraine_risk":7,"frizz_risk":0,"updated_at":"2026-05-08T13:23:12.582223+05:30"},{"city":"Rajkot","state":"Gujarat","latitude":22.3039,"longitude":70.8022,"temp":40.8,"humidity":14,"rain":0.0,"pressure":993.3,"uv_index":7.7,"wind_gusts":47.5,"aqi":57,"pm10":54.8,"pm2_5":18.2,"no2":1.8,"co":157.0,"o3":138.0,"so2":8.5,"mosquito_risk":0,"arthritis_risk":5,"migraine_risk":10,"frizz_risk":0,"updated_at":"2026-05-08T13:23:12.582232+05:30"},{"city":"Thane","state":"Maharashtra","latitude":19.2183,"longitude":72.9781,"temp":40.7,"humidity":22,"rain":0.0,"pressure":1005.4,"uv_index":7.85,"wind_gusts":43.2,"aqi":91,"pm10":94.3,"pm2_5":48.1,"no2":9.3,"co":206.0,"o3":209.0,"so2":37.6,"mosquito_risk":0,"arthritis_risk":5,"migraine_risk":7,"frizz_risk":0,"updated_at":"2026-05-08T13:23:12.582240+05:30"},{"city":"Nagpur","state":"Maharashtra","latitude":21.1458,"longitude":79.0882,"temp":38.3,"humidity":22,"rain":0.0,"pressure":973.6,"uv_index":8.9,"wind_gusts":32.0,"aqi":139,"pm10":35.9,"pm2_5":25.7,"no2":5.1,"co":221.0,"o3":239.0,"so2":22.6,"mosquito_risk":0,"arthritis_risk":5,"migraine_risk":10,"frizz_risk":0,"updated_at":"2026-05-08T13:23:12.582247+05:30"},{"city":"Nashik","state":"Maharashtra","latitude":19.9975,"longitude":73.7898,"temp":36.5,"humidity":19,"rain":0.0,"pressure":945.8,"uv_index":8.15,"wind_gusts":42.8,"aqi":97,"pm10":69.6,"pm2_5":22.2,"no2":1.0,"co":180.0,"o3":144.0,"so2":3.2,"mosquito_risk":0,"arthritis_risk":5,"migraine_risk":10,"frizz_risk":0,"updated_at":"2026-05-08T13:23:12.582255+05:30"},{"city":"Aurangabad","state":"Maharashtra","latitude":19.8762,"longitude":75.3433,"temp":37.6,"humidity":20,"rain":0.0,"pressure":944.7,"uv_index":9.05,"wind_gusts":31.7,"aqi":85,"pm10":59.0,"pm2_5":27.2,"no2":1.0,"co":212.0,"o3":171.0,"so2":11.2,"mosquito_risk":0,"arthritis_risk":5,"migraine_risk":10,"frizz_risk":0,"updated_at":"2026-05-08T13:23:12.582262+05:30"},{"city":"Solapur","state":"Maharashtra","latitude":17.6599,"longitude":75.9064,"temp":37.9,"humidity":25,"rain":0.0,"pressure":956.9,"uv_index":9.05,"wind_gusts":37.4,"aqi":88,"pm10":30.3,"pm2_5":18.7,"no2":1.1,"co":199.0,"o3":150.0,"so2":4.3,"mosquito_risk":0,"arthritis_risk":5,"migraine_risk":10,"frizz_risk":0,"updated_at":"2026-05-08T13:23:12.582270+05:30"},{"city":"Kolhapur","state":"Maharashtra","latitude":16.705,"longitude":74.2433,"temp":36.8,"humidity":26,"rain":0.0,"pressure":947.3,"uv_index":8.95,"wind_gusts":51.8,"aqi":135,"pm10":47.6,"pm2_5":30.7,"no2":0.7,"co":235.0,"o3":167.0,"so2":4.9,"mosquito_risk":0,"arthritis_risk":5,"migraine_risk":10,"frizz_risk":0,"updated_at":"2026-05-08T13:23:12.582277+05:30"},{"city":"Goa","state":"Goa","latitude":15.2993,"longitude":74.124,"temp":39.8,"humidity":29,"rain":0.0,"pressure":994.3,"uv_index":8.85,"wind_gusts":42.8,"aqi":111,"pm10":51.1,"pm2_5":28.5,"no2":1.7,"co":245.0,"o3":158.0,"so2":5.3,"mosquito_risk":0,"arthritis_risk":5,"migraine_risk":10,"frizz_risk":1,"updated_at":"2026-05-08T13:23:12.582284+05:30"},{"city":"Jodhpur","state":"Rajasthan","latitude":26.2389,"longitude":73.0243,"temp":40.3,"humidity":15,"rain":0.0,"pressure":981.9,"uv_index":8.3,"wind_gusts":38.9,"aqi":130,"pm10":178.8,"pm2_5":32.0,"no2":0.7,"co":157.0,"o3":131.0,"so2":2.9,"mosquito_risk":0,"arthritis_risk":5,"migraine_risk":10,"frizz_risk":0,"updated_at":"2026-05-08T13:23:12.582291+05:30"},{"city":"Udaipur","state":"Rajasthan","latitude":24.5854,"longitude":73.7125,"temp":38.5,"humidity":11,"rain":0.0,"pressure":946.7,"uv_index":8.75,"wind_gusts":32.4,"aqi":65,"pm10":58.2,"pm2_5":14.1,"no2":0.4,"co":155.0,"o3":134.0,"so2":2.7,"mosquito_risk":0,"arthritis_risk":5,"migraine_risk":10,"frizz_risk":0,"updated_at":"2026-05-08T13:23:12.582298+05:30"},{"city":"Kota","state":"Rajasthan","latitude":25.2138,"longitude":75.8648,"temp":40.3,"humidity":15,"rain":0.0,"pressure":977.7,"uv_index":8.35,"wind_gusts":38.9,"aqi":73,"pm10":54.2,"pm2_5":18.7,"no2":1.1,"co":184.0,"o3":153.0,"so2":4.1,"mosquito_risk":0,"arthritis_risk":5,"migraine_risk":10,"frizz_risk":0,"updated_at":"2026-05-08T13:23:12.582305+05:30"},{"city":"Bikaner","state":"Rajasthan","latitude":28.0229,"longitude":73.3119,"temp":38.9,"humidity":17,"rain":0.0,"pressure":981.0,"uv_index":8.25,"wind_gusts":32.4,"aqi":63,"pm10":126.2,"pm2_5":33.3,"no2":0.9,"co":206.0,"o3":167.0,"so2":11.0,"mosquito_risk":0,"arthritis_risk":5,"migraine_risk":10,"frizz_risk":0,"updated_at":"2026-05-08T13:23:12.582312+05:30"},{"city":"Ajmer","state":"Rajasthan","latitude":26.4499,"longitude":74.6399,"temp":38.3,"humidity":15,"rain":0.0,"pressure":954.3,"uv_index":8.25,"wind_gusts":55.8,"aqi":64,"pm10":75.7,"pm2_5":21.2,"no2":0.6,"co":153.0,"o3":131.0,"so2":3.4,"mosquito_risk":0,"arthritis_risk":5,"migraine_risk":10,"frizz_risk":0,"updated_at":"2026-05-08T13:23:12.582318+05:30"},{"city":"Gwalior","state":"Madhya Pradesh","latitude":26.2183,"longitude":78.1828,"temp":34.3,"humidity":35,"rain":0.0,"pressure":983.1,"uv_index":8.15,"wind_gusts":62.3,"aqi":88,"pm10":35.4,"pm2_5":23.6,"no2":1.2,"co":227.0,"o3":179.0,"so2":11.5,"mosquito_risk":0,"arthritis_risk":5,"migraine_risk":7,"frizz_risk":1,"updated_at":"2026-05-08T13:23:12.582325+05:30"},{"city":"Indore","state":"Madhya Pradesh","latitude":22.7196,"longitude":75.8577,"temp":39.2,"humidity":12,"rain":0.0,"pressure":948.6,"uv_index":8.65,"wind_gusts":31.0,"aqi":76,"pm10":51.0,"pm2_5":17.0,"no2":0.8,"co":200.0,"o3":162.0,"so2":4.5,"mosquito_risk":0,"arthritis_risk":5,"migraine_risk":10,"frizz_risk":0,"updated_at":"2026-05-08T13:23:12.582331+05:30"},{"city":"Bhopal","state":"Madhya Pradesh","latitude":23.2599,"longitude":77.4126,"temp":39.3,"humidity":16,"rain":0.0,"pressure":954.1,"uv_index":8.65,"wind_gusts":38.9,"aqi":79,"pm10":38.0,"pm2_5":20.4,"no2":0.7,"co":194.0,"o3":163.0,"so2":6.3,"mosquito_risk":0,"arthritis_risk":5,"migraine_risk":10,"frizz_risk":0,"updated_at":"2026-05-08T13:23:12.582338+05:30"},{"city":"Jabalpur","state":"Madhya Pradesh","latitude":23.1815,"longitude":79.9864,"temp":38.5,"humidity":16,"rain":0.0,"pressure":962.2,"uv_index":8.8,"wind_gusts":35.3,"aqi":92,"pm10":31.2,"pm2_5":17.9,"no2":0.9,"co":216.0,"o3":179.0,"so2":6.9,"mosquito_risk":0,"arthritis_risk":5,"migraine_risk":10,"frizz_risk":0,"updated_at":"2026-05-08T13:23:12.582344+05:30"},{"city":"Ujjain","state":"Madhya Pradesh","latitude":23.1765,"longitude":75.7885,"temp":39.9,"humidity":12,"rain":0.0,"pressure":953.8,"uv_index":8.55,"wind_gusts":26.6,"aqi":75,"pm10":55.5,"pm2_5":18.8,"no2":0.6,"co":193.0,"o3":158.0,"so2":4.6,"mosquito_risk":0,"arthritis_risk":5,"migraine_risk":10,"frizz_risk":0,"updated_at":"2026-05-08T13:23:12.582351+05:30"},{"city":"Visakhapatnam","state":"Andhra Pradesh","latitude":17.6868,"longitude":83.2185,"temp":33.4,"humidity":55,"rain":0.0,"pressure":1003.6,"uv_index":9.15,"wind_gusts":35.6,"aqi":64,"pm10":19.4,"pm2_5":14.9,"no2":14.2,"co":704.0,"o3":50.0,"so2":19.5,"mosquito_risk":0,"arthritis_risk":5,"migraine_risk":4,"frizz_risk":1,"updated_at":"2026-05-08T13:23:12.582357+05:30"},{"city":"Vijayawada","state":"Andhra Pradesh","latitude":16.5062,"longitude":80.648,"temp":37.8,"humidity":39,"rain":0.0,"pressure":1001.5,"uv_index":9.2,"wind_gusts":39.6,"aqi":51,"pm10":12.1,"pm2_5":8.0,"no2":1.1,"co":163.0,"o3":79.0,"so2":4.0,"mosquito_risk":0,"arthritis_risk":5,"migraine_risk":7,"frizz_risk":1,"updated_at":"2026-05-08T13:23:12.582364+05:30"},{"city":"Guntur","state":"Andhra Pradesh","latitude":16.3067,"longitude":80.4365,"temp":38.2,"humidity":37,"rain":0.0,"pressure":1002.6,"uv_index":9.2,"wind_gusts":41.4,"aqi":51,"pm10":12.6,"pm2_5":8.9,"no2":1.1,"co":191.0,"o3":89.0,"so2":4.1,"mosquito_risk":0,"arthritis_risk":5,"migraine_risk":7,"frizz_risk":1,"updated_at":"2026-05-08T13:23:12.582370+05:30"},{"city":"Nellore","state":"Andhra Pradesh","latitude":14.4426,"longitude":79.9865,"temp":34.0,"humidity":54,"rain":0.0,"pressure":1004.9,"uv_index":9.1,"wind_gusts":42.5,"aqi":23,"pm10":6.1,"pm2_5":4.3,"no2":0.8,"co":123.0,"o3":64.0,"so2":1.7,"mosquito_risk":0,"arthritis_risk":5,"migraine_risk":4,"frizz_risk":1,"updated_at":"2026-05-08T13:23:12.582378+05:30"},{"city":"Kurnool","state":"Andhra Pradesh","latitude":15.8281,"longitude":78.0373,"temp":38.5,"humidity":26,"rain":0.0,"pressure":975.8,"uv_index":9.15,"wind_gusts":52.6,"aqi":37,"pm10":11.4,"pm2_5":7.1,"no2":0.7,"co":162.0,"o3":100.0,"so2":0.9,"mosquito_risk":0,"arthritis_risk":5,"migraine_risk":10,"frizz_risk":0,"updated_at":"2026-05-08T13:23:12.582385+05:30"},{"city":"Kakinada","state":"Andhra Pradesh","latitude":16.9891,"longitude":82.2475,"temp":32.0,"humidity":63,"rain":0.0,"pressure":1007.4,"uv_index":9.15,"wind_gusts":40.7,"aqi":27,"pm10":9.1,"pm2_5":6.2,"no2":0.6,"co":133.0,"o3":54.0,"so2":0.5,"mosquito_risk":3,"arthritis_risk":5,"migraine_risk":4,"frizz_risk":1,"updated_at":"2026-05-08T13:23:12.582392+05:30"},{"city":"Tirupati","state":"Andhra Pradesh","latitude":13.6288,"longitude":79.4192,"temp":35.8,"humidity":42,"rain":0.0,"pressure":989.6,"uv_index":8.4,"wind_gusts":49.0,"aqi":33,"pm10":3.3,"pm2_5":2.5,"no2":0.5,"co":134.0,"o3":58.0,"so2":0.4,"mosquito_risk":0,"arthritis_risk":5,"migraine_risk":10,"frizz_risk":1,"updated_at":"2026-05-08T13:23:12.582398+05:30"},{"city":"Warangal","state":"Telangana","latitude":17.9689,"longitude":79.5941,"temp":36.3,"humidity":36,"rain":0.0,"pressure":978.9,"uv_index":9.15,"wind_gusts":27.7,"aqi":63,"pm10":18.0,"pm2_5":13.6,"no2":1.5,"co":200.0,"o3":139.0,"so2":6.4,"mosquito_risk":0,"arthritis_risk":5,"migraine_risk":10,"frizz_risk":1,"updated_at":"2026-05-08T13:23:12.582405+05:30"},{"city":"Nizamabad","state":"Telangana","latitude":18.6725,"longitude":78.0941,"temp":37.2,"humidity":29,"rain":0.0,"pressure":964.9,"uv_index":9.1,"wind_gusts":26.3,"aqi":85,"pm10":29.0,"pm2_5":18.5,"no2":1.0,"co":203.0,"o3":159.0,"so2":4.6,"mosquito_risk":0,"arthritis_risk":5,"migraine_risk":10,"frizz_risk":1,"updated_at":"2026-05-08T13:23:12.582411+05:30"},{"city":"Mysore","state":"Karnataka","latitude":12.2958,"longitude":76.6396,"temp":32.5,"humidity":42,"rain":0.0,"pressure":927.5,"uv_index":8.9,"wind_gusts":32.4,"aqi":77,"pm10":14.3,"pm2_5":11.6,"no2":1.4,"co":213.0,"o3":119.0,"so2":3.7,"mosquito_risk":0,"arthritis_risk":5,"migraine_risk":7,"frizz_risk":1,"updated_at":"2026-05-08T13:23:12.582418+05:30"},{"city":"Mangalore","state":"Karnataka","latitude":12.9141,"longitude":74.856,"temp":32.7,"humidity":66,"rain":0.0,"pressure":1003.4,"uv_index":9.0,"wind_gusts":37.8,"aqi":77,"pm10":45.4,"pm2_5":28.4,"no2":1.5,"co":210.0,"o3":156.0,"so2":3.3,"mosquito_risk":3,"arthritis_risk":5,"migraine_risk":4,"frizz_risk":1,"updated_at":"2026-05-08T13:23:12.582424+05:30"},{"city":"Hubli-Dharwad","state":"Karnataka","latitude":15.3647,"longitude":75.124,"temp":36.0,"humidity":28,"rain":0.0,"pressure":940.2,"uv_index":9.1,"wind_gusts":39.6,"aqi":86,"pm10":17.5,"pm2_5":12.1,"no2":1.1,"co":182.0,"o3":143.0,"so2":3.2,"mosquito_risk":0,"arthritis_risk":5,"migraine_risk":10,"frizz_risk":0,"updated_at":"2026-05-08T13:23:12.582431+05:30"},{"city":"Belgaum","state":"Karnataka","latitude":15.8497,"longitude":74.4977,"temp":34.9,"humidity":27,"rain":0.0,"pressure":925.7,"uv_index":9.15,"wind_gusts":39.6,"aqi":97,"pm10":27.4,"pm2_5":19.0,"no2":1.4,"co":225.0,"o3":154.0,"so2":4.7,"mosquito_risk":0,"arthritis_risk":5,"migraine_risk":7,"frizz_risk":0,"updated_at":"2026-05-08T13:23:15.801197+05:30"},{"city":"Coimbatore","state":"Tamil Nadu","latitude":11.0168,"longitude":76.9558,"temp":31.4,"humidity":56,"rain":0.0,"pressure":960.1,"uv_index":9.15,"wind_gusts":31.0,"aqi":66,"pm10":15.4,"pm2_5":13.7,"no2":1.3,"co":220.0,"o3":120.0,"so2":6.4,"mosquito_risk":0,"arthritis_risk":5,"migraine_risk":7,"frizz_risk":1,"updated_at":"2026-05-08T13:23:15.801234+05:30"},{"city":"Madurai","state":"Tamil Nadu","latitude":9.9252,"longitude":78.1198,"temp":34.7,"humidity":47,"rain":0.0,"pressure":990.5,"uv_index":8.5,"wind_gusts":36.0,"aqi":52,"pm10":9.4,"pm2_5":9.2,"no2":2.1,"co":189.0,"o3":96.0,"so2":4.7,"mosquito_risk":0,"arthritis_risk":5,"migraine_risk":7,"frizz_risk":1,"updated_at":"2026-05-08T13:23:15.801246+05:30"},{"city":"Trichy","state":"Tamil Nadu","latitude":10.7905,"longitude":78.7047,"temp":35.8,"humidity":45,"rain":0.0,"pressure":997.2,"uv_index":8.55,"wind_gusts":43.2,"aqi":47,"pm10":9.7,"pm2_5":9.4,"no2":5.3,"co":170.0,"o3":71.0,"so2":15.6,"mosquito_risk":0,"arthritis_risk":5,"migraine_risk":10,"frizz_risk":1,"updated_at":"2026-05-08T13:23:15.801255+05:30"},{"city":"Salem","state":"Tamil Nadu","latitude":11.6643,"longitude":78.146,"temp":33.7,"humidity":49,"rain":0.0,"pressure":975.3,"uv_index":7.6,"wind_gusts":35.3,"aqi":66,"pm10":10.2,"pm2_5":9.8,"no2":2.6,"co":189.0,"o3":100.0,"so2":11.7,"mosquito_risk":0,"arthritis_risk":5,"migraine_risk":7,"frizz_risk":1,"updated_at":"2026-05-08T13:23:15.801262+05:30"},{"city":"Tirunelveli","state":"Tamil Nadu","latitude":8.7139,"longitude":77.7567,"temp":37.3,"humidity":37,"rain":0.0,"pressure":1000.3,"uv_index":8.55,"wind_gusts":37.4,"aqi":55,"pm10":5.3,"pm2_5":4.9,"no2":0.9,"co":192.0,"o3":95.0,"so2":1.6,"mosquito_risk":0,"arthritis_risk":5,"migraine_risk":7,"frizz_risk":1,"updated_at":"2026-05-08T13:23:15.801270+05:30"},{"city":"Vellore","state":"Tamil Nadu","latitude":12.9165,"longitude":79.1325,"temp":35.7,"humidity":42,"rain":0.0,"pressure":982.8,"uv_index":7.05,"wind_gusts":47.2,"aqi":41,"pm10":7.0,"pm2_5":6.6,"no2":2.0,"co":141.0,"o3":87.0,"so2":5.8,"mosquito_risk":0,"arthritis_risk":5,"migraine_risk":10,"frizz_risk":1,"updated_at":"2026-05-08T13:23:15.801278+05:30"},{"city":"Erode","state":"Tamil Nadu","latitude":11.341,"longitude":77.7172,"temp":33.5,"humidity":52,"rain":0.0,"pressure":987.0,"uv_index":9.0,"wind_gusts":33.8,"aqi":55,"pm10":19.7,"pm2_5":19.1,"no2":2.3,"co":227.0,"o3":118.0,"so2":9.9,"mosquito_risk":0,"arthritis_risk":5,"migraine_risk":7,"frizz_risk":1,"updated_at":"2026-05-08T13:23:15.801285+05:30"},{"city":"Kochi","state":"Kerala","latitude":9.9312,"longitude":76.2673,"temp":30.8,"humidity":73,"rain":0.0,"pressure":1005.7,"uv_index":7.4,"wind_gusts":26.6,"aqi":60,"pm10":17.6,"pm2_5":16.2,"no2":3.2,"co":309.0,"o3":169.0,"so2":4.6,"mosquito_risk":3,"arthritis_risk":5,"migraine_risk":4,"frizz_risk":1,"updated_at":"2026-05-08T13:23:15.801293+05:30"},{"city":"Thiruvananthapuram","state":"Kerala","latitude":8.5241,"longitude":76.9366,"temp":31.5,"humidity":69,"rain":0.0,"pressure":1005.5,"uv_index":8.3,"wind_gusts":21.6,"aqi":51,"pm10":14.7,"pm2_5":12.4,"no2":1.7,"co":245.0,"o3":150.0,"so2":3.9,"mosquito_risk":3,"arthritis_risk":5,"migraine_risk":4,"frizz_risk":1,"updated_at":"2026-05-08T13:23:15.801300+05:30"},{"city":"Kozhikode","state":"Kerala","latitude":11.2588,"longitude":75.7804,"temp":31.5,"humidity":74,"rain":0.0,"pressure":1004.8,"uv_index":9.0,"wind_gusts":31.0,"aqi":76,"pm10":33.8,"pm2_5":24.0,"no2":1.0,"co":279.0,"o3":154.0,"so2":3.8,"mosquito_risk":3,"arthritis_risk":5,"migraine_risk":4,"frizz_risk":1,"updated_at":"2026-05-08T13:23:15.801307+05:30"},{"city":"Thrissur","state":"Kerala","latitude":10.5276,"longitude":76.2144,"temp":33.4,"humidity":58,"rain":0.1,"pressure":1003.9,"uv_index":9.0,"wind_gusts":27.4,"aqi":68,"pm10":15.3,"pm2_5":14.9,"no2":1.9,"co":268.0,"o3":122.0,"so2":5.4,"mosquito_risk":3,"arthritis_risk":5,"migraine_risk":4,"frizz_risk":1,"updated_at":"2026-05-08T13:23:15.801315+05:30"},{"city":"Kannur","state":"Kerala","latitude":11.8745,"longitude":75.3704,"temp":31.9,"humidity":66,"rain":0.0,"pressure":1004.3,"uv_index":8.95,"wind_gusts":40.0,"aqi":76,"pm10":44.2,"pm2_5":27.5,"no2":1.4,"co":249.0,"o3":144.0,"so2":2.4,"mosquito_risk":3,"arthritis_risk":5,"migraine_risk":4,"frizz_risk":1,"updated_at":"2026-05-08T13:23:15.801322+05:30"},{"city":"Patna","state":"Bihar","latitude":25.5941,"longitude":85.1376,"temp":30.0,"humidity":53,"rain":0.0,"pressure":1002.8,"uv_index":8.45,"wind_gusts":25.6,"aqi":120,"pm10":63.8,"pm2_5":33.5,"no2":1.7,"co":337.0,"o3":210.0,"so2":11.1,"mosquito_risk":4,"arthritis_risk":5,"migraine_risk":4,"frizz_risk":1,"updated_at":"2026-05-08T13:23:15.801329+05:30"},{"city":"Gaya","state":"Bihar","latitude":24.7914,"longitude":85.0002,"temp":33.5,"humidity":38,"rain":0.0,"pressure":995.4,"uv_index":8.75,"wind_gusts":31.7,"aqi":118,"pm10":60.3,"pm2_5":39.5,"no2":2.2,"co":392.0,"o3":217.0,"so2":16.8,"mosquito_risk":0,"arthritis_risk":5,"migraine_risk":7,"frizz_risk":1,"updated_at":"2026-05-08T13:23:15.801336+05:30"},{"city":"Muzaffarpur","state":"Bihar","latitude":26.1209,"longitude":85.3647,"temp":31.1,"humidity":48,"rain":0.0,"pressure":1002.7,"uv_index":8.45,"wind_gusts":26.3,"aqi":123,"pm10":59.0,"pm2_5":38.0,"no2":2.0,"co":368.0,"o3":218.0,"so2":14.3,"mosquito_risk":0,"arthritis_risk":5,"migraine_risk":4,"frizz_risk":1,"updated_at":"2026-05-08T13:23:15.801342+05:30"},{"city":"Bhagalpur","state":"Bihar","latitude":25.2425,"longitude":87.0117,"temp":32.9,"humidity":40,"rain":0.0,"pressure":1003.1,"uv_index":8.6,"wind_gusts":25.6,"aqi":156,"pm10":58.9,"pm2_5":49.5,"no2":3.5,"co":326.0,"o3":225.0,"so2":12.7,"mosquito_risk":0,"arthritis_risk":5,"migraine_risk":4,"frizz_risk":1,"updated_at":"2026-05-08T13:23:15.801348+05:30"},{"city":"Ranchi","state":"Jharkhand","latitude":23.3441,"longitude":85.3096,"temp":31.2,"humidity":34,"rain":0.0,"pressure":939.7,"uv_index":9.2,"wind_gusts":40.7,"aqi":100,"pm10":45.3,"pm2_5":25.4,"no2":1.4,"co":227.0,"o3":194.0,"so2":17.3,"mosquito_risk":0,"arthritis_risk":5,"migraine_risk":7,"frizz_risk":0,"updated_at":"2026-05-08T13:23:15.801355+05:30"},{"city":"Jamshedpur","state":"Jharkhand","latitude":22.8046,"longitude":86.2029,"temp":35.3,"humidity":35,"rain":0.0,"pressure":991.8,"uv_index":9.0,"wind_gusts":47.5,"aqi":128,"pm10":44.9,"pm2_5":33.6,"no2":2.1,"co":498.0,"o3":196.0,"so2":21.3,"mosquito_risk":0,"arthritis_risk":5,"migraine_risk":10,"frizz_risk":1,"updated_at":"2026-05-08T13:23:15.801361+05:30"},{"city":"Dhanbad","state":"Jharkhand","latitude":23.7957,"longitude":86.4304,"temp":33.3,"humidity":42,"rain":0.0,"pressure":981.4,"uv_index":8.95,"wind_gusts":28.1,"aqi":168,"pm10":62.4,"pm2_5":48.7,"no2":16.1,"co":785.0,"o3":191.0,"so2":50.0,"mosquito_risk":0,"arthritis_risk":5,"migraine_risk":7,"frizz_risk":1,"updated_at":"2026-05-08T13:23:15.801368+05:30"},{"city":"Bokaro","state":"Jharkhand","latitude":23.6693,"longitude":86.1511,"temp":32.9,"humidity":43,"rain":0.0,"pressure":985.0,"uv_index":8.95,"wind_gusts":36.4,"aqi":162,"pm10":58.6,"pm2_5":36.7,"no2":10.4,"co":1119.0,"o3":186.0,"so2":37.5,"mosquito_risk":0,"arthritis_risk":5,"migraine_risk":7,"frizz_risk":1,"updated_at":"2026-05-08T13:23:15.801375+05:30"},{"city":"Bhubaneswar","state":"Odisha","latitude":20.2961,"longitude":85.8245,"temp":35.2,"humidity":46,"rain":0.0,"pressure":1002.8,"uv_index":9.1,"wind_gusts":36.0,"aqi":47,"pm10":16.9,"pm2_5":11.8,"no2":1.3,"co":175.0,"o3":104.0,"so2":4.7,"mosquito_risk":0,"arthritis_risk":5,"migraine_risk":7,"frizz_risk":1,"updated_at":"2026-05-08T13:23:15.801381+05:30"},{"city":"Cuttack","state":"Odisha","latitude":20.4625,"longitude":85.8828,"temp":35.5,"humidity":45,"rain":0.0,"pressure":1004.6,"uv_index":9.15,"wind_gusts":33.1,"aqi":47,"pm10":16.9,"pm2_5":11.8,"no2":1.3,"co":188.0,"o3":104.0,"so2":4.7,"mosquito_risk":0,"arthritis_risk":5,"migraine_risk":7,"frizz_risk":1,"updated_at":"2026-05-08T13:23:15.801388+05:30"},{"city":"Rourkela","state":"Odisha","latitude":22.2604,"longitude":84.8536,"temp":34.5,"humidity":43,"rain":0.0,"pressure":986.3,"uv_index":8.9,"wind_gusts":38.5,"aqi":110,"pm10":42.5,"pm2_5":31.8,"no2":1.6,"co":185.0,"o3":221.0,"so2":35.3,"mosquito_risk":0,"arthritis_risk":5,"migraine_risk":7,"frizz_risk":1,"updated_at":"2026-05-08T13:23:15.801395+05:30"},{"city":"Raipur","state":"Chhattisgarh","latitude":21.2514,"longitude":81.6296,"temp":38.3,"humidity":18,"rain":0.0,"pressure":974.9,"uv_index":8.95,"wind_gusts":26.6,"aqi":117,"pm10":31.2,"pm2_5":23.2,"no2":7.5,"co":236.0,"o3":238.0,"so2":7.0,"mosquito_risk":0,"arthritis_risk":5,"migraine_risk":10,"frizz_risk":0,"updated_at":"2026-05-08T13:23:15.801401+05:30"},{"city":"Bhilai","state":"Chhattisgarh","latitude":21.1938,"longitude":81.3509,"temp":38.0,"humidity":18,"rain":0.0,"pressure":975.4,"uv_index":8.95,"wind_gusts":28.1,"aqi":98,"pm10":30.3,"pm2_5":22.0,"no2":8.0,"co":449.0,"o3":217.0,"so2":5.4,"mosquito_risk":0,"arthritis_risk":5,"migraine_risk":10,"frizz_risk":0,"updated_at":"2026-05-08T13:23:15.801407+05:30"},{"city":"Guwahati","state":"Assam","latitude":26.1158,"longitude":91.7086,"temp":31.0,"humidity":51,"rain":0.0,"pressure":1003.0,"uv_index":8.65,"wind_gusts":23.8,"aqi":101,"pm10":43.2,"pm2_5":30.0,"no2":0.9,"co":318.0,"o3":160.0,"so2":2.5,"mosquito_risk":0,"arthritis_risk":5,"migraine_risk":4,"frizz_risk":1,"updated_at":"2026-05-08T13:23:15.801413+05:30"},{"city":"Agartala","state":"Tripura","latitude":23.8315,"longitude":91.2868,"temp":31.8,"humidity":55,"rain":0.0,"pressure":1007.3,"uv_index":8.85,"wind_gusts":19.8,"aqi":155,"pm10":42.3,"pm2_5":31.9,"no2":3.0,"co":304.0,"o3":215.0,"so2":3.5,"mosquito_risk":0,"arthritis_risk":5,"migraine_risk":4,"frizz_risk":1,"updated_at":"2026-05-08T13:23:15.801420+05:30"},{"city":"Shillong","state":"Meghalaya","latitude":25.5788,"longitude":91.8933,"temp":23.0,"humidity":47,"rain":0.0,"pressure":859.9,"uv_index":7.7,"wind_gusts":20.2,"aqi":81,"pm10":39.0,"pm2_5":23.5,"no2":0.8,"co":250.0,"o3":153.0,"so2":1.8,"mosquito_risk":0,"arthritis_risk":5,"migraine_risk":7,"frizz_risk":0,"updated_at":"2026-05-08T13:23:15.801426+05:30"},{"city":"Imphal","state":"Manipur","latitude":24.817,"longitude":93.9368,"temp":29.1,"humidity":40,"rain":0.0,"pressure":924.6,"uv_index":9.2,"wind_gusts":31.7,"aqi":112,"pm10":20.1,"pm2_5":12.2,"no2":0.5,"co":213.0,"o3":150.0,"so2":1.7,"mosquito_risk":4,"arthritis_risk":5,"migraine_risk":7,"frizz_risk":0,"updated_at":"2026-05-08T13:23:15.801433+05:30"},{"city":"Aizawl","state":"Mizoram","latitude":23.7271,"longitude":92.7176,"temp":26.7,"humidity":44,"rain":0.0,"pressure":894.9,"uv_index":8.5,"wind_gusts":23.0,"aqi":78,"pm10":27.5,"pm2_5":17.2,"no2":0.4,"co":193.0,"o3":136.0,"so2":1.7,"mosquito_risk":4,"arthritis_risk":5,"migraine_risk":7,"frizz_risk":0,"updated_at":"2026-05-08T13:23:15.801440+05:30"},{"city":"Kohima","state":"Nagaland","latitude":25.6701,"longitude":94.1077,"temp":22.4,"humidity":72,"rain":0.1,"pressure":858.1,"uv_index":9.15,"wind_gusts":29.5,"aqi":87,"pm10":27.3,"pm2_5":18.3,"no2":0.5,"co":243.0,"o3":141.0,"so2":1.4,"mosquito_risk":6,"arthritis_risk":5,"migraine_risk":7,"frizz_risk":1,"updated_at":"2026-05-08T13:23:15.801446+05:30"},{"city":"Gangtok","state":"Sikkim","latitude":27.3314,"longitude":88.6138,"temp":18.3,"humidity":61,"rain":0.0,"pressure":840.4,"uv_index":8.95,"wind_gusts":35.3,"aqi":72,"pm10":22.8,"pm2_5":16.0,"no2":0.4,"co":239.0,"o3":137.0,"so2":1.1,"mosquito_risk":3,"arthritis_risk":5,"migraine_risk":7,"frizz_risk":0,"updated_at":"2026-05-08T13:23:15.801453+05:30"},{"city":"Siliguri","state":"West Bengal","latitude":26.7271,"longitude":88.3953,"temp":29.6,"humidity":49,"rain":0.1,"pressure":995.8,"uv_index":8.6,"wind_gusts":23.8,"aqi":115,"pm10":37.4,"pm2_5":25.8,"no2":0.8,"co":317.0,"o3":156.0,"so2":2.4,"mosquito_risk":7,"arthritis_risk":5,"migraine_risk":7,"frizz_risk":1,"updated_at":"2026-05-08T13:23:19.028227+05:30"},{"city":"Durgapur","state":"West Bengal","latitude":23.5204,"longitude":87.3119,"temp":31.8,"humidity":62,"rain":0.0,"pressure":996.5,"uv_index":8.85,"wind_gusts":31.7,"aqi":164,"pm10":65.2,"pm2_5":57.7,"no2":13.1,"co":354.0,"o3":203.0,"so2":54.9,"mosquito_risk":3,"arthritis_risk":5,"migraine_risk":7,"frizz_risk":1,"updated_at":"2026-05-08T13:23:19.028264+05:30"},{"city":"Asansol","state":"West Bengal","latitude":23.6739,"longitude":86.9524,"temp":32.8,"humidity":54,"rain":0.0,"pressure":995.1,"uv_index":8.85,"wind_gusts":29.2,"aqi":162,"pm10":61.5,"pm2_5":52.6,"no2":12.9,"co":472.0,"o3":192.0,"so2":50.3,"mosquito_risk":0,"arthritis_risk":5,"migraine_risk":7,"frizz_risk":1,"updated_at":"2026-05-08T13:23:19.028275+05:30"},{"city":"Pondicherry","state":"Puducherry","latitude":11.9139,"longitude":79.8145,"temp":29.5,"humidity":75,"rain":0.0,"pressure":1007.0,"uv_index":7.7,"wind_gusts":38.5,"aqi":22,"pm10":4.1,"pm2_5":2.9,"no2":1.5,"co":129.0,"o3":55.0,"so2":0.4,"mosquito_risk":7,"arthritis_risk":5,"migraine_risk":4,"frizz_risk":1,"updated_at":"2026-05-08T13:23:19.028284+05:30"},{"city":"Port Blair","state":"Andaman and Nicobar Islands","latitude":11.6234,"longitude":92.7265,"temp":29.9,"humidity":74,"rain":0.1,"pressure":1005.3,"uv_index":9.1,"wind_gusts":38.2,"aqi":34,"pm10":7.4,"pm2_5":5.8,"no2":0.4,"co":127.0,"o3":72.0,"so2":1.3,"mosquito_risk":10,"arthritis_risk":5,"migraine_risk":4,"frizz_risk":1,"updated_at":"2026-05-08T13:23:19.028292+05:30"},{"city":"Haridwar","state":"Uttarakhand","latitude":29.9457,"longitude":78.1642,"temp":31.3,"humidity":36,"rain":0.0,"pressure":976.6,"uv_index":7.4,"wind_gusts":29.9,"aqi":97,"pm10":69.6,"pm2_5":21.3,"no2":1.1,"co":227.0,"o3":185.0,"so2":4.9,"mosquito_risk":0,"arthritis_risk":5,"migraine_risk":7,"frizz_risk":0,"updated_at":"2026-05-08T13:23:19.028300+05:30"},{"city":"Rishikesh","state":"Uttarakhand","latitude":30.0869,"longitude":78.2676,"temp":30.2,"humidity":37,"rain":0.0,"pressure":969.3,"uv_index":7.45,"wind_gusts":19.1,"aqi":83,"pm10":51.0,"pm2_5":17.3,"no2":0.8,"co":218.0,"o3":178.0,"so2":3.3,"mosquito_risk":0,"arthritis_risk":5,"migraine_risk":7,"frizz_risk":0,"updated_at":"2026-05-08T13:23:19.028308+05:30"},{"city":"Nainital","state":"Uttarakhand","latitude":29.3919,"longitude":79.4542,"temp":18.4,"humidity":50,"rain":0.0,"pressure":808.9,"uv_index":8.2,"wind_gusts":30.2,"aqi":75,"pm10":31.1,"pm2_5":10.4,"no2":0.6,"co":213.0,"o3":153.0,"so2":1.1,"mosquito_risk":0,"arthritis_risk":5,"migraine_risk":7,"frizz_risk":0,"updated_at":"2026-05-08T13:23:19.028315+05:30"},{"city":"Mussoorie","state":"Uttarakhand","latitude":30.4599,"longitude":78.0664,"temp":18.2,"humidity":55,"rain":0.0,"pressure":806.4,"uv_index":6.15,"wind_gusts":24.8,"aqi":92,"pm10":44.8,"pm2_5":19.8,"no2":1.1,"co":219.0,"o3":176.0,"so2":3.4,"mosquito_risk":0,"arthritis_risk":5,"migraine_risk":7,"frizz_risk":0,"updated_at":"2026-05-08T13:23:19.028322+05:30"},{"city":"Dharamshala","state":"Himachal Pradesh","latitude":32.219,"longitude":76.3234,"temp":20.7,"humidity":65,"rain":0.0,"pressure":871.8,"uv_index":8.2,"wind_gusts":30.2,"aqi":56,"pm10":44.9,"pm2_5":18.5,"no2":0.6,"co":243.0,"o3":154.0,"so2":4.2,"mosquito_risk":3,"arthritis_risk":5,"migraine_risk":7,"frizz_risk":0,"updated_at":"2026-05-08T13:23:19.028329+05:30"},{"city":"Dalhousie","state":"Himachal Pradesh","latitude":32.5387,"longitude":75.971,"temp":17.7,"humidity":67,"rain":0.0,"pressure":807.7,"uv_index":8.45,"wind_gusts":37.8,"aqi":81,"pm10":78.0,"pm2_5":31.2,"no2":1.3,"co":252.0,"o3":195.0,"so2":12.0,"mosquito_risk":3,"arthritis_risk":5,"migraine_risk":7,"frizz_risk":0,"updated_at":"2026-05-08T13:23:19.028337+05:30"},{"city":"Patiala","state":"Punjab","latitude":30.3398,"longitude":76.3869,"temp":32.0,"humidity":36,"rain":0.0,"pressure":980.2,"uv_index":7.5,"wind_gusts":38.5,"aqi":784,"pm10":935.0,"pm2_5":104.3,"no2":1.7,"co":250.0,"o3":200.0,"so2":10.4,"mosquito_risk":0,"arthritis_risk":5,"migraine_risk":7,"frizz_risk":0,"updated_at":"2026-05-08T13:23:19.028345+05:30"},{"city":"Bhatinda","state":"Punjab","latitude":30.211,"longitude":74.9455,"temp":35.7,"humidity":27,"rain":0.0,"pressure":984.7,"uv_index":8.1,"wind_gusts":35.3,"aqi":851,"pm10":646.3,"pm2_5":100.6,"no2":2.6,"co":280.0,"o3":202.0,"so2":21.3,"mosquito_risk":0,"arthritis_risk":5,"migraine_risk":10,"frizz_risk":0,"updated_at":"2026-05-08T13:23:19.028352+05:30"},{"city":"Rohtak","state":"Haryana","latitude":28.8955,"longitude":76.6066,"temp":34.1,"humidity":34,"rain":0.0,"pressure":982.8,"uv_index":7.6,"wind_gusts":37.4,"aqi":818,"pm10":864.3,"pm2_5":109.9,"no2":3.2,"co":381.0,"o3":224.0,"so2":21.9,"mosquito_risk":0,"arthritis_risk":5,"migraine_risk":7,"frizz_risk":0,"updated_at":"2026-05-08T13:23:19.028358+05:30"},{"city":"Panipat","state":"Haryana","latitude":29.3909,"longitude":76.9635,"temp":32.4,"humidity":38,"rain":0.0,"pressure":982.4,"uv_index":7.45,"wind_gusts":38.5,"aqi":1415,"pm10":1270.3,"pm2_5":129.0,"no2":3.7,"co":279.0,"o3":217.0,"so2":21.2,"mosquito_risk":0,"arthritis_risk":5,"migraine_risk":7,"frizz_risk":1,"updated_at":"2026-05-08T13:23:19.028365+05:30"},{"city":"Mathura","state":"Uttar Pradesh","latitude":27.4924,"longitude":77.6737,"temp":34.2,"humidity":31,"rain":0.0,"pressure":987.3,"uv_index":7.85,"wind_gusts":35.6,"aqi":1240,"pm10":1274.0,"pm2_5":125.7,"no2":1.0,"co":275.0,"o3":183.0,"so2":8.8,"mosquito_risk":0,"arthritis_risk":5,"migraine_risk":7,"frizz_risk":0,"updated_at":"2026-05-08T13:23:19.028372+05:30"},{"city":"Vrindavan","state":"Uttar Pradesh","latitude":27.5823,"longitude":77.7027,"temp":34.2,"humidity":31,"rain":0.0,"pressure":987.8,"uv_index":7.85,"wind_gusts":36.0,"aqi":1240,"pm10":1274.0,"pm2_5":125.7,"no2":1.0,"co":266.0,"o3":183.0,"so2":8.8,"mosquito_risk":0,"arthritis_risk":5,"migraine_risk":7,"frizz_risk":0,"updated_at":"2026-05-08T13:23:19.028379+05:30"},{"city":"Ayodhya","state":"Uttar Pradesh","latitude":26.7922,"longitude":82.1998,"temp":31.6,"humidity":40,"rain":0.0,"pressure":998.0,"uv_index":8.2,"wind_gusts":28.8,"aqi":97,"pm10":67.5,"pm2_5":24.1,"no2":0.7,"co":266.0,"o3":175.0,"so2":5.1,"mosquito_risk":0,"arthritis_risk":5,"migraine_risk":7,"frizz_risk":1,"updated_at":"2026-05-08T13:23:19.028387+05:30"},{"city":"Ratlam","state":"Madhya Pradesh","latitude":23.3315,"longitude":75.0367,"temp":39.3,"humidity":14,"rain":0.0,"pressure":954.8,"uv_index":8.5,"wind_gusts":26.3,"aqi":74,"pm10":51.0,"pm2_5":17.8,"no2":0.6,"co":168.0,"o3":162.0,"so2":6.5,"mosquito_risk":0,"arthritis_risk":5,"migraine_risk":10,"frizz_risk":0,"updated_at":"2026-05-08T13:23:19.028394+05:30"},{"city":"Sagar","state":"Madhya Pradesh","latitude":23.8388,"longitude":78.7378,"temp":36.3,"humidity":19,"rain":0.0,"pressure":951.7,"uv_index":8.65,"wind_gusts":36.4,"aqi":82,"pm10":37.8,"pm2_5":16.5,"no2":0.6,"co":169.0,"o3":168.0,"so2":6.5,"mosquito_risk":0,"arthritis_risk":5,"migraine_risk":10,"frizz_risk":0,"updated_at":"2026-05-08T13:23:19.028401+05:30"},{"city":"Satna","state":"Madhya Pradesh","latitude":24.6005,"longitude":80.8322,"temp":34.8,"humidity":23,"rain":0.0,"pressure":972.8,"uv_index":8.7,"wind_gusts":42.8,"aqi":78,"pm10":39.8,"pm2_5":22.6,"no2":1.7,"co":224.0,"o3":197.0,"so2":13.7,"mosquito_risk":0,"arthritis_risk":5,"migraine_risk":7,"frizz_risk":0,"updated_at":"2026-05-08T13:23:19.028407+05:30"},{"city":"Akola","state":"Maharashtra","latitude":20.7002,"longitude":77.0082,"temp":39.0,"humidity":21,"rain":0.0,"pressure":975.0,"uv_index":8.85,"wind_gusts":26.3,"aqi":87,"pm10":44.5,"pm2_5":24.5,"no2":1.2,"co":201.0,"o3":169.0,"so2":8.7,"mosquito_risk":0,"arthritis_risk":5,"migraine_risk":10,"frizz_risk":0,"updated_at":"2026-05-08T13:23:19.028415+05:30"},{"city":"Amravati","state":"Maharashtra","latitude":20.9374,"longitude":77.7796,"temp":38.2,"humidity":23,"rain":0.0,"pressure":967.7,"uv_index":8.85,"wind_gusts":27.0,"aqi":90,"pm10":37.8,"pm2_5":22.2,"no2":1.4,"co":201.0,"o3":169.0,"so2":6.4,"mosquito_risk":0,"arthritis_risk":5,"migraine_risk":10,"frizz_risk":0,"updated_at":"2026-05-08T13:23:19.028422+05:30"},{"city":"Latur","state":"Maharashtra","latitude":18.4088,"longitude":76.5604,"temp":36.9,"humidity":25,"rain":0.0,"pressure":940.4,"uv_index":9.05,"wind_gusts":27.0,"aqi":89,"pm10":34.0,"pm2_5":19.8,"no2":0.9,"co":198.0,"o3":150.0,"so2":3.0,"mosquito_risk":0,"arthritis_risk":5,"migraine_risk":10,"frizz_risk":0,"updated_at":"2026-05-08T13:23:19.028428+05:30"},{"city":"Nanded","state":"Maharashtra","latitude":19.1383,"longitude":77.3091,"temp":38.0,"humidity":27,"rain":0.0,"pressure":968.6,"uv_index":8.95,"wind_gusts":25.9,"aqi":85,"pm10":32.5,"pm2_5":19.7,"no2":0.7,"co":205.0,"o3":156.0,"so2":4.2,"mosquito_risk":0,"arthritis_risk":5,"migraine_risk":10,"frizz_risk":0,"updated_at":"2026-05-08T13:23:19.028435+05:30"},{"city":"Gulbarga","state":"Karnataka","latitude":17.3297,"longitude":76.8343,"temp":37.0,"humidity":28,"rain":0.0,"pressure":958.7,"uv_index":9.05,"wind_gusts":32.8,"aqi":67,"pm10":23.9,"pm2_5":15.5,"no2":1.3,"co":192.0,"o3":143.0,"so2":4.2,"mosquito_risk":0,"arthritis_risk":5,"migraine_risk":10,"frizz_risk":0,"updated_at":"2026-05-08T13:23:19.028440+05:30"},{"city":"Bidar","state":"Karnataka","latitude":17.9104,"longitude":77.5199,"temp":35.2,"humidity":32,"rain":0.0,"pressure":936.4,"uv_index":9.1,"wind_gusts":27.4,"aqi":79,"pm10":27.6,"pm2_5":17.1,"no2":1.1,"co":192.0,"o3":152.0,"so2":3.6,"mosquito_risk":0,"arthritis_risk":5,"migraine_risk":10,"frizz_risk":0,"updated_at":"2026-05-08T13:23:19.028447+05:30"},{"city":"Hospet","state":"Karnataka","latitude":15.2689,"longitude":76.3909,"temp":33.2,"humidity":39,"rain":0.0,"pressure":955.2,"uv_index":9.2,"wind_gusts":36.4,"aqi":66,"pm10":16.3,"pm2_5":11.9,"no2":3.6,"co":168.0,"o3":122.0,"so2":8.7,"mosquito_risk":0,"arthritis_risk":5,"migraine_risk":7,"frizz_risk":1,"updated_at":"2026-05-08T13:23:19.028453+05:30"},{"city":"Tirupur","state":"Tamil Nadu","latitude":11.1085,"longitude":77.3411,"temp":32.5,"humidity":52,"rain":0.0,"pressure":973.5,"uv_index":9.05,"wind_gusts":40.7,"aqi":65,"pm10":19.7,"pm2_5":18.9,"no2":2.0,"co":212.0,"o3":130.0,"so2":9.7,"mosquito_risk":0,"arthritis_risk":5,"migraine_risk":7,"frizz_risk":1,"updated_at":"2026-05-08T13:23:19.028460+05:30"},{"city":"Alappuzha","state":"Kerala","latitude":9.4981,"longitude":76.3388,"temp":31.4,"humidity":70,"rain":0.0,"pressure":1006.0,"uv_index":8.95,"wind_gusts":31.3,"aqi":55,"pm10":21.0,"pm2_5":18.2,"no2":3.1,"co":213.0,"o3":174.0,"so2":7.1,"mosquito_risk":3,"arthritis_risk":5,"migraine_risk":4,"frizz_risk":1,"updated_at":"2026-05-08T13:23:19.028467+05:30"},{"city":"Munnar","state":"Kerala","latitude":10.0889,"longitude":77.0595,"temp":21.9,"humidity":75,"rain":0.1,"pressure":856.4,"uv_index":9.45,"wind_gusts":24.5,"aqi":46,"pm10":7.3,"pm2_5":6.9,"no2":1.0,"co":169.0,"o3":89.0,"so2":2.5,"mosquito_risk":6,"arthritis_risk":5,"migraine_risk":7,"frizz_risk":1,"updated_at":"2026-05-08T13:23:19.028474+05:30"},{"city":"Silchar","state":"Assam","latitude":24.8333,"longitude":92.7789,"temp":32.8,"humidity":47,"rain":0.0,"pressure":1005.3,"uv_index":6.75,"wind_gusts":22.7,"aqi":123,"pm10":32.1,"pm2_5":21.2,"no2":0.9,"co":249.0,"o3":159.0,"so2":3.2,"mosquito_risk":0,"arthritis_risk":5,"migraine_risk":4,"frizz_risk":1,"updated_at":"2026-05-08T13:23:19.028481+05:30"},{"city":"Dibrugarh","state":"Assam","latitude":27.4728,"longitude":94.912,"temp":30.6,"humidity":54,"rain":0.0,"pressure":996.7,"uv_index":8.8,"wind_gusts":50.0,"aqi":82,"pm10":36.2,"pm2_5":23.6,"no2":1.0,"co":254.0,"o3":147.0,"so2":1.4,"mosquito_risk":0,"arthritis_risk":5,"migraine_risk":7,"frizz_risk":1,"updated_at":"2026-05-08T13:23:19.028487+05:30"}]