[{"city":"Delhi","state":"Delhi","latitude":28.6139,"longitude":77.209,"temp":25.9,"humidity":53,"rain":0.0,"pressure":986.7,"uv_index":6.0,"wind_gusts":25.9,"aqi":166,"pm10":383.7,"pm2_5":80.1,"mosquito_risk":4,"arthritis_risk":5,"migraine_risk":3,"frizz_risk":0,"updated_at":"2026-03-08T20:57:38.159135+05:30"},{"city":"Mumbai","state":"Maharashtra","latitude":19.076,"longitude":72.8777,"temp":28.9,"humidity":66,"rain":0.0,"pressure":1009.4,"uv_index":7.5,"wind_gusts":25.6,"aqi":225,"pm10":45.9,"pm2_5":44.2,"mosquito_risk":7,"arthritis_risk":0,"migraine_risk":4,"frizz_risk":1,"updated_at":"2026-03-08T20:57:38.159174+05:30"},{"city":"Bangalore","state":"Karnataka","latitude":12.9716,"longitude":77.5946,"temp":25.8,"humidity":38,"rain":0.0,"pressure":913.2,"uv_index":9.25,"wind_gusts":28.4,"aqi":158,"pm10":39.9,"pm2_5":35.3,"mosquito_risk":4,"arthritis_risk":5,"migraine_risk":7,"frizz_risk":0,"updated_at":"2026-03-08T20:57:38.159206+05:30"},{"city":"Hyderabad","state":"Telangana","latitude":17.385,"longitude":78.4867,"temp":27.6,"humidity":48,"rain":0.0,"pressure":955.9,"uv_index":8.55,"wind_gusts":24.5,"aqi":136,"pm10":40.6,"pm2_5":33.1,"mosquito_risk":4,"arthritis_risk":5,"migraine_risk":7,"frizz_risk":0,"updated_at":"2026-03-08T20:57:38.159217+05:30"},{"city":"Chennai","state":"Tamil Nadu","latitude":13.0827,"longitude":80.2707,"temp":27.5,"humidity":72,"rain":0.0,"pressure":1010.0,"uv_index":8.95,"wind_gusts":32.4,"aqi":75,"pm10":26.8,"pm2_5":18.8,"mosquito_risk":7,"arthritis_risk":0,"migraine_risk":4,"frizz_risk":1,"updated_at":"2026-03-08T20:57:38.159226+05:30"},{"city":"Kolkata","state":"West Bengal","latitude":22.5726,"longitude":88.3639,"temp":24.4,"humidity":87,"rain":0.0,"pressure":1011.1,"uv_index":7.3,"wind_gusts":15.8,"aqi":151,"pm10":65.7,"pm2_5":60.8,"mosquito_risk":3,"arthritis_risk":0,"migraine_risk":4,"frizz_risk":1,"updated_at":"2026-03-08T20:57:38.159236+05:30"},{"city":"Pune","state":"Maharashtra","latitude":18.5204,"longitude":73.8567,"temp":30.8,"humidity":25,"rain":0.0,"pressure":950.3,"uv_index":8.05,"wind_gusts":30.6,"aqi":129,"pm10":17.5,"pm2_5":16.1,"mosquito_risk":0,"arthritis_risk":5,"migraine_risk":7,"frizz_risk":0,"updated_at":"2026-03-08T20:57:38.159248+05:30"},{"city":"Ahmedabad","state":"Gujarat","latitude":23.0225,"longitude":72.5714,"temp":28.5,"humidity":35,"rain":0.0,"pressure":1005.4,"uv_index":7.35,"wind_gusts":21.2,"aqi":142,"pm10":26.5,"pm2_5":24.0,"mosquito_risk":4,"arthritis_risk":5,"migraine_risk":4,"frizz_risk":0,"updated_at":"2026-03-08T20:57:38.159256+05:30"},{"city":"Jaipur","state":"Rajasthan","latitude":26.9124,"longitude":75.7873,"temp":28.9,"humidity":17,"rain":0.0,"pressure":963.9,"uv_index":6.75,"wind_gusts":25.9,"aqi":91,"pm10":103.8,"pm2_5":28.1,"mosquito_risk":4,"arthritis_risk":5,"migraine_risk":7,"frizz_risk":0,"updated_at":"2026-03-08T20:57:38.159264+05:30"},{"city":"Lucknow","state":"Uttar Pradesh","latitude":26.8467,"longitude":80.9462,"temp":27.7,"humidity":61,"rain":0.0,"pressure":997.8,"uv_index":6.5,"wind_gusts":19.4,"aqi":179,"pm10":169.5,"pm2_5":95.0,"mosquito_risk":7,"arthritis_risk":5,"migraine_risk":7,"frizz_risk":1,"updated_at":"2026-03-08T20:57:38.159272+05:30"},{"city":"Kanpur","state":"Uttar Pradesh","latitude":26.4499,"longitude":80.3319,"temp":26.0,"humidity":64,"rain":0.0,"pressure":995.9,"uv_index":6.5,"wind_gusts":16.9,"aqi":172,"pm10":192.8,"pm2_5":85.0,"mosquito_risk":7,"arthritis_risk":5,"migraine_risk":7,"frizz_risk":1,"updated_at":"2026-03-08T20:57:38.159279+05:30"},{"city":"Chandigarh","state":"Chandigarh","latitude":30.7333,"longitude":76.7794,"temp":22.6,"humidity":70,"rain":0.0,"pressure":972.6,"uv_index":5.9,"wind_gusts":28.1,"aqi":153,"pm10":64.5,"pm2_5":54.6,"mosquito_risk":3,"arthritis_risk":5,"migraine_risk":3,"frizz_risk":1,"updated_at":"2026-03-08T20:57:38.159286+05:30"},{"city":"Srinagar","state":"Jammu and Kashmir","latitude":34.0837,"longitude":74.7973,"temp":12.0,"humidity":71,"rain":0.0,"pressure":843.9,"uv_index":6.8,"wind_gusts":17.6,"aqi":118,"pm10":68.7,"pm2_5":54.2,"mosquito_risk":3,"arthritis_risk":5,"migraine_risk":7,"frizz_risk":0,"updated_at":"2026-03-08T20:57:38.159293+05:30"},{"city":"Jammu","state":"Jammu and Kashmir","latitude":32.7266,"longitude":74.857,"temp":24.8,"humidity":58,"rain":0.0,"pressure":977.0,"uv_index":6.45,"wind_gusts":25.2,"aqi":97,"pm10":72.4,"pm2_5":53.8,"mosquito_risk":0,"arthritis_risk":5,"migraine_risk":7,"frizz_risk":0,"updated_at":"2026-03-08T20:57:38.159300+05:30"},{"city":"Amritsar","state":"Punjab","latitude":31.634,"longitude":74.8723,"temp":23.5,"humidity":66,"rain":0.0,"pressure":985.2,"uv_index":6.45,"wind_gusts":19.1,"aqi":164,"pm10":101.0,"pm2_5":75.9,"mosquito_risk":3,"arthritis_risk":5,"migraine_risk":7,"frizz_risk":1,"updated_at":"2026-03-08T20:57:38.159306+05:30"},{"city":"Ludhiana","state":"Punjab","latitude":30.901,"longitude":75.8573,"temp":25.1,"humidity":71,"rain":0.0,"pressure":983.1,"uv_index":6.15,"wind_gusts":25.2,"aqi":171,"pm10":97.8,"pm2_5":62.2,"mosquito_risk":7,"arthritis_risk":5,"migraine_risk":7,"frizz_risk":1,"updated_at":"2026-03-08T20:57:38.159315+05:30"},{"city":"Jalandhar","state":"Punjab","latitude":31.326,"longitude":75.5762,"temp":24.2,"humidity":72,"rain":0.0,"pressure":984.3,"uv_index":6.3,"wind_gusts":23.4,"aqi":170,"pm10":96.4,"pm2_5":63.1,"mosquito_risk":3,"arthritis_risk":5,"migraine_risk":7,"frizz_risk":1,"updated_at":"2026-03-08T20:57:38.159331+05:30"},{"city":"Dehradun","state":"Uttarakhand","latitude":30.6284,"longitude":78.0322,"temp":16.0,"humidity":93,"rain":0.0,"pressure":833.2,"uv_index":6.3,"wind_gusts":37.1,"aqi":93,"pm10":50.4,"pm2_5":36.7,"mosquito_risk":3,"arthritis_risk":10,"migraine_risk":7,"frizz_risk":0,"updated_at":"2026-03-08T20:57:38.159339+05:30"},{"city":"Shimla","state":"Himachal Pradesh","latitude":31.1048,"longitude":77.1734,"temp":14.1,"humidity":82,"rain":0.0,"pressure":787.6,"uv_index":6.3,"wind_gusts":46.4,"aqi":101,"pm10":42.4,"pm2_5":24.7,"mosquito_risk":3,"arthritis_risk":10,"migraine_risk":7,"frizz_risk":0,"updated_at":"2026-03-08T20:57:38.159346+05:30"},{"city":"Manali","state":"Himachal Pradesh","latitude":32.2396,"longitude":77.1887,"temp":16.5,"humidity":67,"rain":0.0,"pressure":825.0,"uv_index":8.05,"wind_gusts":30.6,"aqi":92,"pm10":33.6,"pm2_5":15.9,"mosquito_risk":3,"arthritis_risk":5,"migraine_risk":7,"frizz_risk":0,"updated_at":"2026-03-08T20:57:38.159352+05:30"},{"city":"Gurgaon","state":"Haryana","latitude":28.4595,"longitude":77.0266,"temp":23.3,"humidity":60,"rain":0.0,"pressure":985.1,"uv_index":6.1,"wind_gusts":20.5,"aqi":353,"pm10":586.7,"pm2_5":103.6,"mosquito_risk":0,"arthritis_risk":5,"migraine_risk":7,"frizz_risk":0,"updated_at":"2026-03-08T20:57:38.159359+05:30"},{"city":"Noida","state":"Uttar Pradesh","latitude":28.5355,"longitude":77.391,"temp":25.6,"humidity":52,"rain":0.0,"pressure":988.3,"uv_index":6.0,"wind_gusts":25.9,"aqi":353,"pm10":586.7,"pm2_5":103.6,"mosquito_risk":4,"arthritis_risk":5,"migraine_risk":3,"frizz_risk":0,"updated_at":"2026-03-08T20:57:38.159366+05:30"},{"city":"Ghaziabad","state":"Uttar Pradesh","latitude":28.6692,"longitude":77.4538,"temp":25.4,"humidity":57,"rain":0.0,"pressure":986.4,"uv_index":5.95,"wind_gusts":25.6,"aqi":170,"pm10":314.8,"pm2_5":68.5,"mosquito_risk":4,"arthritis_risk":5,"migraine_risk":3,"frizz_risk":1,"updated_at":"2026-03-08T20:57:38.159373+05:30"},{"city":"Faridabad","state":"Haryana","latitude":28.4089,"longitude":77.3178,"temp":23.4,"humidity":57,"rain":0.0,"pressure":987.4,"uv_index":6.05,"wind_gusts":22.0,"aqi":353,"pm10":586.7,"pm2_5":103.6,"mosquito_risk":0,"arthritis_risk":5,"migraine_risk":7,"frizz_risk":0,"updated_at":"2026-03-08T20:57:38.159379+05:30"},{"city":"Meerut","state":"Uttar Pradesh","latitude":28.9845,"longitude":77.7064,"temp":24.2,"humidity":65,"rain":0.0,"pressure":984.9,"uv_index":5.85,"wind_gusts":28.4,"aqi":170,"pm10":314.8,"pm2_5":68.5,"mosquito_risk":3,"arthritis_risk":5,"migraine_risk":3,"frizz_risk":1,"updated_at":"2026-03-08T20:57:38.159385+05:30"},{"city":"Agra","state":"Uttar Pradesh","latitude":27.1767,"longitude":78.0081,"temp":26.1,"humidity":45,"rain":0.0,"pressure":991.4,"uv_index":6.4,"wind_gusts":20.9,"aqi":157,"pm10":308.3,"pm2_5":83.1,"mosquito_risk":4,"arthritis_risk":5,"migraine_risk":7,"frizz_risk":0,"updated_at":"2026-03-08T20:57:38.159391+05:30"},{"city":"Varanasi","state":"Uttar Pradesh","latitude":25.3176,"longitude":82.9739,"temp":25.0,"humidity":74,"rain":0.0,"pressure":1002.0,"uv_index":7.2,"wind_gusts":11.2,"aqi":174,"pm10":120.6,"pm2_5":111.5,"mosquito_risk":7,"arthritis_risk":5,"migraine_risk":4,"frizz_risk":1,"updated_at":"2026-03-08T20:57:38.159403+05:30"},{"city":"Prayagraj","state":"Uttar Pradesh","latitude":25.4358,"longitude":81.8463,"temp":26.1,"humidity":64,"rain":0.0,"pressure":1000.6,"uv_index":7.05,"wind_gusts":13.3,"aqi":178,"pm10":129.0,"pm2_5":116.4,"mosquito_risk":7,"arthritis_risk":5,"migraine_risk":4,"frizz_risk":1,"updated_at":"2026-03-08T20:57:38.159410+05:30"},{"city":"Gorakhpur","state":"Uttar Pradesh","latitude":26.7606,"longitude":83.3732,"temp":25.2,"humidity":70,"rain":0.0,"pressure":1001.5,"uv_index":6.9,"wind_gusts":13.7,"aqi":174,"pm10":118.5,"pm2_5":109.4,"mosquito_risk":7,"arthritis_risk":5,"migraine_risk":4,"frizz_risk":1,"updated_at":"2026-03-08T20:57:38.159418+05:30"},{"city":"Bareilly","state":"Uttar Pradesh","latitude":28.367,"longitude":79.4304,"temp":25.9,"humidity":62,"rain":0.0,"pressure":990.4,"uv_index":6.2,"wind_gusts":21.6,"aqi":171,"pm10":118.3,"pm2_5":83.6,"mosquito_risk":7,"arthritis_risk":5,"migraine_risk":7,"frizz_risk":1,"updated_at":"2026-03-08T20:57:38.159424+05:30"},{"city":"Aligarh","state":"Uttar Pradesh","latitude":27.8974,"longitude":78.088,"temp":23.7,"humidity":54,"rain":0.0,"pressure":989.2,"uv_index":6.1,"wind_gusts":24.5,"aqi":174,"pm10":599.8,"pm2_5":103.4,"mosquito_risk":0,"arthritis_risk":5,"migraine_risk":7,"frizz_risk":0,"updated_at":"2026-03-08T20:57:38.159431+05:30"},{"city":"Moradabad","state":"Uttar Pradesh","latitude":28.8386,"longitude":78.7733,"temp":24.6,"humidity":68,"rain":0.0,"pressure":987.1,"uv_index":6.0,"wind_gusts":25.2,"aqi":181,"pm10":149.5,"pm2_5":109.4,"mosquito_risk":3,"arthritis_risk":5,"migraine_risk":3,"frizz_risk":1,"updated_at":"2026-03-08T20:57:38.159439+05:30"},{"city":"Saharanpur","state":"Uttar Pradesh","latitude":29.9637,"longitude":77.546,"temp":24.0,"humidity":65,"rain":0.0,"pressure":978.9,"uv_index":5.65,"wind_gusts":34.2,"aqi":171,"pm10":191.9,"pm2_5":64.7,"mosquito_risk":3,"arthritis_risk":5,"migraine_risk":3,"frizz_risk":1,"updated_at":"2026-03-08T20:57:38.159445+05:30"},{"city":"Jhansi","state":"Uttar Pradesh","latitude":25.4484,"longitude":78.5685,"temp":26.3,"humidity":45,"rain":0.0,"pressure":982.0,"uv_index":6.95,"wind_gusts":26.3,"aqi":100,"pm10":43.0,"pm2_5":24.8,"mosquito_risk":4,"arthritis_risk":5,"migraine_risk":7,"frizz_risk":0,"updated_at":"2026-03-08T20:57:41.368677+05:30"},{"city":"Surat","state":"Gujarat","latitude":21.1702,"longitude":72.8311,"temp":28.7,"humidity":43,"rain":0.0,"pressure":1008.5,"uv_index":7.25,"wind_gusts":27.0,"aqi":136,"pm10":34.7,"pm2_5":34.2,"mosquito_risk":4,"arthritis_risk":0,"migraine_risk":4,"frizz_risk":0,"updated_at":"2026-03-08T20:57:41.368705+05:30"},{"city":"Vadodara","state":"Gujarat","latitude":22.3072,"longitude":73.1812,"temp":30.2,"humidity":34,"rain":0.0,"pressure":1006.8,"uv_index":7.35,"wind_gusts":19.4,"aqi":124,"pm10":31.1,"pm2_5":30.5,"mosquito_risk":0,"arthritis_risk":5,"migraine_risk":4,"frizz_risk":0,"updated_at":"2026-03-08T20:57:41.368714+05:30"},{"city":"Rajkot","state":"Gujarat","latitude":22.3039,"longitude":70.8022,"temp":28.6,"humidity":38,"rain":0.0,"pressure":997.8,"uv_index":7.15,"wind_gusts":22.3,"aqi":117,"pm10":33.2,"pm2_5":25.6,"mosquito_risk":4,"arthritis_risk":5,"migraine_risk":7,"frizz_risk":0,"updated_at":"2026-03-08T20:57:41.368722+05:30"},{"city":"Thane","state":"Maharashtra","latitude":19.2183,"longitude":72.9781,"temp":29.4,"humidity":51,"rain":0.0,"pressure":1008.8,"uv_index":7.5,"wind_gusts":33.1,"aqi":225,"pm10":45.9,"pm2_5":44.2,"mosquito_risk":4,"arthritis_risk":0,"migraine_risk":4,"frizz_risk":1,"updated_at":"2026-03-08T20:57:41.368729+05:30"},{"city":"Nagpur","state":"Maharashtra","latitude":21.1458,"longitude":79.0882,"temp":26.2,"humidity":41,"rain":0.0,"pressure":976.0,"uv_index":7.9,"wind_gusts":25.6,"aqi":115,"pm10":38.8,"pm2_5":29.8,"mosquito_risk":4,"arthritis_risk":5,"migraine_risk":7,"frizz_risk":0,"updated_at":"2026-03-08T20:57:41.368736+05:30"},{"city":"Nashik","state":"Maharashtra","latitude":19.9975,"longitude":73.7898,"temp":27.9,"humidity":24,"rain":0.0,"pressure":948.0,"uv_index":7.7,"wind_gusts":27.7,"aqi":130,"pm10":17.1,"pm2_5":15.9,"mosquito_risk":4,"arthritis_risk":5,"migraine_risk":7,"frizz_risk":0,"updated_at":"2026-03-08T20:57:41.368743+05:30"},{"city":"Aurangabad","state":"Maharashtra","latitude":19.8762,"longitude":75.3433,"temp":29.9,"humidity":17,"rain":0.0,"pressure":946.6,"uv_index":8.2,"wind_gusts":31.7,"aqi":126,"pm10":27.5,"pm2_5":23.1,"mosquito_risk":4,"arthritis_risk":5,"migraine_risk":7,"frizz_risk":0,"updated_at":"2026-03-08T20:57:41.368750+05:30"},{"city":"Solapur","state":"Maharashtra","latitude":17.6599,"longitude":75.9064,"temp":28.6,"humidity":46,"rain":0.0,"pressure":958.4,"uv_index":8.45,"wind_gusts":19.8,"aqi":153,"pm10":23.3,"pm2_5":20.4,"mosquito_risk":4,"arthritis_risk":5,"migraine_risk":7,"frizz_risk":0,"updated_at":"2026-03-08T20:57:41.368757+05:30"},{"city":"Kolhapur","state":"Maharashtra","latitude":16.705,"longitude":74.2433,"temp":24.9,"humidity":49,"rain":0.0,"pressure":949.2,"uv_index":8.6,"wind_gusts":37.1,"aqi":159,"pm10":52.2,"pm2_5":48.7,"mosquito_risk":0,"arthritis_risk":5,"migraine_risk":7,"frizz_risk":0,"updated_at":"2026-03-08T20:57:41.368764+05:30"},{"city":"Goa","state":"Goa","latitude":15.2993,"longitude":74.124,"temp":27.6,"humidity":80,"rain":0.0,"pressure":999.8,"uv_index":8.65,"wind_gusts":35.6,"aqi":124,"pm10":42.3,"pm2_5":37.0,"mosquito_risk":7,"arthritis_risk":5,"migraine_risk":7,"frizz_risk":1,"updated_at":"2026-03-08T20:57:41.368771+05:30"},{"city":"Jodhpur","state":"Rajasthan","latitude":26.2389,"longitude":73.0243,"temp":28.1,"humidity":33,"rain":0.0,"pressure":987.1,"uv_index":7.05,"wind_gusts":18.7,"aqi":85,"pm10":41.9,"pm2_5":17.5,"mosquito_risk":4,"arthritis_risk":5,"migraine_risk":7,"frizz_risk":0,"updated_at":"2026-03-08T20:57:41.368777+05:30"},{"city":"Udaipur","state":"Rajasthan","latitude":24.5854,"longitude":73.7125,"temp":26.3,"humidity":27,"rain":0.0,"pressure":951.1,"uv_index":7.7,"wind_gusts":19.8,"aqi":109,"pm10":10.9,"pm2_5":10.4,"mosquito_risk":4,"arthritis_risk":5,"migraine_risk":7,"frizz_risk":0,"updated_at":"2026-03-08T20:57:41.368784+05:30"},{"city":"Kota","state":"Rajasthan","latitude":25.2138,"longitude":75.8648,"temp":28.1,"humidity":42,"rain":0.0,"pressure":982.6,"uv_index":7.05,"wind_gusts":11.2,"aqi":104,"pm10":26.0,"pm2_5":26.0,"mosquito_risk":4,"arthritis_risk":5,"migraine_risk":7,"frizz_risk":0,"updated_at":"2026-03-08T20:57:41.368790+05:30"},{"city":"Bikaner","state":"Rajasthan","latitude":28.0229,"longitude":73.3119,"temp":29.3,"humidity":31,"rain":0.0,"pressure":986.2,"uv_index":6.75,"wind_gusts":19.4,"aqi":63,"pm10":27.5,"pm2_5":9.7,"mosquito_risk":4,"arthritis_risk":5,"migraine_risk":7,"frizz_risk":0,"updated_at":"2026-03-08T20:57:41.368797+05:30"},{"city":"Ajmer","state":"Rajasthan","latitude":26.4499,"longitude":74.6399,"temp":27.5,"humidity":27,"rain":0.0,"pressure":958.9,"uv_index":7.05,"wind_gusts":23.0,"aqi":83,"pm10":23.7,"pm2_5":16.0,"mosquito_risk":4,"arthritis_risk":5,"migraine_risk":7,"frizz_risk":0,"updated_at":"2026-03-08T20:57:41.368803+05:30"},{"city":"Gwalior","state":"Madhya Pradesh","latitude":26.2183,"longitude":78.1828,"temp":27.5,"humidity":46,"rain":0.0,"pressure":987.3,"uv_index":6.65,"wind_gusts":23.4,"aqi":90,"pm10":99.2,"pm2_5":29.3,"mosquito_risk":4,"arthritis_risk":5,"migraine_risk":7,"frizz_risk":0,"updated_at":"2026-03-08T20:57:41.368809+05:30"},{"city":"Indore","state":"Madhya Pradesh","latitude":22.7196,"longitude":75.8577,"temp":22.8,"humidity":46,"rain":0.0,"pressure":951.1,"uv_index":7.6,"wind_gusts":23.0,"aqi":99,"pm10":25.3,"pm2_5":23.9,"mosquito_risk":0,"arthritis_risk":5,"migraine_risk":7,"frizz_risk":0,"updated_at":"2026-03-08T20:57:41.368815+05:30"},{"city":"Bhopal","state":"Madhya Pradesh","latitude":23.2599,"longitude":77.4126,"temp":23.4,"humidity":52,"rain":0.0,"pressure":957.1,"uv_index":7.5,"wind_gusts":22.7,"aqi":97,"pm10":30.7,"pm2_5":19.4,"mosquito_risk":0,"arthritis_risk":5,"migraine_risk":7,"frizz_risk":0,"updated_at":"2026-03-08T20:57:41.368822+05:30"},{"city":"Jabalpur","state":"Madhya Pradesh","latitude":23.1815,"longitude":79.9864,"temp":25.8,"humidity":52,"rain":0.0,"pressure":965.0,"uv_index":7.6,"wind_gusts":24.8,"aqi":128,"pm10":77.3,"pm2_5":47.7,"mosquito_risk":4,"arthritis_risk":5,"migraine_risk":7,"frizz_risk":0,"updated_at":"2026-03-08T20:57:41.368828+05:30"},{"city":"Ujjain","state":"Madhya Pradesh","latitude":23.1765,"longitude":75.7885,"temp":24.9,"humidity":47,"rain":0.0,"pressure":957.2,"uv_index":7.5,"wind_gusts":19.1,"aqi":94,"pm10":38.5,"pm2_5":37.3,"mosquito_risk":0,"arthritis_risk":5,"migraine_risk":7,"frizz_risk":0,"updated_at":"2026-03-08T20:57:41.368835+05:30"},{"city":"Visakhapatnam","state":"Andhra Pradesh","latitude":17.6868,"longitude":83.2185,"temp":26.0,"humidity":77,"rain":0.0,"pressure":1008.3,"uv_index":8.25,"wind_gusts":38.9,"aqi":93,"pm10":37.8,"pm2_5":29.6,"mosquito_risk":7,"arthritis_risk":0,"migraine_risk":4,"frizz_risk":1,"updated_at":"2026-03-08T20:57:41.368841+05:30"},{"city":"Vijayawada","state":"Andhra Pradesh","latitude":16.5062,"longitude":80.648,"temp":27.2,"humidity":71,"rain":0.0,"pressure":1006.0,"uv_index":8.6,"wind_gusts":28.4,"aqi":95,"pm10":30.7,"pm2_5":25.3,"mosquito_risk":7,"arthritis_risk":5,"migraine_risk":4,"frizz_risk":1,"updated_at":"2026-03-08T20:57:41.368847+05:30"},{"city":"Guntur","state":"Andhra Pradesh","latitude":16.3067,"longitude":80.4365,"temp":26.1,"humidity":81,"rain":0.0,"pressure":1007.2,"uv_index":8.6,"wind_gusts":27.4,"aqi":95,"pm10":31.8,"pm2_5":26.7,"mosquito_risk":7,"arthritis_risk":5,"migraine_risk":4,"frizz_risk":1,"updated_at":"2026-03-08T20:57:41.368853+05:30"},{"city":"Nellore","state":"Andhra Pradesh","latitude":14.4426,"longitude":79.9865,"temp":26.5,"humidity":81,"rain":0.0,"pressure":1009.0,"uv_index":8.8,"wind_gusts":33.1,"aqi":88,"pm10":29.2,"pm2_5":21.1,"mosquito_risk":7,"arthritis_risk":0,"migraine_risk":4,"frizz_risk":1,"updated_at":"2026-03-08T20:57:41.368861+05:30"},{"city":"Kurnool","state":"Andhra Pradesh","latitude":15.8281,"longitude":78.0373,"temp":30.6,"humidity":30,"rain":0.0,"pressure":978.2,"uv_index":8.6,"wind_gusts":25.6,"aqi":139,"pm10":31.5,"pm2_5":25.8,"mosquito_risk":0,"arthritis_risk":5,"migraine_risk":7,"frizz_risk":0,"updated_at":"2026-03-08T20:57:41.368868+05:30"},{"city":"Kakinada","state":"Andhra Pradesh","latitude":16.9891,"longitude":82.2475,"temp":26.1,"humidity":78,"rain":0.0,"pressure":1011.5,"uv_index":8.55,"wind_gusts":33.8,"aqi":77,"pm10":36.0,"pm2_5":24.9,"mosquito_risk":7,"arthritis_risk":0,"migraine_risk":4,"frizz_risk":1,"updated_at":"2026-03-08T20:57:41.368875+05:30"},{"city":"Tirupati","state":"Andhra Pradesh","latitude":13.6288,"longitude":79.4192,"temp":26.8,"humidity":67,"rain":0.0,"pressure":994.6,"uv_index":8.95,"wind_gusts":31.3,"aqi":113,"pm10":37.0,"pm2_5":31.4,"mosquito_risk":7,"arthritis_risk":5,"migraine_risk":7,"frizz_risk":1,"updated_at":"2026-03-08T20:57:41.368881+05:30"},{"city":"Warangal","state":"Telangana","latitude":17.9689,"longitude":79.5941,"temp":28.7,"humidity":56,"rain":0.0,"pressure":980.8,"uv_index":8.35,"wind_gusts":27.7,"aqi":122,"pm10":64.7,"pm2_5":53.9,"mosquito_risk":4,"arthritis_risk":5,"migraine_risk":7,"frizz_risk":1,"updated_at":"2026-03-08T20:57:41.368887+05:30"},{"city":"Nizamabad","state":"Telangana","latitude":18.6725,"longitude":78.0941,"temp":27.2,"humidity":54,"rain":0.0,"pressure":967.1,"uv_index":8.25,"wind_gusts":31.0,"aqi":135,"pm10":51.2,"pm2_5":40.2,"mosquito_risk":4,"arthritis_risk":5,"migraine_risk":7,"frizz_risk":1,"updated_at":"2026-03-08T20:57:41.368893+05:30"},{"city":"Mysore","state":"Karnataka","latitude":12.2958,"longitude":76.6396,"temp":27.2,"humidity":39,"rain":0.0,"pressure":929.3,"uv_index":9.25,"wind_gusts":29.9,"aqi":160,"pm10":59.5,"pm2_5":53.1,"mosquito_risk":4,"arthritis_risk":5,"migraine_risk":7,"frizz_risk":0,"updated_at":"2026-03-08T20:57:41.368900+05:30"},{"city":"Mangalore","state":"Karnataka","latitude":12.9141,"longitude":74.856,"temp":28.7,"humidity":79,"rain":0.0,"pressure":1008.8,"uv_index":8.85,"wind_gusts":25.2,"aqi":112,"pm10":40.2,"pm2_5":36.8,"mosquito_risk":7,"arthritis_risk":0,"migraine_risk":4,"frizz_risk":1,"updated_at":"2026-03-08T20:57:41.368907+05:30"},{"city":"Hubli-Dharwad","state":"Karnataka","latitude":15.3647,"longitude":75.124,"temp":28.0,"humidity":39,"rain":0.0,"pressure":942.3,"uv_index":8.8,"wind_gusts":27.7,"aqi":175,"pm10":29.2,"pm2_5":25.7,"mosquito_risk":4,"arthritis_risk":5,"migraine_risk":7,"frizz_risk":0,"updated_at":"2026-03-08T20:57:41.368914+05:30"},{"city":"Belgaum","state":"Karnataka","latitude":15.8497,"longitude":74.4977,"temp":25.0,"humidity":76,"rain":0.0,"pressure":927.3,"uv_index":8.85,"wind_gusts":33.8,"aqi":171,"pm10":44.8,"pm2_5":42.0,"mosquito_risk":7,"arthritis_risk":5,"migraine_risk":7,"frizz_risk":1,"updated_at":"2026-03-08T20:57:44.581378+05:30"},{"city":"Coimbatore","state":"Tamil Nadu","latitude":11.0168,"longitude":76.9558,"temp":25.8,"humidity":77,"rain":0.0,"pressure":963.1,"uv_index":9.2,"wind_gusts":40.0,"aqi":142,"pm10":48.7,"pm2_5":42.5,"mosquito_risk":7,"arthritis_risk":5,"migraine_risk":7,"frizz_risk":1,"updated_at":"2026-03-08T20:57:44.581404+05:30"},{"city":"Madurai","state":"Tamil Nadu","latitude":9.9252,"longitude":78.1198,"temp":28.2,"humidity":54,"rain":0.0,"pressure":994.7,"uv_index":9.15,"wind_gusts":28.8,"aqi":103,"pm10":33.3,"pm2_5":27.1,"mosquito_risk":4,"arthritis_risk":5,"migraine_risk":7,"frizz_risk":1,"updated_at":"2026-03-08T20:57:44.581414+05:30"},{"city":"Trichy","state":"Tamil Nadu","latitude":10.7905,"longitude":78.7047,"temp":27.9,"humidity":71,"rain":0.0,"pressure":1001.8,"uv_index":9.05,"wind_gusts":31.0,"aqi":98,"pm10":30.2,"pm2_5":25.3,"mosquito_risk":7,"arthritis_risk":5,"migraine_risk":4,"frizz_risk":1,"updated_at":"2026-03-08T20:57:44.581421+05:30"},{"city":"Salem","state":"Tamil Nadu","latitude":11.6643,"longitude":78.146,"temp":29.0,"humidity":45,"rain":0.0,"pressure":978.6,"uv_index":9.1,"wind_gusts":22.0,"aqi":155,"pm10":44.4,"pm2_5":38.5,"mosquito_risk":4,"arthritis_risk":5,"migraine_risk":7,"frizz_risk":0,"updated_at":"2026-03-08T20:57:44.581427+05:30"},{"city":"Tirunelveli","state":"Tamil Nadu","latitude":8.7139,"longitude":77.7567,"temp":27.8,"humidity":72,"rain":0.0,"pressure":1005.2,"uv_index":9.15,"wind_gusts":41.0,"aqi":111,"pm10":37.6,"pm2_5":29.2,"mosquito_risk":7,"arthritis_risk":5,"migraine_risk":4,"frizz_risk":1,"updated_at":"2026-03-08T20:57:44.581434+05:30"},{"city":"Vellore","state":"Tamil Nadu","latitude":12.9165,"longitude":79.1325,"temp":27.1,"humidity":64,"rain":0.0,"pressure":987.1,"uv_index":9.0,"wind_gusts":35.6,"aqi":131,"pm10":38.8,"pm2_5":32.7,"mosquito_risk":7,"arthritis_risk":5,"migraine_risk":7,"frizz_risk":1,"updated_at":"2026-03-08T20:57:44.581441+05:30"},{"city":"Erode","state":"Tamil Nadu","latitude":11.341,"longitude":77.7172,"temp":30.4,"humidity":43,"rain":0.0,"pressure":990.0,"uv_index":9.1,"wind_gusts":22.3,"aqi":133,"pm10":41.8,"pm2_5":36.4,"mosquito_risk":0,"arthritis_risk":5,"migraine_risk":7,"frizz_risk":1,"updated_at":"2026-03-08T20:57:44.581448+05:30"},{"city":"Kochi","state":"Kerala","latitude":9.9312,"longitude":76.2673,"temp":28.6,"humidity":78,"rain":0.0,"pressure":1010.3,"uv_index":9.0,"wind_gusts":35.6,"aqi":130,"pm10":45.5,"pm2_5":43.2,"mosquito_risk":7,"arthritis_risk":0,"migraine_risk":4,"frizz_risk":1,"updated_at":"2026-03-08T20:57:44.581454+05:30"},{"city":"Thiruvananthapuram","state":"Kerala","latitude":8.5241,"longitude":76.9366,"temp":27.9,"humidity":80,"rain":0.0,"pressure":1009.8,"uv_index":9.05,"wind_gusts":31.7,"aqi":112,"pm10":33.2,"pm2_5":27.7,"mosquito_risk":7,"arthritis_risk":0,"migraine_risk":4,"frizz_risk":1,"updated_at":"2026-03-08T20:57:44.581460+05:30"},{"city":"Kozhikode","state":"Kerala","latitude":11.2588,"longitude":75.7804,"temp":28.8,"humidity":77,"rain":0.0,"pressure":1009.6,"uv_index":8.8,"wind_gusts":29.5,"aqi":87,"pm10":32.4,"pm2_5":28.7,"mosquito_risk":7,"arthritis_risk":0,"migraine_risk":4,"frizz_risk":1,"updated_at":"2026-03-08T20:57:44.581466+05:30"},{"city":"Thrissur","state":"Kerala","latitude":10.5276,"longitude":76.2144,"temp":28.0,"humidity":80,"rain":0.0,"pressure":1008.6,"uv_index":9.0,"wind_gusts":36.7,"aqi":121,"pm10":33.4,"pm2_5":31.9,"mosquito_risk":7,"arthritis_risk":0,"migraine_risk":4,"frizz_risk":1,"updated_at":"2026-03-08T20:57:44.581473+05:30"},{"city":"Kannur","state":"Kerala","latitude":11.8745,"longitude":75.3704,"temp":28.7,"humidity":76,"rain":0.0,"pressure":1008.8,"uv_index":8.9,"wind_gusts":28.4,"aqi":99,"pm10":36.6,"pm2_5":32.5,"mosquito_risk":7,"arthritis_risk":0,"migraine_risk":4,"frizz_risk":1,"updated_at":"2026-03-08T20:57:44.581479+05:30"},{"city":"Patna","state":"Bihar","latitude":25.5941,"longitude":85.1376,"temp":26.0,"humidity":70,"rain":0.0,"pressure":1005.0,"uv_index":7.35,"wind_gusts":18.0,"aqi":174,"pm10":98.5,"pm2_5":90.6,"mosquito_risk":7,"arthritis_risk":5,"migraine_risk":4,"frizz_risk":1,"updated_at":"2026-03-08T20:57:44.581484+05:30"},{"city":"Gaya","state":"Bihar","latitude":24.7914,"longitude":85.0002,"temp":24.2,"humidity":81,"rain":0.0,"pressure":998.2,"uv_index":7.45,"wind_gusts":17.6,"aqi":161,"pm10":88.0,"pm2_5":80.8,"mosquito_risk":3,"arthritis_risk":5,"migraine_risk":7,"frizz_risk":1,"updated_at":"2026-03-08T20:57:44.581490+05:30"},{"city":"Muzaffarpur","state":"Bihar","latitude":26.1209,"longitude":85.3647,"temp":24.1,"humidity":77,"rain":0.0,"pressure":1005.2,"uv_index":7.3,"wind_gusts":19.1,"aqi":177,"pm10":101.7,"pm2_5":93.8,"mosquito_risk":3,"arthritis_risk":5,"migraine_risk":4,"frizz_risk":1,"updated_at":"2026-03-08T20:57:44.581495+05:30"},{"city":"Bhagalpur","state":"Bihar","latitude":25.2425,"longitude":87.0117,"temp":24.0,"humidity":79,"rain":0.0,"pressure":1006.0,"uv_index":7.35,"wind_gusts":15.8,"aqi":163,"pm10":99.4,"pm2_5":86.4,"mosquito_risk":3,"arthritis_risk":5,"migraine_risk":4,"frizz_risk":1,"updated_at":"2026-03-08T20:57:44.581501+05:30"},{"city":"Ranchi","state":"Jharkhand","latitude":23.3441,"longitude":85.3096,"temp":24.0,"humidity":66,"rain":0.0,"pressure":941.5,"uv_index":8.1,"wind_gusts":23.0,"aqi":162,"pm10":96.9,"pm2_5":82.2,"mosquito_risk":3,"arthritis_risk":5,"migraine_risk":7,"frizz_risk":1,"updated_at":"2026-03-08T20:57:44.581506+05:30"},{"city":"Jamshedpur","state":"Jharkhand","latitude":22.8046,"longitude":86.2029,"temp":26.5,"humidity":71,"rain":0.0,"pressure":994.7,"uv_index":8.0,"wind_gusts":20.9,"aqi":157,"pm10":86.1,"pm2_5":77.1,"mosquito_risk":7,"arthritis_risk":5,"migraine_risk":7,"frizz_risk":1,"updated_at":"2026-03-08T20:57:44.581512+05:30"},{"city":"Dhanbad","state":"Jharkhand","latitude":23.7957,"longitude":86.4304,"temp":27.5,"humidity":53,"rain":0.0,"pressure":984.1,"uv_index":7.85,"wind_gusts":22.7,"aqi":168,"pm10":112.0,"pm2_5":102.4,"mosquito_risk":4,"arthritis_risk":5,"migraine_risk":7,"frizz_risk":1,"updated_at":"2026-03-08T20:57:44.581517+05:30"},{"city":"Bokaro","state":"Jharkhand","latitude":23.6693,"longitude":86.1511,"temp":26.4,"humidity":59,"rain":0.0,"pressure":988.1,"uv_index":7.85,"wind_gusts":17.6,"aqi":170,"pm10":115.9,"pm2_5":105.2,"mosquito_risk":4,"arthritis_risk":5,"migraine_risk":7,"frizz_risk":1,"updated_at":"2026-03-08T20:57:44.581523+05:30"},{"city":"Bhubaneswar","state":"Odisha","latitude":20.2961,"longitude":85.8245,"temp":25.7,"humidity":83,"rain":0.0,"pressure":1007.4,"uv_index":8.25,"wind_gusts":32.4,"aqi":115,"pm10":37.7,"pm2_5":32.7,"mosquito_risk":7,"arthritis_risk":5,"migraine_risk":4,"frizz_risk":1,"updated_at":"2026-03-08T20:57:44.581529+05:30"},{"city":"Cuttack","state":"Odisha","latitude":20.4625,"longitude":85.8828,"temp":26.3,"humidity":76,"rain":0.0,"pressure":1009.3,"uv_index":8.3,"wind_gusts":27.7,"aqi":115,"pm10":37.7,"pm2_5":32.7,"mosquito_risk":7,"arthritis_risk":0,"migraine_risk":4,"frizz_risk":1,"updated_at":"2026-03-08T20:57:44.581535+05:30"},{"city":"Rourkela","state":"Odisha","latitude":22.2604,"longitude":84.8536,"temp":27.8,"humidity":49,"rain":0.0,"pressure":987.8,"uv_index":7.9,"wind_gusts":22.7,"aqi":165,"pm10":135.5,"pm2_5":108.5,"mosquito_risk":4,"arthritis_risk":5,"migraine_risk":7,"frizz_risk":1,"updated_at":"2026-03-08T20:57:44.581541+05:30"},{"city":"Raipur","state":"Chhattisgarh","latitude":21.2514,"longitude":81.6296,"temp":30.0,"humidity":37,"rain":0.0,"pressure":977.2,"uv_index":8.0,"wind_gusts":23.4,"aqi":162,"pm10":97.3,"pm2_5":83.4,"mosquito_risk":4,"arthritis_risk":5,"migraine_risk":7,"frizz_risk":0,"updated_at":"2026-03-08T20:57:44.581546+05:30"},{"city":"Bhilai","state":"Chhattisgarh","latitude":21.1938,"longitude":81.3509,"temp":28.9,"humidity":40,"rain":0.0,"pressure":977.5,"uv_index":8.0,"wind_gusts":23.4,"aqi":153,"pm10":86.8,"pm2_5":75.4,"mosquito_risk":4,"arthritis_risk":5,"migraine_risk":7,"frizz_risk":0,"updated_at":"2026-03-08T20:57:44.581558+05:30"},{"city":"Guwahati","state":"Assam","latitude":26.1158,"longitude":91.7086,"temp":25.1,"humidity":72,"rain":0.0,"pressure":1006.2,"uv_index":7.3,"wind_gusts":22.7,"aqi":152,"pm10":62.2,"pm2_5":56.7,"mosquito_risk":7,"arthritis_risk":5,"migraine_risk":4,"frizz_risk":1,"updated_at":"2026-03-08T20:57:44.581570+05:30"},{"city":"Agartala","state":"Tripura","latitude":23.8315,"longitude":91.2868,"temp":23.7,"humidity":75,"rain":0.0,"pressure":1011.1,"uv_index":7.6,"wind_gusts":18.7,"aqi":153,"pm10":104.1,"pm2_5":94.3,"mosquito_risk":3,"arthritis_risk":0,"migraine_risk":4,"frizz_risk":1,"updated_at":"2026-03-08T20:57:44.581581+05:30"},{"city":"Shillong","state":"Meghalaya","latitude":25.5788,"longitude":91.8933,"temp":12.9,"humidity":94,"rain":0.0,"pressure":859.1,"uv_index":7.35,"wind_gusts":26.6,"aqi":124,"pm10":48.0,"pm2_5":43.3,"mosquito_risk":3,"arthritis_risk":10,"migraine_risk":7,"frizz_risk":0,"updated_at":"2026-03-08T20:57:44.581591+05:30"},{"city":"Imphal","state":"Manipur","latitude":24.817,"longitude":93.9368,"temp":18.1,"humidity":88,"rain":0.0,"pressure":927.5,"uv_index":7.9,"wind_gusts":32.0,"aqi":158,"pm10":89.9,"pm2_5":82.9,"mosquito_risk":3,"arthritis_risk":10,"migraine_risk":7,"frizz_risk":1,"updated_at":"2026-03-08T20:57:44.581601+05:30"},{"city":"Aizawl","state":"Mizoram","latitude":23.7271,"longitude":92.7176,"temp":18.0,"humidity":82,"rain":0.0,"pressure":896.1,"uv_index":7.85,"wind_gusts":31.0,"aqi":152,"pm10":74.5,"pm2_5":67.1,"mosquito_risk":3,"arthritis_risk":10,"migraine_risk":7,"frizz_risk":0,"updated_at":"2026-03-08T20:57:44.581612+05:30"},{"city":"Kohima","state":"Nagaland","latitude":25.6701,"longitude":94.1077,"temp":15.2,"humidity":79,"rain":0.0,"pressure":858.4,"uv_index":7.0,"wind_gusts":51.8,"aqi":161,"pm10":91.7,"pm2_5":85.7,"mosquito_risk":3,"arthritis_risk":5,"migraine_risk":7,"frizz_risk":0,"updated_at":"2026-03-08T20:57:44.581621+05:30"},{"city":"Gangtok","state":"Sikkim","latitude":27.3314,"longitude":88.6138,"temp":14.5,"humidity":84,"rain":0.0,"pressure":841.1,"uv_index":5.1,"wind_gusts":16.2,"aqi":155,"pm10":73.6,"pm2_5":57.9,"mosquito_risk":3,"arthritis_risk":10,"migraine_risk":3,"frizz_risk":0,"updated_at":"2026-03-08T20:57:44.581631+05:30"},{"city":"Siliguri","state":"West Bengal","latitude":26.7271,"longitude":88.3953,"temp":21.6,"humidity":64,"rain":0.0,"pressure":999.2,"uv_index":7.3,"wind_gusts":15.8,"aqi":156,"pm10":90.3,"pm2_5":69.2,"mosquito_risk":3,"arthritis_risk":5,"migraine_risk":7,"frizz_risk":0,"updated_at":"2026-03-08T20:57:47.792773+05:30"},{"city":"Durgapur","state":"West Bengal","latitude":23.5204,"longitude":87.3119,"temp":26.4,"humidity":67,"rain":0.0,"pressure":999.7,"uv_index":7.85,"wind_gusts":20.9,"aqi":161,"pm10":91.3,"pm2_5":83.4,"mosquito_risk":7,"arthritis_risk":5,"migraine_risk":7,"frizz_risk":1,"updated_at":"2026-03-08T20:57:47.792803+05:30"},{"city":"Asansol","state":"West Bengal","latitude":23.6739,"longitude":86.9524,"temp":27.0,"humidity":62,"rain":0.0,"pressure":998.3,"uv_index":7.85,"wind_gusts":19.8,"aqi":160,"pm10":96.6,"pm2_5":88.5,"mosquito_risk":7,"arthritis_risk":5,"migraine_risk":7,"frizz_risk":1,"updated_at":"2026-03-08T20:57:47.792814+05:30"},{"city":"Pondicherry","state":"Puducherry","latitude":11.9139,"longitude":79.8145,"temp":25.6,"humidity":85,"rain":0.0,"pressure":1011.1,"uv_index":8.95,"wind_gusts":32.4,"aqi":72,"pm10":23.6,"pm2_5":16.1,"mosquito_risk":7,"arthritis_risk":0,"migraine_risk":4,"frizz_risk":1,"updated_at":"2026-03-08T20:57:47.792823+05:30"},{"city":"Port Blair","state":"Andaman and Nicobar Islands","latitude":11.6234,"longitude":92.7265,"temp":27.2,"humidity":80,"rain":0.0,"pressure":1010.3,"uv_index":8.9,"wind_gusts":25.2,"aqi":85,"pm10":38.2,"pm2_5":29.1,"mosquito_risk":7,"arthritis_risk":0,"migraine_risk":4,"frizz_risk":1,"updated_at":"2026-03-08T20:57:47.792831+05:30"},{"city":"Haridwar","state":"Uttarakhand","latitude":29.9457,"longitude":78.1642,"temp":25.4,"humidity":63,"rain":0.0,"pressure":977.7,"uv_index":5.75,"wind_gusts":26.6,"aqi":176,"pm10":123.4,"pm2_5":68.5,"mosquito_risk":7,"arthritis_risk":5,"migraine_risk":3,"frizz_risk":1,"updated_at":"2026-03-08T20:57:47.792839+05:30"},{"city":"Rishikesh","state":"Uttarakhand","latitude":30.0869,"longitude":78.2676,"temp":22.8,"humidity":75,"rain":0.0,"pressure":970.4,"uv_index":5.8,"wind_gusts":22.3,"aqi":171,"pm10":80.3,"pm2_5":62.9,"mosquito_risk":3,"arthritis_risk":5,"migraine_risk":3,"frizz_risk":1,"updated_at":"2026-03-08T20:57:47.792847+05:30"},{"city":"Nainital","state":"Uttarakhand","latitude":29.3919,"longitude":79.4542,"temp":18.9,"humidity":68,"rain":0.0,"pressure":809.6,"uv_index":6.65,"wind_gusts":63.0,"aqi":182,"pm10":108.3,"pm2_5":83.8,"mosquito_risk":3,"arthritis_risk":5,"migraine_risk":7,"frizz_risk":0,"updated_at":"2026-03-08T20:57:47.792854+05:30"},{"city":"Mussoorie","state":"Uttarakhand","latitude":30.4599,"longitude":78.0664,"temp":17.0,"humidity":81,"rain":0.0,"pressure":805.7,"uv_index":6.15,"wind_gusts":48.6,"aqi":187,"pm10":91.0,"pm2_5":69.2,"mosquito_risk":3,"arthritis_risk":10,"migraine_risk":7,"frizz_risk":0,"updated_at":"2026-03-08T20:57:47.792861+05:30"},{"city":"Dharamshala","state":"Himachal Pradesh","latitude":32.219,"longitude":76.3234,"temp":21.7,"humidity":46,"rain":0.0,"pressure":873.7,"uv_index":6.4,"wind_gusts":24.8,"aqi":71,"pm10":41.7,"pm2_5":21.9,"mosquito_risk":0,"arthritis_risk":5,"migraine_risk":7,"frizz_risk":0,"updated_at":"2026-03-08T20:57:47.792869+05:30"},{"city":"Dalhousie","state":"Himachal Pradesh","latitude":32.5387,"longitude":75.971,"temp":17.6,"humidity":54,"rain":0.0,"pressure":807.5,"uv_index":6.65,"wind_gusts":23.4,"aqi":93,"pm10":55.2,"pm2_5":38.2,"mosquito_risk":0,"arthritis_risk":5,"migraine_risk":7,"frizz_risk":0,"updated_at":"2026-03-08T20:57:47.792877+05:30"},{"city":"Patiala","state":"Punjab","latitude":30.3398,"longitude":76.3869,"temp":23.1,"humidity":76,"rain":0.0,"pressure":982.3,"uv_index":5.65,"wind_gusts":26.3,"aqi":168,"pm10":319.4,"pm2_5":77.5,"mosquito_risk":3,"arthritis_risk":5,"migraine_risk":3,"frizz_risk":1,"updated_at":"2026-03-08T20:57:47.792884+05:30"},{"city":"Bhatinda","state":"Punjab","latitude":30.211,"longitude":74.9455,"temp":24.8,"humidity":66,"rain":0.0,"pressure":988.0,"uv_index":6.5,"wind_gusts":16.9,"aqi":150,"pm10":109.7,"pm2_5":67.5,"mosquito_risk":3,"arthritis_risk":5,"migraine_risk":7,"frizz_risk":1,"updated_at":"2026-03-08T20:57:47.792891+05:30"},{"city":"Rohtak","state":"Haryana","latitude":28.8955,"longitude":76.6066,"temp":22.8,"humidity":65,"rain":0.0,"pressure":985.5,"uv_index":6.0,"wind_gusts":20.9,"aqi":169,"pm10":424.7,"pm2_5":87.5,"mosquito_risk":3,"arthritis_risk":5,"migraine_risk":3,"frizz_risk":0,"updated_at":"2026-03-08T20:57:47.792898+05:30"},{"city":"Panipat","state":"Haryana","latitude":29.3909,"longitude":76.9635,"temp":23.2,"humidity":70,"rain":0.0,"pressure":984.0,"uv_index":5.8,"wind_gusts":26.3,"aqi":207,"pm10":856.8,"pm2_5":121.1,"mosquito_risk":3,"arthritis_risk":5,"migraine_risk":3,"frizz_risk":1,"updated_at":"2026-03-08T20:57:47.792905+05:30"},{"city":"Mathura","state":"Uttar Pradesh","latitude":27.4924,"longitude":77.6737,"temp":23.4,"humidity":61,"rain":0.0,"pressure":990.5,"uv_index":6.3,"wind_gusts":22.7,"aqi":158,"pm10":448.0,"pm2_5":76.4,"mosquito_risk":3,"arthritis_risk":5,"migraine_risk":7,"frizz_risk":0,"updated_at":"2026-03-08T20:57:47.792912+05:30"},{"city":"Vrindavan","state":"Uttar Pradesh","latitude":27.5823,"longitude":77.7027,"temp":23.7,"humidity":57,"rain":0.0,"pressure":990.9,"uv_index":6.25,"wind_gusts":23.8,"aqi":158,"pm10":448.0,"pm2_5":76.4,"mosquito_risk":0,"arthritis_risk":5,"migraine_risk":7,"frizz_risk":0,"updated_at":"2026-03-08T20:57:47.792919+05:30"},{"city":"Ayodhya","state":"Uttar Pradesh","latitude":26.7922,"longitude":82.1998,"temp":25.7,"humidity":67,"rain":0.0,"pressure":999.6,"uv_index":6.65,"wind_gusts":11.2,"aqi":185,"pm10":136.9,"pm2_5":116.9,"mosquito_risk":7,"arthritis_risk":5,"migraine_risk":7,"frizz_risk":1,"updated_at":"2026-03-08T20:57:47.792926+05:30"},{"city":"Ratlam","state":"Madhya Pradesh","latitude":23.3315,"longitude":75.0367,"temp":26.8,"humidity":48,"rain":0.0,"pressure":957.8,"uv_index":7.5,"wind_gusts":21.6,"aqi":107,"pm10":25.4,"pm2_5":24.9,"mosquito_risk":4,"arthritis_risk":5,"migraine_risk":7,"frizz_risk":0,"updated_at":"2026-03-08T20:57:47.792933+05:30"},{"city":"Sagar","state":"Madhya Pradesh","latitude":23.8388,"longitude":78.7378,"temp":26.7,"humidity":41,"rain":0.0,"pressure":953.8,"uv_index":7.45,"wind_gusts":21.6,"aqi":92,"pm10":29.8,"pm2_5":17.4,"mosquito_risk":4,"arthritis_risk":5,"migraine_risk":7,"frizz_risk":0,"updated_at":"2026-03-08T20:57:47.792940+05:30"},{"city":"Satna","state":"Madhya Pradesh","latitude":24.6005,"longitude":80.8322,"temp":26.1,"humidity":52,"rain":0.0,"pressure":975.7,"uv_index":7.4,"wind_gusts":25.2,"aqi":158,"pm10":68.7,"pm2_5":45.1,"mosquito_risk":4,"arthritis_risk":5,"migraine_risk":7,"frizz_risk":0,"updated_at":"2026-03-08T20:57:47.792947+05:30"},{"city":"Akola","state":"Maharashtra","latitude":20.7002,"longitude":77.0082,"temp":28.3,"humidity":32,"rain":0.0,"pressure":977.3,"uv_index":7.95,"wind_gusts":16.2,"aqi":122,"pm10":39.8,"pm2_5":31.8,"mosquito_risk":4,"arthritis_risk":5,"migraine_risk":7,"frizz_risk":0,"updated_at":"2026-03-08T20:57:47.792955+05:30"},{"city":"Amravati","state":"Maharashtra","latitude":20.9374,"longitude":77.7796,"temp":26.9,"humidity":43,"rain":0.0,"pressure":969.6,"uv_index":7.9,"wind_gusts":20.5,"aqi":106,"pm10":36.6,"pm2_5":27.1,"mosquito_risk":4,"arthritis_risk":5,"migraine_risk":7,"frizz_risk":0,"updated_at":"2026-03-08T20:57:47.792963+05:30"},{"city":"Latur","state":"Maharashtra","latitude":18.4088,"longitude":76.5604,"temp":28.0,"humidity":39,"rain":0.0,"pressure":941.9,"uv_index":8.4,"wind_gusts":24.1,"aqi":154,"pm10":36.9,"pm2_5":30.2,"mosquito_risk":4,"arthritis_risk":5,"migraine_risk":7,"frizz_risk":0,"updated_at":"2026-03-08T20:57:47.792970+05:30"},{"city":"Nanded","state":"Maharashtra","latitude":19.1383,"longitude":77.3091,"temp":27.8,"humidity":45,"rain":0.0,"pressure":970.6,"uv_index":8.15,"wind_gusts":25.2,"aqi":132,"pm10":30.6,"pm2_5":24.8,"mosquito_risk":4,"arthritis_risk":5,"migraine_risk":7,"frizz_risk":0,"updated_at":"2026-03-08T20:57:47.792977+05:30"},{"city":"Gulbarga","state":"Karnataka","latitude":17.3297,"longitude":76.8343,"temp":30.8,"humidity":24,"rain":0.0,"pressure":960.5,"uv_index":8.45,"wind_gusts":28.4,"aqi":159,"pm10":26.4,"pm2_5":22.4,"mosquito_risk":0,"arthritis_risk":5,"migraine_risk":7,"frizz_risk":0,"updated_at":"2026-03-08T20:57:47.792984+05:30"},{"city":"Bidar","state":"Karnataka","latitude":17.9104,"longitude":77.5199,"temp":27.1,"humidity":31,"rain":0.0,"pressure":937.7,"uv_index":8.4,"wind_gusts":29.5,"aqi":144,"pm10":46.3,"pm2_5":35.6,"mosquito_risk":4,"arthritis_risk":5,"migraine_risk":7,"frizz_risk":0,"updated_at":"2026-03-08T20:57:47.792991+05:30"},{"city":"Hospet","state":"Karnataka","latitude":15.2689,"longitude":76.3909,"temp":30.6,"humidity":31,"rain":0.0,"pressure":957.3,"uv_index":8.75,"wind_gusts":25.6,"aqi":180,"pm10":41.4,"pm2_5":34.5,"mosquito_risk":0,"arthritis_risk":5,"migraine_risk":7,"frizz_risk":0,"updated_at":"2026-03-08T20:57:47.792997+05:30"},{"city":"Tirupur","state":"Tamil Nadu","latitude":11.1085,"longitude":77.3411,"temp":30.5,"humidity":35,"rain":0.0,"pressure":976.2,"uv_index":9.2,"wind_gusts":29.2,"aqi":146,"pm10":52.6,"pm2_5":45.6,"mosquito_risk":0,"arthritis_risk":5,"migraine_risk":7,"frizz_risk":0,"updated_at":"2026-03-08T20:57:47.793004+05:30"},{"city":"Alappuzha","state":"Kerala","latitude":9.4981,"longitude":76.3388,"temp":28.3,"humidity":80,"rain":0.0,"pressure":1010.6,"uv_index":9.0,"wind_gusts":32.0,"aqi":147,"pm10":37.7,"pm2_5":35.0,"mosquito_risk":7,"arthritis_risk":0,"migraine_risk":4,"frizz_risk":1,"updated_at":"2026-03-08T20:57:47.793011+05:30"},{"city":"Munnar","state":"Kerala","latitude":10.0889,"longitude":77.0595,"temp":21.1,"humidity":89,"rain":0.0,"pressure":858.1,"uv_index":9.5,"wind_gusts":21.2,"aqi":105,"pm10":49.4,"pm2_5":43.9,"mosquito_risk":3,"arthritis_risk":5,"migraine_risk":7,"frizz_risk":1,"updated_at":"2026-03-08T20:57:47.793018+05:30"},{"city":"Silchar","state":"Assam","latitude":24.8333,"longitude":92.7789,"temp":24.7,"humidity":77,"rain":0.0,"pressure":1009.9,"uv_index":7.6,"wind_gusts":19.4,"aqi":162,"pm10":91.0,"pm2_5":84.3,"mosquito_risk":3,"arthritis_risk":0,"migraine_risk":4,"frizz_risk":1,"updated_at":"2026-03-08T20:57:47.793025+05:30"},{"city":"Dibrugarh","state":"Assam","latitude":27.4728,"longitude":94.912,"temp":24.5,"humidity":73,"rain":0.0,"pressure":1000.1,"uv_index":6.15,"wind_gusts":24.8,"aqi":158,"pm10":77.3,"pm2_5":68.0,"mosquito_risk":3,"arthritis_risk":5,"migraine_risk":4,"frizz_risk":1,"updated_at":"2026-03-08T20:57:47.793034+05:30"}]