[{"city":"Delhi","state":"Delhi","latitude":28.6139,"longitude":77.209,"temp":24.7,"humidity":53,"rain":0.0,"pressure":985.3,"uv_index":7.2,"wind_gusts":33.1,"aqi":442,"pm10":379.0,"pm2_5":74.5,"mosquito_risk":0,"arthritis_risk":5,"migraine_risk":7,"frizz_risk":0,"updated_at":"2026-04-12T01:07:22.600898+05:30"},{"city":"Mumbai","state":"Maharashtra","latitude":19.076,"longitude":72.8777,"temp":28.5,"humidity":79,"rain":0.0,"pressure":1008.8,"uv_index":8.0,"wind_gusts":21.2,"aqi":119,"pm10":42.5,"pm2_5":31.1,"mosquito_risk":7,"arthritis_risk":0,"migraine_risk":4,"frizz_risk":1,"updated_at":"2026-04-12T01:07:22.600939+05:30"},{"city":"Bangalore","state":"Karnataka","latitude":12.9716,"longitude":77.5946,"temp":25.6,"humidity":60,"rain":0.0,"pressure":912.2,"uv_index":9.65,"wind_gusts":34.9,"aqi":78,"pm10":30.6,"pm2_5":27.2,"mosquito_risk":4,"arthritis_risk":5,"migraine_risk":7,"frizz_risk":1,"updated_at":"2026-04-12T01:07:22.600954+05:30"},{"city":"Hyderabad","state":"Telangana","latitude":17.385,"longitude":78.4867,"temp":29.8,"humidity":51,"rain":0.0,"pressure":953.6,"uv_index":9.25,"wind_gusts":24.5,"aqi":101,"pm10":48.5,"pm2_5":39.8,"mosquito_risk":4,"arthritis_risk":5,"migraine_risk":7,"frizz_risk":1,"updated_at":"2026-04-12T01:07:22.600964+05:30"},{"city":"Chennai","state":"Tamil Nadu","latitude":13.0827,"longitude":80.2707,"temp":29.0,"humidity":77,"rain":0.0,"pressure":1007.8,"uv_index":9.4,"wind_gusts":34.6,"aqi":55,"pm10":16.5,"pm2_5":11.2,"mosquito_risk":7,"arthritis_risk":5,"migraine_risk":4,"frizz_risk":1,"updated_at":"2026-04-12T01:07:22.600973+05:30"},{"city":"Kolkata","state":"West Bengal","latitude":22.5726,"longitude":88.3639,"temp":24.9,"humidity":98,"rain":0.0,"pressure":1006.1,"uv_index":8.8,"wind_gusts":21.6,"aqi":127,"pm10":53.7,"pm2_5":47.5,"mosquito_risk":3,"arthritis_risk":5,"migraine_risk":4,"frizz_risk":1,"updated_at":"2026-04-12T01:07:22.600981+05:30"},{"city":"Pune","state":"Maharashtra","latitude":18.5204,"longitude":73.8567,"temp":26.0,"humidity":64,"rain":0.0,"pressure":949.1,"uv_index":8.55,"wind_gusts":36.7,"aqi":189,"pm10":51.0,"pm2_5":45.1,"mosquito_risk":7,"arthritis_risk":5,"migraine_risk":7,"frizz_risk":1,"updated_at":"2026-04-12T01:07:22.600994+05:30"},{"city":"Ahmedabad","state":"Gujarat","latitude":23.0225,"longitude":72.5714,"temp":28.7,"humidity":40,"rain":0.0,"pressure":1002.8,"uv_index":8.1,"wind_gusts":21.6,"aqi":89,"pm10":79.4,"pm2_5":66.8,"mosquito_risk":4,"arthritis_risk":5,"migraine_risk":4,"frizz_risk":0,"updated_at":"2026-04-12T01:07:22.601002+05:30"},{"city":"Jaipur","state":"Rajasthan","latitude":26.9124,"longitude":75.7873,"temp":26.3,"humidity":39,"rain":0.0,"pressure":961.0,"uv_index":7.85,"wind_gusts":27.0,"aqi":95,"pm10":98.7,"pm2_5":36.4,"mosquito_risk":4,"arthritis_risk":5,"migraine_risk":7,"frizz_risk":0,"updated_at":"2026-04-12T01:07:22.601010+05:30"},{"city":"Lucknow","state":"Uttar Pradesh","latitude":26.8467,"longitude":80.9462,"temp":24.7,"humidity":51,"rain":0.0,"pressure":994.7,"uv_index":7.7,"wind_gusts":31.7,"aqi":243,"pm10":384.6,"pm2_5":71.7,"mosquito_risk":0,"arthritis_risk":5,"migraine_risk":7,"frizz_risk":0,"updated_at":"2026-04-12T01:07:22.601018+05:30"},{"city":"Kanpur","state":"Uttar Pradesh","latitude":26.4499,"longitude":80.3319,"temp":24.6,"humidity":61,"rain":0.0,"pressure":992.9,"uv_index":7.75,"wind_gusts":26.6,"aqi":614,"pm10":594.2,"pm2_5":90.8,"mosquito_risk":3,"arthritis_risk":5,"migraine_risk":7,"frizz_risk":1,"updated_at":"2026-04-12T01:07:22.601025+05:30"},{"city":"Chandigarh","state":"Chandigarh","latitude":30.7333,"longitude":76.7794,"temp":19.9,"humidity":63,"rain":0.0,"pressure":971.1,"uv_index":7.15,"wind_gusts":30.2,"aqi":68,"pm10":63.1,"pm2_5":38.9,"mosquito_risk":3,"arthritis_risk":5,"migraine_risk":7,"frizz_risk":0,"updated_at":"2026-04-12T01:07:22.601032+05:30"},{"city":"Srinagar","state":"Jammu and Kashmir","latitude":34.0837,"longitude":74.7973,"temp":7.6,"humidity":84,"rain":0.0,"pressure":841.8,"uv_index":8.05,"wind_gusts":16.9,"aqi":80,"pm10":45.3,"pm2_5":36.9,"mosquito_risk":3,"arthritis_risk":10,"migraine_risk":7,"frizz_risk":0,"updated_at":"2026-04-12T01:07:22.601039+05:30"},{"city":"Jammu","state":"Jammu and Kashmir","latitude":32.7266,"longitude":74.857,"temp":18.2,"humidity":72,"rain":0.0,"pressure":976.4,"uv_index":7.8,"wind_gusts":26.6,"aqi":72,"pm10":20.1,"pm2_5":14.7,"mosquito_risk":3,"arthritis_risk":5,"migraine_risk":7,"frizz_risk":0,"updated_at":"2026-04-12T01:07:22.601047+05:30"},{"city":"Amritsar","state":"Punjab","latitude":31.634,"longitude":74.8723,"temp":19.2,"humidity":76,"rain":0.0,"pressure":984.3,"uv_index":7.75,"wind_gusts":24.5,"aqi":83,"pm10":64.0,"pm2_5":35.7,"mosquito_risk":3,"arthritis_risk":5,"migraine_risk":7,"frizz_risk":0,"updated_at":"2026-04-12T01:07:22.601053+05:30"},{"city":"Ludhiana","state":"Punjab","latitude":30.901,"longitude":75.8573,"temp":21.2,"humidity":64,"rain":0.0,"pressure":981.7,"uv_index":7.4,"wind_gusts":29.9,"aqi":74,"pm10":72.6,"pm2_5":38.0,"mosquito_risk":3,"arthritis_risk":5,"migraine_risk":7,"frizz_risk":0,"updated_at":"2026-04-12T01:07:22.601060+05:30"},{"city":"Jalandhar","state":"Punjab","latitude":31.326,"longitude":75.5762,"temp":19.6,"humidity":73,"rain":0.0,"pressure":983.0,"uv_index":7.55,"wind_gusts":27.0,"aqi":73,"pm10":71.5,"pm2_5":32.4,"mosquito_risk":3,"arthritis_risk":5,"migraine_risk":7,"frizz_risk":0,"updated_at":"2026-04-12T01:07:22.601090+05:30"},{"city":"Dehradun","state":"Uttarakhand","latitude":30.6284,"longitude":78.0322,"temp":11.3,"humidity":77,"rain":0.0,"pressure":829.9,"uv_index":7.6,"wind_gusts":34.9,"aqi":46,"pm10":44.9,"pm2_5":15.7,"mosquito_risk":3,"arthritis_risk":5,"migraine_risk":7,"frizz_risk":0,"updated_at":"2026-04-12T01:07:22.601107+05:30"},{"city":"Shimla","state":"Himachal Pradesh","latitude":31.1048,"longitude":77.1734,"temp":8.9,"humidity":68,"rain":0.0,"pressure":783.0,"uv_index":7.65,"wind_gusts":41.8,"aqi":54,"pm10":47.3,"pm2_5":20.1,"mosquito_risk":3,"arthritis_risk":5,"migraine_risk":7,"frizz_risk":0,"updated_at":"2026-04-12T01:07:22.601114+05:30"},{"city":"Manali","state":"Himachal Pradesh","latitude":32.2396,"longitude":77.1887,"temp":10.5,"humidity":86,"rain":0.0,"pressure":818.9,"uv_index":9.85,"wind_gusts":26.3,"aqi":85,"pm10":10.7,"pm2_5":7.2,"mosquito_risk":3,"arthritis_risk":10,"migraine_risk":7,"frizz_risk":0,"updated_at":"2026-04-12T01:07:22.601121+05:30"},{"city":"Gurgaon","state":"Haryana","latitude":28.4595,"longitude":77.0266,"temp":22.7,"humidity":63,"rain":0.0,"pressure":983.7,"uv_index":7.35,"wind_gusts":31.3,"aqi":1179,"pm10":789.8,"pm2_5":122.0,"mosquito_risk":3,"arthritis_risk":5,"migraine_risk":7,"frizz_risk":0,"updated_at":"2026-04-12T01:07:22.601128+05:30"},{"city":"Noida","state":"Uttar Pradesh","latitude":28.5355,"longitude":77.391,"temp":24.4,"humidity":55,"rain":0.0,"pressure":986.7,"uv_index":7.25,"wind_gusts":32.8,"aqi":1179,"pm10":789.8,"pm2_5":122.0,"mosquito_risk":0,"arthritis_risk":5,"migraine_risk":7,"frizz_risk":0,"updated_at":"2026-04-12T01:07:22.601134+05:30"},{"city":"Ghaziabad","state":"Uttar Pradesh","latitude":28.6692,"longitude":77.4538,"temp":23.1,"humidity":60,"rain":0.0,"pressure":984.8,"uv_index":7.2,"wind_gusts":32.0,"aqi":306,"pm10":298.0,"pm2_5":60.8,"mosquito_risk":0,"arthritis_risk":5,"migraine_risk":7,"frizz_risk":0,"updated_at":"2026-04-12T01:07:22.601140+05:30"},{"city":"Faridabad","state":"Haryana","latitude":28.4089,"longitude":77.3178,"temp":24.6,"humidity":51,"rain":0.0,"pressure":985.9,"uv_index":7.3,"wind_gusts":31.3,"aqi":1179,"pm10":789.8,"pm2_5":122.0,"mosquito_risk":0,"arthritis_risk":5,"migraine_risk":7,"frizz_risk":0,"updated_at":"2026-04-12T01:07:22.601147+05:30"},{"city":"Meerut","state":"Uttar Pradesh","latitude":28.9845,"longitude":77.7064,"temp":22.2,"humidity":61,"rain":0.0,"pressure":983.6,"uv_index":7.1,"wind_gusts":34.6,"aqi":306,"pm10":298.0,"pm2_5":60.8,"mosquito_risk":3,"arthritis_risk":5,"migraine_risk":7,"frizz_risk":0,"updated_at":"2026-04-12T01:07:22.601153+05:30"},{"city":"Agra","state":"Uttar Pradesh","latitude":27.1767,"longitude":78.0081,"temp":24.4,"humidity":54,"rain":0.0,"pressure":989.2,"uv_index":7.6,"wind_gusts":33.1,"aqi":787,"pm10":802.8,"pm2_5":115.3,"mosquito_risk":0,"arthritis_risk":5,"migraine_risk":7,"frizz_risk":0,"updated_at":"2026-04-12T01:07:22.601161+05:30"},{"city":"Varanasi","state":"Uttar Pradesh","latitude":25.3176,"longitude":82.9739,"temp":24.2,"humidity":51,"rain":0.0,"pressure":998.7,"uv_index":8.35,"wind_gusts":32.0,"aqi":113,"pm10":175.6,"pm2_5":49.0,"mosquito_risk":0,"arthritis_risk":5,"migraine_risk":7,"frizz_risk":0,"updated_at":"2026-04-12T01:07:22.601170+05:30"},{"city":"Prayagraj","state":"Uttar Pradesh","latitude":25.4358,"longitude":81.8463,"temp":25.8,"humidity":50,"rain":0.0,"pressure":997.2,"uv_index":8.2,"wind_gusts":23.8,"aqi":136,"pm10":285.9,"pm2_5":63.6,"mosquito_risk":4,"arthritis_risk":5,"migraine_risk":7,"frizz_risk":0,"updated_at":"2026-04-12T01:07:22.601179+05:30"},{"city":"Gorakhpur","state":"Uttar Pradesh","latitude":26.7606,"longitude":83.3732,"temp":23.0,"humidity":52,"rain":0.0,"pressure":997.8,"uv_index":8.15,"wind_gusts":39.2,"aqi":130,"pm10":130.4,"pm2_5":36.4,"mosquito_risk":0,"arthritis_risk":5,"migraine_risk":7,"frizz_risk":0,"updated_at":"2026-04-12T01:07:22.601186+05:30"},{"city":"Bareilly","state":"Uttar Pradesh","latitude":28.367,"longitude":79.4304,"temp":22.2,"humidity":66,"rain":0.0,"pressure":988.2,"uv_index":7.45,"wind_gusts":38.5,"aqi":85,"pm10":109.7,"pm2_5":35.9,"mosquito_risk":3,"arthritis_risk":5,"migraine_risk":7,"frizz_risk":0,"updated_at":"2026-04-12T01:07:22.601192+05:30"},{"city":"Aligarh","state":"Uttar Pradesh","latitude":27.8974,"longitude":78.088,"temp":23.5,"humidity":57,"rain":0.0,"pressure":987.0,"uv_index":7.4,"wind_gusts":32.4,"aqi":779,"pm10":542.0,"pm2_5":86.8,"mosquito_risk":0,"arthritis_risk":5,"migraine_risk":7,"frizz_risk":0,"updated_at":"2026-04-12T01:07:22.601199+05:30"},{"city":"Moradabad","state":"Uttar Pradesh","latitude":28.8386,"longitude":78.7733,"temp":22.2,"humidity":63,"rain":0.0,"pressure":985.4,"uv_index":7.3,"wind_gusts":38.5,"aqi":91,"pm10":124.3,"pm2_5":41.2,"mosquito_risk":3,"arthritis_risk":5,"migraine_risk":7,"frizz_risk":0,"updated_at":"2026-04-12T01:07:22.601205+05:30"},{"city":"Saharanpur","state":"Uttar Pradesh","latitude":29.9637,"longitude":77.546,"temp":20.1,"humidity":64,"rain":0.0,"pressure":977.7,"uv_index":6.9,"wind_gusts":32.8,"aqi":75,"pm10":74.3,"pm2_5":38.2,"mosquito_risk":3,"arthritis_risk":5,"migraine_risk":7,"frizz_risk":0,"updated_at":"2026-04-12T01:07:22.601211+05:30"},{"city":"Jhansi","state":"Uttar Pradesh","latitude":25.4484,"longitude":78.5685,"temp":27.1,"humidity":40,"rain":0.0,"pressure":978.8,"uv_index":8.15,"wind_gusts":36.0,"aqi":54,"pm10":24.3,"pm2_5":18.2,"mosquito_risk":4,"arthritis_risk":5,"migraine_risk":7,"frizz_risk":0,"updated_at":"2026-04-12T01:07:25.944583+05:30"},{"city":"Surat","state":"Gujarat","latitude":21.1702,"longitude":72.8311,"temp":27.9,"humidity":74,"rain":0.0,"pressure":1006.9,"uv_index":7.8,"wind_gusts":24.1,"aqi":134,"pm10":56.2,"pm2_5":52.2,"mosquito_risk":7,"arthritis_risk":5,"migraine_risk":4,"frizz_risk":1,"updated_at":"2026-04-12T01:07:25.944613+05:30"},{"city":"Vadodara","state":"Gujarat","latitude":22.3072,"longitude":73.1812,"temp":27.6,"humidity":49,"rain":0.0,"pressure":1004.7,"uv_index":8.05,"wind_gusts":19.1,"aqi":95,"pm10":69.8,"pm2_5":60.5,"mosquito_risk":4,"arthritis_risk":5,"migraine_risk":4,"frizz_risk":0,"updated_at":"2026-04-12T01:07:25.944625+05:30"},{"city":"Rajkot","state":"Gujarat","latitude":22.3039,"longitude":70.8022,"temp":26.0,"humidity":66,"rain":0.0,"pressure":996.0,"uv_index":7.8,"wind_gusts":25.6,"aqi":74,"pm10":104.1,"pm2_5":30.0,"mosquito_risk":7,"arthritis_risk":5,"migraine_risk":7,"frizz_risk":1,"updated_at":"2026-04-12T01:07:25.944635+05:30"},{"city":"Thane","state":"Maharashtra","latitude":19.2183,"longitude":72.9781,"temp":26.9,"humidity":82,"rain":0.0,"pressure":1008.3,"uv_index":8.0,"wind_gusts":35.6,"aqi":119,"pm10":42.5,"pm2_5":31.1,"mosquito_risk":7,"arthritis_risk":0,"migraine_risk":4,"frizz_risk":1,"updated_at":"2026-04-12T01:07:25.944642+05:30"},{"city":"Nagpur","state":"Maharashtra","latitude":21.1458,"longitude":79.0882,"temp":26.3,"humidity":50,"rain":0.0,"pressure":973.6,"uv_index":8.8,"wind_gusts":18.0,"aqi":62,"pm10":29.2,"pm2_5":21.7,"mosquito_risk":4,"arthritis_risk":5,"migraine_risk":7,"frizz_risk":0,"updated_at":"2026-04-12T01:07:25.944650+05:30"},{"city":"Nashik","state":"Maharashtra","latitude":19.9975,"longitude":73.7898,"temp":26.2,"humidity":56,"rain":0.0,"pressure":946.6,"uv_index":8.25,"wind_gusts":30.6,"aqi":151,"pm10":49.7,"pm2_5":40.2,"mosquito_risk":4,"arthritis_risk":5,"migraine_risk":7,"frizz_risk":1,"updated_at":"2026-04-12T01:07:25.944658+05:30"},{"city":"Aurangabad","state":"Maharashtra","latitude":19.8762,"longitude":75.3433,"temp":28.5,"humidity":37,"rain":0.0,"pressure":944.7,"uv_index":8.95,"wind_gusts":27.7,"aqi":94,"pm10":32.4,"pm2_5":23.2,"mosquito_risk":4,"arthritis_risk":5,"migraine_risk":7,"frizz_risk":0,"updated_at":"2026-04-12T01:07:25.944665+05:30"},{"city":"Solapur","state":"Maharashtra","latitude":17.6599,"longitude":75.9064,"temp":31.4,"humidity":40,"rain":0.0,"pressure":956.5,"uv_index":9.05,"wind_gusts":27.4,"aqi":93,"pm10":29.0,"pm2_5":24.3,"mosquito_risk":0,"arthritis_risk":5,"migraine_risk":7,"frizz_risk":1,"updated_at":"2026-04-12T01:07:25.944672+05:30"},{"city":"Kolhapur","state":"Maharashtra","latitude":16.705,"longitude":74.2433,"temp":22.6,"humidity":83,"rain":0.0,"pressure":948.1,"uv_index":9.05,"wind_gusts":49.0,"aqi":99,"pm10":38.5,"pm2_5":30.9,"mosquito_risk":3,"arthritis_risk":5,"migraine_risk":7,"frizz_risk":1,"updated_at":"2026-04-12T01:07:25.944679+05:30"},{"city":"Goa","state":"Goa","latitude":15.2993,"longitude":74.124,"temp":28.1,"humidity":79,"rain":0.0,"pressure":998.3,"uv_index":9.05,"wind_gusts":30.6,"aqi":104,"pm10":69.6,"pm2_5":34.9,"mosquito_risk":7,"arthritis_risk":5,"migraine_risk":7,"frizz_risk":1,"updated_at":"2026-04-12T01:07:25.944686+05:30"},{"city":"Jodhpur","state":"Rajasthan","latitude":26.2389,"longitude":73.0243,"temp":26.7,"humidity":41,"rain":0.0,"pressure":984.7,"uv_index":8.1,"wind_gusts":17.3,"aqi":90,"pm10":180.2,"pm2_5":37.3,"mosquito_risk":4,"arthritis_risk":5,"migraine_risk":7,"frizz_risk":0,"updated_at":"2026-04-12T01:07:25.944693+05:30"},{"city":"Udaipur","state":"Rajasthan","latitude":24.5854,"longitude":73.7125,"temp":25.7,"humidity":42,"rain":0.0,"pressure":948.1,"uv_index":8.65,"wind_gusts":27.4,"aqi":73,"pm10":33.9,"pm2_5":18.5,"mosquito_risk":4,"arthritis_risk":5,"migraine_risk":7,"frizz_risk":0,"updated_at":"2026-04-12T01:07:25.944700+05:30"},{"city":"Kota","state":"Rajasthan","latitude":25.2138,"longitude":75.8648,"temp":24.5,"humidity":58,"rain":0.0,"pressure":979.5,"uv_index":8.15,"wind_gusts":22.0,"aqi":69,"pm10":33.1,"pm2_5":24.3,"mosquito_risk":0,"arthritis_risk":5,"migraine_risk":7,"frizz_risk":0,"updated_at":"2026-04-12T01:07:25.944706+05:30"},{"city":"Bikaner","state":"Rajasthan","latitude":28.0229,"longitude":73.3119,"temp":26.8,"humidity":43,"rain":0.0,"pressure":984.6,"uv_index":7.95,"wind_gusts":18.4,"aqi":63,"pm10":73.3,"pm2_5":27.4,"mosquito_risk":4,"arthritis_risk":5,"migraine_risk":7,"frizz_risk":0,"updated_at":"2026-04-12T01:07:25.944713+05:30"},{"city":"Ajmer","state":"Rajasthan","latitude":26.4499,"longitude":74.6399,"temp":26.8,"humidity":42,"rain":0.0,"pressure":955.9,"uv_index":8.1,"wind_gusts":23.0,"aqi":65,"pm10":117.1,"pm2_5":30.7,"mosquito_risk":4,"arthritis_risk":5,"migraine_risk":7,"frizz_risk":0,"updated_at":"2026-04-12T01:07:25.944719+05:30"},{"city":"Gwalior","state":"Madhya Pradesh","latitude":26.2183,"longitude":78.1828,"temp":25.7,"humidity":53,"rain":0.0,"pressure":984.0,"uv_index":7.85,"wind_gusts":29.5,"aqi":76,"pm10":109.0,"pm2_5":31.8,"mosquito_risk":4,"arthritis_risk":5,"migraine_risk":7,"frizz_risk":0,"updated_at":"2026-04-12T01:07:25.944726+05:30"},{"city":"Indore","state":"Madhya Pradesh","latitude":22.7196,"longitude":75.8577,"temp":24.4,"humidity":48,"rain":0.0,"pressure":948.9,"uv_index":8.55,"wind_gusts":26.3,"aqi":74,"pm10":68.9,"pm2_5":59.0,"mosquito_risk":0,"arthritis_risk":5,"migraine_risk":7,"frizz_risk":0,"updated_at":"2026-04-12T01:07:25.944733+05:30"},{"city":"Bhopal","state":"Madhya Pradesh","latitude":23.2599,"longitude":77.4126,"temp":24.7,"humidity":40,"rain":0.0,"pressure":954.4,"uv_index":8.5,"wind_gusts":29.9,"aqi":55,"pm10":42.0,"pm2_5":23.4,"mosquito_risk":0,"arthritis_risk":5,"migraine_risk":7,"frizz_risk":0,"updated_at":"2026-04-12T01:07:25.944740+05:30"},{"city":"Jabalpur","state":"Madhya Pradesh","latitude":23.1815,"longitude":79.9864,"temp":25.7,"humidity":44,"rain":0.0,"pressure":962.1,"uv_index":8.65,"wind_gusts":33.8,"aqi":72,"pm10":78.7,"pm2_5":41.2,"mosquito_risk":4,"arthritis_risk":5,"migraine_risk":7,"frizz_risk":0,"updated_at":"2026-04-12T01:07:25.944746+05:30"},{"city":"Ujjain","state":"Madhya Pradesh","latitude":23.1765,"longitude":75.7885,"temp":24.8,"humidity":48,"rain":0.0,"pressure":954.7,"uv_index":8.45,"wind_gusts":27.0,"aqi":78,"pm10":34.6,"pm2_5":27.9,"mosquito_risk":0,"arthritis_risk":5,"migraine_risk":7,"frizz_risk":0,"updated_at":"2026-04-12T01:07:25.944753+05:30"},{"city":"Visakhapatnam","state":"Andhra Pradesh","latitude":17.6868,"longitude":83.2185,"temp":27.8,"humidity":90,"rain":0.0,"pressure":1004.3,"uv_index":9.15,"wind_gusts":38.9,"aqi":77,"pm10":28.1,"pm2_5":21.8,"mosquito_risk":7,"arthritis_risk":5,"migraine_risk":4,"frizz_risk":1,"updated_at":"2026-04-12T01:07:25.944760+05:30"},{"city":"Vijayawada","state":"Andhra Pradesh","latitude":16.5062,"longitude":80.648,"temp":27.7,"humidity":85,"rain":0.0,"pressure":1003.0,"uv_index":9.2,"wind_gusts":31.7,"aqi":70,"pm10":17.1,"pm2_5":12.9,"mosquito_risk":7,"arthritis_risk":5,"migraine_risk":4,"frizz_risk":1,"updated_at":"2026-04-12T01:07:25.944766+05:30"},{"city":"Guntur","state":"Andhra Pradesh","latitude":16.3067,"longitude":80.4365,"temp":27.7,"humidity":86,"rain":0.0,"pressure":1004.2,"uv_index":9.25,"wind_gusts":34.9,"aqi":71,"pm10":17.5,"pm2_5":13.1,"mosquito_risk":7,"arthritis_risk":5,"migraine_risk":4,"frizz_risk":1,"updated_at":"2026-04-12T01:07:25.944773+05:30"},{"city":"Nellore","state":"Andhra Pradesh","latitude":14.4426,"longitude":79.9865,"temp":28.5,"humidity":83,"rain":0.0,"pressure":1006.2,"uv_index":9.35,"wind_gusts":35.3,"aqi":59,"pm10":14.5,"pm2_5":10.3,"mosquito_risk":7,"arthritis_risk":5,"migraine_risk":4,"frizz_risk":1,"updated_at":"2026-04-12T01:07:25.944780+05:30"},{"city":"Kurnool","state":"Andhra Pradesh","latitude":15.8281,"longitude":78.0373,"temp":31.6,"humidity":46,"rain":0.0,"pressure":976.3,"uv_index":9.25,"wind_gusts":30.2,"aqi":81,"pm10":34.0,"pm2_5":28.6,"mosquito_risk":0,"arthritis_risk":5,"migraine_risk":7,"frizz_risk":1,"updated_at":"2026-04-12T01:07:25.944787+05:30"},{"city":"Kakinada","state":"Andhra Pradesh","latitude":16.9891,"longitude":82.2475,"temp":27.7,"humidity":89,"rain":0.0,"pressure":1008.0,"uv_index":9.2,"wind_gusts":36.4,"aqi":59,"pm10":22.0,"pm2_5":13.9,"mosquito_risk":7,"arthritis_risk":0,"migraine_risk":4,"frizz_risk":1,"updated_at":"2026-04-12T01:07:25.944794+05:30"},{"city":"Tirupati","state":"Andhra Pradesh","latitude":13.6288,"longitude":79.4192,"temp":26.3,"humidity":87,"rain":0.0,"pressure":992.9,"uv_index":9.45,"wind_gusts":31.0,"aqi":69,"pm10":22.8,"pm2_5":20.1,"mosquito_risk":7,"arthritis_risk":5,"migraine_risk":7,"frizz_risk":1,"updated_at":"2026-04-12T01:07:25.944801+05:30"},{"city":"Warangal","state":"Telangana","latitude":17.9689,"longitude":79.5941,"temp":28.7,"humidity":57,"rain":0.0,"pressure":978.7,"uv_index":9.1,"wind_gusts":29.9,"aqi":111,"pm10":52.7,"pm2_5":42.1,"mosquito_risk":4,"arthritis_risk":5,"migraine_risk":7,"frizz_risk":1,"updated_at":"2026-04-12T01:07:25.944807+05:30"},{"city":"Nizamabad","state":"Telangana","latitude":18.6725,"longitude":78.0941,"temp":26.7,"humidity":63,"rain":0.0,"pressure":964.5,"uv_index":9.05,"wind_gusts":21.6,"aqi":93,"pm10":68.5,"pm2_5":55.8,"mosquito_risk":7,"arthritis_risk":5,"migraine_risk":7,"frizz_risk":1,"updated_at":"2026-04-12T01:07:25.944813+05:30"},{"city":"Mysore","state":"Karnataka","latitude":12.2958,"longitude":76.6396,"temp":24.4,"humidity":88,"rain":0.0,"pressure":928.8,"uv_index":9.15,"wind_gusts":44.3,"aqi":82,"pm10":34.6,"pm2_5":30.3,"mosquito_risk":3,"arthritis_risk":5,"migraine_risk":7,"frizz_risk":1,"updated_at":"2026-04-12T01:07:25.944820+05:30"},{"city":"Mangalore","state":"Karnataka","latitude":12.9141,"longitude":74.856,"temp":29.3,"humidity":81,"rain":0.0,"pressure":1006.8,"uv_index":9.2,"wind_gusts":21.6,"aqi":89,"pm10":61.0,"pm2_5":29.9,"mosquito_risk":7,"arthritis_risk":5,"migraine_risk":4,"frizz_risk":1,"updated_at":"2026-04-12T01:07:25.944826+05:30"},{"city":"Hubli-Dharwad","state":"Karnataka","latitude":15.3647,"longitude":75.124,"temp":23.8,"humidity":90,"rain":0.0,"pressure":940.9,"uv_index":9.25,"wind_gusts":31.7,"aqi":92,"pm10":43.1,"pm2_5":26.8,"mosquito_risk":3,"arthritis_risk":5,"migraine_risk":7,"frizz_risk":1,"updated_at":"2026-04-12T01:07:25.944833+05:30"},{"city":"Belgaum","state":"Karnataka","latitude":15.8497,"longitude":74.4977,"temp":22.0,"humidity":96,"rain":0.0,"pressure":925.8,"uv_index":9.3,"wind_gusts":43.2,"aqi":97,"pm10":49.6,"pm2_5":33.4,"mosquito_risk":3,"arthritis_risk":5,"migraine_risk":7,"frizz_risk":1,"updated_at":"2026-04-12T01:07:29.282701+05:30"},{"city":"Coimbatore","state":"Tamil Nadu","latitude":11.0168,"longitude":76.9558,"temp":25.9,"humidity":86,"rain":0.0,"pressure":962.4,"uv_index":9.5,"wind_gusts":49.3,"aqi":77,"pm10":36.7,"pm2_5":31.8,"mosquito_risk":7,"arthritis_risk":5,"migraine_risk":7,"frizz_risk":1,"updated_at":"2026-04-12T01:07:29.282733+05:30"},{"city":"Madurai","state":"Tamil Nadu","latitude":9.9252,"longitude":78.1198,"temp":28.0,"humidity":83,"rain":0.0,"pressure":993.8,"uv_index":9.4,"wind_gusts":37.4,"aqi":74,"pm10":38.9,"pm2_5":34.7,"mosquito_risk":7,"arthritis_risk":5,"migraine_risk":7,"frizz_risk":1,"updated_at":"2026-04-12T01:07:29.282744+05:30"},{"city":"Trichy","state":"Tamil Nadu","latitude":10.7905,"longitude":78.7047,"temp":27.8,"humidity":89,"rain":0.0,"pressure":1000.6,"uv_index":9.4,"wind_gusts":25.6,"aqi":69,"pm10":22.8,"pm2_5":20.5,"mosquito_risk":7,"arthritis_risk":5,"migraine_risk":4,"frizz_risk":1,"updated_at":"2026-04-12T01:07:29.282754+05:30"},{"city":"Salem","state":"Tamil Nadu","latitude":11.6643,"longitude":78.146,"temp":28.4,"humidity":76,"rain":0.0,"pressure":978.0,"uv_index":9.45,"wind_gusts":16.6,"aqi":71,"pm10":30.3,"pm2_5":26.7,"mosquito_risk":7,"arthritis_risk":5,"migraine_risk":7,"frizz_risk":1,"updated_at":"2026-04-12T01:07:29.282763+05:30"},{"city":"Tirunelveli","state":"Tamil Nadu","latitude":8.7139,"longitude":77.7567,"temp":27.9,"humidity":70,"rain":0.0,"pressure":1003.4,"uv_index":9.35,"wind_gusts":43.2,"aqi":69,"pm10":33.5,"pm2_5":28.9,"mosquito_risk":7,"arthritis_risk":5,"migraine_risk":4,"frizz_risk":1,"updated_at":"2026-04-12T01:07:29.282772+05:30"},{"city":"Vellore","state":"Tamil Nadu","latitude":12.9165,"longitude":79.1325,"temp":26.2,"humidity":80,"rain":0.0,"pressure":985.5,"uv_index":9.5,"wind_gusts":31.7,"aqi":81,"pm10":35.2,"pm2_5":32.2,"mosquito_risk":7,"arthritis_risk":5,"migraine_risk":7,"frizz_risk":1,"updated_at":"2026-04-12T01:07:29.282781+05:30"},{"city":"Erode","state":"Tamil Nadu","latitude":11.341,"longitude":77.7172,"temp":29.2,"humidity":74,"rain":0.0,"pressure":989.7,"uv_index":9.45,"wind_gusts":31.3,"aqi":67,"pm10":20.0,"pm2_5":17.2,"mosquito_risk":7,"arthritis_risk":5,"migraine_risk":7,"frizz_risk":1,"updated_at":"2026-04-12T01:07:29.282789+05:30"},{"city":"Kochi","state":"Kerala","latitude":9.9312,"longitude":76.2673,"temp":28.9,"humidity":83,"rain":0.0,"pressure":1009.0,"uv_index":9.1,"wind_gusts":27.4,"aqi":68,"pm10":40.3,"pm2_5":35.4,"mosquito_risk":7,"arthritis_risk":0,"migraine_risk":4,"frizz_risk":1,"updated_at":"2026-04-12T01:07:29.282797+05:30"},{"city":"Thiruvananthapuram","state":"Kerala","latitude":8.5241,"longitude":76.9366,"temp":28.5,"humidity":85,"rain":0.0,"pressure":1008.0,"uv_index":9.2,"wind_gusts":28.4,"aqi":61,"pm10":36.3,"pm2_5":20.3,"mosquito_risk":7,"arthritis_risk":0,"migraine_risk":4,"frizz_risk":1,"updated_at":"2026-04-12T01:07:29.282806+05:30"},{"city":"Kozhikode","state":"Kerala","latitude":11.2588,"longitude":75.7804,"temp":29.9,"humidity":81,"rain":0.0,"pressure":1007.8,"uv_index":9.15,"wind_gusts":29.2,"aqi":59,"pm10":53.1,"pm2_5":24.0,"mosquito_risk":7,"arthritis_risk":5,"migraine_risk":4,"frizz_risk":1,"updated_at":"2026-04-12T01:07:29.282814+05:30"},{"city":"Thrissur","state":"Kerala","latitude":10.5276,"longitude":76.2144,"temp":28.4,"humidity":88,"rain":0.0,"pressure":1007.0,"uv_index":8.75,"wind_gusts":31.7,"aqi":68,"pm10":51.7,"pm2_5":42.8,"mosquito_risk":7,"arthritis_risk":5,"migraine_risk":4,"frizz_risk":1,"updated_at":"2026-04-12T01:07:29.282823+05:30"},{"city":"Kannur","state":"Kerala","latitude":11.8745,"longitude":75.3704,"temp":28.5,"humidity":85,"rain":0.0,"pressure":1007.2,"uv_index":9.2,"wind_gusts":31.0,"aqi":70,"pm10":58.1,"pm2_5":33.2,"mosquito_risk":7,"arthritis_risk":5,"migraine_risk":4,"frizz_risk":1,"updated_at":"2026-04-12T01:07:29.282832+05:30"},{"city":"Patna","state":"Bihar","latitude":25.5941,"longitude":85.1376,"temp":25.0,"humidity":56,"rain":0.0,"pressure":1000.8,"uv_index":8.5,"wind_gusts":38.2,"aqi":129,"pm10":50.3,"pm2_5":33.8,"mosquito_risk":4,"arthritis_risk":5,"migraine_risk":4,"frizz_risk":0,"updated_at":"2026-04-12T01:07:29.282840+05:30"},{"city":"Gaya","state":"Bihar","latitude":24.7914,"longitude":85.0002,"temp":25.0,"humidity":44,"rain":0.0,"pressure":994.5,"uv_index":8.55,"wind_gusts":30.2,"aqi":103,"pm10":54.7,"pm2_5":29.5,"mosquito_risk":4,"arthritis_risk":5,"migraine_risk":7,"frizz_risk":0,"updated_at":"2026-04-12T01:07:29.282848+05:30"},{"city":"Muzaffarpur","state":"Bihar","latitude":26.1209,"longitude":85.3647,"temp":22.4,"humidity":65,"rain":0.0,"pressure":1000.8,"uv_index":8.45,"wind_gusts":38.5,"aqi":139,"pm10":113.6,"pm2_5":71.0,"mosquito_risk":3,"arthritis_risk":5,"migraine_risk":4,"frizz_risk":0,"updated_at":"2026-04-12T01:07:29.282855+05:30"},{"city":"Bhagalpur","state":"Bihar","latitude":25.2425,"longitude":87.0117,"temp":24.1,"humidity":60,"rain":0.0,"pressure":1001.1,"uv_index":8.5,"wind_gusts":28.1,"aqi":122,"pm10":272.9,"pm2_5":72.2,"mosquito_risk":0,"arthritis_risk":5,"migraine_risk":4,"frizz_risk":0,"updated_at":"2026-04-12T01:07:29.282863+05:30"},{"city":"Ranchi","state":"Jharkhand","latitude":23.3441,"longitude":85.3096,"temp":21.3,"humidity":42,"rain":0.0,"pressure":938.7,"uv_index":9.1,"wind_gusts":33.5,"aqi":83,"pm10":72.6,"pm2_5":24.3,"mosquito_risk":0,"arthritis_risk":5,"migraine_risk":7,"frizz_risk":0,"updated_at":"2026-04-12T01:07:29.282871+05:30"},{"city":"Jamshedpur","state":"Jharkhand","latitude":22.8046,"longitude":86.2029,"temp":22.5,"humidity":80,"rain":0.0,"pressure":991.4,"uv_index":8.9,"wind_gusts":18.4,"aqi":128,"pm10":136.4,"pm2_5":47.4,"mosquito_risk":3,"arthritis_risk":5,"migraine_risk":7,"frizz_risk":1,"updated_at":"2026-04-12T01:07:29.282879+05:30"},{"city":"Dhanbad","state":"Jharkhand","latitude":23.7957,"longitude":86.4304,"temp":22.6,"humidity":53,"rain":0.0,"pressure":980.2,"uv_index":8.85,"wind_gusts":30.6,"aqi":151,"pm10":97.3,"pm2_5":50.2,"mosquito_risk":0,"arthritis_risk":5,"migraine_risk":7,"frizz_risk":0,"updated_at":"2026-04-12T01:07:29.282886+05:30"},{"city":"Bokaro","state":"Jharkhand","latitude":23.6693,"longitude":86.1511,"temp":22.9,"humidity":46,"rain":0.0,"pressure":984.7,"uv_index":8.85,"wind_gusts":33.1,"aqi":145,"pm10":89.4,"pm2_5":46.1,"mosquito_risk":0,"arthritis_risk":5,"migraine_risk":7,"frizz_risk":0,"updated_at":"2026-04-12T01:07:29.282894+05:30"},{"city":"Bhubaneswar","state":"Odisha","latitude":20.2961,"longitude":85.8245,"temp":26.8,"humidity":96,"rain":0.0,"pressure":1003.4,"uv_index":9.05,"wind_gusts":31.7,"aqi":116,"pm10":32.9,"pm2_5":29.9,"mosquito_risk":7,"arthritis_risk":5,"migraine_risk":4,"frizz_risk":1,"updated_at":"2026-04-12T01:07:29.282902+05:30"},{"city":"Cuttack","state":"Odisha","latitude":20.4625,"longitude":85.8828,"temp":26.7,"humidity":96,"rain":0.0,"pressure":1005.4,"uv_index":9.1,"wind_gusts":34.2,"aqi":116,"pm10":32.9,"pm2_5":29.9,"mosquito_risk":7,"arthritis_risk":5,"migraine_risk":4,"frizz_risk":1,"updated_at":"2026-04-12T01:07:29.282910+05:30"},{"city":"Rourkela","state":"Odisha","latitude":22.2604,"longitude":84.8536,"temp":21.2,"humidity":74,"rain":0.0,"pressure":986.1,"uv_index":8.8,"wind_gusts":17.6,"aqi":104,"pm10":146.2,"pm2_5":61.9,"mosquito_risk":3,"arthritis_risk":5,"migraine_risk":7,"frizz_risk":1,"updated_at":"2026-04-12T01:07:29.282917+05:30"},{"city":"Raipur","state":"Chhattisgarh","latitude":21.2514,"longitude":81.6296,"temp":25.6,"humidity":37,"rain":0.0,"pressure":975.5,"uv_index":8.85,"wind_gusts":20.9,"aqi":91,"pm10":68.7,"pm2_5":50.9,"mosquito_risk":4,"arthritis_risk":5,"migraine_risk":7,"frizz_risk":0,"updated_at":"2026-04-12T01:07:29.282924+05:30"},{"city":"Bhilai","state":"Chhattisgarh","latitude":21.1938,"longitude":81.3509,"temp":24.5,"humidity":42,"rain":0.0,"pressure":975.7,"uv_index":8.9,"wind_gusts":19.8,"aqi":92,"pm10":82.9,"pm2_5":64.7,"mosquito_risk":0,"arthritis_risk":5,"migraine_risk":7,"frizz_risk":0,"updated_at":"2026-04-12T01:07:29.282931+05:30"},{"city":"Guwahati","state":"Assam","latitude":26.1158,"longitude":91.7086,"temp":23.9,"humidity":83,"rain":0.0,"pressure":1002.7,"uv_index":8.4,"wind_gusts":31.0,"aqi":99,"pm10":48.2,"pm2_5":40.7,"mosquito_risk":3,"arthritis_risk":5,"migraine_risk":4,"frizz_risk":1,"updated_at":"2026-04-12T01:07:29.282939+05:30"},{"city":"Agartala","state":"Tripura","latitude":23.8315,"longitude":91.2868,"temp":23.9,"humidity":94,"rain":0.0,"pressure":1006.5,"uv_index":8.65,"wind_gusts":31.3,"aqi":123,"pm10":44.1,"pm2_5":37.1,"mosquito_risk":3,"arthritis_risk":5,"migraine_risk":4,"frizz_risk":1,"updated_at":"2026-04-12T01:07:29.282946+05:30"},{"city":"Shillong","state":"Meghalaya","latitude":25.5788,"longitude":91.8933,"temp":12.6,"humidity":84,"rain":0.0,"pressure":855.2,"uv_index":8.05,"wind_gusts":61.6,"aqi":89,"pm10":52.5,"pm2_5":39.6,"mosquito_risk":3,"arthritis_risk":10,"migraine_risk":7,"frizz_risk":0,"updated_at":"2026-04-12T01:07:29.282955+05:30"},{"city":"Imphal","state":"Manipur","latitude":24.817,"longitude":93.9368,"temp":16.2,"humidity":81,"rain":0.0,"pressure":923.4,"uv_index":8.95,"wind_gusts":66.6,"aqi":94,"pm10":55.9,"pm2_5":42.1,"mosquito_risk":3,"arthritis_risk":10,"migraine_risk":7,"frizz_risk":0,"updated_at":"2026-04-12T01:07:29.282964+05:30"},{"city":"Aizawl","state":"Mizoram","latitude":23.7271,"longitude":92.7176,"temp":17.6,"humidity":71,"rain":0.0,"pressure":892.4,"uv_index":8.85,"wind_gusts":52.2,"aqi":91,"pm10":58.0,"pm2_5":41.0,"mosquito_risk":3,"arthritis_risk":5,"migraine_risk":7,"frizz_risk":0,"updated_at":"2026-04-12T01:07:29.282972+05:30"},{"city":"Kohima","state":"Nagaland","latitude":25.6701,"longitude":94.1077,"temp":13.4,"humidity":74,"rain":0.0,"pressure":853.8,"uv_index":8.9,"wind_gusts":89.6,"aqi":78,"pm10":44.9,"pm2_5":34.6,"mosquito_risk":3,"arthritis_risk":5,"migraine_risk":7,"frizz_risk":0,"updated_at":"2026-04-12T01:07:29.282979+05:30"},{"city":"Gangtok","state":"Sikkim","latitude":27.3314,"longitude":88.6138,"temp":11.5,"humidity":92,"rain":0.1,"pressure":835.5,"uv_index":8.1,"wind_gusts":16.6,"aqi":83,"pm10":40.0,"pm2_5":35.7,"mosquito_risk":6,"arthritis_risk":10,"migraine_risk":7,"frizz_risk":0,"updated_at":"2026-04-12T01:07:29.282985+05:30"},{"city":"Siliguri","state":"West Bengal","latitude":26.7271,"longitude":88.3953,"temp":19.7,"humidity":65,"rain":0.0,"pressure":994.4,"uv_index":7.4,"wind_gusts":18.0,"aqi":113,"pm10":64.3,"pm2_5":53.9,"mosquito_risk":3,"arthritis_risk":5,"migraine_risk":7,"frizz_risk":0,"updated_at":"2026-04-12T01:07:32.621178+05:30"},{"city":"Durgapur","state":"West Bengal","latitude":23.5204,"longitude":87.3119,"temp":24.7,"humidity":53,"rain":0.0,"pressure":995.1,"uv_index":8.8,"wind_gusts":21.2,"aqi":151,"pm10":158.8,"pm2_5":71.2,"mosquito_risk":0,"arthritis_risk":5,"migraine_risk":7,"frizz_risk":0,"updated_at":"2026-04-12T01:07:32.621210+05:30"},{"city":"Asansol","state":"West Bengal","latitude":23.6739,"longitude":86.9524,"temp":26.0,"humidity":45,"rain":0.0,"pressure":993.7,"uv_index":8.8,"wind_gusts":22.3,"aqi":131,"pm10":102.0,"pm2_5":47.7,"mosquito_risk":4,"arthritis_risk":5,"migraine_risk":7,"frizz_risk":0,"updated_at":"2026-04-12T01:07:32.621223+05:30"},{"city":"Pondicherry","state":"Puducherry","latitude":11.9139,"longitude":79.8145,"temp":27.6,"humidity":91,"rain":0.0,"pressure":1009.4,"uv_index":9.35,"wind_gusts":28.8,"aqi":55,"pm10":16.8,"pm2_5":11.4,"mosquito_risk":7,"arthritis_risk":0,"migraine_risk":4,"frizz_risk":1,"updated_at":"2026-04-12T01:07:32.621233+05:30"},{"city":"Port Blair","state":"Andaman and Nicobar Islands","latitude":11.6234,"longitude":92.7265,"temp":28.9,"humidity":78,"rain":0.0,"pressure":1006.7,"uv_index":9.25,"wind_gusts":16.9,"aqi":29,"pm10":12.3,"pm2_5":7.5,"mosquito_risk":7,"arthritis_risk":5,"migraine_risk":4,"frizz_risk":1,"updated_at":"2026-04-12T01:07:32.621242+05:30"},{"city":"Haridwar","state":"Uttarakhand","latitude":29.9457,"longitude":78.1642,"temp":19.6,"humidity":69,"rain":0.0,"pressure":976.3,"uv_index":7.0,"wind_gusts":34.9,"aqi":70,"pm10":60.8,"pm2_5":31.0,"mosquito_risk":3,"arthritis_risk":5,"migraine_risk":7,"frizz_risk":0,"updated_at":"2026-04-12T01:07:32.621252+05:30"},{"city":"Rishikesh","state":"Uttarakhand","latitude":30.0869,"longitude":78.2676,"temp":19.4,"humidity":67,"rain":0.0,"pressure":969.2,"uv_index":7.1,"wind_gusts":35.3,"aqi":62,"pm10":81.0,"pm2_5":25.6,"mosquito_risk":3,"arthritis_risk":5,"migraine_risk":7,"frizz_risk":0,"updated_at":"2026-04-12T01:07:32.621261+05:30"},{"city":"Nainital","state":"Uttarakhand","latitude":29.3919,"longitude":79.4542,"temp":17.8,"humidity":33,"rain":0.0,"pressure":806.5,"uv_index":7.95,"wind_gusts":47.2,"aqi":58,"pm10":67.1,"pm2_5":21.5,"mosquito_risk":0,"arthritis_risk":5,"migraine_risk":7,"frizz_risk":0,"updated_at":"2026-04-12T01:07:32.621270+05:30"},{"city":"Mussoorie","state":"Uttarakhand","latitude":30.4599,"longitude":78.0664,"temp":13.5,"humidity":62,"rain":0.0,"pressure":802.8,"uv_index":7.5,"wind_gusts":37.4,"aqi":63,"pm10":83.1,"pm2_5":31.0,"mosquito_risk":3,"arthritis_risk":5,"migraine_risk":7,"frizz_risk":0,"updated_at":"2026-04-12T01:07:32.621279+05:30"},{"city":"Dharamshala","state":"Himachal Pradesh","latitude":32.219,"longitude":76.3234,"temp":16.1,"humidity":53,"rain":0.0,"pressure":870.1,"uv_index":7.7,"wind_gusts":25.9,"aqi":56,"pm10":8.3,"pm2_5":5.2,"mosquito_risk":0,"arthritis_risk":5,"migraine_risk":7,"frizz_risk":0,"updated_at":"2026-04-12T01:07:32.621288+05:30"},{"city":"Dalhousie","state":"Himachal Pradesh","latitude":32.5387,"longitude":75.971,"temp":12.0,"humidity":57,"rain":0.0,"pressure":803.4,"uv_index":7.95,"wind_gusts":20.9,"aqi":62,"pm10":45.6,"pm2_5":27.4,"mosquito_risk":0,"arthritis_risk":5,"migraine_risk":7,"frizz_risk":0,"updated_at":"2026-04-12T01:07:32.621297+05:30"},{"city":"Patiala","state":"Punjab","latitude":30.3398,"longitude":76.3869,"temp":20.3,"humidity":67,"rain":0.0,"pressure":980.9,"uv_index":7.05,"wind_gusts":31.0,"aqi":306,"pm10":161.1,"pm2_5":47.8,"mosquito_risk":3,"arthritis_risk":5,"migraine_risk":7,"frizz_risk":0,"updated_at":"2026-04-12T01:07:32.621306+05:30"},{"city":"Bhatinda","state":"Punjab","latitude":30.211,"longitude":74.9455,"temp":21.2,"humidity":62,"rain":0.0,"pressure":986.7,"uv_index":7.75,"wind_gusts":31.0,"aqi":88,"pm10":83.6,"pm2_5":35.5,"mosquito_risk":3,"arthritis_risk":5,"migraine_risk":7,"frizz_risk":0,"updated_at":"2026-04-12T01:07:32.621314+05:30"},{"city":"Rohtak","state":"Haryana","latitude":28.8955,"longitude":76.6066,"temp":22.1,"humidity":60,"rain":0.0,"pressure":984.3,"uv_index":7.25,"wind_gusts":34.6,"aqi":631,"pm10":659.4,"pm2_5":106.2,"mosquito_risk":0,"arthritis_risk":5,"migraine_risk":7,"frizz_risk":0,"updated_at":"2026-04-12T01:07:32.621322+05:30"},{"city":"Panipat","state":"Haryana","latitude":29.3909,"longitude":76.9635,"temp":21.5,"humidity":61,"rain":0.0,"pressure":982.8,"uv_index":7.05,"wind_gusts":33.1,"aqi":1308,"pm10":899.7,"pm2_5":120.6,"mosquito_risk":3,"arthritis_risk":5,"migraine_risk":7,"frizz_risk":0,"updated_at":"2026-04-12T01:07:32.621331+05:30"},{"city":"Mathura","state":"Uttar Pradesh","latitude":27.4924,"longitude":77.6737,"temp":23.5,"humidity":58,"rain":0.0,"pressure":988.5,"uv_index":7.55,"wind_gusts":26.6,"aqi":780,"pm10":1035.6,"pm2_5":137.8,"mosquito_risk":0,"arthritis_risk":5,"migraine_risk":7,"frizz_risk":0,"updated_at":"2026-04-12T01:07:32.621339+05:30"},{"city":"Vrindavan","state":"Uttar Pradesh","latitude":27.5823,"longitude":77.7027,"temp":23.5,"humidity":58,"rain":0.0,"pressure":988.8,"uv_index":7.5,"wind_gusts":30.2,"aqi":780,"pm10":1035.6,"pm2_5":137.8,"mosquito_risk":0,"arthritis_risk":5,"migraine_risk":7,"frizz_risk":0,"updated_at":"2026-04-12T01:07:32.621347+05:30"},{"city":"Ayodhya","state":"Uttar Pradesh","latitude":26.7922,"longitude":82.1998,"temp":24.0,"humidity":49,"rain":0.0,"pressure":996.3,"uv_index":7.9,"wind_gusts":40.7,"aqi":151,"pm10":222.1,"pm2_5":50.2,"mosquito_risk":0,"arthritis_risk":5,"migraine_risk":7,"frizz_risk":0,"updated_at":"2026-04-12T01:07:32.621356+05:30"},{"city":"Ratlam","state":"Madhya Pradesh","latitude":23.3315,"longitude":75.0367,"temp":26.7,"humidity":42,"rain":0.0,"pressure":955.5,"uv_index":8.35,"wind_gusts":24.8,"aqi":79,"pm10":21.2,"pm2_5":14.5,"mosquito_risk":4,"arthritis_risk":5,"migraine_risk":7,"frizz_risk":0,"updated_at":"2026-04-12T01:07:32.621364+05:30"},{"city":"Sagar","state":"Madhya Pradesh","latitude":23.8388,"longitude":78.7378,"temp":25.6,"humidity":39,"rain":0.0,"pressure":950.9,"uv_index":8.5,"wind_gusts":32.0,"aqi":57,"pm10":47.1,"pm2_5":20.0,"mosquito_risk":4,"arthritis_risk":5,"migraine_risk":7,"frizz_risk":0,"updated_at":"2026-04-12T01:07:32.621372+05:30"},{"city":"Satna","state":"Madhya Pradesh","latitude":24.6005,"longitude":80.8322,"temp":26.2,"humidity":39,"rain":0.0,"pressure":973.0,"uv_index":8.5,"wind_gusts":34.6,"aqi":71,"pm10":84.1,"pm2_5":28.3,"mosquito_risk":4,"arthritis_risk":5,"migraine_risk":7,"frizz_risk":0,"updated_at":"2026-04-12T01:07:32.621380+05:30"},{"city":"Akola","state":"Maharashtra","latitude":20.7002,"longitude":77.0082,"temp":26.7,"humidity":51,"rain":0.0,"pressure":975.2,"uv_index":8.75,"wind_gusts":20.2,"aqi":78,"pm10":38.9,"pm2_5":31.1,"mosquito_risk":4,"arthritis_risk":5,"migraine_risk":7,"frizz_risk":0,"updated_at":"2026-04-12T01:07:32.621389+05:30"},{"city":"Amravati","state":"Maharashtra","latitude":20.9374,"longitude":77.7796,"temp":26.0,"humidity":49,"rain":0.0,"pressure":967.3,"uv_index":8.75,"wind_gusts":21.6,"aqi":81,"pm10":42.8,"pm2_5":35.0,"mosquito_risk":4,"arthritis_risk":5,"migraine_risk":7,"frizz_risk":0,"updated_at":"2026-04-12T01:07:32.621398+05:30"},{"city":"Latur","state":"Maharashtra","latitude":18.4088,"longitude":76.5604,"temp":27.5,"humidity":51,"rain":0.0,"pressure":939.6,"uv_index":9.05,"wind_gusts":22.7,"aqi":115,"pm10":39.6,"pm2_5":29.4,"mosquito_risk":4,"arthritis_risk":5,"migraine_risk":7,"frizz_risk":1,"updated_at":"2026-04-12T01:07:32.621406+05:30"},{"city":"Nanded","state":"Maharashtra","latitude":19.1383,"longitude":77.3091,"temp":28.2,"humidity":54,"rain":0.0,"pressure":968.4,"uv_index":8.95,"wind_gusts":11.2,"aqi":88,"pm10":45.4,"pm2_5":36.2,"mosquito_risk":4,"arthritis_risk":5,"migraine_risk":7,"frizz_risk":1,"updated_at":"2026-04-12T01:07:32.621414+05:30"},{"city":"Gulbarga","state":"Karnataka","latitude":17.3297,"longitude":76.8343,"temp":31.5,"humidity":39,"rain":0.0,"pressure":958.4,"uv_index":9.1,"wind_gusts":31.0,"aqi":89,"pm10":31.2,"pm2_5":26.4,"mosquito_risk":0,"arthritis_risk":5,"migraine_risk":7,"frizz_risk":0,"updated_at":"2026-04-12T01:07:32.621422+05:30"},{"city":"Bidar","state":"Karnataka","latitude":17.9104,"longitude":77.5199,"temp":28.8,"humidity":50,"rain":0.0,"pressure":935.7,"uv_index":9.1,"wind_gusts":29.2,"aqi":100,"pm10":41.0,"pm2_5":30.9,"mosquito_risk":4,"arthritis_risk":5,"migraine_risk":7,"frizz_risk":1,"updated_at":"2026-04-12T01:07:32.621429+05:30"},{"city":"Hospet","state":"Karnataka","latitude":15.2689,"longitude":76.3909,"temp":28.5,"humidity":71,"rain":0.0,"pressure":955.8,"uv_index":9.25,"wind_gusts":25.6,"aqi":131,"pm10":49.0,"pm2_5":41.8,"mosquito_risk":7,"arthritis_risk":5,"migraine_risk":7,"frizz_risk":1,"updated_at":"2026-04-12T01:07:32.621437+05:30"},{"city":"Tirupur","state":"Tamil Nadu","latitude":11.1085,"longitude":77.3411,"temp":28.4,"humidity":75,"rain":0.0,"pressure":975.9,"uv_index":9.45,"wind_gusts":30.6,"aqi":79,"pm10":31.5,"pm2_5":27.8,"mosquito_risk":7,"arthritis_risk":5,"migraine_risk":7,"frizz_risk":1,"updated_at":"2026-04-12T01:07:32.621445+05:30"},{"city":"Alappuzha","state":"Kerala","latitude":9.4981,"longitude":76.3388,"temp":28.7,"humidity":83,"rain":0.0,"pressure":1009.2,"uv_index":9.2,"wind_gusts":24.1,"aqi":70,"pm10":44.6,"pm2_5":30.6,"mosquito_risk":7,"arthritis_risk":0,"migraine_risk":4,"frizz_risk":1,"updated_at":"2026-04-12T01:07:32.621453+05:30"},{"city":"Munnar","state":"Kerala","latitude":10.0889,"longitude":77.0595,"temp":21.4,"humidity":92,"rain":0.0,"pressure":857.4,"uv_index":9.75,"wind_gusts":36.7,"aqi":78,"pm10":37.5,"pm2_5":32.5,"mosquito_risk":3,"arthritis_risk":5,"migraine_risk":7,"frizz_risk":1,"updated_at":"2026-04-12T01:07:32.621462+05:30"},{"city":"Silchar","state":"Assam","latitude":24.8333,"longitude":92.7789,"temp":22.7,"humidity":75,"rain":0.0,"pressure":1005.5,"uv_index":8.65,"wind_gusts":40.3,"aqi":129,"pm10":67.5,"pm2_5":47.5,"mosquito_risk":3,"arthritis_risk":5,"migraine_risk":4,"frizz_risk":1,"updated_at":"2026-04-12T01:07:32.621471+05:30"},{"city":"Dibrugarh","state":"Assam","latitude":27.4728,"longitude":94.912,"temp":21.2,"humidity":85,"rain":0.0,"pressure":997.5,"uv_index":8.15,"wind_gusts":25.2,"aqi":90,"pm10":33.6,"pm2_5":29.5,"mosquito_risk":3,"arthritis_risk":5,"migraine_risk":7,"frizz_risk":1,"updated_at":"2026-04-12T01:07:32.621479+05:30"}]