[{"city":"Delhi","state":"Delhi","latitude":28.6139,"longitude":77.209,"temp":37.5,"humidity":37,"rain":0.0,"pressure":974.9,"uv_index":6.1,"wind_gusts":34.2,"aqi":641,"pm10":711.5,"pm2_5":133.6,"no2":8.8,"co":213.0,"o3":126.0,"so2":10.2,"mosquito_risk":0,"arthritis_risk":5,"migraine_risk":10,"frizz_risk":1,"updated_at":"2026-07-17T17:05:53.046433+05:30"},{"city":"Mumbai","state":"Maharashtra","latitude":19.076,"longitude":72.8777,"temp":27.0,"humidity":84,"rain":0.1,"pressure":1006.3,"uv_index":7.5,"wind_gusts":33.8,"aqi":69,"pm10":45.1,"pm2_5":24.6,"no2":14.2,"co":235.0,"o3":64.0,"so2":13.4,"mosquito_risk":10,"arthritis_risk":5,"migraine_risk":4,"frizz_risk":1,"updated_at":"2026-07-17T17:05:53.046500+05:30"},{"city":"Bangalore","state":"Karnataka","latitude":12.9716,"longitude":77.5946,"temp":22.0,"humidity":93,"rain":0.2,"pressure":910.3,"uv_index":5.75,"wind_gusts":46.1,"aqi":53,"pm10":9.6,"pm2_5":6.8,"no2":18.5,"co":328.0,"o3":39.0,"so2":3.9,"mosquito_risk":6,"arthritis_risk":5,"migraine_risk":3,"frizz_risk":1,"updated_at":"2026-07-17T17:05:53.046519+05:30"},{"city":"Hyderabad","state":"Telangana","latitude":17.385,"longitude":78.4867,"temp":27.8,"humidity":70,"rain":0.0,"pressure":950.0,"uv_index":5.35,"wind_gusts":36.7,"aqi":70,"pm10":25.4,"pm2_5":14.7,"no2":6.4,"co":285.0,"o3":73.0,"so2":4.3,"mosquito_risk":7,"arthritis_risk":5,"migraine_risk":3,"frizz_risk":1,"updated_at":"2026-07-17T17:05:53.046530+05:30"},{"city":"Chennai","state":"Tamil Nadu","latitude":13.0827,"longitude":80.2707,"temp":32.3,"humidity":58,"rain":0.1,"pressure":1003.7,"uv_index":7.85,"wind_gusts":41.0,"aqi":80,"pm10":33.3,"pm2_5":21.0,"no2":5.6,"co":239.0,"o3":122.0,"so2":6.3,"mosquito_risk":3,"arthritis_risk":5,"migraine_risk":4,"frizz_risk":1,"updated_at":"2026-07-17T17:05:53.046541+05:30"},{"city":"Kolkata","state":"West Bengal","latitude":22.5726,"longitude":88.3639,"temp":29.4,"humidity":83,"rain":0.1,"pressure":996.8,"uv_index":7.45,"wind_gusts":34.2,"aqi":71,"pm10":30.6,"pm2_5":22.9,"no2":6.3,"co":424.0,"o3":105.0,"so2":6.6,"mosquito_risk":10,"arthritis_risk":5,"migraine_risk":7,"frizz_risk":1,"updated_at":"2026-07-17T17:05:53.046551+05:30"},{"city":"Pune","state":"Maharashtra","latitude":18.5204,"longitude":73.8567,"temp":25.9,"humidity":75,"rain":0.0,"pressure":945.7,"uv_index":7.25,"wind_gusts":45.4,"aqi":43,"pm10":17.3,"pm2_5":9.4,"no2":5.6,"co":140.0,"o3":55.0,"so2":4.9,"mosquito_risk":7,"arthritis_risk":5,"migraine_risk":7,"frizz_risk":1,"updated_at":"2026-07-17T17:05:53.046561+05:30"},{"city":"Ahmedabad","state":"Gujarat","latitude":23.0225,"longitude":72.5714,"temp":36.4,"humidity":40,"rain":0.0,"pressure":995.8,"uv_index":7.85,"wind_gusts":41.0,"aqi":72,"pm10":51.7,"pm2_5":19.9,"no2":2.6,"co":141.0,"o3":85.0,"so2":3.3,"mosquito_risk":0,"arthritis_risk":5,"migraine_risk":10,"frizz_risk":1,"updated_at":"2026-07-17T17:05:53.046571+05:30"},{"city":"Jaipur","state":"Rajasthan","latitude":26.9124,"longitude":75.7873,"temp":35.5,"humidity":42,"rain":0.0,"pressure":953.6,"uv_index":8.05,"wind_gusts":40.0,"aqi":303,"pm10":313.9,"pm2_5":60.3,"no2":1.5,"co":148.0,"o3":106.0,"so2":2.9,"mosquito_risk":0,"arthritis_risk":5,"migraine_risk":10,"frizz_risk":1,"updated_at":"2026-07-17T17:05:53.046580+05:30"},{"city":"Lucknow","state":"Uttar Pradesh","latitude":26.8467,"longitude":80.9462,"temp":32.1,"humidity":75,"rain":0.0,"pressure":985.3,"uv_index":7.25,"wind_gusts":26.3,"aqi":160,"pm10":272.9,"pm2_5":90.1,"no2":5.6,"co":274.0,"o3":157.0,"so2":10.9,"mosquito_risk":3,"arthritis_risk":5,"migraine_risk":7,"frizz_risk":1,"updated_at":"2026-07-17T17:05:53.046595+05:30"},{"city":"Kanpur","state":"Uttar Pradesh","latitude":26.4499,"longitude":80.3319,"temp":33.9,"humidity":59,"rain":0.0,"pressure":983.6,"uv_index":8.1,"wind_gusts":30.2,"aqi":169,"pm10":265.4,"pm2_5":82.4,"no2":5.2,"co":214.0,"o3":144.0,"so2":8.1,"mosquito_risk":0,"arthritis_risk":5,"migraine_risk":7,"frizz_risk":1,"updated_at":"2026-07-17T17:05:53.046607+05:30"},{"city":"Chandigarh","state":"Chandigarh","latitude":30.7333,"longitude":76.7794,"temp":33.9,"humidity":56,"rain":0.0,"pressure":960.9,"uv_index":7.6,"wind_gusts":32.0,"aqi":189,"pm10":87.1,"pm2_5":51.6,"no2":3.6,"co":411.0,"o3":204.0,"so2":11.9,"mosquito_risk":0,"arthritis_risk":5,"migraine_risk":7,"frizz_risk":1,"updated_at":"2026-07-17T17:05:53.046615+05:30"},{"city":"Srinagar","state":"Jammu and Kashmir","latitude":34.0837,"longitude":74.7973,"temp":33.6,"humidity":36,"rain":0.0,"pressure":838.2,"uv_index":9.05,"wind_gusts":19.1,"aqi":135,"pm10":20.2,"pm2_5":14.7,"no2":0.5,"co":350.0,"o3":146.0,"so2":2.0,"mosquito_risk":0,"arthritis_risk":5,"migraine_risk":7,"frizz_risk":1,"updated_at":"2026-07-17T17:05:53.046625+05:30"},{"city":"Jammu","state":"Jammu and Kashmir","latitude":32.7266,"longitude":74.857,"temp":34.9,"humidity":58,"rain":0.0,"pressure":964.5,"uv_index":7.7,"wind_gusts":34.6,"aqi":155,"pm10":110.4,"pm2_5":56.5,"no2":2.7,"co":305.0,"o3":161.0,"so2":6.8,"mosquito_risk":0,"arthritis_risk":5,"migraine_risk":7,"frizz_risk":1,"updated_at":"2026-07-17T17:05:53.046634+05:30"},{"city":"Amritsar","state":"Punjab","latitude":31.634,"longitude":74.8723,"temp":36.1,"humidity":50,"rain":0.0,"pressure":972.1,"uv_index":8.35,"wind_gusts":20.9,"aqi":171,"pm10":99.0,"pm2_5":51.3,"no2":4.7,"co":273.0,"o3":184.0,"so2":9.0,"mosquito_risk":0,"arthritis_risk":5,"migraine_risk":10,"frizz_risk":1,"updated_at":"2026-07-17T17:05:53.046642+05:30"},{"city":"Ludhiana","state":"Punjab","latitude":30.901,"longitude":75.8573,"temp":36.7,"humidity":42,"rain":0.0,"pressure":970.4,"uv_index":7.2,"wind_gusts":32.8,"aqi":179,"pm10":93.8,"pm2_5":50.6,"no2":2.3,"co":273.0,"o3":163.0,"so2":4.9,"mosquito_risk":0,"arthritis_risk":5,"migraine_risk":10,"frizz_risk":1,"updated_at":"2026-07-17T17:05:53.046651+05:30"},{"city":"Jalandhar","state":"Punjab","latitude":31.326,"longitude":75.5762,"temp":35.5,"humidity":52,"rain":0.0,"pressure":971.4,"uv_index":8.15,"wind_gusts":26.6,"aqi":184,"pm10":106.4,"pm2_5":55.1,"no2":3.2,"co":295.0,"o3":168.0,"so2":5.9,"mosquito_risk":0,"arthritis_risk":5,"migraine_risk":10,"frizz_risk":1,"updated_at":"2026-07-17T17:05:53.046659+05:30"},{"city":"Dehradun","state":"Uttarakhand","latitude":30.6284,"longitude":78.0322,"temp":22.6,"humidity":84,"rain":0.0,"pressure":827.5,"uv_index":6.4,"wind_gusts":27.0,"aqi":132,"pm10":39.8,"pm2_5":32.5,"no2":1.1,"co":371.0,"o3":167.0,"so2":6.1,"mosquito_risk":3,"arthritis_risk":5,"migraine_risk":7,"frizz_risk":1,"updated_at":"2026-07-17T17:05:53.046668+05:30"},{"city":"Shimla","state":"Himachal Pradesh","latitude":31.1048,"longitude":77.1734,"temp":20.0,"humidity":79,"rain":0.1,"pressure":782.6,"uv_index":6.85,"wind_gusts":41.4,"aqi":127,"pm10":45.3,"pm2_5":32.8,"no2":1.1,"co":281.0,"o3":164.0,"so2":7.5,"mosquito_risk":6,"arthritis_risk":5,"migraine_risk":7,"frizz_risk":1,"updated_at":"2026-07-17T17:05:53.046675+05:30"},{"city":"Manali","state":"Himachal Pradesh","latitude":32.2396,"longitude":77.1887,"temp":24.0,"humidity":79,"rain":0.0,"pressure":817.6,"uv_index":7.05,"wind_gusts":33.1,"aqi":77,"pm10":14.2,"pm2_5":8.8,"no2":0.0,"co":185.0,"o3":146.0,"so2":1.2,"mosquito_risk":3,"arthritis_risk":5,"migraine_risk":7,"frizz_risk":1,"updated_at":"2026-07-17T17:05:53.046685+05:30"},{"city":"Gurgaon","state":"Haryana","latitude":28.4595,"longitude":77.0266,"temp":37.3,"humidity":37,"rain":0.0,"pressure":973.5,"uv_index":5.9,"wind_gusts":39.2,"aqi":497,"pm10":728.3,"pm2_5":145.3,"no2":12.8,"co":223.0,"o3":119.0,"so2":8.6,"mosquito_risk":0,"arthritis_risk":5,"migraine_risk":6,"frizz_risk":1,"updated_at":"2026-07-17T17:05:53.046696+05:30"},{"city":"Noida","state":"Uttar Pradesh","latitude":28.5355,"longitude":77.391,"temp":36.4,"humidity":45,"rain":0.0,"pressure":976.2,"uv_index":7.7,"wind_gusts":27.4,"aqi":497,"pm10":728.3,"pm2_5":145.3,"no2":12.8,"co":297.0,"o3":119.0,"so2":8.6,"mosquito_risk":0,"arthritis_risk":5,"migraine_risk":10,"frizz_risk":1,"updated_at":"2026-07-17T17:05:53.046704+05:30"},{"city":"Ghaziabad","state":"Uttar Pradesh","latitude":28.6692,"longitude":77.4538,"temp":35.5,"humidity":51,"rain":0.0,"pressure":974.5,"uv_index":7.7,"wind_gusts":29.5,"aqi":524,"pm10":508.5,"pm2_5":118.7,"no2":9.4,"co":188.0,"o3":143.0,"so2":14.0,"mosquito_risk":0,"arthritis_risk":5,"migraine_risk":10,"frizz_risk":1,"updated_at":"2026-07-17T17:05:53.046713+05:30"},{"city":"Faridabad","state":"Haryana","latitude":28.4089,"longitude":77.3178,"temp":37.3,"humidity":37,"rain":0.0,"pressure":975.6,"uv_index":6.05,"wind_gusts":34.9,"aqi":497,"pm10":728.3,"pm2_5":145.3,"no2":12.8,"co":188.0,"o3":119.0,"so2":8.6,"mosquito_risk":0,"arthritis_risk":5,"migraine_risk":10,"frizz_risk":1,"updated_at":"2026-07-17T17:05:53.046722+05:30"},{"city":"Meerut","state":"Uttar Pradesh","latitude":28.9845,"longitude":77.7064,"temp":34.4,"humidity":58,"rain":0.0,"pressure":973.3,"uv_index":7.0,"wind_gusts":33.8,"aqi":524,"pm10":508.5,"pm2_5":118.7,"no2":9.4,"co":202.0,"o3":143.0,"so2":14.0,"mosquito_risk":0,"arthritis_risk":5,"migraine_risk":7,"frizz_risk":1,"updated_at":"2026-07-17T17:05:53.046730+05:30"},{"city":"Agra","state":"Uttar Pradesh","latitude":27.1767,"longitude":78.0081,"temp":37.2,"humidity":43,"rain":0.0,"pressure":979.9,"uv_index":6.8,"wind_gusts":36.7,"aqi":152,"pm10":388.4,"pm2_5":95.5,"no2":10.0,"co":170.0,"o3":109.0,"so2":4.8,"mosquito_risk":0,"arthritis_risk":5,"migraine_risk":10,"frizz_risk":1,"updated_at":"2026-07-17T17:05:53.046738+05:30"},{"city":"Varanasi","state":"Uttar Pradesh","latitude":25.3176,"longitude":82.9739,"temp":31.2,"humidity":78,"rain":0.1,"pressure":988.8,"uv_index":6.15,"wind_gusts":25.9,"aqi":153,"pm10":47.3,"pm2_5":35.6,"no2":7.8,"co":425.0,"o3":135.0,"so2":6.2,"mosquito_risk":6,"arthritis_risk":5,"migraine_risk":7,"frizz_risk":1,"updated_at":"2026-07-17T17:05:53.046747+05:30"},{"city":"Prayagraj","state":"Uttar Pradesh","latitude":25.4358,"longitude":81.8463,"temp":31.2,"humidity":80,"rain":0.0,"pressure":987.7,"uv_index":7.8,"wind_gusts":26.6,"aqi":159,"pm10":109.7,"pm2_5":54.6,"no2":4.2,"co":203.0,"o3":145.0,"so2":7.8,"mosquito_risk":3,"arthritis_risk":5,"migraine_risk":7,"frizz_risk":1,"updated_at":"2026-07-17T17:05:53.046756+05:30"},{"city":"Gorakhpur","state":"Uttar Pradesh","latitude":26.7606,"longitude":83.3732,"temp":30.0,"humidity":85,"rain":0.1,"pressure":988.8,"uv_index":6.8,"wind_gusts":23.8,"aqi":108,"pm10":25.3,"pm2_5":24.0,"no2":2.4,"co":310.0,"o3":161.0,"so2":4.9,"mosquito_risk":10,"arthritis_risk":5,"migraine_risk":7,"frizz_risk":1,"updated_at":"2026-07-17T17:05:53.046764+05:30"},{"city":"Bareilly","state":"Uttar Pradesh","latitude":28.367,"longitude":79.4304,"temp":31.8,"humidity":77,"rain":0.0,"pressure":978.9,"uv_index":7.2,"wind_gusts":27.7,"aqi":167,"pm10":181.6,"pm2_5":76.6,"no2":6.0,"co":340.0,"o3":160.0,"so2":11.3,"mosquito_risk":3,"arthritis_risk":5,"migraine_risk":7,"frizz_risk":1,"updated_at":"2026-07-17T17:05:53.046773+05:30"},{"city":"Aligarh","state":"Uttar Pradesh","latitude":27.8974,"longitude":78.088,"temp":34.5,"humidity":59,"rain":0.0,"pressure":977.4,"uv_index":7.2,"wind_gusts":26.6,"aqi":335,"pm10":571.8,"pm2_5":140.6,"no2":11.2,"co":219.0,"o3":127.0,"so2":10.3,"mosquito_risk":0,"arthritis_risk":5,"migraine_risk":7,"frizz_risk":1,"updated_at":"2026-07-17T17:05:53.046783+05:30"},{"city":"Moradabad","state":"Uttar Pradesh","latitude":28.8386,"longitude":78.7733,"temp":31.8,"humidity":78,"rain":0.0,"pressure":975.7,"uv_index":7.35,"wind_gusts":29.9,"aqi":184,"pm10":218.9,"pm2_5":91.3,"no2":6.4,"co":416.0,"o3":196.0,"so2":14.8,"mosquito_risk":3,"arthritis_risk":5,"migraine_risk":7,"frizz_risk":1,"updated_at":"2026-07-17T17:05:53.046791+05:30"},{"city":"Saharanpur","state":"Uttar Pradesh","latitude":29.9637,"longitude":77.546,"temp":33.0,"humidity":68,"rain":0.0,"pressure":967.5,"uv_index":6.8,"wind_gusts":39.2,"aqi":188,"pm10":119.2,"pm2_5":59.1,"no2":5.5,"co":495.0,"o3":170.0,"so2":12.5,"mosquito_risk":3,"arthritis_risk":5,"migraine_risk":7,"frizz_risk":1,"updated_at":"2026-07-17T17:05:53.046799+05:30"},{"city":"Jhansi","state":"Uttar Pradesh","latitude":25.4484,"longitude":78.5685,"temp":34.3,"humidity":53,"rain":0.0,"pressure":971.1,"uv_index":7.45,"wind_gusts":31.0,"aqi":91,"pm10":128.5,"pm2_5":44.9,"no2":2.5,"co":127.0,"o3":98.0,"so2":4.0,"mosquito_risk":0,"arthritis_risk":5,"migraine_risk":7,"frizz_risk":1,"updated_at":"2026-07-17T17:05:56.330517+05:30"},{"city":"Surat","state":"Gujarat","latitude":21.1702,"longitude":72.8311,"temp":30.2,"humidity":73,"rain":0.0,"pressure":1002.4,"uv_index":7.7,"wind_gusts":42.8,"aqi":76,"pm10":31.3,"pm2_5":20.6,"no2":14.1,"co":264.0,"o3":46.0,"so2":38.3,"mosquito_risk":3,"arthritis_risk":5,"migraine_risk":4,"frizz_risk":1,"updated_at":"2026-07-17T17:05:56.330553+05:30"},{"city":"Vadodara","state":"Gujarat","latitude":22.3072,"longitude":73.1812,"temp":32.1,"humidity":62,"rain":0.0,"pressure":999.0,"uv_index":5.55,"wind_gusts":43.6,"aqi":70,"pm10":48.9,"pm2_5":21.5,"no2":4.3,"co":155.0,"o3":84.0,"so2":5.5,"mosquito_risk":3,"arthritis_risk":5,"migraine_risk":3,"frizz_risk":1,"updated_at":"2026-07-17T17:05:56.330568+05:30"},{"city":"Rajkot","state":"Gujarat","latitude":22.3039,"longitude":70.8022,"temp":33.0,"humidity":55,"rain":0.0,"pressure":988.8,"uv_index":6.85,"wind_gusts":42.1,"aqi":64,"pm10":37.5,"pm2_5":16.8,"no2":1.6,"co":103.0,"o3":78.0,"so2":4.3,"mosquito_risk":0,"arthritis_risk":5,"migraine_risk":7,"frizz_risk":1,"updated_at":"2026-07-17T17:05:56.330578+05:30"},{"city":"Thane","state":"Maharashtra","latitude":19.2183,"longitude":72.9781,"temp":26.7,"humidity":87,"rain":0.1,"pressure":1005.5,"uv_index":6.75,"wind_gusts":31.7,"aqi":69,"pm10":45.1,"pm2_5":24.6,"no2":14.2,"co":238.0,"o3":64.0,"so2":13.4,"mosquito_risk":10,"arthritis_risk":5,"migraine_risk":4,"frizz_risk":1,"updated_at":"2026-07-17T17:05:56.330587+05:30"},{"city":"Nagpur","state":"Maharashtra","latitude":21.1458,"longitude":79.0882,"temp":27.5,"humidity":85,"rain":0.1,"pressure":968.4,"uv_index":1.7,"wind_gusts":25.2,"aqi":95,"pm10":30.5,"pm2_5":23.5,"no2":18.4,"co":181.0,"o3":62.0,"so2":14.8,"mosquito_risk":10,"arthritis_risk":5,"migraine_risk":3,"frizz_risk":1,"updated_at":"2026-07-17T17:05:56.330596+05:30"},{"city":"Nashik","state":"Maharashtra","latitude":19.9975,"longitude":73.7898,"temp":26.2,"humidity":75,"rain":0.1,"pressure":942.5,"uv_index":7.75,"wind_gusts":47.2,"aqi":51,"pm10":15.9,"pm2_5":8.2,"no2":2.9,"co":118.0,"o3":60.0,"so2":1.8,"mosquito_risk":10,"arthritis_risk":5,"migraine_risk":7,"frizz_risk":1,"updated_at":"2026-07-17T17:05:56.330604+05:30"},{"city":"Aurangabad","state":"Maharashtra","latitude":19.8762,"longitude":75.3433,"temp":26.9,"humidity":75,"rain":0.0,"pressure":940.7,"uv_index":7.85,"wind_gusts":44.6,"aqi":60,"pm10":24.1,"pm2_5":11.2,"no2":3.3,"co":167.0,"o3":72.0,"so2":3.0,"mosquito_risk":7,"arthritis_risk":5,"migraine_risk":7,"frizz_risk":1,"updated_at":"2026-07-17T17:05:56.330612+05:30"},{"city":"Solapur","state":"Maharashtra","latitude":17.6599,"longitude":75.9064,"temp":28.2,"humidity":75,"rain":0.0,"pressure":953.9,"uv_index":6.0,"wind_gusts":34.2,"aqi":55,"pm10":26.8,"pm2_5":10.9,"no2":2.4,"co":121.0,"o3":70.0,"so2":1.7,"mosquito_risk":7,"arthritis_risk":5,"migraine_risk":3,"frizz_risk":1,"updated_at":"2026-07-17T17:05:56.330620+05:30"},{"city":"Kolhapur","state":"Maharashtra","latitude":16.705,"longitude":74.2433,"temp":24.6,"humidity":82,"rain":0.1,"pressure":946.2,"uv_index":8.1,"wind_gusts":46.8,"aqi":39,"pm10":17.7,"pm2_5":9.3,"no2":3.1,"co":130.0,"o3":56.0,"so2":1.6,"mosquito_risk":6,"arthritis_risk":5,"migraine_risk":7,"frizz_risk":1,"updated_at":"2026-07-17T17:05:56.330628+05:30"},{"city":"Goa","state":"Goa","latitude":15.2993,"longitude":74.124,"temp":26.9,"humidity":81,"rain":0.0,"pressure":997.6,"uv_index":7.85,"wind_gusts":31.7,"aqi":61,"pm10":26.3,"pm2_5":12.2,"no2":1.8,"co":150.0,"o3":55.0,"so2":1.1,"mosquito_risk":7,"arthritis_risk":5,"migraine_risk":7,"frizz_risk":1,"updated_at":"2026-07-17T17:05:56.330637+05:30"},{"city":"Jodhpur","state":"Rajasthan","latitude":26.2389,"longitude":73.0243,"temp":36.8,"humidity":37,"rain":0.0,"pressure":975.9,"uv_index":8.4,"wind_gusts":43.6,"aqi":124,"pm10":248.7,"pm2_5":46.7,"no2":1.0,"co":107.0,"o3":83.0,"so2":1.6,"mosquito_risk":0,"arthritis_risk":5,"migraine_risk":10,"frizz_risk":1,"updated_at":"2026-07-17T17:05:56.330645+05:30"},{"city":"Udaipur","state":"Rajasthan","latitude":24.5854,"longitude":73.7125,"temp":31.6,"humidity":53,"rain":0.0,"pressure":941.3,"uv_index":8.75,"wind_gusts":34.2,"aqi":77,"pm10":43.5,"pm2_5":18.0,"no2":1.0,"co":114.0,"o3":83.0,"so2":2.5,"mosquito_risk":0,"arthritis_risk":5,"migraine_risk":7,"frizz_risk":1,"updated_at":"2026-07-17T17:05:56.330653+05:30"},{"city":"Kota","state":"Rajasthan","latitude":25.2138,"longitude":75.8648,"temp":36.1,"humidity":42,"rain":0.0,"pressure":972.3,"uv_index":7.55,"wind_gusts":32.4,"aqi":88,"pm10":75.0,"pm2_5":29.8,"no2":2.0,"co":128.0,"o3":112.0,"so2":6.4,"mosquito_risk":0,"arthritis_risk":5,"migraine_risk":10,"frizz_risk":1,"updated_at":"2026-07-17T17:05:56.330662+05:30"},{"city":"Bikaner","state":"Rajasthan","latitude":28.0229,"longitude":73.3119,"temp":39.2,"humidity":30,"rain":0.0,"pressure":973.8,"uv_index":8.4,"wind_gusts":39.2,"aqi":125,"pm10":99.0,"pm2_5":34.2,"no2":0.4,"co":107.0,"o3":83.0,"so2":2.1,"mosquito_risk":0,"arthritis_risk":5,"migraine_risk":10,"frizz_risk":1,"updated_at":"2026-07-17T17:05:56.330670+05:30"},{"city":"Ajmer","state":"Rajasthan","latitude":26.4499,"longitude":74.6399,"temp":33.6,"humidity":46,"rain":0.0,"pressure":948.8,"uv_index":8.3,"wind_gusts":45.7,"aqi":81,"pm10":72.2,"pm2_5":28.3,"no2":1.1,"co":119.0,"o3":98.0,"so2":2.6,"mosquito_risk":0,"arthritis_risk":5,"migraine_risk":7,"frizz_risk":1,"updated_at":"2026-07-17T17:05:56.330678+05:30"},{"city":"Gwalior","state":"Madhya Pradesh","latitude":26.2183,"longitude":78.1828,"temp":34.7,"humidity":51,"rain":0.0,"pressure":975.9,"uv_index":7.15,"wind_gusts":41.0,"aqi":103,"pm10":157.9,"pm2_5":50.4,"no2":2.6,"co":132.0,"o3":98.0,"so2":2.9,"mosquito_risk":0,"arthritis_risk":5,"migraine_risk":7,"frizz_risk":1,"updated_at":"2026-07-17T17:05:56.330686+05:30"},{"city":"Indore","state":"Madhya Pradesh","latitude":22.7196,"longitude":75.8577,"temp":31.0,"humidity":57,"rain":0.1,"pressure":943.5,"uv_index":8.6,"wind_gusts":39.2,"aqi":76,"pm10":49.9,"pm2_5":23.3,"no2":3.9,"co":190.0,"o3":88.0,"so2":4.0,"mosquito_risk":3,"arthritis_risk":5,"migraine_risk":7,"frizz_risk":1,"updated_at":"2026-07-17T17:05:56.330694+05:30"},{"city":"Bhopal","state":"Madhya Pradesh","latitude":23.2599,"longitude":77.4126,"temp":31.3,"humidity":55,"rain":0.0,"pressure":948.5,"uv_index":8.3,"wind_gusts":33.5,"aqi":86,"pm10":55.1,"pm2_5":26.0,"no2":4.1,"co":196.0,"o3":92.0,"so2":5.0,"mosquito_risk":0,"arthritis_risk":5,"migraine_risk":7,"frizz_risk":1,"updated_at":"2026-07-17T17:05:56.330702+05:30"},{"city":"Jabalpur","state":"Madhya Pradesh","latitude":23.1815,"longitude":79.9864,"temp":25.8,"humidity":96,"rain":0.2,"pressure":956.0,"uv_index":3.6,"wind_gusts":38.5,"aqi":83,"pm10":42.3,"pm2_5":25.2,"no2":4.6,"co":259.0,"o3":92.0,"so2":5.0,"mosquito_risk":10,"arthritis_risk":5,"migraine_risk":3,"frizz_risk":1,"updated_at":"2026-07-17T17:05:56.330710+05:30"},{"city":"Ujjain","state":"Madhya Pradesh","latitude":23.1765,"longitude":75.7885,"temp":30.6,"humidity":63,"rain":0.0,"pressure":948.9,"uv_index":7.9,"wind_gusts":38.9,"aqi":76,"pm10":50.5,"pm2_5":24.2,"no2":2.0,"co":154.0,"o3":90.0,"so2":3.7,"mosquito_risk":3,"arthritis_risk":5,"migraine_risk":7,"frizz_risk":1,"updated_at":"2026-07-17T17:05:56.330719+05:30"},{"city":"Visakhapatnam","state":"Andhra Pradesh","latitude":17.6868,"longitude":83.2185,"temp":31.0,"humidity":69,"rain":0.0,"pressure":996.8,"uv_index":7.8,"wind_gusts":45.4,"aqi":94,"pm10":43.3,"pm2_5":27.4,"no2":13.6,"co":354.0,"o3":115.0,"so2":29.1,"mosquito_risk":3,"arthritis_risk":5,"migraine_risk":7,"frizz_risk":1,"updated_at":"2026-07-17T17:05:56.330727+05:30"},{"city":"Vijayawada","state":"Andhra Pradesh","latitude":16.5062,"longitude":80.648,"temp":30.6,"humidity":69,"rain":0.0,"pressure":998.2,"uv_index":2.6,"wind_gusts":40.7,"aqi":86,"pm10":46.7,"pm2_5":26.4,"no2":4.1,"co":171.0,"o3":100.0,"so2":6.5,"mosquito_risk":3,"arthritis_risk":5,"migraine_risk":3,"frizz_risk":1,"updated_at":"2026-07-17T17:05:56.330734+05:30"},{"city":"Guntur","state":"Andhra Pradesh","latitude":16.3067,"longitude":80.4365,"temp":30.1,"humidity":68,"rain":0.2,"pressure":999.6,"uv_index":3.65,"wind_gusts":43.9,"aqi":82,"pm10":42.1,"pm2_5":22.2,"no2":3.4,"co":157.0,"o3":94.0,"so2":5.1,"mosquito_risk":6,"arthritis_risk":5,"migraine_risk":3,"frizz_risk":1,"updated_at":"2026-07-17T17:05:56.330743+05:30"},{"city":"Nellore","state":"Andhra Pradesh","latitude":14.4426,"longitude":79.9865,"temp":30.0,"humidity":73,"rain":0.2,"pressure":1002.0,"uv_index":5.5,"wind_gusts":45.4,"aqi":64,"pm10":21.4,"pm2_5":12.0,"no2":2.7,"co":148.0,"o3":84.0,"so2":3.2,"mosquito_risk":10,"arthritis_risk":5,"migraine_risk":0,"frizz_risk":1,"updated_at":"2026-07-17T17:05:56.330751+05:30"},{"city":"Kurnool","state":"Andhra Pradesh","latitude":15.8281,"longitude":78.0373,"temp":30.3,"humidity":56,"rain":0.0,"pressure":974.0,"uv_index":5.55,"wind_gusts":41.8,"aqi":63,"pm10":29.8,"pm2_5":13.6,"no2":3.8,"co":133.0,"o3":70.0,"so2":5.2,"mosquito_risk":0,"arthritis_risk":5,"migraine_risk":3,"frizz_risk":1,"updated_at":"2026-07-17T17:05:56.330760+05:30"},{"city":"Kakinada","state":"Andhra Pradesh","latitude":16.9891,"longitude":82.2475,"temp":31.2,"humidity":66,"rain":0.0,"pressure":1001.7,"uv_index":8.15,"wind_gusts":49.3,"aqi":82,"pm10":45.1,"pm2_5":24.9,"no2":3.9,"co":197.0,"o3":115.0,"so2":5.3,"mosquito_risk":3,"arthritis_risk":5,"migraine_risk":4,"frizz_risk":1,"updated_at":"2026-07-17T17:05:56.330768+05:30"},{"city":"Tirupati","state":"Andhra Pradesh","latitude":13.6288,"longitude":79.4192,"temp":29.5,"humidity":66,"rain":0.2,"pressure":987.6,"uv_index":7.0,"wind_gusts":38.5,"aqi":82,"pm10":14.6,"pm2_5":8.8,"no2":5.3,"co":162.0,"o3":70.0,"so2":1.4,"mosquito_risk":10,"arthritis_risk":5,"migraine_risk":7,"frizz_risk":1,"updated_at":"2026-07-17T17:05:56.330776+05:30"},{"city":"Warangal","state":"Telangana","latitude":17.9689,"longitude":79.5941,"temp":29.4,"humidity":65,"rain":0.1,"pressure":974.5,"uv_index":5.65,"wind_gusts":38.9,"aqi":91,"pm10":32.0,"pm2_5":20.3,"no2":5.0,"co":206.0,"o3":74.0,"so2":5.1,"mosquito_risk":10,"arthritis_risk":5,"migraine_risk":3,"frizz_risk":1,"updated_at":"2026-07-17T17:05:56.330783+05:30"},{"city":"Nizamabad","state":"Telangana","latitude":18.6725,"longitude":78.0941,"temp":29.0,"humidity":69,"rain":0.0,"pressure":961.0,"uv_index":1.95,"wind_gusts":36.0,"aqi":79,"pm10":36.2,"pm2_5":20.6,"no2":4.8,"co":144.0,"o3":82.0,"so2":6.8,"mosquito_risk":7,"arthritis_risk":5,"migraine_risk":3,"frizz_risk":1,"updated_at":"2026-07-17T17:05:56.330791+05:30"},{"city":"Mysore","state":"Karnataka","latitude":12.2958,"longitude":76.6396,"temp":25.0,"humidity":68,"rain":0.0,"pressure":927.9,"uv_index":2.7,"wind_gusts":48.6,"aqi":37,"pm10":8.1,"pm2_5":4.3,"no2":6.0,"co":135.0,"o3":55.0,"so2":1.4,"mosquito_risk":7,"arthritis_risk":5,"migraine_risk":3,"frizz_risk":1,"updated_at":"2026-07-17T17:05:56.330799+05:30"},{"city":"Mangalore","state":"Karnataka","latitude":12.9141,"longitude":74.856,"temp":26.3,"humidity":83,"rain":0.1,"pressure":1007.5,"uv_index":1.2,"wind_gusts":31.3,"aqi":55,"pm10":26.5,"pm2_5":12.4,"no2":2.6,"co":98.0,"o3":56.0,"so2":1.8,"mosquito_risk":10,"arthritis_risk":5,"migraine_risk":0,"frizz_risk":1,"updated_at":"2026-07-17T17:05:56.330806+05:30"},{"city":"Hubli-Dharwad","state":"Karnataka","latitude":15.3647,"longitude":75.124,"temp":24.5,"humidity":80,"rain":0.1,"pressure":939.4,"uv_index":8.25,"wind_gusts":47.2,"aqi":27,"pm10":13.9,"pm2_5":6.9,"no2":2.4,"co":116.0,"o3":57.0,"so2":1.0,"mosquito_risk":6,"arthritis_risk":5,"migraine_risk":7,"frizz_risk":1,"updated_at":"2026-07-17T17:05:56.330814+05:30"},{"city":"Belgaum","state":"Karnataka","latitude":15.8497,"longitude":74.4977,"temp":23.3,"humidity":84,"rain":0.0,"pressure":924.3,"uv_index":8.7,"wind_gusts":49.7,"aqi":31,"pm10":9.1,"pm2_5":4.9,"no2":3.3,"co":122.0,"o3":52.0,"so2":1.5,"mosquito_risk":3,"arthritis_risk":5,"migraine_risk":7,"frizz_risk":1,"updated_at":"2026-07-17T17:05:59.607213+05:30"},{"city":"Coimbatore","state":"Tamil Nadu","latitude":11.0168,"longitude":76.9558,"temp":26.7,"humidity":72,"rain":0.0,"pressure":960.9,"uv_index":8.5,"wind_gusts":47.2,"aqi":51,"pm10":12.1,"pm2_5":6.1,"no2":3.2,"co":150.0,"o3":59.0,"so2":1.9,"mosquito_risk":7,"arthritis_risk":5,"migraine_risk":7,"frizz_risk":1,"updated_at":"2026-07-17T17:05:59.607250+05:30"},{"city":"Madurai","state":"Tamil Nadu","latitude":9.9252,"longitude":78.1198,"temp":34.4,"humidity":39,"rain":0.0,"pressure":991.1,"uv_index":8.6,"wind_gusts":37.1,"aqi":75,"pm10":31.8,"pm2_5":13.9,"no2":4.0,"co":166.0,"o3":76.0,"so2":2.2,"mosquito_risk":0,"arthritis_risk":5,"migraine_risk":7,"frizz_risk":1,"updated_at":"2026-07-17T17:05:59.607263+05:30"},{"city":"Trichy","state":"Tamil Nadu","latitude":10.7905,"longitude":78.7047,"temp":32.0,"humidity":48,"rain":0.0,"pressure":998.0,"uv_index":8.8,"wind_gusts":62.6,"aqi":61,"pm10":15.4,"pm2_5":8.7,"no2":3.7,"co":134.0,"o3":61.0,"so2":2.3,"mosquito_risk":0,"arthritis_risk":5,"migraine_risk":7,"frizz_risk":1,"updated_at":"2026-07-17T17:05:59.607273+05:30"},{"city":"Salem","state":"Tamil Nadu","latitude":11.6643,"longitude":78.146,"temp":29.7,"humidity":56,"rain":0.0,"pressure":975.9,"uv_index":7.3,"wind_gusts":30.2,"aqi":70,"pm10":23.1,"pm2_5":14.6,"no2":7.8,"co":148.0,"o3":73.0,"so2":8.6,"mosquito_risk":4,"arthritis_risk":5,"migraine_risk":7,"frizz_risk":1,"updated_at":"2026-07-17T17:05:59.607283+05:30"},{"city":"Tirunelveli","state":"Tamil Nadu","latitude":8.7139,"longitude":77.7567,"temp":33.9,"humidity":43,"rain":0.0,"pressure":1001.6,"uv_index":8.25,"wind_gusts":46.4,"aqi":52,"pm10":13.5,"pm2_5":8.2,"no2":2.1,"co":116.0,"o3":73.0,"so2":1.4,"mosquito_risk":0,"arthritis_risk":5,"migraine_risk":4,"frizz_risk":1,"updated_at":"2026-07-17T17:05:59.607293+05:30"},{"city":"Vellore","state":"Tamil Nadu","latitude":12.9165,"longitude":79.1325,"temp":28.4,"humidity":79,"rain":0.2,"pressure":981.7,"uv_index":7.65,"wind_gusts":43.2,"aqi":71,"pm10":13.5,"pm2_5":7.3,"no2":3.9,"co":168.0,"o3":72.0,"so2":2.3,"mosquito_risk":10,"arthritis_risk":5,"migraine_risk":7,"frizz_risk":1,"updated_at":"2026-07-17T17:05:59.607302+05:30"},{"city":"Erode","state":"Tamil Nadu","latitude":11.341,"longitude":77.7172,"temp":29.4,"humidity":59,"rain":0.0,"pressure":987.8,"uv_index":8.8,"wind_gusts":39.6,"aqi":58,"pm10":12.8,"pm2_5":8.1,"no2":5.9,"co":198.0,"o3":67.0,"so2":2.6,"mosquito_risk":4,"arthritis_risk":5,"migraine_risk":7,"frizz_risk":1,"updated_at":"2026-07-17T17:05:59.607311+05:30"},{"city":"Kochi","state":"Kerala","latitude":9.9312,"longitude":76.2673,"temp":27.5,"humidity":81,"rain":0.0,"pressure":1009.4,"uv_index":7.7,"wind_gusts":31.0,"aqi":60,"pm10":14.2,"pm2_5":8.3,"no2":3.5,"co":119.0,"o3":64.0,"so2":2.5,"mosquito_risk":7,"arthritis_risk":0,"migraine_risk":4,"frizz_risk":1,"updated_at":"2026-07-17T17:05:59.607320+05:30"},{"city":"Thiruvananthapuram","state":"Kerala","latitude":8.5241,"longitude":76.9366,"temp":27.3,"humidity":79,"rain":0.1,"pressure":1008.8,"uv_index":8.35,"wind_gusts":47.2,"aqi":62,"pm10":24.0,"pm2_5":13.2,"no2":3.1,"co":107.0,"o3":68.0,"so2":1.2,"mosquito_risk":10,"arthritis_risk":0,"migraine_risk":4,"frizz_risk":1,"updated_at":"2026-07-17T17:05:59.607329+05:30"},{"city":"Kozhikode","state":"Kerala","latitude":11.2588,"longitude":75.7804,"temp":26.8,"humidity":81,"rain":0.1,"pressure":1008.7,"uv_index":1.4,"wind_gusts":27.0,"aqi":54,"pm10":20.4,"pm2_5":8.7,"no2":0.7,"co":122.0,"o3":61.0,"so2":1.0,"mosquito_risk":10,"arthritis_risk":0,"migraine_risk":0,"frizz_risk":1,"updated_at":"2026-07-17T17:05:59.607338+05:30"},{"city":"Thrissur","state":"Kerala","latitude":10.5276,"longitude":76.2144,"temp":28.0,"humidity":76,"rain":0.0,"pressure":1007.7,"uv_index":3.9,"wind_gusts":32.0,"aqi":56,"pm10":12.2,"pm2_5":7.0,"no2":2.5,"co":92.0,"o3":62.0,"so2":1.6,"mosquito_risk":7,"arthritis_risk":5,"migraine_risk":0,"frizz_risk":1,"updated_at":"2026-07-17T17:05:59.607349+05:30"},{"city":"Kannur","state":"Kerala","latitude":11.8745,"longitude":75.3704,"temp":27.0,"humidity":79,"rain":0.0,"pressure":1008.1,"uv_index":1.9,"wind_gusts":30.2,"aqi":53,"pm10":25.1,"pm2_5":11.4,"no2":2.1,"co":116.0,"o3":57.0,"so2":1.1,"mosquito_risk":7,"arthritis_risk":0,"migraine_risk":0,"frizz_risk":1,"updated_at":"2026-07-17T17:05:59.607357+05:30"},{"city":"Patna","state":"Bihar","latitude":25.5941,"longitude":85.1376,"temp":32.4,"humidity":74,"rain":0.0,"pressure":990.7,"uv_index":8.45,"wind_gusts":27.4,"aqi":118,"pm10":25.3,"pm2_5":24.3,"no2":6.4,"co":297.0,"o3":130.0,"so2":6.3,"mosquito_risk":3,"arthritis_risk":5,"migraine_risk":7,"frizz_risk":1,"updated_at":"2026-07-17T17:05:59.607366+05:30"},{"city":"Gaya","state":"Bihar","latitude":24.7914,"longitude":85.0002,"temp":31.8,"humidity":72,"rain":0.0,"pressure":984.4,"uv_index":7.4,"wind_gusts":23.0,"aqi":106,"pm10":19.7,"pm2_5":19.1,"no2":5.3,"co":281.0,"o3":123.0,"so2":6.2,"mosquito_risk":3,"arthritis_risk":5,"migraine_risk":7,"frizz_risk":1,"updated_at":"2026-07-17T17:05:59.607375+05:30"},{"city":"Muzaffarpur","state":"Bihar","latitude":26.1209,"longitude":85.3647,"temp":32.4,"humidity":71,"rain":0.0,"pressure":990.6,"uv_index":7.4,"wind_gusts":30.6,"aqi":105,"pm10":20.8,"pm2_5":20.0,"no2":6.2,"co":261.0,"o3":120.0,"so2":5.8,"mosquito_risk":3,"arthritis_risk":5,"migraine_risk":7,"frizz_risk":1,"updated_at":"2026-07-17T17:05:59.607384+05:30"},{"city":"Bhagalpur","state":"Bihar","latitude":25.2425,"longitude":87.0117,"temp":31.8,"humidity":77,"rain":0.1,"pressure":991.0,"uv_index":7.7,"wind_gusts":30.2,"aqi":84,"pm10":16.7,"pm2_5":15.3,"no2":6.4,"co":284.0,"o3":115.0,"so2":8.6,"mosquito_risk":6,"arthritis_risk":5,"migraine_risk":7,"frizz_risk":1,"updated_at":"2026-07-17T17:05:59.607392+05:30"},{"city":"Ranchi","state":"Jharkhand","latitude":23.3441,"longitude":85.3096,"temp":26.2,"humidity":87,"rain":0.1,"pressure":930.1,"uv_index":8.85,"wind_gusts":27.4,"aqi":72,"pm10":13.9,"pm2_5":13.2,"no2":7.1,"co":289.0,"o3":105.0,"so2":5.6,"mosquito_risk":10,"arthritis_risk":5,"migraine_risk":7,"frizz_risk":1,"updated_at":"2026-07-17T17:05:59.607401+05:30"},{"city":"Jamshedpur","state":"Jharkhand","latitude":22.8046,"longitude":86.2029,"temp":29.0,"humidity":86,"rain":0.1,"pressure":982.0,"uv_index":8.7,"wind_gusts":22.7,"aqi":91,"pm10":31.3,"pm2_5":31.0,"no2":14.4,"co":364.0,"o3":126.0,"so2":29.1,"mosquito_risk":10,"arthritis_risk":5,"migraine_risk":7,"frizz_risk":1,"updated_at":"2026-07-17T17:05:59.607410+05:30"},{"city":"Dhanbad","state":"Jharkhand","latitude":23.7957,"longitude":86.4304,"temp":28.2,"humidity":91,"rain":0.2,"pressure":970.7,"uv_index":7.15,"wind_gusts":20.2,"aqi":94,"pm10":34.9,"pm2_5":34.5,"no2":33.8,"co":257.0,"o3":105.0,"so2":75.5,"mosquito_risk":10,"arthritis_risk":5,"migraine_risk":7,"frizz_risk":1,"updated_at":"2026-07-17T17:05:59.607419+05:30"},{"city":"Bokaro","state":"Jharkhand","latitude":23.6693,"longitude":86.1511,"temp":28.7,"humidity":87,"rain":0.1,"pressure":974.8,"uv_index":7.7,"wind_gusts":26.3,"aqi":94,"pm10":26.4,"pm2_5":26.2,"no2":30.7,"co":291.0,"o3":84.0,"so2":70.3,"mosquito_risk":10,"arthritis_risk":5,"migraine_risk":7,"frizz_risk":1,"updated_at":"2026-07-17T17:05:59.607428+05:30"},{"city":"Bhubaneswar","state":"Odisha","latitude":20.2961,"longitude":85.8245,"temp":28.9,"humidity":84,"rain":0.2,"pressure":994.7,"uv_index":7.55,"wind_gusts":37.1,"aqi":75,"pm10":16.1,"pm2_5":12.7,"no2":5.6,"co":235.0,"o3":93.0,"so2":3.5,"mosquito_risk":10,"arthritis_risk":5,"migraine_risk":7,"frizz_risk":1,"updated_at":"2026-07-17T17:05:59.607437+05:30"},{"city":"Cuttack","state":"Odisha","latitude":20.4625,"longitude":85.8828,"temp":28.6,"humidity":90,"rain":0.0,"pressure":996.4,"uv_index":7.5,"wind_gusts":33.8,"aqi":75,"pm10":16.1,"pm2_5":12.7,"no2":5.6,"co":250.0,"o3":93.0,"so2":3.5,"mosquito_risk":7,"arthritis_risk":5,"migraine_risk":7,"frizz_risk":1,"updated_at":"2026-07-17T17:05:59.607446+05:30"},{"city":"Rourkela","state":"Odisha","latitude":22.2604,"longitude":84.8536,"temp":28.7,"humidity":84,"rain":0.2,"pressure":976.8,"uv_index":6.45,"wind_gusts":27.0,"aqi":83,"pm10":16.9,"pm2_5":15.7,"no2":6.5,"co":331.0,"o3":108.0,"so2":5.0,"mosquito_risk":10,"arthritis_risk":5,"migraine_risk":7,"frizz_risk":1,"updated_at":"2026-07-17T17:05:59.607455+05:30"},{"city":"Raipur","state":"Chhattisgarh","latitude":21.2514,"longitude":81.6296,"temp":29.3,"humidity":74,"rain":0.0,"pressure":968.5,"uv_index":1.05,"wind_gusts":41.4,"aqi":102,"pm10":31.8,"pm2_5":26.2,"no2":28.9,"co":470.0,"o3":59.0,"so2":54.5,"mosquito_risk":7,"arthritis_risk":5,"migraine_risk":3,"frizz_risk":1,"updated_at":"2026-07-17T17:05:59.607464+05:30"},{"city":"Bhilai","state":"Chhattisgarh","latitude":21.1938,"longitude":81.3509,"temp":29.1,"humidity":73,"rain":0.0,"pressure":969.2,"uv_index":2.5,"wind_gusts":41.4,"aqi":95,"pm10":27.6,"pm2_5":21.4,"no2":20.0,"co":942.0,"o3":68.0,"so2":35.8,"mosquito_risk":7,"arthritis_risk":5,"migraine_risk":3,"frizz_risk":1,"updated_at":"2026-07-17T17:05:59.607473+05:30"},{"city":"Guwahati","state":"Assam","latitude":26.1158,"longitude":91.7086,"temp":27.8,"humidity":95,"rain":0.1,"pressure":993.9,"uv_index":7.3,"wind_gusts":24.5,"aqi":57,"pm10":10.7,"pm2_5":8.5,"no2":4.3,"co":258.0,"o3":83.0,"so2":1.5,"mosquito_risk":10,"arthritis_risk":5,"migraine_risk":7,"frizz_risk":1,"updated_at":"2026-07-17T17:05:59.607481+05:30"},{"city":"Agartala","state":"Tripura","latitude":23.8315,"longitude":91.2868,"temp":29.0,"humidity":81,"rain":0.0,"pressure":999.2,"uv_index":7.55,"wind_gusts":51.8,"aqi":60,"pm10":11.9,"pm2_5":10.2,"no2":5.2,"co":152.0,"o3":76.0,"so2":1.6,"mosquito_risk":7,"arthritis_risk":5,"migraine_risk":7,"frizz_risk":1,"updated_at":"2026-07-17T17:05:59.607490+05:30"},{"city":"Shillong","state":"Meghalaya","latitude":25.5788,"longitude":91.8933,"temp":22.0,"humidity":88,"rain":0.0,"pressure":852.8,"uv_index":4.4,"wind_gusts":48.2,"aqi":41,"pm10":6.9,"pm2_5":5.6,"no2":4.6,"co":163.0,"o3":82.0,"so2":2.1,"mosquito_risk":3,"arthritis_risk":5,"migraine_risk":3,"frizz_risk":1,"updated_at":"2026-07-17T17:05:59.607499+05:30"},{"city":"Imphal","state":"Manipur","latitude":24.817,"longitude":93.9368,"temp":25.5,"humidity":79,"rain":0.0,"pressure":918.9,"uv_index":5.3,"wind_gusts":20.5,"aqi":62,"pm10":19.2,"pm2_5":11.3,"no2":2.3,"co":178.0,"o3":82.0,"so2":1.8,"mosquito_risk":7,"arthritis_risk":5,"migraine_risk":3,"frizz_risk":1,"updated_at":"2026-07-17T17:05:59.607508+05:30"},{"city":"Aizawl","state":"Mizoram","latitude":23.7271,"longitude":92.7176,"temp":21.9,"humidity":86,"rain":0.0,"pressure":888.2,"uv_index":6.15,"wind_gusts":42.5,"aqi":59,"pm10":11.3,"pm2_5":8.5,"no2":2.2,"co":124.0,"o3":63.0,"so2":0.9,"mosquito_risk":3,"arthritis_risk":5,"migraine_risk":7,"frizz_risk":1,"updated_at":"2026-07-17T17:05:59.607517+05:30"},{"city":"Kohima","state":"Nagaland","latitude":25.6701,"longitude":94.1077,"temp":22.1,"humidity":97,"rain":0.0,"pressure":851.6,"uv_index":3.25,"wind_gusts":23.0,"aqi":51,"pm10":19.1,"pm2_5":10.7,"no2":2.4,"co":176.0,"o3":76.0,"so2":1.3,"mosquito_risk":3,"arthritis_risk":5,"migraine_risk":3,"frizz_risk":1,"updated_at":"2026-07-17T17:05:59.607526+05:30"},{"city":"Gangtok","state":"Sikkim","latitude":27.3314,"longitude":88.6138,"temp":20.7,"humidity":96,"rain":0.1,"pressure":833.9,"uv_index":6.75,"wind_gusts":30.6,"aqi":47,"pm10":4.2,"pm2_5":3.3,"no2":3.4,"co":202.0,"o3":99.0,"so2":1.3,"mosquito_risk":6,"arthritis_risk":5,"migraine_risk":7,"frizz_risk":1,"updated_at":"2026-07-17T17:05:59.607536+05:30"},{"city":"Siliguri","state":"West Bengal","latitude":26.7271,"longitude":88.3953,"temp":28.7,"humidity":90,"rain":0.1,"pressure":984.7,"uv_index":7.85,"wind_gusts":29.2,"aqi":69,"pm10":17.8,"pm2_5":13.6,"no2":4.0,"co":391.0,"o3":117.0,"so2":2.4,"mosquito_risk":10,"arthritis_risk":5,"migraine_risk":7,"frizz_risk":1,"updated_at":"2026-07-17T17:06:02.892453+05:30"},{"city":"Durgapur","state":"West Bengal","latitude":23.5204,"longitude":87.3119,"temp":29.4,"humidity":86,"rain":0.0,"pressure":985.5,"uv_index":8.55,"wind_gusts":28.4,"aqi":82,"pm10":28.2,"pm2_5":27.9,"no2":24.6,"co":342.0,"o3":105.0,"so2":37.9,"mosquito_risk":7,"arthritis_risk":5,"migraine_risk":7,"frizz_risk":1,"updated_at":"2026-07-17T17:06:02.892486+05:30"},{"city":"Asansol","state":"West Bengal","latitude":23.6739,"longitude":86.9524,"temp":28.6,"humidity":87,"rain":0.0,"pressure":984.2,"uv_index":8.05,"wind_gusts":29.5,"aqi":89,"pm10":29.1,"pm2_5":28.6,"no2":25.1,"co":342.0,"o3":114.0,"so2":39.5,"mosquito_risk":7,"arthritis_risk":5,"migraine_risk":7,"frizz_risk":1,"updated_at":"2026-07-17T17:06:02.892498+05:30"},{"city":"Pondicherry","state":"Puducherry","latitude":11.9139,"longitude":79.8145,"temp":30.6,"humidity":73,"rain":0.1,"pressure":1005.4,"uv_index":8.8,"wind_gusts":38.5,"aqi":73,"pm10":33.4,"pm2_5":22.8,"no2":8.8,"co":216.0,"o3":136.0,"so2":10.5,"mosquito_risk":6,"arthritis_risk":5,"migraine_risk":4,"frizz_risk":1,"updated_at":"2026-07-17T17:06:02.892507+05:30"},{"city":"Port Blair","state":"Andaman and Nicobar Islands","latitude":11.6234,"longitude":92.7265,"temp":28.3,"humidity":80,"rain":0.0,"pressure":1006.3,"uv_index":7.3,"wind_gusts":37.8,"aqi":45,"pm10":15.4,"pm2_5":7.3,"no2":0.5,"co":100.0,"o3":44.0,"so2":0.5,"mosquito_risk":7,"arthritis_risk":5,"migraine_risk":4,"frizz_risk":1,"updated_at":"2026-07-17T17:06:02.892515+05:30"},{"city":"Haridwar","state":"Uttarakhand","latitude":29.9457,"longitude":78.1642,"temp":33.7,"humidity":60,"rain":0.0,"pressure":965.8,"uv_index":7.35,"wind_gusts":26.3,"aqi":174,"pm10":82.0,"pm2_5":57.9,"no2":2.4,"co":389.0,"o3":195.0,"so2":13.0,"mosquito_risk":0,"arthritis_risk":5,"migraine_risk":7,"frizz_risk":1,"updated_at":"2026-07-17T17:06:02.892524+05:30"},{"city":"Rishikesh","state":"Uttarakhand","latitude":30.0869,"longitude":78.2676,"temp":32.2,"humidity":66,"rain":0.0,"pressure":958.8,"uv_index":7.4,"wind_gusts":25.9,"aqi":156,"pm10":80.3,"pm2_5":54.1,"no2":1.9,"co":423.0,"o3":187.0,"so2":10.8,"mosquito_risk":3,"arthritis_risk":5,"migraine_risk":7,"frizz_risk":1,"updated_at":"2026-07-17T17:06:02.892532+05:30"},{"city":"Nainital","state":"Uttarakhand","latitude":29.3919,"longitude":79.4542,"temp":21.3,"humidity":81,"rain":0.1,"pressure":803.0,"uv_index":6.15,"wind_gusts":28.8,"aqi":142,"pm10":105.7,"pm2_5":54.4,"no2":2.4,"co":293.0,"o3":173.0,"so2":11.5,"mosquito_risk":6,"arthritis_risk":5,"migraine_risk":7,"frizz_risk":1,"updated_at":"2026-07-17T17:06:02.892541+05:30"},{"city":"Mussoorie","state":"Uttarakhand","latitude":30.4599,"longitude":78.0664,"temp":20.6,"humidity":87,"rain":0.1,"pressure":800.6,"uv_index":6.65,"wind_gusts":39.2,"aqi":168,"pm10":58.9,"pm2_5":50.8,"no2":4.3,"co":386.0,"o3":185.0,"so2":10.1,"mosquito_risk":6,"arthritis_risk":5,"migraine_risk":7,"frizz_risk":1,"updated_at":"2026-07-17T17:06:02.892548+05:30"},{"city":"Dharamshala","state":"Himachal Pradesh","latitude":32.219,"longitude":76.3234,"temp":24.7,"humidity":85,"rain":0.0,"pressure":865.2,"uv_index":8.15,"wind_gusts":31.0,"aqi":114,"pm10":16.0,"pm2_5":11.3,"no2":1.0,"co":311.0,"o3":149.0,"so2":2.0,"mosquito_risk":3,"arthritis_risk":5,"migraine_risk":7,"frizz_risk":1,"updated_at":"2026-07-17T17:06:02.892556+05:30"},{"city":"Dalhousie","state":"Himachal Pradesh","latitude":32.5387,"longitude":75.971,"temp":20.8,"humidity":91,"rain":0.1,"pressure":802.6,"uv_index":7.8,"wind_gusts":24.8,"aqi":151,"pm10":58.1,"pm2_5":35.5,"no2":1.8,"co":299.0,"o3":158.0,"so2":3.6,"mosquito_risk":6,"arthritis_risk":5,"migraine_risk":7,"frizz_risk":1,"updated_at":"2026-07-17T17:06:02.892565+05:30"},{"city":"Patiala","state":"Punjab","latitude":30.3398,"longitude":76.3869,"temp":34.8,"humidity":54,"rain":0.0,"pressure":970.1,"uv_index":6.6,"wind_gusts":31.7,"aqi":192,"pm10":366.0,"pm2_5":84.8,"no2":3.4,"co":272.0,"o3":157.0,"so2":7.4,"mosquito_risk":0,"arthritis_risk":5,"migraine_risk":7,"frizz_risk":1,"updated_at":"2026-07-17T17:06:02.892572+05:30"},{"city":"Bhatinda","state":"Punjab","latitude":30.211,"longitude":74.9455,"temp":38.6,"humidity":32,"rain":0.0,"pressure":975.4,"uv_index":7.65,"wind_gusts":30.6,"aqi":174,"pm10":168.6,"pm2_5":52.3,"no2":2.1,"co":128.0,"o3":110.0,"so2":5.0,"mosquito_risk":0,"arthritis_risk":5,"migraine_risk":10,"frizz_risk":1,"updated_at":"2026-07-17T17:06:02.892580+05:30"},{"city":"Rohtak","state":"Haryana","latitude":28.8955,"longitude":76.6066,"temp":36.0,"humidity":46,"rain":0.0,"pressure":973.6,"uv_index":6.55,"wind_gusts":33.8,"aqi":814,"pm10":843.8,"pm2_5":142.0,"no2":5.6,"co":188.0,"o3":115.0,"so2":4.8,"mosquito_risk":0,"arthritis_risk":5,"migraine_risk":10,"frizz_risk":1,"updated_at":"2026-07-17T17:06:02.892588+05:30"},{"city":"Panipat","state":"Haryana","latitude":29.3909,"longitude":76.9635,"temp":34.4,"humidity":58,"rain":0.0,"pressure":972.1,"uv_index":7.5,"wind_gusts":31.7,"aqi":1227,"pm10":2346.9,"pm2_5":281.3,"no2":5.2,"co":172.0,"o3":117.0,"so2":8.2,"mosquito_risk":0,"arthritis_risk":5,"migraine_risk":7,"frizz_risk":1,"updated_at":"2026-07-17T17:06:02.892596+05:30"},{"city":"Mathura","state":"Uttar Pradesh","latitude":27.4924,"longitude":77.6737,"temp":35.7,"humidity":50,"rain":0.0,"pressure":978.9,"uv_index":7.25,"wind_gusts":32.0,"aqi":614,"pm10":765.5,"pm2_5":143.4,"no2":15.2,"co":272.0,"o3":83.0,"so2":3.9,"mosquito_risk":0,"arthritis_risk":5,"migraine_risk":10,"frizz_risk":1,"updated_at":"2026-07-17T17:06:02.892603+05:30"},{"city":"Vrindavan","state":"Uttar Pradesh","latitude":27.5823,"longitude":77.7027,"temp":35.5,"humidity":52,"rain":0.0,"pressure":979.3,"uv_index":7.05,"wind_gusts":31.7,"aqi":614,"pm10":765.5,"pm2_5":143.4,"no2":15.2,"co":261.0,"o3":83.0,"so2":3.9,"mosquito_risk":0,"arthritis_risk":5,"migraine_risk":10,"frizz_risk":1,"updated_at":"2026-07-17T17:06:02.892611+05:30"},{"city":"Ayodhya","state":"Uttar Pradesh","latitude":26.7922,"longitude":82.1998,"temp":30.0,"humidity":88,"rain":0.1,"pressure":987.1,"uv_index":8.15,"wind_gusts":18.4,"aqi":112,"pm10":38.6,"pm2_5":30.7,"no2":2.7,"co":322.0,"o3":163.0,"so2":3.9,"mosquito_risk":10,"arthritis_risk":5,"migraine_risk":7,"frizz_risk":1,"updated_at":"2026-07-17T17:06:02.892619+05:30"},{"city":"Ratlam","state":"Madhya Pradesh","latitude":23.3315,"longitude":75.0367,"temp":29.2,"humidity":71,"rain":0.1,"pressure":949.7,"uv_index":8.5,"wind_gusts":34.6,"aqi":74,"pm10":54.1,"pm2_5":23.7,"no2":1.8,"co":128.0,"o3":90.0,"so2":3.6,"mosquito_risk":10,"arthritis_risk":5,"migraine_risk":7,"frizz_risk":1,"updated_at":"2026-07-17T17:06:02.892627+05:30"},{"city":"Sagar","state":"Madhya Pradesh","latitude":23.8388,"longitude":78.7378,"temp":26.8,"humidity":93,"rain":0.2,"pressure":945.0,"uv_index":7.7,"wind_gusts":39.6,"aqi":86,"pm10":60.8,"pm2_5":29.9,"no2":2.3,"co":156.0,"o3":105.0,"so2":5.9,"mosquito_risk":10,"arthritis_risk":5,"migraine_risk":7,"frizz_risk":1,"updated_at":"2026-07-17T17:06:02.892635+05:30"},{"city":"Satna","state":"Madhya Pradesh","latitude":24.6005,"longitude":80.8322,"temp":28.8,"humidity":84,"rain":0.0,"pressure":964.5,"uv_index":8.45,"wind_gusts":41.4,"aqi":125,"pm10":88.5,"pm2_5":38.4,"no2":2.4,"co":161.0,"o3":119.0,"so2":3.7,"mosquito_risk":7,"arthritis_risk":5,"migraine_risk":7,"frizz_risk":1,"updated_at":"2026-07-17T17:06:02.892642+05:30"},{"city":"Akola","state":"Maharashtra","latitude":20.7002,"longitude":77.0082,"temp":31.3,"humidity":56,"rain":0.0,"pressure":970.4,"uv_index":8.65,"wind_gusts":42.1,"aqi":69,"pm10":41.7,"pm2_5":18.9,"no2":4.0,"co":122.0,"o3":81.0,"so2":7.5,"mosquito_risk":0,"arthritis_risk":5,"migraine_risk":7,"frizz_risk":1,"updated_at":"2026-07-17T17:06:02.892651+05:30"},{"city":"Amravati","state":"Maharashtra","latitude":20.9374,"longitude":77.7796,"temp":30.7,"humidity":57,"rain":0.0,"pressure":962.6,"uv_index":7.8,"wind_gusts":39.6,"aqi":70,"pm10":44.9,"pm2_5":21.4,"no2":4.9,"co":129.0,"o3":76.0,"so2":9.0,"mosquito_risk":0,"arthritis_risk":5,"migraine_risk":7,"frizz_risk":1,"updated_at":"2026-07-17T17:06:02.892659+05:30"},{"city":"Latur","state":"Maharashtra","latitude":18.4088,"longitude":76.5604,"temp":26.2,"humidity":83,"rain":0.0,"pressure":936.4,"uv_index":8.15,"wind_gusts":35.3,"aqi":61,"pm10":28.7,"pm2_5":11.6,"no2":2.4,"co":128.0,"o3":68.0,"so2":2.0,"mosquito_risk":7,"arthritis_risk":5,"migraine_risk":7,"frizz_risk":1,"updated_at":"2026-07-17T17:06:02.892667+05:30"},{"city":"Nanded","state":"Maharashtra","latitude":19.1383,"longitude":77.3091,"temp":31.0,"humidity":60,"rain":0.0,"pressure":964.6,"uv_index":8.4,"wind_gusts":33.8,"aqi":74,"pm10":32.8,"pm2_5":17.6,"no2":5.0,"co":156.0,"o3":76.0,"so2":4.6,"mosquito_risk":0,"arthritis_risk":5,"migraine_risk":7,"frizz_risk":1,"updated_at":"2026-07-17T17:06:02.892675+05:30"},{"city":"Gulbarga","state":"Karnataka","latitude":17.3297,"longitude":76.8343,"temp":29.0,"humidity":60,"rain":0.0,"pressure":955.7,"uv_index":7.7,"wind_gusts":41.8,"aqi":57,"pm10":28.0,"pm2_5":11.7,"no2":3.9,"co":145.0,"o3":69.0,"so2":2.4,"mosquito_risk":4,"arthritis_risk":5,"migraine_risk":7,"frizz_risk":1,"updated_at":"2026-07-17T17:06:02.892683+05:30"},{"city":"Bidar","state":"Karnataka","latitude":17.9104,"longitude":77.5199,"temp":25.3,"humidity":86,"rain":0.0,"pressure":932.3,"uv_index":7.95,"wind_gusts":31.0,"aqi":73,"pm10":40.9,"pm2_5":18.6,"no2":6.0,"co":168.0,"o3":65.0,"so2":2.6,"mosquito_risk":7,"arthritis_risk":5,"migraine_risk":7,"frizz_risk":1,"updated_at":"2026-07-17T17:06:02.892690+05:30"},{"city":"Hospet","state":"Karnataka","latitude":15.2689,"longitude":76.3909,"temp":26.2,"humidity":79,"rain":0.0,"pressure":953.8,"uv_index":4.4,"wind_gusts":48.2,"aqi":37,"pm10":13.3,"pm2_5":7.2,"no2":3.0,"co":123.0,"o3":61.0,"so2":1.7,"mosquito_risk":7,"arthritis_risk":5,"migraine_risk":3,"frizz_risk":1,"updated_at":"2026-07-17T17:06:02.892697+05:30"},{"city":"Tirupur","state":"Tamil Nadu","latitude":11.1085,"longitude":77.3411,"temp":27.6,"humidity":67,"rain":0.0,"pressure":974.2,"uv_index":8.55,"wind_gusts":49.0,"aqi":61,"pm10":14.2,"pm2_5":8.8,"no2":5.6,"co":144.0,"o3":68.0,"so2":3.1,"mosquito_risk":7,"arthritis_risk":5,"migraine_risk":7,"frizz_risk":1,"updated_at":"2026-07-17T17:06:02.892705+05:30"},{"city":"Alappuzha","state":"Kerala","latitude":9.4981,"longitude":76.3388,"temp":27.6,"humidity":80,"rain":0.0,"pressure":1009.5,"uv_index":7.85,"wind_gusts":37.8,"aqi":61,"pm10":20.0,"pm2_5":11.1,"no2":3.3,"co":94.0,"o3":72.0,"so2":2.6,"mosquito_risk":7,"arthritis_risk":0,"migraine_risk":4,"frizz_risk":1,"updated_at":"2026-07-17T17:06:02.892712+05:30"},{"city":"Munnar","state":"Kerala","latitude":10.0889,"longitude":77.0595,"temp":17.5,"humidity":93,"rain":0.0,"pressure":856.6,"uv_index":9.0,"wind_gusts":38.9,"aqi":41,"pm10":8.5,"pm2_5":5.0,"no2":3.3,"co":106.0,"o3":58.0,"so2":1.2,"mosquito_risk":3,"arthritis_risk":10,"migraine_risk":7,"frizz_risk":1,"updated_at":"2026-07-17T17:06:02.892721+05:30"},{"city":"Silchar","state":"Assam","latitude":24.8333,"longitude":92.7789,"temp":29.9,"humidity":78,"rain":0.1,"pressure":999.0,"uv_index":8.7,"wind_gusts":34.9,"aqi":71,"pm10":29.0,"pm2_5":19.2,"no2":3.8,"co":181.0,"o3":85.0,"so2":3.8,"mosquito_risk":10,"arthritis_risk":5,"migraine_risk":7,"frizz_risk":1,"updated_at":"2026-07-17T17:06:02.892728+05:30"},{"city":"Dibrugarh","state":"Assam","latitude":27.4728,"longitude":94.912,"temp":27.2,"humidity":98,"rain":0.3,"pressure":988.2,"uv_index":3.65,"wind_gusts":38.5,"aqi":52,"pm10":14.8,"pm2_5":10.8,"no2":3.7,"co":200.0,"o3":87.0,"so2":2.2,"mosquito_risk":10,"arthritis_risk":5,"migraine_risk":3,"frizz_risk":1,"updated_at":"2026-07-17T17:06:02.892736+05:30"}]