[{"city":"Delhi","state":"Delhi","latitude":28.6139,"longitude":77.209,"temp":25.3,"humidity":63,"rain":0.0,"pressure":985.1,"uv_index":6.4,"wind_gusts":20.9,"aqi":188,"pm10":127.1,"pm2_5":39.3,"mosquito_risk":7,"arthritis_risk":5,"migraine_risk":7,"frizz_risk":1,"updated_at":"2026-03-23T17:16:59.097918+05:30"},{"city":"Mumbai","state":"Maharashtra","latitude":19.076,"longitude":72.8777,"temp":28.9,"humidity":66,"rain":0.0,"pressure":1007.4,"uv_index":7.9,"wind_gusts":23.0,"aqi":184,"pm10":48.8,"pm2_5":39.7,"mosquito_risk":7,"arthritis_risk":5,"migraine_risk":4,"frizz_risk":1,"updated_at":"2026-03-23T17:16:59.097959+05:30"},{"city":"Bangalore","state":"Karnataka","latitude":12.9716,"longitude":77.5946,"temp":31.2,"humidity":31,"rain":0.0,"pressure":911.5,"uv_index":9.45,"wind_gusts":25.6,"aqi":106,"pm10":33.4,"pm2_5":24.9,"mosquito_risk":0,"arthritis_risk":5,"migraine_risk":7,"frizz_risk":0,"updated_at":"2026-03-23T17:16:59.097974+05:30"},{"city":"Hyderabad","state":"Telangana","latitude":17.385,"longitude":78.4867,"temp":33.6,"humidity":28,"rain":0.0,"pressure":952.9,"uv_index":8.9,"wind_gusts":24.5,"aqi":92,"pm10":42.6,"pm2_5":28.0,"mosquito_risk":0,"arthritis_risk":5,"migraine_risk":7,"frizz_risk":0,"updated_at":"2026-03-23T17:16:59.097984+05:30"},{"city":"Chennai","state":"Tamil Nadu","latitude":13.0827,"longitude":80.2707,"temp":30.1,"humidity":62,"rain":0.0,"pressure":1007.7,"uv_index":9.2,"wind_gusts":31.7,"aqi":39,"pm10":11.5,"pm2_5":7.5,"mosquito_risk":3,"arthritis_risk":5,"migraine_risk":4,"frizz_risk":1,"updated_at":"2026-03-23T17:16:59.097993+05:30"},{"city":"Kolkata","state":"West Bengal","latitude":22.5726,"longitude":88.3639,"temp":27.9,"humidity":61,"rain":0.0,"pressure":1008.2,"uv_index":8.3,"wind_gusts":20.5,"aqi":155,"pm10":43.0,"pm2_5":33.4,"mosquito_risk":7,"arthritis_risk":0,"migraine_risk":4,"frizz_risk":1,"updated_at":"2026-03-23T17:16:59.098002+05:30"},{"city":"Pune","state":"Maharashtra","latitude":18.5204,"longitude":73.8567,"temp":34.0,"humidity":26,"rain":0.0,"pressure":947.9,"uv_index":8.45,"wind_gusts":45.7,"aqi":107,"pm10":21.1,"pm2_5":13.7,"mosquito_risk":0,"arthritis_risk":5,"migraine_risk":7,"frizz_risk":0,"updated_at":"2026-03-23T17:16:59.098014+05:30"},{"city":"Ahmedabad","state":"Gujarat","latitude":23.0225,"longitude":72.5714,"temp":35.2,"humidity":17,"rain":0.0,"pressure":1002.1,"uv_index":7.85,"wind_gusts":32.4,"aqi":83,"pm10":50.4,"pm2_5":19.0,"mosquito_risk":0,"arthritis_risk":5,"migraine_risk":7,"frizz_risk":0,"updated_at":"2026-03-23T17:16:59.098022+05:30"},{"city":"Jaipur","state":"Rajasthan","latitude":26.9124,"longitude":75.7873,"temp":27.8,"humidity":44,"rain":0.0,"pressure":961.0,"uv_index":7.25,"wind_gusts":40.3,"aqi":107,"pm10":226.3,"pm2_5":41.4,"mosquito_risk":4,"arthritis_risk":5,"migraine_risk":7,"frizz_risk":0,"updated_at":"2026-03-23T17:16:59.098030+05:30"},{"city":"Lucknow","state":"Uttar Pradesh","latitude":26.8467,"longitude":80.9462,"temp":27.5,"humidity":45,"rain":0.0,"pressure":995.6,"uv_index":6.6,"wind_gusts":37.8,"aqi":163,"pm10":129.0,"pm2_5":38.3,"mosquito_risk":4,"arthritis_risk":5,"migraine_risk":7,"frizz_risk":0,"updated_at":"2026-03-23T17:16:59.098038+05:30"},{"city":"Kanpur","state":"Uttar Pradesh","latitude":26.4499,"longitude":80.3319,"temp":25.9,"humidity":57,"rain":0.0,"pressure":993.9,"uv_index":4.7,"wind_gusts":29.2,"aqi":278,"pm10":378.1,"pm2_5":60.5,"mosquito_risk":4,"arthritis_risk":5,"migraine_risk":3,"frizz_risk":1,"updated_at":"2026-03-23T17:16:59.098045+05:30"},{"city":"Chandigarh","state":"Chandigarh","latitude":30.7333,"longitude":76.7794,"temp":25.5,"humidity":53,"rain":0.0,"pressure":970.3,"uv_index":6.45,"wind_gusts":27.4,"aqi":109,"pm10":46.4,"pm2_5":28.8,"mosquito_risk":4,"arthritis_risk":5,"migraine_risk":7,"frizz_risk":0,"updated_at":"2026-03-23T17:16:59.098052+05:30"},{"city":"Srinagar","state":"Jammu and Kashmir","latitude":34.0837,"longitude":74.7973,"temp":14.1,"humidity":65,"rain":0.0,"pressure":841.0,"uv_index":6.3,"wind_gusts":18.7,"aqi":100,"pm10":23.6,"pm2_5":13.3,"mosquito_risk":3,"arthritis_risk":5,"migraine_risk":7,"frizz_risk":0,"updated_at":"2026-03-23T17:16:59.098059+05:30"},{"city":"Jammu","state":"Jammu and Kashmir","latitude":32.7266,"longitude":74.857,"temp":26.3,"humidity":45,"rain":0.0,"pressure":974.7,"uv_index":7.0,"wind_gusts":16.2,"aqi":83,"pm10":22.2,"pm2_5":14.7,"mosquito_risk":4,"arthritis_risk":5,"migraine_risk":7,"frizz_risk":0,"updated_at":"2026-03-23T17:16:59.098066+05:30"},{"city":"Amritsar","state":"Punjab","latitude":31.634,"longitude":74.8723,"temp":26.8,"humidity":44,"rain":0.0,"pressure":982.6,"uv_index":7.05,"wind_gusts":16.9,"aqi":129,"pm10":42.1,"pm2_5":24.6,"mosquito_risk":4,"arthritis_risk":5,"migraine_risk":7,"frizz_risk":0,"updated_at":"2026-03-23T17:16:59.098073+05:30"},{"city":"Ludhiana","state":"Punjab","latitude":30.901,"longitude":75.8573,"temp":26.1,"humidity":49,"rain":0.0,"pressure":980.5,"uv_index":6.65,"wind_gusts":23.4,"aqi":140,"pm10":44.1,"pm2_5":24.6,"mosquito_risk":4,"arthritis_risk":5,"migraine_risk":7,"frizz_risk":0,"updated_at":"2026-03-23T17:16:59.098079+05:30"},{"city":"Jalandhar","state":"Punjab","latitude":31.326,"longitude":75.5762,"temp":26.2,"humidity":45,"rain":0.0,"pressure":981.9,"uv_index":6.85,"wind_gusts":23.0,"aqi":140,"pm10":40.7,"pm2_5":22.6,"mosquito_risk":4,"arthritis_risk":5,"migraine_risk":7,"frizz_risk":0,"updated_at":"2026-03-23T17:16:59.098088+05:30"},{"city":"Dehradun","state":"Uttarakhand","latitude":30.6284,"longitude":78.0322,"temp":13.4,"humidity":83,"rain":0.0,"pressure":829.5,"uv_index":6.85,"wind_gusts":21.6,"aqi":103,"pm10":26.1,"pm2_5":19.6,"mosquito_risk":3,"arthritis_risk":10,"migraine_risk":7,"frizz_risk":0,"updated_at":"2026-03-23T17:16:59.098095+05:30"},{"city":"Shimla","state":"Himachal Pradesh","latitude":31.1048,"longitude":77.1734,"temp":11.5,"humidity":83,"rain":0.0,"pressure":783.7,"uv_index":6.9,"wind_gusts":33.1,"aqi":103,"pm10":28.9,"pm2_5":20.3,"mosquito_risk":3,"arthritis_risk":10,"migraine_risk":7,"frizz_risk":0,"updated_at":"2026-03-23T17:16:59.098103+05:30"},{"city":"Manali","state":"Himachal Pradesh","latitude":32.2396,"longitude":77.1887,"temp":16.2,"humidity":43,"rain":0.0,"pressure":818.3,"uv_index":8.85,"wind_gusts":27.7,"aqi":114,"pm10":13.3,"pm2_5":8.2,"mosquito_risk":0,"arthritis_risk":5,"migraine_risk":7,"frizz_risk":0,"updated_at":"2026-03-23T17:16:59.098110+05:30"},{"city":"Gurgaon","state":"Haryana","latitude":28.4595,"longitude":77.0266,"temp":24.1,"humidity":73,"rain":0.0,"pressure":983.6,"uv_index":6.55,"wind_gusts":18.4,"aqi":380,"pm10":256.1,"pm2_5":43.4,"mosquito_risk":3,"arthritis_risk":5,"migraine_risk":7,"frizz_risk":1,"updated_at":"2026-03-23T17:16:59.098117+05:30"},{"city":"Noida","state":"Uttar Pradesh","latitude":28.5355,"longitude":77.391,"temp":25.5,"humidity":63,"rain":0.0,"pressure":986.7,"uv_index":6.4,"wind_gusts":20.2,"aqi":380,"pm10":256.1,"pm2_5":43.4,"mosquito_risk":7,"arthritis_risk":5,"migraine_risk":7,"frizz_risk":1,"updated_at":"2026-03-23T17:16:59.098124+05:30"},{"city":"Ghaziabad","state":"Uttar Pradesh","latitude":28.6692,"longitude":77.4538,"temp":24.7,"humidity":66,"rain":0.0,"pressure":984.9,"uv_index":6.35,"wind_gusts":22.0,"aqi":169,"pm10":133.6,"pm2_5":41.6,"mosquito_risk":3,"arthritis_risk":5,"migraine_risk":7,"frizz_risk":1,"updated_at":"2026-03-23T17:16:59.098130+05:30"},{"city":"Faridabad","state":"Haryana","latitude":28.4089,"longitude":77.3178,"temp":25.3,"humidity":61,"rain":0.0,"pressure":985.9,"uv_index":6.4,"wind_gusts":20.9,"aqi":380,"pm10":256.1,"pm2_5":43.4,"mosquito_risk":7,"arthritis_risk":5,"migraine_risk":7,"frizz_risk":1,"updated_at":"2026-03-23T17:16:59.098137+05:30"},{"city":"Meerut","state":"Uttar Pradesh","latitude":28.9845,"longitude":77.7064,"temp":23.4,"humidity":74,"rain":0.0,"pressure":983.8,"uv_index":6.25,"wind_gusts":27.0,"aqi":169,"pm10":133.6,"pm2_5":41.6,"mosquito_risk":3,"arthritis_risk":5,"migraine_risk":7,"frizz_risk":1,"updated_at":"2026-03-23T17:16:59.098143+05:30"},{"city":"Agra","state":"Uttar Pradesh","latitude":27.1767,"longitude":78.0081,"temp":26.4,"humidity":55,"rain":0.0,"pressure":989.5,"uv_index":5.15,"wind_gusts":24.8,"aqi":296,"pm10":92.9,"pm2_5":36.9,"mosquito_risk":4,"arthritis_risk":5,"migraine_risk":3,"frizz_risk":1,"updated_at":"2026-03-23T17:16:59.098150+05:30"},{"city":"Varanasi","state":"Uttar Pradesh","latitude":25.3176,"longitude":82.9739,"temp":30.5,"humidity":35,"rain":0.0,"pressure":999.4,"uv_index":7.65,"wind_gusts":27.4,"aqi":123,"pm10":103.8,"pm2_5":27.8,"mosquito_risk":0,"arthritis_risk":5,"migraine_risk":7,"frizz_risk":0,"updated_at":"2026-03-23T17:16:59.098159+05:30"},{"city":"Prayagraj","state":"Uttar Pradesh","latitude":25.4358,"longitude":81.8463,"temp":30.1,"humidity":38,"rain":0.0,"pressure":997.9,"uv_index":7.55,"wind_gusts":20.5,"aqi":125,"pm10":95.7,"pm2_5":26.0,"mosquito_risk":0,"arthritis_risk":5,"migraine_risk":7,"frizz_risk":0,"updated_at":"2026-03-23T17:16:59.098166+05:30"},{"city":"Gorakhpur","state":"Uttar Pradesh","latitude":26.7606,"longitude":83.3732,"temp":27.9,"humidity":47,"rain":0.0,"pressure":999.1,"uv_index":7.4,"wind_gusts":23.0,"aqi":146,"pm10":136.0,"pm2_5":36.3,"mosquito_risk":4,"arthritis_risk":5,"migraine_risk":7,"frizz_risk":0,"updated_at":"2026-03-23T17:16:59.098172+05:30"},{"city":"Bareilly","state":"Uttar Pradesh","latitude":28.367,"longitude":79.4304,"temp":25.5,"humidity":63,"rain":0.0,"pressure":988.7,"uv_index":5.25,"wind_gusts":25.2,"aqi":109,"pm10":42.0,"pm2_5":16.8,"mosquito_risk":7,"arthritis_risk":5,"migraine_risk":3,"frizz_risk":1,"updated_at":"2026-03-23T17:16:59.098181+05:30"},{"city":"Aligarh","state":"Uttar Pradesh","latitude":27.8974,"longitude":78.088,"temp":25.5,"humidity":62,"rain":0.0,"pressure":987.4,"uv_index":4.35,"wind_gusts":20.9,"aqi":255,"pm10":120.6,"pm2_5":31.4,"mosquito_risk":7,"arthritis_risk":5,"migraine_risk":3,"frizz_risk":1,"updated_at":"2026-03-23T17:16:59.098187+05:30"},{"city":"Moradabad","state":"Uttar Pradesh","latitude":28.8386,"longitude":78.7733,"temp":24.6,"humidity":66,"rain":0.0,"pressure":985.6,"uv_index":5.9,"wind_gusts":27.4,"aqi":125,"pm10":56.9,"pm2_5":20.8,"mosquito_risk":3,"arthritis_risk":5,"migraine_risk":3,"frizz_risk":1,"updated_at":"2026-03-23T17:16:59.098196+05:30"},{"city":"Saharanpur","state":"Uttar Pradesh","latitude":29.9637,"longitude":77.546,"temp":23.9,"humidity":67,"rain":0.0,"pressure":977.6,"uv_index":6.2,"wind_gusts":25.2,"aqi":151,"pm10":60.8,"pm2_5":31.0,"mosquito_risk":3,"arthritis_risk":5,"migraine_risk":7,"frizz_risk":1,"updated_at":"2026-03-23T17:16:59.098202+05:30"},{"city":"Jhansi","state":"Uttar Pradesh","latitude":25.4484,"longitude":78.5685,"temp":29.9,"humidity":40,"rain":0.0,"pressure":979.2,"uv_index":7.4,"wind_gusts":33.1,"aqi":87,"pm10":90.6,"pm2_5":30.9,"mosquito_risk":4,"arthritis_risk":5,"migraine_risk":7,"frizz_risk":0,"updated_at":"2026-03-23T17:17:02.443452+05:30"},{"city":"Surat","state":"Gujarat","latitude":21.1702,"longitude":72.8311,"temp":33.3,"humidity":36,"rain":0.0,"pressure":1006.4,"uv_index":7.65,"wind_gusts":25.6,"aqi":108,"pm10":55.4,"pm2_5":30.7,"mosquito_risk":0,"arthritis_risk":5,"migraine_risk":4,"frizz_risk":1,"updated_at":"2026-03-23T17:17:02.443481+05:30"},{"city":"Vadodara","state":"Gujarat","latitude":22.3072,"longitude":73.1812,"temp":35.9,"humidity":29,"rain":0.0,"pressure":1003.7,"uv_index":7.85,"wind_gusts":25.9,"aqi":81,"pm10":56.8,"pm2_5":21.5,"mosquito_risk":0,"arthritis_risk":5,"migraine_risk":7,"frizz_risk":0,"updated_at":"2026-03-23T17:17:02.443493+05:30"},{"city":"Rajkot","state":"Gujarat","latitude":22.3039,"longitude":70.8022,"temp":33.9,"humidity":18,"rain":0.0,"pressure":995.0,"uv_index":7.7,"wind_gusts":35.6,"aqi":64,"pm10":31.0,"pm2_5":15.1,"mosquito_risk":0,"arthritis_risk":5,"migraine_risk":7,"frizz_risk":0,"updated_at":"2026-03-23T17:17:02.443502+05:30"},{"city":"Thane","state":"Maharashtra","latitude":19.2183,"longitude":72.9781,"temp":32.3,"humidity":47,"rain":0.0,"pressure":1006.9,"uv_index":7.9,"wind_gusts":37.8,"aqi":184,"pm10":48.8,"pm2_5":39.7,"mosquito_risk":0,"arthritis_risk":5,"migraine_risk":4,"frizz_risk":1,"updated_at":"2026-03-23T17:17:02.443510+05:30"},{"city":"Nagpur","state":"Maharashtra","latitude":21.1458,"longitude":79.0882,"temp":34.0,"humidity":21,"rain":0.0,"pressure":973.5,"uv_index":8.1,"wind_gusts":20.5,"aqi":125,"pm10":28.6,"pm2_5":19.0,"mosquito_risk":0,"arthritis_risk":5,"migraine_risk":7,"frizz_risk":0,"updated_at":"2026-03-23T17:17:02.443518+05:30"},{"city":"Nashik","state":"Maharashtra","latitude":19.9975,"longitude":73.7898,"temp":32.2,"humidity":29,"rain":0.0,"pressure":945.4,"uv_index":8.15,"wind_gusts":36.4,"aqi":107,"pm10":16.4,"pm2_5":9.6,"mosquito_risk":0,"arthritis_risk":5,"migraine_risk":7,"frizz_risk":0,"updated_at":"2026-03-23T17:17:02.443525+05:30"},{"city":"Aurangabad","state":"Maharashtra","latitude":19.8762,"longitude":75.3433,"temp":34.1,"humidity":22,"rain":0.0,"pressure":943.9,"uv_index":8.65,"wind_gusts":27.0,"aqi":113,"pm10":14.5,"pm2_5":9.5,"mosquito_risk":0,"arthritis_risk":5,"migraine_risk":7,"frizz_risk":0,"updated_at":"2026-03-23T17:17:02.443533+05:30"},{"city":"Solapur","state":"Maharashtra","latitude":17.6599,"longitude":75.9064,"temp":35.4,"humidity":25,"rain":0.0,"pressure":956.1,"uv_index":8.8,"wind_gusts":27.4,"aqi":96,"pm10":36.3,"pm2_5":23.8,"mosquito_risk":0,"arthritis_risk":5,"migraine_risk":10,"frizz_risk":0,"updated_at":"2026-03-23T17:17:02.443540+05:30"},{"city":"Kolhapur","state":"Maharashtra","latitude":16.705,"longitude":74.2433,"temp":31.8,"humidity":39,"rain":0.0,"pressure":947.4,"uv_index":8.85,"wind_gusts":37.8,"aqi":116,"pm10":41.3,"pm2_5":28.9,"mosquito_risk":0,"arthritis_risk":5,"migraine_risk":7,"frizz_risk":1,"updated_at":"2026-03-23T17:17:02.443548+05:30"},{"city":"Goa","state":"Goa","latitude":15.2993,"longitude":74.124,"temp":30.1,"humidity":69,"rain":0.0,"pressure":997.0,"uv_index":8.9,"wind_gusts":33.8,"aqi":115,"pm10":29.6,"pm2_5":21.5,"mosquito_risk":3,"arthritis_risk":5,"migraine_risk":7,"frizz_risk":1,"updated_at":"2026-03-23T17:17:02.443556+05:30"},{"city":"Jodhpur","state":"Rajasthan","latitude":26.2389,"longitude":73.0243,"temp":32.3,"humidity":28,"rain":0.0,"pressure":983.7,"uv_index":7.5,"wind_gusts":27.4,"aqi":74,"pm10":91.0,"pm2_5":21.5,"mosquito_risk":0,"arthritis_risk":5,"migraine_risk":7,"frizz_risk":0,"updated_at":"2026-03-23T17:17:02.443563+05:30"},{"city":"Udaipur","state":"Rajasthan","latitude":24.5854,"longitude":73.7125,"temp":30.4,"humidity":26,"rain":0.0,"pressure":946.9,"uv_index":7.55,"wind_gusts":38.5,"aqi":52,"pm10":43.5,"pm2_5":15.1,"mosquito_risk":0,"arthritis_risk":5,"migraine_risk":7,"frizz_risk":0,"updated_at":"2026-03-23T17:17:02.443571+05:30"},{"city":"Kota","state":"Rajasthan","latitude":25.2138,"longitude":75.8648,"temp":28.8,"humidity":48,"rain":0.0,"pressure":980.0,"uv_index":7.1,"wind_gusts":34.2,"aqi":71,"pm10":116.2,"pm2_5":28.5,"mosquito_risk":4,"arthritis_risk":5,"migraine_risk":7,"frizz_risk":1,"updated_at":"2026-03-23T17:17:02.443578+05:30"},{"city":"Bikaner","state":"Rajasthan","latitude":28.0229,"longitude":73.3119,"temp":30.8,"humidity":33,"rain":0.0,"pressure":982.8,"uv_index":7.25,"wind_gusts":15.8,"aqi":74,"pm10":55.1,"pm2_5":16.1,"mosquito_risk":0,"arthritis_risk":5,"migraine_risk":7,"frizz_risk":0,"updated_at":"2026-03-23T17:17:02.443585+05:30"},{"city":"Ajmer","state":"Rajasthan","latitude":26.4499,"longitude":74.6399,"temp":28.6,"humidity":38,"rain":0.0,"pressure":955.6,"uv_index":7.5,"wind_gusts":31.7,"aqi":60,"pm10":79.9,"pm2_5":19.8,"mosquito_risk":4,"arthritis_risk":5,"migraine_risk":7,"frizz_risk":0,"updated_at":"2026-03-23T17:17:02.443592+05:30"},{"city":"Gwalior","state":"Madhya Pradesh","latitude":26.2183,"longitude":78.1828,"temp":26.8,"humidity":54,"rain":0.0,"pressure":984.9,"uv_index":4.35,"wind_gusts":31.7,"aqi":94,"pm10":93.8,"pm2_5":26.2,"mosquito_risk":4,"arthritis_risk":5,"migraine_risk":3,"frizz_risk":1,"updated_at":"2026-03-23T17:17:02.443599+05:30"},{"city":"Indore","state":"Madhya Pradesh","latitude":22.7196,"longitude":75.8577,"temp":31.3,"humidity":30,"rain":0.0,"pressure":948.5,"uv_index":8.1,"wind_gusts":26.6,"aqi":65,"pm10":32.2,"pm2_5":11.4,"mosquito_risk":0,"arthritis_risk":5,"migraine_risk":7,"frizz_risk":0,"updated_at":"2026-03-23T17:17:02.443607+05:30"},{"city":"Bhopal","state":"Madhya Pradesh","latitude":23.2599,"longitude":77.4126,"temp":31.6,"humidity":29,"rain":0.0,"pressure":954.3,"uv_index":8.0,"wind_gusts":33.8,"aqi":91,"pm10":23.2,"pm2_5":10.7,"mosquito_risk":0,"arthritis_risk":5,"migraine_risk":7,"frizz_risk":0,"updated_at":"2026-03-23T17:17:02.443614+05:30"},{"city":"Jabalpur","state":"Madhya Pradesh","latitude":23.1815,"longitude":79.9864,"temp":31.2,"humidity":31,"rain":0.0,"pressure":962.6,"uv_index":7.8,"wind_gusts":20.9,"aqi":83,"pm10":22.2,"pm2_5":9.9,"mosquito_risk":0,"arthritis_risk":5,"migraine_risk":7,"frizz_risk":0,"updated_at":"2026-03-23T17:17:02.443621+05:30"},{"city":"Ujjain","state":"Madhya Pradesh","latitude":23.1765,"longitude":75.7885,"temp":31.6,"humidity":30,"rain":0.0,"pressure":954.0,"uv_index":8.0,"wind_gusts":25.6,"aqi":80,"pm10":40.7,"pm2_5":13.8,"mosquito_risk":0,"arthritis_risk":5,"migraine_risk":7,"frizz_risk":0,"updated_at":"2026-03-23T17:17:02.443628+05:30"},{"city":"Visakhapatnam","state":"Andhra Pradesh","latitude":17.6868,"longitude":83.2185,"temp":28.1,"humidity":71,"rain":0.0,"pressure":1005.4,"uv_index":8.85,"wind_gusts":33.8,"aqi":96,"pm10":31.0,"pm2_5":20.8,"mosquito_risk":7,"arthritis_risk":5,"migraine_risk":4,"frizz_risk":1,"updated_at":"2026-03-23T17:17:02.443635+05:30"},{"city":"Vijayawada","state":"Andhra Pradesh","latitude":16.5062,"longitude":80.648,"temp":32.5,"humidity":46,"rain":0.0,"pressure":1002.8,"uv_index":8.95,"wind_gusts":23.0,"aqi":76,"pm10":21.7,"pm2_5":14.9,"mosquito_risk":0,"arthritis_risk":5,"migraine_risk":4,"frizz_risk":1,"updated_at":"2026-03-23T17:17:02.443643+05:30"},{"city":"Guntur","state":"Andhra Pradesh","latitude":16.3067,"longitude":80.4365,"temp":31.7,"humidity":50,"rain":0.0,"pressure":1004.1,"uv_index":8.95,"wind_gusts":26.6,"aqi":74,"pm10":23.1,"pm2_5":15.6,"mosquito_risk":0,"arthritis_risk":5,"migraine_risk":4,"frizz_risk":1,"updated_at":"2026-03-23T17:17:02.443650+05:30"},{"city":"Nellore","state":"Andhra Pradesh","latitude":14.4426,"longitude":79.9865,"temp":31.0,"humidity":55,"rain":0.0,"pressure":1006.2,"uv_index":9.1,"wind_gusts":28.4,"aqi":47,"pm10":17.4,"pm2_5":11.5,"mosquito_risk":0,"arthritis_risk":5,"migraine_risk":4,"frizz_risk":1,"updated_at":"2026-03-23T17:17:02.443657+05:30"},{"city":"Kurnool","state":"Andhra Pradesh","latitude":15.8281,"longitude":78.0373,"temp":36.0,"humidity":29,"rain":0.0,"pressure":975.6,"uv_index":8.95,"wind_gusts":25.9,"aqi":71,"pm10":32.0,"pm2_5":20.7,"mosquito_risk":0,"arthritis_risk":5,"migraine_risk":10,"frizz_risk":0,"updated_at":"2026-03-23T17:17:02.443665+05:30"},{"city":"Kakinada","state":"Andhra Pradesh","latitude":16.9891,"longitude":82.2475,"temp":30.5,"humidity":58,"rain":0.0,"pressure":1008.5,"uv_index":8.9,"wind_gusts":30.6,"aqi":61,"pm10":19.6,"pm2_5":10.9,"mosquito_risk":0,"arthritis_risk":0,"migraine_risk":4,"frizz_risk":1,"updated_at":"2026-03-23T17:17:02.443672+05:30"},{"city":"Tirupati","state":"Andhra Pradesh","latitude":13.6288,"longitude":79.4192,"temp":33.6,"humidity":36,"rain":0.0,"pressure":990.9,"uv_index":9.2,"wind_gusts":29.9,"aqi":70,"pm10":24.6,"pm2_5":17.1,"mosquito_risk":0,"arthritis_risk":5,"migraine_risk":7,"frizz_risk":1,"updated_at":"2026-03-23T17:17:02.443679+05:30"},{"city":"Warangal","state":"Telangana","latitude":17.9689,"longitude":79.5941,"temp":34.4,"humidity":32,"rain":0.0,"pressure":978.4,"uv_index":8.8,"wind_gusts":24.1,"aqi":117,"pm10":43.5,"pm2_5":32.2,"mosquito_risk":0,"arthritis_risk":5,"migraine_risk":7,"frizz_risk":0,"updated_at":"2026-03-23T17:17:02.443687+05:30"},{"city":"Nizamabad","state":"Telangana","latitude":18.6725,"longitude":78.0941,"temp":34.0,"humidity":30,"rain":0.0,"pressure":964.4,"uv_index":8.7,"wind_gusts":25.2,"aqi":129,"pm10":31.8,"pm2_5":23.2,"mosquito_risk":0,"arthritis_risk":5,"migraine_risk":7,"frizz_risk":0,"updated_at":"2026-03-23T17:17:02.443693+05:30"},{"city":"Mysore","state":"Karnataka","latitude":12.2958,"longitude":76.6396,"temp":32.6,"humidity":30,"rain":0.0,"pressure":927.4,"uv_index":9.4,"wind_gusts":26.6,"aqi":119,"pm10":30.0,"pm2_5":21.4,"mosquito_risk":0,"arthritis_risk":5,"migraine_risk":7,"frizz_risk":0,"updated_at":"2026-03-23T17:17:02.443700+05:30"},{"city":"Mangalore","state":"Karnataka","latitude":12.9141,"longitude":74.856,"temp":29.7,"humidity":74,"rain":0.0,"pressure":1005.5,"uv_index":9.05,"wind_gusts":26.6,"aqi":78,"pm10":27.6,"pm2_5":16.9,"mosquito_risk":7,"arthritis_risk":5,"migraine_risk":4,"frizz_risk":1,"updated_at":"2026-03-23T17:17:02.443708+05:30"},{"city":"Hubli-Dharwad","state":"Karnataka","latitude":15.3647,"longitude":75.124,"temp":34.2,"humidity":27,"rain":0.0,"pressure":939.6,"uv_index":9.1,"wind_gusts":35.6,"aqi":133,"pm10":44.6,"pm2_5":30.0,"mosquito_risk":0,"arthritis_risk":5,"migraine_risk":7,"frizz_risk":0,"updated_at":"2026-03-23T17:17:02.443715+05:30"},{"city":"Belgaum","state":"Karnataka","latitude":15.8497,"longitude":74.4977,"temp":29.5,"humidity":50,"rain":0.0,"pressure":925.3,"uv_index":9.15,"wind_gusts":41.8,"aqi":145,"pm10":39.8,"pm2_5":27.9,"mosquito_risk":4,"arthritis_risk":5,"migraine_risk":7,"frizz_risk":1,"updated_at":"2026-03-23T17:17:05.781744+05:30"},{"city":"Coimbatore","state":"Tamil Nadu","latitude":11.0168,"longitude":76.9558,"temp":33.6,"humidity":30,"rain":0.0,"pressure":960.6,"uv_index":9.4,"wind_gusts":37.1,"aqi":95,"pm10":23.6,"pm2_5":15.5,"mosquito_risk":0,"arthritis_risk":5,"migraine_risk":7,"frizz_risk":0,"updated_at":"2026-03-23T17:17:05.781771+05:30"},{"city":"Madurai","state":"Tamil Nadu","latitude":9.9252,"longitude":78.1198,"temp":35.1,"humidity":36,"rain":0.0,"pressure":991.4,"uv_index":9.35,"wind_gusts":30.6,"aqi":65,"pm10":18.5,"pm2_5":10.2,"mosquito_risk":0,"arthritis_risk":5,"migraine_risk":10,"frizz_risk":1,"updated_at":"2026-03-23T17:17:05.781780+05:30"},{"city":"Trichy","state":"Tamil Nadu","latitude":10.7905,"longitude":78.7047,"temp":33.9,"humidity":39,"rain":0.0,"pressure":998.8,"uv_index":9.3,"wind_gusts":23.8,"aqi":60,"pm10":19.1,"pm2_5":12.8,"mosquito_risk":0,"arthritis_risk":5,"migraine_risk":7,"frizz_risk":1,"updated_at":"2026-03-23T17:17:05.781787+05:30"},{"city":"Salem","state":"Tamil Nadu","latitude":11.6643,"longitude":78.146,"temp":34.9,"humidity":27,"rain":0.0,"pressure":976.4,"uv_index":9.35,"wind_gusts":29.2,"aqi":85,"pm10":29.0,"pm2_5":19.4,"mosquito_risk":0,"arthritis_risk":5,"migraine_risk":7,"frizz_risk":0,"updated_at":"2026-03-23T17:17:05.781794+05:30"},{"city":"Tirunelveli","state":"Tamil Nadu","latitude":8.7139,"longitude":77.7567,"temp":35.3,"humidity":36,"rain":0.0,"pressure":1001.3,"uv_index":9.3,"wind_gusts":34.2,"aqi":66,"pm10":18.0,"pm2_5":9.4,"mosquito_risk":0,"arthritis_risk":5,"migraine_risk":7,"frizz_risk":1,"updated_at":"2026-03-23T17:17:05.781836+05:30"},{"city":"Vellore","state":"Tamil Nadu","latitude":12.9165,"longitude":79.1325,"temp":33.0,"humidity":37,"rain":0.0,"pressure":984.0,"uv_index":9.25,"wind_gusts":36.0,"aqi":78,"pm10":23.3,"pm2_5":15.8,"mosquito_risk":0,"arthritis_risk":5,"migraine_risk":7,"frizz_risk":1,"updated_at":"2026-03-23T17:17:05.781850+05:30"},{"city":"Erode","state":"Tamil Nadu","latitude":11.341,"longitude":77.7172,"temp":35.0,"humidity":36,"rain":0.0,"pressure":987.6,"uv_index":9.35,"wind_gusts":18.4,"aqi":61,"pm10":22.0,"pm2_5":14.1,"mosquito_risk":0,"arthritis_risk":5,"migraine_risk":7,"frizz_risk":1,"updated_at":"2026-03-23T17:17:05.781861+05:30"},{"city":"Kochi","state":"Kerala","latitude":9.9312,"longitude":76.2673,"temp":29.6,"humidity":74,"rain":0.0,"pressure":1006.6,"uv_index":9.15,"wind_gusts":33.5,"aqi":105,"pm10":33.2,"pm2_5":22.9,"mosquito_risk":7,"arthritis_risk":5,"migraine_risk":4,"frizz_risk":1,"updated_at":"2026-03-23T17:17:05.781872+05:30"},{"city":"Thiruvananthapuram","state":"Kerala","latitude":8.5241,"longitude":76.9366,"temp":29.7,"humidity":70,"rain":0.0,"pressure":1006.5,"uv_index":9.15,"wind_gusts":24.1,"aqi":98,"pm10":24.7,"pm2_5":17.3,"mosquito_risk":7,"arthritis_risk":5,"migraine_risk":4,"frizz_risk":1,"updated_at":"2026-03-23T17:17:05.781884+05:30"},{"city":"Kozhikode","state":"Kerala","latitude":11.2588,"longitude":75.7804,"temp":30.6,"humidity":69,"rain":0.0,"pressure":1006.1,"uv_index":9.1,"wind_gusts":28.4,"aqi":109,"pm10":35.0,"pm2_5":19.6,"mosquito_risk":3,"arthritis_risk":5,"migraine_risk":4,"frizz_risk":1,"updated_at":"2026-03-23T17:17:05.781896+05:30"},{"city":"Thrissur","state":"Kerala","latitude":10.5276,"longitude":76.2144,"temp":31.4,"humidity":64,"rain":0.0,"pressure":1005.2,"uv_index":9.1,"wind_gusts":38.9,"aqi":80,"pm10":34.5,"pm2_5":22.7,"mosquito_risk":3,"arthritis_risk":5,"migraine_risk":4,"frizz_risk":1,"updated_at":"2026-03-23T17:17:05.781903+05:30"},{"city":"Kannur","state":"Kerala","latitude":11.8745,"longitude":75.3704,"temp":31.0,"humidity":66,"rain":0.0,"pressure":1005.8,"uv_index":9.1,"wind_gusts":27.4,"aqi":69,"pm10":27.9,"pm2_5":16.1,"mosquito_risk":3,"arthritis_risk":5,"migraine_risk":4,"frizz_risk":1,"updated_at":"2026-03-23T17:17:05.781910+05:30"},{"city":"Patna","state":"Bihar","latitude":25.5941,"longitude":85.1376,"temp":30.1,"humidity":36,"rain":0.0,"pressure":1002.3,"uv_index":7.85,"wind_gusts":20.9,"aqi":151,"pm10":75.4,"pm2_5":24.7,"mosquito_risk":0,"arthritis_risk":5,"migraine_risk":4,"frizz_risk":0,"updated_at":"2026-03-23T17:17:05.781917+05:30"},{"city":"Gaya","state":"Bihar","latitude":24.7914,"longitude":85.0002,"temp":28.9,"humidity":44,"rain":0.0,"pressure":996.0,"uv_index":7.95,"wind_gusts":17.6,"aqi":120,"pm10":69.4,"pm2_5":19.6,"mosquito_risk":4,"arthritis_risk":5,"migraine_risk":7,"frizz_risk":0,"updated_at":"2026-03-23T17:17:05.781923+05:30"},{"city":"Muzaffarpur","state":"Bihar","latitude":26.1209,"longitude":85.3647,"temp":28.8,"humidity":46,"rain":0.0,"pressure":1002.2,"uv_index":7.8,"wind_gusts":15.8,"aqi":151,"pm10":75.2,"pm2_5":27.9,"mosquito_risk":4,"arthritis_risk":5,"migraine_risk":4,"frizz_risk":1,"updated_at":"2026-03-23T17:17:05.781929+05:30"},{"city":"Bhagalpur","state":"Bihar","latitude":25.2425,"longitude":87.0117,"temp":26.7,"humidity":56,"rain":0.0,"pressure":1004.0,"uv_index":7.85,"wind_gusts":14.4,"aqi":141,"pm10":33.2,"pm2_5":28.0,"mosquito_risk":4,"arthritis_risk":5,"migraine_risk":4,"frizz_risk":1,"updated_at":"2026-03-23T17:17:05.781936+05:30"},{"city":"Ranchi","state":"Jharkhand","latitude":23.3441,"longitude":85.3096,"temp":26.8,"humidity":33,"rain":0.0,"pressure":939.5,"uv_index":8.55,"wind_gusts":27.7,"aqi":103,"pm10":29.0,"pm2_5":9.7,"mosquito_risk":4,"arthritis_risk":5,"migraine_risk":7,"frizz_risk":0,"updated_at":"2026-03-23T17:17:05.781942+05:30"},{"city":"Jamshedpur","state":"Jharkhand","latitude":22.8046,"longitude":86.2029,"temp":30.3,"humidity":35,"rain":0.0,"pressure":992.8,"uv_index":8.4,"wind_gusts":18.7,"aqi":137,"pm10":40.3,"pm2_5":23.9,"mosquito_risk":0,"arthritis_risk":5,"migraine_risk":7,"frizz_risk":0,"updated_at":"2026-03-23T17:17:05.781948+05:30"},{"city":"Dhanbad","state":"Jharkhand","latitude":23.7957,"longitude":86.4304,"temp":28.9,"humidity":34,"rain":0.0,"pressure":982.0,"uv_index":8.3,"wind_gusts":16.9,"aqi":152,"pm10":42.3,"pm2_5":23.8,"mosquito_risk":4,"arthritis_risk":5,"migraine_risk":7,"frizz_risk":0,"updated_at":"2026-03-23T17:17:05.781953+05:30"},{"city":"Bokaro","state":"Jharkhand","latitude":23.6693,"longitude":86.1511,"temp":28.8,"humidity":35,"rain":0.0,"pressure":985.9,"uv_index":8.3,"wind_gusts":18.7,"aqi":152,"pm10":40.7,"pm2_5":19.4,"mosquito_risk":4,"arthritis_risk":5,"migraine_risk":7,"frizz_risk":0,"updated_at":"2026-03-23T17:17:05.781959+05:30"},{"city":"Bhubaneswar","state":"Odisha","latitude":20.2961,"longitude":85.8245,"temp":32.8,"humidity":32,"rain":0.0,"pressure":1003.6,"uv_index":8.65,"wind_gusts":32.4,"aqi":159,"pm10":43.7,"pm2_5":28.6,"mosquito_risk":0,"arthritis_risk":5,"migraine_risk":4,"frizz_risk":0,"updated_at":"2026-03-23T17:17:05.781965+05:30"},{"city":"Cuttack","state":"Odisha","latitude":20.4625,"longitude":85.8828,"temp":32.9,"humidity":26,"rain":0.0,"pressure":1005.3,"uv_index":8.7,"wind_gusts":24.8,"aqi":159,"pm10":43.7,"pm2_5":28.6,"mosquito_risk":0,"arthritis_risk":5,"migraine_risk":4,"frizz_risk":0,"updated_at":"2026-03-23T17:17:05.781971+05:30"},{"city":"Rourkela","state":"Odisha","latitude":22.2604,"longitude":84.8536,"temp":31.0,"humidity":33,"rain":0.0,"pressure":986.6,"uv_index":8.3,"wind_gusts":19.1,"aqi":129,"pm10":44.2,"pm2_5":19.4,"mosquito_risk":0,"arthritis_risk":5,"migraine_risk":7,"frizz_risk":0,"updated_at":"2026-03-23T17:17:05.781977+05:30"},{"city":"Raipur","state":"Chhattisgarh","latitude":21.2514,"longitude":81.6296,"temp":33.0,"humidity":24,"rain":0.0,"pressure":975.4,"uv_index":8.45,"wind_gusts":18.7,"aqi":122,"pm10":41.1,"pm2_5":23.0,"mosquito_risk":0,"arthritis_risk":5,"migraine_risk":7,"frizz_risk":0,"updated_at":"2026-03-23T17:17:05.781983+05:30"},{"city":"Bhilai","state":"Chhattisgarh","latitude":21.1938,"longitude":81.3509,"temp":33.1,"humidity":25,"rain":0.0,"pressure":975.7,"uv_index":8.45,"wind_gusts":16.6,"aqi":129,"pm10":39.1,"pm2_5":22.5,"mosquito_risk":0,"arthritis_risk":5,"migraine_risk":7,"frizz_risk":0,"updated_at":"2026-03-23T17:17:05.781988+05:30"},{"city":"Guwahati","state":"Assam","latitude":26.1158,"longitude":91.7086,"temp":25.3,"humidity":64,"rain":0.0,"pressure":1003.9,"uv_index":7.6,"wind_gusts":20.9,"aqi":97,"pm10":24.0,"pm2_5":22.4,"mosquito_risk":7,"arthritis_risk":5,"migraine_risk":4,"frizz_risk":1,"updated_at":"2026-03-23T17:17:05.781994+05:30"},{"city":"Agartala","state":"Tripura","latitude":23.8315,"longitude":91.2868,"temp":26.6,"humidity":57,"rain":0.0,"pressure":1008.3,"uv_index":8.05,"wind_gusts":13.3,"aqi":156,"pm10":39.5,"pm2_5":35.4,"mosquito_risk":4,"arthritis_risk":0,"migraine_risk":4,"frizz_risk":1,"updated_at":"2026-03-23T17:17:05.782001+05:30"},{"city":"Shillong","state":"Meghalaya","latitude":25.5788,"longitude":91.8933,"temp":14.3,"humidity":67,"rain":0.0,"pressure":856.3,"uv_index":7.15,"wind_gusts":25.2,"aqi":97,"pm10":23.1,"pm2_5":21.2,"mosquito_risk":3,"arthritis_risk":5,"migraine_risk":7,"frizz_risk":0,"updated_at":"2026-03-23T17:17:05.782006+05:30"},{"city":"Imphal","state":"Manipur","latitude":24.817,"longitude":93.9368,"temp":17.3,"humidity":69,"rain":0.0,"pressure":923.7,"uv_index":8.35,"wind_gusts":36.7,"aqi":95,"pm10":17.3,"pm2_5":14.7,"mosquito_risk":3,"arthritis_risk":5,"migraine_risk":7,"frizz_risk":0,"updated_at":"2026-03-23T17:17:05.782013+05:30"},{"city":"Aizawl","state":"Mizoram","latitude":23.7271,"longitude":92.7176,"temp":19.2,"humidity":57,"rain":0.0,"pressure":893.7,"uv_index":8.3,"wind_gusts":33.5,"aqi":98,"pm10":25.6,"pm2_5":21.7,"mosquito_risk":0,"arthritis_risk":5,"migraine_risk":7,"frizz_risk":0,"updated_at":"2026-03-23T17:17:05.782018+05:30"},{"city":"Kohima","state":"Nagaland","latitude":25.6701,"longitude":94.1077,"temp":13.2,"humidity":89,"rain":0.0,"pressure":854.4,"uv_index":8.0,"wind_gusts":39.2,"aqi":87,"pm10":18.7,"pm2_5":15.7,"mosquito_risk":3,"arthritis_risk":10,"migraine_risk":7,"frizz_risk":0,"updated_at":"2026-03-23T17:17:05.782024+05:30"},{"city":"Gangtok","state":"Sikkim","latitude":27.3314,"longitude":88.6138,"temp":13.3,"humidity":91,"rain":0.1,"pressure":837.2,"uv_index":6.5,"wind_gusts":18.7,"aqi":90,"pm10":23.9,"pm2_5":23.6,"mosquito_risk":6,"arthritis_risk":10,"migraine_risk":7,"frizz_risk":0,"updated_at":"2026-03-23T17:17:05.782030+05:30"},{"city":"Siliguri","state":"West Bengal","latitude":26.7271,"longitude":88.3953,"temp":21.8,"humidity":60,"rain":0.0,"pressure":996.4,"uv_index":7.1,"wind_gusts":20.5,"aqi":115,"pm10":23.2,"pm2_5":21.8,"mosquito_risk":0,"arthritis_risk":5,"migraine_risk":7,"frizz_risk":0,"updated_at":"2026-03-23T17:17:09.127380+05:30"},{"city":"Durgapur","state":"West Bengal","latitude":23.5204,"longitude":87.3119,"temp":28.9,"humidity":40,"rain":0.0,"pressure":997.3,"uv_index":8.25,"wind_gusts":16.2,"aqi":157,"pm10":34.7,"pm2_5":25.4,"mosquito_risk":4,"arthritis_risk":5,"migraine_risk":7,"frizz_risk":0,"updated_at":"2026-03-23T17:17:09.127411+05:30"},{"city":"Asansol","state":"West Bengal","latitude":23.6739,"longitude":86.9524,"temp":29.0,"humidity":39,"rain":0.0,"pressure":995.8,"uv_index":8.25,"wind_gusts":16.6,"aqi":124,"pm10":38.5,"pm2_5":24.7,"mosquito_risk":4,"arthritis_risk":5,"migraine_risk":7,"frizz_risk":0,"updated_at":"2026-03-23T17:17:09.127423+05:30"},{"city":"Pondicherry","state":"Puducherry","latitude":11.9139,"longitude":79.8145,"temp":30.5,"humidity":58,"rain":0.0,"pressure":1008.5,"uv_index":9.15,"wind_gusts":29.2,"aqi":31,"pm10":8.7,"pm2_5":5.4,"mosquito_risk":0,"arthritis_risk":0,"migraine_risk":4,"frizz_risk":1,"updated_at":"2026-03-23T17:17:09.127432+05:30"},{"city":"Port Blair","state":"Andaman and Nicobar Islands","latitude":11.6234,"longitude":92.7265,"temp":28.4,"humidity":76,"rain":0.0,"pressure":1007.5,"uv_index":9.1,"wind_gusts":23.4,"aqi":32,"pm10":3.8,"pm2_5":2.5,"mosquito_risk":7,"arthritis_risk":5,"migraine_risk":4,"frizz_risk":1,"updated_at":"2026-03-23T17:17:09.127441+05:30"},{"city":"Haridwar","state":"Uttarakhand","latitude":29.9457,"longitude":78.1642,"temp":24.8,"humidity":61,"rain":0.0,"pressure":976.1,"uv_index":6.35,"wind_gusts":24.8,"aqi":116,"pm10":55.9,"pm2_5":28.8,"mosquito_risk":3,"arthritis_risk":5,"migraine_risk":7,"frizz_risk":1,"updated_at":"2026-03-23T17:17:09.127449+05:30"},{"city":"Rishikesh","state":"Uttarakhand","latitude":30.0869,"longitude":78.2676,"temp":24.1,"humidity":57,"rain":0.0,"pressure":968.7,"uv_index":6.4,"wind_gusts":21.2,"aqi":104,"pm10":59.0,"pm2_5":33.4,"mosquito_risk":0,"arthritis_risk":5,"migraine_risk":7,"frizz_risk":0,"updated_at":"2026-03-23T17:17:09.127457+05:30"},{"city":"Nainital","state":"Uttarakhand","latitude":29.3919,"longitude":79.4542,"temp":15.9,"humidity":77,"rain":0.0,"pressure":805.7,"uv_index":7.0,"wind_gusts":45.0,"aqi":101,"pm10":44.5,"pm2_5":22.5,"mosquito_risk":3,"arthritis_risk":5,"migraine_risk":7,"frizz_risk":0,"updated_at":"2026-03-23T17:17:09.127464+05:30"},{"city":"Mussoorie","state":"Uttarakhand","latitude":30.4599,"longitude":78.0664,"temp":14.5,"humidity":82,"rain":0.0,"pressure":802.1,"uv_index":6.65,"wind_gusts":24.5,"aqi":110,"pm10":36.6,"pm2_5":24.9,"mosquito_risk":3,"arthritis_risk":10,"migraine_risk":7,"frizz_risk":0,"updated_at":"2026-03-23T17:17:09.127473+05:30"},{"city":"Dharamshala","state":"Himachal Pradesh","latitude":32.219,"longitude":76.3234,"temp":18.3,"humidity":70,"rain":0.0,"pressure":869.4,"uv_index":6.95,"wind_gusts":19.4,"aqi":109,"pm10":17.5,"pm2_5":11.9,"mosquito_risk":3,"arthritis_risk":5,"migraine_risk":7,"frizz_risk":0,"updated_at":"2026-03-23T17:17:09.127480+05:30"},{"city":"Dalhousie","state":"Himachal Pradesh","latitude":32.5387,"longitude":75.971,"temp":15.9,"humidity":63,"rain":0.0,"pressure":803.7,"uv_index":7.15,"wind_gusts":17.3,"aqi":90,"pm10":20.4,"pm2_5":14.2,"mosquito_risk":3,"arthritis_risk":5,"migraine_risk":7,"frizz_risk":0,"updated_at":"2026-03-23T17:17:09.127488+05:30"},{"city":"Patiala","state":"Punjab","latitude":30.3398,"longitude":76.3869,"temp":25.3,"humidity":58,"rain":0.0,"pressure":979.8,"uv_index":6.3,"wind_gusts":23.8,"aqi":152,"pm10":54.7,"pm2_5":28.8,"mosquito_risk":4,"arthritis_risk":5,"migraine_risk":7,"frizz_risk":1,"updated_at":"2026-03-23T17:17:09.127496+05:30"},{"city":"Bhatinda","state":"Punjab","latitude":30.211,"longitude":74.9455,"temp":27.6,"humidity":45,"rain":0.0,"pressure":985.2,"uv_index":7.0,"wind_gusts":18.4,"aqi":134,"pm10":69.4,"pm2_5":30.4,"mosquito_risk":4,"arthritis_risk":5,"migraine_risk":7,"frizz_risk":0,"updated_at":"2026-03-23T17:17:09.127503+05:30"},{"city":"Rohtak","state":"Haryana","latitude":28.8955,"longitude":76.6066,"temp":24.2,"humidity":70,"rain":0.0,"pressure":984.0,"uv_index":6.45,"wind_gusts":20.5,"aqi":191,"pm10":74.0,"pm2_5":24.3,"mosquito_risk":3,"arthritis_risk":5,"migraine_risk":7,"frizz_risk":1,"updated_at":"2026-03-23T17:17:09.127510+05:30"},{"city":"Panipat","state":"Haryana","latitude":29.3909,"longitude":76.9635,"temp":23.3,"humidity":75,"rain":0.0,"pressure":982.5,"uv_index":6.3,"wind_gusts":23.0,"aqi":381,"pm10":65.0,"pm2_5":29.4,"mosquito_risk":3,"arthritis_risk":5,"migraine_risk":7,"frizz_risk":1,"updated_at":"2026-03-23T17:17:09.127517+05:30"},{"city":"Mathura","state":"Uttar Pradesh","latitude":27.4924,"longitude":77.6737,"temp":26.1,"humidity":62,"rain":0.0,"pressure":988.7,"uv_index":5.9,"wind_gusts":20.2,"aqi":252,"pm10":109.4,"pm2_5":34.2,"mosquito_risk":7,"arthritis_risk":5,"migraine_risk":3,"frizz_risk":1,"updated_at":"2026-03-23T17:17:09.127525+05:30"},{"city":"Vrindavan","state":"Uttar Pradesh","latitude":27.5823,"longitude":77.7027,"temp":25.8,"humidity":64,"rain":0.0,"pressure":989.3,"uv_index":6.05,"wind_gusts":19.8,"aqi":252,"pm10":109.4,"pm2_5":34.2,"mosquito_risk":7,"arthritis_risk":5,"migraine_risk":7,"frizz_risk":1,"updated_at":"2026-03-23T17:17:09.127532+05:30"},{"city":"Ayodhya","state":"Uttar Pradesh","latitude":26.7922,"longitude":82.1998,"temp":29.1,"humidity":36,"rain":0.0,"pressure":997.4,"uv_index":7.1,"wind_gusts":29.2,"aqi":144,"pm10":89.4,"pm2_5":32.4,"mosquito_risk":4,"arthritis_risk":5,"migraine_risk":7,"frizz_risk":0,"updated_at":"2026-03-23T17:17:09.127539+05:30"},{"city":"Ratlam","state":"Madhya Pradesh","latitude":23.3315,"longitude":75.0367,"temp":32.2,"humidity":26,"rain":0.0,"pressure":954.9,"uv_index":7.95,"wind_gusts":29.2,"aqi":74,"pm10":42.7,"pm2_5":14.4,"mosquito_risk":0,"arthritis_risk":5,"migraine_risk":7,"frizz_risk":0,"updated_at":"2026-03-23T17:17:09.127546+05:30"},{"city":"Sagar","state":"Madhya Pradesh","latitude":23.8388,"longitude":78.7378,"temp":30.4,"humidity":31,"rain":0.0,"pressure":951.0,"uv_index":8.0,"wind_gusts":31.0,"aqi":79,"pm10":21.6,"pm2_5":8.9,"mosquito_risk":0,"arthritis_risk":5,"migraine_risk":7,"frizz_risk":0,"updated_at":"2026-03-23T17:17:09.127553+05:30"},{"city":"Satna","state":"Madhya Pradesh","latitude":24.6005,"longitude":80.8322,"temp":30.8,"humidity":31,"rain":0.0,"pressure":972.9,"uv_index":7.95,"wind_gusts":23.4,"aqi":86,"pm10":29.6,"pm2_5":14.1,"mosquito_risk":0,"arthritis_risk":5,"migraine_risk":7,"frizz_risk":0,"updated_at":"2026-03-23T17:17:09.127561+05:30"},{"city":"Akola","state":"Maharashtra","latitude":20.7002,"longitude":77.0082,"temp":34.9,"humidity":22,"rain":0.0,"pressure":975.0,"uv_index":8.35,"wind_gusts":16.6,"aqi":120,"pm10":18.6,"pm2_5":14.1,"mosquito_risk":0,"arthritis_risk":5,"migraine_risk":7,"frizz_risk":0,"updated_at":"2026-03-23T17:17:09.127568+05:30"},{"city":"Amravati","state":"Maharashtra","latitude":20.9374,"longitude":77.7796,"temp":34.8,"humidity":21,"rain":0.0,"pressure":967.4,"uv_index":8.35,"wind_gusts":22.0,"aqi":119,"pm10":17.8,"pm2_5":12.9,"mosquito_risk":0,"arthritis_risk":5,"migraine_risk":7,"frizz_risk":0,"updated_at":"2026-03-23T17:17:09.127576+05:30"},{"city":"Latur","state":"Maharashtra","latitude":18.4088,"longitude":76.5604,"temp":33.6,"humidity":26,"rain":0.0,"pressure":939.5,"uv_index":8.6,"wind_gusts":22.3,"aqi":99,"pm10":35.0,"pm2_5":24.1,"mosquito_risk":0,"arthritis_risk":5,"migraine_risk":7,"frizz_risk":0,"updated_at":"2026-03-23T17:17:09.127583+05:30"},{"city":"Nanded","state":"Maharashtra","latitude":19.1383,"longitude":77.3091,"temp":36.0,"humidity":21,"rain":0.0,"pressure":967.9,"uv_index":8.55,"wind_gusts":18.0,"aqi":125,"pm10":35.7,"pm2_5":25.8,"mosquito_risk":0,"arthritis_risk":5,"migraine_risk":10,"frizz_risk":0,"updated_at":"2026-03-23T17:17:09.127591+05:30"},{"city":"Gulbarga","state":"Karnataka","latitude":17.3297,"longitude":76.8343,"temp":35.0,"humidity":29,"rain":0.0,"pressure":957.8,"uv_index":8.8,"wind_gusts":29.2,"aqi":92,"pm10":41.0,"pm2_5":27.9,"mosquito_risk":0,"arthritis_risk":5,"migraine_risk":7,"frizz_risk":0,"updated_at":"2026-03-23T17:17:09.127598+05:30"},{"city":"Bidar","state":"Karnataka","latitude":17.9104,"longitude":77.5199,"temp":34.2,"humidity":25,"rain":0.0,"pressure":935.1,"uv_index":8.8,"wind_gusts":22.7,"aqi":113,"pm10":38.3,"pm2_5":26.1,"mosquito_risk":0,"arthritis_risk":5,"migraine_risk":7,"frizz_risk":0,"updated_at":"2026-03-23T17:17:09.127605+05:30"},{"city":"Hospet","state":"Karnataka","latitude":15.2689,"longitude":76.3909,"temp":34.2,"humidity":35,"rain":0.0,"pressure":954.5,"uv_index":9.05,"wind_gusts":28.8,"aqi":127,"pm10":43.7,"pm2_5":31.9,"mosquito_risk":0,"arthritis_risk":5,"migraine_risk":7,"frizz_risk":1,"updated_at":"2026-03-23T17:17:09.127612+05:30"},{"city":"Tirupur","state":"Tamil Nadu","latitude":11.1085,"longitude":77.3411,"temp":35.1,"humidity":26,"rain":0.0,"pressure":973.9,"uv_index":9.4,"wind_gusts":31.3,"aqi":76,"pm10":20.7,"pm2_5":13.6,"mosquito_risk":0,"arthritis_risk":5,"migraine_risk":10,"frizz_risk":0,"updated_at":"2026-03-23T17:17:09.127620+05:30"},{"city":"Alappuzha","state":"Kerala","latitude":9.4981,"longitude":76.3388,"temp":29.4,"humidity":76,"rain":0.0,"pressure":1006.8,"uv_index":9.15,"wind_gusts":33.1,"aqi":120,"pm10":40.4,"pm2_5":25.8,"mosquito_risk":7,"arthritis_risk":5,"migraine_risk":4,"frizz_risk":1,"updated_at":"2026-03-23T17:17:09.127628+05:30"},{"city":"Munnar","state":"Kerala","latitude":10.0889,"longitude":77.0595,"temp":28.4,"humidity":46,"rain":0.0,"pressure":858.1,"uv_index":9.65,"wind_gusts":29.5,"aqi":76,"pm10":25.8,"pm2_5":14.5,"mosquito_risk":4,"arthritis_risk":5,"migraine_risk":7,"frizz_risk":0,"updated_at":"2026-03-23T17:17:09.127638+05:30"},{"city":"Silchar","state":"Assam","latitude":24.8333,"longitude":92.7789,"temp":25.4,"humidity":60,"rain":0.0,"pressure":1007.1,"uv_index":8.05,"wind_gusts":18.7,"aqi":120,"pm10":28.8,"pm2_5":25.7,"mosquito_risk":4,"arthritis_risk":5,"migraine_risk":4,"frizz_risk":1,"updated_at":"2026-03-23T17:17:09.127645+05:30"},{"city":"Dibrugarh","state":"Assam","latitude":27.4728,"longitude":94.912,"temp":22.7,"humidity":80,"rain":0.0,"pressure":998.2,"uv_index":7.75,"wind_gusts":14.8,"aqi":71,"pm10":11.4,"pm2_5":10.4,"mosquito_risk":3,"arthritis_risk":5,"migraine_risk":7,"frizz_risk":1,"updated_at":"2026-03-23T17:17:09.127652+05:30"}]