[{"city":"Delhi","state":"Delhi","latitude":28.6139,"longitude":77.209,"temp":31.3,"humidity":25,"rain":0.0,"pressure":979.3,"uv_index":7.75,"wind_gusts":34.9,"aqi":700,"pm10":629.6,"pm2_5":127.6,"no2":17.7,"co":246.0,"o3":56.0,"so2":9.6,"mosquito_risk":0,"arthritis_risk":5,"migraine_risk":7,"frizz_risk":0,"updated_at":"2026-05-22T05:35:41.498020+05:30"},{"city":"Mumbai","state":"Maharashtra","latitude":19.076,"longitude":72.8777,"temp":29.6,"humidity":77,"rain":0.0,"pressure":1007.3,"uv_index":6.75,"wind_gusts":34.2,"aqi":55,"pm10":21.5,"pm2_5":13.6,"no2":12.3,"co":180.0,"o3":41.0,"so2":12.2,"mosquito_risk":7,"arthritis_risk":5,"migraine_risk":4,"frizz_risk":1,"updated_at":"2026-05-22T05:35:41.498066+05:30"},{"city":"Bangalore","state":"Karnataka","latitude":12.9716,"longitude":77.5946,"temp":21.9,"humidity":96,"rain":0.0,"pressure":910.7,"uv_index":6.65,"wind_gusts":33.1,"aqi":38,"pm10":6.9,"pm2_5":6.3,"no2":11.9,"co":200.0,"o3":34.0,"so2":4.3,"mosquito_risk":3,"arthritis_risk":5,"migraine_risk":7,"frizz_risk":1,"updated_at":"2026-05-22T05:35:41.498082+05:30"},{"city":"Hyderabad","state":"Telangana","latitude":17.385,"longitude":78.4867,"temp":30.1,"humidity":57,"rain":0.0,"pressure":951.1,"uv_index":6.45,"wind_gusts":45.7,"aqi":88,"pm10":19.2,"pm2_5":16.8,"no2":8.7,"co":250.0,"o3":75.0,"so2":5.3,"mosquito_risk":0,"arthritis_risk":5,"migraine_risk":7,"frizz_risk":1,"updated_at":"2026-05-22T05:35:41.498092+05:30"},{"city":"Chennai","state":"Tamil Nadu","latitude":13.0827,"longitude":80.2707,"temp":28.4,"humidity":62,"rain":0.0,"pressure":1003.2,"uv_index":9.05,"wind_gusts":40.3,"aqi":65,"pm10":23.6,"pm2_5":19.6,"no2":16.1,"co":264.0,"o3":56.0,"so2":9.5,"mosquito_risk":7,"arthritis_risk":5,"migraine_risk":4,"frizz_risk":1,"updated_at":"2026-05-22T05:35:41.498100+05:30"},{"city":"Kolkata","state":"West Bengal","latitude":22.5726,"longitude":88.3639,"temp":29.4,"humidity":96,"rain":0.0,"pressure":1002.5,"uv_index":8.95,"wind_gusts":29.2,"aqi":124,"pm10":53.7,"pm2_5":45.1,"no2":11.6,"co":405.0,"o3":66.0,"so2":7.0,"mosquito_risk":7,"arthritis_risk":5,"migraine_risk":4,"frizz_risk":1,"updated_at":"2026-05-22T05:35:41.498108+05:30"},{"city":"Pune","state":"Maharashtra","latitude":18.5204,"longitude":73.8567,"temp":25.1,"humidity":83,"rain":0.0,"pressure":947.6,"uv_index":8.4,"wind_gusts":47.2,"aqi":55,"pm10":13.9,"pm2_5":9.8,"no2":11.0,"co":164.0,"o3":39.0,"so2":9.8,"mosquito_risk":7,"arthritis_risk":5,"migraine_risk":7,"frizz_risk":1,"updated_at":"2026-05-22T05:35:41.498114+05:30"},{"city":"Ahmedabad","state":"Gujarat","latitude":23.0225,"longitude":72.5714,"temp":29.9,"humidity":52,"rain":0.0,"pressure":1001.2,"uv_index":8.2,"wind_gusts":35.6,"aqi":70,"pm10":45.2,"pm2_5":24.2,"no2":5.8,"co":149.0,"o3":46.0,"so2":3.2,"mosquito_risk":4,"arthritis_risk":5,"migraine_risk":4,"frizz_risk":1,"updated_at":"2026-05-22T05:35:41.498120+05:30"},{"city":"Jaipur","state":"Rajasthan","latitude":26.9124,"longitude":75.7873,"temp":30.8,"humidity":28,"rain":0.0,"pressure":958.0,"uv_index":8.25,"wind_gusts":41.4,"aqi":161,"pm10":289.6,"pm2_5":53.2,"no2":4.6,"co":179.0,"o3":60.0,"so2":4.0,"mosquito_risk":0,"arthritis_risk":5,"migraine_risk":7,"frizz_risk":0,"updated_at":"2026-05-22T05:35:41.498131+05:30"},{"city":"Lucknow","state":"Uttar Pradesh","latitude":26.8467,"longitude":80.9462,"temp":29.2,"humidity":53,"rain":0.0,"pressure":989.5,"uv_index":8.25,"wind_gusts":32.8,"aqi":202,"pm10":216.5,"pm2_5":74.7,"no2":33.0,"co":370.0,"o3":32.0,"so2":11.4,"mosquito_risk":4,"arthritis_risk":5,"migraine_risk":7,"frizz_risk":1,"updated_at":"2026-05-22T05:35:41.498138+05:30"},{"city":"Kanpur","state":"Uttar Pradesh","latitude":26.4499,"longitude":80.3319,"temp":31.9,"humidity":30,"rain":0.0,"pressure":987.9,"uv_index":8.25,"wind_gusts":39.6,"aqi":395,"pm10":594.2,"pm2_5":89.6,"no2":10.6,"co":214.0,"o3":58.0,"so2":5.3,"mosquito_risk":0,"arthritis_risk":5,"migraine_risk":7,"frizz_risk":0,"updated_at":"2026-05-22T05:35:41.498145+05:30"},{"city":"Chandigarh","state":"Chandigarh","latitude":30.7333,"longitude":76.7794,"temp":26.1,"humidity":45,"rain":0.0,"pressure":964.6,"uv_index":7.75,"wind_gusts":50.4,"aqi":94,"pm10":47.5,"pm2_5":32.4,"no2":23.8,"co":347.0,"o3":30.0,"so2":6.8,"mosquito_risk":4,"arthritis_risk":5,"migraine_risk":7,"frizz_risk":0,"updated_at":"2026-05-22T05:35:41.498152+05:30"},{"city":"Srinagar","state":"Jammu and Kashmir","latitude":34.0837,"longitude":74.7973,"temp":12.8,"humidity":96,"rain":0.1,"pressure":843.3,"uv_index":8.95,"wind_gusts":37.1,"aqi":66,"pm10":39.1,"pm2_5":17.0,"no2":15.9,"co":231.0,"o3":38.0,"so2":1.7,"mosquito_risk":6,"arthritis_risk":10,"migraine_risk":7,"frizz_risk":0,"updated_at":"2026-05-22T05:35:41.498159+05:30"},{"city":"Jammu","state":"Jammu and Kashmir","latitude":32.7266,"longitude":74.857,"temp":26.0,"humidity":55,"rain":0.0,"pressure":970.6,"uv_index":8.55,"wind_gusts":45.0,"aqi":77,"pm10":29.0,"pm2_5":18.4,"no2":15.0,"co":170.0,"o3":36.0,"so2":2.1,"mosquito_risk":4,"arthritis_risk":5,"migraine_risk":7,"frizz_risk":1,"updated_at":"2026-05-22T05:35:41.498165+05:30"},{"city":"Amritsar","state":"Punjab","latitude":31.634,"longitude":74.8723,"temp":29.4,"humidity":40,"rain":0.0,"pressure":978.2,"uv_index":8.45,"wind_gusts":45.4,"aqi":86,"pm10":55.5,"pm2_5":27.4,"no2":11.1,"co":202.0,"o3":71.0,"so2":6.3,"mosquito_risk":4,"arthritis_risk":5,"migraine_risk":7,"frizz_risk":0,"updated_at":"2026-05-22T05:35:41.498171+05:30"},{"city":"Ludhiana","state":"Punjab","latitude":30.901,"longitude":75.8573,"temp":28.0,"humidity":41,"rain":0.0,"pressure":974.7,"uv_index":8.0,"wind_gusts":32.8,"aqi":103,"pm10":48.1,"pm2_5":27.6,"no2":12.0,"co":290.0,"o3":54.0,"so2":5.9,"mosquito_risk":4,"arthritis_risk":5,"migraine_risk":7,"frizz_risk":0,"updated_at":"2026-05-22T05:35:41.498179+05:30"},{"city":"Jalandhar","state":"Punjab","latitude":31.326,"longitude":75.5762,"temp":27.9,"humidity":40,"rain":0.0,"pressure":976.4,"uv_index":7.15,"wind_gusts":34.2,"aqi":101,"pm10":82.9,"pm2_5":37.0,"no2":15.8,"co":278.0,"o3":47.0,"so2":5.8,"mosquito_risk":4,"arthritis_risk":5,"migraine_risk":7,"frizz_risk":0,"updated_at":"2026-05-22T05:35:41.498186+05:30"},{"city":"Dehradun","state":"Uttarakhand","latitude":30.6284,"longitude":78.0322,"temp":13.6,"humidity":74,"rain":0.0,"pressure":826.5,"uv_index":8.2,"wind_gusts":42.8,"aqi":78,"pm10":35.2,"pm2_5":16.6,"no2":20.6,"co":275.0,"o3":12.0,"so2":0.7,"mosquito_risk":3,"arthritis_risk":5,"migraine_risk":7,"frizz_risk":0,"updated_at":"2026-05-22T05:35:41.498192+05:30"},{"city":"Shimla","state":"Himachal Pradesh","latitude":31.1048,"longitude":77.1734,"temp":14.4,"humidity":51,"rain":0.0,"pressure":782.0,"uv_index":8.1,"wind_gusts":45.7,"aqi":77,"pm10":53.8,"pm2_5":27.0,"no2":23.5,"co":190.0,"o3":44.0,"so2":3.1,"mosquito_risk":0,"arthritis_risk":5,"migraine_risk":7,"frizz_risk":0,"updated_at":"2026-05-22T05:35:41.498200+05:30"},{"city":"Manali","state":"Himachal Pradesh","latitude":32.2396,"longitude":77.1887,"temp":9.3,"humidity":91,"rain":0.0,"pressure":816.2,"uv_index":7.65,"wind_gusts":50.4,"aqi":35,"pm10":2.1,"pm2_5":1.1,"no2":12.0,"co":142.0,"o3":95.0,"so2":0.0,"mosquito_risk":3,"arthritis_risk":10,"migraine_risk":7,"frizz_risk":0,"updated_at":"2026-05-22T05:35:41.498206+05:30"},{"city":"Gurgaon","state":"Haryana","latitude":28.4595,"longitude":77.0266,"temp":29.7,"humidity":31,"rain":0.0,"pressure":977.5,"uv_index":7.85,"wind_gusts":35.3,"aqi":1961,"pm10":1832.8,"pm2_5":278.5,"no2":13.0,"co":224.0,"o3":60.0,"so2":8.5,"mosquito_risk":4,"arthritis_risk":5,"migraine_risk":7,"frizz_risk":0,"updated_at":"2026-05-22T05:35:41.498212+05:30"},{"city":"Noida","state":"Uttar Pradesh","latitude":28.5355,"longitude":77.391,"temp":31.1,"humidity":29,"rain":0.0,"pressure":980.6,"uv_index":7.8,"wind_gusts":30.6,"aqi":1961,"pm10":1832.8,"pm2_5":278.5,"no2":13.0,"co":232.0,"o3":60.0,"so2":8.5,"mosquito_risk":0,"arthritis_risk":5,"migraine_risk":7,"frizz_risk":0,"updated_at":"2026-05-22T05:35:41.498221+05:30"},{"city":"Ghaziabad","state":"Uttar Pradesh","latitude":28.6692,"longitude":77.4538,"temp":31.6,"humidity":23,"rain":0.0,"pressure":978.8,"uv_index":7.8,"wind_gusts":31.3,"aqi":602,"pm10":547.6,"pm2_5":116.9,"no2":18.3,"co":222.0,"o3":57.0,"so2":11.7,"mosquito_risk":0,"arthritis_risk":5,"migraine_risk":7,"frizz_risk":0,"updated_at":"2026-05-22T05:35:41.498227+05:30"},{"city":"Faridabad","state":"Haryana","latitude":28.4089,"longitude":77.3178,"temp":31.5,"humidity":26,"rain":0.0,"pressure":979.9,"uv_index":7.85,"wind_gusts":38.5,"aqi":1961,"pm10":1832.8,"pm2_5":278.5,"no2":13.0,"co":205.0,"o3":60.0,"so2":8.5,"mosquito_risk":0,"arthritis_risk":5,"migraine_risk":7,"frizz_risk":0,"updated_at":"2026-05-22T05:35:41.498232+05:30"},{"city":"Meerut","state":"Uttar Pradesh","latitude":28.9845,"longitude":77.7064,"temp":30.7,"humidity":26,"rain":0.0,"pressure":977.3,"uv_index":7.7,"wind_gusts":29.2,"aqi":602,"pm10":547.6,"pm2_5":116.9,"no2":18.3,"co":218.0,"o3":57.0,"so2":11.7,"mosquito_risk":0,"arthritis_risk":5,"migraine_risk":7,"frizz_risk":0,"updated_at":"2026-05-22T05:35:41.498239+05:30"},{"city":"Agra","state":"Uttar Pradesh","latitude":27.1767,"longitude":78.0081,"temp":30.8,"humidity":25,"rain":0.0,"pressure":984.3,"uv_index":8.1,"wind_gusts":41.0,"aqi":943,"pm10":1318.8,"pm2_5":168.1,"no2":9.7,"co":188.0,"o3":59.0,"so2":5.7,"mosquito_risk":0,"arthritis_risk":5,"migraine_risk":7,"frizz_risk":0,"updated_at":"2026-05-22T05:35:41.498245+05:30"},{"city":"Varanasi","state":"Uttar Pradesh","latitude":25.3176,"longitude":82.9739,"temp":29.8,"humidity":79,"rain":0.0,"pressure":993.8,"uv_index":8.75,"wind_gusts":34.2,"aqi":143,"pm10":70.5,"pm2_5":61.7,"no2":27.4,"co":651.0,"o3":55.0,"so2":19.3,"mosquito_risk":7,"arthritis_risk":5,"migraine_risk":7,"frizz_risk":1,"updated_at":"2026-05-22T05:35:41.498252+05:30"},{"city":"Prayagraj","state":"Uttar Pradesh","latitude":25.4358,"longitude":81.8463,"temp":30.4,"humidity":38,"rain":0.0,"pressure":992.1,"uv_index":8.65,"wind_gusts":37.8,"aqi":131,"pm10":71.2,"pm2_5":58.9,"no2":33.3,"co":241.0,"o3":39.0,"so2":16.0,"mosquito_risk":0,"arthritis_risk":5,"migraine_risk":7,"frizz_risk":0,"updated_at":"2026-05-22T05:35:41.498258+05:30"},{"city":"Gorakhpur","state":"Uttar Pradesh","latitude":26.7606,"longitude":83.3732,"temp":28.2,"humidity":83,"rain":0.0,"pressure":994.6,"uv_index":8.65,"wind_gusts":32.0,"aqi":160,"pm10":56.3,"pm2_5":49.6,"no2":14.1,"co":449.0,"o3":77.0,"so2":11.1,"mosquito_risk":7,"arthritis_risk":5,"migraine_risk":7,"frizz_risk":1,"updated_at":"2026-05-22T05:35:41.498267+05:30"},{"city":"Bareilly","state":"Uttar Pradesh","latitude":28.367,"longitude":79.4304,"temp":27.8,"humidity":68,"rain":0.0,"pressure":982.7,"uv_index":8.05,"wind_gusts":23.8,"aqi":198,"pm10":328.8,"pm2_5":112.9,"no2":48.7,"co":444.0,"o3":34.0,"so2":14.3,"mosquito_risk":7,"arthritis_risk":5,"migraine_risk":7,"frizz_risk":1,"updated_at":"2026-05-22T05:35:41.498273+05:30"},{"city":"Aligarh","state":"Uttar Pradesh","latitude":27.8974,"longitude":78.088,"temp":29.6,"humidity":28,"rain":0.0,"pressure":981.9,"uv_index":7.9,"wind_gusts":30.6,"aqi":1108,"pm10":1125.0,"pm2_5":204.4,"no2":13.2,"co":247.0,"o3":56.0,"so2":6.3,"mosquito_risk":4,"arthritis_risk":5,"migraine_risk":7,"frizz_risk":0,"updated_at":"2026-05-22T05:35:41.498280+05:30"},{"city":"Moradabad","state":"Uttar Pradesh","latitude":28.8386,"longitude":78.7733,"temp":29.9,"humidity":43,"rain":0.0,"pressure":979.7,"uv_index":7.9,"wind_gusts":26.3,"aqi":244,"pm10":391.2,"pm2_5":170.0,"no2":75.3,"co":461.0,"o3":3.0,"so2":25.4,"mosquito_risk":4,"arthritis_risk":5,"migraine_risk":7,"frizz_risk":0,"updated_at":"2026-05-22T05:35:41.498286+05:30"},{"city":"Saharanpur","state":"Uttar Pradesh","latitude":29.9637,"longitude":77.546,"temp":27.5,"humidity":49,"rain":0.0,"pressure":971.2,"uv_index":7.5,"wind_gusts":45.4,"aqi":160,"pm10":255.2,"pm2_5":107.6,"no2":53.5,"co":394.0,"o3":13.0,"so2":15.5,"mosquito_risk":4,"arthritis_risk":5,"migraine_risk":7,"frizz_risk":0,"updated_at":"2026-05-22T05:35:41.498292+05:30"},{"city":"Jhansi","state":"Uttar Pradesh","latitude":25.4484,"longitude":78.5685,"temp":30.1,"humidity":21,"rain":0.0,"pressure":975.1,"uv_index":8.5,"wind_gusts":45.0,"aqi":56,"pm10":15.6,"pm2_5":8.4,"no2":3.8,"co":143.0,"o3":68.0,"so2":1.9,"mosquito_risk":0,"arthritis_risk":5,"migraine_risk":7,"frizz_risk":0,"updated_at":"2026-05-22T05:35:54.699043+05:30"},{"city":"Surat","state":"Gujarat","latitude":21.1702,"longitude":72.8311,"temp":28.6,"humidity":86,"rain":0.0,"pressure":1006.0,"uv_index":7.75,"wind_gusts":40.3,"aqi":77,"pm10":26.8,"pm2_5":20.4,"no2":29.7,"co":457.0,"o3":20.0,"so2":49.9,"mosquito_risk":7,"arthritis_risk":5,"migraine_risk":4,"frizz_risk":1,"updated_at":"2026-05-22T05:35:54.699077+05:30"},{"city":"Vadodara","state":"Gujarat","latitude":22.3072,"longitude":73.1812,"temp":30.2,"humidity":61,"rain":0.0,"pressure":1003.3,"uv_index":8.15,"wind_gusts":40.7,"aqi":77,"pm10":20.8,"pm2_5":14.4,"no2":12.4,"co":154.0,"o3":29.0,"so2":11.5,"mosquito_risk":3,"arthritis_risk":5,"migraine_risk":4,"frizz_risk":1,"updated_at":"2026-05-22T05:35:54.699088+05:30"},{"city":"Rajkot","state":"Gujarat","latitude":22.3039,"longitude":70.8022,"temp":27.0,"humidity":84,"rain":0.0,"pressure":993.3,"uv_index":7.8,"wind_gusts":43.6,"aqi":73,"pm10":44.4,"pm2_5":21.0,"no2":5.9,"co":131.0,"o3":42.0,"so2":5.5,"mosquito_risk":7,"arthritis_risk":5,"migraine_risk":7,"frizz_risk":1,"updated_at":"2026-05-22T05:35:54.699096+05:30"},{"city":"Thane","state":"Maharashtra","latitude":19.2183,"longitude":72.9781,"temp":29.4,"humidity":78,"rain":0.0,"pressure":1006.7,"uv_index":6.95,"wind_gusts":31.7,"aqi":55,"pm10":21.5,"pm2_5":13.6,"no2":12.3,"co":192.0,"o3":41.0,"so2":12.2,"mosquito_risk":7,"arthritis_risk":5,"migraine_risk":4,"frizz_risk":1,"updated_at":"2026-05-22T05:35:54.699103+05:30"},{"city":"Nagpur","state":"Maharashtra","latitude":21.1458,"longitude":79.0882,"temp":33.7,"humidity":26,"rain":0.0,"pressure":969.7,"uv_index":8.9,"wind_gusts":46.4,"aqi":67,"pm10":27.1,"pm2_5":20.0,"no2":11.2,"co":242.0,"o3":64.0,"so2":9.3,"mosquito_risk":0,"arthritis_risk":5,"migraine_risk":7,"frizz_risk":0,"updated_at":"2026-05-22T05:35:54.699111+05:30"},{"city":"Nashik","state":"Maharashtra","latitude":19.9975,"longitude":73.7898,"temp":24.9,"humidity":86,"rain":0.0,"pressure":944.7,"uv_index":8.15,"wind_gusts":34.2,"aqi":51,"pm10":20.4,"pm2_5":12.7,"no2":11.8,"co":140.0,"o3":33.0,"so2":12.5,"mosquito_risk":3,"arthritis_risk":5,"migraine_risk":7,"frizz_risk":1,"updated_at":"2026-05-22T05:35:54.699119+05:30"},{"city":"Aurangabad","state":"Maharashtra","latitude":19.8762,"longitude":75.3433,"temp":28.2,"humidity":61,"rain":0.0,"pressure":943.1,"uv_index":6.35,"wind_gusts":49.7,"aqi":64,"pm10":18.9,"pm2_5":11.9,"no2":9.6,"co":152.0,"o3":41.0,"so2":5.9,"mosquito_risk":7,"arthritis_risk":5,"migraine_risk":7,"frizz_risk":1,"updated_at":"2026-05-22T05:35:54.699126+05:30"},{"city":"Solapur","state":"Maharashtra","latitude":17.6599,"longitude":75.9064,"temp":28.4,"humidity":63,"rain":0.0,"pressure":956.7,"uv_index":9.0,"wind_gusts":37.1,"aqi":67,"pm10":10.7,"pm2_5":8.6,"no2":6.1,"co":176.0,"o3":54.0,"so2":2.7,"mosquito_risk":7,"arthritis_risk":5,"migraine_risk":7,"frizz_risk":1,"updated_at":"2026-05-22T05:35:54.699133+05:30"},{"city":"Kolhapur","state":"Maharashtra","latitude":16.705,"longitude":74.2433,"temp":24.0,"humidity":90,"rain":0.0,"pressure":947.4,"uv_index":8.3,"wind_gusts":42.8,"aqi":53,"pm10":10.2,"pm2_5":8.6,"no2":7.1,"co":178.0,"o3":45.0,"so2":3.0,"mosquito_risk":3,"arthritis_risk":5,"migraine_risk":7,"frizz_risk":1,"updated_at":"2026-05-22T05:35:54.699141+05:30"},{"city":"Goa","state":"Goa","latitude":15.2993,"longitude":74.124,"temp":26.3,"humidity":90,"rain":0.0,"pressure":997.1,"uv_index":6.0,"wind_gusts":30.2,"aqi":35,"pm10":10.4,"pm2_5":7.9,"no2":3.0,"co":321.0,"o3":49.0,"so2":0.9,"mosquito_risk":7,"arthritis_risk":5,"migraine_risk":3,"frizz_risk":1,"updated_at":"2026-05-22T05:35:54.699148+05:30"},{"city":"Jodhpur","state":"Rajasthan","latitude":26.2389,"longitude":73.0243,"temp":30.0,"humidity":45,"rain":0.0,"pressure":981.3,"uv_index":8.45,"wind_gusts":37.4,"aqi":160,"pm10":257.0,"pm2_5":65.7,"no2":3.7,"co":138.0,"o3":54.0,"so2":4.1,"mosquito_risk":4,"arthritis_risk":5,"migraine_risk":7,"frizz_risk":1,"updated_at":"2026-05-22T05:35:54.699155+05:30"},{"city":"Udaipur","state":"Rajasthan","latitude":24.5854,"longitude":73.7125,"temp":27.7,"humidity":32,"rain":0.0,"pressure":945.7,"uv_index":8.9,"wind_gusts":40.7,"aqi":59,"pm10":43.8,"pm2_5":19.3,"no2":5.2,"co":145.0,"o3":56.0,"so2":3.7,"mosquito_risk":4,"arthritis_risk":5,"migraine_risk":7,"frizz_risk":0,"updated_at":"2026-05-22T05:35:54.699163+05:30"},{"city":"Kota","state":"Rajasthan","latitude":25.2138,"longitude":75.8648,"temp":31.0,"humidity":23,"rain":0.0,"pressure":977.1,"uv_index":8.4,"wind_gusts":43.6,"aqi":67,"pm10":16.1,"pm2_5":12.1,"no2":7.3,"co":183.0,"o3":46.0,"so2":4.6,"mosquito_risk":0,"arthritis_risk":5,"migraine_risk":7,"frizz_risk":0,"updated_at":"2026-05-22T05:35:54.699170+05:30"},{"city":"Bikaner","state":"Rajasthan","latitude":28.0229,"longitude":73.3119,"temp":31.6,"humidity":36,"rain":0.0,"pressure":979.3,"uv_index":8.4,"wind_gusts":38.5,"aqi":166,"pm10":389.3,"pm2_5":138.8,"no2":1.7,"co":139.0,"o3":74.0,"so2":2.8,"mosquito_risk":0,"arthritis_risk":5,"migraine_risk":7,"frizz_risk":0,"updated_at":"2026-05-22T05:35:54.699177+05:30"},{"city":"Ajmer","state":"Rajasthan","latitude":26.4499,"longitude":74.6399,"temp":28.5,"humidity":34,"rain":0.0,"pressure":953.5,"uv_index":8.4,"wind_gusts":44.6,"aqi":74,"pm10":62.4,"pm2_5":23.2,"no2":3.6,"co":170.0,"o3":61.0,"so2":3.6,"mosquito_risk":4,"arthritis_risk":5,"migraine_risk":7,"frizz_risk":0,"updated_at":"2026-05-22T05:35:54.699184+05:30"},{"city":"Gwalior","state":"Madhya Pradesh","latitude":26.2183,"longitude":78.1828,"temp":31.0,"humidity":24,"rain":0.0,"pressure":980.5,"uv_index":8.3,"wind_gusts":45.0,"aqi":63,"pm10":61.2,"pm2_5":17.9,"no2":5.2,"co":157.0,"o3":64.0,"so2":3.2,"mosquito_risk":0,"arthritis_risk":5,"migraine_risk":7,"frizz_risk":0,"updated_at":"2026-05-22T05:35:54.699191+05:30"},{"city":"Indore","state":"Madhya Pradesh","latitude":22.7196,"longitude":75.8577,"temp":29.7,"humidity":31,"rain":0.0,"pressure":947.3,"uv_index":8.7,"wind_gusts":43.2,"aqi":68,"pm10":32.2,"pm2_5":19.7,"no2":5.4,"co":231.0,"o3":88.0,"so2":12.7,"mosquito_risk":4,"arthritis_risk":5,"migraine_risk":7,"frizz_risk":0,"updated_at":"2026-05-22T05:35:54.699198+05:30"},{"city":"Bhopal","state":"Madhya Pradesh","latitude":23.2599,"longitude":77.4126,"temp":30.6,"humidity":25,"rain":0.0,"pressure":952.4,"uv_index":8.75,"wind_gusts":42.5,"aqi":65,"pm10":24.4,"pm2_5":16.3,"no2":5.3,"co":226.0,"o3":66.0,"so2":4.8,"mosquito_risk":0,"arthritis_risk":5,"migraine_risk":7,"frizz_risk":0,"updated_at":"2026-05-22T05:35:54.699204+05:30"},{"city":"Jabalpur","state":"Madhya Pradesh","latitude":23.1815,"longitude":79.9864,"temp":30.5,"humidity":23,"rain":0.0,"pressure":958.8,"uv_index":8.9,"wind_gusts":37.8,"aqi":62,"pm10":28.1,"pm2_5":23.4,"no2":34.0,"co":271.0,"o3":32.0,"so2":5.9,"mosquito_risk":0,"arthritis_risk":5,"migraine_risk":7,"frizz_risk":0,"updated_at":"2026-05-22T05:35:54.699211+05:30"},{"city":"Ujjain","state":"Madhya Pradesh","latitude":23.1765,"longitude":75.7885,"temp":29.8,"humidity":32,"rain":0.0,"pressure":953.0,"uv_index":8.65,"wind_gusts":40.7,"aqi":67,"pm10":34.9,"pm2_5":22.0,"no2":7.4,"co":208.0,"o3":69.0,"so2":16.6,"mosquito_risk":4,"arthritis_risk":5,"migraine_risk":7,"frizz_risk":0,"updated_at":"2026-05-22T05:35:54.699218+05:30"},{"city":"Visakhapatnam","state":"Andhra Pradesh","latitude":17.6868,"longitude":83.2185,"temp":31.0,"humidity":74,"rain":0.0,"pressure":998.8,"uv_index":9.05,"wind_gusts":39.2,"aqi":137,"pm10":49.9,"pm2_5":41.4,"no2":26.5,"co":392.0,"o3":84.0,"so2":41.4,"mosquito_risk":3,"arthritis_risk":5,"migraine_risk":7,"frizz_risk":1,"updated_at":"2026-05-22T05:35:54.699225+05:30"},{"city":"Vijayawada","state":"Andhra Pradesh","latitude":16.5062,"longitude":80.648,"temp":32.4,"humidity":60,"rain":0.0,"pressure":997.8,"uv_index":9.1,"wind_gusts":49.0,"aqi":113,"pm10":34.2,"pm2_5":29.9,"no2":10.6,"co":311.0,"o3":95.0,"so2":10.4,"mosquito_risk":0,"arthritis_risk":5,"migraine_risk":7,"frizz_risk":1,"updated_at":"2026-05-22T05:35:54.699232+05:30"},{"city":"Guntur","state":"Andhra Pradesh","latitude":16.3067,"longitude":80.4365,"temp":32.8,"humidity":46,"rain":0.0,"pressure":999.3,"uv_index":9.1,"wind_gusts":47.9,"aqi":114,"pm10":38.4,"pm2_5":34.0,"no2":13.2,"co":244.0,"o3":76.0,"so2":9.5,"mosquito_risk":0,"arthritis_risk":5,"migraine_risk":7,"frizz_risk":1,"updated_at":"2026-05-22T05:35:54.699239+05:30"},{"city":"Nellore","state":"Andhra Pradesh","latitude":14.4426,"longitude":79.9865,"temp":30.6,"humidity":58,"rain":0.0,"pressure":1002.0,"uv_index":8.6,"wind_gusts":46.8,"aqi":74,"pm10":23.2,"pm2_5":19.3,"no2":6.9,"co":183.0,"o3":81.0,"so2":5.1,"mosquito_risk":0,"arthritis_risk":5,"migraine_risk":4,"frizz_risk":1,"updated_at":"2026-05-22T05:35:54.699247+05:30"},{"city":"Kurnool","state":"Andhra Pradesh","latitude":15.8281,"longitude":78.0373,"temp":29.0,"humidity":64,"rain":0.0,"pressure":975.5,"uv_index":6.8,"wind_gusts":55.4,"aqi":75,"pm10":5.4,"pm2_5":4.5,"no2":6.3,"co":183.0,"o3":43.0,"so2":2.3,"mosquito_risk":7,"arthritis_risk":5,"migraine_risk":7,"frizz_risk":1,"updated_at":"2026-05-22T05:35:54.699254+05:30"},{"city":"Kakinada","state":"Andhra Pradesh","latitude":16.9891,"longitude":82.2475,"temp":31.6,"humidity":73,"rain":0.0,"pressure":1002.6,"uv_index":9.1,"wind_gusts":43.6,"aqi":98,"pm10":35.0,"pm2_5":26.4,"no2":4.5,"co":294.0,"o3":136.0,"so2":5.3,"mosquito_risk":3,"arthritis_risk":5,"migraine_risk":4,"frizz_risk":1,"updated_at":"2026-05-22T05:35:54.699261+05:30"},{"city":"Tirupati","state":"Andhra Pradesh","latitude":13.6288,"longitude":79.4192,"temp":27.1,"humidity":73,"rain":0.0,"pressure":988.0,"uv_index":8.1,"wind_gusts":39.2,"aqi":74,"pm10":16.0,"pm2_5":13.6,"no2":9.2,"co":171.0,"o3":59.0,"so2":2.7,"mosquito_risk":7,"arthritis_risk":5,"migraine_risk":7,"frizz_risk":1,"updated_at":"2026-05-22T05:35:54.699268+05:30"},{"city":"Warangal","state":"Telangana","latitude":17.9689,"longitude":79.5941,"temp":32.3,"humidity":45,"rain":0.0,"pressure":974.4,"uv_index":9.1,"wind_gusts":46.8,"aqi":137,"pm10":32.7,"pm2_5":28.5,"no2":14.2,"co":273.0,"o3":70.0,"so2":7.0,"mosquito_risk":0,"arthritis_risk":5,"migraine_risk":7,"frizz_risk":1,"updated_at":"2026-05-22T05:35:54.699275+05:30"},{"city":"Nizamabad","state":"Telangana","latitude":18.6725,"longitude":78.0941,"temp":32.4,"humidity":41,"rain":0.0,"pressure":961.9,"uv_index":9.1,"wind_gusts":37.4,"aqi":91,"pm10":29.7,"pm2_5":25.4,"no2":11.9,"co":211.0,"o3":70.0,"so2":7.8,"mosquito_risk":0,"arthritis_risk":5,"migraine_risk":7,"frizz_risk":1,"updated_at":"2026-05-22T05:35:54.699281+05:30"},{"city":"Mysore","state":"Karnataka","latitude":12.2958,"longitude":76.6396,"temp":23.0,"humidity":87,"rain":0.0,"pressure":927.4,"uv_index":8.25,"wind_gusts":43.9,"aqi":24,"pm10":6.9,"pm2_5":6.0,"no2":6.9,"co":144.0,"o3":40.0,"so2":1.8,"mosquito_risk":3,"arthritis_risk":5,"migraine_risk":7,"frizz_risk":1,"updated_at":"2026-05-22T05:35:54.699288+05:30"},{"city":"Mangalore","state":"Karnataka","latitude":12.9141,"longitude":74.856,"temp":25.5,"humidity":99,"rain":0.0,"pressure":1006.1,"uv_index":8.05,"wind_gusts":38.2,"aqi":42,"pm10":10.9,"pm2_5":9.2,"no2":8.4,"co":200.0,"o3":33.0,"so2":2.5,"mosquito_risk":7,"arthritis_risk":5,"migraine_risk":4,"frizz_risk":1,"updated_at":"2026-05-22T05:35:54.699295+05:30"},{"city":"Hubli-Dharwad","state":"Karnataka","latitude":15.3647,"longitude":75.124,"temp":23.0,"humidity":97,"rain":0.0,"pressure":940.0,"uv_index":8.7,"wind_gusts":51.5,"aqi":20,"pm10":4.1,"pm2_5":3.5,"no2":5.0,"co":115.0,"o3":41.0,"so2":1.2,"mosquito_risk":3,"arthritis_risk":5,"migraine_risk":7,"frizz_risk":1,"updated_at":"2026-05-22T05:35:54.699301+05:30"},{"city":"Belgaum","state":"Karnataka","latitude":15.8497,"longitude":74.4977,"temp":22.1,"humidity":97,"rain":0.0,"pressure":925.0,"uv_index":8.4,"wind_gusts":35.6,"aqi":39,"pm10":6.5,"pm2_5":5.7,"no2":4.9,"co":148.0,"o3":45.0,"so2":1.2,"mosquito_risk":3,"arthritis_risk":5,"migraine_risk":7,"frizz_risk":1,"updated_at":"2026-05-22T05:36:08.722805+05:30"},{"city":"Coimbatore","state":"Tamil Nadu","latitude":11.0168,"longitude":76.9558,"temp":24.5,"humidity":87,"rain":0.0,"pressure":960.6,"uv_index":8.8,"wind_gusts":57.6,"aqi":22,"pm10":6.8,"pm2_5":5.5,"no2":5.8,"co":188.0,"o3":40.0,"so2":2.4,"mosquito_risk":3,"arthritis_risk":5,"migraine_risk":7,"frizz_risk":1,"updated_at":"2026-05-22T05:36:08.722840+05:30"},{"city":"Madurai","state":"Tamil Nadu","latitude":9.9252,"longitude":78.1198,"temp":28.3,"humidity":66,"rain":0.0,"pressure":991.4,"uv_index":8.8,"wind_gusts":49.0,"aqi":65,"pm10":23.8,"pm2_5":23.2,"no2":37.5,"co":179.0,"o3":2.0,"so2":6.0,"mosquito_risk":7,"arthritis_risk":5,"migraine_risk":7,"frizz_risk":1,"updated_at":"2026-05-22T05:36:08.722853+05:30"},{"city":"Trichy","state":"Tamil Nadu","latitude":10.7905,"longitude":78.7047,"temp":28.0,"humidity":69,"rain":0.0,"pressure":997.5,"uv_index":8.95,"wind_gusts":46.8,"aqi":39,"pm10":8.1,"pm2_5":6.7,"no2":8.3,"co":136.0,"o3":37.0,"so2":3.5,"mosquito_risk":7,"arthritis_risk":5,"migraine_risk":7,"frizz_risk":1,"updated_at":"2026-05-22T05:36:08.722862+05:30"},{"city":"Salem","state":"Tamil Nadu","latitude":11.6643,"longitude":78.146,"temp":27.4,"humidity":72,"rain":0.0,"pressure":976.0,"uv_index":8.8,"wind_gusts":31.7,"aqi":52,"pm10":18.6,"pm2_5":16.6,"no2":22.1,"co":164.0,"o3":24.0,"so2":7.4,"mosquito_risk":7,"arthritis_risk":5,"migraine_risk":7,"frizz_risk":1,"updated_at":"2026-05-22T05:36:08.722870+05:30"},{"city":"Tirunelveli","state":"Tamil Nadu","latitude":8.7139,"longitude":77.7567,"temp":28.8,"humidity":72,"rain":0.0,"pressure":1001.8,"uv_index":8.1,"wind_gusts":46.8,"aqi":20,"pm10":4.4,"pm2_5":3.9,"no2":5.0,"co":161.0,"o3":35.0,"so2":1.9,"mosquito_risk":7,"arthritis_risk":5,"migraine_risk":4,"frizz_risk":1,"updated_at":"2026-05-22T05:36:08.722878+05:30"},{"city":"Vellore","state":"Tamil Nadu","latitude":12.9165,"longitude":79.1325,"temp":28.9,"humidity":63,"rain":0.0,"pressure":982.3,"uv_index":7.2,"wind_gusts":44.3,"aqi":67,"pm10":11.7,"pm2_5":10.5,"no2":11.7,"co":203.0,"o3":48.0,"so2":4.9,"mosquito_risk":7,"arthritis_risk":5,"migraine_risk":7,"frizz_risk":1,"updated_at":"2026-05-22T05:36:08.722885+05:30"},{"city":"Erode","state":"Tamil Nadu","latitude":11.341,"longitude":77.7172,"temp":28.3,"humidity":65,"rain":0.0,"pressure":987.5,"uv_index":8.1,"wind_gusts":51.8,"aqi":37,"pm10":12.4,"pm2_5":10.6,"no2":13.2,"co":170.0,"o3":32.0,"so2":3.6,"mosquito_risk":7,"arthritis_risk":5,"migraine_risk":7,"frizz_risk":1,"updated_at":"2026-05-22T05:36:08.722893+05:30"},{"city":"Kochi","state":"Kerala","latitude":9.9312,"longitude":76.2673,"temp":25.2,"humidity":98,"rain":0.1,"pressure":1008.8,"uv_index":8.55,"wind_gusts":37.4,"aqi":51,"pm10":11.1,"pm2_5":10.2,"no2":15.2,"co":174.0,"o3":16.0,"so2":4.1,"mosquito_risk":10,"arthritis_risk":0,"migraine_risk":4,"frizz_risk":1,"updated_at":"2026-05-22T05:36:08.722900+05:30"},{"city":"Thiruvananthapuram","state":"Kerala","latitude":8.5241,"longitude":76.9366,"temp":23.9,"humidity":98,"rain":0.1,"pressure":1008.2,"uv_index":7.7,"wind_gusts":38.9,"aqi":24,"pm10":7.2,"pm2_5":4.3,"no2":1.7,"co":115.0,"o3":53.0,"so2":0.6,"mosquito_risk":6,"arthritis_risk":0,"migraine_risk":4,"frizz_risk":1,"updated_at":"2026-05-22T05:36:08.722908+05:30"},{"city":"Kozhikode","state":"Kerala","latitude":11.2588,"longitude":75.7804,"temp":25.3,"humidity":99,"rain":0.0,"pressure":1007.6,"uv_index":7.8,"wind_gusts":33.1,"aqi":27,"pm10":8.8,"pm2_5":5.5,"no2":1.5,"co":243.0,"o3":60.0,"so2":0.7,"mosquito_risk":7,"arthritis_risk":5,"migraine_risk":4,"frizz_risk":1,"updated_at":"2026-05-22T05:36:08.722914+05:30"},{"city":"Thrissur","state":"Kerala","latitude":10.5276,"longitude":76.2144,"temp":23.6,"humidity":98,"rain":0.2,"pressure":1007.2,"uv_index":7.9,"wind_gusts":34.6,"aqi":51,"pm10":14.4,"pm2_5":12.9,"no2":13.3,"co":200.0,"o3":21.0,"so2":3.9,"mosquito_risk":6,"arthritis_risk":5,"migraine_risk":4,"frizz_risk":1,"updated_at":"2026-05-22T05:36:08.722922+05:30"},{"city":"Kannur","state":"Kerala","latitude":11.8745,"longitude":75.3704,"temp":25.6,"humidity":98,"rain":0.0,"pressure":1006.5,"uv_index":7.7,"wind_gusts":32.4,"aqi":36,"pm10":7.4,"pm2_5":6.0,"no2":7.8,"co":185.0,"o3":34.0,"so2":2.1,"mosquito_risk":7,"arthritis_risk":5,"migraine_risk":4,"frizz_risk":1,"updated_at":"2026-05-22T05:36:08.722928+05:30"},{"city":"Patna","state":"Bihar","latitude":25.5941,"longitude":85.1376,"temp":28.0,"humidity":88,"rain":0.0,"pressure":997.5,"uv_index":8.85,"wind_gusts":28.8,"aqi":157,"pm10":51.2,"pm2_5":45.5,"no2":15.1,"co":440.0,"o3":76.0,"so2":18.2,"mosquito_risk":7,"arthritis_risk":5,"migraine_risk":7,"frizz_risk":1,"updated_at":"2026-05-22T05:36:08.722935+05:30"},{"city":"Gaya","state":"Bihar","latitude":24.7914,"longitude":85.0002,"temp":28.8,"humidity":86,"rain":0.0,"pressure":990.3,"uv_index":8.9,"wind_gusts":30.6,"aqi":155,"pm10":69.8,"pm2_5":62.9,"no2":16.7,"co":491.0,"o3":76.0,"so2":25.5,"mosquito_risk":7,"arthritis_risk":5,"migraine_risk":7,"frizz_risk":1,"updated_at":"2026-05-22T05:36:08.722943+05:30"},{"city":"Muzaffarpur","state":"Bihar","latitude":26.1209,"longitude":85.3647,"temp":27.4,"humidity":89,"rain":0.0,"pressure":998.0,"uv_index":8.85,"wind_gusts":33.5,"aqi":155,"pm10":47.7,"pm2_5":42.3,"no2":14.5,"co":426.0,"o3":73.0,"so2":14.6,"mosquito_risk":7,"arthritis_risk":5,"migraine_risk":7,"frizz_risk":1,"updated_at":"2026-05-22T05:36:08.722949+05:30"},{"city":"Bhagalpur","state":"Bihar","latitude":25.2425,"longitude":87.0117,"temp":27.5,"humidity":92,"rain":0.0,"pressure":998.5,"uv_index":8.85,"wind_gusts":33.1,"aqi":127,"pm10":58.7,"pm2_5":49.8,"no2":15.3,"co":548.0,"o3":74.0,"so2":11.1,"mosquito_risk":7,"arthritis_risk":5,"migraine_risk":7,"frizz_risk":1,"updated_at":"2026-05-22T05:36:08.722956+05:30"},{"city":"Ranchi","state":"Jharkhand","latitude":23.3441,"longitude":85.3096,"temp":25.0,"humidity":78,"rain":0.0,"pressure":934.7,"uv_index":9.3,"wind_gusts":31.3,"aqi":153,"pm10":150.4,"pm2_5":82.7,"no2":30.0,"co":598.0,"o3":49.0,"so2":26.5,"mosquito_risk":7,"arthritis_risk":5,"migraine_risk":7,"frizz_risk":1,"updated_at":"2026-05-22T05:36:08.722962+05:30"},{"city":"Jamshedpur","state":"Jharkhand","latitude":22.8046,"longitude":86.2029,"temp":28.6,"humidity":96,"rain":0.0,"pressure":987.8,"uv_index":9.1,"wind_gusts":27.4,"aqi":151,"pm10":52.7,"pm2_5":46.7,"no2":11.6,"co":362.0,"o3":72.0,"so2":16.7,"mosquito_risk":7,"arthritis_risk":5,"migraine_risk":7,"frizz_risk":1,"updated_at":"2026-05-22T05:36:08.722968+05:30"},{"city":"Dhanbad","state":"Jharkhand","latitude":23.7957,"longitude":86.4304,"temp":28.6,"humidity":90,"rain":0.0,"pressure":976.9,"uv_index":9.1,"wind_gusts":30.6,"aqi":164,"pm10":70.8,"pm2_5":62.9,"no2":37.6,"co":620.0,"o3":47.0,"so2":94.5,"mosquito_risk":7,"arthritis_risk":5,"migraine_risk":7,"frizz_risk":1,"updated_at":"2026-05-22T05:36:08.722975+05:30"},{"city":"Bokaro","state":"Jharkhand","latitude":23.6693,"longitude":86.1511,"temp":28.2,"humidity":93,"rain":0.0,"pressure":980.6,"uv_index":9.1,"wind_gusts":24.8,"aqi":163,"pm10":85.7,"pm2_5":80.3,"no2":46.6,"co":786.0,"o3":32.0,"so2":118.1,"mosquito_risk":7,"arthritis_risk":5,"migraine_risk":7,"frizz_risk":1,"updated_at":"2026-05-22T05:36:08.722982+05:30"},{"city":"Bhubaneswar","state":"Odisha","latitude":20.2961,"longitude":85.8245,"temp":29.5,"humidity":97,"rain":0.0,"pressure":998.4,"uv_index":9.15,"wind_gusts":36.7,"aqi":153,"pm10":28.3,"pm2_5":21.8,"no2":7.5,"co":285.0,"o3":73.0,"so2":4.9,"mosquito_risk":7,"arthritis_risk":5,"migraine_risk":7,"frizz_risk":1,"updated_at":"2026-05-22T05:36:08.722988+05:30"},{"city":"Cuttack","state":"Odisha","latitude":20.4625,"longitude":85.8828,"temp":29.5,"humidity":97,"rain":0.0,"pressure":1000.3,"uv_index":9.2,"wind_gusts":33.5,"aqi":153,"pm10":28.3,"pm2_5":21.8,"no2":7.5,"co":304.0,"o3":73.0,"so2":4.9,"mosquito_risk":7,"arthritis_risk":5,"migraine_risk":4,"frizz_risk":1,"updated_at":"2026-05-22T05:36:08.722996+05:30"},{"city":"Rourkela","state":"Odisha","latitude":22.2604,"longitude":84.8536,"temp":29.0,"humidity":63,"rain":0.0,"pressure":981.6,"uv_index":9.0,"wind_gusts":34.6,"aqi":162,"pm10":188.6,"pm2_5":106.2,"no2":49.3,"co":811.0,"o3":21.0,"so2":23.0,"mosquito_risk":7,"arthritis_risk":5,"migraine_risk":7,"frizz_risk":1,"updated_at":"2026-05-22T05:36:08.723002+05:30"},{"city":"Raipur","state":"Chhattisgarh","latitude":21.2514,"longitude":81.6296,"temp":31.0,"humidity":45,"rain":0.0,"pressure":970.4,"uv_index":8.95,"wind_gusts":38.5,"aqi":154,"pm10":95.5,"pm2_5":80.8,"no2":67.4,"co":619.0,"o3":5.0,"so2":58.8,"mosquito_risk":0,"arthritis_risk":5,"migraine_risk":7,"frizz_risk":1,"updated_at":"2026-05-22T05:36:08.723009+05:30"},{"city":"Bhilai","state":"Chhattisgarh","latitude":21.1938,"longitude":81.3509,"temp":30.5,"humidity":39,"rain":0.0,"pressure":970.9,"uv_index":9.0,"wind_gusts":36.4,"aqi":120,"pm10":37.3,"pm2_5":33.6,"no2":45.2,"co":531.0,"o3":34.0,"so2":51.6,"mosquito_risk":0,"arthritis_risk":5,"migraine_risk":7,"frizz_risk":0,"updated_at":"2026-05-22T05:36:08.723016+05:30"},{"city":"Guwahati","state":"Assam","latitude":26.1158,"longitude":91.7086,"temp":26.0,"humidity":97,"rain":0.0,"pressure":999.9,"uv_index":8.75,"wind_gusts":26.6,"aqi":105,"pm10":16.9,"pm2_5":15.4,"no2":10.2,"co":422.0,"o3":45.0,"so2":2.3,"mosquito_risk":7,"arthritis_risk":5,"migraine_risk":7,"frizz_risk":1,"updated_at":"2026-05-22T05:36:08.723022+05:30"},{"city":"Agartala","state":"Tripura","latitude":23.8315,"longitude":91.2868,"temp":26.5,"humidity":95,"rain":0.0,"pressure":1004.3,"uv_index":8.4,"wind_gusts":33.5,"aqi":88,"pm10":41.3,"pm2_5":25.0,"no2":13.6,"co":238.0,"o3":42.0,"so2":3.5,"mosquito_risk":7,"arthritis_risk":5,"migraine_risk":4,"frizz_risk":1,"updated_at":"2026-05-22T05:36:08.723029+05:30"},{"city":"Shillong","state":"Meghalaya","latitude":25.5788,"longitude":91.8933,"temp":18.8,"humidity":93,"rain":0.0,"pressure":856.3,"uv_index":7.1,"wind_gusts":25.9,"aqi":82,"pm10":18.6,"pm2_5":13.6,"no2":4.6,"co":281.0,"o3":84.0,"so2":3.6,"mosquito_risk":3,"arthritis_risk":10,"migraine_risk":7,"frizz_risk":1,"updated_at":"2026-05-22T05:36:08.723035+05:30"},{"city":"Imphal","state":"Manipur","latitude":24.817,"longitude":93.9368,"temp":23.4,"humidity":90,"rain":0.0,"pressure":922.8,"uv_index":8.75,"wind_gusts":34.9,"aqi":117,"pm10":38.9,"pm2_5":34.5,"no2":12.0,"co":432.0,"o3":32.0,"so2":3.0,"mosquito_risk":3,"arthritis_risk":5,"migraine_risk":7,"frizz_risk":1,"updated_at":"2026-05-22T05:36:08.723042+05:30"},{"city":"Aizawl","state":"Mizoram","latitude":23.7271,"longitude":92.7176,"temp":19.9,"humidity":98,"rain":0.0,"pressure":891.3,"uv_index":8.5,"wind_gusts":30.6,"aqi":78,"pm10":27.9,"pm2_5":22.3,"no2":8.3,"co":228.0,"o3":26.0,"so2":1.2,"mosquito_risk":3,"arthritis_risk":10,"migraine_risk":7,"frizz_risk":1,"updated_at":"2026-05-22T05:36:08.723048+05:30"},{"city":"Kohima","state":"Nagaland","latitude":25.6701,"longitude":94.1077,"temp":18.5,"humidity":96,"rain":0.0,"pressure":854.5,"uv_index":8.75,"wind_gusts":26.6,"aqi":104,"pm10":34.9,"pm2_5":28.3,"no2":8.0,"co":242.0,"o3":32.0,"so2":1.0,"mosquito_risk":3,"arthritis_risk":10,"migraine_risk":7,"frizz_risk":1,"updated_at":"2026-05-22T05:36:08.723055+05:30"},{"city":"Gangtok","state":"Sikkim","latitude":27.3314,"longitude":88.6138,"temp":16.7,"humidity":94,"rain":0.2,"pressure":836.7,"uv_index":9.15,"wind_gusts":35.6,"aqi":75,"pm10":13.0,"pm2_5":11.3,"no2":7.4,"co":493.0,"o3":85.0,"so2":1.5,"mosquito_risk":6,"arthritis_risk":10,"migraine_risk":7,"frizz_risk":0,"updated_at":"2026-05-22T05:36:08.723061+05:30"},{"city":"Siliguri","state":"West Bengal","latitude":26.7271,"longitude":88.3953,"temp":26.0,"humidity":86,"rain":0.0,"pressure":991.3,"uv_index":8.4,"wind_gusts":21.2,"aqi":123,"pm10":48.3,"pm2_5":42.0,"no2":16.4,"co":406.0,"o3":87.0,"so2":5.8,"mosquito_risk":7,"arthritis_risk":5,"migraine_risk":7,"frizz_risk":1,"updated_at":"2026-05-22T05:36:18.847063+05:30"},{"city":"Durgapur","state":"West Bengal","latitude":23.5204,"longitude":87.3119,"temp":29.5,"humidity":93,"rain":0.0,"pressure":991.7,"uv_index":9.0,"wind_gusts":30.2,"aqi":159,"pm10":64.3,"pm2_5":55.2,"no2":24.0,"co":374.0,"o3":58.0,"so2":37.0,"mosquito_risk":7,"arthritis_risk":5,"migraine_risk":7,"frizz_risk":1,"updated_at":"2026-05-22T05:36:18.847100+05:30"},{"city":"Asansol","state":"West Bengal","latitude":23.6739,"longitude":86.9524,"temp":28.8,"humidity":97,"rain":0.0,"pressure":990.3,"uv_index":9.05,"wind_gusts":30.6,"aqi":158,"pm10":60.8,"pm2_5":52.2,"no2":23.9,"co":697.0,"o3":62.0,"so2":39.5,"mosquito_risk":7,"arthritis_risk":5,"migraine_risk":7,"frizz_risk":1,"updated_at":"2026-05-22T05:36:18.847111+05:30"},{"city":"Pondicherry","state":"Puducherry","latitude":11.9139,"longitude":79.8145,"temp":28.2,"humidity":76,"rain":0.0,"pressure":1005.0,"uv_index":8.95,"wind_gusts":45.4,"aqi":63,"pm10":17.1,"pm2_5":15.0,"no2":17.3,"co":368.0,"o3":38.0,"so2":6.0,"mosquito_risk":7,"arthritis_risk":5,"migraine_risk":4,"frizz_risk":1,"updated_at":"2026-05-22T05:36:18.847120+05:30"},{"city":"Port Blair","state":"Andaman and Nicobar Islands","latitude":11.6234,"longitude":92.7265,"temp":26.1,"humidity":94,"rain":0.0,"pressure":1005.9,"uv_index":4.55,"wind_gusts":39.2,"aqi":27,"pm10":6.1,"pm2_5":4.1,"no2":0.4,"co":117.0,"o3":64.0,"so2":0.3,"mosquito_risk":7,"arthritis_risk":5,"migraine_risk":0,"frizz_risk":1,"updated_at":"2026-05-22T05:36:18.847129+05:30"},{"city":"Haridwar","state":"Uttarakhand","latitude":29.9457,"longitude":78.1642,"temp":25.8,"humidity":66,"rain":0.0,"pressure":969.7,"uv_index":7.55,"wind_gusts":33.1,"aqi":151,"pm10":96.9,"pm2_5":58.4,"no2":32.7,"co":318.0,"o3":32.0,"so2":9.9,"mosquito_risk":7,"arthritis_risk":5,"migraine_risk":7,"frizz_risk":1,"updated_at":"2026-05-22T05:36:18.847136+05:30"},{"city":"Rishikesh","state":"Uttarakhand","latitude":30.0869,"longitude":78.2676,"temp":23.2,"humidity":67,"rain":0.0,"pressure":962.3,"uv_index":7.7,"wind_gusts":27.0,"aqi":124,"pm10":102.4,"pm2_5":53.1,"no2":21.3,"co":288.0,"o3":55.0,"so2":8.0,"mosquito_risk":3,"arthritis_risk":5,"migraine_risk":7,"frizz_risk":1,"updated_at":"2026-05-22T05:36:18.847143+05:30"},{"city":"Nainital","state":"Uttarakhand","latitude":29.3919,"longitude":79.4542,"temp":16.4,"humidity":61,"rain":0.0,"pressure":804.4,"uv_index":8.55,"wind_gusts":45.4,"aqi":155,"pm10":211.9,"pm2_5":80.3,"no2":24.2,"co":268.0,"o3":70.0,"so2":8.7,"mosquito_risk":3,"arthritis_risk":5,"migraine_risk":7,"frizz_risk":0,"updated_at":"2026-05-22T05:36:18.847151+05:30"},{"city":"Mussoorie","state":"Uttarakhand","latitude":30.4599,"longitude":78.0664,"temp":17.7,"humidity":48,"rain":0.0,"pressure":802.2,"uv_index":8.1,"wind_gusts":51.1,"aqi":114,"pm10":65.7,"pm2_5":39.8,"no2":35.4,"co":234.0,"o3":13.0,"so2":4.9,"mosquito_risk":0,"arthritis_risk":5,"migraine_risk":7,"frizz_risk":0,"updated_at":"2026-05-22T05:36:18.847159+05:30"},{"city":"Dharamshala","state":"Himachal Pradesh","latitude":32.219,"longitude":76.3234,"temp":22.4,"humidity":39,"rain":0.0,"pressure":867.7,"uv_index":7.95,"wind_gusts":52.6,"aqi":52,"pm10":15.4,"pm2_5":7.3,"no2":8.2,"co":165.0,"o3":58.0,"so2":0.3,"mosquito_risk":0,"arthritis_risk":5,"migraine_risk":7,"frizz_risk":0,"updated_at":"2026-05-22T05:36:18.847167+05:30"},{"city":"Dalhousie","state":"Himachal Pradesh","latitude":32.5387,"longitude":75.971,"temp":13.1,"humidity":77,"rain":0.0,"pressure":803.4,"uv_index":6.5,"wind_gusts":62.3,"aqi":71,"pm10":22.9,"pm2_5":14.0,"no2":15.1,"co":216.0,"o3":44.0,"so2":0.5,"mosquito_risk":3,"arthritis_risk":5,"migraine_risk":7,"frizz_risk":0,"updated_at":"2026-05-22T05:36:18.847175+05:30"},{"city":"Patiala","state":"Punjab","latitude":30.3398,"longitude":76.3869,"temp":29.9,"humidity":38,"rain":0.0,"pressure":973.9,"uv_index":7.7,"wind_gusts":54.0,"aqi":168,"pm10":295.2,"pm2_5":68.7,"no2":12.8,"co":561.0,"o3":47.0,"so2":6.7,"mosquito_risk":4,"arthritis_risk":5,"migraine_risk":7,"frizz_risk":0,"updated_at":"2026-05-22T05:36:18.847182+05:30"},{"city":"Bhatinda","state":"Punjab","latitude":30.211,"longitude":74.9455,"temp":29.6,"humidity":40,"rain":0.0,"pressure":980.8,"uv_index":8.3,"wind_gusts":40.3,"aqi":96,"pm10":78.9,"pm2_5":30.7,"no2":10.4,"co":255.0,"o3":67.0,"so2":6.4,"mosquito_risk":4,"arthritis_risk":5,"migraine_risk":7,"frizz_risk":0,"updated_at":"2026-05-22T05:36:18.847189+05:30"},{"city":"Rohtak","state":"Haryana","latitude":28.8955,"longitude":76.6066,"temp":29.2,"humidity":29,"rain":0.0,"pressure":977.8,"uv_index":7.8,"wind_gusts":30.2,"aqi":994,"pm10":748.8,"pm2_5":131.3,"no2":13.3,"co":178.0,"o3":55.0,"so2":3.8,"mosquito_risk":4,"arthritis_risk":5,"migraine_risk":7,"frizz_risk":0,"updated_at":"2026-05-22T05:36:18.847195+05:30"},{"city":"Panipat","state":"Haryana","latitude":29.3909,"longitude":76.9635,"temp":30.5,"humidity":27,"rain":0.0,"pressure":976.1,"uv_index":7.65,"wind_gusts":43.9,"aqi":1991,"pm10":1739.7,"pm2_5":283.1,"no2":13.3,"co":222.0,"o3":54.0,"so2":4.4,"mosquito_risk":0,"arthritis_risk":5,"migraine_risk":7,"frizz_risk":0,"updated_at":"2026-05-22T05:36:18.847203+05:30"},{"city":"Mathura","state":"Uttar Pradesh","latitude":27.4924,"longitude":77.6737,"temp":30.7,"humidity":26,"rain":0.0,"pressure":983.2,"uv_index":8.0,"wind_gusts":32.4,"aqi":898,"pm10":983.5,"pm2_5":128.5,"no2":8.5,"co":178.0,"o3":63.0,"so2":4.1,"mosquito_risk":0,"arthritis_risk":5,"migraine_risk":7,"frizz_risk":0,"updated_at":"2026-05-22T05:36:18.847210+05:30"},{"city":"Vrindavan","state":"Uttar Pradesh","latitude":27.5823,"longitude":77.7027,"temp":30.4,"humidity":27,"rain":0.0,"pressure":983.6,"uv_index":8.0,"wind_gusts":32.0,"aqi":898,"pm10":983.5,"pm2_5":128.5,"no2":8.5,"co":179.0,"o3":63.0,"so2":4.1,"mosquito_risk":0,"arthritis_risk":5,"migraine_risk":7,"frizz_risk":0,"updated_at":"2026-05-22T05:36:18.847217+05:30"},{"city":"Ayodhya","state":"Uttar Pradesh","latitude":26.7922,"longitude":82.1998,"temp":28.8,"humidity":82,"rain":0.0,"pressure":992.2,"uv_index":8.4,"wind_gusts":29.5,"aqi":156,"pm10":62.9,"pm2_5":56.8,"no2":12.3,"co":495.0,"o3":87.0,"so2":11.2,"mosquito_risk":7,"arthritis_risk":5,"migraine_risk":7,"frizz_risk":1,"updated_at":"2026-05-22T05:36:18.847224+05:30"},{"city":"Ratlam","state":"Madhya Pradesh","latitude":23.3315,"longitude":75.0367,"temp":27.7,"humidity":47,"rain":0.0,"pressure":954.1,"uv_index":8.6,"wind_gusts":38.9,"aqi":68,"pm10":38.3,"pm2_5":23.9,"no2":10.3,"co":212.0,"o3":52.0,"so2":21.6,"mosquito_risk":4,"arthritis_risk":5,"migraine_risk":7,"frizz_risk":0,"updated_at":"2026-05-22T05:36:18.847231+05:30"},{"city":"Sagar","state":"Madhya Pradesh","latitude":23.8388,"longitude":78.7378,"temp":29.0,"humidity":20,"rain":0.0,"pressure":948.3,"uv_index":8.75,"wind_gusts":39.6,"aqi":51,"pm10":12.1,"pm2_5":7.8,"no2":7.9,"co":177.0,"o3":67.0,"so2":4.2,"mosquito_risk":4,"arthritis_risk":5,"migraine_risk":7,"frizz_risk":0,"updated_at":"2026-05-22T05:36:18.847238+05:30"},{"city":"Satna","state":"Madhya Pradesh","latitude":24.6005,"longitude":80.8322,"temp":30.2,"humidity":25,"rain":0.0,"pressure":968.1,"uv_index":8.8,"wind_gusts":38.9,"aqi":60,"pm10":15.1,"pm2_5":9.1,"no2":11.6,"co":164.0,"o3":69.0,"so2":4.8,"mosquito_risk":0,"arthritis_risk":5,"migraine_risk":7,"frizz_risk":0,"updated_at":"2026-05-22T05:36:18.847245+05:30"},{"city":"Akola","state":"Maharashtra","latitude":20.7002,"longitude":77.0082,"temp":32.8,"humidity":33,"rain":0.0,"pressure":972.8,"uv_index":8.9,"wind_gusts":47.2,"aqi":76,"pm10":30.9,"pm2_5":18.1,"no2":6.2,"co":220.0,"o3":78.0,"so2":5.8,"mosquito_risk":0,"arthritis_risk":5,"migraine_risk":7,"frizz_risk":0,"updated_at":"2026-05-22T05:36:18.847252+05:30"},{"city":"Amravati","state":"Maharashtra","latitude":20.9374,"longitude":77.7796,"temp":33.2,"humidity":30,"rain":0.0,"pressure":964.8,"uv_index":8.9,"wind_gusts":42.1,"aqi":75,"pm10":30.5,"pm2_5":17.9,"no2":6.3,"co":182.0,"o3":77.0,"so2":5.0,"mosquito_risk":0,"arthritis_risk":5,"migraine_risk":7,"frizz_risk":0,"updated_at":"2026-05-22T05:36:18.847260+05:30"},{"city":"Latur","state":"Maharashtra","latitude":18.4088,"longitude":76.5604,"temp":29.5,"humidity":59,"rain":0.0,"pressure":938.7,"uv_index":8.9,"wind_gusts":42.8,"aqi":76,"pm10":22.2,"pm2_5":18.3,"no2":7.3,"co":217.0,"o3":84.0,"so2":14.0,"mosquito_risk":4,"arthritis_risk":5,"migraine_risk":7,"frizz_risk":1,"updated_at":"2026-05-22T05:36:18.847267+05:30"},{"city":"Nanded","state":"Maharashtra","latitude":19.1383,"longitude":77.3091,"temp":33.1,"humidity":38,"rain":0.0,"pressure":966.2,"uv_index":8.95,"wind_gusts":39.6,"aqi":83,"pm10":30.3,"pm2_5":24.1,"no2":11.9,"co":192.0,"o3":60.0,"so2":7.4,"mosquito_risk":0,"arthritis_risk":5,"migraine_risk":7,"frizz_risk":1,"updated_at":"2026-05-22T05:36:18.847275+05:30"},{"city":"Gulbarga","state":"Karnataka","latitude":17.3297,"longitude":76.8343,"temp":28.3,"humidity":68,"rain":0.0,"pressure":957.7,"uv_index":8.8,"wind_gusts":62.6,"aqi":71,"pm10":10.7,"pm2_5":8.8,"no2":7.1,"co":175.0,"o3":53.0,"so2":3.3,"mosquito_risk":7,"arthritis_risk":5,"migraine_risk":7,"frizz_risk":1,"updated_at":"2026-05-22T05:36:18.847281+05:30"},{"city":"Bidar","state":"Karnataka","latitude":17.9104,"longitude":77.5199,"temp":28.5,"humidity":64,"rain":0.0,"pressure":933.9,"uv_index":9.0,"wind_gusts":42.8,"aqi":86,"pm10":16.4,"pm2_5":13.9,"no2":7.0,"co":198.0,"o3":67.0,"so2":3.2,"mosquito_risk":7,"arthritis_risk":5,"migraine_risk":7,"frizz_risk":1,"updated_at":"2026-05-22T05:36:18.847287+05:30"},{"city":"Hospet","state":"Karnataka","latitude":15.2689,"longitude":76.3909,"temp":24.8,"humidity":86,"rain":0.0,"pressure":954.8,"uv_index":8.65,"wind_gusts":43.9,"aqi":35,"pm10":4.9,"pm2_5":4.3,"no2":5.8,"co":154.0,"o3":43.0,"so2":1.5,"mosquito_risk":3,"arthritis_risk":5,"migraine_risk":7,"frizz_risk":1,"updated_at":"2026-05-22T05:36:18.847294+05:30"},{"city":"Tirupur","state":"Tamil Nadu","latitude":11.1085,"longitude":77.3411,"temp":26.2,"humidity":81,"rain":0.0,"pressure":974.0,"uv_index":8.8,"wind_gusts":61.9,"aqi":39,"pm10":13.3,"pm2_5":11.7,"no2":15.4,"co":173.0,"o3":28.0,"so2":4.1,"mosquito_risk":7,"arthritis_risk":5,"migraine_risk":7,"frizz_risk":1,"updated_at":"2026-05-22T05:36:18.847300+05:30"},{"city":"Alappuzha","state":"Kerala","latitude":9.4981,"longitude":76.3388,"temp":25.1,"humidity":98,"rain":0.2,"pressure":1008.8,"uv_index":8.5,"wind_gusts":36.0,"aqi":41,"pm10":10.0,"pm2_5":7.7,"no2":7.3,"co":98.0,"o3":40.0,"so2":1.8,"mosquito_risk":10,"arthritis_risk":0,"migraine_risk":4,"frizz_risk":1,"updated_at":"2026-05-22T05:36:18.847307+05:30"},{"city":"Munnar","state":"Kerala","latitude":10.0889,"longitude":77.0595,"temp":17.1,"humidity":99,"rain":0.0,"pressure":856.2,"uv_index":5.85,"wind_gusts":31.7,"aqi":23,"pm10":6.7,"pm2_5":5.8,"no2":7.8,"co":129.0,"o3":24.0,"so2":1.4,"mosquito_risk":3,"arthritis_risk":10,"migraine_risk":3,"frizz_risk":1,"updated_at":"2026-05-22T05:36:18.847314+05:30"},{"city":"Silchar","state":"Assam","latitude":24.8333,"longitude":92.7789,"temp":26.1,"humidity":96,"rain":0.0,"pressure":1004.3,"uv_index":8.95,"wind_gusts":32.0,"aqi":106,"pm10":43.9,"pm2_5":31.5,"no2":6.8,"co":266.0,"o3":78.0,"so2":4.9,"mosquito_risk":7,"arthritis_risk":5,"migraine_risk":4,"frizz_risk":1,"updated_at":"2026-05-22T05:36:18.847320+05:30"},{"city":"Dibrugarh","state":"Assam","latitude":27.4728,"longitude":94.912,"temp":24.2,"humidity":99,"rain":0.1,"pressure":995.1,"uv_index":8.9,"wind_gusts":22.3,"aqi":90,"pm10":32.8,"pm2_5":27.8,"no2":15.7,"co":504.0,"o3":47.0,"so2":1.4,"mosquito_risk":6,"arthritis_risk":5,"migraine_risk":7,"frizz_risk":1,"updated_at":"2026-05-22T05:36:18.847327+05:30"}]