[{"city":"Delhi","state":"Delhi","latitude":28.6139,"longitude":77.209,"temp":36.5,"humidity":21,"rain":0.0,"pressure":979.0,"uv_index":7.7,"wind_gusts":42.1,"aqi":427,"pm10":836.3,"pm2_5":149.0,"no2":27.9,"co":472.0,"o3":75.0,"so2":13.8,"mosquito_risk":0,"arthritis_risk":5,"migraine_risk":10,"frizz_risk":0,"updated_at":"2026-05-16T20:29:05.730689+05:30"},{"city":"Mumbai","state":"Maharashtra","latitude":19.076,"longitude":72.8777,"temp":29.6,"humidity":76,"rain":0.0,"pressure":1004.3,"uv_index":7.85,"wind_gusts":50.0,"aqi":60,"pm10":42.8,"pm2_5":16.6,"no2":9.5,"co":214.0,"o3":58.0,"so2":5.2,"mosquito_risk":7,"arthritis_risk":5,"migraine_risk":4,"frizz_risk":1,"updated_at":"2026-05-16T20:29:05.730736+05:30"},{"city":"Bangalore","state":"Karnataka","latitude":12.9716,"longitude":77.5946,"temp":25.0,"humidity":75,"rain":0.0,"pressure":909.2,"uv_index":8.8,"wind_gusts":41.0,"aqi":151,"pm10":129.9,"pm2_5":90.3,"no2":75.4,"co":391.0,"o3":51.0,"so2":22.1,"mosquito_risk":7,"arthritis_risk":5,"migraine_risk":7,"frizz_risk":1,"updated_at":"2026-05-16T20:29:05.730751+05:30"},{"city":"Hyderabad","state":"Telangana","latitude":17.385,"longitude":78.4867,"temp":32.9,"humidity":47,"rain":0.0,"pressure":950.9,"uv_index":9.3,"wind_gusts":41.0,"aqi":151,"pm10":58.4,"pm2_5":41.4,"no2":11.9,"co":378.0,"o3":108.0,"so2":6.7,"mosquito_risk":0,"arthritis_risk":5,"migraine_risk":7,"frizz_risk":1,"updated_at":"2026-05-16T20:29:05.730760+05:30"},{"city":"Chennai","state":"Tamil Nadu","latitude":13.0827,"longitude":80.2707,"temp":29.8,"humidity":78,"rain":0.0,"pressure":1003.7,"uv_index":8.85,"wind_gusts":33.5,"aqi":42,"pm10":11.4,"pm2_5":7.9,"no2":7.9,"co":219.0,"o3":83.0,"so2":8.3,"mosquito_risk":7,"arthritis_risk":5,"migraine_risk":4,"frizz_risk":1,"updated_at":"2026-05-16T20:29:05.730769+05:30"},{"city":"Kolkata","state":"West Bengal","latitude":22.5726,"longitude":88.3639,"temp":28.2,"humidity":91,"rain":0.0,"pressure":1002.6,"uv_index":9.0,"wind_gusts":33.5,"aqi":60,"pm10":22.6,"pm2_5":14.9,"no2":6.9,"co":275.0,"o3":47.0,"so2":5.3,"mosquito_risk":7,"arthritis_risk":5,"migraine_risk":4,"frizz_risk":1,"updated_at":"2026-05-16T20:29:05.730777+05:30"},{"city":"Pune","state":"Maharashtra","latitude":18.5204,"longitude":73.8567,"temp":30.4,"humidity":63,"rain":0.0,"pressure":945.0,"uv_index":8.5,"wind_gusts":40.3,"aqi":106,"pm10":30.5,"pm2_5":21.0,"no2":7.7,"co":231.0,"o3":127.0,"so2":12.5,"mosquito_risk":3,"arthritis_risk":5,"migraine_risk":7,"frizz_risk":1,"updated_at":"2026-05-16T20:29:05.730784+05:30"},{"city":"Ahmedabad","state":"Gujarat","latitude":23.0225,"longitude":72.5714,"temp":38.3,"humidity":21,"rain":0.0,"pressure":997.1,"uv_index":8.15,"wind_gusts":32.4,"aqi":58,"pm10":44.4,"pm2_5":18.2,"no2":9.8,"co":255.0,"o3":76.0,"so2":4.0,"mosquito_risk":0,"arthritis_risk":5,"migraine_risk":10,"frizz_risk":0,"updated_at":"2026-05-16T20:29:05.730792+05:30"},{"city":"Jaipur","state":"Rajasthan","latitude":26.9124,"longitude":75.7873,"temp":35.2,"humidity":22,"rain":0.0,"pressure":956.5,"uv_index":8.25,"wind_gusts":35.6,"aqi":165,"pm10":154.6,"pm2_5":41.2,"no2":22.4,"co":383.0,"o3":80.0,"so2":8.1,"mosquito_risk":0,"arthritis_risk":5,"migraine_risk":10,"frizz_risk":0,"updated_at":"2026-05-16T20:29:05.730803+05:30"},{"city":"Lucknow","state":"Uttar Pradesh","latitude":26.8467,"longitude":80.9462,"temp":34.4,"humidity":32,"rain":0.0,"pressure":988.4,"uv_index":8.2,"wind_gusts":35.6,"aqi":154,"pm10":176.5,"pm2_5":60.1,"no2":19.1,"co":306.0,"o3":86.0,"so2":11.2,"mosquito_risk":0,"arthritis_risk":5,"migraine_risk":7,"frizz_risk":0,"updated_at":"2026-05-16T20:29:05.730810+05:30"},{"city":"Kanpur","state":"Uttar Pradesh","latitude":26.4499,"longitude":80.3319,"temp":35.4,"humidity":29,"rain":0.0,"pressure":986.8,"uv_index":8.2,"wind_gusts":36.0,"aqi":152,"pm10":293.4,"pm2_5":68.9,"no2":14.2,"co":315.0,"o3":89.0,"so2":9.4,"mosquito_risk":0,"arthritis_risk":5,"migraine_risk":10,"frizz_risk":0,"updated_at":"2026-05-16T20:29:05.730817+05:30"},{"city":"Chandigarh","state":"Chandigarh","latitude":30.7333,"longitude":76.7794,"temp":29.8,"humidity":36,"rain":0.0,"pressure":964.6,"uv_index":7.7,"wind_gusts":36.7,"aqi":139,"pm10":41.3,"pm2_5":25.6,"no2":12.9,"co":528.0,"o3":121.0,"so2":9.5,"mosquito_risk":4,"arthritis_risk":5,"migraine_risk":7,"frizz_risk":0,"updated_at":"2026-05-16T20:29:05.730825+05:30"},{"city":"Srinagar","state":"Jammu and Kashmir","latitude":34.0837,"longitude":74.7973,"temp":17.5,"humidity":75,"rain":0.0,"pressure":842.2,"uv_index":8.9,"wind_gusts":27.4,"aqi":95,"pm10":19.6,"pm2_5":14.9,"no2":15.2,"co":1056.0,"o3":87.0,"so2":3.2,"mosquito_risk":3,"arthritis_risk":5,"migraine_risk":7,"frizz_risk":0,"updated_at":"2026-05-16T20:29:05.730833+05:30"},{"city":"Jammu","state":"Jammu and Kashmir","latitude":32.7266,"longitude":74.857,"temp":30.1,"humidity":43,"rain":0.0,"pressure":968.9,"uv_index":8.45,"wind_gusts":28.4,"aqi":120,"pm10":36.3,"pm2_5":25.4,"no2":27.8,"co":508.0,"o3":98.0,"so2":5.1,"mosquito_risk":0,"arthritis_risk":5,"migraine_risk":7,"frizz_risk":1,"updated_at":"2026-05-16T20:29:05.730840+05:30"},{"city":"Amritsar","state":"Punjab","latitude":31.634,"longitude":74.8723,"temp":30.4,"humidity":45,"rain":0.0,"pressure":976.8,"uv_index":8.35,"wind_gusts":28.4,"aqi":154,"pm10":59.5,"pm2_5":34.1,"no2":25.2,"co":589.0,"o3":102.0,"so2":9.3,"mosquito_risk":0,"arthritis_risk":5,"migraine_risk":7,"frizz_risk":1,"updated_at":"2026-05-16T20:29:05.730846+05:30"},{"city":"Ludhiana","state":"Punjab","latitude":30.901,"longitude":75.8573,"temp":31.9,"humidity":33,"rain":0.0,"pressure":974.8,"uv_index":7.95,"wind_gusts":42.8,"aqi":120,"pm10":66.6,"pm2_5":32.5,"no2":12.5,"co":351.0,"o3":111.0,"so2":6.5,"mosquito_risk":0,"arthritis_risk":5,"migraine_risk":7,"frizz_risk":0,"updated_at":"2026-05-16T20:29:05.730852+05:30"},{"city":"Jalandhar","state":"Punjab","latitude":31.326,"longitude":75.5762,"temp":30.5,"humidity":46,"rain":0.0,"pressure":975.6,"uv_index":8.15,"wind_gusts":36.4,"aqi":138,"pm10":60.8,"pm2_5":33.3,"no2":14.6,"co":507.0,"o3":116.0,"so2":7.4,"mosquito_risk":0,"arthritis_risk":5,"migraine_risk":7,"frizz_risk":1,"updated_at":"2026-05-16T20:29:05.730859+05:30"},{"city":"Dehradun","state":"Uttarakhand","latitude":30.6284,"longitude":78.0322,"temp":16.9,"humidity":66,"rain":0.0,"pressure":826.9,"uv_index":8.1,"wind_gusts":37.4,"aqi":86,"pm10":46.0,"pm2_5":22.6,"no2":22.5,"co":198.0,"o3":89.0,"so2":3.2,"mosquito_risk":3,"arthritis_risk":5,"migraine_risk":7,"frizz_risk":0,"updated_at":"2026-05-16T20:29:05.730865+05:30"},{"city":"Shimla","state":"Himachal Pradesh","latitude":31.1048,"longitude":77.1734,"temp":14.7,"humidity":55,"rain":0.0,"pressure":782.3,"uv_index":8.2,"wind_gusts":45.0,"aqi":93,"pm10":48.9,"pm2_5":20.2,"no2":8.2,"co":219.0,"o3":120.0,"so2":3.4,"mosquito_risk":0,"arthritis_risk":5,"migraine_risk":7,"frizz_risk":0,"updated_at":"2026-05-16T20:29:05.730873+05:30"},{"city":"Manali","state":"Himachal Pradesh","latitude":32.2396,"longitude":77.1887,"temp":11.3,"humidity":77,"rain":0.1,"pressure":814.9,"uv_index":9.9,"wind_gusts":38.2,"aqi":129,"pm10":22.2,"pm2_5":13.8,"no2":34.2,"co":237.0,"o3":116.0,"so2":0.4,"mosquito_risk":6,"arthritis_risk":5,"migraine_risk":7,"frizz_risk":0,"updated_at":"2026-05-16T20:29:05.730892+05:30"},{"city":"Gurgaon","state":"Haryana","latitude":28.4595,"longitude":77.0266,"temp":32.9,"humidity":30,"rain":0.0,"pressure":977.5,"uv_index":7.8,"wind_gusts":41.0,"aqi":669,"pm10":812.1,"pm2_5":149.5,"no2":35.5,"co":483.0,"o3":71.0,"so2":14.4,"mosquito_risk":0,"arthritis_risk":5,"migraine_risk":7,"frizz_risk":0,"updated_at":"2026-05-16T20:29:05.730898+05:30"},{"city":"Noida","state":"Uttar Pradesh","latitude":28.5355,"longitude":77.391,"temp":34.5,"humidity":25,"rain":0.0,"pressure":980.1,"uv_index":7.7,"wind_gusts":31.3,"aqi":669,"pm10":812.1,"pm2_5":149.5,"no2":35.5,"co":826.0,"o3":71.0,"so2":14.4,"mosquito_risk":0,"arthritis_risk":5,"migraine_risk":7,"frizz_risk":0,"updated_at":"2026-05-16T20:29:05.730904+05:30"},{"city":"Ghaziabad","state":"Uttar Pradesh","latitude":28.6692,"longitude":77.4538,"temp":31.9,"humidity":33,"rain":0.0,"pressure":978.3,"uv_index":7.7,"wind_gusts":38.9,"aqi":200,"pm10":547.6,"pm2_5":113.6,"no2":23.3,"co":308.0,"o3":81.0,"so2":14.5,"mosquito_risk":0,"arthritis_risk":5,"migraine_risk":7,"frizz_risk":0,"updated_at":"2026-05-16T20:29:05.730910+05:30"},{"city":"Faridabad","state":"Haryana","latitude":28.4089,"longitude":77.3178,"temp":36.0,"humidity":20,"rain":0.0,"pressure":979.6,"uv_index":7.75,"wind_gusts":41.0,"aqi":669,"pm10":812.1,"pm2_5":149.5,"no2":35.5,"co":624.0,"o3":71.0,"so2":14.4,"mosquito_risk":0,"arthritis_risk":5,"migraine_risk":10,"frizz_risk":0,"updated_at":"2026-05-16T20:29:05.730916+05:30"},{"city":"Meerut","state":"Uttar Pradesh","latitude":28.9845,"longitude":77.7064,"temp":31.9,"humidity":39,"rain":0.0,"pressure":977.0,"uv_index":7.6,"wind_gusts":41.4,"aqi":200,"pm10":547.6,"pm2_5":113.6,"no2":23.3,"co":440.0,"o3":81.0,"so2":14.5,"mosquito_risk":0,"arthritis_risk":5,"migraine_risk":7,"frizz_risk":1,"updated_at":"2026-05-16T20:29:05.730922+05:30"},{"city":"Agra","state":"Uttar Pradesh","latitude":27.1767,"longitude":78.0081,"temp":34.5,"humidity":29,"rain":0.0,"pressure":983.2,"uv_index":8.05,"wind_gusts":32.4,"aqi":447,"pm10":640.7,"pm2_5":111.1,"no2":18.4,"co":321.0,"o3":92.0,"so2":10.4,"mosquito_risk":0,"arthritis_risk":5,"migraine_risk":7,"frizz_risk":0,"updated_at":"2026-05-16T20:29:05.730927+05:30"},{"city":"Varanasi","state":"Uttar Pradesh","latitude":25.3176,"longitude":82.9739,"temp":36.1,"humidity":25,"rain":0.0,"pressure":992.5,"uv_index":8.7,"wind_gusts":40.3,"aqi":156,"pm10":163.4,"pm2_5":66.4,"no2":29.4,"co":398.0,"o3":98.0,"so2":18.0,"mosquito_risk":0,"arthritis_risk":5,"migraine_risk":10,"frizz_risk":0,"updated_at":"2026-05-16T20:29:05.730933+05:30"},{"city":"Prayagraj","state":"Uttar Pradesh","latitude":25.4358,"longitude":81.8463,"temp":35.0,"humidity":27,"rain":0.0,"pressure":990.8,"uv_index":8.6,"wind_gusts":38.5,"aqi":154,"pm10":124.3,"pm2_5":53.1,"no2":23.1,"co":412.0,"o3":84.0,"so2":14.1,"mosquito_risk":0,"arthritis_risk":5,"migraine_risk":7,"frizz_risk":0,"updated_at":"2026-05-16T20:29:05.730939+05:30"},{"city":"Gorakhpur","state":"Uttar Pradesh","latitude":26.7606,"longitude":83.3732,"temp":31.0,"humidity":51,"rain":0.0,"pressure":991.8,"uv_index":8.6,"wind_gusts":31.3,"aqi":154,"pm10":96.9,"pm2_5":47.0,"no2":17.0,"co":398.0,"o3":109.0,"so2":13.6,"mosquito_risk":0,"arthritis_risk":5,"migraine_risk":7,"frizz_risk":1,"updated_at":"2026-05-16T20:29:05.730946+05:30"},{"city":"Bareilly","state":"Uttar Pradesh","latitude":28.367,"longitude":79.4304,"temp":29.1,"humidity":50,"rain":0.0,"pressure":981.6,"uv_index":8.0,"wind_gusts":29.2,"aqi":150,"pm10":59.8,"pm2_5":47.6,"no2":13.4,"co":329.0,"o3":121.0,"so2":12.8,"mosquito_risk":4,"arthritis_risk":5,"migraine_risk":7,"frizz_risk":1,"updated_at":"2026-05-16T20:29:05.730952+05:30"},{"city":"Aligarh","state":"Uttar Pradesh","latitude":27.8974,"longitude":78.088,"temp":32.0,"humidity":36,"rain":0.0,"pressure":981.0,"uv_index":7.85,"wind_gusts":35.6,"aqi":274,"pm10":663.1,"pm2_5":132.7,"no2":24.3,"co":501.0,"o3":97.0,"so2":13.7,"mosquito_risk":0,"arthritis_risk":5,"migraine_risk":7,"frizz_risk":0,"updated_at":"2026-05-16T20:29:05.730958+05:30"},{"city":"Moradabad","state":"Uttar Pradesh","latitude":28.8386,"longitude":78.7733,"temp":31.7,"humidity":38,"rain":0.0,"pressure":978.8,"uv_index":7.85,"wind_gusts":46.8,"aqi":155,"pm10":131.3,"pm2_5":61.9,"no2":22.9,"co":422.0,"o3":87.0,"so2":11.1,"mosquito_risk":0,"arthritis_risk":5,"migraine_risk":7,"frizz_risk":0,"updated_at":"2026-05-16T20:29:05.730963+05:30"},{"city":"Saharanpur","state":"Uttar Pradesh","latitude":29.9637,"longitude":77.546,"temp":30.0,"humidity":39,"rain":0.0,"pressure":970.9,"uv_index":7.4,"wind_gusts":40.7,"aqi":143,"pm10":98.3,"pm2_5":38.2,"no2":11.6,"co":317.0,"o3":110.0,"so2":9.6,"mosquito_risk":4,"arthritis_risk":5,"migraine_risk":7,"frizz_risk":0,"updated_at":"2026-05-16T20:29:05.730969+05:30"},{"city":"Jhansi","state":"Uttar Pradesh","latitude":25.4484,"longitude":78.5685,"temp":36.0,"humidity":23,"rain":0.0,"pressure":973.2,"uv_index":8.5,"wind_gusts":23.0,"aqi":98,"pm10":64.0,"pm2_5":27.8,"no2":7.1,"co":318.0,"o3":101.0,"so2":7.6,"mosquito_risk":0,"arthritis_risk":5,"migraine_risk":10,"frizz_risk":0,"updated_at":"2026-05-16T20:29:09.010480+05:30"},{"city":"Surat","state":"Gujarat","latitude":21.1702,"longitude":72.8311,"temp":31.1,"humidity":74,"rain":0.0,"pressure":1002.1,"uv_index":7.75,"wind_gusts":36.7,"aqi":82,"pm10":47.5,"pm2_5":29.9,"no2":31.8,"co":390.0,"o3":51.0,"so2":57.3,"mosquito_risk":3,"arthritis_risk":5,"migraine_risk":4,"frizz_risk":1,"updated_at":"2026-05-16T20:29:09.010516+05:30"},{"city":"Vadodara","state":"Gujarat","latitude":22.3072,"longitude":73.1812,"temp":37.3,"humidity":20,"rain":0.0,"pressure":999.1,"uv_index":8.1,"wind_gusts":31.7,"aqi":89,"pm10":53.7,"pm2_5":25.8,"no2":15.8,"co":232.0,"o3":99.0,"so2":11.1,"mosquito_risk":0,"arthritis_risk":5,"migraine_risk":10,"frizz_risk":0,"updated_at":"2026-05-16T20:29:09.010525+05:30"},{"city":"Rajkot","state":"Gujarat","latitude":22.3039,"longitude":70.8022,"temp":33.6,"humidity":44,"rain":0.0,"pressure":990.5,"uv_index":7.75,"wind_gusts":38.5,"aqi":52,"pm10":37.0,"pm2_5":16.2,"no2":4.6,"co":145.0,"o3":81.0,"so2":5.4,"mosquito_risk":0,"arthritis_risk":5,"migraine_risk":7,"frizz_risk":1,"updated_at":"2026-05-16T20:29:09.010533+05:30"},{"city":"Thane","state":"Maharashtra","latitude":19.2183,"longitude":72.9781,"temp":29.9,"humidity":74,"rain":0.0,"pressure":1003.7,"uv_index":7.9,"wind_gusts":44.3,"aqi":60,"pm10":42.8,"pm2_5":16.6,"no2":9.5,"co":183.0,"o3":58.0,"so2":5.2,"mosquito_risk":7,"arthritis_risk":5,"migraine_risk":4,"frizz_risk":1,"updated_at":"2026-05-16T20:29:09.010542+05:30"},{"city":"Nagpur","state":"Maharashtra","latitude":21.1458,"longitude":79.0882,"temp":37.8,"humidity":25,"rain":0.0,"pressure":968.5,"uv_index":8.95,"wind_gusts":38.2,"aqi":169,"pm10":73.6,"pm2_5":47.5,"no2":38.3,"co":251.0,"o3":103.0,"so2":29.5,"mosquito_risk":0,"arthritis_risk":5,"migraine_risk":10,"frizz_risk":0,"updated_at":"2026-05-16T20:29:09.010550+05:30"},{"city":"Nashik","state":"Maharashtra","latitude":19.9975,"longitude":73.7898,"temp":31.2,"humidity":48,"rain":0.0,"pressure":942.6,"uv_index":8.2,"wind_gusts":37.4,"aqi":58,"pm10":38.2,"pm2_5":20.3,"no2":4.4,"co":195.0,"o3":113.0,"so2":5.8,"mosquito_risk":0,"arthritis_risk":5,"migraine_risk":7,"frizz_risk":1,"updated_at":"2026-05-16T20:29:09.010557+05:30"},{"city":"Aurangabad","state":"Maharashtra","latitude":19.8762,"longitude":75.3433,"temp":35.3,"humidity":26,"rain":0.0,"pressure":941.1,"uv_index":9.1,"wind_gusts":37.1,"aqi":67,"pm10":29.7,"pm2_5":19.0,"no2":7.6,"co":247.0,"o3":97.0,"so2":4.4,"mosquito_risk":0,"arthritis_risk":5,"migraine_risk":10,"frizz_risk":0,"updated_at":"2026-05-16T20:29:09.010565+05:30"},{"city":"Solapur","state":"Maharashtra","latitude":17.6599,"longitude":75.9064,"temp":34.7,"humidity":28,"rain":0.0,"pressure":952.6,"uv_index":8.45,"wind_gusts":36.4,"aqi":123,"pm10":35.6,"pm2_5":26.5,"no2":21.7,"co":354.0,"o3":102.0,"so2":8.4,"mosquito_risk":0,"arthritis_risk":5,"migraine_risk":7,"frizz_risk":0,"updated_at":"2026-05-16T20:29:09.010589+05:30"},{"city":"Kolhapur","state":"Maharashtra","latitude":16.705,"longitude":74.2433,"temp":27.9,"humidity":77,"rain":0.0,"pressure":944.6,"uv_index":8.55,"wind_gusts":42.1,"aqi":123,"pm10":34.6,"pm2_5":24.5,"no2":5.9,"co":174.0,"o3":108.0,"so2":6.7,"mosquito_risk":7,"arthritis_risk":5,"migraine_risk":7,"frizz_risk":1,"updated_at":"2026-05-16T20:29:09.010597+05:30"},{"city":"Goa","state":"Goa","latitude":15.2993,"longitude":74.124,"temp":29.6,"humidity":77,"rain":0.0,"pressure":994.9,"uv_index":8.9,"wind_gusts":36.4,"aqi":65,"pm10":26.4,"pm2_5":15.1,"no2":2.3,"co":150.0,"o3":51.0,"so2":1.0,"mosquito_risk":7,"arthritis_risk":5,"migraine_risk":7,"frizz_risk":1,"updated_at":"2026-05-16T20:29:09.010604+05:30"},{"city":"Jodhpur","state":"Rajasthan","latitude":26.2389,"longitude":73.0243,"temp":37.2,"humidity":20,"rain":0.0,"pressure":979.0,"uv_index":8.4,"wind_gusts":31.0,"aqi":119,"pm10":115.3,"pm2_5":28.3,"no2":8.9,"co":238.0,"o3":82.0,"so2":3.1,"mosquito_risk":0,"arthritis_risk":5,"migraine_risk":10,"frizz_risk":0,"updated_at":"2026-05-16T20:29:09.010612+05:30"},{"city":"Udaipur","state":"Rajasthan","latitude":24.5854,"longitude":73.7125,"temp":33.5,"humidity":29,"rain":0.0,"pressure":943.6,"uv_index":8.85,"wind_gusts":31.3,"aqi":52,"pm10":35.6,"pm2_5":14.8,"no2":3.5,"co":165.0,"o3":85.0,"so2":2.8,"mosquito_risk":0,"arthritis_risk":5,"migraine_risk":7,"frizz_risk":0,"updated_at":"2026-05-16T20:29:09.010619+05:30"},{"city":"Kota","state":"Rajasthan","latitude":25.2138,"longitude":75.8648,"temp":37.5,"humidity":17,"rain":0.0,"pressure":973.9,"uv_index":8.45,"wind_gusts":29.5,"aqi":80,"pm10":92.7,"pm2_5":33.6,"no2":12.9,"co":200.0,"o3":93.0,"so2":6.1,"mosquito_risk":0,"arthritis_risk":5,"migraine_risk":10,"frizz_risk":0,"updated_at":"2026-05-16T20:29:09.010627+05:30"},{"city":"Bikaner","state":"Rajasthan","latitude":28.0229,"longitude":73.3119,"temp":36.2,"humidity":19,"rain":0.0,"pressure":977.8,"uv_index":8.4,"wind_gusts":25.9,"aqi":97,"pm10":135.0,"pm2_5":35.6,"no2":6.3,"co":275.0,"o3":85.0,"so2":3.2,"mosquito_risk":0,"arthritis_risk":5,"migraine_risk":10,"frizz_risk":0,"updated_at":"2026-05-16T20:29:09.010634+05:30"},{"city":"Ajmer","state":"Rajasthan","latitude":26.4499,"longitude":74.6399,"temp":33.8,"humidity":25,"rain":0.0,"pressure":951.5,"uv_index":8.4,"wind_gusts":34.2,"aqi":78,"pm10":99.9,"pm2_5":31.3,"no2":14.2,"co":255.0,"o3":87.0,"so2":3.9,"mosquito_risk":0,"arthritis_risk":5,"migraine_risk":7,"frizz_risk":0,"updated_at":"2026-05-16T20:29:09.010642+05:30"},{"city":"Gwalior","state":"Madhya Pradesh","latitude":26.2183,"longitude":78.1828,"temp":36.0,"humidity":22,"rain":0.0,"pressure":978.5,"uv_index":8.25,"wind_gusts":36.7,"aqi":111,"pm10":126.7,"pm2_5":41.1,"no2":12.4,"co":252.0,"o3":96.0,"so2":7.4,"mosquito_risk":0,"arthritis_risk":5,"migraine_risk":10,"frizz_risk":0,"updated_at":"2026-05-16T20:29:09.010649+05:30"},{"city":"Indore","state":"Madhya Pradesh","latitude":22.7196,"longitude":75.8577,"temp":34.6,"humidity":20,"rain":0.0,"pressure":945.0,"uv_index":8.7,"wind_gusts":37.4,"aqi":73,"pm10":22.8,"pm2_5":13.2,"no2":4.5,"co":252.0,"o3":104.0,"so2":3.3,"mosquito_risk":0,"arthritis_risk":5,"migraine_risk":7,"frizz_risk":0,"updated_at":"2026-05-16T20:29:09.010656+05:30"},{"city":"Bhopal","state":"Madhya Pradesh","latitude":23.2599,"longitude":77.4126,"temp":35.9,"humidity":20,"rain":0.0,"pressure":949.9,"uv_index":8.7,"wind_gusts":39.6,"aqi":79,"pm10":31.2,"pm2_5":18.3,"no2":8.0,"co":253.0,"o3":91.0,"so2":4.5,"mosquito_risk":0,"arthritis_risk":5,"migraine_risk":10,"frizz_risk":0,"updated_at":"2026-05-16T20:29:09.010663+05:30"},{"city":"Jabalpur","state":"Madhya Pradesh","latitude":23.1815,"longitude":79.9864,"temp":34.3,"humidity":30,"rain":0.0,"pressure":957.4,"uv_index":8.9,"wind_gusts":37.8,"aqi":112,"pm10":49.9,"pm2_5":28.6,"no2":13.8,"co":293.0,"o3":99.0,"so2":6.1,"mosquito_risk":0,"arthritis_risk":5,"migraine_risk":7,"frizz_risk":0,"updated_at":"2026-05-16T20:29:09.010670+05:30"},{"city":"Ujjain","state":"Madhya Pradesh","latitude":23.1765,"longitude":75.7885,"temp":34.5,"humidity":22,"rain":0.0,"pressure":950.6,"uv_index":8.65,"wind_gusts":38.2,"aqi":64,"pm10":24.4,"pm2_5":13.6,"no2":2.3,"co":220.0,"o3":101.0,"so2":2.6,"mosquito_risk":0,"arthritis_risk":5,"migraine_risk":7,"frizz_risk":0,"updated_at":"2026-05-16T20:29:09.010678+05:30"},{"city":"Visakhapatnam","state":"Andhra Pradesh","latitude":17.6868,"longitude":83.2185,"temp":29.9,"humidity":80,"rain":0.0,"pressure":1001.1,"uv_index":9.15,"wind_gusts":39.6,"aqi":62,"pm10":18.1,"pm2_5":14.1,"no2":22.6,"co":294.0,"o3":48.0,"so2":41.3,"mosquito_risk":7,"arthritis_risk":5,"migraine_risk":4,"frizz_risk":1,"updated_at":"2026-05-16T20:29:09.010685+05:30"},{"city":"Vijayawada","state":"Andhra Pradesh","latitude":16.5062,"longitude":80.648,"temp":32.7,"humidity":63,"rain":0.0,"pressure":999.6,"uv_index":8.85,"wind_gusts":32.4,"aqi":51,"pm10":13.6,"pm2_5":11.1,"no2":6.6,"co":174.0,"o3":65.0,"so2":6.8,"mosquito_risk":3,"arthritis_risk":5,"migraine_risk":7,"frizz_risk":1,"updated_at":"2026-05-16T20:29:09.010692+05:30"},{"city":"Guntur","state":"Andhra Pradesh","latitude":16.3067,"longitude":80.4365,"temp":31.3,"humidity":68,"rain":0.0,"pressure":1001.0,"uv_index":8.85,"wind_gusts":40.7,"aqi":55,"pm10":12.2,"pm2_5":9.8,"no2":5.1,"co":184.0,"o3":65.0,"so2":3.0,"mosquito_risk":3,"arthritis_risk":5,"migraine_risk":4,"frizz_risk":1,"updated_at":"2026-05-16T20:29:09.010699+05:30"},{"city":"Nellore","state":"Andhra Pradesh","latitude":14.4426,"longitude":79.9865,"temp":30.2,"humidity":76,"rain":0.0,"pressure":1002.8,"uv_index":8.25,"wind_gusts":33.8,"aqi":47,"pm10":12.2,"pm2_5":8.3,"no2":2.6,"co":176.0,"o3":85.0,"so2":2.8,"mosquito_risk":3,"arthritis_risk":5,"migraine_risk":4,"frizz_risk":1,"updated_at":"2026-05-16T20:29:09.010707+05:30"},{"city":"Kurnool","state":"Andhra Pradesh","latitude":15.8281,"longitude":78.0373,"temp":31.0,"humidity":58,"rain":0.0,"pressure":973.8,"uv_index":8.95,"wind_gusts":51.8,"aqi":135,"pm10":47.8,"pm2_5":31.8,"no2":4.1,"co":217.0,"o3":105.0,"so2":4.3,"mosquito_risk":0,"arthritis_risk":5,"migraine_risk":7,"frizz_risk":1,"updated_at":"2026-05-16T20:29:09.010715+05:30"},{"city":"Kakinada","state":"Andhra Pradesh","latitude":16.9891,"longitude":82.2475,"temp":30.2,"humidity":77,"rain":0.0,"pressure":1004.8,"uv_index":9.15,"wind_gusts":40.3,"aqi":36,"pm10":10.9,"pm2_5":7.1,"no2":2.1,"co":175.0,"o3":67.0,"so2":1.2,"mosquito_risk":3,"arthritis_risk":5,"migraine_risk":4,"frizz_risk":1,"updated_at":"2026-05-16T20:29:09.010722+05:30"},{"city":"Tirupati","state":"Andhra Pradesh","latitude":13.6288,"longitude":79.4192,"temp":30.5,"humidity":63,"rain":0.0,"pressure":988.0,"uv_index":9.25,"wind_gusts":33.1,"aqi":71,"pm10":17.9,"pm2_5":15.4,"no2":12.3,"co":197.0,"o3":101.0,"so2":14.0,"mosquito_risk":3,"arthritis_risk":5,"migraine_risk":7,"frizz_risk":1,"updated_at":"2026-05-16T20:29:09.010729+05:30"},{"city":"Warangal","state":"Telangana","latitude":17.9689,"longitude":79.5941,"temp":29.7,"humidity":62,"rain":0.0,"pressure":976.2,"uv_index":9.15,"wind_gusts":49.3,"aqi":119,"pm10":46.9,"pm2_5":34.1,"no2":6.9,"co":251.0,"o3":102.0,"so2":7.3,"mosquito_risk":7,"arthritis_risk":5,"migraine_risk":7,"frizz_risk":1,"updated_at":"2026-05-16T20:29:09.010736+05:30"},{"city":"Nizamabad","state":"Telangana","latitude":18.6725,"longitude":78.0941,"temp":33.2,"humidity":31,"rain":0.0,"pressure":960.3,"uv_index":9.05,"wind_gusts":33.1,"aqi":116,"pm10":47.6,"pm2_5":32.4,"no2":24.5,"co":294.0,"o3":97.0,"so2":7.9,"mosquito_risk":0,"arthritis_risk":5,"migraine_risk":7,"frizz_risk":0,"updated_at":"2026-05-16T20:29:09.010743+05:30"},{"city":"Mysore","state":"Karnataka","latitude":12.2958,"longitude":76.6396,"temp":23.9,"humidity":85,"rain":0.0,"pressure":925.9,"uv_index":7.2,"wind_gusts":40.0,"aqi":111,"pm10":88.2,"pm2_5":53.6,"no2":21.4,"co":326.0,"o3":104.0,"so2":7.1,"mosquito_risk":3,"arthritis_risk":5,"migraine_risk":7,"frizz_risk":1,"updated_at":"2026-05-16T20:29:09.010750+05:30"},{"city":"Mangalore","state":"Karnataka","latitude":12.9141,"longitude":74.856,"temp":26.1,"humidity":98,"rain":0.4,"pressure":1004.6,"uv_index":7.95,"wind_gusts":35.6,"aqi":61,"pm10":25.7,"pm2_5":17.3,"no2":8.1,"co":305.0,"o3":50.0,"so2":2.2,"mosquito_risk":10,"arthritis_risk":5,"migraine_risk":4,"frizz_risk":1,"updated_at":"2026-05-16T20:29:09.010757+05:30"},{"city":"Hubli-Dharwad","state":"Karnataka","latitude":15.3647,"longitude":75.124,"temp":25.5,"humidity":91,"rain":0.0,"pressure":938.4,"uv_index":7.8,"wind_gusts":46.1,"aqi":129,"pm10":20.7,"pm2_5":16.4,"no2":7.2,"co":263.0,"o3":96.0,"so2":3.1,"mosquito_risk":7,"arthritis_risk":5,"migraine_risk":7,"frizz_risk":1,"updated_at":"2026-05-16T20:29:09.010765+05:30"},{"city":"Belgaum","state":"Karnataka","latitude":15.8497,"longitude":74.4977,"temp":25.5,"humidity":85,"rain":0.0,"pressure":923.0,"uv_index":9.2,"wind_gusts":40.7,"aqi":97,"pm10":27.5,"pm2_5":19.3,"no2":6.7,"co":155.0,"o3":86.0,"so2":3.8,"mosquito_risk":7,"arthritis_risk":5,"migraine_risk":7,"frizz_risk":1,"updated_at":"2026-05-16T20:29:12.284355+05:30"},{"city":"Coimbatore","state":"Tamil Nadu","latitude":11.0168,"longitude":76.9558,"temp":25.1,"humidity":85,"rain":0.0,"pressure":958.8,"uv_index":9.0,"wind_gusts":45.7,"aqi":91,"pm10":52.9,"pm2_5":35.7,"no2":12.5,"co":307.0,"o3":87.0,"so2":5.5,"mosquito_risk":7,"arthritis_risk":5,"migraine_risk":7,"frizz_risk":1,"updated_at":"2026-05-16T20:29:12.284390+05:30"},{"city":"Madurai","state":"Tamil Nadu","latitude":9.9252,"longitude":78.1198,"temp":30.5,"humidity":61,"rain":0.0,"pressure":989.4,"uv_index":8.75,"wind_gusts":26.3,"aqi":82,"pm10":24.4,"pm2_5":20.6,"no2":23.5,"co":494.0,"o3":76.0,"so2":5.7,"mosquito_risk":3,"arthritis_risk":5,"migraine_risk":7,"frizz_risk":1,"updated_at":"2026-05-16T20:29:12.284403+05:30"},{"city":"Trichy","state":"Tamil Nadu","latitude":10.7905,"longitude":78.7047,"temp":27.9,"humidity":78,"rain":0.0,"pressure":995.9,"uv_index":3.75,"wind_gusts":28.8,"aqi":87,"pm10":20.3,"pm2_5":18.5,"no2":17.3,"co":323.0,"o3":78.0,"so2":4.8,"mosquito_risk":7,"arthritis_risk":5,"migraine_risk":3,"frizz_risk":1,"updated_at":"2026-05-16T20:29:12.284413+05:30"},{"city":"Salem","state":"Tamil Nadu","latitude":11.6643,"longitude":78.146,"temp":29.9,"humidity":60,"rain":0.0,"pressure":973.6,"uv_index":8.95,"wind_gusts":27.0,"aqi":134,"pm10":91.0,"pm2_5":56.1,"no2":39.1,"co":437.0,"o3":95.0,"so2":23.6,"mosquito_risk":4,"arthritis_risk":5,"migraine_risk":7,"frizz_risk":1,"updated_at":"2026-05-16T20:29:12.284423+05:30"},{"city":"Tirunelveli","state":"Tamil Nadu","latitude":8.7139,"longitude":77.7567,"temp":29.5,"humidity":62,"rain":0.0,"pressure":999.3,"uv_index":8.6,"wind_gusts":33.1,"aqi":57,"pm10":14.4,"pm2_5":10.8,"no2":6.9,"co":481.0,"o3":88.0,"so2":1.8,"mosquito_risk":7,"arthritis_risk":5,"migraine_risk":7,"frizz_risk":1,"updated_at":"2026-05-16T20:29:12.284432+05:30"},{"city":"Vellore","state":"Tamil Nadu","latitude":12.9165,"longitude":79.1325,"temp":29.2,"humidity":71,"rain":0.0,"pressure":981.1,"uv_index":9.25,"wind_gusts":28.8,"aqi":83,"pm10":21.9,"pm2_5":16.9,"no2":14.3,"co":329.0,"o3":76.0,"so2":6.1,"mosquito_risk":7,"arthritis_risk":5,"migraine_risk":7,"frizz_risk":1,"updated_at":"2026-05-16T20:29:12.284441+05:30"},{"city":"Erode","state":"Tamil Nadu","latitude":11.341,"longitude":77.7172,"temp":28.5,"humidity":69,"rain":0.0,"pressure":985.3,"uv_index":4.5,"wind_gusts":37.4,"aqi":110,"pm10":94.1,"pm2_5":56.0,"no2":49.7,"co":391.0,"o3":69.0,"so2":9.2,"mosquito_risk":7,"arthritis_risk":5,"migraine_risk":3,"frizz_risk":1,"updated_at":"2026-05-16T20:29:12.284450+05:30"},{"city":"Kochi","state":"Kerala","latitude":9.9312,"longitude":76.2673,"temp":27.0,"humidity":88,"rain":0.0,"pressure":1006.4,"uv_index":5.5,"wind_gusts":32.4,"aqi":67,"pm10":26.4,"pm2_5":21.7,"no2":22.6,"co":364.0,"o3":58.0,"so2":6.3,"mosquito_risk":7,"arthritis_risk":5,"migraine_risk":0,"frizz_risk":1,"updated_at":"2026-05-16T20:29:12.284459+05:30"},{"city":"Thiruvananthapuram","state":"Kerala","latitude":8.5241,"longitude":76.9366,"temp":25.1,"humidity":94,"rain":0.0,"pressure":1005.6,"uv_index":8.2,"wind_gusts":50.4,"aqi":51,"pm10":12.4,"pm2_5":7.3,"no2":3.5,"co":281.0,"o3":96.0,"so2":1.3,"mosquito_risk":7,"arthritis_risk":5,"migraine_risk":4,"frizz_risk":1,"updated_at":"2026-05-16T20:29:12.284468+05:30"},{"city":"Kozhikode","state":"Kerala","latitude":11.2588,"longitude":75.7804,"temp":24.9,"humidity":93,"rain":0.0,"pressure":1005.5,"uv_index":7.55,"wind_gusts":46.4,"aqi":64,"pm10":20.1,"pm2_5":13.2,"no2":2.2,"co":233.0,"o3":94.0,"so2":1.5,"mosquito_risk":3,"arthritis_risk":5,"migraine_risk":4,"frizz_risk":1,"updated_at":"2026-05-16T20:29:12.284477+05:30"},{"city":"Thrissur","state":"Kerala","latitude":10.5276,"longitude":76.2144,"temp":25.5,"humidity":89,"rain":0.0,"pressure":1004.9,"uv_index":8.0,"wind_gusts":33.1,"aqi":73,"pm10":32.7,"pm2_5":25.5,"no2":18.1,"co":337.0,"o3":66.0,"so2":4.9,"mosquito_risk":7,"arthritis_risk":5,"migraine_risk":4,"frizz_risk":1,"updated_at":"2026-05-16T20:29:12.284487+05:30"},{"city":"Kannur","state":"Kerala","latitude":11.8745,"longitude":75.3704,"temp":24.8,"humidity":98,"rain":0.2,"pressure":1005.1,"uv_index":8.7,"wind_gusts":36.4,"aqi":64,"pm10":25.4,"pm2_5":18.9,"no2":10.9,"co":374.0,"o3":69.0,"so2":2.3,"mosquito_risk":6,"arthritis_risk":5,"migraine_risk":4,"frizz_risk":1,"updated_at":"2026-05-16T20:29:12.284496+05:30"},{"city":"Patna","state":"Bihar","latitude":25.5941,"longitude":85.1376,"temp":31.2,"humidity":66,"rain":0.0,"pressure":995.3,"uv_index":8.8,"wind_gusts":23.4,"aqi":151,"pm10":109.2,"pm2_5":67.8,"no2":45.9,"co":656.0,"o3":76.0,"so2":19.7,"mosquito_risk":3,"arthritis_risk":5,"migraine_risk":7,"frizz_risk":1,"updated_at":"2026-05-16T20:29:12.284505+05:30"},{"city":"Gaya","state":"Bihar","latitude":24.7914,"longitude":85.0002,"temp":32.3,"humidity":48,"rain":0.0,"pressure":989.1,"uv_index":8.85,"wind_gusts":35.6,"aqi":152,"pm10":114.3,"pm2_5":52.3,"no2":21.4,"co":594.0,"o3":92.0,"so2":11.7,"mosquito_risk":0,"arthritis_risk":5,"migraine_risk":7,"frizz_risk":1,"updated_at":"2026-05-16T20:29:12.284514+05:30"},{"city":"Muzaffarpur","state":"Bihar","latitude":26.1209,"longitude":85.3647,"temp":30.5,"humidity":67,"rain":0.0,"pressure":995.4,"uv_index":8.8,"wind_gusts":33.5,"aqi":152,"pm10":101.7,"pm2_5":74.7,"no2":40.1,"co":559.0,"o3":81.0,"so2":17.6,"mosquito_risk":3,"arthritis_risk":5,"migraine_risk":7,"frizz_risk":1,"updated_at":"2026-05-16T20:29:12.284522+05:30"},{"city":"Bhagalpur","state":"Bihar","latitude":25.2425,"longitude":87.0117,"temp":29.9,"humidity":75,"rain":0.0,"pressure":997.2,"uv_index":8.8,"wind_gusts":29.9,"aqi":187,"pm10":62.4,"pm2_5":53.2,"no2":10.2,"co":420.0,"o3":144.0,"so2":14.9,"mosquito_risk":7,"arthritis_risk":5,"migraine_risk":7,"frizz_risk":1,"updated_at":"2026-05-16T20:29:12.284531+05:30"},{"city":"Ranchi","state":"Jharkhand","latitude":23.3441,"longitude":85.3096,"temp":26.9,"humidity":54,"rain":0.0,"pressure":934.8,"uv_index":9.25,"wind_gusts":36.7,"aqi":139,"pm10":71.0,"pm2_5":42.5,"no2":18.7,"co":463.0,"o3":90.0,"so2":9.8,"mosquito_risk":4,"arthritis_risk":5,"migraine_risk":7,"frizz_risk":1,"updated_at":"2026-05-16T20:29:12.284541+05:30"},{"city":"Jamshedpur","state":"Jharkhand","latitude":22.8046,"longitude":86.2029,"temp":30.0,"humidity":68,"rain":0.0,"pressure":987.1,"uv_index":9.1,"wind_gusts":28.1,"aqi":158,"pm10":60.5,"pm2_5":44.7,"no2":14.6,"co":433.0,"o3":104.0,"so2":17.5,"mosquito_risk":7,"arthritis_risk":5,"migraine_risk":7,"frizz_risk":1,"updated_at":"2026-05-16T20:29:12.284549+05:30"},{"city":"Dhanbad","state":"Jharkhand","latitude":23.7957,"longitude":86.4304,"temp":30.0,"humidity":53,"rain":0.0,"pressure":975.9,"uv_index":9.05,"wind_gusts":22.7,"aqi":161,"pm10":120.6,"pm2_5":85.4,"no2":68.4,"co":598.0,"o3":49.0,"so2":120.4,"mosquito_risk":4,"arthritis_risk":5,"migraine_risk":7,"frizz_risk":1,"updated_at":"2026-05-16T20:29:12.284558+05:30"},{"city":"Bokaro","state":"Jharkhand","latitude":23.6693,"longitude":86.1511,"temp":30.1,"humidity":54,"rain":0.0,"pressure":979.7,"uv_index":9.05,"wind_gusts":31.7,"aqi":157,"pm10":119.7,"pm2_5":80.3,"no2":49.0,"co":479.0,"o3":64.0,"so2":121.8,"mosquito_risk":0,"arthritis_risk":5,"migraine_risk":7,"frizz_risk":1,"updated_at":"2026-05-16T20:29:12.284567+05:30"},{"city":"Bhubaneswar","state":"Odisha","latitude":20.2961,"longitude":85.8245,"temp":29.5,"humidity":81,"rain":0.0,"pressure":1000.1,"uv_index":9.2,"wind_gusts":43.6,"aqi":43,"pm10":15.5,"pm2_5":9.8,"no2":5.3,"co":178.0,"o3":43.0,"so2":2.5,"mosquito_risk":7,"arthritis_risk":5,"migraine_risk":4,"frizz_risk":1,"updated_at":"2026-05-16T20:29:12.284593+05:30"},{"city":"Cuttack","state":"Odisha","latitude":20.4625,"longitude":85.8828,"temp":30.0,"humidity":79,"rain":0.0,"pressure":1001.8,"uv_index":9.2,"wind_gusts":42.8,"aqi":43,"pm10":15.5,"pm2_5":9.8,"no2":5.3,"co":207.0,"o3":43.0,"so2":2.5,"mosquito_risk":7,"arthritis_risk":5,"migraine_risk":4,"frizz_risk":1,"updated_at":"2026-05-16T20:29:12.284602+05:30"},{"city":"Rourkela","state":"Odisha","latitude":22.2604,"longitude":84.8536,"temp":30.7,"humidity":59,"rain":0.0,"pressure":981.2,"uv_index":8.4,"wind_gusts":36.4,"aqi":165,"pm10":90.1,"pm2_5":65.9,"no2":21.6,"co":343.0,"o3":136.0,"so2":14.3,"mosquito_risk":0,"arthritis_risk":5,"migraine_risk":7,"frizz_risk":1,"updated_at":"2026-05-16T20:29:12.284611+05:30"},{"city":"Raipur","state":"Chhattisgarh","latitude":21.2514,"longitude":81.6296,"temp":33.5,"humidity":46,"rain":0.0,"pressure":971.4,"uv_index":9.05,"wind_gusts":28.4,"aqi":184,"pm10":124.3,"pm2_5":93.1,"no2":27.7,"co":262.0,"o3":127.0,"so2":37.4,"mosquito_risk":0,"arthritis_risk":5,"migraine_risk":7,"frizz_risk":1,"updated_at":"2026-05-16T20:29:12.284620+05:30"},{"city":"Bhilai","state":"Chhattisgarh","latitude":21.1938,"longitude":81.3509,"temp":32.5,"humidity":54,"rain":0.0,"pressure":971.6,"uv_index":9.05,"wind_gusts":36.4,"aqi":157,"pm10":122.0,"pm2_5":87.3,"no2":44.2,"co":335.0,"o3":98.0,"so2":48.5,"mosquito_risk":0,"arthritis_risk":5,"migraine_risk":7,"frizz_risk":1,"updated_at":"2026-05-16T20:29:12.284629+05:30"},{"city":"Guwahati","state":"Assam","latitude":26.1158,"longitude":91.7086,"temp":24.6,"humidity":95,"rain":0.0,"pressure":998.8,"uv_index":8.5,"wind_gusts":26.3,"aqi":74,"pm10":32.1,"pm2_5":28.8,"no2":10.7,"co":317.0,"o3":72.0,"so2":3.8,"mosquito_risk":3,"arthritis_risk":5,"migraine_risk":7,"frizz_risk":1,"updated_at":"2026-05-16T20:29:12.284638+05:30"},{"city":"Agartala","state":"Tripura","latitude":23.8315,"longitude":91.2868,"temp":26.9,"humidity":94,"rain":0.2,"pressure":1003.9,"uv_index":6.8,"wind_gusts":32.0,"aqi":70,"pm10":41.6,"pm2_5":34.0,"no2":24.3,"co":232.0,"o3":56.0,"so2":5.3,"mosquito_risk":10,"arthritis_risk":5,"migraine_risk":4,"frizz_risk":1,"updated_at":"2026-05-16T20:29:12.284647+05:30"},{"city":"Shillong","state":"Meghalaya","latitude":25.5788,"longitude":91.8933,"temp":17.6,"humidity":94,"rain":0.0,"pressure":854.7,"uv_index":8.05,"wind_gusts":40.3,"aqi":61,"pm10":20.8,"pm2_5":16.3,"no2":7.5,"co":329.0,"o3":83.0,"so2":3.7,"mosquito_risk":3,"arthritis_risk":10,"migraine_risk":7,"frizz_risk":1,"updated_at":"2026-05-16T20:29:12.284656+05:30"},{"city":"Imphal","state":"Manipur","latitude":24.817,"longitude":93.9368,"temp":22.0,"humidity":90,"rain":0.0,"pressure":921.0,"uv_index":8.75,"wind_gusts":31.7,"aqi":84,"pm10":34.0,"pm2_5":24.7,"no2":19.3,"co":431.0,"o3":55.0,"so2":5.2,"mosquito_risk":3,"arthritis_risk":5,"migraine_risk":7,"frizz_risk":1,"updated_at":"2026-05-16T20:29:12.284664+05:30"},{"city":"Aizawl","state":"Mizoram","latitude":23.7271,"longitude":92.7176,"temp":19.3,"humidity":98,"rain":0.0,"pressure":890.5,"uv_index":9.15,"wind_gusts":29.2,"aqi":58,"pm10":26.9,"pm2_5":16.9,"no2":4.6,"co":189.0,"o3":75.0,"so2":2.7,"mosquito_risk":3,"arthritis_risk":10,"migraine_risk":7,"frizz_risk":1,"updated_at":"2026-05-16T20:29:12.284674+05:30"},{"city":"Kohima","state":"Nagaland","latitude":25.6701,"longitude":94.1077,"temp":16.8,"humidity":96,"rain":0.0,"pressure":852.2,"uv_index":9.2,"wind_gusts":25.9,"aqi":57,"pm10":26.1,"pm2_5":17.4,"no2":13.1,"co":343.0,"o3":55.0,"so2":2.7,"mosquito_risk":3,"arthritis_risk":10,"migraine_risk":7,"frizz_risk":1,"updated_at":"2026-05-16T20:29:12.284683+05:30"},{"city":"Gangtok","state":"Sikkim","latitude":27.3314,"longitude":88.6138,"temp":15.2,"humidity":98,"rain":0.1,"pressure":834.5,"uv_index":9.1,"wind_gusts":36.4,"aqi":85,"pm10":13.4,"pm2_5":11.4,"no2":9.2,"co":404.0,"o3":109.0,"so2":1.6,"mosquito_risk":6,"arthritis_risk":10,"migraine_risk":7,"frizz_risk":0,"updated_at":"2026-05-16T20:29:12.284692+05:30"},{"city":"Siliguri","state":"West Bengal","latitude":26.7271,"longitude":88.3953,"temp":24.9,"humidity":84,"rain":0.0,"pressure":989.9,"uv_index":8.65,"wind_gusts":27.7,"aqi":102,"pm10":27.8,"pm2_5":23.1,"no2":11.7,"co":553.0,"o3":108.0,"so2":4.0,"mosquito_risk":3,"arthritis_risk":5,"migraine_risk":7,"frizz_risk":1,"updated_at":"2026-05-16T20:29:15.563113+05:30"},{"city":"Durgapur","state":"West Bengal","latitude":23.5204,"longitude":87.3119,"temp":28.9,"humidity":78,"rain":0.0,"pressure":991.2,"uv_index":9.0,"wind_gusts":33.8,"aqi":203,"pm10":82.9,"pm2_5":72.6,"no2":27.0,"co":500.0,"o3":114.0,"so2":39.3,"mosquito_risk":7,"arthritis_risk":5,"migraine_risk":7,"frizz_risk":1,"updated_at":"2026-05-16T20:29:15.563147+05:30"},{"city":"Asansol","state":"West Bengal","latitude":23.6739,"longitude":86.9524,"temp":30.0,"humidity":69,"rain":0.0,"pressure":989.6,"uv_index":9.05,"wind_gusts":32.0,"aqi":168,"pm10":86.8,"pm2_5":62.4,"no2":52.1,"co":608.0,"o3":69.0,"so2":30.1,"mosquito_risk":7,"arthritis_risk":5,"migraine_risk":7,"frizz_risk":1,"updated_at":"2026-05-16T20:29:15.563160+05:30"},{"city":"Pondicherry","state":"Puducherry","latitude":11.9139,"longitude":79.8145,"temp":29.2,"humidity":80,"rain":0.0,"pressure":1004.7,"uv_index":9.05,"wind_gusts":32.4,"aqi":71,"pm10":15.6,"pm2_5":12.0,"no2":2.5,"co":408.0,"o3":109.0,"so2":3.9,"mosquito_risk":7,"arthritis_risk":5,"migraine_risk":4,"frizz_risk":1,"updated_at":"2026-05-16T20:29:15.563171+05:30"},{"city":"Port Blair","state":"Andaman and Nicobar Islands","latitude":11.6234,"longitude":92.7265,"temp":28.5,"humidity":81,"rain":0.0,"pressure":1006.5,"uv_index":6.6,"wind_gusts":39.6,"aqi":26,"pm10":8.2,"pm2_5":5.0,"no2":0.5,"co":126.0,"o3":57.0,"so2":0.3,"mosquito_risk":7,"arthritis_risk":5,"migraine_risk":4,"frizz_risk":1,"updated_at":"2026-05-16T20:29:15.563181+05:30"},{"city":"Haridwar","state":"Uttarakhand","latitude":29.9457,"longitude":78.1642,"temp":29.0,"humidity":49,"rain":0.0,"pressure":968.9,"uv_index":7.5,"wind_gusts":35.6,"aqi":140,"pm10":68.7,"pm2_5":36.6,"no2":12.1,"co":329.0,"o3":121.0,"so2":11.7,"mosquito_risk":4,"arthritis_risk":5,"migraine_risk":7,"frizz_risk":1,"updated_at":"2026-05-16T20:29:15.563191+05:30"},{"city":"Rishikesh","state":"Uttarakhand","latitude":30.0869,"longitude":78.2676,"temp":28.1,"humidity":45,"rain":0.0,"pressure":961.6,"uv_index":7.6,"wind_gusts":29.9,"aqi":122,"pm10":52.4,"pm2_5":31.0,"no2":7.9,"co":288.0,"o3":140.0,"so2":9.3,"mosquito_risk":4,"arthritis_risk":5,"migraine_risk":7,"frizz_risk":0,"updated_at":"2026-05-16T20:29:15.563201+05:30"},{"city":"Nainital","state":"Uttarakhand","latitude":29.3919,"longitude":79.4542,"temp":16.3,"humidity":57,"rain":0.0,"pressure":803.0,"uv_index":8.45,"wind_gusts":47.2,"aqi":119,"pm10":47.6,"pm2_5":29.5,"no2":7.2,"co":264.0,"o3":126.0,"so2":6.8,"mosquito_risk":0,"arthritis_risk":5,"migraine_risk":7,"frizz_risk":0,"updated_at":"2026-05-16T20:29:15.563210+05:30"},{"city":"Mussoorie","state":"Uttarakhand","latitude":30.4599,"longitude":78.0664,"temp":15.4,"humidity":67,"rain":0.0,"pressure":799.8,"uv_index":8.0,"wind_gusts":45.7,"aqi":132,"pm10":54.7,"pm2_5":32.6,"no2":17.0,"co":317.0,"o3":125.0,"so2":10.5,"mosquito_risk":3,"arthritis_risk":5,"migraine_risk":7,"frizz_risk":0,"updated_at":"2026-05-16T20:29:15.563219+05:30"},{"city":"Dharamshala","state":"Himachal Pradesh","latitude":32.219,"longitude":76.3234,"temp":20.2,"humidity":60,"rain":0.0,"pressure":866.6,"uv_index":8.35,"wind_gusts":42.5,"aqi":84,"pm10":28.0,"pm2_5":14.6,"no2":9.6,"co":252.0,"o3":94.0,"so2":1.2,"mosquito_risk":0,"arthritis_risk":5,"migraine_risk":7,"frizz_risk":0,"updated_at":"2026-05-16T20:29:15.563227+05:30"},{"city":"Dalhousie","state":"Himachal Pradesh","latitude":32.5387,"longitude":75.971,"temp":13.1,"humidity":78,"rain":0.0,"pressure":801.3,"uv_index":8.6,"wind_gusts":41.0,"aqi":113,"pm10":38.8,"pm2_5":21.0,"no2":21.5,"co":454.0,"o3":113.0,"so2":2.6,"mosquito_risk":3,"arthritis_risk":5,"migraine_risk":7,"frizz_risk":0,"updated_at":"2026-05-16T20:29:15.563236+05:30"},{"city":"Patiala","state":"Punjab","latitude":30.3398,"longitude":76.3869,"temp":32.2,"humidity":29,"rain":0.0,"pressure":974.2,"uv_index":7.6,"wind_gusts":45.4,"aqi":294,"pm10":614.7,"pm2_5":101.0,"no2":8.1,"co":312.0,"o3":107.0,"so2":6.0,"mosquito_risk":0,"arthritis_risk":5,"migraine_risk":7,"frizz_risk":0,"updated_at":"2026-05-16T20:29:15.563243+05:30"},{"city":"Bhatinda","state":"Punjab","latitude":30.211,"longitude":74.9455,"temp":32.7,"humidity":35,"rain":0.0,"pressure":979.9,"uv_index":8.25,"wind_gusts":33.5,"aqi":108,"pm10":55.8,"pm2_5":27.1,"no2":7.6,"co":291.0,"o3":99.0,"so2":6.1,"mosquito_risk":0,"arthritis_risk":5,"migraine_risk":7,"frizz_risk":0,"updated_at":"2026-05-16T20:29:15.563255+05:30"},{"city":"Rohtak","state":"Haryana","latitude":28.8955,"longitude":76.6066,"temp":32.3,"humidity":31,"rain":0.0,"pressure":977.6,"uv_index":7.75,"wind_gusts":38.5,"aqi":578,"pm10":909.0,"pm2_5":153.7,"no2":19.8,"co":520.0,"o3":82.0,"so2":7.0,"mosquito_risk":0,"arthritis_risk":5,"migraine_risk":7,"frizz_risk":0,"updated_at":"2026-05-16T20:29:15.563262+05:30"},{"city":"Panipat","state":"Haryana","latitude":29.3909,"longitude":76.9635,"temp":31.8,"humidity":33,"rain":0.0,"pressure":976.1,"uv_index":7.55,"wind_gusts":41.4,"aqi":1104,"pm10":1892.4,"pm2_5":283.1,"no2":11.8,"co":338.0,"o3":93.0,"so2":7.5,"mosquito_risk":0,"arthritis_risk":5,"migraine_risk":7,"frizz_risk":0,"updated_at":"2026-05-16T20:29:15.563269+05:30"},{"city":"Mathura","state":"Uttar Pradesh","latitude":27.4924,"longitude":77.6737,"temp":33.2,"humidity":31,"rain":0.0,"pressure":982.2,"uv_index":8.0,"wind_gusts":36.4,"aqi":479,"pm10":670.6,"pm2_5":122.5,"no2":20.8,"co":352.0,"o3":84.0,"so2":6.0,"mosquito_risk":0,"arthritis_risk":5,"migraine_risk":7,"frizz_risk":0,"updated_at":"2026-05-16T20:29:15.563276+05:30"},{"city":"Vrindavan","state":"Uttar Pradesh","latitude":27.5823,"longitude":77.7027,"temp":32.3,"humidity":34,"rain":0.0,"pressure":982.6,"uv_index":7.95,"wind_gusts":34.9,"aqi":479,"pm10":670.6,"pm2_5":122.5,"no2":20.8,"co":322.0,"o3":84.0,"so2":6.0,"mosquito_risk":0,"arthritis_risk":5,"migraine_risk":7,"frizz_risk":0,"updated_at":"2026-05-16T20:29:15.563284+05:30"},{"city":"Ayodhya","state":"Uttar Pradesh","latitude":26.7922,"longitude":82.1998,"temp":31.1,"humidity":49,"rain":0.0,"pressure":990.0,"uv_index":8.35,"wind_gusts":33.5,"aqi":159,"pm10":115.0,"pm2_5":51.3,"no2":11.9,"co":350.0,"o3":113.0,"so2":12.5,"mosquito_risk":0,"arthritis_risk":5,"migraine_risk":7,"frizz_risk":1,"updated_at":"2026-05-16T20:29:15.563292+05:30"},{"city":"Ratlam","state":"Madhya Pradesh","latitude":23.3315,"longitude":75.0367,"temp":32.3,"humidity":26,"rain":0.0,"pressure":951.5,"uv_index":8.55,"wind_gusts":33.5,"aqi":56,"pm10":26.4,"pm2_5":14.4,"no2":2.0,"co":188.0,"o3":95.0,"so2":2.3,"mosquito_risk":0,"arthritis_risk":5,"migraine_risk":7,"frizz_risk":0,"updated_at":"2026-05-16T20:29:15.563299+05:30"},{"city":"Sagar","state":"Madhya Pradesh","latitude":23.8388,"longitude":78.7378,"temp":35.2,"humidity":20,"rain":0.0,"pressure":946.2,"uv_index":8.75,"wind_gusts":33.8,"aqi":93,"pm10":27.9,"pm2_5":16.1,"no2":7.3,"co":169.0,"o3":91.0,"so2":3.5,"mosquito_risk":0,"arthritis_risk":5,"migraine_risk":10,"frizz_risk":0,"updated_at":"2026-05-16T20:29:15.563306+05:30"},{"city":"Satna","state":"Madhya Pradesh","latitude":24.6005,"longitude":80.8322,"temp":34.7,"humidity":27,"rain":0.0,"pressure":967.5,"uv_index":8.75,"wind_gusts":33.1,"aqi":120,"pm10":58.8,"pm2_5":29.6,"no2":8.4,"co":218.0,"o3":97.0,"so2":5.0,"mosquito_risk":0,"arthritis_risk":5,"migraine_risk":7,"frizz_risk":0,"updated_at":"2026-05-16T20:29:15.563314+05:30"},{"city":"Akola","state":"Maharashtra","latitude":20.7002,"longitude":77.0082,"temp":38.2,"humidity":19,"rain":0.0,"pressure":970.3,"uv_index":8.2,"wind_gusts":42.1,"aqi":93,"pm10":21.9,"pm2_5":15.7,"no2":8.0,"co":199.0,"o3":101.0,"so2":5.0,"mosquito_risk":0,"arthritis_risk":5,"migraine_risk":10,"frizz_risk":0,"updated_at":"2026-05-16T20:29:15.563322+05:30"},{"city":"Amravati","state":"Maharashtra","latitude":20.9374,"longitude":77.7796,"temp":38.2,"humidity":15,"rain":0.0,"pressure":963.0,"uv_index":8.9,"wind_gusts":36.7,"aqi":98,"pm10":27.6,"pm2_5":18.5,"no2":17.4,"co":298.0,"o3":92.0,"so2":7.5,"mosquito_risk":0,"arthritis_risk":5,"migraine_risk":10,"frizz_risk":0,"updated_at":"2026-05-16T20:29:15.563330+05:30"},{"city":"Latur","state":"Maharashtra","latitude":18.4088,"longitude":76.5604,"temp":33.8,"humidity":26,"rain":0.0,"pressure":936.2,"uv_index":8.8,"wind_gusts":38.2,"aqi":123,"pm10":25.8,"pm2_5":19.4,"no2":9.3,"co":186.0,"o3":115.0,"so2":7.7,"mosquito_risk":0,"arthritis_risk":5,"migraine_risk":7,"frizz_risk":0,"updated_at":"2026-05-16T20:29:15.563338+05:30"},{"city":"Nanded","state":"Maharashtra","latitude":19.1383,"longitude":77.3091,"temp":34.8,"humidity":29,"rain":0.0,"pressure":963.6,"uv_index":8.25,"wind_gusts":30.6,"aqi":112,"pm10":38.8,"pm2_5":26.3,"no2":22.9,"co":473.0,"o3":92.0,"so2":7.4,"mosquito_risk":0,"arthritis_risk":5,"migraine_risk":7,"frizz_risk":0,"updated_at":"2026-05-16T20:29:15.563345+05:30"},{"city":"Gulbarga","state":"Karnataka","latitude":17.3297,"longitude":76.8343,"temp":32.8,"humidity":40,"rain":0.0,"pressure":955.0,"uv_index":8.6,"wind_gusts":46.8,"aqi":129,"pm10":27.5,"pm2_5":20.2,"no2":16.2,"co":305.0,"o3":104.0,"so2":6.4,"mosquito_risk":0,"arthritis_risk":5,"migraine_risk":7,"frizz_risk":1,"updated_at":"2026-05-16T20:29:15.563353+05:30"},{"city":"Bidar","state":"Karnataka","latitude":17.9104,"longitude":77.5199,"temp":32.4,"humidity":35,"rain":0.0,"pressure":932.5,"uv_index":8.9,"wind_gusts":33.5,"aqi":123,"pm10":36.9,"pm2_5":28.2,"no2":27.6,"co":477.0,"o3":87.0,"so2":6.5,"mosquito_risk":0,"arthritis_risk":5,"migraine_risk":7,"frizz_risk":0,"updated_at":"2026-05-16T20:29:15.563359+05:30"},{"city":"Hospet","state":"Karnataka","latitude":15.2689,"longitude":76.3909,"temp":28.5,"humidity":63,"rain":0.0,"pressure":953.2,"uv_index":8.6,"wind_gusts":48.6,"aqi":163,"pm10":88.5,"pm2_5":64.7,"no2":23.0,"co":312.0,"o3":120.0,"so2":17.1,"mosquito_risk":7,"arthritis_risk":5,"migraine_risk":7,"frizz_risk":1,"updated_at":"2026-05-16T20:29:15.563367+05:30"},{"city":"Tirupur","state":"Tamil Nadu","latitude":11.1085,"longitude":77.3411,"temp":26.3,"humidity":81,"rain":0.0,"pressure":971.9,"uv_index":7.6,"wind_gusts":42.8,"aqi":104,"pm10":87.5,"pm2_5":51.2,"no2":32.6,"co":291.0,"o3":88.0,"so2":8.3,"mosquito_risk":7,"arthritis_risk":5,"migraine_risk":7,"frizz_risk":1,"updated_at":"2026-05-16T20:29:15.563374+05:30"},{"city":"Alappuzha","state":"Kerala","latitude":9.4981,"longitude":76.3388,"temp":26.4,"humidity":95,"rain":0.0,"pressure":1006.5,"uv_index":7.9,"wind_gusts":38.9,"aqi":60,"pm10":23.7,"pm2_5":15.8,"no2":11.7,"co":162.0,"o3":87.0,"so2":3.8,"mosquito_risk":7,"arthritis_risk":5,"migraine_risk":4,"frizz_risk":1,"updated_at":"2026-05-16T20:29:15.563381+05:30"},{"city":"Munnar","state":"Kerala","latitude":10.0889,"longitude":77.0595,"temp":17.8,"humidity":100,"rain":0.0,"pressure":854.5,"uv_index":3.75,"wind_gusts":28.4,"aqi":65,"pm10":28.5,"pm2_5":20.6,"no2":15.3,"co":248.0,"o3":55.0,"so2":2.7,"mosquito_risk":3,"arthritis_risk":10,"migraine_risk":3,"frizz_risk":1,"updated_at":"2026-05-16T20:29:15.563389+05:30"},{"city":"Silchar","state":"Assam","latitude":24.8333,"longitude":92.7789,"temp":24.8,"humidity":97,"rain":0.1,"pressure":1003.2,"uv_index":8.75,"wind_gusts":28.4,"aqi":74,"pm10":45.1,"pm2_5":33.1,"no2":15.4,"co":371.0,"o3":66.0,"so2":7.4,"mosquito_risk":6,"arthritis_risk":5,"migraine_risk":4,"frizz_risk":1,"updated_at":"2026-05-16T20:29:15.563396+05:30"},{"city":"Dibrugarh","state":"Assam","latitude":27.4728,"longitude":94.912,"temp":24.6,"humidity":86,"rain":0.1,"pressure":993.2,"uv_index":8.9,"wind_gusts":22.3,"aqi":91,"pm10":27.0,"pm2_5":22.9,"no2":13.8,"co":276.0,"o3":57.0,"so2":2.3,"mosquito_risk":6,"arthritis_risk":5,"migraine_risk":7,"frizz_risk":1,"updated_at":"2026-05-16T20:29:15.563404+05:30"}]