[{"city":"Delhi","state":"Delhi","latitude":28.6139,"longitude":77.209,"temp":30.9,"humidity":28,"rain":0.0,"pressure":983.5,"uv_index":6.0,"wind_gusts":29.2,"aqi":343,"pm10":431.2,"pm2_5":64.3,"mosquito_risk":0,"arthritis_risk":5,"migraine_risk":3,"frizz_risk":0,"updated_at":"2026-03-13T16:10:50.364217+05:30"},{"city":"Mumbai","state":"Maharashtra","latitude":19.076,"longitude":72.8777,"temp":29.0,"humidity":72,"rain":0.0,"pressure":1005.8,"uv_index":7.65,"wind_gusts":23.8,"aqi":188,"pm10":59.8,"pm2_5":56.5,"mosquito_risk":7,"arthritis_risk":5,"migraine_risk":4,"frizz_risk":1,"updated_at":"2026-03-13T16:10:50.364258+05:30"},{"city":"Bangalore","state":"Karnataka","latitude":12.9716,"longitude":77.5946,"temp":32.1,"humidity":24,"rain":0.0,"pressure":911.0,"uv_index":9.3,"wind_gusts":28.8,"aqi":101,"pm10":40.4,"pm2_5":31.4,"mosquito_risk":0,"arthritis_risk":5,"migraine_risk":7,"frizz_risk":0,"updated_at":"2026-03-13T16:10:50.364273+05:30"},{"city":"Hyderabad","state":"Telangana","latitude":17.385,"longitude":78.4867,"temp":36.7,"humidity":16,"rain":0.0,"pressure":952.0,"uv_index":8.65,"wind_gusts":19.1,"aqi":138,"pm10":43.2,"pm2_5":29.5,"mosquito_risk":0,"arthritis_risk":5,"migraine_risk":10,"frizz_risk":0,"updated_at":"2026-03-13T16:10:50.364284+05:30"},{"city":"Chennai","state":"Tamil Nadu","latitude":13.0827,"longitude":80.2707,"temp":32.1,"humidity":52,"rain":0.0,"pressure":1006.6,"uv_index":9.05,"wind_gusts":32.4,"aqi":64,"pm10":19.2,"pm2_5":14.1,"mosquito_risk":0,"arthritis_risk":5,"migraine_risk":4,"frizz_risk":1,"updated_at":"2026-03-13T16:10:50.364293+05:30"},{"city":"Kolkata","state":"West Bengal","latitude":22.5726,"longitude":88.3639,"temp":32.7,"humidity":52,"rain":0.0,"pressure":1004.0,"uv_index":8.0,"wind_gusts":29.2,"aqi":138,"pm10":65.0,"pm2_5":39.6,"mosquito_risk":0,"arthritis_risk":5,"migraine_risk":4,"frizz_risk":1,"updated_at":"2026-03-13T16:10:50.364301+05:30"},{"city":"Pune","state":"Maharashtra","latitude":18.5204,"longitude":73.8567,"temp":37.6,"humidity":16,"rain":0.0,"pressure":946.7,"uv_index":8.2,"wind_gusts":37.8,"aqi":150,"pm10":22.0,"pm2_5":19.0,"mosquito_risk":0,"arthritis_risk":5,"migraine_risk":10,"frizz_risk":0,"updated_at":"2026-03-13T16:10:50.364313+05:30"},{"city":"Ahmedabad","state":"Gujarat","latitude":23.0225,"longitude":72.5714,"temp":38.6,"humidity":17,"rain":0.0,"pressure":1000.2,"uv_index":7.5,"wind_gusts":22.3,"aqi":104,"pm10":50.1,"pm2_5":23.5,"mosquito_risk":0,"arthritis_risk":5,"migraine_risk":7,"frizz_risk":0,"updated_at":"2026-03-13T16:10:50.364321+05:30"},{"city":"Jaipur","state":"Rajasthan","latitude":26.9124,"longitude":75.7873,"temp":35.2,"humidity":20,"rain":0.0,"pressure":959.4,"uv_index":6.95,"wind_gusts":27.0,"aqi":109,"pm10":149.5,"pm2_5":34.8,"mosquito_risk":0,"arthritis_risk":5,"migraine_risk":10,"frizz_risk":0,"updated_at":"2026-03-13T16:10:50.364328+05:30"},{"city":"Lucknow","state":"Uttar Pradesh","latitude":26.8467,"longitude":80.9462,"temp":34.5,"humidity":27,"rain":0.0,"pressure":992.3,"uv_index":5.95,"wind_gusts":28.4,"aqi":171,"pm10":124.8,"pm2_5":43.9,"mosquito_risk":0,"arthritis_risk":5,"migraine_risk":3,"frizz_risk":0,"updated_at":"2026-03-13T16:10:50.364335+05:30"},{"city":"Kanpur","state":"Uttar Pradesh","latitude":26.4499,"longitude":80.3319,"temp":33.7,"humidity":34,"rain":0.0,"pressure":990.9,"uv_index":6.35,"wind_gusts":18.7,"aqi":270,"pm10":271.0,"pm2_5":55.3,"mosquito_risk":0,"arthritis_risk":5,"migraine_risk":7,"frizz_risk":0,"updated_at":"2026-03-13T16:10:50.364342+05:30"},{"city":"Chandigarh","state":"Chandigarh","latitude":30.7333,"longitude":76.7794,"temp":28.5,"humidity":39,"rain":0.0,"pressure":969.2,"uv_index":5.15,"wind_gusts":29.5,"aqi":83,"pm10":32.9,"pm2_5":21.3,"mosquito_risk":4,"arthritis_risk":5,"migraine_risk":3,"frizz_risk":0,"updated_at":"2026-03-13T16:10:50.364350+05:30"},{"city":"Srinagar","state":"Jammu and Kashmir","latitude":34.0837,"longitude":74.7973,"temp":16.5,"humidity":42,"rain":0.0,"pressure":843.4,"uv_index":6.85,"wind_gusts":14.4,"aqi":72,"pm10":25.6,"pm2_5":12.4,"mosquito_risk":0,"arthritis_risk":5,"migraine_risk":7,"frizz_risk":0,"updated_at":"2026-03-13T16:10:50.364357+05:30"},{"city":"Jammu","state":"Jammu and Kashmir","latitude":32.7266,"longitude":74.857,"temp":29.9,"humidity":31,"rain":0.0,"pressure":973.4,"uv_index":6.45,"wind_gusts":24.8,"aqi":77,"pm10":18.8,"pm2_5":9.3,"mosquito_risk":4,"arthritis_risk":5,"migraine_risk":7,"frizz_risk":0,"updated_at":"2026-03-13T16:10:50.364364+05:30"},{"city":"Amritsar","state":"Punjab","latitude":31.634,"longitude":74.8723,"temp":28.2,"humidity":37,"rain":0.0,"pressure":982.4,"uv_index":6.05,"wind_gusts":25.6,"aqi":99,"pm10":22.7,"pm2_5":11.6,"mosquito_risk":4,"arthritis_risk":5,"migraine_risk":7,"frizz_risk":0,"updated_at":"2026-03-13T16:10:50.364370+05:30"},{"city":"Ludhiana","state":"Punjab","latitude":30.901,"longitude":75.8573,"temp":28.6,"humidity":38,"rain":0.0,"pressure":979.9,"uv_index":5.75,"wind_gusts":27.7,"aqi":109,"pm10":44.4,"pm2_5":21.1,"mosquito_risk":4,"arthritis_risk":5,"migraine_risk":3,"frizz_risk":0,"updated_at":"2026-03-13T16:10:50.364376+05:30"},{"city":"Jalandhar","state":"Punjab","latitude":31.326,"longitude":75.5762,"temp":28.2,"humidity":38,"rain":0.0,"pressure":981.0,"uv_index":5.65,"wind_gusts":25.6,"aqi":106,"pm10":57.9,"pm2_5":17.6,"mosquito_risk":4,"arthritis_risk":5,"migraine_risk":3,"frizz_risk":0,"updated_at":"2026-03-13T16:10:50.364384+05:30"},{"city":"Dehradun","state":"Uttarakhand","latitude":30.6284,"longitude":78.0322,"temp":20.3,"humidity":41,"rain":0.0,"pressure":831.2,"uv_index":6.0,"wind_gusts":28.8,"aqi":45,"pm10":31.5,"pm2_5":11.8,"mosquito_risk":0,"arthritis_risk":5,"migraine_risk":3,"frizz_risk":0,"updated_at":"2026-03-13T16:10:50.364391+05:30"},{"city":"Shimla","state":"Himachal Pradesh","latitude":31.1048,"longitude":77.1734,"temp":17.7,"humidity":45,"rain":0.0,"pressure":786.1,"uv_index":5.2,"wind_gusts":39.2,"aqi":54,"pm10":22.2,"pm2_5":8.9,"mosquito_risk":0,"arthritis_risk":5,"migraine_risk":3,"frizz_risk":0,"updated_at":"2026-03-13T16:10:50.364400+05:30"},{"city":"Manali","state":"Himachal Pradesh","latitude":32.2396,"longitude":77.1887,"temp":18.7,"humidity":21,"rain":0.0,"pressure":820.6,"uv_index":8.15,"wind_gusts":38.5,"aqi":64,"pm10":20.3,"pm2_5":5.9,"mosquito_risk":0,"arthritis_risk":5,"migraine_risk":7,"frizz_risk":1,"updated_at":"2026-03-13T16:10:50.364429+05:30"},{"city":"Gurgaon","state":"Haryana","latitude":28.4595,"longitude":77.0266,"temp":31.0,"humidity":26,"rain":0.0,"pressure":982.0,"uv_index":6.1,"wind_gusts":28.1,"aqi":1076,"pm10":1322.5,"pm2_5":137.4,"mosquito_risk":0,"arthritis_risk":5,"migraine_risk":7,"frizz_risk":0,"updated_at":"2026-03-13T16:10:50.364437+05:30"},{"city":"Noida","state":"Uttar Pradesh","latitude":28.5355,"longitude":77.391,"temp":31.4,"humidity":26,"rain":0.0,"pressure":985.0,"uv_index":5.95,"wind_gusts":28.8,"aqi":1076,"pm10":1322.5,"pm2_5":137.4,"mosquito_risk":0,"arthritis_risk":5,"migraine_risk":3,"frizz_risk":0,"updated_at":"2026-03-13T16:10:50.364444+05:30"},{"city":"Ghaziabad","state":"Uttar Pradesh","latitude":28.6692,"longitude":77.4538,"temp":30.2,"humidity":32,"rain":0.0,"pressure":983.1,"uv_index":5.85,"wind_gusts":27.7,"aqi":193,"pm10":245.9,"pm2_5":50.6,"mosquito_risk":0,"arthritis_risk":5,"migraine_risk":3,"frizz_risk":0,"updated_at":"2026-03-13T16:10:50.364450+05:30"},{"city":"Faridabad","state":"Haryana","latitude":28.4089,"longitude":77.3178,"temp":31.4,"humidity":25,"rain":0.0,"pressure":984.2,"uv_index":6.0,"wind_gusts":27.7,"aqi":1076,"pm10":1322.5,"pm2_5":137.4,"mosquito_risk":0,"arthritis_risk":5,"migraine_risk":3,"frizz_risk":0,"updated_at":"2026-03-13T16:10:50.364456+05:30"},{"city":"Meerut","state":"Uttar Pradesh","latitude":28.9845,"longitude":77.7064,"temp":29.3,"humidity":36,"rain":0.0,"pressure":981.8,"uv_index":5.3,"wind_gusts":27.7,"aqi":193,"pm10":245.9,"pm2_5":50.6,"mosquito_risk":4,"arthritis_risk":5,"migraine_risk":3,"frizz_risk":0,"updated_at":"2026-03-13T16:10:50.364462+05:30"},{"city":"Agra","state":"Uttar Pradesh","latitude":27.1767,"longitude":78.0081,"temp":35.2,"humidity":26,"rain":0.0,"pressure":987.1,"uv_index":6.2,"wind_gusts":24.8,"aqi":521,"pm10":674.3,"pm2_5":86.4,"mosquito_risk":0,"arthritis_risk":5,"migraine_risk":10,"frizz_risk":0,"updated_at":"2026-03-13T16:10:50.364469+05:30"},{"city":"Varanasi","state":"Uttar Pradesh","latitude":25.3176,"longitude":82.9739,"temp":34.4,"humidity":28,"rain":0.0,"pressure":996.2,"uv_index":7.35,"wind_gusts":25.2,"aqi":119,"pm10":139.2,"pm2_5":35.0,"mosquito_risk":0,"arthritis_risk":5,"migraine_risk":7,"frizz_risk":0,"updated_at":"2026-03-13T16:10:50.364480+05:30"},{"city":"Prayagraj","state":"Uttar Pradesh","latitude":25.4358,"longitude":81.8463,"temp":34.1,"humidity":28,"rain":0.0,"pressure":994.8,"uv_index":7.05,"wind_gusts":21.6,"aqi":143,"pm10":159.3,"pm2_5":41.4,"mosquito_risk":0,"arthritis_risk":5,"migraine_risk":7,"frizz_risk":0,"updated_at":"2026-03-13T16:10:50.364487+05:30"},{"city":"Gorakhpur","state":"Uttar Pradesh","latitude":26.7606,"longitude":83.3732,"temp":32.4,"humidity":39,"rain":0.0,"pressure":994.8,"uv_index":7.0,"wind_gusts":28.4,"aqi":183,"pm10":147.1,"pm2_5":60.8,"mosquito_risk":0,"arthritis_risk":5,"migraine_risk":7,"frizz_risk":1,"updated_at":"2026-03-13T16:10:50.364493+05:30"},{"city":"Bareilly","state":"Uttar Pradesh","latitude":28.367,"longitude":79.4304,"temp":31.3,"humidity":34,"rain":0.0,"pressure":986.1,"uv_index":6.4,"wind_gusts":26.6,"aqi":153,"pm10":48.7,"pm2_5":30.6,"mosquito_risk":0,"arthritis_risk":5,"migraine_risk":7,"frizz_risk":0,"updated_at":"2026-03-13T16:10:50.364499+05:30"},{"city":"Aligarh","state":"Uttar Pradesh","latitude":27.8974,"longitude":78.088,"temp":33.4,"humidity":22,"rain":0.0,"pressure":985.5,"uv_index":6.0,"wind_gusts":28.8,"aqi":624,"pm10":733.9,"pm2_5":99.2,"mosquito_risk":0,"arthritis_risk":5,"migraine_risk":3,"frizz_risk":0,"updated_at":"2026-03-13T16:10:50.364506+05:30"},{"city":"Moradabad","state":"Uttar Pradesh","latitude":28.8386,"longitude":78.7733,"temp":30.3,"humidity":33,"rain":0.0,"pressure":983.3,"uv_index":5.65,"wind_gusts":27.4,"aqi":152,"pm10":54.9,"pm2_5":29.7,"mosquito_risk":0,"arthritis_risk":5,"migraine_risk":3,"frizz_risk":0,"updated_at":"2026-03-13T16:10:50.364515+05:30"},{"city":"Saharanpur","state":"Uttar Pradesh","latitude":29.9637,"longitude":77.546,"temp":29.3,"humidity":43,"rain":0.0,"pressure":975.8,"uv_index":4.85,"wind_gusts":27.4,"aqi":136,"pm10":84.1,"pm2_5":31.3,"mosquito_risk":4,"arthritis_risk":5,"migraine_risk":3,"frizz_risk":0,"updated_at":"2026-03-13T16:10:50.364520+05:30"},{"city":"Jhansi","state":"Uttar Pradesh","latitude":25.4484,"longitude":78.5685,"temp":36.1,"humidity":18,"rain":0.0,"pressure":977.1,"uv_index":6.85,"wind_gusts":20.9,"aqi":61,"pm10":87.5,"pm2_5":26.7,"mosquito_risk":0,"arthritis_risk":5,"migraine_risk":10,"frizz_risk":0,"updated_at":"2026-03-13T16:10:53.577442+05:30"},{"city":"Surat","state":"Gujarat","latitude":21.1702,"longitude":72.8311,"temp":34.5,"humidity":30,"rain":0.0,"pressure":1005.2,"uv_index":7.35,"wind_gusts":23.8,"aqi":148,"pm10":43.9,"pm2_5":37.6,"mosquito_risk":0,"arthritis_risk":5,"migraine_risk":4,"frizz_risk":0,"updated_at":"2026-03-13T16:10:53.577476+05:30"},{"city":"Vadodara","state":"Gujarat","latitude":22.3072,"longitude":73.1812,"temp":38.9,"humidity":15,"rain":0.0,"pressure":1002.6,"uv_index":7.5,"wind_gusts":23.8,"aqi":115,"pm10":29.4,"pm2_5":21.3,"mosquito_risk":0,"arthritis_risk":5,"migraine_risk":7,"frizz_risk":0,"updated_at":"2026-03-13T16:10:53.577487+05:30"},{"city":"Rajkot","state":"Gujarat","latitude":22.3039,"longitude":70.8022,"temp":37.6,"humidity":16,"rain":0.0,"pressure":992.8,"uv_index":7.3,"wind_gusts":33.1,"aqi":83,"pm10":32.2,"pm2_5":14.9,"mosquito_risk":0,"arthritis_risk":5,"migraine_risk":10,"frizz_risk":0,"updated_at":"2026-03-13T16:10:53.577496+05:30"},{"city":"Thane","state":"Maharashtra","latitude":19.2183,"longitude":72.9781,"temp":32.8,"humidity":48,"rain":0.0,"pressure":1005.6,"uv_index":7.65,"wind_gusts":38.2,"aqi":188,"pm10":59.8,"pm2_5":56.5,"mosquito_risk":0,"arthritis_risk":5,"migraine_risk":4,"frizz_risk":1,"updated_at":"2026-03-13T16:10:53.577505+05:30"},{"city":"Nagpur","state":"Maharashtra","latitude":21.1458,"longitude":79.0882,"temp":37.9,"humidity":16,"rain":0.0,"pressure":971.6,"uv_index":8.05,"wind_gusts":19.4,"aqi":91,"pm10":22.4,"pm2_5":17.5,"mosquito_risk":0,"arthritis_risk":5,"migraine_risk":10,"frizz_risk":0,"updated_at":"2026-03-13T16:10:53.577513+05:30"},{"city":"Nashik","state":"Maharashtra","latitude":19.9975,"longitude":73.7898,"temp":36.2,"humidity":17,"rain":0.0,"pressure":944.2,"uv_index":7.85,"wind_gusts":34.9,"aqi":101,"pm10":17.5,"pm2_5":15.4,"mosquito_risk":0,"arthritis_risk":5,"migraine_risk":10,"frizz_risk":0,"updated_at":"2026-03-13T16:10:53.577522+05:30"},{"city":"Aurangabad","state":"Maharashtra","latitude":19.8762,"longitude":75.3433,"temp":36.0,"humidity":17,"rain":0.0,"pressure":943.0,"uv_index":8.35,"wind_gusts":29.5,"aqi":135,"pm10":20.0,"pm2_5":17.7,"mosquito_risk":0,"arthritis_risk":5,"migraine_risk":10,"frizz_risk":0,"updated_at":"2026-03-13T16:10:53.577532+05:30"},{"city":"Solapur","state":"Maharashtra","latitude":17.6599,"longitude":75.9064,"temp":36.4,"humidity":20,"rain":0.0,"pressure":955.4,"uv_index":8.6,"wind_gusts":24.1,"aqi":114,"pm10":35.2,"pm2_5":28.2,"mosquito_risk":0,"arthritis_risk":5,"migraine_risk":10,"frizz_risk":0,"updated_at":"2026-03-13T16:10:53.577541+05:30"},{"city":"Kolhapur","state":"Maharashtra","latitude":16.705,"longitude":74.2433,"temp":33.2,"humidity":39,"rain":0.0,"pressure":946.6,"uv_index":8.7,"wind_gusts":47.9,"aqi":151,"pm10":27.4,"pm2_5":23.1,"mosquito_risk":0,"arthritis_risk":5,"migraine_risk":7,"frizz_risk":1,"updated_at":"2026-03-13T16:10:53.577548+05:30"},{"city":"Goa","state":"Goa","latitude":15.2993,"longitude":74.124,"temp":30.7,"humidity":67,"rain":0.0,"pressure":996.1,"uv_index":8.7,"wind_gusts":31.3,"aqi":138,"pm10":41.0,"pm2_5":35.6,"mosquito_risk":3,"arthritis_risk":5,"migraine_risk":7,"frizz_risk":1,"updated_at":"2026-03-13T16:10:53.577557+05:30"},{"city":"Jodhpur","state":"Rajasthan","latitude":26.2389,"longitude":73.0243,"temp":36.6,"humidity":20,"rain":0.0,"pressure":982.0,"uv_index":6.9,"wind_gusts":18.7,"aqi":77,"pm10":199.3,"pm2_5":32.9,"mosquito_risk":0,"arthritis_risk":5,"migraine_risk":10,"frizz_risk":0,"updated_at":"2026-03-13T16:10:53.577564+05:30"},{"city":"Udaipur","state":"Rajasthan","latitude":24.5854,"longitude":73.7125,"temp":34.9,"humidity":10,"rain":0.0,"pressure":946.5,"uv_index":7.85,"wind_gusts":30.2,"aqi":57,"pm10":23.1,"pm2_5":12.0,"mosquito_risk":0,"arthritis_risk":5,"migraine_risk":7,"frizz_risk":1,"updated_at":"2026-03-13T16:10:53.577571+05:30"},{"city":"Kota","state":"Rajasthan","latitude":25.2138,"longitude":75.8648,"temp":37.5,"humidity":17,"rain":0.0,"pressure":977.6,"uv_index":7.1,"wind_gusts":17.6,"aqi":69,"pm10":33.3,"pm2_5":11.2,"mosquito_risk":0,"arthritis_risk":5,"migraine_risk":10,"frizz_risk":0,"updated_at":"2026-03-13T16:10:53.577578+05:30"},{"city":"Bikaner","state":"Rajasthan","latitude":28.0229,"longitude":73.3119,"temp":34.0,"humidity":15,"rain":0.0,"pressure":982.5,"uv_index":6.6,"wind_gusts":24.8,"aqi":80,"pm10":32.7,"pm2_5":16.2,"mosquito_risk":0,"arthritis_risk":5,"migraine_risk":7,"frizz_risk":0,"updated_at":"2026-03-13T16:10:53.577585+05:30"},{"city":"Ajmer","state":"Rajasthan","latitude":26.4499,"longitude":74.6399,"temp":34.6,"humidity":20,"rain":0.0,"pressure":954.4,"uv_index":7.05,"wind_gusts":22.0,"aqi":66,"pm10":133.6,"pm2_5":29.6,"mosquito_risk":0,"arthritis_risk":5,"migraine_risk":7,"frizz_risk":0,"updated_at":"2026-03-13T16:10:53.577592+05:30"},{"city":"Gwalior","state":"Madhya Pradesh","latitude":26.2183,"longitude":78.1828,"temp":32.9,"humidity":34,"rain":0.0,"pressure":982.9,"uv_index":6.8,"wind_gusts":21.2,"aqi":84,"pm10":111.5,"pm2_5":37.6,"mosquito_risk":0,"arthritis_risk":5,"migraine_risk":7,"frizz_risk":0,"updated_at":"2026-03-13T16:10:53.577598+05:30"},{"city":"Indore","state":"Madhya Pradesh","latitude":22.7196,"longitude":75.8577,"temp":36.2,"humidity":9,"rain":0.0,"pressure":947.5,"uv_index":7.75,"wind_gusts":32.4,"aqi":76,"pm10":14.2,"pm2_5":10.8,"mosquito_risk":0,"arthritis_risk":5,"migraine_risk":10,"frizz_risk":1,"updated_at":"2026-03-13T16:10:53.577605+05:30"},{"city":"Bhopal","state":"Madhya Pradesh","latitude":23.2599,"longitude":77.4126,"temp":35.9,"humidity":12,"rain":0.0,"pressure":953.4,"uv_index":7.55,"wind_gusts":31.0,"aqi":81,"pm10":12.5,"pm2_5":12.0,"mosquito_risk":0,"arthritis_risk":5,"migraine_risk":10,"frizz_risk":0,"updated_at":"2026-03-13T16:10:53.577611+05:30"},{"city":"Jabalpur","state":"Madhya Pradesh","latitude":23.1815,"longitude":79.9864,"temp":35.8,"humidity":20,"rain":0.0,"pressure":960.8,"uv_index":7.75,"wind_gusts":20.2,"aqi":101,"pm10":17.6,"pm2_5":15.1,"mosquito_risk":0,"arthritis_risk":5,"migraine_risk":10,"frizz_risk":0,"updated_at":"2026-03-13T16:10:53.577618+05:30"},{"city":"Ujjain","state":"Madhya Pradesh","latitude":23.1765,"longitude":75.7885,"temp":35.7,"humidity":11,"rain":0.0,"pressure":953.3,"uv_index":7.7,"wind_gusts":26.3,"aqi":60,"pm10":18.1,"pm2_5":11.7,"mosquito_risk":0,"arthritis_risk":5,"migraine_risk":10,"frizz_risk":0,"updated_at":"2026-03-13T16:10:53.577624+05:30"},{"city":"Visakhapatnam","state":"Andhra Pradesh","latitude":17.6868,"longitude":83.2185,"temp":30.4,"humidity":61,"rain":0.0,"pressure":1003.1,"uv_index":8.65,"wind_gusts":40.3,"aqi":88,"pm10":24.2,"pm2_5":20.3,"mosquito_risk":3,"arthritis_risk":5,"migraine_risk":4,"frizz_risk":1,"updated_at":"2026-03-13T16:10:53.577631+05:30"},{"city":"Vijayawada","state":"Andhra Pradesh","latitude":16.5062,"longitude":80.648,"temp":34.8,"humidity":41,"rain":0.0,"pressure":1001.2,"uv_index":8.75,"wind_gusts":31.3,"aqi":93,"pm10":31.5,"pm2_5":24.7,"mosquito_risk":0,"arthritis_risk":5,"migraine_risk":4,"frizz_risk":1,"updated_at":"2026-03-13T16:10:53.577637+05:30"},{"city":"Guntur","state":"Andhra Pradesh","latitude":16.3067,"longitude":80.4365,"temp":33.6,"humidity":45,"rain":0.0,"pressure":1002.7,"uv_index":8.75,"wind_gusts":33.8,"aqi":88,"pm10":34.0,"pm2_5":24.9,"mosquito_risk":0,"arthritis_risk":5,"migraine_risk":4,"frizz_risk":1,"updated_at":"2026-03-13T16:10:53.577643+05:30"},{"city":"Nellore","state":"Andhra Pradesh","latitude":14.4426,"longitude":79.9865,"temp":34.1,"humidity":46,"rain":0.0,"pressure":1004.7,"uv_index":8.9,"wind_gusts":30.2,"aqi":74,"pm10":28.9,"pm2_5":22.4,"mosquito_risk":0,"arthritis_risk":5,"migraine_risk":4,"frizz_risk":1,"updated_at":"2026-03-13T16:10:53.577650+05:30"},{"city":"Kurnool","state":"Andhra Pradesh","latitude":15.8281,"longitude":78.0373,"temp":38.3,"humidity":15,"rain":0.0,"pressure":974.8,"uv_index":8.75,"wind_gusts":23.8,"aqi":111,"pm10":49.4,"pm2_5":35.0,"mosquito_risk":0,"arthritis_risk":5,"migraine_risk":10,"frizz_risk":0,"updated_at":"2026-03-13T16:10:53.577657+05:30"},{"city":"Kakinada","state":"Andhra Pradesh","latitude":16.9891,"longitude":82.2475,"temp":32.9,"humidity":53,"rain":0.0,"pressure":1006.3,"uv_index":8.7,"wind_gusts":34.6,"aqi":78,"pm10":17.8,"pm2_5":13.5,"mosquito_risk":0,"arthritis_risk":5,"migraine_risk":4,"frizz_risk":1,"updated_at":"2026-03-13T16:10:53.577664+05:30"},{"city":"Tirupati","state":"Andhra Pradesh","latitude":13.6288,"longitude":79.4192,"temp":34.3,"humidity":32,"rain":0.0,"pressure":990.1,"uv_index":9.05,"wind_gusts":33.5,"aqi":97,"pm10":28.1,"pm2_5":21.9,"mosquito_risk":0,"arthritis_risk":5,"migraine_risk":7,"frizz_risk":0,"updated_at":"2026-03-13T16:10:53.577670+05:30"},{"city":"Warangal","state":"Telangana","latitude":17.9689,"longitude":79.5941,"temp":36.3,"humidity":28,"rain":0.0,"pressure":977.1,"uv_index":8.5,"wind_gusts":28.8,"aqi":125,"pm10":44.5,"pm2_5":28.8,"mosquito_risk":0,"arthritis_risk":5,"migraine_risk":10,"frizz_risk":0,"updated_at":"2026-03-13T16:10:53.577677+05:30"},{"city":"Nizamabad","state":"Telangana","latitude":18.6725,"longitude":78.0941,"temp":36.6,"humidity":18,"rain":0.0,"pressure":963.3,"uv_index":8.4,"wind_gusts":19.1,"aqi":125,"pm10":39.1,"pm2_5":27.5,"mosquito_risk":0,"arthritis_risk":5,"migraine_risk":10,"frizz_risk":0,"updated_at":"2026-03-13T16:10:53.577683+05:30"},{"city":"Mysore","state":"Karnataka","latitude":12.2958,"longitude":76.6396,"temp":32.6,"humidity":24,"rain":0.0,"pressure":927.3,"uv_index":9.3,"wind_gusts":29.9,"aqi":80,"pm10":40.9,"pm2_5":31.3,"mosquito_risk":0,"arthritis_risk":5,"migraine_risk":7,"frizz_risk":0,"updated_at":"2026-03-13T16:10:53.577689+05:30"},{"city":"Mangalore","state":"Karnataka","latitude":12.9141,"longitude":74.856,"temp":28.8,"humidity":84,"rain":0.0,"pressure":1004.5,"uv_index":8.95,"wind_gusts":23.0,"aqi":116,"pm10":46.7,"pm2_5":38.8,"mosquito_risk":7,"arthritis_risk":5,"migraine_risk":4,"frizz_risk":1,"updated_at":"2026-03-13T16:10:53.577695+05:30"},{"city":"Hubli-Dharwad","state":"Karnataka","latitude":15.3647,"longitude":75.124,"temp":35.2,"humidity":23,"rain":0.0,"pressure":939.1,"uv_index":8.9,"wind_gusts":33.5,"aqi":101,"pm10":31.2,"pm2_5":25.9,"mosquito_risk":0,"arthritis_risk":5,"migraine_risk":10,"frizz_risk":0,"updated_at":"2026-03-13T16:10:53.577702+05:30"},{"city":"Belgaum","state":"Karnataka","latitude":15.8497,"longitude":74.4977,"temp":30.4,"humidity":49,"rain":0.0,"pressure":924.6,"uv_index":8.95,"wind_gusts":41.0,"aqi":128,"pm10":29.0,"pm2_5":24.6,"mosquito_risk":0,"arthritis_risk":5,"migraine_risk":7,"frizz_risk":1,"updated_at":"2026-03-13T16:10:56.791832+05:30"},{"city":"Coimbatore","state":"Tamil Nadu","latitude":11.0168,"longitude":76.9558,"temp":34.3,"humidity":23,"rain":0.0,"pressure":959.8,"uv_index":9.25,"wind_gusts":42.8,"aqi":81,"pm10":31.2,"pm2_5":23.9,"mosquito_risk":0,"arthritis_risk":5,"migraine_risk":7,"frizz_risk":0,"updated_at":"2026-03-13T16:10:56.791862+05:30"},{"city":"Madurai","state":"Tamil Nadu","latitude":9.9252,"longitude":78.1198,"temp":35.6,"humidity":30,"rain":0.0,"pressure":990.5,"uv_index":9.25,"wind_gusts":26.6,"aqi":82,"pm10":14.6,"pm2_5":10.8,"mosquito_risk":0,"arthritis_risk":5,"migraine_risk":10,"frizz_risk":0,"updated_at":"2026-03-13T16:10:56.791873+05:30"},{"city":"Trichy","state":"Tamil Nadu","latitude":10.7905,"longitude":78.7047,"temp":34.6,"humidity":38,"rain":0.0,"pressure":997.8,"uv_index":9.15,"wind_gusts":23.0,"aqi":86,"pm10":19.3,"pm2_5":15.1,"mosquito_risk":0,"arthritis_risk":5,"migraine_risk":7,"frizz_risk":1,"updated_at":"2026-03-13T16:10:56.791881+05:30"},{"city":"Salem","state":"Tamil Nadu","latitude":11.6643,"longitude":78.146,"temp":34.6,"humidity":30,"rain":0.0,"pressure":975.6,"uv_index":9.2,"wind_gusts":24.8,"aqi":100,"pm10":40.2,"pm2_5":31.9,"mosquito_risk":0,"arthritis_risk":5,"migraine_risk":7,"frizz_risk":0,"updated_at":"2026-03-13T16:10:56.791888+05:30"},{"city":"Tirunelveli","state":"Tamil Nadu","latitude":8.7139,"longitude":77.7567,"temp":34.9,"humidity":40,"rain":0.0,"pressure":1000.5,"uv_index":9.2,"wind_gusts":31.3,"aqi":64,"pm10":12.6,"pm2_5":9.7,"mosquito_risk":0,"arthritis_risk":5,"migraine_risk":4,"frizz_risk":1,"updated_at":"2026-03-13T16:10:56.791895+05:30"},{"city":"Vellore","state":"Tamil Nadu","latitude":12.9165,"longitude":79.1325,"temp":34.1,"humidity":29,"rain":0.0,"pressure":983.2,"uv_index":9.1,"wind_gusts":33.1,"aqi":105,"pm10":28.8,"pm2_5":23.9,"mosquito_risk":0,"arthritis_risk":5,"migraine_risk":7,"frizz_risk":0,"updated_at":"2026-03-13T16:10:56.791903+05:30"},{"city":"Erode","state":"Tamil Nadu","latitude":11.341,"longitude":77.7172,"temp":35.7,"humidity":31,"rain":0.0,"pressure":986.9,"uv_index":9.15,"wind_gusts":23.8,"aqi":84,"pm10":32.0,"pm2_5":25.5,"mosquito_risk":0,"arthritis_risk":5,"migraine_risk":10,"frizz_risk":0,"updated_at":"2026-03-13T16:10:56.791910+05:30"},{"city":"Kochi","state":"Kerala","latitude":9.9312,"longitude":76.2673,"temp":28.7,"humidity":79,"rain":0.0,"pressure":1006.1,"uv_index":9.1,"wind_gusts":33.8,"aqi":107,"pm10":25.6,"pm2_5":23.9,"mosquito_risk":7,"arthritis_risk":5,"migraine_risk":4,"frizz_risk":1,"updated_at":"2026-03-13T16:10:56.791917+05:30"},{"city":"Thiruvananthapuram","state":"Kerala","latitude":8.5241,"longitude":76.9366,"temp":28.7,"humidity":78,"rain":0.0,"pressure":1005.6,"uv_index":9.1,"wind_gusts":24.1,"aqi":75,"pm10":19.6,"pm2_5":16.8,"mosquito_risk":7,"arthritis_risk":5,"migraine_risk":4,"frizz_risk":1,"updated_at":"2026-03-13T16:10:56.791924+05:30"},{"city":"Kozhikode","state":"Kerala","latitude":11.2588,"longitude":75.7804,"temp":29.5,"humidity":79,"rain":0.0,"pressure":1005.6,"uv_index":8.95,"wind_gusts":29.9,"aqi":95,"pm10":28.7,"pm2_5":25.3,"mosquito_risk":7,"arthritis_risk":5,"migraine_risk":4,"frizz_risk":1,"updated_at":"2026-03-13T16:10:56.791930+05:30"},{"city":"Thrissur","state":"Kerala","latitude":10.5276,"longitude":76.2144,"temp":31.4,"humidity":66,"rain":0.0,"pressure":1004.5,"uv_index":9.05,"wind_gusts":37.1,"aqi":101,"pm10":34.5,"pm2_5":28.2,"mosquito_risk":3,"arthritis_risk":5,"migraine_risk":4,"frizz_risk":1,"updated_at":"2026-03-13T16:10:56.791937+05:30"},{"city":"Kannur","state":"Kerala","latitude":11.8745,"longitude":75.3704,"temp":30.3,"humidity":71,"rain":0.0,"pressure":1005.2,"uv_index":9.0,"wind_gusts":28.1,"aqi":107,"pm10":38.1,"pm2_5":32.7,"mosquito_risk":3,"arthritis_risk":5,"migraine_risk":4,"frizz_risk":1,"updated_at":"2026-03-13T16:10:56.791944+05:30"},{"city":"Patna","state":"Bihar","latitude":25.5941,"longitude":85.1376,"temp":32.5,"humidity":41,"rain":0.0,"pressure":998.4,"uv_index":7.5,"wind_gusts":23.0,"aqi":180,"pm10":280.3,"pm2_5":61.9,"mosquito_risk":0,"arthritis_risk":5,"migraine_risk":7,"frizz_risk":1,"updated_at":"2026-03-13T16:10:56.791951+05:30"},{"city":"Gaya","state":"Bihar","latitude":24.7914,"longitude":85.0002,"temp":32.6,"humidity":37,"rain":0.0,"pressure":992.4,"uv_index":7.6,"wind_gusts":19.4,"aqi":143,"pm10":165.3,"pm2_5":35.9,"mosquito_risk":0,"arthritis_risk":5,"migraine_risk":7,"frizz_risk":0,"updated_at":"2026-03-13T16:10:56.791958+05:30"},{"city":"Muzaffarpur","state":"Bihar","latitude":26.1209,"longitude":85.3647,"temp":32.0,"humidity":46,"rain":0.0,"pressure":998.1,"uv_index":7.45,"wind_gusts":24.8,"aqi":185,"pm10":253.3,"pm2_5":72.4,"mosquito_risk":0,"arthritis_risk":5,"migraine_risk":7,"frizz_risk":1,"updated_at":"2026-03-13T16:10:56.791964+05:30"},{"city":"Bhagalpur","state":"Bihar","latitude":25.2425,"longitude":87.0117,"temp":32.3,"humidity":42,"rain":0.0,"pressure":998.6,"uv_index":7.5,"wind_gusts":26.6,"aqi":172,"pm10":195.6,"pm2_5":63.6,"mosquito_risk":0,"arthritis_risk":5,"migraine_risk":7,"frizz_risk":1,"updated_at":"2026-03-13T16:10:56.791970+05:30"},{"city":"Ranchi","state":"Jharkhand","latitude":23.3441,"longitude":85.3096,"temp":33.0,"humidity":15,"rain":0.0,"pressure":937.4,"uv_index":8.2,"wind_gusts":26.3,"aqi":107,"pm10":20.0,"pm2_5":10.5,"mosquito_risk":0,"arthritis_risk":5,"migraine_risk":7,"frizz_risk":0,"updated_at":"2026-03-13T16:10:56.791976+05:30"},{"city":"Jamshedpur","state":"Jharkhand","latitude":22.8046,"longitude":86.2029,"temp":35.9,"humidity":25,"rain":0.0,"pressure":988.8,"uv_index":8.1,"wind_gusts":16.6,"aqi":158,"pm10":46.6,"pm2_5":21.4,"mosquito_risk":0,"arthritis_risk":5,"migraine_risk":10,"frizz_risk":0,"updated_at":"2026-03-13T16:10:56.791982+05:30"},{"city":"Dhanbad","state":"Jharkhand","latitude":23.7957,"longitude":86.4304,"temp":36.1,"humidity":16,"rain":0.0,"pressure":978.0,"uv_index":8.0,"wind_gusts":26.3,"aqi":170,"pm10":46.1,"pm2_5":19.3,"mosquito_risk":0,"arthritis_risk":5,"migraine_risk":10,"frizz_risk":0,"updated_at":"2026-03-13T16:10:56.791989+05:30"},{"city":"Bokaro","state":"Jharkhand","latitude":23.6693,"longitude":86.1511,"temp":35.8,"humidity":16,"rain":0.0,"pressure":982.0,"uv_index":8.0,"wind_gusts":26.6,"aqi":152,"pm10":39.0,"pm2_5":16.2,"mosquito_risk":0,"arthritis_risk":5,"migraine_risk":10,"frizz_risk":0,"updated_at":"2026-03-13T16:10:56.791995+05:30"},{"city":"Bhubaneswar","state":"Odisha","latitude":20.2961,"longitude":85.8245,"temp":32.0,"humidity":56,"rain":0.0,"pressure":1001.5,"uv_index":8.4,"wind_gusts":33.5,"aqi":106,"pm10":41.9,"pm2_5":34.3,"mosquito_risk":0,"arthritis_risk":5,"migraine_risk":4,"frizz_risk":1,"updated_at":"2026-03-13T16:10:56.792001+05:30"},{"city":"Cuttack","state":"Odisha","latitude":20.4625,"longitude":85.8828,"temp":34.8,"humidity":45,"rain":0.0,"pressure":1002.8,"uv_index":8.45,"wind_gusts":28.1,"aqi":106,"pm10":41.9,"pm2_5":34.3,"mosquito_risk":0,"arthritis_risk":5,"migraine_risk":4,"frizz_risk":1,"updated_at":"2026-03-13T16:10:56.792006+05:30"},{"city":"Rourkela","state":"Odisha","latitude":22.2604,"longitude":84.8536,"temp":37.1,"humidity":18,"rain":0.0,"pressure":983.1,"uv_index":8.0,"wind_gusts":19.4,"aqi":120,"pm10":41.2,"pm2_5":17.9,"mosquito_risk":0,"arthritis_risk":5,"migraine_risk":10,"frizz_risk":0,"updated_at":"2026-03-13T16:10:56.792012+05:30"},{"city":"Raipur","state":"Chhattisgarh","latitude":21.2514,"longitude":81.6296,"temp":37.9,"humidity":14,"rain":0.0,"pressure":972.9,"uv_index":8.15,"wind_gusts":18.0,"aqi":130,"pm10":30.4,"pm2_5":21.1,"mosquito_risk":0,"arthritis_risk":5,"migraine_risk":10,"frizz_risk":0,"updated_at":"2026-03-13T16:10:56.792018+05:30"},{"city":"Bhilai","state":"Chhattisgarh","latitude":21.1938,"longitude":81.3509,"temp":38.4,"humidity":14,"rain":0.0,"pressure":973.0,"uv_index":8.15,"wind_gusts":14.8,"aqi":127,"pm10":27.3,"pm2_5":18.6,"mosquito_risk":0,"arthritis_risk":5,"migraine_risk":10,"frizz_risk":0,"updated_at":"2026-03-13T16:10:56.792024+05:30"},{"city":"Guwahati","state":"Assam","latitude":26.1158,"longitude":91.7086,"temp":23.2,"humidity":85,"rain":0.0,"pressure":1001.1,"uv_index":6.9,"wind_gusts":29.9,"aqi":158,"pm10":35.4,"pm2_5":30.6,"mosquito_risk":3,"arthritis_risk":5,"migraine_risk":4,"frizz_risk":1,"updated_at":"2026-03-13T16:10:56.792031+05:30"},{"city":"Agartala","state":"Tripura","latitude":23.8315,"longitude":91.2868,"temp":26.8,"humidity":73,"rain":0.0,"pressure":1005.6,"uv_index":7.6,"wind_gusts":32.8,"aqi":133,"pm10":44.1,"pm2_5":37.5,"mosquito_risk":7,"arthritis_risk":5,"migraine_risk":4,"frizz_risk":1,"updated_at":"2026-03-13T16:10:56.792038+05:30"},{"city":"Shillong","state":"Meghalaya","latitude":25.5788,"longitude":91.8933,"temp":15.3,"humidity":83,"rain":0.0,"pressure":854.3,"uv_index":7.0,"wind_gusts":56.9,"aqi":140,"pm10":28.5,"pm2_5":23.3,"mosquito_risk":3,"arthritis_risk":10,"migraine_risk":7,"frizz_risk":0,"updated_at":"2026-03-13T16:10:56.792045+05:30"},{"city":"Imphal","state":"Manipur","latitude":24.817,"longitude":93.9368,"temp":19.2,"humidity":80,"rain":0.0,"pressure":922.1,"uv_index":7.4,"wind_gusts":61.2,"aqi":158,"pm10":73.1,"pm2_5":63.6,"mosquito_risk":3,"arthritis_risk":5,"migraine_risk":7,"frizz_risk":0,"updated_at":"2026-03-13T16:10:56.792052+05:30"},{"city":"Aizawl","state":"Mizoram","latitude":23.7271,"longitude":92.7176,"temp":19.7,"humidity":79,"rain":0.0,"pressure":892.5,"uv_index":7.15,"wind_gusts":76.0,"aqi":152,"pm10":58.4,"pm2_5":53.6,"mosquito_risk":3,"arthritis_risk":5,"migraine_risk":7,"frizz_risk":0,"updated_at":"2026-03-13T16:10:56.792058+05:30"},{"city":"Kohima","state":"Nagaland","latitude":25.6701,"longitude":94.1077,"temp":16.3,"humidity":85,"rain":0.0,"pressure":853.0,"uv_index":6.25,"wind_gusts":82.8,"aqi":139,"pm10":63.8,"pm2_5":55.6,"mosquito_risk":3,"arthritis_risk":10,"migraine_risk":7,"frizz_risk":0,"updated_at":"2026-03-13T16:10:56.792064+05:30"},{"city":"Gangtok","state":"Sikkim","latitude":27.3314,"longitude":88.6138,"temp":17.0,"humidity":82,"rain":0.0,"pressure":835.4,"uv_index":4.55,"wind_gusts":15.8,"aqi":104,"pm10":26.5,"pm2_5":24.9,"mosquito_risk":3,"arthritis_risk":10,"migraine_risk":3,"frizz_risk":0,"updated_at":"2026-03-13T16:10:56.792070+05:30"},{"city":"Siliguri","state":"West Bengal","latitude":26.7271,"longitude":88.3953,"temp":22.2,"humidity":81,"rain":0.0,"pressure":992.4,"uv_index":7.3,"wind_gusts":29.5,"aqi":156,"pm10":36.4,"pm2_5":31.3,"mosquito_risk":3,"arthritis_risk":5,"migraine_risk":7,"frizz_risk":1,"updated_at":"2026-03-13T16:11:00.005530+05:30"},{"city":"Durgapur","state":"West Bengal","latitude":23.5204,"longitude":87.3119,"temp":36.1,"humidity":17,"rain":0.0,"pressure":992.8,"uv_index":7.95,"wind_gusts":26.3,"aqi":170,"pm10":62.6,"pm2_5":28.4,"mosquito_risk":0,"arthritis_risk":5,"migraine_risk":10,"frizz_risk":0,"updated_at":"2026-03-13T16:11:00.005564+05:30"},{"city":"Asansol","state":"West Bengal","latitude":23.6739,"longitude":86.9524,"temp":35.7,"humidity":20,"rain":0.0,"pressure":991.3,"uv_index":7.95,"wind_gusts":23.4,"aqi":170,"pm10":55.3,"pm2_5":23.6,"mosquito_risk":0,"arthritis_risk":5,"migraine_risk":10,"frizz_risk":0,"updated_at":"2026-03-13T16:11:00.005577+05:30"},{"city":"Pondicherry","state":"Puducherry","latitude":11.9139,"longitude":79.8145,"temp":32.7,"humidity":51,"rain":0.0,"pressure":1007.4,"uv_index":9.0,"wind_gusts":27.7,"aqi":62,"pm10":18.5,"pm2_5":13.1,"mosquito_risk":0,"arthritis_risk":5,"migraine_risk":4,"frizz_risk":1,"updated_at":"2026-03-13T16:11:00.005586+05:30"},{"city":"Port Blair","state":"Andaman and Nicobar Islands","latitude":11.6234,"longitude":92.7265,"temp":28.9,"humidity":71,"rain":0.0,"pressure":1006.2,"uv_index":8.95,"wind_gusts":22.3,"aqi":62,"pm10":11.9,"pm2_5":9.4,"mosquito_risk":7,"arthritis_risk":5,"migraine_risk":4,"frizz_risk":1,"updated_at":"2026-03-13T16:11:00.005594+05:30"},{"city":"Haridwar","state":"Uttarakhand","latitude":29.9457,"longitude":78.1642,"temp":29.8,"humidity":41,"rain":0.0,"pressure":974.2,"uv_index":5.45,"wind_gusts":29.5,"aqi":90,"pm10":33.3,"pm2_5":18.3,"mosquito_risk":4,"arthritis_risk":5,"migraine_risk":3,"frizz_risk":0,"updated_at":"2026-03-13T16:11:00.005601+05:30"},{"city":"Rishikesh","state":"Uttarakhand","latitude":30.0869,"longitude":78.2676,"temp":29.6,"humidity":36,"rain":0.0,"pressure":966.9,"uv_index":5.7,"wind_gusts":30.2,"aqi":66,"pm10":28.5,"pm2_5":14.0,"mosquito_risk":4,"arthritis_risk":5,"migraine_risk":3,"frizz_risk":0,"updated_at":"2026-03-13T16:11:00.005608+05:30"},{"city":"Nainital","state":"Uttarakhand","latitude":29.3919,"longitude":79.4542,"temp":22.3,"humidity":40,"rain":0.0,"pressure":807.4,"uv_index":6.7,"wind_gusts":44.3,"aqi":90,"pm10":35.9,"pm2_5":21.7,"mosquito_risk":0,"arthritis_risk":5,"migraine_risk":7,"frizz_risk":0,"updated_at":"2026-03-13T16:11:00.005615+05:30"},{"city":"Mussoorie","state":"Uttarakhand","latitude":30.4599,"longitude":78.0664,"temp":21.1,"humidity":39,"rain":0.0,"pressure":804.4,"uv_index":5.45,"wind_gusts":30.6,"aqi":70,"pm10":34.6,"pm2_5":16.6,"mosquito_risk":0,"arthritis_risk":5,"migraine_risk":3,"frizz_risk":0,"updated_at":"2026-03-13T16:11:00.005622+05:30"},{"city":"Dharamshala","state":"Himachal Pradesh","latitude":32.219,"longitude":76.3234,"temp":23.3,"humidity":44,"rain":0.0,"pressure":870.2,"uv_index":6.0,"wind_gusts":24.8,"aqi":53,"pm10":14.5,"pm2_5":5.7,"mosquito_risk":0,"arthritis_risk":5,"migraine_risk":3,"frizz_risk":0,"updated_at":"2026-03-13T16:11:00.005628+05:30"},{"city":"Dalhousie","state":"Himachal Pradesh","latitude":32.5387,"longitude":75.971,"temp":21.8,"humidity":31,"rain":0.0,"pressure":805.7,"uv_index":6.45,"wind_gusts":31.0,"aqi":71,"pm10":16.8,"pm2_5":9.0,"mosquito_risk":0,"arthritis_risk":5,"migraine_risk":7,"frizz_risk":0,"updated_at":"2026-03-13T16:11:00.005636+05:30"},{"city":"Patiala","state":"Punjab","latitude":30.3398,"longitude":76.3869,"temp":28.5,"humidity":38,"rain":0.0,"pressure":979.0,"uv_index":5.2,"wind_gusts":27.0,"aqi":292,"pm10":560.7,"pm2_5":65.9,"mosquito_risk":4,"arthritis_risk":5,"migraine_risk":3,"frizz_risk":0,"updated_at":"2026-03-13T16:11:00.005643+05:30"},{"city":"Bhatinda","state":"Punjab","latitude":30.211,"longitude":74.9455,"temp":29.2,"humidity":36,"rain":0.0,"pressure":985.4,"uv_index":6.05,"wind_gusts":27.7,"aqi":129,"pm10":37.3,"pm2_5":19.1,"mosquito_risk":4,"arthritis_risk":5,"migraine_risk":7,"frizz_risk":0,"updated_at":"2026-03-13T16:11:00.005649+05:30"},{"city":"Rohtak","state":"Haryana","latitude":28.8955,"longitude":76.6066,"temp":29.7,"humidity":31,"rain":0.0,"pressure":982.6,"uv_index":5.35,"wind_gusts":26.6,"aqi":491,"pm10":666.8,"pm2_5":77.5,"mosquito_risk":4,"arthritis_risk":5,"migraine_risk":3,"frizz_risk":0,"updated_at":"2026-03-13T16:11:00.005656+05:30"},{"city":"Panipat","state":"Haryana","latitude":29.3909,"longitude":76.9635,"temp":28.9,"humidity":38,"rain":0.0,"pressure":981.0,"uv_index":5.15,"wind_gusts":24.8,"aqi":894,"pm10":1102.7,"pm2_5":112.2,"mosquito_risk":4,"arthritis_risk":5,"migraine_risk":3,"frizz_risk":0,"updated_at":"2026-03-13T16:11:00.005662+05:30"},{"city":"Mathura","state":"Uttar Pradesh","latitude":27.4924,"longitude":77.6737,"temp":33.8,"humidity":24,"rain":0.0,"pressure":986.7,"uv_index":5.8,"wind_gusts":25.6,"aqi":632,"pm10":737.6,"pm2_5":90.8,"mosquito_risk":0,"arthritis_risk":5,"migraine_risk":3,"frizz_risk":0,"updated_at":"2026-03-13T16:11:00.005669+05:30"},{"city":"Vrindavan","state":"Uttar Pradesh","latitude":27.5823,"longitude":77.7027,"temp":33.7,"humidity":22,"rain":0.0,"pressure":987.2,"uv_index":5.85,"wind_gusts":28.8,"aqi":632,"pm10":737.6,"pm2_5":90.8,"mosquito_risk":0,"arthritis_risk":5,"migraine_risk":3,"frizz_risk":0,"updated_at":"2026-03-13T16:11:00.005675+05:30"},{"city":"Ayodhya","state":"Uttar Pradesh","latitude":26.7922,"longitude":82.1998,"temp":33.6,"humidity":32,"rain":0.0,"pressure":993.7,"uv_index":6.4,"wind_gusts":30.2,"aqi":157,"pm10":112.5,"pm2_5":42.3,"mosquito_risk":0,"arthritis_risk":5,"migraine_risk":7,"frizz_risk":0,"updated_at":"2026-03-13T16:11:00.005681+05:30"},{"city":"Ratlam","state":"Madhya Pradesh","latitude":23.3315,"longitude":75.0367,"temp":35.8,"humidity":13,"rain":0.0,"pressure":954.4,"uv_index":7.6,"wind_gusts":30.6,"aqi":68,"pm10":20.0,"pm2_5":13.0,"mosquito_risk":0,"arthritis_risk":5,"migraine_risk":10,"frizz_risk":0,"updated_at":"2026-03-13T16:11:00.005687+05:30"},{"city":"Sagar","state":"Madhya Pradesh","latitude":23.8388,"longitude":78.7378,"temp":35.7,"humidity":11,"rain":0.0,"pressure":949.8,"uv_index":7.5,"wind_gusts":29.2,"aqi":91,"pm10":11.1,"pm2_5":9.4,"mosquito_risk":0,"arthritis_risk":5,"migraine_risk":10,"frizz_risk":0,"updated_at":"2026-03-13T16:11:00.005693+05:30"},{"city":"Satna","state":"Madhya Pradesh","latitude":24.6005,"longitude":80.8322,"temp":37.3,"humidity":13,"rain":0.0,"pressure":970.1,"uv_index":7.15,"wind_gusts":29.9,"aqi":78,"pm10":22.9,"pm2_5":9.9,"mosquito_risk":0,"arthritis_risk":5,"migraine_risk":10,"frizz_risk":0,"updated_at":"2026-03-13T16:11:00.005700+05:30"},{"city":"Akola","state":"Maharashtra","latitude":20.7002,"longitude":77.0082,"temp":39.0,"humidity":14,"rain":0.0,"pressure":973.2,"uv_index":8.05,"wind_gusts":24.8,"aqi":114,"pm10":26.5,"pm2_5":21.1,"mosquito_risk":0,"arthritis_risk":5,"migraine_risk":10,"frizz_risk":0,"updated_at":"2026-03-13T16:11:00.005706+05:30"},{"city":"Amravati","state":"Maharashtra","latitude":20.9374,"longitude":77.7796,"temp":38.7,"humidity":12,"rain":0.0,"pressure":965.7,"uv_index":8.0,"wind_gusts":15.1,"aqi":111,"pm10":25.3,"pm2_5":19.6,"mosquito_risk":0,"arthritis_risk":5,"migraine_risk":10,"frizz_risk":0,"updated_at":"2026-03-13T16:11:00.005714+05:30"},{"city":"Latur","state":"Maharashtra","latitude":18.4088,"longitude":76.5604,"temp":35.2,"humidity":21,"rain":0.0,"pressure":938.8,"uv_index":8.5,"wind_gusts":21.2,"aqi":107,"pm10":36.4,"pm2_5":28.3,"mosquito_risk":0,"arthritis_risk":5,"migraine_risk":10,"frizz_risk":0,"updated_at":"2026-03-13T16:11:00.005720+05:30"},{"city":"Nanded","state":"Maharashtra","latitude":19.1383,"longitude":77.3091,"temp":38.3,"humidity":14,"rain":0.0,"pressure":966.9,"uv_index":8.3,"wind_gusts":21.6,"aqi":125,"pm10":35.4,"pm2_5":27.9,"mosquito_risk":0,"arthritis_risk":5,"migraine_risk":10,"frizz_risk":0,"updated_at":"2026-03-13T16:11:00.005727+05:30"},{"city":"Gulbarga","state":"Karnataka","latitude":17.3297,"longitude":76.8343,"temp":37.3,"humidity":18,"rain":0.0,"pressure":956.9,"uv_index":8.6,"wind_gusts":32.0,"aqi":124,"pm10":34.5,"pm2_5":27.6,"mosquito_risk":0,"arthritis_risk":5,"migraine_risk":10,"frizz_risk":0,"updated_at":"2026-03-13T16:11:00.005733+05:30"},{"city":"Bidar","state":"Karnataka","latitude":17.9104,"longitude":77.5199,"temp":35.8,"humidity":19,"rain":0.0,"pressure":934.2,"uv_index":8.55,"wind_gusts":26.6,"aqi":132,"pm10":32.1,"pm2_5":22.9,"mosquito_risk":0,"arthritis_risk":5,"migraine_risk":10,"frizz_risk":0,"updated_at":"2026-03-13T16:11:00.005739+05:30"},{"city":"Hospet","state":"Karnataka","latitude":15.2689,"longitude":76.3909,"temp":36.1,"humidity":19,"rain":0.0,"pressure":954.1,"uv_index":8.9,"wind_gusts":24.1,"aqi":103,"pm10":33.6,"pm2_5":27.1,"mosquito_risk":0,"arthritis_risk":5,"migraine_risk":10,"frizz_risk":0,"updated_at":"2026-03-13T16:11:00.005745+05:30"},{"city":"Tirupur","state":"Tamil Nadu","latitude":11.1085,"longitude":77.3411,"temp":35.5,"humidity":24,"rain":0.0,"pressure":973.3,"uv_index":9.25,"wind_gusts":30.6,"aqi":89,"pm10":34.3,"pm2_5":27.5,"mosquito_risk":0,"arthritis_risk":5,"migraine_risk":10,"frizz_risk":0,"updated_at":"2026-03-13T16:11:00.005751+05:30"},{"city":"Alappuzha","state":"Kerala","latitude":9.4981,"longitude":76.3388,"temp":28.6,"humidity":79,"rain":0.0,"pressure":1006.4,"uv_index":9.1,"wind_gusts":28.1,"aqi":122,"pm10":24.9,"pm2_5":23.2,"mosquito_risk":7,"arthritis_risk":5,"migraine_risk":4,"frizz_risk":1,"updated_at":"2026-03-13T16:11:00.005757+05:30"},{"city":"Munnar","state":"Kerala","latitude":10.0889,"longitude":77.0595,"temp":30.2,"humidity":31,"rain":0.0,"pressure":857.4,"uv_index":9.55,"wind_gusts":24.5,"aqi":73,"pm10":15.7,"pm2_5":12.1,"mosquito_risk":0,"arthritis_risk":5,"migraine_risk":7,"frizz_risk":0,"updated_at":"2026-03-13T16:11:00.005764+05:30"},{"city":"Silchar","state":"Assam","latitude":24.8333,"longitude":92.7789,"temp":23.9,"humidity":84,"rain":0.0,"pressure":1005.0,"uv_index":7.75,"wind_gusts":42.8,"aqi":166,"pm10":66.4,"pm2_5":58.0,"mosquito_risk":3,"arthritis_risk":5,"migraine_risk":4,"frizz_risk":1,"updated_at":"2026-03-13T16:11:00.005770+05:30"},{"city":"Dibrugarh","state":"Assam","latitude":27.4728,"longitude":94.912,"temp":22.9,"humidity":81,"rain":0.0,"pressure":995.4,"uv_index":5.5,"wind_gusts":25.2,"aqi":144,"pm10":58.9,"pm2_5":54.2,"mosquito_risk":3,"arthritis_risk":5,"migraine_risk":3,"frizz_risk":1,"updated_at":"2026-03-13T16:11:00.005776+05:30"}]