[{"city":"Delhi","state":"Delhi","latitude":28.6139,"longitude":77.209,"temp":32.9,"humidity":27,"rain":0.0,"pressure":984.7,"uv_index":7.25,"wind_gusts":31.7,"aqi":426,"pm10":428.4,"pm2_5":49.9,"mosquito_risk":0,"arthritis_risk":5,"migraine_risk":7,"frizz_risk":0,"updated_at":"2026-04-13T13:39:43.979738+05:30"},{"city":"Mumbai","state":"Maharashtra","latitude":19.076,"longitude":72.8777,"temp":27.9,"humidity":81,"rain":0.0,"pressure":1009.1,"uv_index":8.0,"wind_gusts":19.8,"aqi":113,"pm10":85.2,"pm2_5":45.4,"mosquito_risk":7,"arthritis_risk":0,"migraine_risk":4,"frizz_risk":1,"updated_at":"2026-04-13T13:39:43.979788+05:30"},{"city":"Bangalore","state":"Karnataka","latitude":12.9716,"longitude":77.5946,"temp":35.5,"humidity":28,"rain":0.0,"pressure":913.6,"uv_index":9.6,"wind_gusts":31.3,"aqi":94,"pm10":44.2,"pm2_5":27.6,"mosquito_risk":0,"arthritis_risk":5,"migraine_risk":10,"frizz_risk":0,"updated_at":"2026-04-13T13:39:43.979805+05:30"},{"city":"Hyderabad","state":"Telangana","latitude":17.385,"longitude":78.4867,"temp":39.3,"humidity":24,"rain":0.0,"pressure":953.7,"uv_index":9.25,"wind_gusts":32.0,"aqi":90,"pm10":46.3,"pm2_5":33.4,"mosquito_risk":0,"arthritis_risk":5,"migraine_risk":10,"frizz_risk":0,"updated_at":"2026-04-13T13:39:43.979816+05:30"},{"city":"Chennai","state":"Tamil Nadu","latitude":13.0827,"longitude":80.2707,"temp":35.9,"humidity":47,"rain":0.0,"pressure":1008.0,"uv_index":9.3,"wind_gusts":35.3,"aqi":46,"pm10":18.5,"pm2_5":11.3,"mosquito_risk":0,"arthritis_risk":0,"migraine_risk":7,"frizz_risk":1,"updated_at":"2026-04-13T13:39:43.979825+05:30"},{"city":"Kolkata","state":"West Bengal","latitude":22.5726,"longitude":88.3639,"temp":34.8,"humidity":55,"rain":0.0,"pressure":1005.6,"uv_index":8.85,"wind_gusts":28.1,"aqi":73,"pm10":37.4,"pm2_5":25.0,"mosquito_risk":0,"arthritis_risk":5,"migraine_risk":4,"frizz_risk":1,"updated_at":"2026-04-13T13:39:43.979834+05:30"},{"city":"Pune","state":"Maharashtra","latitude":18.5204,"longitude":73.8567,"temp":39.5,"humidity":18,"rain":0.0,"pressure":949.5,"uv_index":8.6,"wind_gusts":40.0,"aqi":91,"pm10":26.9,"pm2_5":12.8,"mosquito_risk":0,"arthritis_risk":5,"migraine_risk":10,"frizz_risk":0,"updated_at":"2026-04-13T13:39:43.979845+05:30"},{"city":"Ahmedabad","state":"Gujarat","latitude":23.0225,"longitude":72.5714,"temp":41.2,"humidity":13,"rain":0.0,"pressure":1002.0,"uv_index":8.1,"wind_gusts":27.7,"aqi":69,"pm10":53.9,"pm2_5":17.7,"mosquito_risk":0,"arthritis_risk":5,"migraine_risk":7,"frizz_risk":0,"updated_at":"2026-04-13T13:39:43.979852+05:30"},{"city":"Jaipur","state":"Rajasthan","latitude":26.9124,"longitude":75.7873,"temp":35.1,"humidity":20,"rain":0.0,"pressure":961.9,"uv_index":7.9,"wind_gusts":23.8,"aqi":151,"pm10":225.8,"pm2_5":30.3,"mosquito_risk":0,"arthritis_risk":5,"migraine_risk":10,"frizz_risk":0,"updated_at":"2026-04-13T13:39:43.979860+05:30"},{"city":"Lucknow","state":"Uttar Pradesh","latitude":26.8467,"longitude":80.9462,"temp":35.9,"humidity":18,"rain":0.0,"pressure":994.0,"uv_index":7.75,"wind_gusts":40.0,"aqi":105,"pm10":62.9,"pm2_5":12.9,"mosquito_risk":0,"arthritis_risk":5,"migraine_risk":10,"frizz_risk":0,"updated_at":"2026-04-13T13:39:43.979868+05:30"},{"city":"Kanpur","state":"Uttar Pradesh","latitude":26.4499,"longitude":80.3319,"temp":34.2,"humidity":25,"rain":0.0,"pressure":993.1,"uv_index":7.75,"wind_gusts":29.9,"aqi":276,"pm10":361.4,"pm2_5":37.1,"mosquito_risk":0,"arthritis_risk":5,"migraine_risk":7,"frizz_risk":0,"updated_at":"2026-04-13T13:39:43.979876+05:30"},{"city":"Chandigarh","state":"Chandigarh","latitude":30.7333,"longitude":76.7794,"temp":31.9,"humidity":28,"rain":0.0,"pressure":970.2,"uv_index":7.2,"wind_gusts":28.1,"aqi":84,"pm10":12.7,"pm2_5":9.3,"mosquito_risk":0,"arthritis_risk":5,"migraine_risk":7,"frizz_risk":0,"updated_at":"2026-04-13T13:39:43.979886+05:30"},{"city":"Srinagar","state":"Jammu and Kashmir","latitude":34.0837,"longitude":74.7973,"temp":20.0,"humidity":38,"rain":0.0,"pressure":844.4,"uv_index":8.1,"wind_gusts":14.4,"aqi":100,"pm10":20.5,"pm2_5":8.5,"mosquito_risk":0,"arthritis_risk":5,"migraine_risk":7,"frizz_risk":0,"updated_at":"2026-04-13T13:39:43.979893+05:30"},{"city":"Jammu","state":"Jammu and Kashmir","latitude":32.7266,"longitude":74.857,"temp":31.9,"humidity":34,"rain":0.0,"pressure":974.2,"uv_index":7.4,"wind_gusts":31.7,"aqi":65,"pm10":25.2,"pm2_5":12.5,"mosquito_risk":0,"arthritis_risk":5,"migraine_risk":7,"frizz_risk":0,"updated_at":"2026-04-13T13:39:43.979900+05:30"},{"city":"Amritsar","state":"Punjab","latitude":31.634,"longitude":74.8723,"temp":31.6,"humidity":30,"rain":0.0,"pressure":982.8,"uv_index":7.8,"wind_gusts":22.3,"aqi":71,"pm10":24.0,"pm2_5":12.5,"mosquito_risk":0,"arthritis_risk":5,"migraine_risk":7,"frizz_risk":0,"updated_at":"2026-04-13T13:39:43.979907+05:30"},{"city":"Ludhiana","state":"Punjab","latitude":30.901,"longitude":75.8573,"temp":32.4,"humidity":25,"rain":0.0,"pressure":980.6,"uv_index":7.45,"wind_gusts":26.3,"aqi":64,"pm10":17.1,"pm2_5":9.3,"mosquito_risk":0,"arthritis_risk":5,"migraine_risk":7,"frizz_risk":0,"updated_at":"2026-04-13T13:39:43.979913+05:30"},{"city":"Jalandhar","state":"Punjab","latitude":31.326,"longitude":75.5762,"temp":31.7,"humidity":29,"rain":0.0,"pressure":981.7,"uv_index":7.6,"wind_gusts":24.5,"aqi":71,"pm10":32.6,"pm2_5":11.0,"mosquito_risk":0,"arthritis_risk":5,"migraine_risk":7,"frizz_risk":0,"updated_at":"2026-04-13T13:39:43.979922+05:30"},{"city":"Dehradun","state":"Uttarakhand","latitude":30.6284,"longitude":78.0322,"temp":21.5,"humidity":51,"rain":0.0,"pressure":832.5,"uv_index":7.5,"wind_gusts":30.2,"aqi":81,"pm10":12.5,"pm2_5":5.6,"mosquito_risk":0,"arthritis_risk":5,"migraine_risk":7,"frizz_risk":0,"updated_at":"2026-04-13T13:39:43.979929+05:30"},{"city":"Shimla","state":"Himachal Pradesh","latitude":31.1048,"longitude":77.1734,"temp":19.6,"humidity":48,"rain":0.0,"pressure":787.7,"uv_index":7.7,"wind_gusts":36.7,"aqi":65,"pm10":11.5,"pm2_5":4.5,"mosquito_risk":0,"arthritis_risk":5,"migraine_risk":7,"frizz_risk":0,"updated_at":"2026-04-13T13:39:43.979936+05:30"},{"city":"Manali","state":"Himachal Pradesh","latitude":32.2396,"longitude":77.1887,"temp":23.2,"humidity":25,"rain":0.0,"pressure":822.6,"uv_index":9.8,"wind_gusts":28.1,"aqi":128,"pm10":13.9,"pm2_5":7.6,"mosquito_risk":0,"arthritis_risk":5,"migraine_risk":7,"frizz_risk":0,"updated_at":"2026-04-13T13:39:43.979942+05:30"},{"city":"Gurgaon","state":"Haryana","latitude":28.4595,"longitude":77.0266,"temp":33.1,"humidity":28,"rain":0.0,"pressure":983.3,"uv_index":7.35,"wind_gusts":25.9,"aqi":1076,"pm10":1270.3,"pm2_5":119.0,"mosquito_risk":0,"arthritis_risk":5,"migraine_risk":7,"frizz_risk":0,"updated_at":"2026-04-13T13:39:43.979949+05:30"},{"city":"Noida","state":"Uttar Pradesh","latitude":28.5355,"longitude":77.391,"temp":33.3,"humidity":26,"rain":0.0,"pressure":986.3,"uv_index":7.3,"wind_gusts":32.0,"aqi":1076,"pm10":1270.3,"pm2_5":119.0,"mosquito_risk":0,"arthritis_risk":5,"migraine_risk":7,"frizz_risk":0,"updated_at":"2026-04-13T13:39:43.979956+05:30"},{"city":"Ghaziabad","state":"Uttar Pradesh","latitude":28.6692,"longitude":77.4538,"temp":32.8,"humidity":28,"rain":0.0,"pressure":984.4,"uv_index":7.25,"wind_gusts":31.7,"aqi":197,"pm10":299.0,"pm2_5":40.5,"mosquito_risk":0,"arthritis_risk":5,"migraine_risk":7,"frizz_risk":0,"updated_at":"2026-04-13T13:39:43.979962+05:30"},{"city":"Faridabad","state":"Haryana","latitude":28.4089,"longitude":77.3178,"temp":33.6,"humidity":25,"rain":0.0,"pressure":985.6,"uv_index":7.3,"wind_gusts":29.2,"aqi":1076,"pm10":1270.3,"pm2_5":119.0,"mosquito_risk":0,"arthritis_risk":5,"migraine_risk":7,"frizz_risk":0,"updated_at":"2026-04-13T13:39:43.979969+05:30"},{"city":"Meerut","state":"Uttar Pradesh","latitude":28.9845,"longitude":77.7064,"temp":33.0,"humidity":23,"rain":0.0,"pressure":982.8,"uv_index":7.15,"wind_gusts":34.6,"aqi":197,"pm10":299.0,"pm2_5":40.5,"mosquito_risk":0,"arthritis_risk":5,"migraine_risk":7,"frizz_risk":0,"updated_at":"2026-04-13T13:39:43.979975+05:30"},{"city":"Agra","state":"Uttar Pradesh","latitude":27.1767,"longitude":78.0081,"temp":35.0,"humidity":25,"rain":0.0,"pressure":989.5,"uv_index":7.65,"wind_gusts":25.2,"aqi":900,"pm10":543.9,"pm2_5":58.4,"mosquito_risk":0,"arthritis_risk":5,"migraine_risk":7,"frizz_risk":0,"updated_at":"2026-04-13T13:39:43.979982+05:30"},{"city":"Varanasi","state":"Uttar Pradesh","latitude":25.3176,"longitude":82.9739,"temp":37.7,"humidity":15,"rain":0.0,"pressure":998.0,"uv_index":8.35,"wind_gusts":36.4,"aqi":96,"pm10":163.0,"pm2_5":28.3,"mosquito_risk":0,"arthritis_risk":5,"migraine_risk":10,"frizz_risk":0,"updated_at":"2026-04-13T13:39:43.979994+05:30"},{"city":"Prayagraj","state":"Uttar Pradesh","latitude":25.4358,"longitude":81.8463,"temp":36.8,"humidity":17,"rain":0.0,"pressure":997.2,"uv_index":8.25,"wind_gusts":36.4,"aqi":91,"pm10":66.1,"pm2_5":16.1,"mosquito_risk":0,"arthritis_risk":5,"migraine_risk":10,"frizz_risk":0,"updated_at":"2026-04-13T13:39:43.980001+05:30"},{"city":"Gorakhpur","state":"Uttar Pradesh","latitude":26.7606,"longitude":83.3732,"temp":36.6,"humidity":20,"rain":0.0,"pressure":997.0,"uv_index":8.15,"wind_gusts":24.5,"aqi":94,"pm10":123.9,"pm2_5":25.0,"mosquito_risk":0,"arthritis_risk":5,"migraine_risk":10,"frizz_risk":0,"updated_at":"2026-04-13T13:39:43.980007+05:30"},{"city":"Bareilly","state":"Uttar Pradesh","latitude":28.367,"longitude":79.4304,"temp":34.4,"humidity":17,"rain":0.0,"pressure":987.5,"uv_index":7.5,"wind_gusts":36.7,"aqi":73,"pm10":6.7,"pm2_5":5.7,"mosquito_risk":0,"arthritis_risk":5,"migraine_risk":7,"frizz_risk":0,"updated_at":"2026-04-13T13:39:43.980013+05:30"},{"city":"Aligarh","state":"Uttar Pradesh","latitude":27.8974,"longitude":78.088,"temp":35.0,"humidity":23,"rain":0.0,"pressure":987.0,"uv_index":7.45,"wind_gusts":33.8,"aqi":610,"pm10":773.0,"pm2_5":80.8,"mosquito_risk":0,"arthritis_risk":5,"migraine_risk":7,"frizz_risk":0,"updated_at":"2026-04-13T13:39:43.980020+05:30"},{"city":"Moradabad","state":"Uttar Pradesh","latitude":28.8386,"longitude":78.7733,"temp":33.2,"humidity":21,"rain":0.0,"pressure":984.7,"uv_index":7.35,"wind_gusts":34.6,"aqi":75,"pm10":13.8,"pm2_5":7.5,"mosquito_risk":0,"arthritis_risk":5,"migraine_risk":7,"frizz_risk":0,"updated_at":"2026-04-13T13:39:43.980025+05:30"},{"city":"Saharanpur","state":"Uttar Pradesh","latitude":29.9637,"longitude":77.546,"temp":32.4,"humidity":25,"rain":0.0,"pressure":976.9,"uv_index":6.95,"wind_gusts":29.9,"aqi":70,"pm10":38.8,"pm2_5":12.0,"mosquito_risk":0,"arthritis_risk":5,"migraine_risk":7,"frizz_risk":0,"updated_at":"2026-04-13T13:39:43.980031+05:30"},{"city":"Jhansi","state":"Uttar Pradesh","latitude":25.4484,"longitude":78.5685,"temp":37.5,"humidity":16,"rain":0.0,"pressure":979.6,"uv_index":8.15,"wind_gusts":26.6,"aqi":159,"pm10":243.1,"pm2_5":36.6,"mosquito_risk":0,"arthritis_risk":5,"migraine_risk":10,"frizz_risk":0,"updated_at":"2026-04-13T13:39:47.203360+05:30"},{"city":"Surat","state":"Gujarat","latitude":21.1702,"longitude":72.8311,"temp":31.9,"humidity":69,"rain":0.0,"pressure":1007.6,"uv_index":7.8,"wind_gusts":25.9,"aqi":139,"pm10":82.4,"pm2_5":64.7,"mosquito_risk":3,"arthritis_risk":5,"migraine_risk":4,"frizz_risk":1,"updated_at":"2026-04-13T13:39:47.203394+05:30"},{"city":"Vadodara","state":"Gujarat","latitude":22.3072,"longitude":73.1812,"temp":40.7,"humidity":18,"rain":0.0,"pressure":1004.1,"uv_index":8.05,"wind_gusts":23.4,"aqi":129,"pm10":35.3,"pm2_5":15.9,"mosquito_risk":0,"arthritis_risk":5,"migraine_risk":7,"frizz_risk":0,"updated_at":"2026-04-13T13:39:47.203404+05:30"},{"city":"Rajkot","state":"Gujarat","latitude":22.3039,"longitude":70.8022,"temp":38.9,"humidity":21,"rain":0.0,"pressure":995.2,"uv_index":7.8,"wind_gusts":37.1,"aqi":72,"pm10":66.4,"pm2_5":21.0,"mosquito_risk":0,"arthritis_risk":5,"migraine_risk":10,"frizz_risk":0,"updated_at":"2026-04-13T13:39:47.203412+05:30"},{"city":"Thane","state":"Maharashtra","latitude":19.2183,"longitude":72.9781,"temp":33.3,"humidity":54,"rain":0.0,"pressure":1008.7,"uv_index":8.0,"wind_gusts":33.1,"aqi":113,"pm10":85.2,"pm2_5":45.4,"mosquito_risk":0,"arthritis_risk":0,"migraine_risk":4,"frizz_risk":1,"updated_at":"2026-04-13T13:39:47.203458+05:30"},{"city":"Nagpur","state":"Maharashtra","latitude":21.1458,"longitude":79.0882,"temp":37.6,"humidity":27,"rain":0.0,"pressure":973.4,"uv_index":8.85,"wind_gusts":25.2,"aqi":113,"pm10":72.2,"pm2_5":47.3,"mosquito_risk":0,"arthritis_risk":5,"migraine_risk":10,"frizz_risk":0,"updated_at":"2026-04-13T13:39:47.203468+05:30"},{"city":"Nashik","state":"Maharashtra","latitude":19.9975,"longitude":73.7898,"temp":36.9,"humidity":23,"rain":0.0,"pressure":947.0,"uv_index":8.25,"wind_gusts":33.8,"aqi":92,"pm10":35.6,"pm2_5":16.7,"mosquito_risk":0,"arthritis_risk":5,"migraine_risk":10,"frizz_risk":0,"updated_at":"2026-04-13T13:39:47.203474+05:30"},{"city":"Aurangabad","state":"Maharashtra","latitude":19.8762,"longitude":75.3433,"temp":39.1,"humidity":18,"rain":0.0,"pressure":945.2,"uv_index":8.95,"wind_gusts":31.0,"aqi":83,"pm10":32.5,"pm2_5":16.6,"mosquito_risk":0,"arthritis_risk":5,"migraine_risk":10,"frizz_risk":0,"updated_at":"2026-04-13T13:39:47.203481+05:30"},{"city":"Solapur","state":"Maharashtra","latitude":17.6599,"longitude":75.9064,"temp":40.2,"humidity":20,"rain":0.0,"pressure":957.3,"uv_index":9.05,"wind_gusts":30.2,"aqi":99,"pm10":42.5,"pm2_5":29.0,"mosquito_risk":0,"arthritis_risk":5,"migraine_risk":10,"frizz_risk":0,"updated_at":"2026-04-13T13:39:47.203488+05:30"},{"city":"Kolhapur","state":"Maharashtra","latitude":16.705,"longitude":74.2433,"temp":34.9,"humidity":41,"rain":0.0,"pressure":949.5,"uv_index":9.05,"wind_gusts":43.9,"aqi":92,"pm10":37.6,"pm2_5":19.6,"mosquito_risk":0,"arthritis_risk":5,"migraine_risk":7,"frizz_risk":1,"updated_at":"2026-04-13T13:39:47.203495+05:30"},{"city":"Goa","state":"Goa","latitude":15.2993,"longitude":74.124,"temp":31.9,"humidity":66,"rain":0.0,"pressure":998.9,"uv_index":9.05,"wind_gusts":29.5,"aqi":94,"pm10":40.6,"pm2_5":24.3,"mosquito_risk":3,"arthritis_risk":5,"migraine_risk":7,"frizz_risk":1,"updated_at":"2026-04-13T13:39:47.203501+05:30"},{"city":"Jodhpur","state":"Rajasthan","latitude":26.2389,"longitude":73.0243,"temp":37.3,"humidity":18,"rain":0.0,"pressure":984.2,"uv_index":8.15,"wind_gusts":26.3,"aqi":54,"pm10":88.2,"pm2_5":13.1,"mosquito_risk":0,"arthritis_risk":5,"migraine_risk":10,"frizz_risk":0,"updated_at":"2026-04-13T13:39:47.203508+05:30"},{"city":"Udaipur","state":"Rajasthan","latitude":24.5854,"longitude":73.7125,"temp":36.6,"humidity":14,"rain":0.0,"pressure":948.5,"uv_index":8.7,"wind_gusts":26.3,"aqi":74,"pm10":83.8,"pm2_5":14.7,"mosquito_risk":0,"arthritis_risk":5,"migraine_risk":10,"frizz_risk":0,"updated_at":"2026-04-13T13:39:47.203514+05:30"},{"city":"Kota","state":"Rajasthan","latitude":25.2138,"longitude":75.8648,"temp":36.7,"humidity":23,"rain":0.0,"pressure":980.1,"uv_index":8.15,"wind_gusts":18.4,"aqi":75,"pm10":83.6,"pm2_5":19.3,"mosquito_risk":0,"arthritis_risk":5,"migraine_risk":10,"frizz_risk":0,"updated_at":"2026-04-13T13:39:47.203521+05:30"},{"city":"Bikaner","state":"Rajasthan","latitude":28.0229,"longitude":73.3119,"temp":37.0,"humidity":17,"rain":0.0,"pressure":982.9,"uv_index":7.95,"wind_gusts":19.4,"aqi":61,"pm10":55.9,"pm2_5":11.7,"mosquito_risk":0,"arthritis_risk":5,"migraine_risk":10,"frizz_risk":0,"updated_at":"2026-04-13T13:39:47.203527+05:30"},{"city":"Ajmer","state":"Rajasthan","latitude":26.4499,"longitude":74.6399,"temp":35.9,"humidity":18,"rain":0.0,"pressure":956.4,"uv_index":8.1,"wind_gusts":31.3,"aqi":71,"pm10":51.0,"pm2_5":11.3,"mosquito_risk":0,"arthritis_risk":5,"migraine_risk":10,"frizz_risk":0,"updated_at":"2026-04-13T13:39:47.203532+05:30"},{"city":"Gwalior","state":"Madhya Pradesh","latitude":26.2183,"longitude":78.1828,"temp":36.0,"humidity":21,"rain":0.0,"pressure":985.2,"uv_index":7.9,"wind_gusts":30.6,"aqi":292,"pm10":218.9,"pm2_5":33.3,"mosquito_risk":0,"arthritis_risk":5,"migraine_risk":10,"frizz_risk":0,"updated_at":"2026-04-13T13:39:47.203538+05:30"},{"city":"Indore","state":"Madhya Pradesh","latitude":22.7196,"longitude":75.8577,"temp":36.7,"humidity":21,"rain":0.0,"pressure":949.5,"uv_index":8.55,"wind_gusts":31.3,"aqi":79,"pm10":44.2,"pm2_5":15.7,"mosquito_risk":0,"arthritis_risk":5,"migraine_risk":10,"frizz_risk":0,"updated_at":"2026-04-13T13:39:47.203545+05:30"},{"city":"Bhopal","state":"Madhya Pradesh","latitude":23.2599,"longitude":77.4126,"temp":37.5,"humidity":20,"rain":0.0,"pressure":955.1,"uv_index":8.5,"wind_gusts":22.3,"aqi":79,"pm10":104.1,"pm2_5":24.1,"mosquito_risk":0,"arthritis_risk":5,"migraine_risk":10,"frizz_risk":0,"updated_at":"2026-04-13T13:39:47.203552+05:30"},{"city":"Jabalpur","state":"Madhya Pradesh","latitude":23.1815,"longitude":79.9864,"temp":36.6,"humidity":22,"rain":0.0,"pressure":962.7,"uv_index":8.65,"wind_gusts":27.4,"aqi":80,"pm10":189.1,"pm2_5":36.1,"mosquito_risk":0,"arthritis_risk":5,"migraine_risk":10,"frizz_risk":0,"updated_at":"2026-04-13T13:39:47.203558+05:30"},{"city":"Ujjain","state":"Madhya Pradesh","latitude":23.1765,"longitude":75.7885,"temp":37.1,"humidity":21,"rain":0.0,"pressure":955.1,"uv_index":8.45,"wind_gusts":29.2,"aqi":91,"pm10":40.7,"pm2_5":17.9,"mosquito_risk":0,"arthritis_risk":5,"migraine_risk":10,"frizz_risk":0,"updated_at":"2026-04-13T13:39:47.203564+05:30"},{"city":"Visakhapatnam","state":"Andhra Pradesh","latitude":17.6868,"longitude":83.2185,"temp":34.0,"humidity":50,"rain":0.0,"pressure":1004.2,"uv_index":9.15,"wind_gusts":42.1,"aqi":72,"pm10":41.4,"pm2_5":25.7,"mosquito_risk":0,"arthritis_risk":5,"migraine_risk":4,"frizz_risk":1,"updated_at":"2026-04-13T13:39:47.203571+05:30"},{"city":"Vijayawada","state":"Andhra Pradesh","latitude":16.5062,"longitude":80.648,"temp":37.4,"humidity":39,"rain":0.0,"pressure":1002.6,"uv_index":9.2,"wind_gusts":31.0,"aqi":61,"pm10":35.4,"pm2_5":21.8,"mosquito_risk":0,"arthritis_risk":5,"migraine_risk":7,"frizz_risk":1,"updated_at":"2026-04-13T13:39:47.203577+05:30"},{"city":"Guntur","state":"Andhra Pradesh","latitude":16.3067,"longitude":80.4365,"temp":37.7,"humidity":40,"rain":0.0,"pressure":1003.9,"uv_index":9.25,"wind_gusts":32.4,"aqi":63,"pm10":38.1,"pm2_5":25.0,"mosquito_risk":0,"arthritis_risk":5,"migraine_risk":7,"frizz_risk":1,"updated_at":"2026-04-13T13:39:47.203583+05:30"},{"city":"Nellore","state":"Andhra Pradesh","latitude":14.4426,"longitude":79.9865,"temp":39.4,"humidity":32,"rain":0.0,"pressure":1005.5,"uv_index":9.3,"wind_gusts":35.6,"aqi":57,"pm10":31.8,"pm2_5":22.4,"mosquito_risk":0,"arthritis_risk":5,"migraine_risk":7,"frizz_risk":1,"updated_at":"2026-04-13T13:39:47.203590+05:30"},{"city":"Kurnool","state":"Andhra Pradesh","latitude":15.8281,"longitude":78.0373,"temp":40.2,"humidity":26,"rain":0.0,"pressure":976.5,"uv_index":9.25,"wind_gusts":26.6,"aqi":88,"pm10":47.5,"pm2_5":33.5,"mosquito_risk":0,"arthritis_risk":5,"migraine_risk":10,"frizz_risk":1,"updated_at":"2026-04-13T13:39:47.203597+05:30"},{"city":"Kakinada","state":"Andhra Pradesh","latitude":16.9891,"longitude":82.2475,"temp":36.8,"humidity":46,"rain":0.0,"pressure":1007.6,"uv_index":9.2,"wind_gusts":34.6,"aqi":59,"pm10":32.5,"pm2_5":15.1,"mosquito_risk":0,"arthritis_risk":5,"migraine_risk":7,"frizz_risk":1,"updated_at":"2026-04-13T13:39:47.203603+05:30"},{"city":"Tirupati","state":"Andhra Pradesh","latitude":13.6288,"longitude":79.4192,"temp":38.1,"humidity":27,"rain":0.0,"pressure":992.1,"uv_index":9.4,"wind_gusts":31.0,"aqi":69,"pm10":34.0,"pm2_5":25.7,"mosquito_risk":0,"arthritis_risk":5,"migraine_risk":10,"frizz_risk":0,"updated_at":"2026-04-13T13:39:47.203609+05:30"},{"city":"Warangal","state":"Telangana","latitude":17.9689,"longitude":79.5941,"temp":39.4,"humidity":30,"rain":0.0,"pressure":978.7,"uv_index":9.15,"wind_gusts":33.8,"aqi":83,"pm10":43.4,"pm2_5":30.7,"mosquito_risk":0,"arthritis_risk":5,"migraine_risk":10,"frizz_risk":1,"updated_at":"2026-04-13T13:39:47.203615+05:30"},{"city":"Nizamabad","state":"Telangana","latitude":18.6725,"longitude":78.0941,"temp":39.8,"humidity":26,"rain":0.0,"pressure":964.9,"uv_index":9.05,"wind_gusts":32.0,"aqi":112,"pm10":49.7,"pm2_5":38.2,"mosquito_risk":0,"arthritis_risk":5,"migraine_risk":10,"frizz_risk":1,"updated_at":"2026-04-13T13:39:47.203621+05:30"},{"city":"Mysore","state":"Karnataka","latitude":12.2958,"longitude":76.6396,"temp":36.1,"humidity":30,"rain":0.0,"pressure":929.7,"uv_index":9.5,"wind_gusts":46.1,"aqi":96,"pm10":45.4,"pm2_5":28.3,"mosquito_risk":0,"arthritis_risk":5,"migraine_risk":10,"frizz_risk":0,"updated_at":"2026-04-13T13:39:47.203628+05:30"},{"city":"Mangalore","state":"Karnataka","latitude":12.9141,"longitude":74.856,"temp":29.3,"humidity":88,"rain":0.0,"pressure":1007.1,"uv_index":9.15,"wind_gusts":23.4,"aqi":101,"pm10":56.1,"pm2_5":32.5,"mosquito_risk":7,"arthritis_risk":5,"migraine_risk":4,"frizz_risk":1,"updated_at":"2026-04-13T13:39:47.203634+05:30"},{"city":"Hubli-Dharwad","state":"Karnataka","latitude":15.3647,"longitude":75.124,"temp":32.8,"humidity":44,"rain":0.0,"pressure":942.5,"uv_index":9.25,"wind_gusts":36.4,"aqi":88,"pm10":45.1,"pm2_5":31.4,"mosquito_risk":0,"arthritis_risk":5,"migraine_risk":7,"frizz_risk":1,"updated_at":"2026-04-13T13:39:47.203641+05:30"},{"city":"Belgaum","state":"Karnataka","latitude":15.8497,"longitude":74.4977,"temp":33.7,"humidity":39,"rain":0.0,"pressure":927.6,"uv_index":9.3,"wind_gusts":37.8,"aqi":91,"pm10":34.6,"pm2_5":20.5,"mosquito_risk":0,"arthritis_risk":5,"migraine_risk":7,"frizz_risk":1,"updated_at":"2026-04-13T13:39:50.430951+05:30"},{"city":"Coimbatore","state":"Tamil Nadu","latitude":11.0168,"longitude":76.9558,"temp":37.5,"humidity":29,"rain":0.0,"pressure":962.4,"uv_index":9.45,"wind_gusts":36.4,"aqi":94,"pm10":41.3,"pm2_5":25.7,"mosquito_risk":0,"arthritis_risk":5,"migraine_risk":10,"frizz_risk":1,"updated_at":"2026-04-13T13:39:50.430986+05:30"},{"city":"Madurai","state":"Tamil Nadu","latitude":9.9252,"longitude":78.1198,"temp":37.7,"humidity":30,"rain":0.0,"pressure":993.1,"uv_index":9.35,"wind_gusts":40.0,"aqi":81,"pm10":30.6,"pm2_5":21.1,"mosquito_risk":0,"arthritis_risk":5,"migraine_risk":10,"frizz_risk":1,"updated_at":"2026-04-13T13:39:50.430997+05:30"},{"city":"Trichy","state":"Tamil Nadu","latitude":10.7905,"longitude":78.7047,"temp":37.4,"humidity":32,"rain":0.0,"pressure":999.9,"uv_index":9.35,"wind_gusts":27.4,"aqi":57,"pm10":24.4,"pm2_5":15.5,"mosquito_risk":0,"arthritis_risk":5,"migraine_risk":10,"frizz_risk":1,"updated_at":"2026-04-13T13:39:50.431005+05:30"},{"city":"Salem","state":"Tamil Nadu","latitude":11.6643,"longitude":78.146,"temp":36.9,"humidity":38,"rain":0.0,"pressure":977.8,"uv_index":9.45,"wind_gusts":17.6,"aqi":73,"pm10":33.1,"pm2_5":20.8,"mosquito_risk":0,"arthritis_risk":5,"migraine_risk":10,"frizz_risk":1,"updated_at":"2026-04-13T13:39:50.431013+05:30"},{"city":"Tirunelveli","state":"Tamil Nadu","latitude":8.7139,"longitude":77.7567,"temp":38.8,"humidity":32,"rain":0.0,"pressure":1002.8,"uv_index":9.2,"wind_gusts":47.9,"aqi":83,"pm10":31.5,"pm2_5":21.9,"mosquito_risk":0,"arthritis_risk":5,"migraine_risk":7,"frizz_risk":1,"updated_at":"2026-04-13T13:39:50.431021+05:30"},{"city":"Vellore","state":"Tamil Nadu","latitude":12.9165,"longitude":79.1325,"temp":37.7,"humidity":30,"rain":0.0,"pressure":985.1,"uv_index":9.45,"wind_gusts":31.3,"aqi":87,"pm10":34.0,"pm2_5":25.6,"mosquito_risk":0,"arthritis_risk":5,"migraine_risk":10,"frizz_risk":1,"updated_at":"2026-04-13T13:39:50.431028+05:30"},{"city":"Erode","state":"Tamil Nadu","latitude":11.341,"longitude":77.7172,"temp":38.8,"humidity":31,"rain":0.0,"pressure":988.9,"uv_index":9.4,"wind_gusts":26.3,"aqi":62,"pm10":30.3,"pm2_5":19.5,"mosquito_risk":0,"arthritis_risk":5,"migraine_risk":10,"frizz_risk":1,"updated_at":"2026-04-13T13:39:50.431035+05:30"},{"city":"Kochi","state":"Kerala","latitude":9.9312,"longitude":76.2673,"temp":29.9,"humidity":77,"rain":0.0,"pressure":1008.6,"uv_index":9.1,"wind_gusts":29.9,"aqi":101,"pm10":41.1,"pm2_5":26.1,"mosquito_risk":7,"arthritis_risk":0,"migraine_risk":4,"frizz_risk":1,"updated_at":"2026-04-13T13:39:50.431042+05:30"},{"city":"Thiruvananthapuram","state":"Kerala","latitude":8.5241,"longitude":76.9366,"temp":29.5,"humidity":81,"rain":0.0,"pressure":1007.9,"uv_index":8.9,"wind_gusts":29.2,"aqi":86,"pm10":44.1,"pm2_5":27.5,"mosquito_risk":7,"arthritis_risk":5,"migraine_risk":4,"frizz_risk":1,"updated_at":"2026-04-13T13:39:50.431049+05:30"},{"city":"Kozhikode","state":"Kerala","latitude":11.2588,"longitude":75.7804,"temp":31.5,"humidity":72,"rain":0.0,"pressure":1007.8,"uv_index":9.15,"wind_gusts":30.2,"aqi":96,"pm10":51.0,"pm2_5":28.1,"mosquito_risk":3,"arthritis_risk":5,"migraine_risk":4,"frizz_risk":1,"updated_at":"2026-04-13T13:39:50.431055+05:30"},{"city":"Thrissur","state":"Kerala","latitude":10.5276,"longitude":76.2144,"temp":34.5,"humidity":58,"rain":0.0,"pressure":1007.0,"uv_index":9.15,"wind_gusts":37.8,"aqi":93,"pm10":42.5,"pm2_5":25.4,"mosquito_risk":0,"arthritis_risk":5,"migraine_risk":4,"frizz_risk":1,"updated_at":"2026-04-13T13:39:50.431062+05:30"},{"city":"Kannur","state":"Kerala","latitude":11.8745,"longitude":75.3704,"temp":33.1,"humidity":60,"rain":0.0,"pressure":1007.4,"uv_index":9.1,"wind_gusts":33.5,"aqi":110,"pm10":58.6,"pm2_5":32.9,"mosquito_risk":0,"arthritis_risk":5,"migraine_risk":4,"frizz_risk":1,"updated_at":"2026-04-13T13:39:50.431069+05:30"},{"city":"Patna","state":"Bihar","latitude":25.5941,"longitude":85.1376,"temp":36.6,"humidity":22,"rain":0.0,"pressure":1000.1,"uv_index":8.5,"wind_gusts":32.0,"aqi":98,"pm10":112.0,"pm2_5":23.9,"mosquito_risk":0,"arthritis_risk":5,"migraine_risk":7,"frizz_risk":0,"updated_at":"2026-04-13T13:39:50.431076+05:30"},{"city":"Gaya","state":"Bihar","latitude":24.7914,"longitude":85.0002,"temp":35.8,"humidity":28,"rain":0.0,"pressure":994.1,"uv_index":8.55,"wind_gusts":23.4,"aqi":99,"pm10":151.8,"pm2_5":30.7,"mosquito_risk":0,"arthritis_risk":5,"migraine_risk":10,"frizz_risk":0,"updated_at":"2026-04-13T13:39:50.431082+05:30"},{"city":"Muzaffarpur","state":"Bihar","latitude":26.1209,"longitude":85.3647,"temp":35.9,"humidity":28,"rain":0.0,"pressure":1000.0,"uv_index":8.45,"wind_gusts":23.0,"aqi":107,"pm10":88.7,"pm2_5":23.9,"mosquito_risk":0,"arthritis_risk":5,"migraine_risk":7,"frizz_risk":0,"updated_at":"2026-04-13T13:39:50.431088+05:30"},{"city":"Bhagalpur","state":"Bihar","latitude":25.2425,"longitude":87.0117,"temp":34.1,"humidity":44,"rain":0.0,"pressure":1000.8,"uv_index":8.5,"wind_gusts":16.6,"aqi":141,"pm10":92.0,"pm2_5":35.9,"mosquito_risk":0,"arthritis_risk":5,"migraine_risk":4,"frizz_risk":1,"updated_at":"2026-04-13T13:39:50.431093+05:30"},{"city":"Ranchi","state":"Jharkhand","latitude":23.3441,"longitude":85.3096,"temp":34.2,"humidity":26,"rain":0.0,"pressure":939.2,"uv_index":9.1,"wind_gusts":22.0,"aqi":127,"pm10":72.6,"pm2_5":20.4,"mosquito_risk":0,"arthritis_risk":5,"migraine_risk":7,"frizz_risk":0,"updated_at":"2026-04-13T13:39:50.431099+05:30"},{"city":"Jamshedpur","state":"Jharkhand","latitude":22.8046,"longitude":86.2029,"temp":36.1,"humidity":41,"rain":0.0,"pressure":990.4,"uv_index":8.95,"wind_gusts":16.9,"aqi":118,"pm10":61.7,"pm2_5":34.9,"mosquito_risk":0,"arthritis_risk":5,"migraine_risk":10,"frizz_risk":1,"updated_at":"2026-04-13T13:39:50.431105+05:30"},{"city":"Dhanbad","state":"Jharkhand","latitude":23.7957,"longitude":86.4304,"temp":38.1,"humidity":20,"rain":0.0,"pressure":979.5,"uv_index":8.9,"wind_gusts":21.6,"aqi":151,"pm10":98.3,"pm2_5":32.9,"mosquito_risk":0,"arthritis_risk":5,"migraine_risk":10,"frizz_risk":0,"updated_at":"2026-04-13T13:39:50.431112+05:30"},{"city":"Bokaro","state":"Jharkhand","latitude":23.6693,"longitude":86.1511,"temp":37.0,"humidity":24,"rain":0.0,"pressure":983.6,"uv_index":8.9,"wind_gusts":16.6,"aqi":142,"pm10":97.3,"pm2_5":33.8,"mosquito_risk":0,"arthritis_risk":5,"migraine_risk":10,"frizz_risk":0,"updated_at":"2026-04-13T13:39:50.431118+05:30"},{"city":"Bhubaneswar","state":"Odisha","latitude":20.2961,"longitude":85.8245,"temp":34.1,"humidity":58,"rain":0.0,"pressure":1002.6,"uv_index":9.1,"wind_gusts":34.6,"aqi":67,"pm10":36.8,"pm2_5":27.3,"mosquito_risk":0,"arthritis_risk":5,"migraine_risk":4,"frizz_risk":1,"updated_at":"2026-04-13T13:39:50.431124+05:30"},{"city":"Cuttack","state":"Odisha","latitude":20.4625,"longitude":85.8828,"temp":36.8,"humidity":51,"rain":0.0,"pressure":1004.1,"uv_index":9.1,"wind_gusts":33.5,"aqi":67,"pm10":36.8,"pm2_5":27.3,"mosquito_risk":0,"arthritis_risk":5,"migraine_risk":7,"frizz_risk":1,"updated_at":"2026-04-13T13:39:50.431131+05:30"},{"city":"Rourkela","state":"Odisha","latitude":22.2604,"longitude":84.8536,"temp":38.2,"humidity":36,"rain":0.0,"pressure":984.5,"uv_index":8.85,"wind_gusts":24.5,"aqi":151,"pm10":50.8,"pm2_5":36.6,"mosquito_risk":0,"arthritis_risk":5,"migraine_risk":10,"frizz_risk":1,"updated_at":"2026-04-13T13:39:50.431136+05:30"},{"city":"Raipur","state":"Chhattisgarh","latitude":21.2514,"longitude":81.6296,"temp":39.6,"humidity":28,"rain":0.0,"pressure":974.5,"uv_index":8.9,"wind_gusts":34.2,"aqi":123,"pm10":53.8,"pm2_5":38.3,"mosquito_risk":0,"arthritis_risk":5,"migraine_risk":10,"frizz_risk":1,"updated_at":"2026-04-13T13:39:50.431142+05:30"},{"city":"Bhilai","state":"Chhattisgarh","latitude":21.1938,"longitude":81.3509,"temp":39.4,"humidity":29,"rain":0.0,"pressure":974.7,"uv_index":8.9,"wind_gusts":32.8,"aqi":119,"pm10":49.8,"pm2_5":36.9,"mosquito_risk":0,"arthritis_risk":5,"migraine_risk":10,"frizz_risk":1,"updated_at":"2026-04-13T13:39:50.431147+05:30"},{"city":"Guwahati","state":"Assam","latitude":26.1158,"longitude":91.7086,"temp":28.6,"humidity":64,"rain":0.0,"pressure":1001.4,"uv_index":8.4,"wind_gusts":40.3,"aqi":142,"pm10":117.3,"pm2_5":62.6,"mosquito_risk":7,"arthritis_risk":5,"migraine_risk":4,"frizz_risk":1,"updated_at":"2026-04-13T13:39:50.431153+05:30"},{"city":"Agartala","state":"Tripura","latitude":23.8315,"longitude":91.2868,"temp":33.4,"humidity":55,"rain":0.0,"pressure":1005.7,"uv_index":8.65,"wind_gusts":32.0,"aqi":80,"pm10":41.4,"pm2_5":23.6,"mosquito_risk":0,"arthritis_risk":5,"migraine_risk":4,"frizz_risk":1,"updated_at":"2026-04-13T13:39:50.431159+05:30"},{"city":"Shillong","state":"Meghalaya","latitude":25.5788,"longitude":91.8933,"temp":19.9,"humidity":64,"rain":0.0,"pressure":857.6,"uv_index":8.8,"wind_gusts":75.2,"aqi":118,"pm10":72.2,"pm2_5":41.4,"mosquito_risk":3,"arthritis_risk":5,"migraine_risk":7,"frizz_risk":0,"updated_at":"2026-04-13T13:39:50.431165+05:30"},{"city":"Imphal","state":"Manipur","latitude":24.817,"longitude":93.9368,"temp":23.5,"humidity":58,"rain":0.0,"pressure":924.4,"uv_index":9.0,"wind_gusts":79.2,"aqi":118,"pm10":76.1,"pm2_5":29.9,"mosquito_risk":0,"arthritis_risk":5,"migraine_risk":7,"frizz_risk":0,"updated_at":"2026-04-13T13:39:50.431171+05:30"},{"city":"Aizawl","state":"Mizoram","latitude":23.7271,"longitude":92.7176,"temp":27.9,"humidity":40,"rain":0.0,"pressure":895.1,"uv_index":8.9,"wind_gusts":46.8,"aqi":97,"pm10":80.3,"pm2_5":27.6,"mosquito_risk":4,"arthritis_risk":5,"migraine_risk":7,"frizz_risk":0,"updated_at":"2026-04-13T13:39:50.431177+05:30"},{"city":"Kohima","state":"Nagaland","latitude":25.6701,"longitude":94.1077,"temp":19.6,"humidity":72,"rain":0.0,"pressure":856.1,"uv_index":8.95,"wind_gusts":107.6,"aqi":101,"pm10":76.8,"pm2_5":34.0,"mosquito_risk":3,"arthritis_risk":5,"migraine_risk":7,"frizz_risk":0,"updated_at":"2026-04-13T13:39:50.431183+05:30"},{"city":"Gangtok","state":"Sikkim","latitude":27.3314,"longitude":88.6138,"temp":18.9,"humidity":61,"rain":0.0,"pressure":838.4,"uv_index":8.65,"wind_gusts":14.4,"aqi":128,"pm10":74.5,"pm2_5":31.5,"mosquito_risk":3,"arthritis_risk":5,"migraine_risk":7,"frizz_risk":0,"updated_at":"2026-04-13T13:39:50.431189+05:30"},{"city":"Siliguri","state":"West Bengal","latitude":26.7271,"longitude":88.3953,"temp":26.7,"humidity":58,"rain":0.0,"pressure":993.8,"uv_index":8.4,"wind_gusts":25.9,"aqi":151,"pm10":104.8,"pm2_5":43.3,"mosquito_risk":4,"arthritis_risk":5,"migraine_risk":7,"frizz_risk":1,"updated_at":"2026-04-13T13:39:53.656702+05:30"},{"city":"Durgapur","state":"West Bengal","latitude":23.5204,"longitude":87.3119,"temp":37.2,"humidity":34,"rain":0.0,"pressure":994.1,"uv_index":8.85,"wind_gusts":19.4,"aqi":117,"pm10":102.4,"pm2_5":46.9,"mosquito_risk":0,"arthritis_risk":5,"migraine_risk":10,"frizz_risk":1,"updated_at":"2026-04-13T13:39:53.656736+05:30"},{"city":"Asansol","state":"West Bengal","latitude":23.6739,"longitude":86.9524,"temp":37.1,"humidity":31,"rain":0.0,"pressure":992.7,"uv_index":8.85,"wind_gusts":18.0,"aqi":108,"pm10":99.2,"pm2_5":36.2,"mosquito_risk":0,"arthritis_risk":5,"migraine_risk":10,"frizz_risk":1,"updated_at":"2026-04-13T13:39:53.656747+05:30"},{"city":"Pondicherry","state":"Puducherry","latitude":11.9139,"longitude":79.8145,"temp":36.6,"humidity":46,"rain":0.0,"pressure":1008.7,"uv_index":9.3,"wind_gusts":31.0,"aqi":36,"pm10":15.1,"pm2_5":10.0,"mosquito_risk":0,"arthritis_risk":0,"migraine_risk":7,"frizz_risk":1,"updated_at":"2026-04-13T13:39:53.656755+05:30"},{"city":"Port Blair","state":"Andaman and Nicobar Islands","latitude":11.6234,"longitude":92.7265,"temp":29.2,"humidity":80,"rain":0.0,"pressure":1007.7,"uv_index":9.2,"wind_gusts":11.9,"aqi":57,"pm10":27.6,"pm2_5":15.1,"mosquito_risk":7,"arthritis_risk":5,"migraine_risk":4,"frizz_risk":1,"updated_at":"2026-04-13T13:39:53.656763+05:30"},{"city":"Haridwar","state":"Uttarakhand","latitude":29.9457,"longitude":78.1642,"temp":32.3,"humidity":28,"rain":0.0,"pressure":975.1,"uv_index":7.0,"wind_gusts":29.9,"aqi":64,"pm10":9.9,"pm2_5":7.7,"mosquito_risk":0,"arthritis_risk":5,"migraine_risk":7,"frizz_risk":0,"updated_at":"2026-04-13T13:39:53.656771+05:30"},{"city":"Rishikesh","state":"Uttarakhand","latitude":30.0869,"longitude":78.2676,"temp":31.9,"humidity":29,"rain":0.0,"pressure":967.8,"uv_index":6.95,"wind_gusts":32.0,"aqi":57,"pm10":11.8,"pm2_5":6.3,"mosquito_risk":0,"arthritis_risk":5,"migraine_risk":7,"frizz_risk":0,"updated_at":"2026-04-13T13:39:53.656778+05:30"},{"city":"Nainital","state":"Uttarakhand","latitude":29.3919,"longitude":79.4542,"temp":24.9,"humidity":36,"rain":0.0,"pressure":809.5,"uv_index":7.95,"wind_gusts":34.6,"aqi":103,"pm10":14.1,"pm2_5":9.4,"mosquito_risk":0,"arthritis_risk":5,"migraine_risk":7,"frizz_risk":0,"updated_at":"2026-04-13T13:39:53.656786+05:30"},{"city":"Mussoorie","state":"Uttarakhand","latitude":30.4599,"longitude":78.0664,"temp":22.3,"humidity":46,"rain":0.0,"pressure":805.6,"uv_index":7.45,"wind_gusts":34.6,"aqi":60,"pm10":13.4,"pm2_5":8.6,"mosquito_risk":0,"arthritis_risk":5,"migraine_risk":7,"frizz_risk":0,"updated_at":"2026-04-13T13:39:53.656793+05:30"},{"city":"Dharamshala","state":"Himachal Pradesh","latitude":32.219,"longitude":76.3234,"temp":24.4,"humidity":49,"rain":0.0,"pressure":871.4,"uv_index":7.75,"wind_gusts":24.5,"aqi":93,"pm10":14.8,"pm2_5":5.1,"mosquito_risk":0,"arthritis_risk":5,"migraine_risk":7,"frizz_risk":0,"updated_at":"2026-04-13T13:39:53.656799+05:30"},{"city":"Dalhousie","state":"Himachal Pradesh","latitude":32.5387,"longitude":75.971,"temp":22.6,"humidity":39,"rain":0.0,"pressure":806.8,"uv_index":7.5,"wind_gusts":22.3,"aqi":58,"pm10":19.7,"pm2_5":8.5,"mosquito_risk":0,"arthritis_risk":5,"migraine_risk":7,"frizz_risk":0,"updated_at":"2026-04-13T13:39:53.656807+05:30"},{"city":"Patiala","state":"Punjab","latitude":30.3398,"longitude":76.3869,"temp":32.9,"humidity":23,"rain":0.0,"pressure":979.9,"uv_index":7.1,"wind_gusts":27.0,"aqi":361,"pm10":497.3,"pm2_5":48.0,"mosquito_risk":0,"arthritis_risk":5,"migraine_risk":7,"frizz_risk":0,"updated_at":"2026-04-13T13:39:53.656814+05:30"},{"city":"Bhatinda","state":"Punjab","latitude":30.211,"longitude":74.9455,"temp":34.7,"humidity":18,"rain":0.0,"pressure":985.6,"uv_index":7.75,"wind_gusts":22.0,"aqi":64,"pm10":17.9,"pm2_5":8.5,"mosquito_risk":0,"arthritis_risk":5,"migraine_risk":7,"frizz_risk":0,"updated_at":"2026-04-13T13:39:53.656820+05:30"},{"city":"Rohtak","state":"Haryana","latitude":28.8955,"longitude":76.6066,"temp":34.2,"humidity":22,"rain":0.0,"pressure":983.7,"uv_index":7.25,"wind_gusts":31.3,"aqi":656,"pm10":551.3,"pm2_5":53.7,"mosquito_risk":0,"arthritis_risk":5,"migraine_risk":7,"frizz_risk":0,"updated_at":"2026-04-13T13:39:53.656827+05:30"},{"city":"Panipat","state":"Haryana","latitude":29.3909,"longitude":76.9635,"temp":33.6,"humidity":18,"rain":0.0,"pressure":982.0,"uv_index":7.1,"wind_gusts":32.4,"aqi":1143,"pm10":1128.8,"pm2_5":99.0,"mosquito_risk":0,"arthritis_risk":5,"migraine_risk":7,"frizz_risk":0,"updated_at":"2026-04-13T13:39:53.656833+05:30"},{"city":"Mathura","state":"Uttar Pradesh","latitude":27.4924,"longitude":77.6737,"temp":35.0,"humidity":24,"rain":0.0,"pressure":988.5,"uv_index":7.6,"wind_gusts":24.5,"aqi":818,"pm10":558.8,"pm2_5":58.7,"mosquito_risk":0,"arthritis_risk":5,"migraine_risk":7,"frizz_risk":0,"updated_at":"2026-04-13T13:39:53.656839+05:30"},{"city":"Vrindavan","state":"Uttar Pradesh","latitude":27.5823,"longitude":77.7027,"temp":34.7,"humidity":24,"rain":0.0,"pressure":988.8,"uv_index":7.55,"wind_gusts":28.1,"aqi":818,"pm10":558.8,"pm2_5":58.7,"mosquito_risk":0,"arthritis_risk":5,"migraine_risk":7,"frizz_risk":0,"updated_at":"2026-04-13T13:39:53.656845+05:30"},{"city":"Ayodhya","state":"Uttar Pradesh","latitude":26.7922,"longitude":82.1998,"temp":37.6,"humidity":8,"rain":0.0,"pressure":995.4,"uv_index":7.95,"wind_gusts":35.3,"aqi":83,"pm10":15.5,"pm2_5":7.6,"mosquito_risk":0,"arthritis_risk":5,"migraine_risk":10,"frizz_risk":1,"updated_at":"2026-04-13T13:39:53.656851+05:30"},{"city":"Ratlam","state":"Madhya Pradesh","latitude":23.3315,"longitude":75.0367,"temp":35.8,"humidity":26,"rain":0.0,"pressure":956.0,"uv_index":8.4,"wind_gusts":25.9,"aqi":76,"pm10":34.9,"pm2_5":13.9,"mosquito_risk":0,"arthritis_risk":5,"migraine_risk":10,"frizz_risk":0,"updated_at":"2026-04-13T13:39:53.656857+05:30"},{"city":"Sagar","state":"Madhya Pradesh","latitude":23.8388,"longitude":78.7378,"temp":37.0,"humidity":20,"rain":0.0,"pressure":951.9,"uv_index":8.5,"wind_gusts":22.0,"aqi":80,"pm10":200.7,"pm2_5":29.0,"mosquito_risk":0,"arthritis_risk":5,"migraine_risk":10,"frizz_risk":0,"updated_at":"2026-04-13T13:39:53.656864+05:30"},{"city":"Satna","state":"Madhya Pradesh","latitude":24.6005,"longitude":80.8322,"temp":36.7,"humidity":17,"rain":0.0,"pressure":973.0,"uv_index":8.55,"wind_gusts":25.2,"aqi":113,"pm10":124.3,"pm2_5":20.5,"mosquito_risk":0,"arthritis_risk":5,"migraine_risk":10,"frizz_risk":0,"updated_at":"2026-04-13T13:39:53.656870+05:30"},{"city":"Akola","state":"Maharashtra","latitude":20.7002,"longitude":77.0082,"temp":40.4,"humidity":20,"rain":0.0,"pressure":975.0,"uv_index":8.8,"wind_gusts":26.6,"aqi":76,"pm10":51.2,"pm2_5":24.0,"mosquito_risk":0,"arthritis_risk":5,"migraine_risk":10,"frizz_risk":0,"updated_at":"2026-04-13T13:39:53.656877+05:30"},{"city":"Amravati","state":"Maharashtra","latitude":20.9374,"longitude":77.7796,"temp":39.8,"humidity":20,"rain":0.0,"pressure":967.5,"uv_index":8.8,"wind_gusts":23.4,"aqi":79,"pm10":44.7,"pm2_5":21.2,"mosquito_risk":0,"arthritis_risk":5,"migraine_risk":10,"frizz_risk":0,"updated_at":"2026-04-13T13:39:53.656884+05:30"},{"city":"Latur","state":"Maharashtra","latitude":18.4088,"longitude":76.5604,"temp":37.2,"humidity":24,"rain":0.0,"pressure":941.1,"uv_index":9.05,"wind_gusts":33.1,"aqi":85,"pm10":44.7,"pm2_5":33.2,"mosquito_risk":0,"arthritis_risk":5,"migraine_risk":10,"frizz_risk":0,"updated_at":"2026-04-13T13:39:53.656890+05:30"},{"city":"Nanded","state":"Maharashtra","latitude":19.1383,"longitude":77.3091,"temp":38.9,"humidity":25,"rain":0.0,"pressure":969.0,"uv_index":8.95,"wind_gusts":18.0,"aqi":97,"pm10":34.0,"pm2_5":22.3,"mosquito_risk":0,"arthritis_risk":5,"migraine_risk":10,"frizz_risk":0,"updated_at":"2026-04-13T13:39:53.656897+05:30"},{"city":"Gulbarga","state":"Karnataka","latitude":17.3297,"longitude":76.8343,"temp":39.6,"humidity":24,"rain":0.0,"pressure":958.4,"uv_index":9.1,"wind_gusts":18.7,"aqi":90,"pm10":47.7,"pm2_5":34.5,"mosquito_risk":0,"arthritis_risk":5,"migraine_risk":10,"frizz_risk":0,"updated_at":"2026-04-13T13:39:53.656903+05:30"},{"city":"Bidar","state":"Karnataka","latitude":17.9104,"longitude":77.5199,"temp":38.5,"humidity":26,"rain":0.0,"pressure":936.3,"uv_index":9.15,"wind_gusts":27.7,"aqi":95,"pm10":48.8,"pm2_5":35.3,"mosquito_risk":0,"arthritis_risk":5,"migraine_risk":10,"frizz_risk":0,"updated_at":"2026-04-13T13:39:53.656909+05:30"},{"city":"Hospet","state":"Karnataka","latitude":15.2689,"longitude":76.3909,"temp":37.0,"humidity":33,"rain":0.0,"pressure":956.5,"uv_index":9.3,"wind_gusts":24.5,"aqi":101,"pm10":47.8,"pm2_5":34.7,"mosquito_risk":0,"arthritis_risk":5,"migraine_risk":10,"frizz_risk":1,"updated_at":"2026-04-13T13:39:53.656915+05:30"},{"city":"Tirupur","state":"Tamil Nadu","latitude":11.1085,"longitude":77.3411,"temp":38.2,"humidity":32,"rain":0.0,"pressure":975.5,"uv_index":9.45,"wind_gusts":29.9,"aqi":82,"pm10":38.0,"pm2_5":24.9,"mosquito_risk":0,"arthritis_risk":5,"migraine_risk":10,"frizz_risk":1,"updated_at":"2026-04-13T13:39:53.656921+05:30"},{"city":"Alappuzha","state":"Kerala","latitude":9.4981,"longitude":76.3388,"temp":29.6,"humidity":82,"rain":0.0,"pressure":1008.7,"uv_index":9.15,"wind_gusts":25.9,"aqi":96,"pm10":43.4,"pm2_5":28.6,"mosquito_risk":7,"arthritis_risk":0,"migraine_risk":4,"frizz_risk":1,"updated_at":"2026-04-13T13:39:53.656927+05:30"},{"city":"Munnar","state":"Kerala","latitude":10.0889,"longitude":77.0595,"temp":31.8,"humidity":39,"rain":0.0,"pressure":860.4,"uv_index":9.7,"wind_gusts":28.8,"aqi":85,"pm10":34.5,"pm2_5":21.5,"mosquito_risk":0,"arthritis_risk":5,"migraine_risk":7,"frizz_risk":1,"updated_at":"2026-04-13T13:39:53.656934+05:30"},{"city":"Silchar","state":"Assam","latitude":24.8333,"longitude":92.7789,"temp":28.5,"humidity":70,"rain":0.0,"pressure":1005.9,"uv_index":8.65,"wind_gusts":46.4,"aqi":151,"pm10":70.5,"pm2_5":36.7,"mosquito_risk":7,"arthritis_risk":5,"migraine_risk":4,"frizz_risk":1,"updated_at":"2026-04-13T13:39:53.656940+05:30"},{"city":"Dibrugarh","state":"Assam","latitude":27.4728,"longitude":94.912,"temp":24.8,"humidity":70,"rain":0.0,"pressure":997.1,"uv_index":6.9,"wind_gusts":25.9,"aqi":126,"pm10":94.8,"pm2_5":42.4,"mosquito_risk":3,"arthritis_risk":5,"migraine_risk":7,"frizz_risk":1,"updated_at":"2026-04-13T13:39:53.656945+05:30"}]