[{"city":"Delhi","state":"Delhi","latitude":28.6139,"longitude":77.209,"temp":29.5,"humidity":43,"rain":0.0,"pressure":985.4,"uv_index":7.2,"wind_gusts":34.9,"aqi":319,"pm10":264.5,"pm2_5":47.5,"mosquito_risk":4,"arthritis_risk":5,"migraine_risk":7,"frizz_risk":0,"updated_at":"2026-04-12T10:57:04.338191+05:30"},{"city":"Mumbai","state":"Maharashtra","latitude":19.076,"longitude":72.8777,"temp":28.9,"humidity":77,"rain":0.0,"pressure":1008.3,"uv_index":8.0,"wind_gusts":22.7,"aqi":120,"pm10":75.7,"pm2_5":58.1,"mosquito_risk":7,"arthritis_risk":0,"migraine_risk":4,"frizz_risk":1,"updated_at":"2026-04-12T10:57:04.338238+05:30"},{"city":"Bangalore","state":"Karnataka","latitude":12.9716,"longitude":77.5946,"temp":30.9,"humidity":47,"rain":0.0,"pressure":913.7,"uv_index":9.65,"wind_gusts":31.7,"aqi":87,"pm10":40.2,"pm2_5":29.6,"mosquito_risk":0,"arthritis_risk":5,"migraine_risk":7,"frizz_risk":1,"updated_at":"2026-04-12T10:57:04.338253+05:30"},{"city":"Hyderabad","state":"Telangana","latitude":17.385,"longitude":78.4867,"temp":36.8,"humidity":31,"rain":0.0,"pressure":954.7,"uv_index":9.25,"wind_gusts":28.1,"aqi":94,"pm10":36.1,"pm2_5":25.7,"mosquito_risk":0,"arthritis_risk":5,"migraine_risk":10,"frizz_risk":1,"updated_at":"2026-04-12T10:57:04.338263+05:30"},{"city":"Chennai","state":"Tamil Nadu","latitude":13.0827,"longitude":80.2707,"temp":33.8,"humidity":54,"rain":0.0,"pressure":1008.4,"uv_index":9.4,"wind_gusts":34.9,"aqi":52,"pm10":21.8,"pm2_5":13.0,"mosquito_risk":0,"arthritis_risk":0,"migraine_risk":4,"frizz_risk":1,"updated_at":"2026-04-12T10:57:04.338272+05:30"},{"city":"Kolkata","state":"West Bengal","latitude":22.5726,"longitude":88.3639,"temp":33.1,"humidity":62,"rain":0.0,"pressure":1006.5,"uv_index":8.75,"wind_gusts":23.0,"aqi":134,"pm10":79.4,"pm2_5":45.1,"mosquito_risk":3,"arthritis_risk":5,"migraine_risk":4,"frizz_risk":1,"updated_at":"2026-04-12T10:57:04.338285+05:30"},{"city":"Pune","state":"Maharashtra","latitude":18.5204,"longitude":73.8567,"temp":35.6,"humidity":29,"rain":0.0,"pressure":949.8,"uv_index":8.55,"wind_gusts":41.8,"aqi":109,"pm10":38.0,"pm2_5":26.2,"mosquito_risk":0,"arthritis_risk":5,"migraine_risk":10,"frizz_risk":0,"updated_at":"2026-04-12T10:57:04.338296+05:30"},{"city":"Ahmedabad","state":"Gujarat","latitude":23.0225,"longitude":72.5714,"temp":36.3,"humidity":26,"rain":0.0,"pressure":1002.9,"uv_index":8.1,"wind_gusts":21.2,"aqi":100,"pm10":140.2,"pm2_5":36.4,"mosquito_risk":0,"arthritis_risk":5,"migraine_risk":7,"frizz_risk":0,"updated_at":"2026-04-12T10:57:04.338304+05:30"},{"city":"Jaipur","state":"Rajasthan","latitude":26.9124,"longitude":75.7873,"temp":32.0,"humidity":22,"rain":0.0,"pressure":962.5,"uv_index":7.85,"wind_gusts":29.5,"aqi":157,"pm10":408.9,"pm2_5":64.0,"mosquito_risk":0,"arthritis_risk":5,"migraine_risk":7,"frizz_risk":0,"updated_at":"2026-04-12T10:57:04.338312+05:30"},{"city":"Lucknow","state":"Uttar Pradesh","latitude":26.8467,"longitude":80.9462,"temp":31.7,"humidity":33,"rain":0.0,"pressure":994.6,"uv_index":7.7,"wind_gusts":31.7,"aqi":166,"pm10":206.3,"pm2_5":45.2,"mosquito_risk":0,"arthritis_risk":5,"migraine_risk":7,"frizz_risk":0,"updated_at":"2026-04-12T10:57:04.338320+05:30"},{"city":"Kanpur","state":"Uttar Pradesh","latitude":26.4499,"longitude":80.3319,"temp":30.3,"humidity":45,"rain":0.0,"pressure":992.8,"uv_index":7.75,"wind_gusts":25.2,"aqi":485,"pm10":344.6,"pm2_5":59.4,"mosquito_risk":0,"arthritis_risk":5,"migraine_risk":7,"frizz_risk":1,"updated_at":"2026-04-12T10:57:04.338327+05:30"},{"city":"Chandigarh","state":"Chandigarh","latitude":30.7333,"longitude":76.7794,"temp":27.0,"humidity":45,"rain":0.0,"pressure":971.2,"uv_index":7.1,"wind_gusts":31.7,"aqi":73,"pm10":63.3,"pm2_5":20.7,"mosquito_risk":4,"arthritis_risk":5,"migraine_risk":7,"frizz_risk":0,"updated_at":"2026-04-12T10:57:04.338336+05:30"},{"city":"Srinagar","state":"Jammu and Kashmir","latitude":34.0837,"longitude":74.7973,"temp":14.2,"humidity":60,"rain":0.0,"pressure":843.6,"uv_index":8.05,"wind_gusts":14.0,"aqi":78,"pm10":27.3,"pm2_5":15.7,"mosquito_risk":0,"arthritis_risk":5,"migraine_risk":7,"frizz_risk":0,"updated_at":"2026-04-12T10:57:04.338343+05:30"},{"city":"Jammu","state":"Jammu and Kashmir","latitude":32.7266,"longitude":74.857,"temp":26.8,"humidity":44,"rain":0.0,"pressure":975.7,"uv_index":7.8,"wind_gusts":26.3,"aqi":74,"pm10":25.1,"pm2_5":11.6,"mosquito_risk":4,"arthritis_risk":5,"migraine_risk":7,"frizz_risk":0,"updated_at":"2026-04-12T10:57:04.338351+05:30"},{"city":"Amritsar","state":"Punjab","latitude":31.634,"longitude":74.8723,"temp":26.1,"humidity":51,"rain":0.0,"pressure":984.1,"uv_index":7.75,"wind_gusts":25.2,"aqi":85,"pm10":49.8,"pm2_5":19.0,"mosquito_risk":4,"arthritis_risk":5,"migraine_risk":7,"frizz_risk":0,"updated_at":"2026-04-12T10:57:04.338358+05:30"},{"city":"Ludhiana","state":"Punjab","latitude":30.901,"longitude":75.8573,"temp":27.5,"humidity":45,"rain":0.0,"pressure":981.6,"uv_index":7.35,"wind_gusts":30.2,"aqi":77,"pm10":67.8,"pm2_5":23.6,"mosquito_risk":4,"arthritis_risk":5,"migraine_risk":7,"frizz_risk":0,"updated_at":"2026-04-12T10:57:04.338366+05:30"},{"city":"Jalandhar","state":"Punjab","latitude":31.326,"longitude":75.5762,"temp":26.8,"humidity":46,"rain":0.0,"pressure":982.9,"uv_index":7.55,"wind_gusts":27.0,"aqi":78,"pm10":87.1,"pm2_5":26.0,"mosquito_risk":4,"arthritis_risk":5,"migraine_risk":7,"frizz_risk":0,"updated_at":"2026-04-12T10:57:04.338374+05:30"},{"city":"Dehradun","state":"Uttarakhand","latitude":30.6284,"longitude":78.0322,"temp":18.7,"humidity":42,"rain":0.0,"pressure":831.4,"uv_index":7.45,"wind_gusts":36.0,"aqi":41,"pm10":34.8,"pm2_5":8.6,"mosquito_risk":0,"arthritis_risk":5,"migraine_risk":7,"frizz_risk":0,"updated_at":"2026-04-12T10:57:04.338382+05:30"},{"city":"Shimla","state":"Himachal Pradesh","latitude":31.1048,"longitude":77.1734,"temp":16.7,"humidity":52,"rain":0.0,"pressure":786.1,"uv_index":7.65,"wind_gusts":43.2,"aqi":58,"pm10":40.5,"pm2_5":10.0,"mosquito_risk":0,"arthritis_risk":5,"migraine_risk":7,"frizz_risk":0,"updated_at":"2026-04-12T10:57:04.338390+05:30"},{"city":"Manali","state":"Himachal Pradesh","latitude":32.2396,"longitude":77.1887,"temp":17.7,"humidity":46,"rain":0.0,"pressure":820.4,"uv_index":9.9,"wind_gusts":25.6,"aqi":108,"pm10":8.8,"pm2_5":4.4,"mosquito_risk":0,"arthritis_risk":5,"migraine_risk":7,"frizz_risk":0,"updated_at":"2026-04-12T10:57:04.338397+05:30"},{"city":"Gurgaon","state":"Haryana","latitude":28.4595,"longitude":77.0266,"temp":29.3,"humidity":46,"rain":0.0,"pressure":984.0,"uv_index":7.3,"wind_gusts":33.5,"aqi":785,"pm10":1296.4,"pm2_5":142.0,"mosquito_risk":4,"arthritis_risk":5,"migraine_risk":7,"frizz_risk":1,"updated_at":"2026-04-12T10:57:04.338404+05:30"},{"city":"Noida","state":"Uttar Pradesh","latitude":28.5355,"longitude":77.391,"temp":29.9,"humidity":42,"rain":0.0,"pressure":986.8,"uv_index":7.25,"wind_gusts":34.2,"aqi":785,"pm10":1296.4,"pm2_5":142.0,"mosquito_risk":4,"arthritis_risk":5,"migraine_risk":7,"frizz_risk":0,"updated_at":"2026-04-12T10:57:04.338411+05:30"},{"city":"Ghaziabad","state":"Uttar Pradesh","latitude":28.6692,"longitude":77.4538,"temp":29.4,"humidity":46,"rain":0.0,"pressure":984.9,"uv_index":7.2,"wind_gusts":33.1,"aqi":185,"pm10":240.3,"pm2_5":46.2,"mosquito_risk":4,"arthritis_risk":5,"migraine_risk":7,"frizz_risk":1,"updated_at":"2026-04-12T10:57:04.338417+05:30"},{"city":"Faridabad","state":"Haryana","latitude":28.4089,"longitude":77.3178,"temp":29.9,"humidity":42,"rain":0.0,"pressure":986.2,"uv_index":7.3,"wind_gusts":33.5,"aqi":785,"pm10":1296.4,"pm2_5":142.0,"mosquito_risk":4,"arthritis_risk":5,"migraine_risk":7,"frizz_risk":0,"updated_at":"2026-04-12T10:57:04.338424+05:30"},{"city":"Meerut","state":"Uttar Pradesh","latitude":28.9845,"longitude":77.7064,"temp":29.4,"humidity":45,"rain":0.0,"pressure":983.5,"uv_index":7.1,"wind_gusts":33.8,"aqi":185,"pm10":240.3,"pm2_5":46.2,"mosquito_risk":4,"arthritis_risk":5,"migraine_risk":7,"frizz_risk":1,"updated_at":"2026-04-12T10:57:04.338431+05:30"},{"city":"Agra","state":"Uttar Pradesh","latitude":27.1767,"longitude":78.0081,"temp":30.8,"humidity":42,"rain":0.0,"pressure":989.9,"uv_index":7.6,"wind_gusts":33.5,"aqi":457,"pm10":413.5,"pm2_5":69.2,"mosquito_risk":0,"arthritis_risk":5,"migraine_risk":7,"frizz_risk":1,"updated_at":"2026-04-12T10:57:04.338438+05:30"},{"city":"Varanasi","state":"Uttar Pradesh","latitude":25.3176,"longitude":82.9739,"temp":35.0,"humidity":28,"rain":0.0,"pressure":998.3,"uv_index":8.35,"wind_gusts":28.8,"aqi":131,"pm10":385.6,"pm2_5":63.3,"mosquito_risk":0,"arthritis_risk":5,"migraine_risk":7,"frizz_risk":0,"updated_at":"2026-04-12T10:57:04.338447+05:30"},{"city":"Prayagraj","state":"Uttar Pradesh","latitude":25.4358,"longitude":81.8463,"temp":34.1,"humidity":29,"rain":0.0,"pressure":996.8,"uv_index":8.2,"wind_gusts":26.3,"aqi":153,"pm10":339.9,"pm2_5":61.7,"mosquito_risk":0,"arthritis_risk":5,"migraine_risk":7,"frizz_risk":0,"updated_at":"2026-04-12T10:57:04.338454+05:30"},{"city":"Gorakhpur","state":"Uttar Pradesh","latitude":26.7606,"longitude":83.3732,"temp":31.7,"humidity":36,"rain":0.0,"pressure":997.4,"uv_index":8.15,"wind_gusts":38.9,"aqi":105,"pm10":124.8,"pm2_5":33.5,"mosquito_risk":0,"arthritis_risk":5,"migraine_risk":7,"frizz_risk":0,"updated_at":"2026-04-12T10:57:04.338463+05:30"},{"city":"Bareilly","state":"Uttar Pradesh","latitude":28.367,"longitude":79.4304,"temp":31.5,"humidity":34,"rain":0.0,"pressure":987.8,"uv_index":7.45,"wind_gusts":35.6,"aqi":81,"pm10":109.4,"pm2_5":29.7,"mosquito_risk":0,"arthritis_risk":5,"migraine_risk":7,"frizz_risk":0,"updated_at":"2026-04-12T10:57:04.338470+05:30"},{"city":"Aligarh","state":"Uttar Pradesh","latitude":27.8974,"longitude":78.088,"temp":31.3,"humidity":38,"rain":0.0,"pressure":987.6,"uv_index":7.4,"wind_gusts":34.6,"aqi":444,"pm10":663.1,"pm2_5":92.9,"mosquito_risk":0,"arthritis_risk":5,"migraine_risk":7,"frizz_risk":0,"updated_at":"2026-04-12T10:57:04.338477+05:30"},{"city":"Moradabad","state":"Uttar Pradesh","latitude":28.8386,"longitude":78.7733,"temp":30.0,"humidity":41,"rain":0.0,"pressure":985.1,"uv_index":7.3,"wind_gusts":36.0,"aqi":94,"pm10":131.3,"pm2_5":34.8,"mosquito_risk":4,"arthritis_risk":5,"migraine_risk":7,"frizz_risk":0,"updated_at":"2026-04-12T10:57:04.338483+05:30"},{"city":"Saharanpur","state":"Uttar Pradesh","latitude":29.9637,"longitude":77.546,"temp":28.4,"humidity":44,"rain":0.0,"pressure":977.7,"uv_index":6.9,"wind_gusts":34.2,"aqi":99,"pm10":68.0,"pm2_5":25.7,"mosquito_risk":4,"arthritis_risk":5,"migraine_risk":7,"frizz_risk":0,"updated_at":"2026-04-12T10:57:04.338489+05:30"},{"city":"Jhansi","state":"Uttar Pradesh","latitude":25.4484,"longitude":78.5685,"temp":34.5,"humidity":27,"rain":0.0,"pressure":978.9,"uv_index":8.15,"wind_gusts":36.0,"aqi":54,"pm10":68.9,"pm2_5":21.3,"mosquito_risk":0,"arthritis_risk":5,"migraine_risk":7,"frizz_risk":0,"updated_at":"2026-04-12T10:57:07.683768+05:30"},{"city":"Surat","state":"Gujarat","latitude":21.1702,"longitude":72.8311,"temp":33.0,"humidity":47,"rain":0.0,"pressure":1007.0,"uv_index":7.8,"wind_gusts":27.0,"aqi":150,"pm10":75.7,"pm2_5":47.0,"mosquito_risk":0,"arthritis_risk":5,"migraine_risk":4,"frizz_risk":1,"updated_at":"2026-04-12T10:57:07.683802+05:30"},{"city":"Vadodara","state":"Gujarat","latitude":22.3072,"longitude":73.1812,"temp":34.5,"humidity":38,"rain":0.0,"pressure":1005.0,"uv_index":8.05,"wind_gusts":19.8,"aqi":112,"pm10":76.4,"pm2_5":39.9,"mosquito_risk":0,"arthritis_risk":5,"migraine_risk":4,"frizz_risk":1,"updated_at":"2026-04-12T10:57:07.683813+05:30"},{"city":"Rajkot","state":"Gujarat","latitude":22.3039,"longitude":70.8022,"temp":32.6,"humidity":46,"rain":0.0,"pressure":995.7,"uv_index":7.8,"wind_gusts":25.6,"aqi":72,"pm10":92.7,"pm2_5":31.8,"mosquito_risk":0,"arthritis_risk":5,"migraine_risk":7,"frizz_risk":1,"updated_at":"2026-04-12T10:57:07.683823+05:30"},{"city":"Thane","state":"Maharashtra","latitude":19.2183,"longitude":72.9781,"temp":34.8,"humidity":39,"rain":0.0,"pressure":1007.8,"uv_index":8.0,"wind_gusts":36.4,"aqi":120,"pm10":75.7,"pm2_5":58.1,"mosquito_risk":0,"arthritis_risk":5,"migraine_risk":4,"frizz_risk":1,"updated_at":"2026-04-12T10:57:07.683831+05:30"},{"city":"Nagpur","state":"Maharashtra","latitude":21.1458,"longitude":79.0882,"temp":33.6,"humidity":32,"rain":0.0,"pressure":975.1,"uv_index":8.8,"wind_gusts":16.6,"aqi":64,"pm10":25.4,"pm2_5":17.2,"mosquito_risk":0,"arthritis_risk":5,"migraine_risk":7,"frizz_risk":0,"updated_at":"2026-04-12T10:57:07.683839+05:30"},{"city":"Nashik","state":"Maharashtra","latitude":19.9975,"longitude":73.7898,"temp":33.0,"humidity":28,"rain":0.0,"pressure":947.1,"uv_index":8.25,"wind_gusts":28.1,"aqi":114,"pm10":45.8,"pm2_5":27.8,"mosquito_risk":0,"arthritis_risk":5,"migraine_risk":7,"frizz_risk":0,"updated_at":"2026-04-12T10:57:07.683847+05:30"},{"city":"Aurangabad","state":"Maharashtra","latitude":19.8762,"longitude":75.3433,"temp":35.9,"humidity":21,"rain":0.0,"pressure":945.8,"uv_index":8.95,"wind_gusts":28.4,"aqi":82,"pm10":35.9,"pm2_5":21.5,"mosquito_risk":0,"arthritis_risk":5,"migraine_risk":10,"frizz_risk":0,"updated_at":"2026-04-12T10:57:07.683855+05:30"},{"city":"Solapur","state":"Maharashtra","latitude":17.6599,"longitude":75.9064,"temp":37.1,"humidity":24,"rain":0.0,"pressure":958.3,"uv_index":9.05,"wind_gusts":27.0,"aqi":84,"pm10":41.8,"pm2_5":32.2,"mosquito_risk":0,"arthritis_risk":5,"migraine_risk":10,"frizz_risk":0,"updated_at":"2026-04-12T10:57:07.683864+05:30"},{"city":"Kolhapur","state":"Maharashtra","latitude":16.705,"longitude":74.2433,"temp":33.5,"humidity":36,"rain":0.0,"pressure":949.2,"uv_index":9.05,"wind_gusts":45.7,"aqi":94,"pm10":41.9,"pm2_5":33.2,"mosquito_risk":0,"arthritis_risk":5,"migraine_risk":7,"frizz_risk":1,"updated_at":"2026-04-12T10:57:07.683898+05:30"},{"city":"Goa","state":"Goa","latitude":15.2993,"longitude":74.124,"temp":31.8,"humidity":63,"rain":0.0,"pressure":998.4,"uv_index":9.05,"wind_gusts":31.0,"aqi":106,"pm10":51.7,"pm2_5":31.7,"mosquito_risk":3,"arthritis_risk":5,"migraine_risk":7,"frizz_risk":1,"updated_at":"2026-04-12T10:57:07.683906+05:30"},{"city":"Jodhpur","state":"Rajasthan","latitude":26.2389,"longitude":73.0243,"temp":31.5,"humidity":32,"rain":0.0,"pressure":986.2,"uv_index":8.1,"wind_gusts":16.2,"aqi":94,"pm10":170.9,"pm2_5":34.7,"mosquito_risk":0,"arthritis_risk":5,"migraine_risk":7,"frizz_risk":0,"updated_at":"2026-04-12T10:57:07.683913+05:30"},{"city":"Udaipur","state":"Rajasthan","latitude":24.5854,"longitude":73.7125,"temp":31.9,"humidity":26,"rain":0.0,"pressure":949.2,"uv_index":8.65,"wind_gusts":26.3,"aqi":43,"pm10":138.3,"pm2_5":22.2,"mosquito_risk":0,"arthritis_risk":5,"migraine_risk":7,"frizz_risk":0,"updated_at":"2026-04-12T10:57:07.683920+05:30"},{"city":"Kota","state":"Rajasthan","latitude":25.2138,"longitude":75.8648,"temp":31.0,"humidity":42,"rain":0.0,"pressure":981.1,"uv_index":8.15,"wind_gusts":22.7,"aqi":59,"pm10":86.1,"pm2_5":25.8,"mosquito_risk":0,"arthritis_risk":5,"migraine_risk":7,"frizz_risk":1,"updated_at":"2026-04-12T10:57:07.683926+05:30"},{"city":"Bikaner","state":"Rajasthan","latitude":28.0229,"longitude":73.3119,"temp":31.3,"humidity":26,"rain":0.0,"pressure":985.1,"uv_index":7.95,"wind_gusts":21.6,"aqi":69,"pm10":90.8,"pm2_5":24.4,"mosquito_risk":0,"arthritis_risk":5,"migraine_risk":7,"frizz_risk":0,"updated_at":"2026-04-12T10:57:07.683933+05:30"},{"city":"Ajmer","state":"Rajasthan","latitude":26.4499,"longitude":74.6399,"temp":31.7,"humidity":20,"rain":0.0,"pressure":957.4,"uv_index":8.1,"wind_gusts":26.3,"aqi":67,"pm10":268.2,"pm2_5":49.6,"mosquito_risk":0,"arthritis_risk":5,"migraine_risk":7,"frizz_risk":0,"updated_at":"2026-04-12T10:57:07.683939+05:30"},{"city":"Gwalior","state":"Madhya Pradesh","latitude":26.2183,"longitude":78.1828,"temp":31.0,"humidity":42,"rain":0.0,"pressure":985.1,"uv_index":7.85,"wind_gusts":31.7,"aqi":89,"pm10":413.5,"pm2_5":65.0,"mosquito_risk":0,"arthritis_risk":5,"migraine_risk":7,"frizz_risk":1,"updated_at":"2026-04-12T10:57:07.683946+05:30"},{"city":"Indore","state":"Madhya Pradesh","latitude":22.7196,"longitude":75.8577,"temp":34.0,"humidity":25,"rain":0.0,"pressure":949.7,"uv_index":8.55,"wind_gusts":27.7,"aqi":81,"pm10":21.7,"pm2_5":11.3,"mosquito_risk":0,"arthritis_risk":5,"migraine_risk":7,"frizz_risk":0,"updated_at":"2026-04-12T10:57:07.683953+05:30"},{"city":"Bhopal","state":"Madhya Pradesh","latitude":23.2599,"longitude":77.4126,"temp":35.2,"humidity":24,"rain":0.0,"pressure":955.3,"uv_index":8.5,"wind_gusts":32.4,"aqi":70,"pm10":18.2,"pm2_5":12.5,"mosquito_risk":0,"arthritis_risk":5,"migraine_risk":10,"frizz_risk":0,"updated_at":"2026-04-12T10:57:07.683959+05:30"},{"city":"Jabalpur","state":"Madhya Pradesh","latitude":23.1815,"longitude":79.9864,"temp":35.0,"humidity":24,"rain":0.0,"pressure":962.9,"uv_index":8.65,"wind_gusts":34.2,"aqi":83,"pm10":29.6,"pm2_5":12.2,"mosquito_risk":0,"arthritis_risk":5,"migraine_risk":7,"frizz_risk":0,"updated_at":"2026-04-12T10:57:07.683966+05:30"},{"city":"Ujjain","state":"Madhya Pradesh","latitude":23.1765,"longitude":75.7885,"temp":34.2,"humidity":27,"rain":0.0,"pressure":955.4,"uv_index":8.45,"wind_gusts":26.3,"aqi":71,"pm10":28.1,"pm2_5":12.8,"mosquito_risk":0,"arthritis_risk":5,"migraine_risk":7,"frizz_risk":0,"updated_at":"2026-04-12T10:57:07.683973+05:30"},{"city":"Visakhapatnam","state":"Andhra Pradesh","latitude":17.6868,"longitude":83.2185,"temp":34.0,"humidity":57,"rain":0.0,"pressure":1004.7,"uv_index":9.2,"wind_gusts":38.9,"aqi":84,"pm10":37.5,"pm2_5":27.2,"mosquito_risk":0,"arthritis_risk":5,"migraine_risk":4,"frizz_risk":1,"updated_at":"2026-04-12T10:57:07.683979+05:30"},{"city":"Vijayawada","state":"Andhra Pradesh","latitude":16.5062,"longitude":80.648,"temp":34.0,"humidity":58,"rain":0.0,"pressure":1003.6,"uv_index":9.25,"wind_gusts":36.0,"aqi":66,"pm10":27.1,"pm2_5":16.6,"mosquito_risk":0,"arthritis_risk":5,"migraine_risk":4,"frizz_risk":1,"updated_at":"2026-04-12T10:57:07.683986+05:30"},{"city":"Guntur","state":"Andhra Pradesh","latitude":16.3067,"longitude":80.4365,"temp":34.3,"humidity":57,"rain":0.0,"pressure":1004.6,"uv_index":9.25,"wind_gusts":36.0,"aqi":65,"pm10":24.7,"pm2_5":15.2,"mosquito_risk":0,"arthritis_risk":5,"migraine_risk":4,"frizz_risk":1,"updated_at":"2026-04-12T10:57:07.683992+05:30"},{"city":"Nellore","state":"Andhra Pradesh","latitude":14.4426,"longitude":79.9865,"temp":35.5,"humidity":48,"rain":0.0,"pressure":1006.3,"uv_index":9.35,"wind_gusts":34.9,"aqi":57,"pm10":29.0,"pm2_5":20.5,"mosquito_risk":0,"arthritis_risk":5,"migraine_risk":7,"frizz_risk":1,"updated_at":"2026-04-12T10:57:07.683999+05:30"},{"city":"Kurnool","state":"Andhra Pradesh","latitude":15.8281,"longitude":78.0373,"temp":37.2,"humidity":32,"rain":0.0,"pressure":977.7,"uv_index":9.25,"wind_gusts":30.6,"aqi":77,"pm10":31.9,"pm2_5":23.8,"mosquito_risk":0,"arthritis_risk":5,"migraine_risk":10,"frizz_risk":1,"updated_at":"2026-04-12T10:57:07.684007+05:30"},{"city":"Kakinada","state":"Andhra Pradesh","latitude":16.9891,"longitude":82.2475,"temp":35.0,"humidity":53,"rain":0.0,"pressure":1008.4,"uv_index":9.2,"wind_gusts":36.7,"aqi":59,"pm10":25.8,"pm2_5":14.3,"mosquito_risk":0,"arthritis_risk":0,"migraine_risk":4,"frizz_risk":1,"updated_at":"2026-04-12T10:57:07.684013+05:30"},{"city":"Tirupati","state":"Andhra Pradesh","latitude":13.6288,"longitude":79.4192,"temp":33.8,"humidity":52,"rain":0.0,"pressure":993.0,"uv_index":9.45,"wind_gusts":34.9,"aqi":69,"pm10":30.9,"pm2_5":22.0,"mosquito_risk":0,"arthritis_risk":5,"migraine_risk":7,"frizz_risk":1,"updated_at":"2026-04-12T10:57:07.684019+05:30"},{"city":"Warangal","state":"Telangana","latitude":17.9689,"longitude":79.5941,"temp":34.5,"humidity":52,"rain":0.0,"pressure":979.9,"uv_index":9.1,"wind_gusts":29.5,"aqi":101,"pm10":29.9,"pm2_5":21.7,"mosquito_risk":0,"arthritis_risk":5,"migraine_risk":7,"frizz_risk":1,"updated_at":"2026-04-12T10:57:07.684026+05:30"},{"city":"Nizamabad","state":"Telangana","latitude":18.6725,"longitude":78.0941,"temp":37.0,"humidity":34,"rain":0.0,"pressure":965.9,"uv_index":9.05,"wind_gusts":25.6,"aqi":132,"pm10":48.5,"pm2_5":37.4,"mosquito_risk":0,"arthritis_risk":5,"migraine_risk":10,"frizz_risk":1,"updated_at":"2026-04-12T10:57:07.684032+05:30"},{"city":"Mysore","state":"Karnataka","latitude":12.2958,"longitude":76.6396,"temp":31.0,"humidity":53,"rain":0.0,"pressure":930.0,"uv_index":9.5,"wind_gusts":37.4,"aqi":101,"pm10":39.3,"pm2_5":29.5,"mosquito_risk":0,"arthritis_risk":5,"migraine_risk":7,"frizz_risk":1,"updated_at":"2026-04-12T10:57:07.684038+05:30"},{"city":"Mangalore","state":"Karnataka","latitude":12.9141,"longitude":74.856,"temp":29.2,"humidity":76,"rain":0.0,"pressure":1007.1,"uv_index":9.2,"wind_gusts":22.3,"aqi":93,"pm10":74.3,"pm2_5":35.5,"mosquito_risk":7,"arthritis_risk":5,"migraine_risk":4,"frizz_risk":1,"updated_at":"2026-04-12T10:57:07.684045+05:30"},{"city":"Hubli-Dharwad","state":"Karnataka","latitude":15.3647,"longitude":75.124,"temp":33.1,"humidity":43,"rain":0.0,"pressure":942.3,"uv_index":9.25,"wind_gusts":37.4,"aqi":92,"pm10":43.9,"pm2_5":29.3,"mosquito_risk":0,"arthritis_risk":5,"migraine_risk":7,"frizz_risk":1,"updated_at":"2026-04-12T10:57:07.684051+05:30"},{"city":"Belgaum","state":"Karnataka","latitude":15.8497,"longitude":74.4977,"temp":32.6,"humidity":35,"rain":0.0,"pressure":927.3,"uv_index":9.3,"wind_gusts":46.1,"aqi":94,"pm10":38.6,"pm2_5":24.8,"mosquito_risk":0,"arthritis_risk":5,"migraine_risk":7,"frizz_risk":0,"updated_at":"2026-04-12T10:57:11.028667+05:30"},{"city":"Coimbatore","state":"Tamil Nadu","latitude":11.0168,"longitude":76.9558,"temp":31.9,"humidity":57,"rain":0.0,"pressure":963.3,"uv_index":9.5,"wind_gusts":38.9,"aqi":98,"pm10":38.0,"pm2_5":29.0,"mosquito_risk":0,"arthritis_risk":5,"migraine_risk":7,"frizz_risk":1,"updated_at":"2026-04-12T10:57:11.028696+05:30"},{"city":"Madurai","state":"Tamil Nadu","latitude":9.9252,"longitude":78.1198,"temp":33.5,"humidity":51,"rain":0.0,"pressure":994.2,"uv_index":9.4,"wind_gusts":32.0,"aqi":91,"pm10":32.5,"pm2_5":23.0,"mosquito_risk":0,"arthritis_risk":5,"migraine_risk":7,"frizz_risk":1,"updated_at":"2026-04-12T10:57:11.028706+05:30"},{"city":"Trichy","state":"Tamil Nadu","latitude":10.7905,"longitude":78.7047,"temp":32.5,"humidity":57,"rain":0.0,"pressure":1001.1,"uv_index":9.4,"wind_gusts":26.3,"aqi":75,"pm10":20.6,"pm2_5":14.6,"mosquito_risk":0,"arthritis_risk":5,"migraine_risk":4,"frizz_risk":1,"updated_at":"2026-04-12T10:57:11.028714+05:30"},{"city":"Salem","state":"Tamil Nadu","latitude":11.6643,"longitude":78.146,"temp":32.8,"humidity":56,"rain":0.0,"pressure":978.6,"uv_index":9.45,"wind_gusts":25.9,"aqi":83,"pm10":33.9,"pm2_5":22.2,"mosquito_risk":0,"arthritis_risk":5,"migraine_risk":7,"frizz_risk":1,"updated_at":"2026-04-12T10:57:11.028722+05:30"},{"city":"Tirunelveli","state":"Tamil Nadu","latitude":8.7139,"longitude":77.7567,"temp":34.5,"humidity":48,"rain":0.0,"pressure":1004.0,"uv_index":9.35,"wind_gusts":40.7,"aqi":88,"pm10":30.5,"pm2_5":22.4,"mosquito_risk":0,"arthritis_risk":5,"migraine_risk":4,"frizz_risk":1,"updated_at":"2026-04-12T10:57:11.028729+05:30"},{"city":"Vellore","state":"Tamil Nadu","latitude":12.9165,"longitude":79.1325,"temp":33.2,"humidity":50,"rain":0.0,"pressure":986.0,"uv_index":9.5,"wind_gusts":32.8,"aqi":86,"pm10":32.9,"pm2_5":23.9,"mosquito_risk":0,"arthritis_risk":5,"migraine_risk":7,"frizz_risk":1,"updated_at":"2026-04-12T10:57:11.028735+05:30"},{"city":"Erode","state":"Tamil Nadu","latitude":11.341,"longitude":77.7172,"temp":33.8,"humidity":54,"rain":0.0,"pressure":990.1,"uv_index":9.45,"wind_gusts":29.2,"aqi":75,"pm10":31.1,"pm2_5":21.3,"mosquito_risk":0,"arthritis_risk":5,"migraine_risk":7,"frizz_risk":1,"updated_at":"2026-04-12T10:57:11.028742+05:30"},{"city":"Kochi","state":"Kerala","latitude":9.9312,"longitude":76.2673,"temp":29.1,"humidity":81,"rain":0.0,"pressure":1009.0,"uv_index":9.2,"wind_gusts":30.6,"aqi":93,"pm10":55.3,"pm2_5":30.6,"mosquito_risk":7,"arthritis_risk":0,"migraine_risk":4,"frizz_risk":1,"updated_at":"2026-04-12T10:57:11.028750+05:30"},{"city":"Thiruvananthapuram","state":"Kerala","latitude":8.5241,"longitude":76.9366,"temp":28.9,"humidity":84,"rain":0.0,"pressure":1008.2,"uv_index":9.2,"wind_gusts":21.6,"aqi":75,"pm10":61.2,"pm2_5":31.1,"mosquito_risk":7,"arthritis_risk":0,"migraine_risk":4,"frizz_risk":1,"updated_at":"2026-04-12T10:57:11.028757+05:30"},{"city":"Kozhikode","state":"Kerala","latitude":11.2588,"longitude":75.7804,"temp":31.0,"humidity":70,"rain":0.0,"pressure":1008.2,"uv_index":8.85,"wind_gusts":31.7,"aqi":78,"pm10":65.2,"pm2_5":31.4,"mosquito_risk":3,"arthritis_risk":0,"migraine_risk":4,"frizz_risk":1,"updated_at":"2026-04-12T10:57:11.028764+05:30"},{"city":"Thrissur","state":"Kerala","latitude":10.5276,"longitude":76.2144,"temp":32.4,"humidity":66,"rain":0.0,"pressure":1007.4,"uv_index":9.0,"wind_gusts":34.9,"aqi":86,"pm10":52.6,"pm2_5":27.7,"mosquito_risk":3,"arthritis_risk":5,"migraine_risk":4,"frizz_risk":1,"updated_at":"2026-04-12T10:57:11.028772+05:30"},{"city":"Kannur","state":"Kerala","latitude":11.8745,"longitude":75.3704,"temp":31.4,"humidity":66,"rain":0.0,"pressure":1007.5,"uv_index":9.2,"wind_gusts":33.5,"aqi":97,"pm10":81.0,"pm2_5":37.7,"mosquito_risk":3,"arthritis_risk":5,"migraine_risk":4,"frizz_risk":1,"updated_at":"2026-04-12T10:57:11.028778+05:30"},{"city":"Patna","state":"Bihar","latitude":25.5941,"longitude":85.1376,"temp":32.8,"humidity":34,"rain":0.0,"pressure":1000.6,"uv_index":8.45,"wind_gusts":40.3,"aqi":127,"pm10":178.3,"pm2_5":44.6,"mosquito_risk":0,"arthritis_risk":5,"migraine_risk":4,"frizz_risk":0,"updated_at":"2026-04-12T10:57:11.028785+05:30"},{"city":"Gaya","state":"Bihar","latitude":24.7914,"longitude":85.0002,"temp":34.4,"humidity":28,"rain":0.0,"pressure":994.2,"uv_index":8.55,"wind_gusts":32.8,"aqi":106,"pm10":241.2,"pm2_5":45.4,"mosquito_risk":0,"arthritis_risk":5,"migraine_risk":7,"frizz_risk":0,"updated_at":"2026-04-12T10:57:11.028791+05:30"},{"city":"Muzaffarpur","state":"Bihar","latitude":26.1209,"longitude":85.3647,"temp":31.2,"humidity":45,"rain":0.0,"pressure":1000.5,"uv_index":8.45,"wind_gusts":40.3,"aqi":154,"pm10":133.2,"pm2_5":45.8,"mosquito_risk":0,"arthritis_risk":5,"migraine_risk":4,"frizz_risk":1,"updated_at":"2026-04-12T10:57:11.028798+05:30"},{"city":"Bhagalpur","state":"Bihar","latitude":25.2425,"longitude":87.0117,"temp":30.8,"humidity":49,"rain":0.0,"pressure":1001.0,"uv_index":8.5,"wind_gusts":32.0,"aqi":151,"pm10":136.4,"pm2_5":48.8,"mosquito_risk":0,"arthritis_risk":5,"migraine_risk":4,"frizz_risk":1,"updated_at":"2026-04-12T10:57:11.028804+05:30"},{"city":"Ranchi","state":"Jharkhand","latitude":23.3441,"longitude":85.3096,"temp":31.6,"humidity":25,"rain":0.0,"pressure":939.9,"uv_index":9.1,"wind_gusts":37.1,"aqi":86,"pm10":116.6,"pm2_5":23.5,"mosquito_risk":0,"arthritis_risk":5,"migraine_risk":7,"frizz_risk":0,"updated_at":"2026-04-12T10:57:11.028810+05:30"},{"city":"Jamshedpur","state":"Jharkhand","latitude":22.8046,"longitude":86.2029,"temp":32.9,"humidity":39,"rain":0.0,"pressure":992.3,"uv_index":8.9,"wind_gusts":19.4,"aqi":113,"pm10":227.2,"pm2_5":49.1,"mosquito_risk":0,"arthritis_risk":5,"migraine_risk":7,"frizz_risk":1,"updated_at":"2026-04-12T10:57:11.028816+05:30"},{"city":"Dhanbad","state":"Jharkhand","latitude":23.7957,"longitude":86.4304,"temp":34.6,"humidity":25,"rain":0.0,"pressure":980.6,"uv_index":8.85,"wind_gusts":37.8,"aqi":141,"pm10":264.5,"pm2_5":51.9,"mosquito_risk":0,"arthritis_risk":5,"migraine_risk":7,"frizz_risk":0,"updated_at":"2026-04-12T10:57:11.028823+05:30"},{"city":"Bokaro","state":"Jharkhand","latitude":23.6693,"longitude":86.1511,"temp":34.1,"humidity":25,"rain":0.0,"pressure":984.8,"uv_index":8.85,"wind_gusts":34.9,"aqi":132,"pm10":254.3,"pm2_5":49.6,"mosquito_risk":0,"arthritis_risk":5,"migraine_risk":7,"frizz_risk":0,"updated_at":"2026-04-12T10:57:11.028829+05:30"},{"city":"Bhubaneswar","state":"Odisha","latitude":20.2961,"longitude":85.8245,"temp":32.9,"humidity":70,"rain":0.0,"pressure":1003.9,"uv_index":9.05,"wind_gusts":33.1,"aqi":112,"pm10":49.2,"pm2_5":38.0,"mosquito_risk":3,"arthritis_risk":5,"migraine_risk":4,"frizz_risk":1,"updated_at":"2026-04-12T10:57:11.028836+05:30"},{"city":"Cuttack","state":"Odisha","latitude":20.4625,"longitude":85.8828,"temp":34.2,"humidity":59,"rain":0.0,"pressure":1005.7,"uv_index":9.1,"wind_gusts":34.9,"aqi":112,"pm10":49.2,"pm2_5":38.0,"mosquito_risk":0,"arthritis_risk":5,"migraine_risk":4,"frizz_risk":1,"updated_at":"2026-04-12T10:57:11.028842+05:30"},{"city":"Rourkela","state":"Odisha","latitude":22.2604,"longitude":84.8536,"temp":34.2,"humidity":29,"rain":0.0,"pressure":986.9,"uv_index":8.85,"wind_gusts":22.0,"aqi":121,"pm10":116.4,"pm2_5":36.2,"mosquito_risk":0,"arthritis_risk":5,"migraine_risk":7,"frizz_risk":0,"updated_at":"2026-04-12T10:57:11.028849+05:30"},{"city":"Raipur","state":"Chhattisgarh","latitude":21.2514,"longitude":81.6296,"temp":36.0,"humidity":20,"rain":0.0,"pressure":976.2,"uv_index":8.85,"wind_gusts":20.9,"aqi":115,"pm10":35.6,"pm2_5":29.1,"mosquito_risk":0,"arthritis_risk":5,"migraine_risk":10,"frizz_risk":0,"updated_at":"2026-04-12T10:57:11.028856+05:30"},{"city":"Bhilai","state":"Chhattisgarh","latitude":21.1938,"longitude":81.3509,"temp":35.6,"humidity":23,"rain":0.0,"pressure":976.6,"uv_index":8.9,"wind_gusts":18.4,"aqi":124,"pm10":52.0,"pm2_5":43.7,"mosquito_risk":0,"arthritis_risk":5,"migraine_risk":10,"frizz_risk":0,"updated_at":"2026-04-12T10:57:11.028863+05:30"},{"city":"Guwahati","state":"Assam","latitude":26.1158,"longitude":91.7086,"temp":27.2,"humidity":72,"rain":0.0,"pressure":1001.8,"uv_index":8.35,"wind_gusts":34.6,"aqi":109,"pm10":83.8,"pm2_5":40.5,"mosquito_risk":7,"arthritis_risk":5,"migraine_risk":4,"frizz_risk":1,"updated_at":"2026-04-12T10:57:11.028869+05:30"},{"city":"Agartala","state":"Tripura","latitude":23.8315,"longitude":91.2868,"temp":32.2,"humidity":61,"rain":0.0,"pressure":1005.9,"uv_index":8.6,"wind_gusts":32.8,"aqi":105,"pm10":67.3,"pm2_5":45.8,"mosquito_risk":3,"arthritis_risk":5,"migraine_risk":4,"frizz_risk":1,"updated_at":"2026-04-12T10:57:11.028898+05:30"},{"city":"Shillong","state":"Meghalaya","latitude":25.5788,"longitude":91.8933,"temp":19.0,"humidity":49,"rain":0.0,"pressure":857.0,"uv_index":6.6,"wind_gusts":67.0,"aqi":103,"pm10":101.0,"pm2_5":34.6,"mosquito_risk":0,"arthritis_risk":5,"migraine_risk":7,"frizz_risk":0,"updated_at":"2026-04-12T10:57:11.028905+05:30"},{"city":"Imphal","state":"Manipur","latitude":24.817,"longitude":93.9368,"temp":21.7,"humidity":60,"rain":0.0,"pressure":923.9,"uv_index":8.95,"wind_gusts":70.2,"aqi":95,"pm10":43.1,"pm2_5":30.3,"mosquito_risk":0,"arthritis_risk":5,"migraine_risk":7,"frizz_risk":0,"updated_at":"2026-04-12T10:57:11.028912+05:30"},{"city":"Aizawl","state":"Mizoram","latitude":23.7271,"longitude":92.7176,"temp":26.2,"humidity":42,"rain":0.0,"pressure":894.6,"uv_index":8.85,"wind_gusts":52.6,"aqi":92,"pm10":78.9,"pm2_5":25.9,"mosquito_risk":4,"arthritis_risk":5,"migraine_risk":7,"frizz_risk":0,"updated_at":"2026-04-12T10:57:11.028919+05:30"},{"city":"Kohima","state":"Nagaland","latitude":25.6701,"longitude":94.1077,"temp":19.9,"humidity":48,"rain":0.0,"pressure":855.8,"uv_index":8.9,"wind_gusts":93.6,"aqi":89,"pm10":66.4,"pm2_5":26.0,"mosquito_risk":0,"arthritis_risk":5,"migraine_risk":7,"frizz_risk":0,"updated_at":"2026-04-12T10:57:11.028925+05:30"},{"city":"Gangtok","state":"Sikkim","latitude":27.3314,"longitude":88.6138,"temp":15.2,"humidity":84,"rain":0.1,"pressure":837.0,"uv_index":7.8,"wind_gusts":13.7,"aqi":105,"pm10":51.5,"pm2_5":18.3,"mosquito_risk":6,"arthritis_risk":10,"migraine_risk":7,"frizz_risk":0,"updated_at":"2026-04-12T10:57:11.028932+05:30"},{"city":"Siliguri","state":"West Bengal","latitude":26.7271,"longitude":88.3953,"temp":24.5,"humidity":59,"rain":0.0,"pressure":994.0,"uv_index":7.4,"wind_gusts":26.6,"aqi":127,"pm10":78.7,"pm2_5":30.2,"mosquito_risk":0,"arthritis_risk":5,"migraine_risk":7,"frizz_risk":0,"updated_at":"2026-04-12T10:57:14.375865+05:30"},{"city":"Durgapur","state":"West Bengal","latitude":23.5204,"longitude":87.3119,"temp":33.3,"humidity":38,"rain":0.0,"pressure":995.9,"uv_index":8.8,"wind_gusts":23.4,"aqi":150,"pm10":237.5,"pm2_5":50.6,"mosquito_risk":0,"arthritis_risk":5,"migraine_risk":7,"frizz_risk":1,"updated_at":"2026-04-12T10:57:14.375937+05:30"},{"city":"Asansol","state":"West Bengal","latitude":23.6739,"longitude":86.9524,"temp":33.5,"humidity":36,"rain":0.0,"pressure":994.2,"uv_index":8.85,"wind_gusts":27.4,"aqi":132,"pm10":256.1,"pm2_5":51.5,"mosquito_risk":0,"arthritis_risk":5,"migraine_risk":7,"frizz_risk":1,"updated_at":"2026-04-12T10:57:14.375949+05:30"},{"city":"Pondicherry","state":"Puducherry","latitude":11.9139,"longitude":79.8145,"temp":33.1,"humidity":58,"rain":0.0,"pressure":1009.6,"uv_index":9.35,"wind_gusts":29.2,"aqi":55,"pm10":17.8,"pm2_5":10.1,"mosquito_risk":0,"arthritis_risk":0,"migraine_risk":4,"frizz_risk":1,"updated_at":"2026-04-12T10:57:14.375957+05:30"},{"city":"Port Blair","state":"Andaman and Nicobar Islands","latitude":11.6234,"longitude":92.7265,"temp":29.3,"humidity":79,"rain":0.0,"pressure":1007.3,"uv_index":9.25,"wind_gusts":14.4,"aqi":43,"pm10":33.5,"pm2_5":16.9,"mosquito_risk":7,"arthritis_risk":5,"migraine_risk":4,"frizz_risk":1,"updated_at":"2026-04-12T10:57:14.375969+05:30"},{"city":"Haridwar","state":"Uttarakhand","latitude":29.9457,"longitude":78.1642,"temp":28.7,"humidity":42,"rain":0.0,"pressure":976.0,"uv_index":7.0,"wind_gusts":34.2,"aqi":75,"pm10":86.1,"pm2_5":22.5,"mosquito_risk":4,"arthritis_risk":5,"migraine_risk":7,"frizz_risk":0,"updated_at":"2026-04-12T10:57:14.375977+05:30"},{"city":"Rishikesh","state":"Uttarakhand","latitude":30.0869,"longitude":78.2676,"temp":28.3,"humidity":37,"rain":0.0,"pressure":968.5,"uv_index":7.1,"wind_gusts":35.3,"aqi":61,"pm10":84.8,"pm2_5":17.8,"mosquito_risk":4,"arthritis_risk":5,"migraine_risk":7,"frizz_risk":0,"updated_at":"2026-04-12T10:57:14.375984+05:30"},{"city":"Nainital","state":"Uttarakhand","latitude":29.3919,"longitude":79.4542,"temp":22.5,"humidity":34,"rain":0.0,"pressure":808.2,"uv_index":7.95,"wind_gusts":52.2,"aqi":58,"pm10":84.8,"pm2_5":18.9,"mosquito_risk":0,"arthritis_risk":5,"migraine_risk":7,"frizz_risk":0,"updated_at":"2026-04-12T10:57:14.375991+05:30"},{"city":"Mussoorie","state":"Uttarakhand","latitude":30.4599,"longitude":78.0664,"temp":19.7,"humidity":44,"rain":0.0,"pressure":804.4,"uv_index":7.35,"wind_gusts":41.0,"aqi":61,"pm10":83.4,"pm2_5":18.4,"mosquito_risk":0,"arthritis_risk":5,"migraine_risk":7,"frizz_risk":0,"updated_at":"2026-04-12T10:57:14.375998+05:30"},{"city":"Dharamshala","state":"Himachal Pradesh","latitude":32.219,"longitude":76.3234,"temp":21.1,"humidity":54,"rain":0.0,"pressure":870.8,"uv_index":7.7,"wind_gusts":23.8,"aqi":60,"pm10":17.5,"pm2_5":4.4,"mosquito_risk":0,"arthritis_risk":5,"migraine_risk":7,"frizz_risk":0,"updated_at":"2026-04-12T10:57:14.376004+05:30"},{"city":"Dalhousie","state":"Himachal Pradesh","latitude":32.5387,"longitude":75.971,"temp":19.2,"humidity":45,"rain":0.0,"pressure":805.6,"uv_index":7.95,"wind_gusts":21.2,"aqi":64,"pm10":45.2,"pm2_5":13.7,"mosquito_risk":0,"arthritis_risk":5,"migraine_risk":7,"frizz_risk":0,"updated_at":"2026-04-12T10:57:14.376012+05:30"},{"city":"Patiala","state":"Punjab","latitude":30.3398,"longitude":76.3869,"temp":27.7,"humidity":45,"rain":0.0,"pressure":980.8,"uv_index":6.85,"wind_gusts":32.0,"aqi":174,"pm10":413.5,"pm2_5":52.6,"mosquito_risk":4,"arthritis_risk":5,"migraine_risk":7,"frizz_risk":0,"updated_at":"2026-04-12T10:57:14.376019+05:30"},{"city":"Bhatinda","state":"Punjab","latitude":30.211,"longitude":74.9455,"temp":28.9,"humidity":39,"rain":0.0,"pressure":986.7,"uv_index":7.75,"wind_gusts":32.4,"aqi":85,"pm10":83.1,"pm2_5":23.5,"mosquito_risk":4,"arthritis_risk":5,"migraine_risk":7,"frizz_risk":0,"updated_at":"2026-04-12T10:57:14.376026+05:30"},{"city":"Rohtak","state":"Haryana","latitude":28.8955,"longitude":76.6066,"temp":30.0,"humidity":37,"rain":0.0,"pressure":984.3,"uv_index":7.25,"wind_gusts":36.0,"aqi":536,"pm10":352.0,"pm2_5":50.6,"mosquito_risk":4,"arthritis_risk":5,"migraine_risk":7,"frizz_risk":0,"updated_at":"2026-04-12T10:57:14.376032+05:30"},{"city":"Panipat","state":"Haryana","latitude":29.3909,"longitude":76.9635,"temp":29.2,"humidity":42,"rain":0.0,"pressure":982.8,"uv_index":7.05,"wind_gusts":33.8,"aqi":937,"pm10":661.2,"pm2_5":72.2,"mosquito_risk":4,"arthritis_risk":5,"migraine_risk":7,"frizz_risk":0,"updated_at":"2026-04-12T10:57:14.376038+05:30"},{"city":"Mathura","state":"Uttar Pradesh","latitude":27.4924,"longitude":77.6737,"temp":30.9,"humidity":42,"rain":0.0,"pressure":989.2,"uv_index":7.55,"wind_gusts":29.5,"aqi":445,"pm10":676.1,"pm2_5":96.2,"mosquito_risk":0,"arthritis_risk":5,"migraine_risk":7,"frizz_risk":1,"updated_at":"2026-04-12T10:57:14.376044+05:30"},{"city":"Vrindavan","state":"Uttar Pradesh","latitude":27.5823,"longitude":77.7027,"temp":30.7,"humidity":41,"rain":0.0,"pressure":989.5,"uv_index":7.5,"wind_gusts":33.1,"aqi":445,"pm10":676.1,"pm2_5":96.2,"mosquito_risk":0,"arthritis_risk":5,"migraine_risk":7,"frizz_risk":0,"updated_at":"2026-04-12T10:57:14.376051+05:30"},{"city":"Ayodhya","state":"Uttar Pradesh","latitude":26.7922,"longitude":82.1998,"temp":34.0,"humidity":25,"rain":0.0,"pressure":995.9,"uv_index":7.9,"wind_gusts":38.2,"aqi":118,"pm10":152.3,"pm2_5":36.6,"mosquito_risk":0,"arthritis_risk":5,"migraine_risk":7,"frizz_risk":0,"updated_at":"2026-04-12T10:57:14.376057+05:30"},{"city":"Ratlam","state":"Madhya Pradesh","latitude":23.3315,"longitude":75.0367,"temp":32.6,"humidity":36,"rain":0.0,"pressure":956.4,"uv_index":8.35,"wind_gusts":25.2,"aqi":55,"pm10":35.0,"pm2_5":13.7,"mosquito_risk":0,"arthritis_risk":5,"migraine_risk":7,"frizz_risk":0,"updated_at":"2026-04-12T10:57:14.376063+05:30"},{"city":"Sagar","state":"Madhya Pradesh","latitude":23.8388,"longitude":78.7378,"temp":35.7,"humidity":20,"rain":0.0,"pressure":951.7,"uv_index":8.5,"wind_gusts":32.8,"aqi":53,"pm10":15.8,"pm2_5":7.3,"mosquito_risk":0,"arthritis_risk":5,"migraine_risk":10,"frizz_risk":0,"updated_at":"2026-04-12T10:57:14.376070+05:30"},{"city":"Satna","state":"Madhya Pradesh","latitude":24.6005,"longitude":80.8322,"temp":36.6,"humidity":21,"rain":0.0,"pressure":971.8,"uv_index":8.5,"wind_gusts":40.0,"aqi":92,"pm10":110.6,"pm2_5":27.4,"mosquito_risk":0,"arthritis_risk":5,"migraine_risk":10,"frizz_risk":0,"updated_at":"2026-04-12T10:57:14.376077+05:30"},{"city":"Akola","state":"Maharashtra","latitude":20.7002,"longitude":77.0082,"temp":35.8,"humidity":23,"rain":0.0,"pressure":976.4,"uv_index":8.75,"wind_gusts":24.1,"aqi":73,"pm10":28.5,"pm2_5":19.8,"mosquito_risk":0,"arthritis_risk":5,"migraine_risk":10,"frizz_risk":0,"updated_at":"2026-04-12T10:57:14.376083+05:30"},{"city":"Amravati","state":"Maharashtra","latitude":20.9374,"longitude":77.7796,"temp":35.5,"humidity":24,"rain":0.0,"pressure":968.9,"uv_index":8.75,"wind_gusts":20.5,"aqi":74,"pm10":23.0,"pm2_5":14.8,"mosquito_risk":0,"arthritis_risk":5,"migraine_risk":10,"frizz_risk":0,"updated_at":"2026-04-12T10:57:14.376090+05:30"},{"city":"Latur","state":"Maharashtra","latitude":18.4088,"longitude":76.5604,"temp":34.2,"humidity":26,"rain":0.0,"pressure":941.8,"uv_index":9.05,"wind_gusts":24.5,"aqi":82,"pm10":42.1,"pm2_5":30.0,"mosquito_risk":0,"arthritis_risk":5,"migraine_risk":7,"frizz_risk":0,"updated_at":"2026-04-12T10:57:14.376096+05:30"},{"city":"Nanded","state":"Maharashtra","latitude":19.1383,"longitude":77.3091,"temp":35.1,"humidity":28,"rain":0.0,"pressure":970.2,"uv_index":8.95,"wind_gusts":14.8,"aqi":96,"pm10":38.5,"pm2_5":27.3,"mosquito_risk":0,"arthritis_risk":5,"migraine_risk":10,"frizz_risk":0,"updated_at":"2026-04-12T10:57:14.376102+05:30"},{"city":"Gulbarga","state":"Karnataka","latitude":17.3297,"longitude":76.8343,"temp":36.6,"humidity":35,"rain":0.0,"pressure":959.8,"uv_index":9.1,"wind_gusts":28.4,"aqi":90,"pm10":31.7,"pm2_5":24.2,"mosquito_risk":0,"arthritis_risk":5,"migraine_risk":10,"frizz_risk":1,"updated_at":"2026-04-12T10:57:14.376108+05:30"},{"city":"Bidar","state":"Karnataka","latitude":17.9104,"longitude":77.5199,"temp":35.1,"humidity":37,"rain":0.0,"pressure":937.3,"uv_index":9.1,"wind_gusts":26.6,"aqi":88,"pm10":37.0,"pm2_5":26.9,"mosquito_risk":0,"arthritis_risk":5,"migraine_risk":10,"frizz_risk":1,"updated_at":"2026-04-12T10:57:14.376114+05:30"},{"city":"Hospet","state":"Karnataka","latitude":15.2689,"longitude":76.3909,"temp":31.3,"humidity":59,"rain":0.0,"pressure":956.9,"uv_index":9.3,"wind_gusts":24.8,"aqi":97,"pm10":44.2,"pm2_5":34.6,"mosquito_risk":0,"arthritis_risk":5,"migraine_risk":7,"frizz_risk":1,"updated_at":"2026-04-12T10:57:14.376120+05:30"},{"city":"Tirupur","state":"Tamil Nadu","latitude":11.1085,"longitude":77.3411,"temp":33.5,"humidity":51,"rain":0.0,"pressure":976.6,"uv_index":9.5,"wind_gusts":31.0,"aqi":90,"pm10":36.0,"pm2_5":27.4,"mosquito_risk":0,"arthritis_risk":5,"migraine_risk":7,"frizz_risk":1,"updated_at":"2026-04-12T10:57:14.376126+05:30"},{"city":"Alappuzha","state":"Kerala","latitude":9.4981,"longitude":76.3388,"temp":29.3,"humidity":81,"rain":0.0,"pressure":1009.1,"uv_index":9.2,"wind_gusts":26.6,"aqi":93,"pm10":64.0,"pm2_5":35.4,"mosquito_risk":7,"arthritis_risk":0,"migraine_risk":4,"frizz_risk":1,"updated_at":"2026-04-12T10:57:14.376132+05:30"},{"city":"Munnar","state":"Kerala","latitude":10.0889,"longitude":77.0595,"temp":29.1,"humidity":51,"rain":0.0,"pressure":859.8,"uv_index":9.7,"wind_gusts":27.7,"aqi":94,"pm10":32.1,"pm2_5":20.7,"mosquito_risk":4,"arthritis_risk":5,"migraine_risk":7,"frizz_risk":1,"updated_at":"2026-04-12T10:57:14.376139+05:30"},{"city":"Silchar","state":"Assam","latitude":24.8333,"longitude":92.7789,"temp":24.5,"humidity":79,"rain":0.0,"pressure":1006.5,"uv_index":8.65,"wind_gusts":49.7,"aqi":128,"pm10":68.0,"pm2_5":42.7,"mosquito_risk":3,"arthritis_risk":5,"migraine_risk":4,"frizz_risk":1,"updated_at":"2026-04-12T10:57:14.376145+05:30"},{"city":"Dibrugarh","state":"Assam","latitude":27.4728,"longitude":94.912,"temp":22.3,"humidity":81,"rain":0.0,"pressure":996.9,"uv_index":8.1,"wind_gusts":33.5,"aqi":94,"pm10":56.2,"pm2_5":39.5,"mosquito_risk":3,"arthritis_risk":5,"migraine_risk":7,"frizz_risk":1,"updated_at":"2026-04-12T10:57:14.376151+05:30"}]