[{"city":"Delhi","state":"Delhi","latitude":28.6139,"longitude":77.209,"temp":26.2,"humidity":49,"rain":0.0,"pressure":983.5,"uv_index":6.15,"wind_gusts":38.2,"aqi":158,"pm10":324.1,"pm2_5":50.2,"mosquito_risk":4,"arthritis_risk":5,"migraine_risk":7,"frizz_risk":0,"updated_at":"2026-03-15T16:59:47.988814+05:30"},{"city":"Mumbai","state":"Maharashtra","latitude":19.076,"longitude":72.8777,"temp":27.8,"humidity":78,"rain":0.0,"pressure":1009.1,"uv_index":7.7,"wind_gusts":19.8,"aqi":130,"pm10":79.9,"pm2_5":36.1,"mosquito_risk":7,"arthritis_risk":0,"migraine_risk":4,"frizz_risk":1,"updated_at":"2026-03-15T16:59:47.988863+05:30"},{"city":"Bangalore","state":"Karnataka","latitude":12.9716,"longitude":77.5946,"temp":31.6,"humidity":27,"rain":0.0,"pressure":912.1,"uv_index":9.3,"wind_gusts":19.1,"aqi":127,"pm10":27.4,"pm2_5":23.1,"mosquito_risk":0,"arthritis_risk":5,"migraine_risk":7,"frizz_risk":0,"updated_at":"2026-03-15T16:59:47.988878+05:30"},{"city":"Hyderabad","state":"Telangana","latitude":17.385,"longitude":78.4867,"temp":33.6,"humidity":28,"rain":0.0,"pressure":953.1,"uv_index":8.75,"wind_gusts":29.2,"aqi":113,"pm10":45.5,"pm2_5":32.1,"mosquito_risk":0,"arthritis_risk":5,"migraine_risk":7,"frizz_risk":0,"updated_at":"2026-03-15T16:59:47.988888+05:30"},{"city":"Chennai","state":"Tamil Nadu","latitude":13.0827,"longitude":80.2707,"temp":30.5,"humidity":62,"rain":0.0,"pressure":1008.3,"uv_index":9.05,"wind_gusts":32.0,"aqi":48,"pm10":10.1,"pm2_5":7.3,"mosquito_risk":3,"arthritis_risk":0,"migraine_risk":4,"frizz_risk":1,"updated_at":"2026-03-15T16:59:47.988896+05:30"},{"city":"Kolkata","state":"West Bengal","latitude":22.5726,"longitude":88.3639,"temp":28.0,"humidity":70,"rain":0.0,"pressure":1007.9,"uv_index":7.85,"wind_gusts":36.4,"aqi":60,"pm10":25.4,"pm2_5":18.5,"mosquito_risk":7,"arthritis_risk":5,"migraine_risk":4,"frizz_risk":1,"updated_at":"2026-03-15T16:59:47.988905+05:30"},{"city":"Pune","state":"Maharashtra","latitude":18.5204,"longitude":73.8567,"temp":33.4,"humidity":23,"rain":0.0,"pressure":949.1,"uv_index":8.25,"wind_gusts":41.8,"aqi":92,"pm10":35.7,"pm2_5":27.5,"mosquito_risk":0,"arthritis_risk":5,"migraine_risk":7,"frizz_risk":0,"updated_at":"2026-03-15T16:59:47.988914+05:30"},{"city":"Ahmedabad","state":"Gujarat","latitude":23.0225,"longitude":72.5714,"temp":36.9,"humidity":13,"rain":0.0,"pressure":1001.2,"uv_index":7.5,"wind_gusts":27.7,"aqi":69,"pm10":61.0,"pm2_5":16.4,"mosquito_risk":0,"arthritis_risk":5,"migraine_risk":7,"frizz_risk":0,"updated_at":"2026-03-15T16:59:47.988921+05:30"},{"city":"Jaipur","state":"Rajasthan","latitude":26.9124,"longitude":75.7873,"temp":33.0,"humidity":14,"rain":0.0,"pressure":958.7,"uv_index":6.95,"wind_gusts":46.4,"aqi":117,"pm10":283.1,"pm2_5":38.4,"mosquito_risk":0,"arthritis_risk":5,"migraine_risk":7,"frizz_risk":0,"updated_at":"2026-03-15T16:59:47.988927+05:30"},{"city":"Lucknow","state":"Uttar Pradesh","latitude":26.8467,"longitude":80.9462,"temp":24.9,"humidity":51,"rain":0.0,"pressure":996.3,"uv_index":6.35,"wind_gusts":49.0,"aqi":139,"pm10":44.5,"pm2_5":20.1,"mosquito_risk":0,"arthritis_risk":5,"migraine_risk":7,"frizz_risk":0,"updated_at":"2026-03-15T16:59:47.988933+05:30"},{"city":"Kanpur","state":"Uttar Pradesh","latitude":26.4499,"longitude":80.3319,"temp":27.2,"humidity":40,"rain":0.0,"pressure":993.1,"uv_index":6.6,"wind_gusts":41.8,"aqi":150,"pm10":160.2,"pm2_5":31.5,"mosquito_risk":4,"arthritis_risk":5,"migraine_risk":7,"frizz_risk":0,"updated_at":"2026-03-15T16:59:47.988940+05:30"},{"city":"Chandigarh","state":"Chandigarh","latitude":30.7333,"longitude":76.7794,"temp":21.5,"humidity":74,"rain":0.0,"pressure":969.0,"uv_index":6.0,"wind_gusts":38.2,"aqi":80,"pm10":64.0,"pm2_5":23.8,"mosquito_risk":3,"arthritis_risk":5,"migraine_risk":3,"frizz_risk":1,"updated_at":"2026-03-15T16:59:47.988945+05:30"},{"city":"Srinagar","state":"Jammu and Kashmir","latitude":34.0837,"longitude":74.7973,"temp":8.1,"humidity":85,"rain":0.0,"pressure":836.9,"uv_index":5.65,"wind_gusts":27.7,"aqi":98,"pm10":14.8,"pm2_5":9.5,"mosquito_risk":3,"arthritis_risk":10,"migraine_risk":3,"frizz_risk":0,"updated_at":"2026-03-15T16:59:47.988952+05:30"},{"city":"Jammu","state":"Jammu and Kashmir","latitude":32.7266,"longitude":74.857,"temp":20.8,"humidity":73,"rain":0.0,"pressure":972.0,"uv_index":4.6,"wind_gusts":49.0,"aqi":92,"pm10":33.1,"pm2_5":21.7,"mosquito_risk":3,"arthritis_risk":5,"migraine_risk":3,"frizz_risk":0,"updated_at":"2026-03-15T16:59:47.988957+05:30"},{"city":"Amritsar","state":"Punjab","latitude":31.634,"longitude":74.8723,"temp":18.0,"humidity":86,"rain":0.0,"pressure":981.5,"uv_index":4.95,"wind_gusts":34.2,"aqi":116,"pm10":48.5,"pm2_5":24.3,"mosquito_risk":3,"arthritis_risk":10,"migraine_risk":3,"frizz_risk":0,"updated_at":"2026-03-15T16:59:47.988963+05:30"},{"city":"Ludhiana","state":"Punjab","latitude":30.901,"longitude":75.8573,"temp":22.4,"humidity":60,"rain":0.0,"pressure":978.8,"uv_index":5.45,"wind_gusts":33.1,"aqi":124,"pm10":61.7,"pm2_5":24.1,"mosquito_risk":0,"arthritis_risk":5,"migraine_risk":3,"frizz_risk":0,"updated_at":"2026-03-15T16:59:47.988969+05:30"},{"city":"Jalandhar","state":"Punjab","latitude":31.326,"longitude":75.5762,"temp":19.5,"humidity":78,"rain":0.0,"pressure":980.5,"uv_index":5.45,"wind_gusts":31.0,"aqi":117,"pm10":51.9,"pm2_5":22.0,"mosquito_risk":3,"arthritis_risk":5,"migraine_risk":3,"frizz_risk":0,"updated_at":"2026-03-15T16:59:47.988976+05:30"},{"city":"Dehradun","state":"Uttarakhand","latitude":30.6284,"longitude":78.0322,"temp":12.1,"humidity":79,"rain":0.0,"pressure":828.5,"uv_index":5.75,"wind_gusts":34.2,"aqi":56,"pm10":36.6,"pm2_5":15.6,"mosquito_risk":3,"arthritis_risk":5,"migraine_risk":3,"frizz_risk":0,"updated_at":"2026-03-15T16:59:47.988981+05:30"},{"city":"Shimla","state":"Himachal Pradesh","latitude":31.1048,"longitude":77.1734,"temp":10.4,"humidity":71,"rain":0.2,"pressure":781.3,"uv_index":6.15,"wind_gusts":56.2,"aqi":63,"pm10":44.4,"pm2_5":17.8,"mosquito_risk":6,"arthritis_risk":5,"migraine_risk":7,"frizz_risk":0,"updated_at":"2026-03-15T16:59:47.988987+05:30"},{"city":"Manali","state":"Himachal Pradesh","latitude":32.2396,"longitude":77.1887,"temp":10.0,"humidity":98,"rain":0.6,"pressure":814.0,"uv_index":7.45,"wind_gusts":37.8,"aqi":48,"pm10":11.9,"pm2_5":5.3,"mosquito_risk":6,"arthritis_risk":10,"migraine_risk":7,"frizz_risk":0,"updated_at":"2026-03-15T16:59:47.988993+05:30"},{"city":"Gurgaon","state":"Haryana","latitude":28.4595,"longitude":77.0266,"temp":26.3,"humidity":49,"rain":0.0,"pressure":981.9,"uv_index":6.25,"wind_gusts":45.4,"aqi":531,"pm10":2354.4,"pm2_5":226.8,"mosquito_risk":4,"arthritis_risk":5,"migraine_risk":7,"frizz_risk":0,"updated_at":"2026-03-15T16:59:47.988999+05:30"},{"city":"Noida","state":"Uttar Pradesh","latitude":28.5355,"longitude":77.391,"temp":26.8,"humidity":47,"rain":0.0,"pressure":985.1,"uv_index":6.15,"wind_gusts":36.7,"aqi":531,"pm10":2354.4,"pm2_5":226.8,"mosquito_risk":4,"arthritis_risk":5,"migraine_risk":7,"frizz_risk":0,"updated_at":"2026-03-15T16:59:47.989004+05:30"},{"city":"Ghaziabad","state":"Uttar Pradesh","latitude":28.6692,"longitude":77.4538,"temp":25.8,"humidity":52,"rain":0.0,"pressure":983.3,"uv_index":6.15,"wind_gusts":34.9,"aqi":157,"pm10":220.7,"pm2_5":37.8,"mosquito_risk":4,"arthritis_risk":5,"migraine_risk":7,"frizz_risk":0,"updated_at":"2026-03-15T16:59:47.989010+05:30"},{"city":"Faridabad","state":"Haryana","latitude":28.4089,"longitude":77.3178,"temp":27.0,"humidity":47,"rain":0.0,"pressure":983.9,"uv_index":6.2,"wind_gusts":39.6,"aqi":531,"pm10":2354.4,"pm2_5":226.8,"mosquito_risk":4,"arthritis_risk":5,"migraine_risk":7,"frizz_risk":0,"updated_at":"2026-03-15T16:59:47.989015+05:30"},{"city":"Meerut","state":"Uttar Pradesh","latitude":28.9845,"longitude":77.7064,"temp":22.6,"humidity":66,"rain":0.0,"pressure":982.9,"uv_index":6.0,"wind_gusts":27.7,"aqi":157,"pm10":220.7,"pm2_5":37.8,"mosquito_risk":3,"arthritis_risk":5,"migraine_risk":3,"frizz_risk":0,"updated_at":"2026-03-15T16:59:47.989020+05:30"},{"city":"Agra","state":"Uttar Pradesh","latitude":27.1767,"longitude":78.0081,"temp":29.8,"humidity":40,"rain":0.0,"pressure":987.0,"uv_index":6.6,"wind_gusts":36.7,"aqi":528,"pm10":536.4,"pm2_5":64.5,"mosquito_risk":4,"arthritis_risk":5,"migraine_risk":7,"frizz_risk":0,"updated_at":"2026-03-15T16:59:47.989025+05:30"},{"city":"Varanasi","state":"Uttar Pradesh","latitude":25.3176,"longitude":82.9739,"temp":33.0,"humidity":32,"rain":0.0,"pressure":997.1,"uv_index":7.35,"wind_gusts":32.4,"aqi":148,"pm10":67.5,"pm2_5":37.0,"mosquito_risk":0,"arthritis_risk":5,"migraine_risk":7,"frizz_risk":0,"updated_at":"2026-03-15T16:59:47.989032+05:30"},{"city":"Prayagraj","state":"Uttar Pradesh","latitude":25.4358,"longitude":81.8463,"temp":31.7,"humidity":41,"rain":0.0,"pressure":994.9,"uv_index":7.25,"wind_gusts":42.8,"aqi":125,"pm10":58.0,"pm2_5":32.5,"mosquito_risk":0,"arthritis_risk":5,"migraine_risk":7,"frizz_risk":1,"updated_at":"2026-03-15T16:59:47.989040+05:30"},{"city":"Gorakhpur","state":"Uttar Pradesh","latitude":26.7606,"longitude":83.3732,"temp":27.2,"humidity":37,"rain":0.0,"pressure":998.6,"uv_index":7.1,"wind_gusts":40.3,"aqi":154,"pm10":44.5,"pm2_5":24.9,"mosquito_risk":4,"arthritis_risk":5,"migraine_risk":7,"frizz_risk":0,"updated_at":"2026-03-15T16:59:47.989045+05:30"},{"city":"Bareilly","state":"Uttar Pradesh","latitude":28.367,"longitude":79.4304,"temp":24.0,"humidity":65,"rain":0.0,"pressure":988.0,"uv_index":6.35,"wind_gusts":34.6,"aqi":147,"pm10":68.7,"pm2_5":33.3,"mosquito_risk":3,"arthritis_risk":5,"migraine_risk":7,"frizz_risk":1,"updated_at":"2026-03-15T16:59:47.989050+05:30"},{"city":"Aligarh","state":"Uttar Pradesh","latitude":27.8974,"longitude":78.088,"temp":26.9,"humidity":53,"rain":0.0,"pressure":985.6,"uv_index":6.3,"wind_gusts":40.7,"aqi":183,"pm10":225.4,"pm2_5":44.1,"mosquito_risk":4,"arthritis_risk":5,"migraine_risk":7,"frizz_risk":1,"updated_at":"2026-03-15T16:59:47.989056+05:30"},{"city":"Moradabad","state":"Uttar Pradesh","latitude":28.8386,"longitude":78.7733,"temp":26.1,"humidity":48,"rain":0.0,"pressure":984.0,"uv_index":6.2,"wind_gusts":29.5,"aqi":155,"pm10":65.4,"pm2_5":28.2,"mosquito_risk":4,"arthritis_risk":5,"migraine_risk":7,"frizz_risk":0,"updated_at":"2026-03-15T16:59:47.989073+05:30"},{"city":"Saharanpur","state":"Uttar Pradesh","latitude":29.9637,"longitude":77.546,"temp":20.4,"humidity":86,"rain":0.2,"pressure":976.9,"uv_index":5.8,"wind_gusts":33.5,"aqi":152,"pm10":66.6,"pm2_5":24.0,"mosquito_risk":6,"arthritis_risk":5,"migraine_risk":3,"frizz_risk":1,"updated_at":"2026-03-15T16:59:47.989079+05:30"},{"city":"Jhansi","state":"Uttar Pradesh","latitude":25.4484,"longitude":78.5685,"temp":32.6,"humidity":29,"rain":0.0,"pressure":976.8,"uv_index":7.2,"wind_gusts":31.7,"aqi":87,"pm10":94.5,"pm2_5":25.4,"mosquito_risk":0,"arthritis_risk":5,"migraine_risk":7,"frizz_risk":0,"updated_at":"2026-03-15T16:59:51.280939+05:30"},{"city":"Surat","state":"Gujarat","latitude":21.1702,"longitude":72.8311,"temp":30.0,"humidity":53,"rain":0.0,"pressure":1007.2,"uv_index":7.4,"wind_gusts":25.2,"aqi":135,"pm10":88.9,"pm2_5":49.7,"mosquito_risk":4,"arthritis_risk":5,"migraine_risk":4,"frizz_risk":1,"updated_at":"2026-03-15T16:59:51.280968+05:30"},{"city":"Vadodara","state":"Gujarat","latitude":22.3072,"longitude":73.1812,"temp":36.2,"humidity":21,"rain":0.0,"pressure":1003.8,"uv_index":7.5,"wind_gusts":25.9,"aqi":88,"pm10":61.2,"pm2_5":21.4,"mosquito_risk":0,"arthritis_risk":5,"migraine_risk":7,"frizz_risk":0,"updated_at":"2026-03-15T16:59:51.280978+05:30"},{"city":"Rajkot","state":"Gujarat","latitude":22.3039,"longitude":70.8022,"temp":36.4,"humidity":15,"rain":0.0,"pressure":993.9,"uv_index":7.35,"wind_gusts":31.0,"aqi":69,"pm10":74.7,"pm2_5":18.1,"mosquito_risk":0,"arthritis_risk":5,"migraine_risk":10,"frizz_risk":0,"updated_at":"2026-03-15T16:59:51.280986+05:30"},{"city":"Thane","state":"Maharashtra","latitude":19.2183,"longitude":72.9781,"temp":30.1,"humidity":58,"rain":0.0,"pressure":1008.6,"uv_index":7.7,"wind_gusts":33.8,"aqi":130,"pm10":79.9,"pm2_5":36.1,"mosquito_risk":0,"arthritis_risk":0,"migraine_risk":4,"frizz_risk":1,"updated_at":"2026-03-15T16:59:51.280994+05:30"},{"city":"Nagpur","state":"Maharashtra","latitude":21.1458,"longitude":79.0882,"temp":35.9,"humidity":19,"rain":0.0,"pressure":972.1,"uv_index":8.15,"wind_gusts":22.3,"aqi":139,"pm10":27.4,"pm2_5":23.6,"mosquito_risk":0,"arthritis_risk":5,"migraine_risk":10,"frizz_risk":0,"updated_at":"2026-03-15T16:59:51.281002+05:30"},{"city":"Nashik","state":"Maharashtra","latitude":19.9975,"longitude":73.7898,"temp":31.2,"humidity":28,"rain":0.0,"pressure":946.3,"uv_index":7.9,"wind_gusts":40.7,"aqi":71,"pm10":33.6,"pm2_5":16.2,"mosquito_risk":0,"arthritis_risk":5,"migraine_risk":7,"frizz_risk":0,"updated_at":"2026-03-15T16:59:51.281009+05:30"},{"city":"Aurangabad","state":"Maharashtra","latitude":19.8762,"longitude":75.3433,"temp":34.2,"humidity":19,"rain":0.0,"pressure":943.9,"uv_index":8.4,"wind_gusts":31.0,"aqi":90,"pm10":34.2,"pm2_5":26.4,"mosquito_risk":0,"arthritis_risk":5,"migraine_risk":7,"frizz_risk":0,"updated_at":"2026-03-15T16:59:51.281016+05:30"},{"city":"Solapur","state":"Maharashtra","latitude":17.6599,"longitude":75.9064,"temp":34.7,"humidity":22,"rain":0.0,"pressure":956.6,"uv_index":8.65,"wind_gusts":24.1,"aqi":127,"pm10":41.4,"pm2_5":34.2,"mosquito_risk":0,"arthritis_risk":5,"migraine_risk":7,"frizz_risk":0,"updated_at":"2026-03-15T16:59:51.281023+05:30"},{"city":"Kolhapur","state":"Maharashtra","latitude":16.705,"longitude":74.2433,"temp":31.6,"humidity":30,"rain":0.0,"pressure":948.2,"uv_index":8.05,"wind_gusts":38.9,"aqi":140,"pm10":43.9,"pm2_5":37.3,"mosquito_risk":0,"arthritis_risk":5,"migraine_risk":7,"frizz_risk":0,"updated_at":"2026-03-15T16:59:51.281030+05:30"},{"city":"Goa","state":"Goa","latitude":15.2993,"longitude":74.124,"temp":30.6,"humidity":64,"rain":0.0,"pressure":998.4,"uv_index":8.75,"wind_gusts":32.0,"aqi":122,"pm10":41.7,"pm2_5":35.5,"mosquito_risk":3,"arthritis_risk":5,"migraine_risk":7,"frizz_risk":1,"updated_at":"2026-03-15T16:59:51.281037+05:30"},{"city":"Jodhpur","state":"Rajasthan","latitude":26.2389,"longitude":73.0243,"temp":35.8,"humidity":16,"rain":0.0,"pressure":981.2,"uv_index":7.25,"wind_gusts":27.4,"aqi":117,"pm10":103.1,"pm2_5":20.5,"mosquito_risk":0,"arthritis_risk":5,"migraine_risk":10,"frizz_risk":0,"updated_at":"2026-03-15T16:59:51.281044+05:30"},{"city":"Udaipur","state":"Rajasthan","latitude":24.5854,"longitude":73.7125,"temp":32.6,"humidity":14,"rain":0.0,"pressure":946.4,"uv_index":7.85,"wind_gusts":38.2,"aqi":63,"pm10":51.0,"pm2_5":14.5,"mosquito_risk":0,"arthritis_risk":5,"migraine_risk":7,"frizz_risk":0,"updated_at":"2026-03-15T16:59:51.281051+05:30"},{"city":"Kota","state":"Rajasthan","latitude":25.2138,"longitude":75.8648,"temp":35.8,"humidity":14,"rain":0.0,"pressure":977.3,"uv_index":7.3,"wind_gusts":35.3,"aqi":64,"pm10":35.7,"pm2_5":12.9,"mosquito_risk":0,"arthritis_risk":5,"migraine_risk":10,"frizz_risk":0,"updated_at":"2026-03-15T16:59:51.281058+05:30"},{"city":"Bikaner","state":"Rajasthan","latitude":28.0229,"longitude":73.3119,"temp":33.7,"humidity":14,"rain":0.0,"pressure":980.1,"uv_index":6.9,"wind_gusts":41.4,"aqi":64,"pm10":32.4,"pm2_5":9.5,"mosquito_risk":0,"arthritis_risk":5,"migraine_risk":7,"frizz_risk":0,"updated_at":"2026-03-15T16:59:51.281102+05:30"},{"city":"Ajmer","state":"Rajasthan","latitude":26.4499,"longitude":74.6399,"temp":33.1,"humidity":15,"rain":0.0,"pressure":953.5,"uv_index":7.25,"wind_gusts":37.4,"aqi":74,"pm10":55.8,"pm2_5":17.9,"mosquito_risk":0,"arthritis_risk":5,"migraine_risk":7,"frizz_risk":0,"updated_at":"2026-03-15T16:59:51.281111+05:30"},{"city":"Gwalior","state":"Madhya Pradesh","latitude":26.2183,"longitude":78.1828,"temp":29.3,"humidity":50,"rain":0.0,"pressure":982.3,"uv_index":6.9,"wind_gusts":45.4,"aqi":105,"pm10":89.2,"pm2_5":25.6,"mosquito_risk":4,"arthritis_risk":5,"migraine_risk":7,"frizz_risk":1,"updated_at":"2026-03-15T16:59:51.281119+05:30"},{"city":"Indore","state":"Madhya Pradesh","latitude":22.7196,"longitude":75.8577,"temp":33.3,"humidity":21,"rain":0.0,"pressure":947.9,"uv_index":7.8,"wind_gusts":35.6,"aqi":61,"pm10":41.0,"pm2_5":16.1,"mosquito_risk":0,"arthritis_risk":5,"migraine_risk":7,"frizz_risk":0,"updated_at":"2026-03-15T16:59:51.281126+05:30"},{"city":"Bhopal","state":"Madhya Pradesh","latitude":23.2599,"longitude":77.4126,"temp":33.9,"humidity":21,"rain":0.0,"pressure":953.3,"uv_index":7.7,"wind_gusts":42.8,"aqi":67,"pm10":28.6,"pm2_5":13.0,"mosquito_risk":0,"arthritis_risk":5,"migraine_risk":7,"frizz_risk":0,"updated_at":"2026-03-15T16:59:51.281133+05:30"},{"city":"Jabalpur","state":"Madhya Pradesh","latitude":23.1815,"longitude":79.9864,"temp":34.1,"humidity":17,"rain":0.0,"pressure":960.6,"uv_index":7.8,"wind_gusts":38.2,"aqi":98,"pm10":25.6,"pm2_5":18.1,"mosquito_risk":0,"arthritis_risk":5,"migraine_risk":7,"frizz_risk":0,"updated_at":"2026-03-15T16:59:51.281140+05:30"},{"city":"Ujjain","state":"Madhya Pradesh","latitude":23.1765,"longitude":75.7885,"temp":33.1,"humidity":24,"rain":0.0,"pressure":953.8,"uv_index":7.7,"wind_gusts":34.6,"aqi":64,"pm10":47.4,"pm2_5":17.8,"mosquito_risk":0,"arthritis_risk":5,"migraine_risk":7,"frizz_risk":0,"updated_at":"2026-03-15T16:59:51.281148+05:30"},{"city":"Visakhapatnam","state":"Andhra Pradesh","latitude":17.6868,"longitude":83.2185,"temp":29.0,"humidity":65,"rain":0.0,"pressure":1004.7,"uv_index":8.65,"wind_gusts":40.0,"aqi":64,"pm10":21.8,"pm2_5":16.4,"mosquito_risk":7,"arthritis_risk":5,"migraine_risk":4,"frizz_risk":1,"updated_at":"2026-03-15T16:59:51.281155+05:30"},{"city":"Vijayawada","state":"Andhra Pradesh","latitude":16.5062,"longitude":80.648,"temp":32.2,"humidity":49,"rain":0.0,"pressure":1003.3,"uv_index":8.75,"wind_gusts":29.2,"aqi":58,"pm10":16.1,"pm2_5":12.0,"mosquito_risk":0,"arthritis_risk":5,"migraine_risk":4,"frizz_risk":1,"updated_at":"2026-03-15T16:59:51.281162+05:30"},{"city":"Guntur","state":"Andhra Pradesh","latitude":16.3067,"longitude":80.4365,"temp":31.7,"humidity":50,"rain":0.0,"pressure":1004.6,"uv_index":8.75,"wind_gusts":30.2,"aqi":56,"pm10":19.0,"pm2_5":13.8,"mosquito_risk":0,"arthritis_risk":5,"migraine_risk":4,"frizz_risk":1,"updated_at":"2026-03-15T16:59:51.281169+05:30"},{"city":"Nellore","state":"Andhra Pradesh","latitude":14.4426,"longitude":79.9865,"temp":31.4,"humidity":55,"rain":0.0,"pressure":1006.6,"uv_index":8.95,"wind_gusts":29.9,"aqi":54,"pm10":17.6,"pm2_5":13.2,"mosquito_risk":0,"arthritis_risk":5,"migraine_risk":4,"frizz_risk":1,"updated_at":"2026-03-15T16:59:51.281177+05:30"},{"city":"Kurnool","state":"Andhra Pradesh","latitude":15.8281,"longitude":78.0373,"temp":36.3,"humidity":27,"rain":0.0,"pressure":976.0,"uv_index":8.75,"wind_gusts":20.2,"aqi":114,"pm10":39.6,"pm2_5":28.7,"mosquito_risk":0,"arthritis_risk":5,"migraine_risk":10,"frizz_risk":0,"updated_at":"2026-03-15T16:59:51.281185+05:30"},{"city":"Kakinada","state":"Andhra Pradesh","latitude":16.9891,"longitude":82.2475,"temp":31.0,"humidity":53,"rain":0.0,"pressure":1008.1,"uv_index":8.7,"wind_gusts":31.7,"aqi":59,"pm10":17.5,"pm2_5":11.8,"mosquito_risk":0,"arthritis_risk":0,"migraine_risk":4,"frizz_risk":1,"updated_at":"2026-03-15T16:59:51.281191+05:30"},{"city":"Tirupati","state":"Andhra Pradesh","latitude":13.6288,"longitude":79.4192,"temp":32.8,"humidity":36,"rain":0.0,"pressure":992.0,"uv_index":9.05,"wind_gusts":29.5,"aqi":68,"pm10":16.2,"pm2_5":14.2,"mosquito_risk":0,"arthritis_risk":5,"migraine_risk":7,"frizz_risk":0,"updated_at":"2026-03-15T16:59:51.281198+05:30"},{"city":"Warangal","state":"Telangana","latitude":17.9689,"longitude":79.5941,"temp":33.3,"humidity":35,"rain":0.0,"pressure":978.6,"uv_index":8.55,"wind_gusts":31.7,"aqi":78,"pm10":41.2,"pm2_5":28.9,"mosquito_risk":0,"arthritis_risk":5,"migraine_risk":7,"frizz_risk":0,"updated_at":"2026-03-15T16:59:51.281205+05:30"},{"city":"Nizamabad","state":"Telangana","latitude":18.6725,"longitude":78.0941,"temp":33.8,"humidity":32,"rain":0.0,"pressure":964.5,"uv_index":8.4,"wind_gusts":33.1,"aqi":123,"pm10":53.8,"pm2_5":43.0,"mosquito_risk":0,"arthritis_risk":5,"migraine_risk":7,"frizz_risk":0,"updated_at":"2026-03-15T16:59:51.281211+05:30"},{"city":"Mysore","state":"Karnataka","latitude":12.2958,"longitude":76.6396,"temp":32.2,"humidity":28,"rain":0.0,"pressure":928.6,"uv_index":9.3,"wind_gusts":33.5,"aqi":129,"pm10":25.8,"pm2_5":20.8,"mosquito_risk":0,"arthritis_risk":5,"migraine_risk":7,"frizz_risk":0,"updated_at":"2026-03-15T16:59:51.281218+05:30"},{"city":"Mangalore","state":"Karnataka","latitude":12.9141,"longitude":74.856,"temp":28.9,"humidity":82,"rain":0.0,"pressure":1007.2,"uv_index":8.95,"wind_gusts":27.7,"aqi":89,"pm10":25.1,"pm2_5":20.8,"mosquito_risk":7,"arthritis_risk":5,"migraine_risk":4,"frizz_risk":1,"updated_at":"2026-03-15T16:59:51.281224+05:30"},{"city":"Hubli-Dharwad","state":"Karnataka","latitude":15.3647,"longitude":75.124,"temp":27.6,"humidity":65,"rain":0.0,"pressure":941.8,"uv_index":8.95,"wind_gusts":43.2,"aqi":130,"pm10":47.5,"pm2_5":38.1,"mosquito_risk":7,"arthritis_risk":5,"migraine_risk":7,"frizz_risk":1,"updated_at":"2026-03-15T16:59:51.281232+05:30"},{"city":"Belgaum","state":"Karnataka","latitude":15.8497,"longitude":74.4977,"temp":28.0,"humidity":57,"rain":0.0,"pressure":926.6,"uv_index":9.0,"wind_gusts":40.0,"aqi":133,"pm10":42.4,"pm2_5":37.1,"mosquito_risk":4,"arthritis_risk":5,"migraine_risk":7,"frizz_risk":1,"updated_at":"2026-03-15T16:59:54.571612+05:30"},{"city":"Coimbatore","state":"Tamil Nadu","latitude":11.0168,"longitude":76.9558,"temp":34.0,"humidity":28,"rain":0.0,"pressure":961.3,"uv_index":9.3,"wind_gusts":32.8,"aqi":96,"pm10":16.5,"pm2_5":12.3,"mosquito_risk":0,"arthritis_risk":5,"migraine_risk":7,"frizz_risk":0,"updated_at":"2026-03-15T16:59:54.571638+05:30"},{"city":"Madurai","state":"Tamil Nadu","latitude":9.9252,"longitude":78.1198,"temp":35.6,"humidity":30,"rain":0.0,"pressure":992.0,"uv_index":9.25,"wind_gusts":23.4,"aqi":56,"pm10":8.6,"pm2_5":7.1,"mosquito_risk":0,"arthritis_risk":5,"migraine_risk":10,"frizz_risk":0,"updated_at":"2026-03-15T16:59:54.571647+05:30"},{"city":"Trichy","state":"Tamil Nadu","latitude":10.7905,"longitude":78.7047,"temp":34.3,"humidity":37,"rain":0.0,"pressure":999.4,"uv_index":9.15,"wind_gusts":20.2,"aqi":54,"pm10":8.6,"pm2_5":7.5,"mosquito_risk":0,"arthritis_risk":5,"migraine_risk":7,"frizz_risk":1,"updated_at":"2026-03-15T16:59:54.571653+05:30"},{"city":"Salem","state":"Tamil Nadu","latitude":11.6643,"longitude":78.146,"temp":34.3,"humidity":32,"rain":0.0,"pressure":976.9,"uv_index":9.2,"wind_gusts":14.8,"aqi":69,"pm10":18.3,"pm2_5":15.8,"mosquito_risk":0,"arthritis_risk":5,"migraine_risk":7,"frizz_risk":0,"updated_at":"2026-03-15T16:59:54.571660+05:30"},{"city":"Tirunelveli","state":"Tamil Nadu","latitude":8.7139,"longitude":77.7567,"temp":36.1,"humidity":31,"rain":0.0,"pressure":1002.0,"uv_index":9.25,"wind_gusts":40.0,"aqi":56,"pm10":8.2,"pm2_5":7.2,"mosquito_risk":0,"arthritis_risk":5,"migraine_risk":7,"frizz_risk":1,"updated_at":"2026-03-15T16:59:54.571666+05:30"},{"city":"Vellore","state":"Tamil Nadu","latitude":12.9165,"longitude":79.1325,"temp":32.8,"humidity":34,"rain":0.0,"pressure":984.9,"uv_index":9.1,"wind_gusts":31.0,"aqi":93,"pm10":18.6,"pm2_5":17.2,"mosquito_risk":0,"arthritis_risk":5,"migraine_risk":7,"frizz_risk":0,"updated_at":"2026-03-15T16:59:54.571672+05:30"},{"city":"Erode","state":"Tamil Nadu","latitude":11.341,"longitude":77.7172,"temp":35.3,"humidity":32,"rain":0.0,"pressure":988.4,"uv_index":9.2,"wind_gusts":20.5,"aqi":49,"pm10":11.8,"pm2_5":9.5,"mosquito_risk":0,"arthritis_risk":5,"migraine_risk":10,"frizz_risk":1,"updated_at":"2026-03-15T16:59:54.571678+05:30"},{"city":"Kochi","state":"Kerala","latitude":9.9312,"longitude":76.2673,"temp":29.0,"humidity":74,"rain":0.0,"pressure":1008.2,"uv_index":9.1,"wind_gusts":34.2,"aqi":92,"pm10":20.9,"pm2_5":18.7,"mosquito_risk":7,"arthritis_risk":0,"migraine_risk":4,"frizz_risk":1,"updated_at":"2026-03-15T16:59:54.571684+05:30"},{"city":"Thiruvananthapuram","state":"Kerala","latitude":8.5241,"longitude":76.9366,"temp":28.8,"humidity":73,"rain":0.0,"pressure":1007.7,"uv_index":9.1,"wind_gusts":27.0,"aqi":80,"pm10":11.1,"pm2_5":8.1,"mosquito_risk":7,"arthritis_risk":5,"migraine_risk":4,"frizz_risk":1,"updated_at":"2026-03-15T16:59:54.571689+05:30"},{"city":"Kozhikode","state":"Kerala","latitude":11.2588,"longitude":75.7804,"temp":29.7,"humidity":73,"rain":0.0,"pressure":1007.9,"uv_index":9.0,"wind_gusts":32.8,"aqi":76,"pm10":18.7,"pm2_5":15.7,"mosquito_risk":7,"arthritis_risk":5,"migraine_risk":4,"frizz_risk":1,"updated_at":"2026-03-15T16:59:54.571695+05:30"},{"city":"Thrissur","state":"Kerala","latitude":10.5276,"longitude":76.2144,"temp":31.0,"humidity":65,"rain":0.0,"pressure":1006.5,"uv_index":9.05,"wind_gusts":40.0,"aqi":86,"pm10":21.1,"pm2_5":17.9,"mosquito_risk":3,"arthritis_risk":5,"migraine_risk":4,"frizz_risk":1,"updated_at":"2026-03-15T16:59:54.571701+05:30"},{"city":"Kannur","state":"Kerala","latitude":11.8745,"longitude":75.3704,"temp":29.8,"humidity":71,"rain":0.0,"pressure":1007.6,"uv_index":9.0,"wind_gusts":33.5,"aqi":81,"pm10":28.9,"pm2_5":24.2,"mosquito_risk":7,"arthritis_risk":5,"migraine_risk":4,"frizz_risk":1,"updated_at":"2026-03-15T16:59:54.571707+05:30"},{"city":"Patna","state":"Bihar","latitude":25.5941,"longitude":85.1376,"temp":31.5,"humidity":36,"rain":0.0,"pressure":1000.5,"uv_index":7.55,"wind_gusts":27.4,"aqi":163,"pm10":69.2,"pm2_5":39.2,"mosquito_risk":0,"arthritis_risk":5,"migraine_risk":4,"frizz_risk":0,"updated_at":"2026-03-15T16:59:54.571712+05:30"},{"city":"Gaya","state":"Bihar","latitude":24.7914,"longitude":85.0002,"temp":31.0,"humidity":45,"rain":0.0,"pressure":993.2,"uv_index":7.65,"wind_gusts":28.8,"aqi":140,"pm10":71.2,"pm2_5":36.0,"mosquito_risk":0,"arthritis_risk":5,"migraine_risk":7,"frizz_risk":1,"updated_at":"2026-03-15T16:59:54.571718+05:30"},{"city":"Muzaffarpur","state":"Bihar","latitude":26.1209,"longitude":85.3647,"temp":30.6,"humidity":41,"rain":0.0,"pressure":1000.6,"uv_index":7.5,"wind_gusts":38.5,"aqi":161,"pm10":71.2,"pm2_5":44.2,"mosquito_risk":0,"arthritis_risk":5,"migraine_risk":4,"frizz_risk":0,"updated_at":"2026-03-15T16:59:54.571723+05:30"},{"city":"Bhagalpur","state":"Bihar","latitude":25.2425,"longitude":87.0117,"temp":30.4,"humidity":55,"rain":0.0,"pressure":1001.1,"uv_index":7.55,"wind_gusts":32.4,"aqi":159,"pm10":80.6,"pm2_5":48.1,"mosquito_risk":0,"arthritis_risk":5,"migraine_risk":4,"frizz_risk":1,"updated_at":"2026-03-15T16:59:54.571728+05:30"},{"city":"Ranchi","state":"Jharkhand","latitude":23.3441,"longitude":85.3096,"temp":25.8,"humidity":62,"rain":0.0,"pressure":938.6,"uv_index":8.3,"wind_gusts":45.7,"aqi":172,"pm10":38.8,"pm2_5":35.7,"mosquito_risk":7,"arthritis_risk":5,"migraine_risk":7,"frizz_risk":1,"updated_at":"2026-03-15T16:59:54.571734+05:30"},{"city":"Jamshedpur","state":"Jharkhand","latitude":22.8046,"longitude":86.2029,"temp":28.0,"humidity":68,"rain":0.0,"pressure":992.4,"uv_index":8.2,"wind_gusts":37.4,"aqi":153,"pm10":53.8,"pm2_5":46.4,"mosquito_risk":7,"arthritis_risk":5,"migraine_risk":7,"frizz_risk":1,"updated_at":"2026-03-15T16:59:54.571739+05:30"},{"city":"Dhanbad","state":"Jharkhand","latitude":23.7957,"longitude":86.4304,"temp":28.5,"humidity":60,"rain":0.0,"pressure":980.7,"uv_index":8.05,"wind_gusts":31.7,"aqi":167,"pm10":55.2,"pm2_5":49.5,"mosquito_risk":4,"arthritis_risk":5,"migraine_risk":7,"frizz_risk":1,"updated_at":"2026-03-15T16:59:54.571745+05:30"},{"city":"Bokaro","state":"Jharkhand","latitude":23.6693,"longitude":86.1511,"temp":30.8,"humidity":43,"rain":0.0,"pressure":984.4,"uv_index":8.0,"wind_gusts":25.9,"aqi":161,"pm10":49.7,"pm2_5":43.9,"mosquito_risk":0,"arthritis_risk":5,"migraine_risk":7,"frizz_risk":1,"updated_at":"2026-03-15T16:59:54.571750+05:30"},{"city":"Bhubaneswar","state":"Odisha","latitude":20.2961,"longitude":85.8245,"temp":28.3,"humidity":69,"rain":0.0,"pressure":1003.9,"uv_index":8.5,"wind_gusts":42.5,"aqi":56,"pm10":22.5,"pm2_5":16.5,"mosquito_risk":7,"arthritis_risk":5,"migraine_risk":4,"frizz_risk":1,"updated_at":"2026-03-15T16:59:54.571756+05:30"},{"city":"Cuttack","state":"Odisha","latitude":20.4625,"longitude":85.8828,"temp":29.8,"humidity":59,"rain":0.0,"pressure":1005.7,"uv_index":8.55,"wind_gusts":37.4,"aqi":56,"pm10":22.5,"pm2_5":16.5,"mosquito_risk":4,"arthritis_risk":5,"migraine_risk":4,"frizz_risk":1,"updated_at":"2026-03-15T16:59:54.571761+05:30"},{"city":"Rourkela","state":"Odisha","latitude":22.2604,"longitude":84.8536,"temp":28.8,"humidity":57,"rain":0.0,"pressure":986.4,"uv_index":8.1,"wind_gusts":55.4,"aqi":171,"pm10":53.9,"pm2_5":48.2,"mosquito_risk":4,"arthritis_risk":5,"migraine_risk":7,"frizz_risk":1,"updated_at":"2026-03-15T16:59:54.571767+05:30"},{"city":"Raipur","state":"Chhattisgarh","latitude":21.2514,"longitude":81.6296,"temp":33.4,"humidity":31,"rain":0.0,"pressure":974.1,"uv_index":8.2,"wind_gusts":35.6,"aqi":151,"pm10":48.0,"pm2_5":40.7,"mosquito_risk":0,"arthritis_risk":5,"migraine_risk":7,"frizz_risk":0,"updated_at":"2026-03-15T16:59:54.571772+05:30"},{"city":"Bhilai","state":"Chhattisgarh","latitude":21.1938,"longitude":81.3509,"temp":33.1,"humidity":31,"rain":0.0,"pressure":974.3,"uv_index":8.2,"wind_gusts":36.7,"aqi":140,"pm10":47.8,"pm2_5":40.3,"mosquito_risk":0,"arthritis_risk":5,"migraine_risk":7,"frizz_risk":0,"updated_at":"2026-03-15T16:59:54.571777+05:30"},{"city":"Guwahati","state":"Assam","latitude":26.1158,"longitude":91.7086,"temp":24.5,"humidity":79,"rain":0.0,"pressure":1002.2,"uv_index":7.4,"wind_gusts":39.6,"aqi":78,"pm10":21.4,"pm2_5":15.7,"mosquito_risk":3,"arthritis_risk":5,"migraine_risk":4,"frizz_risk":1,"updated_at":"2026-03-15T16:59:54.571783+05:30"},{"city":"Agartala","state":"Tripura","latitude":23.8315,"longitude":91.2868,"temp":24.3,"humidity":86,"rain":0.0,"pressure":1008.3,"uv_index":7.75,"wind_gusts":35.3,"aqi":57,"pm10":22.0,"pm2_5":19.2,"mosquito_risk":3,"arthritis_risk":0,"migraine_risk":4,"frizz_risk":1,"updated_at":"2026-03-15T16:59:54.571788+05:30"},{"city":"Shillong","state":"Meghalaya","latitude":25.5788,"longitude":91.8933,"temp":14.1,"humidity":83,"rain":0.0,"pressure":855.8,"uv_index":7.85,"wind_gusts":79.9,"aqi":62,"pm10":19.3,"pm2_5":13.8,"mosquito_risk":3,"arthritis_risk":10,"migraine_risk":7,"frizz_risk":0,"updated_at":"2026-03-15T16:59:54.571794+05:30"},{"city":"Imphal","state":"Manipur","latitude":24.817,"longitude":93.9368,"temp":17.2,"humidity":85,"rain":0.0,"pressure":925.0,"uv_index":8.15,"wind_gusts":70.2,"aqi":90,"pm10":33.8,"pm2_5":25.3,"mosquito_risk":3,"arthritis_risk":10,"migraine_risk":7,"frizz_risk":0,"updated_at":"2026-03-15T16:59:54.571800+05:30"},{"city":"Aizawl","state":"Mizoram","latitude":23.7271,"longitude":92.7176,"temp":17.6,"humidity":84,"rain":0.1,"pressure":894.8,"uv_index":8.1,"wind_gusts":55.8,"aqi":89,"pm10":31.5,"pm2_5":24.4,"mosquito_risk":6,"arthritis_risk":10,"migraine_risk":7,"frizz_risk":0,"updated_at":"2026-03-15T16:59:54.571805+05:30"},{"city":"Kohima","state":"Nagaland","latitude":25.6701,"longitude":94.1077,"temp":16.4,"humidity":64,"rain":0.0,"pressure":855.4,"uv_index":7.8,"wind_gusts":111.2,"aqi":72,"pm10":28.6,"pm2_5":21.0,"mosquito_risk":3,"arthritis_risk":5,"migraine_risk":7,"frizz_risk":0,"updated_at":"2026-03-15T16:59:54.571810+05:30"},{"city":"Gangtok","state":"Sikkim","latitude":27.3314,"longitude":88.6138,"temp":15.0,"humidity":80,"rain":0.0,"pressure":837.2,"uv_index":7.05,"wind_gusts":20.9,"aqi":106,"pm10":57.0,"pm2_5":34.8,"mosquito_risk":3,"arthritis_risk":5,"migraine_risk":7,"frizz_risk":0,"updated_at":"2026-03-15T16:59:54.571816+05:30"},{"city":"Siliguri","state":"West Bengal","latitude":26.7271,"longitude":88.3953,"temp":21.8,"humidity":78,"rain":0.0,"pressure":994.3,"uv_index":7.4,"wind_gusts":32.0,"aqi":124,"pm10":59.1,"pm2_5":39.8,"mosquito_risk":3,"arthritis_risk":5,"migraine_risk":7,"frizz_risk":1,"updated_at":"2026-03-15T16:59:57.871142+05:30"},{"city":"Durgapur","state":"West Bengal","latitude":23.5204,"longitude":87.3119,"temp":26.3,"humidity":75,"rain":0.0,"pressure":996.8,"uv_index":8.05,"wind_gusts":36.4,"aqi":127,"pm10":68.7,"pm2_5":61.0,"mosquito_risk":7,"arthritis_risk":5,"migraine_risk":7,"frizz_risk":1,"updated_at":"2026-03-15T16:59:57.871173+05:30"},{"city":"Asansol","state":"West Bengal","latitude":23.6739,"longitude":86.9524,"temp":26.8,"humidity":69,"rain":0.0,"pressure":994.9,"uv_index":8.05,"wind_gusts":33.5,"aqi":162,"pm10":59.5,"pm2_5":52.0,"mosquito_risk":7,"arthritis_risk":5,"migraine_risk":7,"frizz_risk":1,"updated_at":"2026-03-15T16:59:57.871182+05:30"},{"city":"Pondicherry","state":"Puducherry","latitude":11.9139,"longitude":79.8145,"temp":31.6,"humidity":48,"rain":0.0,"pressure":1009.1,"uv_index":9.0,"wind_gusts":28.1,"aqi":39,"pm10":7.0,"pm2_5":4.8,"mosquito_risk":0,"arthritis_risk":0,"migraine_risk":4,"frizz_risk":1,"updated_at":"2026-03-15T16:59:57.871190+05:30"},{"city":"Port Blair","state":"Andaman and Nicobar Islands","latitude":11.6234,"longitude":92.7265,"temp":27.9,"humidity":79,"rain":0.0,"pressure":1008.9,"uv_index":8.95,"wind_gusts":21.6,"aqi":72,"pm10":13.5,"pm2_5":10.9,"mosquito_risk":7,"arthritis_risk":0,"migraine_risk":4,"frizz_risk":1,"updated_at":"2026-03-15T16:59:57.871198+05:30"},{"city":"Haridwar","state":"Uttarakhand","latitude":29.9457,"longitude":78.1642,"temp":20.5,"humidity":84,"rain":0.1,"pressure":976.1,"uv_index":5.3,"wind_gusts":33.1,"aqi":90,"pm10":51.1,"pm2_5":19.6,"mosquito_risk":6,"arthritis_risk":5,"migraine_risk":3,"frizz_risk":1,"updated_at":"2026-03-15T16:59:57.871205+05:30"},{"city":"Rishikesh","state":"Uttarakhand","latitude":30.0869,"longitude":78.2676,"temp":22.1,"humidity":67,"rain":0.0,"pressure":968.1,"uv_index":5.2,"wind_gusts":36.7,"aqi":67,"pm10":46.7,"pm2_5":16.9,"mosquito_risk":3,"arthritis_risk":5,"migraine_risk":3,"frizz_risk":0,"updated_at":"2026-03-15T16:59:57.871213+05:30"},{"city":"Nainital","state":"Uttarakhand","latitude":29.3919,"longitude":79.4542,"temp":18.0,"humidity":57,"rain":0.0,"pressure":806.1,"uv_index":4.8,"wind_gusts":58.7,"aqi":82,"pm10":61.2,"pm2_5":19.3,"mosquito_risk":0,"arthritis_risk":5,"migraine_risk":3,"frizz_risk":0,"updated_at":"2026-03-15T16:59:57.871220+05:30"},{"city":"Mussoorie","state":"Uttarakhand","latitude":30.4599,"longitude":78.0664,"temp":13.2,"humidity":75,"rain":0.0,"pressure":801.2,"uv_index":6.0,"wind_gusts":46.8,"aqi":77,"pm10":47.6,"pm2_5":20.0,"mosquito_risk":3,"arthritis_risk":5,"migraine_risk":3,"frizz_risk":0,"updated_at":"2026-03-15T16:59:57.871227+05:30"},{"city":"Dharamshala","state":"Himachal Pradesh","latitude":32.219,"longitude":76.3234,"temp":17.4,"humidity":57,"rain":0.0,"pressure":866.5,"uv_index":4.5,"wind_gusts":40.7,"aqi":50,"pm10":7.9,"pm2_5":3.6,"mosquito_risk":0,"arthritis_risk":5,"migraine_risk":3,"frizz_risk":0,"updated_at":"2026-03-15T16:59:57.871234+05:30"},{"city":"Dalhousie","state":"Himachal Pradesh","latitude":32.5387,"longitude":75.971,"temp":13.6,"humidity":58,"rain":0.0,"pressure":800.2,"uv_index":3.65,"wind_gusts":32.8,"aqi":72,"pm10":41.2,"pm2_5":19.2,"mosquito_risk":0,"arthritis_risk":5,"migraine_risk":3,"frizz_risk":0,"updated_at":"2026-03-15T16:59:57.871242+05:30"},{"city":"Patiala","state":"Punjab","latitude":30.3398,"longitude":76.3869,"temp":22.0,"humidity":75,"rain":0.0,"pressure":978.4,"uv_index":5.9,"wind_gusts":33.1,"aqi":127,"pm10":65.2,"pm2_5":27.9,"mosquito_risk":3,"arthritis_risk":5,"migraine_risk":3,"frizz_risk":1,"updated_at":"2026-03-15T16:59:57.871249+05:30"},{"city":"Bhatinda","state":"Punjab","latitude":30.211,"longitude":74.9455,"temp":19.7,"humidity":81,"rain":0.0,"pressure":983.4,"uv_index":6.45,"wind_gusts":46.8,"aqi":98,"pm10":38.5,"pm2_5":21.2,"mosquito_risk":3,"arthritis_risk":10,"migraine_risk":7,"frizz_risk":1,"updated_at":"2026-03-15T16:59:57.871256+05:30"},{"city":"Rohtak","state":"Haryana","latitude":28.8955,"longitude":76.6066,"temp":25.5,"humidity":57,"rain":0.0,"pressure":981.6,"uv_index":6.1,"wind_gusts":39.2,"aqi":160,"pm10":704.1,"pm2_5":83.8,"mosquito_risk":4,"arthritis_risk":5,"migraine_risk":7,"frizz_risk":1,"updated_at":"2026-03-15T16:59:57.871262+05:30"},{"city":"Panipat","state":"Haryana","latitude":29.3909,"longitude":76.9635,"temp":24.4,"humidity":61,"rain":0.0,"pressure":980.8,"uv_index":5.85,"wind_gusts":27.4,"aqi":176,"pm10":391.2,"pm2_5":51.2,"mosquito_risk":3,"arthritis_risk":5,"migraine_risk":3,"frizz_risk":1,"updated_at":"2026-03-15T16:59:57.871269+05:30"},{"city":"Mathura","state":"Uttar Pradesh","latitude":27.4924,"longitude":77.6737,"temp":30.9,"humidity":33,"rain":0.0,"pressure":985.8,"uv_index":6.5,"wind_gusts":37.1,"aqi":338,"pm10":534.6,"pm2_5":67.1,"mosquito_risk":0,"arthritis_risk":5,"migraine_risk":7,"frizz_risk":0,"updated_at":"2026-03-15T16:59:57.871276+05:30"},{"city":"Vrindavan","state":"Uttar Pradesh","latitude":27.5823,"longitude":77.7027,"temp":29.8,"humidity":39,"rain":0.0,"pressure":986.5,"uv_index":6.45,"wind_gusts":38.2,"aqi":338,"pm10":534.6,"pm2_5":67.1,"mosquito_risk":4,"arthritis_risk":5,"migraine_risk":7,"frizz_risk":0,"updated_at":"2026-03-15T16:59:57.871282+05:30"},{"city":"Ayodhya","state":"Uttar Pradesh","latitude":26.7922,"longitude":82.1998,"temp":26.8,"humidity":38,"rain":0.0,"pressure":996.7,"uv_index":6.9,"wind_gusts":47.2,"aqi":126,"pm10":38.3,"pm2_5":19.4,"mosquito_risk":4,"arthritis_risk":5,"migraine_risk":7,"frizz_risk":0,"updated_at":"2026-03-15T16:59:57.871289+05:30"},{"city":"Ratlam","state":"Madhya Pradesh","latitude":23.3315,"longitude":75.0367,"temp":33.4,"humidity":21,"rain":0.0,"pressure":954.9,"uv_index":7.65,"wind_gusts":38.5,"aqi":63,"pm10":47.3,"pm2_5":17.1,"mosquito_risk":0,"arthritis_risk":5,"migraine_risk":7,"frizz_risk":0,"updated_at":"2026-03-15T16:59:57.871296+05:30"},{"city":"Sagar","state":"Madhya Pradesh","latitude":23.8388,"longitude":78.7378,"temp":33.4,"humidity":21,"rain":0.0,"pressure":949.6,"uv_index":7.65,"wind_gusts":36.7,"aqi":64,"pm10":32.4,"pm2_5":13.8,"mosquito_risk":0,"arthritis_risk":5,"migraine_risk":7,"frizz_risk":0,"updated_at":"2026-03-15T16:59:57.871303+05:30"},{"city":"Satna","state":"Madhya Pradesh","latitude":24.6005,"longitude":80.8322,"temp":33.0,"humidity":24,"rain":0.0,"pressure":970.0,"uv_index":7.6,"wind_gusts":51.1,"aqi":103,"pm10":24.7,"pm2_5":13.5,"mosquito_risk":0,"arthritis_risk":5,"migraine_risk":7,"frizz_risk":0,"updated_at":"2026-03-15T16:59:57.871310+05:30"},{"city":"Akola","state":"Maharashtra","latitude":20.7002,"longitude":77.0082,"temp":37.1,"humidity":17,"rain":0.0,"pressure":974.0,"uv_index":8.15,"wind_gusts":29.2,"aqi":93,"pm10":34.3,"pm2_5":27.0,"mosquito_risk":0,"arthritis_risk":5,"migraine_risk":10,"frizz_risk":0,"updated_at":"2026-03-15T16:59:57.871318+05:30"},{"city":"Amravati","state":"Maharashtra","latitude":20.9374,"longitude":77.7796,"temp":36.4,"humidity":19,"rain":0.0,"pressure":966.4,"uv_index":8.1,"wind_gusts":27.7,"aqi":99,"pm10":34.3,"pm2_5":27.7,"mosquito_risk":0,"arthritis_risk":5,"migraine_risk":10,"frizz_risk":0,"updated_at":"2026-03-15T16:59:57.871326+05:30"},{"city":"Latur","state":"Maharashtra","latitude":18.4088,"longitude":76.5604,"temp":33.9,"humidity":19,"rain":0.0,"pressure":939.6,"uv_index":8.55,"wind_gusts":25.6,"aqi":132,"pm10":38.8,"pm2_5":32.1,"mosquito_risk":0,"arthritis_risk":5,"migraine_risk":7,"frizz_risk":0,"updated_at":"2026-03-15T16:59:57.871332+05:30"},{"city":"Nanded","state":"Maharashtra","latitude":19.1383,"longitude":77.3091,"temp":36.5,"humidity":18,"rain":0.0,"pressure":967.9,"uv_index":8.35,"wind_gusts":19.1,"aqi":133,"pm10":45.6,"pm2_5":36.9,"mosquito_risk":0,"arthritis_risk":5,"migraine_risk":10,"frizz_risk":0,"updated_at":"2026-03-15T16:59:57.871340+05:30"},{"city":"Gulbarga","state":"Karnataka","latitude":17.3297,"longitude":76.8343,"temp":34.9,"humidity":28,"rain":0.0,"pressure":958.0,"uv_index":8.65,"wind_gusts":31.0,"aqi":138,"pm10":49.1,"pm2_5":39.3,"mosquito_risk":0,"arthritis_risk":5,"migraine_risk":7,"frizz_risk":0,"updated_at":"2026-03-15T16:59:57.871346+05:30"},{"city":"Bidar","state":"Karnataka","latitude":17.9104,"longitude":77.5199,"temp":33.5,"humidity":30,"rain":0.0,"pressure":935.4,"uv_index":6.6,"wind_gusts":34.9,"aqi":130,"pm10":49.4,"pm2_5":38.5,"mosquito_risk":0,"arthritis_risk":5,"migraine_risk":7,"frizz_risk":0,"updated_at":"2026-03-15T16:59:57.871353+05:30"},{"city":"Hospet","state":"Karnataka","latitude":15.2689,"longitude":76.3909,"temp":34.2,"humidity":31,"rain":0.0,"pressure":955.5,"uv_index":8.9,"wind_gusts":31.3,"aqi":129,"pm10":46.2,"pm2_5":36.4,"mosquito_risk":0,"arthritis_risk":5,"migraine_risk":7,"frizz_risk":0,"updated_at":"2026-03-15T16:59:57.871359+05:30"},{"city":"Tirupur","state":"Tamil Nadu","latitude":11.1085,"longitude":77.3411,"temp":35.4,"humidity":26,"rain":0.0,"pressure":974.6,"uv_index":9.3,"wind_gusts":28.4,"aqi":60,"pm10":13.1,"pm2_5":10.2,"mosquito_risk":0,"arthritis_risk":5,"migraine_risk":10,"frizz_risk":0,"updated_at":"2026-03-15T16:59:57.871366+05:30"},{"city":"Alappuzha","state":"Kerala","latitude":9.4981,"longitude":76.3388,"temp":28.8,"humidity":76,"rain":0.0,"pressure":1008.3,"uv_index":9.1,"wind_gusts":30.2,"aqi":109,"pm10":17.0,"pm2_5":15.5,"mosquito_risk":7,"arthritis_risk":0,"migraine_risk":4,"frizz_risk":1,"updated_at":"2026-03-15T16:59:57.871372+05:30"},{"city":"Munnar","state":"Kerala","latitude":10.0889,"longitude":77.0595,"temp":26.0,"humidity":64,"rain":0.0,"pressure":858.3,"uv_index":9.55,"wind_gusts":34.9,"aqi":58,"pm10":12.3,"pm2_5":9.5,"mosquito_risk":7,"arthritis_risk":5,"migraine_risk":7,"frizz_risk":1,"updated_at":"2026-03-15T16:59:57.871379+05:30"},{"city":"Silchar","state":"Assam","latitude":24.8333,"longitude":92.7789,"temp":22.7,"humidity":84,"rain":0.0,"pressure":1008.4,"uv_index":7.65,"wind_gusts":42.5,"aqi":109,"pm10":19.2,"pm2_5":17.1,"mosquito_risk":3,"arthritis_risk":0,"migraine_risk":4,"frizz_risk":1,"updated_at":"2026-03-15T16:59:57.871386+05:30"},{"city":"Dibrugarh","state":"Assam","latitude":27.4728,"longitude":94.912,"temp":19.4,"humidity":87,"rain":0.0,"pressure":998.1,"uv_index":4.5,"wind_gusts":40.0,"aqi":70,"pm10":33.8,"pm2_5":26.8,"mosquito_risk":3,"arthritis_risk":10,"migraine_risk":3,"frizz_risk":1,"updated_at":"2026-03-15T16:59:57.871392+05:30"}]