[{"city":"Delhi","state":"Delhi","latitude":28.6139,"longitude":77.209,"temp":30.2,"humidity":72,"rain":0.0,"pressure":976.9,"uv_index":7.05,"wind_gusts":38.2,"aqi":295,"pm10":190.0,"pm2_5":83.8,"no2":45.3,"co":771.0,"o3":37.0,"so2":21.5,"mosquito_risk":3,"arthritis_risk":5,"migraine_risk":7,"frizz_risk":1,"updated_at":"2026-07-14T23:35:41.360212+05:30"},{"city":"Mumbai","state":"Maharashtra","latitude":19.076,"longitude":72.8777,"temp":27.0,"humidity":84,"rain":0.1,"pressure":1008.1,"uv_index":6.55,"wind_gusts":41.0,"aqi":72,"pm10":33.5,"pm2_5":15.5,"no2":6.7,"co":224.0,"o3":44.0,"so2":5.3,"mosquito_risk":10,"arthritis_risk":0,"migraine_risk":4,"frizz_risk":1,"updated_at":"2026-07-14T23:35:41.360259+05:30"},{"city":"Bangalore","state":"Karnataka","latitude":12.9716,"longitude":77.5946,"temp":23.5,"humidity":69,"rain":0.0,"pressure":912.2,"uv_index":8.55,"wind_gusts":40.3,"aqi":59,"pm10":21.9,"pm2_5":17.1,"no2":22.4,"co":389.0,"o3":48.0,"so2":6.6,"mosquito_risk":3,"arthritis_risk":5,"migraine_risk":7,"frizz_risk":1,"updated_at":"2026-07-14T23:35:41.360274+05:30"},{"city":"Hyderabad","state":"Telangana","latitude":17.385,"longitude":78.4867,"temp":28.2,"humidity":62,"rain":0.0,"pressure":951.6,"uv_index":8.05,"wind_gusts":47.5,"aqi":63,"pm10":30.0,"pm2_5":23.1,"no2":18.2,"co":536.0,"o3":46.0,"so2":6.8,"mosquito_risk":7,"arthritis_risk":5,"migraine_risk":7,"frizz_risk":1,"updated_at":"2026-07-14T23:35:41.360285+05:30"},{"city":"Chennai","state":"Tamil Nadu","latitude":13.0827,"longitude":80.2707,"temp":30.8,"humidity":70,"rain":0.0,"pressure":1004.8,"uv_index":8.25,"wind_gusts":37.1,"aqi":93,"pm10":34.7,"pm2_5":23.7,"no2":10.8,"co":256.0,"o3":101.0,"so2":6.4,"mosquito_risk":3,"arthritis_risk":5,"migraine_risk":4,"frizz_risk":1,"updated_at":"2026-07-14T23:35:41.360294+05:30"},{"city":"Kolkata","state":"West Bengal","latitude":22.5726,"longitude":88.3639,"temp":27.7,"humidity":93,"rain":0.0,"pressure":999.9,"uv_index":8.7,"wind_gusts":27.4,"aqi":132,"pm10":96.6,"pm2_5":95.0,"no2":54.2,"co":1364.0,"o3":9.0,"so2":25.4,"mosquito_risk":7,"arthritis_risk":5,"migraine_risk":7,"frizz_risk":1,"updated_at":"2026-07-14T23:35:41.360302+05:30"},{"city":"Pune","state":"Maharashtra","latitude":18.5204,"longitude":73.8567,"temp":23.5,"humidity":87,"rain":0.0,"pressure":947.8,"uv_index":8.4,"wind_gusts":47.9,"aqi":57,"pm10":20.5,"pm2_5":11.5,"no2":10.5,"co":171.0,"o3":35.0,"so2":7.6,"mosquito_risk":3,"arthritis_risk":5,"migraine_risk":7,"frizz_risk":1,"updated_at":"2026-07-14T23:35:41.360309+05:30"},{"city":"Ahmedabad","state":"Gujarat","latitude":23.0225,"longitude":72.5714,"temp":29.2,"humidity":73,"rain":0.0,"pressure":999.4,"uv_index":6.1,"wind_gusts":43.9,"aqi":64,"pm10":34.9,"pm2_5":17.5,"no2":8.7,"co":180.0,"o3":41.0,"so2":4.6,"mosquito_risk":7,"arthritis_risk":5,"migraine_risk":7,"frizz_risk":1,"updated_at":"2026-07-14T23:35:41.360316+05:30"},{"city":"Jaipur","state":"Rajasthan","latitude":26.9124,"longitude":75.7873,"temp":29.5,"humidity":60,"rain":0.0,"pressure":955.6,"uv_index":8.1,"wind_gusts":41.0,"aqi":437,"pm10":540.2,"pm2_5":102.9,"no2":11.9,"co":193.0,"o3":45.0,"so2":5.3,"mosquito_risk":4,"arthritis_risk":5,"migraine_risk":7,"frizz_risk":1,"updated_at":"2026-07-14T23:35:41.360323+05:30"},{"city":"Lucknow","state":"Uttar Pradesh","latitude":26.8467,"longitude":80.9462,"temp":29.8,"humidity":75,"rain":0.0,"pressure":987.6,"uv_index":7.8,"wind_gusts":24.5,"aqi":159,"pm10":146.2,"pm2_5":83.1,"no2":35.1,"co":331.0,"o3":36.0,"so2":12.5,"mosquito_risk":7,"arthritis_risk":5,"migraine_risk":7,"frizz_risk":1,"updated_at":"2026-07-14T23:35:41.360335+05:30"},{"city":"Kanpur","state":"Uttar Pradesh","latitude":26.4499,"longitude":80.3319,"temp":30.3,"humidity":68,"rain":0.0,"pressure":986.2,"uv_index":7.55,"wind_gusts":31.0,"aqi":149,"pm10":102.0,"pm2_5":48.1,"no2":15.1,"co":218.0,"o3":56.0,"so2":6.2,"mosquito_risk":3,"arthritis_risk":5,"migraine_risk":7,"frizz_risk":1,"updated_at":"2026-07-14T23:35:41.360343+05:30"},{"city":"Chandigarh","state":"Chandigarh","latitude":30.7333,"longitude":76.7794,"temp":27.7,"humidity":77,"rain":0.0,"pressure":962.6,"uv_index":7.7,"wind_gusts":24.5,"aqi":173,"pm10":129.5,"pm2_5":102.7,"no2":48.5,"co":1199.0,"o3":72.0,"so2":23.4,"mosquito_risk":7,"arthritis_risk":5,"migraine_risk":7,"frizz_risk":1,"updated_at":"2026-07-14T23:35:41.360350+05:30"},{"city":"Srinagar","state":"Jammu and Kashmir","latitude":34.0837,"longitude":74.7973,"temp":19.5,"humidity":89,"rain":0.0,"pressure":837.2,"uv_index":8.85,"wind_gusts":22.0,"aqi":83,"pm10":36.7,"pm2_5":34.5,"no2":35.7,"co":1042.0,"o3":24.0,"so2":3.4,"mosquito_risk":3,"arthritis_risk":10,"migraine_risk":7,"frizz_risk":1,"updated_at":"2026-07-14T23:35:41.360358+05:30"},{"city":"Jammu","state":"Jammu and Kashmir","latitude":32.7266,"longitude":74.857,"temp":27.1,"humidity":87,"rain":0.0,"pressure":966.1,"uv_index":8.25,"wind_gusts":22.7,"aqi":153,"pm10":113.4,"pm2_5":81.3,"no2":67.1,"co":962.0,"o3":29.0,"so2":10.0,"mosquito_risk":7,"arthritis_risk":5,"migraine_risk":7,"frizz_risk":1,"updated_at":"2026-07-14T23:35:41.360367+05:30"},{"city":"Amritsar","state":"Punjab","latitude":31.634,"longitude":74.8723,"temp":29.3,"humidity":80,"rain":0.0,"pressure":974.1,"uv_index":8.2,"wind_gusts":14.8,"aqi":186,"pm10":163.4,"pm2_5":124.3,"no2":71.4,"co":1239.0,"o3":20.0,"so2":12.5,"mosquito_risk":7,"arthritis_risk":5,"migraine_risk":7,"frizz_risk":1,"updated_at":"2026-07-14T23:35:41.360374+05:30"},{"city":"Ludhiana","state":"Punjab","latitude":30.901,"longitude":75.8573,"temp":29.5,"humidity":82,"rain":0.0,"pressure":972.1,"uv_index":7.85,"wind_gusts":24.1,"aqi":188,"pm10":170.9,"pm2_5":137.4,"no2":79.7,"co":1263.0,"o3":28.0,"so2":16.7,"mosquito_risk":7,"arthritis_risk":5,"migraine_risk":7,"frizz_risk":1,"updated_at":"2026-07-14T23:35:41.360380+05:30"},{"city":"Jalandhar","state":"Punjab","latitude":31.326,"longitude":75.5762,"temp":28.9,"humidity":86,"rain":0.0,"pressure":973.1,"uv_index":7.5,"wind_gusts":19.8,"aqi":195,"pm10":239.3,"pm2_5":180.7,"no2":111.0,"co":1629.0,"o3":1.0,"so2":16.9,"mosquito_risk":7,"arthritis_risk":5,"migraine_risk":7,"frizz_risk":1,"updated_at":"2026-07-14T23:35:41.360387+05:30"},{"city":"Dehradun","state":"Uttarakhand","latitude":30.6284,"longitude":78.0322,"temp":18.7,"humidity":99,"rain":0.0,"pressure":827.6,"uv_index":8.1,"wind_gusts":27.0,"aqi":118,"pm10":75.0,"pm2_5":40.5,"no2":38.2,"co":314.0,"o3":52.0,"so2":3.0,"mosquito_risk":3,"arthritis_risk":10,"migraine_risk":7,"frizz_risk":1,"updated_at":"2026-07-14T23:35:41.360396+05:30"},{"city":"Shimla","state":"Himachal Pradesh","latitude":31.1048,"longitude":77.1734,"temp":15.1,"humidity":95,"rain":0.0,"pressure":781.3,"uv_index":7.85,"wind_gusts":32.8,"aqi":152,"pm10":98.3,"pm2_5":66.8,"no2":29.4,"co":471.0,"o3":66.0,"so2":4.5,"mosquito_risk":3,"arthritis_risk":10,"migraine_risk":7,"frizz_risk":0,"updated_at":"2026-07-14T23:35:41.360403+05:30"},{"city":"Manali","state":"Himachal Pradesh","latitude":32.2396,"longitude":77.1887,"temp":18.8,"humidity":93,"rain":0.0,"pressure":816.9,"uv_index":9.55,"wind_gusts":31.7,"aqi":64,"pm10":38.4,"pm2_5":29.2,"no2":59.6,"co":256.0,"o3":47.0,"so2":0.0,"mosquito_risk":3,"arthritis_risk":10,"migraine_risk":7,"frizz_risk":1,"updated_at":"2026-07-14T23:35:41.360412+05:30"},{"city":"Gurgaon","state":"Haryana","latitude":28.4595,"longitude":77.0266,"temp":30.3,"humidity":65,"rain":0.0,"pressure":975.4,"uv_index":6.8,"wind_gusts":34.2,"aqi":356,"pm10":142.0,"pm2_5":67.1,"no2":39.3,"co":613.0,"o3":44.0,"so2":16.2,"mosquito_risk":3,"arthritis_risk":5,"migraine_risk":7,"frizz_risk":1,"updated_at":"2026-07-14T23:35:41.360419+05:30"},{"city":"Noida","state":"Uttar Pradesh","latitude":28.5355,"longitude":77.391,"temp":30.4,"humidity":72,"rain":0.0,"pressure":978.4,"uv_index":7.05,"wind_gusts":30.6,"aqi":356,"pm10":142.0,"pm2_5":67.1,"no2":39.3,"co":806.0,"o3":44.0,"so2":16.2,"mosquito_risk":3,"arthritis_risk":5,"migraine_risk":7,"frizz_risk":1,"updated_at":"2026-07-14T23:35:41.360426+05:30"},{"city":"Ghaziabad","state":"Uttar Pradesh","latitude":28.6692,"longitude":77.4538,"temp":30.4,"humidity":74,"rain":0.0,"pressure":976.5,"uv_index":7.25,"wind_gusts":30.6,"aqi":205,"pm10":203.5,"pm2_5":94.3,"no2":46.4,"co":353.0,"o3":33.0,"so2":22.6,"mosquito_risk":3,"arthritis_risk":5,"migraine_risk":7,"frizz_risk":1,"updated_at":"2026-07-14T23:35:41.360432+05:30"},{"city":"Faridabad","state":"Haryana","latitude":28.4089,"longitude":77.3178,"temp":30.9,"humidity":63,"rain":0.0,"pressure":977.7,"uv_index":7.45,"wind_gusts":43.9,"aqi":356,"pm10":142.0,"pm2_5":67.1,"no2":39.3,"co":662.0,"o3":44.0,"so2":16.2,"mosquito_risk":3,"arthritis_risk":5,"migraine_risk":7,"frizz_risk":1,"updated_at":"2026-07-14T23:35:41.360438+05:30"},{"city":"Meerut","state":"Uttar Pradesh","latitude":28.9845,"longitude":77.7064,"temp":30.0,"humidity":78,"rain":0.0,"pressure":975.4,"uv_index":7.55,"wind_gusts":29.9,"aqi":205,"pm10":203.5,"pm2_5":94.3,"no2":46.4,"co":806.0,"o3":33.0,"so2":22.6,"mosquito_risk":7,"arthritis_risk":5,"migraine_risk":7,"frizz_risk":1,"updated_at":"2026-07-14T23:35:41.360445+05:30"},{"city":"Agra","state":"Uttar Pradesh","latitude":27.1767,"longitude":78.0081,"temp":30.6,"humidity":66,"rain":0.0,"pressure":982.1,"uv_index":7.95,"wind_gusts":28.4,"aqi":153,"pm10":147.6,"pm2_5":51.1,"no2":13.3,"co":202.0,"o3":58.0,"so2":5.7,"mosquito_risk":3,"arthritis_risk":5,"migraine_risk":7,"frizz_risk":1,"updated_at":"2026-07-14T23:35:41.360451+05:30"},{"city":"Varanasi","state":"Uttar Pradesh","latitude":25.3176,"longitude":82.9739,"temp":30.3,"humidity":78,"rain":0.0,"pressure":992.0,"uv_index":6.5,"wind_gusts":22.3,"aqi":154,"pm10":184.4,"pm2_5":99.0,"no2":43.6,"co":1050.0,"o3":40.0,"so2":20.3,"mosquito_risk":3,"arthritis_risk":5,"migraine_risk":7,"frizz_risk":1,"updated_at":"2026-07-14T23:35:41.360458+05:30"},{"city":"Prayagraj","state":"Uttar Pradesh","latitude":25.4358,"longitude":81.8463,"temp":31.0,"humidity":66,"rain":0.0,"pressure":990.6,"uv_index":7.7,"wind_gusts":29.2,"aqi":152,"pm10":134.1,"pm2_5":71.7,"no2":28.1,"co":347.0,"o3":46.0,"so2":11.7,"mosquito_risk":3,"arthritis_risk":5,"migraine_risk":7,"frizz_risk":1,"updated_at":"2026-07-14T23:35:41.360465+05:30"},{"city":"Gorakhpur","state":"Uttar Pradesh","latitude":26.7606,"longitude":83.3732,"temp":27.2,"humidity":92,"rain":0.1,"pressure":991.8,"uv_index":7.75,"wind_gusts":32.0,"aqi":156,"pm10":117.1,"pm2_5":78.2,"no2":27.9,"co":645.0,"o3":58.0,"so2":12.6,"mosquito_risk":10,"arthritis_risk":5,"migraine_risk":7,"frizz_risk":1,"updated_at":"2026-07-14T23:35:41.360473+05:30"},{"city":"Bareilly","state":"Uttar Pradesh","latitude":28.367,"longitude":79.4304,"temp":29.6,"humidity":84,"rain":0.0,"pressure":980.9,"uv_index":8.0,"wind_gusts":28.8,"aqi":181,"pm10":197.4,"pm2_5":94.5,"no2":19.9,"co":283.0,"o3":84.0,"so2":11.3,"mosquito_risk":7,"arthritis_risk":5,"migraine_risk":7,"frizz_risk":1,"updated_at":"2026-07-14T23:35:41.360481+05:30"},{"city":"Aligarh","state":"Uttar Pradesh","latitude":27.8974,"longitude":78.088,"temp":30.1,"humidity":70,"rain":0.0,"pressure":979.6,"uv_index":7.8,"wind_gusts":46.1,"aqi":236,"pm10":150.4,"pm2_5":71.9,"no2":24.3,"co":322.0,"o3":52.0,"so2":8.6,"mosquito_risk":3,"arthritis_risk":5,"migraine_risk":7,"frizz_risk":1,"updated_at":"2026-07-14T23:35:41.360488+05:30"},{"city":"Moradabad","state":"Uttar Pradesh","latitude":28.8386,"longitude":78.7733,"temp":28.9,"humidity":86,"rain":0.0,"pressure":977.6,"uv_index":7.5,"wind_gusts":30.2,"aqi":193,"pm10":259.8,"pm2_5":107.1,"no2":19.5,"co":1035.0,"o3":92.0,"so2":13.4,"mosquito_risk":7,"arthritis_risk":5,"migraine_risk":7,"frizz_risk":1,"updated_at":"2026-07-14T23:35:41.360494+05:30"},{"city":"Saharanpur","state":"Uttar Pradesh","latitude":29.9637,"longitude":77.546,"temp":29.9,"humidity":80,"rain":0.0,"pressure":969.7,"uv_index":7.35,"wind_gusts":30.6,"aqi":192,"pm10":252.4,"pm2_5":156.5,"no2":88.2,"co":740.0,"o3":23.0,"so2":32.0,"mosquito_risk":7,"arthritis_risk":5,"migraine_risk":7,"frizz_risk":1,"updated_at":"2026-07-14T23:35:41.360500+05:30"},{"city":"Jhansi","state":"Uttar Pradesh","latitude":25.4484,"longitude":78.5685,"temp":29.5,"humidity":69,"rain":0.0,"pressure":973.6,"uv_index":8.4,"wind_gusts":41.4,"aqi":105,"pm10":80.1,"pm2_5":40.4,"no2":10.8,"co":209.0,"o3":53.0,"so2":6.0,"mosquito_risk":7,"arthritis_risk":5,"migraine_risk":7,"frizz_risk":1,"updated_at":"2026-07-14T23:35:44.726216+05:30"},{"city":"Surat","state":"Gujarat","latitude":21.1702,"longitude":72.8311,"temp":26.9,"humidity":87,"rain":0.1,"pressure":1005.5,"uv_index":4.3,"wind_gusts":53.6,"aqi":71,"pm10":23.6,"pm2_5":15.9,"no2":20.3,"co":313.0,"o3":27.0,"so2":32.0,"mosquito_risk":10,"arthritis_risk":5,"migraine_risk":0,"frizz_risk":1,"updated_at":"2026-07-14T23:35:44.726249+05:30"},{"city":"Vadodara","state":"Gujarat","latitude":22.3072,"longitude":73.1812,"temp":28.6,"humidity":78,"rain":0.0,"pressure":1002.2,"uv_index":5.35,"wind_gusts":48.2,"aqi":64,"pm10":21.8,"pm2_5":14.4,"no2":11.6,"co":157.0,"o3":34.0,"so2":8.3,"mosquito_risk":7,"arthritis_risk":5,"migraine_risk":0,"frizz_risk":1,"updated_at":"2026-07-14T23:35:44.726260+05:30"},{"city":"Rajkot","state":"Gujarat","latitude":22.3039,"longitude":70.8022,"temp":27.4,"humidity":83,"rain":0.0,"pressure":991.8,"uv_index":7.2,"wind_gusts":52.2,"aqi":57,"pm10":18.3,"pm2_5":10.4,"no2":5.3,"co":109.0,"o3":39.0,"so2":4.0,"mosquito_risk":7,"arthritis_risk":5,"migraine_risk":7,"frizz_risk":1,"updated_at":"2026-07-14T23:35:44.726269+05:30"},{"city":"Thane","state":"Maharashtra","latitude":19.2183,"longitude":72.9781,"temp":26.0,"humidity":90,"rain":0.1,"pressure":1007.5,"uv_index":6.9,"wind_gusts":34.9,"aqi":72,"pm10":33.5,"pm2_5":15.5,"no2":6.7,"co":232.0,"o3":44.0,"so2":5.3,"mosquito_risk":10,"arthritis_risk":5,"migraine_risk":4,"frizz_risk":1,"updated_at":"2026-07-14T23:35:44.726277+05:30"},{"city":"Nagpur","state":"Maharashtra","latitude":21.1458,"longitude":79.0882,"temp":28.0,"humidity":61,"rain":0.0,"pressure":970.5,"uv_index":8.15,"wind_gusts":47.9,"aqi":76,"pm10":30.6,"pm2_5":23.1,"no2":14.5,"co":238.0,"o3":50.0,"so2":9.8,"mosquito_risk":7,"arthritis_risk":5,"migraine_risk":7,"frizz_risk":1,"updated_at":"2026-07-14T23:35:44.726286+05:30"},{"city":"Nashik","state":"Maharashtra","latitude":19.9975,"longitude":73.7898,"temp":23.0,"humidity":92,"rain":0.0,"pressure":944.6,"uv_index":7.2,"wind_gusts":50.8,"aqi":58,"pm10":16.4,"pm2_5":8.9,"no2":9.3,"co":140.0,"o3":35.0,"so2":6.0,"mosquito_risk":3,"arthritis_risk":5,"migraine_risk":7,"frizz_risk":1,"updated_at":"2026-07-14T23:35:44.726293+05:30"},{"city":"Aurangabad","state":"Maharashtra","latitude":19.8762,"longitude":75.3433,"temp":24.1,"humidity":81,"rain":0.0,"pressure":943.1,"uv_index":7.7,"wind_gusts":50.4,"aqi":61,"pm10":22.6,"pm2_5":14.2,"no2":8.5,"co":164.0,"o3":55.0,"so2":10.6,"mosquito_risk":3,"arthritis_risk":5,"migraine_risk":7,"frizz_risk":1,"updated_at":"2026-07-14T23:35:44.726301+05:30"},{"city":"Solapur","state":"Maharashtra","latitude":17.6599,"longitude":75.9064,"temp":26.6,"humidity":63,"rain":0.0,"pressure":956.9,"uv_index":8.5,"wind_gusts":38.9,"aqi":59,"pm10":23.7,"pm2_5":16.2,"no2":5.9,"co":151.0,"o3":52.0,"so2":2.7,"mosquito_risk":7,"arthritis_risk":5,"migraine_risk":7,"frizz_risk":1,"updated_at":"2026-07-14T23:35:44.726309+05:30"},{"city":"Kolhapur","state":"Maharashtra","latitude":16.705,"longitude":74.2433,"temp":22.5,"humidity":94,"rain":0.0,"pressure":948.6,"uv_index":8.8,"wind_gusts":43.9,"aqi":55,"pm10":23.2,"pm2_5":13.7,"no2":6.8,"co":161.0,"o3":37.0,"so2":3.1,"mosquito_risk":3,"arthritis_risk":5,"migraine_risk":7,"frizz_risk":1,"updated_at":"2026-07-14T23:35:44.726317+05:30"},{"city":"Goa","state":"Goa","latitude":15.2993,"longitude":74.124,"temp":26.0,"humidity":90,"rain":0.0,"pressure":999.4,"uv_index":7.65,"wind_gusts":31.3,"aqi":71,"pm10":45.2,"pm2_5":25.9,"no2":7.2,"co":566.0,"o3":43.0,"so2":2.3,"mosquito_risk":7,"arthritis_risk":5,"migraine_risk":7,"frizz_risk":1,"updated_at":"2026-07-14T23:35:44.726325+05:30"},{"city":"Jodhpur","state":"Rajasthan","latitude":26.2389,"longitude":73.0243,"temp":31.1,"humidity":55,"rain":0.0,"pressure":978.3,"uv_index":8.2,"wind_gusts":47.5,"aqi":195,"pm10":193.7,"pm2_5":51.7,"no2":6.5,"co":128.0,"o3":50.0,"so2":2.3,"mosquito_risk":0,"arthritis_risk":5,"migraine_risk":7,"frizz_risk":1,"updated_at":"2026-07-14T23:35:44.726333+05:30"},{"city":"Udaipur","state":"Rajasthan","latitude":24.5854,"longitude":73.7125,"temp":26.4,"humidity":72,"rain":0.0,"pressure":943.3,"uv_index":8.1,"wind_gusts":47.9,"aqi":72,"pm10":53.3,"pm2_5":25.0,"no2":7.3,"co":123.0,"o3":56.0,"so2":4.3,"mosquito_risk":7,"arthritis_risk":5,"migraine_risk":7,"frizz_risk":1,"updated_at":"2026-07-14T23:35:44.726341+05:30"},{"city":"Kota","state":"Rajasthan","latitude":25.2138,"longitude":75.8648,"temp":30.0,"humidity":60,"rain":0.0,"pressure":974.8,"uv_index":8.3,"wind_gusts":38.5,"aqi":88,"pm10":41.3,"pm2_5":24.3,"no2":8.2,"co":177.0,"o3":65.0,"so2":6.5,"mosquito_risk":4,"arthritis_risk":5,"migraine_risk":7,"frizz_risk":1,"updated_at":"2026-07-14T23:35:44.726349+05:30"},{"city":"Bikaner","state":"Rajasthan","latitude":28.0229,"longitude":73.3119,"temp":32.9,"humidity":47,"rain":0.0,"pressure":975.7,"uv_index":8.4,"wind_gusts":39.6,"aqi":170,"pm10":354.8,"pm2_5":99.0,"no2":2.9,"co":127.0,"o3":62.0,"so2":3.1,"mosquito_risk":0,"arthritis_risk":5,"migraine_risk":7,"frizz_risk":1,"updated_at":"2026-07-14T23:35:44.726356+05:30"},{"city":"Ajmer","state":"Rajasthan","latitude":26.4499,"longitude":74.6399,"temp":28.2,"humidity":61,"rain":0.0,"pressure":950.6,"uv_index":8.25,"wind_gusts":56.2,"aqi":102,"pm10":66.1,"pm2_5":29.5,"no2":7.5,"co":186.0,"o3":51.0,"so2":4.0,"mosquito_risk":7,"arthritis_risk":5,"migraine_risk":7,"frizz_risk":1,"updated_at":"2026-07-14T23:35:44.726364+05:30"},{"city":"Gwalior","state":"Madhya Pradesh","latitude":26.2183,"longitude":78.1828,"temp":29.5,"humidity":72,"rain":0.0,"pressure":978.2,"uv_index":8.05,"wind_gusts":42.5,"aqi":110,"pm10":84.1,"pm2_5":39.0,"no2":10.5,"co":162.0,"o3":48.0,"so2":3.2,"mosquito_risk":7,"arthritis_risk":5,"migraine_risk":7,"frizz_risk":1,"updated_at":"2026-07-14T23:35:44.726371+05:30"},{"city":"Indore","state":"Madhya Pradesh","latitude":22.7196,"longitude":75.8577,"temp":24.9,"humidity":82,"rain":0.0,"pressure":945.7,"uv_index":8.4,"wind_gusts":52.2,"aqi":67,"pm10":25.3,"pm2_5":18.6,"no2":9.4,"co":239.0,"o3":64.0,"so2":8.5,"mosquito_risk":3,"arthritis_risk":5,"migraine_risk":7,"frizz_risk":1,"updated_at":"2026-07-14T23:35:44.726378+05:30"},{"city":"Bhopal","state":"Madhya Pradesh","latitude":23.2599,"longitude":77.4126,"temp":26.1,"humidity":68,"rain":0.0,"pressure":950.7,"uv_index":8.55,"wind_gusts":42.1,"aqi":75,"pm10":30.6,"pm2_5":22.0,"no2":10.7,"co":260.0,"o3":52.0,"so2":4.3,"mosquito_risk":7,"arthritis_risk":5,"migraine_risk":7,"frizz_risk":1,"updated_at":"2026-07-14T23:35:44.726386+05:30"},{"city":"Jabalpur","state":"Madhya Pradesh","latitude":23.1815,"longitude":79.9864,"temp":26.6,"humidity":74,"rain":0.0,"pressure":958.2,"uv_index":8.1,"wind_gusts":38.2,"aqi":91,"pm10":49.6,"pm2_5":30.9,"no2":8.7,"co":250.0,"o3":59.0,"so2":4.5,"mosquito_risk":7,"arthritis_risk":5,"migraine_risk":7,"frizz_risk":1,"updated_at":"2026-07-14T23:35:44.726393+05:30"},{"city":"Ujjain","state":"Madhya Pradesh","latitude":23.1765,"longitude":75.7885,"temp":25.6,"humidity":78,"rain":0.0,"pressure":951.4,"uv_index":8.5,"wind_gusts":50.8,"aqi":67,"pm10":24.9,"pm2_5":17.9,"no2":7.3,"co":205.0,"o3":62.0,"so2":7.1,"mosquito_risk":7,"arthritis_risk":5,"migraine_risk":7,"frizz_risk":1,"updated_at":"2026-07-14T23:35:44.726401+05:30"},{"city":"Visakhapatnam","state":"Andhra Pradesh","latitude":17.6868,"longitude":83.2185,"temp":30.7,"humidity":67,"rain":0.0,"pressure":998.5,"uv_index":8.5,"wind_gusts":26.3,"aqi":137,"pm10":48.5,"pm2_5":36.1,"no2":39.8,"co":320.0,"o3":42.0,"so2":51.7,"mosquito_risk":3,"arthritis_risk":5,"migraine_risk":7,"frizz_risk":1,"updated_at":"2026-07-14T23:35:44.726409+05:30"},{"city":"Vijayawada","state":"Andhra Pradesh","latitude":16.5062,"longitude":80.648,"temp":30.7,"humidity":55,"rain":0.0,"pressure":999.4,"uv_index":6.65,"wind_gusts":48.6,"aqi":79,"pm10":37.7,"pm2_5":30.4,"no2":17.8,"co":217.0,"o3":43.0,"so2":9.7,"mosquito_risk":0,"arthritis_risk":5,"migraine_risk":7,"frizz_risk":1,"updated_at":"2026-07-14T23:35:44.726416+05:30"},{"city":"Guntur","state":"Andhra Pradesh","latitude":16.3067,"longitude":80.4365,"temp":30.6,"humidity":56,"rain":0.0,"pressure":1000.8,"uv_index":6.35,"wind_gusts":49.3,"aqi":71,"pm10":38.0,"pm2_5":31.3,"no2":19.9,"co":260.0,"o3":39.0,"so2":9.6,"mosquito_risk":0,"arthritis_risk":5,"migraine_risk":4,"frizz_risk":1,"updated_at":"2026-07-14T23:35:44.726423+05:30"},{"city":"Nellore","state":"Andhra Pradesh","latitude":14.4426,"longitude":79.9865,"temp":31.3,"humidity":46,"rain":0.0,"pressure":1003.1,"uv_index":8.25,"wind_gusts":48.2,"aqi":68,"pm10":32.6,"pm2_5":24.6,"no2":9.6,"co":336.0,"o3":90.0,"so2":4.0,"mosquito_risk":0,"arthritis_risk":5,"migraine_risk":4,"frizz_risk":1,"updated_at":"2026-07-14T23:35:44.726431+05:30"},{"city":"Kurnool","state":"Andhra Pradesh","latitude":15.8281,"longitude":78.0373,"temp":31.6,"humidity":44,"rain":0.0,"pressure":975.6,"uv_index":7.3,"wind_gusts":43.2,"aqi":60,"pm10":24.2,"pm2_5":16.8,"no2":9.3,"co":210.0,"o3":66.0,"so2":6.1,"mosquito_risk":0,"arthritis_risk":5,"migraine_risk":7,"frizz_risk":1,"updated_at":"2026-07-14T23:35:44.726439+05:30"},{"city":"Kakinada","state":"Andhra Pradesh","latitude":16.9891,"longitude":82.2475,"temp":30.7,"humidity":68,"rain":0.0,"pressure":1003.2,"uv_index":8.15,"wind_gusts":52.6,"aqi":93,"pm10":43.2,"pm2_5":27.9,"no2":8.8,"co":248.0,"o3":76.0,"so2":8.5,"mosquito_risk":3,"arthritis_risk":5,"migraine_risk":4,"frizz_risk":1,"updated_at":"2026-07-14T23:35:44.726447+05:30"},{"city":"Tirupati","state":"Andhra Pradesh","latitude":13.6288,"longitude":79.4192,"temp":29.5,"humidity":49,"rain":0.0,"pressure":988.9,"uv_index":8.4,"wind_gusts":38.5,"aqi":79,"pm10":76.6,"pm2_5":60.3,"no2":64.5,"co":237.0,"o3":5.0,"so2":8.5,"mosquito_risk":4,"arthritis_risk":5,"migraine_risk":7,"frizz_risk":1,"updated_at":"2026-07-14T23:35:44.726454+05:30"},{"city":"Warangal","state":"Telangana","latitude":17.9689,"longitude":79.5941,"temp":28.6,"humidity":65,"rain":0.0,"pressure":976.2,"uv_index":7.25,"wind_gusts":43.2,"aqi":69,"pm10":28.8,"pm2_5":23.6,"no2":11.1,"co":242.0,"o3":58.0,"so2":5.7,"mosquito_risk":7,"arthritis_risk":5,"migraine_risk":7,"frizz_risk":1,"updated_at":"2026-07-14T23:35:44.726462+05:30"},{"city":"Nizamabad","state":"Telangana","latitude":18.6725,"longitude":78.0941,"temp":27.2,"humidity":64,"rain":0.0,"pressure":962.8,"uv_index":5.4,"wind_gusts":43.9,"aqi":67,"pm10":31.4,"pm2_5":24.2,"no2":11.5,"co":246.0,"o3":59.0,"so2":5.9,"mosquito_risk":7,"arthritis_risk":5,"migraine_risk":3,"frizz_risk":1,"updated_at":"2026-07-14T23:35:44.726469+05:30"},{"city":"Mysore","state":"Karnataka","latitude":12.2958,"longitude":76.6396,"temp":21.5,"humidity":96,"rain":0.0,"pressure":929.0,"uv_index":8.9,"wind_gusts":34.2,"aqi":56,"pm10":21.3,"pm2_5":15.9,"no2":15.8,"co":178.0,"o3":44.0,"so2":3.5,"mosquito_risk":3,"arthritis_risk":5,"migraine_risk":7,"frizz_risk":1,"updated_at":"2026-07-14T23:35:44.726476+05:30"},{"city":"Mangalore","state":"Karnataka","latitude":12.9141,"longitude":74.856,"temp":26.5,"humidity":87,"rain":0.0,"pressure":1008.5,"uv_index":8.5,"wind_gusts":38.9,"aqi":62,"pm10":31.3,"pm2_5":19.7,"no2":11.1,"co":226.0,"o3":32.0,"so2":3.7,"mosquito_risk":7,"arthritis_risk":0,"migraine_risk":4,"frizz_risk":1,"updated_at":"2026-07-14T23:35:44.726484+05:30"},{"city":"Hubli-Dharwad","state":"Karnataka","latitude":15.3647,"longitude":75.124,"temp":21.8,"humidity":97,"rain":0.0,"pressure":941.6,"uv_index":9.0,"wind_gusts":44.6,"aqi":54,"pm10":18.0,"pm2_5":11.5,"no2":6.6,"co":157.0,"o3":38.0,"so2":1.9,"mosquito_risk":3,"arthritis_risk":5,"migraine_risk":7,"frizz_risk":1,"updated_at":"2026-07-14T23:35:44.726492+05:30"},{"city":"Belgaum","state":"Karnataka","latitude":15.8497,"longitude":74.4977,"temp":20.7,"humidity":98,"rain":0.0,"pressure":926.2,"uv_index":8.4,"wind_gusts":41.0,"aqi":53,"pm10":18.2,"pm2_5":11.5,"no2":7.8,"co":123.0,"o3":33.0,"so2":2.3,"mosquito_risk":3,"arthritis_risk":5,"migraine_risk":7,"frizz_risk":1,"updated_at":"2026-07-14T23:35:48.084128+05:30"},{"city":"Coimbatore","state":"Tamil Nadu","latitude":11.0168,"longitude":76.9558,"temp":24.4,"humidity":90,"rain":0.0,"pressure":962.1,"uv_index":8.35,"wind_gusts":52.6,"aqi":56,"pm10":19.2,"pm2_5":15.0,"no2":10.1,"co":210.0,"o3":41.0,"so2":4.0,"mosquito_risk":3,"arthritis_risk":5,"migraine_risk":7,"frizz_risk":1,"updated_at":"2026-07-14T23:35:48.084161+05:30"},{"city":"Madurai","state":"Tamil Nadu","latitude":9.9252,"longitude":78.1198,"temp":30.7,"humidity":58,"rain":0.0,"pressure":992.4,"uv_index":8.55,"wind_gusts":29.9,"aqi":75,"pm10":42.8,"pm2_5":30.3,"no2":34.0,"co":284.0,"o3":44.0,"so2":10.7,"mosquito_risk":0,"arthritis_risk":5,"migraine_risk":7,"frizz_risk":1,"updated_at":"2026-07-14T23:35:48.084172+05:30"},{"city":"Trichy","state":"Tamil Nadu","latitude":10.7905,"longitude":78.7047,"temp":30.1,"humidity":68,"rain":0.0,"pressure":999.3,"uv_index":8.65,"wind_gusts":46.4,"aqi":68,"pm10":32.0,"pm2_5":25.4,"no2":27.0,"co":216.0,"o3":33.0,"so2":6.8,"mosquito_risk":3,"arthritis_risk":5,"migraine_risk":7,"frizz_risk":1,"updated_at":"2026-07-14T23:35:48.084182+05:30"},{"city":"Salem","state":"Tamil Nadu","latitude":11.6643,"longitude":78.146,"temp":27.5,"humidity":74,"rain":0.0,"pressure":977.2,"uv_index":8.35,"wind_gusts":28.4,"aqi":72,"pm10":27.6,"pm2_5":21.1,"no2":19.8,"co":362.0,"o3":44.0,"so2":6.8,"mosquito_risk":7,"arthritis_risk":5,"migraine_risk":7,"frizz_risk":1,"updated_at":"2026-07-14T23:35:48.084190+05:30"},{"city":"Tirunelveli","state":"Tamil Nadu","latitude":8.7139,"longitude":77.7567,"temp":29.6,"humidity":63,"rain":0.0,"pressure":1002.6,"uv_index":7.55,"wind_gusts":38.2,"aqi":51,"pm10":17.0,"pm2_5":12.2,"no2":7.7,"co":155.0,"o3":43.0,"so2":2.8,"mosquito_risk":7,"arthritis_risk":5,"migraine_risk":4,"frizz_risk":1,"updated_at":"2026-07-14T23:35:48.084198+05:30"},{"city":"Vellore","state":"Tamil Nadu","latitude":12.9165,"longitude":79.1325,"temp":30.4,"humidity":51,"rain":0.0,"pressure":982.9,"uv_index":8.9,"wind_gusts":42.8,"aqi":76,"pm10":70.8,"pm2_5":55.2,"no2":51.4,"co":286.0,"o3":21.0,"so2":12.0,"mosquito_risk":0,"arthritis_risk":5,"migraine_risk":7,"frizz_risk":1,"updated_at":"2026-07-14T23:35:48.084206+05:30"},{"city":"Erode","state":"Tamil Nadu","latitude":11.341,"longitude":77.7172,"temp":27.9,"humidity":71,"rain":0.0,"pressure":988.6,"uv_index":8.6,"wind_gusts":53.6,"aqi":62,"pm10":27.5,"pm2_5":20.2,"no2":19.6,"co":172.0,"o3":36.0,"so2":4.9,"mosquito_risk":7,"arthritis_risk":5,"migraine_risk":7,"frizz_risk":1,"updated_at":"2026-07-14T23:35:48.084213+05:30"},{"city":"Kochi","state":"Kerala","latitude":9.9312,"longitude":76.2673,"temp":27.4,"humidity":86,"rain":0.0,"pressure":1010.7,"uv_index":8.3,"wind_gusts":42.1,"aqi":58,"pm10":31.7,"pm2_5":23.5,"no2":18.3,"co":126.0,"o3":22.0,"so2":5.3,"mosquito_risk":7,"arthritis_risk":0,"migraine_risk":4,"frizz_risk":1,"updated_at":"2026-07-14T23:35:48.084221+05:30"},{"city":"Thiruvananthapuram","state":"Kerala","latitude":8.5241,"longitude":76.9366,"temp":26.3,"humidity":87,"rain":0.0,"pressure":1010.0,"uv_index":7.95,"wind_gusts":50.8,"aqi":55,"pm10":25.7,"pm2_5":13.9,"no2":4.2,"co":142.0,"o3":47.0,"so2":1.5,"mosquito_risk":7,"arthritis_risk":0,"migraine_risk":4,"frizz_risk":1,"updated_at":"2026-07-14T23:35:48.084228+05:30"},{"city":"Kozhikode","state":"Kerala","latitude":11.2588,"longitude":75.7804,"temp":25.7,"humidity":90,"rain":0.0,"pressure":1009.6,"uv_index":8.15,"wind_gusts":46.4,"aqi":56,"pm10":27.2,"pm2_5":14.0,"no2":2.1,"co":220.0,"o3":53.0,"so2":1.4,"mosquito_risk":7,"arthritis_risk":0,"migraine_risk":4,"frizz_risk":1,"updated_at":"2026-07-14T23:35:48.084236+05:30"},{"city":"Thrissur","state":"Kerala","latitude":10.5276,"longitude":76.2144,"temp":25.9,"humidity":91,"rain":0.0,"pressure":1009.1,"uv_index":7.9,"wind_gusts":43.9,"aqi":56,"pm10":26.1,"pm2_5":17.3,"no2":8.5,"co":256.0,"o3":34.0,"so2":3.3,"mosquito_risk":7,"arthritis_risk":0,"migraine_risk":4,"frizz_risk":1,"updated_at":"2026-07-14T23:35:48.084243+05:30"},{"city":"Kannur","state":"Kerala","latitude":11.8745,"longitude":75.3704,"temp":26.7,"humidity":85,"rain":0.0,"pressure":1008.8,"uv_index":8.4,"wind_gusts":48.2,"aqi":58,"pm10":23.3,"pm2_5":14.8,"no2":10.7,"co":273.0,"o3":32.0,"so2":2.8,"mosquito_risk":7,"arthritis_risk":0,"migraine_risk":4,"frizz_risk":1,"updated_at":"2026-07-14T23:35:48.084251+05:30"},{"city":"Patna","state":"Bihar","latitude":25.5941,"longitude":85.1376,"temp":29.1,"humidity":89,"rain":0.2,"pressure":995.1,"uv_index":7.6,"wind_gusts":19.8,"aqi":155,"pm10":129.0,"pm2_5":89.2,"no2":39.4,"co":465.0,"o3":52.0,"so2":15.9,"mosquito_risk":10,"arthritis_risk":5,"migraine_risk":7,"frizz_risk":1,"updated_at":"2026-07-14T23:35:48.084259+05:30"},{"city":"Gaya","state":"Bihar","latitude":24.7914,"longitude":85.0002,"temp":30.3,"humidity":82,"rain":0.0,"pressure":988.6,"uv_index":8.45,"wind_gusts":21.6,"aqi":160,"pm10":130.9,"pm2_5":88.7,"no2":34.2,"co":322.0,"o3":45.0,"so2":13.6,"mosquito_risk":3,"arthritis_risk":5,"migraine_risk":7,"frizz_risk":1,"updated_at":"2026-07-14T23:35:48.084267+05:30"},{"city":"Muzaffarpur","state":"Bihar","latitude":26.1209,"longitude":85.3647,"temp":28.6,"humidity":89,"rain":0.0,"pressure":995.3,"uv_index":7.55,"wind_gusts":20.9,"aqi":155,"pm10":114.3,"pm2_5":92.0,"no2":40.2,"co":562.0,"o3":48.0,"so2":16.7,"mosquito_risk":7,"arthritis_risk":5,"migraine_risk":7,"frizz_risk":1,"updated_at":"2026-07-14T23:35:48.084273+05:30"},{"city":"Bhagalpur","state":"Bihar","latitude":25.2425,"longitude":87.0117,"temp":28.6,"humidity":96,"rain":0.0,"pressure":996.1,"uv_index":8.2,"wind_gusts":27.7,"aqi":108,"pm10":53.8,"pm2_5":48.3,"no2":21.1,"co":469.0,"o3":72.0,"so2":11.7,"mosquito_risk":7,"arthritis_risk":5,"migraine_risk":7,"frizz_risk":1,"updated_at":"2026-07-14T23:35:48.084281+05:30"},{"city":"Ranchi","state":"Jharkhand","latitude":23.3441,"longitude":85.3096,"temp":25.4,"humidity":85,"rain":0.0,"pressure":933.5,"uv_index":8.75,"wind_gusts":40.0,"aqi":150,"pm10":116.6,"pm2_5":70.3,"no2":30.6,"co":406.0,"o3":37.0,"so2":10.0,"mosquito_risk":7,"arthritis_risk":5,"migraine_risk":7,"frizz_risk":1,"updated_at":"2026-07-14T23:35:48.084288+05:30"},{"city":"Jamshedpur","state":"Jharkhand","latitude":22.8046,"longitude":86.2029,"temp":27.3,"humidity":95,"rain":0.0,"pressure":985.7,"uv_index":6.2,"wind_gusts":31.3,"aqi":154,"pm10":76.4,"pm2_5":57.9,"no2":29.2,"co":981.0,"o3":59.0,"so2":32.2,"mosquito_risk":7,"arthritis_risk":5,"migraine_risk":7,"frizz_risk":1,"updated_at":"2026-07-14T23:35:48.084296+05:30"},{"city":"Dhanbad","state":"Jharkhand","latitude":23.7957,"longitude":86.4304,"temp":26.9,"humidity":94,"rain":0.0,"pressure":974.8,"uv_index":8.8,"wind_gusts":28.8,"aqi":163,"pm10":105.7,"pm2_5":83.1,"no2":64.7,"co":671.0,"o3":22.0,"so2":178.7,"mosquito_risk":7,"arthritis_risk":5,"migraine_risk":7,"frizz_risk":1,"updated_at":"2026-07-14T23:35:48.084303+05:30"},{"city":"Bokaro","state":"Jharkhand","latitude":23.6693,"longitude":86.1511,"temp":26.7,"humidity":100,"rain":0.0,"pressure":978.7,"uv_index":8.7,"wind_gusts":29.5,"aqi":165,"pm10":118.0,"pm2_5":84.3,"no2":49.9,"co":573.0,"o3":32.0,"so2":154.4,"mosquito_risk":7,"arthritis_risk":5,"migraine_risk":7,"frizz_risk":1,"updated_at":"2026-07-14T23:35:48.084311+05:30"},{"city":"Bhubaneswar","state":"Odisha","latitude":20.2961,"longitude":85.8245,"temp":27.1,"humidity":93,"rain":0.0,"pressure":996.7,"uv_index":3.95,"wind_gusts":37.8,"aqi":119,"pm10":57.5,"pm2_5":44.1,"no2":23.5,"co":497.0,"o3":47.0,"so2":15.2,"mosquito_risk":7,"arthritis_risk":5,"migraine_risk":3,"frizz_risk":1,"updated_at":"2026-07-14T23:35:48.084319+05:30"},{"city":"Cuttack","state":"Odisha","latitude":20.4625,"longitude":85.8828,"temp":27.1,"humidity":92,"rain":0.0,"pressure":998.6,"uv_index":2.05,"wind_gusts":29.2,"aqi":119,"pm10":57.5,"pm2_5":44.1,"no2":23.5,"co":293.0,"o3":47.0,"so2":15.2,"mosquito_risk":7,"arthritis_risk":5,"migraine_risk":3,"frizz_risk":1,"updated_at":"2026-07-14T23:35:48.084326+05:30"},{"city":"Rourkela","state":"Odisha","latitude":22.2604,"longitude":84.8536,"temp":26.8,"humidity":93,"rain":0.0,"pressure":980.1,"uv_index":7.8,"wind_gusts":30.2,"aqi":145,"pm10":109.7,"pm2_5":61.2,"no2":20.2,"co":1055.0,"o3":80.0,"so2":23.4,"mosquito_risk":7,"arthritis_risk":5,"migraine_risk":7,"frizz_risk":1,"updated_at":"2026-07-14T23:35:48.084333+05:30"},{"city":"Raipur","state":"Chhattisgarh","latitude":21.2514,"longitude":81.6296,"temp":27.4,"humidity":79,"rain":0.0,"pressure":970.9,"uv_index":8.75,"wind_gusts":33.8,"aqi":126,"pm10":71.5,"pm2_5":44.4,"no2":37.7,"co":487.0,"o3":38.0,"so2":59.1,"mosquito_risk":7,"arthritis_risk":5,"migraine_risk":7,"frizz_risk":1,"updated_at":"2026-07-14T23:35:48.084341+05:30"},{"city":"Bhilai","state":"Chhattisgarh","latitude":21.1938,"longitude":81.3509,"temp":27.8,"humidity":78,"rain":0.0,"pressure":971.6,"uv_index":8.75,"wind_gusts":35.6,"aqi":110,"pm10":63.1,"pm2_5":39.8,"no2":27.2,"co":1017.0,"o3":50.0,"so2":44.3,"mosquito_risk":7,"arthritis_risk":5,"migraine_risk":7,"frizz_risk":1,"updated_at":"2026-07-14T23:35:48.084349+05:30"},{"city":"Guwahati","state":"Assam","latitude":26.1158,"longitude":91.7086,"temp":26.8,"humidity":96,"rain":0.0,"pressure":996.4,"uv_index":8.1,"wind_gusts":25.2,"aqi":52,"pm10":14.5,"pm2_5":14.1,"no2":11.1,"co":294.0,"o3":35.0,"so2":1.5,"mosquito_risk":7,"arthritis_risk":5,"migraine_risk":7,"frizz_risk":1,"updated_at":"2026-07-14T23:35:48.084356+05:30"},{"city":"Agartala","state":"Tripura","latitude":23.8315,"longitude":91.2868,"temp":26.6,"humidity":96,"rain":0.0,"pressure":1001.4,"uv_index":8.65,"wind_gusts":25.2,"aqi":74,"pm10":30.3,"pm2_5":29.5,"no2":21.4,"co":230.0,"o3":31.0,"so2":2.7,"mosquito_risk":7,"arthritis_risk":5,"migraine_risk":4,"frizz_risk":1,"updated_at":"2026-07-14T23:35:48.084364+05:30"},{"city":"Shillong","state":"Meghalaya","latitude":25.5788,"longitude":91.8933,"temp":18.4,"humidity":99,"rain":0.0,"pressure":853.5,"uv_index":8.65,"wind_gusts":25.9,"aqi":57,"pm10":11.6,"pm2_5":11.1,"no2":8.2,"co":371.0,"o3":61.0,"so2":2.5,"mosquito_risk":3,"arthritis_risk":10,"migraine_risk":7,"frizz_risk":1,"updated_at":"2026-07-14T23:35:48.084371+05:30"},{"city":"Imphal","state":"Manipur","latitude":24.817,"longitude":93.9368,"temp":24.3,"humidity":93,"rain":0.1,"pressure":919.6,"uv_index":9.2,"wind_gusts":25.9,"aqi":52,"pm10":14.0,"pm2_5":13.0,"no2":11.5,"co":715.0,"o3":39.0,"so2":1.9,"mosquito_risk":6,"arthritis_risk":5,"migraine_risk":7,"frizz_risk":1,"updated_at":"2026-07-14T23:35:48.084378+05:30"},{"city":"Aizawl","state":"Mizoram","latitude":23.7271,"longitude":92.7176,"temp":20.1,"humidity":100,"rain":0.2,"pressure":888.4,"uv_index":8.95,"wind_gusts":19.8,"aqi":45,"pm10":2.6,"pm2_5":2.4,"no2":4.3,"co":173.0,"o3":45.0,"so2":0.4,"mosquito_risk":6,"arthritis_risk":5,"migraine_risk":7,"frizz_risk":1,"updated_at":"2026-07-14T23:35:48.084386+05:30"},{"city":"Kohima","state":"Nagaland","latitude":25.6701,"longitude":94.1077,"temp":19.7,"humidity":96,"rain":0.0,"pressure":851.9,"uv_index":8.15,"wind_gusts":24.8,"aqi":42,"pm10":9.7,"pm2_5":9.4,"no2":13.6,"co":292.0,"o3":24.0,"so2":1.0,"mosquito_risk":3,"arthritis_risk":10,"migraine_risk":7,"frizz_risk":1,"updated_at":"2026-07-14T23:35:48.084394+05:30"},{"city":"Gangtok","state":"Sikkim","latitude":27.3314,"longitude":88.6138,"temp":18.6,"humidity":92,"rain":0.1,"pressure":835.6,"uv_index":8.7,"wind_gusts":27.7,"aqi":41,"pm10":6.1,"pm2_5":5.7,"no2":10.3,"co":390.0,"o3":69.0,"so2":1.2,"mosquito_risk":6,"arthritis_risk":10,"migraine_risk":7,"frizz_risk":1,"updated_at":"2026-07-14T23:35:48.084401+05:30"},{"city":"Siliguri","state":"West Bengal","latitude":26.7271,"longitude":88.3953,"temp":27.9,"humidity":89,"rain":0.0,"pressure":988.0,"uv_index":8.45,"wind_gusts":27.0,"aqi":69,"pm10":31.9,"pm2_5":29.6,"no2":22.1,"co":1185.0,"o3":63.0,"so2":6.0,"mosquito_risk":7,"arthritis_risk":5,"migraine_risk":7,"frizz_risk":1,"updated_at":"2026-07-14T23:35:51.457794+05:30"},{"city":"Durgapur","state":"West Bengal","latitude":23.5204,"longitude":87.3119,"temp":27.1,"humidity":98,"rain":0.0,"pressure":989.7,"uv_index":7.65,"wind_gusts":26.3,"aqi":161,"pm10":92.0,"pm2_5":77.3,"no2":46.7,"co":491.0,"o3":43.0,"so2":52.8,"mosquito_risk":7,"arthritis_risk":5,"migraine_risk":7,"frizz_risk":1,"updated_at":"2026-07-14T23:35:51.457854+05:30"},{"city":"Asansol","state":"West Bengal","latitude":23.6739,"longitude":86.9524,"temp":26.9,"humidity":96,"rain":0.0,"pressure":988.3,"uv_index":7.4,"wind_gusts":26.3,"aqi":157,"pm10":81.5,"pm2_5":63.1,"no2":51.3,"co":850.0,"o3":33.0,"so2":61.8,"mosquito_risk":7,"arthritis_risk":5,"migraine_risk":7,"frizz_risk":1,"updated_at":"2026-07-14T23:35:51.457868+05:30"},{"city":"Pondicherry","state":"Puducherry","latitude":11.9139,"longitude":79.8145,"temp":29.9,"humidity":74,"rain":0.0,"pressure":1006.9,"uv_index":8.05,"wind_gusts":43.2,"aqi":78,"pm10":25.9,"pm2_5":16.8,"no2":8.7,"co":203.0,"o3":72.0,"so2":5.5,"mosquito_risk":7,"arthritis_risk":5,"migraine_risk":4,"frizz_risk":1,"updated_at":"2026-07-14T23:35:51.457878+05:30"},{"city":"Port Blair","state":"Andaman and Nicobar Islands","latitude":11.6234,"longitude":92.7265,"temp":27.2,"humidity":85,"rain":0.1,"pressure":1006.5,"uv_index":8.3,"wind_gusts":61.2,"aqi":49,"pm10":17.2,"pm2_5":8.7,"no2":0.2,"co":85.0,"o3":50.0,"so2":0.3,"mosquito_risk":10,"arthritis_risk":5,"migraine_risk":4,"frizz_risk":1,"updated_at":"2026-07-14T23:35:51.457888+05:30"},{"city":"Haridwar","state":"Uttarakhand","latitude":29.9457,"longitude":78.1642,"temp":28.0,"humidity":88,"rain":0.0,"pressure":968.0,"uv_index":7.5,"wind_gusts":32.8,"aqi":180,"pm10":220.3,"pm2_5":124.8,"no2":48.7,"co":431.0,"o3":52.0,"so2":21.7,"mosquito_risk":7,"arthritis_risk":5,"migraine_risk":7,"frizz_risk":1,"updated_at":"2026-07-14T23:35:51.457897+05:30"},{"city":"Rishikesh","state":"Uttarakhand","latitude":30.0869,"longitude":78.2676,"temp":26.7,"humidity":87,"rain":0.0,"pressure":961.0,"uv_index":7.6,"wind_gusts":28.4,"aqi":164,"pm10":188.1,"pm2_5":82.9,"no2":12.8,"co":463.0,"o3":110.0,"so2":12.1,"mosquito_risk":7,"arthritis_risk":5,"migraine_risk":7,"frizz_risk":1,"updated_at":"2026-07-14T23:35:51.457907+05:30"},{"city":"Nainital","state":"Uttarakhand","latitude":29.3919,"longitude":79.4542,"temp":16.6,"humidity":99,"rain":0.0,"pressure":802.9,"uv_index":8.5,"wind_gusts":27.7,"aqi":166,"pm10":158.3,"pm2_5":73.3,"no2":18.8,"co":370.0,"o3":70.0,"so2":8.7,"mosquito_risk":3,"arthritis_risk":10,"migraine_risk":7,"frizz_risk":1,"updated_at":"2026-07-14T23:35:51.457916+05:30"},{"city":"Mussoorie","state":"Uttarakhand","latitude":30.4599,"longitude":78.0664,"temp":16.9,"humidity":99,"rain":0.0,"pressure":800.1,"uv_index":8.0,"wind_gusts":38.2,"aqi":161,"pm10":134.6,"pm2_5":74.0,"no2":41.1,"co":416.0,"o3":65.0,"so2":14.4,"mosquito_risk":3,"arthritis_risk":10,"migraine_risk":7,"frizz_risk":1,"updated_at":"2026-07-14T23:35:51.457925+05:30"},{"city":"Dharamshala","state":"Himachal Pradesh","latitude":32.219,"longitude":76.3234,"temp":22.1,"humidity":74,"rain":0.0,"pressure":865.5,"uv_index":8.3,"wind_gusts":30.6,"aqi":75,"pm10":26.1,"pm2_5":17.1,"no2":18.4,"co":419.0,"o3":37.0,"so2":1.0,"mosquito_risk":3,"arthritis_risk":5,"migraine_risk":7,"frizz_risk":1,"updated_at":"2026-07-14T23:35:51.457933+05:30"},{"city":"Dalhousie","state":"Himachal Pradesh","latitude":32.5387,"longitude":75.971,"temp":16.0,"humidity":97,"rain":0.0,"pressure":800.8,"uv_index":8.6,"wind_gusts":31.3,"aqi":153,"pm10":113.2,"pm2_5":71.9,"no2":57.8,"co":648.0,"o3":53.0,"so2":6.2,"mosquito_risk":3,"arthritis_risk":10,"migraine_risk":7,"frizz_risk":0,"updated_at":"2026-07-14T23:35:51.457943+05:30"},{"city":"Patiala","state":"Punjab","latitude":30.3398,"longitude":76.3869,"temp":29.4,"humidity":81,"rain":0.0,"pressure":971.8,"uv_index":7.5,"wind_gusts":45.7,"aqi":191,"pm10":268.2,"pm2_5":134.6,"no2":51.8,"co":854.0,"o3":45.0,"so2":14.7,"mosquito_risk":7,"arthritis_risk":5,"migraine_risk":7,"frizz_risk":1,"updated_at":"2026-07-14T23:35:51.457952+05:30"},{"city":"Bhatinda","state":"Punjab","latitude":30.211,"longitude":74.9455,"temp":32.7,"humidity":56,"rain":0.0,"pressure":977.0,"uv_index":8.2,"wind_gusts":28.1,"aqi":180,"pm10":209.5,"pm2_5":129.9,"no2":79.2,"co":670.0,"o3":21.0,"so2":13.5,"mosquito_risk":0,"arthritis_risk":5,"migraine_risk":7,"frizz_risk":1,"updated_at":"2026-07-14T23:35:51.457961+05:30"},{"city":"Rohtak","state":"Haryana","latitude":28.8955,"longitude":76.6066,"temp":30.4,"humidity":72,"rain":0.0,"pressure":975.9,"uv_index":7.35,"wind_gusts":36.7,"aqi":479,"pm10":136.4,"pm2_5":65.4,"no2":27.1,"co":397.0,"o3":47.0,"so2":5.2,"mosquito_risk":3,"arthritis_risk":5,"migraine_risk":7,"frizz_risk":1,"updated_at":"2026-07-14T23:35:51.457970+05:30"},{"city":"Panipat","state":"Haryana","latitude":29.3909,"longitude":76.9635,"temp":29.6,"humidity":81,"rain":0.0,"pressure":974.1,"uv_index":7.35,"wind_gusts":42.1,"aqi":727,"pm10":168.1,"pm2_5":73.3,"no2":20.3,"co":563.0,"o3":56.0,"so2":4.8,"mosquito_risk":7,"arthritis_risk":5,"migraine_risk":7,"frizz_risk":1,"updated_at":"2026-07-14T23:35:51.457979+05:30"},{"city":"Mathura","state":"Uttar Pradesh","latitude":27.4924,"longitude":77.6737,"temp":30.6,"humidity":67,"rain":0.0,"pressure":981.1,"uv_index":7.9,"wind_gusts":29.9,"aqi":640,"pm10":482.4,"pm2_5":119.0,"no2":27.4,"co":280.0,"o3":37.0,"so2":5.5,"mosquito_risk":3,"arthritis_risk":5,"migraine_risk":7,"frizz_risk":1,"updated_at":"2026-07-14T23:35:51.457988+05:30"},{"city":"Vrindavan","state":"Uttar Pradesh","latitude":27.5823,"longitude":77.7027,"temp":30.8,"humidity":66,"rain":0.0,"pressure":981.4,"uv_index":7.9,"wind_gusts":29.2,"aqi":640,"pm10":482.4,"pm2_5":119.0,"no2":27.4,"co":315.0,"o3":37.0,"so2":5.5,"mosquito_risk":3,"arthritis_risk":5,"migraine_risk":7,"frizz_risk":1,"updated_at":"2026-07-14T23:35:51.457996+05:30"},{"city":"Ayodhya","state":"Uttar Pradesh","latitude":26.7922,"longitude":82.1998,"temp":29.0,"humidity":91,"rain":0.0,"pressure":989.6,"uv_index":7.95,"wind_gusts":34.2,"aqi":164,"pm10":167.2,"pm2_5":85.2,"no2":23.0,"co":767.0,"o3":64.0,"so2":8.8,"mosquito_risk":7,"arthritis_risk":5,"migraine_risk":7,"frizz_risk":1,"updated_at":"2026-07-14T23:35:51.458004+05:30"},{"city":"Ratlam","state":"Madhya Pradesh","latitude":23.3315,"longitude":75.0367,"temp":25.3,"humidity":84,"rain":0.0,"pressure":952.2,"uv_index":8.4,"wind_gusts":50.8,"aqi":65,"pm10":22.2,"pm2_5":15.5,"no2":7.5,"co":140.0,"o3":56.0,"so2":8.5,"mosquito_risk":7,"arthritis_risk":5,"migraine_risk":7,"frizz_risk":1,"updated_at":"2026-07-14T23:35:51.458012+05:30"},{"city":"Sagar","state":"Madhya Pradesh","latitude":23.8388,"longitude":78.7378,"temp":26.6,"humidity":68,"rain":0.0,"pressure":946.9,"uv_index":8.6,"wind_gusts":44.3,"aqi":89,"pm10":30.6,"pm2_5":20.9,"no2":6.9,"co":189.0,"o3":62.0,"so2":3.7,"mosquito_risk":7,"arthritis_risk":5,"migraine_risk":7,"frizz_risk":1,"updated_at":"2026-07-14T23:35:51.458021+05:30"},{"city":"Satna","state":"Madhya Pradesh","latitude":24.6005,"longitude":80.8322,"temp":28.8,"humidity":72,"rain":0.0,"pressure":967.2,"uv_index":6.9,"wind_gusts":41.4,"aqi":108,"pm10":73.8,"pm2_5":35.4,"no2":7.6,"co":170.0,"o3":68.0,"so2":4.6,"mosquito_risk":7,"arthritis_risk":5,"migraine_risk":7,"frizz_risk":1,"updated_at":"2026-07-14T23:35:51.458029+05:30"},{"city":"Akola","state":"Maharashtra","latitude":20.7002,"longitude":77.0082,"temp":28.4,"humidity":65,"rain":0.0,"pressure":973.3,"uv_index":5.35,"wind_gusts":51.1,"aqi":64,"pm10":25.7,"pm2_5":18.2,"no2":11.2,"co":156.0,"o3":55.0,"so2":8.0,"mosquito_risk":7,"arthritis_risk":5,"migraine_risk":3,"frizz_risk":1,"updated_at":"2026-07-14T23:35:51.458038+05:30"},{"city":"Amravati","state":"Maharashtra","latitude":20.9374,"longitude":77.7796,"temp":27.5,"humidity":64,"rain":0.0,"pressure":965.0,"uv_index":7.65,"wind_gusts":50.4,"aqi":64,"pm10":25.7,"pm2_5":18.3,"no2":11.1,"co":182.0,"o3":60.0,"so2":8.1,"mosquito_risk":7,"arthritis_risk":5,"migraine_risk":7,"frizz_risk":1,"updated_at":"2026-07-14T23:35:51.458047+05:30"},{"city":"Latur","state":"Maharashtra","latitude":18.4088,"longitude":76.5604,"temp":25.5,"humidity":63,"rain":0.0,"pressure":938.8,"uv_index":7.15,"wind_gusts":41.0,"aqi":60,"pm10":25.4,"pm2_5":17.5,"no2":5.6,"co":167.0,"o3":64.0,"so2":3.6,"mosquito_risk":7,"arthritis_risk":5,"migraine_risk":7,"frizz_risk":1,"updated_at":"2026-07-14T23:35:51.458056+05:30"},{"city":"Nanded","state":"Maharashtra","latitude":19.1383,"longitude":77.3091,"temp":27.5,"humidity":54,"rain":0.0,"pressure":966.8,"uv_index":8.5,"wind_gusts":41.0,"aqi":67,"pm10":30.3,"pm2_5":23.1,"no2":10.4,"co":291.0,"o3":64.0,"so2":5.3,"mosquito_risk":4,"arthritis_risk":5,"migraine_risk":7,"frizz_risk":1,"updated_at":"2026-07-14T23:35:51.458064+05:30"},{"city":"Gulbarga","state":"Karnataka","latitude":17.3297,"longitude":76.8343,"temp":28.3,"humidity":53,"rain":0.0,"pressure":958.1,"uv_index":8.35,"wind_gusts":44.3,"aqi":59,"pm10":20.3,"pm2_5":14.9,"no2":6.8,"co":169.0,"o3":57.0,"so2":3.0,"mosquito_risk":4,"arthritis_risk":5,"migraine_risk":7,"frizz_risk":1,"updated_at":"2026-07-14T23:35:51.458073+05:30"},{"city":"Bidar","state":"Karnataka","latitude":17.9104,"longitude":77.5199,"temp":26.6,"humidity":59,"rain":0.0,"pressure":934.3,"uv_index":7.25,"wind_gusts":41.0,"aqi":63,"pm10":30.5,"pm2_5":24.0,"no2":18.0,"co":305.0,"o3":43.0,"so2":4.6,"mosquito_risk":4,"arthritis_risk":5,"migraine_risk":7,"frizz_risk":1,"updated_at":"2026-07-14T23:35:51.458081+05:30"},{"city":"Hospet","state":"Karnataka","latitude":15.2689,"longitude":76.3909,"temp":25.4,"humidity":75,"rain":0.0,"pressure":956.3,"uv_index":8.3,"wind_gusts":43.2,"aqi":55,"pm10":21.9,"pm2_5":14.8,"no2":5.8,"co":153.0,"o3":48.0,"so2":2.1,"mosquito_risk":7,"arthritis_risk":5,"migraine_risk":7,"frizz_risk":1,"updated_at":"2026-07-14T23:35:51.458089+05:30"},{"city":"Tirupur","state":"Tamil Nadu","latitude":11.1085,"longitude":77.3411,"temp":25.2,"humidity":86,"rain":0.0,"pressure":975.3,"uv_index":8.35,"wind_gusts":58.0,"aqi":64,"pm10":30.5,"pm2_5":22.7,"no2":23.7,"co":174.0,"o3":29.0,"so2":5.9,"mosquito_risk":7,"arthritis_risk":5,"migraine_risk":7,"frizz_risk":1,"updated_at":"2026-07-14T23:35:51.458097+05:30"},{"city":"Alappuzha","state":"Kerala","latitude":9.4981,"longitude":76.3388,"temp":27.6,"humidity":86,"rain":0.0,"pressure":1010.8,"uv_index":8.05,"wind_gusts":42.1,"aqi":58,"pm10":31.0,"pm2_5":18.2,"no2":9.2,"co":89.0,"o3":42.0,"so2":3.4,"mosquito_risk":7,"arthritis_risk":0,"migraine_risk":4,"frizz_risk":1,"updated_at":"2026-07-14T23:35:51.458106+05:30"},{"city":"Munnar","state":"Kerala","latitude":10.0889,"longitude":77.0595,"temp":18.0,"humidity":99,"rain":0.0,"pressure":857.9,"uv_index":8.6,"wind_gusts":31.0,"aqi":51,"pm10":14.0,"pm2_5":11.7,"no2":11.8,"co":159.0,"o3":27.0,"so2":2.6,"mosquito_risk":3,"arthritis_risk":10,"migraine_risk":7,"frizz_risk":1,"updated_at":"2026-07-14T23:35:51.458115+05:30"},{"city":"Silchar","state":"Assam","latitude":24.8333,"longitude":92.7789,"temp":26.6,"humidity":97,"rain":0.3,"pressure":1000.4,"uv_index":8.85,"wind_gusts":19.1,"aqi":77,"pm10":7.7,"pm2_5":7.2,"no2":6.1,"co":190.0,"o3":60.0,"so2":2.3,"mosquito_risk":10,"arthritis_risk":5,"migraine_risk":4,"frizz_risk":1,"updated_at":"2026-07-14T23:35:51.458124+05:30"},{"city":"Dibrugarh","state":"Assam","latitude":27.4728,"longitude":94.912,"temp":27.5,"humidity":95,"rain":0.1,"pressure":990.0,"uv_index":8.6,"wind_gusts":23.4,"aqi":78,"pm10":16.5,"pm2_5":16.3,"no2":12.1,"co":368.0,"o3":41.0,"so2":1.0,"mosquito_risk":10,"arthritis_risk":5,"migraine_risk":7,"frizz_risk":1,"updated_at":"2026-07-14T23:35:51.458132+05:30"}]