[{"city":"Delhi","state":"Delhi","latitude":28.6139,"longitude":77.209,"temp":25.6,"humidity":96,"rain":0.2,"pressure":974.8,"uv_index":5.4,"wind_gusts":29.9,"aqi":128,"pm10":29.9,"pm2_5":29.6,"no2":22.3,"co":538.0,"o3":77.0,"so2":14.9,"mosquito_risk":10,"arthritis_risk":5,"migraine_risk":3,"frizz_risk":1,"updated_at":"2026-07-08T08:24:29.773427+05:30"},{"city":"Mumbai","state":"Maharashtra","latitude":19.076,"longitude":72.8777,"temp":28.8,"humidity":76,"rain":0.1,"pressure":1002.6,"uv_index":5.4,"wind_gusts":57.2,"aqi":55,"pm10":31.1,"pm2_5":16.2,"no2":8.8,"co":312.0,"o3":39.0,"so2":4.4,"mosquito_risk":10,"arthritis_risk":5,"migraine_risk":0,"frizz_risk":1,"updated_at":"2026-07-08T08:24:29.773467+05:30"},{"city":"Bangalore","state":"Karnataka","latitude":12.9716,"longitude":77.5946,"temp":23.5,"humidity":75,"rain":0.0,"pressure":911.0,"uv_index":8.7,"wind_gusts":68.0,"aqi":27,"pm10":5.8,"pm2_5":3.7,"no2":5.1,"co":245.0,"o3":39.0,"so2":2.7,"mosquito_risk":3,"arthritis_risk":5,"migraine_risk":7,"frizz_risk":1,"updated_at":"2026-07-08T08:24:29.773481+05:30"},{"city":"Hyderabad","state":"Telangana","latitude":17.385,"longitude":78.4867,"temp":26.4,"humidity":74,"rain":0.0,"pressure":949.0,"uv_index":7.05,"wind_gusts":59.4,"aqi":25,"pm10":4.1,"pm2_5":3.4,"no2":5.3,"co":188.0,"o3":36.0,"so2":4.9,"mosquito_risk":7,"arthritis_risk":5,"migraine_risk":7,"frizz_risk":1,"updated_at":"2026-07-08T08:24:29.773491+05:30"},{"city":"Chennai","state":"Tamil Nadu","latitude":13.0827,"longitude":80.2707,"temp":31.8,"humidity":50,"rain":0.0,"pressure":1006.1,"uv_index":7.85,"wind_gusts":56.9,"aqi":63,"pm10":20.4,"pm2_5":13.5,"no2":10.2,"co":245.0,"o3":38.0,"so2":9.5,"mosquito_risk":0,"arthritis_risk":5,"migraine_risk":4,"frizz_risk":1,"updated_at":"2026-07-08T08:24:29.773499+05:30"},{"city":"Kolkata","state":"West Bengal","latitude":22.5726,"longitude":88.3639,"temp":28.6,"humidity":87,"rain":0.1,"pressure":1002.2,"uv_index":6.65,"wind_gusts":32.4,"aqi":67,"pm10":32.2,"pm2_5":23.2,"no2":7.3,"co":276.0,"o3":72.0,"so2":8.2,"mosquito_risk":10,"arthritis_risk":5,"migraine_risk":4,"frizz_risk":1,"updated_at":"2026-07-08T08:24:29.773506+05:30"},{"city":"Pune","state":"Maharashtra","latitude":18.5204,"longitude":73.8567,"temp":24.1,"humidity":89,"rain":0.1,"pressure":942.7,"uv_index":7.15,"wind_gusts":55.1,"aqi":23,"pm10":5.0,"pm2_5":3.2,"no2":6.7,"co":174.0,"o3":43.0,"so2":2.8,"mosquito_risk":6,"arthritis_risk":5,"migraine_risk":7,"frizz_risk":1,"updated_at":"2026-07-08T08:24:29.773513+05:30"},{"city":"Ahmedabad","state":"Gujarat","latitude":23.0225,"longitude":72.5714,"temp":28.1,"humidity":88,"rain":0.0,"pressure":994.3,"uv_index":7.1,"wind_gusts":32.0,"aqi":88,"pm10":40.3,"pm2_5":20.2,"no2":7.6,"co":244.0,"o3":44.0,"so2":5.6,"mosquito_risk":7,"arthritis_risk":5,"migraine_risk":7,"frizz_risk":1,"updated_at":"2026-07-08T08:24:29.773519+05:30"},{"city":"Jaipur","state":"Rajasthan","latitude":26.9124,"longitude":75.7873,"temp":28.0,"humidity":78,"rain":0.0,"pressure":951.1,"uv_index":7.45,"wind_gusts":32.0,"aqi":61,"pm10":36.9,"pm2_5":19.9,"no2":11.1,"co":325.0,"o3":79.0,"so2":5.9,"mosquito_risk":7,"arthritis_risk":5,"migraine_risk":7,"frizz_risk":1,"updated_at":"2026-07-08T08:24:29.773529+05:30"},{"city":"Lucknow","state":"Uttar Pradesh","latitude":26.8467,"longitude":80.9462,"temp":29.3,"humidity":80,"rain":0.0,"pressure":984.9,"uv_index":8.2,"wind_gusts":45.4,"aqi":72,"pm10":28.1,"pm2_5":26.6,"no2":12.2,"co":283.0,"o3":70.0,"so2":19.0,"mosquito_risk":7,"arthritis_risk":5,"migraine_risk":7,"frizz_risk":1,"updated_at":"2026-07-08T08:24:29.773538+05:30"},{"city":"Kanpur","state":"Uttar Pradesh","latitude":26.4499,"longitude":80.3319,"temp":28.0,"humidity":87,"rain":0.1,"pressure":982.5,"uv_index":6.6,"wind_gusts":39.6,"aqi":70,"pm10":20.1,"pm2_5":19.3,"no2":10.9,"co":231.0,"o3":67.0,"so2":12.2,"mosquito_risk":10,"arthritis_risk":5,"migraine_risk":7,"frizz_risk":1,"updated_at":"2026-07-08T08:24:29.773545+05:30"},{"city":"Chandigarh","state":"Chandigarh","latitude":30.7333,"longitude":76.7794,"temp":26.7,"humidity":95,"rain":0.2,"pressure":961.9,"uv_index":5.8,"wind_gusts":28.4,"aqi":152,"pm10":39.9,"pm2_5":38.5,"no2":15.7,"co":461.0,"o3":80.0,"so2":11.8,"mosquito_risk":10,"arthritis_risk":5,"migraine_risk":3,"frizz_risk":1,"updated_at":"2026-07-08T08:24:29.773552+05:30"},{"city":"Srinagar","state":"Jammu and Kashmir","latitude":34.0837,"longitude":74.7973,"temp":21.9,"humidity":75,"rain":0.0,"pressure":838.3,"uv_index":9.05,"wind_gusts":23.8,"aqi":76,"pm10":40.6,"pm2_5":35.5,"no2":12.6,"co":650.0,"o3":81.0,"so2":5.0,"mosquito_risk":3,"arthritis_risk":5,"migraine_risk":7,"frizz_risk":1,"updated_at":"2026-07-08T08:24:29.773559+05:30"},{"city":"Jammu","state":"Jammu and Kashmir","latitude":32.7266,"longitude":74.857,"temp":28.2,"humidity":80,"rain":0.0,"pressure":965.6,"uv_index":8.65,"wind_gusts":28.8,"aqi":115,"pm10":27.1,"pm2_5":26.1,"no2":23.0,"co":451.0,"o3":82.0,"so2":3.9,"mosquito_risk":7,"arthritis_risk":5,"migraine_risk":7,"frizz_risk":1,"updated_at":"2026-07-08T08:24:29.773565+05:30"},{"city":"Amritsar","state":"Punjab","latitude":31.634,"longitude":74.8723,"temp":27.8,"humidity":88,"rain":0.0,"pressure":973.0,"uv_index":8.4,"wind_gusts":36.7,"aqi":165,"pm10":329.7,"pm2_5":120.1,"no2":17.9,"co":837.0,"o3":71.0,"so2":12.1,"mosquito_risk":7,"arthritis_risk":5,"migraine_risk":7,"frizz_risk":1,"updated_at":"2026-07-08T08:24:29.773571+05:30"},{"city":"Ludhiana","state":"Punjab","latitude":30.901,"longitude":75.8573,"temp":28.7,"humidity":84,"rain":0.0,"pressure":971.2,"uv_index":7.95,"wind_gusts":28.1,"aqi":159,"pm10":82.2,"pm2_5":54.9,"no2":14.3,"co":495.0,"o3":79.0,"so2":9.7,"mosquito_risk":7,"arthritis_risk":5,"migraine_risk":7,"frizz_risk":1,"updated_at":"2026-07-08T08:24:29.773577+05:30"},{"city":"Jalandhar","state":"Punjab","latitude":31.326,"longitude":75.5762,"temp":27.9,"humidity":89,"rain":0.0,"pressure":972.2,"uv_index":7.55,"wind_gusts":29.9,"aqi":164,"pm10":354.8,"pm2_5":122.0,"no2":18.1,"co":659.0,"o3":68.0,"so2":13.4,"mosquito_risk":7,"arthritis_risk":5,"migraine_risk":7,"frizz_risk":1,"updated_at":"2026-07-08T08:24:29.773583+05:30"},{"city":"Dehradun","state":"Uttarakhand","latitude":30.6284,"longitude":78.0322,"temp":20.5,"humidity":92,"rain":0.0,"pressure":826.6,"uv_index":0.95,"wind_gusts":19.1,"aqi":66,"pm10":12.0,"pm2_5":11.8,"no2":14.1,"co":231.0,"o3":69.0,"so2":2.4,"mosquito_risk":3,"arthritis_risk":5,"migraine_risk":3,"frizz_risk":1,"updated_at":"2026-07-08T08:24:29.773589+05:30"},{"city":"Shimla","state":"Himachal Pradesh","latitude":31.1048,"longitude":77.1734,"temp":16.8,"humidity":99,"rain":0.2,"pressure":780.6,"uv_index":6.55,"wind_gusts":24.1,"aqi":68,"pm10":22.5,"pm2_5":21.0,"no2":7.5,"co":291.0,"o3":107.0,"so2":2.5,"mosquito_risk":6,"arthritis_risk":10,"migraine_risk":7,"frizz_risk":1,"updated_at":"2026-07-08T08:24:29.773595+05:30"},{"city":"Manali","state":"Himachal Pradesh","latitude":32.2396,"longitude":77.1887,"temp":21.7,"humidity":83,"rain":0.1,"pressure":815.8,"uv_index":7.75,"wind_gusts":31.3,"aqi":40,"pm10":3.2,"pm2_5":3.2,"no2":19.1,"co":216.0,"o3":89.0,"so2":0.7,"mosquito_risk":6,"arthritis_risk":5,"migraine_risk":7,"frizz_risk":1,"updated_at":"2026-07-08T08:24:29.773606+05:30"},{"city":"Gurgaon","state":"Haryana","latitude":28.4595,"longitude":77.0266,"temp":25.6,"humidity":96,"rain":0.2,"pressure":973.3,"uv_index":5.05,"wind_gusts":31.7,"aqi":119,"pm10":27.2,"pm2_5":27.0,"no2":26.7,"co":453.0,"o3":72.0,"so2":17.6,"mosquito_risk":10,"arthritis_risk":5,"migraine_risk":3,"frizz_risk":1,"updated_at":"2026-07-08T08:24:29.773612+05:30"},{"city":"Noida","state":"Uttar Pradesh","latitude":28.5355,"longitude":77.391,"temp":25.9,"humidity":95,"rain":0.2,"pressure":976.1,"uv_index":6.0,"wind_gusts":30.2,"aqi":119,"pm10":27.2,"pm2_5":27.0,"no2":26.7,"co":405.0,"o3":72.0,"so2":17.6,"mosquito_risk":10,"arthritis_risk":5,"migraine_risk":3,"frizz_risk":1,"updated_at":"2026-07-08T08:24:29.773618+05:30"},{"city":"Ghaziabad","state":"Uttar Pradesh","latitude":28.6692,"longitude":77.4538,"temp":26.0,"humidity":95,"rain":0.1,"pressure":974.3,"uv_index":5.6,"wind_gusts":28.8,"aqi":117,"pm10":21.4,"pm2_5":21.1,"no2":12.5,"co":311.0,"o3":75.0,"so2":6.0,"mosquito_risk":10,"arthritis_risk":5,"migraine_risk":3,"frizz_risk":1,"updated_at":"2026-07-08T08:24:29.773624+05:30"},{"city":"Faridabad","state":"Haryana","latitude":28.4089,"longitude":77.3178,"temp":25.7,"humidity":95,"rain":0.2,"pressure":975.3,"uv_index":6.4,"wind_gusts":39.2,"aqi":119,"pm10":27.2,"pm2_5":27.0,"no2":26.7,"co":382.0,"o3":72.0,"so2":17.6,"mosquito_risk":10,"arthritis_risk":5,"migraine_risk":7,"frizz_risk":1,"updated_at":"2026-07-08T08:24:29.773630+05:30"},{"city":"Meerut","state":"Uttar Pradesh","latitude":28.9845,"longitude":77.7064,"temp":26.6,"humidity":92,"rain":0.1,"pressure":973.7,"uv_index":4.1,"wind_gusts":34.2,"aqi":117,"pm10":21.4,"pm2_5":21.1,"no2":12.5,"co":370.0,"o3":75.0,"so2":6.0,"mosquito_risk":10,"arthritis_risk":5,"migraine_risk":3,"frizz_risk":1,"updated_at":"2026-07-08T08:24:29.773636+05:30"},{"city":"Agra","state":"Uttar Pradesh","latitude":27.1767,"longitude":78.0081,"temp":26.8,"humidity":88,"rain":0.1,"pressure":977.7,"uv_index":5.95,"wind_gusts":31.7,"aqi":92,"pm10":16.2,"pm2_5":16.2,"no2":14.6,"co":313.0,"o3":71.0,"so2":7.7,"mosquito_risk":10,"arthritis_risk":5,"migraine_risk":3,"frizz_risk":1,"updated_at":"2026-07-08T08:24:29.773642+05:30"},{"city":"Varanasi","state":"Uttar Pradesh","latitude":25.3176,"longitude":82.9739,"temp":30.1,"humidity":74,"rain":0.0,"pressure":990.1,"uv_index":6.1,"wind_gusts":29.2,"aqi":67,"pm10":21.2,"pm2_5":19.2,"no2":18.7,"co":534.0,"o3":47.0,"so2":35.2,"mosquito_risk":3,"arthritis_risk":5,"migraine_risk":7,"frizz_risk":1,"updated_at":"2026-07-08T08:24:29.773648+05:30"},{"city":"Prayagraj","state":"Uttar Pradesh","latitude":25.4358,"longitude":81.8463,"temp":29.7,"humidity":76,"rain":0.0,"pressure":987.8,"uv_index":7.35,"wind_gusts":29.9,"aqi":60,"pm10":21.0,"pm2_5":20.0,"no2":13.1,"co":257.0,"o3":62.0,"so2":19.1,"mosquito_risk":7,"arthritis_risk":5,"migraine_risk":7,"frizz_risk":1,"updated_at":"2026-07-08T08:24:29.773655+05:30"},{"city":"Gorakhpur","state":"Uttar Pradesh","latitude":26.7606,"longitude":83.3732,"temp":28.5,"humidity":88,"rain":0.0,"pressure":990.8,"uv_index":6.3,"wind_gusts":40.0,"aqi":78,"pm10":26.0,"pm2_5":24.3,"no2":9.2,"co":261.0,"o3":88.0,"so2":11.9,"mosquito_risk":7,"arthritis_risk":5,"migraine_risk":7,"frizz_risk":1,"updated_at":"2026-07-08T08:24:29.773661+05:30"},{"city":"Bareilly","state":"Uttar Pradesh","latitude":28.367,"longitude":79.4304,"temp":26.8,"humidity":95,"rain":0.2,"pressure":978.9,"uv_index":5.8,"wind_gusts":47.2,"aqi":73,"pm10":15.8,"pm2_5":15.0,"no2":6.9,"co":313.0,"o3":88.0,"so2":8.6,"mosquito_risk":10,"arthritis_risk":5,"migraine_risk":3,"frizz_risk":1,"updated_at":"2026-07-08T08:24:29.773669+05:30"},{"city":"Aligarh","state":"Uttar Pradesh","latitude":27.8974,"longitude":78.088,"temp":26.2,"humidity":95,"rain":0.1,"pressure":976.3,"uv_index":6.55,"wind_gusts":38.2,"aqi":97,"pm10":18.5,"pm2_5":18.4,"no2":13.6,"co":299.0,"o3":67.0,"so2":8.0,"mosquito_risk":10,"arthritis_risk":5,"migraine_risk":7,"frizz_risk":1,"updated_at":"2026-07-08T08:24:29.773675+05:30"},{"city":"Moradabad","state":"Uttar Pradesh","latitude":28.8386,"longitude":78.7733,"temp":26.8,"humidity":92,"rain":0.0,"pressure":976.1,"uv_index":6.75,"wind_gusts":38.9,"aqi":113,"pm10":17.0,"pm2_5":16.8,"no2":9.2,"co":285.0,"o3":83.0,"so2":8.9,"mosquito_risk":7,"arthritis_risk":5,"migraine_risk":7,"frizz_risk":1,"updated_at":"2026-07-08T08:24:29.773681+05:30"},{"city":"Saharanpur","state":"Uttar Pradesh","latitude":29.9637,"longitude":77.546,"temp":26.4,"humidity":92,"rain":0.3,"pressure":968.6,"uv_index":1.9,"wind_gusts":23.4,"aqi":140,"pm10":41.8,"pm2_5":41.0,"no2":11.8,"co":308.0,"o3":80.0,"so2":3.5,"mosquito_risk":10,"arthritis_risk":5,"migraine_risk":3,"frizz_risk":1,"updated_at":"2026-07-08T08:24:29.773688+05:30"},{"city":"Jhansi","state":"Uttar Pradesh","latitude":25.4484,"longitude":78.5685,"temp":26.7,"humidity":90,"rain":0.1,"pressure":968.2,"uv_index":5.0,"wind_gusts":34.2,"aqi":60,"pm10":8.7,"pm2_5":8.7,"no2":6.8,"co":269.0,"o3":81.0,"so2":3.9,"mosquito_risk":10,"arthritis_risk":5,"migraine_risk":3,"frizz_risk":1,"updated_at":"2026-07-08T08:24:33.039686+05:30"},{"city":"Surat","state":"Gujarat","latitude":21.1702,"longitude":72.8311,"temp":27.0,"humidity":94,"rain":0.3,"pressure":999.4,"uv_index":0.7,"wind_gusts":49.7,"aqi":91,"pm10":35.5,"pm2_5":25.8,"no2":30.3,"co":476.0,"o3":15.0,"so2":47.3,"mosquito_risk":10,"arthritis_risk":5,"migraine_risk":3,"frizz_risk":1,"updated_at":"2026-07-08T08:24:33.039715+05:30"},{"city":"Vadodara","state":"Gujarat","latitude":22.3072,"longitude":73.1812,"temp":27.6,"humidity":94,"rain":0.2,"pressure":996.8,"uv_index":2.35,"wind_gusts":34.6,"aqi":81,"pm10":34.2,"pm2_5":24.7,"no2":17.2,"co":264.0,"o3":27.0,"so2":7.4,"mosquito_risk":10,"arthritis_risk":5,"migraine_risk":3,"frizz_risk":1,"updated_at":"2026-07-08T08:24:33.039725+05:30"},{"city":"Rajkot","state":"Gujarat","latitude":22.3039,"longitude":70.8022,"temp":28.1,"humidity":84,"rain":0.0,"pressure":986.6,"uv_index":6.7,"wind_gusts":46.4,"aqi":73,"pm10":29.2,"pm2_5":14.7,"no2":4.3,"co":121.0,"o3":46.0,"so2":4.7,"mosquito_risk":7,"arthritis_risk":5,"migraine_risk":7,"frizz_risk":1,"updated_at":"2026-07-08T08:24:33.039733+05:30"},{"city":"Thane","state":"Maharashtra","latitude":19.2183,"longitude":72.9781,"temp":26.4,"humidity":91,"rain":0.0,"pressure":1002.2,"uv_index":5.95,"wind_gusts":39.6,"aqi":55,"pm10":31.1,"pm2_5":16.2,"no2":8.8,"co":257.0,"o3":39.0,"so2":4.4,"mosquito_risk":7,"arthritis_risk":5,"migraine_risk":0,"frizz_risk":1,"updated_at":"2026-07-08T08:24:33.039740+05:30"},{"city":"Nagpur","state":"Maharashtra","latitude":21.1458,"longitude":79.0882,"temp":26.4,"humidity":84,"rain":0.0,"pressure":966.3,"uv_index":4.85,"wind_gusts":51.5,"aqi":44,"pm10":11.8,"pm2_5":9.1,"no2":13.2,"co":190.0,"o3":31.0,"so2":13.3,"mosquito_risk":7,"arthritis_risk":5,"migraine_risk":3,"frizz_risk":1,"updated_at":"2026-07-08T08:24:33.039747+05:30"},{"city":"Nashik","state":"Maharashtra","latitude":19.9975,"longitude":73.7898,"temp":23.2,"humidity":93,"rain":0.0,"pressure":939.1,"uv_index":3.35,"wind_gusts":45.0,"aqi":26,"pm10":17.9,"pm2_5":9.1,"no2":4.7,"co":150.0,"o3":47.0,"so2":0.9,"mosquito_risk":3,"arthritis_risk":5,"migraine_risk":3,"frizz_risk":1,"updated_at":"2026-07-08T08:24:33.039754+05:30"},{"city":"Aurangabad","state":"Maharashtra","latitude":19.8762,"longitude":75.3433,"temp":23.1,"humidity":98,"rain":0.4,"pressure":937.2,"uv_index":6.7,"wind_gusts":56.2,"aqi":22,"pm10":3.4,"pm2_5":3.4,"no2":7.8,"co":170.0,"o3":53.0,"so2":4.3,"mosquito_risk":6,"arthritis_risk":5,"migraine_risk":7,"frizz_risk":1,"updated_at":"2026-07-08T08:24:33.039760+05:30"},{"city":"Solapur","state":"Maharashtra","latitude":17.6599,"longitude":75.9064,"temp":26.9,"humidity":74,"rain":0.0,"pressure":952.6,"uv_index":7.05,"wind_gusts":60.1,"aqi":19,"pm10":2.3,"pm2_5":2.1,"no2":2.6,"co":120.0,"o3":44.0,"so2":1.8,"mosquito_risk":7,"arthritis_risk":5,"migraine_risk":7,"frizz_risk":1,"updated_at":"2026-07-08T08:24:33.039767+05:30"},{"city":"Kolhapur","state":"Maharashtra","latitude":16.705,"longitude":74.2433,"temp":24.1,"humidity":92,"rain":0.1,"pressure":944.3,"uv_index":5.35,"wind_gusts":62.6,"aqi":19,"pm10":4.7,"pm2_5":3.5,"no2":4.4,"co":140.0,"o3":37.0,"so2":1.8,"mosquito_risk":6,"arthritis_risk":5,"migraine_risk":3,"frizz_risk":1,"updated_at":"2026-07-08T08:24:33.039774+05:30"},{"city":"Goa","state":"Goa","latitude":15.2993,"longitude":74.124,"temp":25.0,"humidity":97,"rain":0.6,"pressure":996.6,"uv_index":8.45,"wind_gusts":41.8,"aqi":55,"pm10":23.2,"pm2_5":12.0,"no2":1.5,"co":175.0,"o3":42.0,"so2":0.5,"mosquito_risk":10,"arthritis_risk":5,"migraine_risk":7,"frizz_risk":1,"updated_at":"2026-07-08T08:24:33.039780+05:30"},{"city":"Jodhpur","state":"Rajasthan","latitude":26.2389,"longitude":73.0243,"temp":29.6,"humidity":81,"rain":0.0,"pressure":974.4,"uv_index":8.4,"wind_gusts":31.3,"aqi":104,"pm10":259.8,"pm2_5":68.2,"no2":4.3,"co":151.0,"o3":58.0,"so2":4.7,"mosquito_risk":7,"arthritis_risk":5,"migraine_risk":7,"frizz_risk":1,"updated_at":"2026-07-08T08:24:33.039787+05:30"},{"city":"Udaipur","state":"Rajasthan","latitude":24.5854,"longitude":73.7125,"temp":26.3,"humidity":89,"rain":0.1,"pressure":938.3,"uv_index":8.7,"wind_gusts":34.2,"aqi":56,"pm10":46.1,"pm2_5":27.2,"no2":5.9,"co":159.0,"o3":54.0,"so2":4.7,"mosquito_risk":10,"arthritis_risk":5,"migraine_risk":7,"frizz_risk":1,"updated_at":"2026-07-08T08:24:33.039794+05:30"},{"city":"Kota","state":"Rajasthan","latitude":25.2138,"longitude":75.8648,"temp":28.5,"humidity":80,"rain":0.0,"pressure":969.8,"uv_index":3.25,"wind_gusts":48.2,"aqi":56,"pm10":15.5,"pm2_5":13.3,"no2":10.3,"co":291.0,"o3":70.0,"so2":4.5,"mosquito_risk":7,"arthritis_risk":5,"migraine_risk":3,"frizz_risk":1,"updated_at":"2026-07-08T08:24:33.039800+05:30"},{"city":"Bikaner","state":"Rajasthan","latitude":28.0229,"longitude":73.3119,"temp":32.3,"humidity":66,"rain":0.0,"pressure":972.6,"uv_index":8.45,"wind_gusts":62.3,"aqi":115,"pm10":300.8,"pm2_5":108.0,"no2":1.6,"co":144.0,"o3":61.0,"so2":3.2,"mosquito_risk":3,"arthritis_risk":5,"migraine_risk":7,"frizz_risk":1,"updated_at":"2026-07-08T08:24:33.039807+05:30"},{"city":"Ajmer","state":"Rajasthan","latitude":26.4499,"longitude":74.6399,"temp":26.9,"humidity":88,"rain":0.0,"pressure":946.2,"uv_index":8.2,"wind_gusts":47.5,"aqi":58,"pm10":67.5,"pm2_5":29.7,"no2":9.6,"co":195.0,"o3":59.0,"so2":4.6,"mosquito_risk":7,"arthritis_risk":5,"migraine_risk":7,"frizz_risk":1,"updated_at":"2026-07-08T08:24:33.039813+05:30"},{"city":"Gwalior","state":"Madhya Pradesh","latitude":26.2183,"longitude":78.1828,"temp":26.5,"humidity":93,"rain":0.0,"pressure":973.0,"uv_index":3.55,"wind_gusts":43.9,"aqi":70,"pm10":13.6,"pm2_5":13.5,"no2":8.9,"co":269.0,"o3":80.0,"so2":4.4,"mosquito_risk":7,"arthritis_risk":5,"migraine_risk":3,"frizz_risk":1,"updated_at":"2026-07-08T08:24:33.039820+05:30"},{"city":"Indore","state":"Madhya Pradesh","latitude":22.7196,"longitude":75.8577,"temp":24.6,"humidity":95,"rain":0.1,"pressure":940.2,"uv_index":6.5,"wind_gusts":40.7,"aqi":71,"pm10":10.2,"pm2_5":10.2,"no2":9.4,"co":354.0,"o3":66.0,"so2":4.6,"mosquito_risk":6,"arthritis_risk":5,"migraine_risk":7,"frizz_risk":1,"updated_at":"2026-07-08T08:24:33.039826+05:30"},{"city":"Bhopal","state":"Madhya Pradesh","latitude":23.2599,"longitude":77.4126,"temp":25.7,"humidity":88,"rain":0.0,"pressure":945.2,"uv_index":1.4,"wind_gusts":40.0,"aqi":68,"pm10":19.3,"pm2_5":18.3,"no2":9.0,"co":307.0,"o3":66.0,"so2":3.5,"mosquito_risk":7,"arthritis_risk":5,"migraine_risk":3,"frizz_risk":1,"updated_at":"2026-07-08T08:24:33.039832+05:30"},{"city":"Jabalpur","state":"Madhya Pradesh","latitude":23.1815,"longitude":79.9864,"temp":26.3,"humidity":85,"rain":0.1,"pressure":953.3,"uv_index":6.7,"wind_gusts":37.4,"aqi":52,"pm10":7.5,"pm2_5":7.2,"no2":6.3,"co":246.0,"o3":53.0,"so2":7.4,"mosquito_risk":10,"arthritis_risk":5,"migraine_risk":7,"frizz_risk":1,"updated_at":"2026-07-08T08:24:33.039838+05:30"},{"city":"Ujjain","state":"Madhya Pradesh","latitude":23.1765,"longitude":75.7885,"temp":24.9,"humidity":94,"rain":0.1,"pressure":945.8,"uv_index":1.2,"wind_gusts":41.8,"aqi":65,"pm10":12.1,"pm2_5":11.6,"no2":8.0,"co":280.0,"o3":64.0,"so2":4.1,"mosquito_risk":6,"arthritis_risk":5,"migraine_risk":3,"frizz_risk":1,"updated_at":"2026-07-08T08:24:33.039845+05:30"},{"city":"Visakhapatnam","state":"Andhra Pradesh","latitude":17.6868,"longitude":83.2185,"temp":30.4,"humidity":71,"rain":0.0,"pressure":1000.0,"uv_index":8.85,"wind_gusts":51.5,"aqi":74,"pm10":38.1,"pm2_5":28.3,"no2":17.2,"co":343.0,"o3":70.0,"so2":37.3,"mosquito_risk":3,"arthritis_risk":5,"migraine_risk":4,"frizz_risk":1,"updated_at":"2026-07-08T08:24:33.039851+05:30"},{"city":"Vijayawada","state":"Andhra Pradesh","latitude":16.5062,"longitude":80.648,"temp":31.6,"humidity":57,"rain":0.0,"pressure":999.6,"uv_index":6.05,"wind_gusts":51.8,"aqi":61,"pm10":15.2,"pm2_5":11.1,"no2":5.0,"co":132.0,"o3":44.0,"so2":5.3,"mosquito_risk":0,"arthritis_risk":5,"migraine_risk":7,"frizz_risk":1,"updated_at":"2026-07-08T08:24:33.039857+05:30"},{"city":"Guntur","state":"Andhra Pradesh","latitude":16.3067,"longitude":80.4365,"temp":32.1,"humidity":53,"rain":0.0,"pressure":1000.9,"uv_index":7.45,"wind_gusts":55.1,"aqi":59,"pm10":10.8,"pm2_5":8.0,"no2":4.7,"co":127.0,"o3":43.0,"so2":4.8,"mosquito_risk":0,"arthritis_risk":5,"migraine_risk":4,"frizz_risk":1,"updated_at":"2026-07-08T08:24:33.039864+05:30"},{"city":"Nellore","state":"Andhra Pradesh","latitude":14.4426,"longitude":79.9865,"temp":31.5,"humidity":52,"rain":0.0,"pressure":1003.9,"uv_index":8.8,"wind_gusts":50.8,"aqi":46,"pm10":8.6,"pm2_5":5.3,"no2":3.5,"co":122.0,"o3":45.0,"so2":2.8,"mosquito_risk":0,"arthritis_risk":5,"migraine_risk":4,"frizz_risk":1,"updated_at":"2026-07-08T08:24:33.039871+05:30"},{"city":"Kurnool","state":"Andhra Pradesh","latitude":15.8281,"longitude":78.0373,"temp":28.6,"humidity":64,"rain":0.0,"pressure":974.5,"uv_index":6.85,"wind_gusts":59.4,"aqi":23,"pm10":3.4,"pm2_5":2.5,"no2":3.0,"co":104.0,"o3":40.0,"so2":3.6,"mosquito_risk":7,"arthritis_risk":5,"migraine_risk":7,"frizz_risk":1,"updated_at":"2026-07-08T08:24:33.039878+05:30"},{"city":"Kakinada","state":"Andhra Pradesh","latitude":16.9891,"longitude":82.2475,"temp":31.1,"humidity":62,"rain":0.0,"pressure":1004.1,"uv_index":7.2,"wind_gusts":51.1,"aqi":67,"pm10":23.8,"pm2_5":15.0,"no2":5.4,"co":177.0,"o3":56.0,"so2":5.1,"mosquito_risk":3,"arthritis_risk":5,"migraine_risk":4,"frizz_risk":1,"updated_at":"2026-07-08T08:24:33.039885+05:30"},{"city":"Tirupati","state":"Andhra Pradesh","latitude":13.6288,"longitude":79.4192,"temp":30.5,"humidity":53,"rain":0.0,"pressure":989.9,"uv_index":8.45,"wind_gusts":50.8,"aqi":40,"pm10":7.6,"pm2_5":5.0,"no2":3.8,"co":113.0,"o3":49.0,"so2":2.0,"mosquito_risk":0,"arthritis_risk":5,"migraine_risk":7,"frizz_risk":1,"updated_at":"2026-07-08T08:24:33.039890+05:30"},{"city":"Warangal","state":"Telangana","latitude":17.9689,"longitude":79.5941,"temp":28.5,"humidity":69,"rain":0.0,"pressure":974.5,"uv_index":6.05,"wind_gusts":53.3,"aqi":39,"pm10":8.5,"pm2_5":6.3,"no2":5.0,"co":145.0,"o3":40.0,"so2":4.6,"mosquito_risk":7,"arthritis_risk":5,"migraine_risk":7,"frizz_risk":1,"updated_at":"2026-07-08T08:24:33.039897+05:30"},{"city":"Nizamabad","state":"Telangana","latitude":18.6725,"longitude":78.0941,"temp":27.5,"humidity":73,"rain":0.0,"pressure":958.9,"uv_index":7.9,"wind_gusts":59.0,"aqi":22,"pm10":4.0,"pm2_5":3.4,"no2":3.9,"co":142.0,"o3":38.0,"so2":2.1,"mosquito_risk":7,"arthritis_risk":5,"migraine_risk":7,"frizz_risk":1,"updated_at":"2026-07-08T08:24:33.039903+05:30"},{"city":"Mysore","state":"Karnataka","latitude":12.2958,"longitude":76.6396,"temp":23.8,"humidity":79,"rain":0.0,"pressure":928.7,"uv_index":6.7,"wind_gusts":59.8,"aqi":25,"pm10":4.4,"pm2_5":2.8,"no2":3.2,"co":113.0,"o3":39.0,"so2":1.5,"mosquito_risk":3,"arthritis_risk":5,"migraine_risk":7,"frizz_risk":1,"updated_at":"2026-07-08T08:24:33.039909+05:30"},{"city":"Mangalore","state":"Karnataka","latitude":12.9141,"longitude":74.856,"temp":25.0,"humidity":96,"rain":0.4,"pressure":1007.7,"uv_index":8.7,"wind_gusts":59.8,"aqi":63,"pm10":23.9,"pm2_5":12.8,"no2":5.0,"co":179.0,"o3":32.0,"so2":1.7,"mosquito_risk":10,"arthritis_risk":5,"migraine_risk":4,"frizz_risk":1,"updated_at":"2026-07-08T08:24:33.039916+05:30"},{"city":"Hubli-Dharwad","state":"Karnataka","latitude":15.3647,"longitude":75.124,"temp":23.6,"humidity":87,"rain":0.0,"pressure":938.4,"uv_index":7.65,"wind_gusts":64.4,"aqi":19,"pm10":5.0,"pm2_5":3.0,"no2":2.6,"co":113.0,"o3":39.0,"so2":0.8,"mosquito_risk":3,"arthritis_risk":5,"migraine_risk":7,"frizz_risk":1,"updated_at":"2026-07-08T08:24:33.039922+05:30"},{"city":"Belgaum","state":"Karnataka","latitude":15.8497,"longitude":74.4977,"temp":22.6,"humidity":94,"rain":0.1,"pressure":922.7,"uv_index":1.95,"wind_gusts":66.2,"aqi":19,"pm10":3.2,"pm2_5":2.1,"no2":3.1,"co":105.0,"o3":35.0,"so2":1.0,"mosquito_risk":6,"arthritis_risk":5,"migraine_risk":3,"frizz_risk":1,"updated_at":"2026-07-08T08:24:36.297670+05:30"},{"city":"Coimbatore","state":"Tamil Nadu","latitude":11.0168,"longitude":76.9558,"temp":24.2,"humidity":84,"rain":0.0,"pressure":962.4,"uv_index":8.6,"wind_gusts":58.7,"aqi":40,"pm10":9.3,"pm2_5":6.1,"no2":3.6,"co":182.0,"o3":41.0,"so2":2.4,"mosquito_risk":3,"arthritis_risk":5,"migraine_risk":7,"frizz_risk":1,"updated_at":"2026-07-08T08:24:36.297701+05:30"},{"city":"Madurai","state":"Tamil Nadu","latitude":9.9252,"longitude":78.1198,"temp":30.6,"humidity":53,"rain":0.0,"pressure":993.5,"uv_index":8.7,"wind_gusts":38.5,"aqi":69,"pm10":43.1,"pm2_5":26.5,"no2":14.4,"co":186.0,"o3":34.0,"so2":5.0,"mosquito_risk":0,"arthritis_risk":5,"migraine_risk":7,"frizz_risk":1,"updated_at":"2026-07-08T08:24:36.297713+05:30"},{"city":"Trichy","state":"Tamil Nadu","latitude":10.7905,"longitude":78.7047,"temp":30.8,"humidity":57,"rain":0.0,"pressure":1000.1,"uv_index":8.7,"wind_gusts":62.3,"aqi":55,"pm10":14.4,"pm2_5":9.6,"no2":3.9,"co":109.0,"o3":42.0,"so2":2.8,"mosquito_risk":0,"arthritis_risk":5,"migraine_risk":4,"frizz_risk":1,"updated_at":"2026-07-08T08:24:36.297721+05:30"},{"city":"Salem","state":"Tamil Nadu","latitude":11.6643,"longitude":78.146,"temp":26.8,"humidity":74,"rain":0.0,"pressure":978.1,"uv_index":8.4,"wind_gusts":40.0,"aqi":58,"pm10":29.5,"pm2_5":20.2,"no2":11.8,"co":242.0,"o3":37.0,"so2":9.2,"mosquito_risk":7,"arthritis_risk":5,"migraine_risk":7,"frizz_risk":1,"updated_at":"2026-07-08T08:24:36.297730+05:30"},{"city":"Tirunelveli","state":"Tamil Nadu","latitude":8.7139,"longitude":77.7567,"temp":30.5,"humidity":56,"rain":0.0,"pressure":1004.3,"uv_index":7.9,"wind_gusts":63.0,"aqi":58,"pm10":15.5,"pm2_5":10.3,"no2":4.6,"co":130.0,"o3":38.0,"so2":2.3,"mosquito_risk":0,"arthritis_risk":5,"migraine_risk":4,"frizz_risk":1,"updated_at":"2026-07-08T08:24:36.297737+05:30"},{"city":"Vellore","state":"Tamil Nadu","latitude":12.9165,"longitude":79.1325,"temp":29.2,"humidity":57,"rain":0.0,"pressure":983.7,"uv_index":8.8,"wind_gusts":51.5,"aqi":42,"pm10":9.0,"pm2_5":6.1,"no2":3.7,"co":117.0,"o3":46.0,"so2":2.5,"mosquito_risk":4,"arthritis_risk":5,"migraine_risk":7,"frizz_risk":1,"updated_at":"2026-07-08T08:24:36.297744+05:30"},{"city":"Erode","state":"Tamil Nadu","latitude":11.341,"longitude":77.7172,"temp":28.2,"humidity":64,"rain":0.0,"pressure":989.8,"uv_index":8.4,"wind_gusts":40.3,"aqi":57,"pm10":18.3,"pm2_5":13.2,"no2":8.2,"co":165.0,"o3":35.0,"so2":3.8,"mosquito_risk":7,"arthritis_risk":5,"migraine_risk":7,"frizz_risk":1,"updated_at":"2026-07-08T08:24:36.297751+05:30"},{"city":"Kochi","state":"Kerala","latitude":9.9312,"longitude":76.2673,"temp":26.1,"humidity":89,"rain":0.0,"pressure":1011.0,"uv_index":6.9,"wind_gusts":40.7,"aqi":69,"pm10":20.0,"pm2_5":13.9,"no2":8.6,"co":139.0,"o3":34.0,"so2":3.9,"mosquito_risk":7,"arthritis_risk":0,"migraine_risk":4,"frizz_risk":1,"updated_at":"2026-07-08T08:24:36.297759+05:30"},{"city":"Thiruvananthapuram","state":"Kerala","latitude":8.5241,"longitude":76.9366,"temp":26.2,"humidity":90,"rain":0.0,"pressure":1010.1,"uv_index":8.45,"wind_gusts":54.7,"aqi":54,"pm10":21.5,"pm2_5":9.7,"no2":2.6,"co":112.0,"o3":42.0,"so2":1.2,"mosquito_risk":7,"arthritis_risk":0,"migraine_risk":4,"frizz_risk":1,"updated_at":"2026-07-08T08:24:36.297766+05:30"},{"city":"Kozhikode","state":"Kerala","latitude":11.2588,"longitude":75.7804,"temp":25.0,"humidity":94,"rain":0.1,"pressure":1010.1,"uv_index":7.55,"wind_gusts":41.0,"aqi":63,"pm10":19.6,"pm2_5":8.3,"no2":1.5,"co":184.0,"o3":42.0,"so2":1.3,"mosquito_risk":10,"arthritis_risk":0,"migraine_risk":4,"frizz_risk":1,"updated_at":"2026-07-08T08:24:36.297772+05:30"},{"city":"Thrissur","state":"Kerala","latitude":10.5276,"longitude":76.2144,"temp":25.1,"humidity":93,"rain":0.1,"pressure":1009.4,"uv_index":8.15,"wind_gusts":38.9,"aqi":67,"pm10":25.8,"pm2_5":16.4,"no2":6.3,"co":227.0,"o3":40.0,"so2":2.9,"mosquito_risk":10,"arthritis_risk":0,"migraine_risk":4,"frizz_risk":1,"updated_at":"2026-07-08T08:24:36.297780+05:30"},{"city":"Kannur","state":"Kerala","latitude":11.8745,"longitude":75.3704,"temp":24.9,"humidity":96,"rain":0.2,"pressure":1008.8,"uv_index":8.25,"wind_gusts":42.1,"aqi":59,"pm10":15.7,"pm2_5":7.5,"no2":5.1,"co":184.0,"o3":33.0,"so2":1.8,"mosquito_risk":6,"arthritis_risk":0,"migraine_risk":4,"frizz_risk":1,"updated_at":"2026-07-08T08:24:36.297787+05:30"},{"city":"Patna","state":"Bihar","latitude":25.5941,"longitude":85.1376,"temp":30.2,"humidity":79,"rain":0.0,"pressure":994.6,"uv_index":7.45,"wind_gusts":31.3,"aqi":86,"pm10":29.5,"pm2_5":26.6,"no2":12.6,"co":354.0,"o3":71.0,"so2":10.2,"mosquito_risk":3,"arthritis_risk":5,"migraine_risk":7,"frizz_risk":1,"updated_at":"2026-07-08T08:24:36.297795+05:30"},{"city":"Gaya","state":"Bihar","latitude":24.7914,"longitude":85.0002,"temp":30.5,"humidity":72,"rain":0.0,"pressure":988.0,"uv_index":8.35,"wind_gusts":30.2,"aqi":64,"pm10":13.5,"pm2_5":12.1,"no2":6.4,"co":218.0,"o3":70.0,"so2":7.2,"mosquito_risk":3,"arthritis_risk":5,"migraine_risk":7,"frizz_risk":1,"updated_at":"2026-07-08T08:24:36.297801+05:30"},{"city":"Muzaffarpur","state":"Bihar","latitude":26.1209,"longitude":85.3647,"temp":29.0,"humidity":85,"rain":0.0,"pressure":995.0,"uv_index":7.7,"wind_gusts":32.0,"aqi":77,"pm10":31.7,"pm2_5":29.5,"no2":13.1,"co":281.0,"o3":74.0,"so2":13.3,"mosquito_risk":7,"arthritis_risk":5,"migraine_risk":7,"frizz_risk":1,"updated_at":"2026-07-08T08:24:36.297808+05:30"},{"city":"Bhagalpur","state":"Bihar","latitude":25.2425,"longitude":87.0117,"temp":27.5,"humidity":93,"rain":0.1,"pressure":996.4,"uv_index":8.4,"wind_gusts":24.5,"aqi":86,"pm10":46.4,"pm2_5":42.7,"no2":22.4,"co":403.0,"o3":53.0,"so2":40.4,"mosquito_risk":10,"arthritis_risk":5,"migraine_risk":7,"frizz_risk":1,"updated_at":"2026-07-08T08:24:36.297814+05:30"},{"city":"Ranchi","state":"Jharkhand","latitude":23.3441,"longitude":85.3096,"temp":25.1,"humidity":86,"rain":0.1,"pressure":933.3,"uv_index":7.8,"wind_gusts":45.7,"aqi":62,"pm10":23.2,"pm2_5":18.6,"no2":8.8,"co":165.0,"o3":65.0,"so2":15.7,"mosquito_risk":10,"arthritis_risk":5,"migraine_risk":7,"frizz_risk":1,"updated_at":"2026-07-08T08:24:36.297821+05:30"},{"city":"Jamshedpur","state":"Jharkhand","latitude":22.8046,"longitude":86.2029,"temp":28.4,"humidity":83,"rain":0.0,"pressure":986.7,"uv_index":6.75,"wind_gusts":31.3,"aqi":68,"pm10":31.0,"pm2_5":24.4,"no2":18.0,"co":345.0,"o3":52.0,"so2":23.9,"mosquito_risk":7,"arthritis_risk":5,"migraine_risk":7,"frizz_risk":1,"updated_at":"2026-07-08T08:24:36.297828+05:30"},{"city":"Dhanbad","state":"Jharkhand","latitude":23.7957,"longitude":86.4304,"temp":27.8,"humidity":87,"rain":0.0,"pressure":975.6,"uv_index":7.8,"wind_gusts":33.5,"aqi":100,"pm10":37.3,"pm2_5":34.2,"no2":40.8,"co":1073.0,"o3":27.0,"so2":87.8,"mosquito_risk":7,"arthritis_risk":5,"migraine_risk":7,"frizz_risk":1,"updated_at":"2026-07-08T08:24:36.297835+05:30"},{"city":"Bokaro","state":"Jharkhand","latitude":23.6693,"longitude":86.1511,"temp":28.5,"humidity":80,"rain":0.0,"pressure":979.3,"uv_index":8.2,"wind_gusts":33.1,"aqi":82,"pm10":30.3,"pm2_5":27.2,"no2":25.9,"co":408.0,"o3":39.0,"so2":62.5,"mosquito_risk":7,"arthritis_risk":5,"migraine_risk":7,"frizz_risk":1,"updated_at":"2026-07-08T08:24:36.297842+05:30"},{"city":"Bhubaneswar","state":"Odisha","latitude":20.2961,"longitude":85.8245,"temp":30.0,"humidity":75,"rain":0.0,"pressure":998.6,"uv_index":7.75,"wind_gusts":56.9,"aqi":67,"pm10":31.1,"pm2_5":21.0,"no2":5.5,"co":200.0,"o3":81.0,"so2":7.3,"mosquito_risk":7,"arthritis_risk":5,"migraine_risk":7,"frizz_risk":1,"updated_at":"2026-07-08T08:24:36.297849+05:30"},{"city":"Cuttack","state":"Odisha","latitude":20.4625,"longitude":85.8828,"temp":29.9,"humidity":77,"rain":0.0,"pressure":1000.5,"uv_index":7.8,"wind_gusts":45.7,"aqi":67,"pm10":31.1,"pm2_5":21.0,"no2":5.5,"co":227.0,"o3":81.0,"so2":7.3,"mosquito_risk":7,"arthritis_risk":5,"migraine_risk":4,"frizz_risk":1,"updated_at":"2026-07-08T08:24:36.297855+05:30"},{"city":"Rourkela","state":"Odisha","latitude":22.2604,"longitude":84.8536,"temp":28.8,"humidity":82,"rain":0.0,"pressure":980.2,"uv_index":5.65,"wind_gusts":38.2,"aqi":65,"pm10":27.1,"pm2_5":20.3,"no2":7.3,"co":230.0,"o3":74.0,"so2":11.5,"mosquito_risk":7,"arthritis_risk":5,"migraine_risk":3,"frizz_risk":1,"updated_at":"2026-07-08T08:24:36.297862+05:30"},{"city":"Raipur","state":"Chhattisgarh","latitude":21.2514,"longitude":81.6296,"temp":28.4,"humidity":73,"rain":0.0,"pressure":969.0,"uv_index":7.6,"wind_gusts":55.4,"aqi":59,"pm10":21.0,"pm2_5":17.4,"no2":12.7,"co":153.0,"o3":53.0,"so2":26.6,"mosquito_risk":7,"arthritis_risk":5,"migraine_risk":7,"frizz_risk":1,"updated_at":"2026-07-08T08:24:36.297869+05:30"},{"city":"Bhilai","state":"Chhattisgarh","latitude":21.1938,"longitude":81.3509,"temp":27.9,"humidity":75,"rain":0.0,"pressure":969.2,"uv_index":6.05,"wind_gusts":58.7,"aqi":59,"pm10":20.4,"pm2_5":17.3,"no2":13.2,"co":257.0,"o3":50.0,"so2":28.3,"mosquito_risk":7,"arthritis_risk":5,"migraine_risk":7,"frizz_risk":1,"updated_at":"2026-07-08T08:24:36.297876+05:30"},{"city":"Guwahati","state":"Assam","latitude":26.1158,"longitude":91.7086,"temp":26.7,"humidity":95,"rain":0.0,"pressure":998.0,"uv_index":7.55,"wind_gusts":19.8,"aqi":44,"pm10":13.1,"pm2_5":13.0,"no2":4.9,"co":282.0,"o3":66.0,"so2":3.2,"mosquito_risk":7,"arthritis_risk":5,"migraine_risk":7,"frizz_risk":1,"updated_at":"2026-07-08T08:24:36.297883+05:30"},{"city":"Agartala","state":"Tripura","latitude":23.8315,"longitude":91.2868,"temp":24.8,"humidity":99,"rain":0.3,"pressure":1003.8,"uv_index":1.3,"wind_gusts":38.2,"aqi":44,"pm10":13.4,"pm2_5":11.3,"no2":8.7,"co":141.0,"o3":52.0,"so2":2.4,"mosquito_risk":6,"arthritis_risk":5,"migraine_risk":0,"frizz_risk":1,"updated_at":"2026-07-08T08:24:36.297890+05:30"},{"city":"Shillong","state":"Meghalaya","latitude":25.5788,"longitude":91.8933,"temp":22.4,"humidity":81,"rain":0.0,"pressure":855.8,"uv_index":5.85,"wind_gusts":29.2,"aqi":27,"pm10":4.9,"pm2_5":4.8,"no2":4.7,"co":179.0,"o3":64.0,"so2":3.8,"mosquito_risk":3,"arthritis_risk":5,"migraine_risk":3,"frizz_risk":1,"updated_at":"2026-07-08T08:24:36.297896+05:30"},{"city":"Imphal","state":"Manipur","latitude":24.817,"longitude":93.9368,"temp":24.2,"humidity":91,"rain":0.1,"pressure":921.1,"uv_index":5.65,"wind_gusts":35.3,"aqi":21,"pm10":2.7,"pm2_5":2.7,"no2":4.5,"co":210.0,"o3":47.0,"so2":1.0,"mosquito_risk":6,"arthritis_risk":5,"migraine_risk":3,"frizz_risk":1,"updated_at":"2026-07-08T08:24:36.297903+05:30"},{"city":"Aizawl","state":"Mizoram","latitude":23.7271,"longitude":92.7176,"temp":19.7,"humidity":98,"rain":0.1,"pressure":890.8,"uv_index":3.1,"wind_gusts":42.1,"aqi":26,"pm10":1.0,"pm2_5":0.9,"no2":3.0,"co":113.0,"o3":51.0,"so2":0.6,"mosquito_risk":6,"arthritis_risk":10,"migraine_risk":3,"frizz_risk":1,"updated_at":"2026-07-08T08:24:36.297910+05:30"},{"city":"Kohima","state":"Nagaland","latitude":25.6701,"longitude":94.1077,"temp":20.9,"humidity":96,"rain":0.4,"pressure":853.5,"uv_index":6.85,"wind_gusts":18.7,"aqi":21,"pm10":2.2,"pm2_5":2.1,"no2":4.0,"co":176.0,"o3":51.0,"so2":0.8,"mosquito_risk":6,"arthritis_risk":5,"migraine_risk":7,"frizz_risk":1,"updated_at":"2026-07-08T08:24:36.297918+05:30"},{"city":"Gangtok","state":"Sikkim","latitude":27.3314,"longitude":88.6138,"temp":19.7,"humidity":95,"rain":0.0,"pressure":836.0,"uv_index":2.55,"wind_gusts":25.6,"aqi":44,"pm10":4.2,"pm2_5":4.2,"no2":2.8,"co":260.0,"o3":97.0,"so2":1.5,"mosquito_risk":3,"arthritis_risk":10,"migraine_risk":3,"frizz_risk":1,"updated_at":"2026-07-08T08:24:36.297925+05:30"},{"city":"Siliguri","state":"West Bengal","latitude":26.7271,"longitude":88.3953,"temp":27.4,"humidity":90,"rain":0.0,"pressure":989.2,"uv_index":7.65,"wind_gusts":34.6,"aqi":57,"pm10":17.8,"pm2_5":17.7,"no2":6.1,"co":365.0,"o3":98.0,"so2":3.6,"mosquito_risk":7,"arthritis_risk":5,"migraine_risk":7,"frizz_risk":1,"updated_at":"2026-07-08T08:24:39.565093+05:30"},{"city":"Durgapur","state":"West Bengal","latitude":23.5204,"longitude":87.3119,"temp":27.6,"humidity":93,"rain":0.2,"pressure":990.8,"uv_index":7.55,"wind_gusts":36.4,"aqi":92,"pm10":32.2,"pm2_5":29.3,"no2":30.8,"co":732.0,"o3":36.0,"so2":49.3,"mosquito_risk":10,"arthritis_risk":5,"migraine_risk":7,"frizz_risk":1,"updated_at":"2026-07-08T08:24:39.565122+05:30"},{"city":"Asansol","state":"West Bengal","latitude":23.6739,"longitude":86.9524,"temp":27.2,"humidity":95,"rain":0.1,"pressure":989.2,"uv_index":7.35,"wind_gusts":29.9,"aqi":84,"pm10":27.1,"pm2_5":24.9,"no2":31.9,"co":335.0,"o3":33.0,"so2":45.1,"mosquito_risk":10,"arthritis_risk":5,"migraine_risk":7,"frizz_risk":1,"updated_at":"2026-07-08T08:24:39.565133+05:30"},{"city":"Pondicherry","state":"Puducherry","latitude":11.9139,"longitude":79.8145,"temp":30.5,"humidity":58,"rain":0.0,"pressure":1008.1,"uv_index":8.05,"wind_gusts":44.6,"aqi":65,"pm10":33.3,"pm2_5":22.9,"no2":13.5,"co":271.0,"o3":38.0,"so2":6.5,"mosquito_risk":0,"arthritis_risk":0,"migraine_risk":4,"frizz_risk":1,"updated_at":"2026-07-08T08:24:39.565140+05:30"},{"city":"Port Blair","state":"Andaman and Nicobar Islands","latitude":11.6234,"longitude":92.7265,"temp":29.7,"humidity":71,"rain":0.0,"pressure":1009.5,"uv_index":8.15,"wind_gusts":40.3,"aqi":59,"pm10":29.5,"pm2_5":16.9,"no2":0.2,"co":96.0,"o3":68.0,"so2":0.5,"mosquito_risk":7,"arthritis_risk":0,"migraine_risk":4,"frizz_risk":1,"updated_at":"2026-07-08T08:24:39.565148+05:30"},{"city":"Haridwar","state":"Uttarakhand","latitude":29.9457,"longitude":78.1642,"temp":27.3,"humidity":92,"rain":0.0,"pressure":967.0,"uv_index":4.0,"wind_gusts":19.8,"aqi":121,"pm10":26.8,"pm2_5":26.4,"no2":12.6,"co":328.0,"o3":67.0,"so2":2.4,"mosquito_risk":7,"arthritis_risk":5,"migraine_risk":3,"frizz_risk":1,"updated_at":"2026-07-08T08:24:39.565155+05:30"},{"city":"Rishikesh","state":"Uttarakhand","latitude":30.0869,"longitude":78.2676,"temp":26.4,"humidity":92,"rain":0.0,"pressure":959.8,"uv_index":2.55,"wind_gusts":15.8,"aqi":86,"pm10":17.2,"pm2_5":17.1,"no2":7.6,"co":317.0,"o3":91.0,"so2":1.4,"mosquito_risk":7,"arthritis_risk":5,"migraine_risk":3,"frizz_risk":1,"updated_at":"2026-07-08T08:24:39.565163+05:30"},{"city":"Nainital","state":"Uttarakhand","latitude":29.3919,"longitude":79.4542,"temp":17.8,"humidity":98,"rain":0.0,"pressure":801.6,"uv_index":7.25,"wind_gusts":39.6,"aqi":54,"pm10":6.6,"pm2_5":6.4,"no2":4.4,"co":236.0,"o3":96.0,"so2":3.5,"mosquito_risk":3,"arthritis_risk":10,"migraine_risk":7,"frizz_risk":1,"updated_at":"2026-07-08T08:24:39.565170+05:30"},{"city":"Mussoorie","state":"Uttarakhand","latitude":30.4599,"longitude":78.0664,"temp":18.0,"humidity":98,"rain":0.0,"pressure":799.1,"uv_index":1.85,"wind_gusts":22.3,"aqi":86,"pm10":18.6,"pm2_5":18.0,"no2":11.7,"co":290.0,"o3":80.0,"so2":4.2,"mosquito_risk":3,"arthritis_risk":10,"migraine_risk":3,"frizz_risk":1,"updated_at":"2026-07-08T08:24:39.565177+05:30"},{"city":"Dharamshala","state":"Himachal Pradesh","latitude":32.219,"longitude":76.3234,"temp":22.3,"humidity":94,"rain":0.0,"pressure":864.3,"uv_index":7.75,"wind_gusts":32.8,"aqi":41,"pm10":2.8,"pm2_5":2.7,"no2":3.8,"co":343.0,"o3":98.0,"so2":0.5,"mosquito_risk":3,"arthritis_risk":5,"migraine_risk":7,"frizz_risk":1,"updated_at":"2026-07-08T08:24:39.565184+05:30"},{"city":"Dalhousie","state":"Himachal Pradesh","latitude":32.5387,"longitude":75.971,"temp":17.6,"humidity":98,"rain":0.2,"pressure":800.3,"uv_index":8.65,"wind_gusts":28.8,"aqi":90,"pm10":13.9,"pm2_5":12.8,"no2":9.0,"co":307.0,"o3":100.0,"so2":2.3,"mosquito_risk":6,"arthritis_risk":10,"migraine_risk":7,"frizz_risk":1,"updated_at":"2026-07-08T08:24:39.565191+05:30"},{"city":"Patiala","state":"Punjab","latitude":30.3398,"longitude":76.3869,"temp":27.9,"humidity":88,"rain":0.1,"pressure":970.8,"uv_index":3.8,"wind_gusts":31.3,"aqi":151,"pm10":56.8,"pm2_5":47.1,"no2":12.7,"co":432.0,"o3":83.0,"so2":9.3,"mosquito_risk":10,"arthritis_risk":5,"migraine_risk":3,"frizz_risk":1,"updated_at":"2026-07-08T08:24:39.565198+05:30"},{"city":"Bhatinda","state":"Punjab","latitude":30.211,"longitude":74.9455,"temp":28.9,"humidity":86,"rain":0.0,"pressure":975.3,"uv_index":8.3,"wind_gusts":35.3,"aqi":260,"pm10":774.9,"pm2_5":226.3,"no2":16.9,"co":512.0,"o3":73.0,"so2":15.9,"mosquito_risk":7,"arthritis_risk":5,"migraine_risk":7,"frizz_risk":1,"updated_at":"2026-07-08T08:24:39.565205+05:30"},{"city":"Rohtak","state":"Haryana","latitude":28.8955,"longitude":76.6066,"temp":26.4,"humidity":94,"rain":0.6,"pressure":974.0,"uv_index":6.4,"wind_gusts":30.2,"aqi":147,"pm10":64.7,"pm2_5":39.3,"no2":20.9,"co":375.0,"o3":78.0,"so2":14.8,"mosquito_risk":10,"arthritis_risk":5,"migraine_risk":7,"frizz_risk":1,"updated_at":"2026-07-08T08:24:39.565212+05:30"},{"city":"Panipat","state":"Haryana","latitude":29.3909,"longitude":76.9635,"temp":26.4,"humidity":94,"rain":0.3,"pressure":972.8,"uv_index":3.9,"wind_gusts":34.9,"aqi":135,"pm10":61.5,"pm2_5":36.0,"no2":11.2,"co":378.0,"o3":88.0,"so2":4.4,"mosquito_risk":10,"arthritis_risk":5,"migraine_risk":3,"frizz_risk":1,"updated_at":"2026-07-08T08:24:39.565218+05:30"},{"city":"Mathura","state":"Uttar Pradesh","latitude":27.4924,"longitude":77.6737,"temp":26.4,"humidity":95,"rain":0.1,"pressure":977.3,"uv_index":6.95,"wind_gusts":37.1,"aqi":99,"pm10":13.7,"pm2_5":13.6,"no2":12.6,"co":309.0,"o3":79.0,"so2":4.1,"mosquito_risk":10,"arthritis_risk":5,"migraine_risk":7,"frizz_risk":1,"updated_at":"2026-07-08T08:24:39.565225+05:30"},{"city":"Vrindavan","state":"Uttar Pradesh","latitude":27.5823,"longitude":77.7027,"temp":26.4,"humidity":95,"rain":0.1,"pressure":977.8,"uv_index":7.1,"wind_gusts":36.4,"aqi":99,"pm10":13.7,"pm2_5":13.6,"no2":12.6,"co":306.0,"o3":79.0,"so2":4.1,"mosquito_risk":10,"arthritis_risk":5,"migraine_risk":7,"frizz_risk":1,"updated_at":"2026-07-08T08:24:39.565231+05:30"},{"city":"Ayodhya","state":"Uttar Pradesh","latitude":26.7922,"longitude":82.1998,"temp":29.1,"humidity":84,"rain":0.0,"pressure":987.9,"uv_index":5.65,"wind_gusts":44.3,"aqi":77,"pm10":36.3,"pm2_5":33.2,"no2":11.2,"co":257.0,"o3":77.0,"so2":17.3,"mosquito_risk":7,"arthritis_risk":5,"migraine_risk":3,"frizz_risk":1,"updated_at":"2026-07-08T08:24:39.565238+05:30"},{"city":"Ratlam","state":"Madhya Pradesh","latitude":23.3315,"longitude":75.0367,"temp":24.7,"humidity":94,"rain":0.1,"pressure":946.8,"uv_index":1.95,"wind_gusts":45.4,"aqi":59,"pm10":15.2,"pm2_5":13.7,"no2":8.7,"co":215.0,"o3":55.0,"so2":5.3,"mosquito_risk":6,"arthritis_risk":5,"migraine_risk":3,"frizz_risk":1,"updated_at":"2026-07-08T08:24:39.565245+05:30"},{"city":"Sagar","state":"Madhya Pradesh","latitude":23.8388,"longitude":78.7378,"temp":25.9,"humidity":86,"rain":0.0,"pressure":941.3,"uv_index":4.85,"wind_gusts":30.2,"aqi":56,"pm10":10.8,"pm2_5":10.6,"no2":7.7,"co":243.0,"o3":62.0,"so2":1.5,"mosquito_risk":7,"arthritis_risk":5,"migraine_risk":3,"frizz_risk":1,"updated_at":"2026-07-08T08:24:39.565251+05:30"},{"city":"Satna","state":"Madhya Pradesh","latitude":24.6005,"longitude":80.8322,"temp":27.3,"humidity":85,"rain":0.1,"pressure":962.7,"uv_index":8.1,"wind_gusts":45.4,"aqi":55,"pm10":13.9,"pm2_5":13.8,"no2":5.4,"co":251.0,"o3":79.0,"so2":9.6,"mosquito_risk":10,"arthritis_risk":5,"migraine_risk":7,"frizz_risk":1,"updated_at":"2026-07-08T08:24:39.565258+05:30"},{"city":"Akola","state":"Maharashtra","latitude":20.7002,"longitude":77.0082,"temp":26.6,"humidity":84,"rain":0.0,"pressure":967.7,"uv_index":6.2,"wind_gusts":45.7,"aqi":29,"pm10":6.9,"pm2_5":6.1,"no2":9.1,"co":197.0,"o3":41.0,"so2":7.0,"mosquito_risk":7,"arthritis_risk":5,"migraine_risk":7,"frizz_risk":1,"updated_at":"2026-07-08T08:24:39.565265+05:30"},{"city":"Amravati","state":"Maharashtra","latitude":20.9374,"longitude":77.7796,"temp":26.5,"humidity":82,"rain":0.1,"pressure":960.1,"uv_index":5.55,"wind_gusts":45.0,"aqi":31,"pm10":7.3,"pm2_5":6.0,"no2":8.5,"co":173.0,"o3":39.0,"so2":6.5,"mosquito_risk":10,"arthritis_risk":5,"migraine_risk":3,"frizz_risk":1,"updated_at":"2026-07-08T08:24:39.565273+05:30"},{"city":"Latur","state":"Maharashtra","latitude":18.4088,"longitude":76.5604,"temp":25.0,"humidity":85,"rain":0.1,"pressure":934.3,"uv_index":8.5,"wind_gusts":58.3,"aqi":20,"pm10":2.5,"pm2_5":2.4,"no2":3.3,"co":123.0,"o3":42.0,"so2":1.5,"mosquito_risk":10,"arthritis_risk":5,"migraine_risk":7,"frizz_risk":1,"updated_at":"2026-07-08T08:24:39.565280+05:30"},{"city":"Nanded","state":"Maharashtra","latitude":19.1383,"longitude":77.3091,"temp":27.2,"humidity":78,"rain":0.0,"pressure":962.2,"uv_index":7.3,"wind_gusts":48.2,"aqi":23,"pm10":3.8,"pm2_5":3.5,"no2":5.2,"co":145.0,"o3":43.0,"so2":4.0,"mosquito_risk":7,"arthritis_risk":5,"migraine_risk":7,"frizz_risk":1,"updated_at":"2026-07-08T08:24:39.565287+05:30"},{"city":"Gulbarga","state":"Karnataka","latitude":17.3297,"longitude":76.8343,"temp":27.0,"humidity":72,"rain":0.0,"pressure":954.4,"uv_index":5.6,"wind_gusts":61.9,"aqi":18,"pm10":2.7,"pm2_5":2.0,"no2":3.1,"co":116.0,"o3":42.0,"so2":2.2,"mosquito_risk":7,"arthritis_risk":5,"migraine_risk":3,"frizz_risk":1,"updated_at":"2026-07-08T08:24:39.565293+05:30"},{"city":"Bidar","state":"Karnataka","latitude":17.9104,"longitude":77.5199,"temp":25.6,"humidity":77,"rain":0.0,"pressure":930.6,"uv_index":8.35,"wind_gusts":62.3,"aqi":19,"pm10":3.3,"pm2_5":2.7,"no2":3.7,"co":121.0,"o3":39.0,"so2":2.5,"mosquito_risk":7,"arthritis_risk":5,"migraine_risk":7,"frizz_risk":1,"updated_at":"2026-07-08T08:24:39.565300+05:30"},{"city":"Hospet","state":"Karnataka","latitude":15.2689,"longitude":76.3909,"temp":25.4,"humidity":77,"rain":0.0,"pressure":953.7,"uv_index":6.55,"wind_gusts":64.8,"aqi":18,"pm10":2.2,"pm2_5":1.7,"no2":2.4,"co":99.0,"o3":39.0,"so2":1.4,"mosquito_risk":7,"arthritis_risk":5,"migraine_risk":7,"frizz_risk":1,"updated_at":"2026-07-08T08:24:39.565306+05:30"},{"city":"Tirupur","state":"Tamil Nadu","latitude":11.1085,"longitude":77.3411,"temp":26.3,"humidity":73,"rain":0.0,"pressure":975.9,"uv_index":8.85,"wind_gusts":63.0,"aqi":58,"pm10":20.6,"pm2_5":15.1,"no2":9.7,"co":142.0,"o3":36.0,"so2":4.9,"mosquito_risk":7,"arthritis_risk":5,"migraine_risk":7,"frizz_risk":1,"updated_at":"2026-07-08T08:24:39.565312+05:30"},{"city":"Alappuzha","state":"Kerala","latitude":9.4981,"longitude":76.3388,"temp":26.0,"humidity":92,"rain":0.1,"pressure":1011.2,"uv_index":6.2,"wind_gusts":49.3,"aqi":63,"pm10":17.3,"pm2_5":10.0,"no2":7.0,"co":87.0,"o3":37.0,"so2":2.9,"mosquito_risk":10,"arthritis_risk":0,"migraine_risk":4,"frizz_risk":1,"updated_at":"2026-07-08T08:24:39.565318+05:30"},{"city":"Munnar","state":"Kerala","latitude":10.0889,"longitude":77.0595,"temp":17.1,"humidity":96,"rain":0.0,"pressure":857.6,"uv_index":7.2,"wind_gusts":60.1,"aqi":44,"pm10":4.6,"pm2_5":3.4,"no2":2.8,"co":96.0,"o3":36.0,"so2":1.2,"mosquito_risk":3,"arthritis_risk":10,"migraine_risk":7,"frizz_risk":1,"updated_at":"2026-07-08T08:24:39.565325+05:30"},{"city":"Silchar","state":"Assam","latitude":24.8333,"longitude":92.7789,"temp":26.4,"humidity":93,"rain":0.2,"pressure":1002.5,"uv_index":0.65,"wind_gusts":34.9,"aqi":31,"pm10":5.8,"pm2_5":5.6,"no2":6.6,"co":168.0,"o3":44.0,"so2":2.0,"mosquito_risk":10,"arthritis_risk":5,"migraine_risk":0,"frizz_risk":1,"updated_at":"2026-07-08T08:24:39.565332+05:30"},{"city":"Dibrugarh","state":"Assam","latitude":27.4728,"longitude":94.912,"temp":28.7,"humidity":82,"rain":0.0,"pressure":991.8,"uv_index":7.65,"wind_gusts":30.6,"aqi":48,"pm10":9.4,"pm2_5":8.1,"no2":3.1,"co":169.0,"o3":67.0,"so2":1.1,"mosquito_risk":7,"arthritis_risk":5,"migraine_risk":7,"frizz_risk":1,"updated_at":"2026-07-08T08:24:39.565338+05:30"}]