[{"city":"Delhi","state":"Delhi","latitude":28.6139,"longitude":77.209,"temp":26.9,"humidity":49,"rain":0.0,"pressure":983.8,"uv_index":7.55,"wind_gusts":34.9,"aqi":150,"pm10":428.4,"pm2_5":69.8,"no2":19.6,"co":691.0,"o3":145.0,"so2":19.3,"mosquito_risk":4,"arthritis_risk":5,"migraine_risk":7,"frizz_risk":0,"updated_at":"2026-05-07T08:58:31.039362+05:30"},{"city":"Mumbai","state":"Maharashtra","latitude":19.076,"longitude":72.8777,"temp":30.5,"humidity":66,"rain":0.0,"pressure":1007.5,"uv_index":7.8,"wind_gusts":46.8,"aqi":93,"pm10":104.3,"pm2_5":38.9,"no2":20.4,"co":464.0,"o3":84.0,"so2":45.3,"mosquito_risk":3,"arthritis_risk":5,"migraine_risk":4,"frizz_risk":1,"updated_at":"2026-05-07T08:58:31.039405+05:30"},{"city":"Bangalore","state":"Karnataka","latitude":12.9716,"longitude":77.5946,"temp":25.5,"humidity":68,"rain":0.0,"pressure":912.0,"uv_index":9.5,"wind_gusts":29.5,"aqi":82,"pm10":31.4,"pm2_5":26.8,"no2":11.8,"co":561.0,"o3":82.0,"so2":21.6,"mosquito_risk":7,"arthritis_risk":5,"migraine_risk":7,"frizz_risk":1,"updated_at":"2026-05-07T08:58:31.039420+05:30"},{"city":"Hyderabad","state":"Telangana","latitude":17.385,"longitude":78.4867,"temp":28.8,"humidity":60,"rain":0.0,"pressure":954.2,"uv_index":9.2,"wind_gusts":30.2,"aqi":72,"pm10":20.3,"pm2_5":14.5,"no2":6.1,"co":406.0,"o3":89.0,"so2":5.4,"mosquito_risk":4,"arthritis_risk":5,"migraine_risk":7,"frizz_risk":1,"updated_at":"2026-05-07T08:58:31.039430+05:30"},{"city":"Chennai","state":"Tamil Nadu","latitude":13.0827,"longitude":80.2707,"temp":31.1,"humidity":61,"rain":0.0,"pressure":1007.2,"uv_index":9.25,"wind_gusts":37.8,"aqi":44,"pm10":11.4,"pm2_5":8.2,"no2":8.8,"co":324.0,"o3":51.0,"so2":13.3,"mosquito_risk":3,"arthritis_risk":5,"migraine_risk":4,"frizz_risk":1,"updated_at":"2026-05-07T08:58:31.039441+05:30"},{"city":"Kolkata","state":"West Bengal","latitude":22.5726,"longitude":88.3639,"temp":25.6,"humidity":82,"rain":0.1,"pressure":1009.1,"uv_index":8.9,"wind_gusts":45.4,"aqi":89,"pm10":18.5,"pm2_5":15.5,"no2":5.2,"co":350.0,"o3":81.0,"so2":10.7,"mosquito_risk":10,"arthritis_risk":0,"migraine_risk":4,"frizz_risk":1,"updated_at":"2026-05-07T08:58:31.039449+05:30"},{"city":"Pune","state":"Maharashtra","latitude":18.5204,"longitude":73.8567,"temp":30.1,"humidity":47,"rain":0.0,"pressure":948.1,"uv_index":8.5,"wind_gusts":48.6,"aqi":82,"pm10":65.9,"pm2_5":30.2,"no2":13.6,"co":395.0,"o3":102.0,"so2":16.5,"mosquito_risk":0,"arthritis_risk":5,"migraine_risk":7,"frizz_risk":1,"updated_at":"2026-05-07T08:58:31.039457+05:30"},{"city":"Ahmedabad","state":"Gujarat","latitude":23.0225,"longitude":72.5714,"temp":31.3,"humidity":55,"rain":0.0,"pressure":1001.6,"uv_index":8.1,"wind_gusts":29.9,"aqi":96,"pm10":51.1,"pm2_5":21.6,"no2":6.8,"co":298.0,"o3":77.0,"so2":6.6,"mosquito_risk":0,"arthritis_risk":5,"migraine_risk":4,"frizz_risk":1,"updated_at":"2026-05-07T08:58:31.039465+05:30"},{"city":"Jaipur","state":"Rajasthan","latitude":26.9124,"longitude":75.7873,"temp":27.7,"humidity":42,"rain":0.0,"pressure":960.0,"uv_index":8.1,"wind_gusts":46.4,"aqi":93,"pm10":195.1,"pm2_5":36.6,"no2":7.7,"co":401.0,"o3":108.0,"so2":10.2,"mosquito_risk":4,"arthritis_risk":5,"migraine_risk":7,"frizz_risk":0,"updated_at":"2026-05-07T08:58:31.039472+05:30"},{"city":"Lucknow","state":"Uttar Pradesh","latitude":26.8467,"longitude":80.9462,"temp":26.0,"humidity":64,"rain":0.0,"pressure":996.7,"uv_index":8.0,"wind_gusts":44.3,"aqi":101,"pm10":38.5,"pm2_5":29.6,"no2":8.3,"co":390.0,"o3":107.0,"so2":10.4,"mosquito_risk":7,"arthritis_risk":5,"migraine_risk":7,"frizz_risk":1,"updated_at":"2026-05-07T08:58:31.039479+05:30"},{"city":"Kanpur","state":"Uttar Pradesh","latitude":26.4499,"longitude":80.3319,"temp":25.5,"humidity":63,"rain":0.0,"pressure":995.4,"uv_index":8.05,"wind_gusts":36.4,"aqi":125,"pm10":186.3,"pm2_5":41.4,"no2":7.9,"co":372.0,"o3":113.0,"so2":11.2,"mosquito_risk":7,"arthritis_risk":5,"migraine_risk":7,"frizz_risk":1,"updated_at":"2026-05-07T08:58:31.039485+05:30"},{"city":"Chandigarh","state":"Chandigarh","latitude":30.7333,"longitude":76.7794,"temp":28.2,"humidity":33,"rain":0.0,"pressure":970.4,"uv_index":6.9,"wind_gusts":45.4,"aqi":73,"pm10":36.9,"pm2_5":19.3,"no2":6.2,"co":320.0,"o3":154.0,"so2":7.9,"mosquito_risk":4,"arthritis_risk":5,"migraine_risk":7,"frizz_risk":0,"updated_at":"2026-05-07T08:58:31.039491+05:30"},{"city":"Srinagar","state":"Jammu and Kashmir","latitude":34.0837,"longitude":74.7973,"temp":15.5,"humidity":59,"rain":0.0,"pressure":841.8,"uv_index":8.7,"wind_gusts":27.4,"aqi":58,"pm10":23.1,"pm2_5":14.3,"no2":7.7,"co":428.0,"o3":110.0,"so2":5.0,"mosquito_risk":0,"arthritis_risk":5,"migraine_risk":7,"frizz_risk":0,"updated_at":"2026-05-07T08:58:31.039498+05:30"},{"city":"Jammu","state":"Jammu and Kashmir","latitude":32.7266,"longitude":74.857,"temp":27.8,"humidity":39,"rain":0.0,"pressure":973.8,"uv_index":8.3,"wind_gusts":33.8,"aqi":66,"pm10":21.7,"pm2_5":16.9,"no2":11.2,"co":338.0,"o3":147.0,"so2":5.1,"mosquito_risk":4,"arthritis_risk":5,"migraine_risk":7,"frizz_risk":0,"updated_at":"2026-05-07T08:58:31.039504+05:30"},{"city":"Amritsar","state":"Punjab","latitude":31.634,"longitude":74.8723,"temp":27.1,"humidity":47,"rain":0.0,"pressure":981.4,"uv_index":8.2,"wind_gusts":33.5,"aqi":84,"pm10":49.4,"pm2_5":28.8,"no2":5.7,"co":546.0,"o3":119.0,"so2":10.9,"mosquito_risk":4,"arthritis_risk":5,"migraine_risk":7,"frizz_risk":0,"updated_at":"2026-05-07T08:58:31.039510+05:30"},{"city":"Ludhiana","state":"Punjab","latitude":30.901,"longitude":75.8573,"temp":25.5,"humidity":55,"rain":0.0,"pressure":979.6,"uv_index":7.8,"wind_gusts":34.9,"aqi":118,"pm10":271.9,"pm2_5":60.3,"no2":10.3,"co":627.0,"o3":115.0,"so2":11.1,"mosquito_risk":4,"arthritis_risk":5,"migraine_risk":7,"frizz_risk":0,"updated_at":"2026-05-07T08:58:31.039516+05:30"},{"city":"Jalandhar","state":"Punjab","latitude":31.326,"longitude":75.5762,"temp":25.5,"humidity":54,"rain":0.0,"pressure":980.7,"uv_index":7.95,"wind_gusts":30.2,"aqi":106,"pm10":88.2,"pm2_5":39.0,"no2":10.9,"co":542.0,"o3":112.0,"so2":13.3,"mosquito_risk":4,"arthritis_risk":5,"migraine_risk":7,"frizz_risk":0,"updated_at":"2026-05-07T08:58:31.039522+05:30"},{"city":"Dehradun","state":"Uttarakhand","latitude":30.6284,"longitude":78.0322,"temp":16.8,"humidity":51,"rain":0.0,"pressure":832.0,"uv_index":5.4,"wind_gusts":31.0,"aqi":53,"pm10":20.5,"pm2_5":9.6,"no2":1.6,"co":183.0,"o3":156.0,"so2":2.3,"mosquito_risk":0,"arthritis_risk":5,"migraine_risk":3,"frizz_risk":0,"updated_at":"2026-05-07T08:58:31.039529+05:30"},{"city":"Shimla","state":"Himachal Pradesh","latitude":31.1048,"longitude":77.1734,"temp":15.1,"humidity":45,"rain":0.0,"pressure":785.6,"uv_index":5.35,"wind_gusts":27.4,"aqi":56,"pm10":19.6,"pm2_5":9.1,"no2":2.2,"co":226.0,"o3":151.0,"so2":1.2,"mosquito_risk":0,"arthritis_risk":5,"migraine_risk":3,"frizz_risk":0,"updated_at":"2026-05-07T08:58:31.039535+05:30"},{"city":"Manali","state":"Himachal Pradesh","latitude":32.2396,"longitude":77.1887,"temp":14.0,"humidity":52,"rain":0.0,"pressure":817.6,"uv_index":9.1,"wind_gusts":34.9,"aqi":86,"pm10":41.6,"pm2_5":8.8,"no2":9.6,"co":201.0,"o3":130.0,"so2":0.6,"mosquito_risk":0,"arthritis_risk":5,"migraine_risk":7,"frizz_risk":0,"updated_at":"2026-05-07T08:58:31.039541+05:30"},{"city":"Gurgaon","state":"Haryana","latitude":28.4595,"longitude":77.0266,"temp":27.0,"humidity":47,"rain":0.0,"pressure":982.1,"uv_index":7.65,"wind_gusts":45.7,"aqi":595,"pm10":2108.5,"pm2_5":228.2,"no2":15.0,"co":543.0,"o3":145.0,"so2":15.8,"mosquito_risk":4,"arthritis_risk":5,"migraine_risk":7,"frizz_risk":0,"updated_at":"2026-05-07T08:58:31.039548+05:30"},{"city":"Noida","state":"Uttar Pradesh","latitude":28.5355,"longitude":77.391,"temp":26.3,"humidity":55,"rain":0.0,"pressure":985.5,"uv_index":7.55,"wind_gusts":32.8,"aqi":595,"pm10":2108.5,"pm2_5":228.2,"no2":15.0,"co":512.0,"o3":145.0,"so2":15.8,"mosquito_risk":4,"arthritis_risk":5,"migraine_risk":7,"frizz_risk":1,"updated_at":"2026-05-07T08:58:31.039554+05:30"},{"city":"Ghaziabad","state":"Uttar Pradesh","latitude":28.6692,"longitude":77.4538,"temp":26.5,"humidity":52,"rain":0.0,"pressure":983.9,"uv_index":7.55,"wind_gusts":34.2,"aqi":121,"pm10":272.9,"pm2_5":47.0,"no2":6.4,"co":324.0,"o3":144.0,"so2":9.0,"mosquito_risk":4,"arthritis_risk":5,"migraine_risk":7,"frizz_risk":0,"updated_at":"2026-05-07T08:58:31.039559+05:30"},{"city":"Faridabad","state":"Haryana","latitude":28.4089,"longitude":77.3178,"temp":25.8,"humidity":57,"rain":0.0,"pressure":984.6,"uv_index":7.6,"wind_gusts":35.3,"aqi":595,"pm10":2108.5,"pm2_5":228.2,"no2":15.0,"co":477.0,"o3":145.0,"so2":15.8,"mosquito_risk":4,"arthritis_risk":5,"migraine_risk":7,"frizz_risk":1,"updated_at":"2026-05-07T08:58:31.039565+05:30"},{"city":"Meerut","state":"Uttar Pradesh","latitude":28.9845,"longitude":77.7064,"temp":25.9,"humidity":58,"rain":0.0,"pressure":983.0,"uv_index":7.45,"wind_gusts":36.0,"aqi":121,"pm10":272.9,"pm2_5":47.0,"no2":6.4,"co":426.0,"o3":144.0,"so2":9.0,"mosquito_risk":4,"arthritis_risk":5,"migraine_risk":7,"frizz_risk":1,"updated_at":"2026-05-07T08:58:31.039571+05:30"},{"city":"Agra","state":"Uttar Pradesh","latitude":27.1767,"longitude":78.0081,"temp":26.2,"humidity":58,"rain":0.0,"pressure":989.7,"uv_index":7.9,"wind_gusts":42.1,"aqi":478,"pm10":968.6,"pm2_5":112.0,"no2":7.4,"co":322.0,"o3":125.0,"so2":11.9,"mosquito_risk":4,"arthritis_risk":5,"migraine_risk":7,"frizz_risk":1,"updated_at":"2026-05-07T08:58:31.039577+05:30"},{"city":"Varanasi","state":"Uttar Pradesh","latitude":25.3176,"longitude":82.9739,"temp":27.0,"humidity":69,"rain":0.0,"pressure":999.9,"uv_index":8.6,"wind_gusts":27.0,"aqi":110,"pm10":55.3,"pm2_5":45.3,"no2":9.5,"co":749.0,"o3":129.0,"so2":19.3,"mosquito_risk":7,"arthritis_risk":5,"migraine_risk":7,"frizz_risk":1,"updated_at":"2026-05-07T08:58:31.039583+05:30"},{"city":"Prayagraj","state":"Uttar Pradesh","latitude":25.4358,"longitude":81.8463,"temp":28.5,"humidity":54,"rain":0.0,"pressure":998.1,"uv_index":8.45,"wind_gusts":36.0,"aqi":104,"pm10":56.3,"pm2_5":45.5,"no2":9.3,"co":460.0,"o3":122.0,"so2":14.4,"mosquito_risk":4,"arthritis_risk":5,"migraine_risk":7,"frizz_risk":1,"updated_at":"2026-05-07T08:58:31.039591+05:30"},{"city":"Gorakhpur","state":"Uttar Pradesh","latitude":26.7606,"longitude":83.3732,"temp":25.7,"humidity":71,"rain":0.0,"pressure":1000.9,"uv_index":8.4,"wind_gusts":30.2,"aqi":79,"pm10":39.3,"pm2_5":26.8,"no2":4.1,"co":430.0,"o3":142.0,"so2":6.2,"mosquito_risk":7,"arthritis_risk":5,"migraine_risk":4,"frizz_risk":1,"updated_at":"2026-05-07T08:58:31.039596+05:30"},{"city":"Bareilly","state":"Uttar Pradesh","latitude":28.367,"longitude":79.4304,"temp":25.6,"humidity":66,"rain":0.0,"pressure":989.6,"uv_index":7.55,"wind_gusts":41.4,"aqi":85,"pm10":61.2,"pm2_5":34.3,"no2":8.2,"co":371.0,"o3":109.0,"so2":11.0,"mosquito_risk":7,"arthritis_risk":5,"migraine_risk":7,"frizz_risk":1,"updated_at":"2026-05-07T08:58:31.039602+05:30"},{"city":"Aligarh","state":"Uttar Pradesh","latitude":27.8974,"longitude":78.088,"temp":26.5,"humidity":54,"rain":0.0,"pressure":986.6,"uv_index":7.7,"wind_gusts":32.4,"aqi":206,"pm10":663.1,"pm2_5":70.3,"no2":4.1,"co":282.0,"o3":154.0,"so2":9.7,"mosquito_risk":4,"arthritis_risk":5,"migraine_risk":7,"frizz_risk":1,"updated_at":"2026-05-07T08:58:31.039608+05:30"},{"city":"Moradabad","state":"Uttar Pradesh","latitude":28.8386,"longitude":78.7733,"temp":25.8,"humidity":61,"rain":0.0,"pressure":986.2,"uv_index":7.65,"wind_gusts":38.9,"aqi":111,"pm10":52.6,"pm2_5":31.5,"no2":8.6,"co":358.0,"o3":114.0,"so2":10.3,"mosquito_risk":7,"arthritis_risk":5,"migraine_risk":7,"frizz_risk":1,"updated_at":"2026-05-07T08:58:31.039614+05:30"},{"city":"Saharanpur","state":"Uttar Pradesh","latitude":29.9637,"longitude":77.546,"temp":23.1,"humidity":65,"rain":0.0,"pressure":977.5,"uv_index":7.0,"wind_gusts":39.2,"aqi":101,"pm10":51.6,"pm2_5":30.0,"no2":7.7,"co":313.0,"o3":136.0,"so2":9.9,"mosquito_risk":3,"arthritis_risk":5,"migraine_risk":7,"frizz_risk":0,"updated_at":"2026-05-07T08:58:31.039619+05:30"},{"city":"Jhansi","state":"Uttar Pradesh","latitude":25.4484,"longitude":78.5685,"temp":27.6,"humidity":50,"rain":0.0,"pressure":980.6,"uv_index":8.35,"wind_gusts":45.0,"aqi":75,"pm10":74.7,"pm2_5":25.0,"no2":3.3,"co":292.0,"o3":120.0,"so2":8.4,"mosquito_risk":4,"arthritis_risk":5,"migraine_risk":7,"frizz_risk":1,"updated_at":"2026-05-07T08:58:34.328611+05:30"},{"city":"Surat","state":"Gujarat","latitude":21.1702,"longitude":72.8311,"temp":31.9,"humidity":69,"rain":0.0,"pressure":1005.8,"uv_index":7.7,"wind_gusts":34.2,"aqi":112,"pm10":95.0,"pm2_5":56.3,"no2":47.0,"co":364.0,"o3":34.0,"so2":142.0,"mosquito_risk":3,"arthritis_risk":5,"migraine_risk":4,"frizz_risk":1,"updated_at":"2026-05-07T08:58:34.328639+05:30"},{"city":"Vadodara","state":"Gujarat","latitude":22.3072,"longitude":73.1812,"temp":32.5,"humidity":47,"rain":0.0,"pressure":1003.7,"uv_index":8.05,"wind_gusts":35.3,"aqi":114,"pm10":76.8,"pm2_5":41.0,"no2":17.6,"co":374.0,"o3":72.0,"so2":19.2,"mosquito_risk":0,"arthritis_risk":5,"migraine_risk":4,"frizz_risk":1,"updated_at":"2026-05-07T08:58:34.328647+05:30"},{"city":"Rajkot","state":"Gujarat","latitude":22.3039,"longitude":70.8022,"temp":29.4,"humidity":67,"rain":0.0,"pressure":993.9,"uv_index":7.7,"wind_gusts":43.6,"aqi":72,"pm10":67.8,"pm2_5":22.7,"no2":4.6,"co":178.0,"o3":64.0,"so2":3.8,"mosquito_risk":7,"arthritis_risk":5,"migraine_risk":7,"frizz_risk":1,"updated_at":"2026-05-07T08:58:34.328654+05:30"},{"city":"Thane","state":"Maharashtra","latitude":19.2183,"longitude":72.9781,"temp":30.4,"humidity":69,"rain":0.0,"pressure":1006.9,"uv_index":7.9,"wind_gusts":44.6,"aqi":93,"pm10":104.3,"pm2_5":38.9,"no2":20.4,"co":282.0,"o3":84.0,"so2":45.3,"mosquito_risk":3,"arthritis_risk":5,"migraine_risk":4,"frizz_risk":1,"updated_at":"2026-05-07T08:58:34.328661+05:30"},{"city":"Nagpur","state":"Maharashtra","latitude":21.1458,"longitude":79.0882,"temp":32.3,"humidity":37,"rain":0.0,"pressure":974.8,"uv_index":8.9,"wind_gusts":44.3,"aqi":103,"pm10":35.9,"pm2_5":26.7,"no2":9.4,"co":307.0,"o3":144.0,"so2":13.1,"mosquito_risk":0,"arthritis_risk":5,"migraine_risk":7,"frizz_risk":0,"updated_at":"2026-05-07T08:58:34.328667+05:30"},{"city":"Nashik","state":"Maharashtra","latitude":19.9975,"longitude":73.7898,"temp":30.4,"humidity":45,"rain":0.0,"pressure":945.8,"uv_index":8.2,"wind_gusts":37.8,"aqi":78,"pm10":90.6,"pm2_5":34.1,"no2":7.3,"co":325.0,"o3":130.0,"so2":19.5,"mosquito_risk":0,"arthritis_risk":5,"migraine_risk":7,"frizz_risk":1,"updated_at":"2026-05-07T08:58:34.328674+05:30"},{"city":"Aurangabad","state":"Maharashtra","latitude":19.8762,"longitude":75.3433,"temp":33.0,"humidity":25,"rain":0.0,"pressure":944.4,"uv_index":8.3,"wind_gusts":32.0,"aqi":68,"pm10":58.3,"pm2_5":22.6,"no2":4.2,"co":277.0,"o3":146.0,"so2":9.9,"mosquito_risk":0,"arthritis_risk":5,"migraine_risk":7,"frizz_risk":0,"updated_at":"2026-05-07T08:58:34.328680+05:30"},{"city":"Solapur","state":"Maharashtra","latitude":17.6599,"longitude":75.9064,"temp":32.3,"humidity":38,"rain":0.0,"pressure":957.6,"uv_index":9.05,"wind_gusts":33.1,"aqi":68,"pm10":30.6,"pm2_5":22.7,"no2":4.6,"co":272.0,"o3":116.0,"so2":7.0,"mosquito_risk":0,"arthritis_risk":5,"migraine_risk":7,"frizz_risk":1,"updated_at":"2026-05-07T08:58:34.328686+05:30"},{"city":"Kolhapur","state":"Maharashtra","latitude":16.705,"longitude":74.2433,"temp":31.0,"humidity":47,"rain":0.0,"pressure":947.8,"uv_index":8.9,"wind_gusts":52.2,"aqi":75,"pm10":51.9,"pm2_5":34.3,"no2":12.3,"co":367.0,"o3":95.0,"so2":8.0,"mosquito_risk":0,"arthritis_risk":5,"migraine_risk":7,"frizz_risk":1,"updated_at":"2026-05-07T08:58:34.328692+05:30"},{"city":"Goa","state":"Goa","latitude":15.2993,"longitude":74.124,"temp":30.8,"humidity":63,"rain":0.0,"pressure":997.0,"uv_index":8.9,"wind_gusts":34.2,"aqi":71,"pm10":43.3,"pm2_5":24.1,"no2":4.6,"co":204.0,"o3":85.0,"so2":3.8,"mosquito_risk":3,"arthritis_risk":5,"migraine_risk":7,"frizz_risk":1,"updated_at":"2026-05-07T08:58:34.328698+05:30"},{"city":"Jodhpur","state":"Rajasthan","latitude":26.2389,"longitude":73.0243,"temp":30.9,"humidity":31,"rain":0.0,"pressure":981.7,"uv_index":8.3,"wind_gusts":38.9,"aqi":92,"pm10":271.9,"pm2_5":54.7,"no2":3.5,"co":273.0,"o3":101.0,"so2":3.8,"mosquito_risk":0,"arthritis_risk":5,"migraine_risk":7,"frizz_risk":0,"updated_at":"2026-05-07T08:58:34.328704+05:30"},{"city":"Udaipur","state":"Rajasthan","latitude":24.5854,"longitude":73.7125,"temp":31.0,"humidity":36,"rain":0.0,"pressure":946.5,"uv_index":8.75,"wind_gusts":34.2,"aqi":63,"pm10":59.0,"pm2_5":17.9,"no2":2.6,"co":239.0,"o3":116.0,"so2":3.4,"mosquito_risk":0,"arthritis_risk":5,"migraine_risk":7,"frizz_risk":0,"updated_at":"2026-05-07T08:58:34.328710+05:30"},{"city":"Kota","state":"Rajasthan","latitude":25.2138,"longitude":75.8648,"temp":32.0,"humidity":32,"rain":0.0,"pressure":978.6,"uv_index":8.3,"wind_gusts":53.3,"aqi":64,"pm10":25.8,"pm2_5":17.6,"no2":4.9,"co":291.0,"o3":111.0,"so2":12.1,"mosquito_risk":0,"arthritis_risk":5,"migraine_risk":7,"frizz_risk":0,"updated_at":"2026-05-07T08:58:34.328716+05:30"},{"city":"Bikaner","state":"Rajasthan","latitude":28.0229,"longitude":73.3119,"temp":30.4,"humidity":27,"rain":0.0,"pressure":979.7,"uv_index":8.25,"wind_gusts":32.0,"aqi":73,"pm10":60.1,"pm2_5":23.7,"no2":3.6,"co":285.0,"o3":111.0,"so2":7.6,"mosquito_risk":0,"arthritis_risk":5,"migraine_risk":7,"frizz_risk":0,"updated_at":"2026-05-07T08:58:34.328722+05:30"},{"city":"Ajmer","state":"Rajasthan","latitude":26.4499,"longitude":74.6399,"temp":31.1,"humidity":26,"rain":0.0,"pressure":954.2,"uv_index":8.25,"wind_gusts":47.2,"aqi":67,"pm10":40.7,"pm2_5":15.0,"no2":4.6,"co":348.0,"o3":100.0,"so2":4.8,"mosquito_risk":0,"arthritis_risk":5,"migraine_risk":7,"frizz_risk":0,"updated_at":"2026-05-07T08:58:34.328727+05:30"},{"city":"Gwalior","state":"Madhya Pradesh","latitude":26.2183,"longitude":78.1828,"temp":26.9,"humidity":64,"rain":0.0,"pressure":985.3,"uv_index":7.95,"wind_gusts":55.8,"aqi":98,"pm10":147.1,"pm2_5":36.7,"no2":3.2,"co":331.0,"o3":119.0,"so2":6.4,"mosquito_risk":7,"arthritis_risk":5,"migraine_risk":7,"frizz_risk":1,"updated_at":"2026-05-07T08:58:34.328733+05:30"},{"city":"Indore","state":"Madhya Pradesh","latitude":22.7196,"longitude":75.8577,"temp":32.8,"humidity":21,"rain":0.0,"pressure":949.2,"uv_index":8.6,"wind_gusts":33.8,"aqi":61,"pm10":22.9,"pm2_5":17.8,"no2":5.6,"co":281.0,"o3":138.0,"so2":11.2,"mosquito_risk":0,"arthritis_risk":5,"migraine_risk":7,"frizz_risk":0,"updated_at":"2026-05-07T08:58:34.328739+05:30"},{"city":"Bhopal","state":"Madhya Pradesh","latitude":23.2599,"longitude":77.4126,"temp":31.1,"humidity":28,"rain":0.0,"pressure":955.1,"uv_index":8.65,"wind_gusts":35.3,"aqi":52,"pm10":18.8,"pm2_5":11.6,"no2":2.9,"co":345.0,"o3":129.0,"so2":4.3,"mosquito_risk":0,"arthritis_risk":5,"migraine_risk":7,"frizz_risk":0,"updated_at":"2026-05-07T08:58:34.328744+05:30"},{"city":"Jabalpur","state":"Madhya Pradesh","latitude":23.1815,"longitude":79.9864,"temp":32.5,"humidity":28,"rain":0.0,"pressure":963.1,"uv_index":8.8,"wind_gusts":30.6,"aqi":61,"pm10":31.5,"pm2_5":16.9,"no2":5.7,"co":283.0,"o3":136.0,"so2":6.8,"mosquito_risk":0,"arthritis_risk":5,"migraine_risk":7,"frizz_risk":0,"updated_at":"2026-05-07T08:58:34.328750+05:30"},{"city":"Ujjain","state":"Madhya Pradesh","latitude":23.1765,"longitude":75.7885,"temp":32.7,"humidity":21,"rain":0.0,"pressure":954.7,"uv_index":8.55,"wind_gusts":31.3,"aqi":85,"pm10":33.2,"pm2_5":26.1,"no2":5.2,"co":317.0,"o3":127.0,"so2":8.9,"mosquito_risk":0,"arthritis_risk":5,"migraine_risk":7,"frizz_risk":0,"updated_at":"2026-05-07T08:58:34.328756+05:30"},{"city":"Visakhapatnam","state":"Andhra Pradesh","latitude":17.6868,"longitude":83.2185,"temp":31.2,"humidity":65,"rain":0.0,"pressure":1004.9,"uv_index":8.8,"wind_gusts":32.4,"aqi":77,"pm10":35.2,"pm2_5":28.0,"no2":32.6,"co":398.0,"o3":48.0,"so2":21.2,"mosquito_risk":3,"arthritis_risk":5,"migraine_risk":4,"frizz_risk":1,"updated_at":"2026-05-07T08:58:34.328762+05:30"},{"city":"Vijayawada","state":"Andhra Pradesh","latitude":16.5062,"longitude":80.648,"temp":31.9,"humidity":62,"rain":0.0,"pressure":1003.4,"uv_index":9.15,"wind_gusts":37.4,"aqi":56,"pm10":11.8,"pm2_5":8.6,"no2":3.4,"co":163.0,"o3":53.0,"so2":6.1,"mosquito_risk":3,"arthritis_risk":5,"migraine_risk":4,"frizz_risk":1,"updated_at":"2026-05-07T08:58:34.328768+05:30"},{"city":"Guntur","state":"Andhra Pradesh","latitude":16.3067,"longitude":80.4365,"temp":31.7,"humidity":61,"rain":0.0,"pressure":1004.6,"uv_index":9.2,"wind_gusts":38.5,"aqi":58,"pm10":11.0,"pm2_5":7.7,"no2":2.3,"co":141.0,"o3":59.0,"so2":2.1,"mosquito_risk":3,"arthritis_risk":5,"migraine_risk":4,"frizz_risk":1,"updated_at":"2026-05-07T08:58:34.328774+05:30"},{"city":"Nellore","state":"Andhra Pradesh","latitude":14.4426,"longitude":79.9865,"temp":30.0,"humidity":69,"rain":0.0,"pressure":1006.2,"uv_index":9.2,"wind_gusts":35.3,"aqi":45,"pm10":14.5,"pm2_5":10.2,"no2":8.4,"co":188.0,"o3":61.0,"so2":17.0,"mosquito_risk":7,"arthritis_risk":5,"migraine_risk":4,"frizz_risk":1,"updated_at":"2026-05-07T08:58:34.328780+05:30"},{"city":"Kurnool","state":"Andhra Pradesh","latitude":15.8281,"longitude":78.0373,"temp":31.4,"humidity":57,"rain":0.0,"pressure":977.5,"uv_index":9.2,"wind_gusts":40.7,"aqi":68,"pm10":18.0,"pm2_5":15.0,"no2":3.9,"co":216.0,"o3":95.0,"so2":11.5,"mosquito_risk":0,"arthritis_risk":5,"migraine_risk":7,"frizz_risk":1,"updated_at":"2026-05-07T08:58:34.328787+05:30"},{"city":"Kakinada","state":"Andhra Pradesh","latitude":16.9891,"longitude":82.2475,"temp":30.3,"humidity":73,"rain":0.0,"pressure":1008.5,"uv_index":8.7,"wind_gusts":34.2,"aqi":39,"pm10":10.0,"pm2_5":6.7,"no2":1.4,"co":189.0,"o3":47.0,"so2":1.0,"mosquito_risk":3,"arthritis_risk":0,"migraine_risk":4,"frizz_risk":1,"updated_at":"2026-05-07T08:58:34.328792+05:30"},{"city":"Tirupati","state":"Andhra Pradesh","latitude":13.6288,"longitude":79.4192,"temp":30.2,"humidity":64,"rain":0.0,"pressure":991.3,"uv_index":9.25,"wind_gusts":37.8,"aqi":70,"pm10":14.1,"pm2_5":9.8,"no2":4.2,"co":193.0,"o3":74.0,"so2":3.3,"mosquito_risk":3,"arthritis_risk":5,"migraine_risk":7,"frizz_risk":1,"updated_at":"2026-05-07T08:58:34.328798+05:30"},{"city":"Warangal","state":"Telangana","latitude":17.9689,"longitude":79.5941,"temp":30.4,"humidity":63,"rain":0.0,"pressure":980.0,"uv_index":9.1,"wind_gusts":38.2,"aqi":83,"pm10":14.3,"pm2_5":10.6,"no2":4.4,"co":202.0,"o3":66.0,"so2":5.6,"mosquito_risk":3,"arthritis_risk":5,"migraine_risk":7,"frizz_risk":1,"updated_at":"2026-05-07T08:58:34.328804+05:30"},{"city":"Nizamabad","state":"Telangana","latitude":18.6725,"longitude":78.0941,"temp":32.2,"humidity":46,"rain":0.0,"pressure":965.7,"uv_index":9.1,"wind_gusts":37.1,"aqi":84,"pm10":26.8,"pm2_5":21.9,"no2":5.4,"co":261.0,"o3":109.0,"so2":6.0,"mosquito_risk":0,"arthritis_risk":5,"migraine_risk":7,"frizz_risk":1,"updated_at":"2026-05-07T08:58:34.328809+05:30"},{"city":"Mysore","state":"Karnataka","latitude":12.2958,"longitude":76.6396,"temp":26.1,"humidity":69,"rain":0.0,"pressure":928.6,"uv_index":9.1,"wind_gusts":29.2,"aqi":81,"pm10":35.0,"pm2_5":28.5,"no2":7.3,"co":316.0,"o3":114.0,"so2":12.9,"mosquito_risk":7,"arthritis_risk":5,"migraine_risk":7,"frizz_risk":1,"updated_at":"2026-05-07T08:58:34.328815+05:30"},{"city":"Mangalore","state":"Karnataka","latitude":12.9141,"longitude":74.856,"temp":28.9,"humidity":78,"rain":0.1,"pressure":1006.4,"uv_index":7.75,"wind_gusts":35.3,"aqi":63,"pm10":36.7,"pm2_5":17.8,"no2":4.3,"co":239.0,"o3":73.0,"so2":3.5,"mosquito_risk":10,"arthritis_risk":5,"migraine_risk":4,"frizz_risk":1,"updated_at":"2026-05-07T08:58:34.328821+05:30"},{"city":"Hubli-Dharwad","state":"Karnataka","latitude":15.3647,"longitude":75.124,"temp":30.1,"humidity":50,"rain":0.0,"pressure":940.8,"uv_index":9.2,"wind_gusts":52.6,"aqi":77,"pm10":42.4,"pm2_5":25.9,"no2":9.9,"co":263.0,"o3":108.0,"so2":4.0,"mosquito_risk":0,"arthritis_risk":5,"migraine_risk":7,"frizz_risk":1,"updated_at":"2026-05-07T08:58:34.328827+05:30"},{"city":"Belgaum","state":"Karnataka","latitude":15.8497,"longitude":74.4977,"temp":29.0,"humidity":49,"rain":0.0,"pressure":926.0,"uv_index":8.35,"wind_gusts":44.3,"aqi":73,"pm10":46.0,"pm2_5":24.2,"no2":8.5,"co":260.0,"o3":113.0,"so2":7.1,"mosquito_risk":4,"arthritis_risk":5,"migraine_risk":7,"frizz_risk":1,"updated_at":"2026-05-07T08:58:37.619120+05:30"},{"city":"Coimbatore","state":"Tamil Nadu","latitude":11.0168,"longitude":76.9558,"temp":27.0,"humidity":75,"rain":0.0,"pressure":961.7,"uv_index":9.2,"wind_gusts":33.5,"aqi":77,"pm10":23.5,"pm2_5":17.5,"no2":4.9,"co":359.0,"o3":111.0,"so2":5.6,"mosquito_risk":7,"arthritis_risk":5,"migraine_risk":7,"frizz_risk":1,"updated_at":"2026-05-07T08:58:37.619148+05:30"},{"city":"Madurai","state":"Tamil Nadu","latitude":9.9252,"longitude":78.1198,"temp":31.2,"humidity":57,"rain":0.0,"pressure":992.7,"uv_index":8.1,"wind_gusts":32.8,"aqi":76,"pm10":28.8,"pm2_5":20.0,"no2":8.2,"co":284.0,"o3":96.0,"so2":7.0,"mosquito_risk":0,"arthritis_risk":5,"migraine_risk":7,"frizz_risk":1,"updated_at":"2026-05-07T08:58:37.619159+05:30"},{"city":"Trichy","state":"Tamil Nadu","latitude":10.7905,"longitude":78.7047,"temp":29.9,"humidity":70,"rain":0.0,"pressure":999.7,"uv_index":6.85,"wind_gusts":32.0,"aqi":70,"pm10":21.6,"pm2_5":14.8,"no2":5.5,"co":238.0,"o3":86.0,"so2":4.2,"mosquito_risk":7,"arthritis_risk":5,"migraine_risk":7,"frizz_risk":1,"updated_at":"2026-05-07T08:58:37.619167+05:30"},{"city":"Salem","state":"Tamil Nadu","latitude":11.6643,"longitude":78.146,"temp":28.4,"humidity":73,"rain":0.0,"pressure":977.5,"uv_index":8.35,"wind_gusts":43.2,"aqi":83,"pm10":25.8,"pm2_5":20.1,"no2":10.8,"co":277.0,"o3":86.0,"so2":24.2,"mosquito_risk":7,"arthritis_risk":5,"migraine_risk":7,"frizz_risk":1,"updated_at":"2026-05-07T08:58:37.619175+05:30"},{"city":"Tirunelveli","state":"Tamil Nadu","latitude":8.7139,"longitude":77.7567,"temp":30.9,"humidity":61,"rain":0.0,"pressure":1002.7,"uv_index":6.7,"wind_gusts":38.5,"aqi":75,"pm10":32.2,"pm2_5":25.4,"no2":5.4,"co":244.0,"o3":115.0,"so2":8.9,"mosquito_risk":3,"arthritis_risk":5,"migraine_risk":4,"frizz_risk":1,"updated_at":"2026-05-07T08:58:37.619183+05:30"},{"city":"Vellore","state":"Tamil Nadu","latitude":12.9165,"longitude":79.1325,"temp":30.8,"humidity":54,"rain":0.0,"pressure":984.7,"uv_index":9.3,"wind_gusts":35.6,"aqi":86,"pm10":17.1,"pm2_5":13.6,"no2":4.6,"co":212.0,"o3":84.0,"so2":8.1,"mosquito_risk":0,"arthritis_risk":5,"migraine_risk":7,"frizz_risk":1,"updated_at":"2026-05-07T08:58:37.619191+05:30"},{"city":"Erode","state":"Tamil Nadu","latitude":11.341,"longitude":77.7172,"temp":29.2,"humidity":67,"rain":0.0,"pressure":989.2,"uv_index":6.55,"wind_gusts":35.6,"aqi":76,"pm10":21.5,"pm2_5":15.0,"no2":6.4,"co":265.0,"o3":83.0,"so2":3.3,"mosquito_risk":7,"arthritis_risk":5,"migraine_risk":7,"frizz_risk":1,"updated_at":"2026-05-07T08:58:37.619196+05:30"},{"city":"Kochi","state":"Kerala","latitude":9.9312,"longitude":76.2673,"temp":27.3,"humidity":86,"rain":0.0,"pressure":1008.1,"uv_index":8.25,"wind_gusts":32.0,"aqi":68,"pm10":30.7,"pm2_5":23.7,"no2":9.4,"co":296.0,"o3":92.0,"so2":4.7,"mosquito_risk":7,"arthritis_risk":0,"migraine_risk":4,"frizz_risk":1,"updated_at":"2026-05-07T08:58:37.619203+05:30"},{"city":"Thiruvananthapuram","state":"Kerala","latitude":8.5241,"longitude":76.9366,"temp":27.5,"humidity":88,"rain":0.0,"pressure":1007.3,"uv_index":8.75,"wind_gusts":28.8,"aqi":54,"pm10":21.5,"pm2_5":16.2,"no2":5.8,"co":364.0,"o3":117.0,"so2":6.2,"mosquito_risk":7,"arthritis_risk":5,"migraine_risk":4,"frizz_risk":1,"updated_at":"2026-05-07T08:58:37.619209+05:30"},{"city":"Kozhikode","state":"Kerala","latitude":11.2588,"longitude":75.7804,"temp":26.5,"humidity":89,"rain":0.0,"pressure":1007.5,"uv_index":8.55,"wind_gusts":32.0,"aqi":63,"pm10":24.9,"pm2_5":14.5,"no2":2.7,"co":292.0,"o3":111.0,"so2":3.0,"mosquito_risk":7,"arthritis_risk":5,"migraine_risk":4,"frizz_risk":1,"updated_at":"2026-05-07T08:58:37.619215+05:30"},{"city":"Thrissur","state":"Kerala","latitude":10.5276,"longitude":76.2144,"temp":27.2,"humidity":82,"rain":0.0,"pressure":1006.5,"uv_index":5.7,"wind_gusts":33.1,"aqi":73,"pm10":36.7,"pm2_5":29.5,"no2":8.3,"co":368.0,"o3":98.0,"so2":4.4,"mosquito_risk":7,"arthritis_risk":5,"migraine_risk":0,"frizz_risk":1,"updated_at":"2026-05-07T08:58:37.619221+05:30"},{"city":"Kannur","state":"Kerala","latitude":11.8745,"longitude":75.3704,"temp":26.9,"humidity":85,"rain":0.0,"pressure":1006.9,"uv_index":8.75,"wind_gusts":41.0,"aqi":63,"pm10":25.6,"pm2_5":14.3,"no2":4.4,"co":308.0,"o3":85.0,"so2":2.5,"mosquito_risk":7,"arthritis_risk":5,"migraine_risk":4,"frizz_risk":1,"updated_at":"2026-05-07T08:58:37.619227+05:30"},{"city":"Patna","state":"Bihar","latitude":25.5941,"longitude":85.1376,"temp":25.6,"humidity":74,"rain":0.0,"pressure":1003.7,"uv_index":8.45,"wind_gusts":35.6,"aqi":102,"pm10":38.6,"pm2_5":32.0,"no2":7.3,"co":436.0,"o3":153.0,"so2":13.0,"mosquito_risk":7,"arthritis_risk":5,"migraine_risk":4,"frizz_risk":1,"updated_at":"2026-05-07T08:58:37.619233+05:30"},{"city":"Gaya","state":"Bihar","latitude":24.7914,"longitude":85.0002,"temp":28.0,"humidity":63,"rain":0.0,"pressure":996.3,"uv_index":8.75,"wind_gusts":28.8,"aqi":107,"pm10":47.4,"pm2_5":41.0,"no2":6.1,"co":390.0,"o3":145.0,"so2":15.7,"mosquito_risk":7,"arthritis_risk":5,"migraine_risk":7,"frizz_risk":1,"updated_at":"2026-05-07T08:58:37.619239+05:30"},{"city":"Muzaffarpur","state":"Bihar","latitude":26.1209,"longitude":85.3647,"temp":25.5,"humidity":76,"rain":0.0,"pressure":1004.1,"uv_index":8.65,"wind_gusts":32.4,"aqi":108,"pm10":39.5,"pm2_5":32.1,"no2":7.2,"co":356.0,"o3":146.0,"so2":11.7,"mosquito_risk":7,"arthritis_risk":5,"migraine_risk":4,"frizz_risk":1,"updated_at":"2026-05-07T08:58:37.619244+05:30"},{"city":"Bhagalpur","state":"Bihar","latitude":25.2425,"longitude":87.0117,"temp":26.6,"humidity":74,"rain":0.0,"pressure":1004.7,"uv_index":8.6,"wind_gusts":38.5,"aqi":138,"pm10":63.3,"pm2_5":54.2,"no2":7.8,"co":347.0,"o3":155.0,"so2":17.1,"mosquito_risk":7,"arthritis_risk":5,"migraine_risk":4,"frizz_risk":1,"updated_at":"2026-05-07T08:58:37.619250+05:30"},{"city":"Ranchi","state":"Jharkhand","latitude":23.3441,"longitude":85.3096,"temp":26.0,"humidity":69,"rain":0.0,"pressure":940.1,"uv_index":9.2,"wind_gusts":34.9,"aqi":111,"pm10":38.1,"pm2_5":31.3,"no2":3.6,"co":374.0,"o3":163.0,"so2":25.0,"mosquito_risk":7,"arthritis_risk":5,"migraine_risk":7,"frizz_risk":1,"updated_at":"2026-05-07T08:58:37.619256+05:30"},{"city":"Jamshedpur","state":"Jharkhand","latitude":22.8046,"longitude":86.2029,"temp":29.3,"humidity":65,"rain":0.0,"pressure":993.2,"uv_index":9.05,"wind_gusts":38.9,"aqi":131,"pm10":36.8,"pm2_5":32.4,"no2":13.5,"co":335.0,"o3":125.0,"so2":36.8,"mosquito_risk":7,"arthritis_risk":5,"migraine_risk":7,"frizz_risk":1,"updated_at":"2026-05-07T08:58:37.619261+05:30"},{"city":"Dhanbad","state":"Jharkhand","latitude":23.7957,"longitude":86.4304,"temp":27.5,"humidity":70,"rain":0.0,"pressure":982.5,"uv_index":8.95,"wind_gusts":32.8,"aqi":160,"pm10":80.1,"pm2_5":75.0,"no2":49.1,"co":966.0,"o3":92.0,"so2":129.0,"mosquito_risk":7,"arthritis_risk":5,"migraine_risk":7,"frizz_risk":1,"updated_at":"2026-05-07T08:58:37.619267+05:30"},{"city":"Bokaro","state":"Jharkhand","latitude":23.6693,"longitude":86.1511,"temp":26.2,"humidity":74,"rain":0.0,"pressure":986.5,"uv_index":9.0,"wind_gusts":28.1,"aqi":157,"pm10":68.2,"pm2_5":61.9,"no2":35.3,"co":679.0,"o3":125.0,"so2":108.1,"mosquito_risk":7,"arthritis_risk":5,"migraine_risk":7,"frizz_risk":1,"updated_at":"2026-05-07T08:58:37.619273+05:30"},{"city":"Bhubaneswar","state":"Odisha","latitude":20.2961,"longitude":85.8245,"temp":31.0,"humidity":69,"rain":0.0,"pressure":1004.1,"uv_index":9.1,"wind_gusts":31.3,"aqi":57,"pm10":14.2,"pm2_5":10.2,"no2":3.5,"co":194.0,"o3":66.0,"so2":4.7,"mosquito_risk":3,"arthritis_risk":5,"migraine_risk":4,"frizz_risk":1,"updated_at":"2026-05-07T08:58:37.619292+05:30"},{"city":"Cuttack","state":"Odisha","latitude":20.4625,"longitude":85.8828,"temp":30.9,"humidity":71,"rain":0.0,"pressure":1005.9,"uv_index":9.15,"wind_gusts":30.2,"aqi":57,"pm10":14.2,"pm2_5":10.2,"no2":3.5,"co":210.0,"o3":66.0,"so2":4.7,"mosquito_risk":3,"arthritis_risk":5,"migraine_risk":4,"frizz_risk":1,"updated_at":"2026-05-07T08:58:37.619298+05:30"},{"city":"Rourkela","state":"Odisha","latitude":22.2604,"longitude":84.8536,"temp":30.4,"humidity":60,"rain":0.0,"pressure":987.0,"uv_index":8.95,"wind_gusts":36.4,"aqi":102,"pm10":55.8,"pm2_5":49.8,"no2":12.1,"co":367.0,"o3":169.0,"so2":86.7,"mosquito_risk":0,"arthritis_risk":5,"migraine_risk":7,"frizz_risk":1,"updated_at":"2026-05-07T08:58:37.619304+05:30"},{"city":"Raipur","state":"Chhattisgarh","latitude":21.2514,"longitude":81.6296,"temp":32.0,"humidity":38,"rain":0.0,"pressure":976.5,"uv_index":8.95,"wind_gusts":33.1,"aqi":112,"pm10":43.9,"pm2_5":34.5,"no2":25.2,"co":260.0,"o3":122.0,"so2":11.2,"mosquito_risk":0,"arthritis_risk":5,"migraine_risk":7,"frizz_risk":0,"updated_at":"2026-05-07T08:58:37.619311+05:30"},{"city":"Bhilai","state":"Chhattisgarh","latitude":21.1938,"longitude":81.3509,"temp":31.9,"humidity":37,"rain":0.0,"pressure":976.9,"uv_index":8.95,"wind_gusts":29.9,"aqi":119,"pm10":55.5,"pm2_5":46.0,"no2":53.4,"co":356.0,"o3":112.0,"so2":16.7,"mosquito_risk":0,"arthritis_risk":5,"migraine_risk":7,"frizz_risk":0,"updated_at":"2026-05-07T08:58:37.619316+05:30"},{"city":"Guwahati","state":"Assam","latitude":26.1158,"longitude":91.7086,"temp":26.2,"humidity":77,"rain":0.0,"pressure":1005.0,"uv_index":8.65,"wind_gusts":20.5,"aqi":91,"pm10":39.1,"pm2_5":25.8,"no2":1.7,"co":311.0,"o3":132.0,"so2":2.2,"mosquito_risk":7,"arthritis_risk":5,"migraine_risk":4,"frizz_risk":1,"updated_at":"2026-05-07T08:58:37.619322+05:30"},{"city":"Agartala","state":"Tripura","latitude":23.8315,"longitude":91.2868,"temp":26.2,"humidity":83,"rain":0.0,"pressure":1009.3,"uv_index":8.85,"wind_gusts":32.0,"aqi":112,"pm10":10.6,"pm2_5":9.2,"no2":9.2,"co":265.0,"o3":81.0,"so2":2.8,"mosquito_risk":7,"arthritis_risk":0,"migraine_risk":4,"frizz_risk":1,"updated_at":"2026-05-07T08:58:37.619328+05:30"},{"city":"Shillong","state":"Meghalaya","latitude":25.5788,"longitude":91.8933,"temp":21.0,"humidity":62,"rain":0.0,"pressure":860.0,"uv_index":7.65,"wind_gusts":22.7,"aqi":69,"pm10":45.3,"pm2_5":26.4,"no2":1.9,"co":259.0,"o3":140.0,"so2":3.4,"mosquito_risk":3,"arthritis_risk":5,"migraine_risk":7,"frizz_risk":0,"updated_at":"2026-05-07T08:58:37.619334+05:30"},{"city":"Imphal","state":"Manipur","latitude":24.817,"longitude":93.9368,"temp":24.2,"humidity":73,"rain":0.0,"pressure":926.2,"uv_index":9.2,"wind_gusts":33.5,"aqi":96,"pm10":34.3,"pm2_5":22.1,"no2":1.7,"co":298.0,"o3":110.0,"so2":2.8,"mosquito_risk":3,"arthritis_risk":5,"migraine_risk":7,"frizz_risk":1,"updated_at":"2026-05-07T08:58:37.619339+05:30"},{"city":"Aizawl","state":"Mizoram","latitude":23.7271,"longitude":92.7176,"temp":22.4,"humidity":73,"rain":0.0,"pressure":895.7,"uv_index":9.05,"wind_gusts":28.8,"aqi":67,"pm10":29.3,"pm2_5":19.3,"no2":1.1,"co":202.0,"o3":107.0,"so2":1.4,"mosquito_risk":3,"arthritis_risk":5,"migraine_risk":7,"frizz_risk":1,"updated_at":"2026-05-07T08:58:37.619345+05:30"},{"city":"Kohima","state":"Nagaland","latitude":25.6701,"longitude":94.1077,"temp":20.4,"humidity":81,"rain":0.2,"pressure":858.4,"uv_index":9.15,"wind_gusts":28.8,"aqi":68,"pm10":28.9,"pm2_5":17.5,"no2":1.3,"co":262.0,"o3":98.0,"so2":1.7,"mosquito_risk":6,"arthritis_risk":5,"migraine_risk":7,"frizz_risk":1,"updated_at":"2026-05-07T08:58:37.619351+05:30"},{"city":"Gangtok","state":"Sikkim","latitude":27.3314,"longitude":88.6138,"temp":16.6,"humidity":63,"rain":0.0,"pressure":840.4,"uv_index":9.05,"wind_gusts":43.6,"aqi":63,"pm10":22.8,"pm2_5":12.3,"no2":1.4,"co":218.0,"o3":130.0,"so2":1.0,"mosquito_risk":3,"arthritis_risk":5,"migraine_risk":7,"frizz_risk":0,"updated_at":"2026-05-07T08:58:37.619357+05:30"},{"city":"Siliguri","state":"West Bengal","latitude":26.7271,"longitude":88.3953,"temp":26.0,"humidity":66,"rain":0.0,"pressure":996.5,"uv_index":8.6,"wind_gusts":20.9,"aqi":95,"pm10":38.8,"pm2_5":25.4,"no2":4.4,"co":498.0,"o3":142.0,"so2":3.7,"mosquito_risk":7,"arthritis_risk":5,"migraine_risk":7,"frizz_risk":1,"updated_at":"2026-05-07T08:58:40.905122+05:30"},{"city":"Durgapur","state":"West Bengal","latitude":23.5204,"longitude":87.3119,"temp":25.6,"humidity":84,"rain":0.0,"pressure":998.0,"uv_index":8.9,"wind_gusts":45.4,"aqi":160,"pm10":78.7,"pm2_5":74.3,"no2":33.0,"co":628.0,"o3":92.0,"so2":83.9,"mosquito_risk":7,"arthritis_risk":5,"migraine_risk":7,"frizz_risk":1,"updated_at":"2026-05-07T08:58:40.905151+05:30"},{"city":"Asansol","state":"West Bengal","latitude":23.6739,"longitude":86.9524,"temp":26.7,"humidity":75,"rain":0.0,"pressure":996.6,"uv_index":8.95,"wind_gusts":34.2,"aqi":157,"pm10":77.5,"pm2_5":72.9,"no2":34.6,"co":509.0,"o3":94.0,"so2":96.1,"mosquito_risk":7,"arthritis_risk":5,"migraine_risk":7,"frizz_risk":1,"updated_at":"2026-05-07T08:58:40.905161+05:30"},{"city":"Pondicherry","state":"Puducherry","latitude":11.9139,"longitude":79.8145,"temp":29.9,"humidity":71,"rain":0.1,"pressure":1008.4,"uv_index":8.8,"wind_gusts":36.0,"aqi":47,"pm10":13.4,"pm2_5":9.3,"no2":5.7,"co":234.0,"o3":67.0,"so2":5.5,"mosquito_risk":10,"arthritis_risk":0,"migraine_risk":4,"frizz_risk":1,"updated_at":"2026-05-07T08:58:40.905169+05:30"},{"city":"Port Blair","state":"Andaman and Nicobar Islands","latitude":11.6234,"longitude":92.7265,"temp":29.5,"humidity":74,"rain":0.0,"pressure":1007.4,"uv_index":8.35,"wind_gusts":33.1,"aqi":32,"pm10":7.1,"pm2_5":5.5,"no2":0.5,"co":176.0,"o3":74.0,"so2":0.1,"mosquito_risk":7,"arthritis_risk":5,"migraine_risk":4,"frizz_risk":1,"updated_at":"2026-05-07T08:58:40.905177+05:30"},{"city":"Haridwar","state":"Uttarakhand","latitude":29.9457,"longitude":78.1642,"temp":26.1,"humidity":53,"rain":0.0,"pressure":976.8,"uv_index":6.95,"wind_gusts":36.7,"aqi":84,"pm10":33.9,"pm2_5":20.4,"no2":4.0,"co":247.0,"o3":142.0,"so2":8.5,"mosquito_risk":4,"arthritis_risk":5,"migraine_risk":7,"frizz_risk":0,"updated_at":"2026-05-07T08:58:40.905185+05:30"},{"city":"Rishikesh","state":"Uttarakhand","latitude":30.0869,"longitude":78.2676,"temp":25.6,"humidity":50,"rain":0.0,"pressure":969.3,"uv_index":5.55,"wind_gusts":33.8,"aqi":70,"pm10":35.9,"pm2_5":17.0,"no2":2.4,"co":222.0,"o3":156.0,"so2":9.4,"mosquito_risk":4,"arthritis_risk":5,"migraine_risk":3,"frizz_risk":0,"updated_at":"2026-05-07T08:58:40.905192+05:30"},{"city":"Nainital","state":"Uttarakhand","latitude":29.3919,"longitude":79.4542,"temp":15.1,"humidity":58,"rain":0.0,"pressure":807.0,"uv_index":6.25,"wind_gusts":28.8,"aqi":64,"pm10":38.6,"pm2_5":16.8,"no2":1.4,"co":213.0,"o3":149.0,"so2":3.3,"mosquito_risk":0,"arthritis_risk":5,"migraine_risk":7,"frizz_risk":0,"updated_at":"2026-05-07T08:58:40.905200+05:30"},{"city":"Mussoorie","state":"Uttarakhand","latitude":30.4599,"longitude":78.0664,"temp":15.6,"humidity":53,"rain":0.0,"pressure":804.2,"uv_index":4.55,"wind_gusts":44.3,"aqi":73,"pm10":32.7,"pm2_5":15.3,"no2":3.1,"co":205.0,"o3":154.0,"so2":6.7,"mosquito_risk":0,"arthritis_risk":5,"migraine_risk":3,"frizz_risk":0,"updated_at":"2026-05-07T08:58:40.905207+05:30"},{"city":"Dharamshala","state":"Himachal Pradesh","latitude":32.219,"longitude":76.3234,"temp":17.9,"humidity":66,"rain":0.0,"pressure":869.5,"uv_index":7.2,"wind_gusts":38.5,"aqi":40,"pm10":16.6,"pm2_5":7.0,"no2":1.3,"co":187.0,"o3":157.0,"so2":0.9,"mosquito_risk":3,"arthritis_risk":5,"migraine_risk":7,"frizz_risk":0,"updated_at":"2026-05-07T08:58:40.905214+05:30"},{"city":"Dalhousie","state":"Himachal Pradesh","latitude":32.5387,"longitude":75.971,"temp":15.0,"humidity":70,"rain":0.0,"pressure":804.8,"uv_index":7.8,"wind_gusts":25.6,"aqi":59,"pm10":19.2,"pm2_5":10.0,"no2":3.8,"co":260.0,"o3":158.0,"so2":1.9,"mosquito_risk":3,"arthritis_risk":5,"migraine_risk":7,"frizz_risk":0,"updated_at":"2026-05-07T08:58:40.905222+05:30"},{"city":"Patiala","state":"Punjab","latitude":30.3398,"longitude":76.3869,"temp":25.9,"humidity":50,"rain":0.0,"pressure":979.7,"uv_index":7.45,"wind_gusts":38.2,"aqi":166,"pm10":737.6,"pm2_5":98.3,"no2":6.3,"co":424.0,"o3":123.0,"so2":9.6,"mosquito_risk":4,"arthritis_risk":5,"migraine_risk":7,"frizz_risk":0,"updated_at":"2026-05-07T08:58:40.905229+05:30"},{"city":"Bhatinda","state":"Punjab","latitude":30.211,"longitude":74.9455,"temp":28.8,"humidity":34,"rain":0.0,"pressure":983.7,"uv_index":8.1,"wind_gusts":36.7,"aqi":135,"pm10":400.5,"pm2_5":85.0,"no2":5.9,"co":325.0,"o3":122.0,"so2":12.1,"mosquito_risk":4,"arthritis_risk":5,"migraine_risk":7,"frizz_risk":0,"updated_at":"2026-05-07T08:58:40.905236+05:30"},{"city":"Rohtak","state":"Haryana","latitude":28.8955,"longitude":76.6066,"temp":28.0,"humidity":45,"rain":0.0,"pressure":982.5,"uv_index":7.6,"wind_gusts":39.6,"aqi":375,"pm10":1035.6,"pm2_5":126.7,"no2":16.2,"co":345.0,"o3":149.0,"so2":23.6,"mosquito_risk":4,"arthritis_risk":5,"migraine_risk":7,"frizz_risk":0,"updated_at":"2026-05-07T08:58:40.905243+05:30"},{"city":"Panipat","state":"Haryana","latitude":29.3909,"longitude":76.9635,"temp":27.2,"humidity":46,"rain":0.0,"pressure":981.7,"uv_index":7.4,"wind_gusts":34.2,"aqi":791,"pm10":1829.1,"pm2_5":184.4,"no2":11.5,"co":328.0,"o3":139.0,"so2":17.3,"mosquito_risk":4,"arthritis_risk":5,"migraine_risk":7,"frizz_risk":0,"updated_at":"2026-05-07T08:58:40.905250+05:30"},{"city":"Mathura","state":"Uttar Pradesh","latitude":27.4924,"longitude":77.6737,"temp":26.9,"humidity":49,"rain":0.0,"pressure":988.1,"uv_index":7.85,"wind_gusts":42.5,"aqi":437,"pm10":1270.3,"pm2_5":135.5,"no2":7.0,"co":288.0,"o3":129.0,"so2":11.0,"mosquito_risk":4,"arthritis_risk":5,"migraine_risk":7,"frizz_risk":0,"updated_at":"2026-05-07T08:58:40.905258+05:30"},{"city":"Vrindavan","state":"Uttar Pradesh","latitude":27.5823,"longitude":77.7027,"temp":27.1,"humidity":47,"rain":0.0,"pressure":988.5,"uv_index":7.85,"wind_gusts":42.8,"aqi":437,"pm10":1270.3,"pm2_5":135.5,"no2":7.0,"co":292.0,"o3":129.0,"so2":11.0,"mosquito_risk":4,"arthritis_risk":5,"migraine_risk":7,"frizz_risk":0,"updated_at":"2026-05-07T08:58:40.905265+05:30"},{"city":"Ayodhya","state":"Uttar Pradesh","latitude":26.7922,"longitude":82.1998,"temp":26.1,"humidity":70,"rain":0.0,"pressure":998.7,"uv_index":8.2,"wind_gusts":50.8,"aqi":78,"pm10":49.5,"pm2_5":37.4,"no2":5.8,"co":418.0,"o3":128.0,"so2":8.2,"mosquito_risk":7,"arthritis_risk":5,"migraine_risk":7,"frizz_risk":1,"updated_at":"2026-05-07T08:58:40.905272+05:30"},{"city":"Ratlam","state":"Madhya Pradesh","latitude":23.3315,"longitude":75.0367,"temp":33.4,"humidity":23,"rain":0.0,"pressure":955.5,"uv_index":8.45,"wind_gusts":32.8,"aqi":80,"pm10":45.5,"pm2_5":23.6,"no2":3.1,"co":217.0,"o3":127.0,"so2":7.8,"mosquito_risk":0,"arthritis_risk":5,"migraine_risk":7,"frizz_risk":0,"updated_at":"2026-05-07T08:58:40.905296+05:30"},{"city":"Sagar","state":"Madhya Pradesh","latitude":23.8388,"longitude":78.7378,"temp":31.1,"humidity":29,"rain":0.0,"pressure":951.7,"uv_index":8.65,"wind_gusts":40.3,"aqi":53,"pm10":28.3,"pm2_5":16.0,"no2":3.9,"co":251.0,"o3":133.0,"so2":9.1,"mosquito_risk":0,"arthritis_risk":5,"migraine_risk":7,"frizz_risk":0,"updated_at":"2026-05-07T08:58:40.905304+05:30"},{"city":"Satna","state":"Madhya Pradesh","latitude":24.6005,"longitude":80.8322,"temp":29.0,"humidity":48,"rain":0.0,"pressure":973.1,"uv_index":8.65,"wind_gusts":60.5,"aqi":73,"pm10":55.3,"pm2_5":26.5,"no2":5.3,"co":326.0,"o3":145.0,"so2":14.7,"mosquito_risk":4,"arthritis_risk":5,"migraine_risk":7,"frizz_risk":1,"updated_at":"2026-05-07T08:58:40.905311+05:30"},{"city":"Akola","state":"Maharashtra","latitude":20.7002,"longitude":77.0082,"temp":33.3,"humidity":35,"rain":0.0,"pressure":975.7,"uv_index":8.65,"wind_gusts":35.3,"aqi":74,"pm10":38.0,"pm2_5":25.3,"no2":8.5,"co":304.0,"o3":115.0,"so2":10.4,"mosquito_risk":0,"arthritis_risk":5,"migraine_risk":7,"frizz_risk":0,"updated_at":"2026-05-07T08:58:40.905320+05:30"},{"city":"Amravati","state":"Maharashtra","latitude":20.9374,"longitude":77.7796,"temp":32.9,"humidity":35,"rain":0.0,"pressure":968.8,"uv_index":5.6,"wind_gusts":50.0,"aqi":72,"pm10":38.2,"pm2_5":25.0,"no2":8.2,"co":265.0,"o3":116.0,"so2":10.1,"mosquito_risk":0,"arthritis_risk":5,"migraine_risk":3,"frizz_risk":0,"updated_at":"2026-05-07T08:58:40.905328+05:30"},{"city":"Latur","state":"Maharashtra","latitude":18.4088,"longitude":76.5604,"temp":32.1,"humidity":38,"rain":0.0,"pressure":940.5,"uv_index":9.05,"wind_gusts":38.2,"aqi":65,"pm10":29.5,"pm2_5":21.1,"no2":3.3,"co":227.0,"o3":116.0,"so2":7.0,"mosquito_risk":0,"arthritis_risk":5,"migraine_risk":7,"frizz_risk":0,"updated_at":"2026-05-07T08:58:40.905336+05:30"},{"city":"Nanded","state":"Maharashtra","latitude":19.1383,"longitude":77.3091,"temp":32.3,"humidity":39,"rain":0.0,"pressure":969.4,"uv_index":8.8,"wind_gusts":31.7,"aqi":73,"pm10":30.2,"pm2_5":23.1,"no2":5.9,"co":249.0,"o3":114.0,"so2":7.2,"mosquito_risk":0,"arthritis_risk":5,"migraine_risk":7,"frizz_risk":1,"updated_at":"2026-05-07T08:58:40.905343+05:30"},{"city":"Gulbarga","state":"Karnataka","latitude":17.3297,"longitude":76.8343,"temp":31.6,"humidity":48,"rain":0.0,"pressure":959.4,"uv_index":9.1,"wind_gusts":36.0,"aqi":68,"pm10":26.1,"pm2_5":22.1,"no2":4.9,"co":227.0,"o3":110.0,"so2":12.1,"mosquito_risk":0,"arthritis_risk":5,"migraine_risk":7,"frizz_risk":1,"updated_at":"2026-05-07T08:58:40.905350+05:30"},{"city":"Bidar","state":"Karnataka","latitude":17.9104,"longitude":77.5199,"temp":30.9,"humidity":46,"rain":0.0,"pressure":936.6,"uv_index":9.1,"wind_gusts":48.6,"aqi":74,"pm10":22.2,"pm2_5":17.8,"no2":4.5,"co":223.0,"o3":106.0,"so2":4.6,"mosquito_risk":0,"arthritis_risk":5,"migraine_risk":7,"frizz_risk":1,"updated_at":"2026-05-07T08:58:40.905357+05:30"},{"city":"Hospet","state":"Karnataka","latitude":15.2689,"longitude":76.3909,"temp":30.0,"humidity":54,"rain":0.0,"pressure":956.0,"uv_index":9.2,"wind_gusts":29.5,"aqi":78,"pm10":51.1,"pm2_5":42.3,"no2":6.4,"co":293.0,"o3":121.0,"so2":9.3,"mosquito_risk":4,"arthritis_risk":5,"migraine_risk":7,"frizz_risk":1,"updated_at":"2026-05-07T08:58:40.905364+05:30"},{"city":"Tirupur","state":"Tamil Nadu","latitude":11.1085,"longitude":77.3411,"temp":28.4,"humidity":70,"rain":0.0,"pressure":975.2,"uv_index":8.65,"wind_gusts":28.1,"aqi":85,"pm10":24.2,"pm2_5":17.2,"no2":6.5,"co":296.0,"o3":95.0,"so2":4.4,"mosquito_risk":7,"arthritis_risk":5,"migraine_risk":7,"frizz_risk":1,"updated_at":"2026-05-07T08:58:40.905371+05:30"},{"city":"Alappuzha","state":"Kerala","latitude":9.4981,"longitude":76.3388,"temp":27.6,"humidity":84,"rain":0.0,"pressure":1008.2,"uv_index":8.3,"wind_gusts":33.5,"aqi":70,"pm10":29.0,"pm2_5":23.1,"no2":8.0,"co":253.0,"o3":112.0,"so2":7.6,"mosquito_risk":7,"arthritis_risk":0,"migraine_risk":4,"frizz_risk":1,"updated_at":"2026-05-07T08:58:40.905379+05:30"},{"city":"Munnar","state":"Kerala","latitude":10.0889,"longitude":77.0595,"temp":21.2,"humidity":77,"rain":0.0,"pressure":857.1,"uv_index":7.4,"wind_gusts":24.8,"aqi":79,"pm10":23.9,"pm2_5":16.6,"no2":2.5,"co":216.0,"o3":102.0,"so2":2.3,"mosquito_risk":3,"arthritis_risk":5,"migraine_risk":7,"frizz_risk":1,"updated_at":"2026-05-07T08:58:40.905386+05:30"},{"city":"Silchar","state":"Assam","latitude":24.8333,"longitude":92.7789,"temp":26.4,"humidity":81,"rain":0.0,"pressure":1008.8,"uv_index":8.85,"wind_gusts":28.1,"aqi":113,"pm10":43.2,"pm2_5":32.8,"no2":3.8,"co":278.0,"o3":101.0,"so2":6.9,"mosquito_risk":7,"arthritis_risk":0,"migraine_risk":4,"frizz_risk":1,"updated_at":"2026-05-07T08:58:40.905393+05:30"},{"city":"Dibrugarh","state":"Assam","latitude":27.4728,"longitude":94.912,"temp":22.4,"humidity":89,"rain":0.0,"pressure":999.8,"uv_index":8.8,"wind_gusts":23.0,"aqi":74,"pm10":35.7,"pm2_5":20.5,"no2":2.2,"co":259.0,"o3":114.0,"so2":0.8,"mosquito_risk":3,"arthritis_risk":5,"migraine_risk":7,"frizz_risk":1,"updated_at":"2026-05-07T08:58:40.905401+05:30"}]