[{"city":"Delhi","state":"Delhi","latitude":28.6139,"longitude":77.209,"temp":33.5,"humidity":40,"rain":0.0,"pressure":980.2,"uv_index":7.8,"wind_gusts":30.2,"aqi":167,"pm10":345.5,"pm2_5":106.9,"no2":19.2,"co":554.0,"o3":163.0,"so2":42.5,"mosquito_risk":0,"arthritis_risk":5,"migraine_risk":7,"frizz_risk":1,"updated_at":"2026-06-05T10:50:20.160394+05:30"},{"city":"Mumbai","state":"Maharashtra","latitude":19.076,"longitude":72.8777,"temp":32.1,"humidity":65,"rain":0.0,"pressure":1006.6,"uv_index":7.4,"wind_gusts":41.4,"aqi":63,"pm10":47.0,"pm2_5":23.8,"no2":7.9,"co":220.0,"o3":82.0,"so2":13.4,"mosquito_risk":3,"arthritis_risk":5,"migraine_risk":4,"frizz_risk":1,"updated_at":"2026-06-05T10:50:20.160435+05:30"},{"city":"Bangalore","state":"Karnataka","latitude":12.9716,"longitude":77.5946,"temp":26.8,"humidity":64,"rain":0.0,"pressure":911.9,"uv_index":6.05,"wind_gusts":49.7,"aqi":30,"pm10":3.7,"pm2_5":3.3,"no2":4.5,"co":291.0,"o3":59.0,"so2":2.9,"mosquito_risk":7,"arthritis_risk":5,"migraine_risk":7,"frizz_risk":1,"updated_at":"2026-06-05T10:50:20.160448+05:30"},{"city":"Hyderabad","state":"Telangana","latitude":17.385,"longitude":78.4867,"temp":32.2,"humidity":50,"rain":0.0,"pressure":951.9,"uv_index":8.95,"wind_gusts":35.6,"aqi":63,"pm10":27.4,"pm2_5":16.8,"no2":3.4,"co":302.0,"o3":109.0,"so2":4.7,"mosquito_risk":0,"arthritis_risk":5,"migraine_risk":7,"frizz_risk":1,"updated_at":"2026-06-05T10:50:20.160456+05:30"},{"city":"Chennai","state":"Tamil Nadu","latitude":13.0827,"longitude":80.2707,"temp":37.0,"humidity":38,"rain":0.0,"pressure":1004.7,"uv_index":8.9,"wind_gusts":46.8,"aqi":58,"pm10":15.1,"pm2_5":12.3,"no2":7.8,"co":207.0,"o3":106.0,"so2":12.0,"mosquito_risk":0,"arthritis_risk":5,"migraine_risk":7,"frizz_risk":1,"updated_at":"2026-06-05T10:50:20.160463+05:30"},{"city":"Kolkata","state":"West Bengal","latitude":22.5726,"longitude":88.3639,"temp":33.5,"humidity":70,"rain":0.0,"pressure":1001.6,"uv_index":8.95,"wind_gusts":50.0,"aqi":116,"pm10":48.8,"pm2_5":41.2,"no2":3.1,"co":409.0,"o3":167.0,"so2":14.2,"mosquito_risk":3,"arthritis_risk":5,"migraine_risk":4,"frizz_risk":1,"updated_at":"2026-06-05T10:50:20.160470+05:30"},{"city":"Pune","state":"Maharashtra","latitude":18.5204,"longitude":73.8567,"temp":33.6,"humidity":44,"rain":0.0,"pressure":947.2,"uv_index":8.25,"wind_gusts":45.4,"aqi":50,"pm10":21.1,"pm2_5":10.9,"no2":2.9,"co":151.0,"o3":85.0,"so2":5.3,"mosquito_risk":0,"arthritis_risk":5,"migraine_risk":7,"frizz_risk":1,"updated_at":"2026-06-05T10:50:20.160475+05:30"},{"city":"Ahmedabad","state":"Gujarat","latitude":23.0225,"longitude":72.5714,"temp":35.2,"humidity":47,"rain":0.0,"pressure":999.0,"uv_index":8.1,"wind_gusts":37.1,"aqi":77,"pm10":63.3,"pm2_5":27.1,"no2":2.2,"co":144.0,"o3":74.0,"so2":3.9,"mosquito_risk":0,"arthritis_risk":5,"migraine_risk":10,"frizz_risk":1,"updated_at":"2026-06-05T10:50:20.160480+05:30"},{"city":"Jaipur","state":"Rajasthan","latitude":26.9124,"longitude":75.7873,"temp":33.2,"humidity":48,"rain":0.0,"pressure":957.0,"uv_index":8.2,"wind_gusts":32.4,"aqi":95,"pm10":156.9,"pm2_5":41.4,"no2":2.5,"co":179.0,"o3":97.0,"so2":5.1,"mosquito_risk":0,"arthritis_risk":5,"migraine_risk":7,"frizz_risk":1,"updated_at":"2026-06-05T10:50:20.160489+05:30"},{"city":"Lucknow","state":"Uttar Pradesh","latitude":26.8467,"longitude":80.9462,"temp":37.8,"humidity":33,"rain":0.0,"pressure":989.0,"uv_index":8.35,"wind_gusts":41.0,"aqi":152,"pm10":117.3,"pm2_5":44.8,"no2":3.8,"co":373.0,"o3":169.0,"so2":10.6,"mosquito_risk":0,"arthritis_risk":5,"migraine_risk":10,"frizz_risk":1,"updated_at":"2026-06-05T10:50:20.160495+05:30"},{"city":"Kanpur","state":"Uttar Pradesh","latitude":26.4499,"longitude":80.3319,"temp":36.5,"humidity":35,"rain":0.0,"pressure":987.7,"uv_index":8.35,"wind_gusts":35.6,"aqi":143,"pm10":169.0,"pm2_5":47.7,"no2":3.5,"co":243.0,"o3":171.0,"so2":8.6,"mosquito_risk":0,"arthritis_risk":5,"migraine_risk":10,"frizz_risk":1,"updated_at":"2026-06-05T10:50:20.160500+05:30"},{"city":"Chandigarh","state":"Chandigarh","latitude":30.7333,"longitude":76.7794,"temp":33.0,"humidity":36,"rain":0.0,"pressure":966.3,"uv_index":7.8,"wind_gusts":24.5,"aqi":113,"pm10":105.2,"pm2_5":38.8,"no2":3.4,"co":389.0,"o3":189.0,"so2":11.0,"mosquito_risk":0,"arthritis_risk":5,"migraine_risk":7,"frizz_risk":1,"updated_at":"2026-06-05T10:50:20.160505+05:30"},{"city":"Srinagar","state":"Jammu and Kashmir","latitude":34.0837,"longitude":74.7973,"temp":18.9,"humidity":69,"rain":0.1,"pressure":842.3,"uv_index":9.0,"wind_gusts":26.3,"aqi":75,"pm10":35.9,"pm2_5":23.0,"no2":3.1,"co":268.0,"o3":130.0,"so2":2.7,"mosquito_risk":6,"arthritis_risk":5,"migraine_risk":7,"frizz_risk":0,"updated_at":"2026-06-05T10:50:20.160511+05:30"},{"city":"Jammu","state":"Jammu and Kashmir","latitude":32.7266,"longitude":74.857,"temp":32.8,"humidity":36,"rain":0.0,"pressure":970.1,"uv_index":8.6,"wind_gusts":26.3,"aqi":125,"pm10":77.5,"pm2_5":39.7,"no2":4.9,"co":312.0,"o3":150.0,"so2":5.0,"mosquito_risk":0,"arthritis_risk":5,"migraine_risk":7,"frizz_risk":0,"updated_at":"2026-06-05T10:50:20.160516+05:30"},{"city":"Amritsar","state":"Punjab","latitude":31.634,"longitude":74.8723,"temp":33.4,"humidity":36,"rain":0.0,"pressure":978.0,"uv_index":8.45,"wind_gusts":24.5,"aqi":135,"pm10":167.6,"pm2_5":56.6,"no2":2.4,"co":430.0,"o3":168.0,"so2":10.4,"mosquito_risk":0,"arthritis_risk":5,"migraine_risk":7,"frizz_risk":1,"updated_at":"2026-06-05T10:50:20.160521+05:30"},{"city":"Ludhiana","state":"Punjab","latitude":30.901,"longitude":75.8573,"temp":33.2,"humidity":38,"rain":0.0,"pressure":976.1,"uv_index":8.0,"wind_gusts":37.8,"aqi":151,"pm10":218.4,"pm2_5":62.6,"no2":4.2,"co":504.0,"o3":173.0,"so2":15.5,"mosquito_risk":0,"arthritis_risk":5,"migraine_risk":7,"frizz_risk":1,"updated_at":"2026-06-05T10:50:20.160526+05:30"},{"city":"Jalandhar","state":"Punjab","latitude":31.326,"longitude":75.5762,"temp":33.8,"humidity":32,"rain":0.0,"pressure":976.9,"uv_index":8.2,"wind_gusts":27.7,"aqi":131,"pm10":258.9,"pm2_5":71.9,"no2":3.3,"co":443.0,"o3":175.0,"so2":14.1,"mosquito_risk":0,"arthritis_risk":5,"migraine_risk":7,"frizz_risk":0,"updated_at":"2026-06-05T10:50:20.160530+05:30"},{"city":"Dehradun","state":"Uttarakhand","latitude":30.6284,"longitude":78.0322,"temp":20.1,"humidity":63,"rain":0.0,"pressure":831.2,"uv_index":7.15,"wind_gusts":25.6,"aqi":68,"pm10":51.2,"pm2_5":20.3,"no2":0.6,"co":188.0,"o3":154.0,"so2":1.8,"mosquito_risk":3,"arthritis_risk":5,"migraine_risk":7,"frizz_risk":0,"updated_at":"2026-06-05T10:50:20.160535+05:30"},{"city":"Shimla","state":"Himachal Pradesh","latitude":31.1048,"longitude":77.1734,"temp":21.1,"humidity":40,"rain":0.0,"pressure":786.5,"uv_index":7.3,"wind_gusts":35.6,"aqi":69,"pm10":40.2,"pm2_5":22.6,"no2":1.0,"co":265.0,"o3":174.0,"so2":4.7,"mosquito_risk":0,"arthritis_risk":5,"migraine_risk":7,"frizz_risk":0,"updated_at":"2026-06-05T10:50:20.160542+05:30"},{"city":"Manali","state":"Himachal Pradesh","latitude":32.2396,"longitude":77.1887,"temp":21.0,"humidity":60,"rain":0.0,"pressure":819.7,"uv_index":5.3,"wind_gusts":39.6,"aqi":80,"pm10":12.8,"pm2_5":8.0,"no2":2.7,"co":172.0,"o3":154.0,"so2":1.1,"mosquito_risk":0,"arthritis_risk":5,"migraine_risk":3,"frizz_risk":0,"updated_at":"2026-06-05T10:50:20.160546+05:30"},{"city":"Gurgaon","state":"Haryana","latitude":28.4595,"longitude":77.0266,"temp":34.2,"humidity":34,"rain":0.0,"pressure":978.6,"uv_index":7.85,"wind_gusts":29.9,"aqi":825,"pm10":590.5,"pm2_5":102.2,"no2":10.8,"co":321.0,"o3":116.0,"so2":17.6,"mosquito_risk":0,"arthritis_risk":5,"migraine_risk":7,"frizz_risk":1,"updated_at":"2026-06-05T10:50:20.160552+05:30"},{"city":"Noida","state":"Uttar Pradesh","latitude":28.5355,"longitude":77.391,"temp":32.9,"humidity":44,"rain":0.0,"pressure":981.7,"uv_index":7.75,"wind_gusts":25.2,"aqi":825,"pm10":590.5,"pm2_5":102.2,"no2":10.8,"co":682.0,"o3":116.0,"so2":17.6,"mosquito_risk":0,"arthritis_risk":5,"migraine_risk":7,"frizz_risk":1,"updated_at":"2026-06-05T10:50:20.160558+05:30"},{"city":"Ghaziabad","state":"Uttar Pradesh","latitude":28.6692,"longitude":77.4538,"temp":32.6,"humidity":46,"rain":0.0,"pressure":979.9,"uv_index":7.75,"wind_gusts":26.3,"aqi":156,"pm10":320.4,"pm2_5":93.6,"no2":10.9,"co":410.0,"o3":162.0,"so2":33.9,"mosquito_risk":0,"arthritis_risk":5,"migraine_risk":7,"frizz_risk":1,"updated_at":"2026-06-05T10:50:20.160563+05:30"},{"city":"Faridabad","state":"Haryana","latitude":28.4089,"longitude":77.3178,"temp":33.3,"humidity":40,"rain":0.0,"pressure":981.0,"uv_index":7.75,"wind_gusts":28.8,"aqi":825,"pm10":590.5,"pm2_5":102.2,"no2":10.8,"co":380.0,"o3":116.0,"so2":17.6,"mosquito_risk":0,"arthritis_risk":5,"migraine_risk":7,"frizz_risk":1,"updated_at":"2026-06-05T10:50:20.160568+05:30"},{"city":"Meerut","state":"Uttar Pradesh","latitude":28.9845,"longitude":77.7064,"temp":32.9,"humidity":49,"rain":0.0,"pressure":978.9,"uv_index":7.5,"wind_gusts":24.1,"aqi":156,"pm10":320.4,"pm2_5":93.6,"no2":10.9,"co":411.0,"o3":162.0,"so2":33.9,"mosquito_risk":0,"arthritis_risk":5,"migraine_risk":7,"frizz_risk":1,"updated_at":"2026-06-05T10:50:20.160574+05:30"},{"city":"Agra","state":"Uttar Pradesh","latitude":27.1767,"longitude":78.0081,"temp":33.5,"humidity":42,"rain":0.0,"pressure":985.0,"uv_index":8.15,"wind_gusts":27.0,"aqi":179,"pm10":367.9,"pm2_5":59.8,"no2":3.9,"co":188.0,"o3":119.0,"so2":5.4,"mosquito_risk":0,"arthritis_risk":5,"migraine_risk":7,"frizz_risk":1,"updated_at":"2026-06-05T10:50:20.160579+05:30"},{"city":"Varanasi","state":"Uttar Pradesh","latitude":25.3176,"longitude":82.9739,"temp":38.1,"humidity":33,"rain":0.0,"pressure":992.9,"uv_index":8.8,"wind_gusts":32.0,"aqi":146,"pm10":86.4,"pm2_5":42.3,"no2":4.7,"co":384.0,"o3":164.0,"so2":15.8,"mosquito_risk":0,"arthritis_risk":5,"migraine_risk":10,"frizz_risk":1,"updated_at":"2026-06-05T10:50:20.160584+05:30"},{"city":"Prayagraj","state":"Uttar Pradesh","latitude":25.4358,"longitude":81.8463,"temp":37.6,"humidity":32,"rain":0.0,"pressure":991.3,"uv_index":8.75,"wind_gusts":29.9,"aqi":146,"pm10":88.9,"pm2_5":45.8,"no2":5.4,"co":245.0,"o3":182.0,"so2":13.2,"mosquito_risk":0,"arthritis_risk":5,"migraine_risk":10,"frizz_risk":1,"updated_at":"2026-06-05T10:50:20.160589+05:30"},{"city":"Gorakhpur","state":"Uttar Pradesh","latitude":26.7606,"longitude":83.3732,"temp":36.1,"humidity":42,"rain":0.0,"pressure":992.9,"uv_index":8.75,"wind_gusts":24.5,"aqi":151,"pm10":90.1,"pm2_5":55.9,"no2":4.7,"co":347.0,"o3":183.0,"so2":10.7,"mosquito_risk":0,"arthritis_risk":5,"migraine_risk":10,"frizz_risk":1,"updated_at":"2026-06-05T10:50:20.160596+05:30"},{"city":"Bareilly","state":"Uttar Pradesh","latitude":28.367,"longitude":79.4304,"temp":32.3,"humidity":55,"rain":0.0,"pressure":983.7,"uv_index":8.1,"wind_gusts":34.6,"aqi":132,"pm10":120.6,"pm2_5":47.6,"no2":4.2,"co":351.0,"o3":172.0,"so2":11.3,"mosquito_risk":0,"arthritis_risk":5,"migraine_risk":7,"frizz_risk":1,"updated_at":"2026-06-05T10:50:20.160602+05:30"},{"city":"Aligarh","state":"Uttar Pradesh","latitude":27.8974,"longitude":78.088,"temp":33.0,"humidity":40,"rain":0.0,"pressure":982.7,"uv_index":7.85,"wind_gusts":25.9,"aqi":154,"pm10":305.5,"pm2_5":65.2,"no2":4.7,"co":224.0,"o3":122.0,"so2":11.1,"mosquito_risk":0,"arthritis_risk":5,"migraine_risk":7,"frizz_risk":1,"updated_at":"2026-06-05T10:50:20.160606+05:30"},{"city":"Moradabad","state":"Uttar Pradesh","latitude":28.8386,"longitude":78.7733,"temp":34.1,"humidity":43,"rain":0.0,"pressure":981.0,"uv_index":7.9,"wind_gusts":31.7,"aqi":152,"pm10":147.6,"pm2_5":58.0,"no2":5.6,"co":340.0,"o3":194.0,"so2":20.1,"mosquito_risk":0,"arthritis_risk":5,"migraine_risk":7,"frizz_risk":1,"updated_at":"2026-06-05T10:50:20.160612+05:30"},{"city":"Saharanpur","state":"Uttar Pradesh","latitude":29.9637,"longitude":77.546,"temp":31.8,"humidity":51,"rain":0.0,"pressure":973.7,"uv_index":6.2,"wind_gusts":35.6,"aqi":143,"pm10":128.1,"pm2_5":47.1,"no2":3.8,"co":371.0,"o3":169.0,"so2":8.6,"mosquito_risk":0,"arthritis_risk":5,"migraine_risk":7,"frizz_risk":1,"updated_at":"2026-06-05T10:50:20.160618+05:30"},{"city":"Jhansi","state":"Uttar Pradesh","latitude":25.4484,"longitude":78.5685,"temp":33.5,"humidity":43,"rain":0.0,"pressure":975.3,"uv_index":8.5,"wind_gusts":32.4,"aqi":75,"pm10":67.3,"pm2_5":30.4,"no2":1.8,"co":150.0,"o3":108.0,"so2":7.2,"mosquito_risk":0,"arthritis_risk":5,"migraine_risk":7,"frizz_risk":1,"updated_at":"2026-06-05T10:50:23.473008+05:30"},{"city":"Surat","state":"Gujarat","latitude":21.1702,"longitude":72.8311,"temp":34.4,"humidity":57,"rain":0.0,"pressure":1004.0,"uv_index":7.55,"wind_gusts":52.2,"aqi":84,"pm10":61.7,"pm2_5":30.5,"no2":10.7,"co":226.0,"o3":57.0,"so2":30.9,"mosquito_risk":0,"arthritis_risk":5,"migraine_risk":4,"frizz_risk":1,"updated_at":"2026-06-05T10:50:23.473039+05:30"},{"city":"Vadodara","state":"Gujarat","latitude":22.3072,"longitude":73.1812,"temp":35.1,"humidity":48,"rain":0.0,"pressure":1001.4,"uv_index":8.0,"wind_gusts":45.0,"aqi":83,"pm10":63.3,"pm2_5":28.9,"no2":2.6,"co":138.0,"o3":76.0,"so2":4.7,"mosquito_risk":0,"arthritis_risk":5,"migraine_risk":7,"frizz_risk":1,"updated_at":"2026-06-05T10:50:23.473047+05:30"},{"city":"Rajkot","state":"Gujarat","latitude":22.3039,"longitude":70.8022,"temp":35.2,"humidity":47,"rain":0.0,"pressure":990.8,"uv_index":7.55,"wind_gusts":42.1,"aqi":73,"pm10":64.5,"pm2_5":26.6,"no2":1.1,"co":110.0,"o3":73.0,"so2":2.5,"mosquito_risk":0,"arthritis_risk":5,"migraine_risk":10,"frizz_risk":1,"updated_at":"2026-06-05T10:50:23.473054+05:30"},{"city":"Thane","state":"Maharashtra","latitude":19.2183,"longitude":72.9781,"temp":34.3,"humidity":56,"rain":0.0,"pressure":1005.6,"uv_index":7.55,"wind_gusts":39.6,"aqi":63,"pm10":47.0,"pm2_5":23.8,"no2":7.9,"co":201.0,"o3":82.0,"so2":13.4,"mosquito_risk":0,"arthritis_risk":5,"migraine_risk":4,"frizz_risk":1,"updated_at":"2026-06-05T10:50:23.473060+05:30"},{"city":"Nagpur","state":"Maharashtra","latitude":21.1458,"longitude":79.0882,"temp":37.5,"humidity":29,"rain":0.0,"pressure":970.4,"uv_index":8.9,"wind_gusts":50.8,"aqi":86,"pm10":70.3,"pm2_5":37.8,"no2":6.0,"co":178.0,"o3":119.0,"so2":18.0,"mosquito_risk":0,"arthritis_risk":5,"migraine_risk":10,"frizz_risk":1,"updated_at":"2026-06-05T10:50:23.473066+05:30"},{"city":"Nashik","state":"Maharashtra","latitude":19.9975,"longitude":73.7898,"temp":32.0,"humidity":51,"rain":0.0,"pressure":944.3,"uv_index":8.0,"wind_gusts":47.9,"aqi":63,"pm10":33.2,"pm2_5":17.5,"no2":4.1,"co":135.0,"o3":82.0,"so2":10.2,"mosquito_risk":0,"arthritis_risk":5,"migraine_risk":7,"frizz_risk":1,"updated_at":"2026-06-05T10:50:23.473072+05:30"},{"city":"Aurangabad","state":"Maharashtra","latitude":19.8762,"longitude":75.3433,"temp":33.9,"humidity":42,"rain":0.0,"pressure":943.2,"uv_index":8.95,"wind_gusts":44.3,"aqi":72,"pm10":33.5,"pm2_5":17.6,"no2":2.8,"co":151.0,"o3":94.0,"so2":9.1,"mosquito_risk":0,"arthritis_risk":5,"migraine_risk":7,"frizz_risk":1,"updated_at":"2026-06-05T10:50:23.473078+05:30"},{"city":"Solapur","state":"Maharashtra","latitude":17.6599,"longitude":75.9064,"temp":33.3,"humidity":50,"rain":0.0,"pressure":956.1,"uv_index":5.75,"wind_gusts":47.2,"aqi":54,"pm10":18.8,"pm2_5":11.0,"no2":1.8,"co":151.0,"o3":94.0,"so2":2.9,"mosquito_risk":0,"arthritis_risk":5,"migraine_risk":3,"frizz_risk":1,"updated_at":"2026-06-05T10:50:23.473084+05:30"},{"city":"Kolhapur","state":"Maharashtra","latitude":16.705,"longitude":74.2433,"temp":31.5,"humidity":49,"rain":0.0,"pressure":947.4,"uv_index":8.3,"wind_gusts":53.3,"aqi":38,"pm10":13.9,"pm2_5":7.9,"no2":2.2,"co":138.0,"o3":75.0,"so2":1.7,"mosquito_risk":0,"arthritis_risk":5,"migraine_risk":7,"frizz_risk":1,"updated_at":"2026-06-05T10:50:23.473090+05:30"},{"city":"Goa","state":"Goa","latitude":15.2993,"longitude":74.124,"temp":26.4,"humidity":93,"rain":0.1,"pressure":998.0,"uv_index":8.45,"wind_gusts":24.5,"aqi":30,"pm10":9.0,"pm2_5":5.0,"no2":1.1,"co":138.0,"o3":62.0,"so2":0.7,"mosquito_risk":10,"arthritis_risk":5,"migraine_risk":7,"frizz_risk":1,"updated_at":"2026-06-05T10:50:23.473096+05:30"},{"city":"Jodhpur","state":"Rajasthan","latitude":26.2389,"longitude":73.0243,"temp":33.9,"humidity":52,"rain":0.0,"pressure":979.4,"uv_index":8.4,"wind_gusts":41.4,"aqi":147,"pm10":286.8,"pm2_5":59.1,"no2":1.1,"co":118.0,"o3":71.0,"so2":1.9,"mosquito_risk":0,"arthritis_risk":5,"migraine_risk":7,"frizz_risk":1,"updated_at":"2026-06-05T10:50:23.473102+05:30"},{"city":"Udaipur","state":"Rajasthan","latitude":24.5854,"longitude":73.7125,"temp":31.6,"humidity":52,"rain":0.0,"pressure":944.4,"uv_index":8.8,"wind_gusts":47.9,"aqi":77,"pm10":52.9,"pm2_5":24.4,"no2":0.8,"co":130.0,"o3":75.0,"so2":3.1,"mosquito_risk":0,"arthritis_risk":5,"migraine_risk":7,"frizz_risk":1,"updated_at":"2026-06-05T10:50:23.473108+05:30"},{"city":"Kota","state":"Rajasthan","latitude":25.2138,"longitude":75.8648,"temp":32.4,"humidity":59,"rain":0.0,"pressure":976.0,"uv_index":8.35,"wind_gusts":33.5,"aqi":87,"pm10":50.5,"pm2_5":29.8,"no2":2.8,"co":170.0,"o3":95.0,"so2":10.4,"mosquito_risk":0,"arthritis_risk":5,"migraine_risk":7,"frizz_risk":1,"updated_at":"2026-06-05T10:50:23.473113+05:30"},{"city":"Bikaner","state":"Rajasthan","latitude":28.0229,"longitude":73.3119,"temp":35.8,"humidity":45,"rain":0.0,"pressure":977.2,"uv_index":8.45,"wind_gusts":32.8,"aqi":153,"pm10":278.5,"pm2_5":95.7,"no2":0.7,"co":119.0,"o3":78.0,"so2":4.4,"mosquito_risk":0,"arthritis_risk":5,"migraine_risk":10,"frizz_risk":1,"updated_at":"2026-06-05T10:50:23.473119+05:30"},{"city":"Ajmer","state":"Rajasthan","latitude":26.4499,"longitude":74.6399,"temp":32.3,"humidity":53,"rain":0.0,"pressure":951.9,"uv_index":8.35,"wind_gusts":47.9,"aqi":77,"pm10":78.9,"pm2_5":31.0,"no2":1.3,"co":140.0,"o3":84.0,"so2":3.2,"mosquito_risk":0,"arthritis_risk":5,"migraine_risk":7,"frizz_risk":1,"updated_at":"2026-06-05T10:50:23.473125+05:30"},{"city":"Gwalior","state":"Madhya Pradesh","latitude":26.2183,"longitude":78.1828,"temp":33.5,"humidity":45,"rain":0.0,"pressure":980.5,"uv_index":8.3,"wind_gusts":34.9,"aqi":81,"pm10":64.0,"pm2_5":28.1,"no2":1.3,"co":154.0,"o3":103.0,"so2":3.8,"mosquito_risk":0,"arthritis_risk":5,"migraine_risk":7,"frizz_risk":1,"updated_at":"2026-06-05T10:50:23.473130+05:30"},{"city":"Indore","state":"Madhya Pradesh","latitude":22.7196,"longitude":75.8577,"temp":32.0,"humidity":53,"rain":0.0,"pressure":946.4,"uv_index":8.65,"wind_gusts":47.2,"aqi":91,"pm10":51.1,"pm2_5":28.6,"no2":2.9,"co":177.0,"o3":83.0,"so2":6.9,"mosquito_risk":0,"arthritis_risk":5,"migraine_risk":7,"frizz_risk":1,"updated_at":"2026-06-05T10:50:23.473137+05:30"},{"city":"Bhopal","state":"Madhya Pradesh","latitude":23.2599,"longitude":77.4126,"temp":30.5,"humidity":59,"rain":0.0,"pressure":952.1,"uv_index":8.7,"wind_gusts":46.8,"aqi":87,"pm10":43.7,"pm2_5":23.6,"no2":1.2,"co":209.0,"o3":106.0,"so2":4.2,"mosquito_risk":0,"arthritis_risk":5,"migraine_risk":7,"frizz_risk":1,"updated_at":"2026-06-05T10:50:23.473143+05:30"},{"city":"Jabalpur","state":"Madhya Pradesh","latitude":23.1815,"longitude":79.9864,"temp":35.3,"humidity":35,"rain":0.0,"pressure":959.0,"uv_index":8.85,"wind_gusts":45.4,"aqi":90,"pm10":62.9,"pm2_5":32.4,"no2":1.5,"co":187.0,"o3":114.0,"so2":5.6,"mosquito_risk":0,"arthritis_risk":5,"migraine_risk":10,"frizz_risk":1,"updated_at":"2026-06-05T10:50:23.473148+05:30"},{"city":"Ujjain","state":"Madhya Pradesh","latitude":23.1765,"longitude":75.7885,"temp":32.2,"humidity":54,"rain":0.0,"pressure":952.1,"uv_index":8.55,"wind_gusts":42.1,"aqi":88,"pm10":53.6,"pm2_5":29.1,"no2":2.2,"co":152.0,"o3":76.0,"so2":6.7,"mosquito_risk":0,"arthritis_risk":5,"migraine_risk":7,"frizz_risk":1,"updated_at":"2026-06-05T10:50:23.473154+05:30"},{"city":"Visakhapatnam","state":"Andhra Pradesh","latitude":17.6868,"longitude":83.2185,"temp":38.5,"humidity":35,"rain":0.0,"pressure":998.7,"uv_index":9.05,"wind_gusts":34.6,"aqi":93,"pm10":34.7,"pm2_5":30.7,"no2":11.8,"co":384.0,"o3":161.0,"so2":38.9,"mosquito_risk":0,"arthritis_risk":5,"migraine_risk":10,"frizz_risk":1,"updated_at":"2026-06-05T10:50:23.473160+05:30"},{"city":"Vijayawada","state":"Andhra Pradesh","latitude":16.5062,"longitude":80.648,"temp":36.4,"humidity":45,"rain":0.0,"pressure":999.4,"uv_index":8.6,"wind_gusts":42.1,"aqi":70,"pm10":15.1,"pm2_5":12.8,"no2":2.9,"co":185.0,"o3":124.0,"so2":7.9,"mosquito_risk":0,"arthritis_risk":5,"migraine_risk":10,"frizz_risk":1,"updated_at":"2026-06-05T10:50:23.473165+05:30"},{"city":"Guntur","state":"Andhra Pradesh","latitude":16.3067,"longitude":80.4365,"temp":36.2,"humidity":44,"rain":0.0,"pressure":1000.7,"uv_index":9.05,"wind_gusts":37.8,"aqi":65,"pm10":13.9,"pm2_5":11.1,"no2":3.1,"co":181.0,"o3":113.0,"so2":6.8,"mosquito_risk":0,"arthritis_risk":5,"migraine_risk":7,"frizz_risk":1,"updated_at":"2026-06-05T10:50:23.473171+05:30"},{"city":"Nellore","state":"Andhra Pradesh","latitude":14.4426,"longitude":79.9865,"temp":35.5,"humidity":45,"rain":0.0,"pressure":1003.5,"uv_index":8.7,"wind_gusts":41.4,"aqi":53,"pm10":12.8,"pm2_5":8.7,"no2":2.5,"co":147.0,"o3":93.0,"so2":5.5,"mosquito_risk":0,"arthritis_risk":5,"migraine_risk":7,"frizz_risk":1,"updated_at":"2026-06-05T10:50:23.473177+05:30"},{"city":"Kurnool","state":"Andhra Pradesh","latitude":15.8281,"longitude":78.0373,"temp":33.5,"humidity":48,"rain":0.0,"pressure":975.9,"uv_index":8.4,"wind_gusts":49.7,"aqi":42,"pm10":9.9,"pm2_5":6.5,"no2":2.0,"co":133.0,"o3":80.0,"so2":4.5,"mosquito_risk":0,"arthritis_risk":5,"migraine_risk":7,"frizz_risk":1,"updated_at":"2026-06-05T10:50:23.473184+05:30"},{"city":"Kakinada","state":"Andhra Pradesh","latitude":16.9891,"longitude":82.2475,"temp":36.0,"humidity":46,"rain":0.0,"pressure":1003.4,"uv_index":9.05,"wind_gusts":70.2,"aqi":66,"pm10":16.3,"pm2_5":15.1,"no2":3.1,"co":245.0,"o3":146.0,"so2":6.2,"mosquito_risk":0,"arthritis_risk":5,"migraine_risk":7,"frizz_risk":1,"updated_at":"2026-06-05T10:50:23.473189+05:30"},{"city":"Tirupati","state":"Andhra Pradesh","latitude":13.6288,"longitude":79.4192,"temp":35.4,"humidity":42,"rain":0.0,"pressure":989.1,"uv_index":8.55,"wind_gusts":42.5,"aqi":53,"pm10":9.8,"pm2_5":6.1,"no2":1.7,"co":129.0,"o3":81.0,"so2":1.5,"mosquito_risk":0,"arthritis_risk":5,"migraine_risk":10,"frizz_risk":1,"updated_at":"2026-06-05T10:50:23.473195+05:30"},{"city":"Warangal","state":"Telangana","latitude":17.9689,"longitude":79.5941,"temp":35.3,"humidity":41,"rain":0.0,"pressure":976.0,"uv_index":8.5,"wind_gusts":33.1,"aqi":77,"pm10":42.3,"pm2_5":24.9,"no2":3.2,"co":190.0,"o3":119.0,"so2":4.2,"mosquito_risk":0,"arthritis_risk":5,"migraine_risk":10,"frizz_risk":1,"updated_at":"2026-06-05T10:50:23.473199+05:30"},{"city":"Nizamabad","state":"Telangana","latitude":18.6725,"longitude":78.0941,"temp":35.1,"humidity":40,"rain":0.0,"pressure":962.8,"uv_index":8.75,"wind_gusts":40.3,"aqi":82,"pm10":60.1,"pm2_5":32.6,"no2":2.7,"co":201.0,"o3":115.0,"so2":6.4,"mosquito_risk":0,"arthritis_risk":5,"migraine_risk":10,"frizz_risk":1,"updated_at":"2026-06-05T10:50:23.473204+05:30"},{"city":"Mysore","state":"Karnataka","latitude":12.2958,"longitude":76.6396,"temp":27.4,"humidity":64,"rain":0.0,"pressure":928.9,"uv_index":7.55,"wind_gusts":57.6,"aqi":19,"pm10":2.4,"pm2_5":1.9,"no2":2.4,"co":121.0,"o3":61.0,"so2":1.6,"mosquito_risk":7,"arthritis_risk":5,"migraine_risk":7,"frizz_risk":1,"updated_at":"2026-06-05T10:50:23.473211+05:30"},{"city":"Mangalore","state":"Karnataka","latitude":12.9141,"longitude":74.856,"temp":26.5,"humidity":94,"rain":0.2,"pressure":1007.7,"uv_index":3.55,"wind_gusts":36.0,"aqi":28,"pm10":12.9,"pm2_5":6.7,"no2":2.1,"co":144.0,"o3":55.0,"so2":1.4,"mosquito_risk":10,"arthritis_risk":5,"migraine_risk":0,"frizz_risk":1,"updated_at":"2026-06-05T10:50:23.473216+05:30"},{"city":"Hubli-Dharwad","state":"Karnataka","latitude":15.3647,"longitude":75.124,"temp":28.9,"humidity":63,"rain":0.1,"pressure":941.0,"uv_index":6.0,"wind_gusts":45.7,"aqi":23,"pm10":3.0,"pm2_5":1.9,"no2":1.8,"co":122.0,"o3":67.0,"so2":0.8,"mosquito_risk":10,"arthritis_risk":5,"migraine_risk":3,"frizz_risk":1,"updated_at":"2026-06-05T10:50:23.473222+05:30"},{"city":"Belgaum","state":"Karnataka","latitude":15.8497,"longitude":74.4977,"temp":28.0,"humidity":63,"rain":0.0,"pressure":925.9,"uv_index":8.25,"wind_gusts":40.3,"aqi":24,"pm10":7.0,"pm2_5":4.3,"no2":2.3,"co":118.0,"o3":65.0,"so2":1.6,"mosquito_risk":7,"arthritis_risk":5,"migraine_risk":7,"frizz_risk":1,"updated_at":"2026-06-05T10:50:26.792488+05:30"},{"city":"Coimbatore","state":"Tamil Nadu","latitude":11.0168,"longitude":76.9558,"temp":28.4,"humidity":67,"rain":0.0,"pressure":962.0,"uv_index":4.3,"wind_gusts":65.2,"aqi":20,"pm10":1.8,"pm2_5":1.5,"no2":2.0,"co":158.0,"o3":54.0,"so2":1.4,"mosquito_risk":7,"arthritis_risk":5,"migraine_risk":3,"frizz_risk":1,"updated_at":"2026-06-05T10:50:26.792520+05:30"},{"city":"Madurai","state":"Tamil Nadu","latitude":9.9252,"longitude":78.1198,"temp":34.9,"humidity":44,"rain":0.0,"pressure":992.0,"uv_index":7.9,"wind_gusts":60.8,"aqi":31,"pm10":4.6,"pm2_5":4.2,"no2":3.2,"co":135.0,"o3":78.0,"so2":3.0,"mosquito_risk":0,"arthritis_risk":5,"migraine_risk":7,"frizz_risk":1,"updated_at":"2026-06-05T10:50:26.792530+05:30"},{"city":"Trichy","state":"Tamil Nadu","latitude":10.7905,"longitude":78.7047,"temp":34.6,"humidity":48,"rain":0.0,"pressure":998.6,"uv_index":8.05,"wind_gusts":58.7,"aqi":27,"pm10":3.9,"pm2_5":3.0,"no2":2.0,"co":120.0,"o3":69.0,"so2":2.2,"mosquito_risk":0,"arthritis_risk":5,"migraine_risk":7,"frizz_risk":1,"updated_at":"2026-06-05T10:50:26.792537+05:30"},{"city":"Salem","state":"Tamil Nadu","latitude":11.6643,"longitude":78.146,"temp":33.7,"humidity":45,"rain":0.0,"pressure":977.1,"uv_index":7.1,"wind_gusts":38.2,"aqi":40,"pm10":7.5,"pm2_5":6.4,"no2":4.2,"co":186.0,"o3":85.0,"so2":8.0,"mosquito_risk":0,"arthritis_risk":5,"migraine_risk":7,"frizz_risk":1,"updated_at":"2026-06-05T10:50:26.792544+05:30"},{"city":"Tirunelveli","state":"Tamil Nadu","latitude":8.7139,"longitude":77.7567,"temp":33.6,"humidity":49,"rain":0.0,"pressure":1003.1,"uv_index":8.1,"wind_gusts":45.4,"aqi":18,"pm10":3.6,"pm2_5":2.4,"no2":2.0,"co":130.0,"o3":53.0,"so2":1.0,"mosquito_risk":0,"arthritis_risk":5,"migraine_risk":4,"frizz_risk":1,"updated_at":"2026-06-05T10:50:26.792551+05:30"},{"city":"Vellore","state":"Tamil Nadu","latitude":12.9165,"longitude":79.1325,"temp":34.7,"humidity":43,"rain":0.0,"pressure":982.7,"uv_index":8.85,"wind_gusts":46.1,"aqi":48,"pm10":8.7,"pm2_5":5.9,"no2":2.1,"co":134.0,"o3":83.0,"so2":2.9,"mosquito_risk":0,"arthritis_risk":5,"migraine_risk":7,"frizz_risk":1,"updated_at":"2026-06-05T10:50:26.792557+05:30"},{"city":"Erode","state":"Tamil Nadu","latitude":11.341,"longitude":77.7172,"temp":33.4,"humidity":49,"rain":0.0,"pressure":988.3,"uv_index":7.3,"wind_gusts":48.6,"aqi":24,"pm10":3.9,"pm2_5":3.3,"no2":2.6,"co":165.0,"o3":67.0,"so2":2.1,"mosquito_risk":0,"arthritis_risk":5,"migraine_risk":7,"frizz_risk":1,"updated_at":"2026-06-05T10:50:26.792564+05:30"},{"city":"Kochi","state":"Kerala","latitude":9.9312,"longitude":76.2673,"temp":26.1,"humidity":91,"rain":0.3,"pressure":1011.1,"uv_index":3.95,"wind_gusts":35.3,"aqi":35,"pm10":12.1,"pm2_5":7.7,"no2":5.5,"co":130.0,"o3":43.0,"so2":2.5,"mosquito_risk":10,"arthritis_risk":0,"migraine_risk":0,"frizz_risk":1,"updated_at":"2026-06-05T10:50:26.792570+05:30"},{"city":"Thiruvananthapuram","state":"Kerala","latitude":8.5241,"longitude":76.9366,"temp":27.3,"humidity":85,"rain":0.1,"pressure":1009.8,"uv_index":3.75,"wind_gusts":45.0,"aqi":26,"pm10":13.6,"pm2_5":6.9,"no2":1.4,"co":108.0,"o3":47.0,"so2":0.6,"mosquito_risk":10,"arthritis_risk":0,"migraine_risk":0,"frizz_risk":1,"updated_at":"2026-06-05T10:50:26.792576+05:30"},{"city":"Kozhikode","state":"Kerala","latitude":11.2588,"longitude":75.7804,"temp":26.0,"humidity":95,"rain":0.2,"pressure":1010.1,"uv_index":7.65,"wind_gusts":32.4,"aqi":25,"pm10":11.3,"pm2_5":4.9,"no2":0.7,"co":160.0,"o3":54.0,"so2":0.4,"mosquito_risk":10,"arthritis_risk":0,"migraine_risk":4,"frizz_risk":1,"updated_at":"2026-06-05T10:50:26.792582+05:30"},{"city":"Thrissur","state":"Kerala","latitude":10.5276,"longitude":76.2144,"temp":26.2,"humidity":93,"rain":0.2,"pressure":1009.2,"uv_index":7.35,"wind_gusts":33.5,"aqi":33,"pm10":8.4,"pm2_5":5.8,"no2":4.7,"co":146.0,"o3":42.0,"so2":1.8,"mosquito_risk":10,"arthritis_risk":0,"migraine_risk":4,"frizz_risk":1,"updated_at":"2026-06-05T10:50:26.792590+05:30"},{"city":"Kannur","state":"Kerala","latitude":11.8745,"longitude":75.3704,"temp":26.5,"humidity":92,"rain":0.2,"pressure":1009.1,"uv_index":6.25,"wind_gusts":38.2,"aqi":26,"pm10":11.4,"pm2_5":5.5,"no2":2.1,"co":163.0,"o3":52.0,"so2":0.9,"mosquito_risk":10,"arthritis_risk":0,"migraine_risk":4,"frizz_risk":1,"updated_at":"2026-06-05T10:50:26.792596+05:30"},{"city":"Patna","state":"Bihar","latitude":25.5941,"longitude":85.1376,"temp":34.6,"humidity":50,"rain":0.0,"pressure":996.0,"uv_index":8.9,"wind_gusts":37.4,"aqi":160,"pm10":84.5,"pm2_5":68.7,"no2":4.5,"co":343.0,"o3":195.0,"so2":15.2,"mosquito_risk":0,"arthritis_risk":5,"migraine_risk":7,"frizz_risk":1,"updated_at":"2026-06-05T10:50:26.792602+05:30"},{"city":"Gaya","state":"Bihar","latitude":24.7914,"longitude":85.0002,"temp":34.7,"humidity":48,"rain":0.0,"pressure":989.6,"uv_index":8.95,"wind_gusts":59.0,"aqi":166,"pm10":85.7,"pm2_5":62.6,"no2":1.9,"co":242.0,"o3":176.0,"so2":11.4,"mosquito_risk":0,"arthritis_risk":5,"migraine_risk":7,"frizz_risk":1,"updated_at":"2026-06-05T10:50:26.792609+05:30"},{"city":"Muzaffarpur","state":"Bihar","latitude":26.1209,"longitude":85.3647,"temp":33.6,"humidity":57,"rain":0.0,"pressure":996.4,"uv_index":8.85,"wind_gusts":34.9,"aqi":155,"pm10":82.4,"pm2_5":70.8,"no2":4.5,"co":468.0,"o3":197.0,"so2":16.5,"mosquito_risk":0,"arthritis_risk":5,"migraine_risk":7,"frizz_risk":1,"updated_at":"2026-06-05T10:50:26.792614+05:30"},{"city":"Bhagalpur","state":"Bihar","latitude":25.2425,"longitude":87.0117,"temp":34.2,"humidity":59,"rain":0.0,"pressure":996.9,"uv_index":7.7,"wind_gusts":39.2,"aqi":155,"pm10":47.6,"pm2_5":42.0,"no2":5.4,"co":390.0,"o3":184.0,"so2":24.4,"mosquito_risk":0,"arthritis_risk":5,"migraine_risk":7,"frizz_risk":1,"updated_at":"2026-06-05T10:50:26.792619+05:30"},{"city":"Ranchi","state":"Jharkhand","latitude":23.3441,"longitude":85.3096,"temp":32.2,"humidity":49,"rain":0.0,"pressure":935.3,"uv_index":9.05,"wind_gusts":31.0,"aqi":108,"pm10":59.1,"pm2_5":41.7,"no2":2.0,"co":234.0,"o3":170.0,"so2":9.9,"mosquito_risk":0,"arthritis_risk":5,"migraine_risk":7,"frizz_risk":1,"updated_at":"2026-06-05T10:50:26.792625+05:30"},{"city":"Jamshedpur","state":"Jharkhand","latitude":22.8046,"longitude":86.2029,"temp":35.7,"humidity":45,"rain":0.0,"pressure":986.5,"uv_index":9.05,"wind_gusts":23.4,"aqi":143,"pm10":56.6,"pm2_5":47.8,"no2":6.4,"co":301.0,"o3":195.0,"so2":34.1,"mosquito_risk":0,"arthritis_risk":5,"migraine_risk":10,"frizz_risk":1,"updated_at":"2026-06-05T10:50:26.792630+05:30"},{"city":"Dhanbad","state":"Jharkhand","latitude":23.7957,"longitude":86.4304,"temp":36.0,"humidity":40,"rain":0.0,"pressure":975.9,"uv_index":9.05,"wind_gusts":31.3,"aqi":160,"pm10":84.1,"pm2_5":73.3,"no2":15.6,"co":484.0,"o3":198.0,"so2":62.7,"mosquito_risk":0,"arthritis_risk":5,"migraine_risk":10,"frizz_risk":1,"updated_at":"2026-06-05T10:50:26.792636+05:30"},{"city":"Bokaro","state":"Jharkhand","latitude":23.6693,"longitude":86.1511,"temp":34.6,"humidity":46,"rain":0.0,"pressure":979.8,"uv_index":9.05,"wind_gusts":30.6,"aqi":159,"pm10":87.3,"pm2_5":71.5,"no2":15.3,"co":459.0,"o3":192.0,"so2":62.7,"mosquito_risk":0,"arthritis_risk":5,"migraine_risk":7,"frizz_risk":1,"updated_at":"2026-06-05T10:50:26.792641+05:30"},{"city":"Bhubaneswar","state":"Odisha","latitude":20.2961,"longitude":85.8245,"temp":36.0,"humidity":52,"rain":0.0,"pressure":997.8,"uv_index":9.05,"wind_gusts":24.8,"aqi":114,"pm10":38.3,"pm2_5":31.8,"no2":3.0,"co":275.0,"o3":179.0,"so2":10.7,"mosquito_risk":0,"arthritis_risk":5,"migraine_risk":10,"frizz_risk":1,"updated_at":"2026-06-05T10:50:26.792647+05:30"},{"city":"Cuttack","state":"Odisha","latitude":20.4625,"longitude":85.8828,"temp":35.8,"humidity":52,"rain":0.0,"pressure":999.6,"uv_index":9.1,"wind_gusts":26.6,"aqi":114,"pm10":38.3,"pm2_5":31.8,"no2":3.0,"co":304.0,"o3":179.0,"so2":10.7,"mosquito_risk":0,"arthritis_risk":5,"migraine_risk":10,"frizz_risk":1,"updated_at":"2026-06-05T10:50:26.792652+05:30"},{"city":"Rourkela","state":"Odisha","latitude":22.2604,"longitude":84.8536,"temp":36.5,"humidity":41,"rain":0.0,"pressure":980.8,"uv_index":8.75,"wind_gusts":37.4,"aqi":108,"pm10":35.2,"pm2_5":30.0,"no2":2.7,"co":266.0,"o3":173.0,"so2":15.9,"mosquito_risk":0,"arthritis_risk":5,"migraine_risk":10,"frizz_risk":1,"updated_at":"2026-06-05T10:50:26.792657+05:30"},{"city":"Raipur","state":"Chhattisgarh","latitude":21.2514,"longitude":81.6296,"temp":38.0,"humidity":29,"rain":0.0,"pressure":971.2,"uv_index":9.0,"wind_gusts":32.4,"aqi":103,"pm10":61.7,"pm2_5":38.5,"no2":12.3,"co":325.0,"o3":127.0,"so2":41.2,"mosquito_risk":0,"arthritis_risk":5,"migraine_risk":10,"frizz_risk":1,"updated_at":"2026-06-05T10:50:26.792662+05:30"},{"city":"Bhilai","state":"Chhattisgarh","latitude":21.1938,"longitude":81.3509,"temp":36.9,"humidity":31,"rain":0.0,"pressure":971.7,"uv_index":9.0,"wind_gusts":33.5,"aqi":99,"pm10":63.1,"pm2_5":36.7,"no2":11.1,"co":501.0,"o3":121.0,"so2":36.3,"mosquito_risk":0,"arthritis_risk":5,"migraine_risk":10,"frizz_risk":1,"updated_at":"2026-06-05T10:50:26.792667+05:30"},{"city":"Guwahati","state":"Assam","latitude":26.1158,"longitude":91.7086,"temp":29.1,"humidity":73,"rain":0.0,"pressure":998.9,"uv_index":8.8,"wind_gusts":25.9,"aqi":113,"pm10":29.6,"pm2_5":26.4,"no2":1.9,"co":401.0,"o3":138.0,"so2":3.6,"mosquito_risk":7,"arthritis_risk":5,"migraine_risk":7,"frizz_risk":1,"updated_at":"2026-06-05T10:50:26.792673+05:30"},{"city":"Agartala","state":"Tripura","latitude":23.8315,"longitude":91.2868,"temp":32.7,"humidity":69,"rain":0.0,"pressure":1002.8,"uv_index":8.9,"wind_gusts":36.0,"aqi":116,"pm10":28.2,"pm2_5":21.9,"no2":3.6,"co":222.0,"o3":134.0,"so2":2.7,"mosquito_risk":3,"arthritis_risk":5,"migraine_risk":4,"frizz_risk":1,"updated_at":"2026-06-05T10:50:26.792679+05:30"},{"city":"Shillong","state":"Meghalaya","latitude":25.5788,"longitude":91.8933,"temp":25.5,"humidity":56,"rain":0.1,"pressure":857.5,"uv_index":8.9,"wind_gusts":23.4,"aqi":68,"pm10":30.3,"pm2_5":25.6,"no2":1.5,"co":268.0,"o3":147.0,"so2":3.7,"mosquito_risk":7,"arthritis_risk":5,"migraine_risk":7,"frizz_risk":1,"updated_at":"2026-06-05T10:50:26.792684+05:30"},{"city":"Imphal","state":"Manipur","latitude":24.817,"longitude":93.9368,"temp":29.5,"humidity":65,"rain":0.0,"pressure":921.5,"uv_index":9.3,"wind_gusts":28.4,"aqi":108,"pm10":41.0,"pm2_5":34.3,"no2":0.7,"co":248.0,"o3":147.0,"so2":4.4,"mosquito_risk":7,"arthritis_risk":5,"migraine_risk":7,"frizz_risk":1,"updated_at":"2026-06-05T10:50:26.792689+05:30"},{"city":"Aizawl","state":"Mizoram","latitude":23.7271,"longitude":92.7176,"temp":28.1,"humidity":58,"rain":0.0,"pressure":891.8,"uv_index":8.5,"wind_gusts":24.1,"aqi":92,"pm10":38.6,"pm2_5":28.9,"no2":0.5,"co":206.0,"o3":129.0,"so2":4.2,"mosquito_risk":4,"arthritis_risk":5,"migraine_risk":7,"frizz_risk":1,"updated_at":"2026-06-05T10:50:26.792695+05:30"},{"city":"Kohima","state":"Nagaland","latitude":25.6701,"longitude":94.1077,"temp":24.4,"humidity":76,"rain":0.1,"pressure":855.4,"uv_index":9.05,"wind_gusts":26.6,"aqi":62,"pm10":35.7,"pm2_5":29.2,"no2":0.6,"co":272.0,"o3":138.0,"so2":3.3,"mosquito_risk":6,"arthritis_risk":5,"migraine_risk":7,"frizz_risk":1,"updated_at":"2026-06-05T10:50:26.792700+05:30"},{"city":"Gangtok","state":"Sikkim","latitude":27.3314,"longitude":88.6138,"temp":25.2,"humidity":50,"rain":0.0,"pressure":837.9,"uv_index":9.25,"wind_gusts":39.2,"aqi":76,"pm10":16.5,"pm2_5":13.9,"no2":0.8,"co":243.0,"o3":153.0,"so2":2.6,"mosquito_risk":4,"arthritis_risk":5,"migraine_risk":7,"frizz_risk":0,"updated_at":"2026-06-05T10:50:26.792706+05:30"},{"city":"Siliguri","state":"West Bengal","latitude":26.7271,"longitude":88.3953,"temp":30.2,"humidity":67,"rain":0.0,"pressure":990.0,"uv_index":8.8,"wind_gusts":23.8,"aqi":127,"pm10":29.1,"pm2_5":25.3,"no2":2.0,"co":424.0,"o3":165.0,"so2":5.2,"mosquito_risk":3,"arthritis_risk":5,"migraine_risk":7,"frizz_risk":1,"updated_at":"2026-06-05T10:50:30.109128+05:30"},{"city":"Durgapur","state":"West Bengal","latitude":23.5204,"longitude":87.3119,"temp":34.2,"humidity":66,"rain":0.0,"pressure":990.5,"uv_index":8.95,"wind_gusts":38.5,"aqi":162,"pm10":74.3,"pm2_5":69.2,"no2":24.4,"co":641.0,"o3":176.0,"so2":77.9,"mosquito_risk":3,"arthritis_risk":5,"migraine_risk":7,"frizz_risk":1,"updated_at":"2026-06-05T10:50:30.109160+05:30"},{"city":"Asansol","state":"West Bengal","latitude":23.6739,"longitude":86.9524,"temp":34.8,"humidity":53,"rain":0.0,"pressure":989.1,"uv_index":9.0,"wind_gusts":31.3,"aqi":158,"pm10":84.3,"pm2_5":76.6,"no2":21.1,"co":502.0,"o3":197.0,"so2":73.4,"mosquito_risk":0,"arthritis_risk":5,"migraine_risk":7,"frizz_risk":1,"updated_at":"2026-06-05T10:50:30.109169+05:30"},{"city":"Pondicherry","state":"Puducherry","latitude":11.9139,"longitude":79.8145,"temp":34.2,"humidity":52,"rain":0.0,"pressure":1006.5,"uv_index":8.85,"wind_gusts":36.7,"aqi":58,"pm10":17.1,"pm2_5":13.6,"no2":6.3,"co":223.0,"o3":95.0,"so2":11.3,"mosquito_risk":0,"arthritis_risk":5,"migraine_risk":4,"frizz_risk":1,"updated_at":"2026-06-05T10:50:30.109176+05:30"},{"city":"Port Blair","state":"Andaman and Nicobar Islands","latitude":11.6234,"longitude":92.7265,"temp":27.6,"humidity":87,"rain":0.0,"pressure":1006.0,"uv_index":1.95,"wind_gusts":45.4,"aqi":32,"pm10":7.6,"pm2_5":4.9,"no2":0.3,"co":108.0,"o3":68.0,"so2":0.4,"mosquito_risk":7,"arthritis_risk":5,"migraine_risk":0,"frizz_risk":1,"updated_at":"2026-06-05T10:50:30.109183+05:30"},{"city":"Haridwar","state":"Uttarakhand","latitude":29.9457,"longitude":78.1642,"temp":30.1,"humidity":51,"rain":0.0,"pressure":972.6,"uv_index":6.4,"wind_gusts":24.1,"aqi":119,"pm10":126.7,"pm2_5":41.4,"no2":1.4,"co":238.0,"o3":167.0,"so2":6.4,"mosquito_risk":0,"arthritis_risk":5,"migraine_risk":7,"frizz_risk":1,"updated_at":"2026-06-05T10:50:30.109190+05:30"},{"city":"Rishikesh","state":"Uttarakhand","latitude":30.0869,"longitude":78.2676,"temp":28.7,"humidity":52,"rain":0.0,"pressure":965.4,"uv_index":6.45,"wind_gusts":30.2,"aqi":97,"pm10":104.3,"pm2_5":33.5,"no2":0.7,"co":198.0,"o3":156.0,"so2":4.4,"mosquito_risk":4,"arthritis_risk":5,"migraine_risk":7,"frizz_risk":1,"updated_at":"2026-06-05T10:50:30.109196+05:30"},{"city":"Nainital","state":"Uttarakhand","latitude":29.3919,"longitude":79.4542,"temp":20.5,"humidity":62,"rain":0.1,"pressure":807.7,"uv_index":6.1,"wind_gusts":23.4,"aqi":91,"pm10":42.5,"pm2_5":28.1,"no2":1.3,"co":207.0,"o3":159.0,"so2":2.8,"mosquito_risk":6,"arthritis_risk":5,"migraine_risk":7,"frizz_risk":0,"updated_at":"2026-06-05T10:50:30.109202+05:30"},{"city":"Mussoorie","state":"Uttarakhand","latitude":30.4599,"longitude":78.0664,"temp":16.9,"humidity":80,"rain":0.0,"pressure":803.3,"uv_index":6.65,"wind_gusts":26.3,"aqi":87,"pm10":79.4,"pm2_5":28.2,"no2":1.6,"co":209.0,"o3":166.0,"so2":4.2,"mosquito_risk":3,"arthritis_risk":5,"migraine_risk":7,"frizz_risk":0,"updated_at":"2026-06-05T10:50:30.109208+05:30"},{"city":"Dharamshala","state":"Himachal Pradesh","latitude":32.219,"longitude":76.3234,"temp":24.8,"humidity":38,"rain":0.0,"pressure":868.9,"uv_index":8.5,"wind_gusts":45.0,"aqi":50,"pm10":25.6,"pm2_5":11.4,"no2":0.6,"co":223.0,"o3":140.0,"so2":1.8,"mosquito_risk":0,"arthritis_risk":5,"migraine_risk":7,"frizz_risk":0,"updated_at":"2026-06-05T10:50:30.109214+05:30"},{"city":"Dalhousie","state":"Himachal Pradesh","latitude":32.5387,"longitude":75.971,"temp":21.1,"humidity":47,"rain":0.1,"pressure":805.7,"uv_index":6.3,"wind_gusts":31.3,"aqi":71,"pm10":39.9,"pm2_5":18.4,"no2":1.8,"co":245.0,"o3":150.0,"so2":2.5,"mosquito_risk":3,"arthritis_risk":5,"migraine_risk":7,"frizz_risk":0,"updated_at":"2026-06-05T10:50:30.109221+05:30"},{"city":"Patiala","state":"Punjab","latitude":30.3398,"longitude":76.3869,"temp":33.3,"humidity":37,"rain":0.0,"pressure":975.5,"uv_index":7.65,"wind_gusts":29.2,"aqi":198,"pm10":570.0,"pm2_5":97.1,"no2":3.6,"co":326.0,"o3":179.0,"so2":16.9,"mosquito_risk":0,"arthritis_risk":5,"migraine_risk":7,"frizz_risk":1,"updated_at":"2026-06-05T10:50:30.109227+05:30"},{"city":"Bhatinda","state":"Punjab","latitude":30.211,"longitude":74.9455,"temp":34.8,"humidity":35,"rain":0.0,"pressure":980.5,"uv_index":8.3,"wind_gusts":31.7,"aqi":187,"pm10":646.3,"pm2_5":155.5,"no2":5.2,"co":339.0,"o3":152.0,"so2":20.5,"mosquito_risk":0,"arthritis_risk":5,"migraine_risk":7,"frizz_risk":1,"updated_at":"2026-06-05T10:50:30.109233+05:30"},{"city":"Rohtak","state":"Haryana","latitude":28.8955,"longitude":76.6066,"temp":33.6,"humidity":42,"rain":0.0,"pressure":979.0,"uv_index":7.8,"wind_gusts":23.0,"aqi":301,"pm10":338.1,"pm2_5":74.3,"no2":5.9,"co":416.0,"o3":130.0,"so2":7.9,"mosquito_risk":0,"arthritis_risk":5,"migraine_risk":7,"frizz_risk":1,"updated_at":"2026-06-05T10:50:30.109239+05:30"},{"city":"Panipat","state":"Haryana","latitude":29.3909,"longitude":76.9635,"temp":33.8,"humidity":40,"rain":0.0,"pressure":977.7,"uv_index":7.6,"wind_gusts":29.9,"aqi":373,"pm10":665.0,"pm2_5":118.3,"no2":9.8,"co":400.0,"o3":149.0,"so2":29.6,"mosquito_risk":0,"arthritis_risk":5,"migraine_risk":7,"frizz_risk":1,"updated_at":"2026-06-05T10:50:30.109245+05:30"},{"city":"Mathura","state":"Uttar Pradesh","latitude":27.4924,"longitude":77.6737,"temp":32.4,"humidity":47,"rain":0.0,"pressure":984.0,"uv_index":8.1,"wind_gusts":23.4,"aqi":329,"pm10":340.9,"pm2_5":55.6,"no2":3.6,"co":207.0,"o3":107.0,"so2":3.6,"mosquito_risk":0,"arthritis_risk":5,"migraine_risk":7,"frizz_risk":1,"updated_at":"2026-06-05T10:50:30.109251+05:30"},{"city":"Vrindavan","state":"Uttar Pradesh","latitude":27.5823,"longitude":77.7027,"temp":32.6,"humidity":46,"rain":0.0,"pressure":984.4,"uv_index":8.05,"wind_gusts":25.6,"aqi":329,"pm10":340.9,"pm2_5":55.6,"no2":3.6,"co":200.0,"o3":107.0,"so2":3.6,"mosquito_risk":0,"arthritis_risk":5,"migraine_risk":7,"frizz_risk":1,"updated_at":"2026-06-05T10:50:30.109256+05:30"},{"city":"Ayodhya","state":"Uttar Pradesh","latitude":26.7922,"longitude":82.1998,"temp":36.3,"humidity":43,"rain":0.0,"pressure":990.7,"uv_index":8.5,"wind_gusts":23.0,"aqi":155,"pm10":104.1,"pm2_5":48.9,"no2":4.8,"co":341.0,"o3":161.0,"so2":9.9,"mosquito_risk":0,"arthritis_risk":5,"migraine_risk":10,"frizz_risk":1,"updated_at":"2026-06-05T10:50:30.109262+05:30"},{"city":"Ratlam","state":"Madhya Pradesh","latitude":23.3315,"longitude":75.0367,"temp":32.2,"humidity":51,"rain":0.0,"pressure":953.3,"uv_index":8.45,"wind_gusts":42.1,"aqi":86,"pm10":50.1,"pm2_5":26.7,"no2":2.1,"co":130.0,"o3":76.0,"so2":6.3,"mosquito_risk":0,"arthritis_risk":5,"migraine_risk":7,"frizz_risk":1,"updated_at":"2026-06-05T10:50:30.109268+05:30"},{"city":"Sagar","state":"Madhya Pradesh","latitude":23.8388,"longitude":78.7378,"temp":32.9,"humidity":45,"rain":0.0,"pressure":948.3,"uv_index":8.75,"wind_gusts":57.2,"aqi":82,"pm10":58.3,"pm2_5":31.0,"no2":1.3,"co":158.0,"o3":113.0,"so2":5.7,"mosquito_risk":0,"arthritis_risk":5,"migraine_risk":7,"frizz_risk":1,"updated_at":"2026-06-05T10:50:30.109274+05:30"},{"city":"Satna","state":"Madhya Pradesh","latitude":24.6005,"longitude":80.8322,"temp":35.7,"humidity":32,"rain":0.0,"pressure":968.1,"uv_index":8.85,"wind_gusts":38.2,"aqi":87,"pm10":98.7,"pm2_5":37.6,"no2":1.4,"co":166.0,"o3":115.0,"so2":3.9,"mosquito_risk":0,"arthritis_risk":5,"migraine_risk":10,"frizz_risk":1,"updated_at":"2026-06-05T10:50:30.109280+05:30"},{"city":"Akola","state":"Maharashtra","latitude":20.7002,"longitude":77.0082,"temp":35.5,"humidity":43,"rain":0.0,"pressure":972.8,"uv_index":8.8,"wind_gusts":41.4,"aqi":88,"pm10":56.3,"pm2_5":26.3,"no2":2.4,"co":148.0,"o3":102.0,"so2":8.2,"mosquito_risk":0,"arthritis_risk":5,"migraine_risk":10,"frizz_risk":1,"updated_at":"2026-06-05T10:50:30.109286+05:30"},{"city":"Amravati","state":"Maharashtra","latitude":20.9374,"longitude":77.7796,"temp":36.4,"humidity":35,"rain":0.0,"pressure":965.1,"uv_index":8.85,"wind_gusts":48.2,"aqi":92,"pm10":52.7,"pm2_5":27.6,"no2":2.8,"co":163.0,"o3":113.0,"so2":9.9,"mosquito_risk":0,"arthritis_risk":5,"migraine_risk":10,"frizz_risk":1,"updated_at":"2026-06-05T10:50:30.109292+05:30"},{"city":"Latur","state":"Maharashtra","latitude":18.4088,"longitude":76.5604,"temp":32.4,"humidity":50,"rain":0.0,"pressure":938.9,"uv_index":8.9,"wind_gusts":31.7,"aqi":66,"pm10":35.4,"pm2_5":19.9,"no2":1.6,"co":151.0,"o3":101.0,"so2":5.1,"mosquito_risk":0,"arthritis_risk":5,"migraine_risk":7,"frizz_risk":1,"updated_at":"2026-06-05T10:50:30.109298+05:30"},{"city":"Nanded","state":"Maharashtra","latitude":19.1383,"longitude":77.3091,"temp":35.7,"humidity":40,"rain":0.0,"pressure":966.7,"uv_index":8.45,"wind_gusts":45.7,"aqi":87,"pm10":52.3,"pm2_5":29.3,"no2":1.7,"co":177.0,"o3":119.0,"so2":4.9,"mosquito_risk":0,"arthritis_risk":5,"migraine_risk":10,"frizz_risk":1,"updated_at":"2026-06-05T10:50:30.109304+05:30"},{"city":"Gulbarga","state":"Karnataka","latitude":17.3297,"longitude":76.8343,"temp":32.5,"humidity":52,"rain":0.0,"pressure":957.6,"uv_index":8.15,"wind_gusts":38.2,"aqi":52,"pm10":19.0,"pm2_5":11.3,"no2":2.3,"co":164.0,"o3":94.0,"so2":3.6,"mosquito_risk":0,"arthritis_risk":5,"migraine_risk":7,"frizz_risk":1,"updated_at":"2026-06-05T10:50:30.109309+05:30"},{"city":"Bidar","state":"Karnataka","latitude":17.9104,"longitude":77.5199,"temp":32.5,"humidity":49,"rain":0.0,"pressure":934.5,"uv_index":3.25,"wind_gusts":34.2,"aqi":66,"pm10":41.9,"pm2_5":24.7,"no2":2.6,"co":178.0,"o3":114.0,"so2":6.0,"mosquito_risk":0,"arthritis_risk":5,"migraine_risk":3,"frizz_risk":1,"updated_at":"2026-06-05T10:50:30.109314+05:30"},{"city":"Hospet","state":"Karnataka","latitude":15.2689,"longitude":76.3909,"temp":29.8,"humidity":63,"rain":0.0,"pressure":955.7,"uv_index":7.8,"wind_gusts":42.5,"aqi":26,"pm10":5.1,"pm2_5":3.3,"no2":1.8,"co":127.0,"o3":66.0,"so2":1.6,"mosquito_risk":7,"arthritis_risk":5,"migraine_risk":7,"frizz_risk":1,"updated_at":"2026-06-05T10:50:30.109318+05:30"},{"city":"Tirupur","state":"Tamil Nadu","latitude":11.1085,"longitude":77.3411,"temp":31.1,"humidity":58,"rain":0.0,"pressure":975.1,"uv_index":7.95,"wind_gusts":63.4,"aqi":27,"pm10":3.5,"pm2_5":3.1,"no2":2.6,"co":139.0,"o3":65.0,"so2":2.4,"mosquito_risk":0,"arthritis_risk":5,"migraine_risk":7,"frizz_risk":1,"updated_at":"2026-06-05T10:50:30.109323+05:30"},{"city":"Alappuzha","state":"Kerala","latitude":9.4981,"longitude":76.3388,"temp":25.9,"humidity":92,"rain":0.2,"pressure":1011.1,"uv_index":4.0,"wind_gusts":38.2,"aqi":29,"pm10":13.9,"pm2_5":7.0,"no2":3.2,"co":90.0,"o3":49.0,"so2":1.3,"mosquito_risk":10,"arthritis_risk":0,"migraine_risk":0,"frizz_risk":1,"updated_at":"2026-06-05T10:50:30.109329+05:30"},{"city":"Munnar","state":"Kerala","latitude":10.0889,"longitude":77.0595,"temp":17.7,"humidity":96,"rain":0.2,"pressure":857.9,"uv_index":7.35,"wind_gusts":52.2,"aqi":15,"pm10":2.4,"pm2_5":1.9,"no2":2.3,"co":104.0,"o3":53.0,"so2":1.3,"mosquito_risk":6,"arthritis_risk":10,"migraine_risk":7,"frizz_risk":1,"updated_at":"2026-06-05T10:50:30.109335+05:30"},{"city":"Silchar","state":"Assam","latitude":24.8333,"longitude":92.7789,"temp":32.4,"humidity":67,"rain":0.0,"pressure":1001.7,"uv_index":8.95,"wind_gusts":31.0,"aqi":121,"pm10":36.4,"pm2_5":30.6,"no2":1.3,"co":234.0,"o3":133.0,"so2":4.8,"mosquito_risk":3,"arthritis_risk":5,"migraine_risk":4,"frizz_risk":1,"updated_at":"2026-06-05T10:50:30.109341+05:30"},{"city":"Dibrugarh","state":"Assam","latitude":27.4728,"longitude":94.912,"temp":24.6,"humidity":93,"rain":0.1,"pressure":994.0,"uv_index":9.0,"wind_gusts":17.3,"aqi":130,"pm10":43.4,"pm2_5":36.8,"no2":0.4,"co":259.0,"o3":152.0,"so2":2.8,"mosquito_risk":6,"arthritis_risk":5,"migraine_risk":7,"frizz_risk":1,"updated_at":"2026-06-05T10:50:30.109346+05:30"}]