[{"city":"Delhi","state":"Delhi","latitude":28.6139,"longitude":77.209,"temp":32.0,"humidity":32,"rain":0.0,"pressure":987.8,"uv_index":6.55,"wind_gusts":19.1,"aqi":164,"pm10":105.5,"pm2_5":27.3,"mosquito_risk":0,"arthritis_risk":5,"migraine_risk":7,"frizz_risk":0,"updated_at":"2026-03-26T12:44:15.632641+05:30"},{"city":"Mumbai","state":"Maharashtra","latitude":19.076,"longitude":72.8777,"temp":29.6,"humidity":71,"rain":0.0,"pressure":1010.0,"uv_index":7.95,"wind_gusts":29.5,"aqi":81,"pm10":43.4,"pm2_5":30.6,"mosquito_risk":7,"arthritis_risk":0,"migraine_risk":4,"frizz_risk":1,"updated_at":"2026-03-26T12:44:15.632689+05:30"},{"city":"Bangalore","state":"Karnataka","latitude":12.9716,"longitude":77.5946,"temp":33.1,"humidity":22,"rain":0.0,"pressure":914.8,"uv_index":9.45,"wind_gusts":36.4,"aqi":75,"pm10":31.5,"pm2_5":21.5,"mosquito_risk":0,"arthritis_risk":5,"migraine_risk":7,"frizz_risk":0,"updated_at":"2026-03-26T12:44:15.632704+05:30"},{"city":"Hyderabad","state":"Telangana","latitude":17.385,"longitude":78.4867,"temp":35.1,"humidity":32,"rain":0.0,"pressure":956.5,"uv_index":8.95,"wind_gusts":29.2,"aqi":98,"pm10":34.7,"pm2_5":25.6,"mosquito_risk":0,"arthritis_risk":5,"migraine_risk":10,"frizz_risk":0,"updated_at":"2026-03-26T12:44:15.632715+05:30"},{"city":"Chennai","state":"Tamil Nadu","latitude":13.0827,"longitude":80.2707,"temp":32.8,"humidity":50,"rain":0.0,"pressure":1010.6,"uv_index":9.2,"wind_gusts":31.7,"aqi":58,"pm10":31.1,"pm2_5":19.8,"mosquito_risk":0,"arthritis_risk":0,"migraine_risk":4,"frizz_risk":1,"updated_at":"2026-03-26T12:44:15.632723+05:30"},{"city":"Kolkata","state":"West Bengal","latitude":22.5726,"longitude":88.3639,"temp":31.9,"humidity":58,"rain":0.0,"pressure":1009.2,"uv_index":8.45,"wind_gusts":18.4,"aqi":127,"pm10":81.5,"pm2_5":63.8,"mosquito_risk":0,"arthritis_risk":0,"migraine_risk":4,"frizz_risk":1,"updated_at":"2026-03-26T12:44:15.632732+05:30"},{"city":"Pune","state":"Maharashtra","latitude":18.5204,"longitude":73.8567,"temp":37.0,"humidity":24,"rain":0.0,"pressure":951.2,"uv_index":8.5,"wind_gusts":34.2,"aqi":96,"pm10":36.7,"pm2_5":26.7,"mosquito_risk":0,"arthritis_risk":5,"migraine_risk":10,"frizz_risk":0,"updated_at":"2026-03-26T12:44:15.632744+05:30"},{"city":"Ahmedabad","state":"Gujarat","latitude":23.0225,"longitude":72.5714,"temp":36.5,"humidity":28,"rain":0.0,"pressure":1005.7,"uv_index":7.9,"wind_gusts":26.3,"aqi":65,"pm10":46.1,"pm2_5":17.3,"mosquito_risk":0,"arthritis_risk":5,"migraine_risk":7,"frizz_risk":0,"updated_at":"2026-03-26T12:44:15.632753+05:30"},{"city":"Jaipur","state":"Rajasthan","latitude":26.9124,"longitude":75.7873,"temp":33.1,"humidity":28,"rain":0.0,"pressure":964.7,"uv_index":7.1,"wind_gusts":28.8,"aqi":90,"pm10":170.9,"pm2_5":30.3,"mosquito_risk":0,"arthritis_risk":5,"migraine_risk":7,"frizz_risk":0,"updated_at":"2026-03-26T12:44:15.632761+05:30"},{"city":"Lucknow","state":"Uttar Pradesh","latitude":26.8467,"longitude":80.9462,"temp":34.0,"humidity":25,"rain":0.0,"pressure":997.7,"uv_index":7.15,"wind_gusts":34.2,"aqi":115,"pm10":95.7,"pm2_5":26.8,"mosquito_risk":0,"arthritis_risk":5,"migraine_risk":7,"frizz_risk":0,"updated_at":"2026-03-26T12:44:15.632769+05:30"},{"city":"Kanpur","state":"Uttar Pradesh","latitude":26.4499,"longitude":80.3319,"temp":32.8,"humidity":32,"rain":0.0,"pressure":996.4,"uv_index":7.15,"wind_gusts":25.9,"aqi":168,"pm10":285.0,"pm2_5":42.6,"mosquito_risk":0,"arthritis_risk":5,"migraine_risk":7,"frizz_risk":0,"updated_at":"2026-03-26T12:44:15.632776+05:30"},{"city":"Chandigarh","state":"Chandigarh","latitude":30.7333,"longitude":76.7794,"temp":30.8,"humidity":35,"rain":0.0,"pressure":973.7,"uv_index":6.45,"wind_gusts":32.8,"aqi":67,"pm10":20.5,"pm2_5":13.1,"mosquito_risk":0,"arthritis_risk":5,"migraine_risk":7,"frizz_risk":0,"updated_at":"2026-03-26T12:44:15.632784+05:30"},{"city":"Srinagar","state":"Jammu and Kashmir","latitude":34.0837,"longitude":74.7973,"temp":14.6,"humidity":56,"rain":0.0,"pressure":846.7,"uv_index":7.3,"wind_gusts":16.9,"aqi":88,"pm10":24.6,"pm2_5":14.9,"mosquito_risk":0,"arthritis_risk":5,"migraine_risk":7,"frizz_risk":0,"updated_at":"2026-03-26T12:44:15.632791+05:30"},{"city":"Jammu","state":"Jammu and Kashmir","latitude":32.7266,"longitude":74.857,"temp":29.3,"humidity":40,"rain":0.0,"pressure":978.7,"uv_index":6.6,"wind_gusts":29.2,"aqi":80,"pm10":22.5,"pm2_5":12.8,"mosquito_risk":4,"arthritis_risk":5,"migraine_risk":7,"frizz_risk":0,"updated_at":"2026-03-26T12:44:15.632798+05:30"},{"city":"Amritsar","state":"Punjab","latitude":31.634,"longitude":74.8723,"temp":28.8,"humidity":45,"rain":0.0,"pressure":987.0,"uv_index":6.7,"wind_gusts":33.1,"aqi":85,"pm10":29.9,"pm2_5":15.0,"mosquito_risk":4,"arthritis_risk":5,"migraine_risk":7,"frizz_risk":0,"updated_at":"2026-03-26T12:44:15.632805+05:30"},{"city":"Ludhiana","state":"Punjab","latitude":30.901,"longitude":75.8573,"temp":30.4,"humidity":44,"rain":0.0,"pressure":984.1,"uv_index":6.15,"wind_gusts":32.0,"aqi":86,"pm10":27.8,"pm2_5":19.8,"mosquito_risk":0,"arthritis_risk":5,"migraine_risk":7,"frizz_risk":1,"updated_at":"2026-03-26T12:44:15.632812+05:30"},{"city":"Jalandhar","state":"Punjab","latitude":31.326,"longitude":75.5762,"temp":28.9,"humidity":48,"rain":0.0,"pressure":985.5,"uv_index":6.8,"wind_gusts":32.0,"aqi":84,"pm10":29.0,"pm2_5":15.1,"mosquito_risk":4,"arthritis_risk":5,"migraine_risk":7,"frizz_risk":1,"updated_at":"2026-03-26T12:44:15.632821+05:30"},{"city":"Dehradun","state":"Uttarakhand","latitude":30.6284,"longitude":78.0322,"temp":21.2,"humidity":41,"rain":0.0,"pressure":835.1,"uv_index":6.9,"wind_gusts":41.4,"aqi":51,"pm10":12.8,"pm2_5":5.6,"mosquito_risk":0,"arthritis_risk":5,"migraine_risk":7,"frizz_risk":0,"updated_at":"2026-03-26T12:44:15.632828+05:30"},{"city":"Shimla","state":"Himachal Pradesh","latitude":31.1048,"longitude":77.1734,"temp":19.4,"humidity":41,"rain":0.0,"pressure":790.2,"uv_index":6.95,"wind_gusts":46.8,"aqi":59,"pm10":12.7,"pm2_5":7.2,"mosquito_risk":0,"arthritis_risk":5,"migraine_risk":7,"frizz_risk":0,"updated_at":"2026-03-26T12:44:15.632836+05:30"},{"city":"Manali","state":"Himachal Pradesh","latitude":32.2396,"longitude":77.1887,"temp":20.4,"humidity":37,"rain":0.0,"pressure":824.6,"uv_index":8.75,"wind_gusts":27.7,"aqi":62,"pm10":9.9,"pm2_5":6.4,"mosquito_risk":0,"arthritis_risk":5,"migraine_risk":7,"frizz_risk":0,"updated_at":"2026-03-26T12:44:15.632842+05:30"},{"city":"Gurgaon","state":"Haryana","latitude":28.4595,"longitude":77.0266,"temp":31.5,"humidity":37,"rain":0.0,"pressure":986.3,"uv_index":5.9,"wind_gusts":25.9,"aqi":321,"pm10":254.3,"pm2_5":46.8,"mosquito_risk":0,"arthritis_risk":5,"migraine_risk":3,"frizz_risk":0,"updated_at":"2026-03-26T12:44:15.632850+05:30"},{"city":"Noida","state":"Uttar Pradesh","latitude":28.5355,"longitude":77.391,"temp":32.1,"humidity":33,"rain":0.0,"pressure":989.3,"uv_index":6.45,"wind_gusts":17.3,"aqi":321,"pm10":254.3,"pm2_5":46.8,"mosquito_risk":0,"arthritis_risk":5,"migraine_risk":7,"frizz_risk":0,"updated_at":"2026-03-26T12:44:15.632857+05:30"},{"city":"Ghaziabad","state":"Uttar Pradesh","latitude":28.6692,"longitude":77.4538,"temp":31.7,"humidity":37,"rain":0.0,"pressure":987.5,"uv_index":6.55,"wind_gusts":24.1,"aqi":135,"pm10":69.8,"pm2_5":20.3,"mosquito_risk":0,"arthritis_risk":5,"migraine_risk":7,"frizz_risk":0,"updated_at":"2026-03-26T12:44:15.632864+05:30"},{"city":"Faridabad","state":"Haryana","latitude":28.4089,"longitude":77.3178,"temp":31.7,"humidity":37,"rain":0.0,"pressure":988.7,"uv_index":6.2,"wind_gusts":26.3,"aqi":321,"pm10":254.3,"pm2_5":46.8,"mosquito_risk":0,"arthritis_risk":5,"migraine_risk":7,"frizz_risk":0,"updated_at":"2026-03-26T12:44:15.632871+05:30"},{"city":"Meerut","state":"Uttar Pradesh","latitude":28.9845,"longitude":77.7064,"temp":32.2,"humidity":35,"rain":0.0,"pressure":986.0,"uv_index":6.15,"wind_gusts":28.8,"aqi":135,"pm10":69.8,"pm2_5":20.3,"mosquito_risk":0,"arthritis_risk":5,"migraine_risk":7,"frizz_risk":0,"updated_at":"2026-03-26T12:44:15.632878+05:30"},{"city":"Agra","state":"Uttar Pradesh","latitude":27.1767,"longitude":78.0081,"temp":35.4,"humidity":25,"rain":0.0,"pressure":992.5,"uv_index":6.95,"wind_gusts":22.7,"aqi":197,"pm10":188.6,"pm2_5":38.4,"mosquito_risk":0,"arthritis_risk":5,"migraine_risk":10,"frizz_risk":0,"updated_at":"2026-03-26T12:44:15.632887+05:30"},{"city":"Varanasi","state":"Uttar Pradesh","latitude":25.3176,"longitude":82.9739,"temp":34.3,"humidity":25,"rain":0.0,"pressure":1001.7,"uv_index":7.8,"wind_gusts":29.5,"aqi":102,"pm10":109.0,"pm2_5":27.1,"mosquito_risk":0,"arthritis_risk":5,"migraine_risk":4,"frizz_risk":0,"updated_at":"2026-03-26T12:44:15.632897+05:30"},{"city":"Prayagraj","state":"Uttar Pradesh","latitude":25.4358,"longitude":81.8463,"temp":34.0,"humidity":31,"rain":0.0,"pressure":1000.3,"uv_index":7.7,"wind_gusts":26.3,"aqi":100,"pm10":163.4,"pm2_5":36.7,"mosquito_risk":0,"arthritis_risk":5,"migraine_risk":4,"frizz_risk":0,"updated_at":"2026-03-26T12:44:15.632904+05:30"},{"city":"Gorakhpur","state":"Uttar Pradesh","latitude":26.7606,"longitude":83.3732,"temp":32.4,"humidity":32,"rain":0.0,"pressure":1001.3,"uv_index":7.55,"wind_gusts":13.7,"aqi":94,"pm10":97.1,"pm2_5":25.9,"mosquito_risk":0,"arthritis_risk":5,"migraine_risk":4,"frizz_risk":0,"updated_at":"2026-03-26T12:44:15.632910+05:30"},{"city":"Bareilly","state":"Uttar Pradesh","latitude":28.367,"longitude":79.4304,"temp":31.4,"humidity":44,"rain":0.0,"pressure":991.3,"uv_index":6.8,"wind_gusts":29.9,"aqi":91,"pm10":34.8,"pm2_5":23.8,"mosquito_risk":0,"arthritis_risk":5,"migraine_risk":7,"frizz_risk":1,"updated_at":"2026-03-26T12:44:15.632917+05:30"},{"city":"Aligarh","state":"Uttar Pradesh","latitude":27.8974,"longitude":78.088,"temp":32.7,"humidity":35,"rain":0.0,"pressure":990.2,"uv_index":6.4,"wind_gusts":31.0,"aqi":239,"pm10":149.0,"pm2_5":31.4,"mosquito_risk":0,"arthritis_risk":5,"migraine_risk":7,"frizz_risk":0,"updated_at":"2026-03-26T12:44:15.632923+05:30"},{"city":"Moradabad","state":"Uttar Pradesh","latitude":28.8386,"longitude":78.7733,"temp":32.1,"humidity":38,"rain":0.0,"pressure":987.9,"uv_index":6.6,"wind_gusts":33.1,"aqi":99,"pm10":34.6,"pm2_5":21.8,"mosquito_risk":0,"arthritis_risk":5,"migraine_risk":7,"frizz_risk":0,"updated_at":"2026-03-26T12:44:15.632932+05:30"},{"city":"Saharanpur","state":"Uttar Pradesh","latitude":29.9637,"longitude":77.546,"temp":31.5,"humidity":36,"rain":0.0,"pressure":980.1,"uv_index":6.25,"wind_gusts":36.7,"aqi":96,"pm10":28.8,"pm2_5":15.3,"mosquito_risk":0,"arthritis_risk":5,"migraine_risk":7,"frizz_risk":0,"updated_at":"2026-03-26T12:44:15.632938+05:30"},{"city":"Jhansi","state":"Uttar Pradesh","latitude":25.4484,"longitude":78.5685,"temp":36.0,"humidity":23,"rain":0.0,"pressure":982.6,"uv_index":7.6,"wind_gusts":24.5,"aqi":83,"pm10":86.1,"pm2_5":21.9,"mosquito_risk":0,"arthritis_risk":5,"migraine_risk":10,"frizz_risk":0,"updated_at":"2026-03-26T12:44:18.941502+05:30"},{"city":"Surat","state":"Gujarat","latitude":21.1702,"longitude":72.8311,"temp":35.0,"humidity":37,"rain":0.0,"pressure":1009.7,"uv_index":7.7,"wind_gusts":23.4,"aqi":93,"pm10":48.0,"pm2_5":30.0,"mosquito_risk":0,"arthritis_risk":0,"migraine_risk":4,"frizz_risk":1,"updated_at":"2026-03-26T12:44:18.941534+05:30"},{"city":"Vadodara","state":"Gujarat","latitude":22.3072,"longitude":73.1812,"temp":38.1,"humidity":25,"rain":0.0,"pressure":1007.4,"uv_index":7.9,"wind_gusts":28.8,"aqi":94,"pm10":33.5,"pm2_5":16.1,"mosquito_risk":0,"arthritis_risk":5,"migraine_risk":7,"frizz_risk":0,"updated_at":"2026-03-26T12:44:18.941544+05:30"},{"city":"Rajkot","state":"Gujarat","latitude":22.3039,"longitude":70.8022,"temp":35.1,"humidity":23,"rain":0.0,"pressure":998.7,"uv_index":7.75,"wind_gusts":32.4,"aqi":52,"pm10":39.0,"pm2_5":13.4,"mosquito_risk":0,"arthritis_risk":5,"migraine_risk":10,"frizz_risk":0,"updated_at":"2026-03-26T12:44:18.941552+05:30"},{"city":"Thane","state":"Maharashtra","latitude":19.2183,"longitude":72.9781,"temp":37.8,"humidity":29,"rain":0.0,"pressure":1009.4,"uv_index":7.95,"wind_gusts":42.1,"aqi":81,"pm10":43.4,"pm2_5":30.6,"mosquito_risk":0,"arthritis_risk":0,"migraine_risk":7,"frizz_risk":1,"updated_at":"2026-03-26T12:44:18.941559+05:30"},{"city":"Nagpur","state":"Maharashtra","latitude":21.1458,"longitude":79.0882,"temp":36.5,"humidity":35,"rain":0.0,"pressure":976.4,"uv_index":8.45,"wind_gusts":22.3,"aqi":76,"pm10":43.1,"pm2_5":34.6,"mosquito_risk":0,"arthritis_risk":5,"migraine_risk":10,"frizz_risk":1,"updated_at":"2026-03-26T12:44:18.941566+05:30"},{"city":"Nashik","state":"Maharashtra","latitude":19.9975,"longitude":73.7898,"temp":34.1,"humidity":29,"rain":0.0,"pressure":949.3,"uv_index":8.15,"wind_gusts":29.9,"aqi":79,"pm10":27.8,"pm2_5":16.6,"mosquito_risk":0,"arthritis_risk":5,"migraine_risk":7,"frizz_risk":0,"updated_at":"2026-03-26T12:44:18.941574+05:30"},{"city":"Aurangabad","state":"Maharashtra","latitude":19.8762,"longitude":75.3433,"temp":35.2,"humidity":27,"rain":0.0,"pressure":947.8,"uv_index":8.65,"wind_gusts":23.0,"aqi":56,"pm10":15.9,"pm2_5":10.7,"mosquito_risk":0,"arthritis_risk":5,"migraine_risk":10,"frizz_risk":0,"updated_at":"2026-03-26T12:44:18.941581+05:30"},{"city":"Solapur","state":"Maharashtra","latitude":17.6599,"longitude":75.9064,"temp":35.5,"humidity":33,"rain":0.0,"pressure":960.1,"uv_index":8.85,"wind_gusts":23.8,"aqi":111,"pm10":45.6,"pm2_5":35.6,"mosquito_risk":0,"arthritis_risk":5,"migraine_risk":10,"frizz_risk":1,"updated_at":"2026-03-26T12:44:18.941589+05:30"},{"city":"Kolhapur","state":"Maharashtra","latitude":16.705,"longitude":74.2433,"temp":34.2,"humidity":35,"rain":0.0,"pressure":950.9,"uv_index":8.8,"wind_gusts":30.6,"aqi":154,"pm10":45.9,"pm2_5":36.8,"mosquito_risk":0,"arthritis_risk":5,"migraine_risk":7,"frizz_risk":1,"updated_at":"2026-03-26T12:44:18.941595+05:30"},{"city":"Goa","state":"Goa","latitude":15.2993,"longitude":74.124,"temp":34.0,"humidity":58,"rain":0.0,"pressure":999.3,"uv_index":7.75,"wind_gusts":32.4,"aqi":97,"pm10":40.3,"pm2_5":31.0,"mosquito_risk":0,"arthritis_risk":5,"migraine_risk":7,"frizz_risk":1,"updated_at":"2026-03-26T12:44:18.941602+05:30"},{"city":"Jodhpur","state":"Rajasthan","latitude":26.2389,"longitude":73.0243,"temp":33.7,"humidity":27,"rain":0.0,"pressure":987.6,"uv_index":7.45,"wind_gusts":30.6,"aqi":74,"pm10":68.5,"pm2_5":18.2,"mosquito_risk":0,"arthritis_risk":5,"migraine_risk":7,"frizz_risk":0,"updated_at":"2026-03-26T12:44:18.941609+05:30"},{"city":"Udaipur","state":"Rajasthan","latitude":24.5854,"longitude":73.7125,"temp":34.4,"humidity":20,"rain":0.0,"pressure":951.3,"uv_index":8.05,"wind_gusts":38.5,"aqi":33,"pm10":14.4,"pm2_5":5.8,"mosquito_risk":0,"arthritis_risk":5,"migraine_risk":7,"frizz_risk":0,"updated_at":"2026-03-26T12:44:18.941616+05:30"},{"city":"Kota","state":"Rajasthan","latitude":25.2138,"longitude":75.8648,"temp":36.5,"humidity":26,"rain":0.0,"pressure":982.8,"uv_index":7.65,"wind_gusts":16.9,"aqi":77,"pm10":33.8,"pm2_5":20.0,"mosquito_risk":0,"arthritis_risk":5,"migraine_risk":10,"frizz_risk":0,"updated_at":"2026-03-26T12:44:18.941622+05:30"},{"city":"Bikaner","state":"Rajasthan","latitude":28.0229,"longitude":73.3119,"temp":32.9,"humidity":30,"rain":0.0,"pressure":986.1,"uv_index":7.1,"wind_gusts":28.8,"aqi":50,"pm10":38.4,"pm2_5":14.6,"mosquito_risk":0,"arthritis_risk":5,"migraine_risk":7,"frizz_risk":0,"updated_at":"2026-03-26T12:44:18.941629+05:30"},{"city":"Ajmer","state":"Rajasthan","latitude":26.4499,"longitude":74.6399,"temp":33.2,"humidity":28,"rain":0.0,"pressure":959.2,"uv_index":7.35,"wind_gusts":33.5,"aqi":56,"pm10":81.5,"pm2_5":16.6,"mosquito_risk":0,"arthritis_risk":5,"migraine_risk":7,"frizz_risk":0,"updated_at":"2026-03-26T12:44:18.941635+05:30"},{"city":"Gwalior","state":"Madhya Pradesh","latitude":26.2183,"longitude":78.1828,"temp":34.7,"humidity":28,"rain":0.0,"pressure":988.2,"uv_index":7.3,"wind_gusts":23.4,"aqi":84,"pm10":188.6,"pm2_5":35.2,"mosquito_risk":0,"arthritis_risk":5,"migraine_risk":7,"frizz_risk":0,"updated_at":"2026-03-26T12:44:18.941642+05:30"},{"city":"Indore","state":"Madhya Pradesh","latitude":22.7196,"longitude":75.8577,"temp":34.8,"humidity":25,"rain":0.0,"pressure":952.2,"uv_index":8.15,"wind_gusts":30.2,"aqi":69,"pm10":13.2,"pm2_5":7.2,"mosquito_risk":0,"arthritis_risk":5,"migraine_risk":7,"frizz_risk":0,"updated_at":"2026-03-26T12:44:18.941649+05:30"},{"city":"Bhopal","state":"Madhya Pradesh","latitude":23.2599,"longitude":77.4126,"temp":36.7,"humidity":22,"rain":0.0,"pressure":957.6,"uv_index":8.05,"wind_gusts":29.5,"aqi":50,"pm10":20.0,"pm2_5":8.6,"mosquito_risk":0,"arthritis_risk":5,"migraine_risk":10,"frizz_risk":0,"updated_at":"2026-03-26T12:44:18.941655+05:30"},{"city":"Jabalpur","state":"Madhya Pradesh","latitude":23.1815,"longitude":79.9864,"temp":35.2,"humidity":26,"rain":0.0,"pressure":965.6,"uv_index":8.2,"wind_gusts":21.2,"aqi":58,"pm10":35.0,"pm2_5":11.4,"mosquito_risk":0,"arthritis_risk":5,"migraine_risk":10,"frizz_risk":0,"updated_at":"2026-03-26T12:44:18.941661+05:30"},{"city":"Ujjain","state":"Madhya Pradesh","latitude":23.1765,"longitude":75.7885,"temp":34.5,"humidity":29,"rain":0.0,"pressure":957.9,"uv_index":8.1,"wind_gusts":31.7,"aqi":65,"pm10":12.9,"pm2_5":7.0,"mosquito_risk":0,"arthritis_risk":5,"migraine_risk":7,"frizz_risk":0,"updated_at":"2026-03-26T12:44:18.941669+05:30"},{"city":"Visakhapatnam","state":"Andhra Pradesh","latitude":17.6868,"longitude":83.2185,"temp":34.6,"humidity":52,"rain":0.0,"pressure":1006.2,"uv_index":8.75,"wind_gusts":30.2,"aqi":82,"pm10":42.1,"pm2_5":30.5,"mosquito_risk":0,"arthritis_risk":5,"migraine_risk":4,"frizz_risk":1,"updated_at":"2026-03-26T12:44:18.941676+05:30"},{"city":"Vijayawada","state":"Andhra Pradesh","latitude":16.5062,"longitude":80.648,"temp":33.4,"humidity":51,"rain":0.0,"pressure":1005.6,"uv_index":9.0,"wind_gusts":22.0,"aqi":68,"pm10":40.3,"pm2_5":28.2,"mosquito_risk":0,"arthritis_risk":5,"migraine_risk":4,"frizz_risk":1,"updated_at":"2026-03-26T12:44:18.941683+05:30"},{"city":"Guntur","state":"Andhra Pradesh","latitude":16.3067,"longitude":80.4365,"temp":33.6,"humidity":54,"rain":0.0,"pressure":1006.7,"uv_index":9.0,"wind_gusts":27.7,"aqi":65,"pm10":36.9,"pm2_5":25.2,"mosquito_risk":0,"arthritis_risk":5,"migraine_risk":4,"frizz_risk":1,"updated_at":"2026-03-26T12:44:18.941690+05:30"},{"city":"Nellore","state":"Andhra Pradesh","latitude":14.4426,"longitude":79.9865,"temp":34.7,"humidity":48,"rain":0.0,"pressure":1008.7,"uv_index":9.1,"wind_gusts":31.7,"aqi":55,"pm10":27.4,"pm2_5":18.6,"mosquito_risk":0,"arthritis_risk":0,"migraine_risk":4,"frizz_risk":1,"updated_at":"2026-03-26T12:44:18.941698+05:30"},{"city":"Kurnool","state":"Andhra Pradesh","latitude":15.8281,"longitude":78.0373,"temp":38.0,"humidity":21,"rain":0.0,"pressure":979.0,"uv_index":9.0,"wind_gusts":29.2,"aqi":84,"pm10":34.2,"pm2_5":23.4,"mosquito_risk":0,"arthritis_risk":5,"migraine_risk":10,"frizz_risk":0,"updated_at":"2026-03-26T12:44:18.941706+05:30"},{"city":"Kakinada","state":"Andhra Pradesh","latitude":16.9891,"longitude":82.2475,"temp":35.7,"humidity":48,"rain":0.0,"pressure":1009.9,"uv_index":8.95,"wind_gusts":25.6,"aqi":63,"pm10":29.7,"pm2_5":18.4,"mosquito_risk":0,"arthritis_risk":0,"migraine_risk":7,"frizz_risk":1,"updated_at":"2026-03-26T12:44:18.941713+05:30"},{"city":"Tirupati","state":"Andhra Pradesh","latitude":13.6288,"longitude":79.4192,"temp":33.6,"humidity":40,"rain":0.0,"pressure":994.7,"uv_index":9.2,"wind_gusts":36.0,"aqi":76,"pm10":35.5,"pm2_5":25.5,"mosquito_risk":0,"arthritis_risk":5,"migraine_risk":7,"frizz_risk":1,"updated_at":"2026-03-26T12:44:18.941719+05:30"},{"city":"Warangal","state":"Telangana","latitude":17.9689,"longitude":79.5941,"temp":35.2,"humidity":40,"rain":0.0,"pressure":981.7,"uv_index":8.8,"wind_gusts":25.2,"aqi":86,"pm10":36.2,"pm2_5":26.4,"mosquito_risk":0,"arthritis_risk":5,"migraine_risk":10,"frizz_risk":1,"updated_at":"2026-03-26T12:44:18.941726+05:30"},{"city":"Nizamabad","state":"Telangana","latitude":18.6725,"longitude":78.0941,"temp":35.1,"humidity":35,"rain":0.0,"pressure":968.0,"uv_index":8.75,"wind_gusts":25.6,"aqi":108,"pm10":30.2,"pm2_5":24.1,"mosquito_risk":0,"arthritis_risk":5,"migraine_risk":10,"frizz_risk":1,"updated_at":"2026-03-26T12:44:18.941733+05:30"},{"city":"Mysore","state":"Karnataka","latitude":12.2958,"longitude":76.6396,"temp":34.5,"humidity":20,"rain":0.0,"pressure":930.9,"uv_index":9.4,"wind_gusts":38.5,"aqi":75,"pm10":31.4,"pm2_5":22.4,"mosquito_risk":0,"arthritis_risk":5,"migraine_risk":7,"frizz_risk":0,"updated_at":"2026-03-26T12:44:18.941739+05:30"},{"city":"Mangalore","state":"Karnataka","latitude":12.9141,"longitude":74.856,"temp":29.3,"humidity":88,"rain":0.0,"pressure":1007.2,"uv_index":9.1,"wind_gusts":30.6,"aqi":105,"pm10":40.3,"pm2_5":33.9,"mosquito_risk":7,"arthritis_risk":5,"migraine_risk":4,"frizz_risk":1,"updated_at":"2026-03-26T12:44:18.941746+05:30"},{"city":"Hubli-Dharwad","state":"Karnataka","latitude":15.3647,"longitude":75.124,"temp":34.0,"humidity":35,"rain":0.0,"pressure":943.1,"uv_index":9.1,"wind_gusts":32.4,"aqi":124,"pm10":30.5,"pm2_5":24.0,"mosquito_risk":0,"arthritis_risk":5,"migraine_risk":7,"frizz_risk":1,"updated_at":"2026-03-26T12:44:18.941754+05:30"},{"city":"Belgaum","state":"Karnataka","latitude":15.8497,"longitude":74.4977,"temp":32.2,"humidity":36,"rain":0.0,"pressure":928.3,"uv_index":9.1,"wind_gusts":31.7,"aqi":130,"pm10":38.0,"pm2_5":30.0,"mosquito_risk":0,"arthritis_risk":5,"migraine_risk":7,"frizz_risk":0,"updated_at":"2026-03-26T12:44:22.253610+05:30"},{"city":"Coimbatore","state":"Tamil Nadu","latitude":11.0168,"longitude":76.9558,"temp":33.6,"humidity":37,"rain":0.0,"pressure":964.0,"uv_index":9.4,"wind_gusts":42.5,"aqi":55,"pm10":26.0,"pm2_5":18.7,"mosquito_risk":0,"arthritis_risk":5,"migraine_risk":7,"frizz_risk":1,"updated_at":"2026-03-26T12:44:22.253649+05:30"},{"city":"Madurai","state":"Tamil Nadu","latitude":9.9252,"longitude":78.1198,"temp":33.1,"humidity":46,"rain":0.0,"pressure":995.2,"uv_index":9.35,"wind_gusts":27.4,"aqi":60,"pm10":31.9,"pm2_5":22.6,"mosquito_risk":0,"arthritis_risk":5,"migraine_risk":7,"frizz_risk":1,"updated_at":"2026-03-26T12:44:22.253660+05:30"},{"city":"Trichy","state":"Tamil Nadu","latitude":10.7905,"longitude":78.7047,"temp":32.8,"humidity":50,"rain":0.0,"pressure":1002.2,"uv_index":9.3,"wind_gusts":27.4,"aqi":63,"pm10":39.1,"pm2_5":29.2,"mosquito_risk":0,"arthritis_risk":5,"migraine_risk":4,"frizz_risk":1,"updated_at":"2026-03-26T12:44:22.253668+05:30"},{"city":"Salem","state":"Tamil Nadu","latitude":11.6643,"longitude":78.146,"temp":34.3,"humidity":38,"rain":0.0,"pressure":979.7,"uv_index":9.35,"wind_gusts":34.6,"aqi":85,"pm10":39.3,"pm2_5":31.1,"mosquito_risk":0,"arthritis_risk":5,"migraine_risk":7,"frizz_risk":1,"updated_at":"2026-03-26T12:44:22.253675+05:30"},{"city":"Tirunelveli","state":"Tamil Nadu","latitude":8.7139,"longitude":77.7567,"temp":34.8,"humidity":40,"rain":0.0,"pressure":1005.0,"uv_index":9.3,"wind_gusts":40.0,"aqi":43,"pm10":18.4,"pm2_5":12.8,"mosquito_risk":0,"arthritis_risk":5,"migraine_risk":4,"frizz_risk":1,"updated_at":"2026-03-26T12:44:22.253682+05:30"},{"city":"Vellore","state":"Tamil Nadu","latitude":12.9165,"longitude":79.1325,"temp":32.6,"humidity":44,"rain":0.0,"pressure":987.8,"uv_index":9.3,"wind_gusts":34.6,"aqi":81,"pm10":27.9,"pm2_5":18.3,"mosquito_risk":0,"arthritis_risk":5,"migraine_risk":7,"frizz_risk":1,"updated_at":"2026-03-26T12:44:22.253689+05:30"},{"city":"Erode","state":"Tamil Nadu","latitude":11.341,"longitude":77.7172,"temp":34.0,"humidity":44,"rain":0.0,"pressure":991.2,"uv_index":9.3,"wind_gusts":26.3,"aqi":59,"pm10":34.5,"pm2_5":27.4,"mosquito_risk":0,"arthritis_risk":5,"migraine_risk":7,"frizz_risk":1,"updated_at":"2026-03-26T12:44:22.253696+05:30"},{"city":"Kochi","state":"Kerala","latitude":9.9312,"longitude":76.2673,"temp":29.3,"humidity":78,"rain":0.0,"pressure":1009.5,"uv_index":9.2,"wind_gusts":34.2,"aqi":95,"pm10":39.3,"pm2_5":30.5,"mosquito_risk":7,"arthritis_risk":0,"migraine_risk":4,"frizz_risk":1,"updated_at":"2026-03-26T12:44:22.253704+05:30"},{"city":"Thiruvananthapuram","state":"Kerala","latitude":8.5241,"longitude":76.9366,"temp":28.7,"humidity":75,"rain":0.0,"pressure":1009.0,"uv_index":9.2,"wind_gusts":28.8,"aqi":71,"pm10":17.9,"pm2_5":14.5,"mosquito_risk":7,"arthritis_risk":0,"migraine_risk":4,"frizz_risk":1,"updated_at":"2026-03-26T12:44:22.253711+05:30"},{"city":"Kozhikode","state":"Kerala","latitude":11.2588,"longitude":75.7804,"temp":30.8,"humidity":74,"rain":0.0,"pressure":1008.5,"uv_index":9.1,"wind_gusts":30.6,"aqi":98,"pm10":46.6,"pm2_5":37.7,"mosquito_risk":3,"arthritis_risk":0,"migraine_risk":4,"frizz_risk":1,"updated_at":"2026-03-26T12:44:22.253718+05:30"},{"city":"Thrissur","state":"Kerala","latitude":10.5276,"longitude":76.2144,"temp":37.1,"humidity":39,"rain":0.0,"pressure":1007.1,"uv_index":9.15,"wind_gusts":39.2,"aqi":97,"pm10":29.4,"pm2_5":21.9,"mosquito_risk":0,"arthritis_risk":5,"migraine_risk":7,"frizz_risk":1,"updated_at":"2026-03-26T12:44:22.253725+05:30"},{"city":"Kannur","state":"Kerala","latitude":11.8745,"longitude":75.3704,"temp":32.5,"humidity":66,"rain":0.0,"pressure":1007.8,"uv_index":9.1,"wind_gusts":34.6,"aqi":100,"pm10":42.8,"pm2_5":34.1,"mosquito_risk":3,"arthritis_risk":5,"migraine_risk":4,"frizz_risk":1,"updated_at":"2026-03-26T12:44:22.253733+05:30"},{"city":"Patna","state":"Bihar","latitude":25.5941,"longitude":85.1376,"temp":32.9,"humidity":34,"rain":0.0,"pressure":1004.0,"uv_index":7.95,"wind_gusts":24.8,"aqi":155,"pm10":48.3,"pm2_5":20.4,"mosquito_risk":0,"arthritis_risk":5,"migraine_risk":4,"frizz_risk":0,"updated_at":"2026-03-26T12:44:22.253739+05:30"},{"city":"Gaya","state":"Bihar","latitude":24.7914,"longitude":85.0002,"temp":33.1,"humidity":33,"rain":0.0,"pressure":997.4,"uv_index":8.05,"wind_gusts":26.6,"aqi":88,"pm10":54.9,"pm2_5":16.3,"mosquito_risk":0,"arthritis_risk":5,"migraine_risk":7,"frizz_risk":0,"updated_at":"2026-03-26T12:44:22.253745+05:30"},{"city":"Muzaffarpur","state":"Bihar","latitude":26.1209,"longitude":85.3647,"temp":31.8,"humidity":44,"rain":0.0,"pressure":1004.2,"uv_index":7.95,"wind_gusts":17.6,"aqi":158,"pm10":52.2,"pm2_5":30.7,"mosquito_risk":0,"arthritis_risk":5,"migraine_risk":4,"frizz_risk":1,"updated_at":"2026-03-26T12:44:22.253752+05:30"},{"city":"Bhagalpur","state":"Bihar","latitude":25.2425,"longitude":87.0117,"temp":31.8,"humidity":48,"rain":0.0,"pressure":1004.9,"uv_index":8.0,"wind_gusts":15.1,"aqi":126,"pm10":62.4,"pm2_5":26.9,"mosquito_risk":0,"arthritis_risk":5,"migraine_risk":4,"frizz_risk":1,"updated_at":"2026-03-26T12:44:22.253759+05:30"},{"city":"Ranchi","state":"Jharkhand","latitude":23.3441,"longitude":85.3096,"temp":31.5,"humidity":27,"rain":0.0,"pressure":941.7,"uv_index":8.7,"wind_gusts":36.0,"aqi":68,"pm10":46.8,"pm2_5":12.8,"mosquito_risk":0,"arthritis_risk":5,"migraine_risk":7,"frizz_risk":0,"updated_at":"2026-03-26T12:44:22.253765+05:30"},{"city":"Jamshedpur","state":"Jharkhand","latitude":22.8046,"longitude":86.2029,"temp":34.2,"humidity":44,"rain":0.0,"pressure":993.8,"uv_index":8.55,"wind_gusts":22.0,"aqi":166,"pm10":98.3,"pm2_5":69.2,"mosquito_risk":0,"arthritis_risk":5,"migraine_risk":7,"frizz_risk":1,"updated_at":"2026-03-26T12:44:22.253771+05:30"},{"city":"Dhanbad","state":"Jharkhand","latitude":23.7957,"longitude":86.4304,"temp":34.6,"humidity":27,"rain":0.0,"pressure":983.0,"uv_index":8.45,"wind_gusts":23.8,"aqi":152,"pm10":73.1,"pm2_5":41.0,"mosquito_risk":0,"arthritis_risk":5,"migraine_risk":7,"frizz_risk":0,"updated_at":"2026-03-26T12:44:22.253777+05:30"},{"city":"Bokaro","state":"Jharkhand","latitude":23.6693,"longitude":86.1511,"temp":33.8,"humidity":32,"rain":0.0,"pressure":987.0,"uv_index":8.45,"wind_gusts":22.0,"aqi":140,"pm10":68.5,"pm2_5":32.8,"mosquito_risk":0,"arthritis_risk":5,"migraine_risk":7,"frizz_risk":0,"updated_at":"2026-03-26T12:44:22.253784+05:30"},{"city":"Bhubaneswar","state":"Odisha","latitude":20.2961,"longitude":85.8245,"temp":31.9,"humidity":60,"rain":0.0,"pressure":1005.9,"uv_index":8.75,"wind_gusts":18.0,"aqi":97,"pm10":66.1,"pm2_5":51.8,"mosquito_risk":0,"arthritis_risk":5,"migraine_risk":4,"frizz_risk":1,"updated_at":"2026-03-26T12:44:22.253790+05:30"},{"city":"Cuttack","state":"Odisha","latitude":20.4625,"longitude":85.8828,"temp":32.4,"humidity":58,"rain":0.0,"pressure":1007.8,"uv_index":8.8,"wind_gusts":11.9,"aqi":97,"pm10":66.1,"pm2_5":51.8,"mosquito_risk":0,"arthritis_risk":5,"migraine_risk":4,"frizz_risk":1,"updated_at":"2026-03-26T12:44:22.253796+05:30"},{"city":"Rourkela","state":"Odisha","latitude":22.2604,"longitude":84.8536,"temp":35.3,"humidity":36,"rain":0.0,"pressure":988.1,"uv_index":8.45,"wind_gusts":26.6,"aqi":120,"pm10":68.0,"pm2_5":41.8,"mosquito_risk":0,"arthritis_risk":5,"migraine_risk":10,"frizz_risk":1,"updated_at":"2026-03-26T12:44:22.253802+05:30"},{"city":"Raipur","state":"Chhattisgarh","latitude":21.2514,"longitude":81.6296,"temp":36.7,"humidity":28,"rain":0.0,"pressure":978.1,"uv_index":8.5,"wind_gusts":22.0,"aqi":146,"pm10":57.0,"pm2_5":39.9,"mosquito_risk":0,"arthritis_risk":5,"migraine_risk":10,"frizz_risk":0,"updated_at":"2026-03-26T12:44:22.253809+05:30"},{"city":"Bhilai","state":"Chhattisgarh","latitude":21.1938,"longitude":81.3509,"temp":36.7,"humidity":30,"rain":0.0,"pressure":978.5,"uv_index":8.5,"wind_gusts":19.8,"aqi":148,"pm10":54.9,"pm2_5":40.9,"mosquito_risk":0,"arthritis_risk":5,"migraine_risk":10,"frizz_risk":1,"updated_at":"2026-03-26T12:44:22.253816+05:30"},{"city":"Guwahati","state":"Assam","latitude":26.1158,"longitude":91.7086,"temp":28.7,"humidity":61,"rain":0.0,"pressure":1005.6,"uv_index":7.9,"wind_gusts":23.0,"aqi":138,"pm10":65.9,"pm2_5":44.0,"mosquito_risk":7,"arthritis_risk":5,"migraine_risk":4,"frizz_risk":1,"updated_at":"2026-03-26T12:44:22.253822+05:30"},{"city":"Agartala","state":"Tripura","latitude":23.8315,"longitude":91.2868,"temp":31.8,"humidity":56,"rain":0.0,"pressure":1009.3,"uv_index":8.2,"wind_gusts":20.5,"aqi":162,"pm10":81.3,"pm2_5":57.4,"mosquito_risk":0,"arthritis_risk":0,"migraine_risk":4,"frizz_risk":1,"updated_at":"2026-03-26T12:44:22.253828+05:30"},{"city":"Shillong","state":"Meghalaya","latitude":25.5788,"longitude":91.8933,"temp":19.9,"humidity":43,"rain":0.0,"pressure":859.9,"uv_index":8.3,"wind_gusts":26.6,"aqi":110,"pm10":50.3,"pm2_5":31.1,"mosquito_risk":0,"arthritis_risk":5,"migraine_risk":7,"frizz_risk":0,"updated_at":"2026-03-26T12:44:22.253835+05:30"},{"city":"Imphal","state":"Manipur","latitude":24.817,"longitude":93.9368,"temp":23.4,"humidity":46,"rain":0.0,"pressure":926.7,"uv_index":8.55,"wind_gusts":45.7,"aqi":129,"pm10":41.8,"pm2_5":26.5,"mosquito_risk":0,"arthritis_risk":5,"migraine_risk":7,"frizz_risk":0,"updated_at":"2026-03-26T12:44:22.253842+05:30"},{"city":"Aizawl","state":"Mizoram","latitude":23.7271,"longitude":92.7176,"temp":26.8,"humidity":39,"rain":0.0,"pressure":897.1,"uv_index":8.45,"wind_gusts":34.2,"aqi":130,"pm10":52.0,"pm2_5":32.2,"mosquito_risk":4,"arthritis_risk":5,"migraine_risk":7,"frizz_risk":0,"updated_at":"2026-03-26T12:44:22.253849+05:30"},{"city":"Kohima","state":"Nagaland","latitude":25.6701,"longitude":94.1077,"temp":18.1,"humidity":69,"rain":0.0,"pressure":858.4,"uv_index":8.45,"wind_gusts":47.5,"aqi":109,"pm10":43.5,"pm2_5":27.4,"mosquito_risk":3,"arthritis_risk":5,"migraine_risk":7,"frizz_risk":0,"updated_at":"2026-03-26T12:44:22.253855+05:30"},{"city":"Gangtok","state":"Sikkim","latitude":27.3314,"longitude":88.6138,"temp":18.4,"humidity":69,"rain":0.0,"pressure":840.7,"uv_index":8.05,"wind_gusts":18.7,"aqi":94,"pm10":58.1,"pm2_5":42.5,"mosquito_risk":3,"arthritis_risk":5,"migraine_risk":7,"frizz_risk":0,"updated_at":"2026-03-26T12:44:22.253861+05:30"},{"city":"Siliguri","state":"West Bengal","latitude":26.7271,"longitude":88.3953,"temp":23.5,"humidity":67,"rain":0.0,"pressure":998.5,"uv_index":7.9,"wind_gusts":32.8,"aqi":153,"pm10":78.9,"pm2_5":52.7,"mosquito_risk":3,"arthritis_risk":5,"migraine_risk":7,"frizz_risk":1,"updated_at":"2026-03-26T12:44:25.562955+05:30"},{"city":"Durgapur","state":"West Bengal","latitude":23.5204,"longitude":87.3119,"temp":33.7,"humidity":48,"rain":0.0,"pressure":998.2,"uv_index":8.4,"wind_gusts":21.2,"aqi":162,"pm10":79.4,"pm2_5":50.3,"mosquito_risk":0,"arthritis_risk":5,"migraine_risk":7,"frizz_risk":1,"updated_at":"2026-03-26T12:44:25.562985+05:30"},{"city":"Asansol","state":"West Bengal","latitude":23.6739,"longitude":86.9524,"temp":34.3,"humidity":39,"rain":0.0,"pressure":996.5,"uv_index":8.4,"wind_gusts":17.6,"aqi":151,"pm10":76.1,"pm2_5":46.0,"mosquito_risk":0,"arthritis_risk":5,"migraine_risk":7,"frizz_risk":1,"updated_at":"2026-03-26T12:44:25.562995+05:30"},{"city":"Pondicherry","state":"Puducherry","latitude":11.9139,"longitude":79.8145,"temp":32.6,"humidity":55,"rain":0.0,"pressure":1011.2,"uv_index":9.2,"wind_gusts":29.2,"aqi":53,"pm10":30.0,"pm2_5":17.7,"mosquito_risk":0,"arthritis_risk":0,"migraine_risk":4,"frizz_risk":1,"updated_at":"2026-03-26T12:44:25.563003+05:30"},{"city":"Port Blair","state":"Andaman and Nicobar Islands","latitude":11.6234,"longitude":92.7265,"temp":28.3,"humidity":81,"rain":0.0,"pressure":1007.7,"uv_index":9.15,"wind_gusts":26.6,"aqi":61,"pm10":12.8,"pm2_5":8.8,"mosquito_risk":7,"arthritis_risk":5,"migraine_risk":4,"frizz_risk":1,"updated_at":"2026-03-26T12:44:25.563011+05:30"},{"city":"Haridwar","state":"Uttarakhand","latitude":29.9457,"longitude":78.1642,"temp":31.9,"humidity":37,"rain":0.0,"pressure":978.4,"uv_index":6.4,"wind_gusts":48.2,"aqi":81,"pm10":19.6,"pm2_5":11.5,"mosquito_risk":0,"arthritis_risk":5,"migraine_risk":7,"frizz_risk":0,"updated_at":"2026-03-26T12:44:25.563019+05:30"},{"city":"Rishikesh","state":"Uttarakhand","latitude":30.0869,"longitude":78.2676,"temp":30.9,"humidity":37,"rain":0.0,"pressure":971.1,"uv_index":6.45,"wind_gusts":46.1,"aqi":65,"pm10":16.4,"pm2_5":8.0,"mosquito_risk":0,"arthritis_risk":5,"migraine_risk":7,"frizz_risk":0,"updated_at":"2026-03-26T12:44:25.563026+05:30"},{"city":"Nainital","state":"Uttarakhand","latitude":29.3919,"longitude":79.4542,"temp":23.8,"humidity":45,"rain":0.0,"pressure":811.7,"uv_index":7.25,"wind_gusts":65.9,"aqi":64,"pm10":23.0,"pm2_5":14.0,"mosquito_risk":0,"arthritis_risk":5,"migraine_risk":7,"frizz_risk":0,"updated_at":"2026-03-26T12:44:25.563034+05:30"},{"city":"Mussoorie","state":"Uttarakhand","latitude":30.4599,"longitude":78.0664,"temp":21.9,"humidity":45,"rain":0.0,"pressure":808.1,"uv_index":6.8,"wind_gusts":56.2,"aqi":72,"pm10":17.9,"pm2_5":9.8,"mosquito_risk":0,"arthritis_risk":5,"migraine_risk":7,"frizz_risk":0,"updated_at":"2026-03-26T12:44:25.563042+05:30"},{"city":"Dharamshala","state":"Himachal Pradesh","latitude":32.219,"longitude":76.3234,"temp":23.5,"humidity":46,"rain":0.0,"pressure":874.2,"uv_index":6.9,"wind_gusts":23.0,"aqi":52,"pm10":9.1,"pm2_5":4.8,"mosquito_risk":0,"arthritis_risk":5,"migraine_risk":7,"frizz_risk":0,"updated_at":"2026-03-26T12:44:25.563049+05:30"},{"city":"Dalhousie","state":"Himachal Pradesh","latitude":32.5387,"longitude":75.971,"temp":22.4,"humidity":32,"rain":0.0,"pressure":809.4,"uv_index":6.8,"wind_gusts":27.4,"aqi":69,"pm10":13.7,"pm2_5":8.1,"mosquito_risk":0,"arthritis_risk":5,"migraine_risk":7,"frizz_risk":0,"updated_at":"2026-03-26T12:44:25.563057+05:30"},{"city":"Patiala","state":"Punjab","latitude":30.3398,"longitude":76.3869,"temp":31.1,"humidity":38,"rain":0.0,"pressure":983.1,"uv_index":5.75,"wind_gusts":34.9,"aqi":168,"pm10":258.9,"pm2_5":41.9,"mosquito_risk":0,"arthritis_risk":5,"migraine_risk":3,"frizz_risk":0,"updated_at":"2026-03-26T12:44:25.563064+05:30"},{"city":"Bhatinda","state":"Punjab","latitude":30.211,"longitude":74.9455,"temp":30.8,"humidity":40,"rain":0.0,"pressure":989.0,"uv_index":5.75,"wind_gusts":40.7,"aqi":88,"pm10":31.0,"pm2_5":21.1,"mosquito_risk":0,"arthritis_risk":5,"migraine_risk":3,"frizz_risk":0,"updated_at":"2026-03-26T12:44:25.563071+05:30"},{"city":"Rohtak","state":"Haryana","latitude":28.8955,"longitude":76.6066,"temp":31.3,"humidity":37,"rain":0.0,"pressure":986.7,"uv_index":6.0,"wind_gusts":24.5,"aqi":190,"pm10":113.6,"pm2_5":28.2,"mosquito_risk":0,"arthritis_risk":5,"migraine_risk":3,"frizz_risk":0,"updated_at":"2026-03-26T12:44:25.563078+05:30"},{"city":"Panipat","state":"Haryana","latitude":29.3909,"longitude":76.9635,"temp":32.0,"humidity":34,"rain":0.0,"pressure":985.3,"uv_index":5.9,"wind_gusts":20.9,"aqi":489,"pm10":305.5,"pm2_5":44.8,"mosquito_risk":0,"arthritis_risk":5,"migraine_risk":3,"frizz_risk":0,"updated_at":"2026-03-26T12:44:25.563084+05:30"},{"city":"Mathura","state":"Uttar Pradesh","latitude":27.4924,"longitude":77.6737,"temp":33.7,"humidity":32,"rain":0.0,"pressure":991.5,"uv_index":6.8,"wind_gusts":32.0,"aqi":186,"pm10":84.8,"pm2_5":26.4,"mosquito_risk":0,"arthritis_risk":5,"migraine_risk":7,"frizz_risk":0,"updated_at":"2026-03-26T12:44:25.563091+05:30"},{"city":"Vrindavan","state":"Uttar Pradesh","latitude":27.5823,"longitude":77.7027,"temp":33.1,"humidity":34,"rain":0.0,"pressure":992.0,"uv_index":6.8,"wind_gusts":29.5,"aqi":186,"pm10":84.8,"pm2_5":26.4,"mosquito_risk":0,"arthritis_risk":5,"migraine_risk":7,"frizz_risk":0,"updated_at":"2026-03-26T12:44:25.563099+05:30"},{"city":"Ayodhya","state":"Uttar Pradesh","latitude":26.7922,"longitude":82.1998,"temp":34.0,"humidity":30,"rain":0.0,"pressure":999.4,"uv_index":7.3,"wind_gusts":32.8,"aqi":96,"pm10":141.1,"pm2_5":35.2,"mosquito_risk":0,"arthritis_risk":5,"migraine_risk":7,"frizz_risk":0,"updated_at":"2026-03-26T12:44:25.563105+05:30"},{"city":"Ratlam","state":"Madhya Pradesh","latitude":23.3315,"longitude":75.0367,"temp":34.6,"humidity":28,"rain":0.0,"pressure":958.6,"uv_index":8.05,"wind_gusts":29.5,"aqi":44,"pm10":10.8,"pm2_5":5.4,"mosquito_risk":0,"arthritis_risk":5,"migraine_risk":7,"frizz_risk":0,"updated_at":"2026-03-26T12:44:25.563112+05:30"},{"city":"Sagar","state":"Madhya Pradesh","latitude":23.8388,"longitude":78.7378,"temp":35.6,"humidity":23,"rain":0.0,"pressure":954.7,"uv_index":8.05,"wind_gusts":24.8,"aqi":49,"pm10":36.0,"pm2_5":10.3,"mosquito_risk":0,"arthritis_risk":5,"migraine_risk":10,"frizz_risk":0,"updated_at":"2026-03-26T12:44:25.563118+05:30"},{"city":"Satna","state":"Madhya Pradesh","latitude":24.6005,"longitude":80.8322,"temp":35.3,"humidity":21,"rain":0.0,"pressure":976.0,"uv_index":8.05,"wind_gusts":26.6,"aqi":80,"pm10":81.7,"pm2_5":17.1,"mosquito_risk":0,"arthritis_risk":5,"migraine_risk":10,"frizz_risk":0,"updated_at":"2026-03-26T12:44:25.563125+05:30"},{"city":"Akola","state":"Maharashtra","latitude":20.7002,"longitude":77.0082,"temp":37.5,"humidity":25,"rain":0.0,"pressure":978.3,"uv_index":8.4,"wind_gusts":24.1,"aqi":56,"pm10":21.1,"pm2_5":15.1,"mosquito_risk":0,"arthritis_risk":5,"migraine_risk":10,"frizz_risk":0,"updated_at":"2026-03-26T12:44:25.563133+05:30"},{"city":"Amravati","state":"Maharashtra","latitude":20.9374,"longitude":77.7796,"temp":38.1,"humidity":24,"rain":0.0,"pressure":970.5,"uv_index":8.4,"wind_gusts":23.8,"aqi":57,"pm10":21.7,"pm2_5":15.5,"mosquito_risk":0,"arthritis_risk":5,"migraine_risk":10,"frizz_risk":0,"updated_at":"2026-03-26T12:44:25.563140+05:30"},{"city":"Latur","state":"Maharashtra","latitude":18.4088,"longitude":76.5604,"temp":35.3,"humidity":27,"rain":0.0,"pressure":942.9,"uv_index":8.75,"wind_gusts":35.3,"aqi":93,"pm10":30.2,"pm2_5":23.2,"mosquito_risk":0,"arthritis_risk":5,"migraine_risk":10,"frizz_risk":0,"updated_at":"2026-03-26T12:44:25.563146+05:30"},{"city":"Nanded","state":"Maharashtra","latitude":19.1383,"longitude":77.3091,"temp":38.2,"humidity":24,"rain":0.0,"pressure":971.2,"uv_index":8.6,"wind_gusts":25.6,"aqi":75,"pm10":17.3,"pm2_5":13.2,"mosquito_risk":0,"arthritis_risk":5,"migraine_risk":10,"frizz_risk":0,"updated_at":"2026-03-26T12:44:25.563153+05:30"},{"city":"Gulbarga","state":"Karnataka","latitude":17.3297,"longitude":76.8343,"temp":34.3,"humidity":37,"rain":0.0,"pressure":962.0,"uv_index":8.85,"wind_gusts":16.9,"aqi":102,"pm10":37.7,"pm2_5":28.9,"mosquito_risk":0,"arthritis_risk":5,"migraine_risk":7,"frizz_risk":1,"updated_at":"2026-03-26T12:44:25.563159+05:30"},{"city":"Bidar","state":"Karnataka","latitude":17.9104,"longitude":77.5199,"temp":32.4,"humidity":39,"rain":0.0,"pressure":939.3,"uv_index":8.85,"wind_gusts":20.5,"aqi":97,"pm10":33.2,"pm2_5":25.4,"mosquito_risk":0,"arthritis_risk":5,"migraine_risk":7,"frizz_risk":1,"updated_at":"2026-03-26T12:44:25.563166+05:30"},{"city":"Hospet","state":"Karnataka","latitude":15.2689,"longitude":76.3909,"temp":34.5,"humidity":34,"rain":0.0,"pressure":958.2,"uv_index":9.05,"wind_gusts":28.1,"aqi":96,"pm10":31.5,"pm2_5":24.6,"mosquito_risk":0,"arthritis_risk":5,"migraine_risk":7,"frizz_risk":1,"updated_at":"2026-03-26T12:44:25.563172+05:30"},{"city":"Tirupur","state":"Tamil Nadu","latitude":11.1085,"longitude":77.3411,"temp":34.1,"humidity":39,"rain":0.0,"pressure":977.6,"uv_index":9.4,"wind_gusts":33.1,"aqi":62,"pm10":32.2,"pm2_5":25.3,"mosquito_risk":0,"arthritis_risk":5,"migraine_risk":7,"frizz_risk":1,"updated_at":"2026-03-26T12:44:25.563179+05:30"},{"city":"Alappuzha","state":"Kerala","latitude":9.4981,"longitude":76.3388,"temp":29.0,"humidity":79,"rain":0.0,"pressure":1009.7,"uv_index":9.15,"wind_gusts":29.5,"aqi":88,"pm10":33.2,"pm2_5":26.8,"mosquito_risk":7,"arthritis_risk":0,"migraine_risk":4,"frizz_risk":1,"updated_at":"2026-03-26T12:44:25.563186+05:30"},{"city":"Munnar","state":"Kerala","latitude":10.0889,"longitude":77.0595,"temp":31.6,"humidity":36,"rain":0.0,"pressure":861.0,"uv_index":9.7,"wind_gusts":26.6,"aqi":59,"pm10":26.7,"pm2_5":17.6,"mosquito_risk":0,"arthritis_risk":5,"migraine_risk":7,"frizz_risk":0,"updated_at":"2026-03-26T12:44:25.563193+05:30"},{"city":"Silchar","state":"Assam","latitude":24.8333,"longitude":92.7789,"temp":30.9,"humidity":51,"rain":0.0,"pressure":1008.4,"uv_index":8.25,"wind_gusts":18.7,"aqi":157,"pm10":69.6,"pm2_5":43.3,"mosquito_risk":0,"arthritis_risk":0,"migraine_risk":4,"frizz_risk":1,"updated_at":"2026-03-26T12:44:25.563200+05:30"},{"city":"Dibrugarh","state":"Assam","latitude":27.4728,"longitude":94.912,"temp":26.4,"humidity":59,"rain":0.0,"pressure":999.8,"uv_index":8.05,"wind_gusts":7.9,"aqi":93,"pm10":45.1,"pm2_5":31.8,"mosquito_risk":4,"arthritis_risk":5,"migraine_risk":7,"frizz_risk":1,"updated_at":"2026-03-26T12:44:25.563206+05:30"}]