[{"city":"Delhi","state":"Delhi","latitude":28.6139,"longitude":77.209,"temp":22.5,"humidity":81,"rain":0.0,"pressure":983.1,"uv_index":7.55,"wind_gusts":30.2,"aqi":139,"pm10":99.2,"pm2_5":31.5,"no2":14.5,"co":480.0,"o3":89.0,"so2":11.9,"mosquito_risk":3,"arthritis_risk":5,"migraine_risk":7,"frizz_risk":1,"updated_at":"2026-05-05T03:34:12.441446+05:30"},{"city":"Mumbai","state":"Maharashtra","latitude":19.076,"longitude":72.8777,"temp":28.5,"humidity":78,"rain":0.0,"pressure":1006.8,"uv_index":7.85,"wind_gusts":40.0,"aqi":60,"pm10":47.8,"pm2_5":17.3,"no2":7.4,"co":195.0,"o3":64.0,"so2":14.4,"mosquito_risk":7,"arthritis_risk":5,"migraine_risk":4,"frizz_risk":1,"updated_at":"2026-05-05T03:34:12.441482+05:30"},{"city":"Bangalore","state":"Karnataka","latitude":12.9716,"longitude":77.5946,"temp":23.0,"humidity":71,"rain":0.0,"pressure":910.3,"uv_index":8.2,"wind_gusts":37.4,"aqi":83,"pm10":43.7,"pm2_5":22.8,"no2":12.7,"co":276.0,"o3":68.0,"so2":7.7,"mosquito_risk":3,"arthritis_risk":5,"migraine_risk":7,"frizz_risk":1,"updated_at":"2026-05-05T03:34:12.441502+05:30"},{"city":"Hyderabad","state":"Telangana","latitude":17.385,"longitude":78.4867,"temp":27.0,"humidity":67,"rain":0.0,"pressure":951.1,"uv_index":9.25,"wind_gusts":41.0,"aqi":76,"pm10":37.8,"pm2_5":28.2,"no2":8.2,"co":266.0,"o3":100.0,"so2":6.1,"mosquito_risk":7,"arthritis_risk":5,"migraine_risk":7,"frizz_risk":1,"updated_at":"2026-05-05T03:34:12.441512+05:30"},{"city":"Chennai","state":"Tamil Nadu","latitude":13.0827,"longitude":80.2707,"temp":28.2,"humidity":77,"rain":0.0,"pressure":1005.2,"uv_index":8.5,"wind_gusts":42.5,"aqi":69,"pm10":26.5,"pm2_5":18.7,"no2":6.6,"co":249.0,"o3":97.0,"so2":5.9,"mosquito_risk":7,"arthritis_risk":5,"migraine_risk":4,"frizz_risk":1,"updated_at":"2026-05-05T03:34:12.441521+05:30"},{"city":"Kolkata","state":"West Bengal","latitude":22.5726,"longitude":88.3639,"temp":22.9,"humidity":94,"rain":0.1,"pressure":1008.3,"uv_index":8.85,"wind_gusts":36.0,"aqi":83,"pm10":27.4,"pm2_5":23.3,"no2":17.0,"co":334.0,"o3":29.0,"so2":7.2,"mosquito_risk":6,"arthritis_risk":0,"migraine_risk":4,"frizz_risk":1,"updated_at":"2026-05-05T03:34:12.441529+05:30"},{"city":"Pune","state":"Maharashtra","latitude":18.5204,"longitude":73.8567,"temp":21.9,"humidity":95,"rain":0.0,"pressure":946.2,"uv_index":8.5,"wind_gusts":45.4,"aqi":54,"pm10":24.5,"pm2_5":12.2,"no2":11.2,"co":206.0,"o3":46.0,"so2":10.8,"mosquito_risk":3,"arthritis_risk":5,"migraine_risk":7,"frizz_risk":1,"updated_at":"2026-05-05T03:34:12.441536+05:30"},{"city":"Ahmedabad","state":"Gujarat","latitude":23.0225,"longitude":72.5714,"temp":28.5,"humidity":76,"rain":0.0,"pressure":999.3,"uv_index":8.1,"wind_gusts":28.4,"aqi":66,"pm10":26.3,"pm2_5":15.7,"no2":6.5,"co":174.0,"o3":51.0,"so2":5.7,"mosquito_risk":7,"arthritis_risk":5,"migraine_risk":7,"frizz_risk":1,"updated_at":"2026-05-05T03:34:12.441546+05:30"},{"city":"Jaipur","state":"Rajasthan","latitude":26.9124,"longitude":75.7873,"temp":23.9,"humidity":60,"rain":0.0,"pressure":958.1,"uv_index":8.1,"wind_gusts":53.6,"aqi":192,"pm10":289.6,"pm2_5":60.1,"no2":3.8,"co":281.0,"o3":114.0,"so2":5.8,"mosquito_risk":0,"arthritis_risk":5,"migraine_risk":7,"frizz_risk":0,"updated_at":"2026-05-05T03:34:12.441554+05:30"},{"city":"Lucknow","state":"Uttar Pradesh","latitude":26.8467,"longitude":80.9462,"temp":22.2,"humidity":82,"rain":0.0,"pressure":995.0,"uv_index":6.95,"wind_gusts":26.3,"aqi":91,"pm10":48.0,"pm2_5":37.5,"no2":9.7,"co":394.0,"o3":99.0,"so2":8.6,"mosquito_risk":3,"arthritis_risk":5,"migraine_risk":7,"frizz_risk":1,"updated_at":"2026-05-05T03:34:12.441562+05:30"},{"city":"Kanpur","state":"Uttar Pradesh","latitude":26.4499,"longitude":80.3319,"temp":23.2,"humidity":82,"rain":0.0,"pressure":992.7,"uv_index":7.2,"wind_gusts":32.0,"aqi":178,"pm10":53.2,"pm2_5":39.1,"no2":8.1,"co":450.0,"o3":99.0,"so2":8.3,"mosquito_risk":3,"arthritis_risk":5,"migraine_risk":7,"frizz_risk":1,"updated_at":"2026-05-05T03:34:12.441569+05:30"},{"city":"Chandigarh","state":"Chandigarh","latitude":30.7333,"longitude":76.7794,"temp":19.6,"humidity":57,"rain":0.0,"pressure":968.4,"uv_index":7.6,"wind_gusts":32.8,"aqi":91,"pm10":42.0,"pm2_5":25.8,"no2":17.8,"co":290.0,"o3":47.0,"so2":3.5,"mosquito_risk":0,"arthritis_risk":5,"migraine_risk":7,"frizz_risk":0,"updated_at":"2026-05-05T03:34:12.441576+05:30"},{"city":"Srinagar","state":"Jammu and Kashmir","latitude":34.0837,"longitude":74.7973,"temp":7.2,"humidity":99,"rain":0.0,"pressure":841.3,"uv_index":8.75,"wind_gusts":30.6,"aqi":66,"pm10":36.3,"pm2_5":27.3,"no2":12.0,"co":407.0,"o3":89.0,"so2":3.3,"mosquito_risk":3,"arthritis_risk":10,"migraine_risk":7,"frizz_risk":0,"updated_at":"2026-05-05T03:34:12.441583+05:30"},{"city":"Jammu","state":"Jammu and Kashmir","latitude":32.7266,"longitude":74.857,"temp":18.5,"humidity":71,"rain":0.0,"pressure":973.8,"uv_index":8.3,"wind_gusts":32.0,"aqi":103,"pm10":52.2,"pm2_5":37.8,"no2":27.7,"co":276.0,"o3":21.0,"so2":1.9,"mosquito_risk":3,"arthritis_risk":5,"migraine_risk":7,"frizz_risk":0,"updated_at":"2026-05-05T03:34:12.441590+05:30"},{"city":"Amritsar","state":"Punjab","latitude":31.634,"longitude":74.8723,"temp":21.3,"humidity":66,"rain":0.0,"pressure":981.5,"uv_index":8.2,"wind_gusts":29.5,"aqi":106,"pm10":46.9,"pm2_5":34.1,"no2":6.3,"co":360.0,"o3":92.0,"so2":10.2,"mosquito_risk":3,"arthritis_risk":5,"migraine_risk":7,"frizz_risk":0,"updated_at":"2026-05-05T03:34:12.441596+05:30"},{"city":"Ludhiana","state":"Punjab","latitude":30.901,"longitude":75.8573,"temp":21.0,"humidity":69,"rain":0.0,"pressure":978.7,"uv_index":7.8,"wind_gusts":26.3,"aqi":122,"pm10":50.6,"pm2_5":36.4,"no2":11.6,"co":420.0,"o3":70.0,"so2":7.9,"mosquito_risk":3,"arthritis_risk":5,"migraine_risk":7,"frizz_risk":0,"updated_at":"2026-05-05T03:34:12.441602+05:30"},{"city":"Jalandhar","state":"Punjab","latitude":31.326,"longitude":75.5762,"temp":20.5,"humidity":67,"rain":0.0,"pressure":979.9,"uv_index":7.95,"wind_gusts":24.8,"aqi":123,"pm10":51.0,"pm2_5":38.8,"no2":10.1,"co":394.0,"o3":80.0,"so2":15.2,"mosquito_risk":3,"arthritis_risk":5,"migraine_risk":7,"frizz_risk":0,"updated_at":"2026-05-05T03:34:12.441608+05:30"},{"city":"Dehradun","state":"Uttarakhand","latitude":30.6284,"longitude":78.0322,"temp":7.8,"humidity":94,"rain":0.0,"pressure":826.8,"uv_index":7.95,"wind_gusts":37.4,"aqi":61,"pm10":26.7,"pm2_5":12.2,"no2":25.0,"co":200.0,"o3":36.0,"so2":0.2,"mosquito_risk":3,"arthritis_risk":10,"migraine_risk":7,"frizz_risk":0,"updated_at":"2026-05-05T03:34:12.441617+05:30"},{"city":"Shimla","state":"Himachal Pradesh","latitude":31.1048,"longitude":77.1734,"temp":4.7,"humidity":90,"rain":0.0,"pressure":778.3,"uv_index":8.05,"wind_gusts":30.2,"aqi":70,"pm10":36.0,"pm2_5":13.0,"no2":11.4,"co":230.0,"o3":88.0,"so2":0.4,"mosquito_risk":3,"arthritis_risk":10,"migraine_risk":7,"frizz_risk":0,"updated_at":"2026-05-05T03:34:12.441624+05:30"},{"city":"Manali","state":"Himachal Pradesh","latitude":32.2396,"longitude":77.1887,"temp":8.2,"humidity":76,"rain":0.0,"pressure":815.0,"uv_index":9.2,"wind_gusts":36.7,"aqi":92,"pm10":8.8,"pm2_5":3.2,"no2":5.3,"co":210.0,"o3":136.0,"so2":0.6,"mosquito_risk":3,"arthritis_risk":5,"migraine_risk":7,"frizz_risk":0,"updated_at":"2026-05-05T03:34:12.441630+05:30"},{"city":"Gurgaon","state":"Haryana","latitude":28.4595,"longitude":77.0266,"temp":22.6,"humidity":80,"rain":0.0,"pressure":981.4,"uv_index":7.65,"wind_gusts":36.0,"aqi":991,"pm10":711.5,"pm2_5":99.2,"no2":11.5,"co":460.0,"o3":89.0,"so2":9.9,"mosquito_risk":3,"arthritis_risk":5,"migraine_risk":7,"frizz_risk":1,"updated_at":"2026-05-05T03:34:12.441636+05:30"},{"city":"Noida","state":"Uttar Pradesh","latitude":28.5355,"longitude":77.391,"temp":22.0,"humidity":83,"rain":0.0,"pressure":984.7,"uv_index":7.55,"wind_gusts":39.2,"aqi":991,"pm10":711.5,"pm2_5":99.2,"no2":11.5,"co":450.0,"o3":89.0,"so2":9.9,"mosquito_risk":3,"arthritis_risk":5,"migraine_risk":7,"frizz_risk":1,"updated_at":"2026-05-05T03:34:12.441643+05:30"},{"city":"Ghaziabad","state":"Uttar Pradesh","latitude":28.6692,"longitude":77.4538,"temp":22.0,"humidity":82,"rain":0.0,"pressure":983.1,"uv_index":7.5,"wind_gusts":30.6,"aqi":99,"pm10":67.3,"pm2_5":26.0,"no2":8.2,"co":445.0,"o3":92.0,"so2":7.4,"mosquito_risk":3,"arthritis_risk":5,"migraine_risk":7,"frizz_risk":1,"updated_at":"2026-05-05T03:34:12.441651+05:30"},{"city":"Faridabad","state":"Haryana","latitude":28.4089,"longitude":77.3178,"temp":22.4,"humidity":83,"rain":0.0,"pressure":983.9,"uv_index":7.6,"wind_gusts":40.3,"aqi":991,"pm10":711.5,"pm2_5":99.2,"no2":11.5,"co":475.0,"o3":89.0,"so2":9.9,"mosquito_risk":3,"arthritis_risk":5,"migraine_risk":7,"frizz_risk":1,"updated_at":"2026-05-05T03:34:12.441657+05:30"},{"city":"Meerut","state":"Uttar Pradesh","latitude":28.9845,"longitude":77.7064,"temp":21.5,"humidity":84,"rain":0.0,"pressure":981.9,"uv_index":7.45,"wind_gusts":39.2,"aqi":99,"pm10":67.3,"pm2_5":26.0,"no2":8.2,"co":504.0,"o3":92.0,"so2":7.4,"mosquito_risk":3,"arthritis_risk":5,"migraine_risk":7,"frizz_risk":1,"updated_at":"2026-05-05T03:34:12.441664+05:30"},{"city":"Agra","state":"Uttar Pradesh","latitude":27.1767,"longitude":78.0081,"temp":24.9,"humidity":78,"rain":0.0,"pressure":987.7,"uv_index":7.75,"wind_gusts":59.8,"aqi":821,"pm10":351.1,"pm2_5":82.9,"no2":12.7,"co":400.0,"o3":83.0,"so2":13.1,"mosquito_risk":3,"arthritis_risk":5,"migraine_risk":7,"frizz_risk":1,"updated_at":"2026-05-05T03:34:12.441670+05:30"},{"city":"Varanasi","state":"Uttar Pradesh","latitude":25.3176,"longitude":82.9739,"temp":22.5,"humidity":93,"rain":0.0,"pressure":998.8,"uv_index":8.2,"wind_gusts":29.2,"aqi":145,"pm10":65.2,"pm2_5":60.1,"no2":14.7,"co":408.0,"o3":95.0,"so2":18.6,"mosquito_risk":3,"arthritis_risk":5,"migraine_risk":7,"frizz_risk":1,"updated_at":"2026-05-05T03:34:12.441678+05:30"},{"city":"Prayagraj","state":"Uttar Pradesh","latitude":25.4358,"longitude":81.8463,"temp":23.0,"humidity":84,"rain":0.0,"pressure":997.3,"uv_index":5.25,"wind_gusts":31.7,"aqi":138,"pm10":63.8,"pm2_5":58.7,"no2":12.9,"co":438.0,"o3":99.0,"so2":16.2,"mosquito_risk":3,"arthritis_risk":5,"migraine_risk":3,"frizz_risk":1,"updated_at":"2026-05-05T03:34:12.441686+05:30"},{"city":"Gorakhpur","state":"Uttar Pradesh","latitude":26.7606,"longitude":83.3732,"temp":20.7,"humidity":86,"rain":0.0,"pressure":1000.0,"uv_index":8.05,"wind_gusts":24.5,"aqi":94,"pm10":44.7,"pm2_5":37.7,"no2":10.6,"co":431.0,"o3":92.0,"so2":8.4,"mosquito_risk":3,"arthritis_risk":5,"migraine_risk":4,"frizz_risk":1,"updated_at":"2026-05-05T03:34:12.441692+05:30"},{"city":"Bareilly","state":"Uttar Pradesh","latitude":28.367,"longitude":79.4304,"temp":22.0,"humidity":84,"rain":0.0,"pressure":988.3,"uv_index":7.25,"wind_gusts":27.7,"aqi":83,"pm10":38.2,"pm2_5":23.6,"no2":8.6,"co":359.0,"o3":87.0,"so2":4.6,"mosquito_risk":3,"arthritis_risk":5,"migraine_risk":7,"frizz_risk":1,"updated_at":"2026-05-05T03:34:12.441698+05:30"},{"city":"Aligarh","state":"Uttar Pradesh","latitude":27.8974,"longitude":78.088,"temp":23.2,"humidity":79,"rain":0.0,"pressure":986.1,"uv_index":7.7,"wind_gusts":43.2,"aqi":383,"pm10":210.9,"pm2_5":41.7,"no2":8.1,"co":406.0,"o3":87.0,"so2":8.6,"mosquito_risk":3,"arthritis_risk":5,"migraine_risk":7,"frizz_risk":1,"updated_at":"2026-05-05T03:34:12.441704+05:30"},{"city":"Moradabad","state":"Uttar Pradesh","latitude":28.8386,"longitude":78.7733,"temp":21.5,"humidity":85,"rain":0.0,"pressure":984.8,"uv_index":7.65,"wind_gusts":29.9,"aqi":92,"pm10":55.4,"pm2_5":30.4,"no2":14.6,"co":621.0,"o3":75.0,"so2":9.9,"mosquito_risk":3,"arthritis_risk":5,"migraine_risk":7,"frizz_risk":1,"updated_at":"2026-05-05T03:34:12.441710+05:30"},{"city":"Saharanpur","state":"Uttar Pradesh","latitude":29.9637,"longitude":77.546,"temp":20.7,"humidity":62,"rain":0.0,"pressure":975.8,"uv_index":7.2,"wind_gusts":30.2,"aqi":103,"pm10":64.7,"pm2_5":40.2,"no2":20.5,"co":362.0,"o3":40.0,"so2":6.4,"mosquito_risk":3,"arthritis_risk":5,"migraine_risk":7,"frizz_risk":0,"updated_at":"2026-05-05T03:34:12.441716+05:30"},{"city":"Jhansi","state":"Uttar Pradesh","latitude":25.4484,"longitude":78.5685,"temp":24.0,"humidity":82,"rain":0.0,"pressure":977.2,"uv_index":8.35,"wind_gusts":39.2,"aqi":98,"pm10":69.8,"pm2_5":36.6,"no2":3.0,"co":338.0,"o3":130.0,"so2":10.0,"mosquito_risk":3,"arthritis_risk":5,"migraine_risk":7,"frizz_risk":1,"updated_at":"2026-05-05T03:34:15.869437+05:30"},{"city":"Surat","state":"Gujarat","latitude":21.1702,"longitude":72.8311,"temp":28.5,"humidity":79,"rain":0.0,"pressure":1004.6,"uv_index":7.7,"wind_gusts":41.8,"aqi":63,"pm10":44.7,"pm2_5":19.7,"no2":14.8,"co":232.0,"o3":57.0,"so2":25.5,"mosquito_risk":7,"arthritis_risk":5,"migraine_risk":4,"frizz_risk":1,"updated_at":"2026-05-05T03:34:15.869460+05:30"},{"city":"Vadodara","state":"Gujarat","latitude":22.3072,"longitude":73.1812,"temp":28.0,"humidity":81,"rain":0.0,"pressure":1002.0,"uv_index":8.05,"wind_gusts":37.4,"aqi":60,"pm10":35.2,"pm2_5":16.3,"no2":9.7,"co":207.0,"o3":55.0,"so2":14.3,"mosquito_risk":7,"arthritis_risk":5,"migraine_risk":4,"frizz_risk":1,"updated_at":"2026-05-05T03:34:15.869470+05:30"},{"city":"Rajkot","state":"Gujarat","latitude":22.3039,"longitude":70.8022,"temp":25.2,"humidity":94,"rain":0.0,"pressure":990.9,"uv_index":7.7,"wind_gusts":47.9,"aqi":55,"pm10":41.2,"pm2_5":15.1,"no2":2.4,"co":146.0,"o3":64.0,"so2":2.0,"mosquito_risk":7,"arthritis_risk":5,"migraine_risk":7,"frizz_risk":1,"updated_at":"2026-05-05T03:34:15.869477+05:30"},{"city":"Thane","state":"Maharashtra","latitude":19.2183,"longitude":72.9781,"temp":28.2,"humidity":79,"rain":0.0,"pressure":1006.2,"uv_index":7.85,"wind_gusts":38.5,"aqi":60,"pm10":47.8,"pm2_5":17.3,"no2":7.4,"co":226.0,"o3":64.0,"so2":14.4,"mosquito_risk":7,"arthritis_risk":5,"migraine_risk":4,"frizz_risk":1,"updated_at":"2026-05-05T03:34:15.869483+05:30"},{"city":"Nagpur","state":"Maharashtra","latitude":21.1458,"longitude":79.0882,"temp":28.9,"humidity":29,"rain":0.0,"pressure":970.5,"uv_index":8.9,"wind_gusts":52.9,"aqi":75,"pm10":78.9,"pm2_5":52.4,"no2":41.0,"co":229.0,"o3":22.0,"so2":17.4,"mosquito_risk":4,"arthritis_risk":5,"migraine_risk":7,"frizz_risk":0,"updated_at":"2026-05-05T03:34:15.869490+05:30"},{"city":"Nashik","state":"Maharashtra","latitude":19.9975,"longitude":73.7898,"temp":22.6,"humidity":94,"rain":0.0,"pressure":943.6,"uv_index":8.15,"wind_gusts":38.2,"aqi":57,"pm10":29.9,"pm2_5":16.5,"no2":14.2,"co":192.0,"o3":43.0,"so2":13.8,"mosquito_risk":3,"arthritis_risk":5,"migraine_risk":7,"frizz_risk":1,"updated_at":"2026-05-05T03:34:15.869497+05:30"},{"city":"Aurangabad","state":"Maharashtra","latitude":19.8762,"longitude":75.3433,"temp":24.5,"humidity":65,"rain":0.0,"pressure":942.0,"uv_index":9.05,"wind_gusts":32.8,"aqi":58,"pm10":39.3,"pm2_5":16.2,"no2":11.5,"co":183.0,"o3":59.0,"so2":13.6,"mosquito_risk":3,"arthritis_risk":5,"migraine_risk":7,"frizz_risk":1,"updated_at":"2026-05-05T03:34:15.869503+05:30"},{"city":"Solapur","state":"Maharashtra","latitude":17.6599,"longitude":75.9064,"temp":26.8,"humidity":49,"rain":0.0,"pressure":955.0,"uv_index":9.1,"wind_gusts":49.7,"aqi":54,"pm10":23.1,"pm2_5":10.8,"no2":7.0,"co":183.0,"o3":54.0,"so2":3.6,"mosquito_risk":4,"arthritis_risk":5,"migraine_risk":7,"frizz_risk":0,"updated_at":"2026-05-05T03:34:15.869509+05:30"},{"city":"Kolhapur","state":"Maharashtra","latitude":16.705,"longitude":74.2433,"temp":22.2,"humidity":97,"rain":0.0,"pressure":946.1,"uv_index":9.0,"wind_gusts":46.8,"aqi":57,"pm10":27.3,"pm2_5":14.5,"no2":7.6,"co":162.0,"o3":45.0,"so2":1.4,"mosquito_risk":3,"arthritis_risk":5,"migraine_risk":7,"frizz_risk":1,"updated_at":"2026-05-05T03:34:15.869515+05:30"},{"city":"Goa","state":"Goa","latitude":15.2993,"longitude":74.124,"temp":26.4,"humidity":93,"rain":0.0,"pressure":996.3,"uv_index":8.95,"wind_gusts":35.6,"aqi":65,"pm10":50.9,"pm2_5":24.7,"no2":8.9,"co":219.0,"o3":51.0,"so2":1.8,"mosquito_risk":7,"arthritis_risk":5,"migraine_risk":7,"frizz_risk":1,"updated_at":"2026-05-05T03:34:15.869522+05:30"},{"city":"Jodhpur","state":"Rajasthan","latitude":26.2389,"longitude":73.0243,"temp":27.2,"humidity":45,"rain":0.0,"pressure":979.9,"uv_index":8.3,"wind_gusts":36.0,"aqi":89,"pm10":113.9,"pm2_5":29.2,"no2":6.7,"co":196.0,"o3":72.0,"so2":3.9,"mosquito_risk":4,"arthritis_risk":5,"migraine_risk":7,"frizz_risk":0,"updated_at":"2026-05-05T03:34:15.869528+05:30"},{"city":"Udaipur","state":"Rajasthan","latitude":24.5854,"longitude":73.7125,"temp":23.1,"humidity":66,"rain":0.0,"pressure":943.7,"uv_index":8.75,"wind_gusts":57.6,"aqi":67,"pm10":43.3,"pm2_5":20.1,"no2":8.1,"co":232.0,"o3":73.0,"so2":7.7,"mosquito_risk":3,"arthritis_risk":5,"migraine_risk":7,"frizz_risk":1,"updated_at":"2026-05-05T03:34:15.869534+05:30"},{"city":"Kota","state":"Rajasthan","latitude":25.2138,"longitude":75.8648,"temp":25.3,"humidity":52,"rain":0.0,"pressure":977.2,"uv_index":8.3,"wind_gusts":46.4,"aqi":69,"pm10":48.9,"pm2_5":30.0,"no2":3.8,"co":312.0,"o3":116.0,"so2":14.3,"mosquito_risk":4,"arthritis_risk":5,"migraine_risk":7,"frizz_risk":0,"updated_at":"2026-05-05T03:34:15.869540+05:30"},{"city":"Bikaner","state":"Rajasthan","latitude":28.0229,"longitude":73.3119,"temp":26.2,"humidity":43,"rain":0.0,"pressure":979.1,"uv_index":8.2,"wind_gusts":33.1,"aqi":107,"pm10":60.8,"pm2_5":28.9,"no2":3.4,"co":206.0,"o3":96.0,"so2":4.4,"mosquito_risk":4,"arthritis_risk":5,"migraine_risk":7,"frizz_risk":0,"updated_at":"2026-05-05T03:34:15.869546+05:30"},{"city":"Ajmer","state":"Rajasthan","latitude":26.4499,"longitude":74.6399,"temp":23.6,"humidity":53,"rain":0.0,"pressure":952.1,"uv_index":8.2,"wind_gusts":41.0,"aqi":71,"pm10":53.0,"pm2_5":30.5,"no2":2.3,"co":240.0,"o3":113.0,"so2":5.7,"mosquito_risk":0,"arthritis_risk":5,"migraine_risk":7,"frizz_risk":0,"updated_at":"2026-05-05T03:34:15.869551+05:30"},{"city":"Gwalior","state":"Madhya Pradesh","latitude":26.2183,"longitude":78.1828,"temp":25.6,"humidity":68,"rain":0.0,"pressure":982.0,"uv_index":8.1,"wind_gusts":37.8,"aqi":113,"pm10":76.1,"pm2_5":36.1,"no2":3.0,"co":326.0,"o3":133.0,"so2":7.9,"mosquito_risk":7,"arthritis_risk":5,"migraine_risk":7,"frizz_risk":1,"updated_at":"2026-05-05T03:34:15.869557+05:30"},{"city":"Indore","state":"Madhya Pradesh","latitude":22.7196,"longitude":75.8577,"temp":26.2,"humidity":54,"rain":0.0,"pressure":945.9,"uv_index":8.65,"wind_gusts":41.8,"aqi":61,"pm10":32.1,"pm2_5":20.7,"no2":4.6,"co":406.0,"o3":84.0,"so2":6.9,"mosquito_risk":4,"arthritis_risk":5,"migraine_risk":7,"frizz_risk":1,"updated_at":"2026-05-05T03:34:15.869563+05:30"},{"city":"Bhopal","state":"Madhya Pradesh","latitude":23.2599,"longitude":77.4126,"temp":25.9,"humidity":50,"rain":0.0,"pressure":951.6,"uv_index":8.65,"wind_gusts":46.1,"aqi":51,"pm10":34.8,"pm2_5":24.5,"no2":2.9,"co":234.0,"o3":112.0,"so2":7.8,"mosquito_risk":4,"arthritis_risk":5,"migraine_risk":7,"frizz_risk":0,"updated_at":"2026-05-05T03:34:15.869569+05:30"},{"city":"Jabalpur","state":"Madhya Pradesh","latitude":23.1815,"longitude":79.9864,"temp":24.8,"humidity":65,"rain":0.0,"pressure":959.4,"uv_index":8.1,"wind_gusts":72.0,"aqi":61,"pm10":43.8,"pm2_5":27.4,"no2":9.7,"co":248.0,"o3":103.0,"so2":8.6,"mosquito_risk":3,"arthritis_risk":5,"migraine_risk":7,"frizz_risk":1,"updated_at":"2026-05-05T03:34:15.869575+05:30"},{"city":"Ujjain","state":"Madhya Pradesh","latitude":23.1765,"longitude":75.7885,"temp":25.1,"humidity":59,"rain":0.0,"pressure":951.3,"uv_index":8.55,"wind_gusts":41.0,"aqi":61,"pm10":31.7,"pm2_5":20.9,"no2":5.0,"co":429.0,"o3":70.0,"so2":6.2,"mosquito_risk":4,"arthritis_risk":5,"migraine_risk":7,"frizz_risk":1,"updated_at":"2026-05-05T03:34:15.869581+05:30"},{"city":"Visakhapatnam","state":"Andhra Pradesh","latitude":17.6868,"longitude":83.2185,"temp":25.9,"humidity":96,"rain":0.0,"pressure":1002.9,"uv_index":9.2,"wind_gusts":35.3,"aqi":84,"pm10":34.3,"pm2_5":27.2,"no2":29.2,"co":1303.0,"o3":50.0,"so2":3.2,"mosquito_risk":7,"arthritis_risk":5,"migraine_risk":4,"frizz_risk":1,"updated_at":"2026-05-05T03:34:15.869587+05:30"},{"city":"Vijayawada","state":"Andhra Pradesh","latitude":16.5062,"longitude":80.648,"temp":28.6,"humidity":88,"rain":0.0,"pressure":1000.9,"uv_index":9.2,"wind_gusts":34.9,"aqi":85,"pm10":20.8,"pm2_5":17.1,"no2":6.9,"co":202.0,"o3":67.0,"so2":3.4,"mosquito_risk":7,"arthritis_risk":5,"migraine_risk":4,"frizz_risk":1,"updated_at":"2026-05-05T03:34:15.869593+05:30"},{"city":"Guntur","state":"Andhra Pradesh","latitude":16.3067,"longitude":80.4365,"temp":28.9,"humidity":86,"rain":0.0,"pressure":1002.0,"uv_index":9.2,"wind_gusts":38.2,"aqi":83,"pm10":20.5,"pm2_5":16.2,"no2":6.1,"co":193.0,"o3":70.0,"so2":3.1,"mosquito_risk":7,"arthritis_risk":5,"migraine_risk":4,"frizz_risk":1,"updated_at":"2026-05-05T03:34:15.869599+05:30"},{"city":"Nellore","state":"Andhra Pradesh","latitude":14.4426,"longitude":79.9865,"temp":28.8,"humidity":83,"rain":0.0,"pressure":1003.4,"uv_index":8.85,"wind_gusts":37.4,"aqi":78,"pm10":27.9,"pm2_5":22.5,"no2":8.4,"co":247.0,"o3":92.0,"so2":10.5,"mosquito_risk":7,"arthritis_risk":5,"migraine_risk":4,"frizz_risk":1,"updated_at":"2026-05-05T03:34:15.869605+05:30"},{"city":"Kurnool","state":"Andhra Pradesh","latitude":15.8281,"longitude":78.0373,"temp":28.5,"humidity":49,"rain":0.0,"pressure":974.8,"uv_index":9.2,"wind_gusts":42.8,"aqi":71,"pm10":35.2,"pm2_5":26.4,"no2":9.9,"co":259.0,"o3":86.0,"so2":5.5,"mosquito_risk":4,"arthritis_risk":5,"migraine_risk":7,"frizz_risk":1,"updated_at":"2026-05-05T03:34:15.869612+05:30"},{"city":"Kakinada","state":"Andhra Pradesh","latitude":16.9891,"longitude":82.2475,"temp":26.8,"humidity":95,"rain":0.0,"pressure":1006.2,"uv_index":9.15,"wind_gusts":31.0,"aqi":77,"pm10":26.0,"pm2_5":17.8,"no2":2.0,"co":275.0,"o3":90.0,"so2":1.1,"mosquito_risk":7,"arthritis_risk":5,"migraine_risk":4,"frizz_risk":1,"updated_at":"2026-05-05T03:34:15.869618+05:30"},{"city":"Tirupati","state":"Andhra Pradesh","latitude":13.6288,"longitude":79.4192,"temp":27.5,"humidity":70,"rain":0.0,"pressure":988.9,"uv_index":7.95,"wind_gusts":31.7,"aqi":95,"pm10":32.9,"pm2_5":26.0,"no2":9.6,"co":287.0,"o3":94.0,"so2":5.7,"mosquito_risk":7,"arthritis_risk":5,"migraine_risk":7,"frizz_risk":1,"updated_at":"2026-05-05T03:34:15.869624+05:30"},{"city":"Warangal","state":"Telangana","latitude":17.9689,"longitude":79.5941,"temp":27.6,"humidity":74,"rain":0.0,"pressure":976.7,"uv_index":9.15,"wind_gusts":42.8,"aqi":88,"pm10":32.4,"pm2_5":25.7,"no2":7.9,"co":248.0,"o3":88.0,"so2":10.6,"mosquito_risk":7,"arthritis_risk":5,"migraine_risk":7,"frizz_risk":1,"updated_at":"2026-05-05T03:34:15.869630+05:30"},{"city":"Nizamabad","state":"Telangana","latitude":18.6725,"longitude":78.0941,"temp":27.6,"humidity":46,"rain":0.0,"pressure":962.0,"uv_index":9.1,"wind_gusts":31.7,"aqi":78,"pm10":35.6,"pm2_5":28.2,"no2":9.4,"co":294.0,"o3":96.0,"so2":7.8,"mosquito_risk":4,"arthritis_risk":5,"migraine_risk":7,"frizz_risk":0,"updated_at":"2026-05-05T03:34:15.869636+05:30"},{"city":"Mysore","state":"Karnataka","latitude":12.2958,"longitude":76.6396,"temp":23.0,"humidity":92,"rain":0.0,"pressure":927.2,"uv_index":9.15,"wind_gusts":40.7,"aqi":65,"pm10":28.3,"pm2_5":17.6,"no2":8.3,"co":163.0,"o3":54.0,"so2":1.9,"mosquito_risk":3,"arthritis_risk":5,"migraine_risk":7,"frizz_risk":1,"updated_at":"2026-05-05T03:34:15.869641+05:30"},{"city":"Mangalore","state":"Karnataka","latitude":12.9141,"longitude":74.856,"temp":28.0,"humidity":82,"rain":0.0,"pressure":1005.6,"uv_index":7.5,"wind_gusts":44.3,"aqi":67,"pm10":44.7,"pm2_5":16.7,"no2":3.0,"co":175.0,"o3":58.0,"so2":1.3,"mosquito_risk":7,"arthritis_risk":5,"migraine_risk":4,"frizz_risk":1,"updated_at":"2026-05-05T03:34:15.869647+05:30"},{"city":"Hubli-Dharwad","state":"Karnataka","latitude":15.3647,"longitude":75.124,"temp":22.0,"humidity":99,"rain":0.0,"pressure":939.3,"uv_index":9.2,"wind_gusts":52.9,"aqi":54,"pm10":26.4,"pm2_5":12.8,"no2":4.9,"co":178.0,"o3":50.0,"so2":1.5,"mosquito_risk":3,"arthritis_risk":5,"migraine_risk":7,"frizz_risk":1,"updated_at":"2026-05-05T03:34:15.869653+05:30"},{"city":"Belgaum","state":"Karnataka","latitude":15.8497,"longitude":74.4977,"temp":20.8,"humidity":99,"rain":0.0,"pressure":923.4,"uv_index":9.2,"wind_gusts":50.4,"aqi":56,"pm10":30.0,"pm2_5":16.5,"no2":8.0,"co":159.0,"o3":41.0,"so2":0.3,"mosquito_risk":3,"arthritis_risk":5,"migraine_risk":7,"frizz_risk":1,"updated_at":"2026-05-05T03:34:19.279514+05:30"},{"city":"Coimbatore","state":"Tamil Nadu","latitude":11.0168,"longitude":76.9558,"temp":24.0,"humidity":88,"rain":0.0,"pressure":960.5,"uv_index":9.2,"wind_gusts":34.6,"aqi":62,"pm10":23.0,"pm2_5":11.9,"no2":6.3,"co":213.0,"o3":68.0,"so2":2.8,"mosquito_risk":3,"arthritis_risk":5,"migraine_risk":7,"frizz_risk":1,"updated_at":"2026-05-05T03:34:19.279541+05:30"},{"city":"Madurai","state":"Tamil Nadu","latitude":9.9252,"longitude":78.1198,"temp":28.2,"humidity":62,"rain":0.0,"pressure":991.5,"uv_index":3.9,"wind_gusts":38.9,"aqi":83,"pm10":27.2,"pm2_5":21.5,"no2":16.7,"co":274.0,"o3":45.0,"so2":4.6,"mosquito_risk":7,"arthritis_risk":5,"migraine_risk":3,"frizz_risk":1,"updated_at":"2026-05-05T03:34:19.279554+05:30"},{"city":"Trichy","state":"Tamil Nadu","latitude":10.7905,"longitude":78.7047,"temp":28.5,"humidity":63,"rain":0.0,"pressure":998.3,"uv_index":6.25,"wind_gusts":55.4,"aqi":79,"pm10":34.7,"pm2_5":27.0,"no2":13.2,"co":250.0,"o3":77.0,"so2":6.7,"mosquito_risk":7,"arthritis_risk":5,"migraine_risk":7,"frizz_risk":1,"updated_at":"2026-05-05T03:34:19.279564+05:30"},{"city":"Salem","state":"Tamil Nadu","latitude":11.6643,"longitude":78.146,"temp":26.3,"humidity":71,"rain":0.0,"pressure":975.9,"uv_index":9.3,"wind_gusts":47.2,"aqi":80,"pm10":48.2,"pm2_5":33.4,"no2":16.5,"co":252.0,"o3":70.0,"so2":7.8,"mosquito_risk":7,"arthritis_risk":5,"migraine_risk":7,"frizz_risk":1,"updated_at":"2026-05-05T03:34:19.279574+05:30"},{"city":"Tirunelveli","state":"Tamil Nadu","latitude":8.7139,"longitude":77.7567,"temp":28.3,"humidity":70,"rain":0.0,"pressure":1001.7,"uv_index":3.45,"wind_gusts":32.0,"aqi":74,"pm10":34.7,"pm2_5":18.3,"no2":8.2,"co":316.0,"o3":43.0,"so2":2.2,"mosquito_risk":7,"arthritis_risk":5,"migraine_risk":0,"frizz_risk":1,"updated_at":"2026-05-05T03:34:19.279583+05:30"},{"city":"Vellore","state":"Tamil Nadu","latitude":12.9165,"longitude":79.1325,"temp":27.0,"humidity":69,"rain":0.0,"pressure":982.4,"uv_index":7.6,"wind_gusts":43.6,"aqi":101,"pm10":50.1,"pm2_5":37.3,"no2":10.4,"co":287.0,"o3":73.0,"so2":8.8,"mosquito_risk":7,"arthritis_risk":5,"migraine_risk":7,"frizz_risk":1,"updated_at":"2026-05-05T03:34:19.279592+05:30"},{"city":"Erode","state":"Tamil Nadu","latitude":11.341,"longitude":77.7172,"temp":28.2,"humidity":71,"rain":0.0,"pressure":987.7,"uv_index":8.6,"wind_gusts":46.1,"aqi":72,"pm10":26.6,"pm2_5":18.2,"no2":15.0,"co":234.0,"o3":48.0,"so2":4.1,"mosquito_risk":7,"arthritis_risk":5,"migraine_risk":7,"frizz_risk":1,"updated_at":"2026-05-05T03:34:19.279600+05:30"},{"city":"Kochi","state":"Kerala","latitude":9.9312,"longitude":76.2673,"temp":25.8,"humidity":96,"rain":0.0,"pressure":1008.1,"uv_index":6.8,"wind_gusts":29.2,"aqi":90,"pm10":35.5,"pm2_5":21.3,"no2":15.0,"co":248.0,"o3":39.0,"so2":4.4,"mosquito_risk":7,"arthritis_risk":0,"migraine_risk":4,"frizz_risk":1,"updated_at":"2026-05-05T03:34:19.279609+05:30"},{"city":"Thiruvananthapuram","state":"Kerala","latitude":8.5241,"longitude":76.9366,"temp":24.8,"humidity":92,"rain":0.0,"pressure":1007.3,"uv_index":6.55,"wind_gusts":38.2,"aqi":72,"pm10":38.6,"pm2_5":17.2,"no2":5.9,"co":302.0,"o3":65.0,"so2":3.6,"mosquito_risk":3,"arthritis_risk":5,"migraine_risk":4,"frizz_risk":1,"updated_at":"2026-05-05T03:34:19.279616+05:30"},{"city":"Kozhikode","state":"Kerala","latitude":11.2588,"longitude":75.7804,"temp":24.6,"humidity":98,"rain":0.1,"pressure":1007.6,"uv_index":6.7,"wind_gusts":36.7,"aqi":64,"pm10":37.3,"pm2_5":13.4,"no2":2.1,"co":232.0,"o3":72.0,"so2":1.4,"mosquito_risk":6,"arthritis_risk":5,"migraine_risk":4,"frizz_risk":1,"updated_at":"2026-05-05T03:34:19.279622+05:30"},{"city":"Thrissur","state":"Kerala","latitude":10.5276,"longitude":76.2144,"temp":24.6,"humidity":99,"rain":0.0,"pressure":1006.6,"uv_index":7.35,"wind_gusts":27.7,"aqi":84,"pm10":35.3,"pm2_5":21.2,"no2":12.4,"co":187.0,"o3":44.0,"so2":3.2,"mosquito_risk":3,"arthritis_risk":5,"migraine_risk":4,"frizz_risk":1,"updated_at":"2026-05-05T03:34:19.279629+05:30"},{"city":"Kannur","state":"Kerala","latitude":11.8745,"longitude":75.3704,"temp":26.0,"humidity":95,"rain":0.0,"pressure":1006.5,"uv_index":8.7,"wind_gusts":40.7,"aqi":66,"pm10":43.4,"pm2_5":17.3,"no2":4.9,"co":265.0,"o3":48.0,"so2":1.2,"mosquito_risk":7,"arthritis_risk":5,"migraine_risk":4,"frizz_risk":1,"updated_at":"2026-05-05T03:34:19.279636+05:30"},{"city":"Patna","state":"Bihar","latitude":25.5941,"longitude":85.1376,"temp":22.1,"humidity":95,"rain":0.0,"pressure":1003.0,"uv_index":8.7,"wind_gusts":34.6,"aqi":132,"pm10":56.0,"pm2_5":51.2,"no2":14.9,"co":397.0,"o3":78.0,"so2":11.6,"mosquito_risk":3,"arthritis_risk":5,"migraine_risk":4,"frizz_risk":1,"updated_at":"2026-05-05T03:34:19.279641+05:30"},{"city":"Gaya","state":"Bihar","latitude":24.7914,"longitude":85.0002,"temp":22.4,"humidity":97,"rain":0.0,"pressure":995.4,"uv_index":8.5,"wind_gusts":29.5,"aqi":140,"pm10":57.9,"pm2_5":54.8,"no2":15.2,"co":369.0,"o3":97.0,"so2":27.2,"mosquito_risk":3,"arthritis_risk":5,"migraine_risk":7,"frizz_risk":1,"updated_at":"2026-05-05T03:34:19.279648+05:30"},{"city":"Muzaffarpur","state":"Bihar","latitude":26.1209,"longitude":85.3647,"temp":21.9,"humidity":95,"rain":0.0,"pressure":1003.3,"uv_index":8.7,"wind_gusts":29.9,"aqi":114,"pm10":36.0,"pm2_5":32.5,"no2":12.9,"co":393.0,"o3":74.0,"so2":9.3,"mosquito_risk":3,"arthritis_risk":5,"migraine_risk":4,"frizz_risk":1,"updated_at":"2026-05-05T03:34:19.279654+05:30"},{"city":"Bhagalpur","state":"Bihar","latitude":25.2425,"longitude":87.0117,"temp":22.5,"humidity":96,"rain":0.0,"pressure":1003.8,"uv_index":8.7,"wind_gusts":30.6,"aqi":113,"pm10":53.8,"pm2_5":44.5,"no2":13.5,"co":306.0,"o3":86.0,"so2":8.0,"mosquito_risk":3,"arthritis_risk":5,"migraine_risk":4,"frizz_risk":1,"updated_at":"2026-05-05T03:34:19.279660+05:30"},{"city":"Ranchi","state":"Jharkhand","latitude":23.3441,"longitude":85.3096,"temp":20.0,"humidity":97,"rain":0.0,"pressure":937.7,"uv_index":9.25,"wind_gusts":45.4,"aqi":120,"pm10":37.7,"pm2_5":29.2,"no2":7.0,"co":286.0,"o3":111.0,"so2":10.3,"mosquito_risk":3,"arthritis_risk":5,"migraine_risk":7,"frizz_risk":1,"updated_at":"2026-05-05T03:34:19.279666+05:30"},{"city":"Jamshedpur","state":"Jharkhand","latitude":22.8046,"longitude":86.2029,"temp":22.5,"humidity":94,"rain":0.0,"pressure":992.0,"uv_index":8.7,"wind_gusts":34.6,"aqi":103,"pm10":44.1,"pm2_5":36.7,"no2":21.5,"co":619.0,"o3":47.0,"so2":21.0,"mosquito_risk":3,"arthritis_risk":5,"migraine_risk":7,"frizz_risk":1,"updated_at":"2026-05-05T03:34:19.279671+05:30"},{"city":"Dhanbad","state":"Jharkhand","latitude":23.7957,"longitude":86.4304,"temp":22.2,"humidity":97,"rain":0.0,"pressure":980.6,"uv_index":9.0,"wind_gusts":45.0,"aqi":153,"pm10":70.8,"pm2_5":63.1,"no2":60.4,"co":436.0,"o3":19.0,"so2":80.0,"mosquito_risk":3,"arthritis_risk":5,"migraine_risk":7,"frizz_risk":1,"updated_at":"2026-05-05T03:34:19.279677+05:30"},{"city":"Bokaro","state":"Jharkhand","latitude":23.6693,"longitude":86.1511,"temp":22.2,"humidity":96,"rain":0.0,"pressure":984.7,"uv_index":9.0,"wind_gusts":42.8,"aqi":156,"pm10":75.7,"pm2_5":68.0,"no2":48.7,"co":739.0,"o3":38.0,"so2":68.8,"mosquito_risk":3,"arthritis_risk":5,"migraine_risk":7,"frizz_risk":1,"updated_at":"2026-05-05T03:34:19.279683+05:30"},{"city":"Bhubaneswar","state":"Odisha","latitude":20.2961,"longitude":85.8245,"temp":26.0,"humidity":97,"rain":0.0,"pressure":1003.1,"uv_index":9.1,"wind_gusts":34.9,"aqi":66,"pm10":23.7,"pm2_5":17.1,"no2":9.1,"co":180.0,"o3":61.0,"so2":4.1,"mosquito_risk":7,"arthritis_risk":5,"migraine_risk":4,"frizz_risk":1,"updated_at":"2026-05-05T03:34:19.279689+05:30"},{"city":"Cuttack","state":"Odisha","latitude":20.4625,"longitude":85.8828,"temp":26.0,"humidity":97,"rain":0.0,"pressure":1005.0,"uv_index":9.15,"wind_gusts":36.7,"aqi":66,"pm10":23.7,"pm2_5":17.1,"no2":9.1,"co":183.0,"o3":61.0,"so2":4.1,"mosquito_risk":7,"arthritis_risk":5,"migraine_risk":4,"frizz_risk":1,"updated_at":"2026-05-05T03:34:19.279695+05:30"},{"city":"Rourkela","state":"Odisha","latitude":22.2604,"longitude":84.8536,"temp":23.8,"humidity":88,"rain":0.0,"pressure":986.1,"uv_index":8.8,"wind_gusts":52.6,"aqi":107,"pm10":48.8,"pm2_5":37.4,"no2":17.0,"co":505.0,"o3":89.0,"so2":45.8,"mosquito_risk":3,"arthritis_risk":5,"migraine_risk":7,"frizz_risk":1,"updated_at":"2026-05-05T03:34:19.279700+05:30"},{"city":"Raipur","state":"Chhattisgarh","latitude":21.2514,"longitude":81.6296,"temp":26.8,"humidity":54,"rain":0.0,"pressure":973.0,"uv_index":8.95,"wind_gusts":47.9,"aqi":98,"pm10":51.7,"pm2_5":37.7,"no2":18.1,"co":296.0,"o3":73.0,"so2":5.8,"mosquito_risk":4,"arthritis_risk":5,"migraine_risk":7,"frizz_risk":1,"updated_at":"2026-05-05T03:34:19.279706+05:30"},{"city":"Bhilai","state":"Chhattisgarh","latitude":21.1938,"longitude":81.3509,"temp":26.9,"humidity":53,"rain":0.0,"pressure":973.3,"uv_index":8.95,"wind_gusts":54.4,"aqi":99,"pm10":50.1,"pm2_5":37.3,"no2":25.3,"co":250.0,"o3":70.0,"so2":6.6,"mosquito_risk":4,"arthritis_risk":5,"migraine_risk":7,"frizz_risk":1,"updated_at":"2026-05-05T03:34:19.279712+05:30"},{"city":"Guwahati","state":"Assam","latitude":26.1158,"longitude":91.7086,"temp":21.1,"humidity":99,"rain":0.1,"pressure":1005.9,"uv_index":8.65,"wind_gusts":23.8,"aqi":77,"pm10":16.5,"pm2_5":12.5,"no2":8.0,"co":323.0,"o3":67.0,"so2":1.3,"mosquito_risk":6,"arthritis_risk":5,"migraine_risk":4,"frizz_risk":1,"updated_at":"2026-05-05T03:34:19.279718+05:30"},{"city":"Agartala","state":"Tripura","latitude":23.8315,"longitude":91.2868,"temp":22.0,"humidity":98,"rain":0.0,"pressure":1008.9,"uv_index":6.7,"wind_gusts":19.4,"aqi":72,"pm10":19.7,"pm2_5":16.6,"no2":13.5,"co":365.0,"o3":49.0,"so2":1.1,"mosquito_risk":3,"arthritis_risk":0,"migraine_risk":4,"frizz_risk":1,"updated_at":"2026-05-05T03:34:19.279724+05:30"},{"city":"Shillong","state":"Meghalaya","latitude":25.5788,"longitude":91.8933,"temp":13.2,"humidity":98,"rain":0.0,"pressure":856.8,"uv_index":7.7,"wind_gusts":25.2,"aqi":56,"pm10":22.1,"pm2_5":16.2,"no2":7.3,"co":263.0,"o3":72.0,"so2":0.2,"mosquito_risk":3,"arthritis_risk":10,"migraine_risk":7,"frizz_risk":0,"updated_at":"2026-05-05T03:34:19.279730+05:30"},{"city":"Imphal","state":"Manipur","latitude":24.817,"longitude":93.9368,"temp":16.1,"humidity":94,"rain":0.0,"pressure":924.7,"uv_index":9.15,"wind_gusts":31.7,"aqi":88,"pm10":22.1,"pm2_5":19.3,"no2":16.2,"co":398.0,"o3":37.0,"so2":0.6,"mosquito_risk":3,"arthritis_risk":10,"migraine_risk":7,"frizz_risk":0,"updated_at":"2026-05-05T03:34:19.279737+05:30"},{"city":"Aizawl","state":"Mizoram","latitude":23.7271,"longitude":92.7176,"temp":14.8,"humidity":99,"rain":0.0,"pressure":892.6,"uv_index":8.45,"wind_gusts":24.8,"aqi":54,"pm10":23.5,"pm2_5":17.6,"no2":7.4,"co":327.0,"o3":30.0,"so2":0.2,"mosquito_risk":3,"arthritis_risk":10,"migraine_risk":7,"frizz_risk":0,"updated_at":"2026-05-05T03:34:19.279743+05:30"},{"city":"Kohima","state":"Nagaland","latitude":25.6701,"longitude":94.1077,"temp":12.4,"humidity":96,"rain":0.0,"pressure":854.6,"uv_index":9.15,"wind_gusts":31.0,"aqi":65,"pm10":15.0,"pm2_5":10.6,"no2":2.7,"co":230.0,"o3":75.0,"so2":0.7,"mosquito_risk":3,"arthritis_risk":10,"migraine_risk":7,"frizz_risk":0,"updated_at":"2026-05-05T03:34:19.279749+05:30"},{"city":"Gangtok","state":"Sikkim","latitude":27.3314,"longitude":88.6138,"temp":12.7,"humidity":97,"rain":0.1,"pressure":837.7,"uv_index":8.9,"wind_gusts":39.2,"aqi":56,"pm10":15.0,"pm2_5":11.8,"no2":8.0,"co":347.0,"o3":90.0,"so2":0.7,"mosquito_risk":6,"arthritis_risk":10,"migraine_risk":7,"frizz_risk":0,"updated_at":"2026-05-05T03:34:19.279754+05:30"},{"city":"Siliguri","state":"West Bengal","latitude":26.7271,"longitude":88.3953,"temp":20.8,"humidity":97,"rain":0.0,"pressure":996.4,"uv_index":8.6,"wind_gusts":25.6,"aqi":83,"pm10":46.9,"pm2_5":38.2,"no2":20.4,"co":340.0,"o3":74.0,"so2":4.2,"mosquito_risk":3,"arthritis_risk":5,"migraine_risk":7,"frizz_risk":1,"updated_at":"2026-05-05T03:34:22.696388+05:30"},{"city":"Durgapur","state":"West Bengal","latitude":23.5204,"longitude":87.3119,"temp":22.4,"humidity":96,"rain":0.5,"pressure":994.7,"uv_index":8.8,"wind_gusts":34.2,"aqi":136,"pm10":60.1,"pm2_5":54.6,"no2":34.9,"co":278.0,"o3":36.0,"so2":38.9,"mosquito_risk":6,"arthritis_risk":5,"migraine_risk":7,"frizz_risk":1,"updated_at":"2026-05-05T03:34:22.696411+05:30"},{"city":"Asansol","state":"West Bengal","latitude":23.6739,"longitude":86.9524,"temp":22.5,"humidity":96,"rain":0.2,"pressure":993.5,"uv_index":8.9,"wind_gusts":41.4,"aqi":147,"pm10":64.0,"pm2_5":56.1,"no2":41.6,"co":409.0,"o3":28.0,"so2":56.2,"mosquito_risk":6,"arthritis_risk":5,"migraine_risk":7,"frizz_risk":1,"updated_at":"2026-05-05T03:34:22.696421+05:30"},{"city":"Pondicherry","state":"Puducherry","latitude":11.9139,"longitude":79.8145,"temp":27.1,"humidity":85,"rain":0.0,"pressure":1006.4,"uv_index":8.6,"wind_gusts":32.4,"aqi":67,"pm10":35.6,"pm2_5":24.9,"no2":8.3,"co":302.0,"o3":102.0,"so2":13.3,"mosquito_risk":7,"arthritis_risk":5,"migraine_risk":4,"frizz_risk":1,"updated_at":"2026-05-05T03:34:22.696429+05:30"},{"city":"Port Blair","state":"Andaman and Nicobar Islands","latitude":11.6234,"longitude":92.7265,"temp":26.5,"humidity":94,"rain":0.0,"pressure":1006.2,"uv_index":8.65,"wind_gusts":39.2,"aqi":25,"pm10":7.7,"pm2_5":5.6,"no2":0.3,"co":164.0,"o3":57.0,"so2":0.2,"mosquito_risk":7,"arthritis_risk":5,"migraine_risk":4,"frizz_risk":1,"updated_at":"2026-05-05T03:34:22.696436+05:30"},{"city":"Haridwar","state":"Uttarakhand","latitude":29.9457,"longitude":78.1642,"temp":18.3,"humidity":73,"rain":0.0,"pressure":974.4,"uv_index":6.9,"wind_gusts":34.2,"aqi":99,"pm10":45.6,"pm2_5":29.4,"no2":19.5,"co":215.0,"o3":38.0,"so2":3.5,"mosquito_risk":3,"arthritis_risk":5,"migraine_risk":7,"frizz_risk":0,"updated_at":"2026-05-05T03:34:22.696442+05:30"},{"city":"Rishikesh","state":"Uttarakhand","latitude":30.0869,"longitude":78.2676,"temp":16.0,"humidity":84,"rain":0.0,"pressure":967.0,"uv_index":6.95,"wind_gusts":26.3,"aqi":81,"pm10":19.4,"pm2_5":11.3,"no2":6.4,"co":224.0,"o3":81.0,"so2":0.8,"mosquito_risk":3,"arthritis_risk":10,"migraine_risk":7,"frizz_risk":0,"updated_at":"2026-05-05T03:34:22.696449+05:30"},{"city":"Nainital","state":"Uttarakhand","latitude":29.3919,"longitude":79.4542,"temp":9.4,"humidity":77,"rain":0.0,"pressure":802.9,"uv_index":8.3,"wind_gusts":29.5,"aqi":72,"pm10":26.5,"pm2_5":12.5,"no2":8.1,"co":216.0,"o3":94.0,"so2":1.8,"mosquito_risk":3,"arthritis_risk":5,"migraine_risk":7,"frizz_risk":0,"updated_at":"2026-05-05T03:34:22.696456+05:30"},{"city":"Mussoorie","state":"Uttarakhand","latitude":30.4599,"longitude":78.0664,"temp":8.5,"humidity":72,"rain":0.0,"pressure":799.3,"uv_index":7.85,"wind_gusts":48.6,"aqi":88,"pm10":42.5,"pm2_5":23.5,"no2":26.3,"co":192.0,"o3":39.0,"so2":4.9,"mosquito_risk":3,"arthritis_risk":5,"migraine_risk":7,"frizz_risk":0,"updated_at":"2026-05-05T03:34:22.696462+05:30"},{"city":"Dharamshala","state":"Himachal Pradesh","latitude":32.219,"longitude":76.3234,"temp":17.6,"humidity":48,"rain":0.0,"pressure":869.0,"uv_index":8.2,"wind_gusts":41.0,"aqi":51,"pm10":16.6,"pm2_5":5.0,"no2":3.7,"co":209.0,"o3":112.0,"so2":0.0,"mosquito_risk":0,"arthritis_risk":5,"migraine_risk":7,"frizz_risk":0,"updated_at":"2026-05-05T03:34:22.696468+05:30"},{"city":"Dalhousie","state":"Himachal Pradesh","latitude":32.5387,"longitude":75.971,"temp":6.8,"humidity":98,"rain":0.1,"pressure":800.7,"uv_index":8.45,"wind_gusts":40.3,"aqi":83,"pm10":45.9,"pm2_5":24.9,"no2":22.9,"co":342.0,"o3":50.0,"so2":0.7,"mosquito_risk":6,"arthritis_risk":10,"migraine_risk":7,"frizz_risk":0,"updated_at":"2026-05-05T03:34:22.696475+05:30"},{"city":"Patiala","state":"Punjab","latitude":30.3398,"longitude":76.3869,"temp":22.7,"humidity":50,"rain":0.0,"pressure":978.1,"uv_index":7.45,"wind_gusts":42.5,"aqi":159,"pm10":123.9,"pm2_5":34.1,"no2":7.9,"co":284.0,"o3":83.0,"so2":5.3,"mosquito_risk":0,"arthritis_risk":5,"migraine_risk":7,"frizz_risk":0,"updated_at":"2026-05-05T03:34:22.696482+05:30"},{"city":"Bhatinda","state":"Punjab","latitude":30.211,"longitude":74.9455,"temp":23.4,"humidity":70,"rain":0.0,"pressure":983.2,"uv_index":8.1,"wind_gusts":31.7,"aqi":447,"pm10":146.2,"pm2_5":36.7,"no2":6.8,"co":322.0,"o3":93.0,"so2":7.0,"mosquito_risk":3,"arthritis_risk":5,"migraine_risk":7,"frizz_risk":1,"updated_at":"2026-05-05T03:34:22.696488+05:30"},{"city":"Rohtak","state":"Haryana","latitude":28.8955,"longitude":76.6066,"temp":22.8,"humidity":78,"rain":0.0,"pressure":981.6,"uv_index":7.35,"wind_gusts":33.1,"aqi":488,"pm10":244.9,"pm2_5":44.2,"no2":14.6,"co":409.0,"o3":87.0,"so2":15.0,"mosquito_risk":3,"arthritis_risk":5,"migraine_risk":7,"frizz_risk":1,"updated_at":"2026-05-05T03:34:22.696494+05:30"},{"city":"Panipat","state":"Haryana","latitude":29.3909,"longitude":76.9635,"temp":21.6,"humidity":82,"rain":0.0,"pressure":981.0,"uv_index":7.25,"wind_gusts":31.0,"aqi":802,"pm10":147.1,"pm2_5":32.8,"no2":9.5,"co":321.0,"o3":90.0,"so2":8.4,"mosquito_risk":3,"arthritis_risk":5,"migraine_risk":7,"frizz_risk":1,"updated_at":"2026-05-05T03:34:22.696500+05:30"},{"city":"Mathura","state":"Uttar Pradesh","latitude":27.4924,"longitude":77.6737,"temp":24.5,"humidity":75,"rain":0.0,"pressure":986.9,"uv_index":7.8,"wind_gusts":71.3,"aqi":662,"pm10":348.3,"pm2_5":78.0,"no2":13.7,"co":400.0,"o3":68.0,"so2":10.7,"mosquito_risk":3,"arthritis_risk":5,"migraine_risk":7,"frizz_risk":1,"updated_at":"2026-05-05T03:34:22.696506+05:30"},{"city":"Vrindavan","state":"Uttar Pradesh","latitude":27.5823,"longitude":77.7027,"temp":24.5,"humidity":74,"rain":0.0,"pressure":987.4,"uv_index":7.75,"wind_gusts":71.3,"aqi":662,"pm10":348.3,"pm2_5":78.0,"no2":13.7,"co":409.0,"o3":68.0,"so2":10.7,"mosquito_risk":3,"arthritis_risk":5,"migraine_risk":7,"frizz_risk":1,"updated_at":"2026-05-05T03:34:22.696512+05:30"},{"city":"Ayodhya","state":"Uttar Pradesh","latitude":26.7922,"longitude":82.1998,"temp":21.2,"humidity":78,"rain":0.0,"pressure":997.5,"uv_index":7.7,"wind_gusts":23.4,"aqi":93,"pm10":45.9,"pm2_5":38.9,"no2":10.1,"co":404.0,"o3":97.0,"so2":8.8,"mosquito_risk":3,"arthritis_risk":5,"migraine_risk":7,"frizz_risk":1,"updated_at":"2026-05-05T03:34:22.696518+05:30"},{"city":"Ratlam","state":"Madhya Pradesh","latitude":23.3315,"longitude":75.0367,"temp":25.5,"humidity":56,"rain":0.0,"pressure":952.3,"uv_index":8.45,"wind_gusts":38.9,"aqi":57,"pm10":28.9,"pm2_5":17.8,"no2":4.6,"co":236.0,"o3":75.0,"so2":9.9,"mosquito_risk":4,"arthritis_risk":5,"migraine_risk":7,"frizz_risk":1,"updated_at":"2026-05-05T03:34:22.696524+05:30"},{"city":"Sagar","state":"Madhya Pradesh","latitude":23.8388,"longitude":78.7378,"temp":24.8,"humidity":70,"rain":0.0,"pressure":948.9,"uv_index":8.65,"wind_gusts":51.5,"aqi":66,"pm10":43.9,"pm2_5":31.8,"no2":3.5,"co":325.0,"o3":135.0,"so2":11.1,"mosquito_risk":3,"arthritis_risk":5,"migraine_risk":7,"frizz_risk":1,"updated_at":"2026-05-05T03:34:22.696530+05:30"},{"city":"Satna","state":"Madhya Pradesh","latitude":24.6005,"longitude":80.8322,"temp":22.6,"humidity":87,"rain":0.0,"pressure":971.7,"uv_index":8.7,"wind_gusts":46.4,"aqi":97,"pm10":57.4,"pm2_5":46.6,"no2":9.1,"co":377.0,"o3":107.0,"so2":16.0,"mosquito_risk":3,"arthritis_risk":5,"migraine_risk":7,"frizz_risk":1,"updated_at":"2026-05-05T03:34:22.696536+05:30"},{"city":"Akola","state":"Maharashtra","latitude":20.7002,"longitude":77.0082,"temp":29.1,"humidity":47,"rain":0.0,"pressure":973.1,"uv_index":8.85,"wind_gusts":37.1,"aqi":54,"pm10":27.1,"pm2_5":15.7,"no2":7.1,"co":168.0,"o3":72.0,"so2":14.4,"mosquito_risk":4,"arthritis_risk":5,"migraine_risk":7,"frizz_risk":1,"updated_at":"2026-05-05T03:34:22.696543+05:30"},{"city":"Amravati","state":"Maharashtra","latitude":20.9374,"longitude":77.7796,"temp":27.7,"humidity":21,"rain":0.0,"pressure":964.8,"uv_index":8.85,"wind_gusts":38.9,"aqi":55,"pm10":28.6,"pm2_5":16.1,"no2":8.4,"co":303.0,"o3":73.0,"so2":12.3,"mosquito_risk":4,"arthritis_risk":5,"migraine_risk":7,"frizz_risk":0,"updated_at":"2026-05-05T03:34:22.696550+05:30"},{"city":"Latur","state":"Maharashtra","latitude":18.4088,"longitude":76.5604,"temp":27.0,"humidity":35,"rain":0.0,"pressure":937.4,"uv_index":9.05,"wind_gusts":35.6,"aqi":57,"pm10":31.7,"pm2_5":15.7,"no2":5.9,"co":180.0,"o3":92.0,"so2":7.4,"mosquito_risk":4,"arthritis_risk":5,"migraine_risk":7,"frizz_risk":0,"updated_at":"2026-05-05T03:34:22.696556+05:30"},{"city":"Nanded","state":"Maharashtra","latitude":19.1383,"longitude":77.3091,"temp":27.8,"humidity":25,"rain":0.0,"pressure":966.1,"uv_index":9.0,"wind_gusts":27.4,"aqi":69,"pm10":49.4,"pm2_5":30.2,"no2":28.8,"co":249.0,"o3":29.0,"so2":5.6,"mosquito_risk":4,"arthritis_risk":5,"migraine_risk":7,"frizz_risk":0,"updated_at":"2026-05-05T03:34:22.696562+05:30"},{"city":"Gulbarga","state":"Karnataka","latitude":17.3297,"longitude":76.8343,"temp":28.8,"humidity":30,"rain":0.0,"pressure":956.1,"uv_index":9.1,"wind_gusts":37.4,"aqi":56,"pm10":23.2,"pm2_5":11.2,"no2":5.4,"co":206.0,"o3":63.0,"so2":3.6,"mosquito_risk":4,"arthritis_risk":5,"migraine_risk":7,"frizz_risk":0,"updated_at":"2026-05-05T03:34:22.696568+05:30"},{"city":"Bidar","state":"Karnataka","latitude":17.9104,"longitude":77.5199,"temp":27.2,"humidity":23,"rain":0.0,"pressure":933.6,"uv_index":9.15,"wind_gusts":33.5,"aqi":70,"pm10":31.0,"pm2_5":22.2,"no2":14.5,"co":377.0,"o3":71.0,"so2":6.7,"mosquito_risk":4,"arthritis_risk":5,"migraine_risk":7,"frizz_risk":0,"updated_at":"2026-05-05T03:34:22.696574+05:30"},{"city":"Hospet","state":"Karnataka","latitude":15.2689,"longitude":76.3909,"temp":24.8,"humidity":81,"rain":0.0,"pressure":954.0,"uv_index":9.25,"wind_gusts":37.4,"aqi":57,"pm10":22.7,"pm2_5":12.4,"no2":6.8,"co":181.0,"o3":49.0,"so2":2.3,"mosquito_risk":3,"arthritis_risk":5,"migraine_risk":7,"frizz_risk":1,"updated_at":"2026-05-05T03:34:22.696580+05:30"},{"city":"Tirupur","state":"Tamil Nadu","latitude":11.1085,"longitude":77.3411,"temp":25.8,"humidity":81,"rain":0.0,"pressure":974.0,"uv_index":9.15,"wind_gusts":42.1,"aqi":69,"pm10":29.6,"pm2_5":18.7,"no2":14.7,"co":186.0,"o3":55.0,"so2":5.2,"mosquito_risk":7,"arthritis_risk":5,"migraine_risk":7,"frizz_risk":1,"updated_at":"2026-05-05T03:34:22.696586+05:30"},{"city":"Alappuzha","state":"Kerala","latitude":9.4981,"longitude":76.3388,"temp":25.7,"humidity":97,"rain":0.0,"pressure":1008.2,"uv_index":7.15,"wind_gusts":29.5,"aqi":81,"pm10":30.4,"pm2_5":16.2,"no2":10.7,"co":184.0,"o3":56.0,"so2":3.5,"mosquito_risk":7,"arthritis_risk":0,"migraine_risk":4,"frizz_risk":1,"updated_at":"2026-05-05T03:34:22.696592+05:30"},{"city":"Munnar","state":"Kerala","latitude":10.0889,"longitude":77.0595,"temp":17.5,"humidity":97,"rain":0.0,"pressure":855.4,"uv_index":5.8,"wind_gusts":25.2,"aqi":66,"pm10":9.3,"pm2_5":6.2,"no2":7.2,"co":217.0,"o3":45.0,"so2":0.9,"mosquito_risk":3,"arthritis_risk":10,"migraine_risk":3,"frizz_risk":1,"updated_at":"2026-05-05T03:34:22.696599+05:30"},{"city":"Silchar","state":"Assam","latitude":24.8333,"longitude":92.7789,"temp":20.8,"humidity":89,"rain":0.0,"pressure":1008.0,"uv_index":8.5,"wind_gusts":19.4,"aqi":88,"pm10":41.6,"pm2_5":32.8,"no2":11.2,"co":212.0,"o3":74.0,"so2":4.5,"mosquito_risk":3,"arthritis_risk":0,"migraine_risk":4,"frizz_risk":1,"updated_at":"2026-05-05T03:34:22.696605+05:30"},{"city":"Dibrugarh","state":"Assam","latitude":27.4728,"longitude":94.912,"temp":21.3,"humidity":97,"rain":0.0,"pressure":998.4,"uv_index":8.8,"wind_gusts":32.0,"aqi":72,"pm10":16.6,"pm2_5":15.8,"no2":19.2,"co":302.0,"o3":11.0,"so2":0.6,"mosquito_risk":3,"arthritis_risk":5,"migraine_risk":7,"frizz_risk":1,"updated_at":"2026-05-05T03:34:22.696611+05:30"}]