[{"city":"Delhi","state":"Delhi","latitude":28.6139,"longitude":77.209,"temp":35.6,"humidity":46,"rain":0.0,"pressure":978.0,"uv_index":7.75,"wind_gusts":30.6,"aqi":165,"pm10":213.3,"pm2_5":65.4,"no2":32.8,"co":519.0,"o3":88.0,"so2":14.5,"mosquito_risk":0,"arthritis_risk":5,"migraine_risk":10,"frizz_risk":1,"updated_at":"2026-06-26T20:00:26.364813+05:30"},{"city":"Mumbai","state":"Maharashtra","latitude":19.076,"longitude":72.8777,"temp":28.5,"humidity":81,"rain":0.0,"pressure":1006.2,"uv_index":7.2,"wind_gusts":38.2,"aqi":64,"pm10":23.4,"pm2_5":12.7,"no2":9.8,"co":409.0,"o3":51.0,"so2":7.3,"mosquito_risk":7,"arthritis_risk":5,"migraine_risk":4,"frizz_risk":1,"updated_at":"2026-06-26T20:00:26.364852+05:30"},{"city":"Bangalore","state":"Karnataka","latitude":12.9716,"longitude":77.5946,"temp":23.2,"humidity":84,"rain":0.0,"pressure":910.9,"uv_index":8.35,"wind_gusts":44.6,"aqi":29,"pm10":12.2,"pm2_5":10.2,"no2":27.3,"co":491.0,"o3":34.0,"so2":6.0,"mosquito_risk":3,"arthritis_risk":5,"migraine_risk":7,"frizz_risk":1,"updated_at":"2026-06-26T20:00:26.364867+05:30"},{"city":"Hyderabad","state":"Telangana","latitude":17.385,"longitude":78.4867,"temp":28.3,"humidity":69,"rain":0.0,"pressure":950.7,"uv_index":8.15,"wind_gusts":38.9,"aqi":61,"pm10":44.2,"pm2_5":28.7,"no2":21.7,"co":810.0,"o3":67.0,"so2":8.6,"mosquito_risk":7,"arthritis_risk":5,"migraine_risk":7,"frizz_risk":1,"updated_at":"2026-06-26T20:00:26.364876+05:30"},{"city":"Chennai","state":"Tamil Nadu","latitude":13.0827,"longitude":80.2707,"temp":29.5,"humidity":79,"rain":0.0,"pressure":1004.3,"uv_index":8.5,"wind_gusts":34.9,"aqi":60,"pm10":33.2,"pm2_5":23.4,"no2":11.9,"co":285.0,"o3":98.0,"so2":7.1,"mosquito_risk":7,"arthritis_risk":5,"migraine_risk":4,"frizz_risk":1,"updated_at":"2026-06-26T20:00:26.364884+05:30"},{"city":"Kolkata","state":"West Bengal","latitude":22.5726,"longitude":88.3639,"temp":29.5,"humidity":83,"rain":0.0,"pressure":1003.1,"uv_index":8.95,"wind_gusts":27.4,"aqi":97,"pm10":27.4,"pm2_5":25.3,"no2":13.5,"co":422.0,"o3":64.0,"so2":8.7,"mosquito_risk":7,"arthritis_risk":5,"migraine_risk":4,"frizz_risk":1,"updated_at":"2026-06-26T20:00:26.364892+05:30"},{"city":"Pune","state":"Maharashtra","latitude":18.5204,"longitude":73.8567,"temp":25.3,"humidity":81,"rain":0.0,"pressure":946.2,"uv_index":7.7,"wind_gusts":34.6,"aqi":43,"pm10":16.5,"pm2_5":10.7,"no2":10.1,"co":179.0,"o3":56.0,"so2":7.3,"mosquito_risk":7,"arthritis_risk":5,"migraine_risk":7,"frizz_risk":1,"updated_at":"2026-06-26T20:00:26.364900+05:30"},{"city":"Ahmedabad","state":"Gujarat","latitude":23.0225,"longitude":72.5714,"temp":36.2,"humidity":35,"rain":0.0,"pressure":997.2,"uv_index":8.05,"wind_gusts":36.0,"aqi":69,"pm10":54.7,"pm2_5":23.1,"no2":13.1,"co":171.0,"o3":66.0,"so2":4.4,"mosquito_risk":0,"arthritis_risk":5,"migraine_risk":10,"frizz_risk":1,"updated_at":"2026-06-26T20:00:26.364907+05:30"},{"city":"Jaipur","state":"Rajasthan","latitude":26.9124,"longitude":75.7873,"temp":31.1,"humidity":60,"rain":0.0,"pressure":956.3,"uv_index":8.2,"wind_gusts":31.0,"aqi":99,"pm10":82.0,"pm2_5":36.6,"no2":28.6,"co":389.0,"o3":59.0,"so2":9.0,"mosquito_risk":0,"arthritis_risk":5,"migraine_risk":7,"frizz_risk":1,"updated_at":"2026-06-26T20:00:26.364913+05:30"},{"city":"Lucknow","state":"Uttar Pradesh","latitude":26.8467,"longitude":80.9462,"temp":36.3,"humidity":44,"rain":0.0,"pressure":988.7,"uv_index":8.3,"wind_gusts":29.9,"aqi":132,"pm10":88.5,"pm2_5":44.1,"no2":10.8,"co":245.0,"o3":124.0,"so2":9.5,"mosquito_risk":0,"arthritis_risk":5,"migraine_risk":10,"frizz_risk":1,"updated_at":"2026-06-26T20:00:26.364924+05:30"},{"city":"Kanpur","state":"Uttar Pradesh","latitude":26.4499,"longitude":80.3319,"temp":37.2,"humidity":37,"rain":0.0,"pressure":986.9,"uv_index":8.3,"wind_gusts":38.9,"aqi":133,"pm10":183.9,"pm2_5":56.2,"no2":9.9,"co":235.0,"o3":123.0,"so2":8.2,"mosquito_risk":0,"arthritis_risk":5,"migraine_risk":10,"frizz_risk":1,"updated_at":"2026-06-26T20:00:26.364931+05:30"},{"city":"Chandigarh","state":"Chandigarh","latitude":30.7333,"longitude":76.7794,"temp":31.7,"humidity":58,"rain":0.0,"pressure":963.9,"uv_index":7.8,"wind_gusts":22.3,"aqi":152,"pm10":143.4,"pm2_5":60.8,"no2":37.0,"co":792.0,"o3":103.0,"so2":12.7,"mosquito_risk":0,"arthritis_risk":5,"migraine_risk":7,"frizz_risk":1,"updated_at":"2026-06-26T20:00:26.364938+05:30"},{"city":"Srinagar","state":"Jammu and Kashmir","latitude":34.0837,"longitude":74.7973,"temp":26.4,"humidity":52,"rain":0.0,"pressure":841.3,"uv_index":9.05,"wind_gusts":23.0,"aqi":121,"pm10":19.8,"pm2_5":17.6,"no2":20.3,"co":645.0,"o3":88.0,"so2":3.4,"mosquito_risk":4,"arthritis_risk":5,"migraine_risk":7,"frizz_risk":0,"updated_at":"2026-06-26T20:00:26.364945+05:30"},{"city":"Jammu","state":"Jammu and Kashmir","latitude":32.7266,"longitude":74.857,"temp":33.2,"humidity":49,"rain":0.0,"pressure":967.7,"uv_index":8.65,"wind_gusts":26.3,"aqi":149,"pm10":97.6,"pm2_5":51.5,"no2":29.7,"co":508.0,"o3":119.0,"so2":7.0,"mosquito_risk":0,"arthritis_risk":5,"migraine_risk":7,"frizz_risk":1,"updated_at":"2026-06-26T20:00:26.364951+05:30"},{"city":"Amritsar","state":"Punjab","latitude":31.634,"longitude":74.8723,"temp":31.3,"humidity":73,"rain":0.0,"pressure":975.5,"uv_index":8.5,"wind_gusts":22.7,"aqi":160,"pm10":75.4,"pm2_5":54.8,"no2":24.8,"co":647.0,"o3":112.0,"so2":8.3,"mosquito_risk":3,"arthritis_risk":5,"migraine_risk":7,"frizz_risk":1,"updated_at":"2026-06-26T20:00:26.364960+05:30"},{"city":"Ludhiana","state":"Punjab","latitude":30.901,"longitude":75.8573,"temp":34.8,"humidity":44,"rain":0.0,"pressure":973.7,"uv_index":8.05,"wind_gusts":28.4,"aqi":157,"pm10":103.1,"pm2_5":55.9,"no2":26.5,"co":832.0,"o3":89.0,"so2":8.0,"mosquito_risk":0,"arthritis_risk":5,"migraine_risk":7,"frizz_risk":1,"updated_at":"2026-06-26T20:00:26.364967+05:30"},{"city":"Jalandhar","state":"Punjab","latitude":31.326,"longitude":75.5762,"temp":33.6,"humidity":50,"rain":0.0,"pressure":974.6,"uv_index":8.25,"wind_gusts":25.2,"aqi":147,"pm10":83.6,"pm2_5":52.6,"no2":29.4,"co":843.0,"o3":93.0,"so2":6.8,"mosquito_risk":0,"arthritis_risk":5,"migraine_risk":7,"frizz_risk":1,"updated_at":"2026-06-26T20:00:26.364973+05:30"},{"city":"Dehradun","state":"Uttarakhand","latitude":30.6284,"longitude":78.0322,"temp":19.6,"humidity":86,"rain":0.0,"pressure":829.2,"uv_index":7.65,"wind_gusts":29.5,"aqi":106,"pm10":54.5,"pm2_5":24.2,"no2":15.6,"co":242.0,"o3":105.0,"so2":1.8,"mosquito_risk":3,"arthritis_risk":10,"migraine_risk":7,"frizz_risk":1,"updated_at":"2026-06-26T20:00:26.364979+05:30"},{"city":"Shimla","state":"Himachal Pradesh","latitude":31.1048,"longitude":77.1734,"temp":15.5,"humidity":100,"rain":0.0,"pressure":782.7,"uv_index":7.7,"wind_gusts":29.9,"aqi":129,"pm10":56.6,"pm2_5":27.8,"no2":10.9,"co":457.0,"o3":122.0,"so2":2.8,"mosquito_risk":3,"arthritis_risk":10,"migraine_risk":7,"frizz_risk":0,"updated_at":"2026-06-26T20:00:26.364985+05:30"},{"city":"Manali","state":"Himachal Pradesh","latitude":32.2396,"longitude":77.1887,"temp":19.0,"humidity":90,"rain":0.0,"pressure":818.3,"uv_index":7.35,"wind_gusts":35.6,"aqi":63,"pm10":5.5,"pm2_5":4.8,"no2":85.9,"co":390.0,"o3":38.0,"so2":0.4,"mosquito_risk":3,"arthritis_risk":10,"migraine_risk":7,"frizz_risk":1,"updated_at":"2026-06-26T20:00:26.364993+05:30"},{"city":"Gurgaon","state":"Haryana","latitude":28.4595,"longitude":77.0266,"temp":34.8,"humidity":40,"rain":0.0,"pressure":976.6,"uv_index":7.85,"wind_gusts":27.4,"aqi":153,"pm10":249.6,"pm2_5":67.5,"no2":38.8,"co":1071.0,"o3":72.0,"so2":11.3,"mosquito_risk":0,"arthritis_risk":5,"migraine_risk":7,"frizz_risk":1,"updated_at":"2026-06-26T20:00:26.365001+05:30"},{"city":"Noida","state":"Uttar Pradesh","latitude":28.5355,"longitude":77.391,"temp":32.9,"humidity":60,"rain":0.0,"pressure":979.3,"uv_index":7.8,"wind_gusts":25.9,"aqi":153,"pm10":249.6,"pm2_5":67.5,"no2":38.8,"co":692.0,"o3":72.0,"so2":11.3,"mosquito_risk":0,"arthritis_risk":5,"migraine_risk":7,"frizz_risk":1,"updated_at":"2026-06-26T20:00:26.365007+05:30"},{"city":"Ghaziabad","state":"Uttar Pradesh","latitude":28.6692,"longitude":77.4538,"temp":34.1,"humidity":52,"rain":0.0,"pressure":977.7,"uv_index":7.75,"wind_gusts":18.4,"aqi":208,"pm10":170.9,"pm2_5":68.0,"no2":22.4,"co":696.0,"o3":147.0,"so2":21.8,"mosquito_risk":0,"arthritis_risk":5,"migraine_risk":7,"frizz_risk":1,"updated_at":"2026-06-26T20:00:26.365013+05:30"},{"city":"Faridabad","state":"Haryana","latitude":28.4089,"longitude":77.3178,"temp":33.6,"humidity":59,"rain":0.0,"pressure":978.7,"uv_index":7.8,"wind_gusts":31.7,"aqi":153,"pm10":249.6,"pm2_5":67.5,"no2":38.8,"co":580.0,"o3":72.0,"so2":11.3,"mosquito_risk":0,"arthritis_risk":5,"migraine_risk":7,"frizz_risk":1,"updated_at":"2026-06-26T20:00:26.365019+05:30"},{"city":"Meerut","state":"Uttar Pradesh","latitude":28.9845,"longitude":77.7064,"temp":35.7,"humidity":43,"rain":0.0,"pressure":976.6,"uv_index":7.7,"wind_gusts":24.1,"aqi":208,"pm10":170.9,"pm2_5":68.0,"no2":22.4,"co":366.0,"o3":147.0,"so2":21.8,"mosquito_risk":0,"arthritis_risk":5,"migraine_risk":10,"frizz_risk":1,"updated_at":"2026-06-26T20:00:26.365025+05:30"},{"city":"Agra","state":"Uttar Pradesh","latitude":27.1767,"longitude":78.0081,"temp":35.8,"humidity":41,"rain":0.0,"pressure":983.0,"uv_index":8.1,"wind_gusts":30.6,"aqi":153,"pm10":139.2,"pm2_5":48.2,"no2":32.2,"co":232.0,"o3":74.0,"so2":10.3,"mosquito_risk":0,"arthritis_risk":5,"migraine_risk":10,"frizz_risk":1,"updated_at":"2026-06-26T20:00:26.365031+05:30"},{"city":"Varanasi","state":"Uttar Pradesh","latitude":25.3176,"longitude":82.9739,"temp":35.6,"humidity":49,"rain":0.0,"pressure":993.2,"uv_index":8.8,"wind_gusts":36.7,"aqi":164,"pm10":64.0,"pm2_5":52.6,"no2":21.1,"co":782.0,"o3":122.0,"so2":14.3,"mosquito_risk":0,"arthritis_risk":5,"migraine_risk":10,"frizz_risk":1,"updated_at":"2026-06-26T20:00:26.365037+05:30"},{"city":"Prayagraj","state":"Uttar Pradesh","latitude":25.4358,"longitude":81.8463,"temp":35.8,"humidity":47,"rain":0.0,"pressure":991.3,"uv_index":8.5,"wind_gusts":31.3,"aqi":151,"pm10":68.5,"pm2_5":48.3,"no2":18.4,"co":223.0,"o3":111.0,"so2":12.6,"mosquito_risk":0,"arthritis_risk":5,"migraine_risk":10,"frizz_risk":1,"updated_at":"2026-06-26T20:00:26.365044+05:30"},{"city":"Gorakhpur","state":"Uttar Pradesh","latitude":26.7606,"longitude":83.3732,"temp":33.0,"humidity":67,"rain":0.0,"pressure":993.0,"uv_index":8.65,"wind_gusts":25.2,"aqi":153,"pm10":101.5,"pm2_5":76.4,"no2":31.3,"co":555.0,"o3":84.0,"so2":12.9,"mosquito_risk":3,"arthritis_risk":5,"migraine_risk":7,"frizz_risk":1,"updated_at":"2026-06-26T20:00:26.365050+05:30"},{"city":"Bareilly","state":"Uttar Pradesh","latitude":28.367,"longitude":79.4304,"temp":35.6,"humidity":42,"rain":0.0,"pressure":981.8,"uv_index":8.1,"wind_gusts":21.2,"aqi":174,"pm10":86.8,"pm2_5":50.5,"no2":12.6,"co":301.0,"o3":134.0,"so2":12.3,"mosquito_risk":0,"arthritis_risk":5,"migraine_risk":10,"frizz_risk":1,"updated_at":"2026-06-26T20:00:26.365058+05:30"},{"city":"Aligarh","state":"Uttar Pradesh","latitude":27.8974,"longitude":78.088,"temp":35.0,"humidity":48,"rain":0.0,"pressure":980.8,"uv_index":7.95,"wind_gusts":23.4,"aqi":153,"pm10":170.0,"pm2_5":52.7,"no2":26.4,"co":348.0,"o3":77.0,"so2":8.6,"mosquito_risk":0,"arthritis_risk":5,"migraine_risk":7,"frizz_risk":1,"updated_at":"2026-06-26T20:00:26.365064+05:30"},{"city":"Moradabad","state":"Uttar Pradesh","latitude":28.8386,"longitude":78.7733,"temp":35.4,"humidity":46,"rain":0.0,"pressure":978.8,"uv_index":7.95,"wind_gusts":27.4,"aqi":170,"pm10":121.1,"pm2_5":61.9,"no2":26.1,"co":444.0,"o3":118.0,"so2":15.7,"mosquito_risk":0,"arthritis_risk":5,"migraine_risk":10,"frizz_risk":1,"updated_at":"2026-06-26T20:00:26.365070+05:30"},{"city":"Saharanpur","state":"Uttar Pradesh","latitude":29.9637,"longitude":77.546,"temp":34.3,"humidity":45,"rain":0.0,"pressure":970.7,"uv_index":7.55,"wind_gusts":21.6,"aqi":150,"pm10":225.8,"pm2_5":82.9,"no2":30.4,"co":425.0,"o3":100.0,"so2":18.1,"mosquito_risk":0,"arthritis_risk":5,"migraine_risk":7,"frizz_risk":1,"updated_at":"2026-06-26T20:00:26.365076+05:30"},{"city":"Jhansi","state":"Uttar Pradesh","latitude":25.4484,"longitude":78.5685,"temp":31.9,"humidity":63,"rain":0.0,"pressure":974.1,"uv_index":8.45,"wind_gusts":35.3,"aqi":83,"pm10":73.8,"pm2_5":36.1,"no2":12.0,"co":172.0,"o3":79.0,"so2":7.8,"mosquito_risk":3,"arthritis_risk":5,"migraine_risk":7,"frizz_risk":1,"updated_at":"2026-06-26T20:00:29.717437+05:30"},{"city":"Surat","state":"Gujarat","latitude":21.1702,"longitude":72.8311,"temp":29.9,"humidity":76,"rain":0.0,"pressure":1003.4,"uv_index":7.05,"wind_gusts":38.5,"aqi":88,"pm10":45.3,"pm2_5":25.4,"no2":19.1,"co":228.0,"o3":35.0,"so2":34.2,"mosquito_risk":7,"arthritis_risk":5,"migraine_risk":4,"frizz_risk":1,"updated_at":"2026-06-26T20:00:29.717466+05:30"},{"city":"Vadodara","state":"Gujarat","latitude":22.3072,"longitude":73.1812,"temp":33.3,"humidity":52,"rain":0.0,"pressure":1000.2,"uv_index":8.0,"wind_gusts":38.9,"aqi":80,"pm10":70.1,"pm2_5":30.4,"no2":12.2,"co":169.0,"o3":68.0,"so2":9.9,"mosquito_risk":0,"arthritis_risk":5,"migraine_risk":4,"frizz_risk":1,"updated_at":"2026-06-26T20:00:29.717476+05:30"},{"city":"Rajkot","state":"Gujarat","latitude":22.3039,"longitude":70.8022,"temp":31.0,"humidity":62,"rain":0.1,"pressure":990.6,"uv_index":7.55,"wind_gusts":49.3,"aqi":64,"pm10":37.6,"pm2_5":17.6,"no2":6.8,"co":111.0,"o3":63.0,"so2":4.9,"mosquito_risk":6,"arthritis_risk":5,"migraine_risk":7,"frizz_risk":1,"updated_at":"2026-06-26T20:00:29.717485+05:30"},{"city":"Thane","state":"Maharashtra","latitude":19.2183,"longitude":72.9781,"temp":28.3,"humidity":82,"rain":0.0,"pressure":1005.6,"uv_index":6.2,"wind_gusts":30.2,"aqi":64,"pm10":23.4,"pm2_5":12.7,"no2":9.8,"co":347.0,"o3":51.0,"so2":7.3,"mosquito_risk":7,"arthritis_risk":5,"migraine_risk":4,"frizz_risk":1,"updated_at":"2026-06-26T20:00:29.717492+05:30"},{"city":"Nagpur","state":"Maharashtra","latitude":21.1458,"longitude":79.0882,"temp":28.7,"humidity":80,"rain":0.0,"pressure":970.7,"uv_index":8.8,"wind_gusts":23.4,"aqi":79,"pm10":32.9,"pm2_5":27.6,"no2":20.1,"co":346.0,"o3":94.0,"so2":30.9,"mosquito_risk":7,"arthritis_risk":5,"migraine_risk":7,"frizz_risk":1,"updated_at":"2026-06-26T20:00:29.717500+05:30"},{"city":"Nashik","state":"Maharashtra","latitude":19.9975,"longitude":73.7898,"temp":25.2,"humidity":85,"rain":0.0,"pressure":943.5,"uv_index":7.75,"wind_gusts":42.5,"aqi":55,"pm10":24.0,"pm2_5":13.9,"no2":5.7,"co":166.0,"o3":67.0,"so2":2.8,"mosquito_risk":7,"arthritis_risk":5,"migraine_risk":7,"frizz_risk":1,"updated_at":"2026-06-26T20:00:29.717508+05:30"},{"city":"Aurangabad","state":"Maharashtra","latitude":19.8762,"longitude":75.3433,"temp":26.5,"humidity":81,"rain":0.0,"pressure":941.8,"uv_index":7.85,"wind_gusts":36.0,"aqi":62,"pm10":37.1,"pm2_5":19.9,"no2":7.3,"co":275.0,"o3":69.0,"so2":3.4,"mosquito_risk":7,"arthritis_risk":5,"migraine_risk":7,"frizz_risk":1,"updated_at":"2026-06-26T20:00:29.717515+05:30"},{"city":"Solapur","state":"Maharashtra","latitude":17.6599,"longitude":75.9064,"temp":30.0,"humidity":53,"rain":0.0,"pressure":954.8,"uv_index":6.9,"wind_gusts":32.4,"aqi":51,"pm10":48.5,"pm2_5":22.9,"no2":7.0,"co":167.0,"o3":77.0,"so2":3.9,"mosquito_risk":4,"arthritis_risk":5,"migraine_risk":7,"frizz_risk":1,"updated_at":"2026-06-26T20:00:29.717523+05:30"},{"city":"Kolhapur","state":"Maharashtra","latitude":16.705,"longitude":74.2433,"temp":24.0,"humidity":85,"rain":0.0,"pressure":946.5,"uv_index":8.2,"wind_gusts":42.5,"aqi":34,"pm10":14.5,"pm2_5":10.1,"no2":9.3,"co":147.0,"o3":49.0,"so2":3.1,"mosquito_risk":3,"arthritis_risk":5,"migraine_risk":7,"frizz_risk":1,"updated_at":"2026-06-26T20:00:29.717530+05:30"},{"city":"Goa","state":"Goa","latitude":15.2993,"longitude":74.124,"temp":26.9,"humidity":87,"rain":0.0,"pressure":997.2,"uv_index":6.3,"wind_gusts":29.2,"aqi":51,"pm10":14.4,"pm2_5":8.4,"no2":3.4,"co":293.0,"o3":48.0,"so2":1.3,"mosquito_risk":7,"arthritis_risk":5,"migraine_risk":7,"frizz_risk":1,"updated_at":"2026-06-26T20:00:29.717537+05:30"},{"city":"Jodhpur","state":"Rajasthan","latitude":26.2389,"longitude":73.0243,"temp":33.2,"humidity":54,"rain":0.0,"pressure":978.5,"uv_index":8.4,"wind_gusts":30.2,"aqi":98,"pm10":102.0,"pm2_5":32.0,"no2":6.8,"co":165.0,"o3":72.0,"so2":2.2,"mosquito_risk":0,"arthritis_risk":5,"migraine_risk":7,"frizz_risk":1,"updated_at":"2026-06-26T20:00:29.717566+05:30"},{"city":"Udaipur","state":"Rajasthan","latitude":24.5854,"longitude":73.7125,"temp":25.3,"humidity":87,"rain":0.1,"pressure":943.3,"uv_index":8.35,"wind_gusts":51.5,"aqi":76,"pm10":46.6,"pm2_5":21.0,"no2":6.1,"co":173.0,"o3":65.0,"so2":2.4,"mosquito_risk":10,"arthritis_risk":5,"migraine_risk":7,"frizz_risk":1,"updated_at":"2026-06-26T20:00:29.717576+05:30"},{"city":"Kota","state":"Rajasthan","latitude":25.2138,"longitude":75.8648,"temp":30.5,"humidity":71,"rain":0.0,"pressure":975.7,"uv_index":7.6,"wind_gusts":34.6,"aqi":85,"pm10":73.8,"pm2_5":39.2,"no2":15.1,"co":229.0,"o3":74.0,"so2":7.0,"mosquito_risk":3,"arthritis_risk":5,"migraine_risk":7,"frizz_risk":1,"updated_at":"2026-06-26T20:00:29.717583+05:30"},{"city":"Bikaner","state":"Rajasthan","latitude":28.0229,"longitude":73.3119,"temp":36.1,"humidity":41,"rain":0.0,"pressure":976.8,"uv_index":8.45,"wind_gusts":31.0,"aqi":107,"pm10":160.7,"pm2_5":46.7,"no2":6.1,"co":281.0,"o3":72.0,"so2":3.1,"mosquito_risk":0,"arthritis_risk":5,"migraine_risk":10,"frizz_risk":1,"updated_at":"2026-06-26T20:00:29.717590+05:30"},{"city":"Ajmer","state":"Rajasthan","latitude":26.4499,"longitude":74.6399,"temp":31.1,"humidity":61,"rain":0.0,"pressure":951.2,"uv_index":8.3,"wind_gusts":42.1,"aqi":85,"pm10":69.2,"pm2_5":30.5,"no2":10.0,"co":205.0,"o3":67.0,"so2":2.8,"mosquito_risk":3,"arthritis_risk":5,"migraine_risk":7,"frizz_risk":1,"updated_at":"2026-06-26T20:00:29.717597+05:30"},{"city":"Gwalior","state":"Madhya Pradesh","latitude":26.2183,"longitude":78.1828,"temp":34.5,"humidity":47,"rain":0.0,"pressure":978.9,"uv_index":8.25,"wind_gusts":41.4,"aqi":70,"pm10":55.2,"pm2_5":27.3,"no2":11.9,"co":182.0,"o3":72.0,"so2":4.3,"mosquito_risk":0,"arthritis_risk":5,"migraine_risk":7,"frizz_risk":1,"updated_at":"2026-06-26T20:00:29.717604+05:30"},{"city":"Indore","state":"Madhya Pradesh","latitude":22.7196,"longitude":75.8577,"temp":25.8,"humidity":91,"rain":0.0,"pressure":945.5,"uv_index":7.4,"wind_gusts":43.2,"aqi":106,"pm10":36.8,"pm2_5":26.2,"no2":16.6,"co":789.0,"o3":61.0,"so2":4.9,"mosquito_risk":7,"arthritis_risk":5,"migraine_risk":7,"frizz_risk":1,"updated_at":"2026-06-26T20:00:29.717611+05:30"},{"city":"Bhopal","state":"Madhya Pradesh","latitude":23.2599,"longitude":77.4126,"temp":27.7,"humidity":80,"rain":0.0,"pressure":950.7,"uv_index":8.6,"wind_gusts":27.7,"aqi":86,"pm10":37.6,"pm2_5":28.2,"no2":10.8,"co":422.0,"o3":77.0,"so2":3.7,"mosquito_risk":7,"arthritis_risk":5,"migraine_risk":7,"frizz_risk":1,"updated_at":"2026-06-26T20:00:29.717618+05:30"},{"city":"Jabalpur","state":"Madhya Pradesh","latitude":23.1815,"longitude":79.9864,"temp":28.9,"humidity":74,"rain":0.0,"pressure":958.6,"uv_index":8.8,"wind_gusts":23.0,"aqi":69,"pm10":24.7,"pm2_5":20.8,"no2":10.0,"co":308.0,"o3":85.0,"so2":3.7,"mosquito_risk":7,"arthritis_risk":5,"migraine_risk":7,"frizz_risk":1,"updated_at":"2026-06-26T20:00:29.717626+05:30"},{"city":"Ujjain","state":"Madhya Pradesh","latitude":23.1765,"longitude":75.7885,"temp":26.9,"humidity":82,"rain":0.0,"pressure":951.2,"uv_index":7.75,"wind_gusts":33.5,"aqi":96,"pm10":42.8,"pm2_5":27.1,"no2":7.0,"co":415.0,"o3":69.0,"so2":3.0,"mosquito_risk":7,"arthritis_risk":5,"migraine_risk":7,"frizz_risk":1,"updated_at":"2026-06-26T20:00:29.717634+05:30"},{"city":"Visakhapatnam","state":"Andhra Pradesh","latitude":17.6868,"longitude":83.2185,"temp":29.4,"humidity":84,"rain":0.0,"pressure":999.9,"uv_index":8.65,"wind_gusts":34.2,"aqi":91,"pm10":41.4,"pm2_5":32.2,"no2":27.6,"co":868.0,"o3":83.0,"so2":41.1,"mosquito_risk":7,"arthritis_risk":5,"migraine_risk":7,"frizz_risk":1,"updated_at":"2026-06-26T20:00:29.717641+05:30"},{"city":"Vijayawada","state":"Andhra Pradesh","latitude":16.5062,"longitude":80.648,"temp":30.4,"humidity":75,"rain":0.0,"pressure":999.2,"uv_index":8.4,"wind_gusts":38.2,"aqi":82,"pm10":35.6,"pm2_5":31.9,"no2":20.2,"co":395.0,"o3":66.0,"so2":7.1,"mosquito_risk":3,"arthritis_risk":5,"migraine_risk":7,"frizz_risk":1,"updated_at":"2026-06-26T20:00:29.717648+05:30"},{"city":"Guntur","state":"Andhra Pradesh","latitude":16.3067,"longitude":80.4365,"temp":29.5,"humidity":83,"rain":0.0,"pressure":1000.5,"uv_index":8.0,"wind_gusts":37.8,"aqi":82,"pm10":32.1,"pm2_5":27.0,"no2":14.3,"co":459.0,"o3":80.0,"so2":6.7,"mosquito_risk":7,"arthritis_risk":5,"migraine_risk":4,"frizz_risk":1,"updated_at":"2026-06-26T20:00:29.717655+05:30"},{"city":"Nellore","state":"Andhra Pradesh","latitude":14.4426,"longitude":79.9865,"temp":30.4,"humidity":73,"rain":0.0,"pressure":1002.6,"uv_index":8.15,"wind_gusts":40.3,"aqi":52,"pm10":25.2,"pm2_5":18.1,"no2":6.1,"co":230.0,"o3":92.0,"so2":4.4,"mosquito_risk":3,"arthritis_risk":5,"migraine_risk":4,"frizz_risk":1,"updated_at":"2026-06-26T20:00:29.717664+05:30"},{"city":"Kurnool","state":"Andhra Pradesh","latitude":15.8281,"longitude":78.0373,"temp":30.5,"humidity":61,"rain":0.0,"pressure":974.2,"uv_index":7.3,"wind_gusts":35.6,"aqi":49,"pm10":39.8,"pm2_5":22.4,"no2":7.6,"co":159.0,"o3":87.0,"so2":8.3,"mosquito_risk":3,"arthritis_risk":5,"migraine_risk":7,"frizz_risk":1,"updated_at":"2026-06-26T20:00:29.717671+05:30"},{"city":"Kakinada","state":"Andhra Pradesh","latitude":16.9891,"longitude":82.2475,"temp":30.0,"humidity":78,"rain":0.0,"pressure":1003.6,"uv_index":8.45,"wind_gusts":35.3,"aqi":85,"pm10":25.0,"pm2_5":19.6,"no2":5.7,"co":362.0,"o3":110.0,"so2":3.9,"mosquito_risk":7,"arthritis_risk":5,"migraine_risk":4,"frizz_risk":1,"updated_at":"2026-06-26T20:00:29.717678+05:30"},{"city":"Tirupati","state":"Andhra Pradesh","latitude":13.6288,"longitude":79.4192,"temp":28.6,"humidity":79,"rain":0.0,"pressure":988.6,"uv_index":8.35,"wind_gusts":38.9,"aqi":49,"pm10":31.2,"pm2_5":24.7,"no2":25.1,"co":212.0,"o3":36.0,"so2":3.0,"mosquito_risk":7,"arthritis_risk":5,"migraine_risk":7,"frizz_risk":1,"updated_at":"2026-06-26T20:00:29.717685+05:30"},{"city":"Warangal","state":"Telangana","latitude":17.9689,"longitude":79.5941,"temp":29.5,"humidity":73,"rain":0.0,"pressure":975.8,"uv_index":7.6,"wind_gusts":35.3,"aqi":72,"pm10":31.5,"pm2_5":25.7,"no2":10.1,"co":301.0,"o3":74.0,"so2":4.5,"mosquito_risk":7,"arthritis_risk":5,"migraine_risk":7,"frizz_risk":1,"updated_at":"2026-06-26T20:00:29.717692+05:30"},{"city":"Nizamabad","state":"Telangana","latitude":18.6725,"longitude":78.0941,"temp":26.7,"humidity":84,"rain":0.0,"pressure":962.7,"uv_index":7.35,"wind_gusts":36.7,"aqi":71,"pm10":36.8,"pm2_5":26.1,"no2":10.9,"co":270.0,"o3":71.0,"so2":3.7,"mosquito_risk":7,"arthritis_risk":5,"migraine_risk":7,"frizz_risk":1,"updated_at":"2026-06-26T20:00:29.717699+05:30"},{"city":"Mysore","state":"Karnataka","latitude":12.2958,"longitude":76.6396,"temp":23.6,"humidity":81,"rain":0.0,"pressure":928.1,"uv_index":9.0,"wind_gusts":43.2,"aqi":33,"pm10":10.0,"pm2_5":6.9,"no2":9.5,"co":167.0,"o3":58.0,"so2":2.3,"mosquito_risk":3,"arthritis_risk":5,"migraine_risk":7,"frizz_risk":1,"updated_at":"2026-06-26T20:00:29.717705+05:30"},{"city":"Mangalore","state":"Karnataka","latitude":12.9141,"longitude":74.856,"temp":26.6,"humidity":89,"rain":0.1,"pressure":1007.0,"uv_index":8.4,"wind_gusts":29.9,"aqi":45,"pm10":15.0,"pm2_5":9.0,"no2":5.5,"co":250.0,"o3":46.0,"so2":2.0,"mosquito_risk":10,"arthritis_risk":5,"migraine_risk":4,"frizz_risk":1,"updated_at":"2026-06-26T20:00:29.717712+05:30"},{"city":"Hubli-Dharwad","state":"Karnataka","latitude":15.3647,"longitude":75.124,"temp":24.7,"humidity":79,"rain":0.0,"pressure":939.9,"uv_index":8.45,"wind_gusts":50.8,"aqi":29,"pm10":11.0,"pm2_5":6.9,"no2":5.6,"co":142.0,"o3":51.0,"so2":1.5,"mosquito_risk":3,"arthritis_risk":5,"migraine_risk":7,"frizz_risk":1,"updated_at":"2026-06-26T20:00:29.717719+05:30"},{"city":"Belgaum","state":"Karnataka","latitude":15.8497,"longitude":74.4977,"temp":22.9,"humidity":86,"rain":0.0,"pressure":924.6,"uv_index":7.9,"wind_gusts":49.0,"aqi":27,"pm10":13.7,"pm2_5":8.4,"no2":7.5,"co":128.0,"o3":44.0,"so2":1.9,"mosquito_risk":3,"arthritis_risk":5,"migraine_risk":7,"frizz_risk":1,"updated_at":"2026-06-26T20:00:33.077569+05:30"},{"city":"Coimbatore","state":"Tamil Nadu","latitude":11.0168,"longitude":76.9558,"temp":24.5,"humidity":90,"rain":0.0,"pressure":961.1,"uv_index":8.35,"wind_gusts":49.3,"aqi":33,"pm10":8.7,"pm2_5":7.0,"no2":7.9,"co":196.0,"o3":49.0,"so2":3.0,"mosquito_risk":3,"arthritis_risk":5,"migraine_risk":7,"frizz_risk":1,"updated_at":"2026-06-26T20:00:33.077602+05:30"},{"city":"Madurai","state":"Tamil Nadu","latitude":9.9252,"longitude":78.1198,"temp":32.4,"humidity":49,"rain":0.0,"pressure":991.8,"uv_index":8.05,"wind_gusts":38.9,"aqi":71,"pm10":21.7,"pm2_5":16.3,"no2":30.8,"co":281.0,"o3":33.0,"so2":5.8,"mosquito_risk":0,"arthritis_risk":5,"migraine_risk":7,"frizz_risk":1,"updated_at":"2026-06-26T20:00:33.077613+05:30"},{"city":"Trichy","state":"Tamil Nadu","latitude":10.7905,"longitude":78.7047,"temp":31.6,"humidity":52,"rain":0.0,"pressure":998.6,"uv_index":7.7,"wind_gusts":37.8,"aqi":47,"pm10":14.8,"pm2_5":10.5,"no2":10.4,"co":250.0,"o3":59.0,"so2":3.3,"mosquito_risk":0,"arthritis_risk":5,"migraine_risk":7,"frizz_risk":1,"updated_at":"2026-06-26T20:00:33.077623+05:30"},{"city":"Salem","state":"Tamil Nadu","latitude":11.6643,"longitude":78.146,"temp":26.8,"humidity":82,"rain":0.0,"pressure":976.5,"uv_index":8.05,"wind_gusts":33.8,"aqi":65,"pm10":20.1,"pm2_5":15.3,"no2":15.5,"co":289.0,"o3":63.0,"so2":6.3,"mosquito_risk":7,"arthritis_risk":5,"migraine_risk":7,"frizz_risk":1,"updated_at":"2026-06-26T20:00:33.077632+05:30"},{"city":"Tirunelveli","state":"Tamil Nadu","latitude":8.7139,"longitude":77.7567,"temp":30.4,"humidity":57,"rain":0.0,"pressure":1002.5,"uv_index":8.65,"wind_gusts":50.4,"aqi":33,"pm10":10.0,"pm2_5":7.3,"no2":4.8,"co":142.0,"o3":59.0,"so2":1.9,"mosquito_risk":0,"arthritis_risk":5,"migraine_risk":4,"frizz_risk":1,"updated_at":"2026-06-26T20:00:33.077641+05:30"},{"city":"Vellore","state":"Tamil Nadu","latitude":12.9165,"longitude":79.1325,"temp":29.4,"humidity":64,"rain":0.1,"pressure":982.4,"uv_index":7.5,"wind_gusts":41.0,"aqi":51,"pm10":16.9,"pm2_5":12.3,"no2":9.6,"co":257.0,"o3":61.0,"so2":3.3,"mosquito_risk":10,"arthritis_risk":5,"migraine_risk":7,"frizz_risk":1,"updated_at":"2026-06-26T20:00:33.077649+05:30"},{"city":"Erode","state":"Tamil Nadu","latitude":11.341,"longitude":77.7172,"temp":29.0,"humidity":66,"rain":0.0,"pressure":988.1,"uv_index":8.15,"wind_gusts":37.1,"aqi":54,"pm10":14.3,"pm2_5":11.3,"no2":14.3,"co":199.0,"o3":54.0,"so2":3.2,"mosquito_risk":7,"arthritis_risk":5,"migraine_risk":7,"frizz_risk":1,"updated_at":"2026-06-26T20:00:33.077658+05:30"},{"city":"Kochi","state":"Kerala","latitude":9.9312,"longitude":76.2673,"temp":26.4,"humidity":92,"rain":0.1,"pressure":1009.4,"uv_index":7.85,"wind_gusts":32.4,"aqi":50,"pm10":19.9,"pm2_5":16.1,"no2":20.1,"co":178.0,"o3":29.0,"so2":4.9,"mosquito_risk":10,"arthritis_risk":0,"migraine_risk":4,"frizz_risk":1,"updated_at":"2026-06-26T20:00:33.077666+05:30"},{"city":"Thiruvananthapuram","state":"Kerala","latitude":8.5241,"longitude":76.9366,"temp":26.3,"humidity":87,"rain":0.0,"pressure":1008.7,"uv_index":8.45,"wind_gusts":44.6,"aqi":31,"pm10":12.9,"pm2_5":8.1,"no2":3.5,"co":123.0,"o3":57.0,"so2":1.5,"mosquito_risk":7,"arthritis_risk":0,"migraine_risk":4,"frizz_risk":1,"updated_at":"2026-06-26T20:00:33.077675+05:30"},{"city":"Kozhikode","state":"Kerala","latitude":11.2588,"longitude":75.7804,"temp":26.4,"humidity":90,"rain":0.0,"pressure":1008.4,"uv_index":8.05,"wind_gusts":37.1,"aqi":29,"pm10":15.1,"pm2_5":7.9,"no2":1.2,"co":204.0,"o3":57.0,"so2":0.9,"mosquito_risk":7,"arthritis_risk":0,"migraine_risk":4,"frizz_risk":1,"updated_at":"2026-06-26T20:00:33.077683+05:30"},{"city":"Thrissur","state":"Kerala","latitude":10.5276,"longitude":76.2144,"temp":26.5,"humidity":89,"rain":0.0,"pressure":1007.6,"uv_index":8.25,"wind_gusts":36.7,"aqi":50,"pm10":15.6,"pm2_5":12.7,"no2":11.9,"co":314.0,"o3":35.0,"so2":3.2,"mosquito_risk":7,"arthritis_risk":5,"migraine_risk":4,"frizz_risk":1,"updated_at":"2026-06-26T20:00:33.077692+05:30"},{"city":"Kannur","state":"Kerala","latitude":11.8745,"longitude":75.3704,"temp":26.2,"humidity":92,"rain":0.0,"pressure":1007.6,"uv_index":8.35,"wind_gusts":34.2,"aqi":36,"pm10":14.8,"pm2_5":9.5,"no2":9.9,"co":258.0,"o3":39.0,"so2":2.1,"mosquito_risk":7,"arthritis_risk":5,"migraine_risk":4,"frizz_risk":1,"updated_at":"2026-06-26T20:00:33.077702+05:30"},{"city":"Patna","state":"Bihar","latitude":25.5941,"longitude":85.1376,"temp":33.6,"humidity":68,"rain":0.0,"pressure":996.3,"uv_index":8.65,"wind_gusts":23.4,"aqi":168,"pm10":60.1,"pm2_5":52.5,"no2":22.2,"co":579.0,"o3":115.0,"so2":14.6,"mosquito_risk":3,"arthritis_risk":5,"migraine_risk":7,"frizz_risk":1,"updated_at":"2026-06-26T20:00:33.077711+05:30"},{"city":"Gaya","state":"Bihar","latitude":24.7914,"longitude":85.0002,"temp":32.2,"humidity":64,"rain":0.0,"pressure":990.0,"uv_index":7.3,"wind_gusts":24.1,"aqi":131,"pm10":50.3,"pm2_5":45.2,"no2":23.6,"co":316.0,"o3":94.0,"so2":12.5,"mosquito_risk":3,"arthritis_risk":5,"migraine_risk":7,"frizz_risk":1,"updated_at":"2026-06-26T20:00:33.077719+05:30"},{"city":"Muzaffarpur","state":"Bihar","latitude":26.1209,"longitude":85.3647,"temp":31.2,"humidity":74,"rain":0.0,"pressure":996.4,"uv_index":8.8,"wind_gusts":25.2,"aqi":196,"pm10":73.6,"pm2_5":64.0,"no2":18.1,"co":701.0,"o3":142.0,"so2":17.1,"mosquito_risk":3,"arthritis_risk":5,"migraine_risk":7,"frizz_risk":1,"updated_at":"2026-06-26T20:00:33.077728+05:30"},{"city":"Bhagalpur","state":"Bihar","latitude":25.2425,"longitude":87.0117,"temp":31.1,"humidity":75,"rain":0.0,"pressure":997.4,"uv_index":7.75,"wind_gusts":23.0,"aqi":155,"pm10":45.5,"pm2_5":40.3,"no2":11.7,"co":529.0,"o3":136.0,"so2":15.4,"mosquito_risk":3,"arthritis_risk":5,"migraine_risk":7,"frizz_risk":1,"updated_at":"2026-06-26T20:00:33.077736+05:30"},{"city":"Ranchi","state":"Jharkhand","latitude":23.3441,"longitude":85.3096,"temp":25.6,"humidity":94,"rain":0.0,"pressure":935.5,"uv_index":8.8,"wind_gusts":27.4,"aqi":151,"pm10":30.4,"pm2_5":29.6,"no2":8.3,"co":389.0,"o3":124.0,"so2":9.7,"mosquito_risk":7,"arthritis_risk":5,"migraine_risk":7,"frizz_risk":1,"updated_at":"2026-06-26T20:00:33.077744+05:30"},{"city":"Jamshedpur","state":"Jharkhand","latitude":22.8046,"longitude":86.2029,"temp":27.7,"humidity":88,"rain":0.0,"pressure":988.2,"uv_index":9.05,"wind_gusts":32.4,"aqi":154,"pm10":27.8,"pm2_5":26.2,"no2":13.6,"co":329.0,"o3":98.0,"so2":21.1,"mosquito_risk":7,"arthritis_risk":5,"migraine_risk":7,"frizz_risk":1,"updated_at":"2026-06-26T20:00:33.077753+05:30"},{"city":"Dhanbad","state":"Jharkhand","latitude":23.7957,"longitude":86.4304,"temp":29.8,"humidity":77,"rain":0.0,"pressure":977.1,"uv_index":8.85,"wind_gusts":29.5,"aqi":195,"pm10":51.6,"pm2_5":50.5,"no2":36.4,"co":953.0,"o3":111.0,"so2":89.9,"mosquito_risk":7,"arthritis_risk":5,"migraine_risk":7,"frizz_risk":1,"updated_at":"2026-06-26T20:00:33.077762+05:30"},{"city":"Bokaro","state":"Jharkhand","latitude":23.6693,"longitude":86.1511,"temp":30.3,"humidity":76,"rain":0.0,"pressure":980.8,"uv_index":8.85,"wind_gusts":30.6,"aqi":175,"pm10":52.6,"pm2_5":51.6,"no2":32.7,"co":2735.0,"o3":112.0,"so2":82.6,"mosquito_risk":3,"arthritis_risk":5,"migraine_risk":7,"frizz_risk":1,"updated_at":"2026-06-26T20:00:33.077771+05:30"},{"city":"Bhubaneswar","state":"Odisha","latitude":20.2961,"longitude":85.8245,"temp":28.9,"humidity":92,"rain":0.0,"pressure":999.3,"uv_index":9.0,"wind_gusts":31.0,"aqi":78,"pm10":25.8,"pm2_5":23.2,"no2":12.3,"co":262.0,"o3":91.0,"so2":6.8,"mosquito_risk":7,"arthritis_risk":5,"migraine_risk":7,"frizz_risk":1,"updated_at":"2026-06-26T20:00:33.077779+05:30"},{"city":"Cuttack","state":"Odisha","latitude":20.4625,"longitude":85.8828,"temp":29.2,"humidity":89,"rain":0.0,"pressure":1001.1,"uv_index":9.1,"wind_gusts":34.9,"aqi":78,"pm10":25.8,"pm2_5":23.2,"no2":12.3,"co":277.0,"o3":91.0,"so2":6.8,"mosquito_risk":7,"arthritis_risk":5,"migraine_risk":4,"frizz_risk":1,"updated_at":"2026-06-26T20:00:33.077788+05:30"},{"city":"Rourkela","state":"Odisha","latitude":22.2604,"longitude":84.8536,"temp":29.9,"humidity":73,"rain":0.0,"pressure":982.1,"uv_index":8.65,"wind_gusts":29.9,"aqi":177,"pm10":29.9,"pm2_5":28.9,"no2":9.4,"co":872.0,"o3":153.0,"so2":23.0,"mosquito_risk":7,"arthritis_risk":5,"migraine_risk":7,"frizz_risk":1,"updated_at":"2026-06-26T20:00:33.077796+05:30"},{"city":"Raipur","state":"Chhattisgarh","latitude":21.2514,"longitude":81.6296,"temp":28.1,"humidity":87,"rain":0.1,"pressure":971.7,"uv_index":8.8,"wind_gusts":28.8,"aqi":108,"pm10":27.4,"pm2_5":26.6,"no2":21.1,"co":756.0,"o3":88.0,"so2":34.1,"mosquito_risk":10,"arthritis_risk":5,"migraine_risk":7,"frizz_risk":1,"updated_at":"2026-06-26T20:00:33.077805+05:30"},{"city":"Bhilai","state":"Chhattisgarh","latitude":21.1938,"longitude":81.3509,"temp":28.0,"humidity":90,"rain":0.1,"pressure":972.1,"uv_index":8.9,"wind_gusts":33.8,"aqi":108,"pm10":29.7,"pm2_5":29.3,"no2":23.4,"co":1301.0,"o3":87.0,"so2":39.4,"mosquito_risk":10,"arthritis_risk":5,"migraine_risk":7,"frizz_risk":1,"updated_at":"2026-06-26T20:00:33.077813+05:30"},{"city":"Guwahati","state":"Assam","latitude":26.1158,"longitude":91.7086,"temp":28.5,"humidity":87,"rain":0.0,"pressure":998.5,"uv_index":8.75,"wind_gusts":32.0,"aqi":93,"pm10":18.5,"pm2_5":17.5,"no2":9.0,"co":432.0,"o3":61.0,"so2":2.6,"mosquito_risk":7,"arthritis_risk":5,"migraine_risk":7,"frizz_risk":1,"updated_at":"2026-06-26T20:00:33.077821+05:30"},{"city":"Agartala","state":"Tripura","latitude":23.8315,"longitude":91.2868,"temp":27.9,"humidity":85,"rain":0.0,"pressure":1004.0,"uv_index":8.2,"wind_gusts":25.6,"aqi":79,"pm10":29.7,"pm2_5":27.2,"no2":16.0,"co":222.0,"o3":58.0,"so2":3.8,"mosquito_risk":7,"arthritis_risk":5,"migraine_risk":4,"frizz_risk":1,"updated_at":"2026-06-26T20:00:33.077829+05:30"},{"city":"Shillong","state":"Meghalaya","latitude":25.5788,"longitude":91.8933,"temp":20.8,"humidity":92,"rain":0.0,"pressure":857.1,"uv_index":6.0,"wind_gusts":19.8,"aqi":67,"pm10":15.3,"pm2_5":14.0,"no2":8.3,"co":337.0,"o3":82.0,"so2":2.4,"mosquito_risk":3,"arthritis_risk":5,"migraine_risk":3,"frizz_risk":1,"updated_at":"2026-06-26T20:00:33.077837+05:30"},{"city":"Imphal","state":"Manipur","latitude":24.817,"longitude":93.9368,"temp":25.0,"humidity":87,"rain":0.0,"pressure":921.7,"uv_index":9.05,"wind_gusts":29.5,"aqi":54,"pm10":18.2,"pm2_5":16.9,"no2":13.9,"co":455.0,"o3":66.0,"so2":3.9,"mosquito_risk":7,"arthritis_risk":5,"migraine_risk":7,"frizz_risk":1,"updated_at":"2026-06-26T20:00:33.077846+05:30"},{"city":"Aizawl","state":"Mizoram","latitude":23.7271,"longitude":92.7176,"temp":21.0,"humidity":95,"rain":0.0,"pressure":891.6,"uv_index":8.85,"wind_gusts":20.9,"aqi":61,"pm10":19.1,"pm2_5":15.3,"no2":5.7,"co":180.0,"o3":58.0,"so2":1.3,"mosquito_risk":3,"arthritis_risk":5,"migraine_risk":7,"frizz_risk":1,"updated_at":"2026-06-26T20:00:33.077854+05:30"},{"city":"Kohima","state":"Nagaland","latitude":25.6701,"longitude":94.1077,"temp":20.6,"humidity":97,"rain":0.1,"pressure":855.0,"uv_index":8.7,"wind_gusts":32.8,"aqi":53,"pm10":13.5,"pm2_5":11.9,"no2":9.6,"co":351.0,"o3":61.0,"so2":1.8,"mosquito_risk":6,"arthritis_risk":5,"migraine_risk":7,"frizz_risk":1,"updated_at":"2026-06-26T20:00:33.077861+05:30"},{"city":"Gangtok","state":"Sikkim","latitude":27.3314,"longitude":88.6138,"temp":18.8,"humidity":98,"rain":0.1,"pressure":837.5,"uv_index":8.8,"wind_gusts":36.4,"aqi":100,"pm10":8.7,"pm2_5":8.2,"no2":8.6,"co":397.0,"o3":127.0,"so2":2.7,"mosquito_risk":6,"arthritis_risk":10,"migraine_risk":7,"frizz_risk":1,"updated_at":"2026-06-26T20:00:33.077870+05:30"},{"city":"Siliguri","state":"West Bengal","latitude":26.7271,"longitude":88.3953,"temp":27.1,"humidity":93,"rain":0.1,"pressure":990.4,"uv_index":8.7,"wind_gusts":20.9,"aqi":129,"pm10":49.5,"pm2_5":44.9,"no2":16.6,"co":793.0,"o3":114.0,"so2":7.6,"mosquito_risk":10,"arthritis_risk":5,"migraine_risk":7,"frizz_risk":1,"updated_at":"2026-06-26T20:00:36.440620+05:30"},{"city":"Durgapur","state":"West Bengal","latitude":23.5204,"longitude":87.3119,"temp":29.1,"humidity":87,"rain":0.0,"pressure":992.1,"uv_index":9.0,"wind_gusts":40.0,"aqi":153,"pm10":46.7,"pm2_5":45.2,"no2":30.6,"co":353.0,"o3":84.0,"so2":43.9,"mosquito_risk":7,"arthritis_risk":5,"migraine_risk":7,"frizz_risk":1,"updated_at":"2026-06-26T20:00:36.440654+05:30"},{"city":"Asansol","state":"West Bengal","latitude":23.6739,"longitude":86.9524,"temp":28.9,"humidity":87,"rain":0.0,"pressure":990.7,"uv_index":9.0,"wind_gusts":38.5,"aqi":166,"pm10":37.3,"pm2_5":36.2,"no2":29.8,"co":819.0,"o3":94.0,"so2":45.6,"mosquito_risk":7,"arthritis_risk":5,"migraine_risk":7,"frizz_risk":1,"updated_at":"2026-06-26T20:00:36.440674+05:30"},{"city":"Pondicherry","state":"Puducherry","latitude":11.9139,"longitude":79.8145,"temp":29.4,"humidity":79,"rain":0.0,"pressure":1006.2,"uv_index":7.35,"wind_gusts":37.1,"aqi":72,"pm10":38.5,"pm2_5":28.1,"no2":17.7,"co":287.0,"o3":104.0,"so2":7.2,"mosquito_risk":7,"arthritis_risk":5,"migraine_risk":4,"frizz_risk":1,"updated_at":"2026-06-26T20:00:36.440683+05:30"},{"city":"Port Blair","state":"Andaman and Nicobar Islands","latitude":11.6234,"longitude":92.7265,"temp":25.5,"humidity":95,"rain":0.0,"pressure":1008.1,"uv_index":8.7,"wind_gusts":36.7,"aqi":23,"pm10":4.2,"pm2_5":2.6,"no2":0.5,"co":108.0,"o3":47.0,"so2":0.3,"mosquito_risk":7,"arthritis_risk":0,"migraine_risk":4,"frizz_risk":1,"updated_at":"2026-06-26T20:00:36.440693+05:30"},{"city":"Haridwar","state":"Uttarakhand","latitude":29.9457,"longitude":78.1642,"temp":31.2,"humidity":68,"rain":0.0,"pressure":969.1,"uv_index":7.6,"wind_gusts":20.2,"aqi":135,"pm10":191.4,"pm2_5":63.1,"no2":9.7,"co":397.0,"o3":131.0,"so2":12.0,"mosquito_risk":3,"arthritis_risk":5,"migraine_risk":7,"frizz_risk":1,"updated_at":"2026-06-26T20:00:36.440701+05:30"},{"city":"Rishikesh","state":"Uttarakhand","latitude":30.0869,"longitude":78.2676,"temp":28.8,"humidity":76,"rain":0.0,"pressure":962.0,"uv_index":7.7,"wind_gusts":20.5,"aqi":111,"pm10":133.6,"pm2_5":47.5,"no2":11.7,"co":306.0,"o3":118.0,"so2":6.5,"mosquito_risk":7,"arthritis_risk":5,"migraine_risk":7,"frizz_risk":1,"updated_at":"2026-06-26T20:00:36.440710+05:30"},{"city":"Nainital","state":"Uttarakhand","latitude":29.3919,"longitude":79.4542,"temp":18.3,"humidity":85,"rain":0.0,"pressure":805.1,"uv_index":7.95,"wind_gusts":29.5,"aqi":133,"pm10":89.6,"pm2_5":34.8,"no2":7.4,"co":324.0,"o3":124.0,"so2":6.8,"mosquito_risk":3,"arthritis_risk":10,"migraine_risk":7,"frizz_risk":0,"updated_at":"2026-06-26T20:00:36.440719+05:30"},{"city":"Mussoorie","state":"Uttarakhand","latitude":30.4599,"longitude":78.0664,"temp":17.7,"humidity":94,"rain":0.0,"pressure":802.1,"uv_index":7.25,"wind_gusts":31.3,"aqi":128,"pm10":121.5,"pm2_5":44.8,"no2":18.3,"co":340.0,"o3":119.0,"so2":7.6,"mosquito_risk":3,"arthritis_risk":10,"migraine_risk":7,"frizz_risk":1,"updated_at":"2026-06-26T20:00:36.440728+05:30"},{"city":"Dharamshala","state":"Himachal Pradesh","latitude":32.219,"longitude":76.3234,"temp":23.1,"humidity":80,"rain":0.0,"pressure":867.5,"uv_index":8.3,"wind_gusts":42.8,"aqi":102,"pm10":26.1,"pm2_5":16.7,"no2":11.8,"co":370.0,"o3":91.0,"so2":1.0,"mosquito_risk":3,"arthritis_risk":5,"migraine_risk":7,"frizz_risk":1,"updated_at":"2026-06-26T20:00:36.440737+05:30"},{"city":"Dalhousie","state":"Himachal Pradesh","latitude":32.5387,"longitude":75.971,"temp":17.7,"humidity":100,"rain":0.0,"pressure":803.4,"uv_index":8.05,"wind_gusts":30.2,"aqi":155,"pm10":106.6,"pm2_5":45.1,"no2":15.4,"co":365.0,"o3":157.0,"so2":5.8,"mosquito_risk":3,"arthritis_risk":10,"migraine_risk":7,"frizz_risk":1,"updated_at":"2026-06-26T20:00:36.440746+05:30"},{"city":"Patiala","state":"Punjab","latitude":30.3398,"longitude":76.3869,"temp":34.0,"humidity":50,"rain":0.0,"pressure":973.2,"uv_index":7.7,"wind_gusts":27.4,"aqi":158,"pm10":174.2,"pm2_5":71.0,"no2":23.8,"co":406.0,"o3":84.0,"so2":8.2,"mosquito_risk":0,"arthritis_risk":5,"migraine_risk":7,"frizz_risk":1,"updated_at":"2026-06-26T20:00:36.440752+05:30"},{"city":"Bhatinda","state":"Punjab","latitude":30.211,"longitude":74.9455,"temp":34.1,"humidity":50,"rain":0.0,"pressure":978.6,"uv_index":7.55,"wind_gusts":21.6,"aqi":158,"pm10":100.6,"pm2_5":62.2,"no2":23.8,"co":365.0,"o3":101.0,"so2":11.7,"mosquito_risk":0,"arthritis_risk":5,"migraine_risk":7,"frizz_risk":1,"updated_at":"2026-06-26T20:00:36.440759+05:30"},{"city":"Rohtak","state":"Haryana","latitude":28.8955,"longitude":76.6066,"temp":33.6,"humidity":46,"rain":0.0,"pressure":976.6,"uv_index":7.7,"wind_gusts":22.7,"aqi":156,"pm10":208.2,"pm2_5":67.5,"no2":38.2,"co":286.0,"o3":58.0,"so2":6.0,"mosquito_risk":0,"arthritis_risk":5,"migraine_risk":7,"frizz_risk":1,"updated_at":"2026-06-26T20:00:36.440766+05:30"},{"city":"Panipat","state":"Haryana","latitude":29.3909,"longitude":76.9635,"temp":32.9,"humidity":68,"rain":0.0,"pressure":975.1,"uv_index":7.2,"wind_gusts":25.6,"aqi":166,"pm10":249.6,"pm2_5":79.6,"no2":30.4,"co":523.0,"o3":84.0,"so2":11.6,"mosquito_risk":3,"arthritis_risk":5,"migraine_risk":7,"frizz_risk":1,"updated_at":"2026-06-26T20:00:36.440773+05:30"},{"city":"Mathura","state":"Uttar Pradesh","latitude":27.4924,"longitude":77.6737,"temp":34.7,"humidity":50,"rain":0.0,"pressure":981.9,"uv_index":8.05,"wind_gusts":22.0,"aqi":124,"pm10":139.2,"pm2_5":49.1,"no2":45.4,"co":680.0,"o3":60.0,"so2":6.5,"mosquito_risk":0,"arthritis_risk":5,"migraine_risk":7,"frizz_risk":1,"updated_at":"2026-06-26T20:00:36.440780+05:30"},{"city":"Vrindavan","state":"Uttar Pradesh","latitude":27.5823,"longitude":77.7027,"temp":34.0,"humidity":53,"rain":0.0,"pressure":982.3,"uv_index":8.0,"wind_gusts":22.3,"aqi":124,"pm10":139.2,"pm2_5":49.1,"no2":45.4,"co":729.0,"o3":60.0,"so2":6.5,"mosquito_risk":0,"arthritis_risk":5,"migraine_risk":7,"frizz_risk":1,"updated_at":"2026-06-26T20:00:36.440787+05:30"},{"city":"Ayodhya","state":"Uttar Pradesh","latitude":26.7922,"longitude":82.1998,"temp":33.4,"humidity":61,"rain":0.0,"pressure":990.8,"uv_index":8.45,"wind_gusts":37.8,"aqi":146,"pm10":91.0,"pm2_5":56.6,"no2":24.1,"co":459.0,"o3":96.0,"so2":10.5,"mosquito_risk":3,"arthritis_risk":5,"migraine_risk":7,"frizz_risk":1,"updated_at":"2026-06-26T20:00:36.440793+05:30"},{"city":"Ratlam","state":"Madhya Pradesh","latitude":23.3315,"longitude":75.0367,"temp":26.6,"humidity":90,"rain":0.0,"pressure":952.1,"uv_index":8.4,"wind_gusts":38.2,"aqi":92,"pm10":45.8,"pm2_5":27.8,"no2":6.5,"co":255.0,"o3":65.0,"so2":2.9,"mosquito_risk":7,"arthritis_risk":5,"migraine_risk":7,"frizz_risk":1,"updated_at":"2026-06-26T20:00:36.440800+05:30"},{"city":"Sagar","state":"Madhya Pradesh","latitude":23.8388,"longitude":78.7378,"temp":28.0,"humidity":83,"rain":0.0,"pressure":947.3,"uv_index":8.15,"wind_gusts":31.3,"aqi":64,"pm10":28.2,"pm2_5":19.6,"no2":8.4,"co":190.0,"o3":82.0,"so2":2.2,"mosquito_risk":7,"arthritis_risk":5,"migraine_risk":7,"frizz_risk":1,"updated_at":"2026-06-26T20:00:36.440807+05:30"},{"city":"Satna","state":"Madhya Pradesh","latitude":24.6005,"longitude":80.8322,"temp":30.1,"humidity":79,"rain":0.0,"pressure":967.9,"uv_index":8.75,"wind_gusts":32.0,"aqi":74,"pm10":35.2,"pm2_5":23.9,"no2":5.6,"co":262.0,"o3":98.0,"so2":3.1,"mosquito_risk":3,"arthritis_risk":5,"migraine_risk":7,"frizz_risk":1,"updated_at":"2026-06-26T20:00:36.440814+05:30"},{"city":"Akola","state":"Maharashtra","latitude":20.7002,"longitude":77.0082,"temp":26.0,"humidity":95,"rain":0.2,"pressure":973.1,"uv_index":8.75,"wind_gusts":38.5,"aqi":79,"pm10":36.3,"pm2_5":21.4,"no2":7.9,"co":220.0,"o3":83.0,"so2":4.3,"mosquito_risk":10,"arthritis_risk":5,"migraine_risk":7,"frizz_risk":1,"updated_at":"2026-06-26T20:00:36.440821+05:30"},{"city":"Amravati","state":"Maharashtra","latitude":20.9374,"longitude":77.7796,"temp":25.2,"humidity":95,"rain":0.5,"pressure":965.5,"uv_index":8.1,"wind_gusts":35.3,"aqi":81,"pm10":32.1,"pm2_5":19.8,"no2":9.0,"co":219.0,"o3":80.0,"so2":4.5,"mosquito_risk":10,"arthritis_risk":5,"migraine_risk":7,"frizz_risk":1,"updated_at":"2026-06-26T20:00:36.440829+05:30"},{"city":"Latur","state":"Maharashtra","latitude":18.4088,"longitude":76.5604,"temp":26.4,"humidity":90,"rain":0.0,"pressure":937.8,"uv_index":3.65,"wind_gusts":29.9,"aqi":62,"pm10":40.3,"pm2_5":22.3,"no2":8.6,"co":176.0,"o3":73.0,"so2":4.1,"mosquito_risk":7,"arthritis_risk":5,"migraine_risk":3,"frizz_risk":1,"updated_at":"2026-06-26T20:00:36.440836+05:30"},{"city":"Nanded","state":"Maharashtra","latitude":19.1383,"longitude":77.3091,"temp":28.2,"humidity":75,"rain":0.0,"pressure":966.3,"uv_index":7.55,"wind_gusts":38.5,"aqi":73,"pm10":34.5,"pm2_5":22.4,"no2":9.3,"co":309.0,"o3":76.0,"so2":3.3,"mosquito_risk":7,"arthritis_risk":5,"migraine_risk":7,"frizz_risk":1,"updated_at":"2026-06-26T20:00:36.440843+05:30"},{"city":"Gulbarga","state":"Karnataka","latitude":17.3297,"longitude":76.8343,"temp":29.4,"humidity":56,"rain":0.0,"pressure":956.1,"uv_index":7.75,"wind_gusts":33.8,"aqi":50,"pm10":58.2,"pm2_5":28.1,"no2":16.3,"co":190.0,"o3":66.0,"so2":4.2,"mosquito_risk":4,"arthritis_risk":5,"migraine_risk":7,"frizz_risk":1,"updated_at":"2026-06-26T20:00:36.440850+05:30"},{"city":"Bidar","state":"Karnataka","latitude":17.9104,"longitude":77.5199,"temp":26.9,"humidity":70,"rain":0.0,"pressure":933.5,"uv_index":4.9,"wind_gusts":33.1,"aqi":68,"pm10":36.9,"pm2_5":24.6,"no2":13.5,"co":407.0,"o3":77.0,"so2":5.4,"mosquito_risk":7,"arthritis_risk":5,"migraine_risk":3,"frizz_risk":1,"updated_at":"2026-06-26T20:00:36.440857+05:30"},{"city":"Hospet","state":"Karnataka","latitude":15.2689,"longitude":76.3909,"temp":28.2,"humidity":60,"rain":0.0,"pressure":954.4,"uv_index":8.7,"wind_gusts":39.6,"aqi":31,"pm10":9.8,"pm2_5":7.3,"no2":9.4,"co":172.0,"o3":52.0,"so2":1.8,"mosquito_risk":4,"arthritis_risk":5,"migraine_risk":7,"frizz_risk":1,"updated_at":"2026-06-26T20:00:36.440863+05:30"},{"city":"Tirupur","state":"Tamil Nadu","latitude":11.1085,"longitude":77.3411,"temp":26.5,"humidity":78,"rain":0.0,"pressure":974.4,"uv_index":8.2,"wind_gusts":49.7,"aqi":57,"pm10":15.7,"pm2_5":12.5,"no2":16.9,"co":177.0,"o3":48.0,"so2":4.3,"mosquito_risk":7,"arthritis_risk":5,"migraine_risk":7,"frizz_risk":1,"updated_at":"2026-06-26T20:00:36.440870+05:30"},{"city":"Alappuzha","state":"Kerala","latitude":9.4981,"longitude":76.3388,"temp":26.4,"humidity":91,"rain":0.0,"pressure":1009.6,"uv_index":7.9,"wind_gusts":37.1,"aqi":43,"pm10":15.8,"pm2_5":11.2,"no2":11.3,"co":86.0,"o3":45.0,"so2":3.1,"mosquito_risk":7,"arthritis_risk":0,"migraine_risk":4,"frizz_risk":1,"updated_at":"2026-06-26T20:00:36.440876+05:30"},{"city":"Munnar","state":"Kerala","latitude":10.0889,"longitude":77.0595,"temp":16.5,"humidity":99,"rain":0.0,"pressure":856.7,"uv_index":8.7,"wind_gusts":37.1,"aqi":26,"pm10":7.9,"pm2_5":6.4,"no2":8.1,"co":111.0,"o3":41.0,"so2":1.7,"mosquito_risk":3,"arthritis_risk":10,"migraine_risk":7,"frizz_risk":1,"updated_at":"2026-06-26T20:00:36.440884+05:30"},{"city":"Silchar","state":"Assam","latitude":24.8333,"longitude":92.7789,"temp":29.7,"humidity":82,"rain":0.0,"pressure":1002.6,"uv_index":8.8,"wind_gusts":21.6,"aqi":86,"pm10":38.3,"pm2_5":29.4,"no2":8.1,"co":315.0,"o3":91.0,"so2":4.8,"mosquito_risk":7,"arthritis_risk":5,"migraine_risk":4,"frizz_risk":1,"updated_at":"2026-06-26T20:00:36.440890+05:30"},{"city":"Dibrugarh","state":"Assam","latitude":27.4728,"longitude":94.912,"temp":26.7,"humidity":93,"rain":0.1,"pressure":992.6,"uv_index":8.9,"wind_gusts":25.2,"aqi":87,"pm10":34.5,"pm2_5":29.9,"no2":8.9,"co":338.0,"o3":90.0,"so2":2.4,"mosquito_risk":10,"arthritis_risk":5,"migraine_risk":7,"frizz_risk":1,"updated_at":"2026-06-26T20:00:36.440897+05:30"}]