[{"city":"Delhi","state":"Delhi","latitude":28.6139,"longitude":77.209,"temp":27.8,"humidity":86,"rain":0.0,"pressure":977.8,"uv_index":5.65,"wind_gusts":28.1,"aqi":84,"pm10":22.5,"pm2_5":22.5,"no2":35.1,"co":822.0,"o3":72.0,"so2":21.9,"mosquito_risk":7,"arthritis_risk":5,"migraine_risk":3,"frizz_risk":1,"updated_at":"2026-07-21T21:17:22.035620+05:30"},{"city":"Mumbai","state":"Maharashtra","latitude":19.076,"longitude":72.8777,"temp":25.7,"humidity":93,"rain":0.2,"pressure":1006.3,"uv_index":7.15,"wind_gusts":55.4,"aqi":63,"pm10":25.0,"pm2_5":12.3,"no2":7.4,"co":221.0,"o3":43.0,"so2":4.8,"mosquito_risk":10,"arthritis_risk":5,"migraine_risk":4,"frizz_risk":1,"updated_at":"2026-07-21T21:17:22.035658+05:30"},{"city":"Bangalore","state":"Karnataka","latitude":12.9716,"longitude":77.5946,"temp":23.0,"humidity":76,"rain":0.0,"pressure":912.8,"uv_index":8.4,"wind_gusts":47.2,"aqi":39,"pm10":10.5,"pm2_5":8.1,"no2":17.7,"co":395.0,"o3":40.0,"so2":4.9,"mosquito_risk":3,"arthritis_risk":5,"migraine_risk":7,"frizz_risk":1,"updated_at":"2026-07-21T21:17:22.035673+05:30"},{"city":"Hyderabad","state":"Telangana","latitude":17.385,"longitude":78.4867,"temp":23.2,"humidity":91,"rain":0.2,"pressure":952.1,"uv_index":3.95,"wind_gusts":40.7,"aqi":46,"pm10":22.2,"pm2_5":13.4,"no2":9.4,"co":321.0,"o3":57.0,"so2":4.0,"mosquito_risk":6,"arthritis_risk":5,"migraine_risk":3,"frizz_risk":1,"updated_at":"2026-07-21T21:17:22.035682+05:30"},{"city":"Chennai","state":"Tamil Nadu","latitude":13.0827,"longitude":80.2707,"temp":29.1,"humidity":80,"rain":0.0,"pressure":1007.3,"uv_index":7.75,"wind_gusts":31.0,"aqi":103,"pm10":32.2,"pm2_5":23.4,"no2":15.3,"co":456.0,"o3":99.0,"so2":9.9,"mosquito_risk":7,"arthritis_risk":5,"migraine_risk":4,"frizz_risk":1,"updated_at":"2026-07-21T21:17:22.035690+05:30"},{"city":"Kolkata","state":"West Bengal","latitude":22.5726,"longitude":88.3639,"temp":26.2,"humidity":95,"rain":0.1,"pressure":1002.9,"uv_index":5.65,"wind_gusts":29.5,"aqi":59,"pm10":19.6,"pm2_5":18.7,"no2":14.2,"co":438.0,"o3":59.0,"so2":9.7,"mosquito_risk":10,"arthritis_risk":5,"migraine_risk":0,"frizz_risk":1,"updated_at":"2026-07-21T21:17:22.035698+05:30"},{"city":"Pune","state":"Maharashtra","latitude":18.5204,"longitude":73.8567,"temp":22.6,"humidity":93,"rain":0.1,"pressure":945.7,"uv_index":2.7,"wind_gusts":55.8,"aqi":26,"pm10":5.1,"pm2_5":3.8,"no2":8.8,"co":160.0,"o3":36.0,"so2":4.4,"mosquito_risk":6,"arthritis_risk":5,"migraine_risk":3,"frizz_risk":1,"updated_at":"2026-07-21T21:17:22.035704+05:30"},{"city":"Ahmedabad","state":"Gujarat","latitude":23.0225,"longitude":72.5714,"temp":27.5,"humidity":86,"rain":0.1,"pressure":996.3,"uv_index":4.9,"wind_gusts":33.5,"aqi":65,"pm10":19.5,"pm2_5":12.5,"no2":12.5,"co":187.0,"o3":52.0,"so2":5.2,"mosquito_risk":10,"arthritis_risk":5,"migraine_risk":3,"frizz_risk":1,"updated_at":"2026-07-21T21:17:22.035710+05:30"},{"city":"Jaipur","state":"Rajasthan","latitude":26.9124,"longitude":75.7873,"temp":26.8,"humidity":90,"rain":0.0,"pressure":954.1,"uv_index":1.1,"wind_gusts":36.0,"aqi":60,"pm10":33.4,"pm2_5":19.6,"no2":24.1,"co":635.0,"o3":50.0,"so2":6.7,"mosquito_risk":7,"arthritis_risk":5,"migraine_risk":3,"frizz_risk":1,"updated_at":"2026-07-21T21:17:22.035717+05:30"},{"city":"Lucknow","state":"Uttar Pradesh","latitude":26.8467,"longitude":80.9462,"temp":26.4,"humidity":93,"rain":0.0,"pressure":989.8,"uv_index":6.05,"wind_gusts":42.1,"aqi":83,"pm10":29.4,"pm2_5":29.1,"no2":11.7,"co":402.0,"o3":103.0,"so2":10.2,"mosquito_risk":7,"arthritis_risk":5,"migraine_risk":7,"frizz_risk":1,"updated_at":"2026-07-21T21:17:22.035728+05:30"},{"city":"Kanpur","state":"Uttar Pradesh","latitude":26.4499,"longitude":80.3319,"temp":26.7,"humidity":92,"rain":0.0,"pressure":987.4,"uv_index":7.35,"wind_gusts":32.8,"aqi":72,"pm10":19.6,"pm2_5":19.5,"no2":14.0,"co":390.0,"o3":91.0,"so2":7.9,"mosquito_risk":7,"arthritis_risk":5,"migraine_risk":7,"frizz_risk":1,"updated_at":"2026-07-21T21:17:22.035737+05:30"},{"city":"Chandigarh","state":"Chandigarh","latitude":30.7333,"longitude":76.7794,"temp":27.8,"humidity":84,"rain":0.0,"pressure":964.4,"uv_index":6.0,"wind_gusts":33.1,"aqi":66,"pm10":43.0,"pm2_5":42.7,"no2":49.4,"co":655.0,"o3":61.0,"so2":11.4,"mosquito_risk":7,"arthritis_risk":5,"migraine_risk":3,"frizz_risk":1,"updated_at":"2026-07-21T21:17:22.035744+05:30"},{"city":"Srinagar","state":"Jammu and Kashmir","latitude":34.0837,"longitude":74.7973,"temp":18.8,"humidity":98,"rain":0.4,"pressure":839.8,"uv_index":7.0,"wind_gusts":22.7,"aqi":56,"pm10":18.1,"pm2_5":17.7,"no2":35.1,"co":801.0,"o3":38.0,"so2":5.0,"mosquito_risk":6,"arthritis_risk":10,"migraine_risk":7,"frizz_risk":1,"updated_at":"2026-07-21T21:17:22.035750+05:30"},{"city":"Jammu","state":"Jammu and Kashmir","latitude":32.7266,"longitude":74.857,"temp":24.7,"humidity":91,"rain":0.1,"pressure":968.1,"uv_index":5.8,"wind_gusts":32.4,"aqi":89,"pm10":33.6,"pm2_5":27.5,"no2":42.6,"co":517.0,"o3":41.0,"so2":6.1,"mosquito_risk":6,"arthritis_risk":5,"migraine_risk":3,"frizz_risk":1,"updated_at":"2026-07-21T21:17:22.035757+05:30"},{"city":"Amritsar","state":"Punjab","latitude":31.634,"longitude":74.8723,"temp":26.7,"humidity":91,"rain":0.0,"pressure":975.7,"uv_index":8.25,"wind_gusts":42.5,"aqi":93,"pm10":33.5,"pm2_5":33.1,"no2":27.2,"co":692.0,"o3":63.0,"so2":6.7,"mosquito_risk":7,"arthritis_risk":5,"migraine_risk":7,"frizz_risk":1,"updated_at":"2026-07-21T21:17:22.035763+05:30"},{"city":"Ludhiana","state":"Punjab","latitude":30.901,"longitude":75.8573,"temp":28.2,"humidity":88,"rain":0.0,"pressure":973.8,"uv_index":3.2,"wind_gusts":40.3,"aqi":76,"pm10":43.5,"pm2_5":43.4,"no2":33.2,"co":1143.0,"o3":69.0,"so2":11.2,"mosquito_risk":7,"arthritis_risk":5,"migraine_risk":3,"frizz_risk":1,"updated_at":"2026-07-21T21:17:22.035769+05:30"},{"city":"Jalandhar","state":"Punjab","latitude":31.326,"longitude":75.5762,"temp":28.0,"humidity":91,"rain":0.0,"pressure":974.7,"uv_index":6.1,"wind_gusts":36.0,"aqi":92,"pm10":38.9,"pm2_5":38.9,"no2":33.8,"co":1032.0,"o3":64.0,"so2":11.5,"mosquito_risk":7,"arthritis_risk":5,"migraine_risk":7,"frizz_risk":1,"updated_at":"2026-07-21T21:17:22.035775+05:30"},{"city":"Dehradun","state":"Uttarakhand","latitude":30.6284,"longitude":78.0322,"temp":19.2,"humidity":100,"rain":0.0,"pressure":829.3,"uv_index":3.65,"wind_gusts":25.2,"aqi":58,"pm10":7.5,"pm2_5":7.5,"no2":18.8,"co":268.0,"o3":87.0,"so2":1.6,"mosquito_risk":3,"arthritis_risk":10,"migraine_risk":3,"frizz_risk":1,"updated_at":"2026-07-21T21:17:22.035781+05:30"},{"city":"Shimla","state":"Himachal Pradesh","latitude":31.1048,"longitude":77.1734,"temp":15.7,"humidity":98,"rain":0.0,"pressure":782.5,"uv_index":6.1,"wind_gusts":21.2,"aqi":48,"pm10":6.0,"pm2_5":5.9,"no2":16.6,"co":629.0,"o3":78.0,"so2":1.3,"mosquito_risk":3,"arthritis_risk":10,"migraine_risk":7,"frizz_risk":0,"updated_at":"2026-07-21T21:17:22.035787+05:30"},{"city":"Manali","state":"Himachal Pradesh","latitude":32.2396,"longitude":77.1887,"temp":21.6,"humidity":79,"rain":0.0,"pressure":817.8,"uv_index":5.8,"wind_gusts":25.9,"aqi":47,"pm10":3.2,"pm2_5":3.1,"no2":31.1,"co":248.0,"o3":50.0,"so2":0.6,"mosquito_risk":3,"arthritis_risk":5,"migraine_risk":3,"frizz_risk":1,"updated_at":"2026-07-21T21:17:22.035795+05:30"},{"city":"Gurgaon","state":"Haryana","latitude":28.4595,"longitude":77.0266,"temp":27.5,"humidity":87,"rain":0.0,"pressure":976.1,"uv_index":5.9,"wind_gusts":28.4,"aqi":83,"pm10":21.7,"pm2_5":21.6,"no2":33.9,"co":750.0,"o3":68.0,"so2":15.1,"mosquito_risk":7,"arthritis_risk":5,"migraine_risk":3,"frizz_risk":1,"updated_at":"2026-07-21T21:17:22.035801+05:30"},{"city":"Noida","state":"Uttar Pradesh","latitude":28.5355,"longitude":77.391,"temp":27.8,"humidity":86,"rain":0.0,"pressure":979.4,"uv_index":6.25,"wind_gusts":34.2,"aqi":83,"pm10":21.7,"pm2_5":21.6,"no2":33.9,"co":718.0,"o3":68.0,"so2":15.1,"mosquito_risk":7,"arthritis_risk":5,"migraine_risk":7,"frizz_risk":1,"updated_at":"2026-07-21T21:17:22.035807+05:30"},{"city":"Ghaziabad","state":"Uttar Pradesh","latitude":28.6692,"longitude":77.4538,"temp":27.6,"humidity":87,"rain":0.1,"pressure":977.7,"uv_index":2.9,"wind_gusts":34.9,"aqi":70,"pm10":16.9,"pm2_5":16.9,"no2":14.3,"co":410.0,"o3":82.0,"so2":7.1,"mosquito_risk":10,"arthritis_risk":5,"migraine_risk":3,"frizz_risk":1,"updated_at":"2026-07-21T21:17:22.035815+05:30"},{"city":"Faridabad","state":"Haryana","latitude":28.4089,"longitude":77.3178,"temp":27.8,"humidity":86,"rain":0.0,"pressure":978.6,"uv_index":6.7,"wind_gusts":33.8,"aqi":83,"pm10":21.7,"pm2_5":21.6,"no2":33.9,"co":581.0,"o3":68.0,"so2":15.1,"mosquito_risk":7,"arthritis_risk":5,"migraine_risk":7,"frizz_risk":1,"updated_at":"2026-07-21T21:17:22.035821+05:30"},{"city":"Meerut","state":"Uttar Pradesh","latitude":28.9845,"longitude":77.7064,"temp":28.0,"humidity":84,"rain":0.0,"pressure":977.0,"uv_index":6.45,"wind_gusts":44.3,"aqi":70,"pm10":16.9,"pm2_5":16.9,"no2":14.3,"co":426.0,"o3":82.0,"so2":7.1,"mosquito_risk":7,"arthritis_risk":5,"migraine_risk":7,"frizz_risk":1,"updated_at":"2026-07-21T21:17:22.035827+05:30"},{"city":"Agra","state":"Uttar Pradesh","latitude":27.1767,"longitude":78.0081,"temp":27.0,"humidity":93,"rain":0.0,"pressure":982.2,"uv_index":6.95,"wind_gusts":24.1,"aqi":69,"pm10":26.8,"pm2_5":23.9,"no2":24.5,"co":348.0,"o3":67.0,"so2":8.0,"mosquito_risk":7,"arthritis_risk":5,"migraine_risk":7,"frizz_risk":1,"updated_at":"2026-07-21T21:17:22.035833+05:30"},{"city":"Varanasi","state":"Uttar Pradesh","latitude":25.3176,"longitude":82.9739,"temp":26.0,"humidity":95,"rain":0.1,"pressure":994.0,"uv_index":8.6,"wind_gusts":40.7,"aqi":81,"pm10":28.9,"pm2_5":28.6,"no2":16.0,"co":988.0,"o3":78.0,"so2":12.1,"mosquito_risk":10,"arthritis_risk":5,"migraine_risk":7,"frizz_risk":1,"updated_at":"2026-07-21T21:17:22.035840+05:30"},{"city":"Prayagraj","state":"Uttar Pradesh","latitude":25.4358,"longitude":81.8463,"temp":26.5,"humidity":94,"rain":0.0,"pressure":992.3,"uv_index":7.7,"wind_gusts":35.6,"aqi":111,"pm10":34.3,"pm2_5":33.9,"no2":14.9,"co":500.0,"o3":97.0,"so2":12.8,"mosquito_risk":7,"arthritis_risk":5,"migraine_risk":7,"frizz_risk":1,"updated_at":"2026-07-21T21:17:22.035846+05:30"},{"city":"Gorakhpur","state":"Uttar Pradesh","latitude":26.7606,"longitude":83.3732,"temp":27.7,"humidity":84,"rain":0.0,"pressure":994.7,"uv_index":7.55,"wind_gusts":41.4,"aqi":69,"pm10":24.5,"pm2_5":24.3,"no2":11.5,"co":328.0,"o3":84.0,"so2":7.0,"mosquito_risk":7,"arthritis_risk":5,"migraine_risk":7,"frizz_risk":1,"updated_at":"2026-07-21T21:17:22.035852+05:30"},{"city":"Bareilly","state":"Uttar Pradesh","latitude":28.367,"longitude":79.4304,"temp":27.6,"humidity":88,"rain":0.0,"pressure":983.0,"uv_index":4.5,"wind_gusts":50.8,"aqi":59,"pm10":16.3,"pm2_5":16.2,"no2":10.1,"co":411.0,"o3":86.0,"so2":4.8,"mosquito_risk":7,"arthritis_risk":5,"migraine_risk":3,"frizz_risk":1,"updated_at":"2026-07-21T21:17:22.035860+05:30"},{"city":"Aligarh","state":"Uttar Pradesh","latitude":27.8974,"longitude":78.088,"temp":27.2,"humidity":91,"rain":0.0,"pressure":980.5,"uv_index":7.05,"wind_gusts":33.8,"aqi":72,"pm10":15.7,"pm2_5":15.6,"no2":15.9,"co":392.0,"o3":76.0,"so2":6.7,"mosquito_risk":7,"arthritis_risk":5,"migraine_risk":7,"frizz_risk":1,"updated_at":"2026-07-21T21:17:22.035866+05:30"},{"city":"Moradabad","state":"Uttar Pradesh","latitude":28.8386,"longitude":78.7733,"temp":27.4,"humidity":89,"rain":0.0,"pressure":979.5,"uv_index":6.15,"wind_gusts":52.2,"aqi":61,"pm10":16.2,"pm2_5":16.1,"no2":10.6,"co":402.0,"o3":90.0,"so2":7.5,"mosquito_risk":7,"arthritis_risk":5,"migraine_risk":7,"frizz_risk":1,"updated_at":"2026-07-21T21:17:22.035872+05:30"},{"city":"Saharanpur","state":"Uttar Pradesh","latitude":29.9637,"longitude":77.546,"temp":28.0,"humidity":86,"rain":0.0,"pressure":971.6,"uv_index":6.35,"wind_gusts":46.1,"aqi":74,"pm10":18.3,"pm2_5":18.3,"no2":13.6,"co":407.0,"o3":78.0,"so2":6.6,"mosquito_risk":7,"arthritis_risk":5,"migraine_risk":7,"frizz_risk":1,"updated_at":"2026-07-21T21:17:22.035878+05:30"},{"city":"Jhansi","state":"Uttar Pradesh","latitude":25.4484,"longitude":78.5685,"temp":28.0,"humidity":87,"rain":0.0,"pressure":972.3,"uv_index":5.5,"wind_gusts":16.9,"aqi":84,"pm10":31.0,"pm2_5":21.6,"no2":12.1,"co":337.0,"o3":91.0,"so2":10.7,"mosquito_risk":7,"arthritis_risk":5,"migraine_risk":3,"frizz_risk":1,"updated_at":"2026-07-21T21:17:25.432906+05:30"},{"city":"Surat","state":"Gujarat","latitude":21.1702,"longitude":72.8311,"temp":26.5,"humidity":92,"rain":0.1,"pressure":1002.1,"uv_index":4.35,"wind_gusts":50.4,"aqi":70,"pm10":27.1,"pm2_5":18.5,"no2":24.3,"co":318.0,"o3":27.0,"so2":35.9,"mosquito_risk":10,"arthritis_risk":5,"migraine_risk":0,"frizz_risk":1,"updated_at":"2026-07-21T21:17:25.432934+05:30"},{"city":"Vadodara","state":"Gujarat","latitude":22.3072,"longitude":73.1812,"temp":26.4,"humidity":93,"rain":0.0,"pressure":998.9,"uv_index":4.95,"wind_gusts":34.2,"aqi":61,"pm10":15.3,"pm2_5":11.0,"no2":17.1,"co":215.0,"o3":36.0,"so2":7.9,"mosquito_risk":7,"arthritis_risk":5,"migraine_risk":3,"frizz_risk":1,"updated_at":"2026-07-21T21:17:25.432944+05:30"},{"city":"Rajkot","state":"Gujarat","latitude":22.3039,"longitude":70.8022,"temp":27.1,"humidity":85,"rain":0.0,"pressure":988.5,"uv_index":5.25,"wind_gusts":41.8,"aqi":60,"pm10":26.2,"pm2_5":14.1,"no2":7.6,"co":132.0,"o3":42.0,"so2":5.4,"mosquito_risk":7,"arthritis_risk":5,"migraine_risk":3,"frizz_risk":1,"updated_at":"2026-07-21T21:17:25.432951+05:30"},{"city":"Thane","state":"Maharashtra","latitude":19.2183,"longitude":72.9781,"temp":25.1,"humidity":96,"rain":0.1,"pressure":1005.5,"uv_index":6.25,"wind_gusts":45.0,"aqi":63,"pm10":25.0,"pm2_5":12.3,"no2":7.4,"co":227.0,"o3":43.0,"so2":4.8,"mosquito_risk":10,"arthritis_risk":5,"migraine_risk":4,"frizz_risk":1,"updated_at":"2026-07-21T21:17:25.432958+05:30"},{"city":"Nagpur","state":"Maharashtra","latitude":21.1458,"longitude":79.0882,"temp":24.8,"humidity":96,"rain":0.4,"pressure":969.7,"uv_index":1.0,"wind_gusts":33.8,"aqi":51,"pm10":8.6,"pm2_5":7.8,"no2":17.2,"co":232.0,"o3":30.0,"so2":13.0,"mosquito_risk":6,"arthritis_risk":5,"migraine_risk":3,"frizz_risk":1,"updated_at":"2026-07-21T21:17:25.432965+05:30"},{"city":"Nashik","state":"Maharashtra","latitude":19.9975,"longitude":73.7898,"temp":22.7,"humidity":95,"rain":0.1,"pressure":941.6,"uv_index":1.6,"wind_gusts":58.0,"aqi":23,"pm10":1.8,"pm2_5":1.4,"no2":7.8,"co":148.0,"o3":40.0,"so2":2.5,"mosquito_risk":6,"arthritis_risk":5,"migraine_risk":3,"frizz_risk":1,"updated_at":"2026-07-21T21:17:25.432971+05:30"},{"city":"Aurangabad","state":"Maharashtra","latitude":19.8762,"longitude":75.3433,"temp":23.1,"humidity":93,"rain":0.1,"pressure":940.9,"uv_index":2.85,"wind_gusts":50.4,"aqi":28,"pm10":5.7,"pm2_5":4.3,"no2":7.7,"co":174.0,"o3":43.0,"so2":4.6,"mosquito_risk":6,"arthritis_risk":5,"migraine_risk":3,"frizz_risk":1,"updated_at":"2026-07-21T21:17:25.432978+05:30"},{"city":"Solapur","state":"Maharashtra","latitude":17.6599,"longitude":75.9064,"temp":24.0,"humidity":92,"rain":0.1,"pressure":956.4,"uv_index":4.6,"wind_gusts":52.2,"aqi":33,"pm10":8.4,"pm2_5":5.4,"no2":5.0,"co":136.0,"o3":40.0,"so2":2.2,"mosquito_risk":6,"arthritis_risk":5,"migraine_risk":3,"frizz_risk":1,"updated_at":"2026-07-21T21:17:25.432984+05:30"},{"city":"Kolhapur","state":"Maharashtra","latitude":16.705,"longitude":74.2433,"temp":21.9,"humidity":96,"rain":0.2,"pressure":947.5,"uv_index":6.4,"wind_gusts":54.4,"aqi":31,"pm10":7.7,"pm2_5":5.6,"no2":7.2,"co":153.0,"o3":34.0,"so2":2.4,"mosquito_risk":6,"arthritis_risk":5,"migraine_risk":7,"frizz_risk":1,"updated_at":"2026-07-21T21:17:25.432991+05:30"},{"city":"Goa","state":"Goa","latitude":15.2993,"longitude":74.124,"temp":23.5,"humidity":98,"rain":0.1,"pressure":999.6,"uv_index":7.35,"wind_gusts":36.7,"aqi":57,"pm10":31.5,"pm2_5":15.2,"no2":4.3,"co":243.0,"o3":38.0,"so2":1.2,"mosquito_risk":6,"arthritis_risk":5,"migraine_risk":7,"frizz_risk":1,"updated_at":"2026-07-21T21:17:25.432997+05:30"},{"city":"Jodhpur","state":"Rajasthan","latitude":26.2389,"longitude":73.0243,"temp":28.4,"humidity":84,"rain":0.1,"pressure":976.5,"uv_index":7.15,"wind_gusts":35.6,"aqi":89,"pm10":92.4,"pm2_5":36.7,"no2":14.9,"co":255.0,"o3":55.0,"so2":2.6,"mosquito_risk":10,"arthritis_risk":5,"migraine_risk":7,"frizz_risk":1,"updated_at":"2026-07-21T21:17:25.433003+05:30"},{"city":"Udaipur","state":"Rajasthan","latitude":24.5854,"longitude":73.7125,"temp":25.1,"humidity":96,"rain":0.0,"pressure":940.8,"uv_index":3.3,"wind_gusts":29.5,"aqi":55,"pm10":16.5,"pm2_5":11.3,"no2":8.9,"co":241.0,"o3":54.0,"so2":3.7,"mosquito_risk":7,"arthritis_risk":5,"migraine_risk":3,"frizz_risk":1,"updated_at":"2026-07-21T21:17:25.433010+05:30"},{"city":"Kota","state":"Rajasthan","latitude":25.2138,"longitude":75.8648,"temp":26.5,"humidity":97,"rain":0.0,"pressure":973.0,"uv_index":2.6,"wind_gusts":23.4,"aqi":59,"pm10":16.4,"pm2_5":13.6,"no2":15.5,"co":472.0,"o3":57.0,"so2":5.7,"mosquito_risk":7,"arthritis_risk":5,"migraine_risk":3,"frizz_risk":1,"updated_at":"2026-07-21T21:17:25.433016+05:30"},{"city":"Bikaner","state":"Rajasthan","latitude":28.0229,"longitude":73.3119,"temp":29.0,"humidity":79,"rain":0.0,"pressure":975.1,"uv_index":8.0,"wind_gusts":34.6,"aqi":82,"pm10":82.7,"pm2_5":32.1,"no2":4.1,"co":167.0,"o3":81.0,"so2":5.5,"mosquito_risk":7,"arthritis_risk":5,"migraine_risk":7,"frizz_risk":1,"updated_at":"2026-07-21T21:17:25.433023+05:30"},{"city":"Ajmer","state":"Rajasthan","latitude":26.4499,"longitude":74.6399,"temp":26.9,"humidity":86,"rain":0.0,"pressure":949.0,"uv_index":4.55,"wind_gusts":31.0,"aqi":59,"pm10":28.9,"pm2_5":19.3,"no2":16.5,"co":249.0,"o3":54.0,"so2":3.5,"mosquito_risk":7,"arthritis_risk":5,"migraine_risk":3,"frizz_risk":1,"updated_at":"2026-07-21T21:17:25.433030+05:30"},{"city":"Gwalior","state":"Madhya Pradesh","latitude":26.2183,"longitude":78.1828,"temp":26.0,"humidity":93,"rain":0.2,"pressure":977.8,"uv_index":7.4,"wind_gusts":18.7,"aqi":60,"pm10":21.2,"pm2_5":15.8,"no2":11.3,"co":276.0,"o3":74.0,"so2":4.0,"mosquito_risk":10,"arthritis_risk":5,"migraine_risk":7,"frizz_risk":1,"updated_at":"2026-07-21T21:17:25.433037+05:30"},{"city":"Indore","state":"Madhya Pradesh","latitude":22.7196,"longitude":75.8577,"temp":23.9,"humidity":95,"rain":0.1,"pressure":943.0,"uv_index":5.85,"wind_gusts":32.8,"aqi":53,"pm10":18.3,"pm2_5":15.3,"no2":17.6,"co":392.0,"o3":38.0,"so2":7.2,"mosquito_risk":6,"arthritis_risk":5,"migraine_risk":3,"frizz_risk":1,"updated_at":"2026-07-21T21:17:25.433043+05:30"},{"city":"Bhopal","state":"Madhya Pradesh","latitude":23.2599,"longitude":77.4126,"temp":23.8,"humidity":97,"rain":0.0,"pressure":948.4,"uv_index":1.55,"wind_gusts":31.0,"aqi":55,"pm10":10.0,"pm2_5":9.4,"no2":10.4,"co":383.0,"o3":46.0,"so2":3.0,"mosquito_risk":3,"arthritis_risk":5,"migraine_risk":3,"frizz_risk":1,"updated_at":"2026-07-21T21:17:25.433050+05:30"},{"city":"Jabalpur","state":"Madhya Pradesh","latitude":23.1815,"longitude":79.9864,"temp":24.5,"humidity":98,"rain":0.0,"pressure":957.0,"uv_index":5.8,"wind_gusts":20.9,"aqi":48,"pm10":8.1,"pm2_5":8.0,"no2":11.6,"co":291.0,"o3":43.0,"so2":4.1,"mosquito_risk":3,"arthritis_risk":5,"migraine_risk":3,"frizz_risk":1,"updated_at":"2026-07-21T21:17:25.433056+05:30"},{"city":"Ujjain","state":"Madhya Pradesh","latitude":23.1765,"longitude":75.7885,"temp":24.2,"humidity":92,"rain":0.0,"pressure":948.5,"uv_index":4.2,"wind_gusts":29.9,"aqi":52,"pm10":17.8,"pm2_5":14.3,"no2":10.5,"co":371.0,"o3":46.0,"so2":6.7,"mosquito_risk":3,"arthritis_risk":5,"migraine_risk":3,"frizz_risk":1,"updated_at":"2026-07-21T21:17:25.433063+05:30"},{"city":"Visakhapatnam","state":"Andhra Pradesh","latitude":17.6868,"longitude":83.2185,"temp":26.2,"humidity":88,"rain":0.0,"pressure":1000.7,"uv_index":8.75,"wind_gusts":39.6,"aqi":61,"pm10":17.2,"pm2_5":14.6,"no2":26.9,"co":325.0,"o3":27.0,"so2":39.5,"mosquito_risk":7,"arthritis_risk":5,"migraine_risk":4,"frizz_risk":1,"updated_at":"2026-07-21T21:17:25.433070+05:30"},{"city":"Vijayawada","state":"Andhra Pradesh","latitude":16.5062,"longitude":80.648,"temp":27.1,"humidity":83,"rain":0.1,"pressure":1001.7,"uv_index":5.0,"wind_gusts":52.2,"aqi":61,"pm10":37.6,"pm2_5":28.2,"no2":19.9,"co":261.0,"o3":28.0,"so2":8.4,"mosquito_risk":10,"arthritis_risk":5,"migraine_risk":0,"frizz_risk":1,"updated_at":"2026-07-21T21:17:25.433076+05:30"},{"city":"Guntur","state":"Andhra Pradesh","latitude":16.3067,"longitude":80.4365,"temp":28.1,"humidity":78,"rain":0.0,"pressure":1003.1,"uv_index":4.75,"wind_gusts":50.8,"aqi":59,"pm10":44.8,"pm2_5":33.6,"no2":26.7,"co":326.0,"o3":20.0,"so2":9.6,"mosquito_risk":7,"arthritis_risk":5,"migraine_risk":0,"frizz_risk":1,"updated_at":"2026-07-21T21:17:25.433083+05:30"},{"city":"Nellore","state":"Andhra Pradesh","latitude":14.4426,"longitude":79.9865,"temp":29.8,"humidity":65,"rain":0.0,"pressure":1005.3,"uv_index":6.8,"wind_gusts":42.5,"aqi":55,"pm10":36.9,"pm2_5":24.9,"no2":12.5,"co":262.0,"o3":85.0,"so2":5.9,"mosquito_risk":7,"arthritis_risk":5,"migraine_risk":4,"frizz_risk":1,"updated_at":"2026-07-21T21:17:25.433090+05:30"},{"city":"Kurnool","state":"Andhra Pradesh","latitude":15.8281,"longitude":78.0373,"temp":26.2,"humidity":81,"rain":0.1,"pressure":977.4,"uv_index":4.55,"wind_gusts":50.0,"aqi":46,"pm10":22.3,"pm2_5":13.6,"no2":12.5,"co":174.0,"o3":46.0,"so2":4.1,"mosquito_risk":10,"arthritis_risk":5,"migraine_risk":3,"frizz_risk":1,"updated_at":"2026-07-21T21:17:25.433098+05:30"},{"city":"Kakinada","state":"Andhra Pradesh","latitude":16.9891,"longitude":82.2475,"temp":28.3,"humidity":78,"rain":0.0,"pressure":1005.6,"uv_index":6.85,"wind_gusts":55.1,"aqi":55,"pm10":28.4,"pm2_5":14.7,"no2":8.0,"co":219.0,"o3":52.0,"so2":5.8,"mosquito_risk":7,"arthritis_risk":5,"migraine_risk":4,"frizz_risk":1,"updated_at":"2026-07-21T21:17:25.433104+05:30"},{"city":"Tirupati","state":"Andhra Pradesh","latitude":13.6288,"longitude":79.4192,"temp":27.5,"humidity":85,"rain":0.0,"pressure":991.3,"uv_index":8.0,"wind_gusts":36.7,"aqi":57,"pm10":42.4,"pm2_5":30.7,"no2":40.7,"co":367.0,"o3":11.0,"so2":4.7,"mosquito_risk":7,"arthritis_risk":5,"migraine_risk":7,"frizz_risk":1,"updated_at":"2026-07-21T21:17:25.433111+05:30"},{"city":"Warangal","state":"Telangana","latitude":17.9689,"longitude":79.5941,"temp":25.7,"humidity":92,"rain":0.1,"pressure":977.3,"uv_index":3.5,"wind_gusts":45.4,"aqi":50,"pm10":21.1,"pm2_5":16.6,"no2":13.5,"co":243.0,"o3":43.0,"so2":5.9,"mosquito_risk":10,"arthritis_risk":5,"migraine_risk":3,"frizz_risk":1,"updated_at":"2026-07-21T21:17:25.433117+05:30"},{"city":"Nizamabad","state":"Telangana","latitude":18.6725,"longitude":78.0941,"temp":23.8,"humidity":96,"rain":0.3,"pressure":962.8,"uv_index":2.55,"wind_gusts":38.2,"aqi":46,"pm10":17.9,"pm2_5":11.8,"no2":7.8,"co":166.0,"o3":51.0,"so2":3.3,"mosquito_risk":6,"arthritis_risk":5,"migraine_risk":3,"frizz_risk":1,"updated_at":"2026-07-21T21:17:25.433124+05:30"},{"city":"Mysore","state":"Karnataka","latitude":12.2958,"longitude":76.6396,"temp":22.6,"humidity":86,"rain":0.0,"pressure":930.1,"uv_index":8.0,"wind_gusts":48.6,"aqi":30,"pm10":8.8,"pm2_5":6.2,"no2":9.3,"co":171.0,"o3":41.0,"so2":2.4,"mosquito_risk":3,"arthritis_risk":5,"migraine_risk":7,"frizz_risk":1,"updated_at":"2026-07-21T21:17:25.433130+05:30"},{"city":"Mangalore","state":"Karnataka","latitude":12.9141,"longitude":74.856,"temp":25.1,"humidity":98,"rain":0.0,"pressure":1009.2,"uv_index":7.85,"wind_gusts":33.5,"aqi":53,"pm10":25.7,"pm2_5":18.9,"no2":18.1,"co":351.0,"o3":21.0,"so2":4.4,"mosquito_risk":7,"arthritis_risk":0,"migraine_risk":4,"frizz_risk":1,"updated_at":"2026-07-21T21:17:25.433136+05:30"},{"city":"Hubli-Dharwad","state":"Karnataka","latitude":15.3647,"longitude":75.124,"temp":22.5,"humidity":93,"rain":0.1,"pressure":941.5,"uv_index":5.9,"wind_gusts":58.3,"aqi":24,"pm10":7.4,"pm2_5":4.9,"no2":6.4,"co":132.0,"o3":36.0,"so2":1.3,"mosquito_risk":6,"arthritis_risk":5,"migraine_risk":3,"frizz_risk":1,"updated_at":"2026-07-21T21:17:25.433143+05:30"},{"city":"Belgaum","state":"Karnataka","latitude":15.8497,"longitude":74.4977,"temp":21.0,"humidity":98,"rain":0.1,"pressure":925.7,"uv_index":7.75,"wind_gusts":58.3,"aqi":23,"pm10":6.8,"pm2_5":3.9,"no2":5.2,"co":132.0,"o3":37.0,"so2":1.9,"mosquito_risk":6,"arthritis_risk":5,"migraine_risk":7,"frizz_risk":1,"updated_at":"2026-07-21T21:17:28.828593+05:30"},{"city":"Coimbatore","state":"Tamil Nadu","latitude":11.0168,"longitude":76.9558,"temp":24.6,"humidity":88,"rain":0.0,"pressure":963.0,"uv_index":8.8,"wind_gusts":52.2,"aqi":40,"pm10":9.5,"pm2_5":7.8,"no2":9.3,"co":202.0,"o3":38.0,"so2":3.6,"mosquito_risk":3,"arthritis_risk":5,"migraine_risk":7,"frizz_risk":1,"updated_at":"2026-07-21T21:17:28.828676+05:30"},{"city":"Madurai","state":"Tamil Nadu","latitude":9.9252,"longitude":78.1198,"temp":31.9,"humidity":50,"rain":0.0,"pressure":993.6,"uv_index":8.5,"wind_gusts":33.5,"aqi":58,"pm10":31.0,"pm2_5":17.3,"no2":16.3,"co":177.0,"o3":67.0,"so2":5.5,"mosquito_risk":0,"arthritis_risk":5,"migraine_risk":7,"frizz_risk":1,"updated_at":"2026-07-21T21:17:28.828690+05:30"},{"city":"Trichy","state":"Tamil Nadu","latitude":10.7905,"longitude":78.7047,"temp":30.1,"humidity":62,"rain":0.0,"pressure":1000.9,"uv_index":8.8,"wind_gusts":47.2,"aqi":50,"pm10":24.3,"pm2_5":17.2,"no2":14.6,"co":172.0,"o3":56.0,"so2":5.0,"mosquito_risk":3,"arthritis_risk":5,"migraine_risk":4,"frizz_risk":1,"updated_at":"2026-07-21T21:17:28.828701+05:30"},{"city":"Salem","state":"Tamil Nadu","latitude":11.6643,"longitude":78.146,"temp":28.9,"humidity":66,"rain":0.0,"pressure":978.3,"uv_index":8.2,"wind_gusts":24.1,"aqi":59,"pm10":23.7,"pm2_5":15.4,"no2":14.8,"co":395.0,"o3":58.0,"so2":6.6,"mosquito_risk":7,"arthritis_risk":5,"migraine_risk":7,"frizz_risk":1,"updated_at":"2026-07-21T21:17:28.828710+05:30"},{"city":"Tirunelveli","state":"Tamil Nadu","latitude":8.7139,"longitude":77.7567,"temp":30.9,"humidity":55,"rain":0.0,"pressure":1004.5,"uv_index":8.65,"wind_gusts":46.1,"aqi":43,"pm10":10.8,"pm2_5":8.0,"no2":5.4,"co":129.0,"o3":43.0,"so2":2.0,"mosquito_risk":0,"arthritis_risk":5,"migraine_risk":4,"frizz_risk":1,"updated_at":"2026-07-21T21:17:28.828719+05:30"},{"city":"Vellore","state":"Tamil Nadu","latitude":12.9165,"longitude":79.1325,"temp":27.5,"humidity":88,"rain":0.0,"pressure":984.6,"uv_index":7.8,"wind_gusts":37.1,"aqi":67,"pm10":64.7,"pm2_5":40.9,"no2":36.2,"co":622.0,"o3":38.0,"so2":8.6,"mosquito_risk":7,"arthritis_risk":5,"migraine_risk":7,"frizz_risk":1,"updated_at":"2026-07-21T21:17:28.828728+05:30"},{"city":"Erode","state":"Tamil Nadu","latitude":11.341,"longitude":77.7172,"temp":28.4,"humidity":68,"rain":0.0,"pressure":990.0,"uv_index":8.8,"wind_gusts":37.8,"aqi":53,"pm10":17.9,"pm2_5":13.3,"no2":18.6,"co":205.0,"o3":37.0,"so2":4.1,"mosquito_risk":7,"arthritis_risk":5,"migraine_risk":7,"frizz_risk":1,"updated_at":"2026-07-21T21:17:28.828737+05:30"},{"city":"Kochi","state":"Kerala","latitude":9.9312,"longitude":76.2673,"temp":27.3,"humidity":91,"rain":0.0,"pressure":1011.5,"uv_index":8.65,"wind_gusts":26.3,"aqi":57,"pm10":19.1,"pm2_5":15.7,"no2":20.4,"co":209.0,"o3":18.0,"so2":5.4,"mosquito_risk":7,"arthritis_risk":0,"migraine_risk":4,"frizz_risk":1,"updated_at":"2026-07-21T21:17:28.828745+05:30"},{"city":"Thiruvananthapuram","state":"Kerala","latitude":8.5241,"longitude":76.9366,"temp":26.3,"humidity":89,"rain":0.1,"pressure":1011.2,"uv_index":8.0,"wind_gusts":36.4,"aqi":54,"pm10":17.4,"pm2_5":10.8,"no2":7.3,"co":146.0,"o3":38.0,"so2":1.9,"mosquito_risk":10,"arthritis_risk":0,"migraine_risk":4,"frizz_risk":1,"updated_at":"2026-07-21T21:17:28.828754+05:30"},{"city":"Kozhikode","state":"Kerala","latitude":11.2588,"longitude":75.7804,"temp":25.9,"humidity":93,"rain":0.0,"pressure":1010.5,"uv_index":8.4,"wind_gusts":30.2,"aqi":36,"pm10":14.3,"pm2_5":8.0,"no2":2.6,"co":347.0,"o3":46.0,"so2":1.7,"mosquito_risk":7,"arthritis_risk":0,"migraine_risk":4,"frizz_risk":1,"updated_at":"2026-07-21T21:17:28.828763+05:30"},{"city":"Thrissur","state":"Kerala","latitude":10.5276,"longitude":76.2144,"temp":26.0,"humidity":94,"rain":0.0,"pressure":1009.8,"uv_index":8.5,"wind_gusts":31.3,"aqi":54,"pm10":17.2,"pm2_5":14.7,"no2":14.9,"co":332.0,"o3":22.0,"so2":4.4,"mosquito_risk":7,"arthritis_risk":0,"migraine_risk":4,"frizz_risk":1,"updated_at":"2026-07-21T21:17:28.828773+05:30"},{"city":"Kannur","state":"Kerala","latitude":11.8745,"longitude":75.3704,"temp":25.3,"humidity":92,"rain":0.1,"pressure":1009.9,"uv_index":7.9,"wind_gusts":28.8,"aqi":46,"pm10":16.4,"pm2_5":11.9,"no2":15.9,"co":376.0,"o3":19.0,"so2":3.0,"mosquito_risk":10,"arthritis_risk":0,"migraine_risk":4,"frizz_risk":1,"updated_at":"2026-07-21T21:17:28.828781+05:30"},{"city":"Patna","state":"Bihar","latitude":25.5941,"longitude":85.1376,"temp":27.7,"humidity":86,"rain":0.0,"pressure":998.0,"uv_index":8.0,"wind_gusts":44.6,"aqi":78,"pm10":22.1,"pm2_5":21.9,"no2":15.2,"co":288.0,"o3":78.0,"so2":11.4,"mosquito_risk":7,"arthritis_risk":5,"migraine_risk":7,"frizz_risk":1,"updated_at":"2026-07-21T21:17:28.828790+05:30"},{"city":"Gaya","state":"Bihar","latitude":24.7914,"longitude":85.0002,"temp":25.4,"humidity":95,"rain":0.2,"pressure":991.3,"uv_index":6.9,"wind_gusts":38.9,"aqi":68,"pm10":11.8,"pm2_5":11.7,"no2":9.8,"co":265.0,"o3":65.0,"so2":7.0,"mosquito_risk":10,"arthritis_risk":5,"migraine_risk":7,"frizz_risk":1,"updated_at":"2026-07-21T21:17:28.828798+05:30"},{"city":"Muzaffarpur","state":"Bihar","latitude":26.1209,"longitude":85.3647,"temp":28.4,"humidity":77,"rain":0.0,"pressure":998.3,"uv_index":8.25,"wind_gusts":45.0,"aqi":75,"pm10":25.6,"pm2_5":25.3,"no2":15.3,"co":287.0,"o3":76.0,"so2":9.3,"mosquito_risk":7,"arthritis_risk":5,"migraine_risk":7,"frizz_risk":1,"updated_at":"2026-07-21T21:17:28.828806+05:30"},{"city":"Bhagalpur","state":"Bihar","latitude":25.2425,"longitude":87.0117,"temp":26.5,"humidity":93,"rain":0.1,"pressure":999.5,"uv_index":6.15,"wind_gusts":38.5,"aqi":64,"pm10":18.3,"pm2_5":18.1,"no2":13.8,"co":244.0,"o3":60.0,"so2":7.6,"mosquito_risk":10,"arthritis_risk":5,"migraine_risk":7,"frizz_risk":1,"updated_at":"2026-07-21T21:17:28.828814+05:30"},{"city":"Ranchi","state":"Jharkhand","latitude":23.3441,"longitude":85.3096,"temp":22.6,"humidity":99,"rain":0.1,"pressure":934.5,"uv_index":7.6,"wind_gusts":38.9,"aqi":56,"pm10":10.7,"pm2_5":10.7,"no2":14.0,"co":243.0,"o3":71.0,"so2":14.2,"mosquito_risk":6,"arthritis_risk":5,"migraine_risk":7,"frizz_risk":1,"updated_at":"2026-07-21T21:17:28.828823+05:30"},{"city":"Jamshedpur","state":"Jharkhand","latitude":22.8046,"longitude":86.2029,"temp":25.5,"humidity":97,"rain":0.3,"pressure":987.6,"uv_index":6.2,"wind_gusts":30.6,"aqi":57,"pm10":15.7,"pm2_5":15.4,"no2":21.1,"co":344.0,"o3":49.0,"so2":17.6,"mosquito_risk":10,"arthritis_risk":5,"migraine_risk":7,"frizz_risk":1,"updated_at":"2026-07-21T21:17:28.828831+05:30"},{"city":"Dhanbad","state":"Jharkhand","latitude":23.7957,"longitude":86.4304,"temp":25.4,"humidity":94,"rain":0.1,"pressure":977.1,"uv_index":5.95,"wind_gusts":35.6,"aqi":89,"pm10":39.6,"pm2_5":39.2,"no2":46.7,"co":606.0,"o3":23.0,"so2":98.2,"mosquito_risk":10,"arthritis_risk":5,"migraine_risk":3,"frizz_risk":1,"updated_at":"2026-07-21T21:17:28.828839+05:30"},{"city":"Bokaro","state":"Jharkhand","latitude":23.6693,"longitude":86.1511,"temp":25.3,"humidity":94,"rain":0.1,"pressure":980.8,"uv_index":6.45,"wind_gusts":40.0,"aqi":97,"pm10":37.0,"pm2_5":36.7,"no2":51.9,"co":855.0,"o3":17.0,"so2":111.2,"mosquito_risk":10,"arthritis_risk":5,"migraine_risk":7,"frizz_risk":1,"updated_at":"2026-07-21T21:17:28.828847+05:30"},{"city":"Bhubaneswar","state":"Odisha","latitude":20.2961,"longitude":85.8245,"temp":26.0,"humidity":97,"rain":0.2,"pressure":998.9,"uv_index":8.25,"wind_gusts":24.5,"aqi":75,"pm10":26.0,"pm2_5":24.9,"no2":19.6,"co":423.0,"o3":56.0,"so2":6.4,"mosquito_risk":10,"arthritis_risk":5,"migraine_risk":7,"frizz_risk":1,"updated_at":"2026-07-21T21:17:28.828855+05:30"},{"city":"Cuttack","state":"Odisha","latitude":20.4625,"longitude":85.8828,"temp":26.4,"humidity":96,"rain":0.2,"pressure":1000.7,"uv_index":8.55,"wind_gusts":23.0,"aqi":75,"pm10":26.0,"pm2_5":24.9,"no2":19.6,"co":464.0,"o3":56.0,"so2":6.4,"mosquito_risk":10,"arthritis_risk":5,"migraine_risk":4,"frizz_risk":1,"updated_at":"2026-07-21T21:17:28.828863+05:30"},{"city":"Rourkela","state":"Odisha","latitude":22.2604,"longitude":84.8536,"temp":24.4,"humidity":98,"rain":0.1,"pressure":981.7,"uv_index":1.1,"wind_gusts":22.0,"aqi":78,"pm10":16.2,"pm2_5":16.0,"no2":18.0,"co":400.0,"o3":67.0,"so2":12.7,"mosquito_risk":6,"arthritis_risk":5,"migraine_risk":3,"frizz_risk":1,"updated_at":"2026-07-21T21:17:28.828871+05:30"},{"city":"Raipur","state":"Chhattisgarh","latitude":21.2514,"longitude":81.6296,"temp":24.6,"humidity":97,"rain":0.2,"pressure":971.2,"uv_index":1.55,"wind_gusts":30.2,"aqi":79,"pm10":14.8,"pm2_5":14.1,"no2":28.2,"co":467.0,"o3":27.0,"so2":37.6,"mosquito_risk":6,"arthritis_risk":5,"migraine_risk":3,"frizz_risk":1,"updated_at":"2026-07-21T21:17:28.828878+05:30"},{"city":"Bhilai","state":"Chhattisgarh","latitude":21.1938,"longitude":81.3509,"temp":24.4,"humidity":97,"rain":0.2,"pressure":971.8,"uv_index":1.75,"wind_gusts":37.1,"aqi":73,"pm10":13.3,"pm2_5":12.7,"no2":23.5,"co":503.0,"o3":31.0,"so2":31.5,"mosquito_risk":6,"arthritis_risk":5,"migraine_risk":3,"frizz_risk":1,"updated_at":"2026-07-21T21:17:28.828887+05:30"},{"city":"Guwahati","state":"Assam","latitude":26.1158,"longitude":91.7086,"temp":27.4,"humidity":97,"rain":0.0,"pressure":1000.2,"uv_index":7.25,"wind_gusts":20.2,"aqi":39,"pm10":16.1,"pm2_5":15.9,"no2":13.5,"co":314.0,"o3":30.0,"so2":3.1,"mosquito_risk":7,"arthritis_risk":5,"migraine_risk":4,"frizz_risk":1,"updated_at":"2026-07-21T21:17:28.828894+05:30"},{"city":"Agartala","state":"Tripura","latitude":23.8315,"longitude":91.2868,"temp":26.3,"humidity":91,"rain":0.0,"pressure":1005.6,"uv_index":7.5,"wind_gusts":33.5,"aqi":51,"pm10":10.9,"pm2_5":10.3,"no2":11.1,"co":183.0,"o3":45.0,"so2":2.7,"mosquito_risk":7,"arthritis_risk":5,"migraine_risk":4,"frizz_risk":1,"updated_at":"2026-07-21T21:17:28.828902+05:30"},{"city":"Shillong","state":"Meghalaya","latitude":25.5788,"longitude":91.8933,"temp":19.8,"humidity":92,"rain":0.0,"pressure":858.0,"uv_index":6.95,"wind_gusts":20.9,"aqi":30,"pm10":9.3,"pm2_5":9.2,"no2":11.1,"co":335.0,"o3":37.0,"so2":2.7,"mosquito_risk":3,"arthritis_risk":10,"migraine_risk":7,"frizz_risk":1,"updated_at":"2026-07-21T21:17:28.828910+05:30"},{"city":"Imphal","state":"Manipur","latitude":24.817,"longitude":93.9368,"temp":23.5,"humidity":94,"rain":0.1,"pressure":923.2,"uv_index":8.8,"wind_gusts":22.7,"aqi":57,"pm10":15.7,"pm2_5":15.2,"no2":17.6,"co":733.0,"o3":36.0,"so2":3.2,"mosquito_risk":6,"arthritis_risk":5,"migraine_risk":7,"frizz_risk":1,"updated_at":"2026-07-21T21:17:28.828918+05:30"},{"city":"Aizawl","state":"Mizoram","latitude":23.7271,"longitude":92.7176,"temp":20.2,"humidity":98,"rain":0.0,"pressure":892.5,"uv_index":8.5,"wind_gusts":20.9,"aqi":24,"pm10":5.8,"pm2_5":5.5,"no2":9.5,"co":158.0,"o3":24.0,"so2":0.8,"mosquito_risk":3,"arthritis_risk":5,"migraine_risk":7,"frizz_risk":1,"updated_at":"2026-07-21T21:17:28.828926+05:30"},{"city":"Kohima","state":"Nagaland","latitude":25.6701,"longitude":94.1077,"temp":20.5,"humidity":92,"rain":0.0,"pressure":855.9,"uv_index":8.6,"wind_gusts":24.8,"aqi":30,"pm10":9.0,"pm2_5":8.8,"no2":11.0,"co":332.0,"o3":38.0,"so2":1.3,"mosquito_risk":3,"arthritis_risk":5,"migraine_risk":7,"frizz_risk":1,"updated_at":"2026-07-21T21:17:28.828934+05:30"},{"city":"Gangtok","state":"Sikkim","latitude":27.3314,"longitude":88.6138,"temp":18.1,"humidity":98,"rain":0.0,"pressure":838.9,"uv_index":6.8,"wind_gusts":29.2,"aqi":32,"pm10":4.2,"pm2_5":4.1,"no2":7.4,"co":259.0,"o3":67.0,"so2":1.0,"mosquito_risk":3,"arthritis_risk":10,"migraine_risk":7,"frizz_risk":1,"updated_at":"2026-07-21T21:17:28.828942+05:30"},{"city":"Siliguri","state":"West Bengal","latitude":26.7271,"longitude":88.3953,"temp":27.4,"humidity":80,"rain":0.0,"pressure":991.8,"uv_index":6.9,"wind_gusts":41.0,"aqi":50,"pm10":14.8,"pm2_5":14.5,"no2":16.6,"co":700.0,"o3":64.0,"so2":4.0,"mosquito_risk":7,"arthritis_risk":5,"migraine_risk":7,"frizz_risk":1,"updated_at":"2026-07-21T21:17:32.247741+05:30"},{"city":"Durgapur","state":"West Bengal","latitude":23.5204,"longitude":87.3119,"temp":26.0,"humidity":94,"rain":0.1,"pressure":992.1,"uv_index":6.15,"wind_gusts":35.3,"aqi":77,"pm10":32.4,"pm2_5":31.7,"no2":33.9,"co":403.0,"o3":36.0,"so2":30.2,"mosquito_risk":10,"arthritis_risk":5,"migraine_risk":7,"frizz_risk":1,"updated_at":"2026-07-21T21:17:32.247773+05:30"},{"city":"Asansol","state":"West Bengal","latitude":23.6739,"longitude":86.9524,"temp":25.8,"humidity":96,"rain":0.1,"pressure":990.8,"uv_index":7.2,"wind_gusts":36.0,"aqi":74,"pm10":29.9,"pm2_5":29.5,"no2":41.1,"co":460.0,"o3":31.0,"so2":40.7,"mosquito_risk":10,"arthritis_risk":5,"migraine_risk":7,"frizz_risk":1,"updated_at":"2026-07-21T21:17:32.247783+05:30"},{"city":"Pondicherry","state":"Puducherry","latitude":11.9139,"longitude":79.8145,"temp":29.5,"humidity":81,"rain":0.0,"pressure":1008.7,"uv_index":8.05,"wind_gusts":33.8,"aqi":80,"pm10":31.9,"pm2_5":23.3,"no2":15.7,"co":184.0,"o3":79.0,"so2":5.3,"mosquito_risk":7,"arthritis_risk":0,"migraine_risk":4,"frizz_risk":1,"updated_at":"2026-07-21T21:17:32.247792+05:30"},{"city":"Port Blair","state":"Andaman and Nicobar Islands","latitude":11.6234,"longitude":92.7265,"temp":26.0,"humidity":92,"rain":0.0,"pressure":1010.1,"uv_index":8.55,"wind_gusts":39.6,"aqi":51,"pm10":13.0,"pm2_5":7.4,"no2":0.3,"co":100.0,"o3":48.0,"so2":0.4,"mosquito_risk":7,"arthritis_risk":0,"migraine_risk":4,"frizz_risk":1,"updated_at":"2026-07-21T21:17:32.247800+05:30"},{"city":"Haridwar","state":"Uttarakhand","latitude":29.9457,"longitude":78.1642,"temp":27.6,"humidity":93,"rain":0.0,"pressure":970.2,"uv_index":6.9,"wind_gusts":29.2,"aqi":75,"pm10":15.3,"pm2_5":15.2,"no2":10.5,"co":348.0,"o3":75.0,"so2":5.4,"mosquito_risk":7,"arthritis_risk":5,"migraine_risk":7,"frizz_risk":1,"updated_at":"2026-07-21T21:17:32.247808+05:30"},{"city":"Rishikesh","state":"Uttarakhand","latitude":30.0869,"longitude":78.2676,"temp":26.8,"humidity":94,"rain":0.0,"pressure":963.0,"uv_index":5.2,"wind_gusts":23.8,"aqi":51,"pm10":9.7,"pm2_5":9.7,"no2":7.2,"co":420.0,"o3":82.0,"so2":3.1,"mosquito_risk":7,"arthritis_risk":5,"migraine_risk":3,"frizz_risk":1,"updated_at":"2026-07-21T21:17:32.247815+05:30"},{"city":"Nainital","state":"Uttarakhand","latitude":29.3919,"longitude":79.4542,"temp":17.0,"humidity":93,"rain":0.0,"pressure":804.6,"uv_index":7.4,"wind_gusts":56.2,"aqi":44,"pm10":8.1,"pm2_5":8.1,"no2":6.9,"co":307.0,"o3":77.0,"so2":1.9,"mosquito_risk":3,"arthritis_risk":10,"migraine_risk":7,"frizz_risk":0,"updated_at":"2026-07-21T21:17:32.247823+05:30"},{"city":"Mussoorie","state":"Uttarakhand","latitude":30.4599,"longitude":78.0664,"temp":17.5,"humidity":99,"rain":0.0,"pressure":802.0,"uv_index":3.45,"wind_gusts":29.5,"aqi":59,"pm10":19.9,"pm2_5":19.8,"no2":28.8,"co":431.0,"o3":75.0,"so2":6.7,"mosquito_risk":3,"arthritis_risk":10,"migraine_risk":3,"frizz_risk":1,"updated_at":"2026-07-21T21:17:32.247830+05:30"},{"city":"Dharamshala","state":"Himachal Pradesh","latitude":32.219,"longitude":76.3234,"temp":22.2,"humidity":85,"rain":0.0,"pressure":866.4,"uv_index":1.6,"wind_gusts":36.7,"aqi":45,"pm10":6.2,"pm2_5":5.7,"no2":15.7,"co":508.0,"o3":59.0,"so2":1.0,"mosquito_risk":3,"arthritis_risk":5,"migraine_risk":3,"frizz_risk":1,"updated_at":"2026-07-21T21:17:32.247837+05:30"},{"city":"Dalhousie","state":"Himachal Pradesh","latitude":32.5387,"longitude":75.971,"temp":18.3,"humidity":92,"rain":0.0,"pressure":803.0,"uv_index":1.95,"wind_gusts":31.7,"aqi":74,"pm10":17.0,"pm2_5":13.4,"no2":22.6,"co":786.0,"o3":93.0,"so2":3.2,"mosquito_risk":3,"arthritis_risk":10,"migraine_risk":3,"frizz_risk":1,"updated_at":"2026-07-21T21:17:32.247845+05:30"},{"city":"Patiala","state":"Punjab","latitude":30.3398,"longitude":76.3869,"temp":28.3,"humidity":88,"rain":0.0,"pressure":973.4,"uv_index":5.9,"wind_gusts":40.3,"aqi":81,"pm10":31.9,"pm2_5":31.8,"no2":23.6,"co":542.0,"o3":75.0,"so2":9.2,"mosquito_risk":7,"arthritis_risk":5,"migraine_risk":3,"frizz_risk":1,"updated_at":"2026-07-21T21:17:32.247852+05:30"},{"city":"Bhatinda","state":"Punjab","latitude":30.211,"longitude":74.9455,"temp":30.0,"humidity":74,"rain":0.0,"pressure":978.2,"uv_index":6.25,"wind_gusts":42.1,"aqi":152,"pm10":33.1,"pm2_5":28.9,"no2":20.8,"co":344.0,"o3":100.0,"so2":12.1,"mosquito_risk":7,"arthritis_risk":5,"migraine_risk":7,"frizz_risk":1,"updated_at":"2026-07-21T21:17:32.247859+05:30"},{"city":"Rohtak","state":"Haryana","latitude":28.8955,"longitude":76.6066,"temp":27.6,"humidity":88,"rain":0.0,"pressure":976.4,"uv_index":1.1,"wind_gusts":27.7,"aqi":88,"pm10":22.7,"pm2_5":22.6,"no2":33.3,"co":584.0,"o3":84.0,"so2":21.0,"mosquito_risk":7,"arthritis_risk":5,"migraine_risk":3,"frizz_risk":1,"updated_at":"2026-07-21T21:17:32.247866+05:30"},{"city":"Panipat","state":"Haryana","latitude":29.3909,"longitude":76.9635,"temp":28.2,"humidity":83,"rain":0.0,"pressure":975.5,"uv_index":1.3,"wind_gusts":41.0,"aqi":81,"pm10":21.2,"pm2_5":21.2,"no2":17.9,"co":449.0,"o3":97.0,"so2":12.3,"mosquito_risk":7,"arthritis_risk":5,"migraine_risk":3,"frizz_risk":1,"updated_at":"2026-07-21T21:17:32.247873+05:30"},{"city":"Mathura","state":"Uttar Pradesh","latitude":27.4924,"longitude":77.6737,"temp":27.7,"humidity":87,"rain":0.0,"pressure":981.4,"uv_index":6.55,"wind_gusts":30.2,"aqi":63,"pm10":22.0,"pm2_5":21.2,"no2":34.8,"co":344.0,"o3":45.0,"so2":5.0,"mosquito_risk":7,"arthritis_risk":5,"migraine_risk":7,"frizz_risk":1,"updated_at":"2026-07-21T21:17:32.247879+05:30"},{"city":"Vrindavan","state":"Uttar Pradesh","latitude":27.5823,"longitude":77.7027,"temp":28.0,"humidity":85,"rain":0.0,"pressure":981.9,"uv_index":6.4,"wind_gusts":29.5,"aqi":63,"pm10":22.0,"pm2_5":21.2,"no2":34.8,"co":363.0,"o3":45.0,"so2":5.0,"mosquito_risk":7,"arthritis_risk":5,"migraine_risk":7,"frizz_risk":1,"updated_at":"2026-07-21T21:17:32.247886+05:30"},{"city":"Ayodhya","state":"Uttar Pradesh","latitude":26.7922,"longitude":82.1998,"temp":27.0,"humidity":92,"rain":0.0,"pressure":992.3,"uv_index":7.15,"wind_gusts":42.1,"aqi":88,"pm10":28.9,"pm2_5":28.5,"no2":12.2,"co":359.0,"o3":90.0,"so2":6.6,"mosquito_risk":7,"arthritis_risk":5,"migraine_risk":7,"frizz_risk":1,"updated_at":"2026-07-21T21:17:32.247892+05:30"},{"city":"Ratlam","state":"Madhya Pradesh","latitude":23.3315,"longitude":75.0367,"temp":24.3,"humidity":94,"rain":0.1,"pressure":949.4,"uv_index":0.95,"wind_gusts":28.4,"aqi":51,"pm10":15.3,"pm2_5":11.9,"no2":8.9,"co":210.0,"o3":50.0,"so2":6.4,"mosquito_risk":6,"arthritis_risk":5,"migraine_risk":3,"frizz_risk":1,"updated_at":"2026-07-21T21:17:32.247899+05:30"},{"city":"Sagar","state":"Madhya Pradesh","latitude":23.8388,"longitude":78.7378,"temp":24.1,"humidity":96,"rain":0.1,"pressure":944.9,"uv_index":1.35,"wind_gusts":31.7,"aqi":48,"pm10":7.0,"pm2_5":6.9,"no2":7.8,"co":200.0,"o3":62.0,"so2":2.4,"mosquito_risk":6,"arthritis_risk":5,"migraine_risk":3,"frizz_risk":1,"updated_at":"2026-07-21T21:17:32.247905+05:30"},{"city":"Satna","state":"Madhya Pradesh","latitude":24.6005,"longitude":80.8322,"temp":25.2,"humidity":97,"rain":0.1,"pressure":966.8,"uv_index":5.75,"wind_gusts":22.7,"aqi":57,"pm10":23.1,"pm2_5":18.9,"no2":17.4,"co":330.0,"o3":57.0,"so2":3.1,"mosquito_risk":10,"arthritis_risk":5,"migraine_risk":3,"frizz_risk":1,"updated_at":"2026-07-21T21:17:32.247911+05:30"},{"city":"Akola","state":"Maharashtra","latitude":20.7002,"longitude":77.0082,"temp":25.3,"humidity":93,"rain":0.2,"pressure":971.7,"uv_index":1.5,"wind_gusts":45.0,"aqi":34,"pm10":7.2,"pm2_5":6.2,"no2":8.5,"co":210.0,"o3":49.0,"so2":3.3,"mosquito_risk":10,"arthritis_risk":5,"migraine_risk":3,"frizz_risk":1,"updated_at":"2026-07-21T21:17:32.247919+05:30"},{"city":"Amravati","state":"Maharashtra","latitude":20.9374,"longitude":77.7796,"temp":24.4,"humidity":95,"rain":0.2,"pressure":963.9,"uv_index":1.15,"wind_gusts":47.2,"aqi":33,"pm10":7.9,"pm2_5":6.7,"no2":9.1,"co":189.0,"o3":49.0,"so2":3.7,"mosquito_risk":6,"arthritis_risk":5,"migraine_risk":3,"frizz_risk":1,"updated_at":"2026-07-21T21:17:32.247926+05:30"},{"city":"Latur","state":"Maharashtra","latitude":18.4088,"longitude":76.5604,"temp":23.4,"humidity":92,"rain":0.3,"pressure":938.1,"uv_index":2.4,"wind_gusts":45.4,"aqi":34,"pm10":9.7,"pm2_5":6.5,"no2":4.8,"co":161.0,"o3":44.0,"so2":2.0,"mosquito_risk":6,"arthritis_risk":5,"migraine_risk":3,"frizz_risk":1,"updated_at":"2026-07-21T21:17:32.247933+05:30"},{"city":"Nanded","state":"Maharashtra","latitude":19.1383,"longitude":77.3091,"temp":24.7,"humidity":93,"rain":0.3,"pressure":966.5,"uv_index":1.15,"wind_gusts":34.6,"aqi":44,"pm10":12.3,"pm2_5":8.9,"no2":7.6,"co":175.0,"o3":46.0,"so2":3.5,"mosquito_risk":6,"arthritis_risk":5,"migraine_risk":3,"frizz_risk":1,"updated_at":"2026-07-21T21:17:32.247940+05:30"},{"city":"Gulbarga","state":"Karnataka","latitude":17.3297,"longitude":76.8343,"temp":24.0,"humidity":92,"rain":0.1,"pressure":958.2,"uv_index":3.5,"wind_gusts":52.9,"aqi":41,"pm10":12.0,"pm2_5":7.5,"no2":8.2,"co":136.0,"o3":43.0,"so2":2.9,"mosquito_risk":6,"arthritis_risk":5,"migraine_risk":3,"frizz_risk":1,"updated_at":"2026-07-21T21:17:32.247946+05:30"},{"city":"Bidar","state":"Karnataka","latitude":17.9104,"longitude":77.5199,"temp":22.9,"humidity":96,"rain":0.2,"pressure":934.1,"uv_index":4.3,"wind_gusts":48.6,"aqi":36,"pm10":13.6,"pm2_5":9.3,"no2":10.1,"co":171.0,"o3":47.0,"so2":1.9,"mosquito_risk":6,"arthritis_risk":5,"migraine_risk":3,"frizz_risk":1,"updated_at":"2026-07-21T21:17:32.247953+05:30"},{"city":"Hospet","state":"Karnataka","latitude":15.2689,"longitude":76.3909,"temp":25.5,"humidity":74,"rain":0.0,"pressure":956.7,"uv_index":4.7,"wind_gusts":51.8,"aqi":27,"pm10":8.1,"pm2_5":5.5,"no2":5.7,"co":131.0,"o3":41.0,"so2":1.7,"mosquito_risk":7,"arthritis_risk":5,"migraine_risk":3,"frizz_risk":1,"updated_at":"2026-07-21T21:17:32.247959+05:30"},{"city":"Tirupur","state":"Tamil Nadu","latitude":11.1085,"longitude":77.3411,"temp":26.4,"humidity":78,"rain":0.0,"pressure":976.5,"uv_index":8.75,"wind_gusts":56.9,"aqi":56,"pm10":21.8,"pm2_5":16.3,"no2":22.8,"co":182.0,"o3":33.0,"so2":5.5,"mosquito_risk":7,"arthritis_risk":5,"migraine_risk":7,"frizz_risk":1,"updated_at":"2026-07-21T21:17:32.247965+05:30"},{"city":"Alappuzha","state":"Kerala","latitude":9.4981,"longitude":76.3388,"temp":27.2,"humidity":91,"rain":0.0,"pressure":1011.7,"uv_index":8.55,"wind_gusts":28.8,"aqi":55,"pm10":16.5,"pm2_5":11.5,"no2":11.3,"co":89.0,"o3":34.0,"so2":3.5,"mosquito_risk":7,"arthritis_risk":0,"migraine_risk":4,"frizz_risk":1,"updated_at":"2026-07-21T21:17:32.247972+05:30"},{"city":"Munnar","state":"Kerala","latitude":10.0889,"longitude":77.0595,"temp":16.4,"humidity":95,"rain":0.0,"pressure":858.1,"uv_index":9.0,"wind_gusts":33.8,"aqi":35,"pm10":9.7,"pm2_5":8.1,"no2":10.0,"co":129.0,"o3":38.0,"so2":2.6,"mosquito_risk":3,"arthritis_risk":10,"migraine_risk":7,"frizz_risk":0,"updated_at":"2026-07-21T21:17:32.247979+05:30"},{"city":"Silchar","state":"Assam","latitude":24.8333,"longitude":92.7789,"temp":25.8,"humidity":96,"rain":0.0,"pressure":1005.5,"uv_index":7.9,"wind_gusts":19.1,"aqi":63,"pm10":18.1,"pm2_5":17.0,"no2":8.4,"co":243.0,"o3":63.0,"so2":5.7,"mosquito_risk":7,"arthritis_risk":5,"migraine_risk":4,"frizz_risk":1,"updated_at":"2026-07-21T21:17:32.247985+05:30"},{"city":"Dibrugarh","state":"Assam","latitude":27.4728,"longitude":94.912,"temp":28.4,"humidity":85,"rain":0.0,"pressure":993.8,"uv_index":8.7,"wind_gusts":19.1,"aqi":72,"pm10":25.8,"pm2_5":25.0,"no2":14.8,"co":323.0,"o3":61.0,"so2":3.2,"mosquito_risk":7,"arthritis_risk":5,"migraine_risk":7,"frizz_risk":1,"updated_at":"2026-07-21T21:17:32.247992+05:30"}]