[{"city":"Delhi","state":"Delhi","latitude":28.6139,"longitude":77.209,"temp":28.4,"humidity":36,"rain":0.0,"pressure":986.1,"uv_index":6.45,"wind_gusts":28.4,"aqi":154,"pm10":510.4,"pm2_5":68.7,"mosquito_risk":4,"arthritis_risk":5,"migraine_risk":7,"frizz_risk":0,"updated_at":"2026-03-22T16:56:56.957653+05:30"},{"city":"Mumbai","state":"Maharashtra","latitude":19.076,"longitude":72.8777,"temp":28.8,"humidity":62,"rain":0.0,"pressure":1008.0,"uv_index":7.9,"wind_gusts":28.4,"aqi":154,"pm10":48.5,"pm2_5":36.8,"mosquito_risk":7,"arthritis_risk":0,"migraine_risk":4,"frizz_risk":1,"updated_at":"2026-03-22T16:56:56.957701+05:30"},{"city":"Bangalore","state":"Karnataka","latitude":12.9716,"longitude":77.5946,"temp":28.8,"humidity":46,"rain":0.0,"pressure":911.9,"uv_index":9.45,"wind_gusts":25.2,"aqi":121,"pm10":45.8,"pm2_5":34.9,"mosquito_risk":4,"arthritis_risk":5,"migraine_risk":7,"frizz_risk":0,"updated_at":"2026-03-22T16:56:56.957718+05:30"},{"city":"Hyderabad","state":"Telangana","latitude":17.385,"longitude":78.4867,"temp":32.2,"humidity":35,"rain":0.0,"pressure":953.3,"uv_index":8.9,"wind_gusts":26.6,"aqi":123,"pm10":52.6,"pm2_5":33.1,"mosquito_risk":0,"arthritis_risk":5,"migraine_risk":7,"frizz_risk":0,"updated_at":"2026-03-22T16:56:56.957728+05:30"},{"city":"Chennai","state":"Tamil Nadu","latitude":13.0827,"longitude":80.2707,"temp":30.9,"humidity":58,"rain":0.0,"pressure":1007.9,"uv_index":9.2,"wind_gusts":32.4,"aqi":39,"pm10":14.2,"pm2_5":8.8,"mosquito_risk":0,"arthritis_risk":5,"migraine_risk":4,"frizz_risk":1,"updated_at":"2026-03-22T16:56:56.957736+05:30"},{"city":"Kolkata","state":"West Bengal","latitude":22.5726,"longitude":88.3639,"temp":26.8,"humidity":55,"rain":0.0,"pressure":1008.7,"uv_index":8.25,"wind_gusts":16.6,"aqi":150,"pm10":39.0,"pm2_5":35.4,"mosquito_risk":4,"arthritis_risk":0,"migraine_risk":4,"frizz_risk":1,"updated_at":"2026-03-22T16:56:56.957745+05:30"},{"city":"Pune","state":"Maharashtra","latitude":18.5204,"longitude":73.8567,"temp":35.2,"humidity":19,"rain":0.0,"pressure":948.3,"uv_index":8.45,"wind_gusts":29.5,"aqi":103,"pm10":19.2,"pm2_5":12.4,"mosquito_risk":0,"arthritis_risk":5,"migraine_risk":10,"frizz_risk":0,"updated_at":"2026-03-22T16:56:56.957758+05:30"},{"city":"Ahmedabad","state":"Gujarat","latitude":23.0225,"longitude":72.5714,"temp":35.2,"humidity":25,"rain":0.0,"pressure":1003.1,"uv_index":7.55,"wind_gusts":22.7,"aqi":79,"pm10":42.3,"pm2_5":14.9,"mosquito_risk":0,"arthritis_risk":5,"migraine_risk":7,"frizz_risk":0,"updated_at":"2026-03-22T16:56:56.957766+05:30"},{"city":"Jaipur","state":"Rajasthan","latitude":26.9124,"longitude":75.7873,"temp":30.1,"humidity":27,"rain":0.0,"pressure":962.3,"uv_index":7.2,"wind_gusts":29.9,"aqi":86,"pm10":131.8,"pm2_5":22.8,"mosquito_risk":0,"arthritis_risk":5,"migraine_risk":7,"frizz_risk":0,"updated_at":"2026-03-22T16:56:56.957774+05:30"},{"city":"Lucknow","state":"Uttar Pradesh","latitude":26.8467,"longitude":80.9462,"temp":29.0,"humidity":34,"rain":0.0,"pressure":996.5,"uv_index":6.95,"wind_gusts":26.6,"aqi":112,"pm10":124.3,"pm2_5":28.6,"mosquito_risk":4,"arthritis_risk":5,"migraine_risk":7,"frizz_risk":0,"updated_at":"2026-03-22T16:56:56.957782+05:30"},{"city":"Kanpur","state":"Uttar Pradesh","latitude":26.4499,"longitude":80.3319,"temp":28.0,"humidity":41,"rain":0.0,"pressure":995.1,"uv_index":7.0,"wind_gusts":27.7,"aqi":132,"pm10":473.1,"pm2_5":58.6,"mosquito_risk":4,"arthritis_risk":5,"migraine_risk":7,"frizz_risk":0,"updated_at":"2026-03-22T16:56:56.957789+05:30"},{"city":"Chandigarh","state":"Chandigarh","latitude":30.7333,"longitude":76.7794,"temp":24.5,"humidity":50,"rain":0.0,"pressure":971.8,"uv_index":6.35,"wind_gusts":33.1,"aqi":98,"pm10":34.1,"pm2_5":30.3,"mosquito_risk":0,"arthritis_risk":5,"migraine_risk":7,"frizz_risk":0,"updated_at":"2026-03-22T16:56:56.957797+05:30"},{"city":"Srinagar","state":"Jammu and Kashmir","latitude":34.0837,"longitude":74.7973,"temp":17.2,"humidity":35,"rain":0.0,"pressure":842.0,"uv_index":7.5,"wind_gusts":14.0,"aqi":143,"pm10":17.5,"pm2_5":8.6,"mosquito_risk":0,"arthritis_risk":5,"migraine_risk":7,"frizz_risk":0,"updated_at":"2026-03-22T16:56:56.957804+05:30"},{"city":"Jammu","state":"Jammu and Kashmir","latitude":32.7266,"longitude":74.857,"temp":26.0,"humidity":43,"rain":0.0,"pressure":975.6,"uv_index":6.85,"wind_gusts":22.0,"aqi":101,"pm10":24.9,"pm2_5":19.4,"mosquito_risk":4,"arthritis_risk":5,"migraine_risk":7,"frizz_risk":0,"updated_at":"2026-03-22T16:56:56.957811+05:30"},{"city":"Amritsar","state":"Punjab","latitude":31.634,"longitude":74.8723,"temp":25.7,"humidity":47,"rain":0.0,"pressure":984.2,"uv_index":7.0,"wind_gusts":20.5,"aqi":157,"pm10":55.4,"pm2_5":32.5,"mosquito_risk":4,"arthritis_risk":5,"migraine_risk":7,"frizz_risk":0,"updated_at":"2026-03-22T16:56:56.957818+05:30"},{"city":"Ludhiana","state":"Punjab","latitude":30.901,"longitude":75.8573,"temp":25.0,"humidity":47,"rain":0.0,"pressure":982.2,"uv_index":6.6,"wind_gusts":26.6,"aqi":131,"pm10":53.8,"pm2_5":34.2,"mosquito_risk":4,"arthritis_risk":5,"migraine_risk":7,"frizz_risk":0,"updated_at":"2026-03-22T16:56:56.957825+05:30"},{"city":"Jalandhar","state":"Punjab","latitude":31.326,"longitude":75.5762,"temp":25.1,"humidity":49,"rain":0.0,"pressure":983.3,"uv_index":6.75,"wind_gusts":21.6,"aqi":150,"pm10":85.7,"pm2_5":36.2,"mosquito_risk":4,"arthritis_risk":5,"migraine_risk":7,"frizz_risk":0,"updated_at":"2026-03-22T16:56:56.957834+05:30"},{"city":"Dehradun","state":"Uttarakhand","latitude":30.6284,"longitude":78.0322,"temp":15.1,"humidity":71,"rain":0.0,"pressure":830.4,"uv_index":6.8,"wind_gusts":24.1,"aqi":101,"pm10":21.9,"pm2_5":17.8,"mosquito_risk":3,"arthritis_risk":5,"migraine_risk":7,"frizz_risk":0,"updated_at":"2026-03-22T16:56:56.957842+05:30"},{"city":"Shimla","state":"Himachal Pradesh","latitude":31.1048,"longitude":77.1734,"temp":13.0,"humidity":67,"rain":0.0,"pressure":784.8,"uv_index":6.85,"wind_gusts":41.0,"aqi":87,"pm10":24.7,"pm2_5":20.4,"mosquito_risk":3,"arthritis_risk":5,"migraine_risk":7,"frizz_risk":0,"updated_at":"2026-03-22T16:56:56.957849+05:30"},{"city":"Manali","state":"Himachal Pradesh","latitude":32.2396,"longitude":77.1887,"temp":17.8,"humidity":37,"rain":0.0,"pressure":819.4,"uv_index":8.85,"wind_gusts":33.8,"aqi":134,"pm10":16.5,"pm2_5":7.9,"mosquito_risk":0,"arthritis_risk":5,"migraine_risk":7,"frizz_risk":0,"updated_at":"2026-03-22T16:56:56.957856+05:30"},{"city":"Gurgaon","state":"Haryana","latitude":28.4595,"longitude":77.0266,"temp":28.1,"humidity":40,"rain":0.0,"pressure":984.6,"uv_index":6.55,"wind_gusts":23.8,"aqi":429,"pm10":1218.2,"pm2_5":124.3,"mosquito_risk":4,"arthritis_risk":5,"migraine_risk":7,"frizz_risk":0,"updated_at":"2026-03-22T16:56:56.957863+05:30"},{"city":"Noida","state":"Uttar Pradesh","latitude":28.5355,"longitude":77.391,"temp":28.5,"humidity":37,"rain":0.0,"pressure":987.5,"uv_index":6.45,"wind_gusts":27.7,"aqi":429,"pm10":1218.2,"pm2_5":124.3,"mosquito_risk":4,"arthritis_risk":5,"migraine_risk":7,"frizz_risk":0,"updated_at":"2026-03-22T16:56:56.957870+05:30"},{"city":"Ghaziabad","state":"Uttar Pradesh","latitude":28.6692,"longitude":77.4538,"temp":28.0,"humidity":40,"rain":0.0,"pressure":985.6,"uv_index":6.45,"wind_gusts":28.1,"aqi":146,"pm10":431.2,"pm2_5":63.8,"mosquito_risk":4,"arthritis_risk":5,"migraine_risk":7,"frizz_risk":0,"updated_at":"2026-03-22T16:56:56.957879+05:30"},{"city":"Faridabad","state":"Haryana","latitude":28.4089,"longitude":77.3178,"temp":28.2,"humidity":38,"rain":0.0,"pressure":986.8,"uv_index":6.5,"wind_gusts":24.8,"aqi":429,"pm10":1218.2,"pm2_5":124.3,"mosquito_risk":4,"arthritis_risk":5,"migraine_risk":7,"frizz_risk":0,"updated_at":"2026-03-22T16:56:56.957886+05:30"},{"city":"Meerut","state":"Uttar Pradesh","latitude":28.9845,"longitude":77.7064,"temp":27.5,"humidity":40,"rain":0.0,"pressure":984.3,"uv_index":6.3,"wind_gusts":31.7,"aqi":146,"pm10":431.2,"pm2_5":63.8,"mosquito_risk":4,"arthritis_risk":5,"migraine_risk":7,"frizz_risk":0,"updated_at":"2026-03-22T16:56:56.957893+05:30"},{"city":"Agra","state":"Uttar Pradesh","latitude":27.1767,"longitude":78.0081,"temp":30.4,"humidity":30,"rain":0.0,"pressure":990.7,"uv_index":6.65,"wind_gusts":29.9,"aqi":560,"pm10":698.5,"pm2_5":70.1,"mosquito_risk":0,"arthritis_risk":5,"migraine_risk":7,"frizz_risk":0,"updated_at":"2026-03-22T16:56:56.957900+05:30"},{"city":"Varanasi","state":"Uttar Pradesh","latitude":25.3176,"longitude":82.9739,"temp":27.8,"humidity":42,"rain":0.0,"pressure":1000.9,"uv_index":7.1,"wind_gusts":28.4,"aqi":103,"pm10":23.5,"pm2_5":17.9,"mosquito_risk":4,"arthritis_risk":5,"migraine_risk":4,"frizz_risk":0,"updated_at":"2026-03-22T16:56:56.957909+05:30"},{"city":"Prayagraj","state":"Uttar Pradesh","latitude":25.4358,"longitude":81.8463,"temp":28.1,"humidity":40,"rain":0.0,"pressure":999.5,"uv_index":7.5,"wind_gusts":24.8,"aqi":118,"pm10":34.5,"pm2_5":20.6,"mosquito_risk":4,"arthritis_risk":5,"migraine_risk":7,"frizz_risk":0,"updated_at":"2026-03-22T16:56:56.957917+05:30"},{"city":"Gorakhpur","state":"Uttar Pradesh","latitude":26.7606,"longitude":83.3732,"temp":26.1,"humidity":53,"rain":0.0,"pressure":1000.7,"uv_index":7.25,"wind_gusts":11.2,"aqi":159,"pm10":25.7,"pm2_5":21.1,"mosquito_risk":4,"arthritis_risk":5,"migraine_risk":4,"frizz_risk":0,"updated_at":"2026-03-22T16:56:56.957924+05:30"},{"city":"Bareilly","state":"Uttar Pradesh","latitude":28.367,"longitude":79.4304,"temp":27.5,"humidity":40,"rain":0.0,"pressure":989.6,"uv_index":6.65,"wind_gusts":29.5,"aqi":110,"pm10":41.6,"pm2_5":26.4,"mosquito_risk":4,"arthritis_risk":5,"migraine_risk":7,"frizz_risk":0,"updated_at":"2026-03-22T16:56:56.957931+05:30"},{"city":"Aligarh","state":"Uttar Pradesh","latitude":27.8974,"longitude":78.088,"temp":28.8,"humidity":36,"rain":0.0,"pressure":988.7,"uv_index":6.6,"wind_gusts":27.7,"aqi":261,"pm10":990.9,"pm2_5":111.5,"mosquito_risk":4,"arthritis_risk":5,"migraine_risk":7,"frizz_risk":0,"updated_at":"2026-03-22T16:56:56.957938+05:30"},{"city":"Moradabad","state":"Uttar Pradesh","latitude":28.8386,"longitude":78.7733,"temp":27.3,"humidity":40,"rain":0.0,"pressure":986.4,"uv_index":6.5,"wind_gusts":30.6,"aqi":135,"pm10":52.3,"pm2_5":27.2,"mosquito_risk":4,"arthritis_risk":5,"migraine_risk":7,"frizz_risk":0,"updated_at":"2026-03-22T16:56:56.957947+05:30"},{"city":"Saharanpur","state":"Uttar Pradesh","latitude":29.9637,"longitude":77.546,"temp":26.6,"humidity":38,"rain":0.0,"pressure":978.3,"uv_index":6.15,"wind_gusts":34.2,"aqi":142,"pm10":240.3,"pm2_5":49.8,"mosquito_risk":4,"arthritis_risk":5,"migraine_risk":7,"frizz_risk":0,"updated_at":"2026-03-22T16:56:56.957953+05:30"},{"city":"Jhansi","state":"Uttar Pradesh","latitude":25.4484,"longitude":78.5685,"temp":30.0,"humidity":33,"rain":0.0,"pressure":981.0,"uv_index":7.45,"wind_gusts":32.4,"aqi":80,"pm10":58.8,"pm2_5":16.6,"mosquito_risk":4,"arthritis_risk":5,"migraine_risk":7,"frizz_risk":0,"updated_at":"2026-03-22T16:57:00.302855+05:30"},{"city":"Surat","state":"Gujarat","latitude":21.1702,"longitude":72.8311,"temp":32.8,"humidity":35,"rain":0.0,"pressure":1007.5,"uv_index":7.65,"wind_gusts":24.5,"aqi":102,"pm10":52.5,"pm2_5":30.2,"mosquito_risk":0,"arthritis_risk":5,"migraine_risk":4,"frizz_risk":0,"updated_at":"2026-03-22T16:57:00.302888+05:30"},{"city":"Vadodara","state":"Gujarat","latitude":22.3072,"longitude":73.1812,"temp":36.3,"humidity":23,"rain":0.0,"pressure":1004.9,"uv_index":7.8,"wind_gusts":20.2,"aqi":98,"pm10":40.5,"pm2_5":19.4,"mosquito_risk":0,"arthritis_risk":5,"migraine_risk":7,"frizz_risk":0,"updated_at":"2026-03-22T16:57:00.302900+05:30"},{"city":"Rajkot","state":"Gujarat","latitude":22.3039,"longitude":70.8022,"temp":34.6,"humidity":30,"rain":0.0,"pressure":995.7,"uv_index":7.6,"wind_gusts":28.8,"aqi":63,"pm10":60.8,"pm2_5":17.8,"mosquito_risk":0,"arthritis_risk":5,"migraine_risk":7,"frizz_risk":0,"updated_at":"2026-03-22T16:57:00.302910+05:30"},{"city":"Thane","state":"Maharashtra","latitude":19.2183,"longitude":72.9781,"temp":31.9,"humidity":45,"rain":0.0,"pressure":1007.7,"uv_index":7.85,"wind_gusts":41.0,"aqi":154,"pm10":48.5,"pm2_5":36.8,"mosquito_risk":0,"arthritis_risk":5,"migraine_risk":4,"frizz_risk":1,"updated_at":"2026-03-22T16:57:00.302919+05:30"},{"city":"Nagpur","state":"Maharashtra","latitude":21.1458,"longitude":79.0882,"temp":32.9,"humidity":19,"rain":0.0,"pressure":974.5,"uv_index":8.35,"wind_gusts":19.4,"aqi":97,"pm10":25.0,"pm2_5":13.8,"mosquito_risk":0,"arthritis_risk":5,"migraine_risk":7,"frizz_risk":0,"updated_at":"2026-03-22T16:57:00.302926+05:30"},{"city":"Nashik","state":"Maharashtra","latitude":19.9975,"longitude":73.7898,"temp":32.5,"humidity":24,"rain":0.0,"pressure":946.1,"uv_index":8.05,"wind_gusts":28.8,"aqi":74,"pm10":21.7,"pm2_5":9.1,"mosquito_risk":0,"arthritis_risk":5,"migraine_risk":7,"frizz_risk":0,"updated_at":"2026-03-22T16:57:00.302933+05:30"},{"city":"Aurangabad","state":"Maharashtra","latitude":19.8762,"longitude":75.3433,"temp":32.9,"humidity":24,"rain":0.0,"pressure":944.6,"uv_index":8.6,"wind_gusts":28.4,"aqi":100,"pm10":16.9,"pm2_5":10.6,"mosquito_risk":0,"arthritis_risk":5,"migraine_risk":7,"frizz_risk":0,"updated_at":"2026-03-22T16:57:00.302939+05:30"},{"city":"Solapur","state":"Maharashtra","latitude":17.6599,"longitude":75.9064,"temp":35.4,"humidity":19,"rain":0.0,"pressure":956.8,"uv_index":8.75,"wind_gusts":24.5,"aqi":94,"pm10":27.2,"pm2_5":14.0,"mosquito_risk":0,"arthritis_risk":5,"migraine_risk":10,"frizz_risk":0,"updated_at":"2026-03-22T16:57:00.302946+05:30"},{"city":"Kolhapur","state":"Maharashtra","latitude":16.705,"longitude":74.2433,"temp":32.8,"humidity":27,"rain":0.0,"pressure":947.5,"uv_index":8.85,"wind_gusts":33.1,"aqi":91,"pm10":28.2,"pm2_5":15.7,"mosquito_risk":0,"arthritis_risk":5,"migraine_risk":7,"frizz_risk":0,"updated_at":"2026-03-22T16:57:00.302953+05:30"},{"city":"Goa","state":"Goa","latitude":15.2993,"longitude":74.124,"temp":30.9,"humidity":62,"rain":0.0,"pressure":997.1,"uv_index":8.85,"wind_gusts":35.3,"aqi":123,"pm10":34.1,"pm2_5":21.8,"mosquito_risk":3,"arthritis_risk":5,"migraine_risk":7,"frizz_risk":1,"updated_at":"2026-03-22T16:57:00.302961+05:30"},{"city":"Jodhpur","state":"Rajasthan","latitude":26.2389,"longitude":73.0243,"temp":31.1,"humidity":35,"rain":0.0,"pressure":985.5,"uv_index":7.55,"wind_gusts":39.2,"aqi":67,"pm10":101.3,"pm2_5":21.4,"mosquito_risk":0,"arthritis_risk":5,"migraine_risk":7,"frizz_risk":0,"updated_at":"2026-03-22T16:57:00.302968+05:30"},{"city":"Udaipur","state":"Rajasthan","latitude":24.5854,"longitude":73.7125,"temp":30.1,"humidity":25,"rain":0.0,"pressure":948.3,"uv_index":8.15,"wind_gusts":26.6,"aqi":64,"pm10":36.0,"pm2_5":10.9,"mosquito_risk":0,"arthritis_risk":5,"migraine_risk":7,"frizz_risk":0,"updated_at":"2026-03-22T16:57:00.302974+05:30"},{"city":"Kota","state":"Rajasthan","latitude":25.2138,"longitude":75.8648,"temp":33.5,"humidity":19,"rain":0.0,"pressure":980.4,"uv_index":7.45,"wind_gusts":12.6,"aqi":92,"pm10":40.3,"pm2_5":20.5,"mosquito_risk":0,"arthritis_risk":5,"migraine_risk":7,"frizz_risk":0,"updated_at":"2026-03-22T16:57:00.302981+05:30"},{"city":"Bikaner","state":"Rajasthan","latitude":28.0229,"longitude":73.3119,"temp":28.8,"humidity":44,"rain":0.0,"pressure":984.8,"uv_index":7.2,"wind_gusts":22.3,"aqi":65,"pm10":75.4,"pm2_5":18.7,"mosquito_risk":4,"arthritis_risk":5,"migraine_risk":7,"frizz_risk":0,"updated_at":"2026-03-22T16:57:00.302987+05:30"},{"city":"Ajmer","state":"Rajasthan","latitude":26.4499,"longitude":74.6399,"temp":29.8,"humidity":29,"rain":0.0,"pressure":956.7,"uv_index":7.5,"wind_gusts":25.9,"aqi":71,"pm10":42.6,"pm2_5":12.1,"mosquito_risk":4,"arthritis_risk":5,"migraine_risk":7,"frizz_risk":0,"updated_at":"2026-03-22T16:57:00.302994+05:30"},{"city":"Gwalior","state":"Madhya Pradesh","latitude":26.2183,"longitude":78.1828,"temp":29.7,"humidity":36,"rain":0.0,"pressure":986.5,"uv_index":7.15,"wind_gusts":29.9,"aqi":136,"pm10":58.4,"pm2_5":16.4,"mosquito_risk":4,"arthritis_risk":5,"migraine_risk":7,"frizz_risk":0,"updated_at":"2026-03-22T16:57:00.303001+05:30"},{"city":"Indore","state":"Madhya Pradesh","latitude":22.7196,"longitude":75.8577,"temp":30.7,"humidity":25,"rain":0.0,"pressure":949.9,"uv_index":8.05,"wind_gusts":17.6,"aqi":81,"pm10":27.1,"pm2_5":12.7,"mosquito_risk":0,"arthritis_risk":5,"migraine_risk":7,"frizz_risk":0,"updated_at":"2026-03-22T16:57:00.303007+05:30"},{"city":"Bhopal","state":"Madhya Pradesh","latitude":23.2599,"longitude":77.4126,"temp":30.8,"humidity":22,"rain":0.0,"pressure":955.7,"uv_index":7.95,"wind_gusts":25.9,"aqi":86,"pm10":28.3,"pm2_5":12.8,"mosquito_risk":0,"arthritis_risk":5,"migraine_risk":7,"frizz_risk":0,"updated_at":"2026-03-22T16:57:00.303014+05:30"},{"city":"Jabalpur","state":"Madhya Pradesh","latitude":23.1815,"longitude":79.9864,"temp":29.4,"humidity":30,"rain":0.0,"pressure":963.9,"uv_index":8.05,"wind_gusts":29.9,"aqi":85,"pm10":42.8,"pm2_5":15.0,"mosquito_risk":4,"arthritis_risk":5,"migraine_risk":7,"frizz_risk":0,"updated_at":"2026-03-22T16:57:00.303020+05:30"},{"city":"Ujjain","state":"Madhya Pradesh","latitude":23.1765,"longitude":75.7885,"temp":30.7,"humidity":29,"rain":0.0,"pressure":955.7,"uv_index":8.0,"wind_gusts":13.3,"aqi":68,"pm10":28.3,"pm2_5":12.4,"mosquito_risk":0,"arthritis_risk":5,"migraine_risk":7,"frizz_risk":0,"updated_at":"2026-03-22T16:57:00.303027+05:30"},{"city":"Visakhapatnam","state":"Andhra Pradesh","latitude":17.6868,"longitude":83.2185,"temp":29.2,"humidity":67,"rain":0.0,"pressure":1005.1,"uv_index":8.85,"wind_gusts":36.7,"aqi":81,"pm10":27.2,"pm2_5":20.0,"mosquito_risk":7,"arthritis_risk":5,"migraine_risk":4,"frizz_risk":1,"updated_at":"2026-03-22T16:57:00.303033+05:30"},{"city":"Vijayawada","state":"Andhra Pradesh","latitude":16.5062,"longitude":80.648,"temp":32.1,"humidity":51,"rain":0.0,"pressure":1003.2,"uv_index":8.9,"wind_gusts":18.7,"aqi":65,"pm10":30.4,"pm2_5":21.0,"mosquito_risk":0,"arthritis_risk":5,"migraine_risk":4,"frizz_risk":1,"updated_at":"2026-03-22T16:57:00.303040+05:30"},{"city":"Guntur","state":"Andhra Pradesh","latitude":16.3067,"longitude":80.4365,"temp":31.2,"humidity":58,"rain":0.0,"pressure":1004.5,"uv_index":8.9,"wind_gusts":19.4,"aqi":70,"pm10":29.7,"pm2_5":19.4,"mosquito_risk":0,"arthritis_risk":5,"migraine_risk":4,"frizz_risk":1,"updated_at":"2026-03-22T16:57:00.303047+05:30"},{"city":"Nellore","state":"Andhra Pradesh","latitude":14.4426,"longitude":79.9865,"temp":32.3,"humidity":52,"rain":0.0,"pressure":1006.3,"uv_index":9.05,"wind_gusts":27.7,"aqi":51,"pm10":18.7,"pm2_5":12.2,"mosquito_risk":0,"arthritis_risk":5,"migraine_risk":4,"frizz_risk":1,"updated_at":"2026-03-22T16:57:00.303054+05:30"},{"city":"Kurnool","state":"Andhra Pradesh","latitude":15.8281,"longitude":78.0373,"temp":35.7,"humidity":29,"rain":0.0,"pressure":975.9,"uv_index":8.95,"wind_gusts":20.2,"aqi":89,"pm10":39.6,"pm2_5":24.9,"mosquito_risk":0,"arthritis_risk":5,"migraine_risk":10,"frizz_risk":0,"updated_at":"2026-03-22T16:57:00.303061+05:30"},{"city":"Kakinada","state":"Andhra Pradesh","latitude":16.9891,"longitude":82.2475,"temp":30.7,"humidity":61,"rain":0.0,"pressure":1008.6,"uv_index":8.3,"wind_gusts":28.8,"aqi":40,"pm10":18.2,"pm2_5":11.0,"mosquito_risk":3,"arthritis_risk":0,"migraine_risk":4,"frizz_risk":1,"updated_at":"2026-03-22T16:57:00.303067+05:30"},{"city":"Tirupati","state":"Andhra Pradesh","latitude":13.6288,"longitude":79.4192,"temp":33.4,"humidity":38,"rain":0.0,"pressure":991.2,"uv_index":9.2,"wind_gusts":28.4,"aqi":74,"pm10":25.3,"pm2_5":17.2,"mosquito_risk":0,"arthritis_risk":5,"migraine_risk":7,"frizz_risk":1,"updated_at":"2026-03-22T16:57:00.303074+05:30"},{"city":"Warangal","state":"Telangana","latitude":17.9689,"longitude":79.5941,"temp":32.4,"humidity":42,"rain":0.0,"pressure":979.2,"uv_index":8.75,"wind_gusts":21.2,"aqi":116,"pm10":46.0,"pm2_5":29.9,"mosquito_risk":0,"arthritis_risk":5,"migraine_risk":7,"frizz_risk":1,"updated_at":"2026-03-22T16:57:00.303080+05:30"},{"city":"Nizamabad","state":"Telangana","latitude":18.6725,"longitude":78.0941,"temp":33.3,"humidity":32,"rain":0.0,"pressure":964.9,"uv_index":8.65,"wind_gusts":27.4,"aqi":103,"pm10":20.2,"pm2_5":13.3,"mosquito_risk":0,"arthritis_risk":5,"migraine_risk":7,"frizz_risk":0,"updated_at":"2026-03-22T16:57:00.303086+05:30"},{"city":"Mysore","state":"Karnataka","latitude":12.2958,"longitude":76.6396,"temp":32.6,"humidity":34,"rain":0.0,"pressure":927.8,"uv_index":9.4,"wind_gusts":37.4,"aqi":121,"pm10":36.4,"pm2_5":24.9,"mosquito_risk":0,"arthritis_risk":5,"migraine_risk":7,"frizz_risk":0,"updated_at":"2026-03-22T16:57:00.303093+05:30"},{"city":"Mangalore","state":"Karnataka","latitude":12.9141,"longitude":74.856,"temp":29.4,"humidity":73,"rain":0.0,"pressure":1005.5,"uv_index":9.05,"wind_gusts":28.4,"aqi":96,"pm10":38.8,"pm2_5":21.0,"mosquito_risk":7,"arthritis_risk":5,"migraine_risk":4,"frizz_risk":1,"updated_at":"2026-03-22T16:57:00.303099+05:30"},{"city":"Hubli-Dharwad","state":"Karnataka","latitude":15.3647,"longitude":75.124,"temp":33.8,"humidity":25,"rain":0.0,"pressure":940.0,"uv_index":9.05,"wind_gusts":26.3,"aqi":133,"pm10":27.1,"pm2_5":17.2,"mosquito_risk":0,"arthritis_risk":5,"migraine_risk":7,"frizz_risk":0,"updated_at":"2026-03-22T16:57:00.303106+05:30"},{"city":"Belgaum","state":"Karnataka","latitude":15.8497,"longitude":74.4977,"temp":32.5,"humidity":26,"rain":0.0,"pressure":925.4,"uv_index":9.1,"wind_gusts":35.3,"aqi":125,"pm10":29.1,"pm2_5":16.9,"mosquito_risk":0,"arthritis_risk":5,"migraine_risk":7,"frizz_risk":0,"updated_at":"2026-03-22T16:57:03.646069+05:30"},{"city":"Coimbatore","state":"Tamil Nadu","latitude":11.0168,"longitude":76.9558,"temp":33.8,"humidity":31,"rain":0.0,"pressure":960.8,"uv_index":9.4,"wind_gusts":33.5,"aqi":108,"pm10":32.2,"pm2_5":22.0,"mosquito_risk":0,"arthritis_risk":5,"migraine_risk":7,"frizz_risk":0,"updated_at":"2026-03-22T16:57:03.646099+05:30"},{"city":"Madurai","state":"Tamil Nadu","latitude":9.9252,"longitude":78.1198,"temp":35.5,"humidity":34,"rain":0.0,"pressure":991.6,"uv_index":9.35,"wind_gusts":29.5,"aqi":63,"pm10":23.6,"pm2_5":14.2,"mosquito_risk":0,"arthritis_risk":5,"migraine_risk":10,"frizz_risk":1,"updated_at":"2026-03-22T16:57:03.646109+05:30"},{"city":"Trichy","state":"Tamil Nadu","latitude":10.7905,"longitude":78.7047,"temp":34.8,"humidity":40,"rain":0.0,"pressure":998.7,"uv_index":9.25,"wind_gusts":23.8,"aqi":64,"pm10":22.7,"pm2_5":15.6,"mosquito_risk":0,"arthritis_risk":5,"migraine_risk":7,"frizz_risk":1,"updated_at":"2026-03-22T16:57:03.646117+05:30"},{"city":"Salem","state":"Tamil Nadu","latitude":11.6643,"longitude":78.146,"temp":34.3,"humidity":36,"rain":0.0,"pressure":976.6,"uv_index":9.3,"wind_gusts":21.2,"aqi":85,"pm10":33.6,"pm2_5":22.8,"mosquito_risk":0,"arthritis_risk":5,"migraine_risk":7,"frizz_risk":1,"updated_at":"2026-03-22T16:57:03.646125+05:30"},{"city":"Tirunelveli","state":"Tamil Nadu","latitude":8.7139,"longitude":77.7567,"temp":35.5,"humidity":35,"rain":0.0,"pressure":1001.8,"uv_index":9.3,"wind_gusts":33.1,"aqi":86,"pm10":19.3,"pm2_5":13.3,"mosquito_risk":0,"arthritis_risk":5,"migraine_risk":7,"frizz_risk":1,"updated_at":"2026-03-22T16:57:03.646132+05:30"},{"city":"Vellore","state":"Tamil Nadu","latitude":12.9165,"longitude":79.1325,"temp":33.5,"humidity":39,"rain":0.0,"pressure":984.1,"uv_index":9.25,"wind_gusts":34.9,"aqi":94,"pm10":25.8,"pm2_5":18.1,"mosquito_risk":0,"arthritis_risk":5,"migraine_risk":7,"frizz_risk":1,"updated_at":"2026-03-22T16:57:03.646157+05:30"},{"city":"Erode","state":"Tamil Nadu","latitude":11.341,"longitude":77.7172,"temp":35.2,"humidity":36,"rain":0.0,"pressure":987.9,"uv_index":9.3,"wind_gusts":32.8,"aqi":69,"pm10":26.4,"pm2_5":17.6,"mosquito_risk":0,"arthritis_risk":5,"migraine_risk":10,"frizz_risk":1,"updated_at":"2026-03-22T16:57:03.646165+05:30"},{"city":"Kochi","state":"Kerala","latitude":9.9312,"longitude":76.2673,"temp":29.5,"humidity":74,"rain":0.0,"pressure":1007.0,"uv_index":9.15,"wind_gusts":34.9,"aqi":104,"pm10":29.0,"pm2_5":20.4,"mosquito_risk":7,"arthritis_risk":5,"migraine_risk":4,"frizz_risk":1,"updated_at":"2026-03-22T16:57:03.646172+05:30"},{"city":"Thiruvananthapuram","state":"Kerala","latitude":8.5241,"longitude":76.9366,"temp":29.3,"humidity":74,"rain":0.0,"pressure":1007.0,"uv_index":9.15,"wind_gusts":26.3,"aqi":98,"pm10":16.6,"pm2_5":13.2,"mosquito_risk":7,"arthritis_risk":5,"migraine_risk":4,"frizz_risk":1,"updated_at":"2026-03-22T16:57:03.646179+05:30"},{"city":"Kozhikode","state":"Kerala","latitude":11.2588,"longitude":75.7804,"temp":30.2,"humidity":74,"rain":0.0,"pressure":1006.7,"uv_index":9.05,"wind_gusts":31.0,"aqi":61,"pm10":31.7,"pm2_5":17.5,"mosquito_risk":3,"arthritis_risk":5,"migraine_risk":4,"frizz_risk":1,"updated_at":"2026-03-22T16:57:03.646186+05:30"},{"city":"Thrissur","state":"Kerala","latitude":10.5276,"longitude":76.2144,"temp":32.1,"humidity":60,"rain":0.0,"pressure":1005.5,"uv_index":9.15,"wind_gusts":38.2,"aqi":85,"pm10":36.1,"pm2_5":24.8,"mosquito_risk":0,"arthritis_risk":5,"migraine_risk":4,"frizz_risk":1,"updated_at":"2026-03-22T16:57:03.646192+05:30"},{"city":"Kannur","state":"Kerala","latitude":11.8745,"longitude":75.3704,"temp":30.9,"humidity":68,"rain":0.0,"pressure":1006.2,"uv_index":9.1,"wind_gusts":34.9,"aqi":67,"pm10":34.3,"pm2_5":18.5,"mosquito_risk":3,"arthritis_risk":5,"migraine_risk":4,"frizz_risk":1,"updated_at":"2026-03-22T16:57:03.646199+05:30"},{"city":"Patna","state":"Bihar","latitude":25.5941,"longitude":85.1376,"temp":26.3,"humidity":45,"rain":0.0,"pressure":1003.9,"uv_index":7.7,"wind_gusts":19.1,"aqi":161,"pm10":37.7,"pm2_5":32.5,"mosquito_risk":4,"arthritis_risk":5,"migraine_risk":4,"frizz_risk":0,"updated_at":"2026-03-22T16:57:03.646206+05:30"},{"city":"Gaya","state":"Bihar","latitude":24.7914,"longitude":85.0002,"temp":25.4,"humidity":56,"rain":0.0,"pressure":997.3,"uv_index":7.8,"wind_gusts":21.6,"aqi":145,"pm10":32.1,"pm2_5":25.1,"mosquito_risk":4,"arthritis_risk":5,"migraine_risk":7,"frizz_risk":0,"updated_at":"2026-03-22T16:57:03.646212+05:30"},{"city":"Muzaffarpur","state":"Bihar","latitude":26.1209,"longitude":85.3647,"temp":25.3,"humidity":52,"rain":0.0,"pressure":1004.0,"uv_index":7.0,"wind_gusts":11.5,"aqi":163,"pm10":36.7,"pm2_5":31.0,"mosquito_risk":4,"arthritis_risk":5,"migraine_risk":4,"frizz_risk":0,"updated_at":"2026-03-22T16:57:03.646219+05:30"},{"city":"Bhagalpur","state":"Bihar","latitude":25.2425,"longitude":87.0117,"temp":24.6,"humidity":58,"rain":0.0,"pressure":1004.8,"uv_index":7.05,"wind_gusts":17.3,"aqi":155,"pm10":46.2,"pm2_5":39.2,"mosquito_risk":0,"arthritis_risk":5,"migraine_risk":4,"frizz_risk":0,"updated_at":"2026-03-22T16:57:03.646225+05:30"},{"city":"Ranchi","state":"Jharkhand","latitude":23.3441,"longitude":85.3096,"temp":24.2,"humidity":37,"rain":0.0,"pressure":939.6,"uv_index":8.45,"wind_gusts":29.5,"aqi":112,"pm10":52.5,"pm2_5":18.6,"mosquito_risk":0,"arthritis_risk":5,"migraine_risk":7,"frizz_risk":0,"updated_at":"2026-03-22T16:57:03.646232+05:30"},{"city":"Jamshedpur","state":"Jharkhand","latitude":22.8046,"longitude":86.2029,"temp":28.5,"humidity":35,"rain":0.0,"pressure":993.3,"uv_index":8.35,"wind_gusts":19.1,"aqi":118,"pm10":43.2,"pm2_5":15.3,"mosquito_risk":4,"arthritis_risk":5,"migraine_risk":7,"frizz_risk":0,"updated_at":"2026-03-22T16:57:03.646238+05:30"},{"city":"Dhanbad","state":"Jharkhand","latitude":23.7957,"longitude":86.4304,"temp":26.3,"humidity":40,"rain":0.0,"pressure":982.4,"uv_index":8.2,"wind_gusts":23.8,"aqi":138,"pm10":37.4,"pm2_5":23.4,"mosquito_risk":4,"arthritis_risk":5,"migraine_risk":7,"frizz_risk":0,"updated_at":"2026-03-22T16:57:03.646245+05:30"},{"city":"Bokaro","state":"Jharkhand","latitude":23.6693,"longitude":86.1511,"temp":26.4,"humidity":39,"rain":0.0,"pressure":986.4,"uv_index":8.25,"wind_gusts":24.5,"aqi":136,"pm10":47.6,"pm2_5":24.7,"mosquito_risk":4,"arthritis_risk":5,"migraine_risk":7,"frizz_risk":0,"updated_at":"2026-03-22T16:57:03.646252+05:30"},{"city":"Bhubaneswar","state":"Odisha","latitude":20.2961,"longitude":85.8245,"temp":32.5,"humidity":36,"rain":0.0,"pressure":1003.6,"uv_index":8.65,"wind_gusts":28.4,"aqi":127,"pm10":41.8,"pm2_5":34.8,"mosquito_risk":0,"arthritis_risk":5,"migraine_risk":4,"frizz_risk":0,"updated_at":"2026-03-22T16:57:03.646258+05:30"},{"city":"Cuttack","state":"Odisha","latitude":20.4625,"longitude":85.8828,"temp":32.2,"humidity":36,"rain":0.0,"pressure":1005.3,"uv_index":8.65,"wind_gusts":20.9,"aqi":127,"pm10":41.8,"pm2_5":34.8,"mosquito_risk":0,"arthritis_risk":5,"migraine_risk":4,"frizz_risk":0,"updated_at":"2026-03-22T16:57:03.646264+05:30"},{"city":"Rourkela","state":"Odisha","latitude":22.2604,"longitude":84.8536,"temp":28.9,"humidity":36,"rain":0.0,"pressure":987.5,"uv_index":8.25,"wind_gusts":20.5,"aqi":114,"pm10":33.9,"pm2_5":14.7,"mosquito_risk":4,"arthritis_risk":5,"migraine_risk":7,"frizz_risk":0,"updated_at":"2026-03-22T16:57:03.646270+05:30"},{"city":"Raipur","state":"Chhattisgarh","latitude":21.2514,"longitude":81.6296,"temp":32.4,"humidity":23,"rain":0.0,"pressure":976.0,"uv_index":8.4,"wind_gusts":23.0,"aqi":82,"pm10":31.4,"pm2_5":19.1,"mosquito_risk":0,"arthritis_risk":5,"migraine_risk":7,"frizz_risk":0,"updated_at":"2026-03-22T16:57:03.646276+05:30"},{"city":"Bhilai","state":"Chhattisgarh","latitude":21.1938,"longitude":81.3509,"temp":32.8,"humidity":23,"rain":0.0,"pressure":976.1,"uv_index":8.4,"wind_gusts":16.9,"aqi":70,"pm10":29.9,"pm2_5":16.9,"mosquito_risk":0,"arthritis_risk":5,"migraine_risk":7,"frizz_risk":0,"updated_at":"2026-03-22T16:57:03.646282+05:30"},{"city":"Guwahati","state":"Assam","latitude":26.1158,"longitude":91.7086,"temp":25.0,"humidity":63,"rain":0.0,"pressure":1003.3,"uv_index":7.6,"wind_gusts":20.5,"aqi":90,"pm10":29.3,"pm2_5":23.9,"mosquito_risk":7,"arthritis_risk":5,"migraine_risk":4,"frizz_risk":1,"updated_at":"2026-03-22T16:57:03.646289+05:30"},{"city":"Agartala","state":"Tripura","latitude":23.8315,"longitude":91.2868,"temp":26.5,"humidity":51,"rain":0.0,"pressure":1008.3,"uv_index":7.85,"wind_gusts":22.0,"aqi":135,"pm10":39.1,"pm2_5":33.6,"mosquito_risk":4,"arthritis_risk":0,"migraine_risk":4,"frizz_risk":0,"updated_at":"2026-03-22T16:57:03.646295+05:30"},{"city":"Shillong","state":"Meghalaya","latitude":25.5788,"longitude":91.8933,"temp":13.5,"humidity":72,"rain":0.0,"pressure":855.4,"uv_index":6.7,"wind_gusts":24.8,"aqi":73,"pm10":20.2,"pm2_5":17.0,"mosquito_risk":3,"arthritis_risk":5,"migraine_risk":7,"frizz_risk":0,"updated_at":"2026-03-22T16:57:03.646301+05:30"},{"city":"Imphal","state":"Manipur","latitude":24.817,"longitude":93.9368,"temp":17.1,"humidity":76,"rain":0.0,"pressure":923.3,"uv_index":8.15,"wind_gusts":51.5,"aqi":70,"pm10":8.9,"pm2_5":7.8,"mosquito_risk":3,"arthritis_risk":5,"migraine_risk":7,"frizz_risk":0,"updated_at":"2026-03-22T16:57:03.646308+05:30"},{"city":"Aizawl","state":"Mizoram","latitude":23.7271,"longitude":92.7176,"temp":18.6,"humidity":69,"rain":0.0,"pressure":893.5,"uv_index":8.2,"wind_gusts":44.6,"aqi":63,"pm10":12.1,"pm2_5":10.6,"mosquito_risk":3,"arthritis_risk":5,"migraine_risk":7,"frizz_risk":0,"updated_at":"2026-03-22T16:57:03.646314+05:30"},{"city":"Kohima","state":"Nagaland","latitude":25.6701,"longitude":94.1077,"temp":13.3,"humidity":93,"rain":0.0,"pressure":853.8,"uv_index":7.8,"wind_gusts":56.9,"aqi":62,"pm10":8.3,"pm2_5":7.2,"mosquito_risk":3,"arthritis_risk":10,"migraine_risk":7,"frizz_risk":0,"updated_at":"2026-03-22T16:57:03.646320+05:30"},{"city":"Gangtok","state":"Sikkim","latitude":27.3314,"longitude":88.6138,"temp":13.6,"humidity":80,"rain":0.0,"pressure":836.6,"uv_index":7.85,"wind_gusts":19.4,"aqi":95,"pm10":17.6,"pm2_5":16.7,"mosquito_risk":3,"arthritis_risk":5,"migraine_risk":7,"frizz_risk":0,"updated_at":"2026-03-22T16:57:03.646327+05:30"},{"city":"Siliguri","state":"West Bengal","latitude":26.7271,"longitude":88.3953,"temp":20.3,"humidity":65,"rain":0.0,"pressure":996.3,"uv_index":7.25,"wind_gusts":17.3,"aqi":109,"pm10":23.0,"pm2_5":21.8,"mosquito_risk":3,"arthritis_risk":5,"migraine_risk":7,"frizz_risk":0,"updated_at":"2026-03-22T16:57:07.002766+05:30"},{"city":"Durgapur","state":"West Bengal","latitude":23.5204,"longitude":87.3119,"temp":27.0,"humidity":41,"rain":0.0,"pressure":997.9,"uv_index":7.95,"wind_gusts":18.4,"aqi":121,"pm10":31.2,"pm2_5":25.3,"mosquito_risk":4,"arthritis_risk":5,"migraine_risk":7,"frizz_risk":0,"updated_at":"2026-03-22T16:57:07.002798+05:30"},{"city":"Asansol","state":"West Bengal","latitude":23.6739,"longitude":86.9524,"temp":26.6,"humidity":43,"rain":0.0,"pressure":996.5,"uv_index":8.2,"wind_gusts":20.5,"aqi":118,"pm10":31.9,"pm2_5":23.8,"mosquito_risk":4,"arthritis_risk":5,"migraine_risk":7,"frizz_risk":0,"updated_at":"2026-03-22T16:57:07.002810+05:30"},{"city":"Pondicherry","state":"Puducherry","latitude":11.9139,"longitude":79.8145,"temp":32.0,"humidity":54,"rain":0.0,"pressure":1008.5,"uv_index":9.15,"wind_gusts":28.8,"aqi":36,"pm10":13.2,"pm2_5":7.5,"mosquito_risk":0,"arthritis_risk":0,"migraine_risk":4,"frizz_risk":1,"updated_at":"2026-03-22T16:57:07.002820+05:30"},{"city":"Port Blair","state":"Andaman and Nicobar Islands","latitude":11.6234,"longitude":92.7265,"temp":28.5,"humidity":78,"rain":0.0,"pressure":1007.7,"uv_index":9.1,"wind_gusts":20.9,"aqi":45,"pm10":12.3,"pm2_5":9.2,"mosquito_risk":7,"arthritis_risk":5,"migraine_risk":4,"frizz_risk":1,"updated_at":"2026-03-22T16:57:07.002828+05:30"},{"city":"Haridwar","state":"Uttarakhand","latitude":29.9457,"longitude":78.1642,"temp":26.9,"humidity":41,"rain":0.0,"pressure":976.7,"uv_index":6.25,"wind_gusts":25.9,"aqi":109,"pm10":94.3,"pm2_5":32.8,"mosquito_risk":4,"arthritis_risk":5,"migraine_risk":7,"frizz_risk":0,"updated_at":"2026-03-22T16:57:07.002835+05:30"},{"city":"Rishikesh","state":"Uttarakhand","latitude":30.0869,"longitude":78.2676,"temp":25.4,"humidity":47,"rain":0.0,"pressure":969.4,"uv_index":6.35,"wind_gusts":25.6,"aqi":108,"pm10":35.5,"pm2_5":25.4,"mosquito_risk":4,"arthritis_risk":5,"migraine_risk":7,"frizz_risk":0,"updated_at":"2026-03-22T16:57:07.002842+05:30"},{"city":"Nainital","state":"Uttarakhand","latitude":29.3919,"longitude":79.4542,"temp":17.0,"humidity":62,"rain":0.0,"pressure":806.7,"uv_index":7.1,"wind_gusts":37.8,"aqi":114,"pm10":34.1,"pm2_5":28.2,"mosquito_risk":3,"arthritis_risk":5,"migraine_risk":7,"frizz_risk":0,"updated_at":"2026-03-22T16:57:07.002850+05:30"},{"city":"Mussoorie","state":"Uttarakhand","latitude":30.4599,"longitude":78.0664,"temp":15.4,"humidity":69,"rain":0.0,"pressure":803.1,"uv_index":6.65,"wind_gusts":25.9,"aqi":112,"pm10":42.5,"pm2_5":29.9,"mosquito_risk":3,"arthritis_risk":5,"migraine_risk":7,"frizz_risk":0,"updated_at":"2026-03-22T16:57:07.002857+05:30"},{"city":"Dharamshala","state":"Himachal Pradesh","latitude":32.219,"longitude":76.3234,"temp":17.9,"humidity":69,"rain":0.0,"pressure":870.3,"uv_index":6.55,"wind_gusts":20.9,"aqi":119,"pm10":23.6,"pm2_5":16.6,"mosquito_risk":3,"arthritis_risk":5,"migraine_risk":7,"frizz_risk":0,"updated_at":"2026-03-22T16:57:07.002864+05:30"},{"city":"Dalhousie","state":"Himachal Pradesh","latitude":32.5387,"longitude":75.971,"temp":16.2,"humidity":64,"rain":0.0,"pressure":804.6,"uv_index":6.85,"wind_gusts":19.1,"aqi":92,"pm10":31.7,"pm2_5":27.1,"mosquito_risk":3,"arthritis_risk":5,"migraine_risk":7,"frizz_risk":0,"updated_at":"2026-03-22T16:57:07.002871+05:30"},{"city":"Patiala","state":"Punjab","latitude":30.3398,"longitude":76.3869,"temp":26.2,"humidity":42,"rain":0.0,"pressure":981.4,"uv_index":6.25,"wind_gusts":31.3,"aqi":151,"pm10":739.5,"pm2_5":90.6,"mosquito_risk":4,"arthritis_risk":5,"migraine_risk":7,"frizz_risk":0,"updated_at":"2026-03-22T16:57:07.002878+05:30"},{"city":"Bhatinda","state":"Punjab","latitude":30.211,"longitude":74.9455,"temp":27.0,"humidity":43,"rain":0.0,"pressure":987.2,"uv_index":6.8,"wind_gusts":19.4,"aqi":151,"pm10":109.9,"pm2_5":37.6,"mosquito_risk":4,"arthritis_risk":5,"migraine_risk":7,"frizz_risk":0,"updated_at":"2026-03-22T16:57:07.002884+05:30"},{"city":"Rohtak","state":"Haryana","latitude":28.8955,"longitude":76.6066,"temp":27.8,"humidity":41,"rain":0.0,"pressure":985.0,"uv_index":6.45,"wind_gusts":24.8,"aqi":175,"pm10":616.5,"pm2_5":72.2,"mosquito_risk":4,"arthritis_risk":5,"migraine_risk":7,"frizz_risk":0,"updated_at":"2026-03-22T16:57:07.002890+05:30"},{"city":"Panipat","state":"Haryana","latitude":29.3909,"longitude":76.9635,"temp":27.2,"humidity":41,"rain":0.0,"pressure":983.4,"uv_index":6.25,"wind_gusts":29.5,"aqi":356,"pm10":1393.3,"pm2_5":143.0,"mosquito_risk":4,"arthritis_risk":5,"migraine_risk":7,"frizz_risk":0,"updated_at":"2026-03-22T16:57:07.002897+05:30"},{"city":"Mathura","state":"Uttar Pradesh","latitude":27.4924,"longitude":77.6737,"temp":29.1,"humidity":36,"rain":0.0,"pressure":989.9,"uv_index":6.15,"wind_gusts":28.1,"aqi":426,"pm10":581.1,"pm2_5":63.6,"mosquito_risk":4,"arthritis_risk":5,"migraine_risk":7,"frizz_risk":0,"updated_at":"2026-03-22T16:57:07.002904+05:30"},{"city":"Vrindavan","state":"Uttar Pradesh","latitude":27.5823,"longitude":77.7027,"temp":29.3,"humidity":36,"rain":0.0,"pressure":990.4,"uv_index":6.65,"wind_gusts":28.1,"aqi":426,"pm10":581.1,"pm2_5":63.6,"mosquito_risk":4,"arthritis_risk":5,"migraine_risk":7,"frizz_risk":0,"updated_at":"2026-03-22T16:57:07.002911+05:30"},{"city":"Ayodhya","state":"Uttar Pradesh","latitude":26.7922,"longitude":82.1998,"temp":27.8,"humidity":43,"rain":0.0,"pressure":998.4,"uv_index":7.05,"wind_gusts":18.7,"aqi":99,"pm10":20.3,"pm2_5":16.8,"mosquito_risk":4,"arthritis_risk":5,"migraine_risk":7,"frizz_risk":0,"updated_at":"2026-03-22T16:57:07.002917+05:30"},{"city":"Ratlam","state":"Madhya Pradesh","latitude":23.3315,"longitude":75.0367,"temp":31.3,"humidity":28,"rain":0.0,"pressure":956.3,"uv_index":7.95,"wind_gusts":14.4,"aqi":70,"pm10":26.7,"pm2_5":11.4,"mosquito_risk":0,"arthritis_risk":5,"migraine_risk":7,"frizz_risk":0,"updated_at":"2026-03-22T16:57:07.002924+05:30"},{"city":"Sagar","state":"Madhya Pradesh","latitude":23.8388,"longitude":78.7378,"temp":29.3,"humidity":30,"rain":0.0,"pressure":952.6,"uv_index":7.95,"wind_gusts":29.9,"aqi":94,"pm10":37.8,"pm2_5":15.3,"mosquito_risk":4,"arthritis_risk":5,"migraine_risk":7,"frizz_risk":0,"updated_at":"2026-03-22T16:57:07.002930+05:30"},{"city":"Satna","state":"Madhya Pradesh","latitude":24.6005,"longitude":80.8322,"temp":28.3,"humidity":32,"rain":0.0,"pressure":974.4,"uv_index":7.9,"wind_gusts":32.4,"aqi":102,"pm10":66.6,"pm2_5":19.0,"mosquito_risk":4,"arthritis_risk":5,"migraine_risk":7,"frizz_risk":0,"updated_at":"2026-03-22T16:57:07.002936+05:30"},{"city":"Akola","state":"Maharashtra","latitude":20.7002,"longitude":77.0082,"temp":33.4,"humidity":25,"rain":0.0,"pressure":976.2,"uv_index":8.3,"wind_gusts":21.2,"aqi":97,"pm10":19.4,"pm2_5":12.7,"mosquito_risk":0,"arthritis_risk":5,"migraine_risk":7,"frizz_risk":0,"updated_at":"2026-03-22T16:57:07.002944+05:30"},{"city":"Amravati","state":"Maharashtra","latitude":20.9374,"longitude":77.7796,"temp":33.6,"humidity":21,"rain":0.0,"pressure":968.2,"uv_index":8.3,"wind_gusts":22.3,"aqi":97,"pm10":17.7,"pm2_5":10.8,"mosquito_risk":0,"arthritis_risk":5,"migraine_risk":7,"frizz_risk":0,"updated_at":"2026-03-22T16:57:07.002951+05:30"},{"city":"Latur","state":"Maharashtra","latitude":18.4088,"longitude":76.5604,"temp":33.0,"humidity":22,"rain":0.0,"pressure":940.1,"uv_index":8.7,"wind_gusts":28.8,"aqi":91,"pm10":20.9,"pm2_5":13.3,"mosquito_risk":0,"arthritis_risk":5,"migraine_risk":7,"frizz_risk":0,"updated_at":"2026-03-22T16:57:07.002957+05:30"},{"city":"Nanded","state":"Maharashtra","latitude":19.1383,"longitude":77.3091,"temp":35.2,"humidity":20,"rain":0.0,"pressure":968.6,"uv_index":8.5,"wind_gusts":28.4,"aqi":103,"pm10":15.8,"pm2_5":9.9,"mosquito_risk":0,"arthritis_risk":5,"migraine_risk":10,"frizz_risk":0,"updated_at":"2026-03-22T16:57:07.002964+05:30"},{"city":"Gulbarga","state":"Karnataka","latitude":17.3297,"longitude":76.8343,"temp":35.6,"humidity":23,"rain":0.0,"pressure":957.9,"uv_index":8.75,"wind_gusts":18.4,"aqi":105,"pm10":36.8,"pm2_5":21.2,"mosquito_risk":0,"arthritis_risk":5,"migraine_risk":10,"frizz_risk":0,"updated_at":"2026-03-22T16:57:07.002970+05:30"},{"city":"Bidar","state":"Karnataka","latitude":17.9104,"longitude":77.5199,"temp":33.8,"humidity":24,"rain":0.0,"pressure":935.5,"uv_index":8.75,"wind_gusts":20.5,"aqi":103,"pm10":34.3,"pm2_5":21.2,"mosquito_risk":0,"arthritis_risk":5,"migraine_risk":7,"frizz_risk":0,"updated_at":"2026-03-22T16:57:07.002977+05:30"},{"city":"Hospet","state":"Karnataka","latitude":15.2689,"longitude":76.3909,"temp":34.9,"humidity":25,"rain":0.0,"pressure":955.0,"uv_index":9.0,"wind_gusts":15.1,"aqi":157,"pm10":34.5,"pm2_5":25.2,"mosquito_risk":0,"arthritis_risk":5,"migraine_risk":7,"frizz_risk":0,"updated_at":"2026-03-22T16:57:07.002982+05:30"},{"city":"Tirupur","state":"Tamil Nadu","latitude":11.1085,"longitude":77.3411,"temp":35.3,"humidity":30,"rain":0.0,"pressure":974.1,"uv_index":9.4,"wind_gusts":31.0,"aqi":97,"pm10":28.6,"pm2_5":19.3,"mosquito_risk":0,"arthritis_risk":5,"migraine_risk":10,"frizz_risk":0,"updated_at":"2026-03-22T16:57:07.002988+05:30"},{"city":"Alappuzha","state":"Kerala","latitude":9.4981,"longitude":76.3388,"temp":29.5,"humidity":76,"rain":0.0,"pressure":1007.4,"uv_index":9.1,"wind_gusts":33.5,"aqi":120,"pm10":23.5,"pm2_5":17.2,"mosquito_risk":7,"arthritis_risk":5,"migraine_risk":4,"frizz_risk":1,"updated_at":"2026-03-22T16:57:07.002994+05:30"},{"city":"Munnar","state":"Kerala","latitude":10.0889,"longitude":77.0595,"temp":27.7,"humidity":51,"rain":0.0,"pressure":858.2,"uv_index":8.65,"wind_gusts":26.6,"aqi":73,"pm10":28.8,"pm2_5":17.9,"mosquito_risk":4,"arthritis_risk":5,"migraine_risk":7,"frizz_risk":1,"updated_at":"2026-03-22T16:57:07.003002+05:30"},{"city":"Silchar","state":"Assam","latitude":24.8333,"longitude":92.7789,"temp":23.8,"humidity":76,"rain":0.0,"pressure":1007.3,"uv_index":7.95,"wind_gusts":22.7,"aqi":87,"pm10":23.2,"pm2_5":19.8,"mosquito_risk":3,"arthritis_risk":5,"migraine_risk":4,"frizz_risk":1,"updated_at":"2026-03-22T16:57:07.003008+05:30"},{"city":"Dibrugarh","state":"Assam","latitude":27.4728,"longitude":94.912,"temp":21.5,"humidity":83,"rain":0.0,"pressure":997.8,"uv_index":3.55,"wind_gusts":28.4,"aqi":134,"pm10":27.7,"pm2_5":24.3,"mosquito_risk":3,"arthritis_risk":5,"migraine_risk":3,"frizz_risk":1,"updated_at":"2026-03-22T16:57:07.003015+05:30"}]