[{"city":"Delhi","state":"Delhi","latitude":28.6139,"longitude":77.209,"temp":30.5,"humidity":56,"rain":0.0,"pressure":980.9,"uv_index":7.65,"wind_gusts":34.6,"aqi":403,"pm10":516.0,"pm2_5":87.8,"no2":5.6,"co":354.0,"o3":198.0,"so2":18.2,"mosquito_risk":0,"arthritis_risk":5,"migraine_risk":7,"frizz_risk":1,"updated_at":"2026-05-30T14:50:39.241952+05:30"},{"city":"Mumbai","state":"Maharashtra","latitude":19.076,"longitude":72.8777,"temp":34.2,"humidity":56,"rain":0.0,"pressure":1006.9,"uv_index":7.6,"wind_gusts":40.0,"aqi":67,"pm10":28.1,"pm2_5":18.4,"no2":4.3,"co":155.0,"o3":93.0,"so2":5.8,"mosquito_risk":0,"arthritis_risk":5,"migraine_risk":4,"frizz_risk":1,"updated_at":"2026-05-30T14:50:39.242001+05:30"},{"city":"Bangalore","state":"Karnataka","latitude":12.9716,"longitude":77.5946,"temp":31.6,"humidity":47,"rain":0.0,"pressure":911.5,"uv_index":8.95,"wind_gusts":38.9,"aqi":58,"pm10":20.9,"pm2_5":13.1,"no2":3.4,"co":288.0,"o3":132.0,"so2":3.0,"mosquito_risk":0,"arthritis_risk":5,"migraine_risk":7,"frizz_risk":1,"updated_at":"2026-05-30T14:50:39.242017+05:30"},{"city":"Hyderabad","state":"Telangana","latitude":17.385,"longitude":78.4867,"temp":37.7,"humidity":24,"rain":0.0,"pressure":951.3,"uv_index":8.95,"wind_gusts":43.6,"aqi":59,"pm10":38.8,"pm2_5":21.0,"no2":2.0,"co":221.0,"o3":133.0,"so2":4.0,"mosquito_risk":0,"arthritis_risk":5,"migraine_risk":10,"frizz_risk":0,"updated_at":"2026-05-30T14:50:39.242027+05:30"},{"city":"Chennai","state":"Tamil Nadu","latitude":13.0827,"longitude":80.2707,"temp":35.5,"humidity":50,"rain":0.0,"pressure":1004.5,"uv_index":9.0,"wind_gusts":42.5,"aqi":90,"pm10":35.0,"pm2_5":27.4,"no2":3.4,"co":254.0,"o3":191.0,"so2":6.0,"mosquito_risk":0,"arthritis_risk":5,"migraine_risk":7,"frizz_risk":1,"updated_at":"2026-05-30T14:50:39.242036+05:30"},{"city":"Kolkata","state":"West Bengal","latitude":22.5726,"longitude":88.3639,"temp":33.3,"humidity":61,"rain":0.0,"pressure":1002.8,"uv_index":8.9,"wind_gusts":18.0,"aqi":151,"pm10":53.1,"pm2_5":28.6,"no2":2.7,"co":352.0,"o3":147.0,"so2":8.5,"mosquito_risk":3,"arthritis_risk":5,"migraine_risk":4,"frizz_risk":1,"updated_at":"2026-05-30T14:50:39.242044+05:30"},{"city":"Pune","state":"Maharashtra","latitude":18.5204,"longitude":73.8567,"temp":35.5,"humidity":35,"rain":0.0,"pressure":947.4,"uv_index":8.35,"wind_gusts":42.5,"aqi":49,"pm10":24.7,"pm2_5":12.9,"no2":1.5,"co":135.0,"o3":99.0,"so2":3.1,"mosquito_risk":0,"arthritis_risk":5,"migraine_risk":10,"frizz_risk":1,"updated_at":"2026-05-30T14:50:39.242051+05:30"},{"city":"Ahmedabad","state":"Gujarat","latitude":23.0225,"longitude":72.5714,"temp":40.2,"humidity":29,"rain":0.0,"pressure":996.7,"uv_index":8.1,"wind_gusts":55.8,"aqi":71,"pm10":47.6,"pm2_5":19.7,"no2":1.4,"co":134.0,"o3":91.0,"so2":3.2,"mosquito_risk":0,"arthritis_risk":5,"migraine_risk":10,"frizz_risk":1,"updated_at":"2026-05-30T14:50:39.242057+05:30"},{"city":"Jaipur","state":"Rajasthan","latitude":26.9124,"longitude":75.7873,"temp":34.8,"humidity":34,"rain":0.1,"pressure":957.6,"uv_index":8.15,"wind_gusts":42.8,"aqi":111,"pm10":161.1,"pm2_5":38.4,"no2":1.5,"co":240.0,"o3":127.0,"so2":5.5,"mosquito_risk":3,"arthritis_risk":5,"migraine_risk":7,"frizz_risk":1,"updated_at":"2026-05-30T14:50:39.242069+05:30"},{"city":"Lucknow","state":"Uttar Pradesh","latitude":26.8467,"longitude":80.9462,"temp":33.8,"humidity":41,"rain":0.0,"pressure":991.1,"uv_index":8.15,"wind_gusts":31.7,"aqi":119,"pm10":35.5,"pm2_5":22.4,"no2":1.6,"co":280.0,"o3":166.0,"so2":4.8,"mosquito_risk":0,"arthritis_risk":5,"migraine_risk":7,"frizz_risk":1,"updated_at":"2026-05-30T14:50:39.242078+05:30"},{"city":"Kanpur","state":"Uttar Pradesh","latitude":26.4499,"longitude":80.3319,"temp":34.8,"humidity":34,"rain":0.0,"pressure":989.1,"uv_index":8.1,"wind_gusts":41.8,"aqi":125,"pm10":65.9,"pm2_5":23.5,"no2":1.7,"co":291.0,"o3":177.0,"so2":5.7,"mosquito_risk":0,"arthritis_risk":5,"migraine_risk":7,"frizz_risk":1,"updated_at":"2026-05-30T14:50:39.242084+05:30"},{"city":"Chandigarh","state":"Chandigarh","latitude":30.7333,"longitude":76.7794,"temp":33.1,"humidity":26,"rain":0.0,"pressure":967.5,"uv_index":7.2,"wind_gusts":40.0,"aqi":139,"pm10":76.6,"pm2_5":27.5,"no2":2.4,"co":430.0,"o3":181.0,"so2":6.3,"mosquito_risk":0,"arthritis_risk":5,"migraine_risk":7,"frizz_risk":0,"updated_at":"2026-05-30T14:50:39.242092+05:30"},{"city":"Srinagar","state":"Jammu and Kashmir","latitude":34.0837,"longitude":74.7973,"temp":25.9,"humidity":31,"rain":0.0,"pressure":843.1,"uv_index":8.95,"wind_gusts":37.1,"aqi":90,"pm10":23.2,"pm2_5":14.5,"no2":1.6,"co":241.0,"o3":169.0,"so2":4.1,"mosquito_risk":4,"arthritis_risk":5,"migraine_risk":7,"frizz_risk":0,"updated_at":"2026-05-30T14:50:39.242099+05:30"},{"city":"Jammu","state":"Jammu and Kashmir","latitude":32.7266,"longitude":74.857,"temp":35.0,"humidity":22,"rain":0.0,"pressure":971.8,"uv_index":8.5,"wind_gusts":46.4,"aqi":151,"pm10":301.7,"pm2_5":64.7,"no2":2.3,"co":248.0,"o3":182.0,"so2":9.8,"mosquito_risk":0,"arthritis_risk":5,"migraine_risk":7,"frizz_risk":0,"updated_at":"2026-05-30T14:50:39.242106+05:30"},{"city":"Amritsar","state":"Punjab","latitude":31.634,"longitude":74.8723,"temp":34.7,"humidity":29,"rain":0.0,"pressure":979.2,"uv_index":8.35,"wind_gusts":51.8,"aqi":326,"pm10":547.6,"pm2_5":103.8,"no2":1.6,"co":297.0,"o3":165.0,"so2":9.2,"mosquito_risk":0,"arthritis_risk":5,"migraine_risk":7,"frizz_risk":0,"updated_at":"2026-05-30T14:50:39.242114+05:30"},{"city":"Ludhiana","state":"Punjab","latitude":30.901,"longitude":75.8573,"temp":33.0,"humidity":34,"rain":0.0,"pressure":977.1,"uv_index":7.95,"wind_gusts":49.0,"aqi":469,"pm10":476.8,"pm2_5":78.5,"no2":1.7,"co":342.0,"o3":174.0,"so2":8.0,"mosquito_risk":0,"arthritis_risk":5,"migraine_risk":7,"frizz_risk":0,"updated_at":"2026-05-30T14:50:39.242121+05:30"},{"city":"Jalandhar","state":"Punjab","latitude":31.326,"longitude":75.5762,"temp":34.0,"humidity":29,"rain":0.0,"pressure":978.1,"uv_index":7.85,"wind_gusts":44.6,"aqi":310,"pm10":443.3,"pm2_5":79.2,"no2":1.8,"co":302.0,"o3":175.0,"so2":8.6,"mosquito_risk":0,"arthritis_risk":5,"migraine_risk":7,"frizz_risk":0,"updated_at":"2026-05-30T14:50:39.242142+05:30"},{"city":"Dehradun","state":"Uttarakhand","latitude":30.6284,"longitude":78.0322,"temp":22.4,"humidity":42,"rain":0.0,"pressure":832.3,"uv_index":7.9,"wind_gusts":35.6,"aqi":115,"pm10":34.8,"pm2_5":18.4,"no2":1.6,"co":264.0,"o3":166.0,"so2":2.7,"mosquito_risk":0,"arthritis_risk":5,"migraine_risk":7,"frizz_risk":0,"updated_at":"2026-05-30T14:50:39.242149+05:30"},{"city":"Shimla","state":"Himachal Pradesh","latitude":31.1048,"longitude":77.1734,"temp":19.5,"humidity":32,"rain":0.0,"pressure":786.5,"uv_index":5.6,"wind_gusts":43.9,"aqi":127,"pm10":58.4,"pm2_5":32.9,"no2":4.6,"co":293.0,"o3":172.0,"so2":4.4,"mosquito_risk":0,"arthritis_risk":5,"migraine_risk":3,"frizz_risk":0,"updated_at":"2026-05-30T14:50:39.242163+05:30"},{"city":"Manali","state":"Himachal Pradesh","latitude":32.2396,"longitude":77.1887,"temp":20.2,"humidity":45,"rain":0.0,"pressure":819.4,"uv_index":8.1,"wind_gusts":39.6,"aqi":116,"pm10":13.8,"pm2_5":7.0,"no2":1.0,"co":166.0,"o3":168.0,"so2":0.2,"mosquito_risk":0,"arthritis_risk":5,"migraine_risk":7,"frizz_risk":0,"updated_at":"2026-05-30T14:50:39.242169+05:30"},{"city":"Gurgaon","state":"Haryana","latitude":28.4595,"longitude":77.0266,"temp":33.5,"humidity":42,"rain":0.0,"pressure":979.1,"uv_index":7.75,"wind_gusts":41.4,"aqi":1314,"pm10":1121.3,"pm2_5":143.9,"no2":4.1,"co":297.0,"o3":170.0,"so2":10.6,"mosquito_risk":0,"arthritis_risk":5,"migraine_risk":7,"frizz_risk":1,"updated_at":"2026-05-30T14:50:39.242175+05:30"},{"city":"Noida","state":"Uttar Pradesh","latitude":28.5355,"longitude":77.391,"temp":29.0,"humidity":65,"rain":0.1,"pressure":982.9,"uv_index":7.65,"wind_gusts":35.3,"aqi":1314,"pm10":1121.3,"pm2_5":143.9,"no2":4.1,"co":299.0,"o3":170.0,"so2":10.6,"mosquito_risk":10,"arthritis_risk":5,"migraine_risk":7,"frizz_risk":1,"updated_at":"2026-05-30T14:50:39.242182+05:30"},{"city":"Ghaziabad","state":"Uttar Pradesh","latitude":28.6692,"longitude":77.4538,"temp":30.7,"humidity":56,"rain":0.0,"pressure":980.8,"uv_index":7.65,"wind_gusts":37.1,"aqi":170,"pm10":236.1,"pm2_5":46.1,"no2":2.5,"co":256.0,"o3":169.0,"so2":9.1,"mosquito_risk":0,"arthritis_risk":5,"migraine_risk":7,"frizz_risk":1,"updated_at":"2026-05-30T14:50:39.242192+05:30"},{"city":"Faridabad","state":"Haryana","latitude":28.4089,"longitude":77.3178,"temp":30.5,"humidity":56,"rain":0.1,"pressure":982.0,"uv_index":7.7,"wind_gusts":36.0,"aqi":1314,"pm10":1121.3,"pm2_5":143.9,"no2":4.1,"co":277.0,"o3":170.0,"so2":10.6,"mosquito_risk":3,"arthritis_risk":5,"migraine_risk":7,"frizz_risk":1,"updated_at":"2026-05-30T14:50:39.242199+05:30"},{"city":"Meerut","state":"Uttar Pradesh","latitude":28.9845,"longitude":77.7064,"temp":31.9,"humidity":50,"rain":0.0,"pressure":980.0,"uv_index":7.55,"wind_gusts":47.2,"aqi":170,"pm10":236.1,"pm2_5":46.1,"no2":2.5,"co":252.0,"o3":169.0,"so2":9.1,"mosquito_risk":0,"arthritis_risk":5,"migraine_risk":7,"frizz_risk":1,"updated_at":"2026-05-30T14:50:39.242205+05:30"},{"city":"Agra","state":"Uttar Pradesh","latitude":27.1767,"longitude":78.0081,"temp":35.0,"humidity":37,"rain":0.0,"pressure":985.1,"uv_index":8.0,"wind_gusts":29.5,"aqi":267,"pm10":303.6,"pm2_5":47.8,"no2":1.6,"co":230.0,"o3":152.0,"so2":5.1,"mosquito_risk":0,"arthritis_risk":5,"migraine_risk":7,"frizz_risk":1,"updated_at":"2026-05-30T14:50:39.242212+05:30"},{"city":"Varanasi","state":"Uttar Pradesh","latitude":25.3176,"longitude":82.9739,"temp":32.8,"humidity":45,"rain":0.0,"pressure":994.6,"uv_index":8.55,"wind_gusts":36.7,"aqi":145,"pm10":52.0,"pm2_5":28.9,"no2":1.8,"co":329.0,"o3":196.0,"so2":8.9,"mosquito_risk":0,"arthritis_risk":5,"migraine_risk":7,"frizz_risk":1,"updated_at":"2026-05-30T14:50:39.242218+05:30"},{"city":"Prayagraj","state":"Uttar Pradesh","latitude":25.4358,"longitude":81.8463,"temp":34.3,"humidity":41,"rain":0.0,"pressure":993.0,"uv_index":8.3,"wind_gusts":31.7,"aqi":138,"pm10":45.2,"pm2_5":22.8,"no2":1.7,"co":323.0,"o3":187.0,"so2":6.0,"mosquito_risk":0,"arthritis_risk":5,"migraine_risk":7,"frizz_risk":1,"updated_at":"2026-05-30T14:50:39.242225+05:30"},{"city":"Gorakhpur","state":"Uttar Pradesh","latitude":26.7606,"longitude":83.3732,"temp":31.0,"humidity":55,"rain":0.1,"pressure":994.7,"uv_index":8.5,"wind_gusts":45.7,"aqi":136,"pm10":40.7,"pm2_5":30.9,"no2":1.8,"co":280.0,"o3":186.0,"so2":11.3,"mosquito_risk":3,"arthritis_risk":5,"migraine_risk":7,"frizz_risk":1,"updated_at":"2026-05-30T14:50:39.242233+05:30"},{"city":"Bareilly","state":"Uttar Pradesh","latitude":28.367,"longitude":79.4304,"temp":33.2,"humidity":42,"rain":0.0,"pressure":985.3,"uv_index":7.95,"wind_gusts":35.3,"aqi":110,"pm10":197.0,"pm2_5":43.7,"no2":1.7,"co":260.0,"o3":174.0,"so2":8.4,"mosquito_risk":0,"arthritis_risk":5,"migraine_risk":7,"frizz_risk":1,"updated_at":"2026-05-30T14:50:39.242239+05:30"},{"city":"Aligarh","state":"Uttar Pradesh","latitude":27.8974,"longitude":78.088,"temp":34.4,"humidity":47,"rain":0.0,"pressure":983.3,"uv_index":7.8,"wind_gusts":30.2,"aqi":328,"pm10":312.0,"pm2_5":51.5,"no2":1.9,"co":247.0,"o3":160.0,"so2":7.2,"mosquito_risk":0,"arthritis_risk":5,"migraine_risk":7,"frizz_risk":1,"updated_at":"2026-05-30T14:50:39.242245+05:30"},{"city":"Moradabad","state":"Uttar Pradesh","latitude":28.8386,"longitude":78.7733,"temp":29.2,"humidity":61,"rain":0.0,"pressure":982.2,"uv_index":7.75,"wind_gusts":45.7,"aqi":112,"pm10":98.0,"pm2_5":31.4,"no2":2.2,"co":278.0,"o3":173.0,"so2":8.5,"mosquito_risk":7,"arthritis_risk":5,"migraine_risk":7,"frizz_risk":1,"updated_at":"2026-05-30T14:50:39.242252+05:30"},{"city":"Saharanpur","state":"Uttar Pradesh","latitude":29.9637,"longitude":77.546,"temp":31.2,"humidity":47,"rain":0.0,"pressure":974.3,"uv_index":7.4,"wind_gusts":47.2,"aqi":123,"pm10":57.6,"pm2_5":23.2,"no2":1.8,"co":288.0,"o3":172.0,"so2":4.6,"mosquito_risk":0,"arthritis_risk":5,"migraine_risk":7,"frizz_risk":1,"updated_at":"2026-05-30T14:50:39.242258+05:30"},{"city":"Jhansi","state":"Uttar Pradesh","latitude":25.4484,"longitude":78.5685,"temp":34.4,"humidity":42,"rain":0.0,"pressure":974.9,"uv_index":8.35,"wind_gusts":53.6,"aqi":115,"pm10":51.5,"pm2_5":21.8,"no2":1.5,"co":212.0,"o3":162.0,"so2":10.6,"mosquito_risk":0,"arthritis_risk":5,"migraine_risk":7,"frizz_risk":1,"updated_at":"2026-05-30T14:50:42.533791+05:30"},{"city":"Surat","state":"Gujarat","latitude":21.1702,"longitude":72.8311,"temp":35.0,"humidity":51,"rain":0.0,"pressure":1003.6,"uv_index":7.65,"wind_gusts":56.9,"aqi":86,"pm10":42.0,"pm2_5":23.8,"no2":5.9,"co":167.0,"o3":66.0,"so2":20.7,"mosquito_risk":0,"arthritis_risk":5,"migraine_risk":4,"frizz_risk":1,"updated_at":"2026-05-30T14:50:42.533827+05:30"},{"city":"Vadodara","state":"Gujarat","latitude":22.3072,"longitude":73.1812,"temp":38.7,"humidity":34,"rain":0.0,"pressure":999.6,"uv_index":8.0,"wind_gusts":54.4,"aqi":79,"pm10":53.6,"pm2_5":24.2,"no2":1.5,"co":130.0,"o3":98.0,"so2":3.8,"mosquito_risk":0,"arthritis_risk":5,"migraine_risk":10,"frizz_risk":1,"updated_at":"2026-05-30T14:50:42.533838+05:30"},{"city":"Rajkot","state":"Gujarat","latitude":22.3039,"longitude":70.8022,"temp":38.8,"humidity":35,"rain":0.0,"pressure":989.6,"uv_index":7.7,"wind_gusts":52.9,"aqi":68,"pm10":44.2,"pm2_5":21.4,"no2":0.8,"co":111.0,"o3":82.0,"so2":2.7,"mosquito_risk":0,"arthritis_risk":5,"migraine_risk":10,"frizz_risk":1,"updated_at":"2026-05-30T14:50:42.533847+05:30"},{"city":"Thane","state":"Maharashtra","latitude":19.2183,"longitude":72.9781,"temp":36.3,"humidity":45,"rain":0.0,"pressure":1005.7,"uv_index":7.8,"wind_gusts":38.9,"aqi":67,"pm10":28.1,"pm2_5":18.4,"no2":4.3,"co":148.0,"o3":93.0,"so2":5.8,"mosquito_risk":0,"arthritis_risk":5,"migraine_risk":7,"frizz_risk":1,"updated_at":"2026-05-30T14:50:42.533855+05:30"},{"city":"Nagpur","state":"Maharashtra","latitude":21.1458,"longitude":79.0882,"temp":40.6,"humidity":22,"rain":0.0,"pressure":968.5,"uv_index":8.85,"wind_gusts":41.8,"aqi":70,"pm10":50.8,"pm2_5":26.0,"no2":3.4,"co":148.0,"o3":135.0,"so2":14.7,"mosquito_risk":0,"arthritis_risk":5,"migraine_risk":10,"frizz_risk":0,"updated_at":"2026-05-30T14:50:42.533863+05:30"},{"city":"Nashik","state":"Maharashtra","latitude":19.9975,"longitude":73.7898,"temp":34.9,"humidity":38,"rain":0.0,"pressure":944.1,"uv_index":8.1,"wind_gusts":51.1,"aqi":63,"pm10":37.5,"pm2_5":18.2,"no2":0.9,"co":121.0,"o3":87.0,"so2":1.6,"mosquito_risk":0,"arthritis_risk":5,"migraine_risk":7,"frizz_risk":1,"updated_at":"2026-05-30T14:50:42.533870+05:30"},{"city":"Aurangabad","state":"Maharashtra","latitude":19.8762,"longitude":75.3433,"temp":37.3,"humidity":28,"rain":0.0,"pressure":942.0,"uv_index":8.95,"wind_gusts":48.6,"aqi":65,"pm10":57.4,"pm2_5":22.6,"no2":1.0,"co":127.0,"o3":107.0,"so2":3.2,"mosquito_risk":0,"arthritis_risk":5,"migraine_risk":10,"frizz_risk":0,"updated_at":"2026-05-30T14:50:42.533877+05:30"},{"city":"Solapur","state":"Maharashtra","latitude":17.6599,"longitude":75.9064,"temp":38.2,"humidity":25,"rain":0.0,"pressure":955.3,"uv_index":8.95,"wind_gusts":37.8,"aqi":49,"pm10":20.4,"pm2_5":10.6,"no2":1.1,"co":129.0,"o3":112.0,"so2":1.7,"mosquito_risk":0,"arthritis_risk":5,"migraine_risk":10,"frizz_risk":0,"updated_at":"2026-05-30T14:50:42.533885+05:30"},{"city":"Kolhapur","state":"Maharashtra","latitude":16.705,"longitude":74.2433,"temp":35.2,"humidity":41,"rain":0.0,"pressure":947.1,"uv_index":8.75,"wind_gusts":45.0,"aqi":36,"pm10":14.5,"pm2_5":9.1,"no2":1.3,"co":129.0,"o3":97.0,"so2":1.4,"mosquito_risk":0,"arthritis_risk":5,"migraine_risk":10,"frizz_risk":1,"updated_at":"2026-05-30T14:50:42.533892+05:30"},{"city":"Goa","state":"Goa","latitude":15.2993,"longitude":74.124,"temp":32.4,"humidity":66,"rain":0.2,"pressure":996.8,"uv_index":6.85,"wind_gusts":31.7,"aqi":55,"pm10":12.1,"pm2_5":8.0,"no2":0.6,"co":125.0,"o3":65.0,"so2":0.8,"mosquito_risk":6,"arthritis_risk":5,"migraine_risk":7,"frizz_risk":1,"updated_at":"2026-05-30T14:50:42.533898+05:30"},{"city":"Jodhpur","state":"Rajasthan","latitude":26.2389,"longitude":73.0243,"temp":39.9,"humidity":29,"rain":0.0,"pressure":977.1,"uv_index":8.35,"wind_gusts":75.6,"aqi":160,"pm10":187.2,"pm2_5":38.0,"no2":0.7,"co":115.0,"o3":97.0,"so2":2.1,"mosquito_risk":0,"arthritis_risk":5,"migraine_risk":10,"frizz_risk":1,"updated_at":"2026-05-30T14:50:42.533905+05:30"},{"city":"Udaipur","state":"Rajasthan","latitude":24.5854,"longitude":73.7125,"temp":37.0,"humidity":29,"rain":0.0,"pressure":942.5,"uv_index":8.75,"wind_gusts":69.8,"aqi":70,"pm10":64.7,"pm2_5":25.4,"no2":0.7,"co":128.0,"o3":104.0,"so2":4.6,"mosquito_risk":0,"arthritis_risk":5,"migraine_risk":10,"frizz_risk":0,"updated_at":"2026-05-30T14:50:42.533912+05:30"},{"city":"Kota","state":"Rajasthan","latitude":25.2138,"longitude":75.8648,"temp":39.0,"humidity":28,"rain":0.0,"pressure":973.9,"uv_index":8.3,"wind_gusts":58.0,"aqi":73,"pm10":91.5,"pm2_5":30.9,"no2":1.0,"co":151.0,"o3":121.0,"so2":5.9,"mosquito_risk":0,"arthritis_risk":5,"migraine_risk":10,"frizz_risk":1,"updated_at":"2026-05-30T14:50:42.533919+05:30"},{"city":"Bikaner","state":"Rajasthan","latitude":28.0229,"longitude":73.3119,"temp":31.0,"humidity":55,"rain":0.0,"pressure":978.2,"uv_index":8.35,"wind_gusts":85.0,"aqi":107,"pm10":79.6,"pm2_5":31.5,"no2":1.8,"co":125.0,"o3":113.0,"so2":6.2,"mosquito_risk":0,"arthritis_risk":5,"migraine_risk":7,"frizz_risk":1,"updated_at":"2026-05-30T14:50:42.533926+05:30"},{"city":"Ajmer","state":"Rajasthan","latitude":26.4499,"longitude":74.6399,"temp":34.2,"humidity":31,"rain":0.1,"pressure":951.8,"uv_index":8.3,"wind_gusts":76.3,"aqi":76,"pm10":83.6,"pm2_5":25.4,"no2":0.8,"co":143.0,"o3":112.0,"so2":2.6,"mosquito_risk":3,"arthritis_risk":5,"migraine_risk":7,"frizz_risk":0,"updated_at":"2026-05-30T14:50:42.533933+05:30"},{"city":"Gwalior","state":"Madhya Pradesh","latitude":26.2183,"longitude":78.1828,"temp":34.0,"humidity":45,"rain":0.0,"pressure":979.9,"uv_index":8.15,"wind_gusts":29.9,"aqi":106,"pm10":50.3,"pm2_5":20.0,"no2":0.8,"co":218.0,"o3":149.0,"so2":5.8,"mosquito_risk":0,"arthritis_risk":5,"migraine_risk":7,"frizz_risk":1,"updated_at":"2026-05-30T14:50:42.533939+05:30"},{"city":"Indore","state":"Madhya Pradesh","latitude":22.7196,"longitude":75.8577,"temp":36.8,"humidity":24,"rain":0.0,"pressure":945.3,"uv_index":8.6,"wind_gusts":66.6,"aqi":78,"pm10":81.5,"pm2_5":28.7,"no2":0.9,"co":162.0,"o3":100.0,"so2":3.6,"mosquito_risk":0,"arthritis_risk":5,"migraine_risk":10,"frizz_risk":0,"updated_at":"2026-05-30T14:50:42.533946+05:30"},{"city":"Bhopal","state":"Madhya Pradesh","latitude":23.2599,"longitude":77.4126,"temp":37.8,"humidity":22,"rain":0.0,"pressure":950.5,"uv_index":8.65,"wind_gusts":52.9,"aqi":70,"pm10":53.9,"pm2_5":25.6,"no2":0.7,"co":154.0,"o3":110.0,"so2":4.5,"mosquito_risk":0,"arthritis_risk":5,"migraine_risk":10,"frizz_risk":0,"updated_at":"2026-05-30T14:50:42.533952+05:30"},{"city":"Jabalpur","state":"Madhya Pradesh","latitude":23.1815,"longitude":79.9864,"temp":37.4,"humidity":27,"rain":0.0,"pressure":957.9,"uv_index":8.8,"wind_gusts":33.8,"aqi":96,"pm10":38.3,"pm2_5":16.9,"no2":1.0,"co":209.0,"o3":147.0,"so2":5.6,"mosquito_risk":0,"arthritis_risk":5,"migraine_risk":10,"frizz_risk":0,"updated_at":"2026-05-30T14:50:42.533959+05:30"},{"city":"Ujjain","state":"Madhya Pradesh","latitude":23.1765,"longitude":75.7885,"temp":38.4,"humidity":23,"rain":0.0,"pressure":950.4,"uv_index":8.55,"wind_gusts":71.3,"aqi":77,"pm10":80.8,"pm2_5":27.5,"no2":0.6,"co":133.0,"o3":95.0,"so2":2.9,"mosquito_risk":0,"arthritis_risk":5,"migraine_risk":10,"frizz_risk":0,"updated_at":"2026-05-30T14:50:42.533967+05:30"},{"city":"Visakhapatnam","state":"Andhra Pradesh","latitude":17.6868,"longitude":83.2185,"temp":36.2,"humidity":58,"rain":0.0,"pressure":998.2,"uv_index":8.65,"wind_gusts":34.6,"aqi":121,"pm10":47.5,"pm2_5":40.9,"no2":9.6,"co":473.0,"o3":202.0,"so2":41.0,"mosquito_risk":0,"arthritis_risk":5,"migraine_risk":10,"frizz_risk":1,"updated_at":"2026-05-30T14:50:42.533973+05:30"},{"city":"Vijayawada","state":"Andhra Pradesh","latitude":16.5062,"longitude":80.648,"temp":40.4,"humidity":31,"rain":0.0,"pressure":998.0,"uv_index":8.85,"wind_gusts":44.6,"aqi":79,"pm10":31.0,"pm2_5":22.9,"no2":1.9,"co":180.0,"o3":156.0,"so2":6.6,"mosquito_risk":0,"arthritis_risk":5,"migraine_risk":10,"frizz_risk":1,"updated_at":"2026-05-30T14:50:42.533979+05:30"},{"city":"Guntur","state":"Andhra Pradesh","latitude":16.3067,"longitude":80.4365,"temp":39.5,"humidity":34,"rain":0.0,"pressure":999.3,"uv_index":8.65,"wind_gusts":36.4,"aqi":71,"pm10":34.8,"pm2_5":23.1,"no2":1.5,"co":167.0,"o3":145.0,"so2":5.5,"mosquito_risk":0,"arthritis_risk":5,"migraine_risk":10,"frizz_risk":1,"updated_at":"2026-05-30T14:50:42.533986+05:30"},{"city":"Nellore","state":"Andhra Pradesh","latitude":14.4426,"longitude":79.9865,"temp":37.3,"humidity":42,"rain":0.0,"pressure":1002.6,"uv_index":8.35,"wind_gusts":35.3,"aqi":72,"pm10":25.0,"pm2_5":18.8,"no2":2.6,"co":151.0,"o3":142.0,"so2":5.8,"mosquito_risk":0,"arthritis_risk":5,"migraine_risk":7,"frizz_risk":1,"updated_at":"2026-05-30T14:50:42.533994+05:30"},{"city":"Kurnool","state":"Andhra Pradesh","latitude":15.8281,"longitude":78.0373,"temp":37.5,"humidity":36,"rain":0.0,"pressure":974.4,"uv_index":9.0,"wind_gusts":58.7,"aqi":58,"pm10":20.9,"pm2_5":14.6,"no2":1.3,"co":150.0,"o3":130.0,"so2":7.4,"mosquito_risk":0,"arthritis_risk":5,"migraine_risk":10,"frizz_risk":1,"updated_at":"2026-05-30T14:50:42.534001+05:30"},{"city":"Kakinada","state":"Andhra Pradesh","latitude":16.9891,"longitude":82.2475,"temp":39.5,"humidity":38,"rain":0.0,"pressure":1001.9,"uv_index":7.55,"wind_gusts":40.0,"aqi":129,"pm10":32.7,"pm2_5":25.0,"no2":2.2,"co":250.0,"o3":161.0,"so2":3.5,"mosquito_risk":0,"arthritis_risk":5,"migraine_risk":7,"frizz_risk":1,"updated_at":"2026-05-30T14:50:42.534007+05:30"},{"city":"Tirupati","state":"Andhra Pradesh","latitude":13.6288,"longitude":79.4192,"temp":25.9,"humidity":100,"rain":0.3,"pressure":989.6,"uv_index":9.05,"wind_gusts":40.7,"aqi":75,"pm10":23.2,"pm2_5":15.2,"no2":1.5,"co":150.0,"o3":124.0,"so2":2.5,"mosquito_risk":10,"arthritis_risk":5,"migraine_risk":7,"frizz_risk":1,"updated_at":"2026-05-30T14:50:42.534014+05:30"},{"city":"Warangal","state":"Telangana","latitude":17.9689,"longitude":79.5941,"temp":38.5,"humidity":30,"rain":0.0,"pressure":975.0,"uv_index":9.05,"wind_gusts":45.7,"aqi":79,"pm10":53.6,"pm2_5":30.4,"no2":1.7,"co":178.0,"o3":138.0,"so2":5.3,"mosquito_risk":0,"arthritis_risk":5,"migraine_risk":10,"frizz_risk":1,"updated_at":"2026-05-30T14:50:42.534021+05:30"},{"city":"Nizamabad","state":"Telangana","latitude":18.6725,"longitude":78.0941,"temp":38.5,"humidity":24,"rain":0.0,"pressure":961.9,"uv_index":8.95,"wind_gusts":41.4,"aqi":73,"pm10":60.3,"pm2_5":26.7,"no2":1.0,"co":157.0,"o3":118.0,"so2":3.7,"mosquito_risk":0,"arthritis_risk":5,"migraine_risk":10,"frizz_risk":0,"updated_at":"2026-05-30T14:50:42.534027+05:30"},{"city":"Mysore","state":"Karnataka","latitude":12.2958,"longitude":76.6396,"temp":33.0,"humidity":47,"rain":0.0,"pressure":927.9,"uv_index":9.0,"wind_gusts":49.0,"aqi":37,"pm10":16.1,"pm2_5":9.7,"no2":1.8,"co":151.0,"o3":118.0,"so2":1.4,"mosquito_risk":0,"arthritis_risk":5,"migraine_risk":7,"frizz_risk":1,"updated_at":"2026-05-30T14:50:42.534034+05:30"},{"city":"Mangalore","state":"Karnataka","latitude":12.9141,"longitude":74.856,"temp":30.0,"humidity":76,"rain":0.0,"pressure":1006.2,"uv_index":7.95,"wind_gusts":30.6,"aqi":38,"pm10":7.7,"pm2_5":5.1,"no2":1.0,"co":121.0,"o3":73.0,"so2":1.3,"mosquito_risk":7,"arthritis_risk":5,"migraine_risk":4,"frizz_risk":1,"updated_at":"2026-05-30T14:50:42.534040+05:30"},{"city":"Hubli-Dharwad","state":"Karnataka","latitude":15.3647,"longitude":75.124,"temp":33.5,"humidity":44,"rain":0.1,"pressure":940.5,"uv_index":8.9,"wind_gusts":40.7,"aqi":38,"pm10":13.6,"pm2_5":8.6,"no2":1.2,"co":136.0,"o3":91.0,"so2":0.9,"mosquito_risk":3,"arthritis_risk":5,"migraine_risk":7,"frizz_risk":1,"updated_at":"2026-05-30T14:50:42.534046+05:30"},{"city":"Belgaum","state":"Karnataka","latitude":15.8497,"longitude":74.4977,"temp":30.6,"humidity":57,"rain":0.1,"pressure":925.9,"uv_index":8.65,"wind_gusts":42.5,"aqi":32,"pm10":11.1,"pm2_5":7.6,"no2":1.3,"co":130.0,"o3":81.0,"so2":1.3,"mosquito_risk":3,"arthritis_risk":5,"migraine_risk":7,"frizz_risk":1,"updated_at":"2026-05-30T14:50:45.817241+05:30"},{"city":"Coimbatore","state":"Tamil Nadu","latitude":11.0168,"longitude":76.9558,"temp":32.8,"humidity":48,"rain":0.0,"pressure":960.9,"uv_index":9.0,"wind_gusts":52.2,"aqi":34,"pm10":11.1,"pm2_5":7.1,"no2":1.5,"co":155.0,"o3":96.0,"so2":1.8,"mosquito_risk":0,"arthritis_risk":5,"migraine_risk":7,"frizz_risk":1,"updated_at":"2026-05-30T14:50:45.817279+05:30"},{"city":"Madurai","state":"Tamil Nadu","latitude":9.9252,"longitude":78.1198,"temp":38.3,"humidity":32,"rain":0.0,"pressure":990.4,"uv_index":8.65,"wind_gusts":28.1,"aqi":66,"pm10":16.9,"pm2_5":9.9,"no2":2.1,"co":156.0,"o3":135.0,"so2":2.2,"mosquito_risk":0,"arthritis_risk":5,"migraine_risk":10,"frizz_risk":1,"updated_at":"2026-05-30T14:50:45.817290+05:30"},{"city":"Trichy","state":"Tamil Nadu","latitude":10.7905,"longitude":78.7047,"temp":37.8,"humidity":37,"rain":0.0,"pressure":996.8,"uv_index":8.4,"wind_gusts":41.4,"aqi":38,"pm10":15.4,"pm2_5":9.2,"no2":1.6,"co":142.0,"o3":115.0,"so2":2.0,"mosquito_risk":0,"arthritis_risk":5,"migraine_risk":10,"frizz_risk":1,"updated_at":"2026-05-30T14:50:45.817300+05:30"},{"city":"Salem","state":"Tamil Nadu","latitude":11.6643,"longitude":78.146,"temp":38.4,"humidity":32,"rain":0.0,"pressure":975.0,"uv_index":8.7,"wind_gusts":44.6,"aqi":58,"pm10":25.4,"pm2_5":16.0,"no2":2.5,"co":149.0,"o3":152.0,"so2":7.8,"mosquito_risk":0,"arthritis_risk":5,"migraine_risk":10,"frizz_risk":1,"updated_at":"2026-05-30T14:50:45.817308+05:30"},{"city":"Tirunelveli","state":"Tamil Nadu","latitude":8.7139,"longitude":77.7567,"temp":36.5,"humidity":39,"rain":0.0,"pressure":1000.9,"uv_index":8.5,"wind_gusts":37.4,"aqi":26,"pm10":17.4,"pm2_5":8.4,"no2":1.3,"co":123.0,"o3":79.0,"so2":0.8,"mosquito_risk":0,"arthritis_risk":5,"migraine_risk":7,"frizz_risk":1,"updated_at":"2026-05-30T14:50:45.817316+05:30"},{"city":"Vellore","state":"Tamil Nadu","latitude":12.9165,"longitude":79.1325,"temp":29.3,"humidity":75,"rain":0.1,"pressure":983.0,"uv_index":8.95,"wind_gusts":41.4,"aqi":68,"pm10":25.5,"pm2_5":15.8,"no2":1.5,"co":186.0,"o3":141.0,"so2":2.4,"mosquito_risk":10,"arthritis_risk":5,"migraine_risk":7,"frizz_risk":1,"updated_at":"2026-05-30T14:50:45.817324+05:30"},{"city":"Erode","state":"Tamil Nadu","latitude":11.341,"longitude":77.7172,"temp":38.1,"humidity":31,"rain":0.0,"pressure":986.5,"uv_index":8.9,"wind_gusts":54.4,"aqi":37,"pm10":15.1,"pm2_5":9.2,"no2":1.9,"co":164.0,"o3":122.0,"so2":1.7,"mosquito_risk":0,"arthritis_risk":5,"migraine_risk":10,"frizz_risk":1,"updated_at":"2026-05-30T14:50:45.817332+05:30"},{"city":"Kochi","state":"Kerala","latitude":9.9312,"longitude":76.2673,"temp":28.1,"humidity":82,"rain":0.0,"pressure":1008.8,"uv_index":8.15,"wind_gusts":27.7,"aqi":38,"pm10":8.8,"pm2_5":6.3,"no2":2.1,"co":114.0,"o3":85.0,"so2":2.4,"mosquito_risk":7,"arthritis_risk":0,"migraine_risk":4,"frizz_risk":1,"updated_at":"2026-05-30T14:50:45.817340+05:30"},{"city":"Thiruvananthapuram","state":"Kerala","latitude":8.5241,"longitude":76.9366,"temp":28.2,"humidity":80,"rain":0.0,"pressure":1008.3,"uv_index":7.7,"wind_gusts":37.8,"aqi":29,"pm10":7.8,"pm2_5":4.7,"no2":0.8,"co":108.0,"o3":68.0,"so2":0.5,"mosquito_risk":7,"arthritis_risk":0,"migraine_risk":4,"frizz_risk":1,"updated_at":"2026-05-30T14:50:45.817347+05:30"},{"city":"Kozhikode","state":"Kerala","latitude":11.2588,"longitude":75.7804,"temp":29.8,"humidity":75,"rain":0.1,"pressure":1007.6,"uv_index":8.2,"wind_gusts":33.5,"aqi":32,"pm10":6.9,"pm2_5":4.1,"no2":0.4,"co":116.0,"o3":70.0,"so2":0.4,"mosquito_risk":10,"arthritis_risk":5,"migraine_risk":4,"frizz_risk":1,"updated_at":"2026-05-30T14:50:45.817355+05:30"},{"city":"Thrissur","state":"Kerala","latitude":10.5276,"longitude":76.2144,"temp":28.7,"humidity":78,"rain":0.1,"pressure":1006.9,"uv_index":8.1,"wind_gusts":32.0,"aqi":38,"pm10":8.6,"pm2_5":6.4,"no2":1.9,"co":117.0,"o3":82.0,"so2":1.8,"mosquito_risk":10,"arthritis_risk":5,"migraine_risk":4,"frizz_risk":1,"updated_at":"2026-05-30T14:50:45.817363+05:30"},{"city":"Kannur","state":"Kerala","latitude":11.8745,"longitude":75.3704,"temp":30.0,"humidity":76,"rain":0.1,"pressure":1007.0,"uv_index":8.35,"wind_gusts":33.5,"aqi":32,"pm10":7.2,"pm2_5":4.7,"no2":0.9,"co":120.0,"o3":74.0,"so2":0.8,"mosquito_risk":10,"arthritis_risk":5,"migraine_risk":4,"frizz_risk":1,"updated_at":"2026-05-30T14:50:45.817370+05:30"},{"city":"Patna","state":"Bihar","latitude":25.5941,"longitude":85.1376,"temp":33.0,"humidity":48,"rain":0.0,"pressure":997.6,"uv_index":8.7,"wind_gusts":30.6,"aqi":134,"pm10":65.2,"pm2_5":49.1,"no2":2.4,"co":275.0,"o3":195.0,"so2":15.0,"mosquito_risk":0,"arthritis_risk":5,"migraine_risk":7,"frizz_risk":1,"updated_at":"2026-05-30T14:50:45.817377+05:30"},{"city":"Gaya","state":"Bihar","latitude":24.7914,"longitude":85.0002,"temp":33.9,"humidity":45,"rain":0.0,"pressure":990.7,"uv_index":8.8,"wind_gusts":26.6,"aqi":127,"pm10":59.5,"pm2_5":45.8,"no2":2.0,"co":332.0,"o3":192.0,"so2":15.2,"mosquito_risk":0,"arthritis_risk":5,"migraine_risk":7,"frizz_risk":1,"updated_at":"2026-05-30T14:50:45.817384+05:30"},{"city":"Muzaffarpur","state":"Bihar","latitude":26.1209,"longitude":85.3647,"temp":31.5,"humidity":55,"rain":0.0,"pressure":997.9,"uv_index":8.2,"wind_gusts":35.3,"aqi":142,"pm10":68.9,"pm2_5":52.3,"no2":2.7,"co":264.0,"o3":204.0,"so2":18.2,"mosquito_risk":0,"arthritis_risk":5,"migraine_risk":7,"frizz_risk":1,"updated_at":"2026-05-30T14:50:45.817391+05:30"},{"city":"Bhagalpur","state":"Bihar","latitude":25.2425,"longitude":87.0117,"temp":33.0,"humidity":53,"rain":0.0,"pressure":998.5,"uv_index":8.7,"wind_gusts":21.6,"aqi":164,"pm10":110.8,"pm2_5":66.4,"no2":3.6,"co":330.0,"o3":232.0,"so2":29.1,"mosquito_risk":0,"arthritis_risk":5,"migraine_risk":7,"frizz_risk":1,"updated_at":"2026-05-30T14:50:45.817398+05:30"},{"city":"Ranchi","state":"Jharkhand","latitude":23.3441,"longitude":85.3096,"temp":31.1,"humidity":57,"rain":0.0,"pressure":935.8,"uv_index":9.25,"wind_gusts":29.9,"aqi":134,"pm10":50.3,"pm2_5":33.5,"no2":1.5,"co":288.0,"o3":160.0,"so2":9.1,"mosquito_risk":0,"arthritis_risk":5,"migraine_risk":7,"frizz_risk":1,"updated_at":"2026-05-30T14:50:45.817405+05:30"},{"city":"Jamshedpur","state":"Jharkhand","latitude":22.8046,"longitude":86.2029,"temp":32.0,"humidity":60,"rain":0.0,"pressure":987.5,"uv_index":9.0,"wind_gusts":40.3,"aqi":115,"pm10":48.8,"pm2_5":31.2,"no2":3.5,"co":268.0,"o3":154.0,"so2":13.9,"mosquito_risk":0,"arthritis_risk":5,"migraine_risk":7,"frizz_risk":1,"updated_at":"2026-05-30T14:50:45.817411+05:30"},{"city":"Dhanbad","state":"Jharkhand","latitude":23.7957,"longitude":86.4304,"temp":32.2,"humidity":58,"rain":0.0,"pressure":977.3,"uv_index":9.05,"wind_gusts":45.7,"aqi":157,"pm10":77.1,"pm2_5":58.0,"no2":15.9,"co":404.0,"o3":185.0,"so2":59.9,"mosquito_risk":0,"arthritis_risk":5,"migraine_risk":7,"frizz_risk":1,"updated_at":"2026-05-30T14:50:45.817418+05:30"},{"city":"Bokaro","state":"Jharkhand","latitude":23.6693,"longitude":86.1511,"temp":32.7,"humidity":58,"rain":0.0,"pressure":980.9,"uv_index":9.05,"wind_gusts":52.6,"aqi":156,"pm10":67.8,"pm2_5":55.8,"no2":17.7,"co":1096.0,"o3":181.0,"so2":68.8,"mosquito_risk":0,"arthritis_risk":5,"migraine_risk":7,"frizz_risk":1,"updated_at":"2026-05-30T14:50:45.817426+05:30"},{"city":"Bhubaneswar","state":"Odisha","latitude":20.2961,"longitude":85.8245,"temp":34.2,"humidity":60,"rain":0.0,"pressure":998.5,"uv_index":9.05,"wind_gusts":41.4,"aqi":106,"pm10":44.4,"pm2_5":28.6,"no2":1.7,"co":231.0,"o3":132.0,"so2":4.6,"mosquito_risk":0,"arthritis_risk":5,"migraine_risk":7,"frizz_risk":1,"updated_at":"2026-05-30T14:50:45.817433+05:30"},{"city":"Cuttack","state":"Odisha","latitude":20.4625,"longitude":85.8828,"temp":34.8,"humidity":59,"rain":0.0,"pressure":1000.0,"uv_index":9.1,"wind_gusts":42.5,"aqi":106,"pm10":44.4,"pm2_5":28.6,"no2":1.7,"co":237.0,"o3":132.0,"so2":4.6,"mosquito_risk":0,"arthritis_risk":5,"migraine_risk":4,"frizz_risk":1,"updated_at":"2026-05-30T14:50:45.817440+05:30"},{"city":"Rourkela","state":"Odisha","latitude":22.2604,"longitude":84.8536,"temp":34.0,"humidity":55,"rain":0.0,"pressure":981.2,"uv_index":8.95,"wind_gusts":37.4,"aqi":145,"pm10":54.8,"pm2_5":35.5,"no2":2.6,"co":402.0,"o3":170.0,"so2":11.2,"mosquito_risk":0,"arthritis_risk":5,"migraine_risk":7,"frizz_risk":1,"updated_at":"2026-05-30T14:50:45.817465+05:30"},{"city":"Raipur","state":"Chhattisgarh","latitude":21.2514,"longitude":81.6296,"temp":38.2,"humidity":33,"rain":0.0,"pressure":970.1,"uv_index":8.95,"wind_gusts":53.6,"aqi":146,"pm10":56.3,"pm2_5":41.7,"no2":5.6,"co":256.0,"o3":203.0,"so2":31.1,"mosquito_risk":0,"arthritis_risk":5,"migraine_risk":10,"frizz_risk":1,"updated_at":"2026-05-30T14:50:45.817471+05:30"},{"city":"Bhilai","state":"Chhattisgarh","latitude":21.1938,"longitude":81.3509,"temp":38.0,"humidity":31,"rain":0.0,"pressure":970.6,"uv_index":8.95,"wind_gusts":43.9,"aqi":131,"pm10":51.8,"pm2_5":34.0,"no2":6.1,"co":522.0,"o3":169.0,"so2":28.1,"mosquito_risk":0,"arthritis_risk":5,"migraine_risk":10,"frizz_risk":1,"updated_at":"2026-05-30T14:50:45.817478+05:30"},{"city":"Guwahati","state":"Assam","latitude":26.1158,"longitude":91.7086,"temp":29.7,"humidity":76,"rain":0.0,"pressure":998.8,"uv_index":8.7,"wind_gusts":33.8,"aqi":91,"pm10":40.2,"pm2_5":22.5,"no2":1.4,"co":279.0,"o3":127.0,"so2":2.5,"mosquito_risk":7,"arthritis_risk":5,"migraine_risk":7,"frizz_risk":1,"updated_at":"2026-05-30T14:50:45.817485+05:30"},{"city":"Agartala","state":"Tripura","latitude":23.8315,"longitude":91.2868,"temp":32.8,"humidity":55,"rain":0.0,"pressure":1003.1,"uv_index":8.85,"wind_gusts":22.0,"aqi":171,"pm10":91.0,"pm2_5":49.5,"no2":4.0,"co":269.0,"o3":222.0,"so2":10.7,"mosquito_risk":0,"arthritis_risk":5,"migraine_risk":4,"frizz_risk":1,"updated_at":"2026-05-30T14:50:45.817491+05:30"},{"city":"Shillong","state":"Meghalaya","latitude":25.5788,"longitude":91.8933,"temp":23.3,"humidity":70,"rain":0.1,"pressure":857.4,"uv_index":8.05,"wind_gusts":26.3,"aqi":80,"pm10":65.2,"pm2_5":26.0,"no2":1.1,"co":216.0,"o3":132.0,"so2":3.3,"mosquito_risk":6,"arthritis_risk":5,"migraine_risk":7,"frizz_risk":1,"updated_at":"2026-05-30T14:50:45.817498+05:30"},{"city":"Imphal","state":"Manipur","latitude":24.817,"longitude":93.9368,"temp":28.2,"humidity":65,"rain":0.0,"pressure":921.4,"uv_index":8.9,"wind_gusts":26.6,"aqi":123,"pm10":67.1,"pm2_5":27.5,"no2":1.9,"co":223.0,"o3":112.0,"so2":2.5,"mosquito_risk":7,"arthritis_risk":5,"migraine_risk":7,"frizz_risk":1,"updated_at":"2026-05-30T14:50:45.817505+05:30"},{"city":"Aizawl","state":"Mizoram","latitude":23.7271,"longitude":92.7176,"temp":20.9,"humidity":95,"rain":0.2,"pressure":890.8,"uv_index":9.1,"wind_gusts":28.4,"aqi":71,"pm10":43.5,"pm2_5":20.6,"no2":0.9,"co":206.0,"o3":125.0,"so2":3.0,"mosquito_risk":6,"arthritis_risk":5,"migraine_risk":7,"frizz_risk":1,"updated_at":"2026-05-30T14:50:45.817512+05:30"},{"city":"Kohima","state":"Nagaland","latitude":25.6701,"longitude":94.1077,"temp":23.4,"humidity":79,"rain":0.0,"pressure":855.3,"uv_index":8.0,"wind_gusts":23.4,"aqi":89,"pm10":39.1,"pm2_5":23.1,"no2":2.3,"co":219.0,"o3":106.0,"so2":1.6,"mosquito_risk":3,"arthritis_risk":5,"migraine_risk":7,"frizz_risk":1,"updated_at":"2026-05-30T14:50:45.817518+05:30"},{"city":"Gangtok","state":"Sikkim","latitude":27.3314,"longitude":88.6138,"temp":23.1,"humidity":48,"rain":0.0,"pressure":839.2,"uv_index":9.15,"wind_gusts":34.2,"aqi":63,"pm10":27.6,"pm2_5":14.4,"no2":0.8,"co":225.0,"o3":126.0,"so2":1.6,"mosquito_risk":0,"arthritis_risk":5,"migraine_risk":7,"frizz_risk":0,"updated_at":"2026-05-30T14:50:45.817524+05:30"},{"city":"Siliguri","state":"West Bengal","latitude":26.7271,"longitude":88.3953,"temp":32.1,"humidity":57,"rain":0.0,"pressure":990.6,"uv_index":8.65,"wind_gusts":50.4,"aqi":110,"pm10":59.3,"pm2_5":25.2,"no2":1.6,"co":340.0,"o3":151.0,"so2":3.0,"mosquito_risk":0,"arthritis_risk":5,"migraine_risk":7,"frizz_risk":1,"updated_at":"2026-05-30T14:50:49.112695+05:30"},{"city":"Durgapur","state":"West Bengal","latitude":23.5204,"longitude":87.3119,"temp":32.2,"humidity":62,"rain":0.0,"pressure":992.2,"uv_index":8.95,"wind_gusts":17.6,"aqi":163,"pm10":91.5,"pm2_5":59.8,"no2":10.6,"co":273.0,"o3":214.0,"so2":42.6,"mosquito_risk":3,"arthritis_risk":5,"migraine_risk":7,"frizz_risk":1,"updated_at":"2026-05-30T14:50:49.112730+05:30"},{"city":"Asansol","state":"West Bengal","latitude":23.6739,"longitude":86.9524,"temp":32.0,"humidity":59,"rain":0.0,"pressure":990.9,"uv_index":9.0,"wind_gusts":24.8,"aqi":158,"pm10":86.1,"pm2_5":59.4,"no2":10.2,"co":593.0,"o3":205.0,"so2":41.4,"mosquito_risk":0,"arthritis_risk":5,"migraine_risk":7,"frizz_risk":1,"updated_at":"2026-05-30T14:50:49.112742+05:30"},{"city":"Pondicherry","state":"Puducherry","latitude":11.9139,"longitude":79.8145,"temp":33.8,"humidity":60,"rain":0.0,"pressure":1005.6,"uv_index":8.9,"wind_gusts":35.6,"aqi":66,"pm10":38.6,"pm2_5":32.7,"no2":8.2,"co":240.0,"o3":198.0,"so2":13.7,"mosquito_risk":0,"arthritis_risk":5,"migraine_risk":4,"frizz_risk":1,"updated_at":"2026-05-30T14:50:49.112751+05:30"},{"city":"Port Blair","state":"Andaman and Nicobar Islands","latitude":11.6234,"longitude":92.7265,"temp":29.2,"humidity":78,"rain":0.0,"pressure":1004.6,"uv_index":8.7,"wind_gusts":34.2,"aqi":37,"pm10":10.2,"pm2_5":6.2,"no2":0.4,"co":117.0,"o3":73.0,"so2":0.5,"mosquito_risk":7,"arthritis_risk":5,"migraine_risk":4,"frizz_risk":1,"updated_at":"2026-05-30T14:50:49.112760+05:30"},{"city":"Haridwar","state":"Uttarakhand","latitude":29.9457,"longitude":78.1642,"temp":31.8,"humidity":42,"rain":0.0,"pressure":973.0,"uv_index":7.45,"wind_gusts":59.4,"aqi":126,"pm10":46.2,"pm2_5":21.4,"no2":1.3,"co":238.0,"o3":173.0,"so2":4.7,"mosquito_risk":0,"arthritis_risk":5,"migraine_risk":7,"frizz_risk":1,"updated_at":"2026-05-30T14:50:49.112768+05:30"},{"city":"Rishikesh","state":"Uttarakhand","latitude":30.0869,"longitude":78.2676,"temp":31.5,"humidity":38,"rain":0.0,"pressure":965.8,"uv_index":7.6,"wind_gusts":57.6,"aqi":132,"pm10":39.9,"pm2_5":19.6,"no2":0.9,"co":283.0,"o3":172.0,"so2":4.5,"mosquito_risk":0,"arthritis_risk":5,"migraine_risk":7,"frizz_risk":0,"updated_at":"2026-05-30T14:50:49.112776+05:30"},{"city":"Nainital","state":"Uttarakhand","latitude":29.3919,"longitude":79.4542,"temp":15.1,"humidity":91,"rain":0.2,"pressure":805.9,"uv_index":7.75,"wind_gusts":30.6,"aqi":118,"pm10":39.9,"pm2_5":20.0,"no2":1.3,"co":223.0,"o3":164.0,"so2":3.5,"mosquito_risk":6,"arthritis_risk":10,"migraine_risk":7,"frizz_risk":0,"updated_at":"2026-05-30T14:50:49.112784+05:30"},{"city":"Mussoorie","state":"Uttarakhand","latitude":30.4599,"longitude":78.0664,"temp":20.7,"humidity":40,"rain":0.0,"pressure":805.1,"uv_index":7.9,"wind_gusts":40.0,"aqi":124,"pm10":50.1,"pm2_5":20.5,"no2":1.3,"co":285.0,"o3":173.0,"so2":4.2,"mosquito_risk":0,"arthritis_risk":5,"migraine_risk":7,"frizz_risk":0,"updated_at":"2026-05-30T14:50:49.112792+05:30"},{"city":"Dharamshala","state":"Himachal Pradesh","latitude":32.219,"longitude":76.3234,"temp":21.9,"humidity":57,"rain":0.1,"pressure":869.7,"uv_index":6.6,"wind_gusts":42.1,"aqi":108,"pm10":41.1,"pm2_5":18.9,"no2":1.2,"co":222.0,"o3":156.0,"so2":2.8,"mosquito_risk":3,"arthritis_risk":5,"migraine_risk":7,"frizz_risk":0,"updated_at":"2026-05-30T14:50:49.112800+05:30"},{"city":"Dalhousie","state":"Himachal Pradesh","latitude":32.5387,"longitude":75.971,"temp":18.4,"humidity":60,"rain":0.1,"pressure":805.8,"uv_index":8.0,"wind_gusts":28.8,"aqi":130,"pm10":95.2,"pm2_5":31.4,"no2":1.9,"co":242.0,"o3":183.0,"so2":7.3,"mosquito_risk":3,"arthritis_risk":5,"migraine_risk":7,"frizz_risk":0,"updated_at":"2026-05-30T14:50:49.112808+05:30"},{"city":"Patiala","state":"Punjab","latitude":30.3398,"longitude":76.3869,"temp":32.9,"humidity":42,"rain":0.0,"pressure":976.8,"uv_index":7.55,"wind_gusts":47.2,"aqi":1169,"pm10":362.3,"pm2_5":63.6,"no2":1.8,"co":320.0,"o3":179.0,"so2":8.4,"mosquito_risk":0,"arthritis_risk":5,"migraine_risk":7,"frizz_risk":1,"updated_at":"2026-05-30T14:50:49.112815+05:30"},{"city":"Bhatinda","state":"Punjab","latitude":30.211,"longitude":74.9455,"temp":34.8,"humidity":33,"rain":0.0,"pressure":981.1,"uv_index":8.2,"wind_gusts":65.5,"aqi":1032,"pm10":1464.0,"pm2_5":225.8,"no2":2.4,"co":249.0,"o3":166.0,"so2":12.1,"mosquito_risk":0,"arthritis_risk":5,"migraine_risk":7,"frizz_risk":1,"updated_at":"2026-05-30T14:50:49.112822+05:30"},{"city":"Rohtak","state":"Haryana","latitude":28.8955,"longitude":76.6066,"temp":33.0,"humidity":46,"rain":0.1,"pressure":980.1,"uv_index":7.65,"wind_gusts":44.3,"aqi":764,"pm10":817.7,"pm2_5":122.0,"no2":2.9,"co":298.0,"o3":188.0,"so2":11.3,"mosquito_risk":3,"arthritis_risk":5,"migraine_risk":7,"frizz_risk":1,"updated_at":"2026-05-30T14:50:49.112829+05:30"},{"city":"Panipat","state":"Haryana","latitude":29.3909,"longitude":76.9635,"temp":33.0,"humidity":44,"rain":0.0,"pressure":978.6,"uv_index":7.5,"wind_gusts":47.5,"aqi":1466,"pm10":491.7,"pm2_5":83.8,"no2":3.2,"co":284.0,"o3":198.0,"so2":16.2,"mosquito_risk":0,"arthritis_risk":5,"migraine_risk":7,"frizz_risk":1,"updated_at":"2026-05-30T14:50:49.112836+05:30"},{"city":"Mathura","state":"Uttar Pradesh","latitude":27.4924,"longitude":77.6737,"temp":34.5,"humidity":42,"rain":0.0,"pressure":984.2,"uv_index":7.9,"wind_gusts":34.9,"aqi":329,"pm10":516.0,"pm2_5":72.4,"no2":1.7,"co":230.0,"o3":154.0,"so2":4.6,"mosquito_risk":0,"arthritis_risk":5,"migraine_risk":7,"frizz_risk":1,"updated_at":"2026-05-30T14:50:49.112843+05:30"},{"city":"Vrindavan","state":"Uttar Pradesh","latitude":27.5823,"longitude":77.7027,"temp":34.5,"humidity":42,"rain":0.0,"pressure":984.6,"uv_index":7.9,"wind_gusts":36.4,"aqi":329,"pm10":516.0,"pm2_5":72.4,"no2":1.7,"co":232.0,"o3":154.0,"so2":4.6,"mosquito_risk":0,"arthritis_risk":5,"migraine_risk":7,"frizz_risk":1,"updated_at":"2026-05-30T14:50:49.112850+05:30"},{"city":"Ayodhya","state":"Uttar Pradesh","latitude":26.7922,"longitude":82.1998,"temp":32.2,"humidity":48,"rain":0.1,"pressure":993.1,"uv_index":8.25,"wind_gusts":36.4,"aqi":121,"pm10":32.1,"pm2_5":22.8,"no2":1.5,"co":277.0,"o3":176.0,"so2":6.3,"mosquito_risk":3,"arthritis_risk":5,"migraine_risk":7,"frizz_risk":1,"updated_at":"2026-05-30T14:50:49.112857+05:30"},{"city":"Ratlam","state":"Madhya Pradesh","latitude":23.3315,"longitude":75.0367,"temp":37.7,"humidity":29,"rain":0.0,"pressure":951.4,"uv_index":8.45,"wind_gusts":48.2,"aqi":76,"pm10":74.5,"pm2_5":26.6,"no2":0.5,"co":120.0,"o3":94.0,"so2":2.9,"mosquito_risk":0,"arthritis_risk":5,"migraine_risk":10,"frizz_risk":1,"updated_at":"2026-05-30T14:50:49.112864+05:30"},{"city":"Sagar","state":"Madhya Pradesh","latitude":23.8388,"longitude":78.7378,"temp":36.2,"humidity":27,"rain":0.0,"pressure":947.6,"uv_index":8.7,"wind_gusts":72.7,"aqi":98,"pm10":51.2,"pm2_5":19.6,"no2":0.6,"co":141.0,"o3":127.0,"so2":2.8,"mosquito_risk":0,"arthritis_risk":5,"migraine_risk":10,"frizz_risk":0,"updated_at":"2026-05-30T14:50:49.112870+05:30"},{"city":"Satna","state":"Madhya Pradesh","latitude":24.6005,"longitude":80.8322,"temp":34.7,"humidity":37,"rain":0.1,"pressure":968.4,"uv_index":8.75,"wind_gusts":28.8,"aqi":110,"pm10":54.4,"pm2_5":21.3,"no2":0.9,"co":183.0,"o3":141.0,"so2":3.3,"mosquito_risk":3,"arthritis_risk":5,"migraine_risk":7,"frizz_risk":1,"updated_at":"2026-05-30T14:50:49.112877+05:30"},{"city":"Akola","state":"Maharashtra","latitude":20.7002,"longitude":77.0082,"temp":39.3,"humidity":27,"rain":0.0,"pressure":971.3,"uv_index":8.8,"wind_gusts":52.2,"aqi":67,"pm10":71.2,"pm2_5":28.1,"no2":1.3,"co":125.0,"o3":106.0,"so2":5.3,"mosquito_risk":0,"arthritis_risk":5,"migraine_risk":10,"frizz_risk":1,"updated_at":"2026-05-30T14:50:49.112885+05:30"},{"city":"Amravati","state":"Maharashtra","latitude":20.9374,"longitude":77.7796,"temp":38.2,"humidity":30,"rain":0.0,"pressure":963.8,"uv_index":8.8,"wind_gusts":48.2,"aqi":66,"pm10":69.2,"pm2_5":27.5,"no2":1.4,"co":124.0,"o3":107.0,"so2":5.7,"mosquito_risk":0,"arthritis_risk":5,"migraine_risk":10,"frizz_risk":1,"updated_at":"2026-05-30T14:50:49.112893+05:30"},{"city":"Latur","state":"Maharashtra","latitude":18.4088,"longitude":76.5604,"temp":36.8,"humidity":29,"rain":0.0,"pressure":938.4,"uv_index":8.95,"wind_gusts":37.8,"aqi":54,"pm10":27.8,"pm2_5":13.5,"no2":0.8,"co":128.0,"o3":107.0,"so2":1.8,"mosquito_risk":0,"arthritis_risk":5,"migraine_risk":10,"frizz_risk":0,"updated_at":"2026-05-30T14:50:49.112900+05:30"},{"city":"Nanded","state":"Maharashtra","latitude":19.1383,"longitude":77.3091,"temp":39.6,"humidity":21,"rain":0.0,"pressure":965.4,"uv_index":8.85,"wind_gusts":41.0,"aqi":70,"pm10":65.0,"pm2_5":25.7,"no2":1.0,"co":145.0,"o3":111.0,"so2":2.8,"mosquito_risk":0,"arthritis_risk":5,"migraine_risk":10,"frizz_risk":0,"updated_at":"2026-05-30T14:50:49.112907+05:30"},{"city":"Gulbarga","state":"Karnataka","latitude":17.3297,"longitude":76.8343,"temp":38.7,"humidity":25,"rain":0.0,"pressure":956.6,"uv_index":8.75,"wind_gusts":40.3,"aqi":51,"pm10":20.8,"pm2_5":11.5,"no2":1.4,"co":140.0,"o3":117.0,"so2":2.1,"mosquito_risk":0,"arthritis_risk":5,"migraine_risk":10,"frizz_risk":0,"updated_at":"2026-05-30T14:50:49.112913+05:30"},{"city":"Bidar","state":"Karnataka","latitude":17.9104,"longitude":77.5199,"temp":36.5,"humidity":28,"rain":0.0,"pressure":934.0,"uv_index":8.9,"wind_gusts":40.0,"aqi":63,"pm10":44.0,"pm2_5":21.1,"no2":1.3,"co":143.0,"o3":123.0,"so2":4.2,"mosquito_risk":0,"arthritis_risk":5,"migraine_risk":10,"frizz_risk":0,"updated_at":"2026-05-30T14:50:49.112920+05:30"},{"city":"Hospet","state":"Karnataka","latitude":15.2689,"longitude":76.3909,"temp":34.8,"humidity":45,"rain":0.0,"pressure":954.3,"uv_index":8.95,"wind_gusts":47.9,"aqi":47,"pm10":17.6,"pm2_5":10.7,"no2":1.4,"co":143.0,"o3":108.0,"so2":2.1,"mosquito_risk":0,"arthritis_risk":5,"migraine_risk":7,"frizz_risk":1,"updated_at":"2026-05-30T14:50:49.112926+05:30"},{"city":"Tirupur","state":"Tamil Nadu","latitude":11.1085,"longitude":77.3411,"temp":35.3,"humidity":39,"rain":0.2,"pressure":973.3,"uv_index":9.0,"wind_gusts":52.9,"aqi":37,"pm10":14.6,"pm2_5":8.9,"no2":1.9,"co":148.0,"o3":116.0,"so2":2.1,"mosquito_risk":3,"arthritis_risk":5,"migraine_risk":10,"frizz_risk":1,"updated_at":"2026-05-30T14:50:49.112933+05:30"},{"city":"Alappuzha","state":"Kerala","latitude":9.4981,"longitude":76.3388,"temp":28.2,"humidity":79,"rain":0.0,"pressure":1009.1,"uv_index":8.0,"wind_gusts":32.0,"aqi":31,"pm10":7.4,"pm2_5":5.1,"no2":1.7,"co":102.0,"o3":75.0,"so2":1.1,"mosquito_risk":7,"arthritis_risk":0,"migraine_risk":4,"frizz_risk":1,"updated_at":"2026-05-30T14:50:49.112940+05:30"},{"city":"Munnar","state":"Kerala","latitude":10.0889,"longitude":77.0595,"temp":20.7,"humidity":90,"rain":0.0,"pressure":858.0,"uv_index":7.0,"wind_gusts":29.2,"aqi":28,"pm10":10.1,"pm2_5":5.9,"no2":1.0,"co":117.0,"o3":85.0,"so2":1.1,"mosquito_risk":3,"arthritis_risk":5,"migraine_risk":7,"frizz_risk":1,"updated_at":"2026-05-30T14:50:49.112948+05:30"},{"city":"Silchar","state":"Assam","latitude":24.8333,"longitude":92.7789,"temp":30.9,"humidity":74,"rain":0.0,"pressure":1001.6,"uv_index":7.8,"wind_gusts":20.9,"aqi":134,"pm10":73.1,"pm2_5":35.7,"no2":1.8,"co":338.0,"o3":163.0,"so2":7.1,"mosquito_risk":3,"arthritis_risk":5,"migraine_risk":4,"frizz_risk":1,"updated_at":"2026-05-30T14:50:49.112955+05:30"},{"city":"Dibrugarh","state":"Assam","latitude":27.4728,"longitude":94.912,"temp":33.2,"humidity":57,"rain":0.0,"pressure":991.5,"uv_index":2.1,"wind_gusts":16.2,"aqi":113,"pm10":42.5,"pm2_5":27.7,"no2":1.6,"co":259.0,"o3":148.0,"so2":3.1,"mosquito_risk":0,"arthritis_risk":5,"migraine_risk":3,"frizz_risk":1,"updated_at":"2026-05-30T14:50:49.112961+05:30"}]