[{"city":"Delhi","state":"Delhi","latitude":28.6139,"longitude":77.209,"temp":26.4,"humidity":56,"rain":0.0,"pressure":983.9,"uv_index":6.25,"wind_gusts":22.3,"aqi":138,"pm10":106.2,"pm2_5":39.7,"mosquito_risk":4,"arthritis_risk":5,"migraine_risk":7,"frizz_risk":1,"updated_at":"2026-03-28T10:26:06.740630+05:30"},{"city":"Mumbai","state":"Maharashtra","latitude":19.076,"longitude":72.8777,"temp":27.8,"humidity":80,"rain":0.0,"pressure":1009.1,"uv_index":8.0,"wind_gusts":25.2,"aqi":89,"pm10":29.8,"pm2_5":24.9,"mosquito_risk":7,"arthritis_risk":0,"migraine_risk":4,"frizz_risk":1,"updated_at":"2026-03-28T10:26:06.740678+05:30"},{"city":"Bangalore","state":"Karnataka","latitude":12.9716,"longitude":77.5946,"temp":28.4,"humidity":57,"rain":0.0,"pressure":913.8,"uv_index":9.5,"wind_gusts":47.2,"aqi":84,"pm10":44.8,"pm2_5":40.9,"mosquito_risk":4,"arthritis_risk":5,"migraine_risk":7,"frizz_risk":1,"updated_at":"2026-03-28T10:26:06.740694+05:30"},{"city":"Hyderabad","state":"Telangana","latitude":17.385,"longitude":78.4867,"temp":34.1,"humidity":30,"rain":0.0,"pressure":954.4,"uv_index":9.0,"wind_gusts":24.8,"aqi":100,"pm10":60.1,"pm2_5":50.4,"mosquito_risk":0,"arthritis_risk":5,"migraine_risk":7,"frizz_risk":0,"updated_at":"2026-03-28T10:26:06.740704+05:30"},{"city":"Chennai","state":"Tamil Nadu","latitude":13.0827,"longitude":80.2707,"temp":31.2,"humidity":62,"rain":0.0,"pressure":1008.7,"uv_index":9.25,"wind_gusts":34.9,"aqi":68,"pm10":30.2,"pm2_5":19.9,"mosquito_risk":3,"arthritis_risk":0,"migraine_risk":4,"frizz_risk":1,"updated_at":"2026-03-28T10:26:06.740714+05:30"},{"city":"Kolkata","state":"West Bengal","latitude":22.5726,"longitude":88.3639,"temp":27.3,"humidity":75,"rain":0.0,"pressure":1006.6,"uv_index":8.4,"wind_gusts":31.7,"aqi":115,"pm10":55.5,"pm2_5":48.2,"mosquito_risk":7,"arthritis_risk":5,"migraine_risk":4,"frizz_risk":1,"updated_at":"2026-03-28T10:26:06.740723+05:30"},{"city":"Pune","state":"Maharashtra","latitude":18.5204,"longitude":73.8567,"temp":32.9,"humidity":32,"rain":0.0,"pressure":949.8,"uv_index":8.55,"wind_gusts":46.8,"aqi":85,"pm10":13.2,"pm2_5":10.8,"mosquito_risk":0,"arthritis_risk":5,"migraine_risk":7,"frizz_risk":0,"updated_at":"2026-03-28T10:26:06.740735+05:30"},{"city":"Ahmedabad","state":"Gujarat","latitude":23.0225,"longitude":72.5714,"temp":30.7,"humidity":51,"rain":0.0,"pressure":1003.0,"uv_index":7.95,"wind_gusts":35.3,"aqi":45,"pm10":12.3,"pm2_5":6.3,"mosquito_risk":0,"arthritis_risk":5,"migraine_risk":4,"frizz_risk":1,"updated_at":"2026-03-28T10:26:06.740742+05:30"},{"city":"Jaipur","state":"Rajasthan","latitude":26.9124,"longitude":75.7873,"temp":29.0,"humidity":36,"rain":0.0,"pressure":960.4,"uv_index":7.35,"wind_gusts":32.0,"aqi":116,"pm10":197.0,"pm2_5":46.7,"mosquito_risk":4,"arthritis_risk":5,"migraine_risk":7,"frizz_risk":0,"updated_at":"2026-03-28T10:26:06.740749+05:30"},{"city":"Lucknow","state":"Uttar Pradesh","latitude":26.8467,"longitude":80.9462,"temp":28.5,"humidity":52,"rain":0.0,"pressure":994.0,"uv_index":7.1,"wind_gusts":29.5,"aqi":127,"pm10":202.6,"pm2_5":54.2,"mosquito_risk":4,"arthritis_risk":5,"migraine_risk":7,"frizz_risk":1,"updated_at":"2026-03-28T10:26:06.740756+05:30"},{"city":"Kanpur","state":"Uttar Pradesh","latitude":26.4499,"longitude":80.3319,"temp":27.9,"humidity":60,"rain":0.0,"pressure":992.4,"uv_index":6.75,"wind_gusts":29.2,"aqi":184,"pm10":283.1,"pm2_5":59.4,"mosquito_risk":4,"arthritis_risk":5,"migraine_risk":7,"frizz_risk":1,"updated_at":"2026-03-28T10:26:06.740763+05:30"},{"city":"Chandigarh","state":"Chandigarh","latitude":30.7333,"longitude":76.7794,"temp":25.4,"humidity":63,"rain":0.0,"pressure":968.8,"uv_index":5.15,"wind_gusts":23.0,"aqi":75,"pm10":27.1,"pm2_5":22.8,"mosquito_risk":7,"arthritis_risk":5,"migraine_risk":3,"frizz_risk":1,"updated_at":"2026-03-28T10:26:06.740770+05:30"},{"city":"Srinagar","state":"Jammu and Kashmir","latitude":34.0837,"longitude":74.7973,"temp":15.6,"humidity":56,"rain":0.0,"pressure":839.8,"uv_index":5.5,"wind_gusts":16.2,"aqi":87,"pm10":42.3,"pm2_5":29.5,"mosquito_risk":0,"arthritis_risk":5,"migraine_risk":3,"frizz_risk":0,"updated_at":"2026-03-28T10:26:06.740777+05:30"},{"city":"Jammu","state":"Jammu and Kashmir","latitude":32.7266,"longitude":74.857,"temp":24.0,"humidity":67,"rain":0.0,"pressure":971.3,"uv_index":6.3,"wind_gusts":15.8,"aqi":76,"pm10":22.4,"pm2_5":18.7,"mosquito_risk":3,"arthritis_risk":5,"migraine_risk":7,"frizz_risk":1,"updated_at":"2026-03-28T10:26:06.740785+05:30"},{"city":"Amritsar","state":"Punjab","latitude":31.634,"longitude":74.8723,"temp":24.8,"humidity":68,"rain":0.0,"pressure":980.1,"uv_index":6.1,"wind_gusts":14.8,"aqi":134,"pm10":51.3,"pm2_5":50.2,"mosquito_risk":3,"arthritis_risk":5,"migraine_risk":7,"frizz_risk":1,"updated_at":"2026-03-28T10:26:06.740792+05:30"},{"city":"Ludhiana","state":"Punjab","latitude":30.901,"longitude":75.8573,"temp":25.4,"humidity":60,"rain":0.0,"pressure":978.7,"uv_index":5.5,"wind_gusts":14.0,"aqi":94,"pm10":46.9,"pm2_5":43.8,"mosquito_risk":4,"arthritis_risk":5,"migraine_risk":3,"frizz_risk":1,"updated_at":"2026-03-28T10:26:06.740799+05:30"},{"city":"Jalandhar","state":"Punjab","latitude":31.326,"longitude":75.5762,"temp":24.8,"humidity":64,"rain":0.0,"pressure":979.7,"uv_index":5.0,"wind_gusts":12.2,"aqi":98,"pm10":38.3,"pm2_5":35.5,"mosquito_risk":3,"arthritis_risk":5,"migraine_risk":3,"frizz_risk":1,"updated_at":"2026-03-28T10:26:06.740808+05:30"},{"city":"Dehradun","state":"Uttarakhand","latitude":30.6284,"longitude":78.0322,"temp":17.4,"humidity":66,"rain":0.0,"pressure":829.1,"uv_index":5.55,"wind_gusts":22.3,"aqi":57,"pm10":24.8,"pm2_5":10.9,"mosquito_risk":3,"arthritis_risk":5,"migraine_risk":3,"frizz_risk":0,"updated_at":"2026-03-28T10:26:06.740816+05:30"},{"city":"Shimla","state":"Himachal Pradesh","latitude":31.1048,"longitude":77.1734,"temp":16.4,"humidity":64,"rain":0.0,"pressure":783.9,"uv_index":5.8,"wind_gusts":32.0,"aqi":61,"pm10":14.0,"pm2_5":6.7,"mosquito_risk":3,"arthritis_risk":5,"migraine_risk":3,"frizz_risk":0,"updated_at":"2026-03-28T10:26:06.740822+05:30"},{"city":"Manali","state":"Himachal Pradesh","latitude":32.2396,"longitude":77.1887,"temp":20.0,"humidity":28,"rain":0.0,"pressure":818.0,"uv_index":7.85,"wind_gusts":28.1,"aqi":63,"pm10":11.4,"pm2_5":3.6,"mosquito_risk":0,"arthritis_risk":5,"migraine_risk":7,"frizz_risk":0,"updated_at":"2026-03-28T10:26:06.740831+05:30"},{"city":"Gurgaon","state":"Haryana","latitude":28.4595,"longitude":77.0266,"temp":26.5,"humidity":60,"rain":0.0,"pressure":982.3,"uv_index":6.45,"wind_gusts":17.3,"aqi":433,"pm10":293.4,"pm2_5":54.2,"mosquito_risk":4,"arthritis_risk":5,"migraine_risk":7,"frizz_risk":1,"updated_at":"2026-03-28T10:26:06.740838+05:30"},{"city":"Noida","state":"Uttar Pradesh","latitude":28.5355,"longitude":77.391,"temp":26.7,"humidity":56,"rain":0.0,"pressure":985.3,"uv_index":6.25,"wind_gusts":21.6,"aqi":433,"pm10":293.4,"pm2_5":54.2,"mosquito_risk":4,"arthritis_risk":5,"migraine_risk":7,"frizz_risk":1,"updated_at":"2026-03-28T10:26:06.740845+05:30"},{"city":"Ghaziabad","state":"Uttar Pradesh","latitude":28.6692,"longitude":77.4538,"temp":26.1,"humidity":60,"rain":0.0,"pressure":983.5,"uv_index":5.95,"wind_gusts":21.2,"aqi":129,"pm10":93.8,"pm2_5":40.6,"mosquito_risk":4,"arthritis_risk":5,"migraine_risk":3,"frizz_risk":1,"updated_at":"2026-03-28T10:26:06.740851+05:30"},{"city":"Faridabad","state":"Haryana","latitude":28.4089,"longitude":77.3178,"temp":26.9,"humidity":56,"rain":0.0,"pressure":984.6,"uv_index":6.25,"wind_gusts":19.4,"aqi":433,"pm10":293.4,"pm2_5":54.2,"mosquito_risk":4,"arthritis_risk":5,"migraine_risk":7,"frizz_risk":1,"updated_at":"2026-03-28T10:26:06.740857+05:30"},{"city":"Meerut","state":"Uttar Pradesh","latitude":28.9845,"longitude":77.7064,"temp":25.6,"humidity":62,"rain":0.0,"pressure":982.1,"uv_index":5.85,"wind_gusts":23.0,"aqi":129,"pm10":93.8,"pm2_5":40.6,"mosquito_risk":7,"arthritis_risk":5,"migraine_risk":3,"frizz_risk":1,"updated_at":"2026-03-28T10:26:06.740866+05:30"},{"city":"Agra","state":"Uttar Pradesh","latitude":27.1767,"longitude":78.0081,"temp":31.0,"humidity":39,"rain":0.0,"pressure":988.5,"uv_index":6.55,"wind_gusts":27.0,"aqi":508,"pm10":296.2,"pm2_5":65.9,"mosquito_risk":0,"arthritis_risk":5,"migraine_risk":7,"frizz_risk":0,"updated_at":"2026-03-28T10:26:06.740872+05:30"},{"city":"Varanasi","state":"Uttar Pradesh","latitude":25.3176,"longitude":82.9739,"temp":28.2,"humidity":56,"rain":0.0,"pressure":998.1,"uv_index":7.8,"wind_gusts":37.4,"aqi":82,"pm10":60.3,"pm2_5":21.8,"mosquito_risk":4,"arthritis_risk":5,"migraine_risk":7,"frizz_risk":1,"updated_at":"2026-03-28T10:26:06.740880+05:30"},{"city":"Prayagraj","state":"Uttar Pradesh","latitude":25.4358,"longitude":81.8463,"temp":28.2,"humidity":54,"rain":0.0,"pressure":996.7,"uv_index":7.7,"wind_gusts":30.2,"aqi":82,"pm10":61.7,"pm2_5":22.1,"mosquito_risk":4,"arthritis_risk":5,"migraine_risk":7,"frizz_risk":1,"updated_at":"2026-03-28T10:26:06.740887+05:30"},{"city":"Gorakhpur","state":"Uttar Pradesh","latitude":26.7606,"longitude":83.3732,"temp":26.8,"humidity":61,"rain":0.0,"pressure":997.9,"uv_index":7.5,"wind_gusts":23.8,"aqi":102,"pm10":59.5,"pm2_5":37.1,"mosquito_risk":7,"arthritis_risk":5,"migraine_risk":7,"frizz_risk":1,"updated_at":"2026-03-28T10:26:06.740894+05:30"},{"city":"Bareilly","state":"Uttar Pradesh","latitude":28.367,"longitude":79.4304,"temp":26.8,"humidity":59,"rain":0.0,"pressure":987.4,"uv_index":6.55,"wind_gusts":26.3,"aqi":84,"pm10":83.8,"pm2_5":33.8,"mosquito_risk":4,"arthritis_risk":5,"migraine_risk":7,"frizz_risk":1,"updated_at":"2026-03-28T10:26:06.740899+05:30"},{"city":"Aligarh","state":"Uttar Pradesh","latitude":27.8974,"longitude":78.088,"temp":27.3,"humidity":56,"rain":0.0,"pressure":986.5,"uv_index":6.55,"wind_gusts":24.1,"aqi":217,"pm10":247.7,"pm2_5":60.5,"mosquito_risk":4,"arthritis_risk":5,"migraine_risk":7,"frizz_risk":1,"updated_at":"2026-03-28T10:26:06.740905+05:30"},{"city":"Moradabad","state":"Uttar Pradesh","latitude":28.8386,"longitude":78.7733,"temp":26.4,"humidity":59,"rain":0.0,"pressure":984.3,"uv_index":5.95,"wind_gusts":25.2,"aqi":90,"pm10":115.7,"pm2_5":42.7,"mosquito_risk":4,"arthritis_risk":5,"migraine_risk":3,"frizz_risk":1,"updated_at":"2026-03-28T10:26:06.740911+05:30"},{"city":"Saharanpur","state":"Uttar Pradesh","latitude":29.9637,"longitude":77.546,"temp":24.7,"humidity":67,"rain":0.0,"pressure":976.0,"uv_index":5.5,"wind_gusts":24.8,"aqi":100,"pm10":49.4,"pm2_5":39.5,"mosquito_risk":3,"arthritis_risk":5,"migraine_risk":3,"frizz_risk":1,"updated_at":"2026-03-28T10:26:06.740918+05:30"},{"city":"Jhansi","state":"Uttar Pradesh","latitude":25.4484,"longitude":78.5685,"temp":31.7,"humidity":34,"rain":0.0,"pressure":978.2,"uv_index":7.65,"wind_gusts":33.8,"aqi":95,"pm10":313.9,"pm2_5":58.3,"mosquito_risk":0,"arthritis_risk":5,"migraine_risk":7,"frizz_risk":0,"updated_at":"2026-03-28T10:26:10.007832+05:30"},{"city":"Surat","state":"Gujarat","latitude":21.1702,"longitude":72.8311,"temp":30.2,"humidity":49,"rain":0.0,"pressure":1007.6,"uv_index":7.75,"wind_gusts":27.4,"aqi":82,"pm10":38.3,"pm2_5":37.4,"mosquito_risk":0,"arthritis_risk":5,"migraine_risk":4,"frizz_risk":1,"updated_at":"2026-03-28T10:26:10.007863+05:30"},{"city":"Vadodara","state":"Gujarat","latitude":22.3072,"longitude":73.1812,"temp":31.4,"humidity":50,"rain":0.0,"pressure":1005.1,"uv_index":7.95,"wind_gusts":33.1,"aqi":63,"pm10":13.5,"pm2_5":9.4,"mosquito_risk":0,"arthritis_risk":5,"migraine_risk":4,"frizz_risk":1,"updated_at":"2026-03-28T10:26:10.007873+05:30"},{"city":"Rajkot","state":"Gujarat","latitude":22.3039,"longitude":70.8022,"temp":29.1,"humidity":60,"rain":0.0,"pressure":996.0,"uv_index":7.75,"wind_gusts":44.3,"aqi":32,"pm10":44.7,"pm2_5":9.3,"mosquito_risk":4,"arthritis_risk":5,"migraine_risk":7,"frizz_risk":1,"updated_at":"2026-03-28T10:26:10.007880+05:30"},{"city":"Thane","state":"Maharashtra","latitude":19.2183,"longitude":72.9781,"temp":31.3,"humidity":60,"rain":0.0,"pressure":1008.7,"uv_index":8.0,"wind_gusts":38.5,"aqi":89,"pm10":29.8,"pm2_5":24.9,"mosquito_risk":0,"arthritis_risk":0,"migraine_risk":4,"frizz_risk":1,"updated_at":"2026-03-28T10:26:10.007887+05:30"},{"city":"Nagpur","state":"Maharashtra","latitude":21.1458,"longitude":79.0882,"temp":32.6,"humidity":34,"rain":0.0,"pressure":973.7,"uv_index":8.5,"wind_gusts":31.7,"aqi":64,"pm10":18.9,"pm2_5":14.1,"mosquito_risk":0,"arthritis_risk":5,"migraine_risk":7,"frizz_risk":0,"updated_at":"2026-03-28T10:26:10.007894+05:30"},{"city":"Nashik","state":"Maharashtra","latitude":19.9975,"longitude":73.7898,"temp":30.0,"humidity":45,"rain":0.0,"pressure":946.9,"uv_index":8.2,"wind_gusts":42.5,"aqi":61,"pm10":12.3,"pm2_5":11.1,"mosquito_risk":4,"arthritis_risk":5,"migraine_risk":7,"frizz_risk":1,"updated_at":"2026-03-28T10:26:10.007901+05:30"},{"city":"Aurangabad","state":"Maharashtra","latitude":19.8762,"longitude":75.3433,"temp":31.7,"humidity":31,"rain":0.0,"pressure":945.5,"uv_index":8.75,"wind_gusts":38.5,"aqi":57,"pm10":10.7,"pm2_5":10.1,"mosquito_risk":0,"arthritis_risk":5,"migraine_risk":7,"frizz_risk":0,"updated_at":"2026-03-28T10:26:10.007908+05:30"},{"city":"Solapur","state":"Maharashtra","latitude":17.6599,"longitude":75.9064,"temp":33.5,"humidity":30,"rain":0.0,"pressure":958.7,"uv_index":8.85,"wind_gusts":28.4,"aqi":98,"pm10":23.9,"pm2_5":19.2,"mosquito_risk":0,"arthritis_risk":5,"migraine_risk":7,"frizz_risk":0,"updated_at":"2026-03-28T10:26:10.007915+05:30"},{"city":"Kolhapur","state":"Maharashtra","latitude":16.705,"longitude":74.2433,"temp":31.7,"humidity":34,"rain":0.0,"pressure":949.5,"uv_index":8.95,"wind_gusts":46.4,"aqi":135,"pm10":62.6,"pm2_5":56.6,"mosquito_risk":0,"arthritis_risk":5,"migraine_risk":7,"frizz_risk":0,"updated_at":"2026-03-28T10:26:10.007922+05:30"},{"city":"Goa","state":"Goa","latitude":15.2993,"longitude":74.124,"temp":32.2,"humidity":65,"rain":0.0,"pressure":999.1,"uv_index":8.95,"wind_gusts":31.7,"aqi":94,"pm10":40.3,"pm2_5":33.2,"mosquito_risk":3,"arthritis_risk":5,"migraine_risk":7,"frizz_risk":1,"updated_at":"2026-03-28T10:26:10.007929+05:30"},{"city":"Jodhpur","state":"Rajasthan","latitude":26.2389,"longitude":73.0243,"temp":30.9,"humidity":40,"rain":0.0,"pressure":983.3,"uv_index":7.6,"wind_gusts":29.9,"aqi":59,"pm10":186.3,"pm2_5":33.4,"mosquito_risk":0,"arthritis_risk":5,"migraine_risk":7,"frizz_risk":0,"updated_at":"2026-03-28T10:26:10.007935+05:30"},{"city":"Udaipur","state":"Rajasthan","latitude":24.5854,"longitude":73.7125,"temp":29.7,"humidity":38,"rain":0.0,"pressure":947.1,"uv_index":8.35,"wind_gusts":33.1,"aqi":50,"pm10":32.9,"pm2_5":10.8,"mosquito_risk":4,"arthritis_risk":5,"migraine_risk":7,"frizz_risk":0,"updated_at":"2026-03-28T10:26:10.007942+05:30"},{"city":"Kota","state":"Rajasthan","latitude":25.2138,"longitude":75.8648,"temp":32.6,"humidity":29,"rain":0.0,"pressure":979.1,"uv_index":7.75,"wind_gusts":24.5,"aqi":54,"pm10":43.1,"pm2_5":16.2,"mosquito_risk":0,"arthritis_risk":5,"migraine_risk":7,"frizz_risk":0,"updated_at":"2026-03-28T10:26:10.007949+05:30"},{"city":"Bikaner","state":"Rajasthan","latitude":28.0229,"longitude":73.3119,"temp":30.1,"humidity":38,"rain":0.0,"pressure":981.6,"uv_index":6.65,"wind_gusts":25.2,"aqi":36,"pm10":31.2,"pm2_5":8.3,"mosquito_risk":0,"arthritis_risk":5,"migraine_risk":7,"frizz_risk":0,"updated_at":"2026-03-28T10:26:10.007956+05:30"},{"city":"Ajmer","state":"Rajasthan","latitude":26.4499,"longitude":74.6399,"temp":29.3,"humidity":37,"rain":0.0,"pressure":955.0,"uv_index":7.55,"wind_gusts":30.6,"aqi":42,"pm10":9.3,"pm2_5":6.1,"mosquito_risk":4,"arthritis_risk":5,"migraine_risk":7,"frizz_risk":0,"updated_at":"2026-03-28T10:26:10.007962+05:30"},{"city":"Gwalior","state":"Madhya Pradesh","latitude":26.2183,"longitude":78.1828,"temp":31.4,"humidity":38,"rain":0.0,"pressure":983.7,"uv_index":7.3,"wind_gusts":35.3,"aqi":145,"pm10":336.2,"pm2_5":63.1,"mosquito_risk":0,"arthritis_risk":5,"migraine_risk":7,"frizz_risk":0,"updated_at":"2026-03-28T10:26:10.007969+05:30"},{"city":"Indore","state":"Madhya Pradesh","latitude":22.7196,"longitude":75.8577,"temp":30.6,"humidity":38,"rain":0.0,"pressure":948.6,"uv_index":8.25,"wind_gusts":36.7,"aqi":34,"pm10":29.6,"pm2_5":11.9,"mosquito_risk":0,"arthritis_risk":5,"migraine_risk":7,"frizz_risk":0,"updated_at":"2026-03-28T10:26:10.007975+05:30"},{"city":"Bhopal","state":"Madhya Pradesh","latitude":23.2599,"longitude":77.4126,"temp":32.2,"humidity":31,"rain":0.0,"pressure":954.2,"uv_index":8.15,"wind_gusts":31.3,"aqi":40,"pm10":42.4,"pm2_5":14.9,"mosquito_risk":0,"arthritis_risk":5,"migraine_risk":7,"frizz_risk":0,"updated_at":"2026-03-28T10:26:10.007982+05:30"},{"city":"Jabalpur","state":"Madhya Pradesh","latitude":23.1815,"longitude":79.9864,"temp":29.6,"humidity":42,"rain":0.0,"pressure":962.0,"uv_index":8.3,"wind_gusts":29.9,"aqi":52,"pm10":31.8,"pm2_5":15.0,"mosquito_risk":4,"arthritis_risk":5,"migraine_risk":7,"frizz_risk":0,"updated_at":"2026-03-28T10:26:10.007989+05:30"},{"city":"Ujjain","state":"Madhya Pradesh","latitude":23.1765,"longitude":75.7885,"temp":30.1,"humidity":44,"rain":0.0,"pressure":954.3,"uv_index":8.15,"wind_gusts":34.6,"aqi":38,"pm10":17.8,"pm2_5":11.3,"mosquito_risk":0,"arthritis_risk":5,"migraine_risk":7,"frizz_risk":1,"updated_at":"2026-03-28T10:26:10.007996+05:30"},{"city":"Visakhapatnam","state":"Andhra Pradesh","latitude":17.6868,"longitude":83.2185,"temp":33.6,"humidity":45,"rain":0.0,"pressure":1004.1,"uv_index":9.0,"wind_gusts":44.6,"aqi":89,"pm10":42.4,"pm2_5":29.9,"mosquito_risk":0,"arthritis_risk":5,"migraine_risk":4,"frizz_risk":1,"updated_at":"2026-03-28T10:26:10.008003+05:30"},{"city":"Vijayawada","state":"Andhra Pradesh","latitude":16.5062,"longitude":80.648,"temp":31.0,"humidity":64,"rain":0.0,"pressure":1004.0,"uv_index":9.05,"wind_gusts":32.0,"aqi":75,"pm10":31.2,"pm2_5":21.7,"mosquito_risk":3,"arthritis_risk":5,"migraine_risk":4,"frizz_risk":1,"updated_at":"2026-03-28T10:26:10.008009+05:30"},{"city":"Guntur","state":"Andhra Pradesh","latitude":16.3067,"longitude":80.4365,"temp":31.4,"humidity":60,"rain":0.0,"pressure":1005.3,"uv_index":9.05,"wind_gusts":32.8,"aqi":74,"pm10":34.3,"pm2_5":25.0,"mosquito_risk":0,"arthritis_risk":5,"migraine_risk":4,"frizz_risk":1,"updated_at":"2026-03-28T10:26:10.008015+05:30"},{"city":"Nellore","state":"Andhra Pradesh","latitude":14.4426,"longitude":79.9865,"temp":31.8,"humidity":60,"rain":0.0,"pressure":1006.9,"uv_index":9.2,"wind_gusts":38.2,"aqi":72,"pm10":34.0,"pm2_5":24.2,"mosquito_risk":0,"arthritis_risk":5,"migraine_risk":4,"frizz_risk":1,"updated_at":"2026-03-28T10:26:10.008022+05:30"},{"city":"Kurnool","state":"Andhra Pradesh","latitude":15.8281,"longitude":78.0373,"temp":35.6,"humidity":31,"rain":0.0,"pressure":977.7,"uv_index":9.05,"wind_gusts":33.5,"aqi":91,"pm10":47.3,"pm2_5":38.3,"mosquito_risk":0,"arthritis_risk":5,"migraine_risk":10,"frizz_risk":0,"updated_at":"2026-03-28T10:26:10.008029+05:30"},{"city":"Kakinada","state":"Andhra Pradesh","latitude":16.9891,"longitude":82.2475,"temp":31.9,"humidity":60,"rain":0.0,"pressure":1008.4,"uv_index":9.0,"wind_gusts":34.6,"aqi":70,"pm10":37.0,"pm2_5":22.5,"mosquito_risk":0,"arthritis_risk":0,"migraine_risk":4,"frizz_risk":1,"updated_at":"2026-03-28T10:26:10.008035+05:30"},{"city":"Tirupati","state":"Andhra Pradesh","latitude":13.6288,"longitude":79.4192,"temp":33.1,"humidity":47,"rain":0.0,"pressure":992.7,"uv_index":9.3,"wind_gusts":28.1,"aqi":97,"pm10":35.5,"pm2_5":25.0,"mosquito_risk":0,"arthritis_risk":5,"migraine_risk":7,"frizz_risk":1,"updated_at":"2026-03-28T10:26:10.008041+05:30"},{"city":"Warangal","state":"Telangana","latitude":17.9689,"longitude":79.5941,"temp":32.7,"humidity":48,"rain":0.0,"pressure":979.4,"uv_index":8.85,"wind_gusts":25.6,"aqi":89,"pm10":44.5,"pm2_5":38.5,"mosquito_risk":0,"arthritis_risk":5,"migraine_risk":7,"frizz_risk":1,"updated_at":"2026-03-28T10:26:10.008048+05:30"},{"city":"Nizamabad","state":"Telangana","latitude":18.6725,"longitude":78.0941,"temp":33.8,"humidity":28,"rain":0.0,"pressure":966.0,"uv_index":8.8,"wind_gusts":24.5,"aqi":97,"pm10":17.6,"pm2_5":17.2,"mosquito_risk":0,"arthritis_risk":5,"migraine_risk":7,"frizz_risk":0,"updated_at":"2026-03-28T10:26:10.008054+05:30"},{"city":"Mysore","state":"Karnataka","latitude":12.2958,"longitude":76.6396,"temp":29.5,"humidity":53,"rain":0.0,"pressure":930.5,"uv_index":9.45,"wind_gusts":47.2,"aqi":84,"pm10":39.2,"pm2_5":35.5,"mosquito_risk":4,"arthritis_risk":5,"migraine_risk":7,"frizz_risk":1,"updated_at":"2026-03-28T10:26:10.008060+05:30"},{"city":"Mangalore","state":"Karnataka","latitude":12.9141,"longitude":74.856,"temp":28.9,"humidity":78,"rain":0.0,"pressure":1008.0,"uv_index":9.1,"wind_gusts":25.9,"aqi":92,"pm10":37.4,"pm2_5":30.9,"mosquito_risk":7,"arthritis_risk":0,"migraine_risk":4,"frizz_risk":1,"updated_at":"2026-03-28T10:26:10.008066+05:30"},{"city":"Hubli-Dharwad","state":"Karnataka","latitude":15.3647,"longitude":75.124,"temp":29.8,"humidity":45,"rain":0.0,"pressure":942.6,"uv_index":7.95,"wind_gusts":50.0,"aqi":89,"pm10":41.4,"pm2_5":35.2,"mosquito_risk":4,"arthritis_risk":5,"migraine_risk":7,"frizz_risk":1,"updated_at":"2026-03-28T10:26:10.008073+05:30"},{"city":"Belgaum","state":"Karnataka","latitude":15.8497,"longitude":74.4977,"temp":30.0,"humidity":40,"rain":0.0,"pressure":927.8,"uv_index":9.2,"wind_gusts":39.6,"aqi":107,"pm10":41.7,"pm2_5":31.9,"mosquito_risk":4,"arthritis_risk":5,"migraine_risk":7,"frizz_risk":0,"updated_at":"2026-03-28T10:26:13.274018+05:30"},{"city":"Coimbatore","state":"Tamil Nadu","latitude":11.0168,"longitude":76.9558,"temp":31.3,"humidity":56,"rain":0.0,"pressure":963.6,"uv_index":9.45,"wind_gusts":54.7,"aqi":81,"pm10":28.2,"pm2_5":24.3,"mosquito_risk":0,"arthritis_risk":5,"migraine_risk":7,"frizz_risk":1,"updated_at":"2026-03-28T10:26:13.274049+05:30"},{"city":"Madurai","state":"Tamil Nadu","latitude":9.9252,"longitude":78.1198,"temp":31.1,"humidity":63,"rain":0.0,"pressure":994.5,"uv_index":9.4,"wind_gusts":34.2,"aqi":81,"pm10":23.3,"pm2_5":19.1,"mosquito_risk":3,"arthritis_risk":5,"migraine_risk":7,"frizz_risk":1,"updated_at":"2026-03-28T10:26:13.274059+05:30"},{"city":"Trichy","state":"Tamil Nadu","latitude":10.7905,"longitude":78.7047,"temp":31.3,"humidity":62,"rain":0.0,"pressure":1001.2,"uv_index":9.35,"wind_gusts":23.4,"aqi":83,"pm10":22.3,"pm2_5":16.2,"mosquito_risk":3,"arthritis_risk":5,"migraine_risk":4,"frizz_risk":1,"updated_at":"2026-03-28T10:26:13.274068+05:30"},{"city":"Salem","state":"Tamil Nadu","latitude":11.6643,"longitude":78.146,"temp":32.2,"humidity":54,"rain":0.0,"pressure":978.8,"uv_index":9.4,"wind_gusts":23.8,"aqi":102,"pm10":34.2,"pm2_5":29.0,"mosquito_risk":0,"arthritis_risk":5,"migraine_risk":7,"frizz_risk":1,"updated_at":"2026-03-28T10:26:13.274075+05:30"},{"city":"Tirunelveli","state":"Tamil Nadu","latitude":8.7139,"longitude":77.7567,"temp":33.1,"humidity":48,"rain":0.0,"pressure":1004.4,"uv_index":9.35,"wind_gusts":45.0,"aqi":64,"pm10":29.9,"pm2_5":25.6,"mosquito_risk":0,"arthritis_risk":5,"migraine_risk":4,"frizz_risk":1,"updated_at":"2026-03-28T10:26:13.274082+05:30"},{"city":"Vellore","state":"Tamil Nadu","latitude":12.9165,"longitude":79.1325,"temp":31.8,"humidity":53,"rain":0.0,"pressure":986.2,"uv_index":9.35,"wind_gusts":28.4,"aqi":110,"pm10":46.6,"pm2_5":36.9,"mosquito_risk":0,"arthritis_risk":5,"migraine_risk":7,"frizz_risk":1,"updated_at":"2026-03-28T10:26:13.274089+05:30"},{"city":"Erode","state":"Tamil Nadu","latitude":11.341,"longitude":77.7172,"temp":32.2,"humidity":58,"rain":0.0,"pressure":990.3,"uv_index":9.35,"wind_gusts":22.3,"aqi":86,"pm10":39.7,"pm2_5":36.3,"mosquito_risk":0,"arthritis_risk":5,"migraine_risk":7,"frizz_risk":1,"updated_at":"2026-03-28T10:26:13.274096+05:30"},{"city":"Kochi","state":"Kerala","latitude":9.9312,"longitude":76.2673,"temp":28.1,"humidity":82,"rain":0.0,"pressure":1010.2,"uv_index":8.75,"wind_gusts":31.3,"aqi":91,"pm10":30.9,"pm2_5":26.9,"mosquito_risk":7,"arthritis_risk":0,"migraine_risk":4,"frizz_risk":1,"updated_at":"2026-03-28T10:26:13.274103+05:30"},{"city":"Thiruvananthapuram","state":"Kerala","latitude":8.5241,"longitude":76.9366,"temp":28.2,"humidity":82,"rain":0.0,"pressure":1009.1,"uv_index":9.2,"wind_gusts":41.0,"aqi":64,"pm10":26.9,"pm2_5":21.9,"mosquito_risk":7,"arthritis_risk":0,"migraine_risk":4,"frizz_risk":1,"updated_at":"2026-03-28T10:26:13.274110+05:30"},{"city":"Kozhikode","state":"Kerala","latitude":11.2588,"longitude":75.7804,"temp":29.1,"humidity":77,"rain":0.0,"pressure":1009.2,"uv_index":9.1,"wind_gusts":28.8,"aqi":83,"pm10":29.2,"pm2_5":23.5,"mosquito_risk":7,"arthritis_risk":0,"migraine_risk":4,"frizz_risk":1,"updated_at":"2026-03-28T10:26:13.274117+05:30"},{"city":"Thrissur","state":"Kerala","latitude":10.5276,"longitude":76.2144,"temp":31.5,"humidity":64,"rain":0.0,"pressure":1008.4,"uv_index":9.15,"wind_gusts":36.7,"aqi":90,"pm10":27.4,"pm2_5":24.0,"mosquito_risk":3,"arthritis_risk":0,"migraine_risk":4,"frizz_risk":1,"updated_at":"2026-03-28T10:26:13.274124+05:30"},{"city":"Kannur","state":"Kerala","latitude":11.8745,"longitude":75.3704,"temp":30.4,"humidity":70,"rain":0.0,"pressure":1008.3,"uv_index":9.1,"wind_gusts":30.6,"aqi":90,"pm10":31.3,"pm2_5":25.4,"mosquito_risk":3,"arthritis_risk":0,"migraine_risk":4,"frizz_risk":1,"updated_at":"2026-03-28T10:26:13.274131+05:30"},{"city":"Patna","state":"Bihar","latitude":25.5941,"longitude":85.1376,"temp":26.7,"humidity":63,"rain":0.0,"pressure":1001.5,"uv_index":7.9,"wind_gusts":29.5,"aqi":103,"pm10":59.6,"pm2_5":39.2,"mosquito_risk":7,"arthritis_risk":5,"migraine_risk":4,"frizz_risk":1,"updated_at":"2026-03-28T10:26:13.274138+05:30"},{"city":"Gaya","state":"Bihar","latitude":24.7914,"longitude":85.0002,"temp":26.8,"humidity":68,"rain":0.0,"pressure":994.5,"uv_index":8.05,"wind_gusts":24.1,"aqi":73,"pm10":56.8,"pm2_5":30.2,"mosquito_risk":7,"arthritis_risk":5,"migraine_risk":7,"frizz_risk":1,"updated_at":"2026-03-28T10:26:13.274144+05:30"},{"city":"Muzaffarpur","state":"Bihar","latitude":26.1209,"longitude":85.3647,"temp":26.6,"humidity":63,"rain":0.0,"pressure":1001.5,"uv_index":7.85,"wind_gusts":19.8,"aqi":126,"pm10":72.9,"pm2_5":51.0,"mosquito_risk":7,"arthritis_risk":5,"migraine_risk":4,"frizz_risk":1,"updated_at":"2026-03-28T10:26:13.274150+05:30"},{"city":"Bhagalpur","state":"Bihar","latitude":25.2425,"longitude":87.0117,"temp":26.0,"humidity":70,"rain":0.0,"pressure":1002.8,"uv_index":7.25,"wind_gusts":25.2,"aqi":120,"pm10":68.7,"pm2_5":44.5,"mosquito_risk":7,"arthritis_risk":5,"migraine_risk":4,"frizz_risk":1,"updated_at":"2026-03-28T10:26:13.274157+05:30"},{"city":"Ranchi","state":"Jharkhand","latitude":23.3441,"longitude":85.3096,"temp":24.8,"humidity":72,"rain":0.0,"pressure":938.3,"uv_index":8.65,"wind_gusts":33.1,"aqi":72,"pm10":54.9,"pm2_5":39.3,"mosquito_risk":3,"arthritis_risk":5,"migraine_risk":7,"frizz_risk":1,"updated_at":"2026-03-28T10:26:13.274164+05:30"},{"city":"Jamshedpur","state":"Jharkhand","latitude":22.8046,"longitude":86.2029,"temp":27.0,"humidity":68,"rain":0.0,"pressure":991.8,"uv_index":8.5,"wind_gusts":32.4,"aqi":100,"pm10":63.6,"pm2_5":44.2,"mosquito_risk":7,"arthritis_risk":5,"migraine_risk":7,"frizz_risk":1,"updated_at":"2026-03-28T10:26:13.274170+05:30"},{"city":"Dhanbad","state":"Jharkhand","latitude":23.7957,"longitude":86.4304,"temp":27.6,"humidity":56,"rain":0.0,"pressure":980.2,"uv_index":8.4,"wind_gusts":33.8,"aqi":144,"pm10":81.0,"pm2_5":56.2,"mosquito_risk":4,"arthritis_risk":5,"migraine_risk":7,"frizz_risk":1,"updated_at":"2026-03-28T10:26:13.274176+05:30"},{"city":"Bokaro","state":"Jharkhand","latitude":23.6693,"longitude":86.1511,"temp":27.1,"humidity":60,"rain":0.0,"pressure":984.2,"uv_index":8.45,"wind_gusts":31.0,"aqi":120,"pm10":68.9,"pm2_5":47.0,"mosquito_risk":4,"arthritis_risk":5,"migraine_risk":7,"frizz_risk":1,"updated_at":"2026-03-28T10:26:13.274182+05:30"},{"city":"Bhubaneswar","state":"Odisha","latitude":20.2961,"longitude":85.8245,"temp":30.7,"humidity":63,"rain":0.0,"pressure":1003.2,"uv_index":8.8,"wind_gusts":36.7,"aqi":110,"pm10":58.4,"pm2_5":49.6,"mosquito_risk":3,"arthritis_risk":5,"migraine_risk":4,"frizz_risk":1,"updated_at":"2026-03-28T10:26:13.274188+05:30"},{"city":"Cuttack","state":"Odisha","latitude":20.4625,"longitude":85.8828,"temp":29.3,"humidity":68,"rain":0.0,"pressure":1005.3,"uv_index":8.8,"wind_gusts":34.6,"aqi":110,"pm10":58.4,"pm2_5":49.6,"mosquito_risk":7,"arthritis_risk":5,"migraine_risk":4,"frizz_risk":1,"updated_at":"2026-03-28T10:26:13.274194+05:30"},{"city":"Rourkela","state":"Odisha","latitude":22.2604,"longitude":84.8536,"temp":29.5,"humidity":59,"rain":0.0,"pressure":985.6,"uv_index":8.45,"wind_gusts":43.9,"aqi":102,"pm10":62.6,"pm2_5":48.3,"mosquito_risk":4,"arthritis_risk":5,"migraine_risk":7,"frizz_risk":1,"updated_at":"2026-03-28T10:26:13.274199+05:30"},{"city":"Raipur","state":"Chhattisgarh","latitude":21.2514,"longitude":81.6296,"temp":34.4,"humidity":31,"rain":0.0,"pressure":974.6,"uv_index":8.55,"wind_gusts":34.6,"aqi":105,"pm10":42.6,"pm2_5":40.0,"mosquito_risk":0,"arthritis_risk":5,"migraine_risk":7,"frizz_risk":0,"updated_at":"2026-03-28T10:26:13.274205+05:30"},{"city":"Bhilai","state":"Chhattisgarh","latitude":21.1938,"longitude":81.3509,"temp":34.0,"humidity":33,"rain":0.0,"pressure":975.0,"uv_index":8.55,"wind_gusts":33.8,"aqi":89,"pm10":34.7,"pm2_5":32.5,"mosquito_risk":0,"arthritis_risk":5,"migraine_risk":7,"frizz_risk":0,"updated_at":"2026-03-28T10:26:13.274212+05:30"},{"city":"Guwahati","state":"Assam","latitude":26.1158,"longitude":91.7086,"temp":22.2,"humidity":88,"rain":0.3,"pressure":1004.3,"uv_index":5.25,"wind_gusts":28.1,"aqi":152,"pm10":52.5,"pm2_5":38.6,"mosquito_risk":6,"arthritis_risk":5,"migraine_risk":0,"frizz_risk":1,"updated_at":"2026-03-28T10:26:13.274218+05:30"},{"city":"Agartala","state":"Tripura","latitude":23.8315,"longitude":91.2868,"temp":25.8,"humidity":81,"rain":0.0,"pressure":1007.9,"uv_index":7.55,"wind_gusts":38.5,"aqi":152,"pm10":48.3,"pm2_5":41.3,"mosquito_risk":7,"arthritis_risk":5,"migraine_risk":4,"frizz_risk":1,"updated_at":"2026-03-28T10:26:13.274224+05:30"},{"city":"Shillong","state":"Meghalaya","latitude":25.5788,"longitude":91.8933,"temp":13.7,"humidity":87,"rain":0.1,"pressure":856.0,"uv_index":6.05,"wind_gusts":43.9,"aqi":111,"pm10":39.5,"pm2_5":26.1,"mosquito_risk":6,"arthritis_risk":10,"migraine_risk":7,"frizz_risk":0,"updated_at":"2026-03-28T10:26:13.274231+05:30"},{"city":"Imphal","state":"Manipur","latitude":24.817,"longitude":93.9368,"temp":17.3,"humidity":86,"rain":0.0,"pressure":924.8,"uv_index":6.75,"wind_gusts":55.1,"aqi":138,"pm10":55.9,"pm2_5":39.2,"mosquito_risk":3,"arthritis_risk":10,"migraine_risk":7,"frizz_risk":0,"updated_at":"2026-03-28T10:26:13.274238+05:30"},{"city":"Aizawl","state":"Mizoram","latitude":23.7271,"longitude":92.7176,"temp":19.5,"humidity":81,"rain":0.0,"pressure":894.0,"uv_index":7.0,"wind_gusts":43.9,"aqi":106,"pm10":50.3,"pm2_5":36.3,"mosquito_risk":3,"arthritis_risk":10,"migraine_risk":7,"frizz_risk":1,"updated_at":"2026-03-28T10:26:13.274244+05:30"},{"city":"Kohima","state":"Nagaland","latitude":25.6701,"longitude":94.1077,"temp":14.7,"humidity":90,"rain":0.1,"pressure":855.5,"uv_index":6.55,"wind_gusts":77.0,"aqi":103,"pm10":42.7,"pm2_5":28.5,"mosquito_risk":6,"arthritis_risk":10,"migraine_risk":7,"frizz_risk":0,"updated_at":"2026-03-28T10:26:13.274250+05:30"},{"city":"Gangtok","state":"Sikkim","latitude":27.3314,"longitude":88.6138,"temp":13.9,"humidity":87,"rain":0.0,"pressure":836.7,"uv_index":7.1,"wind_gusts":20.2,"aqi":112,"pm10":38.1,"pm2_5":26.2,"mosquito_risk":3,"arthritis_risk":10,"migraine_risk":7,"frizz_risk":0,"updated_at":"2026-03-28T10:26:13.274257+05:30"},{"city":"Siliguri","state":"West Bengal","latitude":26.7271,"longitude":88.3953,"temp":19.6,"humidity":84,"rain":0.1,"pressure":995.6,"uv_index":7.35,"wind_gusts":26.3,"aqi":155,"pm10":62.6,"pm2_5":44.5,"mosquito_risk":6,"arthritis_risk":10,"migraine_risk":7,"frizz_risk":1,"updated_at":"2026-03-28T10:26:16.541816+05:30"},{"city":"Durgapur","state":"West Bengal","latitude":23.5204,"longitude":87.3119,"temp":28.5,"humidity":59,"rain":0.0,"pressure":995.6,"uv_index":8.35,"wind_gusts":35.6,"aqi":122,"pm10":76.8,"pm2_5":47.7,"mosquito_risk":4,"arthritis_risk":5,"migraine_risk":7,"frizz_risk":1,"updated_at":"2026-03-28T10:26:16.541846+05:30"},{"city":"Asansol","state":"West Bengal","latitude":23.6739,"longitude":86.9524,"temp":28.2,"humidity":59,"rain":0.0,"pressure":994.1,"uv_index":8.35,"wind_gusts":35.3,"aqi":116,"pm10":79.4,"pm2_5":51.5,"mosquito_risk":4,"arthritis_risk":5,"migraine_risk":7,"frizz_risk":1,"updated_at":"2026-03-28T10:26:16.541856+05:30"},{"city":"Pondicherry","state":"Puducherry","latitude":11.9139,"longitude":79.8145,"temp":30.7,"humidity":68,"rain":0.0,"pressure":1009.8,"uv_index":9.25,"wind_gusts":31.3,"aqi":63,"pm10":24.0,"pm2_5":16.8,"mosquito_risk":3,"arthritis_risk":0,"migraine_risk":4,"frizz_risk":1,"updated_at":"2026-03-28T10:26:16.541865+05:30"},{"city":"Port Blair","state":"Andaman and Nicobar Islands","latitude":11.6234,"longitude":92.7265,"temp":28.8,"humidity":74,"rain":0.0,"pressure":1007.8,"uv_index":9.15,"wind_gusts":25.6,"aqi":71,"pm10":36.8,"pm2_5":24.7,"mosquito_risk":7,"arthritis_risk":5,"migraine_risk":4,"frizz_risk":1,"updated_at":"2026-03-28T10:26:16.541874+05:30"},{"city":"Haridwar","state":"Uttarakhand","latitude":29.9457,"longitude":78.1642,"temp":26.0,"humidity":58,"rain":0.0,"pressure":974.4,"uv_index":5.5,"wind_gusts":27.0,"aqi":79,"pm10":21.5,"pm2_5":18.5,"mosquito_risk":4,"arthritis_risk":5,"migraine_risk":3,"frizz_risk":1,"updated_at":"2026-03-28T10:26:16.541882+05:30"},{"city":"Rishikesh","state":"Uttarakhand","latitude":30.0869,"longitude":78.2676,"temp":26.0,"humidity":55,"rain":0.0,"pressure":966.8,"uv_index":5.45,"wind_gusts":25.2,"aqi":62,"pm10":28.5,"pm2_5":14.3,"mosquito_risk":4,"arthritis_risk":5,"migraine_risk":3,"frizz_risk":1,"updated_at":"2026-03-28T10:26:16.541889+05:30"},{"city":"Nainital","state":"Uttarakhand","latitude":29.3919,"longitude":79.4542,"temp":19.8,"humidity":51,"rain":0.0,"pressure":806.0,"uv_index":5.15,"wind_gusts":27.0,"aqi":63,"pm10":30.6,"pm2_5":14.6,"mosquito_risk":0,"arthritis_risk":5,"migraine_risk":3,"frizz_risk":0,"updated_at":"2026-03-28T10:26:16.541897+05:30"},{"city":"Mussoorie","state":"Uttarakhand","latitude":30.4599,"longitude":78.0664,"temp":17.7,"humidity":68,"rain":0.0,"pressure":802.0,"uv_index":5.55,"wind_gusts":26.6,"aqi":71,"pm10":21.5,"pm2_5":14.7,"mosquito_risk":3,"arthritis_risk":5,"migraine_risk":3,"frizz_risk":0,"updated_at":"2026-03-28T10:26:16.541906+05:30"},{"city":"Dharamshala","state":"Himachal Pradesh","latitude":32.219,"longitude":76.3234,"temp":19.6,"humidity":75,"rain":0.0,"pressure":867.4,"uv_index":5.7,"wind_gusts":20.2,"aqi":38,"pm10":15.3,"pm2_5":3.6,"mosquito_risk":3,"arthritis_risk":5,"migraine_risk":3,"frizz_risk":0,"updated_at":"2026-03-28T10:26:16.541913+05:30"},{"city":"Dalhousie","state":"Himachal Pradesh","latitude":32.5387,"longitude":75.971,"temp":17.5,"humidity":59,"rain":0.0,"pressure":802.0,"uv_index":5.6,"wind_gusts":18.7,"aqi":63,"pm10":15.5,"pm2_5":11.0,"mosquito_risk":0,"arthritis_risk":5,"migraine_risk":3,"frizz_risk":0,"updated_at":"2026-03-28T10:26:16.541921+05:30"},{"city":"Patiala","state":"Punjab","latitude":30.3398,"longitude":76.3869,"temp":25.8,"humidity":60,"rain":0.0,"pressure":978.4,"uv_index":4.9,"wind_gusts":17.6,"aqi":95,"pm10":48.9,"pm2_5":43.1,"mosquito_risk":4,"arthritis_risk":5,"migraine_risk":3,"frizz_risk":1,"updated_at":"2026-03-28T10:26:16.541928+05:30"},{"city":"Bhatinda","state":"Punjab","latitude":30.211,"longitude":74.9455,"temp":26.9,"humidity":54,"rain":0.0,"pressure":983.6,"uv_index":6.8,"wind_gusts":17.3,"aqi":85,"pm10":22.2,"pm2_5":21.1,"mosquito_risk":4,"arthritis_risk":5,"migraine_risk":7,"frizz_risk":1,"updated_at":"2026-03-28T10:26:16.541935+05:30"},{"city":"Rohtak","state":"Haryana","latitude":28.8955,"longitude":76.6066,"temp":26.0,"humidity":61,"rain":0.0,"pressure":982.6,"uv_index":6.15,"wind_gusts":14.8,"aqi":151,"pm10":156.0,"pm2_5":39.0,"mosquito_risk":7,"arthritis_risk":5,"migraine_risk":7,"frizz_risk":1,"updated_at":"2026-03-28T10:26:16.541941+05:30"},{"city":"Panipat","state":"Haryana","latitude":29.3909,"longitude":76.9635,"temp":25.7,"humidity":61,"rain":0.0,"pressure":981.0,"uv_index":5.6,"wind_gusts":19.4,"aqi":245,"pm10":78.7,"pm2_5":36.2,"mosquito_risk":7,"arthritis_risk":5,"migraine_risk":3,"frizz_risk":1,"updated_at":"2026-03-28T10:26:16.541948+05:30"},{"city":"Mathura","state":"Uttar Pradesh","latitude":27.4924,"longitude":77.6737,"temp":28.8,"humidity":49,"rain":0.0,"pressure":987.7,"uv_index":6.65,"wind_gusts":21.6,"aqi":388,"pm10":223.5,"pm2_5":51.1,"mosquito_risk":4,"arthritis_risk":5,"migraine_risk":7,"frizz_risk":1,"updated_at":"2026-03-28T10:26:16.541954+05:30"},{"city":"Vrindavan","state":"Uttar Pradesh","latitude":27.5823,"longitude":77.7027,"temp":28.2,"humidity":53,"rain":0.0,"pressure":988.2,"uv_index":6.8,"wind_gusts":22.7,"aqi":388,"pm10":223.5,"pm2_5":51.1,"mosquito_risk":4,"arthritis_risk":5,"migraine_risk":7,"frizz_risk":1,"updated_at":"2026-03-28T10:26:16.541961+05:30"},{"city":"Ayodhya","state":"Uttar Pradesh","latitude":26.7922,"longitude":82.1998,"temp":28.1,"humidity":55,"rain":0.0,"pressure":995.8,"uv_index":7.3,"wind_gusts":31.0,"aqi":94,"pm10":114.3,"pm2_5":34.6,"mosquito_risk":4,"arthritis_risk":5,"migraine_risk":7,"frizz_risk":1,"updated_at":"2026-03-28T10:26:16.541967+05:30"},{"city":"Ratlam","state":"Madhya Pradesh","latitude":23.3315,"longitude":75.0367,"temp":29.4,"humidity":47,"rain":0.0,"pressure":955.1,"uv_index":8.1,"wind_gusts":37.1,"aqi":32,"pm10":10.1,"pm2_5":8.4,"mosquito_risk":4,"arthritis_risk":5,"migraine_risk":7,"frizz_risk":1,"updated_at":"2026-03-28T10:26:16.541974+05:30"},{"city":"Sagar","state":"Madhya Pradesh","latitude":23.8388,"longitude":78.7378,"temp":31.4,"humidity":33,"rain":0.0,"pressure":950.5,"uv_index":8.15,"wind_gusts":32.8,"aqi":48,"pm10":78.9,"pm2_5":20.8,"mosquito_risk":0,"arthritis_risk":5,"migraine_risk":7,"frizz_risk":0,"updated_at":"2026-03-28T10:26:16.541980+05:30"},{"city":"Satna","state":"Madhya Pradesh","latitude":24.6005,"longitude":80.8322,"temp":29.6,"humidity":44,"rain":0.0,"pressure":971.8,"uv_index":8.1,"wind_gusts":29.2,"aqi":67,"pm10":48.9,"pm2_5":22.5,"mosquito_risk":4,"arthritis_risk":5,"migraine_risk":7,"frizz_risk":1,"updated_at":"2026-03-28T10:26:16.541987+05:30"},{"city":"Akola","state":"Maharashtra","latitude":20.7002,"longitude":77.0082,"temp":32.9,"humidity":34,"rain":0.0,"pressure":976.0,"uv_index":8.5,"wind_gusts":34.2,"aqi":42,"pm10":11.3,"pm2_5":9.7,"mosquito_risk":0,"arthritis_risk":5,"migraine_risk":7,"frizz_risk":0,"updated_at":"2026-03-28T10:26:16.541994+05:30"},{"city":"Amravati","state":"Maharashtra","latitude":20.9374,"longitude":77.7796,"temp":32.9,"humidity":33,"rain":0.0,"pressure":968.2,"uv_index":8.45,"wind_gusts":32.8,"aqi":42,"pm10":10.4,"pm2_5":8.7,"mosquito_risk":0,"arthritis_risk":5,"migraine_risk":7,"frizz_risk":0,"updated_at":"2026-03-28T10:26:16.542001+05:30"},{"city":"Latur","state":"Maharashtra","latitude":18.4088,"longitude":76.5604,"temp":32.3,"humidity":26,"rain":0.0,"pressure":941.5,"uv_index":8.8,"wind_gusts":29.9,"aqi":86,"pm10":13.0,"pm2_5":11.1,"mosquito_risk":0,"arthritis_risk":5,"migraine_risk":7,"frizz_risk":0,"updated_at":"2026-03-28T10:26:16.542008+05:30"},{"city":"Nanded","state":"Maharashtra","latitude":19.1383,"longitude":77.3091,"temp":33.7,"humidity":30,"rain":0.0,"pressure":969.9,"uv_index":8.7,"wind_gusts":25.9,"aqi":79,"pm10":12.3,"pm2_5":12.0,"mosquito_risk":0,"arthritis_risk":5,"migraine_risk":7,"frizz_risk":0,"updated_at":"2026-03-28T10:26:16.542015+05:30"},{"city":"Gulbarga","state":"Karnataka","latitude":17.3297,"longitude":76.8343,"temp":33.0,"humidity":32,"rain":0.0,"pressure":960.2,"uv_index":8.9,"wind_gusts":28.8,"aqi":106,"pm10":39.3,"pm2_5":33.5,"mosquito_risk":0,"arthritis_risk":5,"migraine_risk":7,"frizz_risk":0,"updated_at":"2026-03-28T10:26:16.542022+05:30"},{"city":"Bidar","state":"Karnataka","latitude":17.9104,"longitude":77.5199,"temp":33.5,"humidity":22,"rain":0.0,"pressure":937.3,"uv_index":8.85,"wind_gusts":25.9,"aqi":106,"pm10":27.7,"pm2_5":24.6,"mosquito_risk":0,"arthritis_risk":5,"migraine_risk":7,"frizz_risk":0,"updated_at":"2026-03-28T10:26:16.542029+05:30"},{"city":"Hospet","state":"Karnataka","latitude":15.2689,"longitude":76.3909,"temp":31.7,"humidity":44,"rain":0.0,"pressure":957.2,"uv_index":9.1,"wind_gusts":36.7,"aqi":98,"pm10":57.2,"pm2_5":46.4,"mosquito_risk":0,"arthritis_risk":5,"migraine_risk":7,"frizz_risk":1,"updated_at":"2026-03-28T10:26:16.542035+05:30"},{"city":"Tirupur","state":"Tamil Nadu","latitude":11.1085,"longitude":77.3411,"temp":32.3,"humidity":50,"rain":0.0,"pressure":976.7,"uv_index":9.45,"wind_gusts":43.9,"aqi":95,"pm10":36.7,"pm2_5":32.8,"mosquito_risk":0,"arthritis_risk":5,"migraine_risk":7,"frizz_risk":1,"updated_at":"2026-03-28T10:26:16.542041+05:30"},{"city":"Alappuzha","state":"Kerala","latitude":9.4981,"longitude":76.3388,"temp":28.2,"humidity":82,"rain":0.0,"pressure":1010.2,"uv_index":9.05,"wind_gusts":30.2,"aqi":85,"pm10":34.0,"pm2_5":28.9,"mosquito_risk":7,"arthritis_risk":0,"migraine_risk":4,"frizz_risk":1,"updated_at":"2026-03-28T10:26:16.542048+05:30"},{"city":"Munnar","state":"Kerala","latitude":10.0889,"longitude":77.0595,"temp":26.9,"humidity":58,"rain":0.0,"pressure":860.0,"uv_index":9.7,"wind_gusts":38.9,"aqi":76,"pm10":22.9,"pm2_5":19.7,"mosquito_risk":4,"arthritis_risk":5,"migraine_risk":7,"frizz_risk":1,"updated_at":"2026-03-28T10:26:16.542056+05:30"},{"city":"Silchar","state":"Assam","latitude":24.8333,"longitude":92.7789,"temp":21.6,"humidity":90,"rain":0.4,"pressure":1008.2,"uv_index":7.85,"wind_gusts":30.2,"aqi":153,"pm10":85.4,"pm2_5":65.9,"mosquito_risk":6,"arthritis_risk":0,"migraine_risk":4,"frizz_risk":1,"updated_at":"2026-03-28T10:26:16.542063+05:30"},{"city":"Dibrugarh","state":"Assam","latitude":27.4728,"longitude":94.912,"temp":22.7,"humidity":76,"rain":0.0,"pressure":998.2,"uv_index":5.3,"wind_gusts":25.9,"aqi":125,"pm10":67.5,"pm2_5":46.0,"mosquito_risk":3,"arthritis_risk":5,"migraine_risk":3,"frizz_risk":1,"updated_at":"2026-03-28T10:26:16.542070+05:30"}]