[{"city":"Delhi","state":"Delhi","latitude":28.6139,"longitude":77.209,"temp":28.6,"humidity":69,"rain":0.0,"pressure":978.0,"uv_index":7.75,"wind_gusts":39.2,"aqi":168,"pm10":317.6,"pm2_5":101.7,"no2":53.4,"co":852.0,"o3":37.0,"so2":32.6,"mosquito_risk":7,"arthritis_risk":5,"migraine_risk":7,"frizz_risk":1,"updated_at":"2026-06-06T03:46:38.140259+05:30"},{"city":"Mumbai","state":"Maharashtra","latitude":19.076,"longitude":72.8777,"temp":27.7,"humidity":90,"rain":0.0,"pressure":1004.7,"uv_index":7.75,"wind_gusts":41.8,"aqi":72,"pm10":40.6,"pm2_5":17.5,"no2":5.7,"co":155.0,"o3":46.0,"so2":5.3,"mosquito_risk":7,"arthritis_risk":5,"migraine_risk":4,"frizz_risk":1,"updated_at":"2026-06-06T03:46:38.140298+05:30"},{"city":"Bangalore","state":"Karnataka","latitude":12.9716,"longitude":77.5946,"temp":20.6,"humidity":94,"rain":0.0,"pressure":909.0,"uv_index":8.45,"wind_gusts":38.2,"aqi":18,"pm10":3.2,"pm2_5":2.8,"no2":6.6,"co":165.0,"o3":38.0,"so2":3.7,"mosquito_risk":3,"arthritis_risk":5,"migraine_risk":7,"frizz_risk":1,"updated_at":"2026-06-06T03:46:38.140314+05:30"},{"city":"Hyderabad","state":"Telangana","latitude":17.385,"longitude":78.4867,"temp":27.0,"humidity":70,"rain":0.0,"pressure":949.2,"uv_index":9.15,"wind_gusts":38.9,"aqi":67,"pm10":19.2,"pm2_5":14.3,"no2":9.6,"co":208.0,"o3":71.0,"so2":5.5,"mosquito_risk":7,"arthritis_risk":5,"migraine_risk":7,"frizz_risk":1,"updated_at":"2026-06-06T03:46:38.140323+05:30"},{"city":"Chennai","state":"Tamil Nadu","latitude":13.0827,"longitude":80.2707,"temp":31.0,"humidity":55,"rain":0.0,"pressure":1003.0,"uv_index":8.95,"wind_gusts":42.1,"aqi":52,"pm10":12.9,"pm2_5":11.1,"no2":19.3,"co":260.0,"o3":36.0,"so2":8.9,"mosquito_risk":0,"arthritis_risk":5,"migraine_risk":4,"frizz_risk":1,"updated_at":"2026-06-06T03:46:38.140331+05:30"},{"city":"Kolkata","state":"West Bengal","latitude":22.5726,"longitude":88.3639,"temp":27.4,"humidity":96,"rain":0.0,"pressure":1000.0,"uv_index":8.1,"wind_gusts":28.4,"aqi":137,"pm10":47.3,"pm2_5":43.3,"no2":14.1,"co":592.0,"o3":73.0,"so2":7.2,"mosquito_risk":7,"arthritis_risk":5,"migraine_risk":4,"frizz_risk":1,"updated_at":"2026-06-06T03:46:38.140339+05:30"},{"city":"Pune","state":"Maharashtra","latitude":18.5204,"longitude":73.8567,"temp":25.3,"humidity":85,"rain":0.0,"pressure":944.7,"uv_index":8.35,"wind_gusts":42.5,"aqi":44,"pm10":18.6,"pm2_5":11.4,"no2":11.1,"co":124.0,"o3":32.0,"so2":8.3,"mosquito_risk":7,"arthritis_risk":5,"migraine_risk":7,"frizz_risk":1,"updated_at":"2026-06-06T03:46:38.140346+05:30"},{"city":"Ahmedabad","state":"Gujarat","latitude":23.0225,"longitude":72.5714,"temp":31.2,"humidity":65,"rain":0.0,"pressure":997.3,"uv_index":8.05,"wind_gusts":35.3,"aqi":84,"pm10":50.9,"pm2_5":24.0,"no2":5.1,"co":155.0,"o3":50.0,"so2":4.0,"mosquito_risk":3,"arthritis_risk":5,"migraine_risk":7,"frizz_risk":1,"updated_at":"2026-06-06T03:46:38.140353+05:30"},{"city":"Jaipur","state":"Rajasthan","latitude":26.9124,"longitude":75.7873,"temp":27.5,"humidity":53,"rain":0.0,"pressure":954.9,"uv_index":8.25,"wind_gusts":28.8,"aqi":124,"pm10":125.7,"pm2_5":53.3,"no2":23.4,"co":211.0,"o3":35.0,"so2":9.6,"mosquito_risk":4,"arthritis_risk":5,"migraine_risk":7,"frizz_risk":1,"updated_at":"2026-06-06T03:46:38.140364+05:30"},{"city":"Lucknow","state":"Uttar Pradesh","latitude":26.8467,"longitude":80.9462,"temp":29.6,"humidity":64,"rain":0.0,"pressure":988.1,"uv_index":8.3,"wind_gusts":41.4,"aqi":156,"pm10":228.2,"pm2_5":94.8,"no2":25.5,"co":462.0,"o3":55.0,"so2":14.5,"mosquito_risk":7,"arthritis_risk":5,"migraine_risk":7,"frizz_risk":1,"updated_at":"2026-06-06T03:46:38.140371+05:30"},{"city":"Kanpur","state":"Uttar Pradesh","latitude":26.4499,"longitude":80.3319,"temp":30.1,"humidity":62,"rain":0.0,"pressure":986.5,"uv_index":8.3,"wind_gusts":34.6,"aqi":162,"pm10":279.4,"pm2_5":93.6,"no2":29.7,"co":375.0,"o3":32.0,"so2":9.6,"mosquito_risk":3,"arthritis_risk":5,"migraine_risk":7,"frizz_risk":1,"updated_at":"2026-06-06T03:46:38.140378+05:30"},{"city":"Chandigarh","state":"Chandigarh","latitude":30.7333,"longitude":76.7794,"temp":24.2,"humidity":76,"rain":0.0,"pressure":963.4,"uv_index":7.8,"wind_gusts":28.8,"aqi":140,"pm10":92.2,"pm2_5":61.9,"no2":47.7,"co":797.0,"o3":19.0,"so2":7.0,"mosquito_risk":3,"arthritis_risk":5,"migraine_risk":7,"frizz_risk":1,"updated_at":"2026-06-06T03:46:38.140385+05:30"},{"city":"Srinagar","state":"Jammu and Kashmir","latitude":34.0837,"longitude":74.7973,"temp":12.7,"humidity":99,"rain":0.0,"pressure":839.6,"uv_index":9.0,"wind_gusts":20.2,"aqi":82,"pm10":35.5,"pm2_5":33.5,"no2":16.0,"co":613.0,"o3":34.0,"so2":0.0,"mosquito_risk":3,"arthritis_risk":10,"migraine_risk":7,"frizz_risk":0,"updated_at":"2026-06-06T03:46:38.140393+05:30"},{"city":"Jammu","state":"Jammu and Kashmir","latitude":32.7266,"longitude":74.857,"temp":22.4,"humidity":70,"rain":0.0,"pressure":966.8,"uv_index":8.6,"wind_gusts":28.4,"aqi":104,"pm10":35.5,"pm2_5":29.6,"no2":36.5,"co":378.0,"o3":10.0,"so2":1.9,"mosquito_risk":3,"arthritis_risk":5,"migraine_risk":7,"frizz_risk":1,"updated_at":"2026-06-06T03:46:38.140400+05:30"},{"city":"Amritsar","state":"Punjab","latitude":31.634,"longitude":74.8723,"temp":27.1,"humidity":55,"rain":0.0,"pressure":975.2,"uv_index":8.45,"wind_gusts":20.9,"aqi":145,"pm10":107.3,"pm2_5":92.2,"no2":70.5,"co":697.0,"o3":2.0,"so2":11.8,"mosquito_risk":4,"arthritis_risk":5,"migraine_risk":7,"frizz_risk":1,"updated_at":"2026-06-06T03:46:38.140407+05:30"},{"city":"Ludhiana","state":"Punjab","latitude":30.901,"longitude":75.8573,"temp":27.4,"humidity":65,"rain":0.0,"pressure":973.2,"uv_index":8.05,"wind_gusts":26.6,"aqi":152,"pm10":138.3,"pm2_5":93.1,"no2":50.5,"co":683.0,"o3":37.0,"so2":13.9,"mosquito_risk":7,"arthritis_risk":5,"migraine_risk":7,"frizz_risk":1,"updated_at":"2026-06-06T03:46:38.140413+05:30"},{"city":"Jalandhar","state":"Punjab","latitude":31.326,"longitude":75.5762,"temp":26.7,"humidity":64,"rain":0.0,"pressure":974.2,"uv_index":8.25,"wind_gusts":22.3,"aqi":150,"pm10":103.4,"pm2_5":86.8,"no2":69.2,"co":870.0,"o3":8.0,"so2":8.9,"mosquito_risk":7,"arthritis_risk":5,"migraine_risk":7,"frizz_risk":1,"updated_at":"2026-06-06T03:46:38.140422+05:30"},{"city":"Dehradun","state":"Uttarakhand","latitude":30.6284,"longitude":78.0322,"temp":12.6,"humidity":92,"rain":0.0,"pressure":824.4,"uv_index":8.2,"wind_gusts":36.7,"aqi":70,"pm10":26.0,"pm2_5":20.1,"no2":25.7,"co":244.0,"o3":22.0,"so2":0.1,"mosquito_risk":3,"arthritis_risk":10,"migraine_risk":7,"frizz_risk":0,"updated_at":"2026-06-06T03:46:38.140429+05:30"},{"city":"Shimla","state":"Himachal Pradesh","latitude":31.1048,"longitude":77.1734,"temp":11.3,"humidity":77,"rain":0.0,"pressure":779.2,"uv_index":8.35,"wind_gusts":41.8,"aqi":94,"pm10":59.3,"pm2_5":32.9,"no2":15.7,"co":238.0,"o3":82.0,"so2":2.8,"mosquito_risk":3,"arthritis_risk":5,"migraine_risk":7,"frizz_risk":0,"updated_at":"2026-06-06T03:46:38.140437+05:30"},{"city":"Manali","state":"Himachal Pradesh","latitude":32.2396,"longitude":77.1887,"temp":12.7,"humidity":76,"rain":0.0,"pressure":814.3,"uv_index":9.45,"wind_gusts":37.1,"aqi":48,"pm10":2.2,"pm2_5":2.2,"no2":12.2,"co":183.0,"o3":121.0,"so2":0.0,"mosquito_risk":3,"arthritis_risk":5,"migraine_risk":7,"frizz_risk":0,"updated_at":"2026-06-06T03:46:38.140444+05:30"},{"city":"Gurgaon","state":"Haryana","latitude":28.4595,"longitude":77.0266,"temp":27.1,"humidity":70,"rain":0.0,"pressure":976.2,"uv_index":7.85,"wind_gusts":33.5,"aqi":361,"pm10":938.8,"pm2_5":162.5,"no2":22.3,"co":625.0,"o3":57.0,"so2":10.6,"mosquito_risk":7,"arthritis_risk":5,"migraine_risk":7,"frizz_risk":1,"updated_at":"2026-06-06T03:46:38.140452+05:30"},{"city":"Noida","state":"Uttar Pradesh","latitude":28.5355,"longitude":77.391,"temp":26.7,"humidity":83,"rain":0.0,"pressure":979.3,"uv_index":7.8,"wind_gusts":18.7,"aqi":361,"pm10":938.8,"pm2_5":162.5,"no2":22.3,"co":1169.0,"o3":57.0,"so2":10.6,"mosquito_risk":7,"arthritis_risk":5,"migraine_risk":7,"frizz_risk":1,"updated_at":"2026-06-06T03:46:38.140459+05:30"},{"city":"Ghaziabad","state":"Uttar Pradesh","latitude":28.6692,"longitude":77.4538,"temp":25.6,"humidity":90,"rain":0.0,"pressure":977.5,"uv_index":7.75,"wind_gusts":25.9,"aqi":167,"pm10":211.9,"pm2_5":92.4,"no2":41.3,"co":807.0,"o3":42.0,"so2":16.1,"mosquito_risk":7,"arthritis_risk":5,"migraine_risk":7,"frizz_risk":1,"updated_at":"2026-06-06T03:46:38.140465+05:30"},{"city":"Faridabad","state":"Haryana","latitude":28.4089,"longitude":77.3178,"temp":27.6,"humidity":79,"rain":0.0,"pressure":978.7,"uv_index":7.8,"wind_gusts":34.2,"aqi":361,"pm10":938.8,"pm2_5":162.5,"no2":22.3,"co":879.0,"o3":57.0,"so2":10.6,"mosquito_risk":7,"arthritis_risk":5,"migraine_risk":7,"frizz_risk":1,"updated_at":"2026-06-06T03:46:38.140471+05:30"},{"city":"Meerut","state":"Uttar Pradesh","latitude":28.9845,"longitude":77.7064,"temp":25.7,"humidity":87,"rain":0.0,"pressure":976.2,"uv_index":7.7,"wind_gusts":28.1,"aqi":167,"pm10":211.9,"pm2_5":92.4,"no2":41.3,"co":892.0,"o3":42.0,"so2":16.1,"mosquito_risk":7,"arthritis_risk":5,"migraine_risk":7,"frizz_risk":1,"updated_at":"2026-06-06T03:46:38.140477+05:30"},{"city":"Agra","state":"Uttar Pradesh","latitude":27.1767,"longitude":78.0081,"temp":26.9,"humidity":78,"rain":0.0,"pressure":982.5,"uv_index":8.1,"wind_gusts":26.6,"aqi":156,"pm10":303.6,"pm2_5":89.9,"no2":40.1,"co":460.0,"o3":41.0,"so2":14.5,"mosquito_risk":7,"arthritis_risk":5,"migraine_risk":7,"frizz_risk":1,"updated_at":"2026-06-06T03:46:38.140484+05:30"},{"city":"Varanasi","state":"Uttar Pradesh","latitude":25.3176,"longitude":82.9739,"temp":27.7,"humidity":79,"rain":0.0,"pressure":991.4,"uv_index":7.2,"wind_gusts":58.0,"aqi":131,"pm10":86.1,"pm2_5":51.6,"no2":14.7,"co":747.0,"o3":87.0,"so2":14.0,"mosquito_risk":7,"arthritis_risk":5,"migraine_risk":7,"frizz_risk":1,"updated_at":"2026-06-06T03:46:38.140491+05:30"},{"city":"Prayagraj","state":"Uttar Pradesh","latitude":25.4358,"longitude":81.8463,"temp":30.1,"humidity":63,"rain":0.0,"pressure":990.5,"uv_index":8.35,"wind_gusts":43.6,"aqi":141,"pm10":106.4,"pm2_5":54.1,"no2":17.9,"co":364.0,"o3":72.0,"so2":9.4,"mosquito_risk":3,"arthritis_risk":5,"migraine_risk":7,"frizz_risk":1,"updated_at":"2026-06-06T03:46:38.140498+05:30"},{"city":"Gorakhpur","state":"Uttar Pradesh","latitude":26.7606,"longitude":83.3732,"temp":28.4,"humidity":74,"rain":0.0,"pressure":991.3,"uv_index":8.7,"wind_gusts":25.9,"aqi":158,"pm10":109.4,"pm2_5":87.8,"no2":40.3,"co":835.0,"o3":35.0,"so2":11.6,"mosquito_risk":7,"arthritis_risk":5,"migraine_risk":7,"frizz_risk":1,"updated_at":"2026-06-06T03:46:38.140506+05:30"},{"city":"Bareilly","state":"Uttar Pradesh","latitude":28.367,"longitude":79.4304,"temp":26.5,"humidity":86,"rain":0.0,"pressure":981.5,"uv_index":8.1,"wind_gusts":21.2,"aqi":136,"pm10":97.6,"pm2_5":80.6,"no2":35.3,"co":555.0,"o3":57.0,"so2":18.7,"mosquito_risk":7,"arthritis_risk":5,"migraine_risk":7,"frizz_risk":1,"updated_at":"2026-06-06T03:46:38.140513+05:30"},{"city":"Aligarh","state":"Uttar Pradesh","latitude":27.8974,"longitude":78.088,"temp":26.8,"humidity":86,"rain":0.0,"pressure":980.3,"uv_index":7.95,"wind_gusts":25.2,"aqi":368,"pm10":305.5,"pm2_5":105.2,"no2":32.6,"co":803.0,"o3":54.0,"so2":15.6,"mosquito_risk":7,"arthritis_risk":5,"migraine_risk":7,"frizz_risk":1,"updated_at":"2026-06-06T03:46:38.140520+05:30"},{"city":"Moradabad","state":"Uttar Pradesh","latitude":28.8386,"longitude":78.7733,"temp":26.2,"humidity":85,"rain":0.0,"pressure":978.5,"uv_index":7.9,"wind_gusts":29.9,"aqi":161,"pm10":198.8,"pm2_5":152.3,"no2":90.1,"co":746.0,"o3":15.0,"so2":25.4,"mosquito_risk":7,"arthritis_risk":5,"migraine_risk":7,"frizz_risk":1,"updated_at":"2026-06-06T03:46:38.140526+05:30"},{"city":"Saharanpur","state":"Uttar Pradesh","latitude":29.9637,"longitude":77.546,"temp":25.0,"humidity":85,"rain":0.0,"pressure":970.7,"uv_index":7.5,"wind_gusts":25.2,"aqi":156,"pm10":144.8,"pm2_5":104.8,"no2":56.3,"co":750.0,"o3":13.0,"so2":11.5,"mosquito_risk":7,"arthritis_risk":5,"migraine_risk":7,"frizz_risk":1,"updated_at":"2026-06-06T03:46:38.140533+05:30"},{"city":"Jhansi","state":"Uttar Pradesh","latitude":25.4484,"longitude":78.5685,"temp":28.5,"humidity":61,"rain":0.0,"pressure":973.1,"uv_index":8.45,"wind_gusts":29.9,"aqi":76,"pm10":45.3,"pm2_5":26.8,"no2":19.1,"co":213.0,"o3":29.0,"so2":4.2,"mosquito_risk":7,"arthritis_risk":5,"migraine_risk":7,"frizz_risk":1,"updated_at":"2026-06-06T03:46:41.400312+05:30"},{"city":"Surat","state":"Gujarat","latitude":21.1702,"longitude":72.8311,"temp":29.3,"humidity":85,"rain":0.0,"pressure":1002.3,"uv_index":7.6,"wind_gusts":45.4,"aqi":87,"pm10":48.3,"pm2_5":25.1,"no2":17.3,"co":297.0,"o3":34.0,"so2":29.4,"mosquito_risk":7,"arthritis_risk":5,"migraine_risk":4,"frizz_risk":1,"updated_at":"2026-06-06T03:46:41.400343+05:30"},{"city":"Vadodara","state":"Gujarat","latitude":22.3072,"longitude":73.1812,"temp":30.3,"humidity":71,"rain":0.0,"pressure":999.7,"uv_index":8.0,"wind_gusts":40.0,"aqi":80,"pm10":38.4,"pm2_5":23.2,"no2":11.2,"co":118.0,"o3":36.0,"so2":12.0,"mosquito_risk":3,"arthritis_risk":5,"migraine_risk":7,"frizz_risk":1,"updated_at":"2026-06-06T03:46:41.400353+05:30"},{"city":"Rajkot","state":"Gujarat","latitude":22.3039,"longitude":70.8022,"temp":29.0,"humidity":76,"rain":0.0,"pressure":989.4,"uv_index":7.6,"wind_gusts":43.6,"aqi":78,"pm10":39.9,"pm2_5":18.3,"no2":4.4,"co":103.0,"o3":44.0,"so2":4.0,"mosquito_risk":7,"arthritis_risk":5,"migraine_risk":7,"frizz_risk":1,"updated_at":"2026-06-06T03:46:41.400362+05:30"},{"city":"Thane","state":"Maharashtra","latitude":19.2183,"longitude":72.9781,"temp":27.7,"humidity":90,"rain":0.1,"pressure":1004.1,"uv_index":7.75,"wind_gusts":40.0,"aqi":72,"pm10":40.6,"pm2_5":17.5,"no2":5.7,"co":165.0,"o3":46.0,"so2":5.3,"mosquito_risk":10,"arthritis_risk":5,"migraine_risk":4,"frizz_risk":1,"updated_at":"2026-06-06T03:46:41.400370+05:30"},{"city":"Nagpur","state":"Maharashtra","latitude":21.1458,"longitude":79.0882,"temp":30.9,"humidity":41,"rain":0.0,"pressure":967.9,"uv_index":8.9,"wind_gusts":45.4,"aqi":96,"pm10":52.6,"pm2_5":34.0,"no2":18.4,"co":295.0,"o3":40.0,"so2":7.8,"mosquito_risk":0,"arthritis_risk":5,"migraine_risk":7,"frizz_risk":1,"updated_at":"2026-06-06T03:46:41.400378+05:30"},{"city":"Nashik","state":"Maharashtra","latitude":19.9975,"longitude":73.7898,"temp":25.0,"humidity":89,"rain":0.0,"pressure":942.2,"uv_index":8.05,"wind_gusts":37.8,"aqi":58,"pm10":25.5,"pm2_5":13.8,"no2":7.1,"co":112.0,"o3":40.0,"so2":5.0,"mosquito_risk":7,"arthritis_risk":5,"migraine_risk":7,"frizz_risk":1,"updated_at":"2026-06-06T03:46:41.400384+05:30"},{"city":"Aurangabad","state":"Maharashtra","latitude":19.8762,"longitude":75.3433,"temp":26.9,"humidity":72,"rain":0.0,"pressure":941.0,"uv_index":8.95,"wind_gusts":40.7,"aqi":62,"pm10":25.1,"pm2_5":15.1,"no2":7.9,"co":128.0,"o3":40.0,"so2":6.4,"mosquito_risk":7,"arthritis_risk":5,"migraine_risk":7,"frizz_risk":1,"updated_at":"2026-06-06T03:46:41.400391+05:30"},{"city":"Solapur","state":"Maharashtra","latitude":17.6599,"longitude":75.9064,"temp":24.4,"humidity":92,"rain":0.0,"pressure":953.7,"uv_index":8.95,"wind_gusts":51.5,"aqi":56,"pm10":13.5,"pm2_5":10.9,"no2":13.7,"co":179.0,"o3":32.0,"so2":2.9,"mosquito_risk":3,"arthritis_risk":5,"migraine_risk":7,"frizz_risk":1,"updated_at":"2026-06-06T03:46:41.400399+05:30"},{"city":"Kolhapur","state":"Maharashtra","latitude":16.705,"longitude":74.2433,"temp":24.6,"humidity":85,"rain":0.0,"pressure":945.0,"uv_index":8.75,"wind_gusts":45.7,"aqi":31,"pm10":6.3,"pm2_5":4.8,"no2":4.9,"co":111.0,"o3":42.0,"so2":2.0,"mosquito_risk":3,"arthritis_risk":5,"migraine_risk":7,"frizz_risk":1,"updated_at":"2026-06-06T03:46:41.400406+05:30"},{"city":"Goa","state":"Goa","latitude":15.2993,"longitude":74.124,"temp":26.1,"humidity":95,"rain":0.0,"pressure":995.0,"uv_index":7.7,"wind_gusts":26.6,"aqi":29,"pm10":15.4,"pm2_5":9.5,"no2":4.6,"co":289.0,"o3":49.0,"so2":1.0,"mosquito_risk":7,"arthritis_risk":5,"migraine_risk":7,"frizz_risk":1,"updated_at":"2026-06-06T03:46:41.400414+05:30"},{"city":"Jodhpur","state":"Rajasthan","latitude":26.2389,"longitude":73.0243,"temp":30.6,"humidity":57,"rain":0.0,"pressure":977.3,"uv_index":8.45,"wind_gusts":32.8,"aqi":148,"pm10":105.2,"pm2_5":33.6,"no2":5.8,"co":125.0,"o3":51.0,"so2":2.3,"mosquito_risk":0,"arthritis_risk":5,"migraine_risk":7,"frizz_risk":1,"updated_at":"2026-06-06T03:46:41.400421+05:30"},{"city":"Udaipur","state":"Rajasthan","latitude":24.5854,"longitude":73.7125,"temp":27.0,"humidity":68,"rain":0.0,"pressure":941.8,"uv_index":8.8,"wind_gusts":28.4,"aqi":82,"pm10":68.9,"pm2_5":31.5,"no2":9.5,"co":197.0,"o3":48.0,"so2":4.6,"mosquito_risk":7,"arthritis_risk":5,"migraine_risk":7,"frizz_risk":1,"updated_at":"2026-06-06T03:46:41.400428+05:30"},{"city":"Kota","state":"Rajasthan","latitude":25.2138,"longitude":75.8648,"temp":27.9,"humidity":60,"rain":0.0,"pressure":973.7,"uv_index":8.4,"wind_gusts":29.9,"aqi":100,"pm10":74.0,"pm2_5":37.7,"no2":8.8,"co":210.0,"o3":59.0,"so2":6.3,"mosquito_risk":4,"arthritis_risk":5,"migraine_risk":7,"frizz_risk":1,"updated_at":"2026-06-06T03:46:41.400436+05:30"},{"city":"Bikaner","state":"Rajasthan","latitude":28.0229,"longitude":73.3119,"temp":29.2,"humidity":50,"rain":0.0,"pressure":975.4,"uv_index":8.5,"wind_gusts":27.7,"aqi":141,"pm10":127.6,"pm2_5":42.4,"no2":3.5,"co":160.0,"o3":56.0,"so2":2.4,"mosquito_risk":4,"arthritis_risk":5,"migraine_risk":7,"frizz_risk":1,"updated_at":"2026-06-06T03:46:41.400443+05:30"},{"city":"Ajmer","state":"Rajasthan","latitude":26.4499,"longitude":74.6399,"temp":26.7,"humidity":64,"rain":0.0,"pressure":949.4,"uv_index":8.35,"wind_gusts":33.8,"aqi":99,"pm10":92.2,"pm2_5":41.0,"no2":14.3,"co":174.0,"o3":37.0,"so2":3.6,"mosquito_risk":7,"arthritis_risk":5,"migraine_risk":7,"frizz_risk":1,"updated_at":"2026-06-06T03:46:41.400450+05:30"},{"city":"Gwalior","state":"Madhya Pradesh","latitude":26.2183,"longitude":78.1828,"temp":26.9,"humidity":67,"rain":0.0,"pressure":977.9,"uv_index":8.25,"wind_gusts":47.2,"aqi":86,"pm10":82.7,"pm2_5":34.0,"no2":18.5,"co":171.0,"o3":43.0,"so2":5.9,"mosquito_risk":7,"arthritis_risk":5,"migraine_risk":7,"frizz_risk":1,"updated_at":"2026-06-06T03:46:41.400457+05:30"},{"city":"Indore","state":"Madhya Pradesh","latitude":22.7196,"longitude":75.8577,"temp":26.4,"humidity":77,"rain":0.0,"pressure":944.1,"uv_index":8.65,"wind_gusts":31.7,"aqi":97,"pm10":53.6,"pm2_5":39.2,"no2":16.4,"co":321.0,"o3":41.0,"so2":9.5,"mosquito_risk":7,"arthritis_risk":5,"migraine_risk":7,"frizz_risk":1,"updated_at":"2026-06-06T03:46:41.400463+05:30"},{"city":"Bhopal","state":"Madhya Pradesh","latitude":23.2599,"longitude":77.4126,"temp":26.2,"humidity":67,"rain":0.0,"pressure":949.1,"uv_index":8.65,"wind_gusts":36.0,"aqi":95,"pm10":71.2,"pm2_5":40.6,"no2":17.5,"co":332.0,"o3":41.0,"so2":5.1,"mosquito_risk":7,"arthritis_risk":5,"migraine_risk":7,"frizz_risk":1,"updated_at":"2026-06-06T03:46:41.400470+05:30"},{"city":"Jabalpur","state":"Madhya Pradesh","latitude":23.1815,"longitude":79.9864,"temp":27.6,"humidity":63,"rain":0.0,"pressure":956.4,"uv_index":8.85,"wind_gusts":37.8,"aqi":87,"pm10":70.8,"pm2_5":38.1,"no2":15.6,"co":267.0,"o3":40.0,"so2":3.8,"mosquito_risk":7,"arthritis_risk":5,"migraine_risk":7,"frizz_risk":1,"updated_at":"2026-06-06T03:46:41.400477+05:30"},{"city":"Ujjain","state":"Madhya Pradesh","latitude":23.1765,"longitude":75.7885,"temp":27.3,"humidity":71,"rain":0.0,"pressure":949.7,"uv_index":8.6,"wind_gusts":34.2,"aqi":91,"pm10":46.9,"pm2_5":32.5,"no2":7.0,"co":287.0,"o3":56.0,"so2":8.0,"mosquito_risk":7,"arthritis_risk":5,"migraine_risk":7,"frizz_risk":1,"updated_at":"2026-06-06T03:46:41.400484+05:30"},{"city":"Visakhapatnam","state":"Andhra Pradesh","latitude":17.6868,"longitude":83.2185,"temp":29.9,"humidity":79,"rain":0.0,"pressure":997.1,"uv_index":9.0,"wind_gusts":39.2,"aqi":91,"pm10":19.7,"pm2_5":17.1,"no2":22.8,"co":468.0,"o3":66.0,"so2":33.0,"mosquito_risk":7,"arthritis_risk":5,"migraine_risk":7,"frizz_risk":1,"updated_at":"2026-06-06T03:46:41.400491+05:30"},{"city":"Vijayawada","state":"Andhra Pradesh","latitude":16.5062,"longitude":80.648,"temp":30.6,"humidity":62,"rain":0.0,"pressure":996.6,"uv_index":9.0,"wind_gusts":34.6,"aqi":61,"pm10":12.8,"pm2_5":11.8,"no2":8.8,"co":241.0,"o3":59.0,"so2":3.3,"mosquito_risk":3,"arthritis_risk":5,"migraine_risk":7,"frizz_risk":1,"updated_at":"2026-06-06T03:46:41.400498+05:30"},{"city":"Guntur","state":"Andhra Pradesh","latitude":16.3067,"longitude":80.4365,"temp":29.9,"humidity":63,"rain":0.0,"pressure":997.9,"uv_index":9.0,"wind_gusts":33.8,"aqi":57,"pm10":14.3,"pm2_5":13.0,"no2":9.1,"co":188.0,"o3":62.0,"so2":3.6,"mosquito_risk":7,"arthritis_risk":5,"migraine_risk":7,"frizz_risk":1,"updated_at":"2026-06-06T03:46:41.400505+05:30"},{"city":"Nellore","state":"Andhra Pradesh","latitude":14.4426,"longitude":79.9865,"temp":29.5,"humidity":62,"rain":0.0,"pressure":1001.5,"uv_index":8.6,"wind_gusts":38.9,"aqi":36,"pm10":8.6,"pm2_5":7.0,"no2":9.3,"co":181.0,"o3":41.0,"so2":3.4,"mosquito_risk":7,"arthritis_risk":5,"migraine_risk":4,"frizz_risk":1,"updated_at":"2026-06-06T03:46:41.400513+05:30"},{"city":"Kurnool","state":"Andhra Pradesh","latitude":15.8281,"longitude":78.0373,"temp":27.7,"humidity":72,"rain":0.0,"pressure":973.1,"uv_index":7.9,"wind_gusts":57.2,"aqi":30,"pm10":6.1,"pm2_5":5.8,"no2":14.8,"co":180.0,"o3":27.0,"so2":5.0,"mosquito_risk":7,"arthritis_risk":5,"migraine_risk":7,"frizz_risk":1,"updated_at":"2026-06-06T03:46:41.400521+05:30"},{"city":"Kakinada","state":"Andhra Pradesh","latitude":16.9891,"longitude":82.2475,"temp":29.6,"humidity":76,"rain":0.0,"pressure":1001.2,"uv_index":9.05,"wind_gusts":39.2,"aqi":65,"pm10":12.8,"pm2_5":9.8,"no2":3.7,"co":198.0,"o3":92.0,"so2":3.4,"mosquito_risk":7,"arthritis_risk":5,"migraine_risk":4,"frizz_risk":1,"updated_at":"2026-06-06T03:46:41.400528+05:30"},{"city":"Tirupati","state":"Andhra Pradesh","latitude":13.6288,"longitude":79.4192,"temp":27.5,"humidity":70,"rain":0.0,"pressure":987.6,"uv_index":8.8,"wind_gusts":31.0,"aqi":41,"pm10":14.7,"pm2_5":13.7,"no2":22.3,"co":158.0,"o3":16.0,"so2":3.1,"mosquito_risk":7,"arthritis_risk":5,"migraine_risk":7,"frizz_risk":1,"updated_at":"2026-06-06T03:46:41.400535+05:30"},{"city":"Warangal","state":"Telangana","latitude":17.9689,"longitude":79.5941,"temp":29.2,"humidity":64,"rain":0.0,"pressure":973.3,"uv_index":7.55,"wind_gusts":31.7,"aqi":100,"pm10":38.5,"pm2_5":30.2,"no2":13.5,"co":227.0,"o3":64.0,"so2":5.3,"mosquito_risk":7,"arthritis_risk":5,"migraine_risk":7,"frizz_risk":1,"updated_at":"2026-06-06T03:46:41.400543+05:30"},{"city":"Nizamabad","state":"Telangana","latitude":18.6725,"longitude":78.0941,"temp":28.9,"humidity":60,"rain":0.0,"pressure":960.5,"uv_index":8.95,"wind_gusts":36.0,"aqi":95,"pm10":37.6,"pm2_5":27.8,"no2":11.6,"co":229.0,"o3":66.0,"so2":4.2,"mosquito_risk":4,"arthritis_risk":5,"migraine_risk":7,"frizz_risk":1,"updated_at":"2026-06-06T03:46:41.400550+05:30"},{"city":"Mysore","state":"Karnataka","latitude":12.2958,"longitude":76.6396,"temp":22.0,"humidity":88,"rain":0.0,"pressure":926.2,"uv_index":7.7,"wind_gusts":41.8,"aqi":19,"pm10":2.7,"pm2_5":2.5,"no2":5.5,"co":139.0,"o3":36.0,"so2":1.8,"mosquito_risk":3,"arthritis_risk":5,"migraine_risk":7,"frizz_risk":1,"updated_at":"2026-06-06T03:46:41.400556+05:30"},{"city":"Mangalore","state":"Karnataka","latitude":12.9141,"longitude":74.856,"temp":24.0,"humidity":98,"rain":0.3,"pressure":1004.9,"uv_index":0.9,"wind_gusts":30.2,"aqi":24,"pm10":8.7,"pm2_5":5.0,"no2":2.0,"co":121.0,"o3":52.0,"so2":0.9,"mosquito_risk":6,"arthritis_risk":5,"migraine_risk":0,"frizz_risk":1,"updated_at":"2026-06-06T03:46:41.400564+05:30"},{"city":"Hubli-Dharwad","state":"Karnataka","latitude":15.3647,"longitude":75.124,"temp":23.7,"humidity":89,"rain":0.0,"pressure":938.0,"uv_index":8.0,"wind_gusts":36.7,"aqi":22,"pm10":2.5,"pm2_5":1.6,"no2":2.2,"co":110.0,"o3":50.0,"so2":0.7,"mosquito_risk":3,"arthritis_risk":5,"migraine_risk":7,"frizz_risk":1,"updated_at":"2026-06-06T03:46:41.400571+05:30"},{"city":"Belgaum","state":"Karnataka","latitude":15.8497,"longitude":74.4977,"temp":22.4,"humidity":96,"rain":0.0,"pressure":922.8,"uv_index":8.9,"wind_gusts":37.8,"aqi":23,"pm10":3.8,"pm2_5":2.8,"no2":3.2,"co":108.0,"o3":49.0,"so2":1.8,"mosquito_risk":3,"arthritis_risk":5,"migraine_risk":7,"frizz_risk":1,"updated_at":"2026-06-06T03:46:44.646703+05:30"},{"city":"Coimbatore","state":"Tamil Nadu","latitude":11.0168,"longitude":76.9558,"temp":23.7,"humidity":90,"rain":0.0,"pressure":959.7,"uv_index":8.85,"wind_gusts":59.0,"aqi":16,"pm10":2.3,"pm2_5":1.9,"no2":4.3,"co":149.0,"o3":36.0,"so2":2.0,"mosquito_risk":3,"arthritis_risk":5,"migraine_risk":7,"frizz_risk":1,"updated_at":"2026-06-06T03:46:44.646732+05:30"},{"city":"Madurai","state":"Tamil Nadu","latitude":9.9252,"longitude":78.1198,"temp":28.7,"humidity":59,"rain":0.0,"pressure":990.9,"uv_index":8.4,"wind_gusts":68.0,"aqi":18,"pm10":4.3,"pm2_5":4.1,"no2":9.4,"co":165.0,"o3":24.0,"so2":3.7,"mosquito_risk":4,"arthritis_risk":5,"migraine_risk":7,"frizz_risk":1,"updated_at":"2026-06-06T03:46:44.646744+05:30"},{"city":"Trichy","state":"Tamil Nadu","latitude":10.7905,"longitude":78.7047,"temp":29.4,"humidity":58,"rain":0.0,"pressure":997.2,"uv_index":8.7,"wind_gusts":47.5,"aqi":17,"pm10":4.8,"pm2_5":4.2,"no2":9.1,"co":115.0,"o3":26.0,"so2":3.2,"mosquito_risk":4,"arthritis_risk":5,"migraine_risk":7,"frizz_risk":1,"updated_at":"2026-06-06T03:46:44.646753+05:30"},{"city":"Salem","state":"Tamil Nadu","latitude":11.6643,"longitude":78.146,"temp":26.4,"humidity":74,"rain":0.0,"pressure":975.3,"uv_index":8.85,"wind_gusts":42.1,"aqi":30,"pm10":9.2,"pm2_5":8.4,"no2":16.2,"co":191.0,"o3":21.0,"so2":6.4,"mosquito_risk":7,"arthritis_risk":5,"migraine_risk":7,"frizz_risk":1,"updated_at":"2026-06-06T03:46:44.646762+05:30"},{"city":"Tirunelveli","state":"Tamil Nadu","latitude":8.7139,"longitude":77.7567,"temp":27.5,"humidity":74,"rain":0.0,"pressure":1002.1,"uv_index":8.25,"wind_gusts":49.0,"aqi":14,"pm10":5.4,"pm2_5":4.2,"no2":7.1,"co":115.0,"o3":25.0,"so2":1.8,"mosquito_risk":7,"arthritis_risk":5,"migraine_risk":4,"frizz_risk":1,"updated_at":"2026-06-06T03:46:44.646770+05:30"},{"city":"Vellore","state":"Tamil Nadu","latitude":12.9165,"longitude":79.1325,"temp":27.8,"humidity":63,"rain":0.0,"pressure":981.1,"uv_index":8.95,"wind_gusts":50.0,"aqi":41,"pm10":9.6,"pm2_5":8.8,"no2":13.6,"co":149.0,"o3":27.0,"so2":4.2,"mosquito_risk":7,"arthritis_risk":5,"migraine_risk":7,"frizz_risk":1,"updated_at":"2026-06-06T03:46:44.646778+05:30"},{"city":"Erode","state":"Tamil Nadu","latitude":11.341,"longitude":77.7172,"temp":26.2,"humidity":78,"rain":0.0,"pressure":987.1,"uv_index":8.8,"wind_gusts":55.4,"aqi":17,"pm10":6.5,"pm2_5":5.6,"no2":10.1,"co":138.0,"o3":28.0,"so2":3.5,"mosquito_risk":7,"arthritis_risk":5,"migraine_risk":7,"frizz_risk":1,"updated_at":"2026-06-06T03:46:44.646785+05:30"},{"city":"Kochi","state":"Kerala","latitude":9.9312,"longitude":76.2673,"temp":25.2,"humidity":95,"rain":0.0,"pressure":1008.1,"uv_index":7.95,"wind_gusts":36.7,"aqi":42,"pm10":14.1,"pm2_5":8.3,"no2":9.2,"co":89.0,"o3":29.0,"so2":2.4,"mosquito_risk":7,"arthritis_risk":0,"migraine_risk":4,"frizz_risk":1,"updated_at":"2026-06-06T03:46:44.646793+05:30"},{"city":"Thiruvananthapuram","state":"Kerala","latitude":8.5241,"longitude":76.9366,"temp":24.3,"humidity":97,"rain":0.1,"pressure":1008.1,"uv_index":7.5,"wind_gusts":46.1,"aqi":25,"pm10":15.9,"pm2_5":6.7,"no2":1.3,"co":92.0,"o3":44.0,"so2":0.4,"mosquito_risk":6,"arthritis_risk":0,"migraine_risk":4,"frizz_risk":1,"updated_at":"2026-06-06T03:46:44.646800+05:30"},{"city":"Kozhikode","state":"Kerala","latitude":11.2588,"longitude":75.7804,"temp":23.4,"humidity":100,"rain":0.2,"pressure":1007.3,"uv_index":0.9,"wind_gusts":29.9,"aqi":25,"pm10":16.1,"pm2_5":6.5,"no2":0.7,"co":114.0,"o3":59.0,"so2":0.4,"mosquito_risk":6,"arthritis_risk":5,"migraine_risk":0,"frizz_risk":1,"updated_at":"2026-06-06T03:46:44.646808+05:30"},{"city":"Thrissur","state":"Kerala","latitude":10.5276,"longitude":76.2144,"temp":23.9,"humidity":99,"rain":0.4,"pressure":1006.4,"uv_index":7.85,"wind_gusts":31.7,"aqi":37,"pm10":13.2,"pm2_5":8.2,"no2":8.4,"co":171.0,"o3":32.0,"so2":2.3,"mosquito_risk":6,"arthritis_risk":5,"migraine_risk":4,"frizz_risk":1,"updated_at":"2026-06-06T03:46:44.646817+05:30"},{"city":"Kannur","state":"Kerala","latitude":11.8745,"longitude":75.3704,"temp":24.4,"humidity":97,"rain":0.4,"pressure":1006.2,"uv_index":0.55,"wind_gusts":22.7,"aqi":26,"pm10":12.0,"pm2_5":6.1,"no2":2.6,"co":116.0,"o3":47.0,"so2":0.7,"mosquito_risk":6,"arthritis_risk":5,"migraine_risk":0,"frizz_risk":1,"updated_at":"2026-06-06T03:46:44.646823+05:30"},{"city":"Patna","state":"Bihar","latitude":25.5941,"longitude":85.1376,"temp":28.6,"humidity":79,"rain":0.0,"pressure":994.6,"uv_index":8.9,"wind_gusts":23.8,"aqi":171,"pm10":82.4,"pm2_5":78.2,"no2":12.6,"co":411.0,"o3":108.0,"so2":17.4,"mosquito_risk":7,"arthritis_risk":5,"migraine_risk":7,"frizz_risk":1,"updated_at":"2026-06-06T03:46:44.646831+05:30"},{"city":"Gaya","state":"Bihar","latitude":24.7914,"longitude":85.0002,"temp":28.1,"humidity":74,"rain":0.0,"pressure":987.6,"uv_index":8.7,"wind_gusts":31.0,"aqi":159,"pm10":97.3,"pm2_5":85.2,"no2":34.9,"co":410.0,"o3":34.0,"so2":11.4,"mosquito_risk":7,"arthritis_risk":5,"migraine_risk":7,"frizz_risk":1,"updated_at":"2026-06-06T03:46:44.646837+05:30"},{"city":"Muzaffarpur","state":"Bihar","latitude":26.1209,"longitude":85.3647,"temp":27.2,"humidity":81,"rain":0.0,"pressure":995.0,"uv_index":8.9,"wind_gusts":28.4,"aqi":169,"pm10":78.0,"pm2_5":74.0,"no2":12.8,"co":487.0,"o3":102.0,"so2":14.2,"mosquito_risk":7,"arthritis_risk":5,"migraine_risk":7,"frizz_risk":1,"updated_at":"2026-06-06T03:46:44.646844+05:30"},{"city":"Bhagalpur","state":"Bihar","latitude":25.2425,"longitude":87.0117,"temp":26.8,"humidity":90,"rain":0.0,"pressure":996.0,"uv_index":8.9,"wind_gusts":33.1,"aqi":164,"pm10":69.8,"pm2_5":67.3,"no2":15.0,"co":425.0,"o3":77.0,"so2":13.1,"mosquito_risk":7,"arthritis_risk":5,"migraine_risk":7,"frizz_risk":1,"updated_at":"2026-06-06T03:46:44.646851+05:30"},{"city":"Ranchi","state":"Jharkhand","latitude":23.3441,"longitude":85.3096,"temp":25.1,"humidity":78,"rain":0.0,"pressure":932.3,"uv_index":8.8,"wind_gusts":25.9,"aqi":116,"pm10":65.7,"pm2_5":49.7,"no2":16.4,"co":313.0,"o3":75.0,"so2":5.7,"mosquito_risk":7,"arthritis_risk":5,"migraine_risk":7,"frizz_risk":1,"updated_at":"2026-06-06T03:46:44.646858+05:30"},{"city":"Jamshedpur","state":"Jharkhand","latitude":22.8046,"longitude":86.2029,"temp":28.1,"humidity":90,"rain":0.0,"pressure":984.9,"uv_index":7.55,"wind_gusts":36.4,"aqi":153,"pm10":78.0,"pm2_5":71.5,"no2":28.5,"co":481.0,"o3":57.0,"so2":23.3,"mosquito_risk":7,"arthritis_risk":5,"migraine_risk":7,"frizz_risk":1,"updated_at":"2026-06-06T03:46:44.646865+05:30"},{"city":"Dhanbad","state":"Jharkhand","latitude":23.7957,"longitude":86.4304,"temp":28.0,"humidity":88,"rain":0.0,"pressure":974.4,"uv_index":7.2,"wind_gusts":33.8,"aqi":168,"pm10":110.8,"pm2_5":104.8,"no2":66.5,"co":1129.0,"o3":33.0,"so2":192.0,"mosquito_risk":7,"arthritis_risk":5,"migraine_risk":7,"frizz_risk":1,"updated_at":"2026-06-06T03:46:44.646872+05:30"},{"city":"Bokaro","state":"Jharkhand","latitude":23.6693,"longitude":86.1511,"temp":27.3,"humidity":95,"rain":0.0,"pressure":978.0,"uv_index":8.55,"wind_gusts":34.6,"aqi":161,"pm10":114.6,"pm2_5":102.2,"no2":57.9,"co":757.0,"o3":26.0,"so2":148.3,"mosquito_risk":7,"arthritis_risk":5,"migraine_risk":7,"frizz_risk":1,"updated_at":"2026-06-06T03:46:44.646880+05:30"},{"city":"Bhubaneswar","state":"Odisha","latitude":20.2961,"longitude":85.8245,"temp":29.2,"humidity":91,"rain":0.0,"pressure":995.7,"uv_index":9.1,"wind_gusts":29.9,"aqi":109,"pm10":38.0,"pm2_5":35.7,"no2":10.1,"co":333.0,"o3":102.0,"so2":8.5,"mosquito_risk":7,"arthritis_risk":5,"migraine_risk":7,"frizz_risk":1,"updated_at":"2026-06-06T03:46:44.646887+05:30"},{"city":"Cuttack","state":"Odisha","latitude":20.4625,"longitude":85.8828,"temp":29.4,"humidity":88,"rain":0.0,"pressure":997.7,"uv_index":9.15,"wind_gusts":29.2,"aqi":109,"pm10":38.0,"pm2_5":35.7,"no2":10.1,"co":394.0,"o3":102.0,"so2":8.5,"mosquito_risk":7,"arthritis_risk":5,"migraine_risk":7,"frizz_risk":1,"updated_at":"2026-06-06T03:46:44.646894+05:30"},{"city":"Rourkela","state":"Odisha","latitude":22.2604,"longitude":84.8536,"temp":28.9,"humidity":70,"rain":0.0,"pressure":979.4,"uv_index":8.8,"wind_gusts":42.5,"aqi":150,"pm10":105.5,"pm2_5":86.1,"no2":32.5,"co":491.0,"o3":51.0,"so2":19.6,"mosquito_risk":7,"arthritis_risk":5,"migraine_risk":7,"frizz_risk":1,"updated_at":"2026-06-06T03:46:44.646900+05:30"},{"city":"Raipur","state":"Chhattisgarh","latitude":21.2514,"longitude":81.6296,"temp":31.7,"humidity":43,"rain":0.0,"pressure":968.9,"uv_index":9.0,"wind_gusts":38.5,"aqi":114,"pm10":61.2,"pm2_5":39.2,"no2":37.1,"co":357.0,"o3":40.0,"so2":51.2,"mosquito_risk":0,"arthritis_risk":5,"migraine_risk":7,"frizz_risk":1,"updated_at":"2026-06-06T03:46:44.646907+05:30"},{"city":"Bhilai","state":"Chhattisgarh","latitude":21.1938,"longitude":81.3509,"temp":30.6,"humidity":47,"rain":0.0,"pressure":969.3,"uv_index":9.0,"wind_gusts":43.6,"aqi":110,"pm10":61.2,"pm2_5":37.4,"no2":29.2,"co":550.0,"o3":43.0,"so2":41.8,"mosquito_risk":0,"arthritis_risk":5,"migraine_risk":7,"frizz_risk":1,"updated_at":"2026-06-06T03:46:44.646913+05:30"},{"city":"Guwahati","state":"Assam","latitude":26.1158,"longitude":91.7086,"temp":24.1,"humidity":99,"rain":0.2,"pressure":998.2,"uv_index":8.8,"wind_gusts":24.5,"aqi":93,"pm10":28.6,"pm2_5":26.0,"no2":7.3,"co":496.0,"o3":67.0,"so2":1.9,"mosquito_risk":6,"arthritis_risk":5,"migraine_risk":7,"frizz_risk":1,"updated_at":"2026-06-06T03:46:44.646920+05:30"},{"city":"Agartala","state":"Tripura","latitude":23.8315,"longitude":91.2868,"temp":24.9,"humidity":98,"rain":0.0,"pressure":1001.4,"uv_index":8.85,"wind_gusts":19.1,"aqi":108,"pm10":31.8,"pm2_5":29.2,"no2":11.8,"co":562.0,"o3":69.0,"so2":2.6,"mosquito_risk":3,"arthritis_risk":5,"migraine_risk":4,"frizz_risk":1,"updated_at":"2026-06-06T03:46:44.646927+05:30"},{"city":"Shillong","state":"Meghalaya","latitude":25.5788,"longitude":91.8933,"temp":16.4,"humidity":100,"rain":0.0,"pressure":852.7,"uv_index":8.85,"wind_gusts":21.6,"aqi":71,"pm10":23.2,"pm2_5":21.1,"no2":5.7,"co":251.0,"o3":69.0,"so2":2.3,"mosquito_risk":3,"arthritis_risk":10,"migraine_risk":7,"frizz_risk":1,"updated_at":"2026-06-06T03:46:44.646934+05:30"},{"city":"Imphal","state":"Manipur","latitude":24.817,"longitude":93.9368,"temp":21.6,"humidity":95,"rain":0.0,"pressure":919.2,"uv_index":9.25,"wind_gusts":30.6,"aqi":132,"pm10":70.1,"pm2_5":67.8,"no2":24.2,"co":794.0,"o3":10.0,"so2":1.7,"mosquito_risk":3,"arthritis_risk":5,"migraine_risk":7,"frizz_risk":1,"updated_at":"2026-06-06T03:46:44.646941+05:30"},{"city":"Aizawl","state":"Mizoram","latitude":23.7271,"longitude":92.7176,"temp":19.2,"humidity":100,"rain":0.0,"pressure":888.1,"uv_index":8.35,"wind_gusts":26.6,"aqi":101,"pm10":9.8,"pm2_5":8.5,"no2":4.2,"co":322.0,"o3":62.0,"so2":1.4,"mosquito_risk":3,"arthritis_risk":10,"migraine_risk":7,"frizz_risk":1,"updated_at":"2026-06-06T03:46:44.646948+05:30"},{"city":"Kohima","state":"Nagaland","latitude":25.6701,"longitude":94.1077,"temp":17.5,"humidity":95,"rain":0.0,"pressure":851.4,"uv_index":9.05,"wind_gusts":25.2,"aqi":69,"pm10":22.5,"pm2_5":21.2,"no2":11.1,"co":266.0,"o3":24.0,"so2":0.5,"mosquito_risk":3,"arthritis_risk":10,"migraine_risk":7,"frizz_risk":1,"updated_at":"2026-06-06T03:46:44.646955+05:30"},{"city":"Gangtok","state":"Sikkim","latitude":27.3314,"longitude":88.6138,"temp":17.2,"humidity":90,"rain":0.0,"pressure":834.2,"uv_index":9.2,"wind_gusts":36.7,"aqi":57,"pm10":8.1,"pm2_5":7.6,"no2":10.3,"co":368.0,"o3":77.0,"so2":2.0,"mosquito_risk":3,"arthritis_risk":10,"migraine_risk":7,"frizz_risk":0,"updated_at":"2026-06-06T03:46:44.646962+05:30"},{"city":"Siliguri","state":"West Bengal","latitude":26.7271,"longitude":88.3953,"temp":23.4,"humidity":98,"rain":0.0,"pressure":989.3,"uv_index":8.8,"wind_gusts":22.0,"aqi":129,"pm10":38.5,"pm2_5":33.4,"no2":12.9,"co":364.0,"o3":105.0,"so2":4.3,"mosquito_risk":3,"arthritis_risk":5,"migraine_risk":7,"frizz_risk":1,"updated_at":"2026-06-06T03:46:47.905242+05:30"},{"city":"Durgapur","state":"West Bengal","latitude":23.5204,"longitude":87.3119,"temp":27.5,"humidity":93,"rain":0.0,"pressure":989.5,"uv_index":9.05,"wind_gusts":34.9,"aqi":166,"pm10":71.7,"pm2_5":69.2,"no2":30.2,"co":793.0,"o3":53.0,"so2":40.0,"mosquito_risk":7,"arthritis_risk":5,"migraine_risk":7,"frizz_risk":1,"updated_at":"2026-06-06T03:46:47.905279+05:30"},{"city":"Asansol","state":"West Bengal","latitude":23.6739,"longitude":86.9524,"temp":27.4,"humidity":95,"rain":0.0,"pressure":988.0,"uv_index":8.9,"wind_gusts":35.3,"aqi":164,"pm10":59.3,"pm2_5":56.9,"no2":27.0,"co":764.0,"o3":69.0,"so2":38.0,"mosquito_risk":7,"arthritis_risk":5,"migraine_risk":7,"frizz_risk":1,"updated_at":"2026-06-06T03:46:47.905292+05:30"},{"city":"Pondicherry","state":"Puducherry","latitude":11.9139,"longitude":79.8145,"temp":29.2,"humidity":62,"rain":0.0,"pressure":1004.9,"uv_index":8.85,"wind_gusts":44.3,"aqi":51,"pm10":16.3,"pm2_5":14.6,"no2":19.3,"co":314.0,"o3":36.0,"so2":6.9,"mosquito_risk":7,"arthritis_risk":5,"migraine_risk":4,"frizz_risk":1,"updated_at":"2026-06-06T03:46:47.905303+05:30"},{"city":"Port Blair","state":"Andaman and Nicobar Islands","latitude":11.6234,"longitude":92.7265,"temp":26.1,"humidity":95,"rain":0.0,"pressure":1004.1,"uv_index":5.65,"wind_gusts":47.5,"aqi":27,"pm10":5.1,"pm2_5":3.2,"no2":0.2,"co":95.0,"o3":58.0,"so2":0.2,"mosquito_risk":7,"arthritis_risk":5,"migraine_risk":0,"frizz_risk":1,"updated_at":"2026-06-06T03:46:47.905314+05:30"},{"city":"Haridwar","state":"Uttarakhand","latitude":29.9457,"longitude":78.1642,"temp":23.4,"humidity":81,"rain":0.0,"pressure":968.8,"uv_index":7.6,"wind_gusts":23.4,"aqi":145,"pm10":113.9,"pm2_5":75.9,"no2":43.9,"co":325.0,"o3":32.0,"so2":8.6,"mosquito_risk":3,"arthritis_risk":5,"migraine_risk":7,"frizz_risk":1,"updated_at":"2026-06-06T03:46:47.905324+05:30"},{"city":"Rishikesh","state":"Uttarakhand","latitude":30.0869,"longitude":78.2676,"temp":21.1,"humidity":85,"rain":0.0,"pressure":961.6,"uv_index":7.7,"wind_gusts":28.1,"aqi":107,"pm10":66.6,"pm2_5":37.0,"no2":15.4,"co":351.0,"o3":84.0,"so2":3.8,"mosquito_risk":3,"arthritis_risk":5,"migraine_risk":7,"frizz_risk":1,"updated_at":"2026-06-06T03:46:47.905334+05:30"},{"city":"Nainital","state":"Uttarakhand","latitude":29.3919,"longitude":79.4542,"temp":12.8,"humidity":89,"rain":0.0,"pressure":800.8,"uv_index":8.05,"wind_gusts":25.6,"aqi":89,"pm10":43.7,"pm2_5":34.7,"no2":28.7,"co":288.0,"o3":37.0,"so2":1.9,"mosquito_risk":3,"arthritis_risk":10,"migraine_risk":7,"frizz_risk":0,"updated_at":"2026-06-06T03:46:47.905343+05:30"},{"city":"Mussoorie","state":"Uttarakhand","latitude":30.4599,"longitude":78.0664,"temp":14.2,"humidity":68,"rain":0.0,"pressure":798.5,"uv_index":8.1,"wind_gusts":42.8,"aqi":97,"pm10":58.2,"pm2_5":40.6,"no2":45.3,"co":228.0,"o3":21.0,"so2":5.4,"mosquito_risk":3,"arthritis_risk":5,"migraine_risk":7,"frizz_risk":0,"updated_at":"2026-06-06T03:46:47.905353+05:30"},{"city":"Dharamshala","state":"Himachal Pradesh","latitude":32.219,"longitude":76.3234,"temp":20.6,"humidity":57,"rain":0.0,"pressure":865.5,"uv_index":8.5,"wind_gusts":38.5,"aqi":51,"pm10":8.9,"pm2_5":7.7,"no2":9.1,"co":228.0,"o3":62.0,"so2":0.0,"mosquito_risk":0,"arthritis_risk":5,"migraine_risk":7,"frizz_risk":0,"updated_at":"2026-06-06T03:46:47.905362+05:30"},{"city":"Dalhousie","state":"Himachal Pradesh","latitude":32.5387,"longitude":75.971,"temp":10.4,"humidity":89,"rain":0.0,"pressure":798.4,"uv_index":8.75,"wind_gusts":32.4,"aqi":73,"pm10":28.5,"pm2_5":25.6,"no2":32.6,"co":251.0,"o3":12.0,"so2":0.3,"mosquito_risk":3,"arthritis_risk":10,"migraine_risk":7,"frizz_risk":0,"updated_at":"2026-06-06T03:46:47.905372+05:30"},{"city":"Patiala","state":"Punjab","latitude":30.3398,"longitude":76.3869,"temp":27.2,"humidity":67,"rain":0.0,"pressure":972.8,"uv_index":7.7,"wind_gusts":30.6,"aqi":156,"pm10":246.8,"pm2_5":87.3,"no2":20.3,"co":749.0,"o3":48.0,"so2":8.5,"mosquito_risk":7,"arthritis_risk":5,"migraine_risk":7,"frizz_risk":1,"updated_at":"2026-06-06T03:46:47.905381+05:30"},{"city":"Bhatinda","state":"Punjab","latitude":30.211,"longitude":74.9455,"temp":30.3,"humidity":50,"rain":0.0,"pressure":978.0,"uv_index":8.35,"wind_gusts":21.6,"aqi":160,"pm10":145.3,"pm2_5":84.3,"no2":66.6,"co":416.0,"o3":18.0,"so2":10.7,"mosquito_risk":0,"arthritis_risk":5,"migraine_risk":7,"frizz_risk":1,"updated_at":"2026-06-06T03:46:47.905389+05:30"},{"city":"Rohtak","state":"Haryana","latitude":28.8955,"longitude":76.6066,"temp":27.2,"humidity":72,"rain":0.0,"pressure":976.4,"uv_index":7.8,"wind_gusts":26.6,"aqi":173,"pm10":529.0,"pm2_5":101.5,"no2":21.4,"co":674.0,"o3":53.0,"so2":6.3,"mosquito_risk":7,"arthritis_risk":5,"migraine_risk":7,"frizz_risk":1,"updated_at":"2026-06-06T03:46:47.905397+05:30"},{"city":"Panipat","state":"Haryana","latitude":29.3909,"longitude":76.9635,"temp":26.3,"humidity":85,"rain":0.0,"pressure":975.0,"uv_index":7.65,"wind_gusts":35.6,"aqi":434,"pm10":396.7,"pm2_5":105.9,"no2":47.8,"co":654.0,"o3":20.0,"so2":9.9,"mosquito_risk":7,"arthritis_risk":5,"migraine_risk":7,"frizz_risk":1,"updated_at":"2026-06-06T03:46:47.905404+05:30"},{"city":"Mathura","state":"Uttar Pradesh","latitude":27.4924,"longitude":77.6737,"temp":26.6,"humidity":80,"rain":0.0,"pressure":981.7,"uv_index":8.05,"wind_gusts":24.5,"aqi":193,"pm10":341.8,"pm2_5":85.4,"no2":29.4,"co":596.0,"o3":48.0,"so2":7.8,"mosquito_risk":7,"arthritis_risk":5,"migraine_risk":7,"frizz_risk":1,"updated_at":"2026-06-06T03:46:47.905412+05:30"},{"city":"Vrindavan","state":"Uttar Pradesh","latitude":27.5823,"longitude":77.7027,"temp":26.7,"humidity":79,"rain":0.0,"pressure":982.2,"uv_index":8.05,"wind_gusts":24.8,"aqi":193,"pm10":341.8,"pm2_5":85.4,"no2":29.4,"co":818.0,"o3":48.0,"so2":7.8,"mosquito_risk":7,"arthritis_risk":5,"migraine_risk":7,"frizz_risk":1,"updated_at":"2026-06-06T03:46:47.905419+05:30"},{"city":"Ayodhya","state":"Uttar Pradesh","latitude":26.7922,"longitude":82.1998,"temp":27.8,"humidity":83,"rain":0.0,"pressure":989.6,"uv_index":8.35,"wind_gusts":30.2,"aqi":155,"pm10":101.0,"pm2_5":62.2,"no2":20.5,"co":510.0,"o3":74.0,"so2":12.7,"mosquito_risk":7,"arthritis_risk":5,"migraine_risk":7,"frizz_risk":1,"updated_at":"2026-06-06T03:46:47.905426+05:30"},{"city":"Ratlam","state":"Madhya Pradesh","latitude":23.3315,"longitude":75.0367,"temp":26.8,"humidity":78,"rain":0.0,"pressure":950.7,"uv_index":8.55,"wind_gusts":37.4,"aqi":86,"pm10":39.1,"pm2_5":26.7,"no2":6.4,"co":203.0,"o3":55.0,"so2":10.4,"mosquito_risk":7,"arthritis_risk":5,"migraine_risk":7,"frizz_risk":1,"updated_at":"2026-06-06T03:46:47.905434+05:30"},{"city":"Sagar","state":"Madhya Pradesh","latitude":23.8388,"longitude":78.7378,"temp":26.4,"humidity":65,"rain":0.0,"pressure":945.7,"uv_index":8.7,"wind_gusts":40.7,"aqi":82,"pm10":39.6,"pm2_5":24.2,"no2":13.5,"co":198.0,"o3":45.0,"so2":2.8,"mosquito_risk":7,"arthritis_risk":5,"migraine_risk":7,"frizz_risk":1,"updated_at":"2026-06-06T03:46:47.905441+05:30"},{"city":"Satna","state":"Madhya Pradesh","latitude":24.6005,"longitude":80.8322,"temp":28.7,"humidity":59,"rain":0.0,"pressure":966.2,"uv_index":8.6,"wind_gusts":31.7,"aqi":105,"pm10":53.1,"pm2_5":31.5,"no2":13.2,"co":155.0,"o3":49.0,"so2":3.3,"mosquito_risk":4,"arthritis_risk":5,"migraine_risk":7,"frizz_risk":1,"updated_at":"2026-06-06T03:46:47.905448+05:30"},{"city":"Akola","state":"Maharashtra","latitude":20.7002,"longitude":77.0082,"temp":24.1,"humidity":85,"rain":0.3,"pressure":971.9,"uv_index":8.8,"wind_gusts":54.7,"aqi":82,"pm10":37.0,"pm2_5":25.0,"no2":10.2,"co":137.0,"o3":61.0,"so2":9.3,"mosquito_risk":6,"arthritis_risk":5,"migraine_risk":7,"frizz_risk":1,"updated_at":"2026-06-06T03:46:47.905457+05:30"},{"city":"Amravati","state":"Maharashtra","latitude":20.9374,"longitude":77.7796,"temp":29.4,"humidity":50,"rain":0.0,"pressure":962.9,"uv_index":8.85,"wind_gusts":47.2,"aqi":89,"pm10":38.9,"pm2_5":26.5,"no2":14.3,"co":265.0,"o3":48.0,"so2":6.0,"mosquito_risk":4,"arthritis_risk":5,"migraine_risk":7,"frizz_risk":1,"updated_at":"2026-06-06T03:46:47.905469+05:30"},{"city":"Latur","state":"Maharashtra","latitude":18.4088,"longitude":76.5604,"temp":23.1,"humidity":94,"rain":0.3,"pressure":937.1,"uv_index":7.0,"wind_gusts":45.4,"aqi":65,"pm10":22.1,"pm2_5":16.3,"no2":10.1,"co":207.0,"o3":58.0,"so2":5.5,"mosquito_risk":6,"arthritis_risk":5,"migraine_risk":7,"frizz_risk":1,"updated_at":"2026-06-06T03:46:47.905477+05:30"},{"city":"Nanded","state":"Maharashtra","latitude":19.1383,"longitude":77.3091,"temp":30.0,"humidity":49,"rain":0.0,"pressure":964.4,"uv_index":8.9,"wind_gusts":34.6,"aqi":87,"pm10":38.6,"pm2_5":25.6,"no2":10.5,"co":171.0,"o3":73.0,"so2":8.6,"mosquito_risk":4,"arthritis_risk":5,"migraine_risk":7,"frizz_risk":1,"updated_at":"2026-06-06T03:46:47.905484+05:30"},{"city":"Gulbarga","state":"Karnataka","latitude":17.3297,"longitude":76.8343,"temp":26.2,"humidity":77,"rain":0.0,"pressure":955.2,"uv_index":9.0,"wind_gusts":60.1,"aqi":57,"pm10":12.1,"pm2_5":9.9,"no2":12.7,"co":197.0,"o3":43.0,"so2":3.5,"mosquito_risk":7,"arthritis_risk":5,"migraine_risk":7,"frizz_risk":1,"updated_at":"2026-06-06T03:46:47.905491+05:30"},{"city":"Bidar","state":"Karnataka","latitude":17.9104,"longitude":77.5199,"temp":25.8,"humidity":71,"rain":0.0,"pressure":931.9,"uv_index":8.7,"wind_gusts":44.6,"aqi":79,"pm10":26.7,"pm2_5":19.8,"no2":11.5,"co":182.0,"o3":68.0,"so2":3.4,"mosquito_risk":7,"arthritis_risk":5,"migraine_risk":7,"frizz_risk":1,"updated_at":"2026-06-06T03:46:47.905498+05:30"},{"city":"Hospet","state":"Karnataka","latitude":15.2689,"longitude":76.3909,"temp":24.7,"humidity":84,"rain":0.0,"pressure":953.0,"uv_index":6.9,"wind_gusts":46.1,"aqi":19,"pm10":4.4,"pm2_5":3.6,"no2":6.8,"co":139.0,"o3":41.0,"so2":1.4,"mosquito_risk":3,"arthritis_risk":5,"migraine_risk":7,"frizz_risk":1,"updated_at":"2026-06-06T03:46:47.905505+05:30"},{"city":"Tirupur","state":"Tamil Nadu","latitude":11.1085,"longitude":77.3411,"temp":25.2,"humidity":81,"rain":0.0,"pressure":973.2,"uv_index":8.9,"wind_gusts":65.5,"aqi":20,"pm10":6.9,"pm2_5":6.1,"no2":11.3,"co":133.0,"o3":27.0,"so2":3.9,"mosquito_risk":7,"arthritis_risk":5,"migraine_risk":7,"frizz_risk":1,"updated_at":"2026-06-06T03:46:47.905512+05:30"},{"city":"Alappuzha","state":"Kerala","latitude":9.4981,"longitude":76.3388,"temp":25.7,"humidity":95,"rain":0.0,"pressure":1008.3,"uv_index":8.0,"wind_gusts":40.7,"aqi":34,"pm10":15.3,"pm2_5":6.8,"no2":4.1,"co":84.0,"o3":41.0,"so2":1.0,"mosquito_risk":7,"arthritis_risk":0,"migraine_risk":4,"frizz_risk":1,"updated_at":"2026-06-06T03:46:47.905520+05:30"},{"city":"Munnar","state":"Kerala","latitude":10.0889,"longitude":77.0595,"temp":16.9,"humidity":100,"rain":0.3,"pressure":855.2,"uv_index":8.45,"wind_gusts":46.8,"aqi":13,"pm10":1.0,"pm2_5":0.9,"no2":4.7,"co":103.0,"o3":28.0,"so2":1.6,"mosquito_risk":6,"arthritis_risk":10,"migraine_risk":7,"frizz_risk":1,"updated_at":"2026-06-06T03:46:47.905528+05:30"},{"city":"Silchar","state":"Assam","latitude":24.8333,"longitude":92.7789,"temp":24.7,"humidity":99,"rain":0.0,"pressure":1000.3,"uv_index":8.95,"wind_gusts":21.6,"aqi":103,"pm10":70.5,"pm2_5":63.6,"no2":21.7,"co":776.0,"o3":54.0,"so2":7.6,"mosquito_risk":3,"arthritis_risk":5,"migraine_risk":4,"frizz_risk":1,"updated_at":"2026-06-06T03:46:47.905535+05:30"},{"city":"Dibrugarh","state":"Assam","latitude":27.4728,"longitude":94.912,"temp":25.1,"humidity":92,"rain":0.0,"pressure":991.3,"uv_index":8.95,"wind_gusts":28.8,"aqi":92,"pm10":43.5,"pm2_5":40.7,"no2":22.1,"co":610.0,"o3":31.0,"so2":2.2,"mosquito_risk":7,"arthritis_risk":5,"migraine_risk":7,"frizz_risk":1,"updated_at":"2026-06-06T03:46:47.905542+05:30"}]