[{"city":"Delhi","state":"Delhi","latitude":28.6139,"longitude":77.209,"temp":21.0,"humidity":64,"rain":0.0,"pressure":983.3,"uv_index":6.15,"wind_gusts":48.6,"aqi":197,"pm10":534.6,"pm2_5":102.7,"mosquito_risk":3,"arthritis_risk":5,"migraine_risk":7,"frizz_risk":0,"updated_at":"2026-04-07T05:09:34.789818+05:30"},{"city":"Mumbai","state":"Maharashtra","latitude":19.076,"longitude":72.8777,"temp":27.5,"humidity":68,"rain":0.0,"pressure":1010.4,"uv_index":7.95,"wind_gusts":19.8,"aqi":63,"pm10":31.3,"pm2_5":18.0,"mosquito_risk":7,"arthritis_risk":0,"migraine_risk":4,"frizz_risk":1,"updated_at":"2026-04-07T05:09:34.789862+05:30"},{"city":"Bangalore","state":"Karnataka","latitude":12.9716,"longitude":77.5946,"temp":21.6,"humidity":82,"rain":0.0,"pressure":912.0,"uv_index":9.65,"wind_gusts":26.3,"aqi":57,"pm10":14.3,"pm2_5":13.4,"mosquito_risk":3,"arthritis_risk":5,"migraine_risk":7,"frizz_risk":1,"updated_at":"2026-04-07T05:09:34.789878+05:30"},{"city":"Hyderabad","state":"Telangana","latitude":17.385,"longitude":78.4867,"temp":24.5,"humidity":43,"rain":0.0,"pressure":952.9,"uv_index":9.15,"wind_gusts":32.4,"aqi":75,"pm10":26.0,"pm2_5":25.0,"mosquito_risk":0,"arthritis_risk":5,"migraine_risk":7,"frizz_risk":0,"updated_at":"2026-04-07T05:09:34.789888+05:30"},{"city":"Chennai","state":"Tamil Nadu","latitude":13.0827,"longitude":80.2707,"temp":27.9,"humidity":91,"rain":0.0,"pressure":1007.1,"uv_index":9.35,"wind_gusts":37.4,"aqi":68,"pm10":30.5,"pm2_5":24.2,"mosquito_risk":7,"arthritis_risk":5,"migraine_risk":4,"frizz_risk":1,"updated_at":"2026-04-07T05:09:34.789897+05:30"},{"city":"Kolkata","state":"West Bengal","latitude":22.5726,"longitude":88.3639,"temp":23.3,"humidity":96,"rain":0.0,"pressure":1007.4,"uv_index":8.55,"wind_gusts":24.5,"aqi":153,"pm10":49.4,"pm2_5":47.0,"mosquito_risk":3,"arthritis_risk":5,"migraine_risk":4,"frizz_risk":1,"updated_at":"2026-04-07T05:09:34.789906+05:30"},{"city":"Pune","state":"Maharashtra","latitude":18.5204,"longitude":73.8567,"temp":19.8,"humidity":88,"rain":0.0,"pressure":949.2,"uv_index":8.55,"wind_gusts":40.0,"aqi":68,"pm10":29.9,"pm2_5":26.1,"mosquito_risk":3,"arthritis_risk":10,"migraine_risk":7,"frizz_risk":1,"updated_at":"2026-04-07T05:09:34.789919+05:30"},{"city":"Ahmedabad","state":"Gujarat","latitude":23.0225,"longitude":72.5714,"temp":23.6,"humidity":80,"rain":0.0,"pressure":1003.3,"uv_index":7.95,"wind_gusts":42.8,"aqi":51,"pm10":29.8,"pm2_5":12.2,"mosquito_risk":3,"arthritis_risk":5,"migraine_risk":4,"frizz_risk":1,"updated_at":"2026-04-07T05:09:34.789927+05:30"},{"city":"Jaipur","state":"Rajasthan","latitude":26.9124,"longitude":75.7873,"temp":21.6,"humidity":61,"rain":0.0,"pressure":959.2,"uv_index":5.05,"wind_gusts":43.9,"aqi":125,"pm10":130.9,"pm2_5":27.6,"mosquito_risk":3,"arthritis_risk":5,"migraine_risk":3,"frizz_risk":0,"updated_at":"2026-04-07T05:09:34.789934+05:30"},{"city":"Lucknow","state":"Uttar Pradesh","latitude":26.8467,"longitude":80.9462,"temp":21.8,"humidity":63,"rain":0.0,"pressure":994.3,"uv_index":7.45,"wind_gusts":26.6,"aqi":113,"pm10":251.5,"pm2_5":64.0,"mosquito_risk":3,"arthritis_risk":5,"migraine_risk":7,"frizz_risk":0,"updated_at":"2026-04-07T05:09:34.789942+05:30"},{"city":"Kanpur","state":"Uttar Pradesh","latitude":26.4499,"longitude":80.3319,"temp":21.0,"humidity":72,"rain":0.0,"pressure":992.6,"uv_index":6.85,"wind_gusts":29.5,"aqi":147,"pm10":313.9,"pm2_5":72.4,"mosquito_risk":3,"arthritis_risk":5,"migraine_risk":7,"frizz_risk":0,"updated_at":"2026-04-07T05:09:34.789949+05:30"},{"city":"Chandigarh","state":"Chandigarh","latitude":30.7333,"longitude":76.7794,"temp":19.6,"humidity":55,"rain":0.0,"pressure":968.5,"uv_index":6.5,"wind_gusts":56.9,"aqi":55,"pm10":13.1,"pm2_5":10.9,"mosquito_risk":0,"arthritis_risk":5,"migraine_risk":7,"frizz_risk":0,"updated_at":"2026-04-07T05:09:34.789957+05:30"},{"city":"Srinagar","state":"Jammu and Kashmir","latitude":34.0837,"longitude":74.7973,"temp":6.7,"humidity":88,"rain":0.0,"pressure":836.1,"uv_index":7.55,"wind_gusts":32.8,"aqi":82,"pm10":35.4,"pm2_5":32.2,"mosquito_risk":3,"arthritis_risk":10,"migraine_risk":7,"frizz_risk":0,"updated_at":"2026-04-07T05:09:34.789965+05:30"},{"city":"Jammu","state":"Jammu and Kashmir","latitude":32.7266,"longitude":74.857,"temp":19.4,"humidity":60,"rain":0.0,"pressure":971.3,"uv_index":7.25,"wind_gusts":49.0,"aqi":70,"pm10":21.0,"pm2_5":17.9,"mosquito_risk":0,"arthritis_risk":5,"migraine_risk":7,"frizz_risk":0,"updated_at":"2026-04-07T05:09:34.789973+05:30"},{"city":"Amritsar","state":"Punjab","latitude":31.634,"longitude":74.8723,"temp":19.0,"humidity":70,"rain":0.0,"pressure":979.1,"uv_index":4.6,"wind_gusts":54.7,"aqi":83,"pm10":35.0,"pm2_5":34.0,"mosquito_risk":3,"arthritis_risk":5,"migraine_risk":3,"frizz_risk":0,"updated_at":"2026-04-07T05:09:34.789980+05:30"},{"city":"Ludhiana","state":"Punjab","latitude":30.901,"longitude":75.8573,"temp":19.5,"humidity":67,"rain":0.0,"pressure":978.5,"uv_index":4.9,"wind_gusts":56.5,"aqi":99,"pm10":78.2,"pm2_5":44.6,"mosquito_risk":3,"arthritis_risk":5,"migraine_risk":3,"frizz_risk":0,"updated_at":"2026-04-07T05:09:34.789987+05:30"},{"city":"Jalandhar","state":"Punjab","latitude":31.326,"longitude":75.5762,"temp":19.4,"humidity":68,"rain":0.0,"pressure":979.3,"uv_index":6.0,"wind_gusts":63.7,"aqi":86,"pm10":66.4,"pm2_5":42.3,"mosquito_risk":3,"arthritis_risk":5,"migraine_risk":3,"frizz_risk":0,"updated_at":"2026-04-07T05:09:34.789996+05:30"},{"city":"Dehradun","state":"Uttarakhand","latitude":30.6284,"longitude":78.0322,"temp":10.6,"humidity":67,"rain":0.0,"pressure":827.9,"uv_index":6.7,"wind_gusts":41.0,"aqi":38,"pm10":9.1,"pm2_5":6.6,"mosquito_risk":3,"arthritis_risk":5,"migraine_risk":7,"frizz_risk":0,"updated_at":"2026-04-07T05:09:34.790003+05:30"},{"city":"Shimla","state":"Himachal Pradesh","latitude":31.1048,"longitude":77.1734,"temp":9.1,"humidity":63,"rain":0.0,"pressure":780.9,"uv_index":6.7,"wind_gusts":60.5,"aqi":51,"pm10":9.4,"pm2_5":7.7,"mosquito_risk":3,"arthritis_risk":5,"migraine_risk":7,"frizz_risk":0,"updated_at":"2026-04-07T05:09:34.790011+05:30"},{"city":"Manali","state":"Himachal Pradesh","latitude":32.2396,"longitude":77.1887,"temp":10.4,"humidity":57,"rain":0.0,"pressure":815.0,"uv_index":9.35,"wind_gusts":31.0,"aqi":63,"pm10":8.9,"pm2_5":6.9,"mosquito_risk":0,"arthritis_risk":5,"migraine_risk":7,"frizz_risk":0,"updated_at":"2026-04-07T05:09:34.790018+05:30"},{"city":"Gurgaon","state":"Haryana","latitude":28.4595,"longitude":77.0266,"temp":19.3,"humidity":71,"rain":0.0,"pressure":981.4,"uv_index":5.15,"wind_gusts":44.6,"aqi":527,"pm10":331.6,"pm2_5":81.3,"mosquito_risk":3,"arthritis_risk":5,"migraine_risk":3,"frizz_risk":0,"updated_at":"2026-04-07T05:09:34.790025+05:30"},{"city":"Noida","state":"Uttar Pradesh","latitude":28.5355,"longitude":77.391,"temp":21.0,"humidity":65,"rain":0.0,"pressure":984.9,"uv_index":6.2,"wind_gusts":44.3,"aqi":527,"pm10":331.6,"pm2_5":81.3,"mosquito_risk":3,"arthritis_risk":5,"migraine_risk":7,"frizz_risk":0,"updated_at":"2026-04-07T05:09:34.790032+05:30"},{"city":"Ghaziabad","state":"Uttar Pradesh","latitude":28.6692,"longitude":77.4538,"temp":20.9,"humidity":66,"rain":0.0,"pressure":983.1,"uv_index":6.2,"wind_gusts":45.0,"aqi":153,"pm10":413.5,"pm2_5":108.5,"mosquito_risk":3,"arthritis_risk":5,"migraine_risk":7,"frizz_risk":0,"updated_at":"2026-04-07T05:09:34.790039+05:30"},{"city":"Faridabad","state":"Haryana","latitude":28.4089,"longitude":77.3178,"temp":20.2,"humidity":66,"rain":0.0,"pressure":984.1,"uv_index":5.55,"wind_gusts":43.6,"aqi":527,"pm10":331.6,"pm2_5":81.3,"mosquito_risk":3,"arthritis_risk":5,"migraine_risk":3,"frizz_risk":0,"updated_at":"2026-04-07T05:09:34.790050+05:30"},{"city":"Meerut","state":"Uttar Pradesh","latitude":28.9845,"longitude":77.7064,"temp":19.4,"humidity":75,"rain":0.0,"pressure":982.2,"uv_index":6.2,"wind_gusts":39.6,"aqi":153,"pm10":413.5,"pm2_5":108.5,"mosquito_risk":3,"arthritis_risk":5,"migraine_risk":7,"frizz_risk":0,"updated_at":"2026-04-07T05:09:34.790057+05:30"},{"city":"Agra","state":"Uttar Pradesh","latitude":27.1767,"longitude":78.0081,"temp":19.5,"humidity":80,"rain":0.0,"pressure":989.1,"uv_index":5.9,"wind_gusts":40.0,"aqi":300,"pm10":276.6,"pm2_5":55.6,"mosquito_risk":3,"arthritis_risk":5,"migraine_risk":3,"frizz_risk":0,"updated_at":"2026-04-07T05:09:34.790064+05:30"},{"city":"Varanasi","state":"Uttar Pradesh","latitude":25.3176,"longitude":82.9739,"temp":21.5,"humidity":62,"rain":0.0,"pressure":998.6,"uv_index":8.05,"wind_gusts":23.4,"aqi":80,"pm10":74.5,"pm2_5":33.4,"mosquito_risk":3,"arthritis_risk":5,"migraine_risk":7,"frizz_risk":0,"updated_at":"2026-04-07T05:09:34.790073+05:30"},{"city":"Prayagraj","state":"Uttar Pradesh","latitude":25.4358,"longitude":81.8463,"temp":22.4,"humidity":59,"rain":0.0,"pressure":997.1,"uv_index":7.95,"wind_gusts":18.7,"aqi":86,"pm10":165.8,"pm2_5":38.1,"mosquito_risk":0,"arthritis_risk":5,"migraine_risk":7,"frizz_risk":0,"updated_at":"2026-04-07T05:09:34.790081+05:30"},{"city":"Gorakhpur","state":"Uttar Pradesh","latitude":26.7606,"longitude":83.3732,"temp":21.4,"humidity":62,"rain":0.0,"pressure":998.5,"uv_index":7.85,"wind_gusts":24.1,"aqi":69,"pm10":25.5,"pm2_5":22.6,"mosquito_risk":3,"arthritis_risk":5,"migraine_risk":7,"frizz_risk":0,"updated_at":"2026-04-07T05:09:34.790087+05:30"},{"city":"Bareilly","state":"Uttar Pradesh","latitude":28.367,"longitude":79.4304,"temp":19.0,"humidity":72,"rain":0.0,"pressure":987.9,"uv_index":7.15,"wind_gusts":46.8,"aqi":76,"pm10":22.3,"pm2_5":18.3,"mosquito_risk":3,"arthritis_risk":5,"migraine_risk":7,"frizz_risk":0,"updated_at":"2026-04-07T05:09:34.790093+05:30"},{"city":"Aligarh","state":"Uttar Pradesh","latitude":27.8974,"longitude":78.088,"temp":19.2,"humidity":74,"rain":0.0,"pressure":986.9,"uv_index":6.75,"wind_gusts":34.9,"aqi":268,"pm10":329.7,"pm2_5":67.1,"mosquito_risk":3,"arthritis_risk":5,"migraine_risk":7,"frizz_risk":0,"updated_at":"2026-04-07T05:09:34.790100+05:30"},{"city":"Moradabad","state":"Uttar Pradesh","latitude":28.8386,"longitude":78.7733,"temp":18.8,"humidity":75,"rain":0.0,"pressure":984.7,"uv_index":7.0,"wind_gusts":36.0,"aqi":106,"pm10":28.1,"pm2_5":27.8,"mosquito_risk":3,"arthritis_risk":5,"migraine_risk":7,"frizz_risk":0,"updated_at":"2026-04-07T05:09:34.790107+05:30"},{"city":"Saharanpur","state":"Uttar Pradesh","latitude":29.9637,"longitude":77.546,"temp":18.4,"humidity":66,"rain":0.0,"pressure":976.1,"uv_index":6.0,"wind_gusts":39.2,"aqi":83,"pm10":24.7,"pm2_5":19.3,"mosquito_risk":3,"arthritis_risk":5,"migraine_risk":3,"frizz_risk":0,"updated_at":"2026-04-07T05:09:34.790113+05:30"},{"city":"Jhansi","state":"Uttar Pradesh","latitude":25.4484,"longitude":78.5685,"temp":20.9,"humidity":67,"rain":0.0,"pressure":978.8,"uv_index":7.65,"wind_gusts":28.8,"aqi":69,"pm10":32.7,"pm2_5":15.0,"mosquito_risk":3,"arthritis_risk":5,"migraine_risk":7,"frizz_risk":0,"updated_at":"2026-04-07T05:09:38.007020+05:30"},{"city":"Surat","state":"Gujarat","latitude":21.1702,"longitude":72.8311,"temp":25.6,"humidity":79,"rain":0.0,"pressure":1008.6,"uv_index":7.7,"wind_gusts":38.9,"aqi":74,"pm10":27.3,"pm2_5":21.3,"mosquito_risk":7,"arthritis_risk":0,"migraine_risk":4,"frizz_risk":1,"updated_at":"2026-04-07T05:09:38.007054+05:30"},{"city":"Vadodara","state":"Gujarat","latitude":22.3072,"longitude":73.1812,"temp":25.0,"humidity":79,"rain":0.0,"pressure":1005.9,"uv_index":8.0,"wind_gusts":46.4,"aqi":59,"pm10":14.1,"pm2_5":11.6,"mosquito_risk":7,"arthritis_risk":5,"migraine_risk":4,"frizz_risk":1,"updated_at":"2026-04-07T05:09:38.007067+05:30"},{"city":"Rajkot","state":"Gujarat","latitude":22.3039,"longitude":70.8022,"temp":23.0,"humidity":86,"rain":0.0,"pressure":995.1,"uv_index":7.7,"wind_gusts":53.6,"aqi":51,"pm10":21.0,"pm2_5":10.6,"mosquito_risk":3,"arthritis_risk":5,"migraine_risk":7,"frizz_risk":1,"updated_at":"2026-04-07T05:09:38.007077+05:30"},{"city":"Thane","state":"Maharashtra","latitude":19.2183,"longitude":72.9781,"temp":26.0,"humidity":73,"rain":0.0,"pressure":1009.9,"uv_index":7.95,"wind_gusts":34.6,"aqi":63,"pm10":31.3,"pm2_5":18.0,"mosquito_risk":7,"arthritis_risk":0,"migraine_risk":4,"frizz_risk":1,"updated_at":"2026-04-07T05:09:38.007084+05:30"},{"city":"Nagpur","state":"Maharashtra","latitude":21.1458,"longitude":79.0882,"temp":23.6,"humidity":53,"rain":0.0,"pressure":972.8,"uv_index":8.75,"wind_gusts":21.6,"aqi":57,"pm10":24.3,"pm2_5":19.7,"mosquito_risk":0,"arthritis_risk":5,"migraine_risk":7,"frizz_risk":0,"updated_at":"2026-04-07T05:09:38.007091+05:30"},{"city":"Nashik","state":"Maharashtra","latitude":19.9975,"longitude":73.7898,"temp":19.5,"humidity":92,"rain":0.0,"pressure":946.6,"uv_index":8.2,"wind_gusts":39.2,"aqi":52,"pm10":27.8,"pm2_5":15.5,"mosquito_risk":3,"arthritis_risk":10,"migraine_risk":7,"frizz_risk":1,"updated_at":"2026-04-07T05:09:38.007098+05:30"},{"city":"Aurangabad","state":"Maharashtra","latitude":19.8762,"longitude":75.3433,"temp":21.6,"humidity":66,"rain":0.0,"pressure":944.7,"uv_index":8.85,"wind_gusts":38.5,"aqi":57,"pm10":20.3,"pm2_5":12.1,"mosquito_risk":3,"arthritis_risk":5,"migraine_risk":7,"frizz_risk":0,"updated_at":"2026-04-07T05:09:38.007105+05:30"},{"city":"Solapur","state":"Maharashtra","latitude":17.6599,"longitude":75.9064,"temp":23.1,"humidity":71,"rain":0.0,"pressure":957.9,"uv_index":9.0,"wind_gusts":27.4,"aqi":49,"pm10":19.3,"pm2_5":18.0,"mosquito_risk":3,"arthritis_risk":5,"migraine_risk":7,"frizz_risk":1,"updated_at":"2026-04-07T05:09:38.007111+05:30"},{"city":"Kolhapur","state":"Maharashtra","latitude":16.705,"longitude":74.2433,"temp":16.8,"humidity":91,"rain":0.0,"pressure":948.2,"uv_index":9.05,"wind_gusts":40.7,"aqi":56,"pm10":19.1,"pm2_5":17.4,"mosquito_risk":3,"arthritis_risk":10,"migraine_risk":7,"frizz_risk":0,"updated_at":"2026-04-07T05:09:38.007119+05:30"},{"city":"Goa","state":"Goa","latitude":15.2993,"longitude":74.124,"temp":25.0,"humidity":80,"rain":0.0,"pressure":999.7,"uv_index":9.0,"wind_gusts":33.1,"aqi":59,"pm10":26.0,"pm2_5":20.4,"mosquito_risk":7,"arthritis_risk":5,"migraine_risk":7,"frizz_risk":1,"updated_at":"2026-04-07T05:09:38.007125+05:30"},{"city":"Jodhpur","state":"Rajasthan","latitude":26.2389,"longitude":73.0243,"temp":20.7,"humidity":74,"rain":0.0,"pressure":982.0,"uv_index":7.9,"wind_gusts":54.0,"aqi":97,"pm10":84.3,"pm2_5":23.7,"mosquito_risk":3,"arthritis_risk":5,"migraine_risk":7,"frizz_risk":0,"updated_at":"2026-04-07T05:09:38.007132+05:30"},{"city":"Udaipur","state":"Rajasthan","latitude":24.5854,"longitude":73.7125,"temp":20.6,"humidity":63,"rain":0.0,"pressure":945.9,"uv_index":8.5,"wind_gusts":61.2,"aqi":45,"pm10":29.8,"pm2_5":13.7,"mosquito_risk":3,"arthritis_risk":5,"migraine_risk":7,"frizz_risk":0,"updated_at":"2026-04-07T05:09:38.007139+05:30"},{"city":"Kota","state":"Rajasthan","latitude":25.2138,"longitude":75.8648,"temp":23.7,"humidity":47,"rain":0.0,"pressure":978.7,"uv_index":7.5,"wind_gusts":50.0,"aqi":62,"pm10":17.2,"pm2_5":12.1,"mosquito_risk":0,"arthritis_risk":5,"migraine_risk":7,"frizz_risk":0,"updated_at":"2026-04-07T05:09:38.007145+05:30"},{"city":"Bikaner","state":"Rajasthan","latitude":28.0229,"longitude":73.3119,"temp":23.7,"humidity":61,"rain":0.0,"pressure":979.2,"uv_index":7.5,"wind_gusts":45.4,"aqi":78,"pm10":206.8,"pm2_5":61.7,"mosquito_risk":3,"arthritis_risk":5,"migraine_risk":7,"frizz_risk":0,"updated_at":"2026-04-07T05:09:38.007152+05:30"},{"city":"Ajmer","state":"Rajasthan","latitude":26.4499,"longitude":74.6399,"temp":20.6,"humidity":56,"rain":0.0,"pressure":953.6,"uv_index":7.8,"wind_gusts":57.6,"aqi":54,"pm10":19.2,"pm2_5":8.4,"mosquito_risk":0,"arthritis_risk":5,"migraine_risk":7,"frizz_risk":0,"updated_at":"2026-04-07T05:09:38.007159+05:30"},{"city":"Gwalior","state":"Madhya Pradesh","latitude":26.2183,"longitude":78.1828,"temp":21.8,"humidity":69,"rain":0.0,"pressure":983.9,"uv_index":6.95,"wind_gusts":35.3,"aqi":78,"pm10":97.3,"pm2_5":31.5,"mosquito_risk":3,"arthritis_risk":5,"migraine_risk":7,"frizz_risk":0,"updated_at":"2026-04-07T05:09:38.007166+05:30"},{"city":"Indore","state":"Madhya Pradesh","latitude":22.7196,"longitude":75.8577,"temp":20.7,"humidity":69,"rain":0.0,"pressure":948.4,"uv_index":8.4,"wind_gusts":40.7,"aqi":54,"pm10":19.3,"pm2_5":15.0,"mosquito_risk":3,"arthritis_risk":5,"migraine_risk":7,"frizz_risk":0,"updated_at":"2026-04-07T05:09:38.007172+05:30"},{"city":"Bhopal","state":"Madhya Pradesh","latitude":23.2599,"longitude":77.4126,"temp":21.5,"humidity":55,"rain":0.0,"pressure":954.0,"uv_index":8.4,"wind_gusts":44.3,"aqi":53,"pm10":21.9,"pm2_5":15.8,"mosquito_risk":0,"arthritis_risk":5,"migraine_risk":7,"frizz_risk":0,"updated_at":"2026-04-07T05:09:38.007179+05:30"},{"city":"Jabalpur","state":"Madhya Pradesh","latitude":23.1815,"longitude":79.9864,"temp":23.3,"humidity":54,"rain":0.0,"pressure":961.6,"uv_index":8.5,"wind_gusts":34.6,"aqi":64,"pm10":37.4,"pm2_5":22.5,"mosquito_risk":0,"arthritis_risk":5,"migraine_risk":7,"frizz_risk":0,"updated_at":"2026-04-07T05:09:38.007186+05:30"},{"city":"Ujjain","state":"Madhya Pradesh","latitude":23.1765,"longitude":75.7885,"temp":21.0,"humidity":68,"rain":0.0,"pressure":954.2,"uv_index":8.3,"wind_gusts":42.5,"aqi":48,"pm10":19.8,"pm2_5":15.1,"mosquito_risk":3,"arthritis_risk":5,"migraine_risk":7,"frizz_risk":0,"updated_at":"2026-04-07T05:09:38.007193+05:30"},{"city":"Visakhapatnam","state":"Andhra Pradesh","latitude":17.6868,"longitude":83.2185,"temp":25.9,"humidity":92,"rain":0.0,"pressure":1004.2,"uv_index":9.1,"wind_gusts":31.3,"aqi":86,"pm10":28.7,"pm2_5":24.8,"mosquito_risk":7,"arthritis_risk":5,"migraine_risk":4,"frizz_risk":1,"updated_at":"2026-04-07T05:09:38.007200+05:30"},{"city":"Vijayawada","state":"Andhra Pradesh","latitude":16.5062,"longitude":80.648,"temp":26.7,"humidity":91,"rain":0.0,"pressure":1002.9,"uv_index":9.15,"wind_gusts":30.6,"aqi":74,"pm10":23.6,"pm2_5":20.7,"mosquito_risk":7,"arthritis_risk":5,"migraine_risk":4,"frizz_risk":1,"updated_at":"2026-04-07T05:09:38.007207+05:30"},{"city":"Guntur","state":"Andhra Pradesh","latitude":16.3067,"longitude":80.4365,"temp":27.0,"humidity":93,"rain":0.0,"pressure":1003.8,"uv_index":9.2,"wind_gusts":29.9,"aqi":87,"pm10":26.8,"pm2_5":23.4,"mosquito_risk":7,"arthritis_risk":5,"migraine_risk":4,"frizz_risk":1,"updated_at":"2026-04-07T05:09:38.007214+05:30"},{"city":"Nellore","state":"Andhra Pradesh","latitude":14.4426,"longitude":79.9865,"temp":27.4,"humidity":90,"rain":0.0,"pressure":1005.6,"uv_index":9.3,"wind_gusts":36.7,"aqi":78,"pm10":28.5,"pm2_5":25.7,"mosquito_risk":7,"arthritis_risk":5,"migraine_risk":4,"frizz_risk":1,"updated_at":"2026-04-07T05:09:38.007221+05:30"},{"city":"Kurnool","state":"Andhra Pradesh","latitude":15.8281,"longitude":78.0373,"temp":25.8,"humidity":49,"rain":0.0,"pressure":977.1,"uv_index":9.2,"wind_gusts":23.4,"aqi":64,"pm10":14.9,"pm2_5":14.1,"mosquito_risk":4,"arthritis_risk":5,"migraine_risk":7,"frizz_risk":0,"updated_at":"2026-04-07T05:09:38.007229+05:30"},{"city":"Kakinada","state":"Andhra Pradesh","latitude":16.9891,"longitude":82.2475,"temp":25.5,"humidity":96,"rain":0.0,"pressure":1008.0,"uv_index":9.15,"wind_gusts":24.5,"aqi":57,"pm10":21.2,"pm2_5":15.5,"mosquito_risk":7,"arthritis_risk":0,"migraine_risk":4,"frizz_risk":1,"updated_at":"2026-04-07T05:09:38.007235+05:30"},{"city":"Tirupati","state":"Andhra Pradesh","latitude":13.6288,"longitude":79.4192,"temp":26.3,"humidity":89,"rain":0.0,"pressure":992.3,"uv_index":9.4,"wind_gusts":28.1,"aqi":105,"pm10":46.6,"pm2_5":44.1,"mosquito_risk":7,"arthritis_risk":5,"migraine_risk":7,"frizz_risk":1,"updated_at":"2026-04-07T05:09:38.007242+05:30"},{"city":"Warangal","state":"Telangana","latitude":17.9689,"longitude":79.5941,"temp":25.6,"humidity":89,"rain":0.0,"pressure":978.8,"uv_index":9.05,"wind_gusts":31.3,"aqi":99,"pm10":41.6,"pm2_5":38.3,"mosquito_risk":7,"arthritis_risk":5,"migraine_risk":7,"frizz_risk":1,"updated_at":"2026-04-07T05:09:38.007248+05:30"},{"city":"Nizamabad","state":"Telangana","latitude":18.6725,"longitude":78.0941,"temp":24.4,"humidity":51,"rain":0.0,"pressure":965.1,"uv_index":8.95,"wind_gusts":30.2,"aqi":60,"pm10":26.6,"pm2_5":21.7,"mosquito_risk":0,"arthritis_risk":5,"migraine_risk":7,"frizz_risk":0,"updated_at":"2026-04-07T05:09:38.007255+05:30"},{"city":"Mysore","state":"Karnataka","latitude":12.2958,"longitude":76.6396,"temp":21.1,"humidity":87,"rain":0.0,"pressure":929.0,"uv_index":9.55,"wind_gusts":41.0,"aqi":59,"pm10":17.6,"pm2_5":14.8,"mosquito_risk":3,"arthritis_risk":5,"migraine_risk":7,"frizz_risk":1,"updated_at":"2026-04-07T05:09:38.007261+05:30"},{"city":"Mangalore","state":"Karnataka","latitude":12.9141,"longitude":74.856,"temp":29.0,"humidity":71,"rain":0.0,"pressure":1008.1,"uv_index":9.15,"wind_gusts":31.0,"aqi":59,"pm10":30.2,"pm2_5":20.5,"mosquito_risk":7,"arthritis_risk":0,"migraine_risk":4,"frizz_risk":1,"updated_at":"2026-04-07T05:09:38.007268+05:30"},{"city":"Hubli-Dharwad","state":"Karnataka","latitude":15.3647,"longitude":75.124,"temp":18.1,"humidity":91,"rain":0.0,"pressure":941.1,"uv_index":9.2,"wind_gusts":38.9,"aqi":42,"pm10":17.7,"pm2_5":12.1,"mosquito_risk":3,"arthritis_risk":10,"migraine_risk":7,"frizz_risk":1,"updated_at":"2026-04-07T05:09:38.007275+05:30"},{"city":"Belgaum","state":"Karnataka","latitude":15.8497,"longitude":74.4977,"temp":17.2,"humidity":87,"rain":0.0,"pressure":925.4,"uv_index":9.25,"wind_gusts":34.2,"aqi":53,"pm10":18.3,"pm2_5":15.5,"mosquito_risk":3,"arthritis_risk":10,"migraine_risk":7,"frizz_risk":0,"updated_at":"2026-04-07T05:09:41.225474+05:30"},{"city":"Coimbatore","state":"Tamil Nadu","latitude":11.0168,"longitude":76.9558,"temp":24.1,"humidity":79,"rain":0.0,"pressure":962.4,"uv_index":9.5,"wind_gusts":55.4,"aqi":68,"pm10":23.3,"pm2_5":18.2,"mosquito_risk":3,"arthritis_risk":5,"migraine_risk":7,"frizz_risk":1,"updated_at":"2026-04-07T05:09:41.225504+05:30"},{"city":"Madurai","state":"Tamil Nadu","latitude":9.9252,"longitude":78.1198,"temp":26.9,"humidity":95,"rain":0.0,"pressure":993.1,"uv_index":8.6,"wind_gusts":36.0,"aqi":99,"pm10":48.5,"pm2_5":45.3,"mosquito_risk":7,"arthritis_risk":5,"migraine_risk":7,"frizz_risk":1,"updated_at":"2026-04-07T05:09:41.225514+05:30"},{"city":"Trichy","state":"Tamil Nadu","latitude":10.7905,"longitude":78.7047,"temp":25.9,"humidity":90,"rain":0.0,"pressure":1000.3,"uv_index":9.0,"wind_gusts":31.7,"aqi":92,"pm10":28.1,"pm2_5":26.3,"mosquito_risk":7,"arthritis_risk":5,"migraine_risk":4,"frizz_risk":1,"updated_at":"2026-04-07T05:09:41.225522+05:30"},{"city":"Salem","state":"Tamil Nadu","latitude":11.6643,"longitude":78.146,"temp":26.9,"humidity":75,"rain":0.0,"pressure":978.1,"uv_index":9.45,"wind_gusts":30.2,"aqi":74,"pm10":24.5,"pm2_5":20.3,"mosquito_risk":7,"arthritis_risk":5,"migraine_risk":7,"frizz_risk":1,"updated_at":"2026-04-07T05:09:41.225530+05:30"},{"city":"Tirunelveli","state":"Tamil Nadu","latitude":8.7139,"longitude":77.7567,"temp":27.0,"humidity":69,"rain":0.0,"pressure":1003.0,"uv_index":9.0,"wind_gusts":21.2,"aqi":71,"pm10":30.3,"pm2_5":22.2,"mosquito_risk":7,"arthritis_risk":5,"migraine_risk":4,"frizz_risk":1,"updated_at":"2026-04-07T05:09:41.225537+05:30"},{"city":"Vellore","state":"Tamil Nadu","latitude":12.9165,"longitude":79.1325,"temp":25.6,"humidity":83,"rain":0.0,"pressure":985.3,"uv_index":9.45,"wind_gusts":24.8,"aqi":119,"pm10":58.0,"pm2_5":54.9,"mosquito_risk":7,"arthritis_risk":5,"migraine_risk":7,"frizz_risk":1,"updated_at":"2026-04-07T05:09:41.225544+05:30"},{"city":"Erode","state":"Tamil Nadu","latitude":11.341,"longitude":77.7172,"temp":27.4,"humidity":74,"rain":0.0,"pressure":989.6,"uv_index":9.4,"wind_gusts":38.9,"aqi":70,"pm10":24.0,"pm2_5":19.3,"mosquito_risk":7,"arthritis_risk":5,"migraine_risk":7,"frizz_risk":1,"updated_at":"2026-04-07T05:09:41.225552+05:30"},{"city":"Kochi","state":"Kerala","latitude":9.9312,"longitude":76.2673,"temp":29.2,"humidity":73,"rain":0.0,"pressure":1009.6,"uv_index":9.15,"wind_gusts":40.3,"aqi":71,"pm10":24.9,"pm2_5":18.3,"mosquito_risk":7,"arthritis_risk":0,"migraine_risk":4,"frizz_risk":1,"updated_at":"2026-04-07T05:09:41.225559+05:30"},{"city":"Thiruvananthapuram","state":"Kerala","latitude":8.5241,"longitude":76.9366,"temp":28.5,"humidity":81,"rain":0.0,"pressure":1008.5,"uv_index":8.5,"wind_gusts":51.1,"aqi":62,"pm10":32.8,"pm2_5":20.3,"mosquito_risk":7,"arthritis_risk":0,"migraine_risk":4,"frizz_risk":1,"updated_at":"2026-04-07T05:09:41.225566+05:30"},{"city":"Kozhikode","state":"Kerala","latitude":11.2588,"longitude":75.7804,"temp":28.0,"humidity":80,"rain":0.0,"pressure":1009.1,"uv_index":9.15,"wind_gusts":37.4,"aqi":60,"pm10":25.8,"pm2_5":14.9,"mosquito_risk":7,"arthritis_risk":0,"migraine_risk":4,"frizz_risk":1,"updated_at":"2026-04-07T05:09:41.225572+05:30"},{"city":"Thrissur","state":"Kerala","latitude":10.5276,"longitude":76.2144,"temp":26.9,"humidity":84,"rain":0.0,"pressure":1008.0,"uv_index":9.2,"wind_gusts":39.6,"aqi":67,"pm10":28.0,"pm2_5":19.9,"mosquito_risk":7,"arthritis_risk":0,"migraine_risk":4,"frizz_risk":1,"updated_at":"2026-04-07T05:09:41.225580+05:30"},{"city":"Kannur","state":"Kerala","latitude":11.8745,"longitude":75.3704,"temp":26.8,"humidity":80,"rain":0.0,"pressure":1008.6,"uv_index":9.15,"wind_gusts":40.0,"aqi":58,"pm10":24.7,"pm2_5":15.4,"mosquito_risk":7,"arthritis_risk":0,"migraine_risk":4,"frizz_risk":1,"updated_at":"2026-04-07T05:09:41.225587+05:30"},{"city":"Patna","state":"Bihar","latitude":25.5941,"longitude":85.1376,"temp":22.1,"humidity":71,"rain":0.0,"pressure":1001.4,"uv_index":8.2,"wind_gusts":29.2,"aqi":74,"pm10":34.9,"pm2_5":29.4,"mosquito_risk":3,"arthritis_risk":5,"migraine_risk":4,"frizz_risk":1,"updated_at":"2026-04-07T05:09:41.225593+05:30"},{"city":"Gaya","state":"Bihar","latitude":24.7914,"longitude":85.0002,"temp":21.0,"humidity":79,"rain":0.0,"pressure":995.0,"uv_index":8.3,"wind_gusts":25.2,"aqi":65,"pm10":20.4,"pm2_5":15.1,"mosquito_risk":3,"arthritis_risk":5,"migraine_risk":7,"frizz_risk":1,"updated_at":"2026-04-07T05:09:41.225600+05:30"},{"city":"Muzaffarpur","state":"Bihar","latitude":26.1209,"longitude":85.3647,"temp":21.4,"humidity":74,"rain":0.0,"pressure":1001.5,"uv_index":8.2,"wind_gusts":27.4,"aqi":86,"pm10":49.5,"pm2_5":44.5,"mosquito_risk":3,"arthritis_risk":5,"migraine_risk":4,"frizz_risk":1,"updated_at":"2026-04-07T05:09:41.225606+05:30"},{"city":"Bhagalpur","state":"Bihar","latitude":25.2425,"longitude":87.0117,"temp":22.5,"humidity":78,"rain":0.0,"pressure":1002.2,"uv_index":8.25,"wind_gusts":22.0,"aqi":71,"pm10":24.2,"pm2_5":18.9,"mosquito_risk":3,"arthritis_risk":5,"migraine_risk":4,"frizz_risk":1,"updated_at":"2026-04-07T05:09:41.225613+05:30"},{"city":"Ranchi","state":"Jharkhand","latitude":23.3441,"longitude":85.3096,"temp":18.6,"humidity":88,"rain":0.0,"pressure":938.0,"uv_index":8.9,"wind_gusts":31.0,"aqi":68,"pm10":31.5,"pm2_5":25.4,"mosquito_risk":3,"arthritis_risk":10,"migraine_risk":7,"frizz_risk":1,"updated_at":"2026-04-07T05:09:41.225620+05:30"},{"city":"Jamshedpur","state":"Jharkhand","latitude":22.8046,"longitude":86.2029,"temp":21.7,"humidity":93,"rain":0.0,"pressure":992.3,"uv_index":8.75,"wind_gusts":33.1,"aqi":103,"pm10":58.0,"pm2_5":52.3,"mosquito_risk":3,"arthritis_risk":5,"migraine_risk":7,"frizz_risk":1,"updated_at":"2026-04-07T05:09:41.225627+05:30"},{"city":"Dhanbad","state":"Jharkhand","latitude":23.7957,"longitude":86.4304,"temp":21.3,"humidity":84,"rain":0.0,"pressure":980.5,"uv_index":8.65,"wind_gusts":27.7,"aqi":119,"pm10":67.5,"pm2_5":60.3,"mosquito_risk":3,"arthritis_risk":5,"migraine_risk":7,"frizz_risk":1,"updated_at":"2026-04-07T05:09:41.225634+05:30"},{"city":"Bokaro","state":"Jharkhand","latitude":23.6693,"longitude":86.1511,"temp":21.1,"humidity":88,"rain":0.0,"pressure":985.0,"uv_index":8.7,"wind_gusts":26.6,"aqi":104,"pm10":62.6,"pm2_5":54.5,"mosquito_risk":3,"arthritis_risk":5,"migraine_risk":7,"frizz_risk":1,"updated_at":"2026-04-07T05:09:41.225641+05:30"},{"city":"Bhubaneswar","state":"Odisha","latitude":20.2961,"longitude":85.8245,"temp":24.2,"humidity":95,"rain":0.0,"pressure":1003.5,"uv_index":8.95,"wind_gusts":42.8,"aqi":78,"pm10":26.2,"pm2_5":23.4,"mosquito_risk":3,"arthritis_risk":5,"migraine_risk":4,"frizz_risk":1,"updated_at":"2026-04-07T05:09:41.225649+05:30"},{"city":"Cuttack","state":"Odisha","latitude":20.4625,"longitude":85.8828,"temp":23.3,"humidity":92,"rain":0.0,"pressure":1006.1,"uv_index":9.0,"wind_gusts":37.8,"aqi":78,"pm10":26.2,"pm2_5":23.4,"mosquito_risk":3,"arthritis_risk":5,"migraine_risk":4,"frizz_risk":1,"updated_at":"2026-04-07T05:09:41.225655+05:30"},{"city":"Rourkela","state":"Odisha","latitude":22.2604,"longitude":84.8536,"temp":20.6,"humidity":91,"rain":0.0,"pressure":986.7,"uv_index":8.7,"wind_gusts":25.2,"aqi":95,"pm10":34.5,"pm2_5":29.5,"mosquito_risk":3,"arthritis_risk":5,"migraine_risk":7,"frizz_risk":1,"updated_at":"2026-04-07T05:09:41.225662+05:30"},{"city":"Raipur","state":"Chhattisgarh","latitude":21.2514,"longitude":81.6296,"temp":24.5,"humidity":78,"rain":0.0,"pressure":975.0,"uv_index":8.8,"wind_gusts":25.9,"aqi":126,"pm10":71.2,"pm2_5":64.5,"mosquito_risk":3,"arthritis_risk":5,"migraine_risk":7,"frizz_risk":1,"updated_at":"2026-04-07T05:09:41.225668+05:30"},{"city":"Bhilai","state":"Chhattisgarh","latitude":21.1938,"longitude":81.3509,"temp":24.2,"humidity":80,"rain":0.0,"pressure":975.2,"uv_index":8.8,"wind_gusts":22.0,"aqi":126,"pm10":76.1,"pm2_5":70.8,"mosquito_risk":3,"arthritis_risk":5,"migraine_risk":7,"frizz_risk":1,"updated_at":"2026-04-07T05:09:41.225675+05:30"},{"city":"Guwahati","state":"Assam","latitude":26.1158,"longitude":91.7086,"temp":23.4,"humidity":85,"rain":0.0,"pressure":1002.9,"uv_index":8.15,"wind_gusts":41.8,"aqi":100,"pm10":56.0,"pm2_5":48.0,"mosquito_risk":3,"arthritis_risk":5,"migraine_risk":4,"frizz_risk":1,"updated_at":"2026-04-07T05:09:41.225682+05:30"},{"city":"Agartala","state":"Tripura","latitude":23.8315,"longitude":91.2868,"temp":22.2,"humidity":91,"rain":0.0,"pressure":1007.6,"uv_index":8.45,"wind_gusts":38.9,"aqi":161,"pm10":85.9,"pm2_5":81.7,"mosquito_risk":3,"arthritis_risk":5,"migraine_risk":4,"frizz_risk":1,"updated_at":"2026-04-07T05:09:41.225688+05:30"},{"city":"Shillong","state":"Meghalaya","latitude":25.5788,"longitude":91.8933,"temp":13.0,"humidity":88,"rain":0.1,"pressure":856.3,"uv_index":8.0,"wind_gusts":39.2,"aqi":93,"pm10":41.0,"pm2_5":35.2,"mosquito_risk":6,"arthritis_risk":10,"migraine_risk":7,"frizz_risk":0,"updated_at":"2026-04-07T05:09:41.225695+05:30"},{"city":"Imphal","state":"Manipur","latitude":24.817,"longitude":93.9368,"temp":18.1,"humidity":80,"rain":0.0,"pressure":923.8,"uv_index":5.1,"wind_gusts":43.9,"aqi":116,"pm10":59.6,"pm2_5":52.3,"mosquito_risk":3,"arthritis_risk":5,"migraine_risk":3,"frizz_risk":0,"updated_at":"2026-04-07T05:09:41.225702+05:30"},{"city":"Aizawl","state":"Mizoram","latitude":23.7271,"longitude":92.7176,"temp":17.8,"humidity":87,"rain":0.0,"pressure":892.6,"uv_index":7.4,"wind_gusts":43.9,"aqi":114,"pm10":38.6,"pm2_5":34.9,"mosquito_risk":3,"arthritis_risk":10,"migraine_risk":7,"frizz_risk":0,"updated_at":"2026-04-07T05:09:41.225709+05:30"},{"city":"Kohima","state":"Nagaland","latitude":25.6701,"longitude":94.1077,"temp":14.8,"humidity":84,"rain":0.0,"pressure":855.2,"uv_index":4.55,"wind_gusts":59.4,"aqi":86,"pm10":46.2,"pm2_5":37.7,"mosquito_risk":3,"arthritis_risk":10,"migraine_risk":3,"frizz_risk":0,"updated_at":"2026-04-07T05:09:41.225716+05:30"},{"city":"Gangtok","state":"Sikkim","latitude":27.3314,"longitude":88.6138,"temp":10.8,"humidity":58,"rain":0.0,"pressure":834.8,"uv_index":8.5,"wind_gusts":25.9,"aqi":67,"pm10":31.3,"pm2_5":23.2,"mosquito_risk":0,"arthritis_risk":5,"migraine_risk":7,"frizz_risk":0,"updated_at":"2026-04-07T05:09:41.225722+05:30"},{"city":"Siliguri","state":"West Bengal","latitude":26.7271,"longitude":88.3953,"temp":20.1,"humidity":55,"rain":0.0,"pressure":994.2,"uv_index":8.1,"wind_gusts":26.3,"aqi":92,"pm10":40.0,"pm2_5":34.5,"mosquito_risk":0,"arthritis_risk":5,"migraine_risk":7,"frizz_risk":0,"updated_at":"2026-04-07T05:09:44.450224+05:30"},{"city":"Durgapur","state":"West Bengal","latitude":23.5204,"longitude":87.3119,"temp":22.4,"humidity":92,"rain":0.0,"pressure":996.0,"uv_index":8.55,"wind_gusts":16.9,"aqi":123,"pm10":57.9,"pm2_5":52.0,"mosquito_risk":3,"arthritis_risk":5,"migraine_risk":7,"frizz_risk":1,"updated_at":"2026-04-07T05:09:44.450256+05:30"},{"city":"Asansol","state":"West Bengal","latitude":23.6739,"longitude":86.9524,"temp":23.6,"humidity":83,"rain":0.0,"pressure":994.5,"uv_index":8.4,"wind_gusts":15.8,"aqi":111,"pm10":53.4,"pm2_5":47.4,"mosquito_risk":3,"arthritis_risk":5,"migraine_risk":7,"frizz_risk":1,"updated_at":"2026-04-07T05:09:44.450265+05:30"},{"city":"Pondicherry","state":"Puducherry","latitude":11.9139,"longitude":79.8145,"temp":26.4,"humidity":92,"rain":0.0,"pressure":1009.1,"uv_index":8.9,"wind_gusts":28.1,"aqi":75,"pm10":34.8,"pm2_5":29.3,"mosquito_risk":7,"arthritis_risk":0,"migraine_risk":4,"frizz_risk":1,"updated_at":"2026-04-07T05:09:44.450273+05:30"},{"city":"Port Blair","state":"Andaman and Nicobar Islands","latitude":11.6234,"longitude":92.7265,"temp":28.3,"humidity":72,"rain":0.0,"pressure":1008.1,"uv_index":9.25,"wind_gusts":13.0,"aqi":25,"pm10":6.8,"pm2_5":4.4,"mosquito_risk":7,"arthritis_risk":0,"migraine_risk":4,"frizz_risk":1,"updated_at":"2026-04-07T05:09:44.450281+05:30"},{"city":"Haridwar","state":"Uttarakhand","latitude":29.9457,"longitude":78.1642,"temp":18.5,"humidity":70,"rain":0.0,"pressure":975.0,"uv_index":6.45,"wind_gusts":49.7,"aqi":60,"pm10":19.1,"pm2_5":14.5,"mosquito_risk":3,"arthritis_risk":5,"migraine_risk":7,"frizz_risk":0,"updated_at":"2026-04-07T05:09:44.450288+05:30"},{"city":"Rishikesh","state":"Uttarakhand","latitude":30.0869,"longitude":78.2676,"temp":18.3,"humidity":63,"rain":0.0,"pressure":967.8,"uv_index":6.6,"wind_gusts":34.2,"aqi":48,"pm10":19.1,"pm2_5":13.5,"mosquito_risk":3,"arthritis_risk":5,"migraine_risk":7,"frizz_risk":0,"updated_at":"2026-04-07T05:09:44.450296+05:30"},{"city":"Nainital","state":"Uttarakhand","latitude":29.3919,"longitude":79.4542,"temp":14.8,"humidity":56,"rain":0.0,"pressure":804.8,"uv_index":5.9,"wind_gusts":33.1,"aqi":53,"pm10":14.3,"pm2_5":10.8,"mosquito_risk":0,"arthritis_risk":5,"migraine_risk":3,"frizz_risk":0,"updated_at":"2026-04-07T05:09:44.450303+05:30"},{"city":"Mussoorie","state":"Uttarakhand","latitude":30.4599,"longitude":78.0664,"temp":12.4,"humidity":58,"rain":0.0,"pressure":800.6,"uv_index":5.4,"wind_gusts":45.4,"aqi":56,"pm10":17.5,"pm2_5":13.5,"mosquito_risk":0,"arthritis_risk":5,"migraine_risk":3,"frizz_risk":0,"updated_at":"2026-04-07T05:09:44.450309+05:30"},{"city":"Dharamshala","state":"Himachal Pradesh","latitude":32.219,"longitude":76.3234,"temp":16.0,"humidity":51,"rain":0.0,"pressure":866.7,"uv_index":7.0,"wind_gusts":50.0,"aqi":54,"pm10":5.4,"pm2_5":4.1,"mosquito_risk":0,"arthritis_risk":5,"migraine_risk":7,"frizz_risk":0,"updated_at":"2026-04-07T05:09:44.450315+05:30"},{"city":"Dalhousie","state":"Himachal Pradesh","latitude":32.5387,"longitude":75.971,"temp":12.2,"humidity":51,"rain":0.0,"pressure":800.2,"uv_index":5.35,"wind_gusts":40.0,"aqi":54,"pm10":13.1,"pm2_5":11.5,"mosquito_risk":0,"arthritis_risk":5,"migraine_risk":3,"frizz_risk":0,"updated_at":"2026-04-07T05:09:44.450323+05:30"},{"city":"Patiala","state":"Punjab","latitude":30.3398,"longitude":76.3869,"temp":18.9,"humidity":72,"rain":0.0,"pressure":978.1,"uv_index":6.45,"wind_gusts":48.2,"aqi":114,"pm10":110.4,"pm2_5":52.3,"mosquito_risk":3,"arthritis_risk":5,"migraine_risk":7,"frizz_risk":0,"updated_at":"2026-04-07T05:09:44.450330+05:30"},{"city":"Bhatinda","state":"Punjab","latitude":30.211,"longitude":74.9455,"temp":19.5,"humidity":72,"rain":0.0,"pressure":982.5,"uv_index":6.05,"wind_gusts":51.1,"aqi":76,"pm10":43.0,"pm2_5":15.9,"mosquito_risk":3,"arthritis_risk":5,"migraine_risk":7,"frizz_risk":0,"updated_at":"2026-04-07T05:09:44.450336+05:30"},{"city":"Rohtak","state":"Haryana","latitude":28.8955,"longitude":76.6066,"temp":19.5,"humidity":68,"rain":0.0,"pressure":981.3,"uv_index":5.05,"wind_gusts":42.1,"aqi":337,"pm10":468.5,"pm2_5":96.9,"mosquito_risk":3,"arthritis_risk":5,"migraine_risk":3,"frizz_risk":0,"updated_at":"2026-04-07T05:09:44.450343+05:30"},{"city":"Panipat","state":"Haryana","latitude":29.3909,"longitude":76.9635,"temp":17.9,"humidity":77,"rain":0.0,"pressure":980.4,"uv_index":6.1,"wind_gusts":41.4,"aqi":394,"pm10":467.5,"pm2_5":100.4,"mosquito_risk":3,"arthritis_risk":5,"migraine_risk":7,"frizz_risk":0,"updated_at":"2026-04-07T05:09:44.450350+05:30"},{"city":"Mathura","state":"Uttar Pradesh","latitude":27.4924,"longitude":77.6737,"temp":18.8,"humidity":80,"rain":0.0,"pressure":987.7,"uv_index":5.6,"wind_gusts":36.4,"aqi":277,"pm10":183.5,"pm2_5":38.1,"mosquito_risk":3,"arthritis_risk":5,"migraine_risk":3,"frizz_risk":0,"updated_at":"2026-04-07T05:09:44.450356+05:30"},{"city":"Vrindavan","state":"Uttar Pradesh","latitude":27.5823,"longitude":77.7027,"temp":19.2,"humidity":74,"rain":0.0,"pressure":988.1,"uv_index":5.75,"wind_gusts":35.6,"aqi":277,"pm10":183.5,"pm2_5":38.1,"mosquito_risk":3,"arthritis_risk":5,"migraine_risk":3,"frizz_risk":0,"updated_at":"2026-04-07T05:09:44.450362+05:30"},{"city":"Ayodhya","state":"Uttar Pradesh","latitude":26.7922,"longitude":82.1998,"temp":20.4,"humidity":64,"rain":0.0,"pressure":996.3,"uv_index":7.6,"wind_gusts":23.8,"aqi":80,"pm10":115.9,"pm2_5":37.1,"mosquito_risk":3,"arthritis_risk":5,"migraine_risk":7,"frizz_risk":0,"updated_at":"2026-04-07T05:09:44.450368+05:30"},{"city":"Ratlam","state":"Madhya Pradesh","latitude":23.3315,"longitude":75.0367,"temp":21.3,"humidity":76,"rain":0.0,"pressure":955.1,"uv_index":8.25,"wind_gusts":41.4,"aqi":63,"pm10":20.8,"pm2_5":15.0,"mosquito_risk":3,"arthritis_risk":5,"migraine_risk":7,"frizz_risk":1,"updated_at":"2026-04-07T05:09:44.450375+05:30"},{"city":"Sagar","state":"Madhya Pradesh","latitude":23.8388,"longitude":78.7378,"temp":21.8,"humidity":60,"rain":0.0,"pressure":950.1,"uv_index":8.35,"wind_gusts":32.8,"aqi":50,"pm10":48.3,"pm2_5":15.8,"mosquito_risk":0,"arthritis_risk":5,"migraine_risk":7,"frizz_risk":0,"updated_at":"2026-04-07T05:09:44.450381+05:30"},{"city":"Satna","state":"Madhya Pradesh","latitude":24.6005,"longitude":80.8322,"temp":22.6,"humidity":54,"rain":0.0,"pressure":972.0,"uv_index":8.3,"wind_gusts":19.8,"aqi":68,"pm10":57.5,"pm2_5":18.8,"mosquito_risk":0,"arthritis_risk":5,"migraine_risk":7,"frizz_risk":0,"updated_at":"2026-04-07T05:09:44.450388+05:30"},{"city":"Akola","state":"Maharashtra","latitude":20.7002,"longitude":77.0082,"temp":23.6,"humidity":64,"rain":0.0,"pressure":975.9,"uv_index":8.7,"wind_gusts":34.2,"aqi":57,"pm10":18.3,"pm2_5":15.9,"mosquito_risk":3,"arthritis_risk":5,"migraine_risk":7,"frizz_risk":1,"updated_at":"2026-04-07T05:09:44.450394+05:30"},{"city":"Amravati","state":"Maharashtra","latitude":20.9374,"longitude":77.7796,"temp":23.3,"humidity":60,"rain":0.0,"pressure":967.5,"uv_index":8.7,"wind_gusts":29.2,"aqi":55,"pm10":15.9,"pm2_5":13.8,"mosquito_risk":0,"arthritis_risk":5,"migraine_risk":7,"frizz_risk":0,"updated_at":"2026-04-07T05:09:44.450401+05:30"},{"city":"Latur","state":"Maharashtra","latitude":18.4088,"longitude":76.5604,"temp":21.0,"humidity":73,"rain":0.0,"pressure":939.9,"uv_index":9.0,"wind_gusts":26.6,"aqi":56,"pm10":21.4,"pm2_5":17.3,"mosquito_risk":3,"arthritis_risk":5,"migraine_risk":7,"frizz_risk":0,"updated_at":"2026-04-07T05:09:44.450407+05:30"},{"city":"Nanded","state":"Maharashtra","latitude":19.1383,"longitude":77.3091,"temp":22.1,"humidity":70,"rain":0.0,"pressure":969.2,"uv_index":8.85,"wind_gusts":24.8,"aqi":57,"pm10":24.1,"pm2_5":20.9,"mosquito_risk":3,"arthritis_risk":5,"migraine_risk":7,"frizz_risk":1,"updated_at":"2026-04-07T05:09:44.450414+05:30"},{"city":"Gulbarga","state":"Karnataka","latitude":17.3297,"longitude":76.8343,"temp":24.7,"humidity":54,"rain":0.0,"pressure":959.1,"uv_index":9.05,"wind_gusts":27.7,"aqi":43,"pm10":10.2,"pm2_5":9.8,"mosquito_risk":0,"arthritis_risk":5,"migraine_risk":7,"frizz_risk":0,"updated_at":"2026-04-07T05:09:44.450420+05:30"},{"city":"Bidar","state":"Karnataka","latitude":17.9104,"longitude":77.5199,"temp":23.6,"humidity":45,"rain":0.0,"pressure":935.6,"uv_index":9.05,"wind_gusts":31.0,"aqi":60,"pm10":25.4,"pm2_5":21.4,"mosquito_risk":0,"arthritis_risk":5,"migraine_risk":7,"frizz_risk":0,"updated_at":"2026-04-07T05:09:44.450427+05:30"},{"city":"Hospet","state":"Karnataka","latitude":15.2689,"longitude":76.3909,"temp":23.0,"humidity":72,"rain":0.0,"pressure":956.9,"uv_index":9.25,"wind_gusts":26.6,"aqi":39,"pm10":15.9,"pm2_5":11.5,"mosquito_risk":3,"arthritis_risk":5,"migraine_risk":7,"frizz_risk":1,"updated_at":"2026-04-07T05:09:44.450433+05:30"},{"city":"Tirupur","state":"Tamil Nadu","latitude":11.1085,"longitude":77.3411,"temp":25.3,"humidity":79,"rain":0.0,"pressure":975.9,"uv_index":9.5,"wind_gusts":45.4,"aqi":74,"pm10":26.8,"pm2_5":22.5,"mosquito_risk":7,"arthritis_risk":5,"migraine_risk":7,"frizz_risk":1,"updated_at":"2026-04-07T05:09:44.450439+05:30"},{"city":"Alappuzha","state":"Kerala","latitude":9.4981,"longitude":76.3388,"temp":29.0,"humidity":76,"rain":0.0,"pressure":1009.6,"uv_index":8.75,"wind_gusts":40.3,"aqi":71,"pm10":27.2,"pm2_5":18.0,"mosquito_risk":7,"arthritis_risk":0,"migraine_risk":4,"frizz_risk":1,"updated_at":"2026-04-07T05:09:44.450446+05:30"},{"city":"Munnar","state":"Kerala","latitude":10.0889,"longitude":77.0595,"temp":19.7,"humidity":94,"rain":0.0,"pressure":856.9,"uv_index":9.15,"wind_gusts":38.9,"aqi":65,"pm10":28.7,"pm2_5":21.9,"mosquito_risk":3,"arthritis_risk":10,"migraine_risk":7,"frizz_risk":1,"updated_at":"2026-04-07T05:09:44.450453+05:30"},{"city":"Silchar","state":"Assam","latitude":24.8333,"longitude":92.7789,"temp":23.0,"humidity":89,"rain":0.1,"pressure":1006.5,"uv_index":7.4,"wind_gusts":26.3,"aqi":156,"pm10":75.0,"pm2_5":63.6,"mosquito_risk":6,"arthritis_risk":5,"migraine_risk":4,"frizz_risk":1,"updated_at":"2026-04-07T05:09:44.450460+05:30"},{"city":"Dibrugarh","state":"Assam","latitude":27.4728,"longitude":94.912,"temp":21.6,"humidity":84,"rain":0.0,"pressure":997.4,"uv_index":5.65,"wind_gusts":29.5,"aqi":86,"pm10":28.2,"pm2_5":21.9,"mosquito_risk":3,"arthritis_risk":5,"migraine_risk":3,"frizz_risk":1,"updated_at":"2026-04-07T05:09:44.450466+05:30"}]