[{"city":"Delhi","state":"Delhi","latitude":28.6139,"longitude":77.209,"temp":34.2,"humidity":35,"rain":0.0,"pressure":978.8,"uv_index":7.6,"wind_gusts":46.4,"aqi":376,"pm10":551.3,"pm2_5":86.1,"no2":5.0,"co":377.0,"o3":230.0,"so2":23.6,"mosquito_risk":0,"arthritis_risk":5,"migraine_risk":7,"frizz_risk":1,"updated_at":"2026-05-03T14:18:36.692298+05:30"},{"city":"Mumbai","state":"Maharashtra","latitude":19.076,"longitude":72.8777,"temp":32.9,"humidity":59,"rain":0.0,"pressure":1006.2,"uv_index":7.85,"wind_gusts":39.6,"aqi":72,"pm10":51.1,"pm2_5":26.3,"no2":4.6,"co":207.0,"o3":127.0,"so2":22.8,"mosquito_risk":0,"arthritis_risk":5,"migraine_risk":4,"frizz_risk":1,"updated_at":"2026-05-03T14:18:36.692349+05:30"},{"city":"Bangalore","state":"Karnataka","latitude":12.9716,"longitude":77.5946,"temp":34.0,"humidity":26,"rain":0.0,"pressure":910.9,"uv_index":7.5,"wind_gusts":29.2,"aqi":73,"pm10":41.8,"pm2_5":16.5,"no2":2.2,"co":252.0,"o3":145.0,"so2":4.5,"mosquito_risk":0,"arthritis_risk":5,"migraine_risk":7,"frizz_risk":0,"updated_at":"2026-05-03T14:18:36.692370+05:30"},{"city":"Hyderabad","state":"Telangana","latitude":17.385,"longitude":78.4867,"temp":39.2,"humidity":16,"rain":0.0,"pressure":950.1,"uv_index":9.25,"wind_gusts":33.8,"aqi":66,"pm10":43.0,"pm2_5":15.8,"no2":1.7,"co":210.0,"o3":147.0,"so2":6.5,"mosquito_risk":0,"arthritis_risk":5,"migraine_risk":10,"frizz_risk":0,"updated_at":"2026-05-03T14:18:36.692382+05:30"},{"city":"Chennai","state":"Tamil Nadu","latitude":13.0827,"longitude":80.2707,"temp":36.5,"humidity":46,"rain":0.0,"pressure":1002.1,"uv_index":8.6,"wind_gusts":52.2,"aqi":63,"pm10":32.5,"pm2_5":23.3,"no2":2.3,"co":271.0,"o3":158.0,"so2":6.5,"mosquito_risk":0,"arthritis_risk":5,"migraine_risk":7,"frizz_risk":1,"updated_at":"2026-05-03T14:18:36.692391+05:30"},{"city":"Kolkata","state":"West Bengal","latitude":22.5726,"longitude":88.3639,"temp":32.1,"humidity":63,"rain":0.0,"pressure":1002.4,"uv_index":8.95,"wind_gusts":41.8,"aqi":75,"pm10":26.3,"pm2_5":21.5,"no2":3.2,"co":332.0,"o3":149.0,"so2":8.4,"mosquito_risk":3,"arthritis_risk":5,"migraine_risk":4,"frizz_risk":1,"updated_at":"2026-05-03T14:18:36.692400+05:30"},{"city":"Pune","state":"Maharashtra","latitude":18.5204,"longitude":73.8567,"temp":37.2,"humidity":19,"rain":0.0,"pressure":946.7,"uv_index":8.5,"wind_gusts":48.6,"aqi":63,"pm10":65.4,"pm2_5":17.0,"no2":1.2,"co":162.0,"o3":123.0,"so2":3.2,"mosquito_risk":0,"arthritis_risk":5,"migraine_risk":10,"frizz_risk":0,"updated_at":"2026-05-03T14:18:36.692408+05:30"},{"city":"Ahmedabad","state":"Gujarat","latitude":23.0225,"longitude":72.5714,"temp":41.0,"humidity":17,"rain":0.0,"pressure":995.7,"uv_index":8.1,"wind_gusts":46.8,"aqi":62,"pm10":34.5,"pm2_5":12.1,"no2":1.4,"co":172.0,"o3":133.0,"so2":4.4,"mosquito_risk":0,"arthritis_risk":5,"migraine_risk":10,"frizz_risk":0,"updated_at":"2026-05-03T14:18:36.692436+05:30"},{"city":"Jaipur","state":"Rajasthan","latitude":26.9124,"longitude":75.7873,"temp":39.2,"humidity":15,"rain":0.0,"pressure":954.4,"uv_index":8.15,"wind_gusts":42.5,"aqi":111,"pm10":249.6,"pm2_5":39.0,"no2":0.9,"co":161.0,"o3":141.0,"so2":4.5,"mosquito_risk":0,"arthritis_risk":5,"migraine_risk":10,"frizz_risk":0,"updated_at":"2026-05-03T14:18:36.692451+05:30"},{"city":"Lucknow","state":"Uttar Pradesh","latitude":26.8467,"longitude":80.9462,"temp":35.3,"humidity":39,"rain":0.0,"pressure":989.5,"uv_index":8.1,"wind_gusts":54.4,"aqi":119,"pm10":65.7,"pm2_5":36.4,"no2":1.4,"co":334.0,"o3":201.0,"so2":10.9,"mosquito_risk":0,"arthritis_risk":5,"migraine_risk":10,"frizz_risk":1,"updated_at":"2026-05-03T14:18:36.692467+05:30"},{"city":"Kanpur","state":"Uttar Pradesh","latitude":26.4499,"longitude":80.3319,"temp":37.6,"humidity":28,"rain":0.0,"pressure":987.1,"uv_index":8.1,"wind_gusts":84.2,"aqi":136,"pm10":234.7,"pm2_5":48.5,"no2":1.4,"co":337.0,"o3":206.0,"so2":12.1,"mosquito_risk":0,"arthritis_risk":5,"migraine_risk":10,"frizz_risk":1,"updated_at":"2026-05-03T14:18:36.692482+05:30"},{"city":"Chandigarh","state":"Chandigarh","latitude":30.7333,"longitude":76.7794,"temp":32.8,"humidity":35,"rain":0.0,"pressure":964.5,"uv_index":7.6,"wind_gusts":62.3,"aqi":138,"pm10":112.9,"pm2_5":30.3,"no2":1.6,"co":287.0,"o3":186.0,"so2":10.0,"mosquito_risk":0,"arthritis_risk":5,"migraine_risk":7,"frizz_risk":0,"updated_at":"2026-05-03T14:18:36.692491+05:30"},{"city":"Srinagar","state":"Jammu and Kashmir","latitude":34.0837,"longitude":74.7973,"temp":18.6,"humidity":66,"rain":0.0,"pressure":839.9,"uv_index":8.75,"wind_gusts":46.1,"aqi":73,"pm10":37.8,"pm2_5":12.6,"no2":1.8,"co":213.0,"o3":143.0,"so2":1.8,"mosquito_risk":3,"arthritis_risk":5,"migraine_risk":7,"frizz_risk":0,"updated_at":"2026-05-03T14:18:36.692499+05:30"},{"city":"Jammu","state":"Jammu and Kashmir","latitude":32.7266,"longitude":74.857,"temp":34.7,"humidity":21,"rain":0.0,"pressure":968.8,"uv_index":8.15,"wind_gusts":29.2,"aqi":61,"pm10":41.0,"pm2_5":14.6,"no2":1.0,"co":332.0,"o3":162.0,"so2":2.9,"mosquito_risk":0,"arthritis_risk":5,"migraine_risk":7,"frizz_risk":0,"updated_at":"2026-05-03T14:18:36.692506+05:30"},{"city":"Amritsar","state":"Punjab","latitude":31.634,"longitude":74.8723,"temp":36.7,"humidity":23,"rain":0.0,"pressure":975.7,"uv_index":8.2,"wind_gusts":50.4,"aqi":92,"pm10":120.1,"pm2_5":29.9,"no2":1.0,"co":292.0,"o3":169.0,"so2":8.6,"mosquito_risk":0,"arthritis_risk":5,"migraine_risk":10,"frizz_risk":0,"updated_at":"2026-05-03T14:18:36.692514+05:30"},{"city":"Ludhiana","state":"Punjab","latitude":30.901,"longitude":75.8573,"temp":35.7,"humidity":28,"rain":0.0,"pressure":973.5,"uv_index":7.85,"wind_gusts":50.0,"aqi":142,"pm10":504.8,"pm2_5":74.7,"no2":1.2,"co":306.0,"o3":195.0,"so2":11.7,"mosquito_risk":0,"arthritis_risk":5,"migraine_risk":10,"frizz_risk":0,"updated_at":"2026-05-03T14:18:36.692521+05:30"},{"city":"Jalandhar","state":"Punjab","latitude":31.326,"longitude":75.5762,"temp":35.7,"humidity":28,"rain":0.0,"pressure":974.6,"uv_index":8.05,"wind_gusts":53.3,"aqi":114,"pm10":287.8,"pm2_5":58.8,"no2":1.2,"co":283.0,"o3":194.0,"so2":12.5,"mosquito_risk":0,"arthritis_risk":5,"migraine_risk":10,"frizz_risk":0,"updated_at":"2026-05-03T14:18:36.692529+05:30"},{"city":"Dehradun","state":"Uttarakhand","latitude":30.6284,"longitude":78.0322,"temp":23.4,"humidity":39,"rain":0.0,"pressure":830.1,"uv_index":7.75,"wind_gusts":43.2,"aqi":81,"pm10":77.5,"pm2_5":21.2,"no2":0.5,"co":226.0,"o3":163.0,"so2":6.0,"mosquito_risk":0,"arthritis_risk":5,"migraine_risk":7,"frizz_risk":0,"updated_at":"2026-05-03T14:18:36.692539+05:30"},{"city":"Shimla","state":"Himachal Pradesh","latitude":31.1048,"longitude":77.1734,"temp":21.7,"humidity":24,"rain":0.0,"pressure":785.1,"uv_index":8.0,"wind_gusts":43.6,"aqi":87,"pm10":51.3,"pm2_5":16.1,"no2":0.9,"co":186.0,"o3":162.0,"so2":4.2,"mosquito_risk":0,"arthritis_risk":5,"migraine_risk":7,"frizz_risk":0,"updated_at":"2026-05-03T14:18:36.692547+05:30"},{"city":"Manali","state":"Himachal Pradesh","latitude":32.2396,"longitude":77.1887,"temp":19.1,"humidity":45,"rain":0.0,"pressure":816.8,"uv_index":9.7,"wind_gusts":40.7,"aqi":124,"pm10":21.5,"pm2_5":7.7,"no2":0.2,"co":140.0,"o3":169.0,"so2":0.4,"mosquito_risk":0,"arthritis_risk":5,"migraine_risk":7,"frizz_risk":0,"updated_at":"2026-05-03T14:18:36.692556+05:30"},{"city":"Gurgaon","state":"Haryana","latitude":28.4595,"longitude":77.0266,"temp":30.7,"humidity":45,"rain":0.0,"pressure":977.4,"uv_index":7.7,"wind_gusts":33.5,"aqi":1070,"pm10":1192.1,"pm2_5":136.4,"no2":3.1,"co":336.0,"o3":196.0,"so2":14.1,"mosquito_risk":0,"arthritis_risk":5,"migraine_risk":7,"frizz_risk":1,"updated_at":"2026-05-03T14:18:36.692563+05:30"},{"city":"Noida","state":"Uttar Pradesh","latitude":28.5355,"longitude":77.391,"temp":31.9,"humidity":49,"rain":0.0,"pressure":980.7,"uv_index":7.6,"wind_gusts":35.6,"aqi":1070,"pm10":1192.1,"pm2_5":136.4,"no2":3.1,"co":343.0,"o3":196.0,"so2":14.1,"mosquito_risk":0,"arthritis_risk":5,"migraine_risk":7,"frizz_risk":1,"updated_at":"2026-05-03T14:18:36.692572+05:30"},{"city":"Ghaziabad","state":"Uttar Pradesh","latitude":28.6692,"longitude":77.4538,"temp":31.4,"humidity":52,"rain":0.0,"pressure":979.1,"uv_index":7.6,"wind_gusts":41.4,"aqi":231,"pm10":436.8,"pm2_5":66.1,"no2":2.4,"co":314.0,"o3":199.0,"so2":9.9,"mosquito_risk":0,"arthritis_risk":5,"migraine_risk":7,"frizz_risk":1,"updated_at":"2026-05-03T14:18:36.692586+05:30"},{"city":"Faridabad","state":"Haryana","latitude":28.4089,"longitude":77.3178,"temp":31.7,"humidity":48,"rain":0.0,"pressure":979.9,"uv_index":7.65,"wind_gusts":44.6,"aqi":1070,"pm10":1192.1,"pm2_5":136.4,"no2":3.1,"co":321.0,"o3":196.0,"so2":14.1,"mosquito_risk":0,"arthritis_risk":5,"migraine_risk":7,"frizz_risk":1,"updated_at":"2026-05-03T14:18:36.692600+05:30"},{"city":"Meerut","state":"Uttar Pradesh","latitude":28.9845,"longitude":77.7064,"temp":30.6,"humidity":57,"rain":0.0,"pressure":978.1,"uv_index":7.5,"wind_gusts":49.3,"aqi":231,"pm10":436.8,"pm2_5":66.1,"no2":2.4,"co":317.0,"o3":199.0,"so2":9.9,"mosquito_risk":0,"arthritis_risk":5,"migraine_risk":7,"frizz_risk":1,"updated_at":"2026-05-03T14:18:36.692610+05:30"},{"city":"Agra","state":"Uttar Pradesh","latitude":27.1767,"longitude":78.0081,"temp":39.2,"humidity":22,"rain":0.0,"pressure":982.1,"uv_index":7.95,"wind_gusts":61.9,"aqi":674,"pm10":474.0,"pm2_5":57.6,"no2":1.2,"co":233.0,"o3":167.0,"so2":8.5,"mosquito_risk":0,"arthritis_risk":5,"migraine_risk":10,"frizz_risk":0,"updated_at":"2026-05-03T14:18:36.692618+05:30"},{"city":"Varanasi","state":"Uttar Pradesh","latitude":25.3176,"longitude":82.9739,"temp":36.3,"humidity":35,"rain":0.0,"pressure":993.5,"uv_index":8.65,"wind_gusts":49.0,"aqi":128,"pm10":87.5,"pm2_5":41.0,"no2":1.7,"co":381.0,"o3":206.0,"so2":15.4,"mosquito_risk":0,"arthritis_risk":5,"migraine_risk":10,"frizz_risk":1,"updated_at":"2026-05-03T14:18:36.692625+05:30"},{"city":"Prayagraj","state":"Uttar Pradesh","latitude":25.4358,"longitude":81.8463,"temp":37.0,"humidity":32,"rain":0.0,"pressure":991.5,"uv_index":8.5,"wind_gusts":65.2,"aqi":130,"pm10":72.2,"pm2_5":38.3,"no2":1.8,"co":332.0,"o3":214.0,"so2":12.7,"mosquito_risk":0,"arthritis_risk":5,"migraine_risk":10,"frizz_risk":1,"updated_at":"2026-05-03T14:18:36.692635+05:30"},{"city":"Gorakhpur","state":"Uttar Pradesh","latitude":26.7606,"longitude":83.3732,"temp":32.5,"humidity":46,"rain":0.0,"pressure":994.6,"uv_index":7.95,"wind_gusts":37.8,"aqi":113,"pm10":89.6,"pm2_5":34.3,"no2":1.4,"co":309.0,"o3":180.0,"so2":4.7,"mosquito_risk":0,"arthritis_risk":5,"migraine_risk":7,"frizz_risk":1,"updated_at":"2026-05-03T14:18:36.692642+05:30"},{"city":"Bareilly","state":"Uttar Pradesh","latitude":28.367,"longitude":79.4304,"temp":34.5,"humidity":39,"rain":0.0,"pressure":983.4,"uv_index":7.9,"wind_gusts":51.1,"aqi":129,"pm10":239.3,"pm2_5":50.9,"no2":1.5,"co":350.0,"o3":201.0,"so2":12.6,"mosquito_risk":0,"arthritis_risk":5,"migraine_risk":7,"frizz_risk":1,"updated_at":"2026-05-03T14:18:36.692649+05:30"},{"city":"Aligarh","state":"Uttar Pradesh","latitude":27.8974,"longitude":78.088,"temp":36.3,"humidity":29,"rain":0.0,"pressure":981.5,"uv_index":7.75,"wind_gusts":50.8,"aqi":564,"pm10":877.3,"pm2_5":104.1,"no2":1.8,"co":315.0,"o3":190.0,"so2":14.3,"mosquito_risk":0,"arthritis_risk":5,"migraine_risk":10,"frizz_risk":0,"updated_at":"2026-05-03T14:18:36.692656+05:30"},{"city":"Moradabad","state":"Uttar Pradesh","latitude":28.8386,"longitude":78.7733,"temp":30.0,"humidity":52,"rain":0.0,"pressure":980.8,"uv_index":7.75,"wind_gusts":46.8,"aqi":129,"pm10":96.4,"pm2_5":38.0,"no2":1.8,"co":326.0,"o3":210.0,"so2":14.8,"mosquito_risk":4,"arthritis_risk":5,"migraine_risk":7,"frizz_risk":1,"updated_at":"2026-05-03T14:18:36.692663+05:30"},{"city":"Saharanpur","state":"Uttar Pradesh","latitude":29.9637,"longitude":77.546,"temp":30.8,"humidity":51,"rain":0.0,"pressure":971.9,"uv_index":7.05,"wind_gusts":46.8,"aqi":138,"pm10":227.2,"pm2_5":50.1,"no2":1.2,"co":309.0,"o3":192.0,"so2":15.0,"mosquito_risk":0,"arthritis_risk":5,"migraine_risk":7,"frizz_risk":1,"updated_at":"2026-05-03T14:18:36.692670+05:30"},{"city":"Jhansi","state":"Uttar Pradesh","latitude":25.4484,"longitude":78.5685,"temp":39.0,"humidity":21,"rain":0.0,"pressure":972.7,"uv_index":8.4,"wind_gusts":37.1,"aqi":76,"pm10":96.4,"pm2_5":25.6,"no2":1.1,"co":164.0,"o3":143.0,"so2":14.3,"mosquito_risk":0,"arthritis_risk":5,"migraine_risk":10,"frizz_risk":0,"updated_at":"2026-05-03T14:18:39.929859+05:30"},{"city":"Surat","state":"Gujarat","latitude":21.1702,"longitude":72.8311,"temp":34.3,"humidity":52,"rain":0.0,"pressure":1003.2,"uv_index":7.7,"wind_gusts":56.5,"aqi":64,"pm10":34.1,"pm2_5":17.8,"no2":9.3,"co":234.0,"o3":82.0,"so2":28.9,"mosquito_risk":0,"arthritis_risk":5,"migraine_risk":4,"frizz_risk":1,"updated_at":"2026-05-03T14:18:39.929888+05:30"},{"city":"Vadodara","state":"Gujarat","latitude":22.3072,"longitude":73.1812,"temp":38.9,"humidity":28,"rain":0.0,"pressure":999.1,"uv_index":8.05,"wind_gusts":52.9,"aqi":58,"pm10":27.4,"pm2_5":12.7,"no2":1.4,"co":159.0,"o3":130.0,"so2":5.5,"mosquito_risk":0,"arthritis_risk":5,"migraine_risk":10,"frizz_risk":1,"updated_at":"2026-05-03T14:18:39.929898+05:30"},{"city":"Rajkot","state":"Gujarat","latitude":22.3039,"longitude":70.8022,"temp":40.3,"humidity":22,"rain":0.0,"pressure":988.6,"uv_index":7.7,"wind_gusts":50.8,"aqi":53,"pm10":35.7,"pm2_5":11.5,"no2":0.9,"co":145.0,"o3":119.0,"so2":4.8,"mosquito_risk":0,"arthritis_risk":5,"migraine_risk":10,"frizz_risk":0,"updated_at":"2026-05-03T14:18:39.929906+05:30"},{"city":"Thane","state":"Maharashtra","latitude":19.2183,"longitude":72.9781,"temp":36.5,"humidity":39,"rain":0.0,"pressure":1005.0,"uv_index":7.9,"wind_gusts":39.2,"aqi":72,"pm10":51.1,"pm2_5":26.3,"no2":4.6,"co":215.0,"o3":127.0,"so2":22.8,"mosquito_risk":0,"arthritis_risk":5,"migraine_risk":7,"frizz_risk":1,"updated_at":"2026-05-03T14:18:39.929914+05:30"},{"city":"Nagpur","state":"Maharashtra","latitude":21.1458,"longitude":79.0882,"temp":40.7,"humidity":13,"rain":0.0,"pressure":968.7,"uv_index":8.9,"wind_gusts":39.2,"aqi":74,"pm10":67.1,"pm2_5":24.7,"no2":5.4,"co":158.0,"o3":171.0,"so2":27.5,"mosquito_risk":0,"arthritis_risk":5,"migraine_risk":10,"frizz_risk":0,"updated_at":"2026-05-03T14:18:39.929922+05:30"},{"city":"Nashik","state":"Maharashtra","latitude":19.9975,"longitude":73.7898,"temp":36.2,"humidity":22,"rain":0.0,"pressure":943.8,"uv_index":8.15,"wind_gusts":49.3,"aqi":65,"pm10":55.9,"pm2_5":17.8,"no2":0.9,"co":156.0,"o3":121.0,"so2":4.2,"mosquito_risk":0,"arthritis_risk":5,"migraine_risk":10,"frizz_risk":0,"updated_at":"2026-05-03T14:18:39.929929+05:30"},{"city":"Aurangabad","state":"Maharashtra","latitude":19.8762,"longitude":75.3433,"temp":39.2,"humidity":13,"rain":0.0,"pressure":941.4,"uv_index":9.05,"wind_gusts":50.0,"aqi":56,"pm10":61.2,"pm2_5":13.7,"no2":0.7,"co":151.0,"o3":124.0,"so2":2.0,"mosquito_risk":0,"arthritis_risk":5,"migraine_risk":10,"frizz_risk":0,"updated_at":"2026-05-03T14:18:39.929936+05:30"},{"city":"Solapur","state":"Maharashtra","latitude":17.6599,"longitude":75.9064,"temp":40.8,"humidity":12,"rain":0.0,"pressure":953.8,"uv_index":9.1,"wind_gusts":41.4,"aqi":56,"pm10":74.5,"pm2_5":17.1,"no2":0.9,"co":150.0,"o3":119.0,"so2":2.3,"mosquito_risk":0,"arthritis_risk":5,"migraine_risk":10,"frizz_risk":0,"updated_at":"2026-05-03T14:18:39.929944+05:30"},{"city":"Kolhapur","state":"Maharashtra","latitude":16.705,"longitude":74.2433,"temp":37.5,"humidity":19,"rain":0.0,"pressure":946.2,"uv_index":8.95,"wind_gusts":47.9,"aqi":63,"pm10":50.1,"pm2_5":16.8,"no2":1.4,"co":153.0,"o3":113.0,"so2":1.5,"mosquito_risk":0,"arthritis_risk":5,"migraine_risk":10,"frizz_risk":0,"updated_at":"2026-05-03T14:18:39.929951+05:30"},{"city":"Goa","state":"Goa","latitude":15.2993,"longitude":74.124,"temp":35.5,"humidity":47,"rain":0.0,"pressure":996.1,"uv_index":8.9,"wind_gusts":37.8,"aqi":69,"pm10":53.9,"pm2_5":16.9,"no2":0.6,"co":154.0,"o3":85.0,"so2":1.1,"mosquito_risk":0,"arthritis_risk":5,"migraine_risk":10,"frizz_risk":1,"updated_at":"2026-05-03T14:18:39.929959+05:30"},{"city":"Jodhpur","state":"Rajasthan","latitude":26.2389,"longitude":73.0243,"temp":39.8,"humidity":22,"rain":0.0,"pressure":976.2,"uv_index":8.3,"wind_gusts":57.2,"aqi":136,"pm10":271.9,"pm2_5":38.1,"no2":0.8,"co":166.0,"o3":136.0,"so2":4.8,"mosquito_risk":0,"arthritis_risk":5,"migraine_risk":10,"frizz_risk":0,"updated_at":"2026-05-03T14:18:39.929966+05:30"},{"city":"Udaipur","state":"Rajasthan","latitude":24.5854,"longitude":73.7125,"temp":36.8,"humidity":22,"rain":0.0,"pressure":942.1,"uv_index":8.8,"wind_gusts":39.2,"aqi":62,"pm10":39.2,"pm2_5":12.7,"no2":0.6,"co":150.0,"o3":125.0,"so2":3.4,"mosquito_risk":0,"arthritis_risk":5,"migraine_risk":10,"frizz_risk":0,"updated_at":"2026-05-03T14:18:39.929973+05:30"},{"city":"Kota","state":"Rajasthan","latitude":25.2138,"longitude":75.8648,"temp":40.7,"humidity":15,"rain":0.0,"pressure":972.7,"uv_index":8.35,"wind_gusts":52.2,"aqi":73,"pm10":85.7,"pm2_5":24.1,"no2":1.0,"co":159.0,"o3":144.0,"so2":5.0,"mosquito_risk":0,"arthritis_risk":5,"migraine_risk":10,"frizz_risk":0,"updated_at":"2026-05-03T14:18:39.929980+05:30"},{"city":"Bikaner","state":"Rajasthan","latitude":28.0229,"longitude":73.3119,"temp":42.5,"humidity":8,"rain":0.0,"pressure":974.0,"uv_index":8.25,"wind_gusts":46.4,"aqi":71,"pm10":132.2,"pm2_5":21.8,"no2":0.4,"co":176.0,"o3":140.0,"so2":7.5,"mosquito_risk":0,"arthritis_risk":5,"migraine_risk":10,"frizz_risk":0,"updated_at":"2026-05-03T14:18:39.929987+05:30"},{"city":"Ajmer","state":"Rajasthan","latitude":26.4499,"longitude":74.6399,"temp":39.3,"humidity":13,"rain":0.0,"pressure":949.2,"uv_index":8.3,"wind_gusts":55.4,"aqi":71,"pm10":72.4,"pm2_5":20.8,"no2":0.6,"co":155.0,"o3":132.0,"so2":4.1,"mosquito_risk":0,"arthritis_risk":5,"migraine_risk":10,"frizz_risk":0,"updated_at":"2026-05-03T14:18:39.929995+05:30"},{"city":"Gwalior","state":"Madhya Pradesh","latitude":26.2183,"longitude":78.1828,"temp":39.4,"humidity":19,"rain":0.0,"pressure":977.5,"uv_index":8.15,"wind_gusts":37.1,"aqi":89,"pm10":81.5,"pm2_5":19.9,"no2":0.4,"co":175.0,"o3":130.0,"so2":3.7,"mosquito_risk":0,"arthritis_risk":5,"migraine_risk":10,"frizz_risk":0,"updated_at":"2026-05-03T14:18:39.930002+05:30"},{"city":"Indore","state":"Madhya Pradesh","latitude":22.7196,"longitude":75.8577,"temp":39.0,"humidity":13,"rain":0.0,"pressure":944.3,"uv_index":8.7,"wind_gusts":44.3,"aqi":56,"pm10":66.1,"pm2_5":14.5,"no2":0.9,"co":162.0,"o3":124.0,"so2":3.7,"mosquito_risk":0,"arthritis_risk":5,"migraine_risk":10,"frizz_risk":0,"updated_at":"2026-05-03T14:18:39.930009+05:30"},{"city":"Bhopal","state":"Madhya Pradesh","latitude":23.2599,"longitude":77.4126,"temp":39.7,"humidity":15,"rain":0.0,"pressure":949.3,"uv_index":8.7,"wind_gusts":34.6,"aqi":68,"pm10":106.6,"pm2_5":21.2,"no2":0.7,"co":161.0,"o3":125.0,"so2":4.0,"mosquito_risk":0,"arthritis_risk":5,"migraine_risk":10,"frizz_risk":0,"updated_at":"2026-05-03T14:18:39.930016+05:30"},{"city":"Jabalpur","state":"Madhya Pradesh","latitude":23.1815,"longitude":79.9864,"temp":39.4,"humidity":16,"rain":0.0,"pressure":957.2,"uv_index":8.85,"wind_gusts":28.4,"aqi":68,"pm10":89.2,"pm2_5":21.7,"no2":0.7,"co":164.0,"o3":136.0,"so2":4.7,"mosquito_risk":0,"arthritis_risk":5,"migraine_risk":10,"frizz_risk":0,"updated_at":"2026-05-03T14:18:39.930023+05:30"},{"city":"Ujjain","state":"Madhya Pradesh","latitude":23.1765,"longitude":75.7885,"temp":39.4,"humidity":13,"rain":0.0,"pressure":949.5,"uv_index":8.6,"wind_gusts":41.4,"aqi":55,"pm10":57.7,"pm2_5":14.1,"no2":0.6,"co":148.0,"o3":124.0,"so2":4.2,"mosquito_risk":0,"arthritis_risk":5,"migraine_risk":10,"frizz_risk":0,"updated_at":"2026-05-03T14:18:39.930030+05:30"},{"city":"Visakhapatnam","state":"Andhra Pradesh","latitude":17.6868,"longitude":83.2185,"temp":34.1,"humidity":63,"rain":0.0,"pressure":999.2,"uv_index":9.15,"wind_gusts":47.5,"aqi":62,"pm10":27.3,"pm2_5":21.6,"no2":5.1,"co":292.0,"o3":109.0,"so2":8.5,"mosquito_risk":3,"arthritis_risk":5,"migraine_risk":7,"frizz_risk":1,"updated_at":"2026-05-03T14:18:39.930037+05:30"},{"city":"Vijayawada","state":"Andhra Pradesh","latitude":16.5062,"longitude":80.648,"temp":40.7,"humidity":33,"rain":0.0,"pressure":996.3,"uv_index":9.15,"wind_gusts":33.5,"aqi":74,"pm10":41.7,"pm2_5":30.6,"no2":1.8,"co":282.0,"o3":183.0,"so2":8.6,"mosquito_risk":0,"arthritis_risk":5,"migraine_risk":10,"frizz_risk":1,"updated_at":"2026-05-03T14:18:39.930044+05:30"},{"city":"Guntur","state":"Andhra Pradesh","latitude":16.3067,"longitude":80.4365,"temp":42.7,"humidity":19,"rain":0.0,"pressure":997.4,"uv_index":9.2,"wind_gusts":38.2,"aqi":85,"pm10":41.4,"pm2_5":28.5,"no2":1.6,"co":230.0,"o3":181.0,"so2":6.5,"mosquito_risk":0,"arthritis_risk":5,"migraine_risk":10,"frizz_risk":0,"updated_at":"2026-05-03T14:18:39.930051+05:30"},{"city":"Nellore","state":"Andhra Pradesh","latitude":14.4426,"longitude":79.9865,"temp":42.0,"humidity":23,"rain":0.0,"pressure":999.6,"uv_index":9.2,"wind_gusts":43.6,"aqi":86,"pm10":40.3,"pm2_5":21.3,"no2":2.0,"co":243.0,"o3":183.0,"so2":6.4,"mosquito_risk":0,"arthritis_risk":5,"migraine_risk":10,"frizz_risk":1,"updated_at":"2026-05-03T14:18:39.930059+05:30"},{"city":"Kurnool","state":"Andhra Pradesh","latitude":15.8281,"longitude":78.0373,"temp":41.9,"humidity":16,"rain":0.0,"pressure":972.5,"uv_index":9.15,"wind_gusts":41.4,"aqi":62,"pm10":38.8,"pm2_5":18.2,"no2":1.4,"co":172.0,"o3":158.0,"so2":8.6,"mosquito_risk":0,"arthritis_risk":5,"migraine_risk":10,"frizz_risk":0,"updated_at":"2026-05-03T14:18:39.930067+05:30"},{"city":"Kakinada","state":"Andhra Pradesh","latitude":16.9891,"longitude":82.2475,"temp":37.0,"humidity":50,"rain":0.0,"pressure":1001.7,"uv_index":9.15,"wind_gusts":39.6,"aqi":57,"pm10":26.9,"pm2_5":19.8,"no2":1.1,"co":223.0,"o3":108.0,"so2":2.7,"mosquito_risk":0,"arthritis_risk":5,"migraine_risk":7,"frizz_risk":1,"updated_at":"2026-05-03T14:18:39.930074+05:30"},{"city":"Tirupati","state":"Andhra Pradesh","latitude":13.6288,"longitude":79.4192,"temp":41.6,"humidity":19,"rain":0.0,"pressure":986.0,"uv_index":7.2,"wind_gusts":52.2,"aqi":86,"pm10":35.4,"pm2_5":16.4,"no2":1.3,"co":176.0,"o3":163.0,"so2":3.0,"mosquito_risk":0,"arthritis_risk":5,"migraine_risk":10,"frizz_risk":0,"updated_at":"2026-05-03T14:18:39.930081+05:30"},{"city":"Warangal","state":"Telangana","latitude":17.9689,"longitude":79.5941,"temp":40.3,"humidity":23,"rain":0.0,"pressure":974.4,"uv_index":9.15,"wind_gusts":38.9,"aqi":88,"pm10":41.4,"pm2_5":22.6,"no2":1.6,"co":233.0,"o3":172.0,"so2":8.9,"mosquito_risk":0,"arthritis_risk":5,"migraine_risk":10,"frizz_risk":0,"updated_at":"2026-05-03T14:18:39.930088+05:30"},{"city":"Nizamabad","state":"Telangana","latitude":18.6725,"longitude":78.0941,"temp":39.8,"humidity":15,"rain":0.0,"pressure":961.1,"uv_index":9.1,"wind_gusts":43.6,"aqi":70,"pm10":44.6,"pm2_5":14.9,"no2":0.9,"co":172.0,"o3":122.0,"so2":3.1,"mosquito_risk":0,"arthritis_risk":5,"migraine_risk":10,"frizz_risk":0,"updated_at":"2026-05-03T14:18:39.930095+05:30"},{"city":"Mysore","state":"Karnataka","latitude":12.2958,"longitude":76.6396,"temp":34.6,"humidity":25,"rain":0.0,"pressure":927.4,"uv_index":8.9,"wind_gusts":33.8,"aqi":67,"pm10":55.5,"pm2_5":20.0,"no2":1.4,"co":181.0,"o3":130.0,"so2":1.8,"mosquito_risk":0,"arthritis_risk":5,"migraine_risk":7,"frizz_risk":0,"updated_at":"2026-05-03T14:18:39.930102+05:30"},{"city":"Mangalore","state":"Karnataka","latitude":12.9141,"longitude":74.856,"temp":33.0,"humidity":54,"rain":0.0,"pressure":1005.0,"uv_index":9.0,"wind_gusts":44.6,"aqi":67,"pm10":63.6,"pm2_5":18.7,"no2":0.7,"co":139.0,"o3":87.0,"so2":1.0,"mosquito_risk":0,"arthritis_risk":5,"migraine_risk":4,"frizz_risk":1,"updated_at":"2026-05-03T14:18:39.930109+05:30"},{"city":"Hubli-Dharwad","state":"Karnataka","latitude":15.3647,"longitude":75.124,"temp":35.5,"humidity":31,"rain":0.0,"pressure":939.4,"uv_index":9.15,"wind_gusts":44.3,"aqi":59,"pm10":56.1,"pm2_5":16.8,"no2":1.3,"co":169.0,"o3":117.0,"so2":1.4,"mosquito_risk":0,"arthritis_risk":5,"migraine_risk":10,"frizz_risk":0,"updated_at":"2026-05-03T14:18:39.930116+05:30"},{"city":"Belgaum","state":"Karnataka","latitude":15.8497,"longitude":74.4977,"temp":34.7,"humidity":28,"rain":0.0,"pressure":925.1,"uv_index":9.15,"wind_gusts":46.8,"aqi":61,"pm10":48.0,"pm2_5":15.2,"no2":1.1,"co":152.0,"o3":106.0,"so2":1.7,"mosquito_risk":0,"arthritis_risk":5,"migraine_risk":7,"frizz_risk":0,"updated_at":"2026-05-03T14:18:43.174276+05:30"},{"city":"Coimbatore","state":"Tamil Nadu","latitude":11.0168,"longitude":76.9558,"temp":35.4,"humidity":39,"rain":0.0,"pressure":959.5,"uv_index":9.3,"wind_gusts":49.0,"aqi":68,"pm10":24.5,"pm2_5":14.1,"no2":1.2,"co":201.0,"o3":122.0,"so2":1.9,"mosquito_risk":0,"arthritis_risk":5,"migraine_risk":10,"frizz_risk":1,"updated_at":"2026-05-03T14:18:43.174310+05:30"},{"city":"Madurai","state":"Tamil Nadu","latitude":9.9252,"longitude":78.1198,"temp":40.8,"humidity":25,"rain":0.0,"pressure":988.7,"uv_index":8.85,"wind_gusts":58.7,"aqi":86,"pm10":35.0,"pm2_5":27.2,"no2":1.8,"co":230.0,"o3":186.0,"so2":2.8,"mosquito_risk":0,"arthritis_risk":5,"migraine_risk":10,"frizz_risk":1,"updated_at":"2026-05-03T14:18:43.174324+05:30"},{"city":"Trichy","state":"Tamil Nadu","latitude":10.7905,"longitude":78.7047,"temp":39.8,"humidity":29,"rain":0.0,"pressure":995.3,"uv_index":9.2,"wind_gusts":45.0,"aqi":84,"pm10":31.3,"pm2_5":23.9,"no2":1.4,"co":199.0,"o3":161.0,"so2":3.0,"mosquito_risk":0,"arthritis_risk":5,"migraine_risk":10,"frizz_risk":1,"updated_at":"2026-05-03T14:18:43.174334+05:30"},{"city":"Salem","state":"Tamil Nadu","latitude":11.6643,"longitude":78.146,"temp":38.1,"humidity":28,"rain":0.0,"pressure":974.0,"uv_index":9.25,"wind_gusts":36.4,"aqi":88,"pm10":34.3,"pm2_5":24.1,"no2":2.5,"co":165.0,"o3":187.0,"so2":8.5,"mosquito_risk":0,"arthritis_risk":5,"migraine_risk":10,"frizz_risk":1,"updated_at":"2026-05-03T14:18:43.174343+05:30"},{"city":"Tirunelveli","state":"Tamil Nadu","latitude":8.7139,"longitude":77.7567,"temp":40.0,"humidity":28,"rain":0.0,"pressure":999.2,"uv_index":8.4,"wind_gusts":37.4,"aqi":73,"pm10":23.9,"pm2_5":18.3,"no2":1.3,"co":206.0,"o3":123.0,"so2":0.9,"mosquito_risk":0,"arthritis_risk":5,"migraine_risk":10,"frizz_risk":1,"updated_at":"2026-05-03T14:18:43.174353+05:30"},{"city":"Vellore","state":"Tamil Nadu","latitude":12.9165,"longitude":79.1325,"temp":41.7,"humidity":19,"rain":0.0,"pressure":979.8,"uv_index":9.3,"wind_gusts":39.2,"aqi":99,"pm10":29.3,"pm2_5":15.1,"no2":1.0,"co":173.0,"o3":154.0,"so2":2.6,"mosquito_risk":0,"arthritis_risk":5,"migraine_risk":10,"frizz_risk":0,"updated_at":"2026-05-03T14:18:43.174363+05:30"},{"city":"Erode","state":"Tamil Nadu","latitude":11.341,"longitude":77.7172,"temp":40.8,"humidity":21,"rain":0.0,"pressure":984.8,"uv_index":9.25,"wind_gusts":50.4,"aqi":77,"pm10":29.2,"pm2_5":19.9,"no2":1.5,"co":205.0,"o3":156.0,"so2":1.6,"mosquito_risk":0,"arthritis_risk":5,"migraine_risk":10,"frizz_risk":0,"updated_at":"2026-05-03T14:18:43.174372+05:30"},{"city":"Kochi","state":"Kerala","latitude":9.9312,"longitude":76.2673,"temp":30.9,"humidity":76,"rain":0.0,"pressure":1006.6,"uv_index":9.05,"wind_gusts":35.6,"aqi":91,"pm10":28.4,"pm2_5":17.3,"no2":1.0,"co":160.0,"o3":113.0,"so2":1.7,"mosquito_risk":3,"arthritis_risk":5,"migraine_risk":4,"frizz_risk":1,"updated_at":"2026-05-03T14:18:43.174381+05:30"},{"city":"Thiruvananthapuram","state":"Kerala","latitude":8.5241,"longitude":76.9366,"temp":30.8,"humidity":70,"rain":0.0,"pressure":1006.0,"uv_index":8.75,"wind_gusts":38.2,"aqi":55,"pm10":20.8,"pm2_5":13.4,"no2":1.0,"co":162.0,"o3":92.0,"so2":0.9,"mosquito_risk":3,"arthritis_risk":5,"migraine_risk":4,"frizz_risk":1,"updated_at":"2026-05-03T14:18:43.174390+05:30"},{"city":"Kozhikode","state":"Kerala","latitude":11.2588,"longitude":75.7804,"temp":31.3,"humidity":70,"rain":0.0,"pressure":1005.8,"uv_index":9.0,"wind_gusts":42.8,"aqi":64,"pm10":66.4,"pm2_5":21.4,"no2":0.5,"co":150.0,"o3":90.0,"so2":1.3,"mosquito_risk":3,"arthritis_risk":5,"migraine_risk":4,"frizz_risk":1,"updated_at":"2026-05-03T14:18:43.174399+05:30"},{"city":"Thrissur","state":"Kerala","latitude":10.5276,"longitude":76.2144,"temp":32.3,"humidity":63,"rain":0.1,"pressure":1004.8,"uv_index":8.95,"wind_gusts":34.6,"aqi":89,"pm10":25.4,"pm2_5":14.7,"no2":0.8,"co":172.0,"o3":99.0,"so2":1.2,"mosquito_risk":6,"arthritis_risk":5,"migraine_risk":4,"frizz_risk":1,"updated_at":"2026-05-03T14:18:43.174409+05:30"},{"city":"Kannur","state":"Kerala","latitude":11.8745,"longitude":75.3704,"temp":32.8,"humidity":55,"rain":0.0,"pressure":1005.4,"uv_index":8.95,"wind_gusts":46.8,"aqi":64,"pm10":63.8,"pm2_5":20.5,"no2":0.8,"co":146.0,"o3":95.0,"so2":1.2,"mosquito_risk":0,"arthritis_risk":5,"migraine_risk":4,"frizz_risk":1,"updated_at":"2026-05-03T14:18:43.174417+05:30"},{"city":"Patna","state":"Bihar","latitude":25.5941,"longitude":85.1376,"temp":31.2,"humidity":57,"rain":0.0,"pressure":997.6,"uv_index":8.3,"wind_gusts":41.8,"aqi":111,"pm10":71.2,"pm2_5":50.6,"no2":2.2,"co":395.0,"o3":208.0,"so2":10.9,"mosquito_risk":0,"arthritis_risk":5,"migraine_risk":7,"frizz_risk":1,"updated_at":"2026-05-03T14:18:43.174453+05:30"},{"city":"Gaya","state":"Bihar","latitude":24.7914,"longitude":85.0002,"temp":33.6,"humidity":48,"rain":0.0,"pressure":990.4,"uv_index":8.8,"wind_gusts":38.2,"aqi":142,"pm10":78.2,"pm2_5":48.2,"no2":1.6,"co":371.0,"o3":212.0,"so2":15.8,"mosquito_risk":0,"arthritis_risk":5,"migraine_risk":7,"frizz_risk":1,"updated_at":"2026-05-03T14:18:43.174463+05:30"},{"city":"Muzaffarpur","state":"Bihar","latitude":26.1209,"longitude":85.3647,"temp":28.1,"humidity":68,"rain":0.0,"pressure":998.5,"uv_index":8.7,"wind_gusts":41.4,"aqi":98,"pm10":65.7,"pm2_5":44.0,"no2":2.1,"co":353.0,"o3":187.0,"so2":5.6,"mosquito_risk":7,"arthritis_risk":5,"migraine_risk":7,"frizz_risk":1,"updated_at":"2026-05-03T14:18:43.174472+05:30"},{"city":"Bhagalpur","state":"Bihar","latitude":25.2425,"longitude":87.0117,"temp":27.0,"humidity":70,"rain":0.0,"pressure":999.3,"uv_index":8.7,"wind_gusts":41.8,"aqi":124,"pm10":64.7,"pm2_5":43.0,"no2":3.7,"co":353.0,"o3":177.0,"so2":3.3,"mosquito_risk":7,"arthritis_risk":5,"migraine_risk":7,"frizz_risk":1,"updated_at":"2026-05-03T14:18:43.174481+05:30"},{"city":"Ranchi","state":"Jharkhand","latitude":23.3441,"longitude":85.3096,"temp":33.5,"humidity":28,"rain":0.0,"pressure":935.0,"uv_index":9.25,"wind_gusts":29.2,"aqi":88,"pm10":90.8,"pm2_5":22.2,"no2":0.8,"co":186.0,"o3":168.0,"so2":5.2,"mosquito_risk":0,"arthritis_risk":5,"migraine_risk":7,"frizz_risk":0,"updated_at":"2026-05-03T14:18:43.174490+05:30"},{"city":"Jamshedpur","state":"Jharkhand","latitude":22.8046,"longitude":86.2029,"temp":37.0,"humidity":29,"rain":0.0,"pressure":986.7,"uv_index":9.05,"wind_gusts":32.8,"aqi":117,"pm10":72.4,"pm2_5":52.4,"no2":3.7,"co":272.0,"o3":243.0,"so2":29.8,"mosquito_risk":0,"arthritis_risk":5,"migraine_risk":10,"frizz_risk":1,"updated_at":"2026-05-03T14:18:43.174499+05:30"},{"city":"Dhanbad","state":"Jharkhand","latitude":23.7957,"longitude":86.4304,"temp":32.2,"humidity":54,"rain":0.0,"pressure":976.9,"uv_index":9.0,"wind_gusts":30.6,"aqi":156,"pm10":79.4,"pm2_5":58.7,"no2":14.0,"co":362.0,"o3":221.0,"so2":56.5,"mosquito_risk":0,"arthritis_risk":5,"migraine_risk":7,"frizz_risk":1,"updated_at":"2026-05-03T14:18:43.174508+05:30"},{"city":"Bokaro","state":"Jharkhand","latitude":23.6693,"longitude":86.1511,"temp":33.8,"humidity":48,"rain":0.0,"pressure":980.4,"uv_index":9.0,"wind_gusts":28.4,"aqi":156,"pm10":88.7,"pm2_5":65.9,"no2":16.1,"co":526.0,"o3":235.0,"so2":74.6,"mosquito_risk":0,"arthritis_risk":5,"migraine_risk":7,"frizz_risk":1,"updated_at":"2026-05-03T14:18:43.174516+05:30"},{"city":"Bhubaneswar","state":"Odisha","latitude":20.2961,"longitude":85.8245,"temp":32.5,"humidity":60,"rain":0.0,"pressure":999.4,"uv_index":9.1,"wind_gusts":33.5,"aqi":63,"pm10":27.8,"pm2_5":19.7,"no2":1.6,"co":205.0,"o3":149.0,"so2":5.1,"mosquito_risk":0,"arthritis_risk":5,"migraine_risk":7,"frizz_risk":1,"updated_at":"2026-05-03T14:18:43.174525+05:30"},{"city":"Cuttack","state":"Odisha","latitude":20.4625,"longitude":85.8828,"temp":33.3,"humidity":55,"rain":0.0,"pressure":1000.9,"uv_index":9.15,"wind_gusts":31.7,"aqi":63,"pm10":27.8,"pm2_5":19.7,"no2":1.6,"co":216.0,"o3":149.0,"so2":5.1,"mosquito_risk":0,"arthritis_risk":5,"migraine_risk":4,"frizz_risk":1,"updated_at":"2026-05-03T14:18:43.174534+05:30"},{"city":"Rourkela","state":"Odisha","latitude":22.2604,"longitude":84.8536,"temp":37.2,"humidity":27,"rain":0.0,"pressure":980.9,"uv_index":8.95,"wind_gusts":38.5,"aqi":101,"pm10":54.1,"pm2_5":20.5,"no2":0.9,"co":205.0,"o3":173.0,"so2":17.3,"mosquito_risk":0,"arthritis_risk":5,"migraine_risk":10,"frizz_risk":0,"updated_at":"2026-05-03T14:18:43.174544+05:30"},{"city":"Raipur","state":"Chhattisgarh","latitude":21.2514,"longitude":81.6296,"temp":40.5,"humidity":17,"rain":0.0,"pressure":970.3,"uv_index":9.0,"wind_gusts":32.4,"aqi":84,"pm10":55.5,"pm2_5":21.2,"no2":3.6,"co":239.0,"o3":168.0,"so2":4.7,"mosquito_risk":0,"arthritis_risk":5,"migraine_risk":10,"frizz_risk":0,"updated_at":"2026-05-03T14:18:43.174554+05:30"},{"city":"Bhilai","state":"Chhattisgarh","latitude":21.1938,"longitude":81.3509,"temp":39.8,"humidity":19,"rain":0.0,"pressure":970.7,"uv_index":9.0,"wind_gusts":34.6,"aqi":82,"pm10":53.4,"pm2_5":20.0,"no2":3.7,"co":356.0,"o3":145.0,"so2":4.0,"mosquito_risk":0,"arthritis_risk":5,"migraine_risk":10,"frizz_risk":0,"updated_at":"2026-05-03T14:18:43.174563+05:30"},{"city":"Guwahati","state":"Assam","latitude":26.1158,"longitude":91.7086,"temp":28.0,"humidity":64,"rain":0.0,"pressure":999.4,"uv_index":5.5,"wind_gusts":25.2,"aqi":70,"pm10":10.7,"pm2_5":7.9,"no2":0.8,"co":274.0,"o3":121.0,"so2":0.8,"mosquito_risk":7,"arthritis_risk":5,"migraine_risk":3,"frizz_risk":1,"updated_at":"2026-05-03T14:18:43.174573+05:30"},{"city":"Agartala","state":"Tripura","latitude":23.8315,"longitude":91.2868,"temp":28.8,"humidity":71,"rain":0.0,"pressure":1004.4,"uv_index":8.7,"wind_gusts":35.3,"aqi":58,"pm10":15.3,"pm2_5":11.0,"no2":3.2,"co":171.0,"o3":118.0,"so2":1.5,"mosquito_risk":7,"arthritis_risk":5,"migraine_risk":4,"frizz_risk":1,"updated_at":"2026-05-03T14:18:43.174582+05:30"},{"city":"Shillong","state":"Meghalaya","latitude":25.5788,"longitude":91.8933,"temp":19.3,"humidity":74,"rain":0.0,"pressure":855.5,"uv_index":7.6,"wind_gusts":24.1,"aqi":50,"pm10":14.4,"pm2_5":8.3,"no2":1.1,"co":242.0,"o3":120.0,"so2":0.9,"mosquito_risk":3,"arthritis_risk":5,"migraine_risk":7,"frizz_risk":0,"updated_at":"2026-05-03T14:18:43.174592+05:30"},{"city":"Imphal","state":"Manipur","latitude":24.817,"longitude":93.9368,"temp":24.8,"humidity":62,"rain":0.0,"pressure":921.6,"uv_index":9.15,"wind_gusts":36.0,"aqi":61,"pm10":16.2,"pm2_5":8.9,"no2":0.6,"co":201.0,"o3":113.0,"so2":0.6,"mosquito_risk":3,"arthritis_risk":5,"migraine_risk":7,"frizz_risk":1,"updated_at":"2026-05-03T14:18:43.174602+05:30"},{"city":"Aizawl","state":"Mizoram","latitude":23.7271,"longitude":92.7176,"temp":21.5,"humidity":74,"rain":0.1,"pressure":891.9,"uv_index":8.5,"wind_gusts":47.5,"aqi":37,"pm10":19.9,"pm2_5":9.4,"no2":0.8,"co":154.0,"o3":100.0,"so2":0.6,"mosquito_risk":6,"arthritis_risk":5,"migraine_risk":7,"frizz_risk":1,"updated_at":"2026-05-03T14:18:43.174611+05:30"},{"city":"Kohima","state":"Nagaland","latitude":25.6701,"longitude":94.1077,"temp":19.8,"humidity":76,"rain":0.1,"pressure":853.8,"uv_index":3.75,"wind_gusts":24.8,"aqi":41,"pm10":6.0,"pm2_5":3.8,"no2":0.6,"co":213.0,"o3":100.0,"so2":0.2,"mosquito_risk":6,"arthritis_risk":5,"migraine_risk":3,"frizz_risk":0,"updated_at":"2026-05-03T14:18:43.174620+05:30"},{"city":"Gangtok","state":"Sikkim","latitude":27.3314,"longitude":88.6138,"temp":18.9,"humidity":60,"rain":0.0,"pressure":836.5,"uv_index":6.6,"wind_gusts":43.2,"aqi":59,"pm10":10.0,"pm2_5":8.1,"no2":0.9,"co":242.0,"o3":127.0,"so2":0.9,"mosquito_risk":0,"arthritis_risk":5,"migraine_risk":7,"frizz_risk":0,"updated_at":"2026-05-03T14:18:43.174628+05:30"},{"city":"Siliguri","state":"West Bengal","latitude":26.7271,"longitude":88.3953,"temp":28.5,"humidity":61,"rain":0.0,"pressure":991.5,"uv_index":8.15,"wind_gusts":28.1,"aqi":73,"pm10":18.5,"pm2_5":12.8,"no2":0.7,"co":275.0,"o3":145.0,"so2":1.5,"mosquito_risk":7,"arthritis_risk":5,"migraine_risk":7,"frizz_risk":1,"updated_at":"2026-05-03T14:18:46.467925+05:30"},{"city":"Durgapur","state":"West Bengal","latitude":23.5204,"longitude":87.3119,"temp":32.0,"humidity":56,"rain":0.0,"pressure":991.9,"uv_index":8.9,"wind_gusts":29.9,"aqi":147,"pm10":71.9,"pm2_5":54.2,"no2":9.4,"co":336.0,"o3":194.0,"so2":34.2,"mosquito_risk":0,"arthritis_risk":5,"migraine_risk":7,"frizz_risk":1,"updated_at":"2026-05-03T14:18:46.467956+05:30"},{"city":"Asansol","state":"West Bengal","latitude":23.6739,"longitude":86.9524,"temp":32.5,"humidity":53,"rain":0.0,"pressure":990.4,"uv_index":8.95,"wind_gusts":29.5,"aqi":152,"pm10":76.4,"pm2_5":57.3,"no2":8.8,"co":302.0,"o3":213.0,"so2":36.9,"mosquito_risk":0,"arthritis_risk":5,"migraine_risk":7,"frizz_risk":1,"updated_at":"2026-05-03T14:18:46.467967+05:30"},{"city":"Pondicherry","state":"Puducherry","latitude":11.9139,"longitude":79.8145,"temp":34.9,"humidity":57,"rain":0.0,"pressure":1003.9,"uv_index":8.45,"wind_gusts":47.9,"aqi":71,"pm10":35.5,"pm2_5":30.6,"no2":2.1,"co":244.0,"o3":180.0,"so2":11.7,"mosquito_risk":0,"arthritis_risk":5,"migraine_risk":4,"frizz_risk":1,"updated_at":"2026-05-03T14:18:46.467976+05:30"},{"city":"Port Blair","state":"Andaman and Nicobar Islands","latitude":11.6234,"longitude":92.7265,"temp":33.0,"humidity":52,"rain":0.2,"pressure":1005.5,"uv_index":8.9,"wind_gusts":25.6,"aqi":32,"pm10":7.9,"pm2_5":5.7,"no2":0.4,"co":147.0,"o3":63.0,"so2":0.4,"mosquito_risk":3,"arthritis_risk":5,"migraine_risk":4,"frizz_risk":1,"updated_at":"2026-05-03T14:18:46.467984+05:30"},{"city":"Haridwar","state":"Uttarakhand","latitude":29.9457,"longitude":78.1642,"temp":30.9,"humidity":47,"rain":0.0,"pressure":970.7,"uv_index":7.25,"wind_gusts":41.4,"aqi":116,"pm10":255.2,"pm2_5":52.7,"no2":0.8,"co":256.0,"o3":192.0,"so2":14.5,"mosquito_risk":0,"arthritis_risk":5,"migraine_risk":7,"frizz_risk":1,"updated_at":"2026-05-03T14:18:46.467992+05:30"},{"city":"Rishikesh","state":"Uttarakhand","latitude":30.0869,"longitude":78.2676,"temp":30.1,"humidity":47,"rain":0.0,"pressure":963.5,"uv_index":7.45,"wind_gusts":37.4,"aqi":117,"pm10":246.8,"pm2_5":49.4,"no2":0.7,"co":255.0,"o3":189.0,"so2":12.3,"mosquito_risk":0,"arthritis_risk":5,"migraine_risk":7,"frizz_risk":1,"updated_at":"2026-05-03T14:18:46.467999+05:30"},{"city":"Nainital","state":"Uttarakhand","latitude":29.3919,"longitude":79.4542,"temp":13.8,"humidity":89,"rain":0.1,"pressure":803.2,"uv_index":8.4,"wind_gusts":40.0,"aqi":130,"pm10":212.3,"pm2_5":45.9,"no2":0.5,"co":257.0,"o3":179.0,"so2":8.9,"mosquito_risk":6,"arthritis_risk":10,"migraine_risk":7,"frizz_risk":0,"updated_at":"2026-05-03T14:18:46.468007+05:30"},{"city":"Mussoorie","state":"Uttarakhand","latitude":30.4599,"longitude":78.0664,"temp":21.0,"humidity":38,"rain":0.0,"pressure":803.0,"uv_index":7.65,"wind_gusts":46.4,"aqi":107,"pm10":168.6,"pm2_5":38.9,"no2":0.7,"co":222.0,"o3":182.0,"so2":10.9,"mosquito_risk":0,"arthritis_risk":5,"migraine_risk":7,"frizz_risk":0,"updated_at":"2026-05-03T14:18:46.468015+05:30"},{"city":"Dharamshala","state":"Himachal Pradesh","latitude":32.219,"longitude":76.3234,"temp":26.0,"humidity":26,"rain":0.0,"pressure":867.8,"uv_index":7.7,"wind_gusts":45.0,"aqi":99,"pm10":35.5,"pm2_5":10.8,"no2":0.4,"co":193.0,"o3":156.0,"so2":2.3,"mosquito_risk":4,"arthritis_risk":5,"migraine_risk":7,"frizz_risk":0,"updated_at":"2026-05-03T14:18:46.468022+05:30"},{"city":"Dalhousie","state":"Himachal Pradesh","latitude":32.5387,"longitude":75.971,"temp":21.4,"humidity":30,"rain":0.0,"pressure":804.4,"uv_index":8.2,"wind_gusts":48.2,"aqi":86,"pm10":41.3,"pm2_5":13.9,"no2":0.8,"co":214.0,"o3":165.0,"so2":3.6,"mosquito_risk":0,"arthritis_risk":5,"migraine_risk":7,"frizz_risk":0,"updated_at":"2026-05-03T14:18:46.468031+05:30"},{"city":"Patiala","state":"Punjab","latitude":30.3398,"longitude":76.3869,"temp":34.9,"humidity":33,"rain":0.0,"pressure":973.1,"uv_index":7.5,"wind_gusts":62.3,"aqi":554,"pm10":935.0,"pm2_5":108.0,"no2":1.5,"co":301.0,"o3":195.0,"so2":13.5,"mosquito_risk":0,"arthritis_risk":5,"migraine_risk":7,"frizz_risk":1,"updated_at":"2026-05-03T14:18:46.468038+05:30"},{"city":"Bhatinda","state":"Punjab","latitude":30.211,"longitude":74.9455,"temp":37.3,"humidity":27,"rain":0.0,"pressure":977.4,"uv_index":8.15,"wind_gusts":56.5,"aqi":161,"pm10":506.6,"pm2_5":78.0,"no2":1.9,"co":235.0,"o3":172.0,"so2":12.9,"mosquito_risk":0,"arthritis_risk":5,"migraine_risk":10,"frizz_risk":0,"updated_at":"2026-05-03T14:18:46.468045+05:30"},{"city":"Rohtak","state":"Haryana","latitude":28.8955,"longitude":76.6066,"temp":35.8,"humidity":25,"rain":0.0,"pressure":976.8,"uv_index":7.6,"wind_gusts":42.1,"aqi":623,"pm10":638.9,"pm2_5":95.0,"no2":2.6,"co":401.0,"o3":221.0,"so2":17.1,"mosquito_risk":0,"arthritis_risk":5,"migraine_risk":10,"frizz_risk":0,"updated_at":"2026-05-03T14:18:46.468053+05:30"},{"city":"Panipat","state":"Haryana","latitude":29.3909,"longitude":76.9635,"temp":31.4,"humidity":49,"rain":0.0,"pressure":976.9,"uv_index":7.45,"wind_gusts":54.0,"aqi":1016,"pm10":953.7,"pm2_5":112.9,"no2":3.8,"co":302.0,"o3":224.0,"so2":21.6,"mosquito_risk":0,"arthritis_risk":5,"migraine_risk":7,"frizz_risk":1,"updated_at":"2026-05-03T14:18:46.468061+05:30"},{"city":"Mathura","state":"Uttar Pradesh","latitude":27.4924,"longitude":77.6737,"temp":38.7,"humidity":24,"rain":0.0,"pressure":981.4,"uv_index":7.9,"wind_gusts":57.6,"aqi":696,"pm10":640.7,"pm2_5":76.4,"no2":1.0,"co":277.0,"o3":172.0,"so2":8.0,"mosquito_risk":0,"arthritis_risk":5,"migraine_risk":10,"frizz_risk":0,"updated_at":"2026-05-03T14:18:46.468068+05:30"},{"city":"Vrindavan","state":"Uttar Pradesh","latitude":27.5823,"longitude":77.7027,"temp":38.7,"humidity":24,"rain":0.0,"pressure":982.0,"uv_index":7.9,"wind_gusts":58.3,"aqi":696,"pm10":640.7,"pm2_5":76.4,"no2":1.0,"co":293.0,"o3":172.0,"so2":8.0,"mosquito_risk":0,"arthritis_risk":5,"migraine_risk":10,"frizz_risk":0,"updated_at":"2026-05-03T14:18:46.468076+05:30"},{"city":"Ayodhya","state":"Uttar Pradesh","latitude":26.7922,"longitude":82.1998,"temp":34.1,"humidity":42,"rain":0.0,"pressure":992.1,"uv_index":8.25,"wind_gusts":45.7,"aqi":117,"pm10":58.8,"pm2_5":31.2,"no2":1.3,"co":319.0,"o3":190.0,"so2":7.6,"mosquito_risk":0,"arthritis_risk":5,"migraine_risk":7,"frizz_risk":1,"updated_at":"2026-05-03T14:18:46.468083+05:30"},{"city":"Ratlam","state":"Madhya Pradesh","latitude":23.3315,"longitude":75.0367,"temp":37.9,"humidity":21,"rain":0.0,"pressure":950.7,"uv_index":8.5,"wind_gusts":47.9,"aqi":53,"pm10":37.7,"pm2_5":11.6,"no2":0.6,"co":154.0,"o3":130.0,"so2":4.5,"mosquito_risk":0,"arthritis_risk":5,"migraine_risk":10,"frizz_risk":0,"updated_at":"2026-05-03T14:18:46.468092+05:30"},{"city":"Sagar","state":"Madhya Pradesh","latitude":23.8388,"longitude":78.7378,"temp":38.9,"humidity":17,"rain":0.0,"pressure":946.0,"uv_index":8.7,"wind_gusts":33.5,"aqi":68,"pm10":82.0,"pm2_5":18.7,"no2":0.7,"co":146.0,"o3":129.0,"so2":4.1,"mosquito_risk":0,"arthritis_risk":5,"migraine_risk":10,"frizz_risk":0,"updated_at":"2026-05-03T14:18:46.468099+05:30"},{"city":"Satna","state":"Madhya Pradesh","latitude":24.6005,"longitude":80.8322,"temp":38.5,"humidity":20,"rain":0.0,"pressure":966.9,"uv_index":8.7,"wind_gusts":61.6,"aqi":61,"pm10":66.4,"pm2_5":19.0,"no2":0.6,"co":159.0,"o3":138.0,"so2":3.9,"mosquito_risk":0,"arthritis_risk":5,"migraine_risk":10,"frizz_risk":0,"updated_at":"2026-05-03T14:18:46.468107+05:30"},{"city":"Akola","state":"Maharashtra","latitude":20.7002,"longitude":77.0082,"temp":40.7,"humidity":13,"rain":0.0,"pressure":970.7,"uv_index":8.85,"wind_gusts":42.1,"aqi":59,"pm10":71.0,"pm2_5":16.9,"no2":1.1,"co":150.0,"o3":120.0,"so2":8.6,"mosquito_risk":0,"arthritis_risk":5,"migraine_risk":10,"frizz_risk":0,"updated_at":"2026-05-03T14:18:46.468114+05:30"},{"city":"Amravati","state":"Maharashtra","latitude":20.9374,"longitude":77.7796,"temp":40.2,"humidity":13,"rain":0.0,"pressure":963.1,"uv_index":8.85,"wind_gusts":41.4,"aqi":59,"pm10":80.1,"pm2_5":19.1,"no2":1.4,"co":144.0,"o3":120.0,"so2":6.8,"mosquito_risk":0,"arthritis_risk":5,"migraine_risk":10,"frizz_risk":0,"updated_at":"2026-05-03T14:18:46.468122+05:30"},{"city":"Latur","state":"Maharashtra","latitude":18.4088,"longitude":76.5604,"temp":40.0,"humidity":11,"rain":0.0,"pressure":937.1,"uv_index":9.05,"wind_gusts":39.6,"aqi":60,"pm10":81.5,"pm2_5":17.7,"no2":0.7,"co":138.0,"o3":115.0,"so2":3.9,"mosquito_risk":0,"arthritis_risk":5,"migraine_risk":10,"frizz_risk":0,"updated_at":"2026-05-03T14:18:46.468129+05:30"},{"city":"Nanded","state":"Maharashtra","latitude":19.1383,"longitude":77.3091,"temp":41.1,"humidity":13,"rain":0.0,"pressure":964.5,"uv_index":9.0,"wind_gusts":37.8,"aqi":58,"pm10":63.6,"pm2_5":16.7,"no2":0.9,"co":160.0,"o3":120.0,"so2":1.8,"mosquito_risk":0,"arthritis_risk":5,"migraine_risk":10,"frizz_risk":0,"updated_at":"2026-05-03T14:18:46.468137+05:30"},{"city":"Gulbarga","state":"Karnataka","latitude":17.3297,"longitude":76.8343,"temp":40.5,"humidity":13,"rain":0.0,"pressure":955.1,"uv_index":9.1,"wind_gusts":42.1,"aqi":57,"pm10":46.4,"pm2_5":14.8,"no2":1.3,"co":154.0,"o3":130.0,"so2":3.6,"mosquito_risk":0,"arthritis_risk":5,"migraine_risk":10,"frizz_risk":0,"updated_at":"2026-05-03T14:18:46.468144+05:30"},{"city":"Bidar","state":"Karnataka","latitude":17.9104,"longitude":77.5199,"temp":39.3,"humidity":14,"rain":0.0,"pressure":933.0,"uv_index":9.15,"wind_gusts":37.4,"aqi":67,"pm10":40.6,"pm2_5":14.4,"no2":1.0,"co":154.0,"o3":125.0,"so2":3.8,"mosquito_risk":0,"arthritis_risk":5,"migraine_risk":10,"frizz_risk":0,"updated_at":"2026-05-03T14:18:46.468151+05:30"},{"city":"Hospet","state":"Karnataka","latitude":15.2689,"longitude":76.3909,"temp":38.0,"humidity":20,"rain":0.0,"pressure":953.3,"uv_index":9.2,"wind_gusts":37.8,"aqi":58,"pm10":58.6,"pm2_5":18.2,"no2":1.4,"co":168.0,"o3":125.0,"so2":2.2,"mosquito_risk":0,"arthritis_risk":5,"migraine_risk":10,"frizz_risk":0,"updated_at":"2026-05-03T14:18:46.468158+05:30"},{"city":"Tirupur","state":"Tamil Nadu","latitude":11.1085,"longitude":77.3411,"temp":39.2,"humidity":25,"rain":0.0,"pressure":971.8,"uv_index":9.35,"wind_gusts":47.9,"aqi":78,"pm10":27.0,"pm2_5":17.5,"no2":1.5,"co":208.0,"o3":148.0,"so2":2.1,"mosquito_risk":0,"arthritis_risk":5,"migraine_risk":10,"frizz_risk":0,"updated_at":"2026-05-03T14:18:46.468165+05:30"},{"city":"Alappuzha","state":"Kerala","latitude":9.4981,"longitude":76.3388,"temp":31.2,"humidity":70,"rain":0.0,"pressure":1006.7,"uv_index":9.0,"wind_gusts":34.2,"aqi":81,"pm10":29.5,"pm2_5":17.8,"no2":1.4,"co":128.0,"o3":103.0,"so2":2.4,"mosquito_risk":3,"arthritis_risk":5,"migraine_risk":4,"frizz_risk":1,"updated_at":"2026-05-03T14:18:46.468172+05:30"},{"city":"Munnar","state":"Kerala","latitude":10.0889,"longitude":77.0595,"temp":23.2,"humidity":77,"rain":0.0,"pressure":857.2,"uv_index":8.7,"wind_gusts":28.4,"aqi":69,"pm10":25.1,"pm2_5":17.6,"no2":0.8,"co":182.0,"o3":124.0,"so2":0.8,"mosquito_risk":3,"arthritis_risk":5,"migraine_risk":7,"frizz_risk":1,"updated_at":"2026-05-03T14:18:46.468179+05:30"},{"city":"Silchar","state":"Assam","latitude":24.8333,"longitude":92.7789,"temp":28.5,"humidity":65,"rain":0.0,"pressure":1003.6,"uv_index":8.35,"wind_gusts":28.1,"aqi":53,"pm10":17.4,"pm2_5":10.1,"no2":0.8,"co":201.0,"o3":108.0,"so2":2.0,"mosquito_risk":7,"arthritis_risk":5,"migraine_risk":4,"frizz_risk":1,"updated_at":"2026-05-03T14:18:46.468186+05:30"},{"city":"Dibrugarh","state":"Assam","latitude":27.4728,"longitude":94.912,"temp":27.1,"humidity":62,"rain":0.0,"pressure":994.0,"uv_index":6.3,"wind_gusts":22.3,"aqi":62,"pm10":10.1,"pm2_5":8.2,"no2":0.5,"co":215.0,"o3":119.0,"so2":0.8,"mosquito_risk":7,"arthritis_risk":5,"migraine_risk":7,"frizz_risk":1,"updated_at":"2026-05-03T14:18:46.468194+05:30"}]