[{"city":"Delhi","state":"Delhi","latitude":28.6139,"longitude":77.209,"temp":34.5,"humidity":38,"rain":0.0,"pressure":977.4,"uv_index":7.6,"wind_gusts":46.4,"aqi":391,"pm10":491.7,"pm2_5":78.9,"no2":6.7,"co":457.0,"o3":211.0,"so2":19.8,"mosquito_risk":0,"arthritis_risk":5,"migraine_risk":7,"frizz_risk":1,"updated_at":"2026-05-03T15:37:51.092665+05:30"},{"city":"Mumbai","state":"Maharashtra","latitude":19.076,"longitude":72.8777,"temp":32.3,"humidity":62,"rain":0.0,"pressure":1005.3,"uv_index":7.85,"wind_gusts":39.6,"aqi":72,"pm10":44.6,"pm2_5":22.0,"no2":5.5,"co":217.0,"o3":107.0,"so2":19.1,"mosquito_risk":3,"arthritis_risk":5,"migraine_risk":4,"frizz_risk":1,"updated_at":"2026-05-03T15:37:51.092707+05:30"},{"city":"Bangalore","state":"Karnataka","latitude":12.9716,"longitude":77.5946,"temp":33.2,"humidity":28,"rain":0.0,"pressure":910.0,"uv_index":7.5,"wind_gusts":29.2,"aqi":73,"pm10":41.6,"pm2_5":16.3,"no2":6.1,"co":284.0,"o3":143.0,"so2":4.5,"mosquito_risk":0,"arthritis_risk":5,"migraine_risk":7,"frizz_risk":0,"updated_at":"2026-05-03T15:37:51.092723+05:30"},{"city":"Hyderabad","state":"Telangana","latitude":17.385,"longitude":78.4867,"temp":38.7,"humidity":16,"rain":0.0,"pressure":949.3,"uv_index":9.25,"wind_gusts":33.8,"aqi":80,"pm10":44.6,"pm2_5":15.5,"no2":0.9,"co":233.0,"o3":135.0,"so2":4.6,"mosquito_risk":0,"arthritis_risk":5,"migraine_risk":10,"frizz_risk":0,"updated_at":"2026-05-03T15:37:51.092734+05:30"},{"city":"Chennai","state":"Tamil Nadu","latitude":13.0827,"longitude":80.2707,"temp":35.9,"humidity":48,"rain":0.0,"pressure":1001.4,"uv_index":8.6,"wind_gusts":52.2,"aqi":94,"pm10":32.9,"pm2_5":23.9,"no2":3.3,"co":263.0,"o3":150.0,"so2":5.8,"mosquito_risk":0,"arthritis_risk":5,"migraine_risk":7,"frizz_risk":1,"updated_at":"2026-05-03T15:37:51.092765+05:30"},{"city":"Kolkata","state":"West Bengal","latitude":22.5726,"longitude":88.3639,"temp":31.7,"humidity":64,"rain":0.0,"pressure":1001.7,"uv_index":8.95,"wind_gusts":41.8,"aqi":74,"pm10":22.6,"pm2_5":18.8,"no2":5.5,"co":410.0,"o3":137.0,"so2":8.7,"mosquito_risk":3,"arthritis_risk":5,"migraine_risk":4,"frizz_risk":1,"updated_at":"2026-05-03T15:37:51.092775+05:30"},{"city":"Pune","state":"Maharashtra","latitude":18.5204,"longitude":73.8567,"temp":36.8,"humidity":20,"rain":0.0,"pressure":945.5,"uv_index":8.5,"wind_gusts":48.6,"aqi":62,"pm10":67.1,"pm2_5":17.8,"no2":1.5,"co":173.0,"o3":123.0,"so2":2.8,"mosquito_risk":0,"arthritis_risk":5,"migraine_risk":10,"frizz_risk":0,"updated_at":"2026-05-03T15:37:51.092783+05:30"},{"city":"Ahmedabad","state":"Gujarat","latitude":23.0225,"longitude":72.5714,"temp":42.0,"humidity":14,"rain":0.0,"pressure":994.3,"uv_index":8.1,"wind_gusts":46.8,"aqi":60,"pm10":37.7,"pm2_5":11.2,"no2":1.6,"co":172.0,"o3":131.0,"so2":3.2,"mosquito_risk":0,"arthritis_risk":5,"migraine_risk":10,"frizz_risk":0,"updated_at":"2026-05-03T15:37:51.092795+05:30"},{"city":"Jaipur","state":"Rajasthan","latitude":26.9124,"longitude":75.7873,"temp":39.0,"humidity":16,"rain":0.0,"pressure":953.6,"uv_index":8.15,"wind_gusts":42.5,"aqi":112,"pm10":210.9,"pm2_5":32.9,"no2":0.4,"co":162.0,"o3":137.0,"so2":3.6,"mosquito_risk":0,"arthritis_risk":5,"migraine_risk":10,"frizz_risk":0,"updated_at":"2026-05-03T15:37:51.092802+05:30"},{"city":"Lucknow","state":"Uttar Pradesh","latitude":26.8467,"longitude":80.9462,"temp":35.6,"humidity":38,"rain":0.0,"pressure":988.3,"uv_index":8.1,"wind_gusts":54.4,"aqi":158,"pm10":73.6,"pm2_5":36.6,"no2":2.8,"co":326.0,"o3":195.0,"so2":10.4,"mosquito_risk":0,"arthritis_risk":5,"migraine_risk":10,"frizz_risk":1,"updated_at":"2026-05-03T15:37:51.092811+05:30"},{"city":"Kanpur","state":"Uttar Pradesh","latitude":26.4499,"longitude":80.3319,"temp":37.8,"humidity":27,"rain":0.0,"pressure":985.9,"uv_index":8.1,"wind_gusts":84.2,"aqi":167,"pm10":156.9,"pm2_5":38.3,"no2":2.3,"co":305.0,"o3":189.0,"so2":9.7,"mosquito_risk":0,"arthritis_risk":5,"migraine_risk":10,"frizz_risk":0,"updated_at":"2026-05-03T15:37:51.092819+05:30"},{"city":"Chandigarh","state":"Chandigarh","latitude":30.7333,"longitude":76.7794,"temp":33.1,"humidity":33,"rain":0.0,"pressure":963.3,"uv_index":7.6,"wind_gusts":62.3,"aqi":168,"pm10":109.9,"pm2_5":28.2,"no2":2.0,"co":309.0,"o3":175.0,"so2":7.7,"mosquito_risk":0,"arthritis_risk":5,"migraine_risk":7,"frizz_risk":0,"updated_at":"2026-05-03T15:37:51.092827+05:30"},{"city":"Srinagar","state":"Jammu and Kashmir","latitude":34.0837,"longitude":74.7973,"temp":15.9,"humidity":81,"rain":0.0,"pressure":840.5,"uv_index":8.75,"wind_gusts":46.1,"aqi":88,"pm10":34.6,"pm2_5":13.5,"no2":2.9,"co":248.0,"o3":136.0,"so2":2.0,"mosquito_risk":3,"arthritis_risk":10,"migraine_risk":7,"frizz_risk":0,"updated_at":"2026-05-03T15:37:51.092835+05:30"},{"city":"Jammu","state":"Jammu and Kashmir","latitude":32.7266,"longitude":74.857,"temp":34.1,"humidity":21,"rain":0.0,"pressure":968.2,"uv_index":8.15,"wind_gusts":29.2,"aqi":100,"pm10":41.2,"pm2_5":15.1,"no2":1.0,"co":341.0,"o3":158.0,"so2":3.0,"mosquito_risk":0,"arthritis_risk":5,"migraine_risk":7,"frizz_risk":0,"updated_at":"2026-05-03T15:37:51.092845+05:30"},{"city":"Amritsar","state":"Punjab","latitude":31.634,"longitude":74.8723,"temp":34.3,"humidity":25,"rain":0.0,"pressure":975.4,"uv_index":8.2,"wind_gusts":50.4,"aqi":126,"pm10":126.2,"pm2_5":29.5,"no2":1.5,"co":275.0,"o3":157.0,"so2":5.9,"mosquito_risk":0,"arthritis_risk":5,"migraine_risk":7,"frizz_risk":0,"updated_at":"2026-05-03T15:37:51.092852+05:30"},{"city":"Ludhiana","state":"Punjab","latitude":30.901,"longitude":75.8573,"temp":35.8,"humidity":27,"rain":0.0,"pressure":972.2,"uv_index":7.85,"wind_gusts":50.0,"aqi":155,"pm10":425.6,"pm2_5":65.0,"no2":2.2,"co":355.0,"o3":179.0,"so2":8.9,"mosquito_risk":0,"arthritis_risk":5,"migraine_risk":10,"frizz_risk":0,"updated_at":"2026-05-03T15:37:51.092859+05:30"},{"city":"Jalandhar","state":"Punjab","latitude":31.326,"longitude":75.5762,"temp":35.5,"humidity":26,"rain":0.0,"pressure":973.9,"uv_index":8.05,"wind_gusts":53.3,"aqi":147,"pm10":202.1,"pm2_5":42.3,"no2":2.1,"co":351.0,"o3":174.0,"so2":8.6,"mosquito_risk":0,"arthritis_risk":5,"migraine_risk":10,"frizz_risk":0,"updated_at":"2026-05-03T15:37:51.092866+05:30"},{"city":"Dehradun","state":"Uttarakhand","latitude":30.6284,"longitude":78.0322,"temp":23.1,"humidity":41,"rain":0.0,"pressure":828.9,"uv_index":7.75,"wind_gusts":43.2,"aqi":121,"pm10":72.9,"pm2_5":25.1,"no2":1.3,"co":222.0,"o3":159.0,"so2":5.4,"mosquito_risk":0,"arthritis_risk":5,"migraine_risk":7,"frizz_risk":0,"updated_at":"2026-05-03T15:37:51.092875+05:30"},{"city":"Shimla","state":"Himachal Pradesh","latitude":31.1048,"longitude":77.1734,"temp":21.4,"humidity":23,"rain":0.0,"pressure":784.2,"uv_index":8.0,"wind_gusts":43.6,"aqi":119,"pm10":58.2,"pm2_5":19.7,"no2":0.7,"co":191.0,"o3":166.0,"so2":6.4,"mosquito_risk":0,"arthritis_risk":5,"migraine_risk":7,"frizz_risk":1,"updated_at":"2026-05-03T15:37:51.092882+05:30"},{"city":"Manali","state":"Himachal Pradesh","latitude":32.2396,"longitude":77.1887,"temp":15.6,"humidity":67,"rain":0.0,"pressure":816.7,"uv_index":9.7,"wind_gusts":40.7,"aqi":136,"pm10":23.6,"pm2_5":8.9,"no2":1.2,"co":157.0,"o3":168.0,"so2":0.6,"mosquito_risk":3,"arthritis_risk":5,"migraine_risk":7,"frizz_risk":0,"updated_at":"2026-05-03T15:37:51.092890+05:30"},{"city":"Gurgaon","state":"Haryana","latitude":28.4595,"longitude":77.0266,"temp":34.1,"humidity":37,"rain":0.0,"pressure":975.7,"uv_index":7.7,"wind_gusts":33.5,"aqi":1090,"pm10":933.2,"pm2_5":107.3,"no2":5.8,"co":397.0,"o3":172.0,"so2":11.2,"mosquito_risk":0,"arthritis_risk":5,"migraine_risk":7,"frizz_risk":1,"updated_at":"2026-05-03T15:37:51.092897+05:30"},{"city":"Noida","state":"Uttar Pradesh","latitude":28.5355,"longitude":77.391,"temp":32.8,"humidity":47,"rain":0.0,"pressure":979.2,"uv_index":7.6,"wind_gusts":35.6,"aqi":1090,"pm10":933.2,"pm2_5":107.3,"no2":5.8,"co":405.0,"o3":172.0,"so2":11.2,"mosquito_risk":0,"arthritis_risk":5,"migraine_risk":7,"frizz_risk":1,"updated_at":"2026-05-03T15:37:51.092904+05:30"},{"city":"Ghaziabad","state":"Uttar Pradesh","latitude":28.6692,"longitude":77.4538,"temp":32.0,"humidity":50,"rain":0.0,"pressure":977.7,"uv_index":7.6,"wind_gusts":41.4,"aqi":243,"pm10":453.6,"pm2_5":68.0,"no2":3.5,"co":307.0,"o3":187.0,"so2":8.5,"mosquito_risk":0,"arthritis_risk":5,"migraine_risk":7,"frizz_risk":1,"updated_at":"2026-05-03T15:37:51.092911+05:30"},{"city":"Faridabad","state":"Haryana","latitude":28.4089,"longitude":77.3178,"temp":33.2,"humidity":44,"rain":0.0,"pressure":978.3,"uv_index":7.65,"wind_gusts":44.6,"aqi":1090,"pm10":933.2,"pm2_5":107.3,"no2":5.8,"co":388.0,"o3":172.0,"so2":11.2,"mosquito_risk":0,"arthritis_risk":5,"migraine_risk":7,"frizz_risk":1,"updated_at":"2026-05-03T15:37:51.092918+05:30"},{"city":"Meerut","state":"Uttar Pradesh","latitude":28.9845,"longitude":77.7064,"temp":31.1,"humidity":56,"rain":0.0,"pressure":976.6,"uv_index":7.5,"wind_gusts":49.3,"aqi":243,"pm10":453.6,"pm2_5":68.0,"no2":3.5,"co":322.0,"o3":187.0,"so2":8.5,"mosquito_risk":0,"arthritis_risk":5,"migraine_risk":7,"frizz_risk":1,"updated_at":"2026-05-03T15:37:51.092925+05:30"},{"city":"Agra","state":"Uttar Pradesh","latitude":27.1767,"longitude":78.0081,"temp":39.2,"humidity":21,"rain":0.0,"pressure":981.4,"uv_index":7.95,"wind_gusts":61.9,"aqi":667,"pm10":223.1,"pm2_5":32.9,"no2":3.2,"co":215.0,"o3":142.0,"so2":5.1,"mosquito_risk":0,"arthritis_risk":5,"migraine_risk":10,"frizz_risk":0,"updated_at":"2026-05-03T15:37:51.092932+05:30"},{"city":"Varanasi","state":"Uttar Pradesh","latitude":25.3176,"longitude":82.9739,"temp":36.0,"humidity":35,"rain":0.0,"pressure":992.3,"uv_index":8.65,"wind_gusts":49.0,"aqi":168,"pm10":95.0,"pm2_5":39.7,"no2":2.3,"co":360.0,"o3":200.0,"so2":13.9,"mosquito_risk":0,"arthritis_risk":5,"migraine_risk":10,"frizz_risk":1,"updated_at":"2026-05-03T15:37:51.092939+05:30"},{"city":"Prayagraj","state":"Uttar Pradesh","latitude":25.4358,"longitude":81.8463,"temp":37.0,"humidity":30,"rain":0.0,"pressure":990.4,"uv_index":8.5,"wind_gusts":65.2,"aqi":172,"pm10":80.3,"pm2_5":35.3,"no2":2.7,"co":303.0,"o3":201.0,"so2":10.8,"mosquito_risk":0,"arthritis_risk":5,"migraine_risk":10,"frizz_risk":1,"updated_at":"2026-05-03T15:37:51.092949+05:30"},{"city":"Gorakhpur","state":"Uttar Pradesh","latitude":26.7606,"longitude":83.3732,"temp":32.5,"humidity":45,"rain":0.0,"pressure":993.5,"uv_index":7.95,"wind_gusts":37.8,"aqi":139,"pm10":143.4,"pm2_5":40.5,"no2":1.9,"co":315.0,"o3":181.0,"so2":4.5,"mosquito_risk":0,"arthritis_risk":5,"migraine_risk":7,"frizz_risk":1,"updated_at":"2026-05-03T15:37:51.092956+05:30"},{"city":"Bareilly","state":"Uttar Pradesh","latitude":28.367,"longitude":79.4304,"temp":25.5,"humidity":72,"rain":0.0,"pressure":984.7,"uv_index":7.9,"wind_gusts":51.1,"aqi":158,"pm10":281.3,"pm2_5":53.9,"no2":2.4,"co":338.0,"o3":196.0,"so2":13.3,"mosquito_risk":7,"arthritis_risk":5,"migraine_risk":7,"frizz_risk":1,"updated_at":"2026-05-03T15:37:51.092963+05:30"},{"city":"Aligarh","state":"Uttar Pradesh","latitude":27.8974,"longitude":78.088,"temp":28.0,"humidity":58,"rain":0.0,"pressure":981.1,"uv_index":7.75,"wind_gusts":50.8,"aqi":589,"pm10":590.5,"pm2_5":76.6,"no2":2.5,"co":277.0,"o3":177.0,"so2":12.8,"mosquito_risk":4,"arthritis_risk":5,"migraine_risk":7,"frizz_risk":1,"updated_at":"2026-05-03T15:37:51.092971+05:30"},{"city":"Moradabad","state":"Uttar Pradesh","latitude":28.8386,"longitude":78.7733,"temp":27.6,"humidity":64,"rain":0.0,"pressure":980.1,"uv_index":7.75,"wind_gusts":46.8,"aqi":163,"pm10":141.6,"pm2_5":43.2,"no2":3.9,"co":316.0,"o3":197.0,"so2":15.0,"mosquito_risk":7,"arthritis_risk":5,"migraine_risk":7,"frizz_risk":1,"updated_at":"2026-05-03T15:37:51.092978+05:30"},{"city":"Saharanpur","state":"Uttar Pradesh","latitude":29.9637,"longitude":77.546,"temp":31.2,"humidity":50,"rain":0.0,"pressure":971.7,"uv_index":7.05,"wind_gusts":46.8,"aqi":155,"pm10":221.2,"pm2_5":51.2,"no2":3.0,"co":329.0,"o3":182.0,"so2":13.3,"mosquito_risk":0,"arthritis_risk":5,"migraine_risk":7,"frizz_risk":1,"updated_at":"2026-05-03T15:37:51.092984+05:30"},{"city":"Jhansi","state":"Uttar Pradesh","latitude":25.4484,"longitude":78.5685,"temp":39.2,"humidity":20,"rain":0.0,"pressure":971.7,"uv_index":8.4,"wind_gusts":37.1,"aqi":80,"pm10":82.0,"pm2_5":20.7,"no2":1.3,"co":153.0,"o3":131.0,"so2":8.3,"mosquito_risk":0,"arthritis_risk":5,"migraine_risk":10,"frizz_risk":0,"updated_at":"2026-05-03T15:37:54.468603+05:30"},{"city":"Surat","state":"Gujarat","latitude":21.1702,"longitude":72.8311,"temp":33.7,"humidity":55,"rain":0.0,"pressure":1002.0,"uv_index":7.7,"wind_gusts":56.5,"aqi":64,"pm10":30.3,"pm2_5":16.5,"no2":10.6,"co":232.0,"o3":76.0,"so2":28.5,"mosquito_risk":0,"arthritis_risk":5,"migraine_risk":4,"frizz_risk":1,"updated_at":"2026-05-03T15:37:54.468636+05:30"},{"city":"Vadodara","state":"Gujarat","latitude":22.3072,"longitude":73.1812,"temp":39.0,"humidity":28,"rain":0.0,"pressure":997.8,"uv_index":8.05,"wind_gusts":52.9,"aqi":56,"pm10":23.6,"pm2_5":10.7,"no2":1.6,"co":169.0,"o3":129.0,"so2":3.6,"mosquito_risk":0,"arthritis_risk":5,"migraine_risk":10,"frizz_risk":1,"updated_at":"2026-05-03T15:37:54.468649+05:30"},{"city":"Rajkot","state":"Gujarat","latitude":22.3039,"longitude":70.8022,"temp":40.2,"humidity":22,"rain":0.0,"pressure":987.5,"uv_index":7.7,"wind_gusts":50.8,"aqi":51,"pm10":49.0,"pm2_5":13.4,"no2":1.1,"co":143.0,"o3":118.0,"so2":4.5,"mosquito_risk":0,"arthritis_risk":5,"migraine_risk":10,"frizz_risk":0,"updated_at":"2026-05-03T15:37:54.468660+05:30"},{"city":"Thane","state":"Maharashtra","latitude":19.2183,"longitude":72.9781,"temp":35.3,"humidity":44,"rain":0.0,"pressure":1004.1,"uv_index":7.9,"wind_gusts":39.2,"aqi":72,"pm10":44.6,"pm2_5":22.0,"no2":5.5,"co":210.0,"o3":107.0,"so2":19.1,"mosquito_risk":0,"arthritis_risk":5,"migraine_risk":7,"frizz_risk":1,"updated_at":"2026-05-03T15:37:54.468670+05:30"},{"city":"Nagpur","state":"Maharashtra","latitude":21.1458,"longitude":79.0882,"temp":40.5,"humidity":13,"rain":0.0,"pressure":967.8,"uv_index":8.9,"wind_gusts":39.2,"aqi":116,"pm10":61.2,"pm2_5":19.6,"no2":3.9,"co":152.0,"o3":154.0,"so2":17.6,"mosquito_risk":0,"arthritis_risk":5,"migraine_risk":10,"frizz_risk":0,"updated_at":"2026-05-03T15:37:54.468680+05:30"},{"city":"Nashik","state":"Maharashtra","latitude":19.9975,"longitude":73.7898,"temp":36.0,"humidity":20,"rain":0.0,"pressure":942.7,"uv_index":8.15,"wind_gusts":49.3,"aqi":65,"pm10":52.9,"pm2_5":15.5,"no2":0.8,"co":148.0,"o3":112.0,"so2":3.5,"mosquito_risk":0,"arthritis_risk":5,"migraine_risk":10,"frizz_risk":0,"updated_at":"2026-05-03T15:37:54.468689+05:30"},{"city":"Aurangabad","state":"Maharashtra","latitude":19.8762,"longitude":75.3433,"temp":39.0,"humidity":12,"rain":0.0,"pressure":940.3,"uv_index":9.05,"wind_gusts":50.0,"aqi":55,"pm10":62.6,"pm2_5":15.2,"no2":0.8,"co":153.0,"o3":121.0,"so2":1.9,"mosquito_risk":0,"arthritis_risk":5,"migraine_risk":10,"frizz_risk":0,"updated_at":"2026-05-03T15:37:54.468699+05:30"},{"city":"Solapur","state":"Maharashtra","latitude":17.6599,"longitude":75.9064,"temp":40.5,"humidity":11,"rain":0.0,"pressure":952.7,"uv_index":9.1,"wind_gusts":41.4,"aqi":56,"pm10":72.9,"pm2_5":16.8,"no2":0.7,"co":140.0,"o3":120.0,"so2":1.9,"mosquito_risk":0,"arthritis_risk":5,"migraine_risk":10,"frizz_risk":0,"updated_at":"2026-05-03T15:37:54.468709+05:30"},{"city":"Kolhapur","state":"Maharashtra","latitude":16.705,"longitude":74.2433,"temp":36.8,"humidity":20,"rain":0.0,"pressure":945.4,"uv_index":8.95,"wind_gusts":47.9,"aqi":63,"pm10":45.6,"pm2_5":15.1,"no2":1.7,"co":156.0,"o3":109.0,"so2":1.4,"mosquito_risk":0,"arthritis_risk":5,"migraine_risk":10,"frizz_risk":0,"updated_at":"2026-05-03T15:37:54.468719+05:30"},{"city":"Goa","state":"Goa","latitude":15.2993,"longitude":74.124,"temp":35.0,"humidity":47,"rain":0.0,"pressure":995.2,"uv_index":8.9,"wind_gusts":37.8,"aqi":69,"pm10":50.5,"pm2_5":15.6,"no2":0.6,"co":145.0,"o3":81.0,"so2":0.9,"mosquito_risk":0,"arthritis_risk":5,"migraine_risk":7,"frizz_risk":1,"updated_at":"2026-05-03T15:37:54.468729+05:30"},{"city":"Jodhpur","state":"Rajasthan","latitude":26.2389,"longitude":73.0243,"temp":40.6,"humidity":18,"rain":0.0,"pressure":974.9,"uv_index":8.3,"wind_gusts":57.2,"aqi":136,"pm10":236.1,"pm2_5":32.5,"no2":0.8,"co":165.0,"o3":137.0,"so2":4.2,"mosquito_risk":0,"arthritis_risk":5,"migraine_risk":10,"frizz_risk":0,"updated_at":"2026-05-03T15:37:54.468757+05:30"},{"city":"Udaipur","state":"Rajasthan","latitude":24.5854,"longitude":73.7125,"temp":36.8,"humidity":20,"rain":0.0,"pressure":941.3,"uv_index":8.8,"wind_gusts":39.2,"aqi":60,"pm10":47.5,"pm2_5":12.6,"no2":0.6,"co":149.0,"o3":128.0,"so2":3.0,"mosquito_risk":0,"arthritis_risk":5,"migraine_risk":10,"frizz_risk":0,"updated_at":"2026-05-03T15:37:54.468767+05:30"},{"city":"Kota","state":"Rajasthan","latitude":25.2138,"longitude":75.8648,"temp":41.0,"humidity":13,"rain":0.0,"pressure":971.6,"uv_index":8.35,"wind_gusts":52.2,"aqi":73,"pm10":102.2,"pm2_5":23.7,"no2":1.0,"co":151.0,"o3":139.0,"so2":3.8,"mosquito_risk":0,"arthritis_risk":5,"migraine_risk":10,"frizz_risk":0,"updated_at":"2026-05-03T15:37:54.468775+05:30"},{"city":"Bikaner","state":"Rajasthan","latitude":28.0229,"longitude":73.3119,"temp":42.2,"humidity":8,"rain":0.0,"pressure":972.9,"uv_index":8.25,"wind_gusts":46.4,"aqi":71,"pm10":102.9,"pm2_5":19.8,"no2":0.3,"co":151.0,"o3":139.0,"so2":4.2,"mosquito_risk":0,"arthritis_risk":5,"migraine_risk":10,"frizz_risk":0,"updated_at":"2026-05-03T15:37:54.468783+05:30"},{"city":"Ajmer","state":"Rajasthan","latitude":26.4499,"longitude":74.6399,"temp":39.6,"humidity":11,"rain":0.0,"pressure":948.3,"uv_index":8.3,"wind_gusts":55.4,"aqi":70,"pm10":57.0,"pm2_5":14.5,"no2":0.6,"co":151.0,"o3":134.0,"so2":3.3,"mosquito_risk":0,"arthritis_risk":5,"migraine_risk":10,"frizz_risk":0,"updated_at":"2026-05-03T15:37:54.468790+05:30"},{"city":"Gwalior","state":"Madhya Pradesh","latitude":26.2183,"longitude":78.1828,"temp":40.0,"humidity":17,"rain":0.0,"pressure":976.5,"uv_index":8.15,"wind_gusts":37.1,"aqi":88,"pm10":78.0,"pm2_5":18.5,"no2":0.8,"co":142.0,"o3":126.0,"so2":2.5,"mosquito_risk":0,"arthritis_risk":5,"migraine_risk":10,"frizz_risk":0,"updated_at":"2026-05-03T15:37:54.468797+05:30"},{"city":"Indore","state":"Madhya Pradesh","latitude":22.7196,"longitude":75.8577,"temp":38.6,"humidity":13,"rain":0.0,"pressure":943.4,"uv_index":8.7,"wind_gusts":44.3,"aqi":55,"pm10":49.5,"pm2_5":12.1,"no2":0.9,"co":160.0,"o3":127.0,"so2":2.5,"mosquito_risk":0,"arthritis_risk":5,"migraine_risk":10,"frizz_risk":0,"updated_at":"2026-05-03T15:37:54.468804+05:30"},{"city":"Bhopal","state":"Madhya Pradesh","latitude":23.2599,"longitude":77.4126,"temp":39.5,"humidity":15,"rain":0.0,"pressure":948.3,"uv_index":8.7,"wind_gusts":34.6,"aqi":68,"pm10":97.8,"pm2_5":20.0,"no2":0.5,"co":160.0,"o3":125.0,"so2":2.7,"mosquito_risk":0,"arthritis_risk":5,"migraine_risk":10,"frizz_risk":0,"updated_at":"2026-05-03T15:37:54.468811+05:30"},{"city":"Jabalpur","state":"Madhya Pradesh","latitude":23.1815,"longitude":79.9864,"temp":39.5,"humidity":16,"rain":0.0,"pressure":956.1,"uv_index":8.85,"wind_gusts":28.4,"aqi":79,"pm10":74.3,"pm2_5":18.6,"no2":1.2,"co":155.0,"o3":128.0,"so2":3.7,"mosquito_risk":0,"arthritis_risk":5,"migraine_risk":10,"frizz_risk":0,"updated_at":"2026-05-03T15:37:54.468818+05:30"},{"city":"Ujjain","state":"Madhya Pradesh","latitude":23.1765,"longitude":75.7885,"temp":39.1,"humidity":14,"rain":0.0,"pressure":948.6,"uv_index":8.6,"wind_gusts":41.4,"aqi":54,"pm10":53.3,"pm2_5":13.0,"no2":0.6,"co":141.0,"o3":128.0,"so2":2.9,"mosquito_risk":0,"arthritis_risk":5,"migraine_risk":10,"frizz_risk":0,"updated_at":"2026-05-03T15:37:54.468829+05:30"},{"city":"Visakhapatnam","state":"Andhra Pradesh","latitude":17.6868,"longitude":83.2185,"temp":33.2,"humidity":66,"rain":0.0,"pressure":998.6,"uv_index":9.15,"wind_gusts":47.5,"aqi":63,"pm10":29.5,"pm2_5":23.4,"no2":9.0,"co":318.0,"o3":104.0,"so2":9.0,"mosquito_risk":3,"arthritis_risk":5,"migraine_risk":7,"frizz_risk":1,"updated_at":"2026-05-03T15:37:54.468837+05:30"},{"city":"Vijayawada","state":"Andhra Pradesh","latitude":16.5062,"longitude":80.648,"temp":37.7,"humidity":40,"rain":0.0,"pressure":996.2,"uv_index":9.15,"wind_gusts":33.5,"aqi":118,"pm10":42.5,"pm2_5":29.3,"no2":3.5,"co":279.0,"o3":176.0,"so2":8.1,"mosquito_risk":0,"arthritis_risk":5,"migraine_risk":10,"frizz_risk":1,"updated_at":"2026-05-03T15:37:54.468845+05:30"},{"city":"Guntur","state":"Andhra Pradesh","latitude":16.3067,"longitude":80.4365,"temp":43.0,"humidity":18,"rain":0.0,"pressure":996.5,"uv_index":9.2,"wind_gusts":38.2,"aqi":128,"pm10":40.4,"pm2_5":24.9,"no2":3.0,"co":244.0,"o3":170.0,"so2":5.4,"mosquito_risk":0,"arthritis_risk":5,"migraine_risk":10,"frizz_risk":0,"updated_at":"2026-05-03T15:37:54.468852+05:30"},{"city":"Nellore","state":"Andhra Pradesh","latitude":14.4426,"longitude":79.9865,"temp":38.3,"humidity":37,"rain":0.0,"pressure":999.2,"uv_index":9.2,"wind_gusts":43.6,"aqi":125,"pm10":40.4,"pm2_5":24.4,"no2":2.0,"co":275.0,"o3":176.0,"so2":5.6,"mosquito_risk":0,"arthritis_risk":5,"migraine_risk":10,"frizz_risk":1,"updated_at":"2026-05-03T15:37:54.468860+05:30"},{"city":"Kurnool","state":"Andhra Pradesh","latitude":15.8281,"longitude":78.0373,"temp":41.6,"humidity":16,"rain":0.0,"pressure":971.6,"uv_index":9.15,"wind_gusts":41.4,"aqi":74,"pm10":40.3,"pm2_5":17.7,"no2":0.7,"co":162.0,"o3":159.0,"so2":7.0,"mosquito_risk":0,"arthritis_risk":5,"migraine_risk":10,"frizz_risk":0,"updated_at":"2026-05-03T15:37:54.468867+05:30"},{"city":"Kakinada","state":"Andhra Pradesh","latitude":16.9891,"longitude":82.2475,"temp":36.8,"humidity":52,"rain":0.0,"pressure":1000.9,"uv_index":9.15,"wind_gusts":39.6,"aqi":58,"pm10":27.1,"pm2_5":20.0,"no2":1.6,"co":229.0,"o3":107.0,"so2":2.6,"mosquito_risk":0,"arthritis_risk":5,"migraine_risk":7,"frizz_risk":1,"updated_at":"2026-05-03T15:37:54.468874+05:30"},{"city":"Tirupati","state":"Andhra Pradesh","latitude":13.6288,"longitude":79.4192,"temp":41.3,"humidity":19,"rain":0.0,"pressure":985.1,"uv_index":7.2,"wind_gusts":52.2,"aqi":110,"pm10":34.3,"pm2_5":15.8,"no2":3.1,"co":183.0,"o3":153.0,"so2":3.0,"mosquito_risk":0,"arthritis_risk":5,"migraine_risk":10,"frizz_risk":0,"updated_at":"2026-05-03T15:37:54.468881+05:30"},{"city":"Warangal","state":"Telangana","latitude":17.9689,"longitude":79.5941,"temp":39.7,"humidity":23,"rain":0.0,"pressure":973.5,"uv_index":9.15,"wind_gusts":38.9,"aqi":118,"pm10":49.9,"pm2_5":21.5,"no2":1.1,"co":217.0,"o3":165.0,"so2":7.9,"mosquito_risk":0,"arthritis_risk":5,"migraine_risk":10,"frizz_risk":0,"updated_at":"2026-05-03T15:37:54.468888+05:30"},{"city":"Nizamabad","state":"Telangana","latitude":18.6725,"longitude":78.0941,"temp":40.2,"humidity":13,"rain":0.0,"pressure":960.0,"uv_index":9.1,"wind_gusts":43.6,"aqi":69,"pm10":46.4,"pm2_5":15.1,"no2":0.6,"co":172.0,"o3":119.0,"so2":1.7,"mosquito_risk":0,"arthritis_risk":5,"migraine_risk":10,"frizz_risk":0,"updated_at":"2026-05-03T15:37:54.468896+05:30"},{"city":"Mysore","state":"Karnataka","latitude":12.2958,"longitude":76.6396,"temp":34.5,"humidity":24,"rain":0.0,"pressure":926.5,"uv_index":8.9,"wind_gusts":33.8,"aqi":68,"pm10":46.7,"pm2_5":17.2,"no2":3.4,"co":188.0,"o3":131.0,"so2":1.7,"mosquito_risk":0,"arthritis_risk":5,"migraine_risk":7,"frizz_risk":0,"updated_at":"2026-05-03T15:37:54.468902+05:30"},{"city":"Mangalore","state":"Karnataka","latitude":12.9141,"longitude":74.856,"temp":32.5,"humidity":55,"rain":0.0,"pressure":1004.5,"uv_index":9.0,"wind_gusts":44.6,"aqi":67,"pm10":57.3,"pm2_5":16.7,"no2":1.0,"co":139.0,"o3":80.0,"so2":0.9,"mosquito_risk":0,"arthritis_risk":5,"migraine_risk":4,"frizz_risk":1,"updated_at":"2026-05-03T15:37:54.468909+05:30"},{"city":"Hubli-Dharwad","state":"Karnataka","latitude":15.3647,"longitude":75.124,"temp":35.3,"humidity":30,"rain":0.0,"pressure":938.8,"uv_index":9.15,"wind_gusts":44.3,"aqi":59,"pm10":54.0,"pm2_5":17.1,"no2":1.6,"co":171.0,"o3":118.0,"so2":1.4,"mosquito_risk":0,"arthritis_risk":5,"migraine_risk":10,"frizz_risk":0,"updated_at":"2026-05-03T15:37:54.468916+05:30"},{"city":"Belgaum","state":"Karnataka","latitude":15.8497,"longitude":74.4977,"temp":33.8,"humidity":29,"rain":0.0,"pressure":924.2,"uv_index":9.15,"wind_gusts":46.8,"aqi":60,"pm10":44.8,"pm2_5":14.8,"no2":1.3,"co":152.0,"o3":102.0,"so2":1.4,"mosquito_risk":0,"arthritis_risk":5,"migraine_risk":7,"frizz_risk":0,"updated_at":"2026-05-03T15:37:57.848609+05:30"},{"city":"Coimbatore","state":"Tamil Nadu","latitude":11.0168,"longitude":76.9558,"temp":34.5,"humidity":40,"rain":0.0,"pressure":958.7,"uv_index":9.3,"wind_gusts":49.0,"aqi":68,"pm10":26.0,"pm2_5":14.3,"no2":1.9,"co":207.0,"o3":117.0,"so2":1.9,"mosquito_risk":0,"arthritis_risk":5,"migraine_risk":7,"frizz_risk":1,"updated_at":"2026-05-03T15:37:57.848639+05:30"},{"city":"Madurai","state":"Tamil Nadu","latitude":9.9252,"longitude":78.1198,"temp":39.5,"humidity":27,"rain":0.0,"pressure":988.1,"uv_index":8.85,"wind_gusts":58.7,"aqi":129,"pm10":35.7,"pm2_5":27.1,"no2":2.8,"co":271.0,"o3":176.0,"so2":2.8,"mosquito_risk":0,"arthritis_risk":5,"migraine_risk":10,"frizz_risk":1,"updated_at":"2026-05-03T15:37:57.848650+05:30"},{"city":"Trichy","state":"Tamil Nadu","latitude":10.7905,"longitude":78.7047,"temp":39.7,"humidity":28,"rain":0.0,"pressure":994.3,"uv_index":9.2,"wind_gusts":45.0,"aqi":91,"pm10":33.4,"pm2_5":25.2,"no2":2.6,"co":218.0,"o3":163.0,"so2":3.1,"mosquito_risk":0,"arthritis_risk":5,"migraine_risk":10,"frizz_risk":1,"updated_at":"2026-05-03T15:37:57.848659+05:30"},{"city":"Salem","state":"Tamil Nadu","latitude":11.6643,"longitude":78.146,"temp":38.0,"humidity":27,"rain":0.0,"pressure":973.1,"uv_index":9.25,"wind_gusts":36.4,"aqi":127,"pm10":32.1,"pm2_5":21.6,"no2":2.8,"co":169.0,"o3":183.0,"so2":8.5,"mosquito_risk":0,"arthritis_risk":5,"migraine_risk":10,"frizz_risk":0,"updated_at":"2026-05-03T15:37:57.848666+05:30"},{"city":"Tirunelveli","state":"Tamil Nadu","latitude":8.7139,"longitude":77.7567,"temp":28.6,"humidity":73,"rain":0.3,"pressure":1000.3,"uv_index":8.4,"wind_gusts":37.4,"aqi":73,"pm10":23.7,"pm2_5":18.4,"no2":2.2,"co":219.0,"o3":117.0,"so2":0.9,"mosquito_risk":10,"arthritis_risk":5,"migraine_risk":4,"frizz_risk":1,"updated_at":"2026-05-03T15:37:57.848674+05:30"},{"city":"Vellore","state":"Tamil Nadu","latitude":12.9165,"longitude":79.1325,"temp":41.3,"humidity":18,"rain":0.0,"pressure":979.0,"uv_index":9.3,"wind_gusts":39.2,"aqi":100,"pm10":29.5,"pm2_5":15.3,"no2":3.0,"co":172.0,"o3":147.0,"so2":2.7,"mosquito_risk":0,"arthritis_risk":5,"migraine_risk":10,"frizz_risk":0,"updated_at":"2026-05-03T15:37:57.848681+05:30"},{"city":"Erode","state":"Tamil Nadu","latitude":11.341,"longitude":77.7172,"temp":40.9,"humidity":20,"rain":0.0,"pressure":983.8,"uv_index":9.25,"wind_gusts":50.4,"aqi":85,"pm10":27.5,"pm2_5":17.7,"no2":2.8,"co":204.0,"o3":155.0,"so2":1.4,"mosquito_risk":0,"arthritis_risk":5,"migraine_risk":10,"frizz_risk":0,"updated_at":"2026-05-03T15:37:57.848689+05:30"},{"city":"Kochi","state":"Kerala","latitude":9.9312,"longitude":76.2673,"temp":30.6,"humidity":76,"rain":0.0,"pressure":1005.9,"uv_index":9.05,"wind_gusts":35.6,"aqi":92,"pm10":27.0,"pm2_5":15.5,"no2":4.7,"co":159.0,"o3":96.0,"so2":1.5,"mosquito_risk":3,"arthritis_risk":5,"migraine_risk":4,"frizz_risk":1,"updated_at":"2026-05-03T15:37:57.848695+05:30"},{"city":"Thiruvananthapuram","state":"Kerala","latitude":8.5241,"longitude":76.9366,"temp":30.6,"humidity":70,"rain":0.0,"pressure":1005.5,"uv_index":8.75,"wind_gusts":38.2,"aqi":55,"pm10":22.2,"pm2_5":14.2,"no2":1.3,"co":150.0,"o3":85.0,"so2":0.6,"mosquito_risk":3,"arthritis_risk":5,"migraine_risk":4,"frizz_risk":1,"updated_at":"2026-05-03T15:37:57.848702+05:30"},{"city":"Kozhikode","state":"Kerala","latitude":11.2588,"longitude":75.7804,"temp":30.9,"humidity":71,"rain":0.0,"pressure":1005.1,"uv_index":9.0,"wind_gusts":42.8,"aqi":65,"pm10":63.6,"pm2_5":19.2,"no2":0.5,"co":147.0,"o3":82.0,"so2":0.8,"mosquito_risk":3,"arthritis_risk":5,"migraine_risk":4,"frizz_risk":1,"updated_at":"2026-05-03T15:37:57.848708+05:30"},{"city":"Thrissur","state":"Kerala","latitude":10.5276,"longitude":76.2144,"temp":32.0,"humidity":65,"rain":0.1,"pressure":1004.2,"uv_index":8.95,"wind_gusts":34.6,"aqi":89,"pm10":28.2,"pm2_5":14.7,"no2":1.8,"co":158.0,"o3":91.0,"so2":1.0,"mosquito_risk":6,"arthritis_risk":5,"migraine_risk":4,"frizz_risk":1,"updated_at":"2026-05-03T15:37:57.848716+05:30"},{"city":"Kannur","state":"Kerala","latitude":11.8745,"longitude":75.3704,"temp":32.1,"humidity":59,"rain":0.0,"pressure":1004.7,"uv_index":8.95,"wind_gusts":46.8,"aqi":65,"pm10":59.6,"pm2_5":18.9,"no2":1.1,"co":140.0,"o3":88.0,"so2":1.0,"mosquito_risk":0,"arthritis_risk":5,"migraine_risk":4,"frizz_risk":1,"updated_at":"2026-05-03T15:37:57.848722+05:30"},{"city":"Patna","state":"Bihar","latitude":25.5941,"longitude":85.1376,"temp":31.2,"humidity":57,"rain":0.0,"pressure":996.4,"uv_index":8.3,"wind_gusts":41.8,"aqi":159,"pm10":72.9,"pm2_5":51.7,"no2":3.8,"co":378.0,"o3":209.0,"so2":10.2,"mosquito_risk":0,"arthritis_risk":5,"migraine_risk":7,"frizz_risk":1,"updated_at":"2026-05-03T15:37:57.848728+05:30"},{"city":"Gaya","state":"Bihar","latitude":24.7914,"longitude":85.0002,"temp":33.8,"humidity":46,"rain":0.0,"pressure":989.3,"uv_index":8.8,"wind_gusts":38.2,"aqi":175,"pm10":101.3,"pm2_5":48.4,"no2":2.6,"co":365.0,"o3":203.0,"so2":13.0,"mosquito_risk":0,"arthritis_risk":5,"migraine_risk":7,"frizz_risk":1,"updated_at":"2026-05-03T15:37:57.848764+05:30"},{"city":"Muzaffarpur","state":"Bihar","latitude":26.1209,"longitude":85.3647,"temp":28.6,"humidity":67,"rain":0.0,"pressure":997.2,"uv_index":8.7,"wind_gusts":41.4,"aqi":135,"pm10":69.8,"pm2_5":44.8,"no2":3.8,"co":368.0,"o3":187.0,"so2":6.2,"mosquito_risk":7,"arthritis_risk":5,"migraine_risk":7,"frizz_risk":1,"updated_at":"2026-05-03T15:37:57.848775+05:30"},{"city":"Bhagalpur","state":"Bihar","latitude":25.2425,"longitude":87.0117,"temp":27.1,"humidity":70,"rain":0.0,"pressure":998.4,"uv_index":8.7,"wind_gusts":41.8,"aqi":124,"pm10":68.7,"pm2_5":46.6,"no2":4.9,"co":353.0,"o3":182.0,"so2":5.2,"mosquito_risk":7,"arthritis_risk":5,"migraine_risk":7,"frizz_risk":1,"updated_at":"2026-05-03T15:37:57.848782+05:30"},{"city":"Ranchi","state":"Jharkhand","latitude":23.3441,"longitude":85.3096,"temp":32.8,"humidity":28,"rain":0.0,"pressure":934.2,"uv_index":9.25,"wind_gusts":29.2,"aqi":125,"pm10":114.6,"pm2_5":27.0,"no2":2.3,"co":190.0,"o3":158.0,"so2":4.6,"mosquito_risk":0,"arthritis_risk":5,"migraine_risk":7,"frizz_risk":0,"updated_at":"2026-05-03T15:37:57.848789+05:30"},{"city":"Jamshedpur","state":"Jharkhand","latitude":22.8046,"longitude":86.2029,"temp":36.8,"humidity":28,"rain":0.0,"pressure":985.7,"uv_index":9.05,"wind_gusts":32.8,"aqi":167,"pm10":71.7,"pm2_5":50.9,"no2":4.2,"co":319.0,"o3":227.0,"so2":20.4,"mosquito_risk":0,"arthritis_risk":5,"migraine_risk":10,"frizz_risk":0,"updated_at":"2026-05-03T15:37:57.848795+05:30"},{"city":"Dhanbad","state":"Jharkhand","latitude":23.7957,"longitude":86.4304,"temp":30.0,"humidity":61,"rain":0.0,"pressure":976.5,"uv_index":9.0,"wind_gusts":30.6,"aqi":156,"pm10":89.2,"pm2_5":66.6,"no2":18.5,"co":345.0,"o3":221.0,"so2":57.4,"mosquito_risk":7,"arthritis_risk":5,"migraine_risk":7,"frizz_risk":1,"updated_at":"2026-05-03T15:37:57.848802+05:30"},{"city":"Bokaro","state":"Jharkhand","latitude":23.6693,"longitude":86.1511,"temp":27.7,"humidity":72,"rain":0.0,"pressure":980.2,"uv_index":9.0,"wind_gusts":28.4,"aqi":158,"pm10":101.5,"pm2_5":67.5,"no2":17.6,"co":502.0,"o3":241.0,"so2":66.9,"mosquito_risk":7,"arthritis_risk":5,"migraine_risk":7,"frizz_risk":1,"updated_at":"2026-05-03T15:37:57.848808+05:30"},{"city":"Bhubaneswar","state":"Odisha","latitude":20.2961,"longitude":85.8245,"temp":32.2,"humidity":59,"rain":0.0,"pressure":998.4,"uv_index":9.1,"wind_gusts":33.5,"aqi":67,"pm10":32.0,"pm2_5":20.3,"no2":3.1,"co":229.0,"o3":139.0,"so2":5.2,"mosquito_risk":0,"arthritis_risk":5,"migraine_risk":7,"frizz_risk":1,"updated_at":"2026-05-03T15:37:57.848814+05:30"},{"city":"Cuttack","state":"Odisha","latitude":20.4625,"longitude":85.8828,"temp":33.0,"humidity":58,"rain":0.0,"pressure":1000.0,"uv_index":9.15,"wind_gusts":31.7,"aqi":67,"pm10":32.0,"pm2_5":20.3,"no2":3.1,"co":264.0,"o3":139.0,"so2":5.2,"mosquito_risk":0,"arthritis_risk":5,"migraine_risk":4,"frizz_risk":1,"updated_at":"2026-05-03T15:37:57.848821+05:30"},{"city":"Rourkela","state":"Odisha","latitude":22.2604,"longitude":84.8536,"temp":37.3,"humidity":24,"rain":0.0,"pressure":979.8,"uv_index":8.95,"wind_gusts":38.5,"aqi":145,"pm10":61.0,"pm2_5":18.3,"no2":3.6,"co":221.0,"o3":157.0,"so2":12.1,"mosquito_risk":0,"arthritis_risk":5,"migraine_risk":10,"frizz_risk":0,"updated_at":"2026-05-03T15:37:57.848827+05:30"},{"city":"Raipur","state":"Chhattisgarh","latitude":21.2514,"longitude":81.6296,"temp":40.2,"humidity":17,"rain":0.0,"pressure":969.2,"uv_index":9.0,"wind_gusts":32.4,"aqi":109,"pm10":53.0,"pm2_5":21.0,"no2":6.4,"co":174.0,"o3":158.0,"so2":4.4,"mosquito_risk":0,"arthritis_risk":5,"migraine_risk":10,"frizz_risk":0,"updated_at":"2026-05-03T15:37:57.848833+05:30"},{"city":"Bhilai","state":"Chhattisgarh","latitude":21.1938,"longitude":81.3509,"temp":39.5,"humidity":18,"rain":0.0,"pressure":969.7,"uv_index":9.0,"wind_gusts":34.6,"aqi":82,"pm10":52.0,"pm2_5":20.2,"no2":6.4,"co":311.0,"o3":139.0,"so2":4.0,"mosquito_risk":0,"arthritis_risk":5,"migraine_risk":10,"frizz_risk":0,"updated_at":"2026-05-03T15:37:57.848839+05:30"},{"city":"Guwahati","state":"Assam","latitude":26.1158,"longitude":91.7086,"temp":28.0,"humidity":64,"rain":0.0,"pressure":998.9,"uv_index":5.5,"wind_gusts":25.2,"aqi":67,"pm10":10.4,"pm2_5":8.1,"no2":2.0,"co":289.0,"o3":115.0,"so2":0.9,"mosquito_risk":7,"arthritis_risk":5,"migraine_risk":3,"frizz_risk":1,"updated_at":"2026-05-03T15:37:57.848845+05:30"},{"city":"Agartala","state":"Tripura","latitude":23.8315,"longitude":91.2868,"temp":28.5,"humidity":71,"rain":0.0,"pressure":1003.5,"uv_index":8.7,"wind_gusts":35.3,"aqi":58,"pm10":7.3,"pm2_5":6.5,"no2":4.6,"co":183.0,"o3":110.0,"so2":1.9,"mosquito_risk":7,"arthritis_risk":5,"migraine_risk":4,"frizz_risk":1,"updated_at":"2026-05-03T15:37:57.848852+05:30"},{"city":"Shillong","state":"Meghalaya","latitude":25.5788,"longitude":91.8933,"temp":18.9,"humidity":76,"rain":0.0,"pressure":855.0,"uv_index":7.6,"wind_gusts":24.1,"aqi":66,"pm10":13.7,"pm2_5":8.7,"no2":2.0,"co":254.0,"o3":120.0,"so2":1.1,"mosquito_risk":3,"arthritis_risk":5,"migraine_risk":7,"frizz_risk":0,"updated_at":"2026-05-03T15:37:57.848860+05:30"},{"city":"Imphal","state":"Manipur","latitude":24.817,"longitude":93.9368,"temp":23.9,"humidity":65,"rain":0.0,"pressure":921.5,"uv_index":9.15,"wind_gusts":36.0,"aqi":61,"pm10":19.2,"pm2_5":10.7,"no2":1.6,"co":226.0,"o3":107.0,"so2":0.8,"mosquito_risk":3,"arthritis_risk":5,"migraine_risk":7,"frizz_risk":1,"updated_at":"2026-05-03T15:37:57.848869+05:30"},{"city":"Aizawl","state":"Mizoram","latitude":23.7271,"longitude":92.7176,"temp":20.7,"humidity":79,"rain":0.0,"pressure":891.2,"uv_index":8.5,"wind_gusts":47.5,"aqi":42,"pm10":12.5,"pm2_5":7.9,"no2":1.5,"co":166.0,"o3":91.0,"so2":0.7,"mosquito_risk":3,"arthritis_risk":5,"migraine_risk":7,"frizz_risk":1,"updated_at":"2026-05-03T15:37:57.848876+05:30"},{"city":"Kohima","state":"Nagaland","latitude":25.6701,"longitude":94.1077,"temp":18.2,"humidity":83,"rain":0.1,"pressure":853.3,"uv_index":3.75,"wind_gusts":24.8,"aqi":44,"pm10":10.5,"pm2_5":6.4,"no2":1.4,"co":229.0,"o3":102.0,"so2":0.3,"mosquito_risk":6,"arthritis_risk":10,"migraine_risk":3,"frizz_risk":0,"updated_at":"2026-05-03T15:37:57.848882+05:30"},{"city":"Gangtok","state":"Sikkim","latitude":27.3314,"longitude":88.6138,"temp":17.8,"humidity":71,"rain":0.0,"pressure":835.8,"uv_index":6.6,"wind_gusts":43.2,"aqi":71,"pm10":12.8,"pm2_5":10.2,"no2":1.9,"co":252.0,"o3":128.0,"so2":1.1,"mosquito_risk":3,"arthritis_risk":5,"migraine_risk":7,"frizz_risk":0,"updated_at":"2026-05-03T15:37:57.848889+05:30"},{"city":"Siliguri","state":"West Bengal","latitude":26.7271,"longitude":88.3953,"temp":27.8,"humidity":64,"rain":0.0,"pressure":990.7,"uv_index":8.15,"wind_gusts":28.1,"aqi":94,"pm10":21.0,"pm2_5":14.5,"no2":4.2,"co":368.0,"o3":138.0,"so2":1.6,"mosquito_risk":7,"arthritis_risk":5,"migraine_risk":7,"frizz_risk":1,"updated_at":"2026-05-03T15:38:01.705881+05:30"},{"city":"Durgapur","state":"West Bengal","latitude":23.5204,"longitude":87.3119,"temp":31.7,"humidity":57,"rain":0.0,"pressure":990.9,"uv_index":8.9,"wind_gusts":29.9,"aqi":143,"pm10":67.3,"pm2_5":51.7,"no2":12.2,"co":326.0,"o3":179.0,"so2":31.0,"mosquito_risk":0,"arthritis_risk":5,"migraine_risk":7,"frizz_risk":1,"updated_at":"2026-05-03T15:38:01.705913+05:30"},{"city":"Asansol","state":"West Bengal","latitude":23.6739,"longitude":86.9524,"temp":32.4,"humidity":54,"rain":0.0,"pressure":989.6,"uv_index":8.95,"wind_gusts":29.5,"aqi":151,"pm10":76.1,"pm2_5":59.3,"no2":12.5,"co":309.0,"o3":207.0,"so2":38.3,"mosquito_risk":0,"arthritis_risk":5,"migraine_risk":7,"frizz_risk":1,"updated_at":"2026-05-03T15:38:01.705924+05:30"},{"city":"Pondicherry","state":"Puducherry","latitude":11.9139,"longitude":79.8145,"temp":33.9,"humidity":61,"rain":0.0,"pressure":1003.3,"uv_index":8.45,"wind_gusts":47.9,"aqi":111,"pm10":34.1,"pm2_5":27.5,"no2":2.5,"co":244.0,"o3":166.0,"so2":6.9,"mosquito_risk":3,"arthritis_risk":5,"migraine_risk":4,"frizz_risk":1,"updated_at":"2026-05-03T15:38:01.705933+05:30"},{"city":"Port Blair","state":"Andaman and Nicobar Islands","latitude":11.6234,"longitude":92.7265,"temp":32.0,"humidity":55,"rain":0.2,"pressure":1004.9,"uv_index":8.9,"wind_gusts":25.6,"aqi":30,"pm10":8.0,"pm2_5":5.8,"no2":0.6,"co":152.0,"o3":63.0,"so2":0.4,"mosquito_risk":3,"arthritis_risk":5,"migraine_risk":4,"frizz_risk":1,"updated_at":"2026-05-03T15:38:01.705941+05:30"},{"city":"Haridwar","state":"Uttarakhand","latitude":29.9457,"longitude":78.1642,"temp":31.2,"humidity":44,"rain":0.0,"pressure":970.1,"uv_index":7.25,"wind_gusts":41.4,"aqi":153,"pm10":199.8,"pm2_5":47.4,"no2":1.9,"co":271.0,"o3":185.0,"so2":12.8,"mosquito_risk":0,"arthritis_risk":5,"migraine_risk":7,"frizz_risk":1,"updated_at":"2026-05-03T15:38:01.705949+05:30"},{"city":"Rishikesh","state":"Uttarakhand","latitude":30.0869,"longitude":78.2676,"temp":31.0,"humidity":43,"rain":0.0,"pressure":962.5,"uv_index":7.45,"wind_gusts":37.4,"aqi":157,"pm10":210.5,"pm2_5":45.9,"no2":0.9,"co":257.0,"o3":182.0,"so2":11.1,"mosquito_risk":0,"arthritis_risk":5,"migraine_risk":7,"frizz_risk":1,"updated_at":"2026-05-03T15:38:01.705956+05:30"},{"city":"Nainital","state":"Uttarakhand","latitude":29.3919,"longitude":79.4542,"temp":17.2,"humidity":69,"rain":0.0,"pressure":803.6,"uv_index":8.4,"wind_gusts":40.0,"aqi":160,"pm10":197.4,"pm2_5":42.7,"no2":1.4,"co":246.0,"o3":170.0,"so2":7.7,"mosquito_risk":3,"arthritis_risk":5,"migraine_risk":7,"frizz_risk":0,"updated_at":"2026-05-03T15:38:01.705964+05:30"},{"city":"Mussoorie","state":"Uttarakhand","latitude":30.4599,"longitude":78.0664,"temp":20.7,"humidity":41,"rain":0.0,"pressure":801.9,"uv_index":7.65,"wind_gusts":46.4,"aqi":157,"pm10":149.5,"pm2_5":36.1,"no2":1.1,"co":217.0,"o3":170.0,"so2":8.5,"mosquito_risk":0,"arthritis_risk":5,"migraine_risk":7,"frizz_risk":0,"updated_at":"2026-05-03T15:38:01.705971+05:30"},{"city":"Dharamshala","state":"Himachal Pradesh","latitude":32.219,"longitude":76.3234,"temp":25.5,"humidity":27,"rain":0.0,"pressure":866.8,"uv_index":7.7,"wind_gusts":45.0,"aqi":118,"pm10":37.8,"pm2_5":13.1,"no2":0.5,"co":194.0,"o3":157.0,"so2":2.9,"mosquito_risk":4,"arthritis_risk":5,"migraine_risk":7,"frizz_risk":0,"updated_at":"2026-05-03T15:38:01.705978+05:30"},{"city":"Dalhousie","state":"Himachal Pradesh","latitude":32.5387,"longitude":75.971,"temp":21.4,"humidity":29,"rain":0.0,"pressure":803.7,"uv_index":8.2,"wind_gusts":48.2,"aqi":120,"pm10":51.9,"pm2_5":18.7,"no2":0.8,"co":216.0,"o3":167.0,"so2":4.4,"mosquito_risk":0,"arthritis_risk":5,"migraine_risk":7,"frizz_risk":0,"updated_at":"2026-05-03T15:38:01.705986+05:30"},{"city":"Patiala","state":"Punjab","latitude":30.3398,"longitude":76.3869,"temp":31.8,"humidity":42,"rain":0.0,"pressure":973.2,"uv_index":7.5,"wind_gusts":62.3,"aqi":602,"pm10":957.4,"pm2_5":106.6,"no2":1.9,"co":303.0,"o3":186.0,"so2":11.4,"mosquito_risk":0,"arthritis_risk":5,"migraine_risk":7,"frizz_risk":1,"updated_at":"2026-05-03T15:38:01.705994+05:30"},{"city":"Bhatinda","state":"Punjab","latitude":30.211,"longitude":74.9455,"temp":37.9,"humidity":25,"rain":0.0,"pressure":976.8,"uv_index":8.15,"wind_gusts":56.5,"aqi":179,"pm10":601.6,"pm2_5":80.8,"no2":2.3,"co":221.0,"o3":153.0,"so2":8.6,"mosquito_risk":0,"arthritis_risk":5,"migraine_risk":10,"frizz_risk":0,"updated_at":"2026-05-03T15:38:01.706001+05:30"},{"city":"Rohtak","state":"Haryana","latitude":28.8955,"longitude":76.6066,"temp":36.0,"humidity":26,"rain":0.0,"pressure":975.5,"uv_index":7.6,"wind_gusts":42.1,"aqi":633,"pm10":530.9,"pm2_5":79.4,"no2":3.5,"co":360.0,"o3":200.0,"so2":13.0,"mosquito_risk":0,"arthritis_risk":5,"migraine_risk":10,"frizz_risk":0,"updated_at":"2026-05-03T15:38:01.706009+05:30"},{"city":"Panipat","state":"Haryana","latitude":29.3909,"longitude":76.9635,"temp":30.8,"humidity":53,"rain":0.0,"pressure":975.0,"uv_index":7.45,"wind_gusts":54.0,"aqi":1030,"pm10":1080.3,"pm2_5":120.6,"no2":5.2,"co":302.0,"o3":212.0,"so2":20.5,"mosquito_risk":0,"arthritis_risk":5,"migraine_risk":7,"frizz_risk":1,"updated_at":"2026-05-03T15:38:01.706016+05:30"},{"city":"Mathura","state":"Uttar Pradesh","latitude":27.4924,"longitude":77.6737,"temp":30.4,"humidity":48,"rain":0.0,"pressure":982.1,"uv_index":7.9,"wind_gusts":57.6,"aqi":695,"pm10":282.2,"pm2_5":41.4,"no2":4.2,"co":258.0,"o3":148.0,"so2":4.9,"mosquito_risk":0,"arthritis_risk":5,"migraine_risk":7,"frizz_risk":1,"updated_at":"2026-05-03T15:38:01.706023+05:30"},{"city":"Vrindavan","state":"Uttar Pradesh","latitude":27.5823,"longitude":77.7027,"temp":30.8,"humidity":44,"rain":0.0,"pressure":982.4,"uv_index":7.9,"wind_gusts":58.3,"aqi":695,"pm10":282.2,"pm2_5":41.4,"no2":4.2,"co":266.0,"o3":148.0,"so2":4.9,"mosquito_risk":0,"arthritis_risk":5,"migraine_risk":7,"frizz_risk":1,"updated_at":"2026-05-03T15:38:01.706029+05:30"},{"city":"Ayodhya","state":"Uttar Pradesh","latitude":26.7922,"longitude":82.1998,"temp":33.9,"humidity":42,"rain":0.0,"pressure":991.0,"uv_index":8.25,"wind_gusts":45.7,"aqi":149,"pm10":83.1,"pm2_5":32.8,"no2":2.0,"co":314.0,"o3":187.0,"so2":7.8,"mosquito_risk":0,"arthritis_risk":5,"migraine_risk":7,"frizz_risk":1,"updated_at":"2026-05-03T15:38:01.706036+05:30"},{"city":"Ratlam","state":"Madhya Pradesh","latitude":23.3315,"longitude":75.0367,"temp":37.9,"humidity":19,"rain":0.0,"pressure":949.7,"uv_index":8.5,"wind_gusts":47.9,"aqi":53,"pm10":36.7,"pm2_5":11.2,"no2":0.6,"co":154.0,"o3":134.0,"so2":3.3,"mosquito_risk":0,"arthritis_risk":5,"migraine_risk":10,"frizz_risk":0,"updated_at":"2026-05-03T15:38:01.706044+05:30"},{"city":"Sagar","state":"Madhya Pradesh","latitude":23.8388,"longitude":78.7378,"temp":38.7,"humidity":17,"rain":0.0,"pressure":945.0,"uv_index":8.7,"wind_gusts":33.5,"aqi":68,"pm10":64.5,"pm2_5":15.9,"no2":0.4,"co":143.0,"o3":125.0,"so2":2.5,"mosquito_risk":0,"arthritis_risk":5,"migraine_risk":10,"frizz_risk":0,"updated_at":"2026-05-03T15:38:01.706050+05:30"},{"city":"Satna","state":"Madhya Pradesh","latitude":24.6005,"longitude":80.8322,"temp":38.3,"humidity":19,"rain":0.0,"pressure":965.8,"uv_index":8.7,"wind_gusts":61.6,"aqi":81,"pm10":69.4,"pm2_5":19.4,"no2":0.6,"co":150.0,"o3":131.0,"so2":3.5,"mosquito_risk":0,"arthritis_risk":5,"migraine_risk":10,"frizz_risk":0,"updated_at":"2026-05-03T15:38:01.706057+05:30"},{"city":"Akola","state":"Maharashtra","latitude":20.7002,"longitude":77.0082,"temp":40.8,"humidity":13,"rain":0.0,"pressure":969.6,"uv_index":8.85,"wind_gusts":42.1,"aqi":58,"pm10":60.1,"pm2_5":14.8,"no2":1.1,"co":138.0,"o3":123.0,"so2":6.9,"mosquito_risk":0,"arthritis_risk":5,"migraine_risk":10,"frizz_risk":0,"updated_at":"2026-05-03T15:38:01.706065+05:30"},{"city":"Amravati","state":"Maharashtra","latitude":20.9374,"longitude":77.7796,"temp":40.6,"humidity":12,"rain":0.0,"pressure":961.9,"uv_index":8.85,"wind_gusts":41.4,"aqi":59,"pm10":59.4,"pm2_5":15.6,"no2":1.4,"co":136.0,"o3":122.0,"so2":5.8,"mosquito_risk":0,"arthritis_risk":5,"migraine_risk":10,"frizz_risk":0,"updated_at":"2026-05-03T15:38:01.706072+05:30"},{"city":"Latur","state":"Maharashtra","latitude":18.4088,"longitude":76.5604,"temp":39.8,"humidity":11,"rain":0.0,"pressure":936.0,"uv_index":9.05,"wind_gusts":39.6,"aqi":61,"pm10":79.4,"pm2_5":17.2,"no2":0.4,"co":137.0,"o3":117.0,"so2":2.9,"mosquito_risk":0,"arthritis_risk":5,"migraine_risk":10,"frizz_risk":0,"updated_at":"2026-05-03T15:38:01.706080+05:30"},{"city":"Nanded","state":"Maharashtra","latitude":19.1383,"longitude":77.3091,"temp":41.2,"humidity":11,"rain":0.0,"pressure":963.3,"uv_index":9.0,"wind_gusts":37.8,"aqi":59,"pm10":66.1,"pm2_5":16.3,"no2":0.6,"co":142.0,"o3":117.0,"so2":1.1,"mosquito_risk":0,"arthritis_risk":5,"migraine_risk":10,"frizz_risk":0,"updated_at":"2026-05-03T15:38:01.706087+05:30"},{"city":"Gulbarga","state":"Karnataka","latitude":17.3297,"longitude":76.8343,"temp":41.0,"humidity":12,"rain":0.0,"pressure":954.0,"uv_index":9.1,"wind_gusts":42.1,"aqi":57,"pm10":48.1,"pm2_5":14.5,"no2":0.9,"co":150.0,"o3":130.0,"so2":3.1,"mosquito_risk":0,"arthritis_risk":5,"migraine_risk":10,"frizz_risk":0,"updated_at":"2026-05-03T15:38:01.706094+05:30"},{"city":"Bidar","state":"Karnataka","latitude":17.9104,"longitude":77.5199,"temp":39.8,"humidity":12,"rain":0.0,"pressure":931.9,"uv_index":9.15,"wind_gusts":37.4,"aqi":67,"pm10":44.5,"pm2_5":15.1,"no2":0.9,"co":139.0,"o3":126.0,"so2":3.6,"mosquito_risk":0,"arthritis_risk":5,"migraine_risk":10,"frizz_risk":0,"updated_at":"2026-05-03T15:38:01.706100+05:30"},{"city":"Hospet","state":"Karnataka","latitude":15.2689,"longitude":76.3909,"temp":38.2,"humidity":19,"rain":0.0,"pressure":952.2,"uv_index":9.2,"wind_gusts":37.8,"aqi":59,"pm10":59.3,"pm2_5":18.7,"no2":1.5,"co":167.0,"o3":131.0,"so2":2.5,"mosquito_risk":0,"arthritis_risk":5,"migraine_risk":10,"frizz_risk":0,"updated_at":"2026-05-03T15:38:01.706107+05:30"},{"city":"Tirupur","state":"Tamil Nadu","latitude":11.1085,"longitude":77.3411,"temp":37.1,"humidity":32,"rain":0.0,"pressure":971.1,"uv_index":9.35,"wind_gusts":47.9,"aqi":82,"pm10":25.6,"pm2_5":15.6,"no2":3.0,"co":208.0,"o3":141.0,"so2":2.0,"mosquito_risk":0,"arthritis_risk":5,"migraine_risk":10,"frizz_risk":1,"updated_at":"2026-05-03T15:38:01.706114+05:30"},{"city":"Alappuzha","state":"Kerala","latitude":9.4981,"longitude":76.3388,"temp":30.3,"humidity":76,"rain":0.0,"pressure":1006.0,"uv_index":9.0,"wind_gusts":34.2,"aqi":80,"pm10":31.1,"pm2_5":17.7,"no2":3.2,"co":129.0,"o3":90.0,"so2":2.0,"mosquito_risk":3,"arthritis_risk":5,"migraine_risk":4,"frizz_risk":1,"updated_at":"2026-05-03T15:38:01.706121+05:30"},{"city":"Munnar","state":"Kerala","latitude":10.0889,"longitude":77.0595,"temp":20.5,"humidity":88,"rain":0.1,"pressure":856.1,"uv_index":8.7,"wind_gusts":28.4,"aqi":69,"pm10":24.0,"pm2_5":17.1,"no2":1.9,"co":185.0,"o3":118.0,"so2":1.0,"mosquito_risk":6,"arthritis_risk":5,"migraine_risk":7,"frizz_risk":1,"updated_at":"2026-05-03T15:38:01.706128+05:30"},{"city":"Silchar","state":"Assam","latitude":24.8333,"longitude":92.7789,"temp":28.4,"humidity":66,"rain":0.0,"pressure":1002.8,"uv_index":8.35,"wind_gusts":28.1,"aqi":53,"pm10":23.0,"pm2_5":12.5,"no2":2.3,"co":224.0,"o3":103.0,"so2":2.5,"mosquito_risk":7,"arthritis_risk":5,"migraine_risk":4,"frizz_risk":1,"updated_at":"2026-05-03T15:38:01.706135+05:30"},{"city":"Dibrugarh","state":"Assam","latitude":27.4728,"longitude":94.912,"temp":27.1,"humidity":61,"rain":0.0,"pressure":993.6,"uv_index":6.3,"wind_gusts":22.3,"aqi":61,"pm10":10.6,"pm2_5":8.8,"no2":3.3,"co":220.0,"o3":108.0,"so2":1.1,"mosquito_risk":7,"arthritis_risk":5,"migraine_risk":7,"frizz_risk":1,"updated_at":"2026-05-03T15:38:01.706142+05:30"}]