[{"city":"Delhi","state":"Delhi","latitude":28.6139,"longitude":77.209,"temp":17.4,"humidity":77,"rain":0.0,"pressure":986.0,"uv_index":5.85,"wind_gusts":35.6,"aqi":215,"pm10":296.2,"pm2_5":75.0,"mosquito_risk":3,"arthritis_risk":5,"migraine_risk":3,"frizz_risk":0,"updated_at":"2026-03-03T03:07:23.533459+05:30"},{"city":"Mumbai","state":"Maharashtra","latitude":19.076,"longitude":72.8777,"temp":26.9,"humidity":76,"rain":0.0,"pressure":1009.9,"uv_index":7.35,"wind_gusts":27.4,"aqi":90,"pm10":40.5,"pm2_5":33.5,"mosquito_risk":7,"arthritis_risk":0,"migraine_risk":4,"frizz_risk":1,"updated_at":"2026-03-03T03:07:23.533520+05:30"},{"city":"Bangalore","state":"Karnataka","latitude":12.9716,"longitude":77.5946,"temp":20.7,"humidity":71,"rain":0.0,"pressure":911.5,"uv_index":9.1,"wind_gusts":39.2,"aqi":130,"pm10":46.3,"pm2_5":45.3,"mosquito_risk":3,"arthritis_risk":5,"migraine_risk":7,"frizz_risk":0,"updated_at":"2026-03-03T03:07:23.533539+05:30"},{"city":"Hyderabad","state":"Telangana","latitude":17.385,"longitude":78.4867,"temp":23.1,"humidity":71,"rain":0.0,"pressure":954.1,"uv_index":8.35,"wind_gusts":23.8,"aqi":140,"pm10":67.1,"pm2_5":66.1,"mosquito_risk":3,"arthritis_risk":5,"migraine_risk":7,"frizz_risk":1,"updated_at":"2026-03-03T03:07:23.533549+05:30"},{"city":"Chennai","state":"Tamil Nadu","latitude":13.0827,"longitude":80.2707,"temp":23.8,"humidity":87,"rain":0.0,"pressure":1008.3,"uv_index":8.8,"wind_gusts":29.5,"aqi":122,"pm10":49.7,"pm2_5":45.8,"mosquito_risk":3,"arthritis_risk":0,"migraine_risk":4,"frizz_risk":1,"updated_at":"2026-03-03T03:07:23.533558+05:30"},{"city":"Kolkata","state":"West Bengal","latitude":22.5726,"longitude":88.3639,"temp":21.3,"humidity":74,"rain":0.0,"pressure":1008.2,"uv_index":7.7,"wind_gusts":18.0,"aqi":162,"pm10":132.2,"pm2_5":120.6,"mosquito_risk":3,"arthritis_risk":0,"migraine_risk":4,"frizz_risk":1,"updated_at":"2026-03-03T03:07:23.533567+05:30"},{"city":"Pune","state":"Maharashtra","latitude":18.5204,"longitude":73.8567,"temp":22.1,"humidity":72,"rain":0.0,"pressure":949.5,"uv_index":7.9,"wind_gusts":32.0,"aqi":96,"pm10":48.0,"pm2_5":44.7,"mosquito_risk":3,"arthritis_risk":5,"migraine_risk":7,"frizz_risk":1,"updated_at":"2026-03-03T03:07:23.533579+05:30"},{"city":"Ahmedabad","state":"Gujarat","latitude":23.0225,"longitude":72.5714,"temp":23.0,"humidity":63,"rain":0.0,"pressure":1005.4,"uv_index":7.15,"wind_gusts":20.2,"aqi":102,"pm10":58.0,"pm2_5":47.0,"mosquito_risk":3,"arthritis_risk":5,"migraine_risk":4,"frizz_risk":0,"updated_at":"2026-03-03T03:07:23.533587+05:30"},{"city":"Jaipur","state":"Rajasthan","latitude":26.9124,"longitude":75.7873,"temp":21.0,"humidity":48,"rain":0.0,"pressure":962.9,"uv_index":6.6,"wind_gusts":28.8,"aqi":101,"pm10":122.0,"pm2_5":42.4,"mosquito_risk":0,"arthritis_risk":5,"migraine_risk":7,"frizz_risk":0,"updated_at":"2026-03-03T03:07:23.533595+05:30"},{"city":"Lucknow","state":"Uttar Pradesh","latitude":26.8467,"longitude":80.9462,"temp":18.7,"humidity":72,"rain":0.0,"pressure":996.2,"uv_index":6.3,"wind_gusts":34.6,"aqi":153,"pm10":302.7,"pm2_5":78.2,"mosquito_risk":3,"arthritis_risk":5,"migraine_risk":7,"frizz_risk":0,"updated_at":"2026-03-03T03:07:23.533603+05:30"},{"city":"Kanpur","state":"Uttar Pradesh","latitude":26.4499,"longitude":80.3319,"temp":17.8,"humidity":83,"rain":0.0,"pressure":994.7,"uv_index":6.3,"wind_gusts":28.8,"aqi":166,"pm10":406.1,"pm2_5":81.3,"mosquito_risk":3,"arthritis_risk":10,"migraine_risk":7,"frizz_risk":0,"updated_at":"2026-03-03T03:07:23.533611+05:30"},{"city":"Chandigarh","state":"Chandigarh","latitude":30.7333,"longitude":76.7794,"temp":16.7,"humidity":70,"rain":0.0,"pressure":971.1,"uv_index":5.7,"wind_gusts":34.2,"aqi":80,"pm10":27.8,"pm2_5":24.7,"mosquito_risk":3,"arthritis_risk":5,"migraine_risk":3,"frizz_risk":0,"updated_at":"2026-03-03T03:07:23.533619+05:30"},{"city":"Srinagar","state":"Jammu and Kashmir","latitude":34.0837,"longitude":74.7973,"temp":3.0,"humidity":63,"rain":0.0,"pressure":839.4,"uv_index":6.6,"wind_gusts":15.8,"aqi":146,"pm10":78.0,"pm2_5":67.3,"mosquito_risk":3,"arthritis_risk":5,"migraine_risk":7,"frizz_risk":1,"updated_at":"2026-03-03T03:07:23.533626+05:30"},{"city":"Jammu","state":"Jammu and Kashmir","latitude":32.7266,"longitude":74.857,"temp":16.5,"humidity":58,"rain":0.0,"pressure":975.5,"uv_index":6.3,"wind_gusts":24.5,"aqi":99,"pm10":48.3,"pm2_5":46.2,"mosquito_risk":0,"arthritis_risk":5,"migraine_risk":7,"frizz_risk":0,"updated_at":"2026-03-03T03:07:23.533634+05:30"},{"city":"Amritsar","state":"Punjab","latitude":31.634,"longitude":74.8723,"temp":15.2,"humidity":79,"rain":0.0,"pressure":983.9,"uv_index":6.25,"wind_gusts":28.4,"aqi":127,"pm10":38.6,"pm2_5":32.1,"mosquito_risk":3,"arthritis_risk":5,"migraine_risk":7,"frizz_risk":0,"updated_at":"2026-03-03T03:07:23.533642+05:30"},{"city":"Ludhiana","state":"Punjab","latitude":30.901,"longitude":75.8573,"temp":17.3,"humidity":69,"rain":0.0,"pressure":981.8,"uv_index":5.9,"wind_gusts":30.6,"aqi":153,"pm10":66.1,"pm2_5":54.2,"mosquito_risk":3,"arthritis_risk":5,"migraine_risk":3,"frizz_risk":0,"updated_at":"2026-03-03T03:07:23.533648+05:30"},{"city":"Jalandhar","state":"Punjab","latitude":31.326,"longitude":75.5762,"temp":17.0,"humidity":72,"rain":0.0,"pressure":983.1,"uv_index":6.1,"wind_gusts":26.6,"aqi":153,"pm10":77.5,"pm2_5":60.8,"mosquito_risk":3,"arthritis_risk":5,"migraine_risk":7,"frizz_risk":0,"updated_at":"2026-03-03T03:07:23.533658+05:30"},{"city":"Dehradun","state":"Uttarakhand","latitude":30.6284,"longitude":78.0322,"temp":10.3,"humidity":58,"rain":0.0,"pressure":827.9,"uv_index":6.05,"wind_gusts":31.0,"aqi":59,"pm10":19.5,"pm2_5":17.4,"mosquito_risk":0,"arthritis_risk":5,"migraine_risk":7,"frizz_risk":0,"updated_at":"2026-03-03T03:07:23.533664+05:30"},{"city":"Shimla","state":"Himachal Pradesh","latitude":31.1048,"longitude":77.1734,"temp":7.5,"humidity":61,"rain":0.0,"pressure":781.5,"uv_index":6.1,"wind_gusts":43.6,"aqi":73,"pm10":36.9,"pm2_5":29.7,"mosquito_risk":3,"arthritis_risk":5,"migraine_risk":7,"frizz_risk":0,"updated_at":"2026-03-03T03:07:23.533671+05:30"},{"city":"Manali","state":"Himachal Pradesh","latitude":32.2396,"longitude":77.1887,"temp":14.8,"humidity":9,"rain":0.0,"pressure":818.7,"uv_index":7.45,"wind_gusts":35.3,"aqi":55,"pm10":17.5,"pm2_5":14.4,"mosquito_risk":0,"arthritis_risk":5,"migraine_risk":7,"frizz_risk":1,"updated_at":"2026-03-03T03:07:23.533678+05:30"},{"city":"Gurgaon","state":"Haryana","latitude":28.4595,"longitude":77.0266,"temp":14.7,"humidity":87,"rain":0.0,"pressure":984.4,"uv_index":5.95,"wind_gusts":32.4,"aqi":933,"pm10":998.4,"pm2_5":142.0,"mosquito_risk":3,"arthritis_risk":10,"migraine_risk":3,"frizz_risk":0,"updated_at":"2026-03-03T03:07:23.533686+05:30"},{"city":"Noida","state":"Uttar Pradesh","latitude":28.5355,"longitude":77.391,"temp":17.7,"humidity":76,"rain":0.0,"pressure":987.6,"uv_index":5.85,"wind_gusts":34.9,"aqi":933,"pm10":998.4,"pm2_5":142.0,"mosquito_risk":3,"arthritis_risk":5,"migraine_risk":3,"frizz_risk":0,"updated_at":"2026-03-03T03:07:23.533692+05:30"},{"city":"Ghaziabad","state":"Uttar Pradesh","latitude":28.6692,"longitude":77.4538,"temp":17.2,"humidity":77,"rain":0.0,"pressure":985.5,"uv_index":5.8,"wind_gusts":34.9,"aqi":184,"pm10":258.9,"pm2_5":69.6,"mosquito_risk":3,"arthritis_risk":5,"migraine_risk":3,"frizz_risk":0,"updated_at":"2026-03-03T03:07:23.533699+05:30"},{"city":"Faridabad","state":"Haryana","latitude":28.4089,"longitude":77.3178,"temp":16.6,"humidity":76,"rain":0.0,"pressure":986.8,"uv_index":5.85,"wind_gusts":31.7,"aqi":933,"pm10":998.4,"pm2_5":142.0,"mosquito_risk":3,"arthritis_risk":5,"migraine_risk":3,"frizz_risk":0,"updated_at":"2026-03-03T03:07:23.533705+05:30"},{"city":"Meerut","state":"Uttar Pradesh","latitude":28.9845,"longitude":77.7064,"temp":15.7,"humidity":81,"rain":0.0,"pressure":983.9,"uv_index":5.7,"wind_gusts":41.0,"aqi":184,"pm10":258.9,"pm2_5":69.6,"mosquito_risk":3,"arthritis_risk":10,"migraine_risk":3,"frizz_risk":0,"updated_at":"2026-03-03T03:07:23.533712+05:30"},{"city":"Agra","state":"Uttar Pradesh","latitude":27.1767,"longitude":78.0081,"temp":16.9,"humidity":86,"rain":0.0,"pressure":991.4,"uv_index":6.15,"wind_gusts":29.5,"aqi":383,"pm10":579.3,"pm2_5":102.2,"mosquito_risk":3,"arthritis_risk":10,"migraine_risk":7,"frizz_risk":0,"updated_at":"2026-03-03T03:07:23.533720+05:30"},{"city":"Varanasi","state":"Uttar Pradesh","latitude":25.3176,"longitude":82.9739,"temp":17.9,"humidity":76,"rain":0.0,"pressure":1000.5,"uv_index":6.95,"wind_gusts":25.2,"aqi":92,"pm10":46.2,"pm2_5":29.6,"mosquito_risk":3,"arthritis_risk":5,"migraine_risk":4,"frizz_risk":0,"updated_at":"2026-03-03T03:07:23.533730+05:30"},{"city":"Prayagraj","state":"Uttar Pradesh","latitude":25.4358,"longitude":81.8463,"temp":18.5,"humidity":68,"rain":0.0,"pressure":998.9,"uv_index":6.8,"wind_gusts":24.5,"aqi":101,"pm10":97.6,"pm2_5":40.4,"mosquito_risk":3,"arthritis_risk":5,"migraine_risk":7,"frizz_risk":0,"updated_at":"2026-03-03T03:07:23.533738+05:30"},{"city":"Gorakhpur","state":"Uttar Pradesh","latitude":26.7606,"longitude":83.3732,"temp":16.1,"humidity":72,"rain":0.0,"pressure":999.1,"uv_index":6.7,"wind_gusts":21.6,"aqi":128,"pm10":121.1,"pm2_5":56.3,"mosquito_risk":3,"arthritis_risk":5,"migraine_risk":7,"frizz_risk":0,"updated_at":"2026-03-03T03:07:23.533745+05:30"},{"city":"Bareilly","state":"Uttar Pradesh","latitude":28.367,"longitude":79.4304,"temp":16.1,"humidity":77,"rain":0.0,"pressure":989.0,"uv_index":6.0,"wind_gusts":31.0,"aqi":137,"pm10":148.5,"pm2_5":60.5,"mosquito_risk":3,"arthritis_risk":5,"migraine_risk":3,"frizz_risk":0,"updated_at":"2026-03-03T03:07:23.533752+05:30"},{"city":"Aligarh","state":"Uttar Pradesh","latitude":27.8974,"longitude":78.088,"temp":16.5,"humidity":81,"rain":0.0,"pressure":988.4,"uv_index":5.9,"wind_gusts":34.9,"aqi":554,"pm10":590.5,"pm2_5":111.8,"mosquito_risk":3,"arthritis_risk":10,"migraine_risk":3,"frizz_risk":0,"updated_at":"2026-03-03T03:07:23.533758+05:30"},{"city":"Moradabad","state":"Uttar Pradesh","latitude":28.8386,"longitude":78.7733,"temp":15.8,"humidity":77,"rain":0.0,"pressure":985.8,"uv_index":5.85,"wind_gusts":30.2,"aqi":142,"pm10":138.8,"pm2_5":62.4,"mosquito_risk":3,"arthritis_risk":5,"migraine_risk":3,"frizz_risk":0,"updated_at":"2026-03-03T03:07:23.533765+05:30"},{"city":"Saharanpur","state":"Uttar Pradesh","latitude":29.9637,"longitude":77.546,"temp":15.5,"humidity":81,"rain":0.0,"pressure":977.6,"uv_index":5.45,"wind_gusts":44.3,"aqi":111,"pm10":71.9,"pm2_5":49.7,"mosquito_risk":3,"arthritis_risk":10,"migraine_risk":3,"frizz_risk":0,"updated_at":"2026-03-03T03:07:23.533773+05:30"},{"city":"Jhansi","state":"Uttar Pradesh","latitude":25.4484,"longitude":78.5685,"temp":17.5,"humidity":76,"rain":0.0,"pressure":981.0,"uv_index":6.75,"wind_gusts":25.2,"aqi":75,"pm10":36.7,"pm2_5":25.3,"mosquito_risk":3,"arthritis_risk":5,"migraine_risk":7,"frizz_risk":0,"updated_at":"2026-03-03T03:07:26.763328+05:30"},{"city":"Surat","state":"Gujarat","latitude":21.1702,"longitude":72.8311,"temp":23.0,"humidity":72,"rain":0.0,"pressure":1009.2,"uv_index":7.05,"wind_gusts":24.8,"aqi":155,"pm10":76.8,"pm2_5":69.6,"mosquito_risk":3,"arthritis_risk":0,"migraine_risk":4,"frizz_risk":1,"updated_at":"2026-03-03T03:07:26.763363+05:30"},{"city":"Vadodara","state":"Gujarat","latitude":22.3072,"longitude":73.1812,"temp":22.2,"humidity":55,"rain":0.0,"pressure":1007.2,"uv_index":7.15,"wind_gusts":15.8,"aqi":152,"pm10":101.0,"pm2_5":93.4,"mosquito_risk":0,"arthritis_risk":5,"migraine_risk":4,"frizz_risk":0,"updated_at":"2026-03-03T03:07:26.763376+05:30"},{"city":"Rajkot","state":"Gujarat","latitude":22.3039,"longitude":70.8022,"temp":21.3,"humidity":79,"rain":0.0,"pressure":997.7,"uv_index":7.0,"wind_gusts":21.2,"aqi":67,"pm10":34.8,"pm2_5":22.2,"mosquito_risk":3,"arthritis_risk":5,"migraine_risk":7,"frizz_risk":1,"updated_at":"2026-03-03T03:07:26.763388+05:30"},{"city":"Thane","state":"Maharashtra","latitude":19.2183,"longitude":72.9781,"temp":24.0,"humidity":81,"rain":0.0,"pressure":1009.4,"uv_index":7.35,"wind_gusts":38.2,"aqi":90,"pm10":40.5,"pm2_5":33.5,"mosquito_risk":3,"arthritis_risk":0,"migraine_risk":4,"frizz_risk":1,"updated_at":"2026-03-03T03:07:26.763398+05:30"},{"city":"Nagpur","state":"Maharashtra","latitude":21.1458,"longitude":79.0882,"temp":20.9,"humidity":67,"rain":0.0,"pressure":975.2,"uv_index":7.75,"wind_gusts":19.1,"aqi":72,"pm10":24.6,"pm2_5":20.6,"mosquito_risk":3,"arthritis_risk":5,"migraine_risk":7,"frizz_risk":0,"updated_at":"2026-03-03T03:07:26.763409+05:30"},{"city":"Nashik","state":"Maharashtra","latitude":19.9975,"longitude":73.7898,"temp":22.9,"humidity":56,"rain":0.0,"pressure":947.4,"uv_index":7.55,"wind_gusts":28.8,"aqi":90,"pm10":44.5,"pm2_5":40.7,"mosquito_risk":0,"arthritis_risk":5,"migraine_risk":7,"frizz_risk":0,"updated_at":"2026-03-03T03:07:26.763418+05:30"},{"city":"Aurangabad","state":"Maharashtra","latitude":19.8762,"longitude":75.3433,"temp":23.3,"humidity":52,"rain":0.0,"pressure":945.7,"uv_index":8.05,"wind_gusts":24.1,"aqi":80,"pm10":38.9,"pm2_5":37.6,"mosquito_risk":0,"arthritis_risk":5,"migraine_risk":7,"frizz_risk":0,"updated_at":"2026-03-03T03:07:26.763428+05:30"},{"city":"Solapur","state":"Maharashtra","latitude":17.6599,"longitude":75.9064,"temp":23.9,"humidity":70,"rain":0.0,"pressure":957.8,"uv_index":8.3,"wind_gusts":18.0,"aqi":124,"pm10":30.6,"pm2_5":30.4,"mosquito_risk":3,"arthritis_risk":5,"migraine_risk":7,"frizz_risk":1,"updated_at":"2026-03-03T03:07:26.763438+05:30"},{"city":"Kolhapur","state":"Maharashtra","latitude":16.705,"longitude":74.2433,"temp":19.6,"humidity":95,"rain":0.0,"pressure":948.2,"uv_index":8.4,"wind_gusts":40.0,"aqi":112,"pm10":38.2,"pm2_5":35.5,"mosquito_risk":3,"arthritis_risk":10,"migraine_risk":7,"frizz_risk":1,"updated_at":"2026-03-03T03:07:26.763448+05:30"},{"city":"Goa","state":"Goa","latitude":15.2993,"longitude":74.124,"temp":26.3,"humidity":81,"rain":0.0,"pressure":998.7,"uv_index":8.45,"wind_gusts":36.0,"aqi":74,"pm10":38.1,"pm2_5":28.8,"mosquito_risk":7,"arthritis_risk":5,"migraine_risk":7,"frizz_risk":1,"updated_at":"2026-03-03T03:07:26.763459+05:30"},{"city":"Jodhpur","state":"Rajasthan","latitude":26.2389,"longitude":73.0243,"temp":20.3,"humidity":54,"rain":0.0,"pressure":986.7,"uv_index":6.85,"wind_gusts":12.2,"aqi":88,"pm10":67.3,"pm2_5":33.2,"mosquito_risk":0,"arthritis_risk":5,"migraine_risk":7,"frizz_risk":0,"updated_at":"2026-03-03T03:07:26.763470+05:30"},{"city":"Udaipur","state":"Rajasthan","latitude":24.5854,"longitude":73.7125,"temp":17.7,"humidity":61,"rain":0.0,"pressure":949.4,"uv_index":7.45,"wind_gusts":16.6,"aqi":73,"pm10":34.6,"pm2_5":25.3,"mosquito_risk":3,"arthritis_risk":5,"migraine_risk":7,"frizz_risk":0,"updated_at":"2026-03-03T03:07:26.763479+05:30"},{"city":"Kota","state":"Rajasthan","latitude":25.2138,"longitude":75.8648,"temp":18.5,"humidity":75,"rain":0.0,"pressure":981.8,"uv_index":6.85,"wind_gusts":19.8,"aqi":91,"pm10":46.1,"pm2_5":33.1,"mosquito_risk":3,"arthritis_risk":5,"migraine_risk":7,"frizz_risk":0,"updated_at":"2026-03-03T03:07:26.763487+05:30"},{"city":"Bikaner","state":"Rajasthan","latitude":28.0229,"longitude":73.3119,"temp":21.9,"humidity":57,"rain":0.0,"pressure":985.7,"uv_index":6.55,"wind_gusts":19.8,"aqi":72,"pm10":42.1,"pm2_5":23.7,"mosquito_risk":0,"arthritis_risk":5,"migraine_risk":7,"frizz_risk":0,"updated_at":"2026-03-03T03:07:26.763513+05:30"},{"city":"Ajmer","state":"Rajasthan","latitude":26.4499,"longitude":74.6399,"temp":20.4,"humidity":50,"rain":0.0,"pressure":957.6,"uv_index":6.8,"wind_gusts":24.1,"aqi":80,"pm10":68.2,"pm2_5":26.7,"mosquito_risk":0,"arthritis_risk":5,"migraine_risk":7,"frizz_risk":0,"updated_at":"2026-03-03T03:07:26.763522+05:30"},{"city":"Gwalior","state":"Madhya Pradesh","latitude":26.2183,"longitude":78.1828,"temp":18.8,"humidity":75,"rain":0.0,"pressure":986.4,"uv_index":6.45,"wind_gusts":27.4,"aqi":99,"pm10":229.6,"pm2_5":56.6,"mosquito_risk":3,"arthritis_risk":5,"migraine_risk":7,"frizz_risk":0,"updated_at":"2026-03-03T03:07:26.763530+05:30"},{"city":"Indore","state":"Madhya Pradesh","latitude":22.7196,"longitude":75.8577,"temp":19.1,"humidity":62,"rain":0.0,"pressure":950.4,"uv_index":7.45,"wind_gusts":15.1,"aqi":89,"pm10":45.3,"pm2_5":34.6,"mosquito_risk":3,"arthritis_risk":5,"migraine_risk":7,"frizz_risk":0,"updated_at":"2026-03-03T03:07:26.763538+05:30"},{"city":"Bhopal","state":"Madhya Pradesh","latitude":23.2599,"longitude":77.4126,"temp":20.5,"humidity":55,"rain":0.0,"pressure":956.1,"uv_index":7.3,"wind_gusts":23.0,"aqi":80,"pm10":43.7,"pm2_5":33.9,"mosquito_risk":0,"arthritis_risk":5,"migraine_risk":7,"frizz_risk":0,"updated_at":"2026-03-03T03:07:26.763546+05:30"},{"city":"Jabalpur","state":"Madhya Pradesh","latitude":23.1815,"longitude":79.9864,"temp":19.0,"humidity":56,"rain":0.0,"pressure":963.9,"uv_index":7.4,"wind_gusts":18.4,"aqi":73,"pm10":39.5,"pm2_5":26.7,"mosquito_risk":0,"arthritis_risk":5,"migraine_risk":7,"frizz_risk":0,"updated_at":"2026-03-03T03:07:26.763554+05:30"},{"city":"Ujjain","state":"Madhya Pradesh","latitude":23.1765,"longitude":75.7885,"temp":19.4,"humidity":63,"rain":0.0,"pressure":956.2,"uv_index":7.3,"wind_gusts":15.1,"aqi":109,"pm10":56.6,"pm2_5":47.3,"mosquito_risk":3,"arthritis_risk":5,"migraine_risk":7,"frizz_risk":0,"updated_at":"2026-03-03T03:07:26.763562+05:30"},{"city":"Visakhapatnam","state":"Andhra Pradesh","latitude":17.6868,"longitude":83.2185,"temp":24.7,"humidity":78,"rain":0.0,"pressure":1004.7,"uv_index":8.35,"wind_gusts":34.6,"aqi":136,"pm10":44.6,"pm2_5":42.7,"mosquito_risk":3,"arthritis_risk":5,"migraine_risk":4,"frizz_risk":1,"updated_at":"2026-03-03T03:07:26.763570+05:30"},{"city":"Vijayawada","state":"Andhra Pradesh","latitude":16.5062,"longitude":80.648,"temp":23.7,"humidity":85,"rain":0.0,"pressure":1003.9,"uv_index":8.4,"wind_gusts":24.5,"aqi":139,"pm10":46.1,"pm2_5":43.9,"mosquito_risk":3,"arthritis_risk":5,"migraine_risk":4,"frizz_risk":1,"updated_at":"2026-03-03T03:07:26.763577+05:30"},{"city":"Guntur","state":"Andhra Pradesh","latitude":16.3067,"longitude":80.4365,"temp":23.0,"humidity":89,"rain":0.0,"pressure":1005.2,"uv_index":8.45,"wind_gusts":27.4,"aqi":132,"pm10":41.9,"pm2_5":40.2,"mosquito_risk":3,"arthritis_risk":5,"migraine_risk":4,"frizz_risk":1,"updated_at":"2026-03-03T03:07:26.763586+05:30"},{"city":"Nellore","state":"Andhra Pradesh","latitude":14.4426,"longitude":79.9865,"temp":23.1,"humidity":86,"rain":0.0,"pressure":1006.9,"uv_index":8.65,"wind_gusts":29.5,"aqi":119,"pm10":41.7,"pm2_5":39.8,"mosquito_risk":3,"arthritis_risk":5,"migraine_risk":4,"frizz_risk":1,"updated_at":"2026-03-03T03:07:26.763594+05:30"},{"city":"Kurnool","state":"Andhra Pradesh","latitude":15.8281,"longitude":78.0373,"temp":25.9,"humidity":56,"rain":0.0,"pressure":977.7,"uv_index":8.45,"wind_gusts":29.2,"aqi":124,"pm10":42.8,"pm2_5":42.1,"mosquito_risk":4,"arthritis_risk":5,"migraine_risk":7,"frizz_risk":1,"updated_at":"2026-03-03T03:07:26.763602+05:30"},{"city":"Kakinada","state":"Andhra Pradesh","latitude":16.9891,"longitude":82.2475,"temp":22.4,"humidity":89,"rain":0.0,"pressure":1008.7,"uv_index":8.4,"wind_gusts":34.6,"aqi":127,"pm10":44.8,"pm2_5":41.4,"mosquito_risk":3,"arthritis_risk":0,"migraine_risk":4,"frizz_risk":1,"updated_at":"2026-03-03T03:07:26.763610+05:30"},{"city":"Tirupati","state":"Andhra Pradesh","latitude":13.6288,"longitude":79.4192,"temp":22.1,"humidity":66,"rain":0.0,"pressure":992.7,"uv_index":8.8,"wind_gusts":38.2,"aqi":145,"pm10":73.6,"pm2_5":71.7,"mosquito_risk":3,"arthritis_risk":5,"migraine_risk":7,"frizz_risk":0,"updated_at":"2026-03-03T03:07:26.763618+05:30"},{"city":"Warangal","state":"Telangana","latitude":17.9689,"longitude":79.5941,"temp":24.2,"humidity":68,"rain":0.0,"pressure":979.6,"uv_index":8.2,"wind_gusts":18.7,"aqi":127,"pm10":38.8,"pm2_5":38.1,"mosquito_risk":3,"arthritis_risk":5,"migraine_risk":7,"frizz_risk":1,"updated_at":"2026-03-03T03:07:26.763625+05:30"},{"city":"Nizamabad","state":"Telangana","latitude":18.6725,"longitude":78.0941,"temp":20.6,"humidity":72,"rain":0.0,"pressure":965.7,"uv_index":8.1,"wind_gusts":29.2,"aqi":100,"pm10":40.6,"pm2_5":39.3,"mosquito_risk":3,"arthritis_risk":5,"migraine_risk":7,"frizz_risk":0,"updated_at":"2026-03-03T03:07:26.763633+05:30"},{"city":"Mysore","state":"Karnataka","latitude":12.2958,"longitude":76.6396,"temp":21.4,"humidity":89,"rain":0.0,"pressure":927.9,"uv_index":9.15,"wind_gusts":33.8,"aqi":142,"pm10":54.1,"pm2_5":53.4,"mosquito_risk":3,"arthritis_risk":5,"migraine_risk":7,"frizz_risk":1,"updated_at":"2026-03-03T03:07:26.763640+05:30"},{"city":"Mangalore","state":"Karnataka","latitude":12.9141,"longitude":74.856,"temp":28.4,"humidity":77,"rain":0.0,"pressure":1006.8,"uv_index":8.75,"wind_gusts":29.5,"aqi":58,"pm10":24.7,"pm2_5":17.3,"mosquito_risk":7,"arthritis_risk":5,"migraine_risk":4,"frizz_risk":1,"updated_at":"2026-03-03T03:07:26.763648+05:30"},{"city":"Hubli-Dharwad","state":"Karnataka","latitude":15.3647,"longitude":75.124,"temp":21.4,"humidity":90,"rain":0.0,"pressure":940.8,"uv_index":8.6,"wind_gusts":28.4,"aqi":84,"pm10":21.0,"pm2_5":18.1,"mosquito_risk":3,"arthritis_risk":5,"migraine_risk":7,"frizz_risk":1,"updated_at":"2026-03-03T03:07:26.763656+05:30"},{"city":"Belgaum","state":"Karnataka","latitude":15.8497,"longitude":74.4977,"temp":20.2,"humidity":94,"rain":0.0,"pressure":925.6,"uv_index":8.65,"wind_gusts":33.1,"aqi":82,"pm10":26.4,"pm2_5":22.7,"mosquito_risk":3,"arthritis_risk":5,"migraine_risk":7,"frizz_risk":1,"updated_at":"2026-03-03T03:07:29.990773+05:30"},{"city":"Coimbatore","state":"Tamil Nadu","latitude":11.0168,"longitude":76.9558,"temp":22.4,"humidity":84,"rain":0.0,"pressure":961.8,"uv_index":9.15,"wind_gusts":43.2,"aqi":141,"pm10":57.4,"pm2_5":56.2,"mosquito_risk":3,"arthritis_risk":5,"migraine_risk":7,"frizz_risk":1,"updated_at":"2026-03-03T03:07:29.990804+05:30"},{"city":"Madurai","state":"Tamil Nadu","latitude":9.9252,"longitude":78.1198,"temp":23.5,"humidity":83,"rain":0.0,"pressure":993.7,"uv_index":9.1,"wind_gusts":34.9,"aqi":121,"pm10":60.3,"pm2_5":59.0,"mosquito_risk":3,"arthritis_risk":5,"migraine_risk":7,"frizz_risk":1,"updated_at":"2026-03-03T03:07:29.990815+05:30"},{"city":"Trichy","state":"Tamil Nadu","latitude":10.7905,"longitude":78.7047,"temp":21.7,"humidity":94,"rain":0.0,"pressure":1000.7,"uv_index":9.0,"wind_gusts":31.7,"aqi":137,"pm10":48.8,"pm2_5":46.3,"mosquito_risk":3,"arthritis_risk":5,"migraine_risk":4,"frizz_risk":1,"updated_at":"2026-03-03T03:07:29.990824+05:30"},{"city":"Salem","state":"Tamil Nadu","latitude":11.6643,"longitude":78.146,"temp":22.9,"humidity":77,"rain":0.0,"pressure":977.7,"uv_index":9.0,"wind_gusts":40.7,"aqi":142,"pm10":65.2,"pm2_5":64.0,"mosquito_risk":3,"arthritis_risk":5,"migraine_risk":7,"frizz_risk":1,"updated_at":"2026-03-03T03:07:29.990832+05:30"},{"city":"Tirunelveli","state":"Tamil Nadu","latitude":8.7139,"longitude":77.7567,"temp":22.6,"humidity":91,"rain":0.0,"pressure":1003.7,"uv_index":9.1,"wind_gusts":37.8,"aqi":129,"pm10":61.0,"pm2_5":59.4,"mosquito_risk":3,"arthritis_risk":5,"migraine_risk":4,"frizz_risk":1,"updated_at":"2026-03-03T03:07:29.990841+05:30"},{"city":"Vellore","state":"Tamil Nadu","latitude":12.9165,"longitude":79.1325,"temp":21.2,"humidity":82,"rain":0.0,"pressure":985.8,"uv_index":8.9,"wind_gusts":38.9,"aqi":150,"pm10":77.1,"pm2_5":75.2,"mosquito_risk":3,"arthritis_risk":5,"migraine_risk":7,"frizz_risk":1,"updated_at":"2026-03-03T03:07:29.990849+05:30"},{"city":"Erode","state":"Tamil Nadu","latitude":11.341,"longitude":77.7172,"temp":24.6,"humidity":80,"rain":0.0,"pressure":989.7,"uv_index":9.05,"wind_gusts":36.4,"aqi":124,"pm10":46.3,"pm2_5":44.9,"mosquito_risk":3,"arthritis_risk":5,"migraine_risk":7,"frizz_risk":1,"updated_at":"2026-03-03T03:07:29.990858+05:30"},{"city":"Kochi","state":"Kerala","latitude":9.9312,"longitude":76.2673,"temp":27.6,"humidity":81,"rain":0.0,"pressure":1008.4,"uv_index":9.0,"wind_gusts":33.8,"aqi":102,"pm10":47.0,"pm2_5":46.6,"mosquito_risk":7,"arthritis_risk":0,"migraine_risk":4,"frizz_risk":1,"updated_at":"2026-03-03T03:07:29.990866+05:30"},{"city":"Thiruvananthapuram","state":"Kerala","latitude":8.5241,"longitude":76.9366,"temp":27.5,"humidity":80,"rain":0.0,"pressure":1007.6,"uv_index":8.95,"wind_gusts":27.0,"aqi":88,"pm10":28.8,"pm2_5":26.8,"mosquito_risk":7,"arthritis_risk":5,"migraine_risk":4,"frizz_risk":1,"updated_at":"2026-03-03T03:07:29.990874+05:30"},{"city":"Kozhikode","state":"Kerala","latitude":11.2588,"longitude":75.7804,"temp":27.8,"humidity":78,"rain":0.0,"pressure":1007.8,"uv_index":8.8,"wind_gusts":36.0,"aqi":59,"pm10":22.9,"pm2_5":18.5,"mosquito_risk":7,"arthritis_risk":5,"migraine_risk":4,"frizz_risk":1,"updated_at":"2026-03-03T03:07:29.990882+05:30"},{"city":"Thrissur","state":"Kerala","latitude":10.5276,"longitude":76.2144,"temp":25.7,"humidity":91,"rain":0.0,"pressure":1006.9,"uv_index":8.95,"wind_gusts":38.9,"aqi":96,"pm10":47.5,"pm2_5":46.3,"mosquito_risk":7,"arthritis_risk":5,"migraine_risk":4,"frizz_risk":1,"updated_at":"2026-03-03T03:07:29.990891+05:30"},{"city":"Kannur","state":"Kerala","latitude":11.8745,"longitude":75.3704,"temp":26.8,"humidity":80,"rain":0.0,"pressure":1007.2,"uv_index":8.85,"wind_gusts":40.0,"aqi":59,"pm10":17.6,"pm2_5":14.6,"mosquito_risk":7,"arthritis_risk":5,"migraine_risk":4,"frizz_risk":1,"updated_at":"2026-03-03T03:07:29.990900+05:30"},{"city":"Patna","state":"Bihar","latitude":25.5941,"longitude":85.1376,"temp":18.3,"humidity":69,"rain":0.0,"pressure":1002.9,"uv_index":7.15,"wind_gusts":17.6,"aqi":119,"pm10":67.8,"pm2_5":53.3,"mosquito_risk":3,"arthritis_risk":5,"migraine_risk":4,"frizz_risk":0,"updated_at":"2026-03-03T03:07:29.990908+05:30"},{"city":"Gaya","state":"Bihar","latitude":24.7914,"longitude":85.0002,"temp":17.8,"humidity":55,"rain":0.0,"pressure":996.5,"uv_index":7.25,"wind_gusts":22.7,"aqi":101,"pm10":49.7,"pm2_5":33.3,"mosquito_risk":0,"arthritis_risk":5,"migraine_risk":7,"frizz_risk":0,"updated_at":"2026-03-03T03:07:29.990917+05:30"},{"city":"Muzaffarpur","state":"Bihar","latitude":26.1209,"longitude":85.3647,"temp":16.8,"humidity":72,"rain":0.0,"pressure":1002.7,"uv_index":7.1,"wind_gusts":14.0,"aqi":124,"pm10":81.7,"pm2_5":67.5,"mosquito_risk":3,"arthritis_risk":5,"migraine_risk":4,"frizz_risk":0,"updated_at":"2026-03-03T03:07:29.990924+05:30"},{"city":"Bhagalpur","state":"Bihar","latitude":25.2425,"longitude":87.0117,"temp":16.0,"humidity":79,"rain":0.0,"pressure":1003.5,"uv_index":7.15,"wind_gusts":11.5,"aqi":129,"pm10":66.6,"pm2_5":41.4,"mosquito_risk":3,"arthritis_risk":5,"migraine_risk":4,"frizz_risk":0,"updated_at":"2026-03-03T03:07:29.990933+05:30"},{"city":"Ranchi","state":"Jharkhand","latitude":23.3441,"longitude":85.3096,"temp":17.9,"humidity":38,"rain":0.0,"pressure":939.2,"uv_index":7.9,"wind_gusts":44.6,"aqi":75,"pm10":43.9,"pm2_5":21.9,"mosquito_risk":0,"arthritis_risk":5,"migraine_risk":7,"frizz_risk":0,"updated_at":"2026-03-03T03:07:29.990941+05:30"},{"city":"Jamshedpur","state":"Jharkhand","latitude":22.8046,"longitude":86.2029,"temp":17.9,"humidity":72,"rain":0.0,"pressure":993.4,"uv_index":7.75,"wind_gusts":13.7,"aqi":108,"pm10":74.0,"pm2_5":47.1,"mosquito_risk":3,"arthritis_risk":5,"migraine_risk":7,"frizz_risk":0,"updated_at":"2026-03-03T03:07:29.990949+05:30"},{"city":"Dhanbad","state":"Jharkhand","latitude":23.7957,"longitude":86.4304,"temp":18.0,"humidity":56,"rain":0.0,"pressure":982.2,"uv_index":7.65,"wind_gusts":28.8,"aqi":114,"pm10":66.6,"pm2_5":46.0,"mosquito_risk":0,"arthritis_risk":5,"migraine_risk":7,"frizz_risk":0,"updated_at":"2026-03-03T03:07:29.990957+05:30"},{"city":"Bokaro","state":"Jharkhand","latitude":23.6693,"longitude":86.1511,"temp":16.6,"humidity":64,"rain":0.0,"pressure":986.4,"uv_index":7.65,"wind_gusts":31.7,"aqi":117,"pm10":66.6,"pm2_5":49.4,"mosquito_risk":3,"arthritis_risk":5,"migraine_risk":7,"frizz_risk":0,"updated_at":"2026-03-03T03:07:29.990966+05:30"},{"city":"Bhubaneswar","state":"Odisha","latitude":20.2961,"longitude":85.8245,"temp":23.3,"humidity":93,"rain":0.0,"pressure":1003.8,"uv_index":8.1,"wind_gusts":24.5,"aqi":152,"pm10":81.3,"pm2_5":77.1,"mosquito_risk":3,"arthritis_risk":5,"migraine_risk":4,"frizz_risk":1,"updated_at":"2026-03-03T03:07:29.990973+05:30"},{"city":"Cuttack","state":"Odisha","latitude":20.4625,"longitude":85.8828,"temp":22.8,"humidity":90,"rain":0.0,"pressure":1006.0,"uv_index":8.1,"wind_gusts":24.8,"aqi":152,"pm10":81.3,"pm2_5":77.1,"mosquito_risk":3,"arthritis_risk":5,"migraine_risk":4,"frizz_risk":1,"updated_at":"2026-03-03T03:07:29.990981+05:30"},{"city":"Rourkela","state":"Odisha","latitude":22.2604,"longitude":84.8536,"temp":19.3,"humidity":59,"rain":0.0,"pressure":987.5,"uv_index":7.7,"wind_gusts":23.0,"aqi":87,"pm10":48.4,"pm2_5":32.0,"mosquito_risk":0,"arthritis_risk":5,"migraine_risk":7,"frizz_risk":0,"updated_at":"2026-03-03T03:07:29.990989+05:30"},{"city":"Raipur","state":"Chhattisgarh","latitude":21.2514,"longitude":81.6296,"temp":21.3,"humidity":59,"rain":0.0,"pressure":976.6,"uv_index":7.8,"wind_gusts":16.2,"aqi":107,"pm10":77.8,"pm2_5":69.6,"mosquito_risk":0,"arthritis_risk":5,"migraine_risk":7,"frizz_risk":0,"updated_at":"2026-03-03T03:07:29.990996+05:30"},{"city":"Bhilai","state":"Chhattisgarh","latitude":21.1938,"longitude":81.3509,"temp":20.3,"humidity":59,"rain":0.0,"pressure":976.8,"uv_index":7.8,"wind_gusts":14.8,"aqi":106,"pm10":70.3,"pm2_5":62.2,"mosquito_risk":0,"arthritis_risk":5,"migraine_risk":7,"frizz_risk":0,"updated_at":"2026-03-03T03:07:29.991003+05:30"},{"city":"Guwahati","state":"Assam","latitude":26.1158,"longitude":91.7086,"temp":20.3,"humidity":88,"rain":0.0,"pressure":1004.4,"uv_index":7.1,"wind_gusts":22.3,"aqi":151,"pm10":71.0,"pm2_5":59.4,"mosquito_risk":3,"arthritis_risk":5,"migraine_risk":4,"frizz_risk":1,"updated_at":"2026-03-03T03:07:29.991011+05:30"},{"city":"Agartala","state":"Tripura","latitude":23.8315,"longitude":91.2868,"temp":20.4,"humidity":95,"rain":0.0,"pressure":1008.2,"uv_index":7.45,"wind_gusts":19.8,"aqi":157,"pm10":96.2,"pm2_5":91.7,"mosquito_risk":3,"arthritis_risk":0,"migraine_risk":4,"frizz_risk":1,"updated_at":"2026-03-03T03:07:29.991019+05:30"},{"city":"Shillong","state":"Meghalaya","latitude":25.5788,"longitude":91.8933,"temp":6.6,"humidity":82,"rain":0.0,"pressure":853.1,"uv_index":7.45,"wind_gusts":28.1,"aqi":113,"pm10":55.8,"pm2_5":45.5,"mosquito_risk":3,"arthritis_risk":10,"migraine_risk":7,"frizz_risk":0,"updated_at":"2026-03-03T03:07:29.991027+05:30"},{"city":"Imphal","state":"Manipur","latitude":24.817,"longitude":93.9368,"temp":13.7,"humidity":79,"rain":0.0,"pressure":923.6,"uv_index":7.5,"wind_gusts":28.8,"aqi":155,"pm10":116.4,"pm2_5":99.7,"mosquito_risk":3,"arthritis_risk":5,"migraine_risk":7,"frizz_risk":0,"updated_at":"2026-03-03T03:07:29.991034+05:30"},{"city":"Aizawl","state":"Mizoram","latitude":23.7271,"longitude":92.7176,"temp":14.2,"humidity":93,"rain":0.0,"pressure":892.7,"uv_index":7.65,"wind_gusts":34.2,"aqi":153,"pm10":90.8,"pm2_5":86.4,"mosquito_risk":3,"arthritis_risk":10,"migraine_risk":7,"frizz_risk":0,"updated_at":"2026-03-03T03:07:29.991042+05:30"},{"city":"Kohima","state":"Nagaland","latitude":25.6701,"longitude":94.1077,"temp":10.8,"humidity":85,"rain":0.0,"pressure":853.8,"uv_index":7.15,"wind_gusts":45.0,"aqi":147,"pm10":79.2,"pm2_5":70.3,"mosquito_risk":3,"arthritis_risk":10,"migraine_risk":7,"frizz_risk":0,"updated_at":"2026-03-03T03:07:29.991050+05:30"},{"city":"Gangtok","state":"Sikkim","latitude":27.3314,"longitude":88.6138,"temp":10.6,"humidity":80,"rain":0.0,"pressure":835.5,"uv_index":7.4,"wind_gusts":19.1,"aqi":126,"pm10":75.0,"pm2_5":56.7,"mosquito_risk":3,"arthritis_risk":5,"migraine_risk":7,"frizz_risk":0,"updated_at":"2026-03-03T03:07:29.991058+05:30"},{"city":"Siliguri","state":"West Bengal","latitude":26.7271,"longitude":88.3953,"temp":18.1,"humidity":72,"rain":0.0,"pressure":996.2,"uv_index":7.1,"wind_gusts":18.4,"aqi":166,"pm10":130.4,"pm2_5":103.8,"mosquito_risk":3,"arthritis_risk":5,"migraine_risk":7,"frizz_risk":0,"updated_at":"2026-03-03T03:07:33.215820+05:30"},{"city":"Durgapur","state":"West Bengal","latitude":23.5204,"longitude":87.3119,"temp":21.3,"humidity":41,"rain":0.0,"pressure":997.6,"uv_index":7.65,"wind_gusts":28.1,"aqi":103,"pm10":48.0,"pm2_5":26.8,"mosquito_risk":0,"arthritis_risk":5,"migraine_risk":7,"frizz_risk":0,"updated_at":"2026-03-03T03:07:33.215852+05:30"},{"city":"Asansol","state":"West Bengal","latitude":23.6739,"longitude":86.9524,"temp":23.0,"humidity":37,"rain":0.0,"pressure":996.2,"uv_index":7.65,"wind_gusts":23.4,"aqi":92,"pm10":46.8,"pm2_5":27.7,"mosquito_risk":0,"arthritis_risk":5,"migraine_risk":7,"frizz_risk":0,"updated_at":"2026-03-03T03:07:33.215862+05:30"},{"city":"Pondicherry","state":"Puducherry","latitude":11.9139,"longitude":79.8145,"temp":21.6,"humidity":96,"rain":0.0,"pressure":1009.5,"uv_index":8.85,"wind_gusts":27.7,"aqi":115,"pm10":43.1,"pm2_5":39.2,"mosquito_risk":3,"arthritis_risk":0,"migraine_risk":4,"frizz_risk":1,"updated_at":"2026-03-03T03:07:33.215871+05:30"},{"city":"Port Blair","state":"Andaman and Nicobar Islands","latitude":11.6234,"longitude":92.7265,"temp":27.0,"humidity":75,"rain":0.0,"pressure":1007.2,"uv_index":8.8,"wind_gusts":16.2,"aqi":81,"pm10":32.9,"pm2_5":25.1,"mosquito_risk":7,"arthritis_risk":5,"migraine_risk":4,"frizz_risk":1,"updated_at":"2026-03-03T03:07:33.215880+05:30"},{"city":"Haridwar","state":"Uttarakhand","latitude":29.9457,"longitude":78.1642,"temp":14.5,"humidity":85,"rain":0.0,"pressure":975.8,"uv_index":5.55,"wind_gusts":24.5,"aqi":98,"pm10":53.3,"pm2_5":50.5,"mosquito_risk":3,"arthritis_risk":10,"migraine_risk":3,"frizz_risk":0,"updated_at":"2026-03-03T03:07:33.215889+05:30"},{"city":"Rishikesh","state":"Uttarakhand","latitude":30.0869,"longitude":78.2676,"temp":15.4,"humidity":73,"rain":0.0,"pressure":968.4,"uv_index":5.65,"wind_gusts":23.4,"aqi":78,"pm10":32.8,"pm2_5":31.3,"mosquito_risk":3,"arthritis_risk":5,"migraine_risk":3,"frizz_risk":0,"updated_at":"2026-03-03T03:07:33.215897+05:30"},{"city":"Nainital","state":"Uttarakhand","latitude":29.3919,"longitude":79.4542,"temp":14.6,"humidity":56,"rain":0.0,"pressure":804.6,"uv_index":6.45,"wind_gusts":54.4,"aqi":78,"pm10":35.4,"pm2_5":30.4,"mosquito_risk":0,"arthritis_risk":5,"migraine_risk":7,"frizz_risk":0,"updated_at":"2026-03-03T03:07:33.215906+05:30"},{"city":"Mussoorie","state":"Uttarakhand","latitude":30.4599,"longitude":78.0664,"temp":12.6,"humidity":62,"rain":0.0,"pressure":801.0,"uv_index":5.95,"wind_gusts":40.7,"aqi":81,"pm10":31.9,"pm2_5":30.7,"mosquito_risk":3,"arthritis_risk":5,"migraine_risk":3,"frizz_risk":0,"updated_at":"2026-03-03T03:07:33.215914+05:30"},{"city":"Dharamshala","state":"Himachal Pradesh","latitude":32.219,"longitude":76.3234,"temp":17.0,"humidity":35,"rain":0.0,"pressure":869.7,"uv_index":6.2,"wind_gusts":22.7,"aqi":54,"pm10":9.9,"pm2_5":7.1,"mosquito_risk":0,"arthritis_risk":5,"migraine_risk":7,"frizz_risk":0,"updated_at":"2026-03-03T03:07:33.215922+05:30"},{"city":"Dalhousie","state":"Himachal Pradesh","latitude":32.5387,"longitude":75.971,"temp":13.2,"humidity":27,"rain":0.0,"pressure":803.3,"uv_index":6.4,"wind_gusts":20.9,"aqi":95,"pm10":33.8,"pm2_5":31.5,"mosquito_risk":0,"arthritis_risk":5,"migraine_risk":7,"frizz_risk":1,"updated_at":"2026-03-03T03:07:33.215931+05:30"},{"city":"Patiala","state":"Punjab","latitude":30.3398,"longitude":76.3869,"temp":15.7,"humidity":80,"rain":0.0,"pressure":981.0,"uv_index":5.6,"wind_gusts":35.3,"aqi":157,"pm10":299.9,"pm2_5":67.8,"mosquito_risk":3,"arthritis_risk":5,"migraine_risk":3,"frizz_risk":0,"updated_at":"2026-03-03T03:07:33.215939+05:30"},{"city":"Bhatinda","state":"Punjab","latitude":30.211,"longitude":74.9455,"temp":16.2,"humidity":78,"rain":0.0,"pressure":987.1,"uv_index":6.3,"wind_gusts":28.8,"aqi":154,"pm10":77.8,"pm2_5":62.9,"mosquito_risk":3,"arthritis_risk":5,"migraine_risk":7,"frizz_risk":0,"updated_at":"2026-03-03T03:07:33.215948+05:30"},{"city":"Rohtak","state":"Haryana","latitude":28.8955,"longitude":76.6066,"temp":16.1,"humidity":80,"rain":0.0,"pressure":984.7,"uv_index":5.85,"wind_gusts":33.5,"aqi":290,"pm10":417.2,"pm2_5":82.4,"mosquito_risk":3,"arthritis_risk":5,"migraine_risk":3,"frizz_risk":0,"updated_at":"2026-03-03T03:07:33.215956+05:30"},{"city":"Panipat","state":"Haryana","latitude":29.3909,"longitude":76.9635,"temp":15.2,"humidity":83,"rain":0.0,"pressure":983.2,"uv_index":5.65,"wind_gusts":37.1,"aqi":767,"pm10":961.1,"pm2_5":136.4,"mosquito_risk":3,"arthritis_risk":10,"migraine_risk":3,"frizz_risk":0,"updated_at":"2026-03-03T03:07:33.215964+05:30"},{"city":"Mathura","state":"Uttar Pradesh","latitude":27.4924,"longitude":77.6737,"temp":19.3,"humidity":71,"rain":0.0,"pressure":990.1,"uv_index":6.1,"wind_gusts":28.8,"aqi":434,"pm10":551.3,"pm2_5":101.5,"mosquito_risk":3,"arthritis_risk":5,"migraine_risk":7,"frizz_risk":0,"updated_at":"2026-03-03T03:07:33.215972+05:30"},{"city":"Vrindavan","state":"Uttar Pradesh","latitude":27.5823,"longitude":77.7027,"temp":17.4,"humidity":80,"rain":0.0,"pressure":990.4,"uv_index":6.05,"wind_gusts":31.7,"aqi":434,"pm10":551.3,"pm2_5":101.5,"mosquito_risk":3,"arthritis_risk":5,"migraine_risk":7,"frizz_risk":0,"updated_at":"2026-03-03T03:07:33.215980+05:30"},{"city":"Ayodhya","state":"Uttar Pradesh","latitude":26.7922,"longitude":82.1998,"temp":17.1,"humidity":73,"rain":0.0,"pressure":997.5,"uv_index":6.45,"wind_gusts":30.6,"aqi":137,"pm10":228.6,"pm2_5":70.5,"mosquito_risk":3,"arthritis_risk":5,"migraine_risk":7,"frizz_risk":0,"updated_at":"2026-03-03T03:07:33.215987+05:30"},{"city":"Ratlam","state":"Madhya Pradesh","latitude":23.3315,"longitude":75.0367,"temp":18.1,"humidity":86,"rain":0.0,"pressure":956.7,"uv_index":7.3,"wind_gusts":10.1,"aqi":102,"pm10":60.1,"pm2_5":53.4,"mosquito_risk":3,"arthritis_risk":10,"migraine_risk":7,"frizz_risk":0,"updated_at":"2026-03-03T03:07:33.215996+05:30"},{"city":"Sagar","state":"Madhya Pradesh","latitude":23.8388,"longitude":78.7378,"temp":19.9,"humidity":56,"rain":0.0,"pressure":952.6,"uv_index":7.25,"wind_gusts":28.4,"aqi":67,"pm10":32.1,"pm2_5":23.0,"mosquito_risk":0,"arthritis_risk":5,"migraine_risk":7,"frizz_risk":0,"updated_at":"2026-03-03T03:07:33.216003+05:30"},{"city":"Satna","state":"Madhya Pradesh","latitude":24.6005,"longitude":80.8322,"temp":20.2,"humidity":47,"rain":0.0,"pressure":974.0,"uv_index":7.2,"wind_gusts":32.0,"aqi":64,"pm10":34.2,"pm2_5":20.4,"mosquito_risk":0,"arthritis_risk":5,"migraine_risk":7,"frizz_risk":0,"updated_at":"2026-03-03T03:07:33.216011+05:30"},{"city":"Akola","state":"Maharashtra","latitude":20.7002,"longitude":77.0082,"temp":22.7,"humidity":62,"rain":0.0,"pressure":977.1,"uv_index":7.8,"wind_gusts":21.2,"aqi":76,"pm10":33.9,"pm2_5":31.3,"mosquito_risk":3,"arthritis_risk":5,"migraine_risk":7,"frizz_risk":0,"updated_at":"2026-03-03T03:07:33.216020+05:30"},{"city":"Amravati","state":"Maharashtra","latitude":20.9374,"longitude":77.7796,"temp":21.6,"humidity":56,"rain":0.0,"pressure":969.4,"uv_index":7.75,"wind_gusts":17.3,"aqi":78,"pm10":37.3,"pm2_5":33.5,"mosquito_risk":0,"arthritis_risk":5,"migraine_risk":7,"frizz_risk":0,"updated_at":"2026-03-03T03:07:33.216028+05:30"},{"city":"Latur","state":"Maharashtra","latitude":18.4088,"longitude":76.5604,"temp":23.0,"humidity":52,"rain":0.0,"pressure":940.5,"uv_index":8.2,"wind_gusts":34.2,"aqi":89,"pm10":39.5,"pm2_5":38.9,"mosquito_risk":0,"arthritis_risk":5,"migraine_risk":7,"frizz_risk":0,"updated_at":"2026-03-03T03:07:33.216037+05:30"},{"city":"Nanded","state":"Maharashtra","latitude":19.1383,"longitude":77.3091,"temp":23.7,"humidity":63,"rain":0.0,"pressure":970.1,"uv_index":8.0,"wind_gusts":22.3,"aqi":94,"pm10":56.8,"pm2_5":55.5,"mosquito_risk":3,"arthritis_risk":5,"migraine_risk":7,"frizz_risk":1,"updated_at":"2026-03-03T03:07:33.216044+05:30"},{"city":"Gulbarga","state":"Karnataka","latitude":17.3297,"longitude":76.8343,"temp":24.5,"humidity":56,"rain":0.0,"pressure":959.5,"uv_index":8.3,"wind_gusts":22.3,"aqi":140,"pm10":36.0,"pm2_5":35.6,"mosquito_risk":0,"arthritis_risk":5,"migraine_risk":7,"frizz_risk":0,"updated_at":"2026-03-03T03:07:33.216052+05:30"},{"city":"Bidar","state":"Karnataka","latitude":17.9104,"longitude":77.5199,"temp":23.3,"humidity":65,"rain":0.0,"pressure":936.4,"uv_index":8.25,"wind_gusts":24.5,"aqi":131,"pm10":37.5,"pm2_5":36.8,"mosquito_risk":3,"arthritis_risk":5,"migraine_risk":7,"frizz_risk":1,"updated_at":"2026-03-03T03:07:33.216060+05:30"},{"city":"Hospet","state":"Karnataka","latitude":15.2689,"longitude":76.3909,"temp":26.9,"humidity":61,"rain":0.0,"pressure":956.1,"uv_index":8.6,"wind_gusts":27.4,"aqi":120,"pm10":50.8,"pm2_5":50.3,"mosquito_risk":7,"arthritis_risk":5,"migraine_risk":7,"frizz_risk":1,"updated_at":"2026-03-03T03:07:33.216067+05:30"},{"city":"Tirupur","state":"Tamil Nadu","latitude":11.1085,"longitude":77.3411,"temp":25.0,"humidity":72,"rain":0.0,"pressure":975.7,"uv_index":9.15,"wind_gusts":33.5,"aqi":145,"pm10":55.3,"pm2_5":54.1,"mosquito_risk":7,"arthritis_risk":5,"migraine_risk":7,"frizz_risk":1,"updated_at":"2026-03-03T03:07:33.216075+05:30"},{"city":"Alappuzha","state":"Kerala","latitude":9.4981,"longitude":76.3388,"temp":27.1,"humidity":83,"rain":0.0,"pressure":1008.6,"uv_index":8.95,"wind_gusts":30.2,"aqi":97,"pm10":41.3,"pm2_5":40.0,"mosquito_risk":7,"arthritis_risk":0,"migraine_risk":4,"frizz_risk":1,"updated_at":"2026-03-03T03:07:33.216082+05:30"},{"city":"Munnar","state":"Kerala","latitude":10.0889,"longitude":77.0595,"temp":17.8,"humidity":72,"rain":0.0,"pressure":854.8,"uv_index":9.45,"wind_gusts":22.7,"aqi":121,"pm10":49.4,"pm2_5":48.4,"mosquito_risk":3,"arthritis_risk":5,"migraine_risk":7,"frizz_risk":0,"updated_at":"2026-03-03T03:07:33.216091+05:30"},{"city":"Silchar","state":"Assam","latitude":24.8333,"longitude":92.7789,"temp":19.7,"humidity":90,"rain":0.0,"pressure":1008.0,"uv_index":7.4,"wind_gusts":20.2,"aqi":156,"pm10":97.8,"pm2_5":79.2,"mosquito_risk":3,"arthritis_risk":5,"migraine_risk":4,"frizz_risk":1,"updated_at":"2026-03-03T03:07:33.216099+05:30"},{"city":"Dibrugarh","state":"Assam","latitude":27.4728,"longitude":94.912,"temp":19.3,"humidity":87,"rain":0.0,"pressure":999.2,"uv_index":7.1,"wind_gusts":9.0,"aqi":153,"pm10":56.6,"pm2_5":49.7,"mosquito_risk":3,"arthritis_risk":10,"migraine_risk":7,"frizz_risk":1,"updated_at":"2026-03-03T03:07:33.216107+05:30"}]