[{"city":"Delhi","state":"Delhi","latitude":28.6139,"longitude":77.209,"temp":32.7,"humidity":27,"rain":0.0,"pressure":983.1,"uv_index":7.2,"wind_gusts":34.9,"aqi":282,"pm10":370.7,"pm2_5":47.7,"mosquito_risk":0,"arthritis_risk":5,"migraine_risk":7,"frizz_risk":0,"updated_at":"2026-04-12T14:23:55.211351+05:30"},{"city":"Mumbai","state":"Maharashtra","latitude":19.076,"longitude":72.8777,"temp":29.3,"humidity":78,"rain":0.0,"pressure":1005.9,"uv_index":8.0,"wind_gusts":22.7,"aqi":121,"pm10":61.5,"pm2_5":43.0,"mosquito_risk":7,"arthritis_risk":5,"migraine_risk":4,"frizz_risk":1,"updated_at":"2026-04-12T14:23:55.211397+05:30"},{"city":"Bangalore","state":"Karnataka","latitude":12.9716,"longitude":77.5946,"temp":34.6,"humidity":31,"rain":0.0,"pressure":911.3,"uv_index":9.7,"wind_gusts":31.7,"aqi":88,"pm10":37.3,"pm2_5":27.6,"mosquito_risk":0,"arthritis_risk":5,"migraine_risk":7,"frizz_risk":0,"updated_at":"2026-04-12T14:23:55.211411+05:30"},{"city":"Hyderabad","state":"Telangana","latitude":17.385,"longitude":78.4867,"temp":39.8,"humidity":20,"rain":0.0,"pressure":951.5,"uv_index":9.25,"wind_gusts":28.1,"aqi":93,"pm10":34.1,"pm2_5":23.4,"mosquito_risk":0,"arthritis_risk":5,"migraine_risk":10,"frizz_risk":0,"updated_at":"2026-04-12T14:23:55.211422+05:30"},{"city":"Chennai","state":"Tamil Nadu","latitude":13.0827,"longitude":80.2707,"temp":34.9,"humidity":49,"rain":0.0,"pressure":1006.2,"uv_index":9.4,"wind_gusts":34.9,"aqi":52,"pm10":21.2,"pm2_5":11.9,"mosquito_risk":0,"arthritis_risk":5,"migraine_risk":4,"frizz_risk":1,"updated_at":"2026-04-12T14:23:55.211429+05:30"},{"city":"Kolkata","state":"West Bengal","latitude":22.5726,"longitude":88.3639,"temp":35.3,"humidity":35,"rain":0.0,"pressure":1003.4,"uv_index":8.8,"wind_gusts":23.0,"aqi":135,"pm10":143.4,"pm2_5":41.8,"mosquito_risk":0,"arthritis_risk":5,"migraine_risk":7,"frizz_risk":1,"updated_at":"2026-04-12T14:23:55.211437+05:30"},{"city":"Pune","state":"Maharashtra","latitude":18.5204,"longitude":73.8567,"temp":40.7,"humidity":18,"rain":0.0,"pressure":946.6,"uv_index":8.55,"wind_gusts":41.8,"aqi":110,"pm10":31.9,"pm2_5":20.4,"mosquito_risk":0,"arthritis_risk":5,"migraine_risk":10,"frizz_risk":0,"updated_at":"2026-04-12T14:23:55.211448+05:30"},{"city":"Ahmedabad","state":"Gujarat","latitude":23.0225,"longitude":72.5714,"temp":41.2,"humidity":15,"rain":0.0,"pressure":999.9,"uv_index":8.1,"wind_gusts":21.2,"aqi":104,"pm10":73.8,"pm2_5":18.7,"mosquito_risk":0,"arthritis_risk":5,"migraine_risk":10,"frizz_risk":0,"updated_at":"2026-04-12T14:23:55.211454+05:30"},{"city":"Jaipur","state":"Rajasthan","latitude":26.9124,"longitude":75.7873,"temp":35.0,"humidity":13,"rain":0.0,"pressure":960.6,"uv_index":7.85,"wind_gusts":29.5,"aqi":166,"pm10":204.0,"pm2_5":31.4,"mosquito_risk":0,"arthritis_risk":5,"migraine_risk":7,"frizz_risk":0,"updated_at":"2026-04-12T14:23:55.211460+05:30"},{"city":"Lucknow","state":"Uttar Pradesh","latitude":26.8467,"longitude":80.9462,"temp":35.8,"humidity":22,"rain":0.0,"pressure":991.5,"uv_index":7.7,"wind_gusts":31.7,"aqi":163,"pm10":158.3,"pm2_5":33.3,"mosquito_risk":0,"arthritis_risk":5,"migraine_risk":10,"frizz_risk":0,"updated_at":"2026-04-12T14:23:55.211466+05:30"},{"city":"Kanpur","state":"Uttar Pradesh","latitude":26.4499,"longitude":80.3319,"temp":34.4,"humidity":29,"rain":0.0,"pressure":990.4,"uv_index":7.75,"wind_gusts":25.2,"aqi":443,"pm10":321.3,"pm2_5":48.8,"mosquito_risk":0,"arthritis_risk":5,"migraine_risk":7,"frizz_risk":0,"updated_at":"2026-04-12T14:23:55.211472+05:30"},{"city":"Chandigarh","state":"Chandigarh","latitude":30.7333,"longitude":76.7794,"temp":30.3,"humidity":33,"rain":0.0,"pressure":969.2,"uv_index":7.1,"wind_gusts":31.7,"aqi":74,"pm10":50.5,"pm2_5":18.8,"mosquito_risk":0,"arthritis_risk":5,"migraine_risk":7,"frizz_risk":0,"updated_at":"2026-04-12T14:23:55.211479+05:30"},{"city":"Srinagar","state":"Jammu and Kashmir","latitude":34.0837,"longitude":74.7973,"temp":18.3,"humidity":40,"rain":0.0,"pressure":842.4,"uv_index":8.05,"wind_gusts":14.0,"aqi":77,"pm10":19.6,"pm2_5":8.4,"mosquito_risk":0,"arthritis_risk":5,"migraine_risk":7,"frizz_risk":0,"updated_at":"2026-04-12T14:23:55.211485+05:30"},{"city":"Jammu","state":"Jammu and Kashmir","latitude":32.7266,"longitude":74.857,"temp":30.3,"humidity":34,"rain":0.0,"pressure":973.5,"uv_index":7.8,"wind_gusts":26.3,"aqi":71,"pm10":44.2,"pm2_5":12.4,"mosquito_risk":0,"arthritis_risk":5,"migraine_risk":7,"frizz_risk":0,"updated_at":"2026-04-12T14:23:55.211491+05:30"},{"city":"Amritsar","state":"Punjab","latitude":31.634,"longitude":74.8723,"temp":29.8,"humidity":35,"rain":0.0,"pressure":982.1,"uv_index":7.75,"wind_gusts":25.2,"aqi":82,"pm10":47.6,"pm2_5":15.7,"mosquito_risk":4,"arthritis_risk":5,"migraine_risk":7,"frizz_risk":0,"updated_at":"2026-04-12T14:23:55.211498+05:30"},{"city":"Ludhiana","state":"Punjab","latitude":30.901,"longitude":75.8573,"temp":30.8,"humidity":32,"rain":0.0,"pressure":979.5,"uv_index":7.4,"wind_gusts":30.2,"aqi":78,"pm10":64.5,"pm2_5":18.2,"mosquito_risk":0,"arthritis_risk":5,"migraine_risk":7,"frizz_risk":0,"updated_at":"2026-04-12T14:23:55.211503+05:30"},{"city":"Jalandhar","state":"Punjab","latitude":31.326,"longitude":75.5762,"temp":30.2,"humidity":35,"rain":0.0,"pressure":980.9,"uv_index":7.55,"wind_gusts":27.0,"aqi":79,"pm10":72.9,"pm2_5":19.2,"mosquito_risk":0,"arthritis_risk":5,"migraine_risk":7,"frizz_risk":0,"updated_at":"2026-04-12T14:23:55.211510+05:30"},{"city":"Dehradun","state":"Uttarakhand","latitude":30.6284,"longitude":78.0322,"temp":20.3,"humidity":46,"rain":0.0,"pressure":830.6,"uv_index":7.45,"wind_gusts":36.0,"aqi":78,"pm10":38.4,"pm2_5":10.7,"mosquito_risk":0,"arthritis_risk":5,"migraine_risk":7,"frizz_risk":0,"updated_at":"2026-04-12T14:23:55.211516+05:30"},{"city":"Shimla","state":"Himachal Pradesh","latitude":31.1048,"longitude":77.1734,"temp":18.0,"humidity":52,"rain":0.0,"pressure":785.6,"uv_index":7.65,"wind_gusts":43.2,"aqi":79,"pm10":41.7,"pm2_5":13.4,"mosquito_risk":0,"arthritis_risk":5,"migraine_risk":7,"frizz_risk":0,"updated_at":"2026-04-12T14:23:55.211522+05:30"},{"city":"Manali","state":"Himachal Pradesh","latitude":32.2396,"longitude":77.1887,"temp":19.8,"humidity":37,"rain":0.0,"pressure":819.9,"uv_index":9.85,"wind_gusts":25.6,"aqi":134,"pm10":14.2,"pm2_5":6.0,"mosquito_risk":0,"arthritis_risk":5,"migraine_risk":7,"frizz_risk":0,"updated_at":"2026-04-12T14:23:55.211528+05:30"},{"city":"Gurgaon","state":"Haryana","latitude":28.4595,"longitude":77.0266,"temp":32.9,"humidity":26,"rain":0.0,"pressure":981.7,"uv_index":7.3,"wind_gusts":33.5,"aqi":792,"pm10":1523.6,"pm2_5":143.0,"mosquito_risk":0,"arthritis_risk":5,"migraine_risk":7,"frizz_risk":0,"updated_at":"2026-04-12T14:23:55.211535+05:30"},{"city":"Noida","state":"Uttar Pradesh","latitude":28.5355,"longitude":77.391,"temp":33.0,"humidity":27,"rain":0.0,"pressure":984.5,"uv_index":7.25,"wind_gusts":34.2,"aqi":792,"pm10":1523.6,"pm2_5":143.0,"mosquito_risk":0,"arthritis_risk":5,"migraine_risk":7,"frizz_risk":0,"updated_at":"2026-04-12T14:23:55.211541+05:30"},{"city":"Ghaziabad","state":"Uttar Pradesh","latitude":28.6692,"longitude":77.4538,"temp":32.5,"humidity":29,"rain":0.0,"pressure":982.6,"uv_index":7.2,"wind_gusts":33.1,"aqi":178,"pm10":248.7,"pm2_5":39.3,"mosquito_risk":0,"arthritis_risk":5,"migraine_risk":7,"frizz_risk":0,"updated_at":"2026-04-12T14:23:55.211546+05:30"},{"city":"Faridabad","state":"Haryana","latitude":28.4089,"longitude":77.3178,"temp":33.0,"humidity":26,"rain":0.0,"pressure":984.0,"uv_index":7.3,"wind_gusts":33.5,"aqi":792,"pm10":1523.6,"pm2_5":143.0,"mosquito_risk":0,"arthritis_risk":5,"migraine_risk":7,"frizz_risk":0,"updated_at":"2026-04-12T14:23:55.211552+05:30"},{"city":"Meerut","state":"Uttar Pradesh","latitude":28.9845,"longitude":77.7064,"temp":32.2,"humidity":29,"rain":0.0,"pressure":981.3,"uv_index":7.1,"wind_gusts":33.8,"aqi":178,"pm10":248.7,"pm2_5":39.3,"mosquito_risk":0,"arthritis_risk":5,"migraine_risk":7,"frizz_risk":0,"updated_at":"2026-04-12T14:23:55.211558+05:30"},{"city":"Agra","state":"Uttar Pradesh","latitude":27.1767,"longitude":78.0081,"temp":35.1,"humidity":22,"rain":0.0,"pressure":987.5,"uv_index":7.6,"wind_gusts":33.5,"aqi":420,"pm10":691.0,"pm2_5":79.2,"mosquito_risk":0,"arthritis_risk":5,"migraine_risk":10,"frizz_risk":0,"updated_at":"2026-04-12T14:23:55.211563+05:30"},{"city":"Varanasi","state":"Uttar Pradesh","latitude":25.3176,"longitude":82.9739,"temp":38.0,"humidity":19,"rain":0.0,"pressure":994.9,"uv_index":8.3,"wind_gusts":28.8,"aqi":136,"pm10":190.5,"pm2_5":37.7,"mosquito_risk":0,"arthritis_risk":5,"migraine_risk":10,"frizz_risk":0,"updated_at":"2026-04-12T14:23:55.211571+05:30"},{"city":"Prayagraj","state":"Uttar Pradesh","latitude":25.4358,"longitude":81.8463,"temp":38.2,"humidity":20,"rain":0.0,"pressure":993.3,"uv_index":8.2,"wind_gusts":26.3,"aqi":159,"pm10":213.3,"pm2_5":42.3,"mosquito_risk":0,"arthritis_risk":5,"migraine_risk":10,"frizz_risk":0,"updated_at":"2026-04-12T14:23:55.211577+05:30"},{"city":"Gorakhpur","state":"Uttar Pradesh","latitude":26.7606,"longitude":83.3732,"temp":37.4,"humidity":17,"rain":0.0,"pressure":994.1,"uv_index":8.15,"wind_gusts":38.9,"aqi":97,"pm10":70.8,"pm2_5":21.5,"mosquito_risk":0,"arthritis_risk":5,"migraine_risk":10,"frizz_risk":0,"updated_at":"2026-04-12T14:23:55.211582+05:30"},{"city":"Bareilly","state":"Uttar Pradesh","latitude":28.367,"longitude":79.4304,"temp":33.6,"humidity":27,"rain":0.0,"pressure":985.8,"uv_index":7.45,"wind_gusts":35.6,"aqi":84,"pm10":73.3,"pm2_5":20.9,"mosquito_risk":0,"arthritis_risk":5,"migraine_risk":7,"frizz_risk":0,"updated_at":"2026-04-12T14:23:55.211587+05:30"},{"city":"Aligarh","state":"Uttar Pradesh","latitude":27.8974,"longitude":78.088,"temp":34.4,"humidity":22,"rain":0.0,"pressure":985.2,"uv_index":7.4,"wind_gusts":34.6,"aqi":440,"pm10":968.6,"pm2_5":101.5,"mosquito_risk":0,"arthritis_risk":5,"migraine_risk":7,"frizz_risk":0,"updated_at":"2026-04-12T14:23:55.211593+05:30"},{"city":"Moradabad","state":"Uttar Pradesh","latitude":28.8386,"longitude":78.7733,"temp":32.5,"humidity":29,"rain":0.0,"pressure":983.0,"uv_index":7.25,"wind_gusts":36.0,"aqi":97,"pm10":74.0,"pm2_5":20.4,"mosquito_risk":0,"arthritis_risk":5,"migraine_risk":7,"frizz_risk":0,"updated_at":"2026-04-12T14:23:55.211600+05:30"},{"city":"Saharanpur","state":"Uttar Pradesh","latitude":29.9637,"longitude":77.546,"temp":31.1,"humidity":31,"rain":0.0,"pressure":975.6,"uv_index":6.9,"wind_gusts":34.2,"aqi":100,"pm10":76.6,"pm2_5":21.0,"mosquito_risk":0,"arthritis_risk":5,"migraine_risk":7,"frizz_risk":0,"updated_at":"2026-04-12T14:23:55.211605+05:30"},{"city":"Jhansi","state":"Uttar Pradesh","latitude":25.4484,"longitude":78.5685,"temp":37.3,"humidity":21,"rain":0.0,"pressure":976.9,"uv_index":8.15,"wind_gusts":36.0,"aqi":57,"pm10":113.2,"pm2_5":24.8,"mosquito_risk":0,"arthritis_risk":5,"migraine_risk":10,"frizz_risk":0,"updated_at":"2026-04-12T14:23:58.525179+05:30"},{"city":"Surat","state":"Gujarat","latitude":21.1702,"longitude":72.8311,"temp":36.9,"humidity":41,"rain":0.0,"pressure":1004.7,"uv_index":7.8,"wind_gusts":27.0,"aqi":147,"pm10":82.0,"pm2_5":45.4,"mosquito_risk":0,"arthritis_risk":5,"migraine_risk":7,"frizz_risk":1,"updated_at":"2026-04-12T14:23:58.525208+05:30"},{"city":"Vadodara","state":"Gujarat","latitude":22.3072,"longitude":73.1812,"temp":40.4,"humidity":20,"rain":0.0,"pressure":1002.1,"uv_index":8.05,"wind_gusts":19.8,"aqi":118,"pm10":72.9,"pm2_5":25.5,"mosquito_risk":0,"arthritis_risk":5,"migraine_risk":7,"frizz_risk":0,"updated_at":"2026-04-12T14:23:58.525218+05:30"},{"city":"Rajkot","state":"Gujarat","latitude":22.3039,"longitude":70.8022,"temp":39.0,"humidity":23,"rain":0.0,"pressure":992.8,"uv_index":7.8,"wind_gusts":25.6,"aqi":74,"pm10":70.3,"pm2_5":21.2,"mosquito_risk":0,"arthritis_risk":5,"migraine_risk":10,"frizz_risk":0,"updated_at":"2026-04-12T14:23:58.525226+05:30"},{"city":"Thane","state":"Maharashtra","latitude":19.2183,"longitude":72.9781,"temp":34.4,"humidity":49,"rain":0.0,"pressure":1005.7,"uv_index":8.0,"wind_gusts":36.4,"aqi":121,"pm10":61.5,"pm2_5":43.0,"mosquito_risk":0,"arthritis_risk":5,"migraine_risk":4,"frizz_risk":1,"updated_at":"2026-04-12T14:23:58.525234+05:30"},{"city":"Nagpur","state":"Maharashtra","latitude":21.1458,"longitude":79.0882,"temp":37.2,"humidity":25,"rain":0.0,"pressure":971.7,"uv_index":8.8,"wind_gusts":16.6,"aqi":97,"pm10":24.9,"pm2_5":17.6,"mosquito_risk":0,"arthritis_risk":5,"migraine_risk":10,"frizz_risk":0,"updated_at":"2026-04-12T14:23:58.525242+05:30"},{"city":"Nashik","state":"Maharashtra","latitude":19.9975,"longitude":73.7898,"temp":37.7,"humidity":18,"rain":0.0,"pressure":944.6,"uv_index":8.25,"wind_gusts":28.1,"aqi":123,"pm10":42.0,"pm2_5":23.9,"mosquito_risk":0,"arthritis_risk":5,"migraine_risk":10,"frizz_risk":0,"updated_at":"2026-04-12T14:23:58.525250+05:30"},{"city":"Aurangabad","state":"Maharashtra","latitude":19.8762,"longitude":75.3433,"temp":39.5,"humidity":16,"rain":0.0,"pressure":942.9,"uv_index":8.95,"wind_gusts":28.4,"aqi":130,"pm10":34.1,"pm2_5":20.7,"mosquito_risk":0,"arthritis_risk":5,"migraine_risk":10,"frizz_risk":0,"updated_at":"2026-04-12T14:23:58.525257+05:30"},{"city":"Solapur","state":"Maharashtra","latitude":17.6599,"longitude":75.9064,"temp":40.9,"humidity":18,"rain":0.0,"pressure":954.9,"uv_index":9.05,"wind_gusts":27.0,"aqi":87,"pm10":41.8,"pm2_5":29.7,"mosquito_risk":0,"arthritis_risk":5,"migraine_risk":10,"frizz_risk":0,"updated_at":"2026-04-12T14:23:58.525265+05:30"},{"city":"Kolhapur","state":"Maharashtra","latitude":16.705,"longitude":74.2433,"temp":38.7,"humidity":20,"rain":0.0,"pressure":946.1,"uv_index":9.05,"wind_gusts":45.7,"aqi":96,"pm10":40.2,"pm2_5":31.0,"mosquito_risk":0,"arthritis_risk":5,"migraine_risk":10,"frizz_risk":0,"updated_at":"2026-04-12T14:23:58.525271+05:30"},{"city":"Goa","state":"Goa","latitude":15.2993,"longitude":74.124,"temp":32.3,"humidity":62,"rain":0.0,"pressure":995.7,"uv_index":9.05,"wind_gusts":31.0,"aqi":104,"pm10":43.1,"pm2_5":28.1,"mosquito_risk":3,"arthritis_risk":5,"migraine_risk":7,"frizz_risk":1,"updated_at":"2026-04-12T14:23:58.525279+05:30"},{"city":"Jodhpur","state":"Rajasthan","latitude":26.2389,"longitude":73.0243,"temp":35.7,"humidity":17,"rain":0.0,"pressure":983.9,"uv_index":8.1,"wind_gusts":16.2,"aqi":97,"pm10":82.2,"pm2_5":18.7,"mosquito_risk":0,"arthritis_risk":5,"migraine_risk":10,"frizz_risk":0,"updated_at":"2026-04-12T14:23:58.525285+05:30"},{"city":"Udaipur","state":"Rajasthan","latitude":24.5854,"longitude":73.7125,"temp":35.8,"humidity":19,"rain":0.0,"pressure":947.1,"uv_index":8.7,"wind_gusts":26.3,"aqi":49,"pm10":41.2,"pm2_5":9.0,"mosquito_risk":0,"arthritis_risk":5,"migraine_risk":10,"frizz_risk":0,"updated_at":"2026-04-12T14:23:58.525293+05:30"},{"city":"Kota","state":"Rajasthan","latitude":25.2138,"longitude":75.8648,"temp":35.7,"humidity":26,"rain":0.0,"pressure":978.8,"uv_index":8.15,"wind_gusts":22.7,"aqi":63,"pm10":149.0,"pm2_5":30.4,"mosquito_risk":0,"arthritis_risk":5,"migraine_risk":10,"frizz_risk":0,"updated_at":"2026-04-12T14:23:58.525299+05:30"},{"city":"Bikaner","state":"Rajasthan","latitude":28.0229,"longitude":73.3119,"temp":35.7,"humidity":15,"rain":0.0,"pressure":983.0,"uv_index":7.95,"wind_gusts":21.6,"aqi":72,"pm10":67.1,"pm2_5":18.2,"mosquito_risk":0,"arthritis_risk":5,"migraine_risk":10,"frizz_risk":0,"updated_at":"2026-04-12T14:23:58.525306+05:30"},{"city":"Ajmer","state":"Rajasthan","latitude":26.4499,"longitude":74.6399,"temp":34.6,"humidity":14,"rain":0.0,"pressure":955.7,"uv_index":8.05,"wind_gusts":26.3,"aqi":75,"pm10":118.3,"pm2_5":24.4,"mosquito_risk":0,"arthritis_risk":5,"migraine_risk":7,"frizz_risk":0,"updated_at":"2026-04-12T14:23:58.525313+05:30"},{"city":"Gwalior","state":"Madhya Pradesh","latitude":26.2183,"longitude":78.1828,"temp":34.7,"humidity":30,"rain":0.0,"pressure":983.1,"uv_index":7.85,"wind_gusts":31.7,"aqi":107,"pm10":223.5,"pm2_5":38.8,"mosquito_risk":0,"arthritis_risk":5,"migraine_risk":7,"frizz_risk":0,"updated_at":"2026-04-12T14:23:58.525320+05:30"},{"city":"Indore","state":"Madhya Pradesh","latitude":22.7196,"longitude":75.8577,"temp":36.4,"humidity":19,"rain":0.0,"pressure":947.8,"uv_index":8.55,"wind_gusts":27.7,"aqi":81,"pm10":23.8,"pm2_5":11.7,"mosquito_risk":0,"arthritis_risk":5,"migraine_risk":10,"frizz_risk":0,"updated_at":"2026-04-12T14:23:58.525326+05:30"},{"city":"Bhopal","state":"Madhya Pradesh","latitude":23.2599,"longitude":77.4126,"temp":38.8,"humidity":16,"rain":0.0,"pressure":952.8,"uv_index":8.5,"wind_gusts":32.4,"aqi":74,"pm10":19.0,"pm2_5":11.0,"mosquito_risk":0,"arthritis_risk":5,"migraine_risk":10,"frizz_risk":0,"updated_at":"2026-04-12T14:23:58.525333+05:30"},{"city":"Jabalpur","state":"Madhya Pradesh","latitude":23.1815,"longitude":79.9864,"temp":38.1,"humidity":16,"rain":0.0,"pressure":959.9,"uv_index":8.65,"wind_gusts":34.2,"aqi":82,"pm10":20.6,"pm2_5":9.9,"mosquito_risk":0,"arthritis_risk":5,"migraine_risk":10,"frizz_risk":0,"updated_at":"2026-04-12T14:23:58.525340+05:30"},{"city":"Ujjain","state":"Madhya Pradesh","latitude":23.1765,"longitude":75.7885,"temp":36.7,"humidity":22,"rain":0.0,"pressure":953.5,"uv_index":8.45,"wind_gusts":26.3,"aqi":71,"pm10":34.6,"pm2_5":14.8,"mosquito_risk":0,"arthritis_risk":5,"migraine_risk":10,"frizz_risk":0,"updated_at":"2026-04-12T14:23:58.525347+05:30"},{"city":"Visakhapatnam","state":"Andhra Pradesh","latitude":17.6868,"longitude":83.2185,"temp":33.6,"humidity":60,"rain":0.0,"pressure":1002.2,"uv_index":9.2,"wind_gusts":38.9,"aqi":83,"pm10":35.9,"pm2_5":25.3,"mosquito_risk":0,"arthritis_risk":5,"migraine_risk":4,"frizz_risk":1,"updated_at":"2026-04-12T14:23:58.525353+05:30"},{"city":"Vijayawada","state":"Andhra Pradesh","latitude":16.5062,"longitude":80.648,"temp":38.0,"humidity":43,"rain":0.0,"pressure":1000.1,"uv_index":9.25,"wind_gusts":36.0,"aqi":65,"pm10":30.3,"pm2_5":20.6,"mosquito_risk":0,"arthritis_risk":5,"migraine_risk":7,"frizz_risk":1,"updated_at":"2026-04-12T14:23:58.525360+05:30"},{"city":"Guntur","state":"Andhra Pradesh","latitude":16.3067,"longitude":80.4365,"temp":37.8,"humidity":40,"rain":0.0,"pressure":1001.7,"uv_index":9.25,"wind_gusts":36.0,"aqi":63,"pm10":30.2,"pm2_5":20.8,"mosquito_risk":0,"arthritis_risk":5,"migraine_risk":7,"frizz_risk":1,"updated_at":"2026-04-12T14:23:58.525367+05:30"},{"city":"Nellore","state":"Andhra Pradesh","latitude":14.4426,"longitude":79.9865,"temp":38.6,"humidity":36,"rain":0.0,"pressure":1003.7,"uv_index":9.35,"wind_gusts":34.9,"aqi":57,"pm10":33.9,"pm2_5":23.9,"mosquito_risk":0,"arthritis_risk":5,"migraine_risk":7,"frizz_risk":1,"updated_at":"2026-04-12T14:23:58.525374+05:30"},{"city":"Kurnool","state":"Andhra Pradesh","latitude":15.8281,"longitude":78.0373,"temp":40.8,"humidity":24,"rain":0.0,"pressure":974.4,"uv_index":9.25,"wind_gusts":30.6,"aqi":76,"pm10":37.0,"pm2_5":24.6,"mosquito_risk":0,"arthritis_risk":5,"migraine_risk":10,"frizz_risk":1,"updated_at":"2026-04-12T14:23:58.525382+05:30"},{"city":"Kakinada","state":"Andhra Pradesh","latitude":16.9891,"longitude":82.2475,"temp":37.1,"humidity":45,"rain":0.0,"pressure":1005.3,"uv_index":9.2,"wind_gusts":36.7,"aqi":58,"pm10":24.2,"pm2_5":13.1,"mosquito_risk":0,"arthritis_risk":5,"migraine_risk":7,"frizz_risk":1,"updated_at":"2026-04-12T14:23:58.525389+05:30"},{"city":"Tirupati","state":"Andhra Pradesh","latitude":13.6288,"longitude":79.4192,"temp":37.4,"humidity":31,"rain":0.0,"pressure":989.9,"uv_index":9.45,"wind_gusts":34.9,"aqi":69,"pm10":37.3,"pm2_5":26.5,"mosquito_risk":0,"arthritis_risk":5,"migraine_risk":10,"frizz_risk":1,"updated_at":"2026-04-12T14:23:58.525396+05:30"},{"city":"Warangal","state":"Telangana","latitude":17.9689,"longitude":79.5941,"temp":39.4,"humidity":30,"rain":0.0,"pressure":976.6,"uv_index":9.1,"wind_gusts":29.5,"aqi":99,"pm10":28.1,"pm2_5":19.8,"mosquito_risk":0,"arthritis_risk":5,"migraine_risk":10,"frizz_risk":1,"updated_at":"2026-04-12T14:23:58.525402+05:30"},{"city":"Nizamabad","state":"Telangana","latitude":18.6725,"longitude":78.0941,"temp":39.7,"humidity":23,"rain":0.0,"pressure":962.9,"uv_index":9.05,"wind_gusts":25.6,"aqi":137,"pm10":41.7,"pm2_5":28.8,"mosquito_risk":0,"arthritis_risk":5,"migraine_risk":10,"frizz_risk":0,"updated_at":"2026-04-12T14:23:58.525409+05:30"},{"city":"Mysore","state":"Karnataka","latitude":12.2958,"longitude":76.6396,"temp":35.4,"humidity":32,"rain":0.0,"pressure":927.5,"uv_index":9.55,"wind_gusts":37.4,"aqi":103,"pm10":36.1,"pm2_5":25.8,"mosquito_risk":0,"arthritis_risk":5,"migraine_risk":10,"frizz_risk":1,"updated_at":"2026-04-12T14:23:58.525416+05:30"},{"city":"Mangalore","state":"Karnataka","latitude":12.9141,"longitude":74.856,"temp":29.5,"humidity":78,"rain":0.0,"pressure":1004.6,"uv_index":9.2,"wind_gusts":22.3,"aqi":95,"pm10":66.8,"pm2_5":33.4,"mosquito_risk":7,"arthritis_risk":5,"migraine_risk":4,"frizz_risk":1,"updated_at":"2026-04-12T14:23:58.525422+05:30"},{"city":"Hubli-Dharwad","state":"Karnataka","latitude":15.3647,"longitude":75.124,"temp":37.4,"humidity":27,"rain":0.0,"pressure":939.1,"uv_index":9.25,"wind_gusts":37.4,"aqi":92,"pm10":42.8,"pm2_5":31.0,"mosquito_risk":0,"arthritis_risk":5,"migraine_risk":10,"frizz_risk":0,"updated_at":"2026-04-12T14:23:58.525430+05:30"},{"city":"Belgaum","state":"Karnataka","latitude":15.8497,"longitude":74.4977,"temp":36.8,"humidity":27,"rain":0.0,"pressure":924.7,"uv_index":9.3,"wind_gusts":46.1,"aqi":94,"pm10":39.3,"pm2_5":28.5,"mosquito_risk":0,"arthritis_risk":5,"migraine_risk":10,"frizz_risk":0,"updated_at":"2026-04-12T14:24:01.844333+05:30"},{"city":"Coimbatore","state":"Tamil Nadu","latitude":11.0168,"longitude":76.9558,"temp":36.6,"humidity":31,"rain":0.0,"pressure":960.2,"uv_index":9.5,"wind_gusts":38.9,"aqi":99,"pm10":34.5,"pm2_5":25.3,"mosquito_risk":0,"arthritis_risk":5,"migraine_risk":10,"frizz_risk":1,"updated_at":"2026-04-12T14:24:01.844362+05:30"},{"city":"Madurai","state":"Tamil Nadu","latitude":9.9252,"longitude":78.1198,"temp":37.3,"humidity":37,"rain":0.0,"pressure":991.1,"uv_index":9.4,"wind_gusts":32.0,"aqi":92,"pm10":28.1,"pm2_5":19.5,"mosquito_risk":0,"arthritis_risk":5,"migraine_risk":10,"frizz_risk":1,"updated_at":"2026-04-12T14:24:01.844371+05:30"},{"city":"Trichy","state":"Tamil Nadu","latitude":10.7905,"longitude":78.7047,"temp":37.1,"humidity":39,"rain":0.0,"pressure":997.8,"uv_index":9.4,"wind_gusts":26.3,"aqi":74,"pm10":21.5,"pm2_5":14.0,"mosquito_risk":0,"arthritis_risk":5,"migraine_risk":10,"frizz_risk":1,"updated_at":"2026-04-12T14:24:01.844379+05:30"},{"city":"Salem","state":"Tamil Nadu","latitude":11.6643,"longitude":78.146,"temp":37.2,"humidity":36,"rain":0.0,"pressure":975.5,"uv_index":9.45,"wind_gusts":25.9,"aqi":83,"pm10":33.8,"pm2_5":22.4,"mosquito_risk":0,"arthritis_risk":5,"migraine_risk":10,"frizz_risk":1,"updated_at":"2026-04-12T14:24:01.844388+05:30"},{"city":"Tirunelveli","state":"Tamil Nadu","latitude":8.7139,"longitude":77.7567,"temp":38.2,"humidity":34,"rain":0.0,"pressure":1000.8,"uv_index":9.35,"wind_gusts":40.7,"aqi":89,"pm10":28.5,"pm2_5":21.5,"mosquito_risk":0,"arthritis_risk":5,"migraine_risk":7,"frizz_risk":1,"updated_at":"2026-04-12T14:24:01.844395+05:30"},{"city":"Vellore","state":"Tamil Nadu","latitude":12.9165,"longitude":79.1325,"temp":37.2,"humidity":31,"rain":0.0,"pressure":983.1,"uv_index":9.5,"wind_gusts":32.8,"aqi":86,"pm10":39.6,"pm2_5":29.5,"mosquito_risk":0,"arthritis_risk":5,"migraine_risk":10,"frizz_risk":1,"updated_at":"2026-04-12T14:24:01.844402+05:30"},{"city":"Erode","state":"Tamil Nadu","latitude":11.341,"longitude":77.7172,"temp":38.5,"humidity":32,"rain":0.0,"pressure":986.9,"uv_index":9.45,"wind_gusts":29.2,"aqi":74,"pm10":30.0,"pm2_5":19.6,"mosquito_risk":0,"arthritis_risk":5,"migraine_risk":10,"frizz_risk":1,"updated_at":"2026-04-12T14:24:01.844409+05:30"},{"city":"Kochi","state":"Kerala","latitude":9.9312,"longitude":76.2673,"temp":29.6,"humidity":80,"rain":0.0,"pressure":1006.4,"uv_index":8.7,"wind_gusts":30.6,"aqi":96,"pm10":48.4,"pm2_5":29.9,"mosquito_risk":7,"arthritis_risk":5,"migraine_risk":4,"frizz_risk":1,"updated_at":"2026-04-12T14:24:01.844417+05:30"},{"city":"Thiruvananthapuram","state":"Kerala","latitude":8.5241,"longitude":76.9366,"temp":29.7,"humidity":79,"rain":0.0,"pressure":1005.8,"uv_index":9.2,"wind_gusts":21.6,"aqi":78,"pm10":56.7,"pm2_5":29.1,"mosquito_risk":7,"arthritis_risk":5,"migraine_risk":4,"frizz_risk":1,"updated_at":"2026-04-12T14:24:01.844424+05:30"},{"city":"Kozhikode","state":"Kerala","latitude":11.2588,"longitude":75.7804,"temp":31.2,"humidity":74,"rain":0.0,"pressure":1005.8,"uv_index":9.1,"wind_gusts":31.7,"aqi":83,"pm10":69.8,"pm2_5":34.6,"mosquito_risk":3,"arthritis_risk":5,"migraine_risk":4,"frizz_risk":1,"updated_at":"2026-04-12T14:24:01.844432+05:30"},{"city":"Thrissur","state":"Kerala","latitude":10.5276,"longitude":76.2144,"temp":33.5,"humidity":62,"rain":0.0,"pressure":1004.7,"uv_index":8.15,"wind_gusts":34.9,"aqi":89,"pm10":46.2,"pm2_5":27.1,"mosquito_risk":3,"arthritis_risk":5,"migraine_risk":4,"frizz_risk":1,"updated_at":"2026-04-12T14:24:01.844439+05:30"},{"city":"Kannur","state":"Kerala","latitude":11.8745,"longitude":75.3704,"temp":31.7,"humidity":69,"rain":0.0,"pressure":1005.1,"uv_index":9.2,"wind_gusts":33.5,"aqi":104,"pm10":73.6,"pm2_5":35.5,"mosquito_risk":3,"arthritis_risk":5,"migraine_risk":4,"frizz_risk":1,"updated_at":"2026-04-12T14:24:01.844447+05:30"},{"city":"Patna","state":"Bihar","latitude":25.5941,"longitude":85.1376,"temp":36.8,"humidity":20,"rain":0.0,"pressure":997.2,"uv_index":8.45,"wind_gusts":40.3,"aqi":116,"pm10":82.0,"pm2_5":23.9,"mosquito_risk":0,"arthritis_risk":5,"migraine_risk":10,"frizz_risk":0,"updated_at":"2026-04-12T14:24:01.844454+05:30"},{"city":"Gaya","state":"Bihar","latitude":24.7914,"longitude":85.0002,"temp":37.0,"humidity":22,"rain":0.0,"pressure":991.2,"uv_index":8.55,"wind_gusts":32.8,"aqi":99,"pm10":119.0,"pm2_5":27.6,"mosquito_risk":0,"arthritis_risk":5,"migraine_risk":10,"frizz_risk":0,"updated_at":"2026-04-12T14:24:01.844461+05:30"},{"city":"Muzaffarpur","state":"Bihar","latitude":26.1209,"longitude":85.3647,"temp":36.4,"humidity":24,"rain":0.0,"pressure":997.0,"uv_index":8.45,"wind_gusts":40.3,"aqi":152,"pm10":87.1,"pm2_5":28.1,"mosquito_risk":0,"arthritis_risk":5,"migraine_risk":10,"frizz_risk":0,"updated_at":"2026-04-12T14:24:01.844467+05:30"},{"city":"Bhagalpur","state":"Bihar","latitude":25.2425,"longitude":87.0117,"temp":34.4,"humidity":31,"rain":0.0,"pressure":998.2,"uv_index":8.5,"wind_gusts":32.0,"aqi":151,"pm10":105.2,"pm2_5":33.8,"mosquito_risk":0,"arthritis_risk":5,"migraine_risk":7,"frizz_risk":0,"updated_at":"2026-04-12T14:24:01.844474+05:30"},{"city":"Ranchi","state":"Jharkhand","latitude":23.3441,"longitude":85.3096,"temp":34.3,"humidity":18,"rain":0.0,"pressure":937.0,"uv_index":9.1,"wind_gusts":37.1,"aqi":109,"pm10":61.0,"pm2_5":14.2,"mosquito_risk":0,"arthritis_risk":5,"migraine_risk":7,"frizz_risk":0,"updated_at":"2026-04-12T14:24:01.844481+05:30"},{"city":"Jamshedpur","state":"Jharkhand","latitude":22.8046,"longitude":86.2029,"temp":36.3,"humidity":27,"rain":0.0,"pressure":988.7,"uv_index":8.9,"wind_gusts":19.4,"aqi":114,"pm10":106.4,"pm2_5":25.0,"mosquito_risk":0,"arthritis_risk":5,"migraine_risk":10,"frizz_risk":0,"updated_at":"2026-04-12T14:24:01.844488+05:30"},{"city":"Dhanbad","state":"Jharkhand","latitude":23.7957,"longitude":86.4304,"temp":37.8,"humidity":16,"rain":0.0,"pressure":977.2,"uv_index":8.85,"wind_gusts":37.8,"aqi":137,"pm10":102.7,"pm2_5":25.6,"mosquito_risk":0,"arthritis_risk":5,"migraine_risk":10,"frizz_risk":0,"updated_at":"2026-04-12T14:24:01.844495+05:30"},{"city":"Bokaro","state":"Jharkhand","latitude":23.6693,"longitude":86.1511,"temp":37.2,"humidity":17,"rain":0.0,"pressure":981.2,"uv_index":8.85,"wind_gusts":34.9,"aqi":126,"pm10":96.9,"pm2_5":24.0,"mosquito_risk":0,"arthritis_risk":5,"migraine_risk":10,"frizz_risk":0,"updated_at":"2026-04-12T14:24:01.844503+05:30"},{"city":"Bhubaneswar","state":"Odisha","latitude":20.2961,"longitude":85.8245,"temp":35.5,"humidity":49,"rain":0.0,"pressure":1000.9,"uv_index":9.05,"wind_gusts":33.1,"aqi":109,"pm10":77.5,"pm2_5":34.0,"mosquito_risk":0,"arthritis_risk":5,"migraine_risk":7,"frizz_risk":1,"updated_at":"2026-04-12T14:24:01.844510+05:30"},{"city":"Cuttack","state":"Odisha","latitude":20.4625,"longitude":85.8828,"temp":37.9,"humidity":32,"rain":0.0,"pressure":1002.2,"uv_index":9.1,"wind_gusts":34.9,"aqi":109,"pm10":77.5,"pm2_5":34.0,"mosquito_risk":0,"arthritis_risk":5,"migraine_risk":7,"frizz_risk":1,"updated_at":"2026-04-12T14:24:01.844517+05:30"},{"city":"Rourkela","state":"Odisha","latitude":22.2604,"longitude":84.8536,"temp":38.2,"humidity":18,"rain":0.0,"pressure":983.1,"uv_index":8.85,"wind_gusts":22.0,"aqi":133,"pm10":61.7,"pm2_5":19.4,"mosquito_risk":0,"arthritis_risk":5,"migraine_risk":10,"frizz_risk":0,"updated_at":"2026-04-12T14:24:01.844524+05:30"},{"city":"Raipur","state":"Chhattisgarh","latitude":21.2514,"longitude":81.6296,"temp":39.8,"humidity":15,"rain":0.0,"pressure":972.9,"uv_index":8.9,"wind_gusts":20.9,"aqi":116,"pm10":23.1,"pm2_5":14.5,"mosquito_risk":0,"arthritis_risk":5,"migraine_risk":10,"frizz_risk":0,"updated_at":"2026-04-12T14:24:01.844531+05:30"},{"city":"Bhilai","state":"Chhattisgarh","latitude":21.1938,"longitude":81.3509,"temp":39.8,"humidity":15,"rain":0.0,"pressure":973.2,"uv_index":8.9,"wind_gusts":18.4,"aqi":128,"pm10":26.3,"pm2_5":18.2,"mosquito_risk":0,"arthritis_risk":5,"migraine_risk":10,"frizz_risk":0,"updated_at":"2026-04-12T14:24:01.844539+05:30"},{"city":"Guwahati","state":"Assam","latitude":26.1158,"longitude":91.7086,"temp":29.0,"humidity":63,"rain":0.0,"pressure":998.0,"uv_index":8.4,"wind_gusts":34.6,"aqi":114,"pm10":82.7,"pm2_5":38.0,"mosquito_risk":7,"arthritis_risk":5,"migraine_risk":7,"frizz_risk":1,"updated_at":"2026-04-12T14:24:01.844545+05:30"},{"city":"Agartala","state":"Tripura","latitude":23.8315,"longitude":91.2868,"temp":33.9,"humidity":42,"rain":0.0,"pressure":1002.6,"uv_index":8.6,"wind_gusts":32.8,"aqi":106,"pm10":73.3,"pm2_5":47.4,"mosquito_risk":0,"arthritis_risk":5,"migraine_risk":4,"frizz_risk":1,"updated_at":"2026-04-12T14:24:01.844552+05:30"},{"city":"Shillong","state":"Meghalaya","latitude":25.5788,"longitude":91.8933,"temp":19.5,"humidity":56,"rain":0.0,"pressure":854.6,"uv_index":7.05,"wind_gusts":67.0,"aqi":131,"pm10":76.1,"pm2_5":33.5,"mosquito_risk":0,"arthritis_risk":5,"migraine_risk":7,"frizz_risk":0,"updated_at":"2026-04-12T14:24:01.844559+05:30"},{"city":"Imphal","state":"Manipur","latitude":24.817,"longitude":93.9368,"temp":23.1,"humidity":58,"rain":0.0,"pressure":921.5,"uv_index":9.0,"wind_gusts":70.2,"aqi":101,"pm10":74.3,"pm2_5":26.1,"mosquito_risk":0,"arthritis_risk":5,"migraine_risk":7,"frizz_risk":0,"updated_at":"2026-04-12T14:24:01.844566+05:30"},{"city":"Aizawl","state":"Mizoram","latitude":23.7271,"longitude":92.7176,"temp":26.6,"humidity":42,"rain":0.0,"pressure":892.3,"uv_index":8.85,"wind_gusts":52.6,"aqi":98,"pm10":89.4,"pm2_5":28.1,"mosquito_risk":4,"arthritis_risk":5,"migraine_risk":7,"frizz_risk":0,"updated_at":"2026-04-12T14:24:01.844573+05:30"},{"city":"Kohima","state":"Nagaland","latitude":25.6701,"longitude":94.1077,"temp":18.8,"humidity":67,"rain":0.0,"pressure":853.4,"uv_index":8.9,"wind_gusts":93.6,"aqi":95,"pm10":68.2,"pm2_5":27.0,"mosquito_risk":3,"arthritis_risk":5,"migraine_risk":7,"frizz_risk":0,"updated_at":"2026-04-12T14:24:01.844580+05:30"},{"city":"Gangtok","state":"Sikkim","latitude":27.3314,"longitude":88.6138,"temp":16.3,"humidity":77,"rain":0.0,"pressure":835.0,"uv_index":8.05,"wind_gusts":13.7,"aqi":133,"pm10":77.8,"pm2_5":24.8,"mosquito_risk":3,"arthritis_risk":5,"migraine_risk":7,"frizz_risk":0,"updated_at":"2026-04-12T14:24:01.844587+05:30"},{"city":"Siliguri","state":"West Bengal","latitude":26.7271,"longitude":88.3953,"temp":25.6,"humidity":51,"rain":0.0,"pressure":990.9,"uv_index":7.3,"wind_gusts":26.6,"aqi":129,"pm10":109.0,"pm2_5":35.0,"mosquito_risk":4,"arthritis_risk":5,"migraine_risk":7,"frizz_risk":0,"updated_at":"2026-04-12T14:24:05.162231+05:30"},{"city":"Durgapur","state":"West Bengal","latitude":23.5204,"longitude":87.3119,"temp":36.3,"humidity":25,"rain":0.0,"pressure":992.1,"uv_index":8.8,"wind_gusts":23.4,"aqi":151,"pm10":112.7,"pm2_5":28.3,"mosquito_risk":0,"arthritis_risk":5,"migraine_risk":10,"frizz_risk":0,"updated_at":"2026-04-12T14:24:05.162260+05:30"},{"city":"Asansol","state":"West Bengal","latitude":23.6739,"longitude":86.9524,"temp":37.0,"humidity":22,"rain":0.0,"pressure":990.6,"uv_index":8.85,"wind_gusts":27.4,"aqi":132,"pm10":112.9,"pm2_5":28.1,"mosquito_risk":0,"arthritis_risk":5,"migraine_risk":10,"frizz_risk":0,"updated_at":"2026-04-12T14:24:05.162269+05:30"},{"city":"Pondicherry","state":"Puducherry","latitude":11.9139,"longitude":79.8145,"temp":36.2,"humidity":48,"rain":0.0,"pressure":1006.7,"uv_index":9.35,"wind_gusts":29.2,"aqi":52,"pm10":15.5,"pm2_5":8.4,"mosquito_risk":0,"arthritis_risk":5,"migraine_risk":7,"frizz_risk":1,"updated_at":"2026-04-12T14:24:05.162278+05:30"},{"city":"Port Blair","state":"Andaman and Nicobar Islands","latitude":11.6234,"longitude":92.7265,"temp":30.1,"humidity":74,"rain":0.0,"pressure":1005.5,"uv_index":9.25,"wind_gusts":14.4,"aqi":49,"pm10":34.0,"pm2_5":17.2,"mosquito_risk":3,"arthritis_risk":5,"migraine_risk":4,"frizz_risk":1,"updated_at":"2026-04-12T14:24:05.162285+05:30"},{"city":"Haridwar","state":"Uttarakhand","latitude":29.9457,"longitude":78.1642,"temp":31.5,"humidity":31,"rain":0.0,"pressure":973.8,"uv_index":7.0,"wind_gusts":34.2,"aqi":76,"pm10":50.3,"pm2_5":16.1,"mosquito_risk":0,"arthritis_risk":5,"migraine_risk":7,"frizz_risk":0,"updated_at":"2026-04-12T14:24:05.162293+05:30"},{"city":"Rishikesh","state":"Uttarakhand","latitude":30.0869,"longitude":78.2676,"temp":30.8,"humidity":26,"rain":0.0,"pressure":966.5,"uv_index":7.1,"wind_gusts":35.3,"aqi":62,"pm10":61.5,"pm2_5":15.9,"mosquito_risk":0,"arthritis_risk":5,"migraine_risk":7,"frizz_risk":0,"updated_at":"2026-04-12T14:24:05.162300+05:30"},{"city":"Nainital","state":"Uttarakhand","latitude":29.3919,"longitude":79.4542,"temp":23.8,"humidity":35,"rain":0.0,"pressure":807.4,"uv_index":7.95,"wind_gusts":52.2,"aqi":77,"pm10":61.0,"pm2_5":16.5,"mosquito_risk":0,"arthritis_risk":5,"migraine_risk":7,"frizz_risk":0,"updated_at":"2026-04-12T14:24:05.162307+05:30"},{"city":"Mussoorie","state":"Uttarakhand","latitude":30.4599,"longitude":78.0664,"temp":21.0,"humidity":39,"rain":0.0,"pressure":803.7,"uv_index":7.4,"wind_gusts":41.0,"aqi":62,"pm10":56.3,"pm2_5":16.0,"mosquito_risk":0,"arthritis_risk":5,"migraine_risk":7,"frizz_risk":0,"updated_at":"2026-04-12T14:24:05.162314+05:30"},{"city":"Dharamshala","state":"Himachal Pradesh","latitude":32.219,"longitude":76.3234,"temp":22.9,"humidity":53,"rain":0.0,"pressure":869.8,"uv_index":7.7,"wind_gusts":23.8,"aqi":96,"pm10":31.1,"pm2_5":8.4,"mosquito_risk":0,"arthritis_risk":5,"migraine_risk":7,"frizz_risk":0,"updated_at":"2026-04-12T14:24:05.162321+05:30"},{"city":"Dalhousie","state":"Himachal Pradesh","latitude":32.5387,"longitude":75.971,"temp":21.2,"humidity":44,"rain":0.0,"pressure":805.1,"uv_index":7.95,"wind_gusts":21.2,"aqi":64,"pm10":56.3,"pm2_5":15.8,"mosquito_risk":0,"arthritis_risk":5,"migraine_risk":7,"frizz_risk":0,"updated_at":"2026-04-12T14:24:05.162329+05:30"},{"city":"Patiala","state":"Punjab","latitude":30.3398,"longitude":76.3869,"temp":31.1,"humidity":32,"rain":0.0,"pressure":978.7,"uv_index":7.0,"wind_gusts":32.0,"aqi":184,"pm10":540.2,"pm2_5":56.1,"mosquito_risk":0,"arthritis_risk":5,"migraine_risk":7,"frizz_risk":0,"updated_at":"2026-04-12T14:24:05.162336+05:30"},{"city":"Bhatinda","state":"Punjab","latitude":30.211,"longitude":74.9455,"temp":32.8,"humidity":24,"rain":0.0,"pressure":984.6,"uv_index":7.75,"wind_gusts":32.4,"aqi":83,"pm10":46.7,"pm2_5":13.7,"mosquito_risk":0,"arthritis_risk":5,"migraine_risk":7,"frizz_risk":0,"updated_at":"2026-04-12T14:24:05.162343+05:30"},{"city":"Rohtak","state":"Haryana","latitude":28.8955,"longitude":76.6066,"temp":33.3,"humidity":23,"rain":0.0,"pressure":982.1,"uv_index":7.25,"wind_gusts":36.0,"aqi":496,"pm10":568.1,"pm2_5":58.3,"mosquito_risk":0,"arthritis_risk":5,"migraine_risk":7,"frizz_risk":0,"updated_at":"2026-04-12T14:24:05.162350+05:30"},{"city":"Panipat","state":"Haryana","latitude":29.3909,"longitude":76.9635,"temp":32.2,"humidity":27,"rain":0.0,"pressure":980.7,"uv_index":7.05,"wind_gusts":33.8,"aqi":865,"pm10":1009.6,"pm2_5":92.7,"mosquito_risk":0,"arthritis_risk":5,"migraine_risk":7,"frizz_risk":0,"updated_at":"2026-04-12T14:24:05.162357+05:30"},{"city":"Mathura","state":"Uttar Pradesh","latitude":27.4924,"longitude":77.6737,"temp":34.5,"humidity":22,"rain":0.0,"pressure":986.9,"uv_index":7.55,"wind_gusts":29.5,"aqi":441,"pm10":935.0,"pm2_5":95.5,"mosquito_risk":0,"arthritis_risk":5,"migraine_risk":7,"frizz_risk":0,"updated_at":"2026-04-12T14:24:05.162364+05:30"},{"city":"Vrindavan","state":"Uttar Pradesh","latitude":27.5823,"longitude":77.7027,"temp":34.1,"humidity":22,"rain":0.0,"pressure":987.2,"uv_index":7.5,"wind_gusts":33.1,"aqi":441,"pm10":935.0,"pm2_5":95.5,"mosquito_risk":0,"arthritis_risk":5,"migraine_risk":7,"frizz_risk":0,"updated_at":"2026-04-12T14:24:05.162371+05:30"},{"city":"Ayodhya","state":"Uttar Pradesh","latitude":26.7922,"longitude":82.1998,"temp":37.3,"humidity":17,"rain":0.0,"pressure":992.8,"uv_index":7.9,"wind_gusts":38.2,"aqi":113,"pm10":91.7,"pm2_5":23.5,"mosquito_risk":0,"arthritis_risk":5,"migraine_risk":10,"frizz_risk":0,"updated_at":"2026-04-12T14:24:05.162377+05:30"},{"city":"Ratlam","state":"Madhya Pradesh","latitude":23.3315,"longitude":75.0367,"temp":35.1,"humidity":24,"rain":0.0,"pressure":954.5,"uv_index":8.35,"wind_gusts":25.2,"aqi":61,"pm10":43.5,"pm2_5":14.6,"mosquito_risk":0,"arthritis_risk":5,"migraine_risk":10,"frizz_risk":0,"updated_at":"2026-04-12T14:24:05.162384+05:30"},{"city":"Sagar","state":"Madhya Pradesh","latitude":23.8388,"longitude":78.7378,"temp":38.3,"humidity":16,"rain":0.0,"pressure":949.3,"uv_index":8.5,"wind_gusts":32.8,"aqi":82,"pm10":16.4,"pm2_5":8.2,"mosquito_risk":0,"arthritis_risk":5,"migraine_risk":10,"frizz_risk":0,"updated_at":"2026-04-12T14:24:05.162390+05:30"},{"city":"Satna","state":"Madhya Pradesh","latitude":24.6005,"longitude":80.8322,"temp":39.2,"humidity":15,"rain":0.0,"pressure":968.8,"uv_index":8.5,"wind_gusts":40.0,"aqi":86,"pm10":27.9,"pm2_5":10.7,"mosquito_risk":0,"arthritis_risk":5,"migraine_risk":10,"frizz_risk":0,"updated_at":"2026-04-12T14:24:05.162397+05:30"},{"city":"Akola","state":"Maharashtra","latitude":20.7002,"longitude":77.0082,"temp":40.1,"humidity":16,"rain":0.0,"pressure":973.2,"uv_index":8.8,"wind_gusts":24.1,"aqi":88,"pm10":33.6,"pm2_5":23.6,"mosquito_risk":0,"arthritis_risk":5,"migraine_risk":10,"frizz_risk":0,"updated_at":"2026-04-12T14:24:05.162405+05:30"},{"city":"Amravati","state":"Maharashtra","latitude":20.9374,"longitude":77.7796,"temp":39.2,"humidity":15,"rain":0.0,"pressure":965.8,"uv_index":8.8,"wind_gusts":20.5,"aqi":84,"pm10":27.8,"pm2_5":18.5,"mosquito_risk":0,"arthritis_risk":5,"migraine_risk":10,"frizz_risk":0,"updated_at":"2026-04-12T14:24:05.162412+05:30"},{"city":"Latur","state":"Maharashtra","latitude":18.4088,"longitude":76.5604,"temp":37.3,"humidity":22,"rain":0.0,"pressure":939.1,"uv_index":9.05,"wind_gusts":24.5,"aqi":85,"pm10":36.3,"pm2_5":22.9,"mosquito_risk":0,"arthritis_risk":5,"migraine_risk":10,"frizz_risk":0,"updated_at":"2026-04-12T14:24:05.162418+05:30"},{"city":"Nanded","state":"Maharashtra","latitude":19.1383,"longitude":77.3091,"temp":38.7,"humidity":20,"rain":0.0,"pressure":967.0,"uv_index":8.95,"wind_gusts":14.8,"aqi":99,"pm10":36.8,"pm2_5":23.3,"mosquito_risk":0,"arthritis_risk":5,"migraine_risk":10,"frizz_risk":0,"updated_at":"2026-04-12T14:24:05.162423+05:30"},{"city":"Gulbarga","state":"Karnataka","latitude":17.3297,"longitude":76.8343,"temp":40.0,"humidity":22,"rain":0.0,"pressure":956.8,"uv_index":9.1,"wind_gusts":28.4,"aqi":89,"pm10":40.3,"pm2_5":28.8,"mosquito_risk":0,"arthritis_risk":5,"migraine_risk":10,"frizz_risk":0,"updated_at":"2026-04-12T14:24:05.162428+05:30"},{"city":"Bidar","state":"Karnataka","latitude":17.9104,"longitude":77.5199,"temp":38.2,"humidity":24,"rain":0.0,"pressure":934.3,"uv_index":9.1,"wind_gusts":26.6,"aqi":89,"pm10":34.8,"pm2_5":22.1,"mosquito_risk":0,"arthritis_risk":5,"migraine_risk":10,"frizz_risk":0,"updated_at":"2026-04-12T14:24:05.162433+05:30"},{"city":"Hospet","state":"Karnataka","latitude":15.2689,"longitude":76.3909,"temp":36.5,"humidity":36,"rain":0.0,"pressure":954.1,"uv_index":9.3,"wind_gusts":24.8,"aqi":98,"pm10":42.3,"pm2_5":31.2,"mosquito_risk":0,"arthritis_risk":5,"migraine_risk":10,"frizz_risk":1,"updated_at":"2026-04-12T14:24:05.162438+05:30"},{"city":"Tirupur","state":"Tamil Nadu","latitude":11.1085,"longitude":77.3411,"temp":37.7,"humidity":32,"rain":0.0,"pressure":973.3,"uv_index":9.5,"wind_gusts":31.0,"aqi":91,"pm10":32.2,"pm2_5":22.3,"mosquito_risk":0,"arthritis_risk":5,"migraine_risk":10,"frizz_risk":1,"updated_at":"2026-04-12T14:24:05.162443+05:30"},{"city":"Alappuzha","state":"Kerala","latitude":9.4981,"longitude":76.3388,"temp":29.6,"humidity":81,"rain":0.0,"pressure":1006.6,"uv_index":9.2,"wind_gusts":26.6,"aqi":96,"pm10":55.4,"pm2_5":31.2,"mosquito_risk":7,"arthritis_risk":5,"migraine_risk":4,"frizz_risk":1,"updated_at":"2026-04-12T14:24:05.162449+05:30"},{"city":"Munnar","state":"Kerala","latitude":10.0889,"longitude":77.0595,"temp":31.2,"humidity":41,"rain":0.0,"pressure":858.5,"uv_index":9.75,"wind_gusts":27.7,"aqi":94,"pm10":28.1,"pm2_5":18.5,"mosquito_risk":0,"arthritis_risk":5,"migraine_risk":7,"frizz_risk":1,"updated_at":"2026-04-12T14:24:05.162454+05:30"},{"city":"Silchar","state":"Assam","latitude":24.8333,"longitude":92.7789,"temp":29.4,"humidity":67,"rain":0.0,"pressure":1002.5,"uv_index":8.65,"wind_gusts":49.7,"aqi":130,"pm10":81.0,"pm2_5":40.9,"mosquito_risk":7,"arthritis_risk":5,"migraine_risk":4,"frizz_risk":1,"updated_at":"2026-04-12T14:24:05.162460+05:30"},{"city":"Dibrugarh","state":"Assam","latitude":27.4728,"longitude":94.912,"temp":23.4,"humidity":79,"rain":0.0,"pressure":994.5,"uv_index":8.2,"wind_gusts":33.5,"aqi":99,"pm10":63.8,"pm2_5":38.2,"mosquito_risk":3,"arthritis_risk":5,"migraine_risk":7,"frizz_risk":1,"updated_at":"2026-04-12T14:24:05.162465+05:30"}]