[{"city":"Delhi","state":"Delhi","latitude":28.6139,"longitude":77.209,"temp":28.2,"humidity":82,"rain":0.0,"pressure":976.8,"uv_index":6.5,"wind_gusts":32.4,"aqi":89,"pm10":28.5,"pm2_5":28.4,"no2":13.8,"co":463.0,"o3":115.0,"so2":22.8,"mosquito_risk":7,"arthritis_risk":5,"migraine_risk":7,"frizz_risk":1,"updated_at":"2026-07-24T09:46:37.978499+05:30"},{"city":"Mumbai","state":"Maharashtra","latitude":19.076,"longitude":72.8777,"temp":28.0,"humidity":85,"rain":0.1,"pressure":1004.6,"uv_index":7.7,"wind_gusts":63.0,"aqi":60,"pm10":39.3,"pm2_5":15.8,"no2":6.3,"co":196.0,"o3":45.0,"so2":5.5,"mosquito_risk":10,"arthritis_risk":5,"migraine_risk":4,"frizz_risk":1,"updated_at":"2026-07-24T09:46:37.978560+05:30"},{"city":"Bangalore","state":"Karnataka","latitude":12.9716,"longitude":77.5946,"temp":24.8,"humidity":68,"rain":0.0,"pressure":912.7,"uv_index":8.75,"wind_gusts":52.9,"aqi":41,"pm10":14.3,"pm2_5":7.2,"no2":6.3,"co":316.0,"o3":48.0,"so2":3.3,"mosquito_risk":3,"arthritis_risk":5,"migraine_risk":7,"frizz_risk":1,"updated_at":"2026-07-24T09:46:37.978577+05:30"},{"city":"Hyderabad","state":"Telangana","latitude":17.385,"longitude":78.4867,"temp":27.0,"humidity":68,"rain":0.0,"pressure":951.7,"uv_index":6.55,"wind_gusts":58.0,"aqi":66,"pm10":13.1,"pm2_5":8.3,"no2":3.9,"co":285.0,"o3":51.0,"so2":4.0,"mosquito_risk":7,"arthritis_risk":5,"migraine_risk":7,"frizz_risk":1,"updated_at":"2026-07-24T09:46:37.978587+05:30"},{"city":"Chennai","state":"Tamil Nadu","latitude":13.0827,"longitude":80.2707,"temp":31.1,"humidity":64,"rain":0.0,"pressure":1006.9,"uv_index":7.95,"wind_gusts":35.3,"aqi":71,"pm10":31.9,"pm2_5":23.2,"no2":15.9,"co":380.0,"o3":74.0,"so2":18.2,"mosquito_risk":3,"arthritis_risk":5,"migraine_risk":4,"frizz_risk":1,"updated_at":"2026-07-24T09:46:37.978596+05:30"},{"city":"Kolkata","state":"West Bengal","latitude":22.5726,"longitude":88.3639,"temp":29.4,"humidity":79,"rain":0.0,"pressure":1001.5,"uv_index":3.3,"wind_gusts":28.8,"aqi":69,"pm10":27.8,"pm2_5":23.1,"no2":6.9,"co":391.0,"o3":87.0,"so2":10.8,"mosquito_risk":7,"arthritis_risk":5,"migraine_risk":0,"frizz_risk":1,"updated_at":"2026-07-24T09:46:37.978604+05:30"},{"city":"Pune","state":"Maharashtra","latitude":18.5204,"longitude":73.8567,"temp":24.6,"humidity":85,"rain":0.1,"pressure":944.5,"uv_index":7.15,"wind_gusts":64.4,"aqi":21,"pm10":6.4,"pm2_5":3.8,"no2":4.2,"co":161.0,"o3":41.0,"so2":3.1,"mosquito_risk":6,"arthritis_risk":5,"migraine_risk":7,"frizz_risk":1,"updated_at":"2026-07-24T09:46:37.978611+05:30"},{"city":"Ahmedabad","state":"Gujarat","latitude":23.0225,"longitude":72.5714,"temp":25.6,"humidity":95,"rain":2.0,"pressure":994.2,"uv_index":2.0,"wind_gusts":42.5,"aqi":53,"pm10":6.6,"pm2_5":5.3,"no2":12.6,"co":200.0,"o3":46.0,"so2":3.8,"mosquito_risk":10,"arthritis_risk":5,"migraine_risk":3,"frizz_risk":1,"updated_at":"2026-07-24T09:46:37.978618+05:30"},{"city":"Jaipur","state":"Rajasthan","latitude":26.9124,"longitude":75.7873,"temp":28.5,"humidity":76,"rain":0.0,"pressure":952.5,"uv_index":6.3,"wind_gusts":30.2,"aqi":73,"pm10":12.9,"pm2_5":12.6,"no2":6.4,"co":279.0,"o3":78.0,"so2":7.3,"mosquito_risk":7,"arthritis_risk":5,"migraine_risk":7,"frizz_risk":1,"updated_at":"2026-07-24T09:46:37.978625+05:30"},{"city":"Lucknow","state":"Uttar Pradesh","latitude":26.8467,"longitude":80.9462,"temp":29.3,"humidity":81,"rain":0.0,"pressure":988.7,"uv_index":6.5,"wind_gusts":24.5,"aqi":75,"pm10":9.0,"pm2_5":8.6,"no2":5.6,"co":216.0,"o3":70.0,"so2":7.0,"mosquito_risk":7,"arthritis_risk":5,"migraine_risk":7,"frizz_risk":1,"updated_at":"2026-07-24T09:46:37.978636+05:30"},{"city":"Kanpur","state":"Uttar Pradesh","latitude":26.4499,"longitude":80.3319,"temp":30.1,"humidity":76,"rain":0.0,"pressure":986.5,"uv_index":7.15,"wind_gusts":25.9,"aqi":66,"pm10":12.0,"pm2_5":11.4,"no2":5.5,"co":209.0,"o3":72.0,"so2":6.5,"mosquito_risk":3,"arthritis_risk":5,"migraine_risk":7,"frizz_risk":1,"updated_at":"2026-07-24T09:46:37.978642+05:30"},{"city":"Chandigarh","state":"Chandigarh","latitude":30.7333,"longitude":76.7794,"temp":30.4,"humidity":66,"rain":0.0,"pressure":964.1,"uv_index":7.55,"wind_gusts":26.6,"aqi":83,"pm10":18.4,"pm2_5":18.2,"no2":5.4,"co":319.0,"o3":137.0,"so2":8.4,"mosquito_risk":3,"arthritis_risk":5,"migraine_risk":7,"frizz_risk":1,"updated_at":"2026-07-24T09:46:37.978649+05:30"},{"city":"Srinagar","state":"Jammu and Kashmir","latitude":34.0837,"longitude":74.7973,"temp":19.8,"humidity":85,"rain":0.3,"pressure":841.0,"uv_index":6.85,"wind_gusts":18.4,"aqi":74,"pm10":15.0,"pm2_5":14.8,"no2":15.9,"co":369.0,"o3":45.0,"so2":3.4,"mosquito_risk":6,"arthritis_risk":10,"migraine_risk":7,"frizz_risk":1,"updated_at":"2026-07-24T09:46:37.978657+05:30"},{"city":"Jammu","state":"Jammu and Kashmir","latitude":32.7266,"longitude":74.857,"temp":26.8,"humidity":83,"rain":0.0,"pressure":969.0,"uv_index":8.3,"wind_gusts":31.7,"aqi":98,"pm10":23.2,"pm2_5":22.5,"no2":18.2,"co":344.0,"o3":57.0,"so2":2.5,"mosquito_risk":7,"arthritis_risk":5,"migraine_risk":7,"frizz_risk":1,"updated_at":"2026-07-24T09:46:37.978664+05:30"},{"city":"Amritsar","state":"Punjab","latitude":31.634,"longitude":74.8723,"temp":28.8,"humidity":79,"rain":0.0,"pressure":976.4,"uv_index":8.05,"wind_gusts":26.6,"aqi":98,"pm10":31.3,"pm2_5":30.4,"no2":10.9,"co":405.0,"o3":78.0,"so2":5.9,"mosquito_risk":7,"arthritis_risk":5,"migraine_risk":7,"frizz_risk":1,"updated_at":"2026-07-24T09:46:37.978670+05:30"},{"city":"Ludhiana","state":"Punjab","latitude":30.901,"longitude":75.8573,"temp":30.2,"humidity":75,"rain":0.0,"pressure":973.6,"uv_index":7.85,"wind_gusts":32.0,"aqi":109,"pm10":26.5,"pm2_5":26.4,"no2":8.1,"co":379.0,"o3":123.0,"so2":11.9,"mosquito_risk":3,"arthritis_risk":5,"migraine_risk":7,"frizz_risk":1,"updated_at":"2026-07-24T09:46:37.978676+05:30"},{"city":"Jalandhar","state":"Punjab","latitude":31.326,"longitude":75.5762,"temp":29.6,"humidity":80,"rain":0.0,"pressure":975.0,"uv_index":8.05,"wind_gusts":27.0,"aqi":123,"pm10":29.9,"pm2_5":28.7,"no2":9.4,"co":414.0,"o3":123.0,"so2":13.8,"mosquito_risk":7,"arthritis_risk":5,"migraine_risk":7,"frizz_risk":1,"updated_at":"2026-07-24T09:46:37.978682+05:30"},{"city":"Dehradun","state":"Uttarakhand","latitude":30.6284,"longitude":78.0322,"temp":23.1,"humidity":75,"rain":0.0,"pressure":829.2,"uv_index":7.6,"wind_gusts":23.4,"aqi":53,"pm10":6.0,"pm2_5":5.8,"no2":0.6,"co":161.0,"o3":113.0,"so2":1.3,"mosquito_risk":3,"arthritis_risk":5,"migraine_risk":7,"frizz_risk":1,"updated_at":"2026-07-24T09:46:37.978689+05:30"},{"city":"Shimla","state":"Himachal Pradesh","latitude":31.1048,"longitude":77.1734,"temp":20.3,"humidity":76,"rain":0.0,"pressure":784.3,"uv_index":5.05,"wind_gusts":23.4,"aqi":47,"pm10":6.3,"pm2_5":6.1,"no2":2.0,"co":215.0,"o3":102.0,"so2":0.9,"mosquito_risk":3,"arthritis_risk":5,"migraine_risk":3,"frizz_risk":0,"updated_at":"2026-07-24T09:46:37.978696+05:30"},{"city":"Manali","state":"Himachal Pradesh","latitude":32.2396,"longitude":77.1887,"temp":25.7,"humidity":61,"rain":0.0,"pressure":818.7,"uv_index":9.3,"wind_gusts":32.0,"aqi":16,"pm10":2.1,"pm2_5":1.9,"no2":3.1,"co":180.0,"o3":68.0,"so2":0.5,"mosquito_risk":7,"arthritis_risk":5,"migraine_risk":7,"frizz_risk":1,"updated_at":"2026-07-24T09:46:37.978704+05:30"},{"city":"Gurgaon","state":"Haryana","latitude":28.4595,"longitude":77.0266,"temp":28.4,"humidity":80,"rain":0.0,"pressure":975.0,"uv_index":6.65,"wind_gusts":35.3,"aqi":101,"pm10":21.2,"pm2_5":21.2,"no2":12.9,"co":386.0,"o3":97.0,"so2":18.3,"mosquito_risk":7,"arthritis_risk":5,"migraine_risk":7,"frizz_risk":1,"updated_at":"2026-07-24T09:46:37.978713+05:30"},{"city":"Noida","state":"Uttar Pradesh","latitude":28.5355,"longitude":77.391,"temp":28.9,"humidity":78,"rain":0.0,"pressure":978.3,"uv_index":6.05,"wind_gusts":33.8,"aqi":101,"pm10":21.2,"pm2_5":21.2,"no2":12.9,"co":365.0,"o3":97.0,"so2":18.3,"mosquito_risk":7,"arthritis_risk":5,"migraine_risk":7,"frizz_risk":1,"updated_at":"2026-07-24T09:46:37.978719+05:30"},{"city":"Ghaziabad","state":"Uttar Pradesh","latitude":28.6692,"longitude":77.4538,"temp":28.9,"humidity":79,"rain":0.0,"pressure":976.7,"uv_index":6.5,"wind_gusts":39.2,"aqi":81,"pm10":25.0,"pm2_5":25.0,"no2":6.1,"co":293.0,"o3":112.0,"so2":12.0,"mosquito_risk":7,"arthritis_risk":5,"migraine_risk":7,"frizz_risk":1,"updated_at":"2026-07-24T09:46:37.978725+05:30"},{"city":"Faridabad","state":"Haryana","latitude":28.4089,"longitude":77.3178,"temp":28.3,"humidity":80,"rain":0.0,"pressure":977.4,"uv_index":5.95,"wind_gusts":34.9,"aqi":101,"pm10":21.2,"pm2_5":21.2,"no2":12.9,"co":332.0,"o3":97.0,"so2":18.3,"mosquito_risk":7,"arthritis_risk":5,"migraine_risk":3,"frizz_risk":1,"updated_at":"2026-07-24T09:46:37.978731+05:30"},{"city":"Meerut","state":"Uttar Pradesh","latitude":28.9845,"longitude":77.7064,"temp":29.0,"humidity":78,"rain":0.0,"pressure":975.9,"uv_index":6.15,"wind_gusts":42.8,"aqi":81,"pm10":25.0,"pm2_5":25.0,"no2":6.1,"co":313.0,"o3":112.0,"so2":12.0,"mosquito_risk":7,"arthritis_risk":5,"migraine_risk":7,"frizz_risk":1,"updated_at":"2026-07-24T09:46:37.978743+05:30"},{"city":"Agra","state":"Uttar Pradesh","latitude":27.1767,"longitude":78.0081,"temp":29.9,"humidity":77,"rain":0.1,"pressure":981.2,"uv_index":6.55,"wind_gusts":32.0,"aqi":88,"pm10":12.8,"pm2_5":12.4,"no2":7.4,"co":236.0,"o3":82.0,"so2":6.5,"mosquito_risk":10,"arthritis_risk":5,"migraine_risk":7,"frizz_risk":1,"updated_at":"2026-07-24T09:46:37.978750+05:30"},{"city":"Varanasi","state":"Uttar Pradesh","latitude":25.3176,"longitude":82.9739,"temp":29.1,"humidity":81,"rain":0.0,"pressure":993.5,"uv_index":8.15,"wind_gusts":22.7,"aqi":78,"pm10":14.8,"pm2_5":13.2,"no2":6.9,"co":551.0,"o3":78.0,"so2":13.3,"mosquito_risk":7,"arthritis_risk":5,"migraine_risk":7,"frizz_risk":1,"updated_at":"2026-07-24T09:46:37.978756+05:30"},{"city":"Prayagraj","state":"Uttar Pradesh","latitude":25.4358,"longitude":81.8463,"temp":29.7,"humidity":75,"rain":0.0,"pressure":991.4,"uv_index":8.35,"wind_gusts":19.1,"aqi":66,"pm10":14.6,"pm2_5":13.2,"no2":7.4,"co":212.0,"o3":68.0,"so2":8.6,"mosquito_risk":7,"arthritis_risk":5,"migraine_risk":7,"frizz_risk":1,"updated_at":"2026-07-24T09:46:37.978762+05:30"},{"city":"Gorakhpur","state":"Uttar Pradesh","latitude":26.7606,"longitude":83.3732,"temp":29.8,"humidity":76,"rain":0.0,"pressure":993.3,"uv_index":6.6,"wind_gusts":27.7,"aqi":82,"pm10":16.2,"pm2_5":16.1,"no2":4.5,"co":301.0,"o3":111.0,"so2":8.5,"mosquito_risk":7,"arthritis_risk":5,"migraine_risk":7,"frizz_risk":1,"updated_at":"2026-07-24T09:46:37.978769+05:30"},{"city":"Bareilly","state":"Uttar Pradesh","latitude":28.367,"longitude":79.4304,"temp":29.2,"humidity":79,"rain":0.0,"pressure":981.8,"uv_index":6.75,"wind_gusts":39.6,"aqi":78,"pm10":21.7,"pm2_5":21.6,"no2":4.8,"co":275.0,"o3":114.0,"so2":9.4,"mosquito_risk":7,"arthritis_risk":5,"migraine_risk":7,"frizz_risk":1,"updated_at":"2026-07-24T09:46:37.978777+05:30"},{"city":"Aligarh","state":"Uttar Pradesh","latitude":27.8974,"longitude":78.088,"temp":28.3,"humidity":83,"rain":0.0,"pressure":979.3,"uv_index":6.95,"wind_gusts":34.6,"aqi":87,"pm10":12.7,"pm2_5":12.6,"no2":7.2,"co":222.0,"o3":82.0,"so2":10.7,"mosquito_risk":7,"arthritis_risk":5,"migraine_risk":7,"frizz_risk":1,"updated_at":"2026-07-24T09:46:37.978783+05:30"},{"city":"Moradabad","state":"Uttar Pradesh","latitude":28.8386,"longitude":78.7733,"temp":29.5,"humidity":73,"rain":0.1,"pressure":978.4,"uv_index":6.5,"wind_gusts":47.9,"aqi":73,"pm10":23.1,"pm2_5":23.1,"no2":4.8,"co":311.0,"o3":120.0,"so2":9.8,"mosquito_risk":10,"arthritis_risk":5,"migraine_risk":7,"frizz_risk":1,"updated_at":"2026-07-24T09:46:37.978789+05:30"},{"city":"Saharanpur","state":"Uttar Pradesh","latitude":29.9637,"longitude":77.546,"temp":29.8,"humidity":74,"rain":0.0,"pressure":970.8,"uv_index":7.05,"wind_gusts":46.4,"aqi":75,"pm10":23.2,"pm2_5":23.1,"no2":3.5,"co":282.0,"o3":126.0,"so2":6.7,"mosquito_risk":7,"arthritis_risk":5,"migraine_risk":7,"frizz_risk":1,"updated_at":"2026-07-24T09:46:37.978795+05:30"},{"city":"Jhansi","state":"Uttar Pradesh","latitude":25.4484,"longitude":78.5685,"temp":29.3,"humidity":71,"rain":0.0,"pressure":972.0,"uv_index":6.95,"wind_gusts":35.3,"aqi":63,"pm10":6.3,"pm2_5":5.5,"no2":3.6,"co":158.0,"o3":62.0,"so2":7.5,"mosquito_risk":7,"arthritis_risk":5,"migraine_risk":7,"frizz_risk":1,"updated_at":"2026-07-24T09:46:41.327646+05:30"},{"city":"Surat","state":"Gujarat","latitude":21.1702,"longitude":72.8311,"temp":29.3,"humidity":77,"rain":0.0,"pressure":1000.3,"uv_index":6.3,"wind_gusts":59.4,"aqi":60,"pm10":29.7,"pm2_5":16.9,"no2":14.0,"co":321.0,"o3":28.0,"so2":29.7,"mosquito_risk":7,"arthritis_risk":5,"migraine_risk":4,"frizz_risk":1,"updated_at":"2026-07-24T09:46:41.327682+05:30"},{"city":"Vadodara","state":"Gujarat","latitude":22.3072,"longitude":73.1812,"temp":26.2,"humidity":93,"rain":0.1,"pressure":997.1,"uv_index":5.7,"wind_gusts":51.5,"aqi":47,"pm10":10.0,"pm2_5":6.4,"no2":9.3,"co":189.0,"o3":30.0,"so2":3.1,"mosquito_risk":10,"arthritis_risk":5,"migraine_risk":3,"frizz_risk":1,"updated_at":"2026-07-24T09:46:41.327693+05:30"},{"city":"Rajkot","state":"Gujarat","latitude":22.3039,"longitude":70.8022,"temp":25.6,"humidity":93,"rain":0.0,"pressure":986.5,"uv_index":1.25,"wind_gusts":60.1,"aqi":53,"pm10":16.5,"pm2_5":8.4,"no2":5.7,"co":127.0,"o3":40.0,"so2":3.5,"mosquito_risk":7,"arthritis_risk":5,"migraine_risk":3,"frizz_risk":1,"updated_at":"2026-07-24T09:46:41.327700+05:30"},{"city":"Thane","state":"Maharashtra","latitude":19.2183,"longitude":72.9781,"temp":27.0,"humidity":91,"rain":0.1,"pressure":1004.0,"uv_index":7.75,"wind_gusts":51.5,"aqi":60,"pm10":39.3,"pm2_5":15.8,"no2":6.3,"co":205.0,"o3":45.0,"so2":5.5,"mosquito_risk":10,"arthritis_risk":5,"migraine_risk":4,"frizz_risk":1,"updated_at":"2026-07-24T09:46:41.327708+05:30"},{"city":"Nagpur","state":"Maharashtra","latitude":21.1458,"longitude":79.0882,"temp":28.0,"humidity":73,"rain":0.0,"pressure":969.8,"uv_index":7.4,"wind_gusts":51.1,"aqi":58,"pm10":7.8,"pm2_5":6.3,"no2":7.5,"co":160.0,"o3":42.0,"so2":13.8,"mosquito_risk":7,"arthritis_risk":5,"migraine_risk":7,"frizz_risk":1,"updated_at":"2026-07-24T09:46:41.327716+05:30"},{"city":"Nashik","state":"Maharashtra","latitude":19.9975,"longitude":73.7898,"temp":24.2,"humidity":85,"rain":0.4,"pressure":940.6,"uv_index":4.2,"wind_gusts":65.5,"aqi":17,"pm10":6.8,"pm2_5":3.4,"no2":4.6,"co":138.0,"o3":40.0,"so2":3.2,"mosquito_risk":6,"arthritis_risk":5,"migraine_risk":3,"frizz_risk":1,"updated_at":"2026-07-24T09:46:41.327723+05:30"},{"city":"Aurangabad","state":"Maharashtra","latitude":19.8762,"longitude":75.3433,"temp":26.6,"humidity":73,"rain":0.0,"pressure":939.7,"uv_index":7.95,"wind_gusts":63.7,"aqi":19,"pm10":5.7,"pm2_5":3.5,"no2":2.4,"co":142.0,"o3":49.0,"so2":4.1,"mosquito_risk":7,"arthritis_risk":5,"migraine_risk":7,"frizz_risk":1,"updated_at":"2026-07-24T09:46:41.327730+05:30"},{"city":"Solapur","state":"Maharashtra","latitude":17.6599,"longitude":75.9064,"temp":28.1,"humidity":65,"rain":0.0,"pressure":955.3,"uv_index":5.35,"wind_gusts":69.5,"aqi":58,"pm10":9.3,"pm2_5":4.7,"no2":1.7,"co":106.0,"o3":47.0,"so2":1.6,"mosquito_risk":7,"arthritis_risk":5,"migraine_risk":3,"frizz_risk":1,"updated_at":"2026-07-24T09:46:41.327738+05:30"},{"city":"Kolhapur","state":"Maharashtra","latitude":16.705,"longitude":74.2433,"temp":24.2,"humidity":85,"rain":0.1,"pressure":946.8,"uv_index":8.85,"wind_gusts":70.9,"aqi":56,"pm10":9.5,"pm2_5":5.9,"no2":2.5,"co":132.0,"o3":41.0,"so2":1.5,"mosquito_risk":6,"arthritis_risk":5,"migraine_risk":7,"frizz_risk":1,"updated_at":"2026-07-24T09:46:41.327745+05:30"},{"city":"Goa","state":"Goa","latitude":15.2993,"longitude":74.124,"temp":25.3,"humidity":96,"rain":0.3,"pressure":998.8,"uv_index":8.7,"wind_gusts":50.0,"aqi":95,"pm10":36.6,"pm2_5":16.3,"no2":1.6,"co":169.0,"o3":41.0,"so2":0.8,"mosquito_risk":10,"arthritis_risk":5,"migraine_risk":7,"frizz_risk":1,"updated_at":"2026-07-24T09:46:41.327751+05:30"},{"city":"Jodhpur","state":"Rajasthan","latitude":26.2389,"longitude":73.0243,"temp":30.4,"humidity":75,"rain":0.0,"pressure":974.3,"uv_index":8.1,"wind_gusts":24.8,"aqi":61,"pm10":21.2,"pm2_5":18.5,"no2":4.8,"co":267.0,"o3":109.0,"so2":4.6,"mosquito_risk":3,"arthritis_risk":5,"migraine_risk":7,"frizz_risk":1,"updated_at":"2026-07-24T09:46:41.327759+05:30"},{"city":"Udaipur","state":"Rajasthan","latitude":24.5854,"longitude":73.7125,"temp":27.4,"humidity":77,"rain":0.0,"pressure":938.1,"uv_index":5.1,"wind_gusts":24.1,"aqi":55,"pm10":11.3,"pm2_5":11.0,"no2":3.6,"co":198.0,"o3":83.0,"so2":4.8,"mosquito_risk":7,"arthritis_risk":5,"migraine_risk":3,"frizz_risk":1,"updated_at":"2026-07-24T09:46:41.327766+05:30"},{"city":"Kota","state":"Rajasthan","latitude":25.2138,"longitude":75.8648,"temp":29.0,"humidity":74,"rain":0.0,"pressure":971.0,"uv_index":8.2,"wind_gusts":46.1,"aqi":68,"pm10":6.9,"pm2_5":6.5,"no2":5.8,"co":268.0,"o3":48.0,"so2":9.6,"mosquito_risk":7,"arthritis_risk":5,"migraine_risk":7,"frizz_risk":1,"updated_at":"2026-07-24T09:46:41.327774+05:30"},{"city":"Bikaner","state":"Rajasthan","latitude":28.0229,"longitude":73.3119,"temp":31.6,"humidity":68,"rain":0.1,"pressure":974.2,"uv_index":8.2,"wind_gusts":26.3,"aqi":73,"pm10":31.8,"pm2_5":29.9,"no2":3.7,"co":300.0,"o3":120.0,"so2":7.2,"mosquito_risk":6,"arthritis_risk":5,"migraine_risk":7,"frizz_risk":1,"updated_at":"2026-07-24T09:46:41.327780+05:30"},{"city":"Ajmer","state":"Rajasthan","latitude":26.4499,"longitude":74.6399,"temp":28.1,"humidity":78,"rain":0.0,"pressure":947.0,"uv_index":8.2,"wind_gusts":32.4,"aqi":66,"pm10":15.5,"pm2_5":15.1,"no2":4.7,"co":291.0,"o3":86.0,"so2":7.7,"mosquito_risk":7,"arthritis_risk":5,"migraine_risk":7,"frizz_risk":1,"updated_at":"2026-07-24T09:46:41.327787+05:30"},{"city":"Gwalior","state":"Madhya Pradesh","latitude":26.2183,"longitude":78.1828,"temp":29.6,"humidity":73,"rain":0.0,"pressure":976.7,"uv_index":7.85,"wind_gusts":28.8,"aqi":73,"pm10":10.0,"pm2_5":9.4,"no2":4.0,"co":176.0,"o3":68.0,"so2":4.4,"mosquito_risk":7,"arthritis_risk":5,"migraine_risk":7,"frizz_risk":1,"updated_at":"2026-07-24T09:46:41.327794+05:30"},{"city":"Indore","state":"Madhya Pradesh","latitude":22.7196,"longitude":75.8577,"temp":26.5,"humidity":76,"rain":0.0,"pressure":941.7,"uv_index":5.9,"wind_gusts":52.9,"aqi":27,"pm10":6.1,"pm2_5":4.9,"no2":7.9,"co":204.0,"o3":35.0,"so2":6.7,"mosquito_risk":7,"arthritis_risk":5,"migraine_risk":3,"frizz_risk":1,"updated_at":"2026-07-24T09:46:41.327801+05:30"},{"city":"Bhopal","state":"Madhya Pradesh","latitude":23.2599,"longitude":77.4126,"temp":26.2,"humidity":80,"rain":0.0,"pressure":948.2,"uv_index":8.45,"wind_gusts":41.0,"aqi":35,"pm10":4.9,"pm2_5":3.8,"no2":4.8,"co":176.0,"o3":43.0,"so2":4.7,"mosquito_risk":7,"arthritis_risk":5,"migraine_risk":7,"frizz_risk":1,"updated_at":"2026-07-24T09:46:41.327808+05:30"},{"city":"Jabalpur","state":"Madhya Pradesh","latitude":23.1815,"longitude":79.9864,"temp":28.6,"humidity":68,"rain":0.0,"pressure":957.0,"uv_index":7.0,"wind_gusts":32.0,"aqi":53,"pm10":10.9,"pm2_5":8.6,"no2":5.5,"co":155.0,"o3":44.0,"so2":6.5,"mosquito_risk":7,"arthritis_risk":5,"migraine_risk":7,"frizz_risk":1,"updated_at":"2026-07-24T09:46:41.327815+05:30"},{"city":"Ujjain","state":"Madhya Pradesh","latitude":23.1765,"longitude":75.7885,"temp":25.7,"humidity":79,"rain":0.0,"pressure":947.1,"uv_index":5.6,"wind_gusts":51.1,"aqi":29,"pm10":5.3,"pm2_5":4.3,"no2":5.4,"co":163.0,"o3":38.0,"so2":6.0,"mosquito_risk":7,"arthritis_risk":5,"migraine_risk":3,"frizz_risk":1,"updated_at":"2026-07-24T09:46:41.327823+05:30"},{"city":"Visakhapatnam","state":"Andhra Pradesh","latitude":17.6868,"longitude":83.2185,"temp":29.6,"humidity":75,"rain":0.0,"pressure":1001.6,"uv_index":8.0,"wind_gusts":45.0,"aqi":72,"pm10":40.0,"pm2_5":27.2,"no2":12.7,"co":298.0,"o3":91.0,"so2":33.9,"mosquito_risk":7,"arthritis_risk":5,"migraine_risk":4,"frizz_risk":1,"updated_at":"2026-07-24T09:46:41.327830+05:30"},{"city":"Vijayawada","state":"Andhra Pradesh","latitude":16.5062,"longitude":80.648,"temp":30.9,"humidity":60,"rain":0.0,"pressure":1001.5,"uv_index":5.25,"wind_gusts":45.4,"aqi":68,"pm10":57.7,"pm2_5":27.8,"no2":7.4,"co":167.0,"o3":55.0,"so2":6.9,"mosquito_risk":0,"arthritis_risk":5,"migraine_risk":0,"frizz_risk":1,"updated_at":"2026-07-24T09:46:41.327836+05:30"},{"city":"Guntur","state":"Andhra Pradesh","latitude":16.3067,"longitude":80.4365,"temp":30.2,"humidity":60,"rain":0.0,"pressure":1002.9,"uv_index":4.85,"wind_gusts":44.6,"aqi":69,"pm10":61.9,"pm2_5":27.8,"no2":6.9,"co":133.0,"o3":48.0,"so2":6.7,"mosquito_risk":0,"arthritis_risk":5,"migraine_risk":0,"frizz_risk":1,"updated_at":"2026-07-24T09:46:41.327844+05:30"},{"city":"Nellore","state":"Andhra Pradesh","latitude":14.4426,"longitude":79.9865,"temp":31.8,"humidity":56,"rain":0.0,"pressure":1005.4,"uv_index":7.6,"wind_gusts":42.8,"aqi":68,"pm10":30.5,"pm2_5":14.9,"no2":3.4,"co":120.0,"o3":70.0,"so2":4.7,"mosquito_risk":0,"arthritis_risk":5,"migraine_risk":4,"frizz_risk":1,"updated_at":"2026-07-24T09:46:41.327851+05:30"},{"city":"Kurnool","state":"Andhra Pradesh","latitude":15.8281,"longitude":78.0373,"temp":27.6,"humidity":69,"rain":0.0,"pressure":976.7,"uv_index":7.5,"wind_gusts":58.7,"aqi":65,"pm10":37.1,"pm2_5":16.8,"no2":2.2,"co":111.0,"o3":56.0,"so2":3.3,"mosquito_risk":7,"arthritis_risk":5,"migraine_risk":7,"frizz_risk":1,"updated_at":"2026-07-24T09:46:41.327859+05:30"},{"city":"Kakinada","state":"Andhra Pradesh","latitude":16.9891,"longitude":82.2475,"temp":32.6,"humidity":55,"rain":0.0,"pressure":1005.7,"uv_index":8.85,"wind_gusts":52.6,"aqi":65,"pm10":40.6,"pm2_5":24.3,"no2":3.6,"co":202.0,"o3":96.0,"so2":6.7,"mosquito_risk":0,"arthritis_risk":5,"migraine_risk":4,"frizz_risk":1,"updated_at":"2026-07-24T09:46:41.327867+05:30"},{"city":"Tirupati","state":"Andhra Pradesh","latitude":13.6288,"longitude":79.4192,"temp":31.6,"humidity":53,"rain":0.0,"pressure":990.8,"uv_index":6.5,"wind_gusts":36.4,"aqi":66,"pm10":15.3,"pm2_5":9.4,"no2":4.0,"co":131.0,"o3":67.0,"so2":2.2,"mosquito_risk":0,"arthritis_risk":5,"migraine_risk":7,"frizz_risk":1,"updated_at":"2026-07-24T09:46:41.327873+05:30"},{"city":"Warangal","state":"Telangana","latitude":17.9689,"longitude":79.5941,"temp":28.9,"humidity":67,"rain":0.1,"pressure":977.2,"uv_index":3.8,"wind_gusts":47.2,"aqi":73,"pm10":17.9,"pm2_5":10.6,"no2":2.9,"co":146.0,"o3":51.0,"so2":3.4,"mosquito_risk":10,"arthritis_risk":5,"migraine_risk":3,"frizz_risk":1,"updated_at":"2026-07-24T09:46:41.327880+05:30"},{"city":"Nizamabad","state":"Telangana","latitude":18.6725,"longitude":78.0941,"temp":28.2,"humidity":67,"rain":0.0,"pressure":962.6,"uv_index":6.4,"wind_gusts":52.2,"aqi":63,"pm10":10.1,"pm2_5":5.7,"no2":2.0,"co":126.0,"o3":50.0,"so2":2.4,"mosquito_risk":7,"arthritis_risk":5,"migraine_risk":7,"frizz_risk":1,"updated_at":"2026-07-24T09:46:41.327887+05:30"},{"city":"Mysore","state":"Karnataka","latitude":12.2958,"longitude":76.6396,"temp":26.5,"humidity":61,"rain":0.0,"pressure":930.0,"uv_index":7.2,"wind_gusts":46.4,"aqi":29,"pm10":30.4,"pm2_5":11.1,"no2":3.0,"co":127.0,"o3":55.0,"so2":1.6,"mosquito_risk":7,"arthritis_risk":5,"migraine_risk":7,"frizz_risk":1,"updated_at":"2026-07-24T09:46:41.327893+05:30"},{"city":"Mangalore","state":"Karnataka","latitude":12.9141,"longitude":74.856,"temp":27.6,"humidity":81,"rain":0.1,"pressure":1008.7,"uv_index":8.65,"wind_gusts":42.1,"aqi":52,"pm10":30.6,"pm2_5":13.1,"no2":3.3,"co":143.0,"o3":46.0,"so2":2.2,"mosquito_risk":10,"arthritis_risk":0,"migraine_risk":4,"frizz_risk":1,"updated_at":"2026-07-24T09:46:41.327900+05:30"},{"city":"Hubli-Dharwad","state":"Karnataka","latitude":15.3647,"longitude":75.124,"temp":24.4,"humidity":80,"rain":0.0,"pressure":940.8,"uv_index":8.95,"wind_gusts":62.6,"aqi":63,"pm10":40.4,"pm2_5":17.4,"no2":2.8,"co":111.0,"o3":45.0,"so2":1.0,"mosquito_risk":3,"arthritis_risk":5,"migraine_risk":7,"frizz_risk":1,"updated_at":"2026-07-24T09:46:41.327907+05:30"},{"city":"Belgaum","state":"Karnataka","latitude":15.8497,"longitude":74.4977,"temp":22.7,"humidity":88,"rain":0.1,"pressure":925.1,"uv_index":8.9,"wind_gusts":67.3,"aqi":61,"pm10":9.3,"pm2_5":5.2,"no2":2.9,"co":124.0,"o3":37.0,"so2":1.4,"mosquito_risk":6,"arthritis_risk":5,"migraine_risk":7,"frizz_risk":1,"updated_at":"2026-07-24T09:46:44.682732+05:30"},{"city":"Coimbatore","state":"Tamil Nadu","latitude":11.0168,"longitude":76.9558,"temp":28.5,"humidity":64,"rain":0.0,"pressure":963.0,"uv_index":8.8,"wind_gusts":49.0,"aqi":39,"pm10":10.9,"pm2_5":6.3,"no2":2.6,"co":194.0,"o3":53.0,"so2":2.6,"mosquito_risk":7,"arthritis_risk":5,"migraine_risk":7,"frizz_risk":1,"updated_at":"2026-07-24T09:46:44.682769+05:30"},{"city":"Madurai","state":"Tamil Nadu","latitude":9.9252,"longitude":78.1198,"temp":33.2,"humidity":43,"rain":0.0,"pressure":993.6,"uv_index":8.85,"wind_gusts":25.9,"aqi":65,"pm10":19.2,"pm2_5":12.7,"no2":6.5,"co":158.0,"o3":75.0,"so2":5.6,"mosquito_risk":0,"arthritis_risk":5,"migraine_risk":7,"frizz_risk":1,"updated_at":"2026-07-24T09:46:44.682781+05:30"},{"city":"Trichy","state":"Tamil Nadu","latitude":10.7905,"longitude":78.7047,"temp":32.8,"humidity":48,"rain":0.0,"pressure":999.8,"uv_index":8.75,"wind_gusts":45.0,"aqi":52,"pm10":9.5,"pm2_5":6.0,"no2":2.7,"co":125.0,"o3":49.0,"so2":3.2,"mosquito_risk":0,"arthritis_risk":5,"migraine_risk":7,"frizz_risk":1,"updated_at":"2026-07-24T09:46:44.682789+05:30"},{"city":"Salem","state":"Tamil Nadu","latitude":11.6643,"longitude":78.146,"temp":29.5,"humidity":63,"rain":0.0,"pressure":978.4,"uv_index":8.0,"wind_gusts":41.0,"aqi":63,"pm10":22.4,"pm2_5":15.0,"no2":7.7,"co":191.0,"o3":69.0,"so2":13.1,"mosquito_risk":7,"arthritis_risk":5,"migraine_risk":7,"frizz_risk":1,"updated_at":"2026-07-24T09:46:44.682797+05:30"},{"city":"Tirunelveli","state":"Tamil Nadu","latitude":8.7139,"longitude":77.7567,"temp":34.2,"humidity":41,"rain":0.0,"pressure":1003.9,"uv_index":8.75,"wind_gusts":50.0,"aqi":41,"pm10":9.3,"pm2_5":5.3,"no2":2.0,"co":143.0,"o3":51.0,"so2":1.5,"mosquito_risk":0,"arthritis_risk":5,"migraine_risk":4,"frizz_risk":1,"updated_at":"2026-07-24T09:46:44.682805+05:30"},{"city":"Vellore","state":"Tamil Nadu","latitude":12.9165,"longitude":79.1325,"temp":31.1,"humidity":54,"rain":0.0,"pressure":984.4,"uv_index":6.85,"wind_gusts":38.2,"aqi":76,"pm10":15.3,"pm2_5":9.3,"no2":2.9,"co":138.0,"o3":64.0,"so2":3.6,"mosquito_risk":0,"arthritis_risk":5,"migraine_risk":7,"frizz_risk":1,"updated_at":"2026-07-24T09:46:44.682813+05:30"},{"city":"Erode","state":"Tamil Nadu","latitude":11.341,"longitude":77.7172,"temp":31.3,"humidity":52,"rain":0.0,"pressure":990.0,"uv_index":8.35,"wind_gusts":38.5,"aqi":53,"pm10":14.1,"pm2_5":9.5,"no2":5.0,"co":189.0,"o3":56.0,"so2":3.8,"mosquito_risk":0,"arthritis_risk":5,"migraine_risk":7,"frizz_risk":1,"updated_at":"2026-07-24T09:46:44.682820+05:30"},{"city":"Kochi","state":"Kerala","latitude":9.9312,"longitude":76.2673,"temp":28.6,"humidity":76,"rain":0.0,"pressure":1011.0,"uv_index":8.25,"wind_gusts":27.7,"aqi":56,"pm10":10.9,"pm2_5":8.3,"no2":7.1,"co":186.0,"o3":54.0,"so2":5.6,"mosquito_risk":7,"arthritis_risk":0,"migraine_risk":4,"frizz_risk":1,"updated_at":"2026-07-24T09:46:44.682827+05:30"},{"city":"Thiruvananthapuram","state":"Kerala","latitude":8.5241,"longitude":76.9366,"temp":28.4,"humidity":74,"rain":0.0,"pressure":1010.2,"uv_index":8.55,"wind_gusts":42.5,"aqi":51,"pm10":12.3,"pm2_5":9.1,"no2":4.5,"co":187.0,"o3":58.0,"so2":4.0,"mosquito_risk":7,"arthritis_risk":0,"migraine_risk":4,"frizz_risk":1,"updated_at":"2026-07-24T09:46:44.682834+05:30"},{"city":"Kozhikode","state":"Kerala","latitude":11.2588,"longitude":75.7804,"temp":27.2,"humidity":79,"rain":0.1,"pressure":1010.2,"uv_index":8.5,"wind_gusts":33.8,"aqi":37,"pm10":11.6,"pm2_5":6.0,"no2":1.7,"co":212.0,"o3":51.0,"so2":2.1,"mosquito_risk":10,"arthritis_risk":0,"migraine_risk":4,"frizz_risk":1,"updated_at":"2026-07-24T09:46:44.682840+05:30"},{"city":"Thrissur","state":"Kerala","latitude":10.5276,"longitude":76.2144,"temp":28.4,"humidity":75,"rain":0.1,"pressure":1009.4,"uv_index":8.6,"wind_gusts":33.8,"aqi":53,"pm10":12.0,"pm2_5":9.2,"no2":4.5,"co":208.0,"o3":56.0,"so2":3.7,"mosquito_risk":10,"arthritis_risk":0,"migraine_risk":4,"frizz_risk":1,"updated_at":"2026-07-24T09:46:44.682847+05:30"},{"city":"Kannur","state":"Kerala","latitude":11.8745,"longitude":75.3704,"temp":25.9,"humidity":88,"rain":0.0,"pressure":1009.5,"uv_index":8.4,"wind_gusts":34.9,"aqi":42,"pm10":18.3,"pm2_5":8.9,"no2":4.8,"co":182.0,"o3":44.0,"so2":2.3,"mosquito_risk":7,"arthritis_risk":0,"migraine_risk":4,"frizz_risk":1,"updated_at":"2026-07-24T09:46:44.682854+05:30"},{"city":"Patna","state":"Bihar","latitude":25.5941,"longitude":85.1376,"temp":29.1,"humidity":82,"rain":0.0,"pressure":996.3,"uv_index":6.85,"wind_gusts":28.8,"aqi":85,"pm10":17.0,"pm2_5":16.9,"no2":7.5,"co":268.0,"o3":102.0,"so2":14.7,"mosquito_risk":7,"arthritis_risk":5,"migraine_risk":7,"frizz_risk":1,"updated_at":"2026-07-24T09:46:44.682861+05:30"},{"city":"Gaya","state":"Bihar","latitude":24.7914,"longitude":85.0002,"temp":29.7,"humidity":75,"rain":0.1,"pressure":989.7,"uv_index":7.55,"wind_gusts":28.8,"aqi":81,"pm10":15.0,"pm2_5":14.4,"no2":6.6,"co":172.0,"o3":85.0,"so2":14.0,"mosquito_risk":10,"arthritis_risk":5,"migraine_risk":7,"frizz_risk":1,"updated_at":"2026-07-24T09:46:44.682868+05:30"},{"city":"Muzaffarpur","state":"Bihar","latitude":26.1209,"longitude":85.3647,"temp":29.5,"humidity":80,"rain":0.0,"pressure":996.5,"uv_index":6.35,"wind_gusts":29.2,"aqi":87,"pm10":16.7,"pm2_5":16.6,"no2":6.7,"co":285.0,"o3":96.0,"so2":9.9,"mosquito_risk":7,"arthritis_risk":5,"migraine_risk":7,"frizz_risk":1,"updated_at":"2026-07-24T09:46:44.682875+05:30"},{"city":"Bhagalpur","state":"Bihar","latitude":25.2425,"longitude":87.0117,"temp":30.3,"humidity":74,"rain":0.1,"pressure":996.8,"uv_index":6.5,"wind_gusts":29.9,"aqi":72,"pm10":17.0,"pm2_5":16.8,"no2":10.9,"co":295.0,"o3":84.0,"so2":32.2,"mosquito_risk":6,"arthritis_risk":5,"migraine_risk":7,"frizz_risk":1,"updated_at":"2026-07-24T09:46:44.682882+05:30"},{"city":"Ranchi","state":"Jharkhand","latitude":23.3441,"longitude":85.3096,"temp":26.5,"humidity":75,"rain":0.0,"pressure":934.2,"uv_index":6.1,"wind_gusts":27.4,"aqi":55,"pm10":15.0,"pm2_5":12.2,"no2":6.7,"co":161.0,"o3":59.0,"so2":14.8,"mosquito_risk":7,"arthritis_risk":5,"migraine_risk":7,"frizz_risk":1,"updated_at":"2026-07-24T09:46:44.682889+05:30"},{"city":"Jamshedpur","state":"Jharkhand","latitude":22.8046,"longitude":86.2029,"temp":29.4,"humidity":72,"rain":0.0,"pressure":986.8,"uv_index":8.45,"wind_gusts":33.8,"aqi":63,"pm10":23.9,"pm2_5":18.7,"no2":9.9,"co":290.0,"o3":70.0,"so2":23.5,"mosquito_risk":7,"arthritis_risk":5,"migraine_risk":7,"frizz_risk":1,"updated_at":"2026-07-24T09:46:44.682896+05:30"},{"city":"Dhanbad","state":"Jharkhand","latitude":23.7957,"longitude":86.4304,"temp":29.0,"humidity":76,"rain":0.0,"pressure":975.6,"uv_index":7.45,"wind_gusts":22.3,"aqi":82,"pm10":27.2,"pm2_5":25.6,"no2":20.9,"co":207.0,"o3":60.0,"so2":59.2,"mosquito_risk":7,"arthritis_risk":5,"migraine_risk":7,"frizz_risk":1,"updated_at":"2026-07-24T09:46:44.682902+05:30"},{"city":"Bokaro","state":"Jharkhand","latitude":23.6693,"longitude":86.1511,"temp":29.6,"humidity":72,"rain":0.0,"pressure":979.4,"uv_index":7.6,"wind_gusts":25.6,"aqi":69,"pm10":24.2,"pm2_5":22.1,"no2":16.4,"co":228.0,"o3":68.0,"so2":58.5,"mosquito_risk":7,"arthritis_risk":5,"migraine_risk":7,"frizz_risk":1,"updated_at":"2026-07-24T09:46:44.682909+05:30"},{"city":"Bhubaneswar","state":"Odisha","latitude":20.2961,"longitude":85.8245,"temp":31.0,"humidity":67,"rain":0.0,"pressure":999.3,"uv_index":7.85,"wind_gusts":38.9,"aqi":69,"pm10":37.3,"pm2_5":24.4,"no2":7.5,"co":278.0,"o3":80.0,"so2":10.4,"mosquito_risk":3,"arthritis_risk":5,"migraine_risk":7,"frizz_risk":1,"updated_at":"2026-07-24T09:46:44.682916+05:30"},{"city":"Cuttack","state":"Odisha","latitude":20.4625,"longitude":85.8828,"temp":30.7,"humidity":69,"rain":0.0,"pressure":1001.0,"uv_index":8.1,"wind_gusts":43.2,"aqi":69,"pm10":37.3,"pm2_5":24.4,"no2":7.5,"co":268.0,"o3":80.0,"so2":10.4,"mosquito_risk":3,"arthritis_risk":5,"migraine_risk":4,"frizz_risk":1,"updated_at":"2026-07-24T09:46:44.682922+05:30"},{"city":"Rourkela","state":"Odisha","latitude":22.2604,"longitude":84.8536,"temp":25.9,"humidity":91,"rain":0.1,"pressure":982.0,"uv_index":5.05,"wind_gusts":38.5,"aqi":61,"pm10":35.6,"pm2_5":23.8,"no2":7.5,"co":254.0,"o3":73.0,"so2":15.2,"mosquito_risk":10,"arthritis_risk":5,"migraine_risk":3,"frizz_risk":1,"updated_at":"2026-07-24T09:46:44.682928+05:30"},{"city":"Raipur","state":"Chhattisgarh","latitude":21.2514,"longitude":81.6296,"temp":28.8,"humidity":67,"rain":0.0,"pressure":971.3,"uv_index":6.1,"wind_gusts":46.1,"aqi":74,"pm10":22.2,"pm2_5":17.8,"no2":12.4,"co":279.0,"o3":47.0,"so2":32.8,"mosquito_risk":7,"arthritis_risk":5,"migraine_risk":7,"frizz_risk":1,"updated_at":"2026-07-24T09:46:44.682934+05:30"},{"city":"Bhilai","state":"Chhattisgarh","latitude":21.1938,"longitude":81.3509,"temp":28.3,"humidity":69,"rain":0.1,"pressure":971.8,"uv_index":5.6,"wind_gusts":54.4,"aqi":72,"pm10":20.5,"pm2_5":16.6,"no2":11.1,"co":474.0,"o3":48.0,"so2":29.9,"mosquito_risk":10,"arthritis_risk":5,"migraine_risk":3,"frizz_risk":1,"updated_at":"2026-07-24T09:46:44.682940+05:30"},{"city":"Guwahati","state":"Assam","latitude":26.1158,"longitude":91.7086,"temp":29.7,"humidity":78,"rain":0.0,"pressure":997.9,"uv_index":8.5,"wind_gusts":20.5,"aqi":52,"pm10":10.5,"pm2_5":9.9,"no2":2.0,"co":221.0,"o3":94.0,"so2":3.4,"mosquito_risk":7,"arthritis_risk":5,"migraine_risk":7,"frizz_risk":1,"updated_at":"2026-07-24T09:46:44.682946+05:30"},{"city":"Agartala","state":"Tripura","latitude":23.8315,"longitude":91.2868,"temp":29.4,"humidity":74,"rain":0.1,"pressure":1002.5,"uv_index":7.9,"wind_gusts":34.6,"aqi":47,"pm10":8.9,"pm2_5":6.6,"no2":3.4,"co":145.0,"o3":76.0,"so2":2.0,"mosquito_risk":10,"arthritis_risk":5,"migraine_risk":4,"frizz_risk":1,"updated_at":"2026-07-24T09:46:44.682952+05:30"},{"city":"Shillong","state":"Meghalaya","latitude":25.5788,"longitude":91.8933,"temp":23.9,"humidity":72,"rain":0.2,"pressure":856.3,"uv_index":8.05,"wind_gusts":23.4,"aqi":27,"pm10":3.5,"pm2_5":3.0,"no2":1.9,"co":185.0,"o3":76.0,"so2":1.9,"mosquito_risk":6,"arthritis_risk":5,"migraine_risk":7,"frizz_risk":1,"updated_at":"2026-07-24T09:46:44.682959+05:30"},{"city":"Imphal","state":"Manipur","latitude":24.817,"longitude":93.9368,"temp":27.0,"humidity":72,"rain":0.0,"pressure":921.1,"uv_index":8.5,"wind_gusts":21.2,"aqi":39,"pm10":3.8,"pm2_5":3.1,"no2":1.3,"co":154.0,"o3":75.0,"so2":1.2,"mosquito_risk":7,"arthritis_risk":5,"migraine_risk":7,"frizz_risk":1,"updated_at":"2026-07-24T09:46:44.682966+05:30"},{"city":"Aizawl","state":"Mizoram","latitude":23.7271,"longitude":92.7176,"temp":24.7,"humidity":66,"rain":0.1,"pressure":890.8,"uv_index":8.75,"wind_gusts":27.7,"aqi":22,"pm10":3.1,"pm2_5":2.2,"no2":0.8,"co":118.0,"o3":68.0,"so2":0.9,"mosquito_risk":6,"arthritis_risk":5,"migraine_risk":7,"frizz_risk":1,"updated_at":"2026-07-24T09:46:44.682972+05:30"},{"city":"Kohima","state":"Nagaland","latitude":25.6701,"longitude":94.1077,"temp":23.9,"humidity":78,"rain":0.1,"pressure":854.4,"uv_index":8.5,"wind_gusts":21.6,"aqi":23,"pm10":3.8,"pm2_5":3.1,"no2":0.8,"co":132.0,"o3":79.0,"so2":0.9,"mosquito_risk":6,"arthritis_risk":5,"migraine_risk":7,"frizz_risk":1,"updated_at":"2026-07-24T09:46:44.682978+05:30"},{"city":"Gangtok","state":"Sikkim","latitude":27.3314,"longitude":88.6138,"temp":22.1,"humidity":82,"rain":0.0,"pressure":837.4,"uv_index":7.65,"wind_gusts":31.7,"aqi":34,"pm10":4.6,"pm2_5":4.5,"no2":1.2,"co":174.0,"o3":91.0,"so2":1.5,"mosquito_risk":3,"arthritis_risk":5,"migraine_risk":7,"frizz_risk":1,"updated_at":"2026-07-24T09:46:44.682985+05:30"},{"city":"Siliguri","state":"West Bengal","latitude":26.7271,"longitude":88.3953,"temp":29.4,"humidity":79,"rain":0.0,"pressure":989.7,"uv_index":7.95,"wind_gusts":26.3,"aqi":61,"pm10":10.9,"pm2_5":10.3,"no2":2.4,"co":310.0,"o3":102.0,"so2":2.8,"mosquito_risk":7,"arthritis_risk":5,"migraine_risk":7,"frizz_risk":1,"updated_at":"2026-07-24T09:46:48.022259+05:30"},{"city":"Durgapur","state":"West Bengal","latitude":23.5204,"longitude":87.3119,"temp":28.8,"humidity":78,"rain":0.0,"pressure":990.5,"uv_index":5.25,"wind_gusts":25.6,"aqi":87,"pm10":27.4,"pm2_5":26.4,"no2":24.6,"co":325.0,"o3":54.0,"so2":63.9,"mosquito_risk":7,"arthritis_risk":5,"migraine_risk":3,"frizz_risk":1,"updated_at":"2026-07-24T09:46:48.022296+05:30"},{"city":"Asansol","state":"West Bengal","latitude":23.6739,"longitude":86.9524,"temp":27.4,"humidity":89,"rain":0.0,"pressure":989.1,"uv_index":6.35,"wind_gusts":31.0,"aqi":77,"pm10":27.3,"pm2_5":26.1,"no2":23.4,"co":779.0,"o3":52.0,"so2":55.1,"mosquito_risk":7,"arthritis_risk":5,"migraine_risk":7,"frizz_risk":1,"updated_at":"2026-07-24T09:46:48.022308+05:30"},{"city":"Pondicherry","state":"Puducherry","latitude":11.9139,"longitude":79.8145,"temp":32.6,"humidity":52,"rain":0.0,"pressure":1008.3,"uv_index":7.65,"wind_gusts":42.5,"aqi":66,"pm10":18.9,"pm2_5":14.2,"no2":9.9,"co":189.0,"o3":60.0,"so2":9.0,"mosquito_risk":0,"arthritis_risk":0,"migraine_risk":4,"frizz_risk":1,"updated_at":"2026-07-24T09:46:48.022318+05:30"},{"city":"Port Blair","state":"Andaman and Nicobar Islands","latitude":11.6234,"longitude":92.7265,"temp":30.6,"humidity":68,"rain":0.0,"pressure":1007.6,"uv_index":5.3,"wind_gusts":46.4,"aqi":38,"pm10":14.8,"pm2_5":8.7,"no2":0.4,"co":95.0,"o3":48.0,"so2":0.5,"mosquito_risk":3,"arthritis_risk":5,"migraine_risk":0,"frizz_risk":1,"updated_at":"2026-07-24T09:46:48.022327+05:30"},{"city":"Haridwar","state":"Uttarakhand","latitude":29.9457,"longitude":78.1642,"temp":30.6,"humidity":69,"rain":0.1,"pressure":969.3,"uv_index":6.25,"wind_gusts":38.5,"aqi":74,"pm10":18.9,"pm2_5":18.7,"no2":1.9,"co":220.0,"o3":128.0,"so2":5.9,"mosquito_risk":6,"arthritis_risk":5,"migraine_risk":7,"frizz_risk":1,"updated_at":"2026-07-24T09:46:48.022338+05:30"},{"city":"Rishikesh","state":"Uttarakhand","latitude":30.0869,"longitude":78.2676,"temp":29.6,"humidity":73,"rain":0.0,"pressure":962.1,"uv_index":6.45,"wind_gusts":25.9,"aqi":57,"pm10":13.1,"pm2_5":12.9,"no2":1.7,"co":228.0,"o3":121.0,"so2":3.6,"mosquito_risk":7,"arthritis_risk":5,"migraine_risk":7,"frizz_risk":1,"updated_at":"2026-07-24T09:46:48.022346+05:30"},{"city":"Nainital","state":"Uttarakhand","latitude":29.3919,"longitude":79.4542,"temp":21.5,"humidity":70,"rain":0.0,"pressure":805.0,"uv_index":7.8,"wind_gusts":42.8,"aqi":54,"pm10":12.4,"pm2_5":12.3,"no2":1.4,"co":171.0,"o3":109.0,"so2":2.6,"mosquito_risk":3,"arthritis_risk":5,"migraine_risk":7,"frizz_risk":0,"updated_at":"2026-07-24T09:46:48.022353+05:30"},{"city":"Mussoorie","state":"Uttarakhand","latitude":30.4599,"longitude":78.0664,"temp":22.1,"humidity":71,"rain":0.0,"pressure":802.8,"uv_index":7.25,"wind_gusts":31.7,"aqi":63,"pm10":12.0,"pm2_5":11.8,"no2":1.9,"co":180.0,"o3":136.0,"so2":5.0,"mosquito_risk":3,"arthritis_risk":5,"migraine_risk":7,"frizz_risk":1,"updated_at":"2026-07-24T09:46:48.022361+05:30"},{"city":"Dharamshala","state":"Himachal Pradesh","latitude":32.219,"longitude":76.3234,"temp":23.2,"humidity":89,"rain":0.0,"pressure":866.8,"uv_index":6.4,"wind_gusts":33.5,"aqi":42,"pm10":6.2,"pm2_5":5.9,"no2":1.3,"co":216.0,"o3":80.0,"so2":0.9,"mosquito_risk":3,"arthritis_risk":5,"migraine_risk":7,"frizz_risk":1,"updated_at":"2026-07-24T09:46:48.022370+05:30"},{"city":"Dalhousie","state":"Himachal Pradesh","latitude":32.5387,"longitude":75.971,"temp":19.7,"humidity":86,"rain":0.0,"pressure":803.5,"uv_index":8.6,"wind_gusts":34.9,"aqi":84,"pm10":27.7,"pm2_5":27.0,"no2":11.0,"co":203.0,"o3":113.0,"so2":2.9,"mosquito_risk":3,"arthritis_risk":10,"migraine_risk":7,"frizz_risk":1,"updated_at":"2026-07-24T09:46:48.022380+05:30"},{"city":"Patiala","state":"Punjab","latitude":30.3398,"longitude":76.3869,"temp":30.0,"humidity":75,"rain":0.0,"pressure":972.9,"uv_index":7.5,"wind_gusts":37.4,"aqi":80,"pm10":26.4,"pm2_5":26.3,"no2":5.5,"co":320.0,"o3":126.0,"so2":10.4,"mosquito_risk":7,"arthritis_risk":5,"migraine_risk":7,"frizz_risk":1,"updated_at":"2026-07-24T09:46:48.022389+05:30"},{"city":"Bhatinda","state":"Punjab","latitude":30.211,"longitude":74.9455,"temp":30.8,"humidity":72,"rain":0.0,"pressure":978.0,"uv_index":7.75,"wind_gusts":34.9,"aqi":112,"pm10":34.8,"pm2_5":34.7,"no2":9.7,"co":285.0,"o3":113.0,"so2":15.8,"mosquito_risk":3,"arthritis_risk":5,"migraine_risk":7,"frizz_risk":1,"updated_at":"2026-07-24T09:46:48.022396+05:30"},{"city":"Rohtak","state":"Haryana","latitude":28.8955,"longitude":76.6066,"temp":29.2,"humidity":77,"rain":0.1,"pressure":975.5,"uv_index":5.95,"wind_gusts":35.6,"aqi":92,"pm10":28.3,"pm2_5":28.3,"no2":12.2,"co":339.0,"o3":119.0,"so2":22.3,"mosquito_risk":10,"arthritis_risk":5,"migraine_risk":3,"frizz_risk":1,"updated_at":"2026-07-24T09:46:48.022404+05:30"},{"city":"Panipat","state":"Haryana","latitude":29.3909,"longitude":76.9635,"temp":29.5,"humidity":76,"rain":0.0,"pressure":974.7,"uv_index":6.7,"wind_gusts":41.0,"aqi":84,"pm10":28.6,"pm2_5":28.6,"no2":7.8,"co":325.0,"o3":122.0,"so2":17.0,"mosquito_risk":7,"arthritis_risk":5,"migraine_risk":7,"frizz_risk":1,"updated_at":"2026-07-24T09:46:48.022410+05:30"},{"city":"Mathura","state":"Uttar Pradesh","latitude":27.4924,"longitude":77.6737,"temp":29.3,"humidity":77,"rain":0.1,"pressure":980.2,"uv_index":6.6,"wind_gusts":32.0,"aqi":85,"pm10":11.6,"pm2_5":11.4,"no2":7.1,"co":252.0,"o3":82.0,"so2":5.9,"mosquito_risk":10,"arthritis_risk":5,"migraine_risk":7,"frizz_risk":1,"updated_at":"2026-07-24T09:46:48.022417+05:30"},{"city":"Vrindavan","state":"Uttar Pradesh","latitude":27.5823,"longitude":77.7027,"temp":29.3,"humidity":78,"rain":0.1,"pressure":980.7,"uv_index":6.35,"wind_gusts":31.0,"aqi":85,"pm10":11.6,"pm2_5":11.4,"no2":7.1,"co":249.0,"o3":82.0,"so2":5.9,"mosquito_risk":10,"arthritis_risk":5,"migraine_risk":7,"frizz_risk":1,"updated_at":"2026-07-24T09:46:48.022424+05:30"},{"city":"Ayodhya","state":"Uttar Pradesh","latitude":26.7922,"longitude":82.1998,"temp":29.8,"humidity":77,"rain":0.0,"pressure":991.0,"uv_index":6.2,"wind_gusts":28.8,"aqi":89,"pm10":14.6,"pm2_5":14.3,"no2":5.3,"co":259.0,"o3":88.0,"so2":8.9,"mosquito_risk":7,"arthritis_risk":5,"migraine_risk":7,"frizz_risk":1,"updated_at":"2026-07-24T09:46:48.022431+05:30"},{"city":"Ratlam","state":"Madhya Pradesh","latitude":23.3315,"longitude":75.0367,"temp":23.5,"humidity":94,"rain":0.4,"pressure":946.6,"uv_index":7.8,"wind_gusts":50.8,"aqi":24,"pm10":4.7,"pm2_5":3.6,"no2":4.6,"co":120.0,"o3":40.0,"so2":5.4,"mosquito_risk":6,"arthritis_risk":5,"migraine_risk":7,"frizz_risk":1,"updated_at":"2026-07-24T09:46:48.022438+05:30"},{"city":"Sagar","state":"Madhya Pradesh","latitude":23.8388,"longitude":78.7378,"temp":27.8,"humidity":69,"rain":0.0,"pressure":945.2,"uv_index":7.7,"wind_gusts":35.3,"aqi":35,"pm10":6.2,"pm2_5":4.6,"no2":5.2,"co":126.0,"o3":41.0,"so2":6.3,"mosquito_risk":7,"arthritis_risk":5,"migraine_risk":7,"frizz_risk":1,"updated_at":"2026-07-24T09:46:48.022446+05:30"},{"city":"Satna","state":"Madhya Pradesh","latitude":24.6005,"longitude":80.8322,"temp":29.5,"humidity":68,"rain":0.0,"pressure":966.7,"uv_index":7.35,"wind_gusts":30.2,"aqi":46,"pm10":11.1,"pm2_5":8.9,"no2":3.2,"co":158.0,"o3":66.0,"so2":6.9,"mosquito_risk":7,"arthritis_risk":5,"migraine_risk":7,"frizz_risk":1,"updated_at":"2026-07-24T09:46:48.022453+05:30"},{"city":"Akola","state":"Maharashtra","latitude":20.7002,"longitude":77.0082,"temp":29.0,"humidity":68,"rain":0.0,"pressure":971.0,"uv_index":8.05,"wind_gusts":50.4,"aqi":41,"pm10":10.4,"pm2_5":6.0,"no2":4.6,"co":123.0,"o3":44.0,"so2":4.9,"mosquito_risk":7,"arthritis_risk":5,"migraine_risk":7,"frizz_risk":1,"updated_at":"2026-07-24T09:46:48.022462+05:30"},{"city":"Amravati","state":"Maharashtra","latitude":20.9374,"longitude":77.7796,"temp":27.8,"humidity":72,"rain":0.1,"pressure":963.7,"uv_index":7.85,"wind_gusts":47.2,"aqi":48,"pm10":10.9,"pm2_5":6.2,"no2":4.9,"co":126.0,"o3":42.0,"so2":4.8,"mosquito_risk":10,"arthritis_risk":5,"migraine_risk":7,"frizz_risk":1,"updated_at":"2026-07-24T09:46:48.022469+05:30"},{"city":"Latur","state":"Maharashtra","latitude":18.4088,"longitude":76.5604,"temp":27.2,"humidity":68,"rain":0.0,"pressure":937.3,"uv_index":7.7,"wind_gusts":62.6,"aqi":54,"pm10":6.8,"pm2_5":3.7,"no2":1.6,"co":111.0,"o3":45.0,"so2":1.3,"mosquito_risk":7,"arthritis_risk":5,"migraine_risk":7,"frizz_risk":1,"updated_at":"2026-07-24T09:46:48.022477+05:30"},{"city":"Nanded","state":"Maharashtra","latitude":19.1383,"longitude":77.3091,"temp":28.6,"humidity":67,"rain":0.1,"pressure":965.9,"uv_index":7.75,"wind_gusts":52.2,"aqi":57,"pm10":9.6,"pm2_5":5.5,"no2":2.4,"co":124.0,"o3":51.0,"so2":3.5,"mosquito_risk":10,"arthritis_risk":5,"migraine_risk":7,"frizz_risk":1,"updated_at":"2026-07-24T09:46:48.022483+05:30"},{"city":"Gulbarga","state":"Karnataka","latitude":17.3297,"longitude":76.8343,"temp":28.0,"humidity":66,"rain":0.0,"pressure":957.3,"uv_index":7.2,"wind_gusts":64.1,"aqi":62,"pm10":8.1,"pm2_5":4.4,"no2":2.3,"co":110.0,"o3":49.0,"so2":2.3,"mosquito_risk":7,"arthritis_risk":5,"migraine_risk":7,"frizz_risk":1,"updated_at":"2026-07-24T09:46:48.022490+05:30"},{"city":"Bidar","state":"Karnataka","latitude":17.9104,"longitude":77.5199,"temp":27.1,"humidity":66,"rain":0.0,"pressure":933.7,"uv_index":6.2,"wind_gusts":61.2,"aqi":62,"pm10":6.9,"pm2_5":4.3,"no2":2.8,"co":114.0,"o3":48.0,"so2":2.1,"mosquito_risk":7,"arthritis_risk":5,"migraine_risk":7,"frizz_risk":1,"updated_at":"2026-07-24T09:46:48.022497+05:30"},{"city":"Hospet","state":"Karnataka","latitude":15.2689,"longitude":76.3909,"temp":26.5,"humidity":71,"rain":0.0,"pressure":955.9,"uv_index":8.9,"wind_gusts":63.7,"aqi":58,"pm10":49.8,"pm2_5":20.3,"no2":2.5,"co":108.0,"o3":51.0,"so2":1.6,"mosquito_risk":7,"arthritis_risk":5,"migraine_risk":7,"frizz_risk":1,"updated_at":"2026-07-24T09:46:48.022503+05:30"},{"city":"Tirupur","state":"Tamil Nadu","latitude":11.1085,"longitude":77.3411,"temp":30.2,"humidity":55,"rain":0.0,"pressure":976.4,"uv_index":8.65,"wind_gusts":47.9,"aqi":56,"pm10":15.5,"pm2_5":10.6,"no2":5.2,"co":183.0,"o3":60.0,"so2":4.5,"mosquito_risk":0,"arthritis_risk":5,"migraine_risk":7,"frizz_risk":1,"updated_at":"2026-07-24T09:46:48.022509+05:30"},{"city":"Alappuzha","state":"Kerala","latitude":9.4981,"longitude":76.3388,"temp":28.4,"humidity":75,"rain":0.0,"pressure":1011.1,"uv_index":8.6,"wind_gusts":29.9,"aqi":56,"pm10":12.5,"pm2_5":9.3,"no2":6.2,"co":117.0,"o3":57.0,"so2":6.0,"mosquito_risk":7,"arthritis_risk":0,"migraine_risk":4,"frizz_risk":1,"updated_at":"2026-07-24T09:46:48.022533+05:30"},{"city":"Munnar","state":"Kerala","latitude":10.0889,"longitude":77.0595,"temp":20.1,"humidity":77,"rain":0.0,"pressure":859.0,"uv_index":9.0,"wind_gusts":37.1,"aqi":37,"pm10":7.8,"pm2_5":4.2,"no2":1.3,"co":94.0,"o3":49.0,"so2":1.1,"mosquito_risk":3,"arthritis_risk":5,"migraine_risk":7,"frizz_risk":0,"updated_at":"2026-07-24T09:46:48.022541+05:30"},{"city":"Silchar","state":"Assam","latitude":24.8333,"longitude":92.7789,"temp":30.1,"humidity":75,"rain":0.0,"pressure":1001.9,"uv_index":8.8,"wind_gusts":23.0,"aqi":52,"pm10":7.8,"pm2_5":6.2,"no2":1.3,"co":183.0,"o3":82.0,"so2":3.0,"mosquito_risk":3,"arthritis_risk":5,"migraine_risk":4,"frizz_risk":1,"updated_at":"2026-07-24T09:46:48.022548+05:30"},{"city":"Dibrugarh","state":"Assam","latitude":27.4728,"longitude":94.912,"temp":30.2,"humidity":75,"rain":0.1,"pressure":991.5,"uv_index":6.15,"wind_gusts":21.6,"aqi":54,"pm10":7.5,"pm2_5":7.2,"no2":1.5,"co":164.0,"o3":94.0,"so2":1.4,"mosquito_risk":6,"arthritis_risk":5,"migraine_risk":7,"frizz_risk":1,"updated_at":"2026-07-24T09:46:48.022555+05:30"}]