[{"city":"Delhi","state":"Delhi","latitude":28.6139,"longitude":77.209,"temp":32.8,"humidity":48,"rain":0.1,"pressure":976.6,"uv_index":7.8,"wind_gusts":29.2,"aqi":235,"pm10":388.4,"pm2_5":85.7,"no2":2.8,"co":334.0,"o3":133.0,"so2":8.2,"mosquito_risk":3,"arthritis_risk":5,"migraine_risk":7,"frizz_risk":1,"updated_at":"2026-06-14T17:29:15.005750+05:30"},{"city":"Mumbai","state":"Maharashtra","latitude":19.076,"longitude":72.8777,"temp":31.4,"humidity":67,"rain":0.0,"pressure":1006.4,"uv_index":7.7,"wind_gusts":53.3,"aqi":68,"pm10":29.0,"pm2_5":15.3,"no2":4.0,"co":134.0,"o3":62.0,"so2":3.8,"mosquito_risk":3,"arthritis_risk":5,"migraine_risk":4,"frizz_risk":1,"updated_at":"2026-06-14T17:29:15.005798+05:30"},{"city":"Bangalore","state":"Karnataka","latitude":12.9716,"longitude":77.5946,"temp":24.6,"humidity":74,"rain":0.1,"pressure":910.1,"uv_index":7.85,"wind_gusts":40.7,"aqi":50,"pm10":26.4,"pm2_5":12.4,"no2":8.9,"co":235.0,"o3":76.0,"so2":3.2,"mosquito_risk":6,"arthritis_risk":5,"migraine_risk":7,"frizz_risk":1,"updated_at":"2026-06-14T17:29:15.005813+05:30"},{"city":"Hyderabad","state":"Telangana","latitude":17.385,"longitude":78.4867,"temp":33.5,"humidity":43,"rain":0.0,"pressure":949.1,"uv_index":3.85,"wind_gusts":40.3,"aqi":83,"pm10":50.8,"pm2_5":22.5,"no2":2.6,"co":190.0,"o3":114.0,"so2":4.2,"mosquito_risk":0,"arthritis_risk":5,"migraine_risk":3,"frizz_risk":1,"updated_at":"2026-06-14T17:29:15.005822+05:30"},{"city":"Chennai","state":"Tamil Nadu","latitude":13.0827,"longitude":80.2707,"temp":32.1,"humidity":64,"rain":0.0,"pressure":1003.0,"uv_index":8.9,"wind_gusts":37.8,"aqi":77,"pm10":41.0,"pm2_5":24.3,"no2":5.1,"co":232.0,"o3":145.0,"so2":5.7,"mosquito_risk":3,"arthritis_risk":5,"migraine_risk":4,"frizz_risk":1,"updated_at":"2026-06-14T17:29:15.005830+05:30"},{"city":"Kolkata","state":"West Bengal","latitude":22.5726,"longitude":88.3639,"temp":31.2,"humidity":71,"rain":0.0,"pressure":999.1,"uv_index":9.0,"wind_gusts":41.4,"aqi":127,"pm10":32.7,"pm2_5":26.1,"no2":6.9,"co":409.0,"o3":115.0,"so2":8.4,"mosquito_risk":3,"arthritis_risk":5,"migraine_risk":7,"frizz_risk":1,"updated_at":"2026-06-14T17:29:15.005837+05:30"},{"city":"Pune","state":"Maharashtra","latitude":18.5204,"longitude":73.8567,"temp":30.4,"humidity":54,"rain":0.0,"pressure":946.3,"uv_index":8.3,"wind_gusts":50.8,"aqi":55,"pm10":42.1,"pm2_5":18.6,"no2":1.9,"co":123.0,"o3":91.0,"so2":4.7,"mosquito_risk":0,"arthritis_risk":5,"migraine_risk":7,"frizz_risk":1,"updated_at":"2026-06-14T17:29:15.005844+05:30"},{"city":"Ahmedabad","state":"Gujarat","latitude":23.0225,"longitude":72.5714,"temp":39.0,"humidity":28,"rain":0.0,"pressure":996.2,"uv_index":8.05,"wind_gusts":47.5,"aqi":71,"pm10":54.0,"pm2_5":21.0,"no2":1.3,"co":123.0,"o3":84.0,"so2":2.3,"mosquito_risk":0,"arthritis_risk":5,"migraine_risk":10,"frizz_risk":1,"updated_at":"2026-06-14T17:29:15.005851+05:30"},{"city":"Jaipur","state":"Rajasthan","latitude":26.9124,"longitude":75.7873,"temp":31.1,"humidity":54,"rain":0.2,"pressure":954.1,"uv_index":8.2,"wind_gusts":45.0,"aqi":125,"pm10":250.5,"pm2_5":59.4,"no2":2.4,"co":162.0,"o3":101.0,"so2":3.7,"mosquito_risk":3,"arthritis_risk":5,"migraine_risk":7,"frizz_risk":1,"updated_at":"2026-06-14T17:29:15.005861+05:30"},{"city":"Lucknow","state":"Uttar Pradesh","latitude":26.8467,"longitude":80.9462,"temp":35.2,"humidity":46,"rain":0.0,"pressure":985.7,"uv_index":8.35,"wind_gusts":29.5,"aqi":152,"pm10":303.6,"pm2_5":75.7,"no2":3.4,"co":253.0,"o3":144.0,"so2":9.5,"mosquito_risk":0,"arthritis_risk":5,"migraine_risk":10,"frizz_risk":1,"updated_at":"2026-06-14T17:29:15.005869+05:30"},{"city":"Kanpur","state":"Uttar Pradesh","latitude":26.4499,"longitude":80.3319,"temp":38.1,"humidity":30,"rain":0.0,"pressure":984.0,"uv_index":8.3,"wind_gusts":36.0,"aqi":156,"pm10":521.5,"pm2_5":92.4,"no2":2.5,"co":228.0,"o3":137.0,"so2":7.5,"mosquito_risk":0,"arthritis_risk":5,"migraine_risk":10,"frizz_risk":1,"updated_at":"2026-06-14T17:29:15.005875+05:30"},{"city":"Chandigarh","state":"Chandigarh","latitude":30.7333,"longitude":76.7794,"temp":33.1,"humidity":44,"rain":0.0,"pressure":962.4,"uv_index":7.8,"wind_gusts":24.1,"aqi":125,"pm10":32.6,"pm2_5":16.1,"no2":1.3,"co":340.0,"o3":155.0,"so2":6.9,"mosquito_risk":0,"arthritis_risk":5,"migraine_risk":7,"frizz_risk":1,"updated_at":"2026-06-14T17:29:15.005882+05:30"},{"city":"Srinagar","state":"Jammu and Kashmir","latitude":34.0837,"longitude":74.7973,"temp":25.0,"humidity":39,"rain":0.0,"pressure":839.9,"uv_index":9.0,"wind_gusts":21.6,"aqi":102,"pm10":13.4,"pm2_5":7.9,"no2":1.2,"co":272.0,"o3":138.0,"so2":1.5,"mosquito_risk":4,"arthritis_risk":5,"migraine_risk":7,"frizz_risk":0,"updated_at":"2026-06-14T17:29:15.005891+05:30"},{"city":"Jammu","state":"Jammu and Kashmir","latitude":32.7266,"longitude":74.857,"temp":34.8,"humidity":28,"rain":0.0,"pressure":966.8,"uv_index":8.6,"wind_gusts":30.6,"aqi":130,"pm10":26.7,"pm2_5":13.8,"no2":0.2,"co":216.0,"o3":163.0,"so2":1.3,"mosquito_risk":0,"arthritis_risk":5,"migraine_risk":7,"frizz_risk":0,"updated_at":"2026-06-14T17:29:15.005897+05:30"},{"city":"Amritsar","state":"Punjab","latitude":31.634,"longitude":74.8723,"temp":34.2,"humidity":42,"rain":0.0,"pressure":974.1,"uv_index":8.4,"wind_gusts":18.4,"aqi":113,"pm10":36.2,"pm2_5":16.9,"no2":0.0,"co":240.0,"o3":168.0,"so2":3.1,"mosquito_risk":0,"arthritis_risk":5,"migraine_risk":7,"frizz_risk":1,"updated_at":"2026-06-14T17:29:15.005903+05:30"},{"city":"Ludhiana","state":"Punjab","latitude":30.901,"longitude":75.8573,"temp":35.0,"humidity":33,"rain":0.0,"pressure":971.9,"uv_index":8.05,"wind_gusts":21.6,"aqi":106,"pm10":73.1,"pm2_5":20.9,"no2":0.0,"co":219.0,"o3":141.0,"so2":1.6,"mosquito_risk":0,"arthritis_risk":5,"migraine_risk":7,"frizz_risk":1,"updated_at":"2026-06-14T17:29:15.005909+05:30"},{"city":"Jalandhar","state":"Punjab","latitude":31.326,"longitude":75.5762,"temp":34.3,"humidity":37,"rain":0.0,"pressure":973.1,"uv_index":8.2,"wind_gusts":22.3,"aqi":104,"pm10":67.5,"pm2_5":23.0,"no2":0.0,"co":187.0,"o3":151.0,"so2":1.4,"mosquito_risk":0,"arthritis_risk":5,"migraine_risk":7,"frizz_risk":1,"updated_at":"2026-06-14T17:29:15.005915+05:30"},{"city":"Dehradun","state":"Uttarakhand","latitude":30.6284,"longitude":78.0322,"temp":22.1,"humidity":60,"rain":0.0,"pressure":828.4,"uv_index":8.3,"wind_gusts":32.8,"aqi":87,"pm10":21.1,"pm2_5":10.0,"no2":3.4,"co":186.0,"o3":123.0,"so2":1.3,"mosquito_risk":0,"arthritis_risk":5,"migraine_risk":7,"frizz_risk":0,"updated_at":"2026-06-14T17:29:15.005924+05:30"},{"city":"Shimla","state":"Himachal Pradesh","latitude":31.1048,"longitude":77.1734,"temp":19.3,"humidity":50,"rain":0.0,"pressure":783.2,"uv_index":8.35,"wind_gusts":37.4,"aqi":105,"pm10":27.5,"pm2_5":16.1,"no2":0.5,"co":208.0,"o3":159.0,"so2":8.3,"mosquito_risk":0,"arthritis_risk":5,"migraine_risk":7,"frizz_risk":0,"updated_at":"2026-06-14T17:29:15.005931+05:30"},{"city":"Manali","state":"Himachal Pradesh","latitude":32.2396,"longitude":77.1887,"temp":20.4,"humidity":58,"rain":0.1,"pressure":816.7,"uv_index":10.0,"wind_gusts":42.5,"aqi":106,"pm10":6.3,"pm2_5":4.1,"no2":4.6,"co":135.0,"o3":134.0,"so2":0.3,"mosquito_risk":3,"arthritis_risk":5,"migraine_risk":7,"frizz_risk":0,"updated_at":"2026-06-14T17:29:15.005938+05:30"},{"city":"Gurgaon","state":"Haryana","latitude":28.4595,"longitude":77.0266,"temp":35.0,"humidity":39,"rain":0.0,"pressure":974.9,"uv_index":7.85,"wind_gusts":34.6,"aqi":442,"pm10":586.7,"pm2_5":105.2,"no2":2.8,"co":219.0,"o3":126.0,"so2":6.6,"mosquito_risk":0,"arthritis_risk":5,"migraine_risk":7,"frizz_risk":1,"updated_at":"2026-06-14T17:29:15.005944+05:30"},{"city":"Noida","state":"Uttar Pradesh","latitude":28.5355,"longitude":77.391,"temp":34.0,"humidity":45,"rain":0.0,"pressure":978.0,"uv_index":7.85,"wind_gusts":32.0,"aqi":442,"pm10":586.7,"pm2_5":105.2,"no2":2.8,"co":244.0,"o3":126.0,"so2":6.6,"mosquito_risk":0,"arthritis_risk":5,"migraine_risk":7,"frizz_risk":1,"updated_at":"2026-06-14T17:29:15.005951+05:30"},{"city":"Ghaziabad","state":"Uttar Pradesh","latitude":28.6692,"longitude":77.4538,"temp":34.9,"humidity":46,"rain":0.0,"pressure":976.1,"uv_index":7.8,"wind_gusts":28.4,"aqi":173,"pm10":401.4,"pm2_5":90.1,"no2":4.9,"co":266.0,"o3":151.0,"so2":13.2,"mosquito_risk":0,"arthritis_risk":5,"migraine_risk":7,"frizz_risk":1,"updated_at":"2026-06-14T17:29:15.005957+05:30"},{"city":"Faridabad","state":"Haryana","latitude":28.4089,"longitude":77.3178,"temp":33.3,"humidity":44,"rain":0.0,"pressure":977.5,"uv_index":7.85,"wind_gusts":37.8,"aqi":442,"pm10":586.7,"pm2_5":105.2,"no2":2.8,"co":248.0,"o3":126.0,"so2":6.6,"mosquito_risk":0,"arthritis_risk":5,"migraine_risk":7,"frizz_risk":1,"updated_at":"2026-06-14T17:29:15.005963+05:30"},{"city":"Meerut","state":"Uttar Pradesh","latitude":28.9845,"longitude":77.7064,"temp":33.9,"humidity":51,"rain":0.0,"pressure":974.7,"uv_index":7.7,"wind_gusts":33.8,"aqi":173,"pm10":401.4,"pm2_5":90.1,"no2":4.9,"co":288.0,"o3":151.0,"so2":13.2,"mosquito_risk":0,"arthritis_risk":5,"migraine_risk":7,"frizz_risk":1,"updated_at":"2026-06-14T17:29:15.005969+05:30"},{"city":"Agra","state":"Uttar Pradesh","latitude":27.1767,"longitude":78.0081,"temp":38.5,"humidity":30,"rain":0.0,"pressure":980.3,"uv_index":8.15,"wind_gusts":65.2,"aqi":330,"pm10":527.1,"pm2_5":81.3,"no2":0.5,"co":179.0,"o3":119.0,"so2":2.7,"mosquito_risk":0,"arthritis_risk":5,"migraine_risk":10,"frizz_risk":1,"updated_at":"2026-06-14T17:29:15.005975+05:30"},{"city":"Varanasi","state":"Uttar Pradesh","latitude":25.3176,"longitude":82.9739,"temp":37.3,"humidity":34,"rain":0.0,"pressure":989.5,"uv_index":8.8,"wind_gusts":35.6,"aqi":172,"pm10":124.3,"pm2_5":43.0,"no2":1.9,"co":229.0,"o3":150.0,"so2":7.5,"mosquito_risk":0,"arthritis_risk":5,"migraine_risk":10,"frizz_risk":1,"updated_at":"2026-06-14T17:29:15.005981+05:30"},{"city":"Prayagraj","state":"Uttar Pradesh","latitude":25.4358,"longitude":81.8463,"temp":38.0,"humidity":29,"rain":0.0,"pressure":988.1,"uv_index":8.7,"wind_gusts":35.6,"aqi":166,"pm10":149.5,"pm2_5":46.4,"no2":1.7,"co":216.0,"o3":150.0,"so2":7.9,"mosquito_risk":0,"arthritis_risk":5,"migraine_risk":10,"frizz_risk":1,"updated_at":"2026-06-14T17:29:15.005987+05:30"},{"city":"Gorakhpur","state":"Uttar Pradesh","latitude":26.7606,"longitude":83.3732,"temp":34.8,"humidity":45,"rain":0.0,"pressure":989.3,"uv_index":8.7,"wind_gusts":28.8,"aqi":154,"pm10":81.0,"pm2_5":35.9,"no2":1.8,"co":252.0,"o3":142.0,"so2":6.9,"mosquito_risk":0,"arthritis_risk":5,"migraine_risk":7,"frizz_risk":1,"updated_at":"2026-06-14T17:29:15.005994+05:30"},{"city":"Bareilly","state":"Uttar Pradesh","latitude":28.367,"longitude":79.4304,"temp":33.7,"humidity":50,"rain":0.0,"pressure":979.4,"uv_index":8.15,"wind_gusts":36.0,"aqi":158,"pm10":202.1,"pm2_5":60.1,"no2":2.5,"co":241.0,"o3":142.0,"so2":6.2,"mosquito_risk":0,"arthritis_risk":5,"migraine_risk":7,"frizz_risk":1,"updated_at":"2026-06-14T17:29:15.005999+05:30"},{"city":"Aligarh","state":"Uttar Pradesh","latitude":27.8974,"longitude":78.088,"temp":35.7,"humidity":41,"rain":0.0,"pressure":978.6,"uv_index":8.0,"wind_gusts":31.0,"aqi":302,"pm10":819.6,"pm2_5":125.7,"no2":2.6,"co":211.0,"o3":132.0,"so2":7.3,"mosquito_risk":0,"arthritis_risk":5,"migraine_risk":10,"frizz_risk":1,"updated_at":"2026-06-14T17:29:15.006005+05:30"},{"city":"Moradabad","state":"Uttar Pradesh","latitude":28.8386,"longitude":78.7733,"temp":33.5,"humidity":52,"rain":0.0,"pressure":976.7,"uv_index":7.95,"wind_gusts":40.3,"aqi":157,"pm10":217.0,"pm2_5":67.3,"no2":2.5,"co":259.0,"o3":135.0,"so2":7.1,"mosquito_risk":0,"arthritis_risk":5,"migraine_risk":7,"frizz_risk":1,"updated_at":"2026-06-14T17:29:15.006011+05:30"},{"city":"Saharanpur","state":"Uttar Pradesh","latitude":29.9637,"longitude":77.546,"temp":33.1,"humidity":50,"rain":0.0,"pressure":969.0,"uv_index":7.55,"wind_gusts":27.7,"aqi":149,"pm10":217.9,"pm2_5":53.9,"no2":4.1,"co":259.0,"o3":138.0,"so2":10.8,"mosquito_risk":0,"arthritis_risk":5,"migraine_risk":7,"frizz_risk":1,"updated_at":"2026-06-14T17:29:15.006017+05:30"},{"city":"Jhansi","state":"Uttar Pradesh","latitude":25.4484,"longitude":78.5685,"temp":33.8,"humidity":41,"rain":0.0,"pressure":972.0,"uv_index":8.5,"wind_gusts":49.3,"aqi":87,"pm10":132.7,"pm2_5":37.6,"no2":0.9,"co":136.0,"o3":109.0,"so2":4.6,"mosquito_risk":0,"arthritis_risk":5,"migraine_risk":7,"frizz_risk":1,"updated_at":"2026-06-14T17:29:18.330500+05:30"},{"city":"Surat","state":"Gujarat","latitude":21.1702,"longitude":72.8311,"temp":32.7,"humidity":65,"rain":0.0,"pressure":1002.9,"uv_index":7.55,"wind_gusts":54.7,"aqi":76,"pm10":36.2,"pm2_5":19.8,"no2":8.2,"co":197.0,"o3":54.0,"so2":23.5,"mosquito_risk":3,"arthritis_risk":5,"migraine_risk":4,"frizz_risk":1,"updated_at":"2026-06-14T17:29:18.330532+05:30"},{"city":"Vadodara","state":"Gujarat","latitude":22.3072,"longitude":73.1812,"temp":37.6,"humidity":36,"rain":0.0,"pressure":998.8,"uv_index":8.0,"wind_gusts":50.8,"aqi":75,"pm10":63.8,"pm2_5":25.1,"no2":1.2,"co":124.0,"o3":97.0,"so2":3.2,"mosquito_risk":0,"arthritis_risk":5,"migraine_risk":10,"frizz_risk":1,"updated_at":"2026-06-14T17:29:18.330543+05:30"},{"city":"Rajkot","state":"Gujarat","latitude":22.3039,"longitude":70.8022,"temp":37.3,"humidity":35,"rain":0.0,"pressure":989.6,"uv_index":7.55,"wind_gusts":52.9,"aqi":69,"pm10":51.5,"pm2_5":21.1,"no2":1.1,"co":101.0,"o3":86.0,"so2":3.7,"mosquito_risk":0,"arthritis_risk":5,"migraine_risk":10,"frizz_risk":1,"updated_at":"2026-06-14T17:29:18.330551+05:30"},{"city":"Thane","state":"Maharashtra","latitude":19.2183,"longitude":72.9781,"temp":32.4,"humidity":60,"rain":0.0,"pressure":1005.6,"uv_index":7.65,"wind_gusts":48.2,"aqi":68,"pm10":29.0,"pm2_5":15.3,"no2":4.0,"co":119.0,"o3":62.0,"so2":3.8,"mosquito_risk":0,"arthritis_risk":5,"migraine_risk":4,"frizz_risk":1,"updated_at":"2026-06-14T17:29:18.330559+05:30"},{"city":"Nagpur","state":"Maharashtra","latitude":21.1458,"longitude":79.0882,"temp":35.3,"humidity":36,"rain":0.0,"pressure":968.0,"uv_index":8.9,"wind_gusts":55.8,"aqi":107,"pm10":88.2,"pm2_5":34.5,"no2":6.7,"co":170.0,"o3":118.0,"so2":15.3,"mosquito_risk":0,"arthritis_risk":5,"migraine_risk":10,"frizz_risk":1,"updated_at":"2026-06-14T17:29:18.330567+05:30"},{"city":"Nashik","state":"Maharashtra","latitude":19.9975,"longitude":73.7898,"temp":31.2,"humidity":47,"rain":0.0,"pressure":943.3,"uv_index":8.05,"wind_gusts":55.4,"aqi":58,"pm10":44.6,"pm2_5":18.1,"no2":0.9,"co":107.0,"o3":64.0,"so2":0.9,"mosquito_risk":0,"arthritis_risk":5,"migraine_risk":7,"frizz_risk":1,"updated_at":"2026-06-14T17:29:18.330575+05:30"},{"city":"Aurangabad","state":"Maharashtra","latitude":19.8762,"longitude":75.3433,"temp":36.2,"humidity":23,"rain":0.0,"pressure":940.5,"uv_index":8.95,"wind_gusts":55.1,"aqi":60,"pm10":49.4,"pm2_5":17.8,"no2":1.0,"co":115.0,"o3":89.0,"so2":1.7,"mosquito_risk":0,"arthritis_risk":5,"migraine_risk":10,"frizz_risk":0,"updated_at":"2026-06-14T17:29:18.330583+05:30"},{"city":"Solapur","state":"Maharashtra","latitude":17.6599,"longitude":75.9064,"temp":36.1,"humidity":28,"rain":0.0,"pressure":953.4,"uv_index":8.9,"wind_gusts":55.8,"aqi":64,"pm10":65.9,"pm2_5":22.1,"no2":1.2,"co":117.0,"o3":109.0,"so2":2.8,"mosquito_risk":0,"arthritis_risk":5,"migraine_risk":10,"frizz_risk":0,"updated_at":"2026-06-14T17:29:18.330591+05:30"},{"city":"Kolhapur","state":"Maharashtra","latitude":16.705,"longitude":74.2433,"temp":27.6,"humidity":70,"rain":0.0,"pressure":946.7,"uv_index":8.75,"wind_gusts":48.2,"aqi":46,"pm10":20.4,"pm2_5":10.6,"no2":1.7,"co":114.0,"o3":70.0,"so2":1.5,"mosquito_risk":7,"arthritis_risk":5,"migraine_risk":7,"frizz_risk":1,"updated_at":"2026-06-14T17:29:18.330598+05:30"},{"city":"Goa","state":"Goa","latitude":15.2993,"longitude":74.124,"temp":27.2,"humidity":91,"rain":0.1,"pressure":997.4,"uv_index":6.65,"wind_gusts":35.6,"aqi":64,"pm10":36.2,"pm2_5":16.2,"no2":0.7,"co":98.0,"o3":57.0,"so2":1.1,"mosquito_risk":10,"arthritis_risk":5,"migraine_risk":7,"frizz_risk":1,"updated_at":"2026-06-14T17:29:18.330606+05:30"},{"city":"Jodhpur","state":"Rajasthan","latitude":26.2389,"longitude":73.0243,"temp":38.3,"humidity":31,"rain":0.0,"pressure":976.5,"uv_index":8.45,"wind_gusts":45.4,"aqi":159,"pm10":339.0,"pm2_5":67.3,"no2":0.5,"co":122.0,"o3":103.0,"so2":3.5,"mosquito_risk":0,"arthritis_risk":5,"migraine_risk":10,"frizz_risk":1,"updated_at":"2026-06-14T17:29:18.330613+05:30"},{"city":"Udaipur","state":"Rajasthan","latitude":24.5854,"longitude":73.7125,"temp":33.9,"humidity":37,"rain":0.1,"pressure":942.1,"uv_index":8.85,"wind_gusts":48.6,"aqi":77,"pm10":122.5,"pm2_5":32.4,"no2":0.5,"co":116.0,"o3":87.0,"so2":1.9,"mosquito_risk":3,"arthritis_risk":5,"migraine_risk":7,"frizz_risk":1,"updated_at":"2026-06-14T17:29:18.330620+05:30"},{"city":"Kota","state":"Rajasthan","latitude":25.2138,"longitude":75.8648,"temp":30.9,"humidity":65,"rain":0.1,"pressure":973.6,"uv_index":8.35,"wind_gusts":56.9,"aqi":111,"pm10":123.9,"pm2_5":37.5,"no2":0.6,"co":120.0,"o3":107.0,"so2":3.8,"mosquito_risk":6,"arthritis_risk":5,"migraine_risk":7,"frizz_risk":1,"updated_at":"2026-06-14T17:29:18.330628+05:30"},{"city":"Bikaner","state":"Rajasthan","latitude":28.0229,"longitude":73.3119,"temp":39.4,"humidity":25,"rain":0.0,"pressure":974.6,"uv_index":8.45,"wind_gusts":40.7,"aqi":152,"pm10":225.8,"pm2_5":64.0,"no2":0.2,"co":142.0,"o3":103.0,"so2":2.8,"mosquito_risk":0,"arthritis_risk":5,"migraine_risk":10,"frizz_risk":0,"updated_at":"2026-06-14T17:29:18.330636+05:30"},{"city":"Ajmer","state":"Rajasthan","latitude":26.4499,"longitude":74.6399,"temp":34.4,"humidity":38,"rain":0.0,"pressure":949.1,"uv_index":8.35,"wind_gusts":42.1,"aqi":110,"pm10":138.8,"pm2_5":43.8,"no2":0.6,"co":135.0,"o3":107.0,"so2":3.1,"mosquito_risk":0,"arthritis_risk":5,"migraine_risk":7,"frizz_risk":1,"updated_at":"2026-06-14T17:29:18.330644+05:30"},{"city":"Gwalior","state":"Madhya Pradesh","latitude":26.2183,"longitude":78.1828,"temp":34.7,"humidity":41,"rain":0.0,"pressure":976.5,"uv_index":8.3,"wind_gusts":55.1,"aqi":101,"pm10":158.8,"pm2_5":42.8,"no2":0.3,"co":151.0,"o3":106.0,"so2":2.4,"mosquito_risk":0,"arthritis_risk":5,"migraine_risk":7,"frizz_risk":1,"updated_at":"2026-06-14T17:29:18.330651+05:30"},{"city":"Indore","state":"Madhya Pradesh","latitude":22.7196,"longitude":75.8577,"temp":34.8,"humidity":31,"rain":0.0,"pressure":944.2,"uv_index":8.6,"wind_gusts":47.9,"aqi":77,"pm10":63.8,"pm2_5":26.9,"no2":0.8,"co":145.0,"o3":101.0,"so2":2.4,"mosquito_risk":0,"arthritis_risk":5,"migraine_risk":7,"frizz_risk":0,"updated_at":"2026-06-14T17:29:18.330659+05:30"},{"city":"Bhopal","state":"Madhya Pradesh","latitude":23.2599,"longitude":77.4126,"temp":25.6,"humidity":80,"rain":0.2,"pressure":949.7,"uv_index":8.65,"wind_gusts":60.8,"aqi":102,"pm10":71.9,"pm2_5":30.4,"no2":0.6,"co":155.0,"o3":102.0,"so2":2.4,"mosquito_risk":10,"arthritis_risk":5,"migraine_risk":7,"frizz_risk":1,"updated_at":"2026-06-14T17:29:18.330666+05:30"},{"city":"Jabalpur","state":"Madhya Pradesh","latitude":23.1815,"longitude":79.9864,"temp":35.3,"humidity":32,"rain":0.0,"pressure":955.6,"uv_index":8.75,"wind_gusts":27.4,"aqi":95,"pm10":119.7,"pm2_5":33.8,"no2":1.1,"co":146.0,"o3":110.0,"so2":2.2,"mosquito_risk":0,"arthritis_risk":5,"migraine_risk":10,"frizz_risk":1,"updated_at":"2026-06-14T17:29:18.330673+05:30"},{"city":"Ujjain","state":"Madhya Pradesh","latitude":23.1765,"longitude":75.7885,"temp":35.3,"humidity":34,"rain":0.0,"pressure":949.8,"uv_index":8.55,"wind_gusts":55.4,"aqi":76,"pm10":75.7,"pm2_5":27.5,"no2":0.6,"co":121.0,"o3":96.0,"so2":2.8,"mosquito_risk":0,"arthritis_risk":5,"migraine_risk":10,"frizz_risk":1,"updated_at":"2026-06-14T17:29:18.330681+05:30"},{"city":"Visakhapatnam","state":"Andhra Pradesh","latitude":17.6868,"longitude":83.2185,"temp":36.9,"humidity":39,"rain":0.0,"pressure":996.8,"uv_index":8.95,"wind_gusts":41.0,"aqi":130,"pm10":57.2,"pm2_5":40.7,"no2":15.5,"co":726.0,"o3":156.0,"so2":40.7,"mosquito_risk":0,"arthritis_risk":5,"migraine_risk":10,"frizz_risk":1,"updated_at":"2026-06-14T17:29:18.330688+05:30"},{"city":"Vijayawada","state":"Andhra Pradesh","latitude":16.5062,"longitude":80.648,"temp":33.2,"humidity":57,"rain":0.0,"pressure":996.7,"uv_index":5.7,"wind_gusts":37.8,"aqi":89,"pm10":52.0,"pm2_5":33.5,"no2":7.9,"co":203.0,"o3":91.0,"so2":8.2,"mosquito_risk":0,"arthritis_risk":5,"migraine_risk":3,"frizz_risk":1,"updated_at":"2026-06-14T17:29:18.330696+05:30"},{"city":"Guntur","state":"Andhra Pradesh","latitude":16.3067,"longitude":80.4365,"temp":33.0,"humidity":56,"rain":0.0,"pressure":998.1,"uv_index":3.25,"wind_gusts":40.7,"aqi":84,"pm10":47.8,"pm2_5":31.5,"no2":9.2,"co":201.0,"o3":81.0,"so2":7.7,"mosquito_risk":0,"arthritis_risk":5,"migraine_risk":3,"frizz_risk":1,"updated_at":"2026-06-14T17:29:18.330704+05:30"},{"city":"Nellore","state":"Andhra Pradesh","latitude":14.4426,"longitude":79.9865,"temp":34.0,"humidity":52,"rain":0.0,"pressure":1000.7,"uv_index":8.45,"wind_gusts":41.4,"aqi":63,"pm10":53.8,"pm2_5":27.8,"no2":3.0,"co":142.0,"o3":123.0,"so2":5.2,"mosquito_risk":0,"arthritis_risk":5,"migraine_risk":4,"frizz_risk":1,"updated_at":"2026-06-14T17:29:18.330713+05:30"},{"city":"Kurnool","state":"Andhra Pradesh","latitude":15.8281,"longitude":78.0373,"temp":35.1,"humidity":40,"rain":0.0,"pressure":972.6,"uv_index":1.45,"wind_gusts":39.6,"aqi":71,"pm10":56.9,"pm2_5":23.7,"no2":0.7,"co":114.0,"o3":123.0,"so2":7.0,"mosquito_risk":0,"arthritis_risk":5,"migraine_risk":6,"frizz_risk":1,"updated_at":"2026-06-14T17:29:18.330720+05:30"},{"city":"Kakinada","state":"Andhra Pradesh","latitude":16.9891,"longitude":82.2475,"temp":33.9,"humidity":55,"rain":0.0,"pressure":1001.1,"uv_index":8.8,"wind_gusts":44.3,"aqi":93,"pm10":65.9,"pm2_5":34.9,"no2":4.0,"co":219.0,"o3":132.0,"so2":5.3,"mosquito_risk":0,"arthritis_risk":5,"migraine_risk":4,"frizz_risk":1,"updated_at":"2026-06-14T17:29:18.330727+05:30"},{"city":"Tirupati","state":"Andhra Pradesh","latitude":13.6288,"longitude":79.4192,"temp":33.9,"humidity":44,"rain":0.0,"pressure":986.8,"uv_index":7.85,"wind_gusts":32.8,"aqi":58,"pm10":51.1,"pm2_5":23.8,"no2":2.6,"co":129.0,"o3":107.0,"so2":3.7,"mosquito_risk":0,"arthritis_risk":5,"migraine_risk":7,"frizz_risk":1,"updated_at":"2026-06-14T17:29:18.330734+05:30"},{"city":"Warangal","state":"Telangana","latitude":17.9689,"longitude":79.5941,"temp":34.5,"humidity":48,"rain":0.0,"pressure":973.1,"uv_index":8.6,"wind_gusts":42.1,"aqi":111,"pm10":53.3,"pm2_5":25.5,"no2":1.8,"co":162.0,"o3":108.0,"so2":4.3,"mosquito_risk":0,"arthritis_risk":5,"migraine_risk":7,"frizz_risk":1,"updated_at":"2026-06-14T17:29:18.330741+05:30"},{"city":"Nizamabad","state":"Telangana","latitude":18.6725,"longitude":78.0941,"temp":33.2,"humidity":47,"rain":0.0,"pressure":960.4,"uv_index":8.9,"wind_gusts":47.5,"aqi":90,"pm10":60.1,"pm2_5":22.6,"no2":0.4,"co":130.0,"o3":105.0,"so2":2.6,"mosquito_risk":0,"arthritis_risk":5,"migraine_risk":7,"frizz_risk":1,"updated_at":"2026-06-14T17:29:18.330748+05:30"},{"city":"Mysore","state":"Karnataka","latitude":12.2958,"longitude":76.6396,"temp":26.6,"humidity":68,"rain":0.0,"pressure":927.4,"uv_index":8.8,"wind_gusts":40.0,"aqi":37,"pm10":10.8,"pm2_5":6.1,"no2":3.6,"co":147.0,"o3":71.0,"so2":1.7,"mosquito_risk":7,"arthritis_risk":5,"migraine_risk":7,"frizz_risk":1,"updated_at":"2026-06-14T17:29:18.330755+05:30"},{"city":"Mangalore","state":"Karnataka","latitude":12.9141,"longitude":74.856,"temp":28.5,"humidity":77,"rain":0.0,"pressure":1006.4,"uv_index":8.2,"wind_gusts":34.6,"aqi":55,"pm10":22.6,"pm2_5":9.8,"no2":1.1,"co":100.0,"o3":64.0,"so2":1.3,"mosquito_risk":7,"arthritis_risk":5,"migraine_risk":4,"frizz_risk":1,"updated_at":"2026-06-14T17:29:18.330762+05:30"},{"city":"Hubli-Dharwad","state":"Karnataka","latitude":15.3647,"longitude":75.124,"temp":27.7,"humidity":70,"rain":0.1,"pressure":939.4,"uv_index":5.45,"wind_gusts":50.4,"aqi":48,"pm10":13.0,"pm2_5":7.1,"no2":1.6,"co":122.0,"o3":70.0,"so2":1.1,"mosquito_risk":10,"arthritis_risk":5,"migraine_risk":3,"frizz_risk":1,"updated_at":"2026-06-14T17:29:18.330769+05:30"},{"city":"Belgaum","state":"Karnataka","latitude":15.8497,"longitude":74.4977,"temp":26.7,"humidity":70,"rain":0.0,"pressure":924.9,"uv_index":6.55,"wind_gusts":53.3,"aqi":43,"pm10":18.6,"pm2_5":8.9,"no2":1.5,"co":107.0,"o3":62.0,"so2":1.1,"mosquito_risk":7,"arthritis_risk":5,"migraine_risk":7,"frizz_risk":1,"updated_at":"2026-06-14T17:29:21.655091+05:30"},{"city":"Coimbatore","state":"Tamil Nadu","latitude":11.0168,"longitude":76.9558,"temp":28.7,"humidity":67,"rain":0.0,"pressure":960.1,"uv_index":8.65,"wind_gusts":46.1,"aqi":34,"pm10":10.3,"pm2_5":5.6,"no2":1.9,"co":148.0,"o3":73.0,"so2":1.7,"mosquito_risk":7,"arthritis_risk":5,"migraine_risk":7,"frizz_risk":1,"updated_at":"2026-06-14T17:29:21.655125+05:30"},{"city":"Madurai","state":"Tamil Nadu","latitude":9.9252,"longitude":78.1198,"temp":31.0,"humidity":68,"rain":0.2,"pressure":989.9,"uv_index":8.8,"wind_gusts":46.1,"aqi":57,"pm10":18.0,"pm2_5":7.9,"no2":1.1,"co":210.0,"o3":80.0,"so2":1.1,"mosquito_risk":6,"arthritis_risk":5,"migraine_risk":7,"frizz_risk":1,"updated_at":"2026-06-14T17:29:21.655137+05:30"},{"city":"Trichy","state":"Tamil Nadu","latitude":10.7905,"longitude":78.7047,"temp":31.8,"humidity":59,"rain":0.0,"pressure":996.8,"uv_index":7.9,"wind_gusts":55.4,"aqi":52,"pm10":21.9,"pm2_5":10.5,"no2":2.1,"co":161.0,"o3":89.0,"so2":1.6,"mosquito_risk":0,"arthritis_risk":5,"migraine_risk":7,"frizz_risk":1,"updated_at":"2026-06-14T17:29:21.655148+05:30"},{"city":"Salem","state":"Tamil Nadu","latitude":11.6643,"longitude":78.146,"temp":31.5,"humidity":54,"rain":0.0,"pressure":974.8,"uv_index":8.75,"wind_gusts":38.5,"aqi":59,"pm10":35.6,"pm2_5":15.1,"no2":5.1,"co":140.0,"o3":84.0,"so2":6.6,"mosquito_risk":0,"arthritis_risk":5,"migraine_risk":7,"frizz_risk":1,"updated_at":"2026-06-14T17:29:21.655157+05:30"},{"city":"Tirunelveli","state":"Tamil Nadu","latitude":8.7139,"longitude":77.7567,"temp":33.7,"humidity":46,"rain":0.0,"pressure":1000.6,"uv_index":8.3,"wind_gusts":47.2,"aqi":45,"pm10":17.5,"pm2_5":9.2,"no2":1.5,"co":115.0,"o3":71.0,"so2":1.3,"mosquito_risk":0,"arthritis_risk":5,"migraine_risk":4,"frizz_risk":1,"updated_at":"2026-06-14T17:29:21.655166+05:30"},{"city":"Vellore","state":"Tamil Nadu","latitude":12.9165,"longitude":79.1325,"temp":33.8,"humidity":46,"rain":0.0,"pressure":980.5,"uv_index":8.55,"wind_gusts":47.9,"aqi":57,"pm10":47.1,"pm2_5":20.7,"no2":4.3,"co":143.0,"o3":90.0,"so2":2.0,"mosquito_risk":0,"arthritis_risk":5,"migraine_risk":7,"frizz_risk":1,"updated_at":"2026-06-14T17:29:21.655175+05:30"},{"city":"Erode","state":"Tamil Nadu","latitude":11.341,"longitude":77.7172,"temp":32.2,"humidity":54,"rain":0.0,"pressure":986.5,"uv_index":8.35,"wind_gusts":47.9,"aqi":49,"pm10":16.5,"pm2_5":7.9,"no2":2.5,"co":167.0,"o3":83.0,"so2":1.5,"mosquito_risk":0,"arthritis_risk":5,"migraine_risk":7,"frizz_risk":1,"updated_at":"2026-06-14T17:29:21.655184+05:30"},{"city":"Kochi","state":"Kerala","latitude":9.9312,"longitude":76.2673,"temp":28.2,"humidity":80,"rain":0.0,"pressure":1008.5,"uv_index":8.35,"wind_gusts":33.5,"aqi":64,"pm10":16.1,"pm2_5":8.8,"no2":1.3,"co":108.0,"o3":74.0,"so2":2.2,"mosquito_risk":7,"arthritis_risk":0,"migraine_risk":4,"frizz_risk":1,"updated_at":"2026-06-14T17:29:21.655194+05:30"},{"city":"Thiruvananthapuram","state":"Kerala","latitude":8.5241,"longitude":76.9366,"temp":28.1,"humidity":80,"rain":0.0,"pressure":1007.6,"uv_index":7.95,"wind_gusts":45.0,"aqi":43,"pm10":18.9,"pm2_5":9.7,"no2":1.5,"co":106.0,"o3":71.0,"so2":1.0,"mosquito_risk":7,"arthritis_risk":5,"migraine_risk":4,"frizz_risk":1,"updated_at":"2026-06-14T17:29:21.655202+05:30"},{"city":"Kozhikode","state":"Kerala","latitude":11.2588,"longitude":75.7804,"temp":28.6,"humidity":76,"rain":0.0,"pressure":1007.5,"uv_index":8.3,"wind_gusts":34.6,"aqi":32,"pm10":12.2,"pm2_5":5.5,"no2":0.5,"co":86.0,"o3":67.0,"so2":0.8,"mosquito_risk":7,"arthritis_risk":5,"migraine_risk":4,"frizz_risk":1,"updated_at":"2026-06-14T17:29:21.655211+05:30"},{"city":"Thrissur","state":"Kerala","latitude":10.5276,"longitude":76.2144,"temp":28.3,"humidity":79,"rain":0.0,"pressure":1006.7,"uv_index":8.5,"wind_gusts":38.5,"aqi":64,"pm10":13.3,"pm2_5":7.5,"no2":2.1,"co":107.0,"o3":62.0,"so2":1.4,"mosquito_risk":7,"arthritis_risk":5,"migraine_risk":4,"frizz_risk":1,"updated_at":"2026-06-14T17:29:21.655220+05:30"},{"city":"Kannur","state":"Kerala","latitude":11.8745,"longitude":75.3704,"temp":28.5,"humidity":78,"rain":0.1,"pressure":1006.7,"uv_index":7.95,"wind_gusts":33.5,"aqi":50,"pm10":20.0,"pm2_5":8.6,"no2":0.8,"co":101.0,"o3":63.0,"so2":1.0,"mosquito_risk":10,"arthritis_risk":5,"migraine_risk":4,"frizz_risk":1,"updated_at":"2026-06-14T17:29:21.655229+05:30"},{"city":"Patna","state":"Bihar","latitude":25.5941,"longitude":85.1376,"temp":34.0,"humidity":55,"rain":0.0,"pressure":992.2,"uv_index":8.9,"wind_gusts":31.7,"aqi":173,"pm10":95.9,"pm2_5":55.1,"no2":3.1,"co":329.0,"o3":159.0,"so2":7.9,"mosquito_risk":0,"arthritis_risk":5,"migraine_risk":7,"frizz_risk":1,"updated_at":"2026-06-14T17:29:21.655237+05:30"},{"city":"Gaya","state":"Bihar","latitude":24.7914,"longitude":85.0002,"temp":35.1,"humidity":45,"rain":0.0,"pressure":986.0,"uv_index":8.9,"wind_gusts":34.2,"aqi":168,"pm10":97.1,"pm2_5":61.0,"no2":2.4,"co":294.0,"o3":162.0,"so2":8.4,"mosquito_risk":0,"arthritis_risk":5,"migraine_risk":10,"frizz_risk":1,"updated_at":"2026-06-14T17:29:21.655246+05:30"},{"city":"Muzaffarpur","state":"Bihar","latitude":26.1209,"longitude":85.3647,"temp":32.9,"humidity":65,"rain":0.0,"pressure":992.3,"uv_index":8.85,"wind_gusts":25.2,"aqi":173,"pm10":91.3,"pm2_5":54.9,"no2":3.7,"co":380.0,"o3":150.0,"so2":7.0,"mosquito_risk":3,"arthritis_risk":5,"migraine_risk":7,"frizz_risk":1,"updated_at":"2026-06-14T17:29:21.655255+05:30"},{"city":"Bhagalpur","state":"Bihar","latitude":25.2425,"longitude":87.0117,"temp":34.8,"humidity":51,"rain":0.0,"pressure":992.7,"uv_index":8.8,"wind_gusts":22.0,"aqi":184,"pm10":95.5,"pm2_5":62.4,"no2":5.0,"co":313.0,"o3":179.0,"so2":15.1,"mosquito_risk":0,"arthritis_risk":5,"migraine_risk":7,"frizz_risk":1,"updated_at":"2026-06-14T17:29:21.655263+05:30"},{"city":"Ranchi","state":"Jharkhand","latitude":23.3441,"longitude":85.3096,"temp":30.8,"humidity":54,"rain":0.0,"pressure":932.3,"uv_index":7.75,"wind_gusts":32.4,"aqi":141,"pm10":75.4,"pm2_5":46.8,"no2":5.1,"co":240.0,"o3":146.0,"so2":8.7,"mosquito_risk":0,"arthritis_risk":5,"migraine_risk":7,"frizz_risk":1,"updated_at":"2026-06-14T17:29:21.655272+05:30"},{"city":"Jamshedpur","state":"Jharkhand","latitude":22.8046,"longitude":86.2029,"temp":29.7,"humidity":77,"rain":0.3,"pressure":984.3,"uv_index":8.9,"wind_gusts":27.4,"aqi":186,"pm10":82.0,"pm2_5":61.7,"no2":7.1,"co":287.0,"o3":189.0,"so2":25.6,"mosquito_risk":10,"arthritis_risk":5,"migraine_risk":7,"frizz_risk":1,"updated_at":"2026-06-14T17:29:21.655281+05:30"},{"city":"Dhanbad","state":"Jharkhand","latitude":23.7957,"longitude":86.4304,"temp":34.2,"humidity":50,"rain":0.0,"pressure":972.6,"uv_index":8.9,"wind_gusts":22.7,"aqi":168,"pm10":109.2,"pm2_5":78.5,"no2":18.9,"co":193.0,"o3":176.0,"so2":59.2,"mosquito_risk":0,"arthritis_risk":5,"migraine_risk":7,"frizz_risk":1,"updated_at":"2026-06-14T17:29:21.655289+05:30"},{"city":"Bokaro","state":"Jharkhand","latitude":23.6693,"longitude":86.1511,"temp":33.1,"humidity":57,"rain":0.0,"pressure":976.5,"uv_index":8.9,"wind_gusts":34.9,"aqi":163,"pm10":107.3,"pm2_5":75.2,"no2":17.1,"co":197.0,"o3":187.0,"so2":63.7,"mosquito_risk":0,"arthritis_risk":5,"migraine_risk":7,"frizz_risk":1,"updated_at":"2026-06-14T17:29:21.655298+05:30"},{"city":"Bhubaneswar","state":"Odisha","latitude":20.2961,"longitude":85.8245,"temp":30.1,"humidity":80,"rain":0.0,"pressure":996.6,"uv_index":8.95,"wind_gusts":32.0,"aqi":111,"pm10":47.1,"pm2_5":32.9,"no2":6.7,"co":266.0,"o3":126.0,"so2":8.9,"mosquito_risk":3,"arthritis_risk":5,"migraine_risk":7,"frizz_risk":1,"updated_at":"2026-06-14T17:29:21.655306+05:30"},{"city":"Cuttack","state":"Odisha","latitude":20.4625,"longitude":85.8828,"temp":28.7,"humidity":91,"rain":0.3,"pressure":998.4,"uv_index":8.8,"wind_gusts":25.9,"aqi":111,"pm10":47.1,"pm2_5":32.9,"no2":6.7,"co":231.0,"o3":126.0,"so2":8.9,"mosquito_risk":10,"arthritis_risk":5,"migraine_risk":7,"frizz_risk":1,"updated_at":"2026-06-14T17:29:21.655315+05:30"},{"city":"Rourkela","state":"Odisha","latitude":22.2604,"longitude":84.8536,"temp":28.6,"humidity":80,"rain":0.3,"pressure":978.9,"uv_index":8.75,"wind_gusts":28.8,"aqi":149,"pm10":65.4,"pm2_5":37.5,"no2":4.3,"co":245.0,"o3":138.0,"so2":7.2,"mosquito_risk":10,"arthritis_risk":5,"migraine_risk":7,"frizz_risk":1,"updated_at":"2026-06-14T17:29:21.655322+05:30"},{"city":"Raipur","state":"Chhattisgarh","latitude":21.2514,"longitude":81.6296,"temp":37.5,"humidity":29,"rain":0.0,"pressure":968.1,"uv_index":8.95,"wind_gusts":43.2,"aqi":135,"pm10":90.1,"pm2_5":42.4,"no2":11.3,"co":145.0,"o3":117.0,"so2":24.8,"mosquito_risk":0,"arthritis_risk":5,"migraine_risk":10,"frizz_risk":1,"updated_at":"2026-06-14T17:29:21.655329+05:30"},{"city":"Bhilai","state":"Chhattisgarh","latitude":21.1938,"longitude":81.3509,"temp":36.7,"humidity":31,"rain":0.0,"pressure":968.6,"uv_index":8.95,"wind_gusts":55.4,"aqi":127,"pm10":87.5,"pm2_5":39.6,"no2":11.7,"co":219.0,"o3":111.0,"so2":25.9,"mosquito_risk":0,"arthritis_risk":5,"migraine_risk":10,"frizz_risk":1,"updated_at":"2026-06-14T17:29:21.655336+05:30"},{"city":"Guwahati","state":"Assam","latitude":26.1158,"longitude":91.7086,"temp":27.9,"humidity":88,"rain":0.1,"pressure":993.9,"uv_index":8.7,"wind_gusts":36.0,"aqi":69,"pm10":17.2,"pm2_5":14.6,"no2":3.3,"co":327.0,"o3":102.0,"so2":2.3,"mosquito_risk":10,"arthritis_risk":5,"migraine_risk":7,"frizz_risk":1,"updated_at":"2026-06-14T17:29:21.655343+05:30"},{"city":"Agartala","state":"Tripura","latitude":23.8315,"longitude":91.2868,"temp":28.0,"humidity":89,"rain":0.1,"pressure":999.9,"uv_index":8.15,"wind_gusts":34.6,"aqi":68,"pm10":20.7,"pm2_5":17.7,"no2":5.3,"co":206.0,"o3":105.0,"so2":2.5,"mosquito_risk":10,"arthritis_risk":5,"migraine_risk":7,"frizz_risk":1,"updated_at":"2026-06-14T17:29:21.655350+05:30"},{"city":"Shillong","state":"Meghalaya","latitude":25.5788,"longitude":91.8933,"temp":22.4,"humidity":78,"rain":0.0,"pressure":853.0,"uv_index":9.0,"wind_gusts":26.3,"aqi":48,"pm10":10.0,"pm2_5":9.1,"no2":4.3,"co":245.0,"o3":103.0,"so2":2.1,"mosquito_risk":3,"arthritis_risk":5,"migraine_risk":7,"frizz_risk":1,"updated_at":"2026-06-14T17:29:21.655357+05:30"},{"city":"Imphal","state":"Manipur","latitude":24.817,"longitude":93.9368,"temp":26.3,"humidity":72,"rain":0.0,"pressure":918.0,"uv_index":8.85,"wind_gusts":33.1,"aqi":65,"pm10":15.5,"pm2_5":12.3,"no2":2.9,"co":204.0,"o3":83.0,"so2":1.7,"mosquito_risk":7,"arthritis_risk":5,"migraine_risk":7,"frizz_risk":1,"updated_at":"2026-06-14T17:29:21.655364+05:30"},{"city":"Aizawl","state":"Mizoram","latitude":23.7271,"longitude":92.7176,"temp":22.1,"humidity":82,"rain":0.0,"pressure":888.3,"uv_index":9.0,"wind_gusts":39.6,"aqi":53,"pm10":18.8,"pm2_5":13.2,"no2":1.5,"co":164.0,"o3":87.0,"so2":1.3,"mosquito_risk":3,"arthritis_risk":5,"migraine_risk":7,"frizz_risk":1,"updated_at":"2026-06-14T17:29:21.655371+05:30"},{"city":"Kohima","state":"Nagaland","latitude":25.6701,"longitude":94.1077,"temp":20.5,"humidity":98,"rain":0.1,"pressure":851.1,"uv_index":8.8,"wind_gusts":23.8,"aqi":43,"pm10":5.9,"pm2_5":5.2,"no2":2.5,"co":191.0,"o3":79.0,"so2":1.0,"mosquito_risk":6,"arthritis_risk":5,"migraine_risk":7,"frizz_risk":1,"updated_at":"2026-06-14T17:29:21.655378+05:30"},{"city":"Gangtok","state":"Sikkim","latitude":27.3314,"longitude":88.6138,"temp":20.0,"humidity":93,"rain":0.1,"pressure":833.1,"uv_index":8.8,"wind_gusts":35.3,"aqi":83,"pm10":8.2,"pm2_5":6.5,"no2":2.4,"co":293.0,"o3":125.0,"so2":1.4,"mosquito_risk":6,"arthritis_risk":5,"migraine_risk":7,"frizz_risk":1,"updated_at":"2026-06-14T17:29:21.655385+05:30"},{"city":"Siliguri","state":"West Bengal","latitude":26.7271,"longitude":88.3953,"temp":27.9,"humidity":87,"rain":0.0,"pressure":985.1,"uv_index":8.7,"wind_gusts":19.8,"aqi":111,"pm10":34.7,"pm2_5":27.4,"no2":3.8,"co":471.0,"o3":136.0,"so2":4.4,"mosquito_risk":7,"arthritis_risk":5,"migraine_risk":7,"frizz_risk":1,"updated_at":"2026-06-14T17:29:24.987109+05:30"},{"city":"Durgapur","state":"West Bengal","latitude":23.5204,"longitude":87.3119,"temp":32.8,"humidity":66,"rain":0.0,"pressure":987.4,"uv_index":9.05,"wind_gusts":30.6,"aqi":202,"pm10":116.6,"pm2_5":100.8,"no2":19.6,"co":434.0,"o3":242.0,"so2":62.5,"mosquito_risk":3,"arthritis_risk":5,"migraine_risk":7,"frizz_risk":1,"updated_at":"2026-06-14T17:29:24.987143+05:30"},{"city":"Asansol","state":"West Bengal","latitude":23.6739,"longitude":86.9524,"temp":34.0,"humidity":59,"rain":0.0,"pressure":986.0,"uv_index":8.9,"wind_gusts":30.2,"aqi":165,"pm10":109.4,"pm2_5":85.9,"no2":18.6,"co":355.0,"o3":188.0,"so2":43.5,"mosquito_risk":0,"arthritis_risk":5,"migraine_risk":7,"frizz_risk":1,"updated_at":"2026-06-14T17:29:24.987152+05:30"},{"city":"Pondicherry","state":"Puducherry","latitude":11.9139,"longitude":79.8145,"temp":31.6,"humidity":66,"rain":0.1,"pressure":1004.5,"uv_index":8.05,"wind_gusts":45.7,"aqi":62,"pm10":39.5,"pm2_5":24.8,"no2":7.9,"co":207.0,"o3":128.0,"so2":3.8,"mosquito_risk":6,"arthritis_risk":5,"migraine_risk":4,"frizz_risk":1,"updated_at":"2026-06-14T17:29:24.987161+05:30"},{"city":"Port Blair","state":"Andaman and Nicobar Islands","latitude":11.6234,"longitude":92.7265,"temp":28.4,"humidity":81,"rain":0.0,"pressure":1005.6,"uv_index":7.45,"wind_gusts":44.6,"aqi":32,"pm10":18.3,"pm2_5":10.4,"no2":0.3,"co":92.0,"o3":44.0,"so2":0.5,"mosquito_risk":7,"arthritis_risk":5,"migraine_risk":4,"frizz_risk":1,"updated_at":"2026-06-14T17:29:24.987169+05:30"},{"city":"Haridwar","state":"Uttarakhand","latitude":29.9457,"longitude":78.1642,"temp":33.0,"humidity":50,"rain":0.0,"pressure":967.4,"uv_index":7.65,"wind_gusts":28.8,"aqi":125,"pm10":95.9,"pm2_5":34.5,"no2":2.0,"co":246.0,"o3":147.0,"so2":9.0,"mosquito_risk":0,"arthritis_risk":5,"migraine_risk":7,"frizz_risk":1,"updated_at":"2026-06-14T17:29:24.987177+05:30"},{"city":"Rishikesh","state":"Uttarakhand","latitude":30.0869,"longitude":78.2676,"temp":32.1,"humidity":48,"rain":0.0,"pressure":960.3,"uv_index":7.75,"wind_gusts":24.1,"aqi":114,"pm10":49.0,"pm2_5":20.8,"no2":0.6,"co":215.0,"o3":149.0,"so2":5.8,"mosquito_risk":0,"arthritis_risk":5,"migraine_risk":7,"frizz_risk":1,"updated_at":"2026-06-14T17:29:24.987184+05:30"},{"city":"Nainital","state":"Uttarakhand","latitude":29.3919,"longitude":79.4542,"temp":21.2,"humidity":56,"rain":0.0,"pressure":803.6,"uv_index":8.6,"wind_gusts":36.4,"aqi":132,"pm10":115.0,"pm2_5":35.7,"no2":1.2,"co":198.0,"o3":144.0,"so2":4.2,"mosquito_risk":0,"arthritis_risk":5,"migraine_risk":7,"frizz_risk":0,"updated_at":"2026-06-14T17:29:24.987192+05:30"},{"city":"Mussoorie","state":"Uttarakhand","latitude":30.4599,"longitude":78.0664,"temp":20.0,"humidity":59,"rain":0.0,"pressure":801.2,"uv_index":8.15,"wind_gusts":40.7,"aqi":111,"pm10":42.6,"pm2_5":19.7,"no2":1.5,"co":183.0,"o3":145.0,"so2":5.2,"mosquito_risk":0,"arthritis_risk":5,"migraine_risk":7,"frizz_risk":0,"updated_at":"2026-06-14T17:29:24.987199+05:30"},{"city":"Dharamshala","state":"Himachal Pradesh","latitude":32.219,"longitude":76.3234,"temp":24.2,"humidity":50,"rain":0.0,"pressure":865.8,"uv_index":8.5,"wind_gusts":42.5,"aqi":82,"pm10":16.5,"pm2_5":6.7,"no2":0.1,"co":193.0,"o3":128.0,"so2":0.5,"mosquito_risk":0,"arthritis_risk":5,"migraine_risk":7,"frizz_risk":0,"updated_at":"2026-06-14T17:29:24.987207+05:30"},{"city":"Dalhousie","state":"Himachal Pradesh","latitude":32.5387,"longitude":75.971,"temp":20.9,"humidity":46,"rain":0.0,"pressure":803.2,"uv_index":8.75,"wind_gusts":34.9,"aqi":99,"pm10":38.8,"pm2_5":14.6,"no2":0.7,"co":209.0,"o3":139.0,"so2":0.8,"mosquito_risk":0,"arthritis_risk":5,"migraine_risk":7,"frizz_risk":0,"updated_at":"2026-06-14T17:29:24.987215+05:30"},{"city":"Patiala","state":"Punjab","latitude":30.3398,"longitude":76.3869,"temp":35.0,"humidity":36,"rain":0.0,"pressure":971.2,"uv_index":7.7,"wind_gusts":24.1,"aqi":145,"pm10":562.5,"pm2_5":68.2,"no2":0.5,"co":212.0,"o3":138.0,"so2":3.3,"mosquito_risk":0,"arthritis_risk":5,"migraine_risk":7,"frizz_risk":1,"updated_at":"2026-06-14T17:29:24.987222+05:30"},{"city":"Bhatinda","state":"Punjab","latitude":30.211,"longitude":74.9455,"temp":35.3,"humidity":37,"rain":0.0,"pressure":977.3,"uv_index":8.3,"wind_gusts":28.1,"aqi":112,"pm10":50.4,"pm2_5":24.2,"no2":1.7,"co":215.0,"o3":163.0,"so2":11.2,"mosquito_risk":0,"arthritis_risk":5,"migraine_risk":10,"frizz_risk":1,"updated_at":"2026-06-14T17:29:24.987229+05:30"},{"city":"Rohtak","state":"Haryana","latitude":28.8955,"longitude":76.6066,"temp":34.8,"humidity":40,"rain":0.0,"pressure":974.9,"uv_index":7.8,"wind_gusts":34.6,"aqi":464,"pm10":358.6,"pm2_5":77.5,"no2":0.0,"co":180.0,"o3":125.0,"so2":3.1,"mosquito_risk":0,"arthritis_risk":5,"migraine_risk":7,"frizz_risk":1,"updated_at":"2026-06-14T17:29:24.987236+05:30"},{"city":"Panipat","state":"Haryana","latitude":29.3909,"longitude":76.9635,"temp":34.5,"humidity":43,"rain":0.0,"pressure":973.5,"uv_index":7.65,"wind_gusts":30.6,"aqi":582,"pm10":521.5,"pm2_5":94.3,"no2":2.2,"co":222.0,"o3":133.0,"so2":9.5,"mosquito_risk":0,"arthritis_risk":5,"migraine_risk":7,"frizz_risk":1,"updated_at":"2026-06-14T17:29:24.987244+05:30"},{"city":"Mathura","state":"Uttar Pradesh","latitude":27.4924,"longitude":77.6737,"temp":36.5,"humidity":38,"rain":0.0,"pressure":979.6,"uv_index":8.1,"wind_gusts":38.2,"aqi":266,"pm10":549.5,"pm2_5":85.0,"no2":1.1,"co":200.0,"o3":113.0,"so2":2.4,"mosquito_risk":0,"arthritis_risk":5,"migraine_risk":10,"frizz_risk":1,"updated_at":"2026-06-14T17:29:24.987250+05:30"},{"city":"Vrindavan","state":"Uttar Pradesh","latitude":27.5823,"longitude":77.7027,"temp":36.7,"humidity":36,"rain":0.0,"pressure":980.0,"uv_index":8.05,"wind_gusts":36.4,"aqi":266,"pm10":549.5,"pm2_5":85.0,"no2":1.1,"co":175.0,"o3":113.0,"so2":2.4,"mosquito_risk":0,"arthritis_risk":5,"migraine_risk":10,"frizz_risk":1,"updated_at":"2026-06-14T17:29:24.987258+05:30"},{"city":"Ayodhya","state":"Uttar Pradesh","latitude":26.7922,"longitude":82.1998,"temp":34.4,"humidity":48,"rain":0.0,"pressure":987.5,"uv_index":8.4,"wind_gusts":31.7,"aqi":152,"pm10":89.4,"pm2_5":36.2,"no2":2.6,"co":239.0,"o3":152.0,"so2":9.2,"mosquito_risk":0,"arthritis_risk":5,"migraine_risk":7,"frizz_risk":1,"updated_at":"2026-06-14T17:29:24.987265+05:30"},{"city":"Ratlam","state":"Madhya Pradesh","latitude":23.3315,"longitude":75.0367,"temp":35.5,"humidity":33,"rain":0.0,"pressure":950.3,"uv_index":8.5,"wind_gusts":46.8,"aqi":75,"pm10":100.4,"pm2_5":31.5,"no2":0.5,"co":114.0,"o3":96.0,"so2":3.2,"mosquito_risk":0,"arthritis_risk":5,"migraine_risk":10,"frizz_risk":1,"updated_at":"2026-06-14T17:29:24.987272+05:30"},{"city":"Sagar","state":"Madhya Pradesh","latitude":23.8388,"longitude":78.7378,"temp":30.0,"humidity":48,"rain":0.1,"pressure":945.9,"uv_index":8.75,"wind_gusts":63.7,"aqi":81,"pm10":81.0,"pm2_5":30.2,"no2":0.4,"co":128.0,"o3":115.0,"so2":3.2,"mosquito_risk":7,"arthritis_risk":5,"migraine_risk":7,"frizz_risk":1,"updated_at":"2026-06-14T17:29:24.987279+05:30"},{"city":"Satna","state":"Madhya Pradesh","latitude":24.6005,"longitude":80.8322,"temp":36.0,"humidity":33,"rain":0.0,"pressure":964.7,"uv_index":8.8,"wind_gusts":37.1,"aqi":107,"pm10":125.3,"pm2_5":40.6,"no2":0.2,"co":178.0,"o3":125.0,"so2":3.3,"mosquito_risk":0,"arthritis_risk":5,"migraine_risk":10,"frizz_risk":1,"updated_at":"2026-06-14T17:29:24.987286+05:30"},{"city":"Akola","state":"Maharashtra","latitude":20.7002,"longitude":77.0082,"temp":37.0,"humidity":32,"rain":0.0,"pressure":970.0,"uv_index":8.8,"wind_gusts":52.6,"aqi":71,"pm10":73.3,"pm2_5":27.9,"no2":1.0,"co":121.0,"o3":108.0,"so2":4.9,"mosquito_risk":0,"arthritis_risk":5,"migraine_risk":10,"frizz_risk":1,"updated_at":"2026-06-14T17:29:24.987294+05:30"},{"city":"Amravati","state":"Maharashtra","latitude":20.9374,"longitude":77.7796,"temp":35.9,"humidity":33,"rain":0.0,"pressure":962.5,"uv_index":8.85,"wind_gusts":53.3,"aqi":73,"pm10":75.0,"pm2_5":28.6,"no2":1.5,"co":114.0,"o3":107.0,"so2":5.2,"mosquito_risk":0,"arthritis_risk":5,"migraine_risk":10,"frizz_risk":1,"updated_at":"2026-06-14T17:29:24.987303+05:30"},{"city":"Latur","state":"Maharashtra","latitude":18.4088,"longitude":76.5604,"temp":35.1,"humidity":25,"rain":0.0,"pressure":936.1,"uv_index":8.9,"wind_gusts":42.5,"aqi":79,"pm10":107.1,"pm2_5":27.8,"no2":0.8,"co":117.0,"o3":106.0,"so2":2.1,"mosquito_risk":0,"arthritis_risk":5,"migraine_risk":10,"frizz_risk":0,"updated_at":"2026-06-14T17:29:24.987310+05:30"},{"city":"Nanded","state":"Maharashtra","latitude":19.1383,"longitude":77.3091,"temp":37.3,"humidity":27,"rain":0.0,"pressure":963.6,"uv_index":8.85,"wind_gusts":49.7,"aqi":77,"pm10":88.7,"pm2_5":26.6,"no2":0.3,"co":113.0,"o3":101.0,"so2":1.7,"mosquito_risk":0,"arthritis_risk":5,"migraine_risk":10,"frizz_risk":0,"updated_at":"2026-06-14T17:29:24.987317+05:30"},{"city":"Gulbarga","state":"Karnataka","latitude":17.3297,"longitude":76.8343,"temp":35.4,"humidity":29,"rain":0.0,"pressure":954.5,"uv_index":8.9,"wind_gusts":43.9,"aqi":69,"pm10":102.0,"pm2_5":27.1,"no2":1.3,"co":123.0,"o3":109.0,"so2":2.8,"mosquito_risk":0,"arthritis_risk":5,"migraine_risk":10,"frizz_risk":0,"updated_at":"2026-06-14T17:29:24.987325+05:30"},{"city":"Bidar","state":"Karnataka","latitude":17.9104,"longitude":77.5199,"temp":33.6,"humidity":33,"rain":0.0,"pressure":931.9,"uv_index":8.85,"wind_gusts":40.3,"aqi":88,"pm10":90.3,"pm2_5":28.5,"no2":1.6,"co":126.0,"o3":113.0,"so2":4.5,"mosquito_risk":0,"arthritis_risk":5,"migraine_risk":7,"frizz_risk":0,"updated_at":"2026-06-14T17:29:24.987332+05:30"},{"city":"Hospet","state":"Karnataka","latitude":15.2689,"longitude":76.3909,"temp":33.5,"humidity":39,"rain":0.0,"pressure":952.9,"uv_index":8.65,"wind_gusts":48.2,"aqi":52,"pm10":63.6,"pm2_5":19.6,"no2":2.4,"co":137.0,"o3":104.0,"so2":2.2,"mosquito_risk":0,"arthritis_risk":5,"migraine_risk":7,"frizz_risk":1,"updated_at":"2026-06-14T17:29:24.987339+05:30"},{"city":"Tirupur","state":"Tamil Nadu","latitude":11.1085,"longitude":77.3411,"temp":31.0,"humidity":57,"rain":0.0,"pressure":973.0,"uv_index":8.45,"wind_gusts":47.5,"aqi":51,"pm10":14.8,"pm2_5":7.5,"no2":2.4,"co":147.0,"o3":80.0,"so2":1.9,"mosquito_risk":0,"arthritis_risk":5,"migraine_risk":7,"frizz_risk":1,"updated_at":"2026-06-14T17:29:24.987346+05:30"},{"city":"Alappuzha","state":"Kerala","latitude":9.4981,"longitude":76.3388,"temp":28.5,"humidity":79,"rain":0.0,"pressure":1008.5,"uv_index":8.15,"wind_gusts":37.8,"aqi":52,"pm10":17.6,"pm2_5":9.5,"no2":2.1,"co":95.0,"o3":76.0,"so2":2.2,"mosquito_risk":7,"arthritis_risk":0,"migraine_risk":4,"frizz_risk":1,"updated_at":"2026-06-14T17:29:24.987353+05:30"},{"city":"Munnar","state":"Kerala","latitude":10.0889,"longitude":77.0595,"temp":18.3,"humidity":92,"rain":0.1,"pressure":856.6,"uv_index":8.55,"wind_gusts":37.8,"aqi":35,"pm10":13.8,"pm2_5":6.5,"no2":2.1,"co":102.0,"o3":59.0,"so2":0.9,"mosquito_risk":6,"arthritis_risk":10,"migraine_risk":7,"frizz_risk":1,"updated_at":"2026-06-14T17:29:24.987361+05:30"},{"city":"Silchar","state":"Assam","latitude":24.8333,"longitude":92.7789,"temp":27.7,"humidity":88,"rain":0.0,"pressure":999.0,"uv_index":8.8,"wind_gusts":29.5,"aqi":68,"pm10":19.4,"pm2_5":16.3,"no2":3.8,"co":233.0,"o3":93.0,"so2":3.1,"mosquito_risk":7,"arthritis_risk":5,"migraine_risk":7,"frizz_risk":1,"updated_at":"2026-06-14T17:29:24.987368+05:30"},{"city":"Dibrugarh","state":"Assam","latitude":27.4728,"longitude":94.912,"temp":27.3,"humidity":95,"rain":0.1,"pressure":988.1,"uv_index":8.3,"wind_gusts":29.5,"aqi":74,"pm10":17.7,"pm2_5":15.5,"no2":3.1,"co":262.0,"o3":110.0,"so2":1.3,"mosquito_risk":10,"arthritis_risk":5,"migraine_risk":7,"frizz_risk":1,"updated_at":"2026-06-14T17:29:24.987375+05:30"}]