[{"city":"Delhi","state":"Delhi","latitude":28.6139,"longitude":77.209,"temp":38.1,"humidity":13,"rain":0.0,"pressure":978.6,"uv_index":7.3,"wind_gusts":28.8,"aqi":172,"pm10":556.9,"pm2_5":56.3,"mosquito_risk":0,"arthritis_risk":5,"migraine_risk":10,"frizz_risk":0,"updated_at":"2026-04-15T16:32:41.550013+05:30"},{"city":"Mumbai","state":"Maharashtra","latitude":19.076,"longitude":72.8777,"temp":29.7,"humidity":75,"rain":0.0,"pressure":1004.9,"uv_index":8.0,"wind_gusts":19.1,"aqi":122,"pm10":46.0,"pm2_5":24.9,"mosquito_risk":7,"arthritis_risk":5,"migraine_risk":4,"frizz_risk":1,"updated_at":"2026-04-15T16:32:41.550052+05:30"},{"city":"Bangalore","state":"Karnataka","latitude":12.9716,"longitude":77.5946,"temp":35.8,"humidity":21,"rain":0.0,"pressure":909.4,"uv_index":9.65,"wind_gusts":28.1,"aqi":142,"pm10":32.7,"pm2_5":25.4,"mosquito_risk":0,"arthritis_risk":5,"migraine_risk":10,"frizz_risk":0,"updated_at":"2026-04-15T16:32:41.550068+05:30"},{"city":"Hyderabad","state":"Telangana","latitude":17.385,"longitude":78.4867,"temp":39.8,"humidity":18,"rain":0.0,"pressure":949.2,"uv_index":9.25,"wind_gusts":31.3,"aqi":142,"pm10":32.9,"pm2_5":26.0,"mosquito_risk":0,"arthritis_risk":5,"migraine_risk":10,"frizz_risk":0,"updated_at":"2026-04-15T16:32:41.550078+05:30"},{"city":"Chennai","state":"Tamil Nadu","latitude":13.0827,"longitude":80.2707,"temp":34.5,"humidity":52,"rain":0.0,"pressure":1003.1,"uv_index":9.35,"wind_gusts":32.8,"aqi":36,"pm10":12.3,"pm2_5":9.3,"mosquito_risk":0,"arthritis_risk":5,"migraine_risk":4,"frizz_risk":1,"updated_at":"2026-04-15T16:32:41.550086+05:30"},{"city":"Kolkata","state":"West Bengal","latitude":22.5726,"longitude":88.3639,"temp":33.9,"humidity":62,"rain":0.0,"pressure":1001.1,"uv_index":8.85,"wind_gusts":27.7,"aqi":90,"pm10":43.5,"pm2_5":33.9,"mosquito_risk":3,"arthritis_risk":5,"migraine_risk":4,"frizz_risk":1,"updated_at":"2026-04-15T16:32:41.550094+05:30"},{"city":"Pune","state":"Maharashtra","latitude":18.5204,"longitude":73.8567,"temp":37.5,"humidity":19,"rain":0.0,"pressure":945.9,"uv_index":8.6,"wind_gusts":44.6,"aqi":99,"pm10":20.5,"pm2_5":13.4,"mosquito_risk":0,"arthritis_risk":5,"migraine_risk":10,"frizz_risk":0,"updated_at":"2026-04-15T16:32:41.550105+05:30"},{"city":"Ahmedabad","state":"Gujarat","latitude":23.0225,"longitude":72.5714,"temp":40.6,"humidity":21,"rain":0.0,"pressure":996.4,"uv_index":8.15,"wind_gusts":21.2,"aqi":83,"pm10":119.2,"pm2_5":28.1,"mosquito_risk":0,"arthritis_risk":5,"migraine_risk":10,"frizz_risk":0,"updated_at":"2026-04-15T16:32:41.550113+05:30"},{"city":"Jaipur","state":"Rajasthan","latitude":26.9124,"longitude":75.7873,"temp":39.0,"humidity":11,"rain":0.0,"pressure":955.8,"uv_index":7.95,"wind_gusts":32.4,"aqi":172,"pm10":224.9,"pm2_5":32.4,"mosquito_risk":0,"arthritis_risk":5,"migraine_risk":10,"frizz_risk":0,"updated_at":"2026-04-15T16:32:41.550120+05:30"},{"city":"Lucknow","state":"Uttar Pradesh","latitude":26.8467,"longitude":80.9462,"temp":38.5,"humidity":15,"rain":0.0,"pressure":988.2,"uv_index":7.8,"wind_gusts":25.9,"aqi":142,"pm10":131.3,"pm2_5":22.6,"mosquito_risk":0,"arthritis_risk":5,"migraine_risk":10,"frizz_risk":0,"updated_at":"2026-04-15T16:32:41.550128+05:30"},{"city":"Kanpur","state":"Uttar Pradesh","latitude":26.4499,"longitude":80.3319,"temp":37.1,"humidity":21,"rain":0.0,"pressure":986.8,"uv_index":7.8,"wind_gusts":21.2,"aqi":157,"pm10":272.9,"pm2_5":34.9,"mosquito_risk":0,"arthritis_risk":5,"migraine_risk":10,"frizz_risk":0,"updated_at":"2026-04-15T16:32:41.550135+05:30"},{"city":"Chandigarh","state":"Chandigarh","latitude":30.7333,"longitude":76.7794,"temp":36.2,"humidity":17,"rain":0.0,"pressure":965.0,"uv_index":7.25,"wind_gusts":31.0,"aqi":158,"pm10":10.6,"pm2_5":7.8,"mosquito_risk":0,"arthritis_risk":5,"migraine_risk":10,"frizz_risk":0,"updated_at":"2026-04-15T16:32:41.550143+05:30"},{"city":"Srinagar","state":"Jammu and Kashmir","latitude":34.0837,"longitude":74.7973,"temp":24.3,"humidity":21,"rain":0.0,"pressure":841.3,"uv_index":7.75,"wind_gusts":17.3,"aqi":115,"pm10":17.5,"pm2_5":6.1,"mosquito_risk":0,"arthritis_risk":5,"migraine_risk":7,"frizz_risk":0,"updated_at":"2026-04-15T16:32:41.550150+05:30"},{"city":"Jammu","state":"Jammu and Kashmir","latitude":32.7266,"longitude":74.857,"temp":35.3,"humidity":18,"rain":0.0,"pressure":969.0,"uv_index":7.95,"wind_gusts":35.6,"aqi":133,"pm10":14.4,"pm2_5":9.0,"mosquito_risk":0,"arthritis_risk":5,"migraine_risk":10,"frizz_risk":0,"updated_at":"2026-04-15T16:32:41.550157+05:30"},{"city":"Amritsar","state":"Punjab","latitude":31.634,"longitude":74.8723,"temp":34.4,"humidity":25,"rain":0.0,"pressure":977.1,"uv_index":7.6,"wind_gusts":30.2,"aqi":136,"pm10":17.3,"pm2_5":7.7,"mosquito_risk":0,"arthritis_risk":5,"migraine_risk":7,"frizz_risk":0,"updated_at":"2026-04-15T16:32:41.550164+05:30"},{"city":"Ludhiana","state":"Punjab","latitude":30.901,"longitude":75.8573,"temp":37.0,"humidity":18,"rain":0.0,"pressure":974.6,"uv_index":7.35,"wind_gusts":30.2,"aqi":131,"pm10":31.7,"pm2_5":9.5,"mosquito_risk":0,"arthritis_risk":5,"migraine_risk":10,"frizz_risk":0,"updated_at":"2026-04-15T16:32:41.550170+05:30"},{"city":"Jalandhar","state":"Punjab","latitude":31.326,"longitude":75.5762,"temp":35.7,"humidity":19,"rain":0.0,"pressure":976.0,"uv_index":7.55,"wind_gusts":29.2,"aqi":136,"pm10":35.4,"pm2_5":10.0,"mosquito_risk":0,"arthritis_risk":5,"migraine_risk":10,"frizz_risk":0,"updated_at":"2026-04-15T16:32:41.550178+05:30"},{"city":"Dehradun","state":"Uttarakhand","latitude":30.6284,"longitude":78.0322,"temp":23.2,"humidity":44,"rain":0.0,"pressure":829.9,"uv_index":7.7,"wind_gusts":27.7,"aqi":128,"pm10":9.1,"pm2_5":6.5,"mosquito_risk":0,"arthritis_risk":5,"migraine_risk":7,"frizz_risk":0,"updated_at":"2026-04-15T16:32:41.550185+05:30"},{"city":"Shimla","state":"Himachal Pradesh","latitude":31.1048,"longitude":77.1734,"temp":21.7,"humidity":31,"rain":0.0,"pressure":785.6,"uv_index":7.75,"wind_gusts":49.0,"aqi":133,"pm10":10.9,"pm2_5":6.1,"mosquito_risk":0,"arthritis_risk":5,"migraine_risk":7,"frizz_risk":0,"updated_at":"2026-04-15T16:32:41.550191+05:30"},{"city":"Manali","state":"Himachal Pradesh","latitude":32.2396,"longitude":77.1887,"temp":23.0,"humidity":41,"rain":0.0,"pressure":820.5,"uv_index":9.7,"wind_gusts":32.0,"aqi":153,"pm10":15.8,"pm2_5":6.4,"mosquito_risk":0,"arthritis_risk":5,"migraine_risk":7,"frizz_risk":0,"updated_at":"2026-04-15T16:32:41.550198+05:30"},{"city":"Gurgaon","state":"Haryana","latitude":28.4595,"longitude":77.0266,"temp":38.4,"humidity":13,"rain":0.0,"pressure":977.1,"uv_index":7.4,"wind_gusts":29.5,"aqi":598,"pm10":1426.8,"pm2_5":127.6,"mosquito_risk":0,"arthritis_risk":5,"migraine_risk":10,"frizz_risk":0,"updated_at":"2026-04-15T16:32:41.550205+05:30"},{"city":"Noida","state":"Uttar Pradesh","latitude":28.5355,"longitude":77.391,"temp":38.2,"humidity":13,"rain":0.0,"pressure":980.0,"uv_index":7.35,"wind_gusts":27.4,"aqi":598,"pm10":1426.8,"pm2_5":127.6,"mosquito_risk":0,"arthritis_risk":5,"migraine_risk":10,"frizz_risk":0,"updated_at":"2026-04-15T16:32:41.550211+05:30"},{"city":"Ghaziabad","state":"Uttar Pradesh","latitude":28.6692,"longitude":77.4538,"temp":37.9,"humidity":13,"rain":0.0,"pressure":978.3,"uv_index":7.3,"wind_gusts":27.7,"aqi":143,"pm10":438.7,"pm2_5":47.6,"mosquito_risk":0,"arthritis_risk":5,"migraine_risk":10,"frizz_risk":0,"updated_at":"2026-04-15T16:32:41.550217+05:30"},{"city":"Faridabad","state":"Haryana","latitude":28.4089,"longitude":77.3178,"temp":38.2,"humidity":13,"rain":0.0,"pressure":979.4,"uv_index":7.35,"wind_gusts":27.4,"aqi":598,"pm10":1426.8,"pm2_5":127.6,"mosquito_risk":0,"arthritis_risk":5,"migraine_risk":10,"frizz_risk":0,"updated_at":"2026-04-15T16:32:41.550223+05:30"},{"city":"Meerut","state":"Uttar Pradesh","latitude":28.9845,"longitude":77.7064,"temp":37.6,"humidity":13,"rain":0.0,"pressure":977.0,"uv_index":7.2,"wind_gusts":32.0,"aqi":143,"pm10":438.7,"pm2_5":47.6,"mosquito_risk":0,"arthritis_risk":5,"migraine_risk":10,"frizz_risk":0,"updated_at":"2026-04-15T16:32:41.550230+05:30"},{"city":"Agra","state":"Uttar Pradesh","latitude":27.1767,"longitude":78.0081,"temp":39.1,"humidity":13,"rain":0.0,"pressure":982.9,"uv_index":7.65,"wind_gusts":29.9,"aqi":300,"pm10":672.4,"pm2_5":65.4,"mosquito_risk":0,"arthritis_risk":5,"migraine_risk":10,"frizz_risk":0,"updated_at":"2026-04-15T16:32:41.550236+05:30"},{"city":"Varanasi","state":"Uttar Pradesh","latitude":25.3176,"longitude":82.9739,"temp":40.0,"humidity":14,"rain":0.0,"pressure":991.6,"uv_index":8.4,"wind_gusts":19.4,"aqi":147,"pm10":41.7,"pm2_5":12.3,"mosquito_risk":0,"arthritis_risk":5,"migraine_risk":10,"frizz_risk":0,"updated_at":"2026-04-15T16:32:41.550245+05:30"},{"city":"Prayagraj","state":"Uttar Pradesh","latitude":25.4358,"longitude":81.8463,"temp":39.1,"humidity":16,"rain":0.0,"pressure":990.2,"uv_index":8.25,"wind_gusts":20.5,"aqi":157,"pm10":55.8,"pm2_5":13.6,"mosquito_risk":0,"arthritis_risk":5,"migraine_risk":10,"frizz_risk":0,"updated_at":"2026-04-15T16:32:41.550252+05:30"},{"city":"Gorakhpur","state":"Uttar Pradesh","latitude":26.7606,"longitude":83.3732,"temp":38.7,"humidity":14,"rain":0.0,"pressure":991.4,"uv_index":8.2,"wind_gusts":25.9,"aqi":155,"pm10":124.8,"pm2_5":25.2,"mosquito_risk":0,"arthritis_risk":5,"migraine_risk":10,"frizz_risk":0,"updated_at":"2026-04-15T16:32:41.550259+05:30"},{"city":"Bareilly","state":"Uttar Pradesh","latitude":28.367,"longitude":79.4304,"temp":37.8,"humidity":12,"rain":0.0,"pressure":981.9,"uv_index":7.55,"wind_gusts":31.3,"aqi":139,"pm10":13.0,"pm2_5":7.8,"mosquito_risk":0,"arthritis_risk":5,"migraine_risk":10,"frizz_risk":0,"updated_at":"2026-04-15T16:32:41.550266+05:30"},{"city":"Aligarh","state":"Uttar Pradesh","latitude":27.8974,"longitude":78.088,"temp":39.0,"humidity":9,"rain":0.0,"pressure":980.9,"uv_index":7.45,"wind_gusts":33.8,"aqi":189,"pm10":776.7,"pm2_5":74.7,"mosquito_risk":0,"arthritis_risk":5,"migraine_risk":10,"frizz_risk":0,"updated_at":"2026-04-15T16:32:41.550275+05:30"},{"city":"Moradabad","state":"Uttar Pradesh","latitude":28.8386,"longitude":78.7733,"temp":37.4,"humidity":13,"rain":0.0,"pressure":978.8,"uv_index":7.4,"wind_gusts":31.3,"aqi":139,"pm10":28.0,"pm2_5":9.7,"mosquito_risk":0,"arthritis_risk":5,"migraine_risk":10,"frizz_risk":0,"updated_at":"2026-04-15T16:32:41.550281+05:30"},{"city":"Saharanpur","state":"Uttar Pradesh","latitude":29.9637,"longitude":77.546,"temp":36.1,"humidity":16,"rain":0.0,"pressure":971.4,"uv_index":7.0,"wind_gusts":33.1,"aqi":165,"pm10":76.8,"pm2_5":14.0,"mosquito_risk":0,"arthritis_risk":5,"migraine_risk":10,"frizz_risk":0,"updated_at":"2026-04-15T16:32:41.550289+05:30"},{"city":"Jhansi","state":"Uttar Pradesh","latitude":25.4484,"longitude":78.5685,"temp":40.2,"humidity":14,"rain":0.0,"pressure":971.9,"uv_index":8.2,"wind_gusts":34.2,"aqi":137,"pm10":53.2,"pm2_5":16.1,"mosquito_risk":0,"arthritis_risk":5,"migraine_risk":10,"frizz_risk":0,"updated_at":"2026-04-15T16:32:44.780937+05:30"},{"city":"Surat","state":"Gujarat","latitude":21.1702,"longitude":72.8311,"temp":32.3,"humidity":54,"rain":0.0,"pressure":1002.9,"uv_index":7.8,"wind_gusts":31.0,"aqi":102,"pm10":105.5,"pm2_5":44.0,"mosquito_risk":0,"arthritis_risk":5,"migraine_risk":4,"frizz_risk":1,"updated_at":"2026-04-15T16:32:44.780967+05:30"},{"city":"Vadodara","state":"Gujarat","latitude":22.3072,"longitude":73.1812,"temp":39.9,"humidity":21,"rain":0.0,"pressure":999.0,"uv_index":8.1,"wind_gusts":28.8,"aqi":95,"pm10":104.5,"pm2_5":33.5,"mosquito_risk":0,"arthritis_risk":5,"migraine_risk":10,"frizz_risk":0,"updated_at":"2026-04-15T16:32:44.780979+05:30"},{"city":"Rajkot","state":"Gujarat","latitude":22.3039,"longitude":70.8022,"temp":37.6,"humidity":23,"rain":0.0,"pressure":989.8,"uv_index":7.85,"wind_gusts":31.3,"aqi":88,"pm10":61.5,"pm2_5":20.2,"mosquito_risk":0,"arthritis_risk":5,"migraine_risk":10,"frizz_risk":0,"updated_at":"2026-04-15T16:32:44.780989+05:30"},{"city":"Thane","state":"Maharashtra","latitude":19.2183,"longitude":72.9781,"temp":32.7,"humidity":52,"rain":0.0,"pressure":1004.4,"uv_index":8.0,"wind_gusts":32.8,"aqi":122,"pm10":46.0,"pm2_5":24.9,"mosquito_risk":0,"arthritis_risk":5,"migraine_risk":4,"frizz_risk":1,"updated_at":"2026-04-15T16:32:44.780997+05:30"},{"city":"Nagpur","state":"Maharashtra","latitude":21.1458,"longitude":79.0882,"temp":40.0,"humidity":12,"rain":0.0,"pressure":968.0,"uv_index":8.85,"wind_gusts":35.6,"aqi":129,"pm10":11.4,"pm2_5":7.9,"mosquito_risk":0,"arthritis_risk":5,"migraine_risk":10,"frizz_risk":0,"updated_at":"2026-04-15T16:32:44.781005+05:30"},{"city":"Nashik","state":"Maharashtra","latitude":19.9975,"longitude":73.7898,"temp":36.0,"humidity":24,"rain":0.0,"pressure":943.0,"uv_index":8.3,"wind_gusts":38.9,"aqi":67,"pm10":24.0,"pm2_5":7.8,"mosquito_risk":0,"arthritis_risk":5,"migraine_risk":10,"frizz_risk":0,"updated_at":"2026-04-15T16:32:44.781013+05:30"},{"city":"Aurangabad","state":"Maharashtra","latitude":19.8762,"longitude":75.3433,"temp":39.5,"humidity":9,"rain":0.0,"pressure":940.7,"uv_index":8.95,"wind_gusts":38.9,"aqi":85,"pm10":9.3,"pm2_5":4.7,"mosquito_risk":0,"arthritis_risk":5,"migraine_risk":10,"frizz_risk":0,"updated_at":"2026-04-15T16:32:44.781020+05:30"},{"city":"Solapur","state":"Maharashtra","latitude":17.6599,"longitude":75.9064,"temp":41.0,"humidity":14,"rain":0.0,"pressure":953.0,"uv_index":9.05,"wind_gusts":28.8,"aqi":142,"pm10":26.1,"pm2_5":19.6,"mosquito_risk":0,"arthritis_risk":5,"migraine_risk":10,"frizz_risk":0,"updated_at":"2026-04-15T16:32:44.781028+05:30"},{"city":"Kolhapur","state":"Maharashtra","latitude":16.705,"longitude":74.2433,"temp":33.5,"humidity":46,"rain":0.0,"pressure":945.3,"uv_index":9.05,"wind_gusts":45.0,"aqi":112,"pm10":27.9,"pm2_5":15.4,"mosquito_risk":0,"arthritis_risk":5,"migraine_risk":7,"frizz_risk":1,"updated_at":"2026-04-15T16:32:44.781035+05:30"},{"city":"Goa","state":"Goa","latitude":15.2993,"longitude":74.124,"temp":31.4,"humidity":69,"rain":0.0,"pressure":994.9,"uv_index":9.0,"wind_gusts":31.3,"aqi":86,"pm10":56.7,"pm2_5":20.0,"mosquito_risk":3,"arthritis_risk":5,"migraine_risk":7,"frizz_risk":1,"updated_at":"2026-04-15T16:32:44.781043+05:30"},{"city":"Jodhpur","state":"Rajasthan","latitude":26.2389,"longitude":73.0243,"temp":40.1,"humidity":14,"rain":0.0,"pressure":978.4,"uv_index":8.15,"wind_gusts":24.5,"aqi":74,"pm10":58.3,"pm2_5":13.6,"mosquito_risk":0,"arthritis_risk":5,"migraine_risk":10,"frizz_risk":0,"updated_at":"2026-04-15T16:32:44.781051+05:30"},{"city":"Udaipur","state":"Rajasthan","latitude":24.5854,"longitude":73.7125,"temp":37.2,"humidity":18,"rain":0.0,"pressure":943.2,"uv_index":8.75,"wind_gusts":26.6,"aqi":67,"pm10":100.6,"pm2_5":20.5,"mosquito_risk":0,"arthritis_risk":5,"migraine_risk":10,"frizz_risk":0,"updated_at":"2026-04-15T16:32:44.781059+05:30"},{"city":"Kota","state":"Rajasthan","latitude":25.2138,"longitude":75.8648,"temp":40.6,"humidity":15,"rain":0.0,"pressure":973.4,"uv_index":8.2,"wind_gusts":23.4,"aqi":85,"pm10":46.1,"pm2_5":13.2,"mosquito_risk":0,"arthritis_risk":5,"migraine_risk":10,"frizz_risk":0,"updated_at":"2026-04-15T16:32:44.781067+05:30"},{"city":"Bikaner","state":"Rajasthan","latitude":28.0229,"longitude":73.3119,"temp":39.7,"humidity":11,"rain":0.0,"pressure":977.9,"uv_index":8.0,"wind_gusts":14.8,"aqi":112,"pm10":74.7,"pm2_5":14.1,"mosquito_risk":0,"arthritis_risk":5,"migraine_risk":10,"frizz_risk":0,"updated_at":"2026-04-15T16:32:44.781076+05:30"},{"city":"Ajmer","state":"Rajasthan","latitude":26.4499,"longitude":74.6399,"temp":38.3,"humidity":13,"rain":0.0,"pressure":951.1,"uv_index":8.15,"wind_gusts":26.6,"aqi":109,"pm10":93.4,"pm2_5":18.2,"mosquito_risk":0,"arthritis_risk":5,"migraine_risk":10,"frizz_risk":0,"updated_at":"2026-04-15T16:32:44.781083+05:30"},{"city":"Gwalior","state":"Madhya Pradesh","latitude":26.2183,"longitude":78.1828,"temp":38.3,"humidity":18,"rain":0.0,"pressure":978.4,"uv_index":7.95,"wind_gusts":31.3,"aqi":136,"pm10":122.0,"pm2_5":23.5,"mosquito_risk":0,"arthritis_risk":5,"migraine_risk":10,"frizz_risk":0,"updated_at":"2026-04-15T16:32:44.781091+05:30"},{"city":"Indore","state":"Madhya Pradesh","latitude":22.7196,"longitude":75.8577,"temp":37.2,"humidity":21,"rain":0.0,"pressure":944.4,"uv_index":8.55,"wind_gusts":32.0,"aqi":80,"pm10":53.4,"pm2_5":18.4,"mosquito_risk":0,"arthritis_risk":5,"migraine_risk":10,"frizz_risk":0,"updated_at":"2026-04-15T16:32:44.781098+05:30"},{"city":"Bhopal","state":"Madhya Pradesh","latitude":23.2599,"longitude":77.4126,"temp":39.2,"humidity":14,"rain":0.0,"pressure":949.4,"uv_index":8.55,"wind_gusts":31.3,"aqi":80,"pm10":46.9,"pm2_5":16.2,"mosquito_risk":0,"arthritis_risk":5,"migraine_risk":10,"frizz_risk":0,"updated_at":"2026-04-15T16:32:44.781106+05:30"},{"city":"Jabalpur","state":"Madhya Pradesh","latitude":23.1815,"longitude":79.9864,"temp":39.1,"humidity":11,"rain":0.0,"pressure":956.6,"uv_index":8.7,"wind_gusts":34.9,"aqi":93,"pm10":12.6,"pm2_5":6.1,"mosquito_risk":0,"arthritis_risk":5,"migraine_risk":10,"frizz_risk":0,"updated_at":"2026-04-15T16:32:44.781114+05:30"},{"city":"Ujjain","state":"Madhya Pradesh","latitude":23.1765,"longitude":75.7885,"temp":37.1,"humidity":23,"rain":0.0,"pressure":950.2,"uv_index":8.5,"wind_gusts":29.5,"aqi":72,"pm10":70.5,"pm2_5":20.8,"mosquito_risk":0,"arthritis_risk":5,"migraine_risk":10,"frizz_risk":0,"updated_at":"2026-04-15T16:32:44.781122+05:30"},{"city":"Visakhapatnam","state":"Andhra Pradesh","latitude":17.6868,"longitude":83.2185,"temp":31.4,"humidity":65,"rain":0.0,"pressure":1000.1,"uv_index":9.15,"wind_gusts":41.4,"aqi":64,"pm10":17.0,"pm2_5":12.3,"mosquito_risk":3,"arthritis_risk":5,"migraine_risk":4,"frizz_risk":1,"updated_at":"2026-04-15T16:32:44.781129+05:30"},{"city":"Vijayawada","state":"Andhra Pradesh","latitude":16.5062,"longitude":80.648,"temp":38.2,"humidity":33,"rain":0.0,"pressure":997.9,"uv_index":9.2,"wind_gusts":31.7,"aqi":49,"pm10":21.0,"pm2_5":17.1,"mosquito_risk":0,"arthritis_risk":5,"migraine_risk":10,"frizz_risk":1,"updated_at":"2026-04-15T16:32:44.781137+05:30"},{"city":"Guntur","state":"Andhra Pradesh","latitude":16.3067,"longitude":80.4365,"temp":37.3,"humidity":39,"rain":0.0,"pressure":999.2,"uv_index":9.2,"wind_gusts":31.0,"aqi":55,"pm10":26.8,"pm2_5":21.7,"mosquito_risk":0,"arthritis_risk":5,"migraine_risk":10,"frizz_risk":1,"updated_at":"2026-04-15T16:32:44.781145+05:30"},{"city":"Nellore","state":"Andhra Pradesh","latitude":14.4426,"longitude":79.9865,"temp":35.5,"humidity":53,"rain":0.0,"pressure":1001.3,"uv_index":9.3,"wind_gusts":36.4,"aqi":58,"pm10":24.7,"pm2_5":19.0,"mosquito_risk":0,"arthritis_risk":5,"migraine_risk":7,"frizz_risk":1,"updated_at":"2026-04-15T16:32:44.781154+05:30"},{"city":"Kurnool","state":"Andhra Pradesh","latitude":15.8281,"longitude":78.0373,"temp":40.9,"humidity":20,"rain":0.0,"pressure":971.7,"uv_index":9.2,"wind_gusts":24.5,"aqi":146,"pm10":36.7,"pm2_5":27.1,"mosquito_risk":0,"arthritis_risk":5,"migraine_risk":10,"frizz_risk":0,"updated_at":"2026-04-15T16:32:44.781163+05:30"},{"city":"Kakinada","state":"Andhra Pradesh","latitude":16.9891,"longitude":82.2475,"temp":35.5,"humidity":47,"rain":0.0,"pressure":1003.0,"uv_index":9.2,"wind_gusts":34.6,"aqi":51,"pm10":12.5,"pm2_5":8.1,"mosquito_risk":0,"arthritis_risk":5,"migraine_risk":7,"frizz_risk":1,"updated_at":"2026-04-15T16:32:44.781171+05:30"},{"city":"Tirupati","state":"Andhra Pradesh","latitude":13.6288,"longitude":79.4192,"temp":38.1,"humidity":25,"rain":0.0,"pressure":987.3,"uv_index":9.4,"wind_gusts":32.0,"aqi":66,"pm10":25.4,"pm2_5":20.7,"mosquito_risk":0,"arthritis_risk":5,"migraine_risk":10,"frizz_risk":0,"updated_at":"2026-04-15T16:32:44.781178+05:30"},{"city":"Warangal","state":"Telangana","latitude":17.9689,"longitude":79.5941,"temp":39.0,"humidity":32,"rain":0.0,"pressure":973.9,"uv_index":9.1,"wind_gusts":29.2,"aqi":99,"pm10":32.0,"pm2_5":25.3,"mosquito_risk":0,"arthritis_risk":5,"migraine_risk":10,"frizz_risk":1,"updated_at":"2026-04-15T16:32:44.781187+05:30"},{"city":"Nizamabad","state":"Telangana","latitude":18.6725,"longitude":78.0941,"temp":40.5,"humidity":17,"rain":0.0,"pressure":960.6,"uv_index":9.05,"wind_gusts":26.6,"aqi":103,"pm10":18.6,"pm2_5":12.5,"mosquito_risk":0,"arthritis_risk":5,"migraine_risk":10,"frizz_risk":0,"updated_at":"2026-04-15T16:32:44.781194+05:30"},{"city":"Mysore","state":"Karnataka","latitude":12.2958,"longitude":76.6396,"temp":36.9,"humidity":21,"rain":0.0,"pressure":925.4,"uv_index":9.55,"wind_gusts":46.4,"aqi":118,"pm10":30.6,"pm2_5":23.1,"mosquito_risk":0,"arthritis_risk":5,"migraine_risk":10,"frizz_risk":0,"updated_at":"2026-04-15T16:32:44.781202+05:30"},{"city":"Mangalore","state":"Karnataka","latitude":12.9141,"longitude":74.856,"temp":30.4,"humidity":77,"rain":0.0,"pressure":1003.0,"uv_index":9.15,"wind_gusts":24.1,"aqi":66,"pm10":31.9,"pm2_5":20.2,"mosquito_risk":3,"arthritis_risk":5,"migraine_risk":4,"frizz_risk":1,"updated_at":"2026-04-15T16:32:44.781209+05:30"},{"city":"Hubli-Dharwad","state":"Karnataka","latitude":15.3647,"longitude":75.124,"temp":35.0,"humidity":38,"rain":0.0,"pressure":937.5,"uv_index":9.2,"wind_gusts":47.5,"aqi":116,"pm10":35.2,"pm2_5":25.7,"mosquito_risk":0,"arthritis_risk":5,"migraine_risk":7,"frizz_risk":1,"updated_at":"2026-04-15T16:32:44.781217+05:30"},{"city":"Belgaum","state":"Karnataka","latitude":15.8497,"longitude":74.4977,"temp":31.2,"humidity":53,"rain":0.0,"pressure":923.5,"uv_index":9.25,"wind_gusts":39.6,"aqi":126,"pm10":35.2,"pm2_5":17.0,"mosquito_risk":0,"arthritis_risk":5,"migraine_risk":7,"frizz_risk":1,"updated_at":"2026-04-15T16:32:48.001559+05:30"},{"city":"Coimbatore","state":"Tamil Nadu","latitude":11.0168,"longitude":76.9558,"temp":37.6,"humidity":28,"rain":0.0,"pressure":957.8,"uv_index":9.45,"wind_gusts":52.2,"aqi":127,"pm10":29.1,"pm2_5":21.7,"mosquito_risk":0,"arthritis_risk":5,"migraine_risk":10,"frizz_risk":0,"updated_at":"2026-04-15T16:32:48.001586+05:30"},{"city":"Madurai","state":"Tamil Nadu","latitude":9.9252,"longitude":78.1198,"temp":39.2,"humidity":25,"rain":0.0,"pressure":987.9,"uv_index":9.4,"wind_gusts":40.7,"aqi":84,"pm10":13.6,"pm2_5":9.4,"mosquito_risk":0,"arthritis_risk":5,"migraine_risk":10,"frizz_risk":0,"updated_at":"2026-04-15T16:32:48.001596+05:30"},{"city":"Trichy","state":"Tamil Nadu","latitude":10.7905,"longitude":78.7047,"temp":38.5,"humidity":27,"rain":0.0,"pressure":994.6,"uv_index":9.4,"wind_gusts":22.0,"aqi":52,"pm10":13.2,"pm2_5":10.1,"mosquito_risk":0,"arthritis_risk":5,"migraine_risk":10,"frizz_risk":1,"updated_at":"2026-04-15T16:32:48.001605+05:30"},{"city":"Salem","state":"Tamil Nadu","latitude":11.6643,"longitude":78.146,"temp":39.4,"humidity":21,"rain":0.0,"pressure":972.6,"uv_index":9.45,"wind_gusts":19.1,"aqi":88,"pm10":27.2,"pm2_5":19.3,"mosquito_risk":0,"arthritis_risk":5,"migraine_risk":10,"frizz_risk":0,"updated_at":"2026-04-15T16:32:48.001613+05:30"},{"city":"Tirunelveli","state":"Tamil Nadu","latitude":8.7139,"longitude":77.7567,"temp":35.7,"humidity":47,"rain":0.0,"pressure":998.5,"uv_index":9.3,"wind_gusts":50.4,"aqi":71,"pm10":19.6,"pm2_5":14.6,"mosquito_risk":0,"arthritis_risk":5,"migraine_risk":10,"frizz_risk":1,"updated_at":"2026-04-15T16:32:48.001619+05:30"},{"city":"Vellore","state":"Tamil Nadu","latitude":12.9165,"longitude":79.1325,"temp":37.4,"humidity":27,"rain":0.0,"pressure":980.5,"uv_index":9.45,"wind_gusts":29.5,"aqi":90,"pm10":24.2,"pm2_5":19.6,"mosquito_risk":0,"arthritis_risk":5,"migraine_risk":10,"frizz_risk":0,"updated_at":"2026-04-15T16:32:48.001625+05:30"},{"city":"Erode","state":"Tamil Nadu","latitude":11.341,"longitude":77.7172,"temp":39.9,"humidity":23,"rain":0.0,"pressure":983.8,"uv_index":9.4,"wind_gusts":25.9,"aqi":113,"pm10":24.1,"pm2_5":17.1,"mosquito_risk":0,"arthritis_risk":5,"migraine_risk":10,"frizz_risk":0,"updated_at":"2026-04-15T16:32:48.001631+05:30"},{"city":"Kochi","state":"Kerala","latitude":9.9312,"longitude":76.2673,"temp":30.0,"humidity":80,"rain":0.0,"pressure":1004.6,"uv_index":9.2,"wind_gusts":32.4,"aqi":94,"pm10":30.6,"pm2_5":22.9,"mosquito_risk":7,"arthritis_risk":5,"migraine_risk":4,"frizz_risk":1,"updated_at":"2026-04-15T16:32:48.001638+05:30"},{"city":"Thiruvananthapuram","state":"Kerala","latitude":8.5241,"longitude":76.9366,"temp":29.8,"humidity":80,"rain":0.0,"pressure":1003.7,"uv_index":9.15,"wind_gusts":34.9,"aqi":70,"pm10":29.3,"pm2_5":18.6,"mosquito_risk":7,"arthritis_risk":5,"migraine_risk":4,"frizz_risk":1,"updated_at":"2026-04-15T16:32:48.001644+05:30"},{"city":"Kozhikode","state":"Kerala","latitude":11.2588,"longitude":75.7804,"temp":31.3,"humidity":74,"rain":0.0,"pressure":1004.0,"uv_index":9.15,"wind_gusts":31.3,"aqi":73,"pm10":32.0,"pm2_5":19.0,"mosquito_risk":3,"arthritis_risk":5,"migraine_risk":4,"frizz_risk":1,"updated_at":"2026-04-15T16:32:48.001651+05:30"},{"city":"Thrissur","state":"Kerala","latitude":10.5276,"longitude":76.2144,"temp":33.0,"humidity":65,"rain":0.0,"pressure":1003.0,"uv_index":9.2,"wind_gusts":36.0,"aqi":95,"pm10":29.0,"pm2_5":21.1,"mosquito_risk":3,"arthritis_risk":5,"migraine_risk":4,"frizz_risk":1,"updated_at":"2026-04-15T16:32:48.001658+05:30"},{"city":"Kannur","state":"Kerala","latitude":11.8745,"longitude":75.3704,"temp":32.3,"humidity":67,"rain":0.0,"pressure":1003.6,"uv_index":9.15,"wind_gusts":31.7,"aqi":68,"pm10":33.9,"pm2_5":22.1,"mosquito_risk":3,"arthritis_risk":5,"migraine_risk":4,"frizz_risk":1,"updated_at":"2026-04-15T16:32:48.001665+05:30"},{"city":"Patna","state":"Bihar","latitude":25.5941,"longitude":85.1376,"temp":37.5,"humidity":22,"rain":0.0,"pressure":994.8,"uv_index":8.55,"wind_gusts":19.8,"aqi":188,"pm10":92.0,"pm2_5":22.2,"mosquito_risk":0,"arthritis_risk":5,"migraine_risk":10,"frizz_risk":0,"updated_at":"2026-04-15T16:32:48.001671+05:30"},{"city":"Gaya","state":"Bihar","latitude":24.7914,"longitude":85.0002,"temp":37.8,"humidity":21,"rain":0.0,"pressure":988.3,"uv_index":8.6,"wind_gusts":18.0,"aqi":148,"pm10":49.1,"pm2_5":14.6,"mosquito_risk":0,"arthritis_risk":5,"migraine_risk":10,"frizz_risk":0,"updated_at":"2026-04-15T16:32:48.001677+05:30"},{"city":"Muzaffarpur","state":"Bihar","latitude":26.1209,"longitude":85.3647,"temp":35.4,"humidity":36,"rain":0.0,"pressure":994.8,"uv_index":8.5,"wind_gusts":21.2,"aqi":197,"pm10":101.5,"pm2_5":27.5,"mosquito_risk":0,"arthritis_risk":5,"migraine_risk":10,"frizz_risk":1,"updated_at":"2026-04-15T16:32:48.001684+05:30"},{"city":"Bhagalpur","state":"Bihar","latitude":25.2425,"longitude":87.0117,"temp":32.9,"humidity":52,"rain":0.0,"pressure":996.2,"uv_index":8.5,"wind_gusts":16.2,"aqi":184,"pm10":67.8,"pm2_5":23.5,"mosquito_risk":0,"arthritis_risk":5,"migraine_risk":7,"frizz_risk":1,"updated_at":"2026-04-15T16:32:48.001690+05:30"},{"city":"Ranchi","state":"Jharkhand","latitude":23.3441,"longitude":85.3096,"temp":34.5,"humidity":23,"rain":0.0,"pressure":934.6,"uv_index":9.15,"wind_gusts":30.2,"aqi":179,"pm10":63.1,"pm2_5":28.8,"mosquito_risk":0,"arthritis_risk":5,"migraine_risk":7,"frizz_risk":0,"updated_at":"2026-04-15T16:32:48.001696+05:30"},{"city":"Jamshedpur","state":"Jharkhand","latitude":22.8046,"longitude":86.2029,"temp":38.0,"humidity":20,"rain":0.0,"pressure":985.8,"uv_index":8.95,"wind_gusts":20.9,"aqi":194,"pm10":60.5,"pm2_5":31.1,"mosquito_risk":0,"arthritis_risk":5,"migraine_risk":10,"frizz_risk":0,"updated_at":"2026-04-15T16:32:48.001702+05:30"},{"city":"Dhanbad","state":"Jharkhand","latitude":23.7957,"longitude":86.4304,"temp":38.3,"humidity":15,"rain":0.0,"pressure":975.0,"uv_index":8.9,"wind_gusts":22.7,"aqi":150,"pm10":50.3,"pm2_5":22.8,"mosquito_risk":0,"arthritis_risk":5,"migraine_risk":10,"frizz_risk":0,"updated_at":"2026-04-15T16:32:48.001709+05:30"},{"city":"Bokaro","state":"Jharkhand","latitude":23.6693,"longitude":86.1511,"temp":38.1,"humidity":18,"rain":0.0,"pressure":978.8,"uv_index":8.9,"wind_gusts":26.6,"aqi":157,"pm10":44.2,"pm2_5":20.4,"mosquito_risk":0,"arthritis_risk":5,"migraine_risk":10,"frizz_risk":0,"updated_at":"2026-04-15T16:32:48.001715+05:30"},{"city":"Bhubaneswar","state":"Odisha","latitude":20.2961,"longitude":85.8245,"temp":31.9,"humidity":65,"rain":0.0,"pressure":998.6,"uv_index":9.1,"wind_gusts":31.7,"aqi":73,"pm10":23.3,"pm2_5":17.8,"mosquito_risk":3,"arthritis_risk":5,"migraine_risk":7,"frizz_risk":1,"updated_at":"2026-04-15T16:32:48.001722+05:30"},{"city":"Cuttack","state":"Odisha","latitude":20.4625,"longitude":85.8828,"temp":34.4,"humidity":60,"rain":0.0,"pressure":1000.2,"uv_index":9.15,"wind_gusts":25.9,"aqi":73,"pm10":23.3,"pm2_5":17.8,"mosquito_risk":0,"arthritis_risk":5,"migraine_risk":4,"frizz_risk":1,"updated_at":"2026-04-15T16:32:48.001728+05:30"},{"city":"Rourkela","state":"Odisha","latitude":22.2604,"longitude":84.8536,"temp":39.3,"humidity":25,"rain":0.0,"pressure":979.8,"uv_index":8.9,"wind_gusts":34.9,"aqi":209,"pm10":71.2,"pm2_5":40.5,"mosquito_risk":0,"arthritis_risk":5,"migraine_risk":10,"frizz_risk":0,"updated_at":"2026-04-15T16:32:48.001734+05:30"},{"city":"Raipur","state":"Chhattisgarh","latitude":21.2514,"longitude":81.6296,"temp":41.5,"humidity":12,"rain":0.0,"pressure":968.9,"uv_index":8.95,"wind_gusts":39.2,"aqi":171,"pm10":23.7,"pm2_5":16.8,"mosquito_risk":0,"arthritis_risk":5,"migraine_risk":10,"frizz_risk":0,"updated_at":"2026-04-15T16:32:48.001740+05:30"},{"city":"Bhilai","state":"Chhattisgarh","latitude":21.1938,"longitude":81.3509,"temp":41.0,"humidity":12,"rain":0.0,"pressure":969.3,"uv_index":8.95,"wind_gusts":40.7,"aqi":154,"pm10":21.4,"pm2_5":14.9,"mosquito_risk":0,"arthritis_risk":5,"migraine_risk":10,"frizz_risk":0,"updated_at":"2026-04-15T16:32:48.001747+05:30"},{"city":"Guwahati","state":"Assam","latitude":26.1158,"longitude":91.7086,"temp":27.5,"humidity":76,"rain":0.0,"pressure":999.0,"uv_index":8.45,"wind_gusts":31.7,"aqi":134,"pm10":57.5,"pm2_5":36.2,"mosquito_risk":7,"arthritis_risk":5,"migraine_risk":7,"frizz_risk":1,"updated_at":"2026-04-15T16:32:48.001753+05:30"},{"city":"Agartala","state":"Tripura","latitude":23.8315,"longitude":91.2868,"temp":31.9,"humidity":60,"rain":0.0,"pressure":1002.0,"uv_index":8.7,"wind_gusts":24.5,"aqi":99,"pm10":64.3,"pm2_5":41.7,"mosquito_risk":0,"arthritis_risk":5,"migraine_risk":4,"frizz_risk":1,"updated_at":"2026-04-15T16:32:48.001760+05:30"},{"city":"Shillong","state":"Meghalaya","latitude":25.5788,"longitude":91.8933,"temp":18.5,"humidity":67,"rain":0.0,"pressure":854.5,"uv_index":8.6,"wind_gusts":59.4,"aqi":102,"pm10":57.3,"pm2_5":32.8,"mosquito_risk":3,"arthritis_risk":5,"migraine_risk":7,"frizz_risk":0,"updated_at":"2026-04-15T16:32:48.001766+05:30"},{"city":"Imphal","state":"Manipur","latitude":24.817,"longitude":93.9368,"temp":21.9,"humidity":72,"rain":0.0,"pressure":921.3,"uv_index":9.05,"wind_gusts":69.1,"aqi":128,"pm10":61.5,"pm2_5":34.3,"mosquito_risk":3,"arthritis_risk":5,"migraine_risk":7,"frizz_risk":1,"updated_at":"2026-04-15T16:32:48.001772+05:30"},{"city":"Aizawl","state":"Mizoram","latitude":23.7271,"longitude":92.7176,"temp":25.3,"humidity":57,"rain":0.0,"pressure":891.5,"uv_index":8.95,"wind_gusts":50.4,"aqi":121,"pm10":76.8,"pm2_5":40.9,"mosquito_risk":4,"arthritis_risk":5,"migraine_risk":7,"frizz_risk":1,"updated_at":"2026-04-15T16:32:48.001778+05:30"},{"city":"Kohima","state":"Nagaland","latitude":25.6701,"longitude":94.1077,"temp":16.6,"humidity":93,"rain":0.0,"pressure":853.5,"uv_index":8.95,"wind_gusts":73.8,"aqi":113,"pm10":49.5,"pm2_5":27.6,"mosquito_risk":3,"arthritis_risk":10,"migraine_risk":7,"frizz_risk":0,"updated_at":"2026-04-15T16:32:48.001784+05:30"},{"city":"Gangtok","state":"Sikkim","latitude":27.3314,"longitude":88.6138,"temp":17.9,"humidity":77,"rain":0.0,"pressure":835.2,"uv_index":8.1,"wind_gusts":17.6,"aqi":144,"pm10":56.0,"pm2_5":35.5,"mosquito_risk":3,"arthritis_risk":5,"migraine_risk":7,"frizz_risk":0,"updated_at":"2026-04-15T16:32:48.001791+05:30"},{"city":"Siliguri","state":"West Bengal","latitude":26.7271,"longitude":88.3953,"temp":24.9,"humidity":72,"rain":0.0,"pressure":990.6,"uv_index":8.4,"wind_gusts":27.7,"aqi":158,"pm10":95.7,"pm2_5":57.6,"mosquito_risk":3,"arthritis_risk":5,"migraine_risk":7,"frizz_risk":1,"updated_at":"2026-04-15T16:32:51.230226+05:30"},{"city":"Durgapur","state":"West Bengal","latitude":23.5204,"longitude":87.3119,"temp":38.1,"humidity":24,"rain":0.0,"pressure":989.7,"uv_index":8.85,"wind_gusts":25.9,"aqi":164,"pm10":60.8,"pm2_5":34.0,"mosquito_risk":0,"arthritis_risk":5,"migraine_risk":10,"frizz_risk":0,"updated_at":"2026-04-15T16:32:51.230258+05:30"},{"city":"Asansol","state":"West Bengal","latitude":23.6739,"longitude":86.9524,"temp":38.3,"humidity":21,"rain":0.0,"pressure":988.2,"uv_index":8.85,"wind_gusts":27.7,"aqi":160,"pm10":52.5,"pm2_5":25.3,"mosquito_risk":0,"arthritis_risk":5,"migraine_risk":10,"frizz_risk":0,"updated_at":"2026-04-15T16:32:51.230271+05:30"},{"city":"Pondicherry","state":"Puducherry","latitude":11.9139,"longitude":79.8145,"temp":36.0,"humidity":50,"rain":0.0,"pressure":1003.7,"uv_index":9.3,"wind_gusts":27.4,"aqi":56,"pm10":13.0,"pm2_5":9.9,"mosquito_risk":0,"arthritis_risk":5,"migraine_risk":7,"frizz_risk":1,"updated_at":"2026-04-15T16:32:51.230281+05:30"},{"city":"Port Blair","state":"Andaman and Nicobar Islands","latitude":11.6234,"longitude":92.7265,"temp":29.6,"humidity":71,"rain":0.0,"pressure":1005.3,"uv_index":9.2,"wind_gusts":20.9,"aqi":72,"pm10":23.7,"pm2_5":16.8,"mosquito_risk":7,"arthritis_risk":5,"migraine_risk":4,"frizz_risk":1,"updated_at":"2026-04-15T16:32:51.230291+05:30"},{"city":"Haridwar","state":"Uttarakhand","latitude":29.9457,"longitude":78.1642,"temp":35.2,"humidity":22,"rain":0.0,"pressure":970.0,"uv_index":7.05,"wind_gusts":32.0,"aqi":148,"pm10":14.7,"pm2_5":9.1,"mosquito_risk":0,"arthritis_risk":5,"migraine_risk":10,"frizz_risk":0,"updated_at":"2026-04-15T16:32:51.230299+05:30"},{"city":"Rishikesh","state":"Uttarakhand","latitude":30.0869,"longitude":78.2676,"temp":33.4,"humidity":29,"rain":0.0,"pressure":963.1,"uv_index":7.15,"wind_gusts":29.9,"aqi":134,"pm10":7.8,"pm2_5":6.8,"mosquito_risk":0,"arthritis_risk":5,"migraine_risk":7,"frizz_risk":0,"updated_at":"2026-04-15T16:32:51.230308+05:30"},{"city":"Nainital","state":"Uttarakhand","latitude":29.3919,"longitude":79.4542,"temp":26.8,"humidity":22,"rain":0.0,"pressure":806.7,"uv_index":8.05,"wind_gusts":45.7,"aqi":143,"pm10":11.1,"pm2_5":6.5,"mosquito_risk":4,"arthritis_risk":5,"migraine_risk":7,"frizz_risk":0,"updated_at":"2026-04-15T16:32:51.230317+05:30"},{"city":"Mussoorie","state":"Uttarakhand","latitude":30.4599,"longitude":78.0664,"temp":23.8,"humidity":38,"rain":0.0,"pressure":803.0,"uv_index":7.55,"wind_gusts":39.6,"aqi":145,"pm10":9.7,"pm2_5":8.7,"mosquito_risk":0,"arthritis_risk":5,"migraine_risk":7,"frizz_risk":0,"updated_at":"2026-04-15T16:32:51.230326+05:30"},{"city":"Dharamshala","state":"Himachal Pradesh","latitude":32.219,"longitude":76.3234,"temp":27.0,"humidity":38,"rain":0.0,"pressure":868.4,"uv_index":7.8,"wind_gusts":23.8,"aqi":128,"pm10":13.4,"pm2_5":7.7,"mosquito_risk":4,"arthritis_risk":5,"migraine_risk":7,"frizz_risk":0,"updated_at":"2026-04-15T16:32:51.230335+05:30"},{"city":"Dalhousie","state":"Himachal Pradesh","latitude":32.5387,"longitude":75.971,"temp":25.6,"humidity":32,"rain":0.0,"pressure":804.8,"uv_index":8.0,"wind_gusts":24.1,"aqi":146,"pm10":13.6,"pm2_5":9.0,"mosquito_risk":4,"arthritis_risk":5,"migraine_risk":7,"frizz_risk":0,"updated_at":"2026-04-15T16:32:51.230345+05:30"},{"city":"Patiala","state":"Punjab","latitude":30.3398,"longitude":76.3869,"temp":37.5,"humidity":13,"rain":0.0,"pressure":974.0,"uv_index":7.15,"wind_gusts":30.6,"aqi":169,"pm10":527.1,"pm2_5":47.6,"mosquito_risk":0,"arthritis_risk":5,"migraine_risk":10,"frizz_risk":0,"updated_at":"2026-04-15T16:32:51.230353+05:30"},{"city":"Bhatinda","state":"Punjab","latitude":30.211,"longitude":74.9455,"temp":37.7,"humidity":18,"rain":0.0,"pressure":979.4,"uv_index":7.85,"wind_gusts":36.4,"aqi":131,"pm10":37.5,"pm2_5":10.3,"mosquito_risk":0,"arthritis_risk":5,"migraine_risk":10,"frizz_risk":0,"updated_at":"2026-04-15T16:32:51.230362+05:30"},{"city":"Rohtak","state":"Haryana","latitude":28.8955,"longitude":76.6066,"temp":38.8,"humidity":12,"rain":0.0,"pressure":977.1,"uv_index":7.3,"wind_gusts":34.2,"aqi":327,"pm10":715.3,"pm2_5":65.0,"mosquito_risk":0,"arthritis_risk":5,"migraine_risk":10,"frizz_risk":0,"updated_at":"2026-04-15T16:32:51.230371+05:30"},{"city":"Panipat","state":"Haryana","latitude":29.3909,"longitude":76.9635,"temp":37.8,"humidity":14,"rain":0.0,"pressure":976.1,"uv_index":7.15,"wind_gusts":30.2,"aqi":748,"pm10":1303.9,"pm2_5":111.5,"mosquito_risk":0,"arthritis_risk":5,"migraine_risk":10,"frizz_risk":0,"updated_at":"2026-04-15T16:32:51.230378+05:30"},{"city":"Mathura","state":"Uttar Pradesh","latitude":27.4924,"longitude":77.6737,"temp":39.0,"humidity":13,"rain":0.0,"pressure":982.2,"uv_index":7.6,"wind_gusts":25.2,"aqi":256,"pm10":791.6,"pm2_5":72.4,"mosquito_risk":0,"arthritis_risk":5,"migraine_risk":10,"frizz_risk":0,"updated_at":"2026-04-15T16:32:51.230385+05:30"},{"city":"Vrindavan","state":"Uttar Pradesh","latitude":27.5823,"longitude":77.7027,"temp":39.0,"humidity":10,"rain":0.0,"pressure":982.6,"uv_index":7.6,"wind_gusts":29.2,"aqi":256,"pm10":791.6,"pm2_5":72.4,"mosquito_risk":0,"arthritis_risk":5,"migraine_risk":10,"frizz_risk":0,"updated_at":"2026-04-15T16:32:51.230392+05:30"},{"city":"Ayodhya","state":"Uttar Pradesh","latitude":26.7922,"longitude":82.1998,"temp":39.7,"humidity":12,"rain":0.0,"pressure":989.5,"uv_index":7.95,"wind_gusts":31.0,"aqi":128,"pm10":108.7,"pm2_5":19.9,"mosquito_risk":0,"arthritis_risk":5,"migraine_risk":10,"frizz_risk":0,"updated_at":"2026-04-15T16:32:51.230399+05:30"},{"city":"Ratlam","state":"Madhya Pradesh","latitude":23.3315,"longitude":75.0367,"temp":35.4,"humidity":32,"rain":0.0,"pressure":951.0,"uv_index":8.4,"wind_gusts":25.2,"aqi":70,"pm10":67.3,"pm2_5":18.7,"mosquito_risk":0,"arthritis_risk":5,"migraine_risk":10,"frizz_risk":1,"updated_at":"2026-04-15T16:32:51.230406+05:30"},{"city":"Sagar","state":"Madhya Pradesh","latitude":23.8388,"longitude":78.7378,"temp":38.6,"humidity":16,"rain":0.0,"pressure":946.0,"uv_index":8.6,"wind_gusts":28.4,"aqi":68,"pm10":33.4,"pm2_5":13.2,"mosquito_risk":0,"arthritis_risk":5,"migraine_risk":10,"frizz_risk":0,"updated_at":"2026-04-15T16:32:51.230412+05:30"},{"city":"Satna","state":"Madhya Pradesh","latitude":24.6005,"longitude":80.8322,"temp":40.8,"humidity":13,"rain":0.0,"pressure":965.3,"uv_index":8.6,"wind_gusts":30.6,"aqi":144,"pm10":14.1,"pm2_5":7.6,"mosquito_risk":0,"arthritis_risk":5,"migraine_risk":10,"frizz_risk":0,"updated_at":"2026-04-15T16:32:51.230418+05:30"},{"city":"Akola","state":"Maharashtra","latitude":20.7002,"longitude":77.0082,"temp":41.3,"humidity":11,"rain":0.0,"pressure":970.2,"uv_index":8.75,"wind_gusts":37.4,"aqi":90,"pm10":13.0,"pm2_5":8.2,"mosquito_risk":0,"arthritis_risk":5,"migraine_risk":10,"frizz_risk":0,"updated_at":"2026-04-15T16:32:51.230425+05:30"},{"city":"Amravati","state":"Maharashtra","latitude":20.9374,"longitude":77.7796,"temp":40.5,"humidity":12,"rain":0.0,"pressure":962.6,"uv_index":8.8,"wind_gusts":34.9,"aqi":89,"pm10":12.6,"pm2_5":8.0,"mosquito_risk":0,"arthritis_risk":5,"migraine_risk":10,"frizz_risk":0,"updated_at":"2026-04-15T16:32:51.230433+05:30"},{"city":"Latur","state":"Maharashtra","latitude":18.4088,"longitude":76.5604,"temp":37.7,"humidity":19,"rain":0.0,"pressure":936.8,"uv_index":9.05,"wind_gusts":25.2,"aqi":118,"pm10":23.8,"pm2_5":16.9,"mosquito_risk":0,"arthritis_risk":5,"migraine_risk":10,"frizz_risk":0,"updated_at":"2026-04-15T16:32:51.230439+05:30"},{"city":"Nanded","state":"Maharashtra","latitude":19.1383,"longitude":77.3091,"temp":39.5,"humidity":20,"rain":0.0,"pressure":964.5,"uv_index":8.95,"wind_gusts":17.3,"aqi":111,"pm10":17.8,"pm2_5":12.6,"mosquito_risk":0,"arthritis_risk":5,"migraine_risk":10,"frizz_risk":0,"updated_at":"2026-04-15T16:32:51.230446+05:30"},{"city":"Gulbarga","state":"Karnataka","latitude":17.3297,"longitude":76.8343,"temp":40.8,"humidity":18,"rain":0.0,"pressure":954.0,"uv_index":9.1,"wind_gusts":24.1,"aqi":162,"pm10":33.3,"pm2_5":26.8,"mosquito_risk":0,"arthritis_risk":5,"migraine_risk":10,"frizz_risk":0,"updated_at":"2026-04-15T16:32:51.230452+05:30"},{"city":"Bidar","state":"Karnataka","latitude":17.9104,"longitude":77.5199,"temp":39.1,"humidity":17,"rain":0.0,"pressure":932.2,"uv_index":9.1,"wind_gusts":24.1,"aqi":161,"pm10":38.0,"pm2_5":29.8,"mosquito_risk":0,"arthritis_risk":5,"migraine_risk":10,"frizz_risk":0,"updated_at":"2026-04-15T16:32:51.230458+05:30"},{"city":"Hospet","state":"Karnataka","latitude":15.2689,"longitude":76.3909,"temp":37.2,"humidity":31,"rain":0.0,"pressure":952.0,"uv_index":9.3,"wind_gusts":28.4,"aqi":124,"pm10":32.5,"pm2_5":25.1,"mosquito_risk":0,"arthritis_risk":5,"migraine_risk":10,"frizz_risk":1,"updated_at":"2026-04-15T16:32:51.230464+05:30"},{"city":"Tirupur","state":"Tamil Nadu","latitude":11.1085,"longitude":77.3411,"temp":39.8,"humidity":21,"rain":0.0,"pressure":970.5,"uv_index":9.5,"wind_gusts":36.7,"aqi":129,"pm10":27.9,"pm2_5":20.3,"mosquito_risk":0,"arthritis_risk":5,"migraine_risk":10,"frizz_risk":0,"updated_at":"2026-04-15T16:32:51.230470+05:30"},{"city":"Alappuzha","state":"Kerala","latitude":9.4981,"longitude":76.3388,"temp":30.0,"humidity":80,"rain":0.0,"pressure":1004.7,"uv_index":9.2,"wind_gusts":31.3,"aqi":93,"pm10":34.9,"pm2_5":24.3,"mosquito_risk":7,"arthritis_risk":5,"migraine_risk":4,"frizz_risk":1,"updated_at":"2026-04-15T16:32:51.230476+05:30"},{"city":"Munnar","state":"Kerala","latitude":10.0889,"longitude":77.0595,"temp":27.4,"humidity":67,"rain":0.0,"pressure":856.0,"uv_index":9.75,"wind_gusts":34.6,"aqi":79,"pm10":18.7,"pm2_5":12.2,"mosquito_risk":7,"arthritis_risk":5,"migraine_risk":7,"frizz_risk":1,"updated_at":"2026-04-15T16:32:51.230483+05:30"},{"city":"Silchar","state":"Assam","latitude":24.8333,"longitude":92.7789,"temp":29.7,"humidity":65,"rain":0.0,"pressure":1001.9,"uv_index":8.7,"wind_gusts":29.9,"aqi":145,"pm10":57.6,"pm2_5":41.2,"mosquito_risk":7,"arthritis_risk":5,"migraine_risk":4,"frizz_risk":1,"updated_at":"2026-04-15T16:32:51.230490+05:30"},{"city":"Dibrugarh","state":"Assam","latitude":27.4728,"longitude":94.912,"temp":22.9,"humidity":74,"rain":0.0,"pressure":995.3,"uv_index":7.95,"wind_gusts":31.3,"aqi":110,"pm10":114.1,"pm2_5":59.8,"mosquito_risk":3,"arthritis_risk":5,"migraine_risk":7,"frizz_risk":1,"updated_at":"2026-04-15T16:32:51.230497+05:30"}]