[{"city":"Delhi","state":"Delhi","latitude":28.6139,"longitude":77.209,"temp":24.3,"humidity":70,"rain":0.0,"pressure":983.4,"uv_index":6.3,"wind_gusts":40.7,"aqi":225,"pm10":211.9,"pm2_5":90.1,"mosquito_risk":3,"arthritis_risk":5,"migraine_risk":7,"frizz_risk":1,"updated_at":"2026-03-30T08:17:14.752846+05:30"},{"city":"Mumbai","state":"Maharashtra","latitude":19.076,"longitude":72.8777,"temp":27.2,"humidity":81,"rain":0.0,"pressure":1008.7,"uv_index":8.0,"wind_gusts":24.5,"aqi":56,"pm10":35.9,"pm2_5":19.8,"mosquito_risk":7,"arthritis_risk":0,"migraine_risk":4,"frizz_risk":1,"updated_at":"2026-03-30T08:17:14.752886+05:30"},{"city":"Bangalore","state":"Karnataka","latitude":12.9716,"longitude":77.5946,"temp":23.4,"humidity":78,"rain":0.0,"pressure":912.7,"uv_index":9.45,"wind_gusts":36.4,"aqi":137,"pm10":76.6,"pm2_5":69.8,"mosquito_risk":3,"arthritis_risk":5,"migraine_risk":7,"frizz_risk":1,"updated_at":"2026-03-30T08:17:14.752901+05:30"},{"city":"Hyderabad","state":"Telangana","latitude":17.385,"longitude":78.4867,"temp":28.0,"humidity":61,"rain":0.0,"pressure":954.2,"uv_index":8.3,"wind_gusts":25.2,"aqi":93,"pm10":60.3,"pm2_5":54.5,"mosquito_risk":7,"arthritis_risk":5,"migraine_risk":7,"frizz_risk":1,"updated_at":"2026-03-30T08:17:14.752910+05:30"},{"city":"Chennai","state":"Tamil Nadu","latitude":13.0827,"longitude":80.2707,"temp":28.8,"humidity":78,"rain":0.0,"pressure":1008.9,"uv_index":9.3,"wind_gusts":32.8,"aqi":57,"pm10":18.5,"pm2_5":13.3,"mosquito_risk":7,"arthritis_risk":0,"migraine_risk":4,"frizz_risk":1,"updated_at":"2026-03-30T08:17:14.752919+05:30"},{"city":"Kolkata","state":"West Bengal","latitude":22.5726,"longitude":88.3639,"temp":27.3,"humidity":87,"rain":0.0,"pressure":1008.2,"uv_index":8.5,"wind_gusts":26.6,"aqi":118,"pm10":40.0,"pm2_5":32.9,"mosquito_risk":7,"arthritis_risk":0,"migraine_risk":4,"frizz_risk":1,"updated_at":"2026-03-30T08:17:14.752928+05:30"},{"city":"Pune","state":"Maharashtra","latitude":18.5204,"longitude":73.8567,"temp":23.8,"humidity":90,"rain":0.0,"pressure":948.9,"uv_index":8.55,"wind_gusts":41.0,"aqi":72,"pm10":48.3,"pm2_5":40.6,"mosquito_risk":3,"arthritis_risk":5,"migraine_risk":7,"frizz_risk":1,"updated_at":"2026-03-30T08:17:14.752939+05:30"},{"city":"Ahmedabad","state":"Gujarat","latitude":23.0225,"longitude":72.5714,"temp":26.4,"humidity":77,"rain":0.0,"pressure":1003.3,"uv_index":8.0,"wind_gusts":25.9,"aqi":54,"pm10":32.6,"pm2_5":15.5,"mosquito_risk":7,"arthritis_risk":5,"migraine_risk":4,"frizz_risk":1,"updated_at":"2026-03-30T08:17:14.752946+05:30"},{"city":"Jaipur","state":"Rajasthan","latitude":26.9124,"longitude":75.7873,"temp":25.3,"humidity":60,"rain":0.0,"pressure":960.6,"uv_index":5.2,"wind_gusts":43.6,"aqi":107,"pm10":226.8,"pm2_5":34.8,"mosquito_risk":4,"arthritis_risk":5,"migraine_risk":3,"frizz_risk":1,"updated_at":"2026-03-30T08:17:14.752954+05:30"},{"city":"Lucknow","state":"Uttar Pradesh","latitude":26.8467,"longitude":80.9462,"temp":24.5,"humidity":64,"rain":0.0,"pressure":994.8,"uv_index":7.3,"wind_gusts":20.2,"aqi":110,"pm10":76.6,"pm2_5":52.3,"mosquito_risk":3,"arthritis_risk":5,"migraine_risk":7,"frizz_risk":1,"updated_at":"2026-03-30T08:17:14.752961+05:30"},{"city":"Kanpur","state":"Uttar Pradesh","latitude":26.4499,"longitude":80.3319,"temp":24.7,"humidity":64,"rain":0.0,"pressure":992.9,"uv_index":7.3,"wind_gusts":27.7,"aqi":98,"pm10":61.2,"pm2_5":37.3,"mosquito_risk":3,"arthritis_risk":5,"migraine_risk":7,"frizz_risk":1,"updated_at":"2026-03-30T08:17:14.752968+05:30"},{"city":"Chandigarh","state":"Chandigarh","latitude":30.7333,"longitude":76.7794,"temp":22.6,"humidity":72,"rain":0.0,"pressure":968.8,"uv_index":5.85,"wind_gusts":28.4,"aqi":81,"pm10":24.3,"pm2_5":16.7,"mosquito_risk":3,"arthritis_risk":5,"migraine_risk":3,"frizz_risk":1,"updated_at":"2026-03-30T08:17:14.752976+05:30"},{"city":"Srinagar","state":"Jammu and Kashmir","latitude":34.0837,"longitude":74.7973,"temp":10.8,"humidity":88,"rain":0.0,"pressure":839.8,"uv_index":6.25,"wind_gusts":29.9,"aqi":77,"pm10":32.8,"pm2_5":29.0,"mosquito_risk":3,"arthritis_risk":10,"migraine_risk":7,"frizz_risk":0,"updated_at":"2026-03-30T08:17:14.752983+05:30"},{"city":"Jammu","state":"Jammu and Kashmir","latitude":32.7266,"longitude":74.857,"temp":20.4,"humidity":79,"rain":0.0,"pressure":973.7,"uv_index":5.45,"wind_gusts":40.0,"aqi":76,"pm10":23.7,"pm2_5":16.2,"mosquito_risk":3,"arthritis_risk":5,"migraine_risk":3,"frizz_risk":1,"updated_at":"2026-03-30T08:17:14.752991+05:30"},{"city":"Amritsar","state":"Punjab","latitude":31.634,"longitude":74.8723,"temp":21.4,"humidity":81,"rain":0.0,"pressure":980.9,"uv_index":5.05,"wind_gusts":36.4,"aqi":93,"pm10":30.9,"pm2_5":25.6,"mosquito_risk":3,"arthritis_risk":5,"migraine_risk":3,"frizz_risk":1,"updated_at":"2026-03-30T08:17:14.752997+05:30"},{"city":"Ludhiana","state":"Punjab","latitude":30.901,"longitude":75.8573,"temp":22.9,"humidity":78,"rain":0.0,"pressure":978.8,"uv_index":5.5,"wind_gusts":37.4,"aqi":129,"pm10":104.5,"pm2_5":52.6,"mosquito_risk":3,"arthritis_risk":5,"migraine_risk":3,"frizz_risk":1,"updated_at":"2026-03-30T08:17:14.753004+05:30"},{"city":"Jalandhar","state":"Punjab","latitude":31.326,"longitude":75.5762,"temp":21.2,"humidity":79,"rain":0.0,"pressure":980.0,"uv_index":4.9,"wind_gusts":37.8,"aqi":108,"pm10":61.7,"pm2_5":35.5,"mosquito_risk":3,"arthritis_risk":5,"migraine_risk":3,"frizz_risk":1,"updated_at":"2026-03-30T08:17:14.753013+05:30"},{"city":"Dehradun","state":"Uttarakhand","latitude":30.6284,"longitude":78.0322,"temp":16.2,"humidity":56,"rain":0.0,"pressure":831.1,"uv_index":6.95,"wind_gusts":35.3,"aqi":47,"pm10":3.6,"pm2_5":2.8,"mosquito_risk":0,"arthritis_risk":5,"migraine_risk":7,"frizz_risk":0,"updated_at":"2026-03-30T08:17:14.753020+05:30"},{"city":"Shimla","state":"Himachal Pradesh","latitude":31.1048,"longitude":77.1734,"temp":14.9,"humidity":60,"rain":0.0,"pressure":785.0,"uv_index":6.45,"wind_gusts":27.0,"aqi":58,"pm10":9.8,"pm2_5":8.7,"mosquito_risk":0,"arthritis_risk":5,"migraine_risk":7,"frizz_risk":0,"updated_at":"2026-03-30T08:17:14.753026+05:30"},{"city":"Manali","state":"Himachal Pradesh","latitude":32.2396,"longitude":77.1887,"temp":16.6,"humidity":43,"rain":0.0,"pressure":820.0,"uv_index":8.15,"wind_gusts":33.5,"aqi":42,"pm10":4.7,"pm2_5":2.2,"mosquito_risk":0,"arthritis_risk":5,"migraine_risk":7,"frizz_risk":0,"updated_at":"2026-03-30T08:17:14.753035+05:30"},{"city":"Gurgaon","state":"Haryana","latitude":28.4595,"longitude":77.0266,"temp":24.0,"humidity":75,"rain":0.0,"pressure":981.4,"uv_index":6.05,"wind_gusts":41.8,"aqi":902,"pm10":495.5,"pm2_5":133.6,"mosquito_risk":3,"arthritis_risk":5,"migraine_risk":7,"frizz_risk":1,"updated_at":"2026-03-30T08:17:14.753042+05:30"},{"city":"Noida","state":"Uttar Pradesh","latitude":28.5355,"longitude":77.391,"temp":24.2,"humidity":71,"rain":0.0,"pressure":985.0,"uv_index":6.2,"wind_gusts":39.2,"aqi":902,"pm10":495.5,"pm2_5":133.6,"mosquito_risk":3,"arthritis_risk":5,"migraine_risk":7,"frizz_risk":1,"updated_at":"2026-03-30T08:17:14.753048+05:30"},{"city":"Ghaziabad","state":"Uttar Pradesh","latitude":28.6692,"longitude":77.4538,"temp":24.3,"humidity":72,"rain":0.0,"pressure":983.1,"uv_index":5.15,"wind_gusts":34.2,"aqi":148,"pm10":125.3,"pm2_5":68.7,"mosquito_risk":3,"arthritis_risk":5,"migraine_risk":3,"frizz_risk":1,"updated_at":"2026-03-30T08:17:14.753055+05:30"},{"city":"Faridabad","state":"Haryana","latitude":28.4089,"longitude":77.3178,"temp":23.9,"humidity":73,"rain":0.0,"pressure":984.2,"uv_index":6.0,"wind_gusts":41.0,"aqi":902,"pm10":495.5,"pm2_5":133.6,"mosquito_risk":3,"arthritis_risk":5,"migraine_risk":3,"frizz_risk":1,"updated_at":"2026-03-30T08:17:14.753061+05:30"},{"city":"Meerut","state":"Uttar Pradesh","latitude":28.9845,"longitude":77.7064,"temp":24.7,"humidity":68,"rain":0.0,"pressure":982.1,"uv_index":6.2,"wind_gusts":30.6,"aqi":148,"pm10":125.3,"pm2_5":68.7,"mosquito_risk":3,"arthritis_risk":5,"migraine_risk":7,"frizz_risk":1,"updated_at":"2026-03-30T08:17:14.753067+05:30"},{"city":"Agra","state":"Uttar Pradesh","latitude":27.1767,"longitude":78.0081,"temp":26.4,"humidity":54,"rain":0.0,"pressure":988.5,"uv_index":6.45,"wind_gusts":43.9,"aqi":200,"pm10":280.3,"pm2_5":48.2,"mosquito_risk":4,"arthritis_risk":5,"migraine_risk":7,"frizz_risk":1,"updated_at":"2026-03-30T08:17:14.753073+05:30"},{"city":"Varanasi","state":"Uttar Pradesh","latitude":25.3176,"longitude":82.9739,"temp":26.6,"humidity":69,"rain":0.0,"pressure":998.5,"uv_index":7.95,"wind_gusts":24.8,"aqi":100,"pm10":67.1,"pm2_5":46.9,"mosquito_risk":7,"arthritis_risk":5,"migraine_risk":7,"frizz_risk":1,"updated_at":"2026-03-30T08:17:14.753082+05:30"},{"city":"Prayagraj","state":"Uttar Pradesh","latitude":25.4358,"longitude":81.8463,"temp":26.3,"humidity":63,"rain":0.0,"pressure":996.6,"uv_index":7.85,"wind_gusts":20.2,"aqi":97,"pm10":71.9,"pm2_5":55.1,"mosquito_risk":7,"arthritis_risk":5,"migraine_risk":7,"frizz_risk":1,"updated_at":"2026-03-30T08:17:14.753089+05:30"},{"city":"Gorakhpur","state":"Uttar Pradesh","latitude":26.7606,"longitude":83.3732,"temp":24.2,"humidity":76,"rain":0.0,"pressure":999.6,"uv_index":7.7,"wind_gusts":27.7,"aqi":138,"pm10":82.0,"pm2_5":70.1,"mosquito_risk":3,"arthritis_risk":5,"migraine_risk":7,"frizz_risk":1,"updated_at":"2026-03-30T08:17:14.753096+05:30"},{"city":"Bareilly","state":"Uttar Pradesh","latitude":28.367,"longitude":79.4304,"temp":25.1,"humidity":71,"rain":0.0,"pressure":988.0,"uv_index":6.55,"wind_gusts":23.4,"aqi":100,"pm10":71.7,"pm2_5":48.1,"mosquito_risk":7,"arthritis_risk":5,"migraine_risk":7,"frizz_risk":1,"updated_at":"2026-03-30T08:17:14.753105+05:30"},{"city":"Aligarh","state":"Uttar Pradesh","latitude":27.8974,"longitude":78.088,"temp":24.9,"humidity":68,"rain":0.0,"pressure":986.1,"uv_index":6.3,"wind_gusts":36.0,"aqi":279,"pm10":352.0,"pm2_5":98.3,"mosquito_risk":3,"arthritis_risk":5,"migraine_risk":7,"frizz_risk":1,"updated_at":"2026-03-30T08:17:14.753112+05:30"},{"city":"Moradabad","state":"Uttar Pradesh","latitude":28.8386,"longitude":78.7733,"temp":24.0,"humidity":75,"rain":0.0,"pressure":984.7,"uv_index":6.8,"wind_gusts":24.8,"aqi":133,"pm10":78.2,"pm2_5":54.7,"mosquito_risk":3,"arthritis_risk":5,"migraine_risk":7,"frizz_risk":1,"updated_at":"2026-03-30T08:17:14.753118+05:30"},{"city":"Saharanpur","state":"Uttar Pradesh","latitude":29.9637,"longitude":77.546,"temp":23.3,"humidity":66,"rain":0.0,"pressure":976.1,"uv_index":6.4,"wind_gusts":25.6,"aqi":86,"pm10":30.3,"pm2_5":25.6,"mosquito_risk":3,"arthritis_risk":5,"migraine_risk":7,"frizz_risk":1,"updated_at":"2026-03-30T08:17:14.753124+05:30"},{"city":"Jhansi","state":"Uttar Pradesh","latitude":25.4484,"longitude":78.5685,"temp":29.7,"humidity":37,"rain":0.0,"pressure":978.4,"uv_index":7.15,"wind_gusts":37.1,"aqi":52,"pm10":26.6,"pm2_5":8.2,"mosquito_risk":4,"arthritis_risk":5,"migraine_risk":7,"frizz_risk":0,"updated_at":"2026-03-30T08:17:18.091311+05:30"},{"city":"Surat","state":"Gujarat","latitude":21.1702,"longitude":72.8311,"temp":27.0,"humidity":90,"rain":0.0,"pressure":1007.3,"uv_index":7.8,"wind_gusts":26.3,"aqi":86,"pm10":59.6,"pm2_5":53.2,"mosquito_risk":7,"arthritis_risk":5,"migraine_risk":4,"frizz_risk":1,"updated_at":"2026-03-30T08:17:18.091344+05:30"},{"city":"Vadodara","state":"Gujarat","latitude":22.3072,"longitude":73.1812,"temp":27.7,"humidity":71,"rain":0.0,"pressure":1005.2,"uv_index":8.0,"wind_gusts":25.6,"aqi":67,"pm10":48.0,"pm2_5":35.9,"mosquito_risk":7,"arthritis_risk":5,"migraine_risk":4,"frizz_risk":1,"updated_at":"2026-03-30T08:17:18.091357+05:30"},{"city":"Rajkot","state":"Gujarat","latitude":22.3039,"longitude":70.8022,"temp":25.3,"humidity":84,"rain":0.0,"pressure":995.4,"uv_index":7.75,"wind_gusts":36.4,"aqi":58,"pm10":65.4,"pm2_5":20.7,"mosquito_risk":7,"arthritis_risk":5,"migraine_risk":7,"frizz_risk":1,"updated_at":"2026-03-30T08:17:18.091366+05:30"},{"city":"Thane","state":"Maharashtra","latitude":19.2183,"longitude":72.9781,"temp":26.9,"humidity":78,"rain":0.0,"pressure":1008.2,"uv_index":8.0,"wind_gusts":36.4,"aqi":56,"pm10":35.9,"pm2_5":19.8,"mosquito_risk":7,"arthritis_risk":0,"migraine_risk":4,"frizz_risk":1,"updated_at":"2026-03-30T08:17:18.091375+05:30"},{"city":"Nagpur","state":"Maharashtra","latitude":21.1458,"longitude":79.0882,"temp":28.5,"humidity":51,"rain":0.0,"pressure":974.0,"uv_index":8.55,"wind_gusts":33.1,"aqi":62,"pm10":22.5,"pm2_5":19.6,"mosquito_risk":4,"arthritis_risk":5,"migraine_risk":7,"frizz_risk":1,"updated_at":"2026-03-30T08:17:18.091384+05:30"},{"city":"Nashik","state":"Maharashtra","latitude":19.9975,"longitude":73.7898,"temp":23.6,"humidity":69,"rain":0.0,"pressure":946.1,"uv_index":8.25,"wind_gusts":33.1,"aqi":38,"pm10":27.6,"pm2_5":19.3,"mosquito_risk":3,"arthritis_risk":5,"migraine_risk":7,"frizz_risk":1,"updated_at":"2026-03-30T08:17:18.091392+05:30"},{"city":"Aurangabad","state":"Maharashtra","latitude":19.8762,"longitude":75.3433,"temp":26.3,"humidity":59,"rain":0.0,"pressure":944.9,"uv_index":8.75,"wind_gusts":42.1,"aqi":43,"pm10":19.0,"pm2_5":16.9,"mosquito_risk":4,"arthritis_risk":5,"migraine_risk":7,"frizz_risk":1,"updated_at":"2026-03-30T08:17:18.091401+05:30"},{"city":"Solapur","state":"Maharashtra","latitude":17.6599,"longitude":75.9064,"temp":28.0,"humidity":54,"rain":0.0,"pressure":957.9,"uv_index":8.9,"wind_gusts":26.3,"aqi":58,"pm10":21.8,"pm2_5":20.6,"mosquito_risk":4,"arthritis_risk":5,"migraine_risk":7,"frizz_risk":1,"updated_at":"2026-03-30T08:17:18.091408+05:30"},{"city":"Kolhapur","state":"Maharashtra","latitude":16.705,"longitude":74.2433,"temp":23.7,"humidity":84,"rain":0.0,"pressure":948.1,"uv_index":7.75,"wind_gusts":47.9,"aqi":65,"pm10":35.3,"pm2_5":33.9,"mosquito_risk":3,"arthritis_risk":5,"migraine_risk":7,"frizz_risk":1,"updated_at":"2026-03-30T08:17:18.091416+05:30"},{"city":"Goa","state":"Goa","latitude":15.2993,"longitude":74.124,"temp":27.1,"humidity":80,"rain":0.0,"pressure":998.2,"uv_index":8.9,"wind_gusts":29.9,"aqi":56,"pm10":21.8,"pm2_5":17.5,"mosquito_risk":7,"arthritis_risk":5,"migraine_risk":7,"frizz_risk":1,"updated_at":"2026-03-30T08:17:18.091424+05:30"},{"city":"Jodhpur","state":"Rajasthan","latitude":26.2389,"longitude":73.0243,"temp":26.0,"humidity":57,"rain":0.0,"pressure":984.6,"uv_index":7.8,"wind_gusts":37.1,"aqi":134,"pm10":169.0,"pm2_5":29.2,"mosquito_risk":4,"arthritis_risk":5,"migraine_risk":7,"frizz_risk":1,"updated_at":"2026-03-30T08:17:18.091432+05:30"},{"city":"Udaipur","state":"Rajasthan","latitude":24.5854,"longitude":73.7125,"temp":24.7,"humidity":64,"rain":0.0,"pressure":947.4,"uv_index":8.1,"wind_gusts":40.0,"aqi":39,"pm10":33.5,"pm2_5":13.3,"mosquito_risk":3,"arthritis_risk":5,"migraine_risk":7,"frizz_risk":1,"updated_at":"2026-03-30T08:17:18.091439+05:30"},{"city":"Kota","state":"Rajasthan","latitude":25.2138,"longitude":75.8648,"temp":27.3,"humidity":53,"rain":0.0,"pressure":979.9,"uv_index":6.9,"wind_gusts":34.2,"aqi":31,"pm10":22.2,"pm2_5":12.3,"mosquito_risk":4,"arthritis_risk":5,"migraine_risk":7,"frizz_risk":1,"updated_at":"2026-03-30T08:17:18.091447+05:30"},{"city":"Bikaner","state":"Rajasthan","latitude":28.0229,"longitude":73.3119,"temp":26.5,"humidity":49,"rain":0.0,"pressure":982.2,"uv_index":5.15,"wind_gusts":51.5,"aqi":123,"pm10":244.0,"pm2_5":64.7,"mosquito_risk":4,"arthritis_risk":5,"migraine_risk":3,"frizz_risk":0,"updated_at":"2026-03-30T08:17:18.091456+05:30"},{"city":"Ajmer","state":"Rajasthan","latitude":26.4499,"longitude":74.6399,"temp":24.8,"humidity":66,"rain":0.0,"pressure":955.4,"uv_index":7.25,"wind_gusts":41.4,"aqi":47,"pm10":42.3,"pm2_5":14.4,"mosquito_risk":3,"arthritis_risk":5,"migraine_risk":7,"frizz_risk":1,"updated_at":"2026-03-30T08:17:18.091463+05:30"},{"city":"Gwalior","state":"Madhya Pradesh","latitude":26.2183,"longitude":78.1828,"temp":30.3,"humidity":31,"rain":0.0,"pressure":984.0,"uv_index":6.4,"wind_gusts":39.2,"aqi":55,"pm10":57.2,"pm2_5":14.6,"mosquito_risk":0,"arthritis_risk":5,"migraine_risk":7,"frizz_risk":0,"updated_at":"2026-03-30T08:17:18.091471+05:30"},{"city":"Indore","state":"Madhya Pradesh","latitude":22.7196,"longitude":75.8577,"temp":25.0,"humidity":66,"rain":0.0,"pressure":949.3,"uv_index":7.75,"wind_gusts":25.6,"aqi":45,"pm10":27.0,"pm2_5":17.2,"mosquito_risk":7,"arthritis_risk":5,"migraine_risk":7,"frizz_risk":1,"updated_at":"2026-03-30T08:17:18.091478+05:30"},{"city":"Bhopal","state":"Madhya Pradesh","latitude":23.2599,"longitude":77.4126,"temp":27.1,"humidity":51,"rain":0.0,"pressure":955.0,"uv_index":8.2,"wind_gusts":31.3,"aqi":30,"pm10":13.5,"pm2_5":10.0,"mosquito_risk":4,"arthritis_risk":5,"migraine_risk":7,"frizz_risk":1,"updated_at":"2026-03-30T08:17:18.091486+05:30"},{"city":"Jabalpur","state":"Madhya Pradesh","latitude":23.1815,"longitude":79.9864,"temp":27.7,"humidity":58,"rain":0.0,"pressure":962.2,"uv_index":8.35,"wind_gusts":35.3,"aqi":47,"pm10":23.7,"pm2_5":20.3,"mosquito_risk":4,"arthritis_risk":5,"migraine_risk":7,"frizz_risk":1,"updated_at":"2026-03-30T08:17:18.091518+05:30"},{"city":"Ujjain","state":"Madhya Pradesh","latitude":23.1765,"longitude":75.7885,"temp":25.0,"humidity":67,"rain":0.0,"pressure":955.2,"uv_index":7.75,"wind_gusts":23.4,"aqi":45,"pm10":27.0,"pm2_5":17.2,"mosquito_risk":7,"arthritis_risk":5,"migraine_risk":7,"frizz_risk":1,"updated_at":"2026-03-30T08:17:18.091529+05:30"},{"city":"Visakhapatnam","state":"Andhra Pradesh","latitude":17.6868,"longitude":83.2185,"temp":29.2,"humidity":74,"rain":0.0,"pressure":1005.7,"uv_index":9.0,"wind_gusts":38.9,"aqi":64,"pm10":24.8,"pm2_5":19.1,"mosquito_risk":7,"arthritis_risk":5,"migraine_risk":4,"frizz_risk":1,"updated_at":"2026-03-30T08:17:18.091537+05:30"},{"city":"Vijayawada","state":"Andhra Pradesh","latitude":16.5062,"longitude":80.648,"temp":28.5,"humidity":80,"rain":0.0,"pressure":1004.2,"uv_index":9.1,"wind_gusts":30.6,"aqi":80,"pm10":23.1,"pm2_5":17.5,"mosquito_risk":7,"arthritis_risk":5,"migraine_risk":4,"frizz_risk":1,"updated_at":"2026-03-30T08:17:18.091546+05:30"},{"city":"Guntur","state":"Andhra Pradesh","latitude":16.3067,"longitude":80.4365,"temp":28.4,"humidity":81,"rain":0.0,"pressure":1005.2,"uv_index":9.1,"wind_gusts":33.1,"aqi":90,"pm10":22.4,"pm2_5":17.6,"mosquito_risk":7,"arthritis_risk":5,"migraine_risk":4,"frizz_risk":1,"updated_at":"2026-03-30T08:17:18.091553+05:30"},{"city":"Nellore","state":"Andhra Pradesh","latitude":14.4426,"longitude":79.9865,"temp":28.2,"humidity":80,"rain":0.0,"pressure":1007.2,"uv_index":9.25,"wind_gusts":29.2,"aqi":70,"pm10":20.4,"pm2_5":16.9,"mosquito_risk":7,"arthritis_risk":5,"migraine_risk":4,"frizz_risk":1,"updated_at":"2026-03-30T08:17:18.091562+05:30"},{"city":"Kurnool","state":"Andhra Pradesh","latitude":15.8281,"longitude":78.0373,"temp":28.2,"humidity":63,"rain":0.0,"pressure":978.2,"uv_index":8.35,"wind_gusts":26.3,"aqi":104,"pm10":60.3,"pm2_5":52.3,"mosquito_risk":7,"arthritis_risk":5,"migraine_risk":7,"frizz_risk":1,"updated_at":"2026-03-30T08:17:18.091571+05:30"},{"city":"Kakinada","state":"Andhra Pradesh","latitude":16.9891,"longitude":82.2475,"temp":29.1,"humidity":78,"rain":0.0,"pressure":1009.5,"uv_index":9.05,"wind_gusts":30.6,"aqi":53,"pm10":20.8,"pm2_5":13.6,"mosquito_risk":7,"arthritis_risk":0,"migraine_risk":4,"frizz_risk":1,"updated_at":"2026-03-30T08:17:18.091579+05:30"},{"city":"Tirupati","state":"Andhra Pradesh","latitude":13.6288,"longitude":79.4192,"temp":27.0,"humidity":82,"rain":0.0,"pressure":993.5,"uv_index":9.35,"wind_gusts":32.0,"aqi":99,"pm10":30.3,"pm2_5":27.1,"mosquito_risk":7,"arthritis_risk":5,"migraine_risk":7,"frizz_risk":1,"updated_at":"2026-03-30T08:17:18.091587+05:30"},{"city":"Warangal","state":"Telangana","latitude":17.9689,"longitude":79.5941,"temp":27.0,"humidity":83,"rain":0.0,"pressure":980.0,"uv_index":8.9,"wind_gusts":30.6,"aqi":108,"pm10":49.1,"pm2_5":46.3,"mosquito_risk":7,"arthritis_risk":5,"migraine_risk":7,"frizz_risk":1,"updated_at":"2026-03-30T08:17:18.091595+05:30"},{"city":"Nizamabad","state":"Telangana","latitude":18.6725,"longitude":78.0941,"temp":29.8,"humidity":53,"rain":0.0,"pressure":966.1,"uv_index":8.85,"wind_gusts":41.0,"aqi":86,"pm10":49.1,"pm2_5":47.8,"mosquito_risk":4,"arthritis_risk":5,"migraine_risk":7,"frizz_risk":1,"updated_at":"2026-03-30T08:17:18.091603+05:30"},{"city":"Mysore","state":"Karnataka","latitude":12.2958,"longitude":76.6396,"temp":23.1,"humidity":86,"rain":0.0,"pressure":929.4,"uv_index":8.9,"wind_gusts":21.6,"aqi":135,"pm10":61.7,"pm2_5":55.2,"mosquito_risk":3,"arthritis_risk":5,"migraine_risk":7,"frizz_risk":1,"updated_at":"2026-03-30T08:17:18.091611+05:30"},{"city":"Mangalore","state":"Karnataka","latitude":12.9141,"longitude":74.856,"temp":29.0,"humidity":79,"rain":0.0,"pressure":1007.3,"uv_index":9.05,"wind_gusts":23.0,"aqi":71,"pm10":30.6,"pm2_5":25.0,"mosquito_risk":7,"arthritis_risk":5,"migraine_risk":4,"frizz_risk":1,"updated_at":"2026-03-30T08:17:18.091619+05:30"},{"city":"Hubli-Dharwad","state":"Karnataka","latitude":15.3647,"longitude":75.124,"temp":25.2,"humidity":75,"rain":0.0,"pressure":941.7,"uv_index":9.15,"wind_gusts":32.0,"aqi":61,"pm10":32.2,"pm2_5":26.6,"mosquito_risk":7,"arthritis_risk":5,"migraine_risk":7,"frizz_risk":1,"updated_at":"2026-03-30T08:17:18.091627+05:30"},{"city":"Belgaum","state":"Karnataka","latitude":15.8497,"longitude":74.4977,"temp":24.0,"humidity":67,"rain":0.0,"pressure":925.8,"uv_index":9.2,"wind_gusts":31.0,"aqi":51,"pm10":19.5,"pm2_5":18.4,"mosquito_risk":3,"arthritis_risk":5,"migraine_risk":7,"frizz_risk":1,"updated_at":"2026-03-30T08:17:21.435098+05:30"},{"city":"Coimbatore","state":"Tamil Nadu","latitude":11.0168,"longitude":76.9558,"temp":26.6,"humidity":73,"rain":0.0,"pressure":963.3,"uv_index":9.45,"wind_gusts":30.6,"aqi":100,"pm10":33.3,"pm2_5":30.4,"mosquito_risk":7,"arthritis_risk":5,"migraine_risk":7,"frizz_risk":1,"updated_at":"2026-03-30T08:17:21.435127+05:30"},{"city":"Madurai","state":"Tamil Nadu","latitude":9.9252,"longitude":78.1198,"temp":27.3,"humidity":78,"rain":0.0,"pressure":994.8,"uv_index":9.4,"wind_gusts":34.2,"aqi":79,"pm10":47.3,"pm2_5":46.1,"mosquito_risk":7,"arthritis_risk":5,"migraine_risk":7,"frizz_risk":1,"updated_at":"2026-03-30T08:17:21.435137+05:30"},{"city":"Trichy","state":"Tamil Nadu","latitude":10.7905,"longitude":78.7047,"temp":28.2,"humidity":81,"rain":0.0,"pressure":1001.6,"uv_index":9.35,"wind_gusts":24.1,"aqi":75,"pm10":23.5,"pm2_5":20.0,"mosquito_risk":7,"arthritis_risk":5,"migraine_risk":4,"frizz_risk":1,"updated_at":"2026-03-30T08:17:21.435145+05:30"},{"city":"Salem","state":"Tamil Nadu","latitude":11.6643,"longitude":78.146,"temp":27.8,"humidity":73,"rain":0.0,"pressure":979.0,"uv_index":9.4,"wind_gusts":22.0,"aqi":90,"pm10":29.1,"pm2_5":26.1,"mosquito_risk":7,"arthritis_risk":5,"migraine_risk":7,"frizz_risk":1,"updated_at":"2026-03-30T08:17:21.435152+05:30"},{"city":"Tirunelveli","state":"Tamil Nadu","latitude":8.7139,"longitude":77.7567,"temp":28.3,"humidity":71,"rain":0.0,"pressure":1004.8,"uv_index":9.4,"wind_gusts":47.9,"aqi":79,"pm10":41.0,"pm2_5":39.0,"mosquito_risk":7,"arthritis_risk":5,"migraine_risk":4,"frizz_risk":1,"updated_at":"2026-03-30T08:17:21.435159+05:30"},{"city":"Vellore","state":"Tamil Nadu","latitude":12.9165,"longitude":79.1325,"temp":27.0,"humidity":77,"rain":0.0,"pressure":986.5,"uv_index":8.6,"wind_gusts":32.0,"aqi":103,"pm10":46.1,"pm2_5":43.4,"mosquito_risk":7,"arthritis_risk":5,"migraine_risk":7,"frizz_risk":1,"updated_at":"2026-03-30T08:17:21.435166+05:30"},{"city":"Erode","state":"Tamil Nadu","latitude":11.341,"longitude":77.7172,"temp":27.9,"humidity":79,"rain":0.0,"pressure":990.8,"uv_index":9.4,"wind_gusts":23.8,"aqi":83,"pm10":25.1,"pm2_5":22.9,"mosquito_risk":7,"arthritis_risk":5,"migraine_risk":7,"frizz_risk":1,"updated_at":"2026-03-30T08:17:21.435173+05:30"},{"city":"Kochi","state":"Kerala","latitude":9.9312,"longitude":76.2673,"temp":28.5,"humidity":81,"rain":0.0,"pressure":1009.2,"uv_index":9.2,"wind_gusts":26.3,"aqi":94,"pm10":39.5,"pm2_5":36.4,"mosquito_risk":7,"arthritis_risk":0,"migraine_risk":4,"frizz_risk":1,"updated_at":"2026-03-30T08:17:21.435180+05:30"},{"city":"Thiruvananthapuram","state":"Kerala","latitude":8.5241,"longitude":76.9366,"temp":28.2,"humidity":81,"rain":0.0,"pressure":1008.5,"uv_index":9.25,"wind_gusts":26.3,"aqi":73,"pm10":31.5,"pm2_5":26.0,"mosquito_risk":7,"arthritis_risk":0,"migraine_risk":4,"frizz_risk":1,"updated_at":"2026-03-30T08:17:21.435187+05:30"},{"city":"Kozhikode","state":"Kerala","latitude":11.2588,"longitude":75.7804,"temp":27.1,"humidity":87,"rain":0.0,"pressure":1008.8,"uv_index":6.6,"wind_gusts":22.3,"aqi":94,"pm10":54.5,"pm2_5":47.3,"mosquito_risk":7,"arthritis_risk":0,"migraine_risk":4,"frizz_risk":1,"updated_at":"2026-03-30T08:17:21.435194+05:30"},{"city":"Thrissur","state":"Kerala","latitude":10.5276,"longitude":76.2144,"temp":28.2,"humidity":81,"rain":0.0,"pressure":1007.8,"uv_index":9.15,"wind_gusts":27.7,"aqi":98,"pm10":42.0,"pm2_5":37.6,"mosquito_risk":7,"arthritis_risk":5,"migraine_risk":4,"frizz_risk":1,"updated_at":"2026-03-30T08:17:21.435202+05:30"},{"city":"Kannur","state":"Kerala","latitude":11.8745,"longitude":75.3704,"temp":27.5,"humidity":83,"rain":0.0,"pressure":1007.8,"uv_index":7.9,"wind_gusts":20.5,"aqi":108,"pm10":47.0,"pm2_5":43.4,"mosquito_risk":7,"arthritis_risk":5,"migraine_risk":4,"frizz_risk":1,"updated_at":"2026-03-30T08:17:21.435209+05:30"},{"city":"Patna","state":"Bihar","latitude":25.5941,"longitude":85.1376,"temp":25.1,"humidity":81,"rain":0.0,"pressure":1002.7,"uv_index":8.1,"wind_gusts":33.5,"aqi":150,"pm10":86.4,"pm2_5":79.4,"mosquito_risk":7,"arthritis_risk":5,"migraine_risk":4,"frizz_risk":1,"updated_at":"2026-03-30T08:17:21.435216+05:30"},{"city":"Gaya","state":"Bihar","latitude":24.7914,"longitude":85.0002,"temp":26.1,"humidity":79,"rain":0.0,"pressure":995.3,"uv_index":8.2,"wind_gusts":24.5,"aqi":113,"pm10":66.1,"pm2_5":61.0,"mosquito_risk":7,"arthritis_risk":5,"migraine_risk":7,"frizz_risk":1,"updated_at":"2026-03-30T08:17:21.435222+05:30"},{"city":"Muzaffarpur","state":"Bihar","latitude":26.1209,"longitude":85.3647,"temp":23.5,"humidity":81,"rain":0.0,"pressure":1003.3,"uv_index":8.1,"wind_gusts":35.6,"aqi":152,"pm10":85.7,"pm2_5":77.8,"mosquito_risk":3,"arthritis_risk":5,"migraine_risk":4,"frizz_risk":1,"updated_at":"2026-03-30T08:17:21.435229+05:30"},{"city":"Bhagalpur","state":"Bihar","latitude":25.2425,"longitude":87.0117,"temp":23.3,"humidity":86,"rain":0.0,"pressure":1004.3,"uv_index":8.1,"wind_gusts":22.3,"aqi":155,"pm10":82.7,"pm2_5":73.6,"mosquito_risk":3,"arthritis_risk":5,"migraine_risk":4,"frizz_risk":1,"updated_at":"2026-03-30T08:17:21.435236+05:30"},{"city":"Ranchi","state":"Jharkhand","latitude":23.3441,"longitude":85.3096,"temp":25.2,"humidity":83,"rain":0.0,"pressure":939.5,"uv_index":8.7,"wind_gusts":28.8,"aqi":94,"pm10":83.4,"pm2_5":72.4,"mosquito_risk":7,"arthritis_risk":5,"migraine_risk":7,"frizz_risk":1,"updated_at":"2026-03-30T08:17:21.435243+05:30"},{"city":"Jamshedpur","state":"Jharkhand","latitude":22.8046,"longitude":86.2029,"temp":27.1,"humidity":81,"rain":0.0,"pressure":992.8,"uv_index":8.6,"wind_gusts":28.1,"aqi":131,"pm10":59.3,"pm2_5":50.8,"mosquito_risk":7,"arthritis_risk":5,"migraine_risk":7,"frizz_risk":1,"updated_at":"2026-03-30T08:17:21.435249+05:30"},{"city":"Dhanbad","state":"Jharkhand","latitude":23.7957,"longitude":86.4304,"temp":26.2,"humidity":75,"rain":0.0,"pressure":982.0,"uv_index":8.55,"wind_gusts":23.4,"aqi":162,"pm10":113.6,"pm2_5":106.9,"mosquito_risk":7,"arthritis_risk":5,"migraine_risk":7,"frizz_risk":1,"updated_at":"2026-03-30T08:17:21.435256+05:30"},{"city":"Bokaro","state":"Jharkhand","latitude":23.6693,"longitude":86.1511,"temp":25.9,"humidity":79,"rain":0.0,"pressure":985.9,"uv_index":8.55,"wind_gusts":28.4,"aqi":157,"pm10":116.6,"pm2_5":108.7,"mosquito_risk":7,"arthritis_risk":5,"migraine_risk":7,"frizz_risk":1,"updated_at":"2026-03-30T08:17:21.435263+05:30"},{"city":"Bhubaneswar","state":"Odisha","latitude":20.2961,"longitude":85.8245,"temp":28.5,"humidity":78,"rain":0.0,"pressure":1004.5,"uv_index":8.8,"wind_gusts":38.2,"aqi":75,"pm10":23.5,"pm2_5":17.9,"mosquito_risk":7,"arthritis_risk":5,"migraine_risk":4,"frizz_risk":1,"updated_at":"2026-03-30T08:17:21.435269+05:30"},{"city":"Cuttack","state":"Odisha","latitude":20.4625,"longitude":85.8828,"temp":28.2,"humidity":79,"rain":0.0,"pressure":1006.5,"uv_index":8.85,"wind_gusts":34.2,"aqi":75,"pm10":23.5,"pm2_5":17.9,"mosquito_risk":7,"arthritis_risk":5,"migraine_risk":4,"frizz_risk":1,"updated_at":"2026-03-30T08:17:21.435275+05:30"},{"city":"Rourkela","state":"Odisha","latitude":22.2604,"longitude":84.8536,"temp":29.5,"humidity":68,"rain":0.0,"pressure":986.2,"uv_index":8.5,"wind_gusts":37.1,"aqi":118,"pm10":48.4,"pm2_5":41.1,"mosquito_risk":7,"arthritis_risk":5,"migraine_risk":7,"frizz_risk":1,"updated_at":"2026-03-30T08:17:21.435282+05:30"},{"city":"Raipur","state":"Chhattisgarh","latitude":21.2514,"longitude":81.6296,"temp":29.4,"humidity":43,"rain":0.0,"pressure":975.3,"uv_index":8.6,"wind_gusts":25.2,"aqi":101,"pm10":49.0,"pm2_5":42.0,"mosquito_risk":4,"arthritis_risk":5,"migraine_risk":7,"frizz_risk":0,"updated_at":"2026-03-30T08:17:21.435288+05:30"},{"city":"Bhilai","state":"Chhattisgarh","latitude":21.1938,"longitude":81.3509,"temp":27.9,"humidity":55,"rain":0.0,"pressure":975.3,"uv_index":8.65,"wind_gusts":22.0,"aqi":75,"pm10":36.3,"pm2_5":31.0,"mosquito_risk":4,"arthritis_risk":5,"migraine_risk":7,"frizz_risk":1,"updated_at":"2026-03-30T08:17:21.435295+05:30"},{"city":"Guwahati","state":"Assam","latitude":26.1158,"longitude":91.7086,"temp":21.8,"humidity":90,"rain":0.0,"pressure":1006.0,"uv_index":7.55,"wind_gusts":19.4,"aqi":92,"pm10":47.5,"pm2_5":37.1,"mosquito_risk":3,"arthritis_risk":5,"migraine_risk":4,"frizz_risk":1,"updated_at":"2026-03-30T08:17:21.435301+05:30"},{"city":"Agartala","state":"Tripura","latitude":23.8315,"longitude":91.2868,"temp":25.9,"humidity":81,"rain":0.0,"pressure":1009.2,"uv_index":8.25,"wind_gusts":30.2,"aqi":144,"pm10":47.3,"pm2_5":40.7,"mosquito_risk":7,"arthritis_risk":0,"migraine_risk":4,"frizz_risk":1,"updated_at":"2026-03-30T08:17:21.435307+05:30"},{"city":"Shillong","state":"Meghalaya","latitude":25.5788,"longitude":91.8933,"temp":15.2,"humidity":74,"rain":0.0,"pressure":857.7,"uv_index":6.6,"wind_gusts":40.7,"aqi":87,"pm10":59.1,"pm2_5":41.3,"mosquito_risk":3,"arthritis_risk":5,"migraine_risk":7,"frizz_risk":0,"updated_at":"2026-03-30T08:17:21.435314+05:30"},{"city":"Imphal","state":"Manipur","latitude":24.817,"longitude":93.9368,"temp":18.6,"humidity":83,"rain":0.0,"pressure":925.5,"uv_index":7.95,"wind_gusts":62.6,"aqi":154,"pm10":85.9,"pm2_5":66.6,"mosquito_risk":3,"arthritis_risk":10,"migraine_risk":7,"frizz_risk":0,"updated_at":"2026-03-30T08:17:21.435321+05:30"},{"city":"Aizawl","state":"Mizoram","latitude":23.7271,"longitude":92.7176,"temp":20.5,"humidity":81,"rain":0.0,"pressure":895.3,"uv_index":8.45,"wind_gusts":58.3,"aqi":151,"pm10":59.1,"pm2_5":49.2,"mosquito_risk":3,"arthritis_risk":5,"migraine_risk":7,"frizz_risk":1,"updated_at":"2026-03-30T08:17:21.435328+05:30"},{"city":"Kohima","state":"Nagaland","latitude":25.6701,"longitude":94.1077,"temp":16.2,"humidity":76,"rain":0.0,"pressure":856.8,"uv_index":8.5,"wind_gusts":76.3,"aqi":131,"pm10":68.2,"pm2_5":49.9,"mosquito_risk":3,"arthritis_risk":5,"migraine_risk":7,"frizz_risk":0,"updated_at":"2026-03-30T08:17:21.435334+05:30"},{"city":"Gangtok","state":"Sikkim","latitude":27.3314,"longitude":88.6138,"temp":14.7,"humidity":86,"rain":0.0,"pressure":838.6,"uv_index":8.25,"wind_gusts":18.0,"aqi":89,"pm10":46.1,"pm2_5":36.1,"mosquito_risk":3,"arthritis_risk":10,"migraine_risk":7,"frizz_risk":0,"updated_at":"2026-03-30T08:17:21.435340+05:30"},{"city":"Siliguri","state":"West Bengal","latitude":26.7271,"longitude":88.3953,"temp":19.9,"humidity":80,"rain":0.0,"pressure":997.8,"uv_index":7.7,"wind_gusts":17.3,"aqi":152,"pm10":109.9,"pm2_5":78.9,"mosquito_risk":3,"arthritis_risk":5,"migraine_risk":7,"frizz_risk":1,"updated_at":"2026-03-30T08:17:24.783154+05:30"},{"city":"Durgapur","state":"West Bengal","latitude":23.5204,"longitude":87.3119,"temp":26.2,"humidity":83,"rain":0.0,"pressure":997.3,"uv_index":8.5,"wind_gusts":23.8,"aqi":162,"pm10":85.9,"pm2_5":80.8,"mosquito_risk":7,"arthritis_risk":5,"migraine_risk":7,"frizz_risk":1,"updated_at":"2026-03-30T08:17:24.783186+05:30"},{"city":"Asansol","state":"West Bengal","latitude":23.6739,"longitude":86.9524,"temp":26.5,"humidity":80,"rain":0.0,"pressure":995.9,"uv_index":8.5,"wind_gusts":24.1,"aqi":159,"pm10":91.0,"pm2_5":85.2,"mosquito_risk":7,"arthritis_risk":5,"migraine_risk":7,"frizz_risk":1,"updated_at":"2026-03-30T08:17:24.783199+05:30"},{"city":"Pondicherry","state":"Puducherry","latitude":11.9139,"longitude":79.8145,"temp":28.0,"humidity":83,"rain":0.0,"pressure":1010.5,"uv_index":9.25,"wind_gusts":28.4,"aqi":54,"pm10":17.9,"pm2_5":13.2,"mosquito_risk":7,"arthritis_risk":0,"migraine_risk":4,"frizz_risk":1,"updated_at":"2026-03-30T08:17:24.783209+05:30"},{"city":"Port Blair","state":"Andaman and Nicobar Islands","latitude":11.6234,"longitude":92.7265,"temp":28.7,"humidity":74,"rain":0.0,"pressure":1008.6,"uv_index":9.2,"wind_gusts":15.1,"aqi":70,"pm10":28.5,"pm2_5":23.1,"mosquito_risk":7,"arthritis_risk":0,"migraine_risk":4,"frizz_risk":1,"updated_at":"2026-03-30T08:17:24.783219+05:30"},{"city":"Haridwar","state":"Uttarakhand","latitude":29.9457,"longitude":78.1642,"temp":25.5,"humidity":58,"rain":0.0,"pressure":975.1,"uv_index":6.0,"wind_gusts":32.0,"aqi":74,"pm10":23.6,"pm2_5":17.8,"mosquito_risk":4,"arthritis_risk":5,"migraine_risk":3,"frizz_risk":1,"updated_at":"2026-03-30T08:17:24.783228+05:30"},{"city":"Rishikesh","state":"Uttarakhand","latitude":30.0869,"longitude":78.2676,"temp":25.3,"humidity":59,"rain":0.0,"pressure":968.2,"uv_index":5.9,"wind_gusts":29.5,"aqi":65,"pm10":26.5,"pm2_5":17.9,"mosquito_risk":4,"arthritis_risk":5,"migraine_risk":3,"frizz_risk":1,"updated_at":"2026-03-30T08:17:24.783237+05:30"},{"city":"Nainital","state":"Uttarakhand","latitude":29.3919,"longitude":79.4542,"temp":21.2,"humidity":45,"rain":0.0,"pressure":808.4,"uv_index":7.4,"wind_gusts":47.9,"aqi":71,"pm10":34.6,"pm2_5":17.1,"mosquito_risk":0,"arthritis_risk":5,"migraine_risk":7,"frizz_risk":0,"updated_at":"2026-03-30T08:17:24.783246+05:30"},{"city":"Mussoorie","state":"Uttarakhand","latitude":30.4599,"longitude":78.0664,"temp":18.5,"humidity":54,"rain":0.0,"pressure":804.1,"uv_index":6.95,"wind_gusts":41.0,"aqi":68,"pm10":14.7,"pm2_5":12.0,"mosquito_risk":0,"arthritis_risk":5,"migraine_risk":7,"frizz_risk":0,"updated_at":"2026-03-30T08:17:24.783254+05:30"},{"city":"Dharamshala","state":"Himachal Pradesh","latitude":32.219,"longitude":76.3234,"temp":19.9,"humidity":55,"rain":0.0,"pressure":869.2,"uv_index":5.2,"wind_gusts":35.3,"aqi":31,"pm10":4.1,"pm2_5":3.3,"mosquito_risk":0,"arthritis_risk":5,"migraine_risk":3,"frizz_risk":0,"updated_at":"2026-03-30T08:17:24.783262+05:30"},{"city":"Dalhousie","state":"Himachal Pradesh","latitude":32.5387,"longitude":75.971,"temp":15.8,"humidity":52,"rain":0.0,"pressure":803.0,"uv_index":6.05,"wind_gusts":38.9,"aqi":70,"pm10":14.7,"pm2_5":13.7,"mosquito_risk":0,"arthritis_risk":5,"migraine_risk":7,"frizz_risk":0,"updated_at":"2026-03-30T08:17:24.783271+05:30"},{"city":"Patiala","state":"Punjab","latitude":30.3398,"longitude":76.3869,"temp":22.8,"humidity":76,"rain":0.0,"pressure":978.2,"uv_index":5.65,"wind_gusts":22.7,"aqi":164,"pm10":195.6,"pm2_5":39.7,"mosquito_risk":3,"arthritis_risk":5,"migraine_risk":3,"frizz_risk":1,"updated_at":"2026-03-30T08:17:24.783279+05:30"},{"city":"Bhatinda","state":"Punjab","latitude":30.211,"longitude":74.9455,"temp":22.8,"humidity":81,"rain":0.0,"pressure":983.4,"uv_index":3.5,"wind_gusts":43.6,"aqi":246,"pm10":400.5,"pm2_5":94.1,"mosquito_risk":3,"arthritis_risk":5,"migraine_risk":3,"frizz_risk":1,"updated_at":"2026-03-30T08:17:24.783287+05:30"},{"city":"Rohtak","state":"Haryana","latitude":28.8955,"longitude":76.6066,"temp":23.3,"humidity":77,"rain":0.0,"pressure":981.7,"uv_index":6.8,"wind_gusts":43.2,"aqi":399,"pm10":371.6,"pm2_5":115.7,"mosquito_risk":3,"arthritis_risk":5,"migraine_risk":7,"frizz_risk":1,"updated_at":"2026-03-30T08:17:24.783295+05:30"},{"city":"Panipat","state":"Haryana","latitude":29.3909,"longitude":76.9635,"temp":24.1,"humidity":71,"rain":0.0,"pressure":980.6,"uv_index":6.4,"wind_gusts":38.2,"aqi":572,"pm10":198.4,"pm2_5":73.3,"mosquito_risk":3,"arthritis_risk":5,"migraine_risk":7,"frizz_risk":1,"updated_at":"2026-03-30T08:17:24.783304+05:30"},{"city":"Mathura","state":"Uttar Pradesh","latitude":27.4924,"longitude":77.6737,"temp":23.8,"humidity":74,"rain":0.0,"pressure":986.9,"uv_index":6.3,"wind_gusts":43.9,"aqi":196,"pm10":226.8,"pm2_5":44.9,"mosquito_risk":3,"arthritis_risk":5,"migraine_risk":7,"frizz_risk":1,"updated_at":"2026-03-30T08:17:24.783312+05:30"},{"city":"Vrindavan","state":"Uttar Pradesh","latitude":27.5823,"longitude":77.7027,"temp":24.2,"humidity":73,"rain":0.0,"pressure":987.7,"uv_index":6.3,"wind_gusts":42.1,"aqi":196,"pm10":226.8,"pm2_5":44.9,"mosquito_risk":3,"arthritis_risk":5,"migraine_risk":7,"frizz_risk":1,"updated_at":"2026-03-30T08:17:24.783320+05:30"},{"city":"Ayodhya","state":"Uttar Pradesh","latitude":26.7922,"longitude":82.1998,"temp":24.1,"humidity":78,"rain":0.0,"pressure":997.2,"uv_index":7.5,"wind_gusts":27.7,"aqi":143,"pm10":76.4,"pm2_5":65.2,"mosquito_risk":3,"arthritis_risk":5,"migraine_risk":7,"frizz_risk":1,"updated_at":"2026-03-30T08:17:24.783328+05:30"},{"city":"Ratlam","state":"Madhya Pradesh","latitude":23.3315,"longitude":75.0367,"temp":25.4,"humidity":69,"rain":0.0,"pressure":955.5,"uv_index":7.6,"wind_gusts":26.3,"aqi":43,"pm10":25.8,"pm2_5":15.7,"mosquito_risk":7,"arthritis_risk":5,"migraine_risk":7,"frizz_risk":1,"updated_at":"2026-03-30T08:17:24.783336+05:30"},{"city":"Sagar","state":"Madhya Pradesh","latitude":23.8388,"longitude":78.7378,"temp":27.1,"humidity":49,"rain":0.0,"pressure":950.9,"uv_index":8.2,"wind_gusts":31.0,"aqi":26,"pm10":8.8,"pm2_5":6.3,"mosquito_risk":4,"arthritis_risk":5,"migraine_risk":7,"frizz_risk":0,"updated_at":"2026-03-30T08:17:24.783343+05:30"},{"city":"Satna","state":"Madhya Pradesh","latitude":24.6005,"longitude":80.8322,"temp":29.0,"humidity":43,"rain":0.0,"pressure":972.1,"uv_index":8.2,"wind_gusts":37.1,"aqi":62,"pm10":41.6,"pm2_5":22.2,"mosquito_risk":4,"arthritis_risk":5,"migraine_risk":7,"frizz_risk":0,"updated_at":"2026-03-30T08:17:24.783351+05:30"},{"city":"Akola","state":"Maharashtra","latitude":20.7002,"longitude":77.0082,"temp":27.7,"humidity":60,"rain":0.0,"pressure":976.3,"uv_index":8.55,"wind_gusts":28.4,"aqi":48,"pm10":14.7,"pm2_5":12.4,"mosquito_risk":4,"arthritis_risk":5,"migraine_risk":7,"frizz_risk":1,"updated_at":"2026-03-30T08:17:24.783360+05:30"},{"city":"Amravati","state":"Maharashtra","latitude":20.9374,"longitude":77.7796,"temp":28.1,"humidity":51,"rain":0.0,"pressure":968.2,"uv_index":8.55,"wind_gusts":22.7,"aqi":48,"pm10":14.8,"pm2_5":12.8,"mosquito_risk":4,"arthritis_risk":5,"migraine_risk":7,"frizz_risk":1,"updated_at":"2026-03-30T08:17:24.783369+05:30"},{"city":"Latur","state":"Maharashtra","latitude":18.4088,"longitude":76.5604,"temp":26.7,"humidity":54,"rain":0.0,"pressure":940.8,"uv_index":8.4,"wind_gusts":40.3,"aqi":52,"pm10":20.0,"pm2_5":17.5,"mosquito_risk":4,"arthritis_risk":5,"migraine_risk":7,"frizz_risk":1,"updated_at":"2026-03-30T08:17:24.783377+05:30"},{"city":"Nanded","state":"Maharashtra","latitude":19.1383,"longitude":77.3091,"temp":28.1,"humidity":55,"rain":0.0,"pressure":970.3,"uv_index":7.2,"wind_gusts":48.6,"aqi":54,"pm10":18.0,"pm2_5":16.6,"mosquito_risk":4,"arthritis_risk":5,"migraine_risk":7,"frizz_risk":1,"updated_at":"2026-03-30T08:17:24.783386+05:30"},{"city":"Gulbarga","state":"Karnataka","latitude":17.3297,"longitude":76.8343,"temp":28.6,"humidity":52,"rain":0.0,"pressure":959.3,"uv_index":8.9,"wind_gusts":32.4,"aqi":64,"pm10":25.8,"pm2_5":24.6,"mosquito_risk":4,"arthritis_risk":5,"migraine_risk":7,"frizz_risk":1,"updated_at":"2026-03-30T08:17:24.783394+05:30"},{"city":"Bidar","state":"Karnataka","latitude":17.9104,"longitude":77.5199,"temp":27.7,"humidity":55,"rain":0.0,"pressure":936.6,"uv_index":8.1,"wind_gusts":39.2,"aqi":70,"pm10":38.4,"pm2_5":36.0,"mosquito_risk":4,"arthritis_risk":5,"migraine_risk":7,"frizz_risk":1,"updated_at":"2026-03-30T08:17:24.783402+05:30"},{"city":"Hospet","state":"Karnataka","latitude":15.2689,"longitude":76.3909,"temp":26.9,"humidity":75,"rain":0.0,"pressure":957.0,"uv_index":8.25,"wind_gusts":37.4,"aqi":77,"pm10":44.7,"pm2_5":41.6,"mosquito_risk":7,"arthritis_risk":5,"migraine_risk":7,"frizz_risk":1,"updated_at":"2026-03-30T08:17:24.783409+05:30"},{"city":"Tirupur","state":"Tamil Nadu","latitude":11.1085,"longitude":77.3411,"temp":26.9,"humidity":77,"rain":0.0,"pressure":976.9,"uv_index":9.5,"wind_gusts":20.9,"aqi":107,"pm10":32.2,"pm2_5":29.7,"mosquito_risk":7,"arthritis_risk":5,"migraine_risk":7,"frizz_risk":1,"updated_at":"2026-03-30T08:17:24.783417+05:30"},{"city":"Alappuzha","state":"Kerala","latitude":9.4981,"longitude":76.3388,"temp":28.7,"humidity":82,"rain":0.0,"pressure":1009.2,"uv_index":9.2,"wind_gusts":26.6,"aqi":90,"pm10":43.0,"pm2_5":38.6,"mosquito_risk":7,"arthritis_risk":0,"migraine_risk":4,"frizz_risk":1,"updated_at":"2026-03-30T08:17:24.783425+05:30"},{"city":"Munnar","state":"Kerala","latitude":10.0889,"longitude":77.0595,"temp":23.8,"humidity":63,"rain":0.0,"pressure":858.4,"uv_index":7.65,"wind_gusts":22.3,"aqi":96,"pm10":32.9,"pm2_5":32.0,"mosquito_risk":3,"arthritis_risk":5,"migraine_risk":7,"frizz_risk":1,"updated_at":"2026-03-30T08:17:24.783432+05:30"},{"city":"Silchar","state":"Assam","latitude":24.8333,"longitude":92.7789,"temp":24.2,"humidity":81,"rain":0.0,"pressure":1008.6,"uv_index":8.35,"wind_gusts":27.4,"aqi":155,"pm10":100.8,"pm2_5":78.7,"mosquito_risk":3,"arthritis_risk":0,"migraine_risk":4,"frizz_risk":1,"updated_at":"2026-03-30T08:17:24.783438+05:30"},{"city":"Dibrugarh","state":"Assam","latitude":27.4728,"longitude":94.912,"temp":20.8,"humidity":88,"rain":0.0,"pressure":1000.3,"uv_index":6.75,"wind_gusts":11.5,"aqi":91,"pm10":49.2,"pm2_5":37.7,"mosquito_risk":3,"arthritis_risk":5,"migraine_risk":4,"frizz_risk":1,"updated_at":"2026-03-30T08:17:24.783444+05:30"}]