[{"city":"Delhi","state":"Delhi","latitude":28.6139,"longitude":77.209,"temp":22.7,"humidity":78,"rain":0.0,"pressure":982.7,"uv_index":5.05,"wind_gusts":39.2,"aqi":342,"pm10":198.8,"pm2_5":58.1,"mosquito_risk":3,"arthritis_risk":5,"migraine_risk":3,"frizz_risk":1,"updated_at":"2026-04-07T20:42:19.186854+05:30"},{"city":"Mumbai","state":"Maharashtra","latitude":19.076,"longitude":72.8777,"temp":28.5,"humidity":74,"rain":0.0,"pressure":1010.7,"uv_index":7.95,"wind_gusts":20.9,"aqi":81,"pm10":63.3,"pm2_5":19.4,"mosquito_risk":7,"arthritis_risk":0,"migraine_risk":4,"frizz_risk":1,"updated_at":"2026-04-07T20:42:19.186894+05:30"},{"city":"Bangalore","state":"Karnataka","latitude":12.9716,"longitude":77.5946,"temp":28.8,"humidity":32,"rain":0.0,"pressure":912.2,"uv_index":9.65,"wind_gusts":28.8,"aqi":71,"pm10":22.7,"pm2_5":20.0,"mosquito_risk":4,"arthritis_risk":5,"migraine_risk":7,"frizz_risk":0,"updated_at":"2026-04-07T20:42:19.186909+05:30"},{"city":"Hyderabad","state":"Telangana","latitude":17.385,"longitude":78.4867,"temp":32.2,"humidity":25,"rain":0.0,"pressure":952.7,"uv_index":9.15,"wind_gusts":30.6,"aqi":134,"pm10":38.6,"pm2_5":33.9,"mosquito_risk":0,"arthritis_risk":5,"migraine_risk":7,"frizz_risk":0,"updated_at":"2026-04-07T20:42:19.186919+05:30"},{"city":"Chennai","state":"Tamil Nadu","latitude":13.0827,"longitude":80.2707,"temp":29.3,"humidity":84,"rain":0.0,"pressure":1007.0,"uv_index":9.35,"wind_gusts":38.5,"aqi":136,"pm10":31.4,"pm2_5":25.3,"mosquito_risk":7,"arthritis_risk":5,"migraine_risk":4,"frizz_risk":1,"updated_at":"2026-04-07T20:42:19.186928+05:30"},{"city":"Kolkata","state":"West Bengal","latitude":22.5726,"longitude":88.3639,"temp":25.4,"humidity":83,"rain":0.0,"pressure":1008.1,"uv_index":8.65,"wind_gusts":20.9,"aqi":124,"pm10":23.7,"pm2_5":21.7,"mosquito_risk":7,"arthritis_risk":0,"migraine_risk":4,"frizz_risk":1,"updated_at":"2026-04-07T20:42:19.186936+05:30"},{"city":"Pune","state":"Maharashtra","latitude":18.5204,"longitude":73.8567,"temp":25.6,"humidity":62,"rain":0.0,"pressure":950.2,"uv_index":8.55,"wind_gusts":41.0,"aqi":101,"pm10":46.8,"pm2_5":24.7,"mosquito_risk":7,"arthritis_risk":5,"migraine_risk":7,"frizz_risk":1,"updated_at":"2026-04-07T20:42:19.186947+05:30"},{"city":"Ahmedabad","state":"Gujarat","latitude":23.0225,"longitude":72.5714,"temp":27.5,"humidity":69,"rain":0.0,"pressure":1002.0,"uv_index":7.95,"wind_gusts":43.9,"aqi":62,"pm10":40.0,"pm2_5":18.5,"mosquito_risk":7,"arthritis_risk":5,"migraine_risk":4,"frizz_risk":1,"updated_at":"2026-04-07T20:42:19.186974+05:30"},{"city":"Jaipur","state":"Rajasthan","latitude":26.9124,"longitude":75.7873,"temp":21.5,"humidity":74,"rain":0.0,"pressure":958.2,"uv_index":5.7,"wind_gusts":42.8,"aqi":170,"pm10":243.1,"pm2_5":44.5,"mosquito_risk":3,"arthritis_risk":5,"migraine_risk":3,"frizz_risk":1,"updated_at":"2026-04-07T20:42:19.186985+05:30"},{"city":"Lucknow","state":"Uttar Pradesh","latitude":26.8467,"longitude":80.9462,"temp":24.6,"humidity":59,"rain":0.0,"pressure":994.6,"uv_index":7.45,"wind_gusts":43.9,"aqi":119,"pm10":71.9,"pm2_5":35.0,"mosquito_risk":0,"arthritis_risk":5,"migraine_risk":7,"frizz_risk":0,"updated_at":"2026-04-07T20:42:19.186993+05:30"},{"city":"Kanpur","state":"Uttar Pradesh","latitude":26.4499,"longitude":80.3319,"temp":21.3,"humidity":75,"rain":0.0,"pressure":992.8,"uv_index":7.45,"wind_gusts":55.1,"aqi":126,"pm10":71.7,"pm2_5":24.7,"mosquito_risk":3,"arthritis_risk":5,"migraine_risk":7,"frizz_risk":1,"updated_at":"2026-04-07T20:42:19.187003+05:30"},{"city":"Chandigarh","state":"Chandigarh","latitude":30.7333,"longitude":76.7794,"temp":20.2,"humidity":84,"rain":0.0,"pressure":968.1,"uv_index":4.55,"wind_gusts":48.6,"aqi":102,"pm10":50.9,"pm2_5":23.6,"mosquito_risk":3,"arthritis_risk":5,"migraine_risk":3,"frizz_risk":1,"updated_at":"2026-04-07T20:42:19.187010+05:30"},{"city":"Srinagar","state":"Jammu and Kashmir","latitude":34.0837,"longitude":74.7973,"temp":12.0,"humidity":66,"rain":0.0,"pressure":835.2,"uv_index":7.1,"wind_gusts":36.4,"aqi":75,"pm10":21.7,"pm2_5":18.0,"mosquito_risk":3,"arthritis_risk":5,"migraine_risk":7,"frizz_risk":0,"updated_at":"2026-04-07T20:42:19.187017+05:30"},{"city":"Jammu","state":"Jammu and Kashmir","latitude":32.7266,"longitude":74.857,"temp":18.7,"humidity":86,"rain":0.3,"pressure":971.9,"uv_index":5.5,"wind_gusts":41.8,"aqi":67,"pm10":37.1,"pm2_5":20.4,"mosquito_risk":6,"arthritis_risk":10,"migraine_risk":3,"frizz_risk":1,"updated_at":"2026-04-07T20:42:19.187024+05:30"},{"city":"Amritsar","state":"Punjab","latitude":31.634,"longitude":74.8723,"temp":18.0,"humidity":89,"rain":0.0,"pressure":980.1,"uv_index":3.0,"wind_gusts":46.4,"aqi":107,"pm10":167.6,"pm2_5":47.0,"mosquito_risk":3,"arthritis_risk":10,"migraine_risk":3,"frizz_risk":1,"updated_at":"2026-04-07T20:42:19.187031+05:30"},{"city":"Ludhiana","state":"Punjab","latitude":30.901,"longitude":75.8573,"temp":19.8,"humidity":89,"rain":0.2,"pressure":978.0,"uv_index":3.55,"wind_gusts":52.2,"aqi":139,"pm10":182.5,"pm2_5":48.3,"mosquito_risk":6,"arthritis_risk":10,"migraine_risk":3,"frizz_risk":1,"updated_at":"2026-04-07T20:42:19.187038+05:30"},{"city":"Jalandhar","state":"Punjab","latitude":31.326,"longitude":75.5762,"temp":18.8,"humidity":93,"rain":0.7,"pressure":979.3,"uv_index":4.25,"wind_gusts":47.2,"aqi":126,"pm10":154.6,"pm2_5":44.9,"mosquito_risk":6,"arthritis_risk":10,"migraine_risk":3,"frizz_risk":1,"updated_at":"2026-04-07T20:42:19.187046+05:30"},{"city":"Dehradun","state":"Uttarakhand","latitude":30.6284,"longitude":78.0322,"temp":12.3,"humidity":76,"rain":0.0,"pressure":827.9,"uv_index":6.35,"wind_gusts":36.4,"aqi":89,"pm10":33.2,"pm2_5":12.9,"mosquito_risk":3,"arthritis_risk":5,"migraine_risk":7,"frizz_risk":0,"updated_at":"2026-04-07T20:42:19.187053+05:30"},{"city":"Shimla","state":"Himachal Pradesh","latitude":31.1048,"longitude":77.1734,"temp":12.0,"humidity":57,"rain":0.0,"pressure":781.1,"uv_index":6.35,"wind_gusts":46.4,"aqi":85,"pm10":26.7,"pm2_5":11.7,"mosquito_risk":0,"arthritis_risk":5,"migraine_risk":7,"frizz_risk":0,"updated_at":"2026-04-07T20:42:19.187060+05:30"},{"city":"Manali","state":"Himachal Pradesh","latitude":32.2396,"longitude":77.1887,"temp":10.8,"humidity":95,"rain":0.1,"pressure":815.3,"uv_index":8.95,"wind_gusts":29.2,"aqi":138,"pm10":12.1,"pm2_5":9.0,"mosquito_risk":6,"arthritis_risk":10,"migraine_risk":7,"frizz_risk":0,"updated_at":"2026-04-07T20:42:19.187066+05:30"},{"city":"Gurgaon","state":"Haryana","latitude":28.4595,"longitude":77.0266,"temp":22.4,"humidity":76,"rain":0.0,"pressure":981.0,"uv_index":3.75,"wind_gusts":39.2,"aqi":896,"pm10":411.6,"pm2_5":87.1,"mosquito_risk":3,"arthritis_risk":5,"migraine_risk":3,"frizz_risk":1,"updated_at":"2026-04-07T20:42:19.187073+05:30"},{"city":"Noida","state":"Uttar Pradesh","latitude":28.5355,"longitude":77.391,"temp":22.3,"humidity":81,"rain":0.0,"pressure":984.1,"uv_index":4.95,"wind_gusts":40.0,"aqi":896,"pm10":411.6,"pm2_5":87.1,"mosquito_risk":3,"arthritis_risk":5,"migraine_risk":3,"frizz_risk":1,"updated_at":"2026-04-07T20:42:19.187079+05:30"},{"city":"Ghaziabad","state":"Uttar Pradesh","latitude":28.6692,"longitude":77.4538,"temp":21.6,"humidity":82,"rain":0.0,"pressure":982.5,"uv_index":5.3,"wind_gusts":37.1,"aqi":167,"pm10":135.5,"pm2_5":41.9,"mosquito_risk":3,"arthritis_risk":5,"migraine_risk":3,"frizz_risk":1,"updated_at":"2026-04-07T20:42:19.187086+05:30"},{"city":"Faridabad","state":"Haryana","latitude":28.4089,"longitude":77.3178,"temp":22.2,"humidity":77,"rain":0.0,"pressure":983.3,"uv_index":5.4,"wind_gusts":37.4,"aqi":896,"pm10":411.6,"pm2_5":87.1,"mosquito_risk":3,"arthritis_risk":5,"migraine_risk":3,"frizz_risk":1,"updated_at":"2026-04-07T20:42:19.187092+05:30"},{"city":"Meerut","state":"Uttar Pradesh","latitude":28.9845,"longitude":77.7064,"temp":20.6,"humidity":86,"rain":0.0,"pressure":981.3,"uv_index":5.65,"wind_gusts":37.1,"aqi":167,"pm10":135.5,"pm2_5":41.9,"mosquito_risk":3,"arthritis_risk":5,"migraine_risk":3,"frizz_risk":1,"updated_at":"2026-04-07T20:42:19.187098+05:30"},{"city":"Agra","state":"Uttar Pradesh","latitude":27.1767,"longitude":78.0081,"temp":23.3,"humidity":71,"rain":0.0,"pressure":987.3,"uv_index":5.6,"wind_gusts":37.1,"aqi":411,"pm10":709.7,"pm2_5":85.0,"mosquito_risk":3,"arthritis_risk":5,"migraine_risk":3,"frizz_risk":1,"updated_at":"2026-04-07T20:42:19.187104+05:30"},{"city":"Varanasi","state":"Uttar Pradesh","latitude":25.3176,"longitude":82.9739,"temp":27.8,"humidity":42,"rain":0.0,"pressure":997.7,"uv_index":8.05,"wind_gusts":55.8,"aqi":120,"pm10":101.3,"pm2_5":43.8,"mosquito_risk":4,"arthritis_risk":5,"migraine_risk":7,"frizz_risk":0,"updated_at":"2026-04-07T20:42:19.187113+05:30"},{"city":"Prayagraj","state":"Uttar Pradesh","latitude":25.4358,"longitude":81.8463,"temp":21.7,"humidity":87,"rain":0.8,"pressure":999.2,"uv_index":7.95,"wind_gusts":69.5,"aqi":130,"pm10":88.2,"pm2_5":37.4,"mosquito_risk":6,"arthritis_risk":5,"migraine_risk":7,"frizz_risk":1,"updated_at":"2026-04-07T20:42:19.187120+05:30"},{"city":"Gorakhpur","state":"Uttar Pradesh","latitude":26.7606,"longitude":83.3732,"temp":26.7,"humidity":37,"rain":0.0,"pressure":997.1,"uv_index":7.85,"wind_gusts":27.0,"aqi":118,"pm10":68.5,"pm2_5":30.5,"mosquito_risk":4,"arthritis_risk":5,"migraine_risk":7,"frizz_risk":0,"updated_at":"2026-04-07T20:42:19.187127+05:30"},{"city":"Bareilly","state":"Uttar Pradesh","latitude":28.367,"longitude":79.4304,"temp":23.5,"humidity":70,"rain":0.0,"pressure":986.8,"uv_index":7.05,"wind_gusts":37.1,"aqi":98,"pm10":53.7,"pm2_5":28.6,"mosquito_risk":3,"arthritis_risk":5,"migraine_risk":7,"frizz_risk":1,"updated_at":"2026-04-07T20:42:19.187133+05:30"},{"city":"Aligarh","state":"Uttar Pradesh","latitude":27.8974,"longitude":78.088,"temp":21.2,"humidity":79,"rain":0.0,"pressure":985.3,"uv_index":6.0,"wind_gusts":32.4,"aqi":287,"pm10":138.3,"pm2_5":40.0,"mosquito_risk":3,"arthritis_risk":5,"migraine_risk":3,"frizz_risk":1,"updated_at":"2026-04-07T20:42:19.187140+05:30"},{"city":"Moradabad","state":"Uttar Pradesh","latitude":28.8386,"longitude":78.7733,"temp":22.6,"humidity":74,"rain":0.0,"pressure":983.6,"uv_index":6.95,"wind_gusts":30.2,"aqi":93,"pm10":65.0,"pm2_5":26.5,"mosquito_risk":3,"arthritis_risk":5,"migraine_risk":7,"frizz_risk":1,"updated_at":"2026-04-07T20:42:19.187149+05:30"},{"city":"Saharanpur","state":"Uttar Pradesh","latitude":29.9637,"longitude":77.546,"temp":20.2,"humidity":81,"rain":0.0,"pressure":975.6,"uv_index":4.3,"wind_gusts":35.3,"aqi":104,"pm10":92.4,"pm2_5":40.5,"mosquito_risk":3,"arthritis_risk":5,"migraine_risk":3,"frizz_risk":1,"updated_at":"2026-04-07T20:42:19.187154+05:30"},{"city":"Jhansi","state":"Uttar Pradesh","latitude":25.4484,"longitude":78.5685,"temp":23.2,"humidity":60,"rain":0.0,"pressure":977.6,"uv_index":7.75,"wind_gusts":47.2,"aqi":110,"pm10":54.4,"pm2_5":26.0,"mosquito_risk":0,"arthritis_risk":5,"migraine_risk":7,"frizz_risk":0,"updated_at":"2026-04-07T20:42:22.527563+05:30"},{"city":"Surat","state":"Gujarat","latitude":21.1702,"longitude":72.8311,"temp":27.7,"humidity":77,"rain":0.0,"pressure":1008.0,"uv_index":7.7,"wind_gusts":45.0,"aqi":68,"pm10":34.1,"pm2_5":19.5,"mosquito_risk":7,"arthritis_risk":0,"migraine_risk":4,"frizz_risk":1,"updated_at":"2026-04-07T20:42:22.527592+05:30"},{"city":"Vadodara","state":"Gujarat","latitude":22.3072,"longitude":73.1812,"temp":28.0,"humidity":76,"rain":0.0,"pressure":1004.8,"uv_index":7.95,"wind_gusts":46.4,"aqi":62,"pm10":51.7,"pm2_5":24.8,"mosquito_risk":7,"arthritis_risk":5,"migraine_risk":4,"frizz_risk":1,"updated_at":"2026-04-07T20:42:22.527602+05:30"},{"city":"Rajkot","state":"Gujarat","latitude":22.3039,"longitude":70.8022,"temp":27.3,"humidity":70,"rain":0.0,"pressure":995.1,"uv_index":7.7,"wind_gusts":46.8,"aqi":55,"pm10":30.5,"pm2_5":14.6,"mosquito_risk":7,"arthritis_risk":5,"migraine_risk":7,"frizz_risk":1,"updated_at":"2026-04-07T20:42:22.527610+05:30"},{"city":"Thane","state":"Maharashtra","latitude":19.2183,"longitude":72.9781,"temp":27.8,"humidity":73,"rain":0.0,"pressure":1010.1,"uv_index":7.95,"wind_gusts":33.8,"aqi":81,"pm10":63.3,"pm2_5":19.4,"mosquito_risk":7,"arthritis_risk":0,"migraine_risk":4,"frizz_risk":1,"updated_at":"2026-04-07T20:42:22.527617+05:30"},{"city":"Nagpur","state":"Maharashtra","latitude":21.1458,"longitude":79.0882,"temp":27.3,"humidity":48,"rain":0.0,"pressure":972.1,"uv_index":8.7,"wind_gusts":22.3,"aqi":119,"pm10":30.6,"pm2_5":25.5,"mosquito_risk":4,"arthritis_risk":5,"migraine_risk":7,"frizz_risk":0,"updated_at":"2026-04-07T20:42:22.527625+05:30"},{"city":"Nashik","state":"Maharashtra","latitude":19.9975,"longitude":73.7898,"temp":23.6,"humidity":77,"rain":0.0,"pressure":947.3,"uv_index":8.2,"wind_gusts":40.7,"aqi":59,"pm10":42.5,"pm2_5":15.4,"mosquito_risk":3,"arthritis_risk":5,"migraine_risk":7,"frizz_risk":1,"updated_at":"2026-04-07T20:42:22.527631+05:30"},{"city":"Aurangabad","state":"Maharashtra","latitude":19.8762,"longitude":75.3433,"temp":28.5,"humidity":35,"rain":0.0,"pressure":944.7,"uv_index":8.85,"wind_gusts":36.7,"aqi":60,"pm10":56.3,"pm2_5":23.1,"mosquito_risk":4,"arthritis_risk":5,"migraine_risk":7,"frizz_risk":0,"updated_at":"2026-04-07T20:42:22.527638+05:30"},{"city":"Solapur","state":"Maharashtra","latitude":17.6599,"longitude":75.9064,"temp":31.7,"humidity":32,"rain":0.0,"pressure":956.9,"uv_index":9.0,"wind_gusts":30.2,"aqi":94,"pm10":39.8,"pm2_5":21.9,"mosquito_risk":0,"arthritis_risk":5,"migraine_risk":7,"frizz_risk":0,"updated_at":"2026-04-07T20:42:22.527645+05:30"},{"city":"Kolhapur","state":"Maharashtra","latitude":16.705,"longitude":74.2433,"temp":23.7,"humidity":69,"rain":0.0,"pressure":949.2,"uv_index":9.0,"wind_gusts":45.7,"aqi":76,"pm10":19.3,"pm2_5":14.1,"mosquito_risk":3,"arthritis_risk":5,"migraine_risk":7,"frizz_risk":1,"updated_at":"2026-04-07T20:42:22.527652+05:30"},{"city":"Goa","state":"Goa","latitude":15.2993,"longitude":74.124,"temp":27.9,"humidity":68,"rain":0.0,"pressure":1000.3,"uv_index":9.0,"wind_gusts":33.1,"aqi":55,"pm10":24.2,"pm2_5":13.8,"mosquito_risk":7,"arthritis_risk":5,"migraine_risk":4,"frizz_risk":1,"updated_at":"2026-04-07T20:42:22.527659+05:30"},{"city":"Jodhpur","state":"Rajasthan","latitude":26.2389,"longitude":73.0243,"temp":22.7,"humidity":77,"rain":0.0,"pressure":980.5,"uv_index":7.9,"wind_gusts":47.2,"aqi":119,"pm10":328.8,"pm2_5":67.1,"mosquito_risk":3,"arthritis_risk":5,"migraine_risk":7,"frizz_risk":1,"updated_at":"2026-04-07T20:42:22.527665+05:30"},{"city":"Udaipur","state":"Rajasthan","latitude":24.5854,"longitude":73.7125,"temp":23.4,"humidity":75,"rain":0.0,"pressure":945.0,"uv_index":8.5,"wind_gusts":55.1,"aqi":55,"pm10":60.5,"pm2_5":26.7,"mosquito_risk":3,"arthritis_risk":5,"migraine_risk":7,"frizz_risk":1,"updated_at":"2026-04-07T20:42:22.527672+05:30"},{"city":"Kota","state":"Rajasthan","latitude":25.2138,"longitude":75.8648,"temp":26.1,"humidity":60,"rain":0.0,"pressure":977.2,"uv_index":7.9,"wind_gusts":42.8,"aqi":68,"pm10":30.9,"pm2_5":17.9,"mosquito_risk":4,"arthritis_risk":5,"migraine_risk":7,"frizz_risk":1,"updated_at":"2026-04-07T20:42:22.527679+05:30"},{"city":"Bikaner","state":"Rajasthan","latitude":28.0229,"longitude":73.3119,"temp":24.2,"humidity":63,"rain":0.0,"pressure":979.7,"uv_index":6.6,"wind_gusts":36.4,"aqi":92,"pm10":62.6,"pm2_5":19.5,"mosquito_risk":3,"arthritis_risk":5,"migraine_risk":7,"frizz_risk":1,"updated_at":"2026-04-07T20:42:22.527685+05:30"},{"city":"Ajmer","state":"Rajasthan","latitude":26.4499,"longitude":74.6399,"temp":20.6,"humidity":83,"rain":0.0,"pressure":952.0,"uv_index":7.8,"wind_gusts":52.6,"aqi":58,"pm10":98.7,"pm2_5":24.7,"mosquito_risk":3,"arthritis_risk":5,"migraine_risk":7,"frizz_risk":1,"updated_at":"2026-04-07T20:42:22.527691+05:30"},{"city":"Gwalior","state":"Madhya Pradesh","latitude":26.2183,"longitude":78.1828,"temp":25.2,"humidity":60,"rain":0.0,"pressure":982.5,"uv_index":7.25,"wind_gusts":37.8,"aqi":101,"pm10":71.2,"pm2_5":29.2,"mosquito_risk":4,"arthritis_risk":5,"migraine_risk":7,"frizz_risk":1,"updated_at":"2026-04-07T20:42:22.527697+05:30"},{"city":"Indore","state":"Madhya Pradesh","latitude":22.7196,"longitude":75.8577,"temp":27.1,"humidity":43,"rain":0.0,"pressure":947.7,"uv_index":8.4,"wind_gusts":42.8,"aqi":67,"pm10":58.2,"pm2_5":25.9,"mosquito_risk":4,"arthritis_risk":5,"migraine_risk":7,"frizz_risk":0,"updated_at":"2026-04-07T20:42:22.527704+05:30"},{"city":"Bhopal","state":"Madhya Pradesh","latitude":23.2599,"longitude":77.4126,"temp":27.6,"humidity":33,"rain":0.0,"pressure":952.7,"uv_index":8.35,"wind_gusts":45.7,"aqi":64,"pm10":58.1,"pm2_5":26.3,"mosquito_risk":4,"arthritis_risk":5,"migraine_risk":7,"frizz_risk":0,"updated_at":"2026-04-07T20:42:22.527711+05:30"},{"city":"Jabalpur","state":"Madhya Pradesh","latitude":23.1815,"longitude":79.9864,"temp":30.3,"humidity":28,"rain":0.0,"pressure":960.2,"uv_index":8.5,"wind_gusts":38.2,"aqi":114,"pm10":24.8,"pm2_5":22.1,"mosquito_risk":0,"arthritis_risk":5,"migraine_risk":7,"frizz_risk":0,"updated_at":"2026-04-07T20:42:22.527717+05:30"},{"city":"Ujjain","state":"Madhya Pradesh","latitude":23.1765,"longitude":75.7885,"temp":27.2,"humidity":44,"rain":0.0,"pressure":953.2,"uv_index":8.3,"wind_gusts":45.7,"aqi":64,"pm10":51.0,"pm2_5":23.9,"mosquito_risk":4,"arthritis_risk":5,"migraine_risk":7,"frizz_risk":0,"updated_at":"2026-04-07T20:42:22.527724+05:30"},{"city":"Visakhapatnam","state":"Andhra Pradesh","latitude":17.6868,"longitude":83.2185,"temp":27.9,"humidity":86,"rain":0.0,"pressure":1004.5,"uv_index":9.1,"wind_gusts":33.5,"aqi":76,"pm10":26.4,"pm2_5":21.4,"mosquito_risk":7,"arthritis_risk":5,"migraine_risk":4,"frizz_risk":1,"updated_at":"2026-04-07T20:42:22.527731+05:30"},{"city":"Vijayawada","state":"Andhra Pradesh","latitude":16.5062,"longitude":80.648,"temp":30.4,"humidity":71,"rain":0.0,"pressure":1001.8,"uv_index":9.15,"wind_gusts":31.7,"aqi":131,"pm10":49.6,"pm2_5":46.9,"mosquito_risk":3,"arthritis_risk":5,"migraine_risk":4,"frizz_risk":1,"updated_at":"2026-04-07T20:42:22.527738+05:30"},{"city":"Guntur","state":"Andhra Pradesh","latitude":16.3067,"longitude":80.4365,"temp":29.1,"humidity":81,"rain":0.0,"pressure":1003.3,"uv_index":9.2,"wind_gusts":31.7,"aqi":121,"pm10":49.4,"pm2_5":47.1,"mosquito_risk":7,"arthritis_risk":5,"migraine_risk":4,"frizz_risk":1,"updated_at":"2026-04-07T20:42:22.527744+05:30"},{"city":"Nellore","state":"Andhra Pradesh","latitude":14.4426,"longitude":79.9865,"temp":28.9,"humidity":87,"rain":0.0,"pressure":1005.5,"uv_index":9.3,"wind_gusts":37.4,"aqi":164,"pm10":37.5,"pm2_5":33.5,"mosquito_risk":7,"arthritis_risk":5,"migraine_risk":4,"frizz_risk":1,"updated_at":"2026-04-07T20:42:22.527751+05:30"},{"city":"Kurnool","state":"Andhra Pradesh","latitude":15.8281,"longitude":78.0373,"temp":32.8,"humidity":27,"rain":0.0,"pressure":976.0,"uv_index":9.2,"wind_gusts":25.2,"aqi":158,"pm10":39.0,"pm2_5":32.2,"mosquito_risk":0,"arthritis_risk":5,"migraine_risk":7,"frizz_risk":0,"updated_at":"2026-04-07T20:42:22.527759+05:30"},{"city":"Kakinada","state":"Andhra Pradesh","latitude":16.9891,"longitude":82.2475,"temp":28.3,"humidity":84,"rain":0.0,"pressure":1007.7,"uv_index":9.1,"wind_gusts":27.0,"aqi":60,"pm10":29.0,"pm2_5":22.4,"mosquito_risk":7,"arthritis_risk":5,"migraine_risk":4,"frizz_risk":1,"updated_at":"2026-04-07T20:42:22.527767+05:30"},{"city":"Tirupati","state":"Andhra Pradesh","latitude":13.6288,"longitude":79.4192,"temp":30.2,"humidity":74,"rain":0.0,"pressure":991.5,"uv_index":9.4,"wind_gusts":29.5,"aqi":131,"pm10":42.4,"pm2_5":40.7,"mosquito_risk":3,"arthritis_risk":5,"migraine_risk":7,"frizz_risk":1,"updated_at":"2026-04-07T20:42:22.527773+05:30"},{"city":"Warangal","state":"Telangana","latitude":17.9689,"longitude":79.5941,"temp":32.3,"humidity":44,"rain":0.0,"pressure":977.7,"uv_index":9.05,"wind_gusts":33.5,"aqi":127,"pm10":51.3,"pm2_5":46.4,"mosquito_risk":0,"arthritis_risk":5,"migraine_risk":7,"frizz_risk":1,"updated_at":"2026-04-07T20:42:22.527780+05:30"},{"city":"Nizamabad","state":"Telangana","latitude":18.6725,"longitude":78.0941,"temp":29.3,"humidity":40,"rain":0.0,"pressure":964.5,"uv_index":8.95,"wind_gusts":28.4,"aqi":105,"pm10":38.3,"pm2_5":27.3,"mosquito_risk":4,"arthritis_risk":5,"migraine_risk":7,"frizz_risk":0,"updated_at":"2026-04-07T20:42:22.527786+05:30"},{"city":"Mysore","state":"Karnataka","latitude":12.2958,"longitude":76.6396,"temp":26.3,"humidity":65,"rain":0.0,"pressure":929.5,"uv_index":9.55,"wind_gusts":37.1,"aqi":64,"pm10":14.2,"pm2_5":12.4,"mosquito_risk":7,"arthritis_risk":5,"migraine_risk":7,"frizz_risk":1,"updated_at":"2026-04-07T20:42:22.527792+05:30"},{"city":"Mangalore","state":"Karnataka","latitude":12.9141,"longitude":74.856,"temp":29.0,"humidity":70,"rain":0.0,"pressure":1008.8,"uv_index":9.15,"wind_gusts":31.0,"aqi":58,"pm10":21.6,"pm2_5":12.4,"mosquito_risk":7,"arthritis_risk":0,"migraine_risk":4,"frizz_risk":1,"updated_at":"2026-04-07T20:42:22.527798+05:30"},{"city":"Hubli-Dharwad","state":"Karnataka","latitude":15.3647,"longitude":75.124,"temp":24.0,"humidity":73,"rain":0.0,"pressure":942.1,"uv_index":9.2,"wind_gusts":41.4,"aqi":103,"pm10":11.8,"pm2_5":9.4,"mosquito_risk":3,"arthritis_risk":5,"migraine_risk":7,"frizz_risk":1,"updated_at":"2026-04-07T20:42:22.527805+05:30"},{"city":"Siliguri","state":"West Bengal","latitude":26.7271,"longitude":88.3953,"temp":21.9,"humidity":53,"rain":0.0,"pressure":995.4,"uv_index":8.1,"wind_gusts":32.8,"aqi":94,"pm10":37.5,"pm2_5":31.3,"mosquito_risk":0,"arthritis_risk":5,"migraine_risk":7,"frizz_risk":0,"updated_at":"2026-04-07T20:43:05.815440+05:30"},{"city":"Durgapur","state":"West Bengal","latitude":23.5204,"longitude":87.3119,"temp":24.3,"humidity":79,"rain":0.0,"pressure":996.8,"uv_index":8.45,"wind_gusts":29.5,"aqi":150,"pm10":44.7,"pm2_5":42.7,"mosquito_risk":3,"arthritis_risk":5,"migraine_risk":7,"frizz_risk":1,"updated_at":"2026-04-07T20:43:05.815470+05:30"},{"city":"Asansol","state":"West Bengal","latitude":23.6739,"longitude":86.9524,"temp":24.7,"humidity":74,"rain":0.0,"pressure":995.1,"uv_index":8.65,"wind_gusts":36.4,"aqi":136,"pm10":42.0,"pm2_5":40.4,"mosquito_risk":3,"arthritis_risk":5,"migraine_risk":7,"frizz_risk":1,"updated_at":"2026-04-07T20:43:05.815479+05:30"},{"city":"Pondicherry","state":"Puducherry","latitude":11.9139,"longitude":79.8145,"temp":29.1,"humidity":86,"rain":0.0,"pressure":1008.0,"uv_index":8.9,"wind_gusts":31.3,"aqi":117,"pm10":28.8,"pm2_5":22.2,"mosquito_risk":7,"arthritis_risk":0,"migraine_risk":4,"frizz_risk":1,"updated_at":"2026-04-07T20:43:05.815487+05:30"},{"city":"Port Blair","state":"Andaman and Nicobar Islands","latitude":11.6234,"longitude":92.7265,"temp":29.2,"humidity":70,"rain":0.0,"pressure":1008.9,"uv_index":9.25,"wind_gusts":13.0,"aqi":29,"pm10":4.2,"pm2_5":2.9,"mosquito_risk":7,"arthritis_risk":0,"migraine_risk":4,"frizz_risk":1,"updated_at":"2026-04-07T20:43:05.815494+05:30"},{"city":"Haridwar","state":"Uttarakhand","latitude":29.9457,"longitude":78.1642,"temp":21.4,"humidity":72,"rain":0.0,"pressure":974.3,"uv_index":5.3,"wind_gusts":41.4,"aqi":111,"pm10":46.1,"pm2_5":24.4,"mosquito_risk":3,"arthritis_risk":5,"migraine_risk":3,"frizz_risk":1,"updated_at":"2026-04-07T20:43:05.815501+05:30"},{"city":"Rishikesh","state":"Uttarakhand","latitude":30.0869,"longitude":78.2676,"temp":20.5,"humidity":71,"rain":0.0,"pressure":967.0,"uv_index":6.4,"wind_gusts":28.4,"aqi":113,"pm10":35.4,"pm2_5":18.1,"mosquito_risk":3,"arthritis_risk":5,"migraine_risk":7,"frizz_risk":0,"updated_at":"2026-04-07T20:43:05.815508+05:30"},{"city":"Nainital","state":"Uttarakhand","latitude":29.3919,"longitude":79.4542,"temp":16.8,"humidity":59,"rain":0.0,"pressure":805.0,"uv_index":5.85,"wind_gusts":40.0,"aqi":112,"pm10":34.1,"pm2_5":18.8,"mosquito_risk":0,"arthritis_risk":5,"migraine_risk":3,"frizz_risk":0,"updated_at":"2026-04-07T20:43:05.815515+05:30"},{"city":"Mussoorie","state":"Uttarakhand","latitude":30.4599,"longitude":78.0664,"temp":12.9,"humidity":74,"rain":0.0,"pressure":800.1,"uv_index":5.2,"wind_gusts":42.1,"aqi":94,"pm10":31.9,"pm2_5":16.5,"mosquito_risk":3,"arthritis_risk":5,"migraine_risk":3,"frizz_risk":0,"updated_at":"2026-04-07T20:43:05.815521+05:30"},{"city":"Dharamshala","state":"Himachal Pradesh","latitude":32.219,"longitude":76.3234,"temp":15.2,"humidity":81,"rain":0.1,"pressure":865.4,"uv_index":6.4,"wind_gusts":37.4,"aqi":87,"pm10":16.6,"pm2_5":11.1,"mosquito_risk":6,"arthritis_risk":10,"migraine_risk":7,"frizz_risk":0,"updated_at":"2026-04-07T20:43:05.815529+05:30"},{"city":"Dalhousie","state":"Himachal Pradesh","latitude":32.5387,"longitude":75.971,"temp":11.5,"humidity":86,"rain":0.1,"pressure":799.2,"uv_index":5.3,"wind_gusts":33.1,"aqi":80,"pm10":36.3,"pm2_5":21.7,"mosquito_risk":6,"arthritis_risk":10,"migraine_risk":3,"frizz_risk":0,"updated_at":"2026-04-07T20:43:05.815538+05:30"},{"city":"Patiala","state":"Punjab","latitude":30.3398,"longitude":76.3869,"temp":20.3,"humidity":84,"rain":0.0,"pressure":978.0,"uv_index":5.8,"wind_gusts":47.5,"aqi":237,"pm10":179.3,"pm2_5":46.4,"mosquito_risk":3,"arthritis_risk":5,"migraine_risk":3,"frizz_risk":1,"updated_at":"2026-04-07T20:43:05.815546+05:30"},{"city":"Bhatinda","state":"Punjab","latitude":30.211,"longitude":74.9455,"temp":18.6,"humidity":91,"rain":0.0,"pressure":982.8,"uv_index":4.2,"wind_gusts":52.2,"aqi":108,"pm10":73.6,"pm2_5":22.4,"mosquito_risk":3,"arthritis_risk":10,"migraine_risk":3,"frizz_risk":1,"updated_at":"2026-04-07T20:43:05.815552+05:30"},{"city":"Rohtak","state":"Haryana","latitude":28.8955,"longitude":76.6066,"temp":19.4,"humidity":87,"rain":0.0,"pressure":982.0,"uv_index":5.15,"wind_gusts":41.0,"aqi":457,"pm10":218.4,"pm2_5":58.4,"mosquito_risk":3,"arthritis_risk":10,"migraine_risk":3,"frizz_risk":1,"updated_at":"2026-04-07T20:43:05.815559+05:30"},{"city":"Panipat","state":"Haryana","latitude":29.3909,"longitude":76.9635,"temp":20.0,"humidity":87,"rain":0.0,"pressure":980.5,"uv_index":4.7,"wind_gusts":49.7,"aqi":627,"pm10":220.7,"pm2_5":56.1,"mosquito_risk":3,"arthritis_risk":5,"migraine_risk":3,"frizz_risk":1,"updated_at":"2026-04-07T20:43:05.815566+05:30"},{"city":"Mathura","state":"Uttar Pradesh","latitude":27.4924,"longitude":77.6737,"temp":22.9,"humidity":68,"rain":0.0,"pressure":987.1,"uv_index":6.2,"wind_gusts":34.9,"aqi":482,"pm10":274.7,"pm2_5":55.4,"mosquito_risk":3,"arthritis_risk":5,"migraine_risk":7,"frizz_risk":1,"updated_at":"2026-04-07T20:43:05.815572+05:30"},{"city":"Vrindavan","state":"Uttar Pradesh","latitude":27.5823,"longitude":77.7027,"temp":22.7,"humidity":69,"rain":0.0,"pressure":987.2,"uv_index":5.8,"wind_gusts":38.2,"aqi":482,"pm10":274.7,"pm2_5":55.4,"mosquito_risk":3,"arthritis_risk":5,"migraine_risk":3,"frizz_risk":1,"updated_at":"2026-04-07T20:43:05.815578+05:30"},{"city":"Ayodhya","state":"Uttar Pradesh","latitude":26.7922,"longitude":82.1998,"temp":26.6,"humidity":42,"rain":0.0,"pressure":995.6,"uv_index":7.6,"wind_gusts":52.9,"aqi":108,"pm10":69.4,"pm2_5":27.9,"mosquito_risk":4,"arthritis_risk":5,"migraine_risk":7,"frizz_risk":0,"updated_at":"2026-04-07T20:43:05.815585+05:30"},{"city":"Ratlam","state":"Madhya Pradesh","latitude":23.3315,"longitude":75.0367,"temp":26.0,"humidity":64,"rain":0.0,"pressure":954.3,"uv_index":8.25,"wind_gusts":50.4,"aqi":60,"pm10":51.1,"pm2_5":22.9,"mosquito_risk":7,"arthritis_risk":5,"migraine_risk":7,"frizz_risk":1,"updated_at":"2026-04-07T20:43:05.815591+05:30"},{"city":"Sagar","state":"Madhya Pradesh","latitude":23.8388,"longitude":78.7378,"temp":27.8,"humidity":33,"rain":0.0,"pressure":948.9,"uv_index":8.35,"wind_gusts":37.4,"aqi":88,"pm10":39.6,"pm2_5":18.2,"mosquito_risk":4,"arthritis_risk":5,"migraine_risk":7,"frizz_risk":0,"updated_at":"2026-04-07T20:43:05.815598+05:30"},{"city":"Satna","state":"Madhya Pradesh","latitude":24.6005,"longitude":80.8322,"temp":27.1,"humidity":40,"rain":0.0,"pressure":971.7,"uv_index":8.3,"wind_gusts":32.4,"aqi":123,"pm10":27.6,"pm2_5":17.5,"mosquito_risk":4,"arthritis_risk":5,"migraine_risk":7,"frizz_risk":0,"updated_at":"2026-04-07T20:43:05.815605+05:30"},{"city":"Akola","state":"Maharashtra","latitude":20.7002,"longitude":77.0082,"temp":30.2,"humidity":33,"rain":0.0,"pressure":975.2,"uv_index":8.65,"wind_gusts":36.0,"aqi":86,"pm10":52.0,"pm2_5":23.1,"mosquito_risk":0,"arthritis_risk":5,"migraine_risk":7,"frizz_risk":0,"updated_at":"2026-04-07T20:43:05.815611+05:30"},{"city":"Amravati","state":"Maharashtra","latitude":20.9374,"longitude":77.7796,"temp":29.6,"humidity":37,"rain":0.0,"pressure":967.0,"uv_index":8.7,"wind_gusts":33.5,"aqi":92,"pm10":39.3,"pm2_5":19.7,"mosquito_risk":4,"arthritis_risk":5,"migraine_risk":7,"frizz_risk":0,"updated_at":"2026-04-07T20:43:05.815617+05:30"},{"city":"Latur","state":"Maharashtra","latitude":18.4088,"longitude":76.5604,"temp":27.1,"humidity":35,"rain":0.0,"pressure":940.0,"uv_index":8.95,"wind_gusts":27.0,"aqi":70,"pm10":37.0,"pm2_5":20.5,"mosquito_risk":4,"arthritis_risk":5,"migraine_risk":7,"frizz_risk":0,"updated_at":"2026-04-07T20:43:05.815624+05:30"},{"city":"Nanded","state":"Maharashtra","latitude":19.1383,"longitude":77.3091,"temp":29.2,"humidity":42,"rain":0.0,"pressure":968.6,"uv_index":8.85,"wind_gusts":25.2,"aqi":84,"pm10":40.4,"pm2_5":22.9,"mosquito_risk":4,"arthritis_risk":5,"migraine_risk":7,"frizz_risk":0,"updated_at":"2026-04-07T20:43:05.815630+05:30"},{"city":"Gulbarga","state":"Karnataka","latitude":17.3297,"longitude":76.8343,"temp":32.4,"humidity":26,"rain":0.0,"pressure":958.5,"uv_index":9.05,"wind_gusts":29.2,"aqi":119,"pm10":26.7,"pm2_5":18.2,"mosquito_risk":0,"arthritis_risk":5,"migraine_risk":7,"frizz_risk":0,"updated_at":"2026-04-07T20:43:05.815637+05:30"},{"city":"Bidar","state":"Karnataka","latitude":17.9104,"longitude":77.5199,"temp":30.4,"humidity":32,"rain":0.0,"pressure":935.7,"uv_index":9.0,"wind_gusts":30.2,"aqi":129,"pm10":28.4,"pm2_5":19.6,"mosquito_risk":0,"arthritis_risk":5,"migraine_risk":7,"frizz_risk":0,"updated_at":"2026-04-07T20:43:05.815643+05:30"},{"city":"Hospet","state":"Karnataka","latitude":15.2689,"longitude":76.3909,"temp":31.9,"humidity":31,"rain":0.0,"pressure":955.9,"uv_index":9.25,"wind_gusts":31.7,"aqi":92,"pm10":34.2,"pm2_5":27.9,"mosquito_risk":0,"arthritis_risk":5,"migraine_risk":7,"frizz_risk":0,"updated_at":"2026-04-07T20:43:05.815650+05:30"},{"city":"Tirupur","state":"Tamil Nadu","latitude":11.1085,"longitude":77.3411,"temp":28.7,"humidity":57,"rain":0.0,"pressure":975.5,"uv_index":9.5,"wind_gusts":45.4,"aqi":85,"pm10":25.0,"pm2_5":21.6,"mosquito_risk":4,"arthritis_risk":5,"migraine_risk":7,"frizz_risk":1,"updated_at":"2026-04-07T20:43:05.815656+05:30"},{"city":"Alappuzha","state":"Kerala","latitude":9.4981,"longitude":76.3388,"temp":29.5,"humidity":71,"rain":0.0,"pressure":1010.6,"uv_index":8.7,"wind_gusts":41.8,"aqi":66,"pm10":29.0,"pm2_5":17.8,"mosquito_risk":7,"arthritis_risk":0,"migraine_risk":4,"frizz_risk":1,"updated_at":"2026-04-07T20:43:05.815662+05:30"},{"city":"Munnar","state":"Kerala","latitude":10.0889,"longitude":77.0595,"temp":21.3,"humidity":90,"rain":0.0,"pressure":858.5,"uv_index":9.0,"wind_gusts":40.3,"aqi":63,"pm10":22.9,"pm2_5":19.6,"mosquito_risk":3,"arthritis_risk":5,"migraine_risk":7,"frizz_risk":1,"updated_at":"2026-04-07T20:43:05.815669+05:30"},{"city":"Silchar","state":"Assam","latitude":24.8333,"longitude":92.7789,"temp":24.5,"humidity":79,"rain":0.0,"pressure":1007.7,"uv_index":8.3,"wind_gusts":26.3,"aqi":152,"pm10":44.0,"pm2_5":40.2,"mosquito_risk":3,"arthritis_risk":5,"migraine_risk":4,"frizz_risk":1,"updated_at":"2026-04-07T20:43:05.815675+05:30"},{"city":"Dibrugarh","state":"Assam","latitude":27.4728,"longitude":94.912,"temp":21.3,"humidity":86,"rain":0.0,"pressure":999.4,"uv_index":7.4,"wind_gusts":31.0,"aqi":85,"pm10":45.3,"pm2_5":39.7,"mosquito_risk":3,"arthritis_risk":5,"migraine_risk":7,"frizz_risk":1,"updated_at":"2026-04-07T20:43:05.815681+05:30"}]