[{"city":"Delhi","state":"Delhi","latitude":28.6139,"longitude":77.209,"temp":32.3,"humidity":39,"rain":0.0,"pressure":978.4,"uv_index":7.55,"wind_gusts":29.9,"aqi":307,"pm10":272.9,"pm2_5":69.4,"no2":20.8,"co":601.0,"o3":164.0,"so2":27.0,"mosquito_risk":0,"arthritis_risk":5,"migraine_risk":7,"frizz_risk":1,"updated_at":"2026-05-01T20:28:34.180211+05:30"},{"city":"Mumbai","state":"Maharashtra","latitude":19.076,"longitude":72.8777,"temp":29.5,"humidity":73,"rain":0.0,"pressure":1007.6,"uv_index":7.9,"wind_gusts":46.4,"aqi":66,"pm10":49.4,"pm2_5":18.0,"no2":8.8,"co":230.0,"o3":69.0,"so2":15.8,"mosquito_risk":7,"arthritis_risk":5,"migraine_risk":4,"frizz_risk":1,"updated_at":"2026-05-01T20:28:34.180246+05:30"},{"city":"Bangalore","state":"Karnataka","latitude":12.9716,"longitude":77.5946,"temp":24.1,"humidity":72,"rain":0.0,"pressure":911.7,"uv_index":9.55,"wind_gusts":35.6,"aqi":174,"pm10":46.0,"pm2_5":39.8,"no2":39.7,"co":1427.0,"o3":109.0,"so2":14.0,"mosquito_risk":3,"arthritis_risk":5,"migraine_risk":7,"frizz_risk":1,"updated_at":"2026-05-01T20:28:34.180262+05:30"},{"city":"Hyderabad","state":"Telangana","latitude":17.385,"longitude":78.4867,"temp":34.5,"humidity":24,"rain":0.0,"pressure":951.2,"uv_index":9.25,"wind_gusts":36.7,"aqi":88,"pm10":57.2,"pm2_5":31.4,"no2":27.2,"co":587.0,"o3":79.0,"so2":9.4,"mosquito_risk":0,"arthritis_risk":5,"migraine_risk":7,"frizz_risk":0,"updated_at":"2026-05-01T20:28:34.180272+05:30"},{"city":"Chennai","state":"Tamil Nadu","latitude":13.0827,"longitude":80.2707,"temp":30.9,"humidity":79,"rain":0.0,"pressure":1005.5,"uv_index":9.25,"wind_gusts":49.0,"aqi":162,"pm10":26.7,"pm2_5":21.9,"no2":7.1,"co":192.0,"o3":139.0,"so2":8.6,"mosquito_risk":3,"arthritis_risk":5,"migraine_risk":4,"frizz_risk":1,"updated_at":"2026-05-01T20:28:34.180284+05:30"},{"city":"Kolkata","state":"West Bengal","latitude":22.5726,"longitude":88.3639,"temp":26.6,"humidity":80,"rain":0.0,"pressure":1004.6,"uv_index":7.9,"wind_gusts":25.2,"aqi":72,"pm10":68.5,"pm2_5":60.3,"no2":29.4,"co":591.0,"o3":72.0,"so2":20.9,"mosquito_risk":7,"arthritis_risk":5,"migraine_risk":4,"frizz_risk":1,"updated_at":"2026-05-01T20:28:34.180292+05:30"},{"city":"Pune","state":"Maharashtra","latitude":18.5204,"longitude":73.8567,"temp":26.8,"humidity":65,"rain":0.0,"pressure":947.6,"uv_index":8.5,"wind_gusts":49.3,"aqi":55,"pm10":34.6,"pm2_5":12.7,"no2":5.7,"co":208.0,"o3":76.0,"so2":4.5,"mosquito_risk":7,"arthritis_risk":5,"migraine_risk":7,"frizz_risk":1,"updated_at":"2026-05-01T20:28:34.180298+05:30"},{"city":"Ahmedabad","state":"Gujarat","latitude":23.0225,"longitude":72.5714,"temp":32.3,"humidity":64,"rain":0.0,"pressure":997.6,"uv_index":8.1,"wind_gusts":42.5,"aqi":64,"pm10":44.4,"pm2_5":16.8,"no2":5.5,"co":215.0,"o3":94.0,"so2":4.9,"mosquito_risk":3,"arthritis_risk":5,"migraine_risk":7,"frizz_risk":1,"updated_at":"2026-05-01T20:28:34.180307+05:30"},{"city":"Jaipur","state":"Rajasthan","latitude":26.9124,"longitude":75.7873,"temp":33.8,"humidity":20,"rain":0.0,"pressure":954.1,"uv_index":8.1,"wind_gusts":42.5,"aqi":170,"pm10":258.9,"pm2_5":47.1,"no2":13.0,"co":202.0,"o3":96.0,"so2":4.2,"mosquito_risk":0,"arthritis_risk":5,"migraine_risk":7,"frizz_risk":0,"updated_at":"2026-05-01T20:28:34.180314+05:30"},{"city":"Lucknow","state":"Uttar Pradesh","latitude":26.8467,"longitude":80.9462,"temp":28.6,"humidity":57,"rain":0.0,"pressure":990.4,"uv_index":8.0,"wind_gusts":29.5,"aqi":156,"pm10":85.9,"pm2_5":44.4,"no2":13.2,"co":381.0,"o3":121.0,"so2":12.1,"mosquito_risk":4,"arthritis_risk":5,"migraine_risk":7,"frizz_risk":1,"updated_at":"2026-05-01T20:28:34.180321+05:30"},{"city":"Kanpur","state":"Uttar Pradesh","latitude":26.4499,"longitude":80.3319,"temp":30.6,"humidity":45,"rain":0.0,"pressure":987.9,"uv_index":8.05,"wind_gusts":31.0,"aqi":160,"pm10":169.0,"pm2_5":49.1,"no2":11.1,"co":347.0,"o3":129.0,"so2":8.8,"mosquito_risk":0,"arthritis_risk":5,"migraine_risk":7,"frizz_risk":1,"updated_at":"2026-05-01T20:28:34.180328+05:30"},{"city":"Chandigarh","state":"Chandigarh","latitude":30.7333,"longitude":76.7794,"temp":27.4,"humidity":46,"rain":0.0,"pressure":964.3,"uv_index":7.55,"wind_gusts":37.4,"aqi":174,"pm10":66.4,"pm2_5":34.5,"no2":11.3,"co":452.0,"o3":154.0,"so2":23.1,"mosquito_risk":4,"arthritis_risk":5,"migraine_risk":7,"frizz_risk":0,"updated_at":"2026-05-01T20:28:34.180335+05:30"},{"city":"Srinagar","state":"Jammu and Kashmir","latitude":34.0837,"longitude":74.7973,"temp":15.8,"humidity":78,"rain":0.0,"pressure":838.2,"uv_index":8.75,"wind_gusts":25.9,"aqi":106,"pm10":24.9,"pm2_5":20.0,"no2":23.9,"co":1222.0,"o3":84.0,"so2":5.6,"mosquito_risk":3,"arthritis_risk":5,"migraine_risk":7,"frizz_risk":0,"updated_at":"2026-05-01T20:28:34.180342+05:30"},{"city":"Jammu","state":"Jammu and Kashmir","latitude":32.7266,"longitude":74.857,"temp":26.4,"humidity":49,"rain":0.0,"pressure":967.6,"uv_index":8.35,"wind_gusts":32.0,"aqi":131,"pm10":19.9,"pm2_5":15.0,"no2":15.7,"co":437.0,"o3":110.0,"so2":3.3,"mosquito_risk":4,"arthritis_risk":5,"migraine_risk":7,"frizz_risk":0,"updated_at":"2026-05-01T20:28:34.180348+05:30"},{"city":"Amritsar","state":"Punjab","latitude":31.634,"longitude":74.8723,"temp":30.0,"humidity":38,"rain":0.0,"pressure":975.7,"uv_index":8.25,"wind_gusts":31.7,"aqi":173,"pm10":28.1,"pm2_5":20.1,"no2":14.7,"co":568.0,"o3":142.0,"so2":8.4,"mosquito_risk":4,"arthritis_risk":5,"migraine_risk":7,"frizz_risk":0,"updated_at":"2026-05-01T20:28:34.180355+05:30"},{"city":"Ludhiana","state":"Punjab","latitude":30.901,"longitude":75.8573,"temp":31.2,"humidity":35,"rain":0.0,"pressure":973.9,"uv_index":7.85,"wind_gusts":33.5,"aqi":162,"pm10":126.7,"pm2_5":51.3,"no2":18.6,"co":394.0,"o3":113.0,"so2":11.6,"mosquito_risk":0,"arthritis_risk":5,"migraine_risk":7,"frizz_risk":0,"updated_at":"2026-05-01T20:28:34.180363+05:30"},{"city":"Jalandhar","state":"Punjab","latitude":31.326,"longitude":75.5762,"temp":29.4,"humidity":39,"rain":0.0,"pressure":974.7,"uv_index":8.0,"wind_gusts":33.8,"aqi":153,"pm10":158.8,"pm2_5":55.4,"no2":17.6,"co":462.0,"o3":123.0,"so2":10.6,"mosquito_risk":4,"arthritis_risk":5,"migraine_risk":7,"frizz_risk":0,"updated_at":"2026-05-01T20:28:34.180371+05:30"},{"city":"Dehradun","state":"Uttarakhand","latitude":30.6284,"longitude":78.0322,"temp":13.8,"humidity":89,"rain":0.0,"pressure":826.1,"uv_index":7.95,"wind_gusts":34.2,"aqi":126,"pm10":72.6,"pm2_5":43.5,"no2":19.8,"co":297.0,"o3":115.0,"so2":2.9,"mosquito_risk":3,"arthritis_risk":10,"migraine_risk":7,"frizz_risk":0,"updated_at":"2026-05-01T20:28:34.180380+05:30"},{"city":"Shimla","state":"Himachal Pradesh","latitude":31.1048,"longitude":77.1734,"temp":12.4,"humidity":70,"rain":0.0,"pressure":780.4,"uv_index":8.1,"wind_gusts":47.2,"aqi":151,"pm10":49.9,"pm2_5":26.7,"no2":9.6,"co":263.0,"o3":145.0,"so2":11.5,"mosquito_risk":3,"arthritis_risk":5,"migraine_risk":7,"frizz_risk":0,"updated_at":"2026-05-01T20:28:34.180386+05:30"},{"city":"Manali","state":"Himachal Pradesh","latitude":32.2396,"longitude":77.1887,"temp":10.3,"humidity":90,"rain":0.1,"pressure":813.3,"uv_index":10.1,"wind_gusts":42.5,"aqi":129,"pm10":9.1,"pm2_5":7.7,"no2":22.3,"co":222.0,"o3":125.0,"so2":0.8,"mosquito_risk":6,"arthritis_risk":10,"migraine_risk":7,"frizz_risk":0,"updated_at":"2026-05-01T20:28:34.180393+05:30"},{"city":"Gurgaon","state":"Haryana","latitude":28.4595,"longitude":77.0266,"temp":31.6,"humidity":38,"rain":0.0,"pressure":976.3,"uv_index":7.7,"wind_gusts":31.7,"aqi":1295,"pm10":715.3,"pm2_5":124.8,"no2":27.6,"co":354.0,"o3":151.0,"so2":26.3,"mosquito_risk":0,"arthritis_risk":5,"migraine_risk":7,"frizz_risk":0,"updated_at":"2026-05-01T20:28:34.180400+05:30"},{"city":"Noida","state":"Uttar Pradesh","latitude":28.5355,"longitude":77.391,"temp":29.5,"humidity":51,"rain":0.0,"pressure":979.6,"uv_index":7.6,"wind_gusts":29.2,"aqi":1295,"pm10":715.3,"pm2_5":124.8,"no2":27.6,"co":690.0,"o3":151.0,"so2":26.3,"mosquito_risk":4,"arthritis_risk":5,"migraine_risk":7,"frizz_risk":1,"updated_at":"2026-05-01T20:28:34.180406+05:30"},{"city":"Ghaziabad","state":"Uttar Pradesh","latitude":28.6692,"longitude":77.4538,"temp":29.8,"humidity":49,"rain":0.0,"pressure":978.0,"uv_index":7.55,"wind_gusts":32.8,"aqi":183,"pm10":253.3,"pm2_5":57.0,"no2":8.6,"co":416.0,"o3":143.0,"so2":10.5,"mosquito_risk":4,"arthritis_risk":5,"migraine_risk":7,"frizz_risk":1,"updated_at":"2026-05-01T20:28:34.180412+05:30"},{"city":"Faridabad","state":"Haryana","latitude":28.4089,"longitude":77.3178,"temp":31.2,"humidity":42,"rain":0.0,"pressure":978.8,"uv_index":7.65,"wind_gusts":29.5,"aqi":1295,"pm10":715.3,"pm2_5":124.8,"no2":27.6,"co":695.0,"o3":151.0,"so2":26.3,"mosquito_risk":0,"arthritis_risk":5,"migraine_risk":7,"frizz_risk":1,"updated_at":"2026-05-01T20:28:34.180418+05:30"},{"city":"Meerut","state":"Uttar Pradesh","latitude":28.9845,"longitude":77.7064,"temp":28.6,"humidity":53,"rain":0.0,"pressure":977.0,"uv_index":7.5,"wind_gusts":34.9,"aqi":183,"pm10":253.3,"pm2_5":57.0,"no2":8.6,"co":404.0,"o3":143.0,"so2":10.5,"mosquito_risk":4,"arthritis_risk":5,"migraine_risk":7,"frizz_risk":1,"updated_at":"2026-05-01T20:28:34.180424+05:30"},{"city":"Agra","state":"Uttar Pradesh","latitude":27.1767,"longitude":78.0081,"temp":31.6,"humidity":40,"rain":0.0,"pressure":982.3,"uv_index":7.9,"wind_gusts":27.7,"aqi":555,"pm10":542.0,"pm2_5":83.8,"no2":13.3,"co":460.0,"o3":112.0,"so2":12.5,"mosquito_risk":0,"arthritis_risk":5,"migraine_risk":7,"frizz_risk":1,"updated_at":"2026-05-01T20:28:34.180430+05:30"},{"city":"Varanasi","state":"Uttar Pradesh","latitude":25.3176,"longitude":82.9739,"temp":28.9,"humidity":53,"rain":0.0,"pressure":994.9,"uv_index":8.55,"wind_gusts":25.9,"aqi":168,"pm10":76.6,"pm2_5":44.6,"no2":14.6,"co":519.0,"o3":129.0,"so2":16.1,"mosquito_risk":4,"arthritis_risk":5,"migraine_risk":7,"frizz_risk":1,"updated_at":"2026-05-01T20:28:34.180437+05:30"},{"city":"Prayagraj","state":"Uttar Pradesh","latitude":25.4358,"longitude":81.8463,"temp":29.6,"humidity":50,"rain":0.0,"pressure":992.7,"uv_index":8.4,"wind_gusts":25.6,"aqi":177,"pm10":95.0,"pm2_5":48.1,"no2":22.0,"co":350.0,"o3":127.0,"so2":16.8,"mosquito_risk":4,"arthritis_risk":5,"migraine_risk":7,"frizz_risk":1,"updated_at":"2026-05-01T20:28:34.180449+05:30"},{"city":"Gorakhpur","state":"Uttar Pradesh","latitude":26.7606,"longitude":83.3732,"temp":22.6,"humidity":82,"rain":0.0,"pressure":995.6,"uv_index":8.35,"wind_gusts":37.1,"aqi":138,"pm10":48.4,"pm2_5":28.6,"no2":6.7,"co":340.0,"o3":133.0,"so2":5.5,"mosquito_risk":3,"arthritis_risk":5,"migraine_risk":7,"frizz_risk":1,"updated_at":"2026-05-01T20:28:34.180455+05:30"},{"city":"Bareilly","state":"Uttar Pradesh","latitude":28.367,"longitude":79.4304,"temp":27.6,"humidity":55,"rain":0.0,"pressure":983.5,"uv_index":7.85,"wind_gusts":34.6,"aqi":155,"pm10":252.4,"pm2_5":63.1,"no2":16.0,"co":330.0,"o3":121.0,"so2":13.7,"mosquito_risk":4,"arthritis_risk":5,"migraine_risk":7,"frizz_risk":1,"updated_at":"2026-05-01T20:28:34.180461+05:30"},{"city":"Aligarh","state":"Uttar Pradesh","latitude":27.8974,"longitude":78.088,"temp":30.1,"humidity":47,"rain":0.0,"pressure":980.6,"uv_index":7.75,"wind_gusts":28.8,"aqi":667,"pm10":473.1,"pm2_5":91.0,"no2":10.1,"co":330.0,"o3":139.0,"so2":15.7,"mosquito_risk":0,"arthritis_risk":5,"migraine_risk":7,"frizz_risk":1,"updated_at":"2026-05-01T20:28:34.180468+05:30"},{"city":"Moradabad","state":"Uttar Pradesh","latitude":28.8386,"longitude":78.7733,"temp":28.0,"humidity":57,"rain":0.0,"pressure":979.9,"uv_index":7.7,"wind_gusts":35.6,"aqi":161,"pm10":109.9,"pm2_5":54.7,"no2":17.0,"co":414.0,"o3":131.0,"so2":20.2,"mosquito_risk":4,"arthritis_risk":5,"migraine_risk":7,"frizz_risk":1,"updated_at":"2026-05-01T20:28:34.180474+05:30"},{"city":"Saharanpur","state":"Uttar Pradesh","latitude":29.9637,"longitude":77.546,"temp":27.1,"humidity":59,"rain":0.0,"pressure":971.2,"uv_index":7.3,"wind_gusts":36.4,"aqi":150,"pm10":150.9,"pm2_5":60.1,"no2":28.8,"co":302.0,"o3":109.0,"so2":16.2,"mosquito_risk":4,"arthritis_risk":5,"migraine_risk":7,"frizz_risk":1,"updated_at":"2026-05-01T20:28:34.180479+05:30"},{"city":"Jhansi","state":"Uttar Pradesh","latitude":25.4484,"longitude":78.5685,"temp":31.3,"humidity":34,"rain":0.0,"pressure":972.8,"uv_index":8.35,"wind_gusts":28.4,"aqi":101,"pm10":69.2,"pm2_5":25.7,"no2":6.6,"co":179.0,"o3":102.0,"so2":9.2,"mosquito_risk":0,"arthritis_risk":5,"migraine_risk":7,"frizz_risk":0,"updated_at":"2026-05-01T20:28:37.512576+05:30"},{"city":"Surat","state":"Gujarat","latitude":21.1702,"longitude":72.8311,"temp":29.4,"humidity":80,"rain":0.0,"pressure":1003.7,"uv_index":7.7,"wind_gusts":55.4,"aqi":63,"pm10":31.3,"pm2_5":16.9,"no2":15.9,"co":214.0,"o3":61.0,"so2":28.5,"mosquito_risk":7,"arthritis_risk":5,"migraine_risk":4,"frizz_risk":1,"updated_at":"2026-05-01T20:28:37.512606+05:30"},{"city":"Vadodara","state":"Gujarat","latitude":22.3072,"longitude":73.1812,"temp":31.1,"humidity":65,"rain":0.0,"pressure":1000.4,"uv_index":8.05,"wind_gusts":52.6,"aqi":61,"pm10":24.1,"pm2_5":15.3,"no2":11.2,"co":259.0,"o3":84.0,"so2":16.8,"mosquito_risk":3,"arthritis_risk":5,"migraine_risk":4,"frizz_risk":1,"updated_at":"2026-05-01T20:28:37.512619+05:30"},{"city":"Rajkot","state":"Gujarat","latitude":22.3039,"longitude":70.8022,"temp":34.2,"humidity":42,"rain":0.0,"pressure":990.1,"uv_index":7.7,"wind_gusts":54.0,"aqi":50,"pm10":28.2,"pm2_5":12.5,"no2":4.2,"co":170.0,"o3":83.0,"so2":6.3,"mosquito_risk":0,"arthritis_risk":5,"migraine_risk":7,"frizz_risk":1,"updated_at":"2026-05-01T20:28:37.512630+05:30"},{"city":"Thane","state":"Maharashtra","latitude":19.2183,"longitude":72.9781,"temp":29.6,"humidity":72,"rain":0.0,"pressure":1006.8,"uv_index":7.9,"wind_gusts":42.1,"aqi":66,"pm10":49.4,"pm2_5":18.0,"no2":8.8,"co":246.0,"o3":69.0,"so2":15.8,"mosquito_risk":7,"arthritis_risk":5,"migraine_risk":4,"frizz_risk":1,"updated_at":"2026-05-01T20:28:37.512639+05:30"},{"city":"Nagpur","state":"Maharashtra","latitude":21.1458,"longitude":79.0882,"temp":36.3,"humidity":24,"rain":0.0,"pressure":969.4,"uv_index":8.9,"wind_gusts":36.7,"aqi":136,"pm10":62.9,"pm2_5":28.5,"no2":15.5,"co":273.0,"o3":99.0,"so2":16.0,"mosquito_risk":0,"arthritis_risk":5,"migraine_risk":10,"frizz_risk":0,"updated_at":"2026-05-01T20:28:37.512649+05:30"},{"city":"Nashik","state":"Maharashtra","latitude":19.9975,"longitude":73.7898,"temp":26.9,"humidity":66,"rain":0.0,"pressure":944.2,"uv_index":8.2,"wind_gusts":51.1,"aqi":60,"pm10":34.9,"pm2_5":13.4,"no2":4.0,"co":179.0,"o3":82.0,"so2":4.8,"mosquito_risk":7,"arthritis_risk":5,"migraine_risk":7,"frizz_risk":1,"updated_at":"2026-05-01T20:28:37.512658+05:30"},{"city":"Aurangabad","state":"Maharashtra","latitude":19.8762,"longitude":75.3433,"temp":33.0,"humidity":30,"rain":0.0,"pressure":942.2,"uv_index":9.05,"wind_gusts":46.1,"aqi":65,"pm10":25.8,"pm2_5":11.3,"no2":3.4,"co":178.0,"o3":92.0,"so2":3.6,"mosquito_risk":0,"arthritis_risk":5,"migraine_risk":7,"frizz_risk":0,"updated_at":"2026-05-01T20:28:37.512666+05:30"},{"city":"Solapur","state":"Maharashtra","latitude":17.6599,"longitude":75.9064,"temp":35.0,"humidity":22,"rain":0.0,"pressure":954.7,"uv_index":9.05,"wind_gusts":47.5,"aqi":53,"pm10":21.2,"pm2_5":10.5,"no2":5.5,"co":185.0,"o3":95.0,"so2":2.4,"mosquito_risk":0,"arthritis_risk":5,"migraine_risk":7,"frizz_risk":0,"updated_at":"2026-05-01T20:28:37.512675+05:30"},{"city":"Kolhapur","state":"Maharashtra","latitude":16.705,"longitude":74.2433,"temp":26.8,"humidity":59,"rain":0.0,"pressure":947.7,"uv_index":8.95,"wind_gusts":46.8,"aqi":59,"pm10":30.0,"pm2_5":14.2,"no2":7.1,"co":201.0,"o3":72.0,"so2":2.3,"mosquito_risk":4,"arthritis_risk":5,"migraine_risk":7,"frizz_risk":1,"updated_at":"2026-05-01T20:28:37.512684+05:30"},{"city":"Goa","state":"Goa","latitude":15.2993,"longitude":74.124,"temp":28.8,"humidity":74,"rain":0.0,"pressure":997.7,"uv_index":8.9,"wind_gusts":36.4,"aqi":63,"pm10":26.3,"pm2_5":16.2,"no2":5.6,"co":189.0,"o3":72.0,"so2":1.7,"mosquito_risk":7,"arthritis_risk":5,"migraine_risk":7,"frizz_risk":1,"updated_at":"2026-05-01T20:28:37.512693+05:30"},{"city":"Jodhpur","state":"Rajasthan","latitude":26.2389,"longitude":73.0243,"temp":34.4,"humidity":31,"rain":0.0,"pressure":977.3,"uv_index":8.3,"wind_gusts":52.6,"aqi":138,"pm10":252.4,"pm2_5":38.0,"no2":5.3,"co":179.0,"o3":91.0,"so2":2.5,"mosquito_risk":0,"arthritis_risk":5,"migraine_risk":7,"frizz_risk":0,"updated_at":"2026-05-01T20:28:37.512701+05:30"},{"city":"Udaipur","state":"Rajasthan","latitude":24.5854,"longitude":73.7125,"temp":32.7,"humidity":27,"rain":0.0,"pressure":942.8,"uv_index":8.75,"wind_gusts":45.7,"aqi":57,"pm10":36.1,"pm2_5":14.0,"no2":1.8,"co":161.0,"o3":112.0,"so2":3.2,"mosquito_risk":0,"arthritis_risk":5,"migraine_risk":7,"frizz_risk":0,"updated_at":"2026-05-01T20:28:37.512710+05:30"},{"city":"Kota","state":"Rajasthan","latitude":25.2138,"longitude":75.8648,"temp":34.2,"humidity":21,"rain":0.0,"pressure":972.8,"uv_index":8.3,"wind_gusts":38.2,"aqi":86,"pm10":46.1,"pm2_5":20.0,"no2":10.6,"co":219.0,"o3":93.0,"so2":4.0,"mosquito_risk":0,"arthritis_risk":5,"migraine_risk":7,"frizz_risk":0,"updated_at":"2026-05-01T20:28:37.512718+05:30"},{"city":"Bikaner","state":"Rajasthan","latitude":28.0229,"longitude":73.3119,"temp":35.9,"humidity":17,"rain":0.0,"pressure":975.2,"uv_index":8.25,"wind_gusts":39.6,"aqi":84,"pm10":64.0,"pm2_5":18.1,"no2":3.0,"co":272.0,"o3":101.0,"so2":4.2,"mosquito_risk":0,"arthritis_risk":5,"migraine_risk":10,"frizz_risk":0,"updated_at":"2026-05-01T20:28:37.512727+05:30"},{"city":"Ajmer","state":"Rajasthan","latitude":26.4499,"longitude":74.6399,"temp":33.6,"humidity":23,"rain":0.0,"pressure":950.3,"uv_index":8.25,"wind_gusts":51.5,"aqi":79,"pm10":56.6,"pm2_5":16.8,"no2":6.0,"co":163.0,"o3":96.0,"so2":2.8,"mosquito_risk":0,"arthritis_risk":5,"migraine_risk":7,"frizz_risk":0,"updated_at":"2026-05-01T20:28:37.512735+05:30"},{"city":"Gwalior","state":"Madhya Pradesh","latitude":26.2183,"longitude":78.1828,"temp":33.0,"humidity":39,"rain":0.0,"pressure":977.6,"uv_index":8.15,"wind_gusts":33.1,"aqi":102,"pm10":92.4,"pm2_5":30.3,"no2":6.8,"co":329.0,"o3":103.0,"so2":6.3,"mosquito_risk":0,"arthritis_risk":5,"migraine_risk":7,"frizz_risk":1,"updated_at":"2026-05-01T20:28:37.512743+05:30"},{"city":"Indore","state":"Madhya Pradesh","latitude":22.7196,"longitude":75.8577,"temp":34.0,"humidity":22,"rain":0.0,"pressure":945.0,"uv_index":8.65,"wind_gusts":41.0,"aqi":69,"pm10":39.3,"pm2_5":17.9,"no2":6.7,"co":237.0,"o3":100.0,"so2":5.0,"mosquito_risk":0,"arthritis_risk":5,"migraine_risk":7,"frizz_risk":0,"updated_at":"2026-05-01T20:28:37.512751+05:30"},{"city":"Bhopal","state":"Madhya Pradesh","latitude":23.2599,"longitude":77.4126,"temp":34.2,"humidity":19,"rain":0.0,"pressure":949.5,"uv_index":8.65,"wind_gusts":39.2,"aqi":73,"pm10":77.8,"pm2_5":23.0,"no2":4.8,"co":234.0,"o3":94.0,"so2":3.9,"mosquito_risk":0,"arthritis_risk":5,"migraine_risk":7,"frizz_risk":0,"updated_at":"2026-05-01T20:28:37.512759+05:30"},{"city":"Jabalpur","state":"Madhya Pradesh","latitude":23.1815,"longitude":79.9864,"temp":34.5,"humidity":20,"rain":0.0,"pressure":957.6,"uv_index":8.8,"wind_gusts":38.2,"aqi":94,"pm10":84.3,"pm2_5":30.7,"no2":11.2,"co":178.0,"o3":98.0,"so2":5.0,"mosquito_risk":0,"arthritis_risk":5,"migraine_risk":7,"frizz_risk":0,"updated_at":"2026-05-01T20:28:37.512767+05:30"},{"city":"Ujjain","state":"Madhya Pradesh","latitude":23.1765,"longitude":75.7885,"temp":34.0,"humidity":22,"rain":0.0,"pressure":950.4,"uv_index":8.55,"wind_gusts":40.0,"aqi":66,"pm10":37.8,"pm2_5":17.9,"no2":3.4,"co":192.0,"o3":102.0,"so2":3.8,"mosquito_risk":0,"arthritis_risk":5,"migraine_risk":7,"frizz_risk":0,"updated_at":"2026-05-01T20:28:37.512776+05:30"},{"city":"Visakhapatnam","state":"Andhra Pradesh","latitude":17.6868,"longitude":83.2185,"temp":28.5,"humidity":90,"rain":0.0,"pressure":1001.8,"uv_index":9.15,"wind_gusts":51.8,"aqi":53,"pm10":23.9,"pm2_5":19.0,"no2":21.8,"co":277.0,"o3":75.0,"so2":7.4,"mosquito_risk":7,"arthritis_risk":5,"migraine_risk":4,"frizz_risk":1,"updated_at":"2026-05-01T20:28:37.512784+05:30"},{"city":"Vijayawada","state":"Andhra Pradesh","latitude":16.5062,"longitude":80.648,"temp":31.4,"humidity":59,"rain":0.0,"pressure":999.5,"uv_index":9.2,"wind_gusts":39.6,"aqi":145,"pm10":35.0,"pm2_5":32.5,"no2":6.2,"co":275.0,"o3":149.0,"so2":8.0,"mosquito_risk":0,"arthritis_risk":5,"migraine_risk":7,"frizz_risk":1,"updated_at":"2026-05-01T20:28:37.512792+05:30"},{"city":"Guntur","state":"Andhra Pradesh","latitude":16.3067,"longitude":80.4365,"temp":31.6,"humidity":68,"rain":0.0,"pressure":1000.7,"uv_index":9.2,"wind_gusts":40.0,"aqi":147,"pm10":44.9,"pm2_5":39.2,"no2":11.0,"co":282.0,"o3":134.0,"so2":7.5,"mosquito_risk":3,"arthritis_risk":5,"migraine_risk":4,"frizz_risk":1,"updated_at":"2026-05-01T20:28:37.512801+05:30"},{"city":"Nellore","state":"Andhra Pradesh","latitude":14.4426,"longitude":79.9865,"temp":31.6,"humidity":71,"rain":0.0,"pressure":1002.8,"uv_index":9.25,"wind_gusts":49.0,"aqi":177,"pm10":32.7,"pm2_5":29.0,"no2":4.5,"co":228.0,"o3":164.0,"so2":7.8,"mosquito_risk":3,"arthritis_risk":5,"migraine_risk":4,"frizz_risk":1,"updated_at":"2026-05-01T20:28:37.512810+05:30"},{"city":"Kurnool","state":"Andhra Pradesh","latitude":15.8281,"longitude":78.0373,"temp":34.3,"humidity":22,"rain":0.0,"pressure":973.9,"uv_index":9.2,"wind_gusts":40.0,"aqi":111,"pm10":46.1,"pm2_5":22.4,"no2":12.3,"co":250.0,"o3":107.0,"so2":6.4,"mosquito_risk":0,"arthritis_risk":5,"migraine_risk":7,"frizz_risk":0,"updated_at":"2026-05-01T20:28:37.512819+05:30"},{"city":"Kakinada","state":"Andhra Pradesh","latitude":16.9891,"longitude":82.2475,"temp":29.6,"humidity":83,"rain":0.0,"pressure":1004.8,"uv_index":9.15,"wind_gusts":45.7,"aqi":54,"pm10":21.3,"pm2_5":15.6,"no2":2.7,"co":227.0,"o3":99.0,"so2":2.0,"mosquito_risk":7,"arthritis_risk":5,"migraine_risk":4,"frizz_risk":1,"updated_at":"2026-05-01T20:28:37.512828+05:30"},{"city":"Tirupati","state":"Andhra Pradesh","latitude":13.6288,"longitude":79.4192,"temp":32.0,"humidity":46,"rain":0.0,"pressure":989.1,"uv_index":9.3,"wind_gusts":42.8,"aqi":163,"pm10":50.5,"pm2_5":45.4,"no2":14.9,"co":386.0,"o3":132.0,"so2":5.7,"mosquito_risk":0,"arthritis_risk":5,"migraine_risk":7,"frizz_risk":1,"updated_at":"2026-05-01T20:28:37.512836+05:30"},{"city":"Warangal","state":"Telangana","latitude":17.9689,"longitude":79.5941,"temp":32.8,"humidity":27,"rain":0.0,"pressure":975.4,"uv_index":9.15,"wind_gusts":41.0,"aqi":105,"pm10":65.0,"pm2_5":40.6,"no2":26.6,"co":314.0,"o3":78.0,"so2":9.3,"mosquito_risk":0,"arthritis_risk":5,"migraine_risk":7,"frizz_risk":0,"updated_at":"2026-05-01T20:28:37.512869+05:30"},{"city":"Nizamabad","state":"Telangana","latitude":18.6725,"longitude":78.0941,"temp":33.6,"humidity":28,"rain":0.0,"pressure":961.6,"uv_index":9.1,"wind_gusts":33.5,"aqi":85,"pm10":45.8,"pm2_5":25.0,"no2":11.7,"co":265.0,"o3":92.0,"so2":4.1,"mosquito_risk":0,"arthritis_risk":5,"migraine_risk":7,"frizz_risk":0,"updated_at":"2026-05-01T20:28:37.512880+05:30"},{"city":"Mysore","state":"Karnataka","latitude":12.2958,"longitude":76.6396,"temp":25.1,"humidity":75,"rain":0.1,"pressure":929.0,"uv_index":9.35,"wind_gusts":52.9,"aqi":157,"pm10":29.6,"pm2_5":25.6,"no2":10.4,"co":414.0,"o3":133.0,"so2":3.4,"mosquito_risk":10,"arthritis_risk":5,"migraine_risk":7,"frizz_risk":1,"updated_at":"2026-05-01T20:28:37.512888+05:30"},{"city":"Mangalore","state":"Karnataka","latitude":12.9141,"longitude":74.856,"temp":29.9,"humidity":77,"rain":0.0,"pressure":1006.7,"uv_index":9.0,"wind_gusts":40.7,"aqi":67,"pm10":26.5,"pm2_5":15.0,"no2":3.9,"co":176.0,"o3":68.0,"so2":1.7,"mosquito_risk":7,"arthritis_risk":5,"migraine_risk":4,"frizz_risk":1,"updated_at":"2026-05-01T20:28:37.512897+05:30"},{"city":"Hubli-Dharwad","state":"Karnataka","latitude":15.3647,"longitude":75.124,"temp":26.8,"humidity":63,"rain":0.0,"pressure":940.3,"uv_index":9.2,"wind_gusts":45.0,"aqi":56,"pm10":25.2,"pm2_5":15.0,"no2":6.9,"co":202.0,"o3":79.0,"so2":1.8,"mosquito_risk":7,"arthritis_risk":5,"migraine_risk":7,"frizz_risk":1,"updated_at":"2026-05-01T20:28:37.512905+05:30"},{"city":"Belgaum","state":"Karnataka","latitude":15.8497,"longitude":74.4977,"temp":25.0,"humidity":71,"rain":0.0,"pressure":925.6,"uv_index":9.15,"wind_gusts":44.6,"aqi":54,"pm10":23.1,"pm2_5":12.4,"no2":7.7,"co":191.0,"o3":66.0,"so2":2.3,"mosquito_risk":7,"arthritis_risk":5,"migraine_risk":7,"frizz_risk":1,"updated_at":"2026-05-01T20:28:40.844688+05:30"},{"city":"Coimbatore","state":"Tamil Nadu","latitude":11.0168,"longitude":76.9558,"temp":27.4,"humidity":78,"rain":0.0,"pressure":962.1,"uv_index":9.2,"wind_gusts":41.4,"aqi":124,"pm10":28.5,"pm2_5":25.6,"no2":14.2,"co":279.0,"o3":86.0,"so2":4.2,"mosquito_risk":7,"arthritis_risk":5,"migraine_risk":7,"frizz_risk":1,"updated_at":"2026-05-01T20:28:40.844709+05:30"},{"city":"Madurai","state":"Tamil Nadu","latitude":9.9252,"longitude":78.1198,"temp":28.7,"humidity":69,"rain":0.0,"pressure":993.4,"uv_index":8.9,"wind_gusts":57.6,"aqi":116,"pm10":21.9,"pm2_5":19.4,"no2":8.2,"co":316.0,"o3":120.0,"so2":5.0,"mosquito_risk":7,"arthritis_risk":5,"migraine_risk":7,"frizz_risk":1,"updated_at":"2026-05-01T20:28:40.844719+05:30"},{"city":"Trichy","state":"Tamil Nadu","latitude":10.7905,"longitude":78.7047,"temp":32.7,"humidity":47,"rain":0.0,"pressure":999.5,"uv_index":8.9,"wind_gusts":36.0,"aqi":128,"pm10":28.8,"pm2_5":25.9,"no2":10.8,"co":282.0,"o3":112.0,"so2":4.9,"mosquito_risk":0,"arthritis_risk":5,"migraine_risk":7,"frizz_risk":1,"updated_at":"2026-05-01T20:28:40.844727+05:30"},{"city":"Salem","state":"Tamil Nadu","latitude":11.6643,"longitude":78.146,"temp":28.8,"humidity":61,"rain":0.0,"pressure":977.7,"uv_index":9.25,"wind_gusts":61.9,"aqi":182,"pm10":51.8,"pm2_5":44.8,"no2":23.8,"co":290.0,"o3":141.0,"so2":15.1,"mosquito_risk":7,"arthritis_risk":5,"migraine_risk":7,"frizz_risk":1,"updated_at":"2026-05-01T20:28:40.844734+05:30"},{"city":"Tirunelveli","state":"Tamil Nadu","latitude":8.7139,"longitude":77.7567,"temp":32.2,"humidity":54,"rain":0.0,"pressure":1003.1,"uv_index":8.85,"wind_gusts":36.7,"aqi":64,"pm10":18.0,"pm2_5":15.6,"no2":7.0,"co":226.0,"o3":96.0,"so2":1.9,"mosquito_risk":0,"arthritis_risk":5,"migraine_risk":4,"frizz_risk":1,"updated_at":"2026-05-01T20:28:40.844741+05:30"},{"city":"Vellore","state":"Tamil Nadu","latitude":12.9165,"longitude":79.1325,"temp":31.1,"humidity":50,"rain":0.0,"pressure":983.0,"uv_index":9.3,"wind_gusts":44.3,"aqi":158,"pm10":51.1,"pm2_5":46.2,"no2":12.4,"co":373.0,"o3":132.0,"so2":8.5,"mosquito_risk":0,"arthritis_risk":5,"migraine_risk":7,"frizz_risk":1,"updated_at":"2026-05-01T20:28:40.844748+05:30"},{"city":"Erode","state":"Tamil Nadu","latitude":11.341,"longitude":77.7172,"temp":29.4,"humidity":64,"rain":0.1,"pressure":989.3,"uv_index":9.25,"wind_gusts":54.4,"aqi":143,"pm10":42.3,"pm2_5":33.4,"no2":22.3,"co":293.0,"o3":122.0,"so2":3.7,"mosquito_risk":10,"arthritis_risk":5,"migraine_risk":7,"frizz_risk":1,"updated_at":"2026-05-01T20:28:40.844754+05:30"},{"city":"Kochi","state":"Kerala","latitude":9.9312,"longitude":76.2673,"temp":27.5,"humidity":89,"rain":0.0,"pressure":1009.2,"uv_index":8.8,"wind_gusts":33.8,"aqi":55,"pm10":38.6,"pm2_5":33.4,"no2":48.5,"co":386.0,"o3":36.0,"so2":8.8,"mosquito_risk":7,"arthritis_risk":0,"migraine_risk":4,"frizz_risk":1,"updated_at":"2026-05-01T20:28:40.844761+05:30"},{"city":"Thiruvananthapuram","state":"Kerala","latitude":8.5241,"longitude":76.9366,"temp":25.8,"humidity":91,"rain":0.0,"pressure":1009.0,"uv_index":8.85,"wind_gusts":34.9,"aqi":54,"pm10":12.9,"pm2_5":9.3,"no2":3.1,"co":366.0,"o3":98.0,"so2":1.6,"mosquito_risk":7,"arthritis_risk":0,"migraine_risk":4,"frizz_risk":1,"updated_at":"2026-05-01T20:28:40.844767+05:30"},{"city":"Kozhikode","state":"Kerala","latitude":11.2588,"longitude":75.7804,"temp":28.3,"humidity":87,"rain":0.0,"pressure":1007.9,"uv_index":7.7,"wind_gusts":39.2,"aqi":60,"pm10":32.1,"pm2_5":17.8,"no2":2.3,"co":232.0,"o3":73.0,"so2":1.1,"mosquito_risk":7,"arthritis_risk":5,"migraine_risk":4,"frizz_risk":1,"updated_at":"2026-05-01T20:28:40.844774+05:30"},{"city":"Thrissur","state":"Kerala","latitude":10.5276,"longitude":76.2144,"temp":27.6,"humidity":91,"rain":0.0,"pressure":1007.5,"uv_index":8.7,"wind_gusts":39.2,"aqi":64,"pm10":33.4,"pm2_5":27.2,"no2":13.5,"co":437.0,"o3":68.0,"so2":3.2,"mosquito_risk":7,"arthritis_risk":5,"migraine_risk":4,"frizz_risk":1,"updated_at":"2026-05-01T20:28:40.844781+05:30"},{"city":"Kannur","state":"Kerala","latitude":11.8745,"longitude":75.3704,"temp":29.3,"humidity":82,"rain":0.0,"pressure":1007.2,"uv_index":8.9,"wind_gusts":43.2,"aqi":68,"pm10":30.7,"pm2_5":18.2,"no2":7.1,"co":247.0,"o3":66.0,"so2":1.8,"mosquito_risk":7,"arthritis_risk":5,"migraine_risk":4,"frizz_risk":1,"updated_at":"2026-05-01T20:28:40.844787+05:30"},{"city":"Patna","state":"Bihar","latitude":25.5941,"longitude":85.1376,"temp":23.4,"humidity":82,"rain":0.0,"pressure":999.2,"uv_index":8.4,"wind_gusts":33.5,"aqi":162,"pm10":54.1,"pm2_5":38.4,"no2":11.6,"co":501.0,"o3":138.0,"so2":11.1,"mosquito_risk":3,"arthritis_risk":5,"migraine_risk":7,"frizz_risk":1,"updated_at":"2026-05-01T20:28:40.844793+05:30"},{"city":"Gaya","state":"Bihar","latitude":24.7914,"longitude":85.0002,"temp":26.7,"humidity":63,"rain":0.0,"pressure":991.8,"uv_index":8.7,"wind_gusts":32.8,"aqi":165,"pm10":65.7,"pm2_5":37.8,"no2":9.5,"co":467.0,"o3":137.0,"so2":9.2,"mosquito_risk":7,"arthritis_risk":5,"migraine_risk":7,"frizz_risk":1,"updated_at":"2026-05-01T20:28:40.844800+05:30"},{"city":"Muzaffarpur","state":"Bihar","latitude":26.1209,"longitude":85.3647,"temp":21.5,"humidity":90,"rain":0.0,"pressure":999.4,"uv_index":6.55,"wind_gusts":31.3,"aqi":158,"pm10":40.5,"pm2_5":31.7,"no2":11.6,"co":460.0,"o3":128.0,"so2":10.9,"mosquito_risk":3,"arthritis_risk":5,"migraine_risk":7,"frizz_risk":1,"updated_at":"2026-05-01T20:28:40.844806+05:30"},{"city":"Bhagalpur","state":"Bihar","latitude":25.2425,"longitude":87.0117,"temp":22.8,"humidity":90,"rain":0.0,"pressure":1000.2,"uv_index":8.5,"wind_gusts":49.3,"aqi":169,"pm10":38.0,"pm2_5":29.7,"no2":11.2,"co":361.0,"o3":119.0,"so2":6.4,"mosquito_risk":3,"arthritis_risk":5,"migraine_risk":4,"frizz_risk":1,"updated_at":"2026-05-01T20:28:40.844813+05:30"},{"city":"Ranchi","state":"Jharkhand","latitude":23.3441,"longitude":85.3096,"temp":21.3,"humidity":74,"rain":0.0,"pressure":934.8,"uv_index":9.05,"wind_gusts":48.2,"aqi":142,"pm10":79.4,"pm2_5":42.3,"no2":4.9,"co":267.0,"o3":148.0,"so2":8.2,"mosquito_risk":3,"arthritis_risk":5,"migraine_risk":7,"frizz_risk":1,"updated_at":"2026-05-01T20:28:40.844819+05:30"},{"city":"Jamshedpur","state":"Jharkhand","latitude":22.8046,"longitude":86.2029,"temp":26.1,"humidity":74,"rain":0.0,"pressure":988.9,"uv_index":9.0,"wind_gusts":24.8,"aqi":182,"pm10":69.2,"pm2_5":40.4,"no2":12.7,"co":390.0,"o3":117.0,"so2":14.8,"mosquito_risk":7,"arthritis_risk":5,"migraine_risk":7,"frizz_risk":1,"updated_at":"2026-05-01T20:28:40.844825+05:30"},{"city":"Dhanbad","state":"Jharkhand","latitude":23.7957,"longitude":86.4304,"temp":25.0,"humidity":83,"rain":0.1,"pressure":978.0,"uv_index":8.9,"wind_gusts":22.3,"aqi":196,"pm10":99.7,"pm2_5":66.4,"no2":50.2,"co":602.0,"o3":103.0,"so2":57.9,"mosquito_risk":10,"arthritis_risk":5,"migraine_risk":7,"frizz_risk":1,"updated_at":"2026-05-01T20:28:40.844831+05:30"},{"city":"Bokaro","state":"Jharkhand","latitude":23.6693,"longitude":86.1511,"temp":25.6,"humidity":70,"rain":0.0,"pressure":981.8,"uv_index":8.95,"wind_gusts":27.4,"aqi":186,"pm10":92.9,"pm2_5":49.1,"no2":34.6,"co":1369.0,"o3":106.0,"so2":41.5,"mosquito_risk":7,"arthritis_risk":5,"migraine_risk":7,"frizz_risk":1,"updated_at":"2026-05-01T20:28:40.844838+05:30"},{"city":"Bhubaneswar","state":"Odisha","latitude":20.2961,"longitude":85.8245,"temp":27.3,"humidity":88,"rain":0.0,"pressure":1000.9,"uv_index":8.4,"wind_gusts":47.2,"aqi":98,"pm10":30.5,"pm2_5":24.9,"no2":8.2,"co":517.0,"o3":107.0,"so2":5.2,"mosquito_risk":7,"arthritis_risk":5,"migraine_risk":4,"frizz_risk":1,"updated_at":"2026-05-01T20:28:40.844884+05:30"},{"city":"Cuttack","state":"Odisha","latitude":20.4625,"longitude":85.8828,"temp":27.2,"humidity":86,"rain":0.0,"pressure":1002.7,"uv_index":8.85,"wind_gusts":36.0,"aqi":98,"pm10":30.5,"pm2_5":24.9,"no2":8.2,"co":522.0,"o3":107.0,"so2":5.2,"mosquito_risk":7,"arthritis_risk":5,"migraine_risk":4,"frizz_risk":1,"updated_at":"2026-05-01T20:28:40.844893+05:30"},{"city":"Rourkela","state":"Odisha","latitude":22.2604,"longitude":84.8536,"temp":24.8,"humidity":85,"rain":0.0,"pressure":982.9,"uv_index":8.9,"wind_gusts":36.7,"aqi":194,"pm10":83.8,"pm2_5":49.4,"no2":11.3,"co":377.0,"o3":157.0,"so2":31.5,"mosquito_risk":3,"arthritis_risk":5,"migraine_risk":7,"frizz_risk":1,"updated_at":"2026-05-01T20:28:40.844900+05:30"},{"city":"Raipur","state":"Chhattisgarh","latitude":21.2514,"longitude":81.6296,"temp":33.9,"humidity":28,"rain":0.0,"pressure":971.0,"uv_index":8.95,"wind_gusts":42.8,"aqi":146,"pm10":90.1,"pm2_5":40.6,"no2":26.3,"co":263.0,"o3":94.0,"so2":6.9,"mosquito_risk":0,"arthritis_risk":5,"migraine_risk":7,"frizz_risk":0,"updated_at":"2026-05-01T20:28:40.844907+05:30"},{"city":"Bhilai","state":"Chhattisgarh","latitude":21.1938,"longitude":81.3509,"temp":34.0,"humidity":28,"rain":0.0,"pressure":971.4,"uv_index":8.95,"wind_gusts":54.7,"aqi":115,"pm10":83.1,"pm2_5":37.1,"no2":21.4,"co":672.0,"o3":107.0,"so2":6.4,"mosquito_risk":0,"arthritis_risk":5,"migraine_risk":7,"frizz_risk":0,"updated_at":"2026-05-01T20:28:40.844913+05:30"},{"city":"Guwahati","state":"Assam","latitude":26.1158,"longitude":91.7086,"temp":21.1,"humidity":96,"rain":0.0,"pressure":1002.1,"uv_index":7.7,"wind_gusts":28.8,"aqi":67,"pm10":36.2,"pm2_5":32.7,"no2":16.3,"co":391.0,"o3":71.0,"so2":4.5,"mosquito_risk":3,"arthritis_risk":5,"migraine_risk":4,"frizz_risk":1,"updated_at":"2026-05-01T20:28:40.844920+05:30"},{"city":"Agartala","state":"Tripura","latitude":23.8315,"longitude":91.2868,"temp":23.3,"humidity":87,"rain":0.0,"pressure":1006.1,"uv_index":5.1,"wind_gusts":38.2,"aqi":74,"pm10":43.3,"pm2_5":40.3,"no2":17.8,"co":204.0,"o3":83.0,"so2":3.5,"mosquito_risk":3,"arthritis_risk":5,"migraine_risk":0,"frizz_risk":1,"updated_at":"2026-05-01T20:28:40.844927+05:30"},{"city":"Shillong","state":"Meghalaya","latitude":25.5788,"longitude":91.8933,"temp":13.6,"humidity":92,"rain":0.0,"pressure":854.2,"uv_index":7.5,"wind_gusts":36.7,"aqi":56,"pm10":17.1,"pm2_5":15.9,"no2":13.0,"co":272.0,"o3":70.0,"so2":2.4,"mosquito_risk":3,"arthritis_risk":10,"migraine_risk":7,"frizz_risk":0,"updated_at":"2026-05-01T20:28:40.844934+05:30"},{"city":"Imphal","state":"Manipur","latitude":24.817,"longitude":93.9368,"temp":18.5,"humidity":98,"rain":0.1,"pressure":922.8,"uv_index":4.0,"wind_gusts":18.7,"aqi":76,"pm10":21.4,"pm2_5":19.6,"no2":16.1,"co":409.0,"o3":50.0,"so2":3.0,"mosquito_risk":6,"arthritis_risk":10,"migraine_risk":3,"frizz_risk":1,"updated_at":"2026-05-01T20:28:40.844941+05:30"},{"city":"Aizawl","state":"Mizoram","latitude":23.7271,"longitude":92.7176,"temp":16.7,"humidity":91,"rain":0.0,"pressure":891.6,"uv_index":4.95,"wind_gusts":50.4,"aqi":51,"pm10":10.9,"pm2_5":9.3,"no2":5.7,"co":192.0,"o3":61.0,"so2":1.2,"mosquito_risk":3,"arthritis_risk":10,"migraine_risk":3,"frizz_risk":0,"updated_at":"2026-05-01T20:28:40.844947+05:30"},{"city":"Kohima","state":"Nagaland","latitude":25.6701,"longitude":94.1077,"temp":15.6,"humidity":100,"rain":0.5,"pressure":854.0,"uv_index":4.45,"wind_gusts":23.0,"aqi":53,"pm10":20.7,"pm2_5":15.8,"no2":10.7,"co":399.0,"o3":67.0,"so2":1.8,"mosquito_risk":6,"arthritis_risk":10,"migraine_risk":3,"frizz_risk":0,"updated_at":"2026-05-01T20:28:40.844954+05:30"},{"city":"Gangtok","state":"Sikkim","latitude":27.3314,"longitude":88.6138,"temp":12.9,"humidity":89,"rain":0.1,"pressure":835.0,"uv_index":8.9,"wind_gusts":42.5,"aqi":82,"pm10":22.5,"pm2_5":14.6,"no2":7.4,"co":458.0,"o3":114.0,"so2":0.9,"mosquito_risk":6,"arthritis_risk":10,"migraine_risk":7,"frizz_risk":0,"updated_at":"2026-05-01T20:28:40.844960+05:30"},{"city":"Siliguri","state":"West Bengal","latitude":26.7271,"longitude":88.3953,"temp":20.5,"humidity":96,"rain":0.0,"pressure":992.7,"uv_index":6.6,"wind_gusts":26.6,"aqi":80,"pm10":37.6,"pm2_5":28.1,"no2":13.6,"co":559.0,"o3":108.0,"so2":3.6,"mosquito_risk":3,"arthritis_risk":5,"migraine_risk":7,"frizz_risk":1,"updated_at":"2026-05-01T20:28:44.179082+05:30"},{"city":"Durgapur","state":"West Bengal","latitude":23.5204,"longitude":87.3119,"temp":25.8,"humidity":73,"rain":0.0,"pressure":993.6,"uv_index":8.85,"wind_gusts":29.2,"aqi":204,"pm10":131.3,"pm2_5":99.7,"no2":29.0,"co":561.0,"o3":149.0,"so2":49.0,"mosquito_risk":7,"arthritis_risk":5,"migraine_risk":7,"frizz_risk":1,"updated_at":"2026-05-01T20:28:44.179111+05:30"},{"city":"Asansol","state":"West Bengal","latitude":23.6739,"longitude":86.9524,"temp":23.8,"humidity":86,"rain":0.0,"pressure":992.7,"uv_index":8.75,"wind_gusts":24.5,"aqi":203,"pm10":102.0,"pm2_5":72.6,"no2":31.1,"co":824.0,"o3":140.0,"so2":46.8,"mosquito_risk":3,"arthritis_risk":5,"migraine_risk":7,"frizz_risk":1,"updated_at":"2026-05-01T20:28:44.179126+05:30"},{"city":"Pondicherry","state":"Puducherry","latitude":11.9139,"longitude":79.8145,"temp":31.0,"humidity":77,"rain":0.0,"pressure":1006.9,"uv_index":8.7,"wind_gusts":43.6,"aqi":139,"pm10":22.1,"pm2_5":16.8,"no2":8.1,"co":188.0,"o3":105.0,"so2":6.6,"mosquito_risk":3,"arthritis_risk":5,"migraine_risk":4,"frizz_risk":1,"updated_at":"2026-05-01T20:28:44.179136+05:30"},{"city":"Port Blair","state":"Andaman and Nicobar Islands","latitude":11.6234,"longitude":92.7265,"temp":27.2,"humidity":92,"rain":0.0,"pressure":1008.7,"uv_index":9.1,"wind_gusts":24.8,"aqi":30,"pm10":6.7,"pm2_5":4.6,"no2":0.6,"co":375.0,"o3":58.0,"so2":2.4,"mosquito_risk":7,"arthritis_risk":0,"migraine_risk":4,"frizz_risk":1,"updated_at":"2026-05-01T20:28:44.179146+05:30"},{"city":"Haridwar","state":"Uttarakhand","latitude":29.9457,"longitude":78.1642,"temp":25.5,"humidity":65,"rain":0.0,"pressure":970.1,"uv_index":7.4,"wind_gusts":28.8,"aqi":149,"pm10":119.7,"pm2_5":44.7,"no2":12.7,"co":374.0,"o3":131.0,"so2":10.6,"mosquito_risk":7,"arthritis_risk":5,"migraine_risk":7,"frizz_risk":1,"updated_at":"2026-05-01T20:28:44.179155+05:30"},{"city":"Rishikesh","state":"Uttarakhand","latitude":30.0869,"longitude":78.2676,"temp":23.4,"humidity":68,"rain":0.0,"pressure":962.8,"uv_index":7.5,"wind_gusts":25.9,"aqi":144,"pm10":108.5,"pm2_5":37.7,"no2":8.3,"co":369.0,"o3":130.0,"so2":7.8,"mosquito_risk":3,"arthritis_risk":5,"migraine_risk":7,"frizz_risk":1,"updated_at":"2026-05-01T20:28:44.179164+05:30"},{"city":"Nainital","state":"Uttarakhand","latitude":29.3919,"longitude":79.4542,"temp":11.5,"humidity":92,"rain":0.0,"pressure":801.3,"uv_index":8.3,"wind_gusts":39.6,"aqi":131,"pm10":109.7,"pm2_5":35.6,"no2":10.6,"co":306.0,"o3":124.0,"so2":7.2,"mosquito_risk":3,"arthritis_risk":10,"migraine_risk":7,"frizz_risk":0,"updated_at":"2026-05-01T20:28:44.179173+05:30"},{"city":"Mussoorie","state":"Uttarakhand","latitude":30.4599,"longitude":78.0664,"temp":11.8,"humidity":93,"rain":0.0,"pressure":798.2,"uv_index":7.9,"wind_gusts":42.1,"aqi":160,"pm10":114.6,"pm2_5":44.2,"no2":15.3,"co":306.0,"o3":144.0,"so2":13.5,"mosquito_risk":3,"arthritis_risk":10,"migraine_risk":7,"frizz_risk":0,"updated_at":"2026-05-01T20:28:44.179182+05:30"},{"city":"Dharamshala","state":"Himachal Pradesh","latitude":32.219,"longitude":76.3234,"temp":18.3,"humidity":59,"rain":0.0,"pressure":865.0,"uv_index":8.2,"wind_gusts":46.8,"aqi":112,"pm10":14.1,"pm2_5":10.9,"no2":8.6,"co":310.0,"o3":116.0,"so2":1.4,"mosquito_risk":0,"arthritis_risk":5,"migraine_risk":7,"frizz_risk":0,"updated_at":"2026-05-01T20:28:44.179190+05:30"},{"city":"Dalhousie","state":"Himachal Pradesh","latitude":32.5387,"longitude":75.971,"temp":12.7,"humidity":74,"rain":0.0,"pressure":799.6,"uv_index":8.5,"wind_gusts":37.8,"aqi":143,"pm10":37.8,"pm2_5":23.7,"no2":20.8,"co":538.0,"o3":125.0,"so2":3.9,"mosquito_risk":3,"arthritis_risk":5,"migraine_risk":7,"frizz_risk":0,"updated_at":"2026-05-01T20:28:44.179200+05:30"},{"city":"Patiala","state":"Punjab","latitude":30.3398,"longitude":76.3869,"temp":29.9,"humidity":40,"rain":0.0,"pressure":973.5,"uv_index":7.5,"wind_gusts":38.5,"aqi":498,"pm10":286.8,"pm2_5":58.6,"no2":7.9,"co":329.0,"o3":136.0,"so2":15.1,"mosquito_risk":4,"arthritis_risk":5,"migraine_risk":7,"frizz_risk":0,"updated_at":"2026-05-01T20:28:44.179208+05:30"},{"city":"Bhatinda","state":"Punjab","latitude":30.211,"longitude":74.9455,"temp":31.8,"humidity":29,"rain":0.0,"pressure":978.5,"uv_index":8.1,"wind_gusts":36.7,"aqi":322,"pm10":69.2,"pm2_5":25.0,"no2":6.8,"co":328.0,"o3":120.0,"so2":7.9,"mosquito_risk":0,"arthritis_risk":5,"migraine_risk":7,"frizz_risk":0,"updated_at":"2026-05-01T20:28:44.179217+05:30"},{"city":"Rohtak","state":"Haryana","latitude":28.8955,"longitude":76.6066,"temp":32.0,"humidity":31,"rain":0.0,"pressure":976.7,"uv_index":7.6,"wind_gusts":29.2,"aqi":603,"pm10":371.6,"pm2_5":88.2,"no2":18.4,"co":420.0,"o3":162.0,"so2":21.6,"mosquito_risk":0,"arthritis_risk":5,"migraine_risk":7,"frizz_risk":0,"updated_at":"2026-05-01T20:28:44.179226+05:30"},{"city":"Panipat","state":"Haryana","latitude":29.3909,"longitude":76.9635,"temp":29.0,"humidity":51,"rain":0.0,"pressure":975.6,"uv_index":7.45,"wind_gusts":33.8,"aqi":1098,"pm10":497.3,"pm2_5":98.3,"no2":14.7,"co":344.0,"o3":161.0,"so2":22.8,"mosquito_risk":4,"arthritis_risk":5,"migraine_risk":7,"frizz_risk":1,"updated_at":"2026-05-01T20:28:44.179235+05:30"},{"city":"Mathura","state":"Uttar Pradesh","latitude":27.4924,"longitude":77.6737,"temp":30.0,"humidity":46,"rain":0.0,"pressure":981.4,"uv_index":7.85,"wind_gusts":28.1,"aqi":610,"pm10":446.1,"pm2_5":79.2,"no2":15.7,"co":340.0,"o3":117.0,"so2":9.3,"mosquito_risk":4,"arthritis_risk":5,"migraine_risk":7,"frizz_risk":1,"updated_at":"2026-05-01T20:28:44.179243+05:30"},{"city":"Vrindavan","state":"Uttar Pradesh","latitude":27.5823,"longitude":77.7027,"temp":30.0,"humidity":45,"rain":0.0,"pressure":981.9,"uv_index":7.8,"wind_gusts":28.4,"aqi":610,"pm10":446.1,"pm2_5":79.2,"no2":15.7,"co":342.0,"o3":117.0,"so2":9.3,"mosquito_risk":4,"arthritis_risk":5,"migraine_risk":7,"frizz_risk":1,"updated_at":"2026-05-01T20:28:44.179251+05:30"},{"city":"Ayodhya","state":"Uttar Pradesh","latitude":26.7922,"longitude":82.1998,"temp":26.5,"humidity":61,"rain":0.0,"pressure":993.1,"uv_index":8.15,"wind_gusts":28.4,"aqi":131,"pm10":90.8,"pm2_5":42.5,"no2":16.0,"co":318.0,"o3":106.0,"so2":8.8,"mosquito_risk":7,"arthritis_risk":5,"migraine_risk":7,"frizz_risk":1,"updated_at":"2026-05-01T20:28:44.179260+05:30"},{"city":"Ratlam","state":"Madhya Pradesh","latitude":23.3315,"longitude":75.0367,"temp":32.4,"humidity":30,"rain":0.0,"pressure":951.4,"uv_index":8.45,"wind_gusts":40.7,"aqi":69,"pm10":38.0,"pm2_5":16.2,"no2":1.6,"co":178.0,"o3":113.0,"so2":4.2,"mosquito_risk":0,"arthritis_risk":5,"migraine_risk":7,"frizz_risk":0,"updated_at":"2026-05-01T20:28:44.179268+05:30"},{"city":"Sagar","state":"Madhya Pradesh","latitude":23.8388,"longitude":78.7378,"temp":31.0,"humidity":26,"rain":0.0,"pressure":946.0,"uv_index":8.65,"wind_gusts":40.7,"aqi":83,"pm10":33.4,"pm2_5":14.8,"no2":5.5,"co":163.0,"o3":98.0,"so2":3.9,"mosquito_risk":0,"arthritis_risk":5,"migraine_risk":7,"frizz_risk":0,"updated_at":"2026-05-01T20:28:44.179276+05:30"},{"city":"Satna","state":"Madhya Pradesh","latitude":24.6005,"longitude":80.8322,"temp":30.0,"humidity":38,"rain":0.0,"pressure":967.5,"uv_index":8.65,"wind_gusts":52.6,"aqi":97,"pm10":82.4,"pm2_5":27.4,"no2":5.6,"co":231.0,"o3":114.0,"so2":4.5,"mosquito_risk":4,"arthritis_risk":5,"migraine_risk":7,"frizz_risk":0,"updated_at":"2026-05-01T20:28:44.179284+05:30"},{"city":"Akola","state":"Maharashtra","latitude":20.7002,"longitude":77.0082,"temp":35.5,"humidity":21,"rain":0.0,"pressure":971.3,"uv_index":8.9,"wind_gusts":40.0,"aqi":71,"pm10":31.0,"pm2_5":14.7,"no2":4.9,"co":172.0,"o3":102.0,"so2":10.5,"mosquito_risk":0,"arthritis_risk":5,"migraine_risk":10,"frizz_risk":0,"updated_at":"2026-05-01T20:28:44.179293+05:30"},{"city":"Amravati","state":"Maharashtra","latitude":20.9374,"longitude":77.7796,"temp":35.2,"humidity":22,"rain":0.0,"pressure":963.8,"uv_index":8.85,"wind_gusts":38.9,"aqi":82,"pm10":34.6,"pm2_5":15.9,"no2":6.4,"co":199.0,"o3":98.0,"so2":9.5,"mosquito_risk":0,"arthritis_risk":5,"migraine_risk":10,"frizz_risk":0,"updated_at":"2026-05-01T20:28:44.179303+05:30"},{"city":"Latur","state":"Maharashtra","latitude":18.4088,"longitude":76.5604,"temp":33.0,"humidity":21,"rain":0.0,"pressure":937.3,"uv_index":9.1,"wind_gusts":38.9,"aqi":58,"pm10":30.0,"pm2_5":15.5,"no2":10.3,"co":226.0,"o3":84.0,"so2":5.9,"mosquito_risk":0,"arthritis_risk":5,"migraine_risk":7,"frizz_risk":0,"updated_at":"2026-05-01T20:28:44.179311+05:30"},{"city":"Nanded","state":"Maharashtra","latitude":19.1383,"longitude":77.3091,"temp":33.8,"humidity":25,"rain":0.0,"pressure":964.6,"uv_index":9.0,"wind_gusts":32.8,"aqi":70,"pm10":38.9,"pm2_5":19.6,"no2":9.7,"co":268.0,"o3":87.0,"so2":3.2,"mosquito_risk":0,"arthritis_risk":5,"migraine_risk":7,"frizz_risk":0,"updated_at":"2026-05-01T20:28:44.179319+05:30"},{"city":"Gulbarga","state":"Karnataka","latitude":17.3297,"longitude":76.8343,"temp":34.4,"humidity":18,"rain":0.0,"pressure":955.8,"uv_index":9.1,"wind_gusts":44.6,"aqi":62,"pm10":31.9,"pm2_5":15.1,"no2":18.2,"co":188.0,"o3":73.0,"so2":3.7,"mosquito_risk":0,"arthritis_risk":5,"migraine_risk":7,"frizz_risk":0,"updated_at":"2026-05-01T20:28:44.179327+05:30"},{"city":"Bidar","state":"Karnataka","latitude":17.9104,"longitude":77.5199,"temp":31.7,"humidity":26,"rain":0.0,"pressure":933.0,"uv_index":9.15,"wind_gusts":37.4,"aqi":78,"pm10":34.8,"pm2_5":18.9,"no2":10.8,"co":228.0,"o3":92.0,"so2":4.9,"mosquito_risk":0,"arthritis_risk":5,"migraine_risk":7,"frizz_risk":0,"updated_at":"2026-05-01T20:28:44.179335+05:30"},{"city":"Hospet","state":"Karnataka","latitude":15.2689,"longitude":76.3909,"temp":31.6,"humidity":39,"rain":0.0,"pressure":954.5,"uv_index":9.25,"wind_gusts":38.5,"aqi":74,"pm10":26.2,"pm2_5":15.4,"no2":6.9,"co":225.0,"o3":104.0,"so2":1.9,"mosquito_risk":0,"arthritis_risk":5,"migraine_risk":7,"frizz_risk":0,"updated_at":"2026-05-01T20:28:44.179343+05:30"},{"city":"Tirupur","state":"Tamil Nadu","latitude":11.1085,"longitude":77.3411,"temp":29.3,"humidity":69,"rain":0.1,"pressure":975.4,"uv_index":9.2,"wind_gusts":53.3,"aqi":155,"pm10":35.4,"pm2_5":31.0,"no2":19.1,"co":317.0,"o3":105.0,"so2":5.1,"mosquito_risk":10,"arthritis_risk":5,"migraine_risk":7,"frizz_risk":1,"updated_at":"2026-05-01T20:28:44.179351+05:30"},{"city":"Alappuzha","state":"Kerala","latitude":9.4981,"longitude":76.3388,"temp":27.1,"humidity":91,"rain":0.0,"pressure":1009.3,"uv_index":8.95,"wind_gusts":33.8,"aqi":52,"pm10":27.8,"pm2_5":21.6,"no2":18.8,"co":170.0,"o3":77.0,"so2":5.0,"mosquito_risk":7,"arthritis_risk":0,"migraine_risk":4,"frizz_risk":1,"updated_at":"2026-05-01T20:28:44.179359+05:30"},{"city":"Munnar","state":"Kerala","latitude":10.0889,"longitude":77.0595,"temp":18.1,"humidity":97,"rain":0.0,"pressure":857.0,"uv_index":8.3,"wind_gusts":28.4,"aqi":50,"pm10":22.7,"pm2_5":19.3,"no2":8.8,"co":355.0,"o3":73.0,"so2":1.9,"mosquito_risk":3,"arthritis_risk":10,"migraine_risk":7,"frizz_risk":1,"updated_at":"2026-05-01T20:28:44.179367+05:30"},{"city":"Silchar","state":"Assam","latitude":24.8333,"longitude":92.7789,"temp":21.5,"humidity":96,"rain":0.1,"pressure":1006.0,"uv_index":0.8,"wind_gusts":24.1,"aqi":102,"pm10":41.9,"pm2_5":41.3,"no2":13.4,"co":339.0,"o3":59.0,"so2":6.8,"mosquito_risk":6,"arthritis_risk":5,"migraine_risk":0,"frizz_risk":1,"updated_at":"2026-05-01T20:28:44.179376+05:30"},{"city":"Dibrugarh","state":"Assam","latitude":27.4728,"longitude":94.912,"temp":20.2,"humidity":96,"rain":0.1,"pressure":996.5,"uv_index":5.65,"wind_gusts":33.5,"aqi":65,"pm10":37.8,"pm2_5":27.6,"no2":15.0,"co":270.0,"o3":61.0,"so2":2.9,"mosquito_risk":6,"arthritis_risk":5,"migraine_risk":3,"frizz_risk":1,"updated_at":"2026-05-01T20:28:44.179384+05:30"}]