[{"city":"Delhi","state":"Delhi","latitude":28.6139,"longitude":77.209,"temp":41.8,"humidity":16,"rain":0.0,"pressure":974.9,"uv_index":7.75,"wind_gusts":40.7,"aqi":162,"pm10":372.5,"pm2_5":66.6,"no2":4.0,"co":224.0,"o3":168.0,"so2":10.9,"mosquito_risk":0,"arthritis_risk":5,"migraine_risk":10,"frizz_risk":0,"updated_at":"2026-06-08T14:54:47.955479+05:30"},{"city":"Mumbai","state":"Maharashtra","latitude":19.076,"longitude":72.8777,"temp":33.7,"humidity":53,"rain":0.0,"pressure":1005.5,"uv_index":7.6,"wind_gusts":45.7,"aqi":82,"pm10":65.0,"pm2_5":24.1,"no2":4.4,"co":156.0,"o3":98.0,"so2":7.0,"mosquito_risk":0,"arthritis_risk":5,"migraine_risk":4,"frizz_risk":1,"updated_at":"2026-06-08T14:54:47.955525+05:30"},{"city":"Bangalore","state":"Karnataka","latitude":12.9716,"longitude":77.5946,"temp":28.5,"humidity":58,"rain":0.1,"pressure":910.6,"uv_index":7.2,"wind_gusts":52.6,"aqi":31,"pm10":5.9,"pm2_5":4.1,"no2":3.0,"co":280.0,"o3":90.0,"so2":2.1,"mosquito_risk":7,"arthritis_risk":5,"migraine_risk":7,"frizz_risk":1,"updated_at":"2026-06-08T14:54:47.955540+05:30"},{"city":"Hyderabad","state":"Telangana","latitude":17.385,"longitude":78.4867,"temp":33.2,"humidity":45,"rain":0.0,"pressure":950.0,"uv_index":6.4,"wind_gusts":36.0,"aqi":77,"pm10":51.8,"pm2_5":27.2,"no2":2.3,"co":216.0,"o3":120.0,"so2":5.0,"mosquito_risk":0,"arthritis_risk":5,"migraine_risk":7,"frizz_risk":1,"updated_at":"2026-06-08T14:54:47.955550+05:30"},{"city":"Chennai","state":"Tamil Nadu","latitude":13.0827,"longitude":80.2707,"temp":37.6,"humidity":39,"rain":0.0,"pressure":1002.7,"uv_index":8.9,"wind_gusts":44.3,"aqi":53,"pm10":20.0,"pm2_5":15.2,"no2":3.4,"co":233.0,"o3":118.0,"so2":4.9,"mosquito_risk":0,"arthritis_risk":5,"migraine_risk":7,"frizz_risk":1,"updated_at":"2026-06-08T14:54:47.955558+05:30"},{"city":"Kolkata","state":"West Bengal","latitude":22.5726,"longitude":88.3639,"temp":36.1,"humidity":50,"rain":0.1,"pressure":997.4,"uv_index":8.95,"wind_gusts":36.4,"aqi":145,"pm10":62.6,"pm2_5":48.2,"no2":4.9,"co":457.0,"o3":186.0,"so2":17.6,"mosquito_risk":3,"arthritis_risk":5,"migraine_risk":10,"frizz_risk":1,"updated_at":"2026-06-08T14:54:47.955566+05:30"},{"city":"Pune","state":"Maharashtra","latitude":18.5204,"longitude":73.8567,"temp":30.9,"humidity":52,"rain":0.2,"pressure":945.9,"uv_index":5.85,"wind_gusts":46.8,"aqi":72,"pm10":34.2,"pm2_5":14.4,"no2":1.9,"co":134.0,"o3":97.0,"so2":3.7,"mosquito_risk":3,"arthritis_risk":5,"migraine_risk":3,"frizz_risk":1,"updated_at":"2026-06-08T14:54:47.955573+05:30"},{"city":"Ahmedabad","state":"Gujarat","latitude":23.0225,"longitude":72.5714,"temp":40.9,"humidity":33,"rain":0.0,"pressure":995.3,"uv_index":7.8,"wind_gusts":45.0,"aqi":78,"pm10":72.2,"pm2_5":27.0,"no2":1.5,"co":140.0,"o3":104.0,"so2":5.0,"mosquito_risk":0,"arthritis_risk":5,"migraine_risk":10,"frizz_risk":1,"updated_at":"2026-06-08T14:54:47.955580+05:30"},{"city":"Jaipur","state":"Rajasthan","latitude":26.9124,"longitude":75.7873,"temp":40.5,"humidity":23,"rain":0.0,"pressure":953.9,"uv_index":8.2,"wind_gusts":43.2,"aqi":142,"pm10":262.6,"pm2_5":53.7,"no2":1.0,"co":145.0,"o3":115.0,"so2":3.2,"mosquito_risk":0,"arthritis_risk":5,"migraine_risk":10,"frizz_risk":0,"updated_at":"2026-06-08T14:54:47.955592+05:30"},{"city":"Lucknow","state":"Uttar Pradesh","latitude":26.8467,"longitude":80.9462,"temp":40.6,"humidity":25,"rain":0.0,"pressure":984.6,"uv_index":8.3,"wind_gusts":36.4,"aqi":150,"pm10":204.0,"pm2_5":46.9,"no2":1.3,"co":182.0,"o3":131.0,"so2":3.8,"mosquito_risk":0,"arthritis_risk":5,"migraine_risk":10,"frizz_risk":1,"updated_at":"2026-06-08T14:54:47.955599+05:30"},{"city":"Kanpur","state":"Uttar Pradesh","latitude":26.4499,"longitude":80.3319,"temp":41.5,"humidity":25,"rain":0.0,"pressure":983.1,"uv_index":8.3,"wind_gusts":38.9,"aqi":178,"pm10":512.2,"pm2_5":74.0,"no2":1.3,"co":151.0,"o3":127.0,"so2":4.1,"mosquito_risk":0,"arthritis_risk":5,"migraine_risk":10,"frizz_risk":1,"updated_at":"2026-06-08T14:54:47.955605+05:30"},{"city":"Chandigarh","state":"Chandigarh","latitude":30.7333,"longitude":76.7794,"temp":37.8,"humidity":24,"rain":0.0,"pressure":961.4,"uv_index":7.8,"wind_gusts":31.3,"aqi":144,"pm10":22.8,"pm2_5":17.3,"no2":2.0,"co":286.0,"o3":193.0,"so2":9.9,"mosquito_risk":0,"arthritis_risk":5,"migraine_risk":10,"frizz_risk":0,"updated_at":"2026-06-08T14:54:47.955612+05:30"},{"city":"Srinagar","state":"Jammu and Kashmir","latitude":34.0837,"longitude":74.7973,"temp":27.4,"humidity":38,"rain":0.0,"pressure":841.0,"uv_index":9.0,"wind_gusts":20.9,"aqi":78,"pm10":17.5,"pm2_5":10.7,"no2":1.2,"co":274.0,"o3":151.0,"so2":2.0,"mosquito_risk":4,"arthritis_risk":5,"migraine_risk":7,"frizz_risk":0,"updated_at":"2026-06-08T14:54:47.955620+05:30"},{"city":"Jammu","state":"Jammu and Kashmir","latitude":32.7266,"longitude":74.857,"temp":40.0,"humidity":17,"rain":0.0,"pressure":965.3,"uv_index":8.6,"wind_gusts":34.9,"aqi":91,"pm10":17.3,"pm2_5":10.6,"no2":1.5,"co":163.0,"o3":165.0,"so2":2.3,"mosquito_risk":0,"arthritis_risk":5,"migraine_risk":10,"frizz_risk":0,"updated_at":"2026-06-08T14:54:47.955626+05:30"},{"city":"Amritsar","state":"Punjab","latitude":31.634,"longitude":74.8723,"temp":40.9,"humidity":18,"rain":0.0,"pressure":972.8,"uv_index":8.45,"wind_gusts":33.8,"aqi":129,"pm10":29.8,"pm2_5":17.9,"no2":1.8,"co":254.0,"o3":180.0,"so2":6.3,"mosquito_risk":0,"arthritis_risk":5,"migraine_risk":10,"frizz_risk":0,"updated_at":"2026-06-08T14:54:47.955633+05:30"},{"city":"Ludhiana","state":"Punjab","latitude":30.901,"longitude":75.8573,"temp":40.6,"humidity":17,"rain":0.0,"pressure":970.9,"uv_index":8.05,"wind_gusts":37.4,"aqi":126,"pm10":28.6,"pm2_5":15.5,"no2":1.4,"co":235.0,"o3":169.0,"so2":3.7,"mosquito_risk":0,"arthritis_risk":5,"migraine_risk":10,"frizz_risk":0,"updated_at":"2026-06-08T14:54:47.955639+05:30"},{"city":"Jalandhar","state":"Punjab","latitude":31.326,"longitude":75.5762,"temp":40.8,"humidity":17,"rain":0.0,"pressure":971.8,"uv_index":8.25,"wind_gusts":33.8,"aqi":118,"pm10":35.9,"pm2_5":16.1,"no2":1.3,"co":254.0,"o3":169.0,"so2":3.9,"mosquito_risk":0,"arthritis_risk":5,"migraine_risk":10,"frizz_risk":0,"updated_at":"2026-06-08T14:54:47.955645+05:30"},{"city":"Dehradun","state":"Uttarakhand","latitude":30.6284,"longitude":78.0322,"temp":25.5,"humidity":41,"rain":0.0,"pressure":828.9,"uv_index":8.25,"wind_gusts":39.2,"aqi":99,"pm10":18.2,"pm2_5":11.9,"no2":0.9,"co":250.0,"o3":163.0,"so2":3.6,"mosquito_risk":4,"arthritis_risk":5,"migraine_risk":7,"frizz_risk":0,"updated_at":"2026-06-08T14:54:47.955652+05:30"},{"city":"Shimla","state":"Himachal Pradesh","latitude":31.1048,"longitude":77.1734,"temp":24.3,"humidity":28,"rain":0.0,"pressure":785.1,"uv_index":8.35,"wind_gusts":42.5,"aqi":112,"pm10":14.6,"pm2_5":10.1,"no2":0.9,"co":181.0,"o3":169.0,"so2":5.6,"mosquito_risk":0,"arthritis_risk":5,"migraine_risk":7,"frizz_risk":0,"updated_at":"2026-06-08T14:54:47.955661+05:30"},{"city":"Manali","state":"Himachal Pradesh","latitude":32.2396,"longitude":77.1887,"temp":25.0,"humidity":36,"rain":0.1,"pressure":818.0,"uv_index":9.9,"wind_gusts":36.0,"aqi":113,"pm10":16.4,"pm2_5":13.5,"no2":4.2,"co":148.0,"o3":168.0,"so2":0.5,"mosquito_risk":7,"arthritis_risk":5,"migraine_risk":7,"frizz_risk":0,"updated_at":"2026-06-08T14:54:47.955682+05:30"},{"city":"Gurgaon","state":"Haryana","latitude":28.4595,"longitude":77.0266,"temp":41.1,"humidity":16,"rain":0.0,"pressure":973.5,"uv_index":7.85,"wind_gusts":41.0,"aqi":565,"pm10":1736.0,"pm2_5":211.9,"no2":3.8,"co":192.0,"o3":148.0,"so2":8.2,"mosquito_risk":0,"arthritis_risk":5,"migraine_risk":10,"frizz_risk":0,"updated_at":"2026-06-08T14:54:47.955690+05:30"},{"city":"Noida","state":"Uttar Pradesh","latitude":28.5355,"longitude":77.391,"temp":41.6,"humidity":18,"rain":0.0,"pressure":975.8,"uv_index":7.8,"wind_gusts":33.1,"aqi":565,"pm10":1736.0,"pm2_5":211.9,"no2":3.8,"co":222.0,"o3":148.0,"so2":8.2,"mosquito_risk":0,"arthritis_risk":5,"migraine_risk":10,"frizz_risk":0,"updated_at":"2026-06-08T14:54:47.955699+05:30"},{"city":"Ghaziabad","state":"Uttar Pradesh","latitude":28.6692,"longitude":77.4538,"temp":40.2,"humidity":21,"rain":0.0,"pressure":974.4,"uv_index":7.75,"wind_gusts":35.6,"aqi":159,"pm10":222.6,"pm2_5":52.5,"no2":3.3,"co":234.0,"o3":190.0,"so2":13.9,"mosquito_risk":0,"arthritis_risk":5,"migraine_risk":10,"frizz_risk":0,"updated_at":"2026-06-08T14:54:47.955705+05:30"},{"city":"Faridabad","state":"Haryana","latitude":28.4089,"longitude":77.3178,"temp":41.5,"humidity":16,"rain":0.0,"pressure":975.4,"uv_index":7.8,"wind_gusts":42.1,"aqi":565,"pm10":1736.0,"pm2_5":211.9,"no2":3.8,"co":190.0,"o3":148.0,"so2":8.2,"mosquito_risk":0,"arthritis_risk":5,"migraine_risk":10,"frizz_risk":0,"updated_at":"2026-06-08T14:54:47.955712+05:30"},{"city":"Meerut","state":"Uttar Pradesh","latitude":28.9845,"longitude":77.7064,"temp":38.5,"humidity":32,"rain":0.0,"pressure":973.6,"uv_index":7.65,"wind_gusts":33.1,"aqi":159,"pm10":222.6,"pm2_5":52.5,"no2":3.3,"co":239.0,"o3":190.0,"so2":13.9,"mosquito_risk":0,"arthritis_risk":5,"migraine_risk":10,"frizz_risk":1,"updated_at":"2026-06-08T14:54:47.955718+05:30"},{"city":"Agra","state":"Uttar Pradesh","latitude":27.1767,"longitude":78.0081,"temp":41.8,"humidity":17,"rain":0.0,"pressure":979.6,"uv_index":8.1,"wind_gusts":39.2,"aqi":635,"pm10":1236.8,"pm2_5":144.4,"no2":1.6,"co":137.0,"o3":118.0,"so2":3.7,"mosquito_risk":0,"arthritis_risk":5,"migraine_risk":10,"frizz_risk":0,"updated_at":"2026-06-08T14:54:47.955724+05:30"},{"city":"Varanasi","state":"Uttar Pradesh","latitude":25.3176,"longitude":82.9739,"temp":41.4,"humidity":23,"rain":0.0,"pressure":988.3,"uv_index":8.8,"wind_gusts":36.7,"aqi":138,"pm10":79.6,"pm2_5":29.2,"no2":1.4,"co":191.0,"o3":142.0,"so2":5.3,"mosquito_risk":0,"arthritis_risk":5,"migraine_risk":10,"frizz_risk":0,"updated_at":"2026-06-08T14:54:47.955731+05:30"},{"city":"Prayagraj","state":"Uttar Pradesh","latitude":25.4358,"longitude":81.8463,"temp":41.1,"humidity":24,"rain":0.0,"pressure":987.3,"uv_index":8.7,"wind_gusts":39.2,"aqi":134,"pm10":93.4,"pm2_5":31.8,"no2":1.4,"co":158.0,"o3":135.0,"so2":4.9,"mosquito_risk":0,"arthritis_risk":5,"migraine_risk":10,"frizz_risk":1,"updated_at":"2026-06-08T14:54:47.955738+05:30"},{"city":"Gorakhpur","state":"Uttar Pradesh","latitude":26.7606,"longitude":83.3732,"temp":37.9,"humidity":37,"rain":0.0,"pressure":987.8,"uv_index":8.5,"wind_gusts":31.3,"aqi":144,"pm10":167.6,"pm2_5":54.6,"no2":1.5,"co":247.0,"o3":165.0,"so2":8.7,"mosquito_risk":0,"arthritis_risk":5,"migraine_risk":10,"frizz_risk":1,"updated_at":"2026-06-08T14:54:47.955746+05:30"},{"city":"Bareilly","state":"Uttar Pradesh","latitude":28.367,"longitude":79.4304,"temp":38.7,"humidity":34,"rain":0.0,"pressure":978.1,"uv_index":8.1,"wind_gusts":27.7,"aqi":152,"pm10":125.7,"pm2_5":44.8,"no2":1.4,"co":240.0,"o3":164.0,"so2":10.3,"mosquito_risk":0,"arthritis_risk":5,"migraine_risk":10,"frizz_risk":1,"updated_at":"2026-06-08T14:54:47.955752+05:30"},{"city":"Aligarh","state":"Uttar Pradesh","latitude":27.8974,"longitude":78.088,"temp":40.3,"humidity":22,"rain":0.0,"pressure":977.4,"uv_index":7.95,"wind_gusts":36.0,"aqi":223,"pm10":957.4,"pm2_5":131.3,"no2":2.1,"co":169.0,"o3":153.0,"so2":8.6,"mosquito_risk":0,"arthritis_risk":5,"migraine_risk":10,"frizz_risk":0,"updated_at":"2026-06-08T14:54:47.955758+05:30"},{"city":"Moradabad","state":"Uttar Pradesh","latitude":28.8386,"longitude":78.7733,"temp":39.1,"humidity":30,"rain":0.0,"pressure":975.3,"uv_index":7.9,"wind_gusts":36.4,"aqi":160,"pm10":133.6,"pm2_5":50.4,"no2":2.4,"co":262.0,"o3":202.0,"so2":17.3,"mosquito_risk":0,"arthritis_risk":5,"migraine_risk":10,"frizz_risk":1,"updated_at":"2026-06-08T14:54:47.955764+05:30"},{"city":"Saharanpur","state":"Uttar Pradesh","latitude":29.9637,"longitude":77.546,"temp":37.0,"humidity":31,"rain":0.0,"pressure":968.0,"uv_index":7.45,"wind_gusts":28.1,"aqi":149,"pm10":43.3,"pm2_5":28.5,"no2":2.5,"co":294.0,"o3":206.0,"so2":14.4,"mosquito_risk":0,"arthritis_risk":5,"migraine_risk":10,"frizz_risk":1,"updated_at":"2026-06-08T14:54:47.955770+05:30"},{"city":"Jhansi","state":"Uttar Pradesh","latitude":25.4484,"longitude":78.5685,"temp":39.4,"humidity":32,"rain":0.0,"pressure":971.1,"uv_index":8.3,"wind_gusts":42.1,"aqi":80,"pm10":99.9,"pm2_5":30.2,"no2":0.9,"co":136.0,"o3":103.0,"so2":3.7,"mosquito_risk":0,"arthritis_risk":5,"migraine_risk":10,"frizz_risk":1,"updated_at":"2026-06-08T14:54:51.220732+05:30"},{"city":"Surat","state":"Gujarat","latitude":21.1702,"longitude":72.8311,"temp":35.7,"humidity":50,"rain":0.0,"pressure":1002.1,"uv_index":7.55,"wind_gusts":55.1,"aqi":85,"pm10":67.3,"pm2_5":27.8,"no2":9.3,"co":208.0,"o3":68.0,"so2":32.0,"mosquito_risk":0,"arthritis_risk":5,"migraine_risk":7,"frizz_risk":1,"updated_at":"2026-06-08T14:54:51.220764+05:30"},{"city":"Vadodara","state":"Gujarat","latitude":22.3072,"longitude":73.1812,"temp":38.8,"humidity":38,"rain":0.0,"pressure":998.4,"uv_index":8.0,"wind_gusts":50.4,"aqi":83,"pm10":67.1,"pm2_5":29.1,"no2":1.6,"co":134.0,"o3":117.0,"so2":5.8,"mosquito_risk":0,"arthritis_risk":5,"migraine_risk":10,"frizz_risk":1,"updated_at":"2026-06-08T14:54:51.220774+05:30"},{"city":"Rajkot","state":"Gujarat","latitude":22.3039,"longitude":70.8022,"temp":40.6,"humidity":33,"rain":0.0,"pressure":988.0,"uv_index":7.6,"wind_gusts":48.6,"aqi":74,"pm10":76.4,"pm2_5":28.0,"no2":1.0,"co":117.0,"o3":108.0,"so2":4.6,"mosquito_risk":0,"arthritis_risk":5,"migraine_risk":10,"frizz_risk":1,"updated_at":"2026-06-08T14:54:51.220782+05:30"},{"city":"Thane","state":"Maharashtra","latitude":19.2183,"longitude":72.9781,"temp":35.8,"humidity":43,"rain":0.0,"pressure":1004.4,"uv_index":7.6,"wind_gusts":42.5,"aqi":82,"pm10":65.0,"pm2_5":24.1,"no2":4.4,"co":150.0,"o3":98.0,"so2":7.0,"mosquito_risk":0,"arthritis_risk":5,"migraine_risk":7,"frizz_risk":1,"updated_at":"2026-06-08T14:54:51.220790+05:30"},{"city":"Nagpur","state":"Maharashtra","latitude":21.1458,"longitude":79.0882,"temp":40.8,"humidity":25,"rain":0.0,"pressure":967.3,"uv_index":8.9,"wind_gusts":44.6,"aqi":89,"pm10":56.7,"pm2_5":28.9,"no2":3.6,"co":165.0,"o3":150.0,"so2":16.7,"mosquito_risk":0,"arthritis_risk":5,"migraine_risk":10,"frizz_risk":1,"updated_at":"2026-06-08T14:54:51.220798+05:30"},{"city":"Nashik","state":"Maharashtra","latitude":19.9975,"longitude":73.7898,"temp":34.9,"humidity":38,"rain":0.0,"pressure":942.8,"uv_index":8.05,"wind_gusts":50.4,"aqi":74,"pm10":57.5,"pm2_5":20.8,"no2":0.9,"co":123.0,"o3":92.0,"so2":1.5,"mosquito_risk":0,"arthritis_risk":5,"migraine_risk":7,"frizz_risk":1,"updated_at":"2026-06-08T14:54:51.220805+05:30"},{"city":"Aurangabad","state":"Maharashtra","latitude":19.8762,"longitude":75.3433,"temp":37.2,"humidity":29,"rain":0.0,"pressure":940.7,"uv_index":9.0,"wind_gusts":49.0,"aqi":75,"pm10":55.5,"pm2_5":22.4,"no2":0.9,"co":134.0,"o3":107.0,"so2":2.7,"mosquito_risk":0,"arthritis_risk":5,"migraine_risk":10,"frizz_risk":1,"updated_at":"2026-06-08T14:54:51.220834+05:30"},{"city":"Solapur","state":"Maharashtra","latitude":17.6599,"longitude":75.9064,"temp":34.1,"humidity":41,"rain":0.0,"pressure":954.2,"uv_index":8.7,"wind_gusts":43.2,"aqi":62,"pm10":61.0,"pm2_5":24.4,"no2":1.1,"co":124.0,"o3":106.0,"so2":2.5,"mosquito_risk":0,"arthritis_risk":5,"migraine_risk":7,"frizz_risk":1,"updated_at":"2026-06-08T14:54:51.220843+05:30"},{"city":"Kolhapur","state":"Maharashtra","latitude":16.705,"longitude":74.2433,"temp":30.1,"humidity":57,"rain":0.0,"pressure":946.5,"uv_index":8.35,"wind_gusts":42.8,"aqi":36,"pm10":15.7,"pm2_5":8.3,"no2":2.4,"co":143.0,"o3":73.0,"so2":1.5,"mosquito_risk":0,"arthritis_risk":5,"migraine_risk":7,"frizz_risk":1,"updated_at":"2026-06-08T14:54:51.220850+05:30"},{"city":"Goa","state":"Goa","latitude":15.2993,"longitude":74.124,"temp":26.6,"humidity":96,"rain":0.0,"pressure":997.6,"uv_index":2.05,"wind_gusts":32.8,"aqi":38,"pm10":8.5,"pm2_5":5.2,"no2":1.7,"co":125.0,"o3":67.0,"so2":0.8,"mosquito_risk":7,"arthritis_risk":5,"migraine_risk":3,"frizz_risk":1,"updated_at":"2026-06-08T14:54:51.220858+05:30"},{"city":"Jodhpur","state":"Rajasthan","latitude":26.2389,"longitude":73.0243,"temp":40.6,"humidity":32,"rain":0.0,"pressure":976.3,"uv_index":8.4,"wind_gusts":39.2,"aqi":146,"pm10":250.5,"pm2_5":53.7,"no2":0.6,"co":121.0,"o3":98.0,"so2":2.2,"mosquito_risk":0,"arthritis_risk":5,"migraine_risk":10,"frizz_risk":1,"updated_at":"2026-06-08T14:54:51.220865+05:30"},{"city":"Udaipur","state":"Rajasthan","latitude":24.5854,"longitude":73.7125,"temp":36.8,"humidity":37,"rain":0.0,"pressure":942.2,"uv_index":8.8,"wind_gusts":38.9,"aqi":73,"pm10":69.6,"pm2_5":26.3,"no2":0.6,"co":123.0,"o3":94.0,"so2":3.1,"mosquito_risk":0,"arthritis_risk":5,"migraine_risk":10,"frizz_risk":1,"updated_at":"2026-06-08T14:54:51.220871+05:30"},{"city":"Kota","state":"Rajasthan","latitude":25.2138,"longitude":75.8648,"temp":39.9,"humidity":34,"rain":0.0,"pressure":972.1,"uv_index":8.4,"wind_gusts":33.1,"aqi":90,"pm10":95.9,"pm2_5":30.9,"no2":0.8,"co":138.0,"o3":114.0,"so2":4.9,"mosquito_risk":0,"arthritis_risk":5,"migraine_risk":10,"frizz_risk":1,"updated_at":"2026-06-08T14:54:51.220879+05:30"},{"city":"Bikaner","state":"Rajasthan","latitude":28.0229,"longitude":73.3119,"temp":43.4,"humidity":15,"rain":0.0,"pressure":974.2,"uv_index":8.45,"wind_gusts":32.0,"aqi":154,"pm10":134.1,"pm2_5":47.4,"no2":0.3,"co":129.0,"o3":107.0,"so2":3.2,"mosquito_risk":0,"arthritis_risk":5,"migraine_risk":10,"frizz_risk":0,"updated_at":"2026-06-08T14:54:51.220886+05:30"},{"city":"Ajmer","state":"Rajasthan","latitude":26.4499,"longitude":74.6399,"temp":37.4,"humidity":37,"rain":0.0,"pressure":949.3,"uv_index":8.35,"wind_gusts":45.7,"aqi":87,"pm10":122.5,"pm2_5":37.5,"no2":0.6,"co":128.0,"o3":105.0,"so2":2.6,"mosquito_risk":0,"arthritis_risk":5,"migraine_risk":10,"frizz_risk":1,"updated_at":"2026-06-08T14:54:51.220893+05:30"},{"city":"Gwalior","state":"Madhya Pradesh","latitude":26.2183,"longitude":78.1828,"temp":40.7,"humidity":23,"rain":0.0,"pressure":975.8,"uv_index":8.2,"wind_gusts":43.9,"aqi":90,"pm10":170.0,"pm2_5":44.4,"no2":0.6,"co":138.0,"o3":105.0,"so2":3.1,"mosquito_risk":0,"arthritis_risk":5,"migraine_risk":10,"frizz_risk":0,"updated_at":"2026-06-08T14:54:51.220900+05:30"},{"city":"Indore","state":"Madhya Pradesh","latitude":22.7196,"longitude":75.8577,"temp":38.1,"humidity":34,"rain":0.0,"pressure":943.8,"uv_index":8.65,"wind_gusts":44.3,"aqi":90,"pm10":68.2,"pm2_5":29.1,"no2":1.0,"co":166.0,"o3":112.0,"so2":4.7,"mosquito_risk":0,"arthritis_risk":5,"migraine_risk":10,"frizz_risk":1,"updated_at":"2026-06-08T14:54:51.220907+05:30"},{"city":"Bhopal","state":"Madhya Pradesh","latitude":23.2599,"longitude":77.4126,"temp":38.3,"humidity":34,"rain":0.0,"pressure":948.8,"uv_index":8.7,"wind_gusts":39.2,"aqi":89,"pm10":67.5,"pm2_5":28.1,"no2":0.7,"co":160.0,"o3":110.0,"so2":4.9,"mosquito_risk":0,"arthritis_risk":5,"migraine_risk":10,"frizz_risk":1,"updated_at":"2026-06-08T14:54:51.220914+05:30"},{"city":"Jabalpur","state":"Madhya Pradesh","latitude":23.1815,"longitude":79.9864,"temp":40.4,"humidity":22,"rain":0.0,"pressure":955.4,"uv_index":8.95,"wind_gusts":34.2,"aqi":90,"pm10":73.8,"pm2_5":28.1,"no2":0.8,"co":148.0,"o3":121.0,"so2":4.6,"mosquito_risk":0,"arthritis_risk":5,"migraine_risk":10,"frizz_risk":0,"updated_at":"2026-06-08T14:54:51.220921+05:30"},{"city":"Ujjain","state":"Madhya Pradesh","latitude":23.1765,"longitude":75.7885,"temp":36.9,"humidity":38,"rain":0.0,"pressure":949.1,"uv_index":8.6,"wind_gusts":42.1,"aqi":87,"pm10":68.2,"pm2_5":28.9,"no2":0.6,"co":144.0,"o3":108.0,"so2":4.4,"mosquito_risk":0,"arthritis_risk":5,"migraine_risk":10,"frizz_risk":1,"updated_at":"2026-06-08T14:54:51.220929+05:30"},{"city":"Visakhapatnam","state":"Andhra Pradesh","latitude":17.6868,"longitude":83.2185,"temp":37.8,"humidity":40,"rain":0.0,"pressure":996.6,"uv_index":7.4,"wind_gusts":41.8,"aqi":101,"pm10":51.2,"pm2_5":41.0,"no2":8.4,"co":384.0,"o3":193.0,"so2":33.5,"mosquito_risk":0,"arthritis_risk":5,"migraine_risk":10,"frizz_risk":1,"updated_at":"2026-06-08T14:54:51.220935+05:30"},{"city":"Vijayawada","state":"Andhra Pradesh","latitude":16.5062,"longitude":80.648,"temp":34.8,"humidity":44,"rain":0.0,"pressure":997.8,"uv_index":8.85,"wind_gusts":51.1,"aqi":75,"pm10":34.5,"pm2_5":23.5,"no2":1.6,"co":167.0,"o3":135.0,"so2":5.1,"mosquito_risk":0,"arthritis_risk":5,"migraine_risk":7,"frizz_risk":1,"updated_at":"2026-06-08T14:54:51.220943+05:30"},{"city":"Guntur","state":"Andhra Pradesh","latitude":16.3067,"longitude":80.4365,"temp":37.4,"humidity":38,"rain":0.0,"pressure":998.6,"uv_index":8.4,"wind_gusts":44.6,"aqi":75,"pm10":34.5,"pm2_5":21.9,"no2":1.3,"co":163.0,"o3":129.0,"so2":4.2,"mosquito_risk":0,"arthritis_risk":5,"migraine_risk":10,"frizz_risk":1,"updated_at":"2026-06-08T14:54:51.220950+05:30"},{"city":"Nellore","state":"Andhra Pradesh","latitude":14.4426,"longitude":79.9865,"temp":35.8,"humidity":42,"rain":0.0,"pressure":1001.5,"uv_index":6.8,"wind_gusts":45.4,"aqi":43,"pm10":19.1,"pm2_5":13.6,"no2":2.4,"co":143.0,"o3":128.0,"so2":5.1,"mosquito_risk":0,"arthritis_risk":5,"migraine_risk":7,"frizz_risk":1,"updated_at":"2026-06-08T14:54:51.220958+05:30"},{"city":"Kurnool","state":"Andhra Pradesh","latitude":15.8281,"longitude":78.0373,"temp":35.0,"humidity":41,"rain":0.0,"pressure":973.4,"uv_index":8.9,"wind_gusts":38.2,"aqi":57,"pm10":46.0,"pm2_5":22.1,"no2":1.4,"co":135.0,"o3":110.0,"so2":6.0,"mosquito_risk":0,"arthritis_risk":5,"migraine_risk":7,"frizz_risk":1,"updated_at":"2026-06-08T14:54:51.220965+05:30"},{"city":"Kakinada","state":"Andhra Pradesh","latitude":16.9891,"longitude":82.2475,"temp":36.4,"humidity":44,"rain":0.0,"pressure":1001.6,"uv_index":8.5,"wind_gusts":42.1,"aqi":88,"pm10":34.1,"pm2_5":25.9,"no2":1.9,"co":201.0,"o3":147.0,"so2":4.4,"mosquito_risk":0,"arthritis_risk":5,"migraine_risk":7,"frizz_risk":1,"updated_at":"2026-06-08T14:54:51.220973+05:30"},{"city":"Tirupati","state":"Andhra Pradesh","latitude":13.6288,"longitude":79.4192,"temp":34.9,"humidity":44,"rain":0.0,"pressure":987.6,"uv_index":8.25,"wind_gusts":41.8,"aqi":36,"pm10":4.4,"pm2_5":3.6,"no2":1.5,"co":134.0,"o3":92.0,"so2":0.8,"mosquito_risk":0,"arthritis_risk":5,"migraine_risk":7,"frizz_risk":1,"updated_at":"2026-06-08T14:54:51.220981+05:30"},{"city":"Warangal","state":"Telangana","latitude":17.9689,"longitude":79.5941,"temp":33.6,"humidity":47,"rain":0.0,"pressure":974.4,"uv_index":7.8,"wind_gusts":36.0,"aqi":86,"pm10":51.6,"pm2_5":28.2,"no2":1.2,"co":164.0,"o3":127.0,"so2":4.8,"mosquito_risk":0,"arthritis_risk":5,"migraine_risk":7,"frizz_risk":1,"updated_at":"2026-06-08T14:54:51.220987+05:30"},{"city":"Nizamabad","state":"Telangana","latitude":18.6725,"longitude":78.0941,"temp":37.1,"humidity":36,"rain":0.0,"pressure":960.6,"uv_index":5.65,"wind_gusts":48.6,"aqi":81,"pm10":61.2,"pm2_5":28.6,"no2":1.0,"co":140.0,"o3":110.0,"so2":3.1,"mosquito_risk":0,"arthritis_risk":5,"migraine_risk":6,"frizz_risk":1,"updated_at":"2026-06-08T14:54:51.220994+05:30"},{"city":"Mysore","state":"Karnataka","latitude":12.2958,"longitude":76.6396,"temp":28.1,"humidity":62,"rain":0.0,"pressure":927.8,"uv_index":6.3,"wind_gusts":56.2,"aqi":29,"pm10":3.8,"pm2_5":2.5,"no2":1.6,"co":121.0,"o3":74.0,"so2":1.2,"mosquito_risk":7,"arthritis_risk":5,"migraine_risk":7,"frizz_risk":1,"updated_at":"2026-06-08T14:54:51.221001+05:30"},{"city":"Mangalore","state":"Karnataka","latitude":12.9141,"longitude":74.856,"temp":26.6,"humidity":87,"rain":0.1,"pressure":1006.9,"uv_index":5.1,"wind_gusts":47.2,"aqi":32,"pm10":8.0,"pm2_5":4.3,"no2":1.0,"co":111.0,"o3":61.0,"so2":1.1,"mosquito_risk":10,"arthritis_risk":5,"migraine_risk":0,"frizz_risk":1,"updated_at":"2026-06-08T14:54:51.221008+05:30"},{"city":"Hubli-Dharwad","state":"Karnataka","latitude":15.3647,"longitude":75.124,"temp":28.5,"humidity":61,"rain":0.0,"pressure":939.8,"uv_index":2.15,"wind_gusts":47.2,"aqi":26,"pm10":4.1,"pm2_5":2.6,"no2":3.3,"co":130.0,"o3":61.0,"so2":0.7,"mosquito_risk":7,"arthritis_risk":5,"migraine_risk":3,"frizz_risk":1,"updated_at":"2026-06-08T14:54:51.221016+05:30"},{"city":"Belgaum","state":"Karnataka","latitude":15.8497,"longitude":74.4977,"temp":25.5,"humidity":75,"rain":0.2,"pressure":924.6,"uv_index":7.35,"wind_gusts":42.1,"aqi":26,"pm10":4.9,"pm2_5":3.4,"no2":3.4,"co":127.0,"o3":68.0,"so2":1.6,"mosquito_risk":10,"arthritis_risk":5,"migraine_risk":7,"frizz_risk":1,"updated_at":"2026-06-08T14:54:54.506530+05:30"},{"city":"Coimbatore","state":"Tamil Nadu","latitude":11.0168,"longitude":76.9558,"temp":26.8,"humidity":74,"rain":0.0,"pressure":961.0,"uv_index":5.5,"wind_gusts":52.2,"aqi":26,"pm10":4.1,"pm2_5":3.2,"no2":1.8,"co":145.0,"o3":68.0,"so2":1.5,"mosquito_risk":7,"arthritis_risk":5,"migraine_risk":3,"frizz_risk":1,"updated_at":"2026-06-08T14:54:54.506561+05:30"},{"city":"Madurai","state":"Tamil Nadu","latitude":9.9252,"longitude":78.1198,"temp":29.7,"humidity":65,"rain":0.0,"pressure":991.8,"uv_index":5.25,"wind_gusts":56.9,"aqi":30,"pm10":4.8,"pm2_5":3.2,"no2":1.6,"co":109.0,"o3":83.0,"so2":1.4,"mosquito_risk":7,"arthritis_risk":5,"migraine_risk":3,"frizz_risk":1,"updated_at":"2026-06-08T14:54:54.506572+05:30"},{"city":"Trichy","state":"Tamil Nadu","latitude":10.7905,"longitude":78.7047,"temp":34.1,"humidity":43,"rain":0.0,"pressure":997.4,"uv_index":8.35,"wind_gusts":63.4,"aqi":26,"pm10":4.7,"pm2_5":3.5,"no2":1.4,"co":110.0,"o3":84.0,"so2":1.6,"mosquito_risk":0,"arthritis_risk":5,"migraine_risk":7,"frizz_risk":1,"updated_at":"2026-06-08T14:54:54.506580+05:30"},{"city":"Salem","state":"Tamil Nadu","latitude":11.6643,"longitude":78.146,"temp":35.0,"humidity":41,"rain":0.0,"pressure":975.1,"uv_index":7.35,"wind_gusts":44.3,"aqi":32,"pm10":6.1,"pm2_5":5.0,"no2":2.3,"co":141.0,"o3":101.0,"so2":4.8,"mosquito_risk":0,"arthritis_risk":5,"migraine_risk":7,"frizz_risk":1,"updated_at":"2026-06-08T14:54:54.506588+05:30"},{"city":"Tirunelveli","state":"Tamil Nadu","latitude":8.7139,"longitude":77.7567,"temp":33.2,"humidity":49,"rain":0.0,"pressure":1002.4,"uv_index":5.0,"wind_gusts":48.2,"aqi":23,"pm10":5.7,"pm2_5":3.2,"no2":1.1,"co":101.0,"o3":52.0,"so2":0.7,"mosquito_risk":0,"arthritis_risk":5,"migraine_risk":0,"frizz_risk":1,"updated_at":"2026-06-08T14:54:54.506596+05:30"},{"city":"Vellore","state":"Tamil Nadu","latitude":12.9165,"longitude":79.1325,"temp":37.3,"humidity":34,"rain":0.0,"pressure":980.6,"uv_index":8.95,"wind_gusts":48.6,"aqi":35,"pm10":8.1,"pm2_5":5.6,"no2":1.5,"co":158.0,"o3":103.0,"so2":1.9,"mosquito_risk":0,"arthritis_risk":5,"migraine_risk":10,"frizz_risk":1,"updated_at":"2026-06-08T14:54:54.506603+05:30"},{"city":"Erode","state":"Tamil Nadu","latitude":11.341,"longitude":77.7172,"temp":31.9,"humidity":52,"rain":0.0,"pressure":987.1,"uv_index":8.65,"wind_gusts":58.0,"aqi":28,"pm10":4.2,"pm2_5":3.4,"no2":1.9,"co":135.0,"o3":84.0,"so2":1.7,"mosquito_risk":0,"arthritis_risk":5,"migraine_risk":7,"frizz_risk":1,"updated_at":"2026-06-08T14:54:54.506611+05:30"},{"city":"Kochi","state":"Kerala","latitude":9.9312,"longitude":76.2673,"temp":27.9,"humidity":83,"rain":0.2,"pressure":1009.7,"uv_index":6.95,"wind_gusts":41.0,"aqi":29,"pm10":10.7,"pm2_5":6.3,"no2":2.6,"co":113.0,"o3":53.0,"so2":1.9,"mosquito_risk":10,"arthritis_risk":0,"migraine_risk":4,"frizz_risk":1,"updated_at":"2026-06-08T14:54:54.506619+05:30"},{"city":"Thiruvananthapuram","state":"Kerala","latitude":8.5241,"longitude":76.9366,"temp":28.0,"humidity":82,"rain":0.0,"pressure":1009.2,"uv_index":7.5,"wind_gusts":49.0,"aqi":30,"pm10":11.5,"pm2_5":6.1,"no2":0.8,"co":93.0,"o3":51.0,"so2":0.5,"mosquito_risk":7,"arthritis_risk":0,"migraine_risk":4,"frizz_risk":1,"updated_at":"2026-06-08T14:54:54.506626+05:30"},{"city":"Kozhikode","state":"Kerala","latitude":11.2588,"longitude":75.7804,"temp":26.2,"humidity":91,"rain":0.0,"pressure":1008.8,"uv_index":4.45,"wind_gusts":39.6,"aqi":29,"pm10":11.2,"pm2_5":5.6,"no2":0.5,"co":117.0,"o3":61.0,"so2":0.4,"mosquito_risk":7,"arthritis_risk":0,"migraine_risk":0,"frizz_risk":1,"updated_at":"2026-06-08T14:54:54.506633+05:30"},{"city":"Thrissur","state":"Kerala","latitude":10.5276,"longitude":76.2144,"temp":25.9,"humidity":97,"rain":0.2,"pressure":1008.2,"uv_index":4.75,"wind_gusts":29.5,"aqi":28,"pm10":9.3,"pm2_5":5.8,"no2":2.2,"co":99.0,"o3":52.0,"so2":1.2,"mosquito_risk":10,"arthritis_risk":0,"migraine_risk":0,"frizz_risk":1,"updated_at":"2026-06-08T14:54:54.506642+05:30"},{"city":"Kannur","state":"Kerala","latitude":11.8745,"longitude":75.3704,"temp":26.4,"humidity":91,"rain":0.0,"pressure":1008.0,"uv_index":6.9,"wind_gusts":46.8,"aqi":25,"pm10":8.7,"pm2_5":4.4,"no2":1.4,"co":133.0,"o3":57.0,"so2":0.7,"mosquito_risk":7,"arthritis_risk":0,"migraine_risk":4,"frizz_risk":1,"updated_at":"2026-06-08T14:54:54.506648+05:30"},{"city":"Patna","state":"Bihar","latitude":25.5941,"longitude":85.1376,"temp":38.3,"humidity":33,"rain":0.0,"pressure":991.0,"uv_index":8.9,"wind_gusts":28.8,"aqi":164,"pm10":139.7,"pm2_5":52.3,"no2":2.1,"co":274.0,"o3":176.0,"so2":8.4,"mosquito_risk":0,"arthritis_risk":5,"migraine_risk":10,"frizz_risk":1,"updated_at":"2026-06-08T14:54:54.506655+05:30"},{"city":"Gaya","state":"Bihar","latitude":24.7914,"longitude":85.0002,"temp":40.1,"humidity":24,"rain":0.0,"pressure":984.8,"uv_index":8.2,"wind_gusts":37.8,"aqi":154,"pm10":122.9,"pm2_5":42.3,"no2":1.3,"co":226.0,"o3":155.0,"so2":6.8,"mosquito_risk":0,"arthritis_risk":5,"migraine_risk":10,"frizz_risk":0,"updated_at":"2026-06-08T14:54:54.506663+05:30"},{"city":"Muzaffarpur","state":"Bihar","latitude":26.1209,"longitude":85.3647,"temp":36.3,"humidity":52,"rain":0.0,"pressure":990.9,"uv_index":8.85,"wind_gusts":25.9,"aqi":173,"pm10":142.0,"pm2_5":61.2,"no2":2.6,"co":335.0,"o3":197.0,"so2":11.5,"mosquito_risk":0,"arthritis_risk":5,"migraine_risk":10,"frizz_risk":1,"updated_at":"2026-06-08T14:54:54.506670+05:30"},{"city":"Bhagalpur","state":"Bihar","latitude":25.2425,"longitude":87.0117,"temp":37.4,"humidity":43,"rain":0.0,"pressure":991.8,"uv_index":8.75,"wind_gusts":25.6,"aqi":152,"pm10":107.8,"pm2_5":53.8,"no2":2.5,"co":276.0,"o3":185.0,"so2":13.7,"mosquito_risk":0,"arthritis_risk":5,"migraine_risk":10,"frizz_risk":1,"updated_at":"2026-06-08T14:54:54.506677+05:30"},{"city":"Ranchi","state":"Jharkhand","latitude":23.3441,"longitude":85.3096,"temp":35.1,"humidity":30,"rain":0.0,"pressure":932.0,"uv_index":9.2,"wind_gusts":29.9,"aqi":134,"pm10":94.5,"pm2_5":36.7,"no2":1.3,"co":181.0,"o3":165.0,"so2":11.9,"mosquito_risk":0,"arthritis_risk":5,"migraine_risk":10,"frizz_risk":0,"updated_at":"2026-06-08T14:54:54.506684+05:30"},{"city":"Jamshedpur","state":"Jharkhand","latitude":22.8046,"longitude":86.2029,"temp":37.3,"humidity":35,"rain":0.0,"pressure":983.1,"uv_index":9.1,"wind_gusts":32.0,"aqi":154,"pm10":118.7,"pm2_5":47.6,"no2":2.6,"co":217.0,"o3":184.0,"so2":17.1,"mosquito_risk":0,"arthritis_risk":5,"migraine_risk":10,"frizz_risk":1,"updated_at":"2026-06-08T14:54:54.506691+05:30"},{"city":"Dhanbad","state":"Jharkhand","latitude":23.7957,"longitude":86.4304,"temp":40.3,"humidity":21,"rain":0.0,"pressure":971.7,"uv_index":9.05,"wind_gusts":33.5,"aqi":164,"pm10":129.0,"pm2_5":50.6,"no2":6.0,"co":215.0,"o3":190.0,"so2":29.8,"mosquito_risk":0,"arthritis_risk":5,"migraine_risk":10,"frizz_risk":0,"updated_at":"2026-06-08T14:54:54.506698+05:30"},{"city":"Bokaro","state":"Jharkhand","latitude":23.6693,"longitude":86.1511,"temp":39.4,"humidity":25,"rain":0.0,"pressure":975.2,"uv_index":8.85,"wind_gusts":36.0,"aqi":162,"pm10":128.1,"pm2_5":48.9,"no2":6.6,"co":228.0,"o3":194.0,"so2":33.2,"mosquito_risk":0,"arthritis_risk":5,"migraine_risk":10,"frizz_risk":0,"updated_at":"2026-06-08T14:54:54.506705+05:30"},{"city":"Bhubaneswar","state":"Odisha","latitude":20.2961,"longitude":85.8245,"temp":38.1,"humidity":40,"rain":0.0,"pressure":994.7,"uv_index":8.45,"wind_gusts":50.4,"aqi":106,"pm10":53.3,"pm2_5":35.5,"no2":3.0,"co":254.0,"o3":173.0,"so2":9.7,"mosquito_risk":0,"arthritis_risk":5,"migraine_risk":10,"frizz_risk":1,"updated_at":"2026-06-08T14:54:54.506712+05:30"},{"city":"Cuttack","state":"Odisha","latitude":20.4625,"longitude":85.8828,"temp":37.1,"humidity":47,"rain":0.0,"pressure":996.3,"uv_index":8.4,"wind_gusts":58.0,"aqi":106,"pm10":53.3,"pm2_5":35.5,"no2":3.0,"co":311.0,"o3":173.0,"so2":9.7,"mosquito_risk":0,"arthritis_risk":5,"migraine_risk":10,"frizz_risk":1,"updated_at":"2026-06-08T14:54:54.506718+05:30"},{"city":"Rourkela","state":"Odisha","latitude":22.2604,"longitude":84.8536,"temp":39.0,"humidity":30,"rain":0.0,"pressure":977.8,"uv_index":8.65,"wind_gusts":35.3,"aqi":142,"pm10":98.0,"pm2_5":43.5,"no2":1.5,"co":222.0,"o3":180.0,"so2":13.2,"mosquito_risk":0,"arthritis_risk":5,"migraine_risk":10,"frizz_risk":1,"updated_at":"2026-06-08T14:54:54.506725+05:30"},{"city":"Raipur","state":"Chhattisgarh","latitude":21.2514,"longitude":81.6296,"temp":39.8,"humidity":28,"rain":0.0,"pressure":968.2,"uv_index":8.65,"wind_gusts":38.9,"aqi":120,"pm10":67.1,"pm2_5":38.6,"no2":5.0,"co":199.0,"o3":168.0,"so2":26.6,"mosquito_risk":0,"arthritis_risk":5,"migraine_risk":10,"frizz_risk":1,"updated_at":"2026-06-08T14:54:54.506731+05:30"},{"city":"Bhilai","state":"Chhattisgarh","latitude":21.1938,"longitude":81.3509,"temp":39.4,"humidity":30,"rain":0.0,"pressure":968.7,"uv_index":8.2,"wind_gusts":41.8,"aqi":109,"pm10":58.2,"pm2_5":32.4,"no2":5.4,"co":455.0,"o3":151.0,"so2":22.7,"mosquito_risk":0,"arthritis_risk":5,"migraine_risk":10,"frizz_risk":1,"updated_at":"2026-06-08T14:54:54.506737+05:30"},{"city":"Guwahati","state":"Assam","latitude":26.1158,"longitude":91.7086,"temp":31.5,"humidity":68,"rain":0.0,"pressure":992.7,"uv_index":8.8,"wind_gusts":29.5,"aqi":89,"pm10":20.8,"pm2_5":17.8,"no2":2.0,"co":314.0,"o3":125.0,"so2":3.1,"mosquito_risk":3,"arthritis_risk":5,"migraine_risk":7,"frizz_risk":1,"updated_at":"2026-06-08T14:54:54.506744+05:30"},{"city":"Agartala","state":"Tripura","latitude":23.8315,"longitude":91.2868,"temp":31.8,"humidity":69,"rain":0.0,"pressure":998.5,"uv_index":7.55,"wind_gusts":37.4,"aqi":68,"pm10":17.6,"pm2_5":15.4,"no2":5.9,"co":188.0,"o3":117.0,"so2":3.9,"mosquito_risk":3,"arthritis_risk":5,"migraine_risk":7,"frizz_risk":1,"updated_at":"2026-06-08T14:54:54.506751+05:30"},{"city":"Shillong","state":"Meghalaya","latitude":25.5788,"longitude":91.8933,"temp":24.0,"humidity":70,"rain":0.1,"pressure":852.8,"uv_index":8.9,"wind_gusts":28.4,"aqi":50,"pm10":6.4,"pm2_5":6.0,"no2":3.4,"co":271.0,"o3":95.0,"so2":1.6,"mosquito_risk":6,"arthritis_risk":5,"migraine_risk":7,"frizz_risk":1,"updated_at":"2026-06-08T14:54:54.506757+05:30"},{"city":"Imphal","state":"Manipur","latitude":24.817,"longitude":93.9368,"temp":28.7,"humidity":64,"rain":0.0,"pressure":916.8,"uv_index":8.9,"wind_gusts":30.2,"aqi":64,"pm10":12.7,"pm2_5":10.9,"no2":3.3,"co":205.0,"o3":81.0,"so2":1.2,"mosquito_risk":7,"arthritis_risk":5,"migraine_risk":7,"frizz_risk":1,"updated_at":"2026-06-08T14:54:54.506764+05:30"},{"city":"Aizawl","state":"Mizoram","latitude":23.7271,"longitude":92.7176,"temp":25.4,"humidity":70,"rain":0.1,"pressure":887.5,"uv_index":6.95,"wind_gusts":35.3,"aqi":40,"pm10":3.4,"pm2_5":2.9,"no2":1.2,"co":156.0,"o3":95.0,"so2":1.1,"mosquito_risk":10,"arthritis_risk":5,"migraine_risk":7,"frizz_risk":1,"updated_at":"2026-06-08T14:54:54.506771+05:30"},{"city":"Kohima","state":"Nagaland","latitude":25.6701,"longitude":94.1077,"temp":21.8,"humidity":99,"rain":0.1,"pressure":850.3,"uv_index":7.55,"wind_gusts":24.1,"aqi":45,"pm10":10.5,"pm2_5":8.8,"no2":1.5,"co":187.0,"o3":85.0,"so2":0.8,"mosquito_risk":6,"arthritis_risk":5,"migraine_risk":7,"frizz_risk":1,"updated_at":"2026-06-08T14:54:54.506778+05:30"},{"city":"Gangtok","state":"Sikkim","latitude":27.3314,"longitude":88.6138,"temp":24.2,"humidity":69,"rain":0.1,"pressure":834.2,"uv_index":8.7,"wind_gusts":37.8,"aqi":95,"pm10":24.3,"pm2_5":21.3,"no2":1.5,"co":297.0,"o3":139.0,"so2":2.1,"mosquito_risk":6,"arthritis_risk":5,"migraine_risk":7,"frizz_risk":1,"updated_at":"2026-06-08T14:54:54.506784+05:30"},{"city":"Siliguri","state":"West Bengal","latitude":26.7271,"longitude":88.3953,"temp":28.1,"humidity":81,"rain":0.1,"pressure":984.6,"uv_index":8.7,"wind_gusts":28.4,"aqi":139,"pm10":56.0,"pm2_5":45.4,"no2":2.5,"co":442.0,"o3":155.0,"so2":6.0,"mosquito_risk":10,"arthritis_risk":5,"migraine_risk":7,"frizz_risk":1,"updated_at":"2026-06-08T14:54:57.776366+05:30"},{"city":"Durgapur","state":"West Bengal","latitude":23.5204,"longitude":87.3119,"temp":37.5,"humidity":36,"rain":0.0,"pressure":986.5,"uv_index":9.0,"wind_gusts":30.2,"aqi":169,"pm10":138.3,"pm2_5":70.8,"no2":7.9,"co":349.0,"o3":229.0,"so2":41.2,"mosquito_risk":0,"arthritis_risk":5,"migraine_risk":10,"frizz_risk":1,"updated_at":"2026-06-08T14:54:57.776403+05:30"},{"city":"Asansol","state":"West Bengal","latitude":23.6739,"longitude":86.9524,"temp":40.1,"humidity":25,"rain":0.0,"pressure":984.6,"uv_index":9.05,"wind_gusts":31.0,"aqi":162,"pm10":127.6,"pm2_5":54.9,"no2":6.1,"co":256.0,"o3":200.0,"so2":28.1,"mosquito_risk":0,"arthritis_risk":5,"migraine_risk":10,"frizz_risk":1,"updated_at":"2026-06-08T14:54:57.776417+05:30"},{"city":"Pondicherry","state":"Puducherry","latitude":11.9139,"longitude":79.8145,"temp":37.4,"humidity":39,"rain":0.0,"pressure":1004.1,"uv_index":8.8,"wind_gusts":52.6,"aqi":42,"pm10":16.5,"pm2_5":13.1,"no2":2.1,"co":202.0,"o3":118.0,"so2":8.1,"mosquito_risk":0,"arthritis_risk":5,"migraine_risk":7,"frizz_risk":1,"updated_at":"2026-06-08T14:54:57.776427+05:30"},{"city":"Port Blair","state":"Andaman and Nicobar Islands","latitude":11.6234,"longitude":92.7265,"temp":30.4,"humidity":74,"rain":0.1,"pressure":1005.0,"uv_index":8.75,"wind_gusts":50.8,"aqi":29,"pm10":12.2,"pm2_5":7.1,"no2":0.4,"co":83.0,"o3":40.0,"so2":0.4,"mosquito_risk":6,"arthritis_risk":5,"migraine_risk":4,"frizz_risk":1,"updated_at":"2026-06-08T14:54:57.776437+05:30"},{"city":"Haridwar","state":"Uttarakhand","latitude":29.9457,"longitude":78.1642,"temp":37.5,"humidity":29,"rain":0.0,"pressure":966.1,"uv_index":7.6,"wind_gusts":31.0,"aqi":138,"pm10":29.5,"pm2_5":22.7,"no2":1.4,"co":307.0,"o3":187.0,"so2":8.2,"mosquito_risk":0,"arthritis_risk":5,"migraine_risk":10,"frizz_risk":1,"updated_at":"2026-06-08T14:54:57.776446+05:30"},{"city":"Rishikesh","state":"Uttarakhand","latitude":30.0869,"longitude":78.2676,"temp":37.0,"humidity":29,"rain":0.0,"pressure":959.2,"uv_index":7.7,"wind_gusts":23.0,"aqi":132,"pm10":26.4,"pm2_5":18.3,"no2":0.7,"co":254.0,"o3":170.0,"so2":4.7,"mosquito_risk":0,"arthritis_risk":5,"migraine_risk":10,"frizz_risk":1,"updated_at":"2026-06-08T14:54:57.776455+05:30"},{"city":"Nainital","state":"Uttarakhand","latitude":29.3919,"longitude":79.4542,"temp":23.5,"humidity":45,"rain":0.1,"pressure":804.6,"uv_index":8.55,"wind_gusts":42.1,"aqi":127,"pm10":66.6,"pm2_5":28.5,"no2":1.1,"co":217.0,"o3":175.0,"so2":9.8,"mosquito_risk":3,"arthritis_risk":5,"migraine_risk":7,"frizz_risk":0,"updated_at":"2026-06-08T14:54:57.776464+05:30"},{"city":"Mussoorie","state":"Uttarakhand","latitude":30.4599,"longitude":78.0664,"temp":23.8,"humidity":38,"rain":0.0,"pressure":802.4,"uv_index":8.1,"wind_gusts":43.9,"aqi":130,"pm10":26.2,"pm2_5":20.9,"no2":1.5,"co":236.0,"o3":189.0,"so2":8.1,"mosquito_risk":0,"arthritis_risk":5,"migraine_risk":7,"frizz_risk":0,"updated_at":"2026-06-08T14:54:57.776472+05:30"},{"city":"Dharamshala","state":"Himachal Pradesh","latitude":32.219,"longitude":76.3234,"temp":29.0,"humidity":29,"rain":0.0,"pressure":866.7,"uv_index":8.5,"wind_gusts":47.2,"aqi":101,"pm10":12.2,"pm2_5":8.9,"no2":0.5,"co":179.0,"o3":155.0,"so2":1.6,"mosquito_risk":4,"arthritis_risk":5,"migraine_risk":7,"frizz_risk":0,"updated_at":"2026-06-08T14:54:57.776480+05:30"},{"city":"Dalhousie","state":"Himachal Pradesh","latitude":32.5387,"longitude":75.971,"temp":24.8,"humidity":36,"rain":0.1,"pressure":804.7,"uv_index":8.75,"wind_gusts":35.3,"aqi":117,"pm10":21.8,"pm2_5":15.5,"no2":1.4,"co":190.0,"o3":176.0,"so2":2.8,"mosquito_risk":3,"arthritis_risk":5,"migraine_risk":7,"frizz_risk":0,"updated_at":"2026-06-08T14:54:57.776488+05:30"},{"city":"Patiala","state":"Punjab","latitude":30.3398,"longitude":76.3869,"temp":40.2,"humidity":18,"rain":0.0,"pressure":970.5,"uv_index":7.7,"wind_gusts":37.4,"aqi":150,"pm10":230.5,"pm2_5":40.2,"no2":1.4,"co":263.0,"o3":186.0,"so2":6.6,"mosquito_risk":0,"arthritis_risk":5,"migraine_risk":10,"frizz_risk":0,"updated_at":"2026-06-08T14:54:57.776495+05:30"},{"city":"Bhatinda","state":"Punjab","latitude":30.211,"longitude":74.9455,"temp":41.7,"humidity":17,"rain":0.0,"pressure":975.9,"uv_index":8.3,"wind_gusts":27.7,"aqi":112,"pm10":39.5,"pm2_5":20.8,"no2":2.1,"co":259.0,"o3":182.0,"so2":9.7,"mosquito_risk":0,"arthritis_risk":5,"migraine_risk":10,"frizz_risk":0,"updated_at":"2026-06-08T14:54:57.776502+05:30"},{"city":"Rohtak","state":"Haryana","latitude":28.8955,"longitude":76.6066,"temp":40.4,"humidity":19,"rain":0.0,"pressure":973.7,"uv_index":7.8,"wind_gusts":30.6,"aqi":177,"pm10":627.7,"pm2_5":84.5,"no2":2.0,"co":186.0,"o3":155.0,"so2":5.7,"mosquito_risk":0,"arthritis_risk":5,"migraine_risk":10,"frizz_risk":0,"updated_at":"2026-06-08T14:54:57.776508+05:30"},{"city":"Panipat","state":"Haryana","latitude":29.3909,"longitude":76.9635,"temp":39.7,"humidity":21,"rain":0.0,"pressure":972.4,"uv_index":7.65,"wind_gusts":33.8,"aqi":235,"pm10":1177.2,"pm2_5":134.1,"no2":2.5,"co":230.0,"o3":170.0,"so2":10.2,"mosquito_risk":0,"arthritis_risk":5,"migraine_risk":10,"frizz_risk":0,"updated_at":"2026-06-08T14:54:57.776515+05:30"},{"city":"Mathura","state":"Uttar Pradesh","latitude":27.4924,"longitude":77.6737,"temp":40.5,"humidity":22,"rain":0.0,"pressure":978.4,"uv_index":8.05,"wind_gusts":33.5,"aqi":380,"pm10":1233.1,"pm2_5":147.6,"no2":1.6,"co":145.0,"o3":121.0,"so2":3.5,"mosquito_risk":0,"arthritis_risk":5,"migraine_risk":10,"frizz_risk":0,"updated_at":"2026-06-08T14:54:57.776522+05:30"},{"city":"Vrindavan","state":"Uttar Pradesh","latitude":27.5823,"longitude":77.7027,"temp":40.8,"humidity":21,"rain":0.0,"pressure":978.8,"uv_index":8.0,"wind_gusts":33.8,"aqi":380,"pm10":1233.1,"pm2_5":147.6,"no2":1.6,"co":141.0,"o3":121.0,"so2":3.5,"mosquito_risk":0,"arthritis_risk":5,"migraine_risk":10,"frizz_risk":0,"updated_at":"2026-06-08T14:54:57.776529+05:30"},{"city":"Ayodhya","state":"Uttar Pradesh","latitude":26.7922,"longitude":82.1998,"temp":39.0,"humidity":31,"rain":0.0,"pressure":985.9,"uv_index":8.4,"wind_gusts":29.5,"aqi":152,"pm10":117.8,"pm2_5":41.3,"no2":1.3,"co":197.0,"o3":148.0,"so2":5.2,"mosquito_risk":0,"arthritis_risk":5,"migraine_risk":10,"frizz_risk":1,"updated_at":"2026-06-08T14:54:57.776536+05:30"},{"city":"Ratlam","state":"Madhya Pradesh","latitude":23.3315,"longitude":75.0367,"temp":36.5,"humidity":41,"rain":0.0,"pressure":950.3,"uv_index":8.5,"wind_gusts":43.2,"aqi":85,"pm10":62.9,"pm2_5":28.6,"no2":0.6,"co":128.0,"o3":105.0,"so2":3.8,"mosquito_risk":0,"arthritis_risk":5,"migraine_risk":10,"frizz_risk":1,"updated_at":"2026-06-08T14:54:57.776543+05:30"},{"city":"Sagar","state":"Madhya Pradesh","latitude":23.8388,"longitude":78.7378,"temp":38.1,"humidity":29,"rain":0.0,"pressure":945.1,"uv_index":8.75,"wind_gusts":43.2,"aqi":83,"pm10":72.2,"pm2_5":25.9,"no2":0.6,"co":149.0,"o3":113.0,"so2":3.8,"mosquito_risk":0,"arthritis_risk":5,"migraine_risk":10,"frizz_risk":1,"updated_at":"2026-06-08T14:54:57.776549+05:30"},{"city":"Satna","state":"Madhya Pradesh","latitude":24.6005,"longitude":80.8322,"temp":39.8,"humidity":24,"rain":0.0,"pressure":964.4,"uv_index":8.85,"wind_gusts":42.5,"aqi":91,"pm10":90.8,"pm2_5":30.4,"no2":0.6,"co":140.0,"o3":120.0,"so2":3.6,"mosquito_risk":0,"arthritis_risk":5,"migraine_risk":10,"frizz_risk":0,"updated_at":"2026-06-08T14:54:57.776556+05:30"},{"city":"Akola","state":"Maharashtra","latitude":20.7002,"longitude":77.0082,"temp":40.1,"humidity":31,"rain":0.0,"pressure":969.9,"uv_index":8.85,"wind_gusts":42.8,"aqi":85,"pm10":58.1,"pm2_5":27.1,"no2":1.2,"co":130.0,"o3":118.0,"so2":6.0,"mosquito_risk":0,"arthritis_risk":5,"migraine_risk":10,"frizz_risk":1,"updated_at":"2026-06-08T14:54:57.776564+05:30"},{"city":"Amravati","state":"Maharashtra","latitude":20.9374,"longitude":77.7796,"temp":39.3,"humidity":32,"rain":0.0,"pressure":962.3,"uv_index":8.7,"wind_gusts":42.1,"aqi":87,"pm10":59.8,"pm2_5":28.3,"no2":1.4,"co":138.0,"o3":122.0,"so2":6.9,"mosquito_risk":0,"arthritis_risk":5,"migraine_risk":10,"frizz_risk":1,"updated_at":"2026-06-08T14:54:57.776572+05:30"},{"city":"Latur","state":"Maharashtra","latitude":18.4088,"longitude":76.5604,"temp":32.8,"humidity":50,"rain":0.0,"pressure":936.9,"uv_index":8.0,"wind_gusts":45.4,"aqi":75,"pm10":63.8,"pm2_5":25.8,"no2":0.9,"co":127.0,"o3":103.0,"so2":2.9,"mosquito_risk":0,"arthritis_risk":5,"migraine_risk":7,"frizz_risk":1,"updated_at":"2026-06-08T14:54:57.776579+05:30"},{"city":"Nanded","state":"Maharashtra","latitude":19.1383,"longitude":77.3091,"temp":38.1,"humidity":33,"rain":0.0,"pressure":964.1,"uv_index":8.95,"wind_gusts":52.2,"aqi":84,"pm10":62.2,"pm2_5":26.9,"no2":0.9,"co":138.0,"o3":108.0,"so2":2.7,"mosquito_risk":0,"arthritis_risk":5,"migraine_risk":10,"frizz_risk":1,"updated_at":"2026-06-08T14:54:57.776586+05:30"},{"city":"Gulbarga","state":"Karnataka","latitude":17.3297,"longitude":76.8343,"temp":27.9,"humidity":78,"rain":0.5,"pressure":955.2,"uv_index":8.5,"wind_gusts":41.0,"aqi":60,"pm10":54.2,"pm2_5":23.8,"no2":1.4,"co":133.0,"o3":107.0,"so2":2.9,"mosquito_risk":10,"arthritis_risk":5,"migraine_risk":7,"frizz_risk":1,"updated_at":"2026-06-08T14:54:57.776593+05:30"},{"city":"Bidar","state":"Karnataka","latitude":17.9104,"longitude":77.5199,"temp":28.6,"humidity":68,"rain":0.2,"pressure":932.8,"uv_index":6.9,"wind_gusts":39.2,"aqi":75,"pm10":60.5,"pm2_5":28.6,"no2":1.3,"co":140.0,"o3":117.0,"so2":4.9,"mosquito_risk":10,"arthritis_risk":5,"migraine_risk":7,"frizz_risk":1,"updated_at":"2026-06-08T14:54:57.776600+05:30"},{"city":"Hospet","state":"Karnataka","latitude":15.2689,"longitude":76.3909,"temp":32.2,"humidity":50,"rain":0.1,"pressure":953.5,"uv_index":7.65,"wind_gusts":49.3,"aqi":31,"pm10":21.0,"pm2_5":11.5,"no2":2.4,"co":130.0,"o3":88.0,"so2":1.5,"mosquito_risk":3,"arthritis_risk":5,"migraine_risk":7,"frizz_risk":1,"updated_at":"2026-06-08T14:54:57.776606+05:30"},{"city":"Tirupur","state":"Tamil Nadu","latitude":11.1085,"longitude":77.3411,"temp":29.0,"humidity":64,"rain":0.0,"pressure":973.7,"uv_index":5.8,"wind_gusts":61.2,"aqi":29,"pm10":5.0,"pm2_5":3.9,"no2":2.1,"co":130.0,"o3":81.0,"so2":2.1,"mosquito_risk":7,"arthritis_risk":5,"migraine_risk":3,"frizz_risk":1,"updated_at":"2026-06-08T14:54:57.776613+05:30"},{"city":"Alappuzha","state":"Kerala","latitude":9.4981,"longitude":76.3388,"temp":28.3,"humidity":82,"rain":0.1,"pressure":1009.7,"uv_index":6.7,"wind_gusts":43.9,"aqi":28,"pm10":12.1,"pm2_5":6.4,"no2":1.6,"co":87.0,"o3":54.0,"so2":1.0,"mosquito_risk":10,"arthritis_risk":0,"migraine_risk":4,"frizz_risk":1,"updated_at":"2026-06-08T14:54:57.776620+05:30"},{"city":"Munnar","state":"Kerala","latitude":10.0889,"longitude":77.0595,"temp":17.7,"humidity":93,"rain":0.1,"pressure":857.2,"uv_index":5.55,"wind_gusts":47.2,"aqi":22,"pm10":3.2,"pm2_5":2.3,"no2":1.7,"co":104.0,"o3":62.0,"so2":1.0,"mosquito_risk":6,"arthritis_risk":10,"migraine_risk":3,"frizz_risk":1,"updated_at":"2026-06-08T14:54:57.776627+05:30"},{"city":"Silchar","state":"Assam","latitude":24.8333,"longitude":92.7789,"temp":30.1,"humidity":79,"rain":0.1,"pressure":997.2,"uv_index":7.85,"wind_gusts":31.0,"aqi":76,"pm10":8.0,"pm2_5":7.4,"no2":2.1,"co":232.0,"o3":95.0,"so2":2.3,"mosquito_risk":6,"arthritis_risk":5,"migraine_risk":7,"frizz_risk":1,"updated_at":"2026-06-08T14:54:57.776634+05:30"},{"city":"Dibrugarh","state":"Assam","latitude":27.4728,"longitude":94.912,"temp":30.2,"humidity":77,"rain":0.0,"pressure":986.7,"uv_index":8.15,"wind_gusts":24.5,"aqi":88,"pm10":20.2,"pm2_5":17.4,"no2":1.5,"co":285.0,"o3":145.0,"so2":2.4,"mosquito_risk":3,"arthritis_risk":5,"migraine_risk":7,"frizz_risk":1,"updated_at":"2026-06-08T14:54:57.776640+05:30"}]