[{"city":"Delhi","state":"Delhi","latitude":28.6139,"longitude":77.209,"temp":35.9,"humidity":24,"rain":0.0,"pressure":975.3,"uv_index":7.75,"wind_gusts":37.8,"aqi":390,"pm10":830.7,"pm2_5":168.6,"no2":52.0,"co":660.0,"o3":53.0,"so2":22.5,"mosquito_risk":0,"arthritis_risk":5,"migraine_risk":10,"frizz_risk":0,"updated_at":"2026-06-08T23:26:57.728029+05:30"},{"city":"Mumbai","state":"Maharashtra","latitude":19.076,"longitude":72.8777,"temp":29.8,"humidity":73,"rain":0.1,"pressure":1007.4,"uv_index":7.5,"wind_gusts":45.4,"aqi":79,"pm10":41.2,"pm2_5":16.4,"no2":8.5,"co":211.0,"o3":47.0,"so2":7.0,"mosquito_risk":10,"arthritis_risk":5,"migraine_risk":4,"frizz_risk":1,"updated_at":"2026-06-08T23:26:57.728085+05:30"},{"city":"Bangalore","state":"Karnataka","latitude":12.9716,"longitude":77.5946,"temp":22.3,"humidity":88,"rain":0.0,"pressure":912.6,"uv_index":7.15,"wind_gusts":52.6,"aqi":33,"pm10":5.9,"pm2_5":5.1,"no2":12.2,"co":319.0,"o3":41.0,"so2":4.1,"mosquito_risk":3,"arthritis_risk":5,"migraine_risk":7,"frizz_risk":1,"updated_at":"2026-06-08T23:26:57.728102+05:30"},{"city":"Hyderabad","state":"Telangana","latitude":17.385,"longitude":78.4867,"temp":25.5,"humidity":80,"rain":0.0,"pressure":951.8,"uv_index":6.1,"wind_gusts":40.0,"aqi":72,"pm10":35.9,"pm2_5":23.9,"no2":14.2,"co":288.0,"o3":64.0,"so2":5.4,"mosquito_risk":7,"arthritis_risk":5,"migraine_risk":7,"frizz_risk":1,"updated_at":"2026-06-08T23:26:57.728112+05:30"},{"city":"Chennai","state":"Tamil Nadu","latitude":13.0827,"longitude":80.2707,"temp":31.6,"humidity":67,"rain":0.0,"pressure":1005.7,"uv_index":8.9,"wind_gusts":44.6,"aqi":57,"pm10":23.1,"pm2_5":18.9,"no2":19.7,"co":366.0,"o3":79.0,"so2":10.9,"mosquito_risk":3,"arthritis_risk":5,"migraine_risk":4,"frizz_risk":1,"updated_at":"2026-06-08T23:26:57.728121+05:30"},{"city":"Kolkata","state":"West Bengal","latitude":22.5726,"longitude":88.3639,"temp":28.6,"humidity":91,"rain":0.0,"pressure":999.7,"uv_index":8.95,"wind_gusts":30.6,"aqi":133,"pm10":44.6,"pm2_5":39.5,"no2":12.6,"co":495.0,"o3":89.0,"so2":10.3,"mosquito_risk":7,"arthritis_risk":5,"migraine_risk":7,"frizz_risk":1,"updated_at":"2026-06-08T23:26:57.728131+05:30"},{"city":"Pune","state":"Maharashtra","latitude":18.5204,"longitude":73.8567,"temp":25.1,"humidity":83,"rain":0.0,"pressure":947.6,"uv_index":6.3,"wind_gusts":49.7,"aqi":57,"pm10":12.5,"pm2_5":7.2,"no2":9.6,"co":152.0,"o3":50.0,"so2":7.2,"mosquito_risk":7,"arthritis_risk":5,"migraine_risk":7,"frizz_risk":1,"updated_at":"2026-06-08T23:26:57.728139+05:30"},{"city":"Ahmedabad","state":"Gujarat","latitude":23.0225,"longitude":72.5714,"temp":32.3,"humidity":71,"rain":0.0,"pressure":998.1,"uv_index":7.8,"wind_gusts":43.2,"aqi":79,"pm10":46.2,"pm2_5":23.7,"no2":7.3,"co":182.0,"o3":73.0,"so2":5.9,"mosquito_risk":3,"arthritis_risk":5,"migraine_risk":7,"frizz_risk":1,"updated_at":"2026-06-08T23:26:57.728147+05:30"},{"city":"Jaipur","state":"Rajasthan","latitude":26.9124,"longitude":75.7873,"temp":32.9,"humidity":32,"rain":0.0,"pressure":953.9,"uv_index":8.2,"wind_gusts":43.2,"aqi":137,"pm10":167.6,"pm2_5":50.5,"no2":16.1,"co":259.0,"o3":60.0,"so2":7.5,"mosquito_risk":0,"arthritis_risk":5,"migraine_risk":7,"frizz_risk":0,"updated_at":"2026-06-08T23:26:57.728159+05:30"},{"city":"Lucknow","state":"Uttar Pradesh","latitude":26.8467,"longitude":80.9462,"temp":32.2,"humidity":43,"rain":0.0,"pressure":986.2,"uv_index":8.3,"wind_gusts":34.6,"aqi":156,"pm10":332.5,"pm2_5":94.3,"no2":29.2,"co":335.0,"o3":55.0,"so2":12.9,"mosquito_risk":0,"arthritis_risk":5,"migraine_risk":7,"frizz_risk":1,"updated_at":"2026-06-08T23:26:57.728167+05:30"},{"city":"Kanpur","state":"Uttar Pradesh","latitude":26.4499,"longitude":80.3319,"temp":34.5,"humidity":33,"rain":0.0,"pressure":984.4,"uv_index":8.3,"wind_gusts":40.7,"aqi":191,"pm10":328.8,"pm2_5":85.0,"no2":22.0,"co":211.0,"o3":58.0,"so2":9.1,"mosquito_risk":0,"arthritis_risk":5,"migraine_risk":7,"frizz_risk":0,"updated_at":"2026-06-08T23:26:57.728174+05:30"},{"city":"Chandigarh","state":"Chandigarh","latitude":30.7333,"longitude":76.7794,"temp":28.5,"humidity":41,"rain":0.0,"pressure":960.6,"uv_index":7.8,"wind_gusts":29.9,"aqi":132,"pm10":34.8,"pm2_5":30.7,"no2":32.7,"co":781.0,"o3":82.0,"so2":11.0,"mosquito_risk":4,"arthritis_risk":5,"migraine_risk":7,"frizz_risk":0,"updated_at":"2026-06-08T23:26:57.728181+05:30"},{"city":"Srinagar","state":"Jammu and Kashmir","latitude":34.0837,"longitude":74.7973,"temp":16.3,"humidity":85,"rain":0.0,"pressure":836.4,"uv_index":9.0,"wind_gusts":16.9,"aqi":79,"pm10":38.8,"pm2_5":35.3,"no2":33.2,"co":902.0,"o3":37.0,"so2":2.8,"mosquito_risk":3,"arthritis_risk":10,"migraine_risk":7,"frizz_risk":0,"updated_at":"2026-06-08T23:26:57.728190+05:30"},{"city":"Jammu","state":"Jammu and Kashmir","latitude":32.7266,"longitude":74.857,"temp":30.0,"humidity":38,"rain":0.0,"pressure":964.1,"uv_index":8.6,"wind_gusts":34.6,"aqi":107,"pm10":34.6,"pm2_5":32.2,"no2":29.3,"co":534.0,"o3":68.0,"so2":4.8,"mosquito_risk":4,"arthritis_risk":5,"migraine_risk":7,"frizz_risk":0,"updated_at":"2026-06-08T23:26:57.728198+05:30"},{"city":"Amritsar","state":"Punjab","latitude":31.634,"longitude":74.8723,"temp":33.4,"humidity":31,"rain":0.0,"pressure":972.3,"uv_index":8.45,"wind_gusts":29.9,"aqi":119,"pm10":51.5,"pm2_5":44.2,"no2":43.5,"co":538.0,"o3":62.0,"so2":13.2,"mosquito_risk":0,"arthritis_risk":5,"migraine_risk":7,"frizz_risk":0,"updated_at":"2026-06-08T23:26:57.728205+05:30"},{"city":"Ludhiana","state":"Punjab","latitude":30.901,"longitude":75.8573,"temp":33.0,"humidity":32,"rain":0.0,"pressure":970.3,"uv_index":8.05,"wind_gusts":36.7,"aqi":108,"pm10":114.8,"pm2_5":48.8,"no2":24.7,"co":597.0,"o3":80.0,"so2":8.3,"mosquito_risk":0,"arthritis_risk":5,"migraine_risk":7,"frizz_risk":0,"updated_at":"2026-06-08T23:26:57.728213+05:30"},{"city":"Jalandhar","state":"Punjab","latitude":31.326,"longitude":75.5762,"temp":32.3,"humidity":36,"rain":0.0,"pressure":971.3,"uv_index":8.25,"wind_gusts":33.5,"aqi":102,"pm10":88.7,"pm2_5":46.2,"no2":32.3,"co":655.0,"o3":76.0,"so2":8.8,"mosquito_risk":0,"arthritis_risk":5,"migraine_risk":7,"frizz_risk":0,"updated_at":"2026-06-08T23:26:57.728220+05:30"},{"city":"Dehradun","state":"Uttarakhand","latitude":30.6284,"longitude":78.0322,"temp":15.9,"humidity":72,"rain":0.0,"pressure":824.3,"uv_index":8.25,"wind_gusts":38.9,"aqi":114,"pm10":23.4,"pm2_5":19.4,"no2":31.1,"co":273.0,"o3":82.0,"so2":3.7,"mosquito_risk":3,"arthritis_risk":5,"migraine_risk":7,"frizz_risk":0,"updated_at":"2026-06-08T23:26:57.728227+05:30"},{"city":"Shimla","state":"Himachal Pradesh","latitude":31.1048,"longitude":77.1734,"temp":17.2,"humidity":44,"rain":0.0,"pressure":781.1,"uv_index":8.35,"wind_gusts":42.5,"aqi":131,"pm10":23.1,"pm2_5":17.5,"no2":17.6,"co":285.0,"o3":113.0,"so2":3.5,"mosquito_risk":0,"arthritis_risk":5,"migraine_risk":7,"frizz_risk":0,"updated_at":"2026-06-08T23:26:57.728237+05:30"},{"city":"Manali","state":"Himachal Pradesh","latitude":32.2396,"longitude":77.1887,"temp":13.4,"humidity":71,"rain":0.0,"pressure":813.0,"uv_index":9.9,"wind_gusts":36.7,"aqi":96,"pm10":16.1,"pm2_5":14.1,"no2":60.4,"co":342.0,"o3":74.0,"so2":0.5,"mosquito_risk":3,"arthritis_risk":5,"migraine_risk":7,"frizz_risk":0,"updated_at":"2026-06-08T23:26:57.728244+05:30"},{"city":"Gurgaon","state":"Haryana","latitude":28.4595,"longitude":77.0266,"temp":32.3,"humidity":35,"rain":0.0,"pressure":973.7,"uv_index":7.85,"wind_gusts":37.4,"aqi":932,"pm10":791.6,"pm2_5":164.4,"no2":70.4,"co":722.0,"o3":35.0,"so2":27.4,"mosquito_risk":0,"arthritis_risk":5,"migraine_risk":7,"frizz_risk":0,"updated_at":"2026-06-08T23:26:57.728251+05:30"},{"city":"Noida","state":"Uttar Pradesh","latitude":28.5355,"longitude":77.391,"temp":29.5,"humidity":59,"rain":0.0,"pressure":976.3,"uv_index":7.8,"wind_gusts":32.8,"aqi":932,"pm10":791.6,"pm2_5":164.4,"no2":70.4,"co":1117.0,"o3":35.0,"so2":27.4,"mosquito_risk":4,"arthritis_risk":5,"migraine_risk":7,"frizz_risk":1,"updated_at":"2026-06-08T23:26:57.728258+05:30"},{"city":"Ghaziabad","state":"Uttar Pradesh","latitude":28.6692,"longitude":77.4538,"temp":28.5,"humidity":67,"rain":0.0,"pressure":974.5,"uv_index":7.75,"wind_gusts":32.8,"aqi":212,"pm10":631.4,"pm2_5":144.8,"no2":47.9,"co":573.0,"o3":60.0,"so2":24.2,"mosquito_risk":7,"arthritis_risk":5,"migraine_risk":7,"frizz_risk":1,"updated_at":"2026-06-08T23:26:57.728282+05:30"},{"city":"Faridabad","state":"Haryana","latitude":28.4089,"longitude":77.3178,"temp":33.1,"humidity":33,"rain":0.0,"pressure":975.9,"uv_index":7.8,"wind_gusts":38.2,"aqi":932,"pm10":791.6,"pm2_5":164.4,"no2":70.4,"co":963.0,"o3":35.0,"so2":27.4,"mosquito_risk":0,"arthritis_risk":5,"migraine_risk":7,"frizz_risk":0,"updated_at":"2026-06-08T23:26:57.728290+05:30"},{"city":"Meerut","state":"Uttar Pradesh","latitude":28.9845,"longitude":77.7064,"temp":29.8,"humidity":67,"rain":0.0,"pressure":973.5,"uv_index":7.7,"wind_gusts":32.4,"aqi":212,"pm10":631.4,"pm2_5":144.8,"no2":47.9,"co":606.0,"o3":60.0,"so2":24.2,"mosquito_risk":7,"arthritis_risk":5,"migraine_risk":7,"frizz_risk":1,"updated_at":"2026-06-08T23:26:57.728298+05:30"},{"city":"Agra","state":"Uttar Pradesh","latitude":27.1767,"longitude":78.0081,"temp":33.1,"humidity":33,"rain":0.0,"pressure":980.6,"uv_index":8.1,"wind_gusts":39.2,"aqi":741,"pm10":705.9,"pm2_5":154.6,"no2":73.0,"co":838.0,"o3":11.0,"so2":21.6,"mosquito_risk":0,"arthritis_risk":5,"migraine_risk":7,"frizz_risk":0,"updated_at":"2026-06-08T23:26:57.728306+05:30"},{"city":"Varanasi","state":"Uttar Pradesh","latitude":25.3176,"longitude":82.9739,"temp":33.6,"humidity":44,"rain":0.0,"pressure":990.8,"uv_index":8.8,"wind_gusts":40.7,"aqi":133,"pm10":95.0,"pm2_5":55.9,"no2":30.3,"co":445.0,"o3":53.0,"so2":14.6,"mosquito_risk":0,"arthritis_risk":5,"migraine_risk":7,"frizz_risk":1,"updated_at":"2026-06-08T23:26:57.728313+05:30"},{"city":"Prayagraj","state":"Uttar Pradesh","latitude":25.4358,"longitude":81.8463,"temp":33.5,"humidity":45,"rain":0.0,"pressure":989.3,"uv_index":8.7,"wind_gusts":41.8,"aqi":140,"pm10":122.9,"pm2_5":55.8,"no2":23.2,"co":227.0,"o3":53.0,"so2":10.6,"mosquito_risk":0,"arthritis_risk":5,"migraine_risk":7,"frizz_risk":1,"updated_at":"2026-06-08T23:26:57.728320+05:30"},{"city":"Gorakhpur","state":"Uttar Pradesh","latitude":26.7606,"longitude":83.3732,"temp":30.5,"humidity":58,"rain":0.0,"pressure":990.0,"uv_index":8.65,"wind_gusts":34.9,"aqi":133,"pm10":105.0,"pm2_5":60.1,"no2":27.3,"co":565.0,"o3":64.0,"so2":13.1,"mosquito_risk":0,"arthritis_risk":5,"migraine_risk":7,"frizz_risk":1,"updated_at":"2026-06-08T23:26:57.728329+05:30"},{"city":"Bareilly","state":"Uttar Pradesh","latitude":28.367,"longitude":79.4304,"temp":29.6,"humidity":54,"rain":0.0,"pressure":978.7,"uv_index":8.1,"wind_gusts":28.4,"aqi":152,"pm10":65.4,"pm2_5":57.5,"no2":38.3,"co":477.0,"o3":82.0,"so2":17.5,"mosquito_risk":4,"arthritis_risk":5,"migraine_risk":7,"frizz_risk":1,"updated_at":"2026-06-08T23:26:57.728338+05:30"},{"city":"Aligarh","state":"Uttar Pradesh","latitude":27.8974,"longitude":78.088,"temp":30.2,"humidity":52,"rain":0.0,"pressure":978.0,"uv_index":7.95,"wind_gusts":36.0,"aqi":569,"pm10":767.4,"pm2_5":178.8,"no2":69.3,"co":684.0,"o3":28.0,"so2":19.6,"mosquito_risk":0,"arthritis_risk":5,"migraine_risk":7,"frizz_risk":1,"updated_at":"2026-06-08T23:26:57.728344+05:30"},{"city":"Moradabad","state":"Uttar Pradesh","latitude":28.8386,"longitude":78.7733,"temp":30.8,"humidity":48,"rain":0.0,"pressure":975.7,"uv_index":7.9,"wind_gusts":40.3,"aqi":161,"pm10":133.6,"pm2_5":104.3,"no2":75.8,"co":709.0,"o3":32.0,"so2":22.7,"mosquito_risk":0,"arthritis_risk":5,"migraine_risk":7,"frizz_risk":1,"updated_at":"2026-06-08T23:26:57.728351+05:30"},{"city":"Saharanpur","state":"Uttar Pradesh","latitude":29.9637,"longitude":77.546,"temp":29.3,"humidity":42,"rain":0.0,"pressure":967.6,"uv_index":7.45,"wind_gusts":28.1,"aqi":130,"pm10":86.1,"pm2_5":46.2,"no2":28.0,"co":435.0,"o3":94.0,"so2":13.4,"mosquito_risk":4,"arthritis_risk":5,"migraine_risk":7,"frizz_risk":0,"updated_at":"2026-06-08T23:26:57.728358+05:30"},{"city":"Jhansi","state":"Uttar Pradesh","latitude":25.4484,"longitude":78.5685,"temp":30.5,"humidity":59,"rain":0.0,"pressure":971.8,"uv_index":8.5,"wind_gusts":42.1,"aqi":81,"pm10":64.7,"pm2_5":31.8,"no2":7.0,"co":203.0,"o3":69.0,"so2":4.3,"mosquito_risk":0,"arthritis_risk":5,"migraine_risk":7,"frizz_risk":1,"updated_at":"2026-06-08T23:27:01.041422+05:30"},{"city":"Surat","state":"Gujarat","latitude":21.1702,"longitude":72.8311,"temp":30.3,"humidity":79,"rain":0.0,"pressure":1004.0,"uv_index":7.55,"wind_gusts":52.6,"aqi":79,"pm10":55.6,"pm2_5":26.5,"no2":15.3,"co":196.0,"o3":44.0,"so2":26.0,"mosquito_risk":3,"arthritis_risk":5,"migraine_risk":4,"frizz_risk":1,"updated_at":"2026-06-08T23:27:01.041459+05:30"},{"city":"Vadodara","state":"Gujarat","latitude":22.3072,"longitude":73.1812,"temp":31.0,"humidity":74,"rain":0.0,"pressure":1000.5,"uv_index":7.95,"wind_gusts":48.6,"aqi":78,"pm10":40.5,"pm2_5":22.2,"no2":16.2,"co":204.0,"o3":42.0,"so2":20.1,"mosquito_risk":3,"arthritis_risk":5,"migraine_risk":4,"frizz_risk":1,"updated_at":"2026-06-08T23:27:01.041469+05:30"},{"city":"Rajkot","state":"Gujarat","latitude":22.3039,"longitude":70.8022,"temp":30.1,"humidity":66,"rain":0.0,"pressure":991.3,"uv_index":7.6,"wind_gusts":49.0,"aqi":72,"pm10":56.8,"pm2_5":25.7,"no2":4.3,"co":116.0,"o3":60.0,"so2":5.0,"mosquito_risk":3,"arthritis_risk":5,"migraine_risk":7,"frizz_risk":1,"updated_at":"2026-06-08T23:27:01.041477+05:30"},{"city":"Thane","state":"Maharashtra","latitude":19.2183,"longitude":72.9781,"temp":28.3,"humidity":84,"rain":0.1,"pressure":1006.9,"uv_index":7.6,"wind_gusts":45.0,"aqi":79,"pm10":41.2,"pm2_5":16.4,"no2":8.5,"co":204.0,"o3":47.0,"so2":7.0,"mosquito_risk":10,"arthritis_risk":5,"migraine_risk":4,"frizz_risk":1,"updated_at":"2026-06-08T23:27:01.041485+05:30"},{"city":"Nagpur","state":"Maharashtra","latitude":21.1458,"longitude":79.0882,"temp":31.9,"humidity":50,"rain":0.0,"pressure":969.7,"uv_index":8.9,"wind_gusts":37.8,"aqi":88,"pm10":63.8,"pm2_5":41.3,"no2":25.4,"co":264.0,"o3":56.0,"so2":17.2,"mosquito_risk":0,"arthritis_risk":5,"migraine_risk":7,"frizz_risk":1,"updated_at":"2026-06-08T23:27:01.041493+05:30"},{"city":"Nashik","state":"Maharashtra","latitude":19.9975,"longitude":73.7898,"temp":25.6,"humidity":81,"rain":0.0,"pressure":944.2,"uv_index":8.05,"wind_gusts":48.6,"aqi":65,"pm10":33.3,"pm2_5":15.1,"no2":7.7,"co":124.0,"o3":48.0,"so2":5.1,"mosquito_risk":7,"arthritis_risk":5,"migraine_risk":7,"frizz_risk":1,"updated_at":"2026-06-08T23:27:01.041500+05:30"},{"city":"Aurangabad","state":"Maharashtra","latitude":19.8762,"longitude":75.3433,"temp":28.6,"humidity":58,"rain":0.0,"pressure":942.5,"uv_index":9.0,"wind_gusts":51.1,"aqi":70,"pm10":48.7,"pm2_5":24.0,"no2":5.8,"co":133.0,"o3":78.0,"so2":7.2,"mosquito_risk":4,"arthritis_risk":5,"migraine_risk":7,"frizz_risk":1,"updated_at":"2026-06-08T23:27:01.041508+05:30"},{"city":"Solapur","state":"Maharashtra","latitude":17.6599,"longitude":75.9064,"temp":27.5,"humidity":68,"rain":0.0,"pressure":956.5,"uv_index":8.1,"wind_gusts":36.7,"aqi":54,"pm10":15.1,"pm2_5":10.4,"no2":7.4,"co":150.0,"o3":60.0,"so2":3.0,"mosquito_risk":7,"arthritis_risk":5,"migraine_risk":7,"frizz_risk":1,"updated_at":"2026-06-08T23:27:01.041515+05:30"},{"city":"Kolhapur","state":"Maharashtra","latitude":16.705,"longitude":74.2433,"temp":23.7,"humidity":88,"rain":0.0,"pressure":948.1,"uv_index":8.6,"wind_gusts":39.2,"aqi":30,"pm10":8.9,"pm2_5":7.1,"no2":7.6,"co":137.0,"o3":47.0,"so2":2.7,"mosquito_risk":3,"arthritis_risk":5,"migraine_risk":7,"frizz_risk":1,"updated_at":"2026-06-08T23:27:01.041522+05:30"},{"city":"Goa","state":"Goa","latitude":15.2993,"longitude":74.124,"temp":25.0,"humidity":97,"rain":0.3,"pressure":999.1,"uv_index":3.85,"wind_gusts":20.9,"aqi":34,"pm10":11.8,"pm2_5":9.3,"no2":6.8,"co":227.0,"o3":46.0,"so2":1.0,"mosquito_risk":10,"arthritis_risk":5,"migraine_risk":3,"frizz_risk":1,"updated_at":"2026-06-08T23:27:01.041530+05:30"},{"city":"Jodhpur","state":"Rajasthan","latitude":26.2389,"longitude":73.0243,"temp":34.4,"humidity":47,"rain":0.0,"pressure":977.2,"uv_index":8.4,"wind_gusts":39.2,"aqi":150,"pm10":222.1,"pm2_5":54.9,"no2":6.0,"co":186.0,"o3":67.0,"so2":2.6,"mosquito_risk":0,"arthritis_risk":5,"migraine_risk":7,"frizz_risk":1,"updated_at":"2026-06-08T23:27:01.041537+05:30"},{"city":"Udaipur","state":"Rajasthan","latitude":24.5854,"longitude":73.7125,"temp":31.1,"humidity":53,"rain":0.0,"pressure":942.8,"uv_index":8.8,"wind_gusts":37.4,"aqi":76,"pm10":52.4,"pm2_5":25.4,"no2":5.2,"co":162.0,"o3":75.0,"so2":3.4,"mosquito_risk":0,"arthritis_risk":5,"migraine_risk":7,"frizz_risk":1,"updated_at":"2026-06-08T23:27:01.041543+05:30"},{"city":"Kota","state":"Rajasthan","latitude":25.2138,"longitude":75.8648,"temp":32.3,"humidity":49,"rain":0.0,"pressure":973.1,"uv_index":8.4,"wind_gusts":33.8,"aqi":90,"pm10":62.4,"pm2_5":39.1,"no2":13.1,"co":191.0,"o3":60.0,"so2":5.7,"mosquito_risk":0,"arthritis_risk":5,"migraine_risk":7,"frizz_risk":1,"updated_at":"2026-06-08T23:27:01.041550+05:30"},{"city":"Bikaner","state":"Rajasthan","latitude":28.0229,"longitude":73.3119,"temp":35.8,"humidity":23,"rain":0.0,"pressure":974.1,"uv_index":8.45,"wind_gusts":33.1,"aqi":151,"pm10":141.1,"pm2_5":48.8,"no2":3.6,"co":158.0,"o3":79.0,"so2":3.2,"mosquito_risk":0,"arthritis_risk":5,"migraine_risk":10,"frizz_risk":0,"updated_at":"2026-06-08T23:27:01.041558+05:30"},{"city":"Ajmer","state":"Rajasthan","latitude":26.4499,"longitude":74.6399,"temp":30.9,"humidity":51,"rain":0.0,"pressure":949.4,"uv_index":8.35,"wind_gusts":45.7,"aqi":89,"pm10":57.0,"pm2_5":27.3,"no2":7.6,"co":173.0,"o3":74.0,"so2":4.7,"mosquito_risk":0,"arthritis_risk":5,"migraine_risk":7,"frizz_risk":1,"updated_at":"2026-06-08T23:27:01.041566+05:30"},{"city":"Gwalior","state":"Madhya Pradesh","latitude":26.2183,"longitude":78.1828,"temp":33.7,"humidity":31,"rain":0.0,"pressure":976.3,"uv_index":8.25,"wind_gusts":43.9,"aqi":94,"pm10":69.8,"pm2_5":34.6,"no2":15.2,"co":154.0,"o3":53.0,"so2":5.1,"mosquito_risk":0,"arthritis_risk":5,"migraine_risk":7,"frizz_risk":0,"updated_at":"2026-06-08T23:27:01.041574+05:30"},{"city":"Indore","state":"Madhya Pradesh","latitude":22.7196,"longitude":75.8577,"temp":30.4,"humidity":54,"rain":0.0,"pressure":945.2,"uv_index":8.6,"wind_gusts":44.3,"aqi":88,"pm10":46.3,"pm2_5":29.5,"no2":7.4,"co":277.0,"o3":91.0,"so2":7.8,"mosquito_risk":0,"arthritis_risk":5,"migraine_risk":7,"frizz_risk":1,"updated_at":"2026-06-08T23:27:01.041581+05:30"},{"city":"Bhopal","state":"Madhya Pradesh","latitude":23.2599,"longitude":77.4126,"temp":30.4,"humidity":56,"rain":0.0,"pressure":949.7,"uv_index":8.7,"wind_gusts":40.3,"aqi":89,"pm10":67.3,"pm2_5":38.2,"no2":15.7,"co":599.0,"o3":55.0,"so2":7.0,"mosquito_risk":0,"arthritis_risk":5,"migraine_risk":7,"frizz_risk":1,"updated_at":"2026-06-08T23:27:01.041588+05:30"},{"city":"Jabalpur","state":"Madhya Pradesh","latitude":23.1815,"longitude":79.9864,"temp":31.4,"humidity":53,"rain":0.0,"pressure":957.3,"uv_index":8.9,"wind_gusts":40.7,"aqi":87,"pm10":53.0,"pm2_5":29.3,"no2":10.2,"co":256.0,"o3":71.0,"so2":4.4,"mosquito_risk":0,"arthritis_risk":5,"migraine_risk":7,"frizz_risk":1,"updated_at":"2026-06-08T23:27:01.041595+05:30"},{"city":"Ujjain","state":"Madhya Pradesh","latitude":23.1765,"longitude":75.7885,"temp":30.4,"humidity":57,"rain":0.0,"pressure":950.4,"uv_index":8.6,"wind_gusts":44.6,"aqi":85,"pm10":46.7,"pm2_5":29.3,"no2":4.1,"co":270.0,"o3":92.0,"so2":6.0,"mosquito_risk":0,"arthritis_risk":5,"migraine_risk":7,"frizz_risk":1,"updated_at":"2026-06-08T23:27:01.041602+05:30"},{"city":"Visakhapatnam","state":"Andhra Pradesh","latitude":17.6868,"longitude":83.2185,"temp":31.0,"humidity":69,"rain":0.0,"pressure":999.3,"uv_index":7.6,"wind_gusts":41.8,"aqi":87,"pm10":39.6,"pm2_5":33.2,"no2":25.7,"co":328.0,"o3":71.0,"so2":39.4,"mosquito_risk":3,"arthritis_risk":5,"migraine_risk":7,"frizz_risk":1,"updated_at":"2026-06-08T23:27:01.041609+05:30"},{"city":"Vijayawada","state":"Andhra Pradesh","latitude":16.5062,"longitude":80.648,"temp":31.9,"humidity":59,"rain":0.0,"pressure":999.8,"uv_index":8.55,"wind_gusts":51.1,"aqi":73,"pm10":32.8,"pm2_5":28.9,"no2":15.0,"co":238.0,"o3":65.0,"so2":5.6,"mosquito_risk":0,"arthritis_risk":5,"migraine_risk":7,"frizz_risk":1,"updated_at":"2026-06-08T23:27:01.041616+05:30"},{"city":"Guntur","state":"Andhra Pradesh","latitude":16.3067,"longitude":80.4365,"temp":31.6,"humidity":60,"rain":0.0,"pressure":1001.3,"uv_index":8.35,"wind_gusts":44.6,"aqi":68,"pm10":30.9,"pm2_5":25.2,"no2":11.1,"co":232.0,"o3":72.0,"so2":5.2,"mosquito_risk":0,"arthritis_risk":5,"migraine_risk":4,"frizz_risk":1,"updated_at":"2026-06-08T23:27:01.041623+05:30"},{"city":"Nellore","state":"Andhra Pradesh","latitude":14.4426,"longitude":79.9865,"temp":31.0,"humidity":57,"rain":0.0,"pressure":1004.7,"uv_index":7.2,"wind_gusts":46.1,"aqi":49,"pm10":15.1,"pm2_5":12.7,"no2":7.4,"co":170.0,"o3":78.0,"so2":3.8,"mosquito_risk":0,"arthritis_risk":5,"migraine_risk":4,"frizz_risk":1,"updated_at":"2026-06-08T23:27:01.041631+05:30"},{"city":"Kurnool","state":"Andhra Pradesh","latitude":15.8281,"longitude":78.0373,"temp":25.8,"humidity":82,"rain":0.0,"pressure":976.7,"uv_index":8.55,"wind_gusts":48.6,"aqi":52,"pm10":16.8,"pm2_5":13.0,"no2":9.4,"co":180.0,"o3":69.0,"so2":4.5,"mosquito_risk":7,"arthritis_risk":5,"migraine_risk":7,"frizz_risk":1,"updated_at":"2026-06-08T23:27:01.041639+05:30"},{"city":"Kakinada","state":"Andhra Pradesh","latitude":16.9891,"longitude":82.2475,"temp":30.0,"humidity":75,"rain":0.0,"pressure":1003.8,"uv_index":8.65,"wind_gusts":42.1,"aqi":81,"pm10":29.5,"pm2_5":23.1,"no2":6.8,"co":303.0,"o3":98.0,"so2":4.3,"mosquito_risk":7,"arthritis_risk":5,"migraine_risk":4,"frizz_risk":1,"updated_at":"2026-06-08T23:27:01.041646+05:30"},{"city":"Tirupati","state":"Andhra Pradesh","latitude":13.6288,"longitude":79.4192,"temp":30.1,"humidity":61,"rain":0.0,"pressure":990.6,"uv_index":8.65,"wind_gusts":41.8,"aqi":31,"pm10":20.4,"pm2_5":19.3,"no2":26.7,"co":213.0,"o3":24.0,"so2":3.3,"mosquito_risk":3,"arthritis_risk":5,"migraine_risk":7,"frizz_risk":1,"updated_at":"2026-06-08T23:27:01.041653+05:30"},{"city":"Warangal","state":"Telangana","latitude":17.9689,"longitude":79.5941,"temp":29.5,"humidity":64,"rain":0.0,"pressure":976.0,"uv_index":8.75,"wind_gusts":36.0,"aqi":78,"pm10":40.2,"pm2_5":30.4,"no2":10.8,"co":274.0,"o3":80.0,"so2":6.0,"mosquito_risk":7,"arthritis_risk":5,"migraine_risk":7,"frizz_risk":1,"updated_at":"2026-06-08T23:27:01.041661+05:30"},{"city":"Nizamabad","state":"Telangana","latitude":18.6725,"longitude":78.0941,"temp":29.1,"humidity":67,"rain":0.0,"pressure":962.7,"uv_index":5.9,"wind_gusts":48.6,"aqi":81,"pm10":40.9,"pm2_5":27.2,"no2":11.2,"co":237.0,"o3":68.0,"so2":5.0,"mosquito_risk":7,"arthritis_risk":5,"migraine_risk":3,"frizz_risk":1,"updated_at":"2026-06-08T23:27:01.041668+05:30"},{"city":"Mysore","state":"Karnataka","latitude":12.2958,"longitude":76.6396,"temp":22.6,"humidity":88,"rain":0.0,"pressure":929.7,"uv_index":6.3,"wind_gusts":59.0,"aqi":27,"pm10":3.9,"pm2_5":3.6,"no2":7.8,"co":150.0,"o3":40.0,"so2":2.0,"mosquito_risk":3,"arthritis_risk":5,"migraine_risk":7,"frizz_risk":1,"updated_at":"2026-06-08T23:27:01.041693+05:30"},{"city":"Mangalore","state":"Karnataka","latitude":12.9141,"longitude":74.856,"temp":25.2,"humidity":95,"rain":0.3,"pressure":1009.1,"uv_index":5.45,"wind_gusts":45.0,"aqi":33,"pm10":12.7,"pm2_5":8.9,"no2":7.0,"co":169.0,"o3":43.0,"so2":2.4,"mosquito_risk":10,"arthritis_risk":0,"migraine_risk":0,"frizz_risk":1,"updated_at":"2026-06-08T23:27:01.041701+05:30"},{"city":"Hubli-Dharwad","state":"Karnataka","latitude":15.3647,"longitude":75.124,"temp":22.4,"humidity":98,"rain":0.3,"pressure":941.2,"uv_index":2.4,"wind_gusts":43.6,"aqi":24,"pm10":2.6,"pm2_5":2.1,"no2":5.2,"co":140.0,"o3":44.0,"so2":0.9,"mosquito_risk":6,"arthritis_risk":5,"migraine_risk":3,"frizz_risk":1,"updated_at":"2026-06-08T23:27:01.041708+05:30"},{"city":"Belgaum","state":"Karnataka","latitude":15.8497,"longitude":74.4977,"temp":21.3,"humidity":96,"rain":0.0,"pressure":925.9,"uv_index":7.5,"wind_gusts":33.8,"aqi":29,"pm10":5.2,"pm2_5":4.0,"no2":4.9,"co":150.0,"o3":53.0,"so2":1.9,"mosquito_risk":3,"arthritis_risk":5,"migraine_risk":7,"frizz_risk":1,"updated_at":"2026-06-08T23:27:04.361399+05:30"},{"city":"Coimbatore","state":"Tamil Nadu","latitude":11.0168,"longitude":76.9558,"temp":24.6,"humidity":82,"rain":0.0,"pressure":963.0,"uv_index":6.5,"wind_gusts":56.2,"aqi":23,"pm10":3.5,"pm2_5":3.2,"no2":6.1,"co":146.0,"o3":39.0,"so2":2.3,"mosquito_risk":3,"arthritis_risk":5,"migraine_risk":7,"frizz_risk":1,"updated_at":"2026-06-08T23:27:04.361437+05:30"},{"city":"Madurai","state":"Tamil Nadu","latitude":9.9252,"longitude":78.1198,"temp":29.6,"humidity":61,"rain":0.0,"pressure":994.4,"uv_index":5.25,"wind_gusts":58.0,"aqi":28,"pm10":9.8,"pm2_5":9.0,"no2":14.1,"co":130.0,"o3":31.0,"so2":4.4,"mosquito_risk":7,"arthritis_risk":5,"migraine_risk":3,"frizz_risk":1,"updated_at":"2026-06-08T23:27:04.361449+05:30"},{"city":"Trichy","state":"Tamil Nadu","latitude":10.7905,"longitude":78.7047,"temp":30.4,"humidity":57,"rain":0.0,"pressure":1000.7,"uv_index":8.5,"wind_gusts":64.1,"aqi":27,"pm10":5.9,"pm2_5":5.4,"no2":9.4,"co":122.0,"o3":36.0,"so2":3.7,"mosquito_risk":0,"arthritis_risk":5,"migraine_risk":4,"frizz_risk":1,"updated_at":"2026-06-08T23:27:04.361457+05:30"},{"city":"Salem","state":"Tamil Nadu","latitude":11.6643,"longitude":78.146,"temp":27.0,"humidity":72,"rain":0.0,"pressure":978.7,"uv_index":7.95,"wind_gusts":43.2,"aqi":32,"pm10":8.7,"pm2_5":8.0,"no2":15.4,"co":200.0,"o3":31.0,"so2":8.1,"mosquito_risk":7,"arthritis_risk":5,"migraine_risk":7,"frizz_risk":1,"updated_at":"2026-06-08T23:27:04.361465+05:30"},{"city":"Tirunelveli","state":"Tamil Nadu","latitude":8.7139,"longitude":77.7567,"temp":28.4,"humidity":71,"rain":0.0,"pressure":1005.8,"uv_index":3.9,"wind_gusts":51.8,"aqi":20,"pm10":5.2,"pm2_5":4.2,"no2":7.0,"co":170.0,"o3":30.0,"so2":1.6,"mosquito_risk":7,"arthritis_risk":5,"migraine_risk":0,"frizz_risk":1,"updated_at":"2026-06-08T23:27:04.361472+05:30"},{"city":"Vellore","state":"Tamil Nadu","latitude":12.9165,"longitude":79.1325,"temp":31.2,"humidity":50,"rain":0.0,"pressure":984.6,"uv_index":9.0,"wind_gusts":49.7,"aqi":43,"pm10":9.5,"pm2_5":8.0,"no2":9.2,"co":411.0,"o3":64.0,"so2":3.9,"mosquito_risk":0,"arthritis_risk":5,"migraine_risk":7,"frizz_risk":1,"updated_at":"2026-06-08T23:27:04.361479+05:30"},{"city":"Erode","state":"Tamil Nadu","latitude":11.341,"longitude":77.7172,"temp":26.4,"humidity":75,"rain":0.0,"pressure":990.3,"uv_index":8.65,"wind_gusts":54.0,"aqi":26,"pm10":7.1,"pm2_5":6.5,"no2":12.2,"co":184.0,"o3":31.0,"so2":3.9,"mosquito_risk":7,"arthritis_risk":5,"migraine_risk":7,"frizz_risk":1,"updated_at":"2026-06-08T23:27:04.361486+05:30"},{"city":"Kochi","state":"Kerala","latitude":9.9312,"longitude":76.2673,"temp":26.3,"humidity":93,"rain":0.0,"pressure":1012.2,"uv_index":6.65,"wind_gusts":37.1,"aqi":32,"pm10":16.2,"pm2_5":12.7,"no2":16.0,"co":109.0,"o3":20.0,"so2":4.1,"mosquito_risk":7,"arthritis_risk":0,"migraine_risk":4,"frizz_risk":1,"updated_at":"2026-06-08T23:27:04.361493+05:30"},{"city":"Thiruvananthapuram","state":"Kerala","latitude":8.5241,"longitude":76.9366,"temp":25.4,"humidity":95,"rain":0.1,"pressure":1011.6,"uv_index":7.5,"wind_gusts":49.3,"aqi":30,"pm10":12.8,"pm2_5":6.7,"no2":1.4,"co":90.0,"o3":41.0,"so2":0.4,"mosquito_risk":10,"arthritis_risk":0,"migraine_risk":4,"frizz_risk":1,"updated_at":"2026-06-08T23:27:04.361500+05:30"},{"city":"Kozhikode","state":"Kerala","latitude":11.2588,"longitude":75.7804,"temp":24.2,"humidity":99,"rain":0.4,"pressure":1011.2,"uv_index":5.75,"wind_gusts":40.7,"aqi":25,"pm10":9.1,"pm2_5":4.8,"no2":1.0,"co":191.0,"o3":54.0,"so2":0.4,"mosquito_risk":6,"arthritis_risk":0,"migraine_risk":0,"frizz_risk":1,"updated_at":"2026-06-08T23:27:04.361507+05:30"},{"city":"Thrissur","state":"Kerala","latitude":10.5276,"longitude":76.2144,"temp":24.3,"humidity":99,"rain":0.1,"pressure":1010.1,"uv_index":3.9,"wind_gusts":38.9,"aqi":30,"pm10":14.2,"pm2_5":12.0,"no2":9.8,"co":197.0,"o3":31.0,"so2":2.7,"mosquito_risk":6,"arthritis_risk":0,"migraine_risk":0,"frizz_risk":1,"updated_at":"2026-06-08T23:27:04.361515+05:30"},{"city":"Kannur","state":"Kerala","latitude":11.8745,"longitude":75.3704,"temp":25.0,"humidity":96,"rain":0.2,"pressure":1010.1,"uv_index":6.7,"wind_gusts":45.7,"aqi":25,"pm10":12.6,"pm2_5":8.8,"no2":11.4,"co":254.0,"o3":38.0,"so2":2.4,"mosquito_risk":10,"arthritis_risk":0,"migraine_risk":4,"frizz_risk":1,"updated_at":"2026-06-08T23:27:04.361521+05:30"},{"city":"Patna","state":"Bihar","latitude":25.5941,"longitude":85.1376,"temp":29.9,"humidity":84,"rain":0.0,"pressure":993.5,"uv_index":8.9,"wind_gusts":38.2,"aqi":160,"pm10":112.5,"pm2_5":65.9,"no2":40.8,"co":597.0,"o3":54.0,"so2":18.6,"mosquito_risk":7,"arthritis_risk":5,"migraine_risk":7,"frizz_risk":1,"updated_at":"2026-06-08T23:27:04.361528+05:30"},{"city":"Gaya","state":"Bihar","latitude":24.7914,"longitude":85.0002,"temp":31.4,"humidity":53,"rain":0.0,"pressure":987.4,"uv_index":8.35,"wind_gusts":44.6,"aqi":151,"pm10":131.3,"pm2_5":72.6,"no2":37.4,"co":628.0,"o3":49.0,"so2":14.6,"mosquito_risk":0,"arthritis_risk":5,"migraine_risk":7,"frizz_risk":1,"updated_at":"2026-06-08T23:27:04.361534+05:30"},{"city":"Muzaffarpur","state":"Bihar","latitude":26.1209,"longitude":85.3647,"temp":29.4,"humidity":83,"rain":0.0,"pressure":993.6,"uv_index":8.85,"wind_gusts":24.1,"aqi":167,"pm10":131.3,"pm2_5":92.0,"no2":48.7,"co":767.0,"o3":52.0,"so2":21.6,"mosquito_risk":7,"arthritis_risk":5,"migraine_risk":7,"frizz_risk":1,"updated_at":"2026-06-08T23:27:04.361540+05:30"},{"city":"Bhagalpur","state":"Bihar","latitude":25.2425,"longitude":87.0117,"temp":29.0,"humidity":86,"rain":0.0,"pressure":994.4,"uv_index":8.85,"wind_gusts":25.6,"aqi":152,"pm10":111.5,"pm2_5":78.2,"no2":28.4,"co":564.0,"o3":85.0,"so2":17.1,"mosquito_risk":7,"arthritis_risk":5,"migraine_risk":7,"frizz_risk":1,"updated_at":"2026-06-08T23:27:04.361547+05:30"},{"city":"Ranchi","state":"Jharkhand","latitude":23.3441,"longitude":85.3096,"temp":27.3,"humidity":61,"rain":0.0,"pressure":933.4,"uv_index":9.25,"wind_gusts":35.6,"aqi":125,"pm10":95.9,"pm2_5":60.5,"no2":30.9,"co":395.0,"o3":69.0,"so2":12.1,"mosquito_risk":7,"arthritis_risk":5,"migraine_risk":7,"frizz_risk":1,"updated_at":"2026-06-08T23:27:04.361554+05:30"},{"city":"Jamshedpur","state":"Jharkhand","latitude":22.8046,"longitude":86.2029,"temp":29.2,"humidity":65,"rain":0.0,"pressure":985.2,"uv_index":8.5,"wind_gusts":34.2,"aqi":148,"pm10":84.5,"pm2_5":54.4,"no2":18.1,"co":707.0,"o3":104.0,"so2":27.9,"mosquito_risk":7,"arthritis_risk":5,"migraine_risk":7,"frizz_risk":1,"updated_at":"2026-06-08T23:27:04.361560+05:30"},{"city":"Dhanbad","state":"Jharkhand","latitude":23.7957,"longitude":86.4304,"temp":31.3,"humidity":52,"rain":0.0,"pressure":973.8,"uv_index":9.05,"wind_gusts":34.9,"aqi":163,"pm10":157.9,"pm2_5":109.2,"no2":76.6,"co":963.0,"o3":43.0,"so2":155.3,"mosquito_risk":0,"arthritis_risk":5,"migraine_risk":7,"frizz_risk":1,"updated_at":"2026-06-08T23:27:04.361567+05:30"},{"city":"Bokaro","state":"Jharkhand","latitude":23.6693,"longitude":86.1511,"temp":31.0,"humidity":53,"rain":0.0,"pressure":977.6,"uv_index":8.9,"wind_gusts":36.0,"aqi":161,"pm10":165.8,"pm2_5":111.3,"no2":71.6,"co":1617.0,"o3":25.0,"so2":125.1,"mosquito_risk":0,"arthritis_risk":5,"migraine_risk":7,"frizz_risk":1,"updated_at":"2026-06-08T23:27:04.361574+05:30"},{"city":"Bhubaneswar","state":"Odisha","latitude":20.2961,"longitude":85.8245,"temp":29.1,"humidity":79,"rain":0.0,"pressure":997.2,"uv_index":8.45,"wind_gusts":32.0,"aqi":87,"pm10":34.2,"pm2_5":30.9,"no2":11.9,"co":364.0,"o3":91.0,"so2":8.6,"mosquito_risk":7,"arthritis_risk":5,"migraine_risk":7,"frizz_risk":1,"updated_at":"2026-06-08T23:27:04.361581+05:30"},{"city":"Cuttack","state":"Odisha","latitude":20.4625,"longitude":85.8828,"temp":29.2,"humidity":78,"rain":0.0,"pressure":998.9,"uv_index":8.3,"wind_gusts":31.3,"aqi":87,"pm10":34.2,"pm2_5":30.9,"no2":11.9,"co":380.0,"o3":91.0,"so2":8.6,"mosquito_risk":7,"arthritis_risk":5,"migraine_risk":7,"frizz_risk":1,"updated_at":"2026-06-08T23:27:04.361588+05:30"},{"city":"Rourkela","state":"Odisha","latitude":22.2604,"longitude":84.8536,"temp":30.0,"humidity":66,"rain":0.0,"pressure":980.0,"uv_index":8.55,"wind_gusts":31.7,"aqi":142,"pm10":76.4,"pm2_5":53.0,"no2":16.1,"co":595.0,"o3":118.0,"so2":17.2,"mosquito_risk":7,"arthritis_risk":5,"migraine_risk":7,"frizz_risk":1,"updated_at":"2026-06-08T23:27:04.361595+05:30"},{"city":"Raipur","state":"Chhattisgarh","latitude":21.2514,"longitude":81.6296,"temp":31.3,"humidity":55,"rain":0.0,"pressure":971.3,"uv_index":8.9,"wind_gusts":45.7,"aqi":118,"pm10":80.8,"pm2_5":60.1,"no2":47.1,"co":361.0,"o3":46.0,"so2":62.7,"mosquito_risk":0,"arthritis_risk":5,"migraine_risk":7,"frizz_risk":1,"updated_at":"2026-06-08T23:27:04.361601+05:30"},{"city":"Bhilai","state":"Chhattisgarh","latitude":21.1938,"longitude":81.3509,"temp":31.5,"humidity":57,"rain":0.0,"pressure":971.4,"uv_index":7.45,"wind_gusts":41.8,"aqi":109,"pm10":81.3,"pm2_5":63.1,"no2":51.0,"co":585.0,"o3":38.0,"so2":54.4,"mosquito_risk":0,"arthritis_risk":5,"migraine_risk":7,"frizz_risk":1,"updated_at":"2026-06-08T23:27:04.361608+05:30"},{"city":"Guwahati","state":"Assam","latitude":26.1158,"longitude":91.7086,"temp":25.9,"humidity":94,"rain":0.0,"pressure":996.2,"uv_index":8.8,"wind_gusts":29.5,"aqi":83,"pm10":61.9,"pm2_5":58.6,"no2":16.9,"co":493.0,"o3":41.0,"so2":2.1,"mosquito_risk":7,"arthritis_risk":5,"migraine_risk":7,"frizz_risk":1,"updated_at":"2026-06-08T23:27:04.361614+05:30"},{"city":"Agartala","state":"Tripura","latitude":23.8315,"longitude":91.2868,"temp":26.5,"humidity":91,"rain":0.0,"pressure":1001.5,"uv_index":8.65,"wind_gusts":31.0,"aqi":65,"pm10":18.6,"pm2_5":17.1,"no2":10.0,"co":266.0,"o3":72.0,"so2":3.6,"mosquito_risk":7,"arthritis_risk":5,"migraine_risk":4,"frizz_risk":1,"updated_at":"2026-06-08T23:27:04.361621+05:30"},{"city":"Shillong","state":"Meghalaya","latitude":25.5788,"longitude":91.8933,"temp":17.6,"humidity":96,"rain":0.0,"pressure":852.6,"uv_index":8.9,"wind_gusts":28.4,"aqi":56,"pm10":27.9,"pm2_5":24.3,"no2":6.3,"co":281.0,"o3":90.0,"so2":3.1,"mosquito_risk":3,"arthritis_risk":10,"migraine_risk":7,"frizz_risk":1,"updated_at":"2026-06-08T23:27:04.361628+05:30"},{"city":"Imphal","state":"Manipur","latitude":24.817,"longitude":93.9368,"temp":23.3,"humidity":97,"rain":0.0,"pressure":919.2,"uv_index":8.9,"wind_gusts":30.2,"aqi":57,"pm10":26.4,"pm2_5":25.6,"no2":18.5,"co":454.0,"o3":30.0,"so2":2.8,"mosquito_risk":3,"arthritis_risk":5,"migraine_risk":7,"frizz_risk":1,"updated_at":"2026-06-08T23:27:04.361634+05:30"},{"city":"Aizawl","state":"Mizoram","latitude":23.7271,"longitude":92.7176,"temp":19.7,"humidity":98,"rain":0.0,"pressure":888.5,"uv_index":7.3,"wind_gusts":32.8,"aqi":34,"pm10":6.7,"pm2_5":5.9,"no2":4.6,"co":165.0,"o3":55.0,"so2":0.9,"mosquito_risk":3,"arthritis_risk":10,"migraine_risk":7,"frizz_risk":1,"updated_at":"2026-06-08T23:27:04.361641+05:30"},{"city":"Kohima","state":"Nagaland","latitude":25.6701,"longitude":94.1077,"temp":19.5,"humidity":94,"rain":0.0,"pressure":851.7,"uv_index":7.55,"wind_gusts":27.7,"aqi":30,"pm10":11.3,"pm2_5":10.7,"no2":11.7,"co":351.0,"o3":34.0,"so2":1.1,"mosquito_risk":3,"arthritis_risk":10,"migraine_risk":7,"frizz_risk":1,"updated_at":"2026-06-08T23:27:04.361648+05:30"},{"city":"Gangtok","state":"Sikkim","latitude":27.3314,"longitude":88.6138,"temp":17.3,"humidity":97,"rain":0.2,"pressure":834.0,"uv_index":8.7,"wind_gusts":38.5,"aqi":96,"pm10":9.2,"pm2_5":8.5,"no2":7.8,"co":568.0,"o3":125.0,"so2":3.7,"mosquito_risk":6,"arthritis_risk":10,"migraine_risk":7,"frizz_risk":1,"updated_at":"2026-06-08T23:27:04.361654+05:30"},{"city":"Siliguri","state":"West Bengal","latitude":26.7271,"longitude":88.3953,"temp":25.0,"humidity":97,"rain":0.1,"pressure":987.8,"uv_index":8.6,"wind_gusts":22.7,"aqi":125,"pm10":39.7,"pm2_5":36.2,"no2":14.5,"co":604.0,"o3":104.0,"so2":5.5,"mosquito_risk":10,"arthritis_risk":5,"migraine_risk":7,"frizz_risk":1,"updated_at":"2026-06-08T23:27:07.699816+05:30"},{"city":"Durgapur","state":"West Bengal","latitude":23.5204,"longitude":87.3119,"temp":29.0,"humidity":80,"rain":0.0,"pressure":988.6,"uv_index":9.0,"wind_gusts":30.6,"aqi":165,"pm10":99.9,"pm2_5":77.1,"no2":29.3,"co":815.0,"o3":100.0,"so2":49.8,"mosquito_risk":7,"arthritis_risk":5,"migraine_risk":7,"frizz_risk":1,"updated_at":"2026-06-08T23:27:07.699854+05:30"},{"city":"Asansol","state":"West Bengal","latitude":23.6739,"longitude":86.9524,"temp":29.9,"humidity":63,"rain":0.0,"pressure":987.2,"uv_index":9.0,"wind_gusts":34.2,"aqi":158,"pm10":89.9,"pm2_5":66.4,"no2":31.7,"co":1217.0,"o3":86.0,"so2":40.8,"mosquito_risk":7,"arthritis_risk":5,"migraine_risk":7,"frizz_risk":1,"updated_at":"2026-06-08T23:27:07.699865+05:30"},{"city":"Pondicherry","state":"Puducherry","latitude":11.9139,"longitude":79.8145,"temp":31.2,"humidity":57,"rain":0.0,"pressure":1007.9,"uv_index":8.7,"wind_gusts":49.3,"aqi":44,"pm10":9.9,"pm2_5":8.4,"no2":14.2,"co":602.0,"o3":48.0,"so2":12.3,"mosquito_risk":0,"arthritis_risk":5,"migraine_risk":4,"frizz_risk":1,"updated_at":"2026-06-08T23:27:07.699875+05:30"},{"city":"Port Blair","state":"Andaman and Nicobar Islands","latitude":11.6234,"longitude":92.7265,"temp":26.6,"humidity":92,"rain":0.0,"pressure":1007.3,"uv_index":8.75,"wind_gusts":50.0,"aqi":25,"pm10":8.8,"pm2_5":5.1,"no2":0.3,"co":84.0,"o3":45.0,"so2":0.3,"mosquito_risk":7,"arthritis_risk":5,"migraine_risk":4,"frizz_risk":1,"updated_at":"2026-06-08T23:27:07.699883+05:30"},{"city":"Haridwar","state":"Uttarakhand","latitude":29.9457,"longitude":78.1642,"temp":27.3,"humidity":62,"rain":0.0,"pressure":965.8,"uv_index":7.6,"wind_gusts":30.2,"aqi":147,"pm10":42.5,"pm2_5":40.7,"no2":23.7,"co":510.0,"o3":111.0,"so2":14.9,"mosquito_risk":7,"arthritis_risk":5,"migraine_risk":7,"frizz_risk":1,"updated_at":"2026-06-08T23:27:07.699891+05:30"},{"city":"Rishikesh","state":"Uttarakhand","latitude":30.0869,"longitude":78.2676,"temp":23.9,"humidity":67,"rain":0.0,"pressure":958.4,"uv_index":7.7,"wind_gusts":25.9,"aqi":152,"pm10":33.8,"pm2_5":30.4,"no2":15.3,"co":419.0,"o3":126.0,"so2":9.6,"mosquito_risk":3,"arthritis_risk":5,"migraine_risk":7,"frizz_risk":1,"updated_at":"2026-06-08T23:27:07.699898+05:30"},{"city":"Nainital","state":"Uttarakhand","latitude":29.3919,"longitude":79.4542,"temp":16.6,"humidity":66,"rain":0.0,"pressure":801.3,"uv_index":8.55,"wind_gusts":45.4,"aqi":128,"pm10":38.1,"pm2_5":33.1,"no2":16.5,"co":390.0,"o3":108.0,"so2":7.8,"mosquito_risk":3,"arthritis_risk":5,"migraine_risk":7,"frizz_risk":0,"updated_at":"2026-06-08T23:27:07.699906+05:30"},{"city":"Mussoorie","state":"Uttarakhand","latitude":30.4599,"longitude":78.0664,"temp":16.8,"humidity":59,"rain":0.0,"pressure":798.3,"uv_index":8.1,"wind_gusts":44.6,"aqi":150,"pm10":35.7,"pm2_5":32.6,"no2":29.6,"co":361.0,"o3":109.0,"so2":12.6,"mosquito_risk":0,"arthritis_risk":5,"migraine_risk":7,"frizz_risk":0,"updated_at":"2026-06-08T23:27:07.699914+05:30"},{"city":"Dharamshala","state":"Himachal Pradesh","latitude":32.219,"longitude":76.3234,"temp":23.3,"humidity":44,"rain":0.0,"pressure":864.4,"uv_index":8.5,"wind_gusts":44.3,"aqi":89,"pm10":18.0,"pm2_5":15.9,"no2":16.4,"co":250.0,"o3":62.0,"so2":1.0,"mosquito_risk":0,"arthritis_risk":5,"migraine_risk":7,"frizz_risk":0,"updated_at":"2026-06-08T23:27:07.699921+05:30"},{"city":"Dalhousie","state":"Himachal Pradesh","latitude":32.5387,"longitude":75.971,"temp":15.3,"humidity":66,"rain":0.0,"pressure":799.0,"uv_index":8.8,"wind_gusts":33.5,"aqi":128,"pm10":32.9,"pm2_5":28.2,"no2":33.6,"co":486.0,"o3":78.0,"so2":3.4,"mosquito_risk":3,"arthritis_risk":5,"migraine_risk":7,"frizz_risk":0,"updated_at":"2026-06-08T23:27:07.699929+05:30"},{"city":"Patiala","state":"Punjab","latitude":30.3398,"longitude":76.3869,"temp":31.3,"humidity":46,"rain":0.0,"pressure":969.9,"uv_index":7.7,"wind_gusts":36.7,"aqi":156,"pm10":685.5,"pm2_5":124.3,"no2":20.0,"co":506.0,"o3":76.0,"so2":7.7,"mosquito_risk":0,"arthritis_risk":5,"migraine_risk":7,"frizz_risk":1,"updated_at":"2026-06-08T23:27:07.699936+05:30"},{"city":"Bhatinda","state":"Punjab","latitude":30.211,"longitude":74.9455,"temp":34.0,"humidity":33,"rain":0.0,"pressure":975.3,"uv_index":8.3,"wind_gusts":30.2,"aqi":98,"pm10":45.2,"pm2_5":32.7,"no2":21.1,"co":426.0,"o3":81.0,"so2":8.5,"mosquito_risk":0,"arthritis_risk":5,"migraine_risk":7,"frizz_risk":0,"updated_at":"2026-06-08T23:27:07.699944+05:30"},{"city":"Rohtak","state":"Haryana","latitude":28.8955,"longitude":76.6066,"temp":31.2,"humidity":39,"rain":0.0,"pressure":973.7,"uv_index":7.8,"wind_gusts":31.0,"aqi":562,"pm10":877.3,"pm2_5":164.8,"no2":53.0,"co":469.0,"o3":46.0,"so2":12.3,"mosquito_risk":0,"arthritis_risk":5,"migraine_risk":7,"frizz_risk":0,"updated_at":"2026-06-08T23:27:07.699951+05:30"},{"city":"Panipat","state":"Haryana","latitude":29.3909,"longitude":76.9635,"temp":29.5,"humidity":51,"rain":0.0,"pressure":972.1,"uv_index":7.65,"wind_gusts":31.7,"aqi":1013,"pm10":1210.7,"pm2_5":204.4,"no2":30.3,"co":575.0,"o3":70.0,"so2":8.9,"mosquito_risk":4,"arthritis_risk":5,"migraine_risk":7,"frizz_risk":1,"updated_at":"2026-06-08T23:27:07.699958+05:30"},{"city":"Mathura","state":"Uttar Pradesh","latitude":27.4924,"longitude":77.6737,"temp":30.0,"humidity":47,"rain":0.0,"pressure":979.2,"uv_index":8.05,"wind_gusts":32.0,"aqi":543,"pm10":599.8,"pm2_5":137.8,"no2":64.8,"co":864.0,"o3":12.0,"so2":9.3,"mosquito_risk":4,"arthritis_risk":5,"migraine_risk":7,"frizz_risk":1,"updated_at":"2026-06-08T23:27:07.699965+05:30"},{"city":"Vrindavan","state":"Uttar Pradesh","latitude":27.5823,"longitude":77.7027,"temp":29.1,"humidity":51,"rain":0.0,"pressure":979.6,"uv_index":8.0,"wind_gusts":33.8,"aqi":543,"pm10":599.8,"pm2_5":137.8,"no2":64.8,"co":805.0,"o3":12.0,"so2":9.3,"mosquito_risk":4,"arthritis_risk":5,"migraine_risk":7,"frizz_risk":1,"updated_at":"2026-06-08T23:27:07.699971+05:30"},{"city":"Ayodhya","state":"Uttar Pradesh","latitude":26.7922,"longitude":82.1998,"temp":30.0,"humidity":58,"rain":0.0,"pressure":988.0,"uv_index":8.45,"wind_gusts":33.1,"aqi":152,"pm10":119.0,"pm2_5":63.8,"no2":25.2,"co":522.0,"o3":58.0,"so2":10.8,"mosquito_risk":4,"arthritis_risk":5,"migraine_risk":7,"frizz_risk":1,"updated_at":"2026-06-08T23:27:07.699978+05:30"},{"city":"Ratlam","state":"Madhya Pradesh","latitude":23.3315,"longitude":75.0367,"temp":30.1,"humidity":59,"rain":0.0,"pressure":951.6,"uv_index":8.5,"wind_gusts":44.3,"aqi":85,"pm10":44.9,"pm2_5":28.1,"no2":3.5,"co":175.0,"o3":100.0,"so2":7.8,"mosquito_risk":0,"arthritis_risk":5,"migraine_risk":7,"frizz_risk":1,"updated_at":"2026-06-08T23:27:07.699984+05:30"},{"city":"Sagar","state":"Madhya Pradesh","latitude":23.8388,"longitude":78.7378,"temp":28.9,"humidity":62,"rain":0.0,"pressure":945.8,"uv_index":8.55,"wind_gusts":42.5,"aqi":81,"pm10":49.8,"pm2_5":27.8,"no2":7.5,"co":194.0,"o3":74.0,"so2":4.1,"mosquito_risk":7,"arthritis_risk":5,"migraine_risk":7,"frizz_risk":1,"updated_at":"2026-06-08T23:27:07.699991+05:30"},{"city":"Satna","state":"Madhya Pradesh","latitude":24.6005,"longitude":80.8322,"temp":31.7,"humidity":49,"rain":0.0,"pressure":966.2,"uv_index":8.8,"wind_gusts":39.6,"aqi":88,"pm10":48.2,"pm2_5":26.7,"no2":12.0,"co":224.0,"o3":63.0,"so2":3.9,"mosquito_risk":0,"arthritis_risk":5,"migraine_risk":7,"frizz_risk":1,"updated_at":"2026-06-08T23:27:07.699998+05:30"},{"city":"Akola","state":"Maharashtra","latitude":20.7002,"longitude":77.0082,"temp":33.8,"humidity":42,"rain":0.0,"pressure":971.4,"uv_index":8.85,"wind_gusts":42.8,"aqi":85,"pm10":44.0,"pm2_5":25.6,"no2":9.0,"co":188.0,"o3":83.0,"so2":7.0,"mosquito_risk":0,"arthritis_risk":5,"migraine_risk":7,"frizz_risk":1,"updated_at":"2026-06-08T23:27:07.700006+05:30"},{"city":"Amravati","state":"Maharashtra","latitude":20.9374,"longitude":77.7796,"temp":30.4,"humidity":57,"rain":0.0,"pressure":964.2,"uv_index":8.8,"wind_gusts":37.4,"aqi":87,"pm10":44.0,"pm2_5":25.7,"no2":10.6,"co":273.0,"o3":75.0,"so2":6.5,"mosquito_risk":0,"arthritis_risk":5,"migraine_risk":7,"frizz_risk":1,"updated_at":"2026-06-08T23:27:07.700014+05:30"},{"city":"Latur","state":"Maharashtra","latitude":18.4088,"longitude":76.5604,"temp":27.5,"humidity":69,"rain":0.0,"pressure":938.7,"uv_index":8.7,"wind_gusts":45.4,"aqi":70,"pm10":20.3,"pm2_5":13.3,"no2":5.4,"co":183.0,"o3":73.0,"so2":2.5,"mosquito_risk":7,"arthritis_risk":5,"migraine_risk":7,"frizz_risk":1,"updated_at":"2026-06-08T23:27:07.700022+05:30"},{"city":"Nanded","state":"Maharashtra","latitude":19.1383,"longitude":77.3091,"temp":30.6,"humidity":57,"rain":0.0,"pressure":966.3,"uv_index":8.95,"wind_gusts":52.2,"aqi":81,"pm10":39.2,"pm2_5":24.8,"no2":10.4,"co":200.0,"o3":71.0,"so2":6.1,"mosquito_risk":0,"arthritis_risk":5,"migraine_risk":7,"frizz_risk":1,"updated_at":"2026-06-08T23:27:07.700029+05:30"},{"city":"Gulbarga","state":"Karnataka","latitude":17.3297,"longitude":76.8343,"temp":25.6,"humidity":84,"rain":0.0,"pressure":958.0,"uv_index":6.8,"wind_gusts":33.1,"aqi":58,"pm10":25.3,"pm2_5":17.2,"no2":13.4,"co":201.0,"o3":62.0,"so2":3.8,"mosquito_risk":7,"arthritis_risk":5,"migraine_risk":7,"frizz_risk":1,"updated_at":"2026-06-08T23:27:07.700037+05:30"},{"city":"Bidar","state":"Karnataka","latitude":17.9104,"longitude":77.5199,"temp":25.0,"humidity":85,"rain":0.0,"pressure":934.3,"uv_index":7.1,"wind_gusts":40.3,"aqi":71,"pm10":31.2,"pm2_5":20.2,"no2":13.9,"co":196.0,"o3":65.0,"so2":4.0,"mosquito_risk":7,"arthritis_risk":5,"migraine_risk":7,"frizz_risk":1,"updated_at":"2026-06-08T23:27:07.700044+05:30"},{"city":"Hospet","state":"Karnataka","latitude":15.2689,"longitude":76.3909,"temp":23.6,"humidity":91,"rain":0.0,"pressure":956.2,"uv_index":6.5,"wind_gusts":46.4,"aqi":35,"pm10":7.3,"pm2_5":5.3,"no2":7.4,"co":165.0,"o3":42.0,"so2":1.7,"mosquito_risk":3,"arthritis_risk":5,"migraine_risk":7,"frizz_risk":1,"updated_at":"2026-06-08T23:27:07.700050+05:30"},{"city":"Tirupur","state":"Tamil Nadu","latitude":11.1085,"longitude":77.3411,"temp":25.3,"humidity":81,"rain":0.0,"pressure":976.3,"uv_index":8.35,"wind_gusts":64.1,"aqi":25,"pm10":7.0,"pm2_5":6.4,"no2":11.6,"co":140.0,"o3":33.0,"so2":4.3,"mosquito_risk":7,"arthritis_risk":5,"migraine_risk":7,"frizz_risk":1,"updated_at":"2026-06-08T23:27:07.700057+05:30"},{"city":"Alappuzha","state":"Kerala","latitude":9.4981,"longitude":76.3388,"temp":26.1,"humidity":92,"rain":0.1,"pressure":1012.3,"uv_index":6.1,"wind_gusts":44.3,"aqi":29,"pm10":19.0,"pm2_5":11.9,"no2":5.2,"co":83.0,"o3":42.0,"so2":1.2,"mosquito_risk":10,"arthritis_risk":0,"migraine_risk":4,"frizz_risk":1,"updated_at":"2026-06-08T23:27:07.700064+05:30"},{"city":"Munnar","state":"Kerala","latitude":10.0889,"longitude":77.0595,"temp":17.1,"humidity":100,"rain":0.1,"pressure":858.3,"uv_index":6.4,"wind_gusts":53.6,"aqi":22,"pm10":2.4,"pm2_5":2.4,"no2":7.3,"co":105.0,"o3":28.0,"so2":1.9,"mosquito_risk":6,"arthritis_risk":10,"migraine_risk":7,"frizz_risk":1,"updated_at":"2026-06-08T23:27:07.700071+05:30"},{"city":"Silchar","state":"Assam","latitude":24.8333,"longitude":92.7789,"temp":24.9,"humidity":99,"rain":0.0,"pressure":1001.0,"uv_index":8.8,"wind_gusts":25.2,"aqi":63,"pm10":23.9,"pm2_5":21.1,"no2":8.9,"co":316.0,"o3":71.0,"so2":4.3,"mosquito_risk":3,"arthritis_risk":5,"migraine_risk":4,"frizz_risk":1,"updated_at":"2026-06-08T23:27:07.700078+05:30"},{"city":"Dibrugarh","state":"Assam","latitude":27.4728,"longitude":94.912,"temp":25.6,"humidity":94,"rain":0.0,"pressure":990.1,"uv_index":8.15,"wind_gusts":24.1,"aqi":68,"pm10":16.6,"pm2_5":15.6,"no2":10.0,"co":291.0,"o3":75.0,"so2":1.7,"mosquito_risk":7,"arthritis_risk":5,"migraine_risk":7,"frizz_risk":1,"updated_at":"2026-06-08T23:27:07.700085+05:30"}]