[{"city":"Delhi","state":"Delhi","latitude":28.6139,"longitude":77.209,"temp":18.3,"humidity":70,"rain":0.0,"pressure":986.9,"uv_index":5.85,"wind_gusts":36.4,"aqi":219,"pm10":303.6,"pm2_5":81.0,"mosquito_risk":3,"arthritis_risk":5,"migraine_risk":3,"frizz_risk":0,"updated_at":"2026-03-03T01:09:12.759098+05:30"},{"city":"Mumbai","state":"Maharashtra","latitude":19.076,"longitude":72.8777,"temp":26.6,"humidity":78,"rain":0.0,"pressure":1011.0,"uv_index":7.35,"wind_gusts":27.0,"aqi":89,"pm10":39.7,"pm2_5":32.9,"mosquito_risk":7,"arthritis_risk":0,"migraine_risk":4,"frizz_risk":1,"updated_at":"2026-03-03T01:09:12.759133+05:30"},{"city":"Bangalore","state":"Karnataka","latitude":12.9716,"longitude":77.5946,"temp":21.6,"humidity":61,"rain":0.0,"pressure":912.5,"uv_index":9.1,"wind_gusts":39.6,"aqi":130,"pm10":46.9,"pm2_5":46.1,"mosquito_risk":3,"arthritis_risk":5,"migraine_risk":7,"frizz_risk":0,"updated_at":"2026-03-03T01:09:12.759148+05:30"},{"city":"Hyderabad","state":"Telangana","latitude":17.385,"longitude":78.4867,"temp":24.5,"humidity":66,"rain":0.0,"pressure":954.9,"uv_index":8.35,"wind_gusts":25.2,"aqi":140,"pm10":63.6,"pm2_5":62.6,"mosquito_risk":3,"arthritis_risk":5,"migraine_risk":7,"frizz_risk":1,"updated_at":"2026-03-03T01:09:12.759159+05:30"},{"city":"Chennai","state":"Tamil Nadu","latitude":13.0827,"longitude":80.2707,"temp":24.5,"humidity":83,"rain":0.0,"pressure":1009.4,"uv_index":8.8,"wind_gusts":29.2,"aqi":123,"pm10":48.4,"pm2_5":44.4,"mosquito_risk":3,"arthritis_risk":0,"migraine_risk":4,"frizz_risk":1,"updated_at":"2026-03-03T01:09:12.759168+05:30"},{"city":"Kolkata","state":"West Bengal","latitude":22.5726,"longitude":88.3639,"temp":23.4,"humidity":71,"rain":0.0,"pressure":1008.5,"uv_index":7.7,"wind_gusts":17.3,"aqi":159,"pm10":125.7,"pm2_5":115.5,"mosquito_risk":3,"arthritis_risk":0,"migraine_risk":4,"frizz_risk":1,"updated_at":"2026-03-03T01:09:12.759176+05:30"},{"city":"Pune","state":"Maharashtra","latitude":18.5204,"longitude":73.8567,"temp":22.5,"humidity":73,"rain":0.0,"pressure":950.3,"uv_index":7.9,"wind_gusts":31.0,"aqi":94,"pm10":43.9,"pm2_5":41.3,"mosquito_risk":3,"arthritis_risk":5,"migraine_risk":7,"frizz_risk":1,"updated_at":"2026-03-03T01:09:12.759187+05:30"},{"city":"Ahmedabad","state":"Gujarat","latitude":23.0225,"longitude":72.5714,"temp":24.9,"humidity":58,"rain":0.0,"pressure":1006.1,"uv_index":7.15,"wind_gusts":19.4,"aqi":101,"pm10":67.5,"pm2_5":56.6,"mosquito_risk":0,"arthritis_risk":5,"migraine_risk":4,"frizz_risk":1,"updated_at":"2026-03-03T01:09:12.759195+05:30"},{"city":"Jaipur","state":"Rajasthan","latitude":26.9124,"longitude":75.7873,"temp":22.5,"humidity":43,"rain":0.0,"pressure":963.9,"uv_index":6.6,"wind_gusts":32.4,"aqi":101,"pm10":88.9,"pm2_5":43.3,"mosquito_risk":0,"arthritis_risk":5,"migraine_risk":7,"frizz_risk":0,"updated_at":"2026-03-03T01:09:12.759202+05:30"},{"city":"Lucknow","state":"Uttar Pradesh","latitude":26.8467,"longitude":80.9462,"temp":19.1,"humidity":72,"rain":0.0,"pressure":996.9,"uv_index":6.3,"wind_gusts":35.3,"aqi":152,"pm10":275.7,"pm2_5":73.1,"mosquito_risk":3,"arthritis_risk":5,"migraine_risk":7,"frizz_risk":0,"updated_at":"2026-03-03T01:09:12.759209+05:30"},{"city":"Kanpur","state":"Uttar Pradesh","latitude":26.4499,"longitude":80.3319,"temp":18.4,"humidity":82,"rain":0.0,"pressure":995.4,"uv_index":6.3,"wind_gusts":28.4,"aqi":160,"pm10":352.0,"pm2_5":71.9,"mosquito_risk":3,"arthritis_risk":10,"migraine_risk":7,"frizz_risk":0,"updated_at":"2026-03-03T01:09:12.759217+05:30"},{"city":"Chandigarh","state":"Chandigarh","latitude":30.7333,"longitude":76.7794,"temp":17.4,"humidity":63,"rain":0.0,"pressure":971.9,"uv_index":5.7,"wind_gusts":34.9,"aqi":81,"pm10":29.5,"pm2_5":27.1,"mosquito_risk":3,"arthritis_risk":5,"migraine_risk":3,"frizz_risk":0,"updated_at":"2026-03-03T01:09:12.759224+05:30"},{"city":"Srinagar","state":"Jammu and Kashmir","latitude":34.0837,"longitude":74.7973,"temp":4.1,"humidity":63,"rain":0.0,"pressure":840.3,"uv_index":6.6,"wind_gusts":17.3,"aqi":146,"pm10":94.3,"pm2_5":82.2,"mosquito_risk":3,"arthritis_risk":5,"migraine_risk":7,"frizz_risk":1,"updated_at":"2026-03-03T01:09:12.759231+05:30"},{"city":"Jammu","state":"Jammu and Kashmir","latitude":32.7266,"longitude":74.857,"temp":18.6,"humidity":60,"rain":0.0,"pressure":976.1,"uv_index":6.3,"wind_gusts":24.8,"aqi":99,"pm10":54.9,"pm2_5":52.4,"mosquito_risk":0,"arthritis_risk":5,"migraine_risk":7,"frizz_risk":0,"updated_at":"2026-03-03T01:09:12.759239+05:30"},{"city":"Amritsar","state":"Punjab","latitude":31.634,"longitude":74.8723,"temp":16.2,"humidity":74,"rain":0.0,"pressure":984.7,"uv_index":6.25,"wind_gusts":26.3,"aqi":133,"pm10":35.2,"pm2_5":28.5,"mosquito_risk":3,"arthritis_risk":5,"migraine_risk":7,"frizz_risk":0,"updated_at":"2026-03-03T01:09:12.759245+05:30"},{"city":"Ludhiana","state":"Punjab","latitude":30.901,"longitude":75.8573,"temp":18.2,"humidity":63,"rain":0.0,"pressure":982.7,"uv_index":5.9,"wind_gusts":29.2,"aqi":156,"pm10":72.2,"pm2_5":57.3,"mosquito_risk":3,"arthritis_risk":5,"migraine_risk":3,"frizz_risk":0,"updated_at":"2026-03-03T01:09:12.759254+05:30"},{"city":"Jalandhar","state":"Punjab","latitude":31.326,"longitude":75.5762,"temp":19.2,"humidity":61,"rain":0.0,"pressure":983.9,"uv_index":6.1,"wind_gusts":25.6,"aqi":155,"pm10":81.7,"pm2_5":56.5,"mosquito_risk":3,"arthritis_risk":5,"migraine_risk":7,"frizz_risk":0,"updated_at":"2026-03-03T01:09:12.759262+05:30"},{"city":"Dehradun","state":"Uttarakhand","latitude":30.6284,"longitude":78.0322,"temp":11.3,"humidity":63,"rain":0.0,"pressure":829.4,"uv_index":6.05,"wind_gusts":31.3,"aqi":59,"pm10":27.4,"pm2_5":23.5,"mosquito_risk":3,"arthritis_risk":5,"migraine_risk":7,"frizz_risk":0,"updated_at":"2026-03-03T01:09:12.759270+05:30"},{"city":"Shimla","state":"Himachal Pradesh","latitude":31.1048,"longitude":77.1734,"temp":7.8,"humidity":62,"rain":0.0,"pressure":782.6,"uv_index":6.1,"wind_gusts":45.0,"aqi":73,"pm10":37.6,"pm2_5":29.8,"mosquito_risk":3,"arthritis_risk":5,"migraine_risk":7,"frizz_risk":0,"updated_at":"2026-03-03T01:09:12.759276+05:30"},{"city":"Manali","state":"Himachal Pradesh","latitude":32.2396,"longitude":77.1887,"temp":13.9,"humidity":14,"rain":0.0,"pressure":819.5,"uv_index":7.45,"wind_gusts":39.2,"aqi":55,"pm10":19.3,"pm2_5":16.1,"mosquito_risk":0,"arthritis_risk":5,"migraine_risk":7,"frizz_risk":1,"updated_at":"2026-03-03T01:09:12.759283+05:30"},{"city":"Gurgaon","state":"Haryana","latitude":28.4595,"longitude":77.0266,"temp":15.9,"humidity":80,"rain":0.0,"pressure":985.3,"uv_index":5.95,"wind_gusts":33.8,"aqi":911,"pm10":920.1,"pm2_5":138.8,"mosquito_risk":3,"arthritis_risk":5,"migraine_risk":3,"frizz_risk":0,"updated_at":"2026-03-03T01:09:12.759289+05:30"},{"city":"Noida","state":"Uttar Pradesh","latitude":28.5355,"longitude":77.391,"temp":18.5,"humidity":69,"rain":0.0,"pressure":988.4,"uv_index":5.85,"wind_gusts":35.6,"aqi":911,"pm10":920.1,"pm2_5":138.8,"mosquito_risk":3,"arthritis_risk":5,"migraine_risk":3,"frizz_risk":0,"updated_at":"2026-03-03T01:09:12.759295+05:30"},{"city":"Ghaziabad","state":"Uttar Pradesh","latitude":28.6692,"longitude":77.4538,"temp":18.2,"humidity":70,"rain":0.0,"pressure":986.5,"uv_index":5.8,"wind_gusts":34.9,"aqi":185,"pm10":296.2,"pm2_5":79.4,"mosquito_risk":3,"arthritis_risk":5,"migraine_risk":3,"frizz_risk":0,"updated_at":"2026-03-03T01:09:12.759301+05:30"},{"city":"Faridabad","state":"Haryana","latitude":28.4089,"longitude":77.3178,"temp":18.5,"humidity":64,"rain":0.0,"pressure":987.6,"uv_index":5.85,"wind_gusts":32.4,"aqi":911,"pm10":920.1,"pm2_5":138.8,"mosquito_risk":3,"arthritis_risk":5,"migraine_risk":3,"frizz_risk":0,"updated_at":"2026-03-03T01:09:12.759308+05:30"},{"city":"Meerut","state":"Uttar Pradesh","latitude":28.9845,"longitude":77.7064,"temp":16.3,"humidity":74,"rain":0.0,"pressure":984.9,"uv_index":5.7,"wind_gusts":40.7,"aqi":185,"pm10":296.2,"pm2_5":79.4,"mosquito_risk":3,"arthritis_risk":5,"migraine_risk":3,"frizz_risk":0,"updated_at":"2026-03-03T01:09:12.759315+05:30"},{"city":"Agra","state":"Uttar Pradesh","latitude":27.1767,"longitude":78.0081,"temp":18.6,"humidity":72,"rain":0.0,"pressure":991.7,"uv_index":6.15,"wind_gusts":31.7,"aqi":373,"pm10":635.2,"pm2_5":109.0,"mosquito_risk":3,"arthritis_risk":5,"migraine_risk":7,"frizz_risk":0,"updated_at":"2026-03-03T01:09:12.759321+05:30"},{"city":"Varanasi","state":"Uttar Pradesh","latitude":25.3176,"longitude":82.9739,"temp":18.1,"humidity":71,"rain":0.0,"pressure":1001.2,"uv_index":6.95,"wind_gusts":24.8,"aqi":93,"pm10":48.1,"pm2_5":32.2,"mosquito_risk":3,"arthritis_risk":5,"migraine_risk":4,"frizz_risk":0,"updated_at":"2026-03-03T01:09:12.759330+05:30"},{"city":"Prayagraj","state":"Uttar Pradesh","latitude":25.4358,"longitude":81.8463,"temp":19.0,"humidity":68,"rain":0.0,"pressure":999.5,"uv_index":6.8,"wind_gusts":24.1,"aqi":102,"pm10":71.2,"pm2_5":38.1,"mosquito_risk":3,"arthritis_risk":5,"migraine_risk":7,"frizz_risk":0,"updated_at":"2026-03-03T01:09:12.759337+05:30"},{"city":"Gorakhpur","state":"Uttar Pradesh","latitude":26.7606,"longitude":83.3732,"temp":16.7,"humidity":64,"rain":0.0,"pressure":1000.0,"uv_index":6.7,"wind_gusts":21.6,"aqi":125,"pm10":84.5,"pm2_5":48.4,"mosquito_risk":3,"arthritis_risk":5,"migraine_risk":4,"frizz_risk":0,"updated_at":"2026-03-03T01:09:12.759343+05:30"},{"city":"Bareilly","state":"Uttar Pradesh","latitude":28.367,"longitude":79.4304,"temp":16.5,"humidity":71,"rain":0.0,"pressure":989.9,"uv_index":6.0,"wind_gusts":30.6,"aqi":135,"pm10":192.8,"pm2_5":60.5,"mosquito_risk":3,"arthritis_risk":5,"migraine_risk":3,"frizz_risk":0,"updated_at":"2026-03-03T01:09:12.759349+05:30"},{"city":"Aligarh","state":"Uttar Pradesh","latitude":27.8974,"longitude":78.088,"temp":17.1,"humidity":74,"rain":0.0,"pressure":989.4,"uv_index":5.9,"wind_gusts":35.6,"aqi":552,"pm10":635.2,"pm2_5":118.0,"mosquito_risk":3,"arthritis_risk":5,"migraine_risk":3,"frizz_risk":0,"updated_at":"2026-03-03T01:09:12.759355+05:30"},{"city":"Moradabad","state":"Uttar Pradesh","latitude":28.8386,"longitude":78.7733,"temp":16.2,"humidity":70,"rain":0.0,"pressure":986.8,"uv_index":5.85,"wind_gusts":30.2,"aqi":143,"pm10":186.3,"pm2_5":67.3,"mosquito_risk":3,"arthritis_risk":5,"migraine_risk":3,"frizz_risk":0,"updated_at":"2026-03-03T01:09:12.759361+05:30"},{"city":"Saharanpur","state":"Uttar Pradesh","latitude":29.9637,"longitude":77.546,"temp":16.3,"humidity":71,"rain":0.0,"pressure":978.4,"uv_index":5.45,"wind_gusts":45.7,"aqi":112,"pm10":72.9,"pm2_5":46.1,"mosquito_risk":3,"arthritis_risk":5,"migraine_risk":3,"frizz_risk":0,"updated_at":"2026-03-03T01:09:12.759369+05:30"},{"city":"Jhansi","state":"Uttar Pradesh","latitude":25.4484,"longitude":78.5685,"temp":18.7,"humidity":68,"rain":0.0,"pressure":981.7,"uv_index":6.75,"wind_gusts":26.6,"aqi":76,"pm10":35.4,"pm2_5":27.5,"mosquito_risk":3,"arthritis_risk":5,"migraine_risk":7,"frizz_risk":0,"updated_at":"2026-03-03T01:09:16.015125+05:30"},{"city":"Surat","state":"Gujarat","latitude":21.1702,"longitude":72.8311,"temp":23.9,"humidity":76,"rain":0.0,"pressure":1009.9,"uv_index":7.05,"wind_gusts":23.4,"aqi":153,"pm10":83.6,"pm2_5":77.3,"mosquito_risk":3,"arthritis_risk":0,"migraine_risk":4,"frizz_risk":1,"updated_at":"2026-03-03T01:09:16.015153+05:30"},{"city":"Vadodara","state":"Gujarat","latitude":22.3072,"longitude":73.1812,"temp":23.9,"humidity":53,"rain":0.0,"pressure":1007.7,"uv_index":7.15,"wind_gusts":13.7,"aqi":151,"pm10":92.7,"pm2_5":85.0,"mosquito_risk":0,"arthritis_risk":5,"migraine_risk":4,"frizz_risk":0,"updated_at":"2026-03-03T01:09:16.015165+05:30"},{"city":"Rajkot","state":"Gujarat","latitude":22.3039,"longitude":70.8022,"temp":22.8,"humidity":73,"rain":0.0,"pressure":998.5,"uv_index":7.0,"wind_gusts":19.8,"aqi":66,"pm10":39.3,"pm2_5":27.0,"mosquito_risk":3,"arthritis_risk":5,"migraine_risk":7,"frizz_risk":1,"updated_at":"2026-03-03T01:09:16.015173+05:30"},{"city":"Thane","state":"Maharashtra","latitude":19.2183,"longitude":72.9781,"temp":24.5,"humidity":86,"rain":0.0,"pressure":1010.5,"uv_index":7.35,"wind_gusts":37.4,"aqi":89,"pm10":39.7,"pm2_5":32.9,"mosquito_risk":3,"arthritis_risk":0,"migraine_risk":4,"frizz_risk":1,"updated_at":"2026-03-03T01:09:16.015182+05:30"},{"city":"Nagpur","state":"Maharashtra","latitude":21.1458,"longitude":79.0882,"temp":23.3,"humidity":62,"rain":0.0,"pressure":975.8,"uv_index":7.75,"wind_gusts":19.8,"aqi":71,"pm10":26.2,"pm2_5":22.8,"mosquito_risk":3,"arthritis_risk":5,"migraine_risk":7,"frizz_risk":0,"updated_at":"2026-03-03T01:09:16.015189+05:30"},{"city":"Nashik","state":"Maharashtra","latitude":19.9975,"longitude":73.7898,"temp":23.3,"humidity":63,"rain":0.0,"pressure":948.1,"uv_index":7.55,"wind_gusts":29.5,"aqi":91,"pm10":40.6,"pm2_5":36.6,"mosquito_risk":3,"arthritis_risk":5,"migraine_risk":7,"frizz_risk":0,"updated_at":"2026-03-03T01:09:16.015197+05:30"},{"city":"Aurangabad","state":"Maharashtra","latitude":19.8762,"longitude":75.3433,"temp":24.1,"humidity":58,"rain":0.0,"pressure":946.1,"uv_index":8.05,"wind_gusts":25.2,"aqi":78,"pm10":39.9,"pm2_5":38.9,"mosquito_risk":0,"arthritis_risk":5,"migraine_risk":7,"frizz_risk":0,"updated_at":"2026-03-03T01:09:16.015204+05:30"},{"city":"Solapur","state":"Maharashtra","latitude":17.6599,"longitude":75.9064,"temp":25.0,"humidity":66,"rain":0.0,"pressure":958.2,"uv_index":8.3,"wind_gusts":20.9,"aqi":127,"pm10":38.1,"pm2_5":37.8,"mosquito_risk":7,"arthritis_risk":5,"migraine_risk":7,"frizz_risk":1,"updated_at":"2026-03-03T01:09:16.015212+05:30"},{"city":"Kolhapur","state":"Maharashtra","latitude":16.705,"longitude":74.2433,"temp":20.1,"humidity":91,"rain":0.0,"pressure":949.1,"uv_index":8.4,"wind_gusts":35.6,"aqi":109,"pm10":41.6,"pm2_5":39.7,"mosquito_risk":3,"arthritis_risk":5,"migraine_risk":7,"frizz_risk":1,"updated_at":"2026-03-03T01:09:16.015220+05:30"},{"city":"Goa","state":"Goa","latitude":15.2993,"longitude":74.124,"temp":26.4,"humidity":80,"rain":0.0,"pressure":999.7,"uv_index":8.45,"wind_gusts":34.2,"aqi":73,"pm10":37.3,"pm2_5":27.4,"mosquito_risk":7,"arthritis_risk":5,"migraine_risk":7,"frizz_risk":1,"updated_at":"2026-03-03T01:09:16.015228+05:30"},{"city":"Jodhpur","state":"Rajasthan","latitude":26.2389,"longitude":73.0243,"temp":22.5,"humidity":49,"rain":0.0,"pressure":987.3,"uv_index":6.85,"wind_gusts":15.8,"aqi":89,"pm10":71.0,"pm2_5":34.0,"mosquito_risk":0,"arthritis_risk":5,"migraine_risk":7,"frizz_risk":0,"updated_at":"2026-03-03T01:09:16.015236+05:30"},{"city":"Udaipur","state":"Rajasthan","latitude":24.5854,"longitude":73.7125,"temp":20.7,"humidity":57,"rain":0.0,"pressure":950.6,"uv_index":7.45,"wind_gusts":12.6,"aqi":73,"pm10":36.6,"pm2_5":27.3,"mosquito_risk":0,"arthritis_risk":5,"migraine_risk":7,"frizz_risk":0,"updated_at":"2026-03-03T01:09:16.015243+05:30"},{"city":"Kota","state":"Rajasthan","latitude":25.2138,"longitude":75.8648,"temp":19.9,"humidity":72,"rain":0.0,"pressure":982.6,"uv_index":6.85,"wind_gusts":19.1,"aqi":91,"pm10":50.9,"pm2_5":36.6,"mosquito_risk":3,"arthritis_risk":5,"migraine_risk":7,"frizz_risk":0,"updated_at":"2026-03-03T01:09:16.015250+05:30"},{"city":"Bikaner","state":"Rajasthan","latitude":28.0229,"longitude":73.3119,"temp":23.6,"humidity":53,"rain":0.0,"pressure":986.5,"uv_index":6.55,"wind_gusts":20.5,"aqi":72,"pm10":41.9,"pm2_5":24.1,"mosquito_risk":0,"arthritis_risk":5,"migraine_risk":7,"frizz_risk":0,"updated_at":"2026-03-03T01:09:16.015258+05:30"},{"city":"Ajmer","state":"Rajasthan","latitude":26.4499,"longitude":74.6399,"temp":22.2,"humidity":44,"rain":0.0,"pressure":958.5,"uv_index":6.8,"wind_gusts":27.0,"aqi":81,"pm10":69.4,"pm2_5":27.6,"mosquito_risk":0,"arthritis_risk":5,"migraine_risk":7,"frizz_risk":0,"updated_at":"2026-03-03T01:09:16.015266+05:30"},{"city":"Gwalior","state":"Madhya Pradesh","latitude":26.2183,"longitude":78.1828,"temp":21.7,"humidity":61,"rain":0.0,"pressure":987.4,"uv_index":6.45,"wind_gusts":28.4,"aqi":96,"pm10":199.8,"pm2_5":55.2,"mosquito_risk":3,"arthritis_risk":5,"migraine_risk":7,"frizz_risk":0,"updated_at":"2026-03-03T01:09:16.015274+05:30"},{"city":"Indore","state":"Madhya Pradesh","latitude":22.7196,"longitude":75.8577,"temp":19.6,"humidity":65,"rain":0.0,"pressure":950.9,"uv_index":7.45,"wind_gusts":14.8,"aqi":91,"pm10":42.8,"pm2_5":33.8,"mosquito_risk":3,"arthritis_risk":5,"migraine_risk":7,"frizz_risk":0,"updated_at":"2026-03-03T01:09:16.015282+05:30"},{"city":"Bhopal","state":"Madhya Pradesh","latitude":23.2599,"longitude":77.4126,"temp":22.7,"humidity":51,"rain":0.0,"pressure":956.9,"uv_index":7.3,"wind_gusts":23.0,"aqi":79,"pm10":43.2,"pm2_5":33.5,"mosquito_risk":0,"arthritis_risk":5,"migraine_risk":7,"frizz_risk":0,"updated_at":"2026-03-03T01:09:16.015289+05:30"},{"city":"Jabalpur","state":"Madhya Pradesh","latitude":23.1815,"longitude":79.9864,"temp":21.6,"humidity":45,"rain":0.0,"pressure":964.6,"uv_index":7.4,"wind_gusts":20.5,"aqi":73,"pm10":35.2,"pm2_5":24.4,"mosquito_risk":0,"arthritis_risk":5,"migraine_risk":7,"frizz_risk":0,"updated_at":"2026-03-03T01:09:16.015296+05:30"},{"city":"Ujjain","state":"Madhya Pradesh","latitude":23.1765,"longitude":75.7885,"temp":22.2,"humidity":56,"rain":0.0,"pressure":957.0,"uv_index":7.3,"wind_gusts":13.7,"aqi":112,"pm10":49.6,"pm2_5":41.8,"mosquito_risk":0,"arthritis_risk":5,"migraine_risk":7,"frizz_risk":0,"updated_at":"2026-03-03T01:09:16.015304+05:30"},{"city":"Visakhapatnam","state":"Andhra Pradesh","latitude":17.6868,"longitude":83.2185,"temp":24.9,"humidity":79,"rain":0.0,"pressure":1005.3,"uv_index":8.35,"wind_gusts":33.8,"aqi":139,"pm10":43.0,"pm2_5":40.3,"mosquito_risk":3,"arthritis_risk":5,"migraine_risk":4,"frizz_risk":1,"updated_at":"2026-03-03T01:09:16.015311+05:30"},{"city":"Vijayawada","state":"Andhra Pradesh","latitude":16.5062,"longitude":80.648,"temp":24.2,"humidity":82,"rain":0.0,"pressure":1004.6,"uv_index":8.4,"wind_gusts":26.3,"aqi":141,"pm10":43.7,"pm2_5":41.9,"mosquito_risk":3,"arthritis_risk":5,"migraine_risk":4,"frizz_risk":1,"updated_at":"2026-03-03T01:09:16.015318+05:30"},{"city":"Guntur","state":"Andhra Pradesh","latitude":16.3067,"longitude":80.4365,"temp":23.5,"humidity":86,"rain":0.0,"pressure":1005.9,"uv_index":8.45,"wind_gusts":28.8,"aqi":135,"pm10":41.0,"pm2_5":39.3,"mosquito_risk":3,"arthritis_risk":5,"migraine_risk":4,"frizz_risk":1,"updated_at":"2026-03-03T01:09:16.015325+05:30"},{"city":"Nellore","state":"Andhra Pradesh","latitude":14.4426,"longitude":79.9865,"temp":23.4,"humidity":88,"rain":0.0,"pressure":1007.7,"uv_index":8.65,"wind_gusts":29.2,"aqi":121,"pm10":38.9,"pm2_5":36.6,"mosquito_risk":3,"arthritis_risk":5,"migraine_risk":4,"frizz_risk":1,"updated_at":"2026-03-03T01:09:16.015333+05:30"},{"city":"Kurnool","state":"Andhra Pradesh","latitude":15.8281,"longitude":78.0373,"temp":27.5,"humidity":47,"rain":0.0,"pressure":978.0,"uv_index":8.45,"wind_gusts":29.5,"aqi":126,"pm10":43.3,"pm2_5":42.7,"mosquito_risk":4,"arthritis_risk":5,"migraine_risk":7,"frizz_risk":0,"updated_at":"2026-03-03T01:09:16.015341+05:30"},{"city":"Kakinada","state":"Andhra Pradesh","latitude":16.9891,"longitude":82.2475,"temp":22.4,"humidity":91,"rain":0.0,"pressure":1009.4,"uv_index":8.4,"wind_gusts":36.7,"aqi":130,"pm10":44.9,"pm2_5":40.9,"mosquito_risk":3,"arthritis_risk":0,"migraine_risk":4,"frizz_risk":1,"updated_at":"2026-03-03T01:09:16.015348+05:30"},{"city":"Tirupati","state":"Andhra Pradesh","latitude":13.6288,"longitude":79.4192,"temp":23.4,"humidity":63,"rain":0.0,"pressure":993.8,"uv_index":8.8,"wind_gusts":37.8,"aqi":142,"pm10":71.7,"pm2_5":69.8,"mosquito_risk":3,"arthritis_risk":5,"migraine_risk":7,"frizz_risk":0,"updated_at":"2026-03-03T01:09:16.015355+05:30"},{"city":"Warangal","state":"Telangana","latitude":17.9689,"longitude":79.5941,"temp":26.5,"humidity":56,"rain":0.0,"pressure":980.3,"uv_index":8.2,"wind_gusts":19.1,"aqi":130,"pm10":43.3,"pm2_5":42.7,"mosquito_risk":4,"arthritis_risk":5,"migraine_risk":7,"frizz_risk":1,"updated_at":"2026-03-03T01:09:16.015362+05:30"},{"city":"Nizamabad","state":"Telangana","latitude":18.6725,"longitude":78.0941,"temp":22.8,"humidity":63,"rain":0.0,"pressure":966.2,"uv_index":8.1,"wind_gusts":28.1,"aqi":103,"pm10":46.2,"pm2_5":45.1,"mosquito_risk":3,"arthritis_risk":5,"migraine_risk":7,"frizz_risk":0,"updated_at":"2026-03-03T01:09:16.015369+05:30"},{"city":"Mysore","state":"Karnataka","latitude":12.2958,"longitude":76.6396,"temp":22.4,"humidity":83,"rain":0.0,"pressure":929.0,"uv_index":9.15,"wind_gusts":34.2,"aqi":144,"pm10":54.9,"pm2_5":54.1,"mosquito_risk":3,"arthritis_risk":5,"migraine_risk":7,"frizz_risk":1,"updated_at":"2026-03-03T01:09:16.015376+05:30"},{"city":"Mangalore","state":"Karnataka","latitude":12.9141,"longitude":74.856,"temp":28.3,"humidity":78,"rain":0.0,"pressure":1008.1,"uv_index":8.75,"wind_gusts":28.1,"aqi":57,"pm10":24.1,"pm2_5":16.6,"mosquito_risk":7,"arthritis_risk":0,"migraine_risk":4,"frizz_risk":1,"updated_at":"2026-03-03T01:09:16.015383+05:30"},{"city":"Hubli-Dharwad","state":"Karnataka","latitude":15.3647,"longitude":75.124,"temp":21.9,"humidity":85,"rain":0.0,"pressure":941.7,"uv_index":8.6,"wind_gusts":25.6,"aqi":82,"pm10":26.2,"pm2_5":24.0,"mosquito_risk":3,"arthritis_risk":5,"migraine_risk":7,"frizz_risk":1,"updated_at":"2026-03-03T01:09:16.015391+05:30"},{"city":"Belgaum","state":"Karnataka","latitude":15.8497,"longitude":74.4977,"temp":20.9,"humidity":86,"rain":0.0,"pressure":926.5,"uv_index":8.65,"wind_gusts":33.8,"aqi":83,"pm10":24.6,"pm2_5":20.1,"mosquito_risk":3,"arthritis_risk":5,"migraine_risk":7,"frizz_risk":1,"updated_at":"2026-03-03T01:09:19.265629+05:30"},{"city":"Coimbatore","state":"Tamil Nadu","latitude":11.0168,"longitude":76.9558,"temp":23.5,"humidity":86,"rain":0.0,"pressure":963.2,"uv_index":9.15,"wind_gusts":45.4,"aqi":143,"pm10":56.8,"pm2_5":55.6,"mosquito_risk":3,"arthritis_risk":5,"migraine_risk":7,"frizz_risk":1,"updated_at":"2026-03-03T01:09:19.265662+05:30"},{"city":"Madurai","state":"Tamil Nadu","latitude":9.9252,"longitude":78.1198,"temp":24.5,"humidity":80,"rain":0.0,"pressure":994.9,"uv_index":9.1,"wind_gusts":32.4,"aqi":122,"pm10":52.7,"pm2_5":51.5,"mosquito_risk":3,"arthritis_risk":5,"migraine_risk":7,"frizz_risk":1,"updated_at":"2026-03-03T01:09:19.265671+05:30"},{"city":"Trichy","state":"Tamil Nadu","latitude":10.7905,"longitude":78.7047,"temp":22.3,"humidity":88,"rain":0.0,"pressure":1001.7,"uv_index":9.0,"wind_gusts":31.0,"aqi":139,"pm10":44.8,"pm2_5":42.8,"mosquito_risk":3,"arthritis_risk":5,"migraine_risk":4,"frizz_risk":1,"updated_at":"2026-03-03T01:09:19.265678+05:30"},{"city":"Salem","state":"Tamil Nadu","latitude":11.6643,"longitude":78.146,"temp":24.4,"humidity":67,"rain":0.0,"pressure":978.8,"uv_index":9.0,"wind_gusts":40.3,"aqi":140,"pm10":59.4,"pm2_5":58.2,"mosquito_risk":3,"arthritis_risk":5,"migraine_risk":7,"frizz_risk":1,"updated_at":"2026-03-03T01:09:19.265685+05:30"},{"city":"Tirunelveli","state":"Tamil Nadu","latitude":8.7139,"longitude":77.7567,"temp":23.6,"humidity":88,"rain":0.0,"pressure":1004.9,"uv_index":9.1,"wind_gusts":41.0,"aqi":131,"pm10":54.0,"pm2_5":52.4,"mosquito_risk":3,"arthritis_risk":5,"migraine_risk":4,"frizz_risk":1,"updated_at":"2026-03-03T01:09:19.265691+05:30"},{"city":"Vellore","state":"Tamil Nadu","latitude":12.9165,"longitude":79.1325,"temp":22.1,"humidity":78,"rain":0.0,"pressure":986.8,"uv_index":8.9,"wind_gusts":38.2,"aqi":150,"pm10":73.8,"pm2_5":71.9,"mosquito_risk":3,"arthritis_risk":5,"migraine_risk":7,"frizz_risk":1,"updated_at":"2026-03-03T01:09:19.265697+05:30"},{"city":"Erode","state":"Tamil Nadu","latitude":11.341,"longitude":77.7172,"temp":25.7,"humidity":72,"rain":0.0,"pressure":990.7,"uv_index":9.05,"wind_gusts":24.8,"aqi":124,"pm10":45.5,"pm2_5":44.5,"mosquito_risk":7,"arthritis_risk":5,"migraine_risk":7,"frizz_risk":1,"updated_at":"2026-03-03T01:09:19.265703+05:30"},{"city":"Kochi","state":"Kerala","latitude":9.9312,"longitude":76.2673,"temp":27.5,"humidity":81,"rain":0.0,"pressure":1010.0,"uv_index":9.0,"wind_gusts":32.8,"aqi":98,"pm10":50.5,"pm2_5":49.9,"mosquito_risk":7,"arthritis_risk":0,"migraine_risk":4,"frizz_risk":1,"updated_at":"2026-03-03T01:09:19.265709+05:30"},{"city":"Thiruvananthapuram","state":"Kerala","latitude":8.5241,"longitude":76.9366,"temp":27.5,"humidity":81,"rain":0.0,"pressure":1008.9,"uv_index":8.95,"wind_gusts":28.1,"aqi":101,"pm10":30.4,"pm2_5":28.1,"mosquito_risk":7,"arthritis_risk":0,"migraine_risk":4,"frizz_risk":1,"updated_at":"2026-03-03T01:09:19.265714+05:30"},{"city":"Kozhikode","state":"Kerala","latitude":11.2588,"longitude":75.7804,"temp":28.3,"humidity":77,"rain":0.0,"pressure":1009.0,"uv_index":8.8,"wind_gusts":34.6,"aqi":58,"pm10":23.1,"pm2_5":18.4,"mosquito_risk":7,"arthritis_risk":0,"migraine_risk":4,"frizz_risk":1,"updated_at":"2026-03-03T01:09:19.265720+05:30"},{"city":"Thrissur","state":"Kerala","latitude":10.5276,"longitude":76.2144,"temp":25.9,"humidity":91,"rain":0.0,"pressure":1008.2,"uv_index":8.95,"wind_gusts":37.1,"aqi":94,"pm10":54.4,"pm2_5":53.1,"mosquito_risk":7,"arthritis_risk":0,"migraine_risk":4,"frizz_risk":1,"updated_at":"2026-03-03T01:09:19.265727+05:30"},{"city":"Kannur","state":"Kerala","latitude":11.8745,"longitude":75.3704,"temp":27.1,"humidity":80,"rain":0.0,"pressure":1008.2,"uv_index":8.85,"wind_gusts":38.9,"aqi":59,"pm10":18.6,"pm2_5":15.1,"mosquito_risk":7,"arthritis_risk":0,"migraine_risk":4,"frizz_risk":1,"updated_at":"2026-03-03T01:09:19.265733+05:30"},{"city":"Patna","state":"Bihar","latitude":25.5941,"longitude":85.1376,"temp":18.9,"humidity":59,"rain":0.0,"pressure":1003.5,"uv_index":7.15,"wind_gusts":18.0,"aqi":119,"pm10":66.4,"pm2_5":52.6,"mosquito_risk":0,"arthritis_risk":5,"migraine_risk":4,"frizz_risk":0,"updated_at":"2026-03-03T01:09:19.265739+05:30"},{"city":"Gaya","state":"Bihar","latitude":24.7914,"longitude":85.0002,"temp":18.8,"humidity":52,"rain":0.0,"pressure":997.0,"uv_index":7.25,"wind_gusts":21.2,"aqi":107,"pm10":52.4,"pm2_5":35.2,"mosquito_risk":0,"arthritis_risk":5,"migraine_risk":7,"frizz_risk":0,"updated_at":"2026-03-03T01:09:19.265745+05:30"},{"city":"Muzaffarpur","state":"Bihar","latitude":26.1209,"longitude":85.3647,"temp":17.5,"humidity":63,"rain":0.0,"pressure":1003.2,"uv_index":7.1,"wind_gusts":14.8,"aqi":120,"pm10":77.5,"pm2_5":63.1,"mosquito_risk":3,"arthritis_risk":5,"migraine_risk":4,"frizz_risk":0,"updated_at":"2026-03-03T01:09:19.265750+05:30"},{"city":"Bhagalpur","state":"Bihar","latitude":25.2425,"longitude":87.0117,"temp":19.5,"humidity":59,"rain":0.0,"pressure":1004.0,"uv_index":7.15,"wind_gusts":11.5,"aqi":134,"pm10":76.1,"pm2_5":40.6,"mosquito_risk":0,"arthritis_risk":5,"migraine_risk":4,"frizz_risk":0,"updated_at":"2026-03-03T01:09:19.265756+05:30"},{"city":"Ranchi","state":"Jharkhand","latitude":23.3441,"longitude":85.3096,"temp":18.0,"humidity":37,"rain":0.0,"pressure":940.0,"uv_index":7.9,"wind_gusts":43.6,"aqi":78,"pm10":44.8,"pm2_5":23.9,"mosquito_risk":0,"arthritis_risk":5,"migraine_risk":7,"frizz_risk":0,"updated_at":"2026-03-03T01:09:19.265762+05:30"},{"city":"Jamshedpur","state":"Jharkhand","latitude":22.8046,"longitude":86.2029,"temp":20.9,"humidity":53,"rain":0.0,"pressure":993.5,"uv_index":7.75,"wind_gusts":16.2,"aqi":114,"pm10":69.8,"pm2_5":43.2,"mosquito_risk":0,"arthritis_risk":5,"migraine_risk":7,"frizz_risk":0,"updated_at":"2026-03-03T01:09:19.265768+05:30"},{"city":"Dhanbad","state":"Jharkhand","latitude":23.7957,"longitude":86.4304,"temp":20.9,"humidity":38,"rain":0.0,"pressure":982.8,"uv_index":7.65,"wind_gusts":27.7,"aqi":116,"pm10":62.4,"pm2_5":41.1,"mosquito_risk":0,"arthritis_risk":5,"migraine_risk":7,"frizz_risk":0,"updated_at":"2026-03-03T01:09:19.265773+05:30"},{"city":"Bokaro","state":"Jharkhand","latitude":23.6693,"longitude":86.1511,"temp":18.2,"humidity":53,"rain":0.0,"pressure":987.2,"uv_index":7.65,"wind_gusts":32.8,"aqi":119,"pm10":64.0,"pm2_5":45.2,"mosquito_risk":0,"arthritis_risk":5,"migraine_risk":7,"frizz_risk":0,"updated_at":"2026-03-03T01:09:19.265779+05:30"},{"city":"Bhubaneswar","state":"Odisha","latitude":20.2961,"longitude":85.8245,"temp":24.2,"humidity":90,"rain":0.0,"pressure":1004.0,"uv_index":8.1,"wind_gusts":26.6,"aqi":151,"pm10":73.8,"pm2_5":70.1,"mosquito_risk":3,"arthritis_risk":5,"migraine_risk":4,"frizz_risk":1,"updated_at":"2026-03-03T01:09:19.265785+05:30"},{"city":"Cuttack","state":"Odisha","latitude":20.4625,"longitude":85.8828,"temp":24.3,"humidity":88,"rain":0.0,"pressure":1006.0,"uv_index":8.1,"wind_gusts":23.0,"aqi":151,"pm10":73.8,"pm2_5":70.1,"mosquito_risk":3,"arthritis_risk":5,"migraine_risk":4,"frizz_risk":1,"updated_at":"2026-03-03T01:09:19.265791+05:30"},{"city":"Rourkela","state":"Odisha","latitude":22.2604,"longitude":84.8536,"temp":21.8,"humidity":47,"rain":0.0,"pressure":987.7,"uv_index":7.7,"wind_gusts":23.4,"aqi":92,"pm10":48.7,"pm2_5":34.1,"mosquito_risk":0,"arthritis_risk":5,"migraine_risk":7,"frizz_risk":0,"updated_at":"2026-03-03T01:09:19.265796+05:30"},{"city":"Raipur","state":"Chhattisgarh","latitude":21.2514,"longitude":81.6296,"temp":23.1,"humidity":55,"rain":0.0,"pressure":976.9,"uv_index":7.8,"wind_gusts":16.6,"aqi":98,"pm10":85.9,"pm2_5":75.2,"mosquito_risk":0,"arthritis_risk":5,"migraine_risk":7,"frizz_risk":0,"updated_at":"2026-03-03T01:09:19.265802+05:30"},{"city":"Bhilai","state":"Chhattisgarh","latitude":21.1938,"longitude":81.3509,"temp":22.1,"humidity":61,"rain":0.0,"pressure":977.2,"uv_index":7.8,"wind_gusts":14.4,"aqi":97,"pm10":83.4,"pm2_5":74.0,"mosquito_risk":3,"arthritis_risk":5,"migraine_risk":7,"frizz_risk":0,"updated_at":"2026-03-03T01:09:19.265808+05:30"},{"city":"Guwahati","state":"Assam","latitude":26.1158,"longitude":91.7086,"temp":20.8,"humidity":86,"rain":0.0,"pressure":1004.9,"uv_index":7.1,"wind_gusts":21.6,"aqi":151,"pm10":72.9,"pm2_5":61.7,"mosquito_risk":3,"arthritis_risk":5,"migraine_risk":4,"frizz_risk":1,"updated_at":"2026-03-03T01:09:19.265813+05:30"},{"city":"Agartala","state":"Tripura","latitude":23.8315,"longitude":91.2868,"temp":20.8,"humidity":93,"rain":0.0,"pressure":1008.4,"uv_index":7.45,"wind_gusts":19.4,"aqi":155,"pm10":107.6,"pm2_5":100.1,"mosquito_risk":3,"arthritis_risk":0,"migraine_risk":4,"frizz_risk":1,"updated_at":"2026-03-03T01:09:19.265819+05:30"},{"city":"Shillong","state":"Meghalaya","latitude":25.5788,"longitude":91.8933,"temp":7.6,"humidity":87,"rain":0.0,"pressure":854.1,"uv_index":7.45,"wind_gusts":24.1,"aqi":112,"pm10":53.6,"pm2_5":44.4,"mosquito_risk":3,"arthritis_risk":10,"migraine_risk":7,"frizz_risk":0,"updated_at":"2026-03-03T01:09:19.265825+05:30"},{"city":"Imphal","state":"Manipur","latitude":24.817,"longitude":93.9368,"temp":13.9,"humidity":75,"rain":0.0,"pressure":923.7,"uv_index":7.5,"wind_gusts":29.5,"aqi":154,"pm10":115.7,"pm2_5":97.8,"mosquito_risk":3,"arthritis_risk":5,"migraine_risk":7,"frizz_risk":0,"updated_at":"2026-03-03T01:09:19.265831+05:30"},{"city":"Aizawl","state":"Mizoram","latitude":23.7271,"longitude":92.7176,"temp":14.8,"humidity":91,"rain":0.0,"pressure":892.9,"uv_index":7.65,"wind_gusts":33.5,"aqi":152,"pm10":92.9,"pm2_5":86.8,"mosquito_risk":3,"arthritis_risk":10,"migraine_risk":7,"frizz_risk":0,"updated_at":"2026-03-03T01:09:19.265836+05:30"},{"city":"Kohima","state":"Nagaland","latitude":25.6701,"longitude":94.1077,"temp":11.5,"humidity":83,"rain":0.0,"pressure":854.5,"uv_index":7.15,"wind_gusts":45.4,"aqi":146,"pm10":79.6,"pm2_5":71.7,"mosquito_risk":3,"arthritis_risk":10,"migraine_risk":7,"frizz_risk":0,"updated_at":"2026-03-03T01:09:19.265842+05:30"},{"city":"Gangtok","state":"Sikkim","latitude":27.3314,"longitude":88.6138,"temp":10.6,"humidity":81,"rain":0.0,"pressure":836.0,"uv_index":7.4,"wind_gusts":19.8,"aqi":125,"pm10":82.4,"pm2_5":63.3,"mosquito_risk":3,"arthritis_risk":10,"migraine_risk":7,"frizz_risk":0,"updated_at":"2026-03-03T01:09:19.265847+05:30"},{"city":"Siliguri","state":"West Bengal","latitude":26.7271,"longitude":88.3953,"temp":18.2,"humidity":69,"rain":0.0,"pressure":996.6,"uv_index":7.1,"wind_gusts":19.8,"aqi":167,"pm10":128.5,"pm2_5":100.4,"mosquito_risk":3,"arthritis_risk":5,"migraine_risk":7,"frizz_risk":0,"updated_at":"2026-03-03T01:09:22.517785+05:30"},{"city":"Durgapur","state":"West Bengal","latitude":23.5204,"longitude":87.3119,"temp":21.9,"humidity":35,"rain":0.0,"pressure":998.0,"uv_index":7.65,"wind_gusts":29.9,"aqi":107,"pm10":53.6,"pm2_5":27.6,"mosquito_risk":0,"arthritis_risk":5,"migraine_risk":7,"frizz_risk":0,"updated_at":"2026-03-03T01:09:22.517810+05:30"},{"city":"Asansol","state":"West Bengal","latitude":23.6739,"longitude":86.9524,"temp":22.5,"humidity":35,"rain":0.0,"pressure":996.6,"uv_index":7.65,"wind_gusts":23.4,"aqi":95,"pm10":47.1,"pm2_5":26.7,"mosquito_risk":0,"arthritis_risk":5,"migraine_risk":7,"frizz_risk":0,"updated_at":"2026-03-03T01:09:22.517819+05:30"},{"city":"Pondicherry","state":"Puducherry","latitude":11.9139,"longitude":79.8145,"temp":21.3,"humidity":97,"rain":0.0,"pressure":1010.6,"uv_index":8.85,"wind_gusts":28.4,"aqi":117,"pm10":39.7,"pm2_5":35.6,"mosquito_risk":3,"arthritis_risk":0,"migraine_risk":4,"frizz_risk":1,"updated_at":"2026-03-03T01:09:22.517826+05:30"},{"city":"Port Blair","state":"Andaman and Nicobar Islands","latitude":11.6234,"longitude":92.7265,"temp":27.2,"humidity":74,"rain":0.0,"pressure":1007.7,"uv_index":8.8,"wind_gusts":16.2,"aqi":81,"pm10":32.9,"pm2_5":25.4,"mosquito_risk":7,"arthritis_risk":5,"migraine_risk":4,"frizz_risk":1,"updated_at":"2026-03-03T01:09:22.517833+05:30"},{"city":"Haridwar","state":"Uttarakhand","latitude":29.9457,"longitude":78.1642,"temp":15.1,"humidity":84,"rain":0.0,"pressure":976.8,"uv_index":5.55,"wind_gusts":24.8,"aqi":97,"pm10":55.2,"pm2_5":51.9,"mosquito_risk":3,"arthritis_risk":10,"migraine_risk":3,"frizz_risk":0,"updated_at":"2026-03-03T01:09:22.517840+05:30"},{"city":"Rishikesh","state":"Uttarakhand","latitude":30.0869,"longitude":78.2676,"temp":16.2,"humidity":69,"rain":0.0,"pressure":969.3,"uv_index":5.65,"wind_gusts":23.8,"aqi":77,"pm10":35.6,"pm2_5":33.8,"mosquito_risk":3,"arthritis_risk":5,"migraine_risk":3,"frizz_risk":0,"updated_at":"2026-03-03T01:09:22.517846+05:30"},{"city":"Nainital","state":"Uttarakhand","latitude":29.3919,"longitude":79.4542,"temp":14.4,"humidity":60,"rain":0.0,"pressure":805.4,"uv_index":6.45,"wind_gusts":56.9,"aqi":78,"pm10":37.6,"pm2_5":29.6,"mosquito_risk":0,"arthritis_risk":5,"migraine_risk":7,"frizz_risk":0,"updated_at":"2026-03-03T01:09:22.517852+05:30"},{"city":"Mussoorie","state":"Uttarakhand","latitude":30.4599,"longitude":78.0664,"temp":13.1,"humidity":63,"rain":0.0,"pressure":802.1,"uv_index":5.95,"wind_gusts":37.1,"aqi":81,"pm10":40.6,"pm2_5":39.0,"mosquito_risk":3,"arthritis_risk":5,"migraine_risk":3,"frizz_risk":0,"updated_at":"2026-03-03T01:09:22.517858+05:30"},{"city":"Dharamshala","state":"Himachal Pradesh","latitude":32.219,"longitude":76.3234,"temp":17.5,"humidity":37,"rain":0.0,"pressure":870.8,"uv_index":6.2,"wind_gusts":23.4,"aqi":78,"pm10":16.9,"pm2_5":13.3,"mosquito_risk":0,"arthritis_risk":5,"migraine_risk":7,"frizz_risk":0,"updated_at":"2026-03-03T01:09:22.517864+05:30"},{"city":"Dalhousie","state":"Himachal Pradesh","latitude":32.5387,"longitude":75.971,"temp":14.0,"humidity":34,"rain":0.0,"pressure":804.5,"uv_index":6.4,"wind_gusts":22.0,"aqi":97,"pm10":48.4,"pm2_5":44.4,"mosquito_risk":0,"arthritis_risk":5,"migraine_risk":7,"frizz_risk":1,"updated_at":"2026-03-03T01:09:22.517871+05:30"},{"city":"Patiala","state":"Punjab","latitude":30.3398,"longitude":76.3869,"temp":16.3,"humidity":73,"rain":0.0,"pressure":982.0,"uv_index":5.6,"wind_gusts":35.3,"aqi":157,"pm10":265.4,"pm2_5":67.8,"mosquito_risk":3,"arthritis_risk":5,"migraine_risk":3,"frizz_risk":0,"updated_at":"2026-03-03T01:09:22.517877+05:30"},{"city":"Bhatinda","state":"Punjab","latitude":30.211,"longitude":74.9455,"temp":17.6,"humidity":72,"rain":0.0,"pressure":988.0,"uv_index":6.3,"wind_gusts":27.4,"aqi":155,"pm10":74.5,"pm2_5":61.5,"mosquito_risk":3,"arthritis_risk":5,"migraine_risk":7,"frizz_risk":0,"updated_at":"2026-03-03T01:09:22.517883+05:30"},{"city":"Rohtak","state":"Haryana","latitude":28.8955,"longitude":76.6066,"temp":16.8,"humidity":74,"rain":0.0,"pressure":985.8,"uv_index":5.85,"wind_gusts":34.2,"aqi":290,"pm10":381.8,"pm2_5":83.1,"mosquito_risk":3,"arthritis_risk":5,"migraine_risk":3,"frizz_risk":0,"updated_at":"2026-03-03T01:09:22.517889+05:30"},{"city":"Panipat","state":"Haryana","latitude":29.3909,"longitude":76.9635,"temp":15.8,"humidity":75,"rain":0.0,"pressure":984.1,"uv_index":5.65,"wind_gusts":37.1,"aqi":744,"pm10":869.9,"pm2_5":130.4,"mosquito_risk":3,"arthritis_risk":5,"migraine_risk":3,"frizz_risk":0,"updated_at":"2026-03-03T01:09:22.517894+05:30"},{"city":"Mathura","state":"Uttar Pradesh","latitude":27.4924,"longitude":77.6737,"temp":19.4,"humidity":67,"rain":0.0,"pressure":990.8,"uv_index":6.1,"wind_gusts":29.9,"aqi":431,"pm10":596.0,"pm2_5":110.4,"mosquito_risk":3,"arthritis_risk":5,"migraine_risk":7,"frizz_risk":0,"updated_at":"2026-03-03T01:09:22.517900+05:30"},{"city":"Vrindavan","state":"Uttar Pradesh","latitude":27.5823,"longitude":77.7027,"temp":17.7,"humidity":75,"rain":0.0,"pressure":991.3,"uv_index":6.05,"wind_gusts":33.1,"aqi":431,"pm10":596.0,"pm2_5":110.4,"mosquito_risk":3,"arthritis_risk":5,"migraine_risk":7,"frizz_risk":0,"updated_at":"2026-03-03T01:09:22.517906+05:30"},{"city":"Ayodhya","state":"Uttar Pradesh","latitude":26.7922,"longitude":82.1998,"temp":17.9,"humidity":61,"rain":0.0,"pressure":998.3,"uv_index":6.45,"wind_gusts":27.4,"aqi":132,"pm10":188.6,"pm2_5":64.0,"mosquito_risk":3,"arthritis_risk":5,"migraine_risk":7,"frizz_risk":0,"updated_at":"2026-03-03T01:09:22.517911+05:30"},{"city":"Ratlam","state":"Madhya Pradesh","latitude":23.3315,"longitude":75.0367,"temp":19.9,"humidity":79,"rain":0.0,"pressure":957.6,"uv_index":7.3,"wind_gusts":11.2,"aqi":103,"pm10":53.1,"pm2_5":47.1,"mosquito_risk":3,"arthritis_risk":5,"migraine_risk":7,"frizz_risk":1,"updated_at":"2026-03-03T01:09:22.517917+05:30"},{"city":"Sagar","state":"Madhya Pradesh","latitude":23.8388,"longitude":78.7378,"temp":22.3,"humidity":45,"rain":0.0,"pressure":953.5,"uv_index":7.25,"wind_gusts":29.2,"aqi":67,"pm10":35.4,"pm2_5":22.9,"mosquito_risk":0,"arthritis_risk":5,"migraine_risk":7,"frizz_risk":0,"updated_at":"2026-03-03T01:09:22.517923+05:30"},{"city":"Satna","state":"Madhya Pradesh","latitude":24.6005,"longitude":80.8322,"temp":21.2,"humidity":42,"rain":0.0,"pressure":974.7,"uv_index":7.2,"wind_gusts":35.3,"aqi":63,"pm10":34.3,"pm2_5":20.7,"mosquito_risk":0,"arthritis_risk":5,"migraine_risk":7,"frizz_risk":0,"updated_at":"2026-03-03T01:09:22.517928+05:30"},{"city":"Akola","state":"Maharashtra","latitude":20.7002,"longitude":77.0082,"temp":23.4,"humidity":62,"rain":0.0,"pressure":977.6,"uv_index":7.8,"wind_gusts":22.0,"aqi":75,"pm10":34.0,"pm2_5":32.2,"mosquito_risk":3,"arthritis_risk":5,"migraine_risk":7,"frizz_risk":0,"updated_at":"2026-03-03T01:09:22.517935+05:30"},{"city":"Amravati","state":"Maharashtra","latitude":20.9374,"longitude":77.7796,"temp":22.8,"humidity":54,"rain":0.0,"pressure":969.5,"uv_index":7.75,"wind_gusts":18.0,"aqi":76,"pm10":37.8,"pm2_5":35.6,"mosquito_risk":0,"arthritis_risk":5,"migraine_risk":7,"frizz_risk":0,"updated_at":"2026-03-03T01:09:22.517941+05:30"},{"city":"Latur","state":"Maharashtra","latitude":18.4088,"longitude":76.5604,"temp":23.8,"humidity":56,"rain":0.0,"pressure":941.2,"uv_index":8.2,"wind_gusts":33.8,"aqi":108,"pm10":38.0,"pm2_5":37.5,"mosquito_risk":0,"arthritis_risk":5,"migraine_risk":7,"frizz_risk":0,"updated_at":"2026-03-03T01:09:22.517947+05:30"},{"city":"Nanded","state":"Maharashtra","latitude":19.1383,"longitude":77.3091,"temp":26.8,"humidity":53,"rain":0.0,"pressure":970.5,"uv_index":8.0,"wind_gusts":21.6,"aqi":88,"pm10":59.5,"pm2_5":58.4,"mosquito_risk":4,"arthritis_risk":5,"migraine_risk":7,"frizz_risk":1,"updated_at":"2026-03-03T01:09:22.517953+05:30"},{"city":"Gulbarga","state":"Karnataka","latitude":17.3297,"longitude":76.8343,"temp":26.4,"humidity":53,"rain":0.0,"pressure":960.1,"uv_index":8.3,"wind_gusts":23.4,"aqi":139,"pm10":53.1,"pm2_5":52.7,"mosquito_risk":4,"arthritis_risk":5,"migraine_risk":7,"frizz_risk":0,"updated_at":"2026-03-03T01:09:22.517959+05:30"},{"city":"Bidar","state":"Karnataka","latitude":17.9104,"longitude":77.5199,"temp":23.8,"humidity":60,"rain":0.0,"pressure":937.0,"uv_index":8.25,"wind_gusts":24.5,"aqi":140,"pm10":32.4,"pm2_5":31.7,"mosquito_risk":0,"arthritis_risk":5,"migraine_risk":7,"frizz_risk":0,"updated_at":"2026-03-03T01:09:22.517964+05:30"},{"city":"Hospet","state":"Karnataka","latitude":15.2689,"longitude":76.3909,"temp":28.4,"humidity":46,"rain":0.0,"pressure":956.8,"uv_index":8.6,"wind_gusts":28.8,"aqi":130,"pm10":51.2,"pm2_5":50.6,"mosquito_risk":4,"arthritis_risk":5,"migraine_risk":7,"frizz_risk":0,"updated_at":"2026-03-03T01:09:22.517970+05:30"},{"city":"Tirupur","state":"Tamil Nadu","latitude":11.1085,"longitude":77.3411,"temp":25.9,"humidity":71,"rain":0.0,"pressure":977.0,"uv_index":9.15,"wind_gusts":33.5,"aqi":146,"pm10":53.7,"pm2_5":52.6,"mosquito_risk":7,"arthritis_risk":5,"migraine_risk":7,"frizz_risk":1,"updated_at":"2026-03-03T01:09:22.517976+05:30"},{"city":"Alappuzha","state":"Kerala","latitude":9.4981,"longitude":76.3388,"temp":27.2,"humidity":82,"rain":0.0,"pressure":1010.0,"uv_index":8.95,"wind_gusts":28.8,"aqi":95,"pm10":40.9,"pm2_5":39.3,"mosquito_risk":7,"arthritis_risk":0,"migraine_risk":4,"frizz_risk":1,"updated_at":"2026-03-03T01:09:22.517981+05:30"},{"city":"Munnar","state":"Kerala","latitude":10.0889,"longitude":77.0595,"temp":18.8,"humidity":84,"rain":0.0,"pressure":856.5,"uv_index":9.45,"wind_gusts":20.5,"aqi":122,"pm10":50.2,"pm2_5":49.1,"mosquito_risk":3,"arthritis_risk":10,"migraine_risk":7,"frizz_risk":0,"updated_at":"2026-03-03T01:09:22.517987+05:30"},{"city":"Silchar","state":"Assam","latitude":24.8333,"longitude":92.7789,"temp":19.9,"humidity":87,"rain":0.0,"pressure":1007.6,"uv_index":7.4,"wind_gusts":15.5,"aqi":156,"pm10":102.2,"pm2_5":82.9,"mosquito_risk":3,"arthritis_risk":10,"migraine_risk":4,"frizz_risk":1,"updated_at":"2026-03-03T01:09:22.517993+05:30"},{"city":"Dibrugarh","state":"Assam","latitude":27.4728,"longitude":94.912,"temp":19.8,"humidity":87,"rain":0.0,"pressure":999.7,"uv_index":7.1,"wind_gusts":8.3,"aqi":153,"pm10":70.5,"pm2_5":62.4,"mosquito_risk":3,"arthritis_risk":10,"migraine_risk":7,"frizz_risk":1,"updated_at":"2026-03-03T01:09:22.517999+05:30"}]