[{"city":"Delhi","state":"Delhi","latitude":28.6139,"longitude":77.209,"temp":30.0,"humidity":47,"rain":0.0,"pressure":978.4,"uv_index":7.8,"wind_gusts":38.2,"aqi":168,"pm10":239.3,"pm2_5":99.0,"no2":66.2,"co":457.0,"o3":18.0,"so2":30.3,"mosquito_risk":4,"arthritis_risk":5,"migraine_risk":7,"frizz_risk":1,"updated_at":"2026-06-07T05:36:47.995506+05:30"},{"city":"Mumbai","state":"Maharashtra","latitude":19.076,"longitude":72.8777,"temp":30.2,"humidity":73,"rain":0.0,"pressure":1005.9,"uv_index":7.6,"wind_gusts":40.0,"aqi":75,"pm10":62.6,"pm2_5":24.0,"no2":8.2,"co":163.0,"o3":45.0,"so2":7.1,"mosquito_risk":3,"arthritis_risk":5,"migraine_risk":4,"frizz_risk":1,"updated_at":"2026-06-07T05:36:47.995551+05:30"},{"city":"Bangalore","state":"Karnataka","latitude":12.9716,"longitude":77.5946,"temp":20.6,"humidity":96,"rain":0.0,"pressure":910.4,"uv_index":8.25,"wind_gusts":37.4,"aqi":21,"pm10":4.0,"pm2_5":3.9,"no2":10.9,"co":216.0,"o3":26.0,"so2":4.7,"mosquito_risk":3,"arthritis_risk":5,"migraine_risk":7,"frizz_risk":1,"updated_at":"2026-06-07T05:36:47.995567+05:30"},{"city":"Hyderabad","state":"Telangana","latitude":17.385,"longitude":78.4867,"temp":26.2,"humidity":78,"rain":0.0,"pressure":951.1,"uv_index":4.05,"wind_gusts":38.5,"aqi":85,"pm10":20.0,"pm2_5":15.3,"no2":8.7,"co":225.0,"o3":78.0,"so2":5.1,"mosquito_risk":7,"arthritis_risk":5,"migraine_risk":3,"frizz_risk":1,"updated_at":"2026-06-07T05:36:47.995576+05:30"},{"city":"Chennai","state":"Tamil Nadu","latitude":13.0827,"longitude":80.2707,"temp":30.4,"humidity":54,"rain":0.0,"pressure":1005.0,"uv_index":7.2,"wind_gusts":46.4,"aqi":52,"pm10":9.2,"pm2_5":8.6,"no2":16.4,"co":298.0,"o3":31.0,"so2":9.2,"mosquito_risk":0,"arthritis_risk":5,"migraine_risk":4,"frizz_risk":1,"updated_at":"2026-06-07T05:36:47.995584+05:30"},{"city":"Kolkata","state":"West Bengal","latitude":22.5726,"longitude":88.3639,"temp":27.9,"humidity":95,"rain":0.0,"pressure":1001.5,"uv_index":6.6,"wind_gusts":28.4,"aqi":136,"pm10":62.4,"pm2_5":56.7,"no2":22.3,"co":524.0,"o3":54.0,"so2":11.2,"mosquito_risk":7,"arthritis_risk":5,"migraine_risk":4,"frizz_risk":1,"updated_at":"2026-06-07T05:36:47.995592+05:30"},{"city":"Pune","state":"Maharashtra","latitude":18.5204,"longitude":73.8567,"temp":24.4,"humidity":89,"rain":0.0,"pressure":946.3,"uv_index":8.3,"wind_gusts":49.3,"aqi":55,"pm10":31.0,"pm2_5":15.4,"no2":8.2,"co":122.0,"o3":40.0,"so2":7.0,"mosquito_risk":3,"arthritis_risk":5,"migraine_risk":7,"frizz_risk":1,"updated_at":"2026-06-07T05:36:47.995598+05:30"},{"city":"Ahmedabad","state":"Gujarat","latitude":23.0225,"longitude":72.5714,"temp":30.4,"humidity":70,"rain":0.0,"pressure":999.5,"uv_index":8.05,"wind_gusts":40.3,"aqi":85,"pm10":39.2,"pm2_5":19.7,"no2":4.8,"co":127.0,"o3":45.0,"so2":4.5,"mosquito_risk":3,"arthritis_risk":5,"migraine_risk":7,"frizz_risk":1,"updated_at":"2026-06-07T05:36:47.995605+05:30"},{"city":"Jaipur","state":"Rajasthan","latitude":26.9124,"longitude":75.7873,"temp":29.2,"humidity":51,"rain":0.0,"pressure":956.0,"uv_index":8.25,"wind_gusts":34.9,"aqi":128,"pm10":201.2,"pm2_5":46.1,"no2":4.4,"co":212.0,"o3":67.0,"so2":3.8,"mosquito_risk":4,"arthritis_risk":5,"migraine_risk":7,"frizz_risk":1,"updated_at":"2026-06-07T05:36:47.995616+05:30"},{"city":"Lucknow","state":"Uttar Pradesh","latitude":26.8467,"longitude":80.9462,"temp":28.6,"humidity":71,"rain":0.0,"pressure":989.5,"uv_index":8.35,"wind_gusts":35.6,"aqi":156,"pm10":85.7,"pm2_5":71.7,"no2":35.6,"co":522.0,"o3":35.0,"so2":12.8,"mosquito_risk":7,"arthritis_risk":5,"migraine_risk":7,"frizz_risk":1,"updated_at":"2026-06-07T05:36:47.995623+05:30"},{"city":"Kanpur","state":"Uttar Pradesh","latitude":26.4499,"longitude":80.3319,"temp":30.1,"humidity":61,"rain":0.0,"pressure":987.3,"uv_index":8.35,"wind_gusts":34.2,"aqi":196,"pm10":177.0,"pm2_5":72.6,"no2":40.2,"co":512.0,"o3":30.0,"so2":9.6,"mosquito_risk":3,"arthritis_risk":5,"migraine_risk":7,"frizz_risk":1,"updated_at":"2026-06-07T05:36:47.995629+05:30"},{"city":"Chandigarh","state":"Chandigarh","latitude":30.7333,"longitude":76.7794,"temp":23.7,"humidity":58,"rain":0.0,"pressure":964.0,"uv_index":7.8,"wind_gusts":27.0,"aqi":95,"pm10":40.2,"pm2_5":34.5,"no2":37.5,"co":404.0,"o3":12.0,"so2":5.2,"mosquito_risk":0,"arthritis_risk":5,"migraine_risk":7,"frizz_risk":0,"updated_at":"2026-06-07T05:36:47.995636+05:30"},{"city":"Srinagar","state":"Jammu and Kashmir","latitude":34.0837,"longitude":74.7973,"temp":12.2,"humidity":100,"rain":0.0,"pressure":839.3,"uv_index":9.0,"wind_gusts":29.9,"aqi":78,"pm10":43.2,"pm2_5":39.2,"no2":24.8,"co":336.0,"o3":15.0,"so2":0.7,"mosquito_risk":3,"arthritis_risk":10,"migraine_risk":7,"frizz_risk":0,"updated_at":"2026-06-07T05:36:47.995643+05:30"},{"city":"Jammu","state":"Jammu and Kashmir","latitude":32.7266,"longitude":74.857,"temp":22.2,"humidity":62,"rain":0.0,"pressure":966.9,"uv_index":8.6,"wind_gusts":30.2,"aqi":72,"pm10":29.0,"pm2_5":27.3,"no2":23.5,"co":236.0,"o3":28.0,"so2":1.5,"mosquito_risk":3,"arthritis_risk":5,"migraine_risk":7,"frizz_risk":0,"updated_at":"2026-06-07T05:36:47.995649+05:30"},{"city":"Amritsar","state":"Punjab","latitude":31.634,"longitude":74.8723,"temp":27.2,"humidity":47,"rain":0.0,"pressure":975.4,"uv_index":8.5,"wind_gusts":25.9,"aqi":133,"pm10":72.4,"pm2_5":66.6,"no2":44.9,"co":703.0,"o3":22.0,"so2":6.2,"mosquito_risk":4,"arthritis_risk":5,"migraine_risk":7,"frizz_risk":0,"updated_at":"2026-06-07T05:36:47.995658+05:30"},{"city":"Ludhiana","state":"Punjab","latitude":30.901,"longitude":75.8573,"temp":28.0,"humidity":47,"rain":0.0,"pressure":973.5,"uv_index":8.05,"wind_gusts":30.2,"aqi":151,"pm10":114.6,"pm2_5":81.5,"no2":56.3,"co":1011.0,"o3":34.0,"so2":13.0,"mosquito_risk":4,"arthritis_risk":5,"migraine_risk":7,"frizz_risk":0,"updated_at":"2026-06-07T05:36:47.995670+05:30"},{"city":"Jalandhar","state":"Punjab","latitude":31.326,"longitude":75.5762,"temp":28.1,"humidity":47,"rain":0.0,"pressure":974.6,"uv_index":8.25,"wind_gusts":28.4,"aqi":149,"pm10":95.7,"pm2_5":87.5,"no2":69.7,"co":640.0,"o3":15.0,"so2":10.4,"mosquito_risk":4,"arthritis_risk":5,"migraine_risk":7,"frizz_risk":0,"updated_at":"2026-06-07T05:36:47.995677+05:30"},{"city":"Dehradun","state":"Uttarakhand","latitude":30.6284,"longitude":78.0322,"temp":13.3,"humidity":88,"rain":0.0,"pressure":826.2,"uv_index":8.25,"wind_gusts":41.8,"aqi":57,"pm10":11.5,"pm2_5":9.2,"no2":14.7,"co":240.0,"o3":35.0,"so2":0.0,"mosquito_risk":3,"arthritis_risk":10,"migraine_risk":7,"frizz_risk":0,"updated_at":"2026-06-07T05:36:47.995683+05:30"},{"city":"Shimla","state":"Himachal Pradesh","latitude":31.1048,"longitude":77.1734,"temp":11.0,"humidity":62,"rain":0.0,"pressure":779.4,"uv_index":8.35,"wind_gusts":39.2,"aqi":59,"pm10":23.1,"pm2_5":18.4,"no2":23.6,"co":185.0,"o3":26.0,"so2":0.7,"mosquito_risk":3,"arthritis_risk":5,"migraine_risk":7,"frizz_risk":0,"updated_at":"2026-06-07T05:36:47.995691+05:30"},{"city":"Manali","state":"Himachal Pradesh","latitude":32.2396,"longitude":77.1887,"temp":11.1,"humidity":63,"rain":0.0,"pressure":813.5,"uv_index":8.95,"wind_gusts":35.3,"aqi":43,"pm10":6.4,"pm2_5":4.4,"no2":10.9,"co":178.0,"o3":132.0,"so2":0.0,"mosquito_risk":3,"arthritis_risk":5,"migraine_risk":7,"frizz_risk":0,"updated_at":"2026-06-07T05:36:47.995697+05:30"},{"city":"Gurgaon","state":"Haryana","latitude":28.4595,"longitude":77.0266,"temp":28.5,"humidity":53,"rain":0.0,"pressure":976.7,"uv_index":7.9,"wind_gusts":29.9,"aqi":188,"pm10":172.8,"pm2_5":84.5,"no2":67.7,"co":357.0,"o3":5.0,"so2":24.3,"mosquito_risk":4,"arthritis_risk":5,"migraine_risk":7,"frizz_risk":1,"updated_at":"2026-06-07T05:36:47.995703+05:30"},{"city":"Noida","state":"Uttar Pradesh","latitude":28.5355,"longitude":77.391,"temp":28.7,"humidity":56,"rain":0.0,"pressure":979.7,"uv_index":7.85,"wind_gusts":33.8,"aqi":188,"pm10":172.8,"pm2_5":84.5,"no2":67.7,"co":463.0,"o3":5.0,"so2":24.3,"mosquito_risk":4,"arthritis_risk":5,"migraine_risk":7,"frizz_risk":1,"updated_at":"2026-06-07T05:36:47.995709+05:30"},{"city":"Ghaziabad","state":"Uttar Pradesh","latitude":28.6692,"longitude":77.4538,"temp":28.4,"humidity":59,"rain":0.0,"pressure":978.1,"uv_index":7.8,"wind_gusts":29.5,"aqi":174,"pm10":210.0,"pm2_5":115.0,"no2":71.3,"co":893.0,"o3":11.0,"so2":17.0,"mosquito_risk":4,"arthritis_risk":5,"migraine_risk":7,"frizz_risk":1,"updated_at":"2026-06-07T05:36:47.995715+05:30"},{"city":"Faridabad","state":"Haryana","latitude":28.4089,"longitude":77.3178,"temp":29.8,"humidity":48,"rain":0.0,"pressure":979.1,"uv_index":7.85,"wind_gusts":36.0,"aqi":188,"pm10":172.8,"pm2_5":84.5,"no2":67.7,"co":390.0,"o3":5.0,"so2":24.3,"mosquito_risk":4,"arthritis_risk":5,"migraine_risk":7,"frizz_risk":1,"updated_at":"2026-06-07T05:36:47.995721+05:30"},{"city":"Meerut","state":"Uttar Pradesh","latitude":28.9845,"longitude":77.7064,"temp":26.3,"humidity":68,"rain":0.0,"pressure":977.2,"uv_index":7.7,"wind_gusts":31.7,"aqi":174,"pm10":210.0,"pm2_5":115.0,"no2":71.3,"co":858.0,"o3":11.0,"so2":17.0,"mosquito_risk":7,"arthritis_risk":5,"migraine_risk":7,"frizz_risk":1,"updated_at":"2026-06-07T05:36:47.995727+05:30"},{"city":"Agra","state":"Uttar Pradesh","latitude":27.1767,"longitude":78.0081,"temp":28.5,"humidity":48,"rain":0.0,"pressure":983.2,"uv_index":8.15,"wind_gusts":33.1,"aqi":271,"pm10":230.5,"pm2_5":56.1,"no2":22.7,"co":624.0,"o3":34.0,"so2":5.6,"mosquito_risk":4,"arthritis_risk":5,"migraine_risk":7,"frizz_risk":1,"updated_at":"2026-06-07T05:36:47.995733+05:30"},{"city":"Varanasi","state":"Uttar Pradesh","latitude":25.3176,"longitude":82.9739,"temp":28.7,"humidity":71,"rain":0.0,"pressure":993.4,"uv_index":8.75,"wind_gusts":36.0,"aqi":154,"pm10":76.8,"pm2_5":56.6,"no2":25.6,"co":760.0,"o3":35.0,"so2":9.2,"mosquito_risk":7,"arthritis_risk":5,"migraine_risk":7,"frizz_risk":1,"updated_at":"2026-06-07T05:36:47.995740+05:30"},{"city":"Prayagraj","state":"Uttar Pradesh","latitude":25.4358,"longitude":81.8463,"temp":29.6,"humidity":59,"rain":0.0,"pressure":991.5,"uv_index":8.7,"wind_gusts":37.4,"aqi":159,"pm10":142.0,"pm2_5":86.8,"no2":48.3,"co":385.0,"o3":17.0,"so2":16.3,"mosquito_risk":4,"arthritis_risk":5,"migraine_risk":7,"frizz_risk":1,"updated_at":"2026-06-07T05:36:47.995746+05:30"},{"city":"Gorakhpur","state":"Uttar Pradesh","latitude":26.7606,"longitude":83.3732,"temp":26.5,"humidity":84,"rain":0.0,"pressure":994.2,"uv_index":8.7,"wind_gusts":24.8,"aqi":155,"pm10":51.5,"pm2_5":44.6,"no2":18.8,"co":524.0,"o3":71.0,"so2":6.2,"mosquito_risk":7,"arthritis_risk":5,"migraine_risk":7,"frizz_risk":1,"updated_at":"2026-06-07T05:36:47.995754+05:30"},{"city":"Bareilly","state":"Uttar Pradesh","latitude":28.367,"longitude":79.4304,"temp":26.4,"humidity":78,"rain":0.0,"pressure":983.0,"uv_index":8.15,"wind_gusts":33.5,"aqi":133,"pm10":74.0,"pm2_5":50.4,"no2":21.7,"co":739.0,"o3":48.0,"so2":4.7,"mosquito_risk":7,"arthritis_risk":5,"migraine_risk":7,"frizz_risk":1,"updated_at":"2026-06-07T05:36:47.995760+05:30"},{"city":"Aligarh","state":"Uttar Pradesh","latitude":27.8974,"longitude":78.088,"temp":26.6,"humidity":65,"rain":0.0,"pressure":981.0,"uv_index":8.0,"wind_gusts":25.9,"aqi":187,"pm10":141.1,"pm2_5":71.7,"no2":56.3,"co":712.0,"o3":10.0,"so2":10.6,"mosquito_risk":7,"arthritis_risk":5,"migraine_risk":7,"frizz_risk":1,"updated_at":"2026-06-07T05:36:47.995766+05:30"},{"city":"Moradabad","state":"Uttar Pradesh","latitude":28.8386,"longitude":78.7733,"temp":27.3,"humidity":65,"rain":0.0,"pressure":979.7,"uv_index":7.95,"wind_gusts":37.8,"aqi":159,"pm10":59.1,"pm2_5":50.6,"no2":25.6,"co":883.0,"o3":47.0,"so2":8.2,"mosquito_risk":7,"arthritis_risk":5,"migraine_risk":7,"frizz_risk":1,"updated_at":"2026-06-07T05:36:47.995772+05:30"},{"city":"Saharanpur","state":"Uttar Pradesh","latitude":29.9637,"longitude":77.546,"temp":24.8,"humidity":74,"rain":0.0,"pressure":971.2,"uv_index":7.5,"wind_gusts":28.8,"aqi":119,"pm10":62.4,"pm2_5":53.8,"no2":39.2,"co":639.0,"o3":30.0,"so2":9.3,"mosquito_risk":3,"arthritis_risk":5,"migraine_risk":7,"frizz_risk":1,"updated_at":"2026-06-07T05:36:47.995779+05:30"},{"city":"Jhansi","state":"Uttar Pradesh","latitude":25.4484,"longitude":78.5685,"temp":28.4,"humidity":54,"rain":0.0,"pressure":974.2,"uv_index":8.5,"wind_gusts":40.7,"aqi":81,"pm10":63.8,"pm2_5":32.7,"no2":5.9,"co":168.0,"o3":57.0,"so2":1.9,"mosquito_risk":4,"arthritis_risk":5,"migraine_risk":7,"frizz_risk":1,"updated_at":"2026-06-07T05:36:51.325007+05:30"},{"city":"Surat","state":"Gujarat","latitude":21.1702,"longitude":72.8311,"temp":29.2,"humidity":86,"rain":0.0,"pressure":1004.3,"uv_index":7.15,"wind_gusts":45.7,"aqi":92,"pm10":67.3,"pm2_5":29.5,"no2":19.4,"co":280.0,"o3":33.0,"so2":33.2,"mosquito_risk":7,"arthritis_risk":5,"migraine_risk":4,"frizz_risk":1,"updated_at":"2026-06-07T05:36:51.325072+05:30"},{"city":"Vadodara","state":"Gujarat","latitude":22.3072,"longitude":73.1812,"temp":29.9,"humidity":76,"rain":0.0,"pressure":1002.0,"uv_index":7.35,"wind_gusts":45.4,"aqi":90,"pm10":42.8,"pm2_5":24.9,"no2":10.3,"co":117.0,"o3":34.0,"so2":8.9,"mosquito_risk":7,"arthritis_risk":5,"migraine_risk":4,"frizz_risk":1,"updated_at":"2026-06-07T05:36:51.325088+05:30"},{"city":"Rajkot","state":"Gujarat","latitude":22.3039,"longitude":70.8022,"temp":27.7,"humidity":82,"rain":0.0,"pressure":991.4,"uv_index":6.85,"wind_gusts":47.2,"aqi":79,"pm10":31.9,"pm2_5":13.6,"no2":4.5,"co":104.0,"o3":45.0,"so2":4.4,"mosquito_risk":7,"arthritis_risk":5,"migraine_risk":7,"frizz_risk":1,"updated_at":"2026-06-07T05:36:51.325097+05:30"},{"city":"Thane","state":"Maharashtra","latitude":19.2183,"longitude":72.9781,"temp":29.9,"humidity":73,"rain":0.0,"pressure":1005.4,"uv_index":7.55,"wind_gusts":37.8,"aqi":75,"pm10":62.6,"pm2_5":24.0,"no2":8.2,"co":142.0,"o3":45.0,"so2":7.1,"mosquito_risk":7,"arthritis_risk":5,"migraine_risk":4,"frizz_risk":1,"updated_at":"2026-06-07T05:36:51.325106+05:30"},{"city":"Nagpur","state":"Maharashtra","latitude":21.1458,"longitude":79.0882,"temp":31.1,"humidity":44,"rain":0.0,"pressure":969.8,"uv_index":8.2,"wind_gusts":47.2,"aqi":83,"pm10":63.6,"pm2_5":38.8,"no2":11.7,"co":228.0,"o3":63.0,"so2":10.8,"mosquito_risk":0,"arthritis_risk":5,"migraine_risk":7,"frizz_risk":1,"updated_at":"2026-06-07T05:36:51.325114+05:30"},{"city":"Nashik","state":"Maharashtra","latitude":19.9975,"longitude":73.7898,"temp":24.4,"humidity":89,"rain":0.0,"pressure":943.4,"uv_index":8.05,"wind_gusts":40.3,"aqi":61,"pm10":37.4,"pm2_5":17.0,"no2":7.2,"co":132.0,"o3":41.0,"so2":6.0,"mosquito_risk":3,"arthritis_risk":5,"migraine_risk":7,"frizz_risk":1,"updated_at":"2026-06-07T05:36:51.325122+05:30"},{"city":"Aurangabad","state":"Maharashtra","latitude":19.8762,"longitude":75.3433,"temp":26.3,"humidity":72,"rain":0.0,"pressure":942.5,"uv_index":9.0,"wind_gusts":44.3,"aqi":64,"pm10":26.4,"pm2_5":14.2,"no2":8.1,"co":130.0,"o3":41.0,"so2":5.8,"mosquito_risk":7,"arthritis_risk":5,"migraine_risk":7,"frizz_risk":1,"updated_at":"2026-06-07T05:36:51.325130+05:30"},{"city":"Solapur","state":"Maharashtra","latitude":17.6599,"longitude":75.9064,"temp":27.2,"humidity":74,"rain":0.0,"pressure":955.9,"uv_index":8.5,"wind_gusts":38.9,"aqi":63,"pm10":18.3,"pm2_5":12.6,"no2":9.1,"co":137.0,"o3":39.0,"so2":4.4,"mosquito_risk":7,"arthritis_risk":5,"migraine_risk":7,"frizz_risk":1,"updated_at":"2026-06-07T05:36:51.325137+05:30"},{"city":"Kolhapur","state":"Maharashtra","latitude":16.705,"longitude":74.2433,"temp":23.9,"humidity":91,"rain":0.0,"pressure":946.8,"uv_index":4.75,"wind_gusts":45.4,"aqi":41,"pm10":11.4,"pm2_5":6.8,"no2":3.9,"co":110.0,"o3":43.0,"so2":1.2,"mosquito_risk":3,"arthritis_risk":5,"migraine_risk":3,"frizz_risk":1,"updated_at":"2026-06-07T05:36:51.325144+05:30"},{"city":"Goa","state":"Goa","latitude":15.2993,"longitude":74.124,"temp":24.9,"humidity":98,"rain":0.0,"pressure":997.0,"uv_index":2.65,"wind_gusts":26.3,"aqi":41,"pm10":18.9,"pm2_5":12.9,"no2":5.3,"co":202.0,"o3":47.0,"so2":1.2,"mosquito_risk":3,"arthritis_risk":5,"migraine_risk":3,"frizz_risk":1,"updated_at":"2026-06-07T05:36:51.325151+05:30"},{"city":"Jodhpur","state":"Rajasthan","latitude":26.2389,"longitude":73.0243,"temp":30.4,"humidity":60,"rain":0.0,"pressure":979.1,"uv_index":8.45,"wind_gusts":39.6,"aqi":130,"pm10":266.4,"pm2_5":64.5,"no2":2.7,"co":125.0,"o3":60.0,"so2":3.2,"mosquito_risk":0,"arthritis_risk":5,"migraine_risk":7,"frizz_risk":1,"updated_at":"2026-06-07T05:36:51.325159+05:30"},{"city":"Udaipur","state":"Rajasthan","latitude":24.5854,"longitude":73.7125,"temp":26.8,"humidity":66,"rain":0.0,"pressure":943.5,"uv_index":8.8,"wind_gusts":34.6,"aqi":86,"pm10":38.8,"pm2_5":24.9,"no2":7.6,"co":148.0,"o3":45.0,"so2":5.0,"mosquito_risk":7,"arthritis_risk":5,"migraine_risk":7,"frizz_risk":1,"updated_at":"2026-06-07T05:36:51.325166+05:30"},{"city":"Kota","state":"Rajasthan","latitude":25.2138,"longitude":75.8648,"temp":30.1,"humidity":57,"rain":0.0,"pressure":975.0,"uv_index":8.4,"wind_gusts":33.1,"aqi":101,"pm10":51.9,"pm2_5":28.2,"no2":6.8,"co":175.0,"o3":60.0,"so2":4.9,"mosquito_risk":0,"arthritis_risk":5,"migraine_risk":7,"frizz_risk":1,"updated_at":"2026-06-07T05:36:51.325173+05:30"},{"city":"Bikaner","state":"Rajasthan","latitude":28.0229,"longitude":73.3119,"temp":32.0,"humidity":49,"rain":0.0,"pressure":976.3,"uv_index":8.45,"wind_gusts":36.7,"aqi":114,"pm10":158.3,"pm2_5":56.9,"no2":2.5,"co":130.0,"o3":58.0,"so2":3.5,"mosquito_risk":0,"arthritis_risk":5,"migraine_risk":7,"frizz_risk":1,"updated_at":"2026-06-07T05:36:51.325181+05:30"},{"city":"Ajmer","state":"Rajasthan","latitude":26.4499,"longitude":74.6399,"temp":28.5,"humidity":62,"rain":0.0,"pressure":951.2,"uv_index":8.35,"wind_gusts":43.2,"aqi":95,"pm10":42.8,"pm2_5":21.8,"no2":4.4,"co":171.0,"o3":67.0,"so2":3.8,"mosquito_risk":7,"arthritis_risk":5,"migraine_risk":7,"frizz_risk":1,"updated_at":"2026-06-07T05:36:51.325188+05:30"},{"city":"Gwalior","state":"Madhya Pradesh","latitude":26.2183,"longitude":78.1828,"temp":28.3,"humidity":51,"rain":0.0,"pressure":979.0,"uv_index":8.3,"wind_gusts":34.2,"aqi":89,"pm10":85.4,"pm2_5":33.8,"no2":6.8,"co":159.0,"o3":58.0,"so2":2.5,"mosquito_risk":4,"arthritis_risk":5,"migraine_risk":7,"frizz_risk":1,"updated_at":"2026-06-07T05:36:51.325196+05:30"},{"city":"Indore","state":"Madhya Pradesh","latitude":22.7196,"longitude":75.8577,"temp":26.0,"humidity":75,"rain":0.0,"pressure":945.7,"uv_index":8.65,"wind_gusts":35.6,"aqi":92,"pm10":60.5,"pm2_5":35.4,"no2":7.8,"co":266.0,"o3":62.0,"so2":12.4,"mosquito_risk":7,"arthritis_risk":5,"migraine_risk":7,"frizz_risk":1,"updated_at":"2026-06-07T05:36:51.325203+05:30"},{"city":"Bhopal","state":"Madhya Pradesh","latitude":23.2599,"longitude":77.4126,"temp":27.7,"humidity":63,"rain":0.0,"pressure":950.9,"uv_index":8.7,"wind_gusts":30.6,"aqi":97,"pm10":58.8,"pm2_5":35.2,"no2":6.8,"co":203.0,"o3":67.0,"so2":4.1,"mosquito_risk":7,"arthritis_risk":5,"migraine_risk":7,"frizz_risk":1,"updated_at":"2026-06-07T05:36:51.325210+05:30"},{"city":"Jabalpur","state":"Madhya Pradesh","latitude":23.1815,"longitude":79.9864,"temp":27.5,"humidity":60,"rain":0.0,"pressure":958.4,"uv_index":8.85,"wind_gusts":34.6,"aqi":106,"pm10":50.6,"pm2_5":33.4,"no2":13.8,"co":239.0,"o3":56.0,"so2":4.9,"mosquito_risk":4,"arthritis_risk":5,"migraine_risk":7,"frizz_risk":1,"updated_at":"2026-06-07T05:36:51.325217+05:30"},{"city":"Ujjain","state":"Madhya Pradesh","latitude":23.1765,"longitude":75.7885,"temp":26.1,"humidity":78,"rain":0.0,"pressure":951.3,"uv_index":8.6,"wind_gusts":35.6,"aqi":88,"pm10":61.5,"pm2_5":34.3,"no2":7.0,"co":240.0,"o3":51.0,"so2":12.9,"mosquito_risk":7,"arthritis_risk":5,"migraine_risk":7,"frizz_risk":1,"updated_at":"2026-06-07T05:36:51.325225+05:30"},{"city":"Visakhapatnam","state":"Andhra Pradesh","latitude":17.6868,"longitude":83.2185,"temp":29.6,"humidity":78,"rain":0.0,"pressure":999.5,"uv_index":8.3,"wind_gusts":42.1,"aqi":105,"pm10":27.9,"pm2_5":23.9,"no2":16.7,"co":338.0,"o3":77.0,"so2":30.5,"mosquito_risk":7,"arthritis_risk":5,"migraine_risk":7,"frizz_risk":1,"updated_at":"2026-06-07T05:36:51.325232+05:30"},{"city":"Vijayawada","state":"Andhra Pradesh","latitude":16.5062,"longitude":80.648,"temp":30.7,"humidity":60,"rain":0.0,"pressure":998.8,"uv_index":8.95,"wind_gusts":36.0,"aqi":83,"pm10":28.0,"pm2_5":23.6,"no2":9.2,"co":251.0,"o3":72.0,"so2":4.8,"mosquito_risk":0,"arthritis_risk":5,"migraine_risk":7,"frizz_risk":1,"updated_at":"2026-06-07T05:36:51.325238+05:30"},{"city":"Guntur","state":"Andhra Pradesh","latitude":16.3067,"longitude":80.4365,"temp":29.7,"humidity":61,"rain":0.0,"pressure":1000.2,"uv_index":8.6,"wind_gusts":32.4,"aqi":85,"pm10":27.4,"pm2_5":23.1,"no2":8.9,"co":231.0,"o3":72.0,"so2":6.6,"mosquito_risk":7,"arthritis_risk":5,"migraine_risk":4,"frizz_risk":1,"updated_at":"2026-06-07T05:36:51.325245+05:30"},{"city":"Nellore","state":"Andhra Pradesh","latitude":14.4426,"longitude":79.9865,"temp":28.5,"humidity":70,"rain":0.0,"pressure":1003.2,"uv_index":8.45,"wind_gusts":39.2,"aqi":57,"pm10":12.5,"pm2_5":10.1,"no2":8.2,"co":172.0,"o3":55.0,"so2":5.8,"mosquito_risk":7,"arthritis_risk":5,"migraine_risk":4,"frizz_risk":1,"updated_at":"2026-06-07T05:36:51.325254+05:30"},{"city":"Kurnool","state":"Andhra Pradesh","latitude":15.8281,"longitude":78.0373,"temp":25.5,"humidity":90,"rain":0.0,"pressure":975.5,"uv_index":8.4,"wind_gusts":38.9,"aqi":67,"pm10":11.6,"pm2_5":10.1,"no2":12.0,"co":170.0,"o3":53.0,"so2":4.1,"mosquito_risk":7,"arthritis_risk":5,"migraine_risk":7,"frizz_risk":1,"updated_at":"2026-06-07T05:36:51.325262+05:30"},{"city":"Kakinada","state":"Andhra Pradesh","latitude":16.9891,"longitude":82.2475,"temp":29.2,"humidity":81,"rain":0.0,"pressure":1003.4,"uv_index":8.2,"wind_gusts":38.9,"aqi":74,"pm10":25.6,"pm2_5":19.0,"no2":3.1,"co":266.0,"o3":102.0,"so2":3.8,"mosquito_risk":7,"arthritis_risk":5,"migraine_risk":4,"frizz_risk":1,"updated_at":"2026-06-07T05:36:51.325269+05:30"},{"city":"Tirupati","state":"Andhra Pradesh","latitude":13.6288,"longitude":79.4192,"temp":27.5,"humidity":71,"rain":0.0,"pressure":989.1,"uv_index":8.85,"wind_gusts":35.3,"aqi":41,"pm10":10.6,"pm2_5":9.7,"no2":15.2,"co":162.0,"o3":29.0,"so2":3.0,"mosquito_risk":7,"arthritis_risk":5,"migraine_risk":7,"frizz_risk":1,"updated_at":"2026-06-07T05:36:51.325276+05:30"},{"city":"Warangal","state":"Telangana","latitude":17.9689,"longitude":79.5941,"temp":29.4,"humidity":60,"rain":0.0,"pressure":975.3,"uv_index":7.95,"wind_gusts":36.0,"aqi":93,"pm10":28.8,"pm2_5":21.9,"no2":6.8,"co":206.0,"o3":88.0,"so2":4.4,"mosquito_risk":4,"arthritis_risk":5,"migraine_risk":7,"frizz_risk":1,"updated_at":"2026-06-07T05:36:51.325283+05:30"},{"city":"Nizamabad","state":"Telangana","latitude":18.6725,"longitude":78.0941,"temp":29.2,"humidity":61,"rain":0.0,"pressure":962.0,"uv_index":8.8,"wind_gusts":38.5,"aqi":84,"pm10":38.1,"pm2_5":27.4,"no2":11.2,"co":213.0,"o3":63.0,"so2":4.5,"mosquito_risk":7,"arthritis_risk":5,"migraine_risk":7,"frizz_risk":1,"updated_at":"2026-06-07T05:36:51.325289+05:30"},{"city":"Mysore","state":"Karnataka","latitude":12.2958,"longitude":76.6396,"temp":21.2,"humidity":98,"rain":0.1,"pressure":927.2,"uv_index":7.35,"wind_gusts":36.0,"aqi":15,"pm10":2.9,"pm2_5":2.9,"no2":7.0,"co":162.0,"o3":31.0,"so2":1.8,"mosquito_risk":6,"arthritis_risk":5,"migraine_risk":7,"frizz_risk":1,"updated_at":"2026-06-07T05:36:51.325296+05:30"},{"city":"Mangalore","state":"Karnataka","latitude":12.9141,"longitude":74.856,"temp":24.8,"humidity":97,"rain":0.1,"pressure":1006.5,"uv_index":2.0,"wind_gusts":27.7,"aqi":22,"pm10":6.0,"pm2_5":5.6,"no2":8.2,"co":160.0,"o3":28.0,"so2":1.7,"mosquito_risk":6,"arthritis_risk":5,"migraine_risk":0,"frizz_risk":1,"updated_at":"2026-06-07T05:36:51.325303+05:30"},{"city":"Hubli-Dharwad","state":"Karnataka","latitude":15.3647,"longitude":75.124,"temp":23.0,"humidity":97,"rain":0.0,"pressure":939.7,"uv_index":2.05,"wind_gusts":43.2,"aqi":26,"pm10":3.5,"pm2_5":2.5,"no2":3.3,"co":118.0,"o3":53.0,"so2":1.0,"mosquito_risk":3,"arthritis_risk":5,"migraine_risk":3,"frizz_risk":1,"updated_at":"2026-06-07T05:36:51.325312+05:30"},{"city":"Belgaum","state":"Karnataka","latitude":15.8497,"longitude":74.4977,"temp":23.0,"humidity":94,"rain":0.0,"pressure":924.6,"uv_index":8.15,"wind_gusts":37.8,"aqi":26,"pm10":7.7,"pm2_5":4.9,"no2":2.8,"co":117.0,"o3":50.0,"so2":0.9,"mosquito_risk":3,"arthritis_risk":5,"migraine_risk":7,"frizz_risk":1,"updated_at":"2026-06-07T05:36:54.667087+05:30"},{"city":"Coimbatore","state":"Tamil Nadu","latitude":11.0168,"longitude":76.9558,"temp":23.4,"humidity":91,"rain":0.0,"pressure":961.3,"uv_index":6.1,"wind_gusts":58.7,"aqi":16,"pm10":2.0,"pm2_5":1.7,"no2":5.2,"co":127.0,"o3":33.0,"so2":2.3,"mosquito_risk":3,"arthritis_risk":5,"migraine_risk":7,"frizz_risk":1,"updated_at":"2026-06-07T05:36:54.667125+05:30"},{"city":"Madurai","state":"Tamil Nadu","latitude":9.9252,"longitude":78.1198,"temp":28.4,"humidity":66,"rain":0.0,"pressure":992.9,"uv_index":8.55,"wind_gusts":65.9,"aqi":29,"pm10":8.0,"pm2_5":5.4,"no2":6.7,"co":152.0,"o3":32.0,"so2":3.1,"mosquito_risk":7,"arthritis_risk":5,"migraine_risk":7,"frizz_risk":1,"updated_at":"2026-06-07T05:36:54.667137+05:30"},{"city":"Trichy","state":"Tamil Nadu","latitude":10.7905,"longitude":78.7047,"temp":28.2,"humidity":66,"rain":0.0,"pressure":999.3,"uv_index":8.4,"wind_gusts":43.2,"aqi":32,"pm10":7.9,"pm2_5":6.0,"no2":9.3,"co":123.0,"o3":27.0,"so2":3.2,"mosquito_risk":7,"arthritis_risk":5,"migraine_risk":7,"frizz_risk":1,"updated_at":"2026-06-07T05:36:54.667146+05:30"},{"city":"Salem","state":"Tamil Nadu","latitude":11.6643,"longitude":78.146,"temp":25.3,"humidity":80,"rain":0.0,"pressure":977.1,"uv_index":8.7,"wind_gusts":47.5,"aqi":36,"pm10":12.1,"pm2_5":9.3,"no2":13.9,"co":169.0,"o3":24.0,"so2":6.5,"mosquito_risk":7,"arthritis_risk":5,"migraine_risk":7,"frizz_risk":1,"updated_at":"2026-06-07T05:36:54.667156+05:30"},{"city":"Tirunelveli","state":"Tamil Nadu","latitude":8.7139,"longitude":77.7567,"temp":26.9,"humidity":81,"rain":0.0,"pressure":1004.2,"uv_index":7.85,"wind_gusts":49.0,"aqi":19,"pm10":3.4,"pm2_5":2.6,"no2":4.9,"co":148.0,"o3":30.0,"so2":1.4,"mosquito_risk":7,"arthritis_risk":5,"migraine_risk":4,"frizz_risk":1,"updated_at":"2026-06-07T05:36:54.667164+05:30"},{"city":"Vellore","state":"Tamil Nadu","latitude":12.9165,"longitude":79.1325,"temp":27.8,"humidity":64,"rain":0.0,"pressure":982.9,"uv_index":8.1,"wind_gusts":40.3,"aqi":27,"pm10":4.1,"pm2_5":3.8,"no2":7.9,"co":158.0,"o3":34.0,"so2":3.1,"mosquito_risk":7,"arthritis_risk":5,"migraine_risk":7,"frizz_risk":1,"updated_at":"2026-06-07T05:36:54.667172+05:30"},{"city":"Erode","state":"Tamil Nadu","latitude":11.341,"longitude":77.7172,"temp":25.7,"humidity":78,"rain":0.0,"pressure":988.8,"uv_index":8.05,"wind_gusts":52.9,"aqi":28,"pm10":7.6,"pm2_5":6.0,"no2":9.7,"co":130.0,"o3":27.0,"so2":3.2,"mosquito_risk":7,"arthritis_risk":5,"migraine_risk":7,"frizz_risk":1,"updated_at":"2026-06-07T05:36:54.667180+05:30"},{"city":"Kochi","state":"Kerala","latitude":9.9312,"longitude":76.2673,"temp":25.5,"humidity":91,"rain":0.2,"pressure":1009.9,"uv_index":7.5,"wind_gusts":46.1,"aqi":42,"pm10":8.2,"pm2_5":5.4,"no2":5.6,"co":90.0,"o3":32.0,"so2":1.6,"mosquito_risk":10,"arthritis_risk":0,"migraine_risk":4,"frizz_risk":1,"updated_at":"2026-06-07T05:36:54.667187+05:30"},{"city":"Thiruvananthapuram","state":"Kerala","latitude":8.5241,"longitude":76.9366,"temp":24.8,"humidity":95,"rain":0.2,"pressure":1010.0,"uv_index":7.35,"wind_gusts":48.2,"aqi":30,"pm10":11.7,"pm2_5":5.6,"no2":1.6,"co":95.0,"o3":44.0,"so2":0.4,"mosquito_risk":6,"arthritis_risk":0,"migraine_risk":4,"frizz_risk":1,"updated_at":"2026-06-07T05:36:54.667194+05:30"},{"city":"Kozhikode","state":"Kerala","latitude":11.2588,"longitude":75.7804,"temp":24.4,"humidity":97,"rain":1.2,"pressure":1008.2,"uv_index":4.65,"wind_gusts":24.8,"aqi":24,"pm10":5.6,"pm2_5":2.8,"no2":0.7,"co":140.0,"o3":59.0,"so2":0.2,"mosquito_risk":6,"arthritis_risk":0,"migraine_risk":0,"frizz_risk":1,"updated_at":"2026-06-07T05:36:54.667200+05:30"},{"city":"Thrissur","state":"Kerala","latitude":10.5276,"longitude":76.2144,"temp":24.5,"humidity":98,"rain":0.3,"pressure":1007.7,"uv_index":7.05,"wind_gusts":40.7,"aqi":42,"pm10":7.4,"pm2_5":5.5,"no2":6.9,"co":170.0,"o3":29.0,"so2":1.8,"mosquito_risk":6,"arthritis_risk":5,"migraine_risk":4,"frizz_risk":1,"updated_at":"2026-06-07T05:36:54.667208+05:30"},{"city":"Kannur","state":"Kerala","latitude":11.8745,"longitude":75.3704,"temp":24.0,"humidity":99,"rain":0.2,"pressure":1007.6,"uv_index":4.65,"wind_gusts":26.6,"aqi":19,"pm10":3.0,"pm2_5":2.2,"no2":3.6,"co":173.0,"o3":43.0,"so2":1.0,"mosquito_risk":6,"arthritis_risk":5,"migraine_risk":0,"frizz_risk":1,"updated_at":"2026-06-07T05:36:54.667215+05:30"},{"city":"Patna","state":"Bihar","latitude":25.5941,"longitude":85.1376,"temp":26.6,"humidity":94,"rain":0.0,"pressure":996.8,"uv_index":8.75,"wind_gusts":27.4,"aqi":156,"pm10":73.6,"pm2_5":66.4,"no2":20.1,"co":431.0,"o3":71.0,"so2":11.9,"mosquito_risk":7,"arthritis_risk":5,"migraine_risk":7,"frizz_risk":1,"updated_at":"2026-06-07T05:36:54.667222+05:30"},{"city":"Gaya","state":"Bihar","latitude":24.7914,"longitude":85.0002,"temp":28.0,"humidity":81,"rain":0.0,"pressure":989.8,"uv_index":8.4,"wind_gusts":25.9,"aqi":156,"pm10":69.8,"pm2_5":60.3,"no2":15.7,"co":404.0,"o3":66.0,"so2":7.6,"mosquito_risk":7,"arthritis_risk":5,"migraine_risk":7,"frizz_risk":1,"updated_at":"2026-06-07T05:36:54.667228+05:30"},{"city":"Muzaffarpur","state":"Bihar","latitude":26.1209,"longitude":85.3647,"temp":25.7,"humidity":91,"rain":0.0,"pressure":997.0,"uv_index":8.85,"wind_gusts":36.4,"aqi":154,"pm10":65.4,"pm2_5":61.5,"no2":17.7,"co":492.0,"o3":69.0,"so2":10.7,"mosquito_risk":7,"arthritis_risk":5,"migraine_risk":7,"frizz_risk":1,"updated_at":"2026-06-07T05:36:54.667235+05:30"},{"city":"Bhagalpur","state":"Bihar","latitude":25.2425,"longitude":87.0117,"temp":26.4,"humidity":94,"rain":0.0,"pressure":997.3,"uv_index":8.85,"wind_gusts":34.6,"aqi":154,"pm10":65.9,"pm2_5":58.8,"no2":10.8,"co":371.0,"o3":94.0,"so2":8.8,"mosquito_risk":7,"arthritis_risk":5,"migraine_risk":7,"frizz_risk":1,"updated_at":"2026-06-07T05:36:54.667241+05:30"},{"city":"Ranchi","state":"Jharkhand","latitude":23.3441,"longitude":85.3096,"temp":24.5,"humidity":82,"rain":0.0,"pressure":934.0,"uv_index":9.0,"wind_gusts":35.3,"aqi":140,"pm10":71.0,"pm2_5":59.4,"no2":14.8,"co":375.0,"o3":80.0,"so2":7.8,"mosquito_risk":3,"arthritis_risk":5,"migraine_risk":7,"frizz_risk":1,"updated_at":"2026-06-07T05:36:54.667248+05:30"},{"city":"Jamshedpur","state":"Jharkhand","latitude":22.8046,"longitude":86.2029,"temp":27.8,"humidity":90,"rain":0.0,"pressure":986.8,"uv_index":9.1,"wind_gusts":31.7,"aqi":161,"pm10":107.8,"pm2_5":95.5,"no2":27.3,"co":473.0,"o3":68.0,"so2":39.2,"mosquito_risk":7,"arthritis_risk":5,"migraine_risk":7,"frizz_risk":1,"updated_at":"2026-06-07T05:36:54.667254+05:30"},{"city":"Dhanbad","state":"Jharkhand","latitude":23.7957,"longitude":86.4304,"temp":27.5,"humidity":94,"rain":0.0,"pressure":976.0,"uv_index":8.4,"wind_gusts":52.6,"aqi":176,"pm10":138.8,"pm2_5":129.0,"no2":60.4,"co":330.0,"o3":36.0,"so2":150.9,"mosquito_risk":7,"arthritis_risk":5,"migraine_risk":7,"frizz_risk":1,"updated_at":"2026-06-07T05:36:54.667261+05:30"},{"city":"Bokaro","state":"Jharkhand","latitude":23.6693,"longitude":86.1511,"temp":27.5,"humidity":95,"rain":0.0,"pressure":979.8,"uv_index":8.65,"wind_gusts":37.8,"aqi":164,"pm10":110.8,"pm2_5":97.1,"no2":42.1,"co":292.0,"o3":67.0,"so2":115.6,"mosquito_risk":7,"arthritis_risk":5,"migraine_risk":7,"frizz_risk":1,"updated_at":"2026-06-07T05:36:54.667268+05:30"},{"city":"Bhubaneswar","state":"Odisha","latitude":20.2961,"longitude":85.8245,"temp":27.6,"humidity":96,"rain":0.0,"pressure":997.8,"uv_index":9.1,"wind_gusts":28.1,"aqi":131,"pm10":68.9,"pm2_5":64.0,"no2":22.1,"co":328.0,"o3":60.0,"so2":8.7,"mosquito_risk":7,"arthritis_risk":5,"migraine_risk":7,"frizz_risk":1,"updated_at":"2026-06-07T05:36:54.667275+05:30"},{"city":"Cuttack","state":"Odisha","latitude":20.4625,"longitude":85.8828,"temp":28.0,"humidity":94,"rain":0.0,"pressure":999.7,"uv_index":9.2,"wind_gusts":33.5,"aqi":131,"pm10":68.9,"pm2_5":64.0,"no2":22.1,"co":443.0,"o3":60.0,"so2":8.7,"mosquito_risk":7,"arthritis_risk":5,"migraine_risk":7,"frizz_risk":1,"updated_at":"2026-06-07T05:36:54.667282+05:30"},{"city":"Rourkela","state":"Odisha","latitude":22.2604,"longitude":84.8536,"temp":26.7,"humidity":93,"rain":0.0,"pressure":981.0,"uv_index":8.7,"wind_gusts":28.1,"aqi":152,"pm10":94.8,"pm2_5":78.7,"no2":23.0,"co":449.0,"o3":80.0,"so2":20.0,"mosquito_risk":7,"arthritis_risk":5,"migraine_risk":7,"frizz_risk":1,"updated_at":"2026-06-07T05:36:54.667289+05:30"},{"city":"Raipur","state":"Chhattisgarh","latitude":21.2514,"longitude":81.6296,"temp":30.1,"humidity":52,"rain":0.0,"pressure":970.9,"uv_index":8.6,"wind_gusts":34.6,"aqi":116,"pm10":90.3,"pm2_5":61.7,"no2":42.0,"co":454.0,"o3":24.0,"so2":43.9,"mosquito_risk":0,"arthritis_risk":5,"migraine_risk":7,"frizz_risk":1,"updated_at":"2026-06-07T05:36:54.667295+05:30"},{"city":"Bhilai","state":"Chhattisgarh","latitude":21.1938,"longitude":81.3509,"temp":29.1,"humidity":59,"rain":0.0,"pressure":971.4,"uv_index":8.8,"wind_gusts":33.5,"aqi":111,"pm10":103.8,"pm2_5":68.0,"no2":51.4,"co":485.0,"o3":8.0,"so2":53.9,"mosquito_risk":4,"arthritis_risk":5,"migraine_risk":7,"frizz_risk":1,"updated_at":"2026-06-07T05:36:54.667302+05:30"},{"city":"Guwahati","state":"Assam","latitude":26.1158,"longitude":91.7086,"temp":25.1,"humidity":96,"rain":0.1,"pressure":998.2,"uv_index":8.8,"wind_gusts":31.0,"aqi":91,"pm10":49.6,"pm2_5":45.2,"no2":10.8,"co":358.0,"o3":51.0,"so2":3.0,"mosquito_risk":10,"arthritis_risk":5,"migraine_risk":7,"frizz_risk":1,"updated_at":"2026-06-07T05:36:54.667309+05:30"},{"city":"Agartala","state":"Tripura","latitude":23.8315,"longitude":91.2868,"temp":25.2,"humidity":98,"rain":0.1,"pressure":1003.2,"uv_index":6.85,"wind_gusts":27.4,"aqi":141,"pm10":29.9,"pm2_5":27.2,"no2":12.4,"co":200.0,"o3":58.0,"so2":1.7,"mosquito_risk":10,"arthritis_risk":5,"migraine_risk":4,"frizz_risk":1,"updated_at":"2026-06-07T05:36:54.667316+05:30"},{"city":"Shillong","state":"Meghalaya","latitude":25.5788,"longitude":91.8933,"temp":19.3,"humidity":91,"rain":0.0,"pressure":854.7,"uv_index":9.1,"wind_gusts":24.5,"aqi":83,"pm10":44.9,"pm2_5":40.5,"no2":6.1,"co":259.0,"o3":87.0,"so2":3.2,"mosquito_risk":3,"arthritis_risk":10,"migraine_risk":7,"frizz_risk":1,"updated_at":"2026-06-07T05:36:54.667322+05:30"},{"city":"Imphal","state":"Manipur","latitude":24.817,"longitude":93.9368,"temp":23.2,"humidity":92,"rain":0.1,"pressure":920.8,"uv_index":9.0,"wind_gusts":31.0,"aqi":102,"pm10":38.3,"pm2_5":36.3,"no2":10.7,"co":277.0,"o3":38.0,"so2":2.4,"mosquito_risk":6,"arthritis_risk":5,"migraine_risk":7,"frizz_risk":1,"updated_at":"2026-06-07T05:36:54.667329+05:30"},{"city":"Aizawl","state":"Mizoram","latitude":23.7271,"longitude":92.7176,"temp":19.3,"humidity":95,"rain":0.0,"pressure":889.9,"uv_index":9.1,"wind_gusts":29.9,"aqi":105,"pm10":37.3,"pm2_5":33.9,"no2":7.5,"co":214.0,"o3":32.0,"so2":2.2,"mosquito_risk":3,"arthritis_risk":10,"migraine_risk":7,"frizz_risk":1,"updated_at":"2026-06-07T05:36:54.667335+05:30"},{"city":"Kohima","state":"Nagaland","latitude":25.6701,"longitude":94.1077,"temp":18.1,"humidity":99,"rain":0.0,"pressure":852.3,"uv_index":9.25,"wind_gusts":33.5,"aqi":70,"pm10":26.1,"pm2_5":23.7,"no2":7.4,"co":231.0,"o3":29.0,"so2":0.8,"mosquito_risk":3,"arthritis_risk":10,"migraine_risk":7,"frizz_risk":1,"updated_at":"2026-06-07T05:36:54.667342+05:30"},{"city":"Gangtok","state":"Sikkim","latitude":27.3314,"longitude":88.6138,"temp":16.8,"humidity":94,"rain":0.2,"pressure":835.0,"uv_index":8.7,"wind_gusts":38.9,"aqi":74,"pm10":25.8,"pm2_5":21.5,"no2":8.9,"co":479.0,"o3":100.0,"so2":3.0,"mosquito_risk":6,"arthritis_risk":10,"migraine_risk":7,"frizz_risk":0,"updated_at":"2026-06-07T05:36:54.667349+05:30"},{"city":"Siliguri","state":"West Bengal","latitude":26.7271,"longitude":88.3953,"temp":24.6,"humidity":93,"rain":0.0,"pressure":989.5,"uv_index":8.7,"wind_gusts":20.9,"aqi":130,"pm10":75.2,"pm2_5":64.0,"no2":17.7,"co":429.0,"o3":90.0,"so2":6.6,"mosquito_risk":3,"arthritis_risk":5,"migraine_risk":7,"frizz_risk":1,"updated_at":"2026-06-07T05:36:58.008025+05:30"},{"city":"Durgapur","state":"West Bengal","latitude":23.5204,"longitude":87.3119,"temp":27.1,"humidity":95,"rain":0.0,"pressure":990.9,"uv_index":9.0,"wind_gusts":24.5,"aqi":167,"pm10":136.4,"pm2_5":129.9,"no2":46.4,"co":678.0,"o3":31.0,"so2":71.6,"mosquito_risk":7,"arthritis_risk":5,"migraine_risk":7,"frizz_risk":1,"updated_at":"2026-06-07T05:36:58.008079+05:30"},{"city":"Asansol","state":"West Bengal","latitude":23.6739,"longitude":86.9524,"temp":27.2,"humidity":95,"rain":0.0,"pressure":989.5,"uv_index":8.7,"wind_gusts":29.2,"aqi":168,"pm10":125.7,"pm2_5":118.7,"no2":48.8,"co":623.0,"o3":32.0,"so2":76.6,"mosquito_risk":7,"arthritis_risk":5,"migraine_risk":7,"frizz_risk":1,"updated_at":"2026-06-07T05:36:58.008091+05:30"},{"city":"Pondicherry","state":"Puducherry","latitude":11.9139,"longitude":79.8145,"temp":28.7,"humidity":64,"rain":0.0,"pressure":1007.0,"uv_index":7.8,"wind_gusts":53.3,"aqi":57,"pm10":20.5,"pm2_5":14.4,"no2":17.2,"co":197.0,"o3":24.0,"so2":10.1,"mosquito_risk":7,"arthritis_risk":5,"migraine_risk":4,"frizz_risk":1,"updated_at":"2026-06-07T05:36:58.008100+05:30"},{"city":"Port Blair","state":"Andaman and Nicobar Islands","latitude":11.6234,"longitude":92.7265,"temp":25.9,"humidity":97,"rain":0.0,"pressure":1007.0,"uv_index":6.75,"wind_gusts":40.7,"aqi":25,"pm10":8.7,"pm2_5":5.0,"no2":0.3,"co":102.0,"o3":58.0,"so2":0.4,"mosquito_risk":7,"arthritis_risk":5,"migraine_risk":4,"frizz_risk":1,"updated_at":"2026-06-07T05:36:58.008108+05:30"},{"city":"Haridwar","state":"Uttarakhand","latitude":29.9457,"longitude":78.1642,"temp":23.4,"humidity":81,"rain":0.0,"pressure":969.8,"uv_index":7.65,"wind_gusts":23.0,"aqi":99,"pm10":37.8,"pm2_5":33.5,"no2":31.8,"co":314.0,"o3":32.0,"so2":5.3,"mosquito_risk":3,"arthritis_risk":5,"migraine_risk":7,"frizz_risk":1,"updated_at":"2026-06-07T05:36:58.008116+05:30"},{"city":"Rishikesh","state":"Uttarakhand","latitude":30.0869,"longitude":78.2676,"temp":20.8,"humidity":86,"rain":0.0,"pressure":962.4,"uv_index":7.75,"wind_gusts":27.4,"aqi":78,"pm10":24.1,"pm2_5":22.4,"no2":15.7,"co":344.0,"o3":69.0,"so2":3.8,"mosquito_risk":3,"arthritis_risk":5,"migraine_risk":7,"frizz_risk":1,"updated_at":"2026-06-07T05:36:58.008125+05:30"},{"city":"Nainital","state":"Uttarakhand","latitude":29.3919,"longitude":79.4542,"temp":13.9,"humidity":81,"rain":0.0,"pressure":802.8,"uv_index":8.6,"wind_gusts":43.9,"aqi":89,"pm10":40.4,"pm2_5":31.3,"no2":28.6,"co":303.0,"o3":47.0,"so2":2.9,"mosquito_risk":3,"arthritis_risk":10,"migraine_risk":7,"frizz_risk":0,"updated_at":"2026-06-07T05:36:58.008132+05:30"},{"city":"Mussoorie","state":"Uttarakhand","latitude":30.4599,"longitude":78.0664,"temp":15.0,"humidity":76,"rain":0.0,"pressure":800.4,"uv_index":8.15,"wind_gusts":47.9,"aqi":84,"pm10":28.6,"pm2_5":25.0,"no2":29.0,"co":230.0,"o3":33.0,"so2":3.8,"mosquito_risk":3,"arthritis_risk":5,"migraine_risk":7,"frizz_risk":0,"updated_at":"2026-06-07T05:36:58.008140+05:30"},{"city":"Dharamshala","state":"Himachal Pradesh","latitude":32.219,"longitude":76.3234,"temp":22.4,"humidity":45,"rain":0.0,"pressure":866.5,"uv_index":8.5,"wind_gusts":40.3,"aqi":50,"pm10":14.5,"pm2_5":11.2,"no2":10.0,"co":192.0,"o3":63.0,"so2":0.1,"mosquito_risk":0,"arthritis_risk":5,"migraine_risk":7,"frizz_risk":0,"updated_at":"2026-06-07T05:36:58.008148+05:30"},{"city":"Dalhousie","state":"Himachal Pradesh","latitude":32.5387,"longitude":75.971,"temp":11.3,"humidity":74,"rain":0.0,"pressure":798.8,"uv_index":8.75,"wind_gusts":38.2,"aqi":73,"pm10":24.7,"pm2_5":21.7,"no2":25.2,"co":243.0,"o3":26.0,"so2":0.5,"mosquito_risk":3,"arthritis_risk":5,"migraine_risk":7,"frizz_risk":0,"updated_at":"2026-06-07T05:36:58.008156+05:30"},{"city":"Patiala","state":"Punjab","latitude":30.3398,"longitude":76.3869,"temp":27.9,"humidity":44,"rain":0.0,"pressure":973.3,"uv_index":7.7,"wind_gusts":28.1,"aqi":154,"pm10":110.6,"pm2_5":70.5,"no2":31.4,"co":929.0,"o3":53.0,"so2":11.5,"mosquito_risk":4,"arthritis_risk":5,"migraine_risk":7,"frizz_risk":0,"updated_at":"2026-06-07T05:36:58.008163+05:30"},{"city":"Bhatinda","state":"Punjab","latitude":30.211,"longitude":74.9455,"temp":29.7,"humidity":49,"rain":0.0,"pressure":978.1,"uv_index":8.35,"wind_gusts":24.1,"aqi":151,"pm10":157.9,"pm2_5":73.6,"no2":49.4,"co":297.0,"o3":31.0,"so2":10.6,"mosquito_risk":4,"arthritis_risk":5,"migraine_risk":7,"frizz_risk":1,"updated_at":"2026-06-07T05:36:58.008170+05:30"},{"city":"Rohtak","state":"Haryana","latitude":28.8955,"longitude":76.6066,"temp":27.2,"humidity":63,"rain":0.0,"pressure":976.9,"uv_index":7.8,"wind_gusts":28.4,"aqi":165,"pm10":310.1,"pm2_5":101.3,"no2":64.2,"co":388.0,"o3":13.0,"so2":16.9,"mosquito_risk":7,"arthritis_risk":5,"migraine_risk":7,"frizz_risk":1,"updated_at":"2026-06-07T05:36:58.008177+05:30"},{"city":"Panipat","state":"Haryana","latitude":29.3909,"longitude":76.9635,"temp":27.2,"humidity":64,"rain":0.0,"pressure":975.4,"uv_index":7.65,"wind_gusts":32.8,"aqi":368,"pm10":242.1,"pm2_5":93.8,"no2":36.3,"co":489.0,"o3":26.0,"so2":6.9,"mosquito_risk":7,"arthritis_risk":5,"migraine_risk":7,"frizz_risk":1,"updated_at":"2026-06-07T05:36:58.008184+05:30"},{"city":"Mathura","state":"Uttar Pradesh","latitude":27.4924,"longitude":77.6737,"temp":26.8,"humidity":61,"rain":0.0,"pressure":982.0,"uv_index":8.1,"wind_gusts":25.6,"aqi":162,"pm10":225.8,"pm2_5":54.2,"no2":24.9,"co":382.0,"o3":30.0,"so2":3.9,"mosquito_risk":7,"arthritis_risk":5,"migraine_risk":7,"frizz_risk":1,"updated_at":"2026-06-07T05:36:58.008190+05:30"},{"city":"Vrindavan","state":"Uttar Pradesh","latitude":27.5823,"longitude":77.7027,"temp":26.8,"humidity":60,"rain":0.0,"pressure":982.5,"uv_index":8.05,"wind_gusts":29.5,"aqi":162,"pm10":225.8,"pm2_5":54.2,"no2":24.9,"co":360.0,"o3":30.0,"so2":3.9,"mosquito_risk":4,"arthritis_risk":5,"migraine_risk":7,"frizz_risk":1,"updated_at":"2026-06-07T05:36:58.008198+05:30"},{"city":"Ayodhya","state":"Uttar Pradesh","latitude":26.7922,"longitude":82.1998,"temp":27.4,"humidity":79,"rain":0.0,"pressure":991.8,"uv_index":8.4,"wind_gusts":25.2,"aqi":153,"pm10":63.3,"pm2_5":48.4,"no2":14.7,"co":758.0,"o3":77.0,"so2":7.4,"mosquito_risk":7,"arthritis_risk":5,"migraine_risk":7,"frizz_risk":1,"updated_at":"2026-06-07T05:36:58.008205+05:30"},{"city":"Ratlam","state":"Madhya Pradesh","latitude":23.3315,"longitude":75.0367,"temp":26.1,"humidity":84,"rain":0.0,"pressure":952.5,"uv_index":8.4,"wind_gusts":40.3,"aqi":87,"pm10":57.2,"pm2_5":31.0,"no2":8.3,"co":179.0,"o3":41.0,"so2":13.5,"mosquito_risk":7,"arthritis_risk":5,"migraine_risk":7,"frizz_risk":1,"updated_at":"2026-06-07T05:36:58.008212+05:30"},{"city":"Sagar","state":"Madhya Pradesh","latitude":23.8388,"longitude":78.7378,"temp":27.5,"humidity":59,"rain":0.0,"pressure":947.3,"uv_index":8.2,"wind_gusts":35.6,"aqi":76,"pm10":70.1,"pm2_5":37.4,"no2":5.8,"co":190.0,"o3":84.0,"so2":3.8,"mosquito_risk":4,"arthritis_risk":5,"migraine_risk":7,"frizz_risk":1,"updated_at":"2026-06-07T05:36:58.008219+05:30"},{"city":"Satna","state":"Madhya Pradesh","latitude":24.6005,"longitude":80.8322,"temp":28.0,"humidity":58,"rain":0.0,"pressure":967.5,"uv_index":8.8,"wind_gusts":36.7,"aqi":150,"pm10":113.6,"pm2_5":55.4,"no2":35.2,"co":244.0,"o3":26.0,"so2":6.0,"mosquito_risk":4,"arthritis_risk":5,"migraine_risk":7,"frizz_risk":1,"updated_at":"2026-06-07T05:36:58.008226+05:30"},{"city":"Akola","state":"Maharashtra","latitude":20.7002,"longitude":77.0082,"temp":26.0,"humidity":82,"rain":0.0,"pressure":973.0,"uv_index":8.8,"wind_gusts":40.3,"aqi":83,"pm10":43.2,"pm2_5":26.7,"no2":9.4,"co":207.0,"o3":65.0,"so2":5.8,"mosquito_risk":7,"arthritis_risk":5,"migraine_risk":7,"frizz_risk":1,"updated_at":"2026-06-07T05:36:58.008233+05:30"},{"city":"Amravati","state":"Maharashtra","latitude":20.9374,"longitude":77.7796,"temp":25.9,"humidity":80,"rain":0.0,"pressure":964.5,"uv_index":8.85,"wind_gusts":40.7,"aqi":88,"pm10":49.9,"pm2_5":29.2,"no2":7.9,"co":179.0,"o3":77.0,"so2":3.8,"mosquito_risk":7,"arthritis_risk":5,"migraine_risk":7,"frizz_risk":1,"updated_at":"2026-06-07T05:36:58.008242+05:30"},{"city":"Latur","state":"Maharashtra","latitude":18.4088,"longitude":76.5604,"temp":26.4,"humidity":72,"rain":0.0,"pressure":937.9,"uv_index":7.9,"wind_gusts":44.3,"aqi":77,"pm10":31.1,"pm2_5":23.1,"no2":9.8,"co":182.0,"o3":64.0,"so2":8.2,"mosquito_risk":7,"arthritis_risk":5,"migraine_risk":7,"frizz_risk":1,"updated_at":"2026-06-07T05:36:58.008249+05:30"},{"city":"Nanded","state":"Maharashtra","latitude":19.1383,"longitude":77.3091,"temp":30.0,"humidity":52,"rain":0.0,"pressure":966.5,"uv_index":8.9,"wind_gusts":42.8,"aqi":82,"pm10":45.5,"pm2_5":27.0,"no2":9.4,"co":157.0,"o3":72.0,"so2":3.0,"mosquito_risk":4,"arthritis_risk":5,"migraine_risk":7,"frizz_risk":1,"updated_at":"2026-06-07T05:36:58.008256+05:30"},{"city":"Gulbarga","state":"Karnataka","latitude":17.3297,"longitude":76.8343,"temp":26.8,"humidity":75,"rain":0.0,"pressure":957.2,"uv_index":6.9,"wind_gusts":35.6,"aqi":64,"pm10":16.1,"pm2_5":10.8,"no2":10.6,"co":159.0,"o3":42.0,"so2":2.7,"mosquito_risk":7,"arthritis_risk":5,"migraine_risk":7,"frizz_risk":1,"updated_at":"2026-06-07T05:36:58.008263+05:30"},{"city":"Bidar","state":"Karnataka","latitude":17.9104,"longitude":77.5199,"temp":26.6,"humidity":73,"rain":0.0,"pressure":933.4,"uv_index":7.15,"wind_gusts":34.6,"aqi":83,"pm10":18.5,"pm2_5":13.9,"no2":9.6,"co":185.0,"o3":60.0,"so2":2.3,"mosquito_risk":7,"arthritis_risk":5,"migraine_risk":7,"frizz_risk":1,"updated_at":"2026-06-07T05:36:58.008270+05:30"},{"city":"Hospet","state":"Karnataka","latitude":15.2689,"longitude":76.3909,"temp":23.8,"humidity":90,"rain":0.0,"pressure":955.3,"uv_index":5.0,"wind_gusts":53.6,"aqi":31,"pm10":4.7,"pm2_5":3.9,"no2":6.5,"co":146.0,"o3":50.0,"so2":1.5,"mosquito_risk":3,"arthritis_risk":5,"migraine_risk":3,"frizz_risk":1,"updated_at":"2026-06-07T05:36:58.008276+05:30"},{"city":"Tirupur","state":"Tamil Nadu","latitude":11.1085,"longitude":77.3411,"temp":25.2,"humidity":81,"rain":0.0,"pressure":975.0,"uv_index":8.2,"wind_gusts":61.9,"aqi":29,"pm10":8.1,"pm2_5":6.5,"no2":11.3,"co":105.0,"o3":25.0,"so2":3.8,"mosquito_risk":7,"arthritis_risk":5,"migraine_risk":7,"frizz_risk":1,"updated_at":"2026-06-07T05:36:58.008283+05:30"},{"city":"Alappuzha","state":"Kerala","latitude":9.4981,"longitude":76.3388,"temp":25.6,"humidity":94,"rain":0.0,"pressure":1010.2,"uv_index":7.15,"wind_gusts":47.9,"aqi":36,"pm10":9.0,"pm2_5":4.7,"no2":4.4,"co":85.0,"o3":40.0,"so2":0.9,"mosquito_risk":7,"arthritis_risk":0,"migraine_risk":4,"frizz_risk":1,"updated_at":"2026-06-07T05:36:58.008290+05:30"},{"city":"Munnar","state":"Kerala","latitude":10.0889,"longitude":77.0595,"temp":17.3,"humidity":100,"rain":0.6,"pressure":856.4,"uv_index":1.1,"wind_gusts":47.2,"aqi":16,"pm10":1.1,"pm2_5":1.1,"no2":4.5,"co":90.0,"o3":28.0,"so2":1.6,"mosquito_risk":6,"arthritis_risk":10,"migraine_risk":3,"frizz_risk":1,"updated_at":"2026-06-07T05:36:58.008297+05:30"},{"city":"Silchar","state":"Assam","latitude":24.8333,"longitude":92.7789,"temp":25.7,"humidity":95,"rain":0.1,"pressure":1002.3,"uv_index":8.25,"wind_gusts":24.1,"aqi":135,"pm10":46.9,"pm2_5":42.8,"no2":11.2,"co":278.0,"o3":71.0,"so2":3.7,"mosquito_risk":10,"arthritis_risk":5,"migraine_risk":4,"frizz_risk":1,"updated_at":"2026-06-07T05:36:58.008303+05:30"},{"city":"Dibrugarh","state":"Assam","latitude":27.4728,"longitude":94.912,"temp":25.2,"humidity":94,"rain":0.0,"pressure":992.0,"uv_index":8.3,"wind_gusts":22.7,"aqi":94,"pm10":16.8,"pm2_5":15.1,"no2":6.9,"co":300.0,"o3":73.0,"so2":0.8,"mosquito_risk":7,"arthritis_risk":5,"migraine_risk":7,"frizz_risk":1,"updated_at":"2026-06-07T05:36:58.008309+05:30"}]