[{"city":"Delhi","state":"Delhi","latitude":28.6139,"longitude":77.209,"temp":33.9,"humidity":22,"rain":0.0,"pressure":977.1,"uv_index":7.75,"wind_gusts":36.7,"aqi":490,"pm10":713.4,"pm2_5":158.8,"no2":29.2,"co":478.0,"o3":63.0,"so2":15.8,"mosquito_risk":0,"arthritis_risk":5,"migraine_risk":7,"frizz_risk":0,"updated_at":"2026-05-27T02:25:29.112960+05:30"},{"city":"Mumbai","state":"Maharashtra","latitude":19.076,"longitude":72.8777,"temp":30.4,"humidity":72,"rain":0.0,"pressure":1008.6,"uv_index":7.8,"wind_gusts":40.0,"aqi":42,"pm10":13.3,"pm2_5":9.0,"no2":5.9,"co":193.0,"o3":43.0,"so2":4.1,"mosquito_risk":3,"arthritis_risk":0,"migraine_risk":4,"frizz_risk":1,"updated_at":"2026-05-27T02:25:29.113002+05:30"},{"city":"Bangalore","state":"Karnataka","latitude":12.9716,"longitude":77.5946,"temp":22.0,"humidity":90,"rain":0.0,"pressure":911.3,"uv_index":9.25,"wind_gusts":30.6,"aqi":83,"pm10":34.7,"pm2_5":31.7,"no2":34.6,"co":516.0,"o3":45.0,"so2":8.5,"mosquito_risk":3,"arthritis_risk":5,"migraine_risk":7,"frizz_risk":1,"updated_at":"2026-05-27T02:25:29.113017+05:30"},{"city":"Hyderabad","state":"Telangana","latitude":17.385,"longitude":78.4867,"temp":30.0,"humidity":54,"rain":0.0,"pressure":952.0,"uv_index":8.85,"wind_gusts":40.3,"aqi":102,"pm10":35.6,"pm2_5":29.2,"no2":28.7,"co":324.0,"o3":61.0,"so2":11.3,"mosquito_risk":4,"arthritis_risk":5,"migraine_risk":7,"frizz_risk":1,"updated_at":"2026-05-27T02:25:29.113027+05:30"},{"city":"Chennai","state":"Tamil Nadu","latitude":13.0827,"longitude":80.2707,"temp":30.4,"humidity":54,"rain":0.0,"pressure":1004.5,"uv_index":8.55,"wind_gusts":36.0,"aqi":83,"pm10":26.1,"pm2_5":22.5,"no2":16.6,"co":221.0,"o3":66.0,"so2":12.4,"mosquito_risk":0,"arthritis_risk":5,"migraine_risk":4,"frizz_risk":1,"updated_at":"2026-05-27T02:25:29.113035+05:30"},{"city":"Kolkata","state":"West Bengal","latitude":22.5726,"longitude":88.3639,"temp":29.2,"humidity":87,"rain":0.0,"pressure":1002.4,"uv_index":8.9,"wind_gusts":38.9,"aqi":120,"pm10":44.7,"pm2_5":37.8,"no2":5.2,"co":260.0,"o3":90.0,"so2":5.2,"mosquito_risk":7,"arthritis_risk":5,"migraine_risk":4,"frizz_risk":1,"updated_at":"2026-05-27T02:25:29.113044+05:30"},{"city":"Pune","state":"Maharashtra","latitude":18.5204,"longitude":73.8567,"temp":24.7,"humidity":89,"rain":0.0,"pressure":948.4,"uv_index":8.4,"wind_gusts":41.0,"aqi":39,"pm10":10.8,"pm2_5":8.4,"no2":11.3,"co":158.0,"o3":39.0,"so2":10.7,"mosquito_risk":3,"arthritis_risk":5,"migraine_risk":7,"frizz_risk":1,"updated_at":"2026-05-27T02:25:29.113050+05:30"},{"city":"Ahmedabad","state":"Gujarat","latitude":23.0225,"longitude":72.5714,"temp":31.2,"humidity":59,"rain":0.0,"pressure":1000.4,"uv_index":8.15,"wind_gusts":36.0,"aqi":82,"pm10":37.3,"pm2_5":18.8,"no2":4.5,"co":155.0,"o3":58.0,"so2":4.1,"mosquito_risk":0,"arthritis_risk":5,"migraine_risk":4,"frizz_risk":1,"updated_at":"2026-05-27T02:25:29.113057+05:30"},{"city":"Jaipur","state":"Rajasthan","latitude":26.9124,"longitude":75.7873,"temp":33.5,"humidity":29,"rain":0.0,"pressure":955.5,"uv_index":8.25,"wind_gusts":48.2,"aqi":160,"pm10":373.5,"pm2_5":73.6,"no2":5.8,"co":173.0,"o3":78.0,"so2":4.7,"mosquito_risk":0,"arthritis_risk":5,"migraine_risk":7,"frizz_risk":0,"updated_at":"2026-05-27T02:25:29.113069+05:30"},{"city":"Lucknow","state":"Uttar Pradesh","latitude":26.8467,"longitude":80.9462,"temp":30.3,"humidity":38,"rain":0.0,"pressure":987.6,"uv_index":8.2,"wind_gusts":29.9,"aqi":172,"pm10":431.2,"pm2_5":103.1,"no2":29.1,"co":413.0,"o3":63.0,"so2":11.9,"mosquito_risk":0,"arthritis_risk":5,"migraine_risk":7,"frizz_risk":0,"updated_at":"2026-05-27T02:25:29.113076+05:30"},{"city":"Kanpur","state":"Uttar Pradesh","latitude":26.4499,"longitude":80.3319,"temp":32.7,"humidity":26,"rain":0.0,"pressure":985.8,"uv_index":8.2,"wind_gusts":36.0,"aqi":452,"pm10":653.8,"pm2_5":126.7,"no2":19.5,"co":473.0,"o3":73.0,"so2":9.5,"mosquito_risk":0,"arthritis_risk":5,"migraine_risk":7,"frizz_risk":0,"updated_at":"2026-05-27T02:25:29.113082+05:30"},{"city":"Chandigarh","state":"Chandigarh","latitude":30.7333,"longitude":76.7794,"temp":28.5,"humidity":23,"rain":0.0,"pressure":962.1,"uv_index":7.8,"wind_gusts":41.0,"aqi":60,"pm10":24.7,"pm2_5":20.7,"no2":23.7,"co":366.0,"o3":60.0,"so2":7.4,"mosquito_risk":4,"arthritis_risk":5,"migraine_risk":7,"frizz_risk":0,"updated_at":"2026-05-27T02:25:29.113089+05:30"},{"city":"Srinagar","state":"Jammu and Kashmir","latitude":34.0837,"longitude":74.7973,"temp":10.9,"humidity":92,"rain":0.0,"pressure":839.8,"uv_index":9.0,"wind_gusts":23.0,"aqi":70,"pm10":50.1,"pm2_5":44.6,"no2":32.3,"co":516.0,"o3":43.0,"so2":3.7,"mosquito_risk":3,"arthritis_risk":10,"migraine_risk":7,"frizz_risk":0,"updated_at":"2026-05-27T02:25:29.113096+05:30"},{"city":"Jammu","state":"Jammu and Kashmir","latitude":32.7266,"longitude":74.857,"temp":26.0,"humidity":34,"rain":0.0,"pressure":967.0,"uv_index":8.6,"wind_gusts":48.6,"aqi":65,"pm10":27.9,"pm2_5":24.2,"no2":32.8,"co":496.0,"o3":24.0,"so2":3.2,"mosquito_risk":4,"arthritis_risk":5,"migraine_risk":7,"frizz_risk":0,"updated_at":"2026-05-27T02:25:29.113104+05:30"},{"city":"Amritsar","state":"Punjab","latitude":31.634,"longitude":74.8723,"temp":28.7,"humidity":32,"rain":0.0,"pressure":975.5,"uv_index":8.45,"wind_gusts":31.3,"aqi":86,"pm10":74.3,"pm2_5":67.3,"no2":64.0,"co":529.0,"o3":18.0,"so2":12.2,"mosquito_risk":4,"arthritis_risk":5,"migraine_risk":7,"frizz_risk":0,"updated_at":"2026-05-27T02:25:29.113110+05:30"},{"city":"Ludhiana","state":"Punjab","latitude":30.901,"longitude":75.8573,"temp":29.7,"humidity":26,"rain":0.0,"pressure":973.0,"uv_index":8.05,"wind_gusts":38.9,"aqi":67,"pm10":35.4,"pm2_5":32.5,"no2":24.9,"co":527.0,"o3":54.0,"so2":7.3,"mosquito_risk":4,"arthritis_risk":5,"migraine_risk":7,"frizz_risk":0,"updated_at":"2026-05-27T02:25:29.113116+05:30"},{"city":"Jalandhar","state":"Punjab","latitude":31.326,"longitude":75.5762,"temp":28.8,"humidity":27,"rain":0.0,"pressure":974.1,"uv_index":8.25,"wind_gusts":36.4,"aqi":78,"pm10":56.1,"pm2_5":46.1,"no2":37.7,"co":457.0,"o3":50.0,"so2":8.7,"mosquito_risk":4,"arthritis_risk":5,"migraine_risk":7,"frizz_risk":0,"updated_at":"2026-05-27T02:25:29.113123+05:30"},{"city":"Dehradun","state":"Uttarakhand","latitude":30.6284,"longitude":78.0322,"temp":13.7,"humidity":52,"rain":0.0,"pressure":824.3,"uv_index":8.2,"wind_gusts":41.8,"aqi":54,"pm10":20.2,"pm2_5":14.3,"no2":30.7,"co":180.0,"o3":34.0,"so2":0.8,"mosquito_risk":0,"arthritis_risk":5,"migraine_risk":7,"frizz_risk":0,"updated_at":"2026-05-27T02:25:29.113129+05:30"},{"city":"Shimla","state":"Himachal Pradesh","latitude":31.1048,"longitude":77.1734,"temp":13.7,"humidity":35,"rain":0.0,"pressure":780.2,"uv_index":8.3,"wind_gusts":54.7,"aqi":68,"pm10":25.6,"pm2_5":14.6,"no2":19.4,"co":179.0,"o3":89.0,"so2":1.9,"mosquito_risk":0,"arthritis_risk":5,"migraine_risk":7,"frizz_risk":1,"updated_at":"2026-05-27T02:25:29.113142+05:30"},{"city":"Manali","state":"Himachal Pradesh","latitude":32.2396,"longitude":77.1887,"temp":10.2,"humidity":45,"rain":0.0,"pressure":812.8,"uv_index":9.65,"wind_gusts":50.0,"aqi":62,"pm10":16.1,"pm2_5":13.1,"no2":47.5,"co":231.0,"o3":82.0,"so2":0.1,"mosquito_risk":0,"arthritis_risk":5,"migraine_risk":7,"frizz_risk":1,"updated_at":"2026-05-27T02:25:29.113148+05:30"},{"city":"Gurgaon","state":"Haryana","latitude":28.4595,"longitude":77.0266,"temp":30.7,"humidity":32,"rain":0.0,"pressure":975.4,"uv_index":7.85,"wind_gusts":36.4,"aqi":969,"pm10":601.6,"pm2_5":130.4,"no2":49.8,"co":502.0,"o3":44.0,"so2":25.2,"mosquito_risk":0,"arthritis_risk":5,"migraine_risk":7,"frizz_risk":0,"updated_at":"2026-05-27T02:25:29.113154+05:30"},{"city":"Noida","state":"Uttar Pradesh","latitude":28.5355,"longitude":77.391,"temp":32.3,"humidity":27,"rain":0.0,"pressure":978.3,"uv_index":7.75,"wind_gusts":30.2,"aqi":969,"pm10":601.6,"pm2_5":130.4,"no2":49.8,"co":571.0,"o3":44.0,"so2":25.2,"mosquito_risk":0,"arthritis_risk":5,"migraine_risk":7,"frizz_risk":0,"updated_at":"2026-05-27T02:25:29.113161+05:30"},{"city":"Ghaziabad","state":"Uttar Pradesh","latitude":28.6692,"longitude":77.4538,"temp":30.9,"humidity":30,"rain":0.0,"pressure":976.6,"uv_index":7.75,"wind_gusts":35.3,"aqi":332,"pm10":555.1,"pm2_5":131.3,"no2":20.3,"co":378.0,"o3":74.0,"so2":13.1,"mosquito_risk":0,"arthritis_risk":5,"migraine_risk":7,"frizz_risk":0,"updated_at":"2026-05-27T02:25:29.113167+05:30"},{"city":"Faridabad","state":"Haryana","latitude":28.4089,"longitude":77.3178,"temp":33.5,"humidity":21,"rain":0.0,"pressure":977.7,"uv_index":7.8,"wind_gusts":38.5,"aqi":969,"pm10":601.6,"pm2_5":130.4,"no2":49.8,"co":824.0,"o3":44.0,"so2":25.2,"mosquito_risk":0,"arthritis_risk":5,"migraine_risk":7,"frizz_risk":0,"updated_at":"2026-05-27T02:25:29.113174+05:30"},{"city":"Meerut","state":"Uttar Pradesh","latitude":28.9845,"longitude":77.7064,"temp":31.6,"humidity":21,"rain":0.0,"pressure":975.1,"uv_index":7.7,"wind_gusts":27.4,"aqi":332,"pm10":555.1,"pm2_5":131.3,"no2":20.3,"co":307.0,"o3":74.0,"so2":13.1,"mosquito_risk":0,"arthritis_risk":5,"migraine_risk":7,"frizz_risk":0,"updated_at":"2026-05-27T02:25:29.113180+05:30"},{"city":"Agra","state":"Uttar Pradesh","latitude":27.1767,"longitude":78.0081,"temp":32.4,"humidity":32,"rain":0.0,"pressure":982.1,"uv_index":8.1,"wind_gusts":37.1,"aqi":861,"pm10":290.6,"pm2_5":103.4,"no2":58.8,"co":557.0,"o3":25.0,"so2":20.7,"mosquito_risk":0,"arthritis_risk":5,"migraine_risk":7,"frizz_risk":0,"updated_at":"2026-05-27T02:25:29.113186+05:30"},{"city":"Varanasi","state":"Uttar Pradesh","latitude":25.3176,"longitude":82.9739,"temp":30.5,"humidity":62,"rain":0.0,"pressure":992.2,"uv_index":8.7,"wind_gusts":36.0,"aqi":144,"pm10":59.6,"pm2_5":49.6,"no2":19.6,"co":462.0,"o3":89.0,"so2":18.4,"mosquito_risk":3,"arthritis_risk":5,"migraine_risk":7,"frizz_risk":1,"updated_at":"2026-05-27T02:25:29.113193+05:30"},{"city":"Prayagraj","state":"Uttar Pradesh","latitude":25.4358,"longitude":81.8463,"temp":31.1,"humidity":47,"rain":0.0,"pressure":990.4,"uv_index":8.55,"wind_gusts":52.6,"aqi":151,"pm10":126.7,"pm2_5":62.6,"no2":35.1,"co":513.0,"o3":62.0,"so2":15.7,"mosquito_risk":0,"arthritis_risk":5,"migraine_risk":7,"frizz_risk":1,"updated_at":"2026-05-27T02:25:29.113199+05:30"},{"city":"Gorakhpur","state":"Uttar Pradesh","latitude":26.7606,"longitude":83.3732,"temp":25.0,"humidity":77,"rain":0.0,"pressure":993.7,"uv_index":8.55,"wind_gusts":37.4,"aqi":110,"pm10":55.4,"pm2_5":36.6,"no2":14.4,"co":352.0,"o3":89.0,"so2":6.7,"mosquito_risk":7,"arthritis_risk":5,"migraine_risk":7,"frizz_risk":1,"updated_at":"2026-05-27T02:25:29.113227+05:30"},{"city":"Bareilly","state":"Uttar Pradesh","latitude":28.367,"longitude":79.4304,"temp":28.3,"humidity":36,"rain":0.0,"pressure":980.4,"uv_index":8.0,"wind_gusts":31.3,"aqi":151,"pm10":221.2,"pm2_5":69.4,"no2":33.2,"co":394.0,"o3":53.0,"so2":12.0,"mosquito_risk":4,"arthritis_risk":5,"migraine_risk":7,"frizz_risk":0,"updated_at":"2026-05-27T02:25:29.113236+05:30"},{"city":"Aligarh","state":"Uttar Pradesh","latitude":27.8974,"longitude":78.088,"temp":30.6,"humidity":31,"rain":0.0,"pressure":979.6,"uv_index":7.9,"wind_gusts":33.8,"aqi":675,"pm10":447.0,"pm2_5":118.5,"no2":51.5,"co":483.0,"o3":25.0,"so2":14.2,"mosquito_risk":0,"arthritis_risk":5,"migraine_risk":7,"frizz_risk":0,"updated_at":"2026-05-27T02:25:29.113243+05:30"},{"city":"Moradabad","state":"Uttar Pradesh","latitude":28.8386,"longitude":78.7733,"temp":29.9,"humidity":24,"rain":0.0,"pressure":977.2,"uv_index":7.85,"wind_gusts":33.1,"aqi":157,"pm10":272.9,"pm2_5":80.1,"no2":24.0,"co":353.0,"o3":59.0,"so2":9.5,"mosquito_risk":4,"arthritis_risk":5,"migraine_risk":7,"frizz_risk":0,"updated_at":"2026-05-27T02:25:29.113250+05:30"},{"city":"Saharanpur","state":"Uttar Pradesh","latitude":29.9637,"longitude":77.546,"temp":30.1,"humidity":19,"rain":0.0,"pressure":968.9,"uv_index":7.5,"wind_gusts":35.3,"aqi":90,"pm10":30.5,"pm2_5":18.6,"no2":13.5,"co":230.0,"o3":82.0,"so2":8.4,"mosquito_risk":0,"arthritis_risk":5,"migraine_risk":7,"frizz_risk":0,"updated_at":"2026-05-27T02:25:29.113256+05:30"},{"city":"Jhansi","state":"Uttar Pradesh","latitude":25.4484,"longitude":78.5685,"temp":32.7,"humidity":27,"rain":0.0,"pressure":973.3,"uv_index":8.45,"wind_gusts":52.6,"aqi":85,"pm10":65.4,"pm2_5":36.7,"no2":16.3,"co":214.0,"o3":44.0,"so2":5.2,"mosquito_risk":0,"arthritis_risk":5,"migraine_risk":7,"frizz_risk":0,"updated_at":"2026-05-27T02:25:32.395930+05:30"},{"city":"Surat","state":"Gujarat","latitude":21.1702,"longitude":72.8311,"temp":29.3,"humidity":80,"rain":0.0,"pressure":1006.3,"uv_index":7.7,"wind_gusts":45.7,"aqi":66,"pm10":44.6,"pm2_5":22.1,"no2":16.4,"co":222.0,"o3":37.0,"so2":28.0,"mosquito_risk":7,"arthritis_risk":5,"migraine_risk":4,"frizz_risk":1,"updated_at":"2026-05-27T02:25:32.395964+05:30"},{"city":"Vadodara","state":"Gujarat","latitude":22.3072,"longitude":73.1812,"temp":29.9,"humidity":77,"rain":0.0,"pressure":1003.0,"uv_index":8.05,"wind_gusts":40.7,"aqi":70,"pm10":32.7,"pm2_5":19.3,"no2":16.3,"co":217.0,"o3":32.0,"so2":18.0,"mosquito_risk":7,"arthritis_risk":5,"migraine_risk":4,"frizz_risk":1,"updated_at":"2026-05-27T02:25:32.395976+05:30"},{"city":"Rajkot","state":"Gujarat","latitude":22.3039,"longitude":70.8022,"temp":28.1,"humidity":78,"rain":0.0,"pressure":993.2,"uv_index":7.75,"wind_gusts":47.5,"aqi":69,"pm10":40.0,"pm2_5":18.7,"no2":5.0,"co":119.0,"o3":44.0,"so2":5.5,"mosquito_risk":7,"arthritis_risk":5,"migraine_risk":7,"frizz_risk":1,"updated_at":"2026-05-27T02:25:32.395986+05:30"},{"city":"Thane","state":"Maharashtra","latitude":19.2183,"longitude":72.9781,"temp":29.1,"humidity":82,"rain":0.0,"pressure":1008.0,"uv_index":7.85,"wind_gusts":38.2,"aqi":42,"pm10":13.3,"pm2_5":9.0,"no2":5.9,"co":350.0,"o3":43.0,"so2":4.1,"mosquito_risk":7,"arthritis_risk":0,"migraine_risk":4,"frizz_risk":1,"updated_at":"2026-05-27T02:25:32.395996+05:30"},{"city":"Nagpur","state":"Maharashtra","latitude":21.1458,"longitude":79.0882,"temp":34.7,"humidity":34,"rain":0.0,"pressure":969.4,"uv_index":8.9,"wind_gusts":44.3,"aqi":79,"pm10":42.3,"pm2_5":27.5,"no2":11.7,"co":294.0,"o3":70.0,"so2":7.4,"mosquito_risk":0,"arthritis_risk":5,"migraine_risk":7,"frizz_risk":1,"updated_at":"2026-05-27T02:25:32.396005+05:30"},{"city":"Nashik","state":"Maharashtra","latitude":19.9975,"longitude":73.7898,"temp":24.5,"humidity":90,"rain":0.0,"pressure":945.6,"uv_index":8.15,"wind_gusts":40.0,"aqi":25,"pm10":7.8,"pm2_5":5.9,"no2":6.5,"co":134.0,"o3":35.0,"so2":2.6,"mosquito_risk":3,"arthritis_risk":5,"migraine_risk":7,"frizz_risk":1,"updated_at":"2026-05-27T02:25:32.396014+05:30"},{"city":"Aurangabad","state":"Maharashtra","latitude":19.8762,"longitude":75.3433,"temp":28.5,"humidity":67,"rain":0.0,"pressure":943.7,"uv_index":9.0,"wind_gusts":41.0,"aqi":42,"pm10":9.4,"pm2_5":7.1,"no2":7.5,"co":156.0,"o3":46.0,"so2":5.3,"mosquito_risk":7,"arthritis_risk":5,"migraine_risk":7,"frizz_risk":1,"updated_at":"2026-05-27T02:25:32.396023+05:30"},{"city":"Solapur","state":"Maharashtra","latitude":17.6599,"longitude":75.9064,"temp":29.6,"humidity":61,"rain":0.0,"pressure":957.0,"uv_index":8.95,"wind_gusts":38.9,"aqi":51,"pm10":13.9,"pm2_5":11.7,"no2":10.5,"co":237.0,"o3":47.0,"so2":2.9,"mosquito_risk":7,"arthritis_risk":5,"migraine_risk":7,"frizz_risk":1,"updated_at":"2026-05-27T02:25:32.396033+05:30"},{"city":"Kolhapur","state":"Maharashtra","latitude":16.705,"longitude":74.2433,"temp":24.5,"humidity":91,"rain":0.0,"pressure":948.5,"uv_index":8.8,"wind_gusts":41.8,"aqi":30,"pm10":8.1,"pm2_5":6.5,"no2":6.4,"co":150.0,"o3":39.0,"so2":2.6,"mosquito_risk":3,"arthritis_risk":5,"migraine_risk":7,"frizz_risk":1,"updated_at":"2026-05-27T02:25:32.396041+05:30"},{"city":"Goa","state":"Goa","latitude":15.2993,"longitude":74.124,"temp":26.9,"humidity":97,"rain":0.1,"pressure":999.1,"uv_index":5.85,"wind_gusts":29.2,"aqi":44,"pm10":21.7,"pm2_5":19.6,"no2":11.4,"co":409.0,"o3":35.0,"so2":2.3,"mosquito_risk":10,"arthritis_risk":5,"migraine_risk":3,"frizz_risk":1,"updated_at":"2026-05-27T02:25:32.396050+05:30"},{"city":"Jodhpur","state":"Rajasthan","latitude":26.2389,"longitude":73.0243,"temp":33.6,"humidity":40,"rain":0.0,"pressure":979.0,"uv_index":8.4,"wind_gusts":43.2,"aqi":163,"pm10":207.7,"pm2_5":47.5,"no2":5.0,"co":146.0,"o3":62.0,"so2":2.9,"mosquito_risk":0,"arthritis_risk":5,"migraine_risk":7,"frizz_risk":1,"updated_at":"2026-05-27T02:25:32.396059+05:30"},{"city":"Udaipur","state":"Rajasthan","latitude":24.5854,"longitude":73.7125,"temp":29.9,"humidity":53,"rain":0.0,"pressure":944.5,"uv_index":8.85,"wind_gusts":43.2,"aqi":90,"pm10":45.6,"pm2_5":21.8,"no2":3.6,"co":148.0,"o3":72.0,"so2":2.9,"mosquito_risk":4,"arthritis_risk":5,"migraine_risk":7,"frizz_risk":1,"updated_at":"2026-05-27T02:25:32.396068+05:30"},{"city":"Kota","state":"Rajasthan","latitude":25.2138,"longitude":75.8648,"temp":34.3,"humidity":27,"rain":0.0,"pressure":975.1,"uv_index":8.4,"wind_gusts":44.3,"aqi":97,"pm10":61.5,"pm2_5":32.8,"no2":5.7,"co":173.0,"o3":72.0,"so2":6.5,"mosquito_risk":0,"arthritis_risk":5,"migraine_risk":7,"frizz_risk":0,"updated_at":"2026-05-27T02:25:32.396076+05:30"},{"city":"Bikaner","state":"Rajasthan","latitude":28.0229,"longitude":73.3119,"temp":32.0,"humidity":27,"rain":0.0,"pressure":976.8,"uv_index":8.4,"wind_gusts":41.8,"aqi":155,"pm10":204.9,"pm2_5":67.5,"no2":3.4,"co":138.0,"o3":63.0,"so2":2.3,"mosquito_risk":0,"arthritis_risk":5,"migraine_risk":7,"frizz_risk":0,"updated_at":"2026-05-27T02:25:32.396085+05:30"},{"city":"Ajmer","state":"Rajasthan","latitude":26.4499,"longitude":74.6399,"temp":31.4,"humidity":38,"rain":0.0,"pressure":951.2,"uv_index":8.4,"wind_gusts":58.0,"aqi":93,"pm10":108.0,"pm2_5":32.1,"no2":4.7,"co":174.0,"o3":81.0,"so2":4.6,"mosquito_risk":0,"arthritis_risk":5,"migraine_risk":7,"frizz_risk":0,"updated_at":"2026-05-27T02:25:32.396094+05:30"},{"city":"Gwalior","state":"Madhya Pradesh","latitude":26.2183,"longitude":78.1828,"temp":33.0,"humidity":26,"rain":0.0,"pressure":977.8,"uv_index":8.25,"wind_gusts":54.7,"aqi":106,"pm10":97.1,"pm2_5":40.9,"no2":13.5,"co":213.0,"o3":59.0,"so2":6.7,"mosquito_risk":0,"arthritis_risk":5,"migraine_risk":7,"frizz_risk":0,"updated_at":"2026-05-27T02:25:32.396102+05:30"},{"city":"Indore","state":"Madhya Pradesh","latitude":22.7196,"longitude":75.8577,"temp":30.1,"humidity":42,"rain":0.0,"pressure":946.8,"uv_index":8.65,"wind_gusts":47.9,"aqi":71,"pm10":40.5,"pm2_5":26.0,"no2":5.2,"co":241.0,"o3":89.0,"so2":8.3,"mosquito_risk":0,"arthritis_risk":5,"migraine_risk":7,"frizz_risk":0,"updated_at":"2026-05-27T02:25:32.396110+05:30"},{"city":"Bhopal","state":"Madhya Pradesh","latitude":23.2599,"longitude":77.4126,"temp":32.7,"humidity":33,"rain":0.0,"pressure":950.9,"uv_index":8.65,"wind_gusts":42.8,"aqi":69,"pm10":40.5,"pm2_5":25.1,"no2":4.7,"co":204.0,"o3":74.0,"so2":4.9,"mosquito_risk":0,"arthritis_risk":5,"migraine_risk":7,"frizz_risk":0,"updated_at":"2026-05-27T02:25:32.396119+05:30"},{"city":"Jabalpur","state":"Madhya Pradesh","latitude":23.1815,"longitude":79.9864,"temp":31.5,"humidity":28,"rain":0.0,"pressure":957.2,"uv_index":8.85,"wind_gusts":40.0,"aqi":80,"pm10":65.9,"pm2_5":35.6,"no2":20.6,"co":271.0,"o3":51.0,"so2":5.6,"mosquito_risk":0,"arthritis_risk":5,"migraine_risk":7,"frizz_risk":0,"updated_at":"2026-05-27T02:25:32.396127+05:30"},{"city":"Ujjain","state":"Madhya Pradesh","latitude":23.1765,"longitude":75.7885,"temp":30.7,"humidity":40,"rain":0.0,"pressure":952.3,"uv_index":8.6,"wind_gusts":49.3,"aqi":74,"pm10":41.0,"pm2_5":26.2,"no2":4.6,"co":238.0,"o3":84.0,"so2":9.2,"mosquito_risk":0,"arthritis_risk":5,"migraine_risk":7,"frizz_risk":0,"updated_at":"2026-05-27T02:25:32.396136+05:30"},{"city":"Visakhapatnam","state":"Andhra Pradesh","latitude":17.6868,"longitude":83.2185,"temp":30.8,"humidity":82,"rain":0.0,"pressure":999.3,"uv_index":9.05,"wind_gusts":31.7,"aqi":131,"pm10":51.2,"pm2_5":40.2,"no2":36.4,"co":308.0,"o3":96.0,"so2":50.6,"mosquito_risk":3,"arthritis_risk":5,"migraine_risk":7,"frizz_risk":1,"updated_at":"2026-05-27T02:25:32.396144+05:30"},{"city":"Vijayawada","state":"Andhra Pradesh","latitude":16.5062,"longitude":80.648,"temp":32.0,"humidity":55,"rain":0.0,"pressure":999.1,"uv_index":9.05,"wind_gusts":39.2,"aqi":142,"pm10":40.3,"pm2_5":35.3,"no2":14.3,"co":274.0,"o3":79.0,"so2":5.9,"mosquito_risk":0,"arthritis_risk":5,"migraine_risk":7,"frizz_risk":1,"updated_at":"2026-05-27T02:25:32.396153+05:30"},{"city":"Guntur","state":"Andhra Pradesh","latitude":16.3067,"longitude":80.4365,"temp":31.5,"humidity":55,"rain":0.0,"pressure":1000.2,"uv_index":9.05,"wind_gusts":40.3,"aqi":135,"pm10":41.4,"pm2_5":35.6,"no2":13.8,"co":250.0,"o3":76.0,"so2":5.3,"mosquito_risk":0,"arthritis_risk":5,"migraine_risk":4,"frizz_risk":1,"updated_at":"2026-05-27T02:25:32.396162+05:30"},{"city":"Nellore","state":"Andhra Pradesh","latitude":14.4426,"longitude":79.9865,"temp":30.4,"humidity":58,"rain":0.0,"pressure":1002.6,"uv_index":9.05,"wind_gusts":56.2,"aqi":94,"pm10":20.6,"pm2_5":17.3,"no2":6.1,"co":239.0,"o3":95.0,"so2":5.5,"mosquito_risk":0,"arthritis_risk":5,"migraine_risk":4,"frizz_risk":1,"updated_at":"2026-05-27T02:25:32.396171+05:30"},{"city":"Kurnool","state":"Andhra Pradesh","latitude":15.8281,"longitude":78.0373,"temp":29.5,"humidity":59,"rain":0.0,"pressure":975.9,"uv_index":8.75,"wind_gusts":40.3,"aqi":58,"pm10":14.1,"pm2_5":12.5,"no2":10.4,"co":187.0,"o3":70.0,"so2":4.1,"mosquito_risk":4,"arthritis_risk":5,"migraine_risk":7,"frizz_risk":1,"updated_at":"2026-05-27T02:25:32.396181+05:30"},{"city":"Kakinada","state":"Andhra Pradesh","latitude":16.9891,"longitude":82.2475,"temp":31.1,"humidity":74,"rain":0.0,"pressure":1003.6,"uv_index":9.0,"wind_gusts":40.3,"aqi":110,"pm10":39.9,"pm2_5":30.5,"no2":5.6,"co":280.0,"o3":129.0,"so2":4.7,"mosquito_risk":3,"arthritis_risk":5,"migraine_risk":4,"frizz_risk":1,"updated_at":"2026-05-27T02:25:32.396190+05:30"},{"city":"Tirupati","state":"Andhra Pradesh","latitude":13.6288,"longitude":79.4192,"temp":28.5,"humidity":59,"rain":0.0,"pressure":988.5,"uv_index":9.05,"wind_gusts":27.7,"aqi":81,"pm10":24.7,"pm2_5":21.7,"no2":17.4,"co":198.0,"o3":55.0,"so2":3.1,"mosquito_risk":4,"arthritis_risk":5,"migraine_risk":7,"frizz_risk":1,"updated_at":"2026-05-27T02:25:32.396198+05:30"},{"city":"Warangal","state":"Telangana","latitude":17.9689,"longitude":79.5941,"temp":32.1,"humidity":45,"rain":0.0,"pressure":976.0,"uv_index":9.05,"wind_gusts":43.6,"aqi":117,"pm10":69.4,"pm2_5":51.9,"no2":23.4,"co":326.0,"o3":45.0,"so2":5.0,"mosquito_risk":0,"arthritis_risk":5,"migraine_risk":7,"frizz_risk":1,"updated_at":"2026-05-27T02:25:32.396206+05:30"},{"city":"Nizamabad","state":"Telangana","latitude":18.6725,"longitude":78.0941,"temp":28.1,"humidity":65,"rain":0.0,"pressure":963.6,"uv_index":9.0,"wind_gusts":35.6,"aqi":93,"pm10":63.6,"pm2_5":39.5,"no2":17.5,"co":315.0,"o3":60.0,"so2":6.4,"mosquito_risk":7,"arthritis_risk":5,"migraine_risk":7,"frizz_risk":1,"updated_at":"2026-05-27T02:25:32.396239+05:30"},{"city":"Mysore","state":"Karnataka","latitude":12.2958,"longitude":76.6396,"temp":22.6,"humidity":91,"rain":0.0,"pressure":928.3,"uv_index":9.15,"wind_gusts":43.6,"aqi":57,"pm10":13.6,"pm2_5":12.7,"no2":14.3,"co":200.0,"o3":49.0,"so2":3.1,"mosquito_risk":3,"arthritis_risk":5,"migraine_risk":7,"frizz_risk":1,"updated_at":"2026-05-27T02:25:32.396247+05:30"},{"city":"Mangalore","state":"Karnataka","latitude":12.9141,"longitude":74.856,"temp":25.9,"humidity":97,"rain":0.0,"pressure":1007.8,"uv_index":7.4,"wind_gusts":28.8,"aqi":59,"pm10":15.7,"pm2_5":13.1,"no2":11.3,"co":361.0,"o3":38.0,"so2":3.9,"mosquito_risk":7,"arthritis_risk":5,"migraine_risk":4,"frizz_risk":1,"updated_at":"2026-05-27T02:25:32.396254+05:30"},{"city":"Hubli-Dharwad","state":"Karnataka","latitude":15.3647,"longitude":75.124,"temp":24.1,"humidity":96,"rain":0.0,"pressure":941.5,"uv_index":7.55,"wind_gusts":39.6,"aqi":27,"pm10":5.1,"pm2_5":4.3,"no2":4.8,"co":164.0,"o3":45.0,"so2":1.2,"mosquito_risk":3,"arthritis_risk":5,"migraine_risk":7,"frizz_risk":1,"updated_at":"2026-05-27T02:25:32.396261+05:30"},{"city":"Belgaum","state":"Karnataka","latitude":15.8497,"longitude":74.4977,"temp":23.7,"humidity":94,"rain":0.0,"pressure":926.6,"uv_index":9.0,"wind_gusts":37.4,"aqi":25,"pm10":7.5,"pm2_5":6.0,"no2":5.3,"co":136.0,"o3":43.0,"so2":1.5,"mosquito_risk":3,"arthritis_risk":5,"migraine_risk":7,"frizz_risk":1,"updated_at":"2026-05-27T02:25:35.669830+05:30"},{"city":"Coimbatore","state":"Tamil Nadu","latitude":11.0168,"longitude":76.9558,"temp":24.9,"humidity":87,"rain":0.0,"pressure":961.5,"uv_index":8.4,"wind_gusts":53.3,"aqi":43,"pm10":7.6,"pm2_5":6.4,"no2":6.1,"co":169.0,"o3":55.0,"so2":3.5,"mosquito_risk":3,"arthritis_risk":5,"migraine_risk":7,"frizz_risk":1,"updated_at":"2026-05-27T02:25:35.669858+05:30"},{"city":"Madurai","state":"Tamil Nadu","latitude":9.9252,"longitude":78.1198,"temp":28.1,"humidity":71,"rain":0.0,"pressure":992.3,"uv_index":8.55,"wind_gusts":26.6,"aqi":101,"pm10":50.1,"pm2_5":44.5,"no2":37.6,"co":242.0,"o3":17.0,"so2":6.9,"mosquito_risk":7,"arthritis_risk":5,"migraine_risk":7,"frizz_risk":1,"updated_at":"2026-05-27T02:25:35.669870+05:30"},{"city":"Trichy","state":"Tamil Nadu","latitude":10.7905,"longitude":78.7047,"temp":29.1,"humidity":66,"rain":0.0,"pressure":998.7,"uv_index":8.3,"wind_gusts":42.8,"aqi":62,"pm10":24.2,"pm2_5":21.7,"no2":18.5,"co":236.0,"o3":47.0,"so2":5.2,"mosquito_risk":7,"arthritis_risk":5,"migraine_risk":7,"frizz_risk":1,"updated_at":"2026-05-27T02:25:35.669879+05:30"},{"city":"Salem","state":"Tamil Nadu","latitude":11.6643,"longitude":78.146,"temp":28.5,"humidity":67,"rain":0.0,"pressure":977.1,"uv_index":8.4,"wind_gusts":35.3,"aqi":76,"pm10":27.8,"pm2_5":23.8,"no2":24.2,"co":273.0,"o3":45.0,"so2":8.3,"mosquito_risk":7,"arthritis_risk":5,"migraine_risk":7,"frizz_risk":1,"updated_at":"2026-05-27T02:25:35.669887+05:30"},{"city":"Tirunelveli","state":"Tamil Nadu","latitude":8.7139,"longitude":77.7567,"temp":29.3,"humidity":65,"rain":0.0,"pressure":1003.1,"uv_index":8.85,"wind_gusts":29.9,"aqi":30,"pm10":9.5,"pm2_5":8.0,"no2":8.6,"co":177.0,"o3":40.0,"so2":2.3,"mosquito_risk":7,"arthritis_risk":5,"migraine_risk":4,"frizz_risk":1,"updated_at":"2026-05-27T02:25:35.669895+05:30"},{"city":"Vellore","state":"Tamil Nadu","latitude":12.9165,"longitude":79.1325,"temp":27.6,"humidity":64,"rain":0.0,"pressure":982.7,"uv_index":8.55,"wind_gusts":36.0,"aqi":97,"pm10":33.8,"pm2_5":31.3,"no2":18.6,"co":254.0,"o3":48.0,"so2":5.2,"mosquito_risk":7,"arthritis_risk":5,"migraine_risk":7,"frizz_risk":1,"updated_at":"2026-05-27T02:25:35.669902+05:30"},{"city":"Erode","state":"Tamil Nadu","latitude":11.341,"longitude":77.7172,"temp":28.1,"humidity":73,"rain":0.0,"pressure":988.7,"uv_index":8.95,"wind_gusts":46.1,"aqi":57,"pm10":13.9,"pm2_5":12.8,"no2":18.3,"co":213.0,"o3":39.0,"so2":4.6,"mosquito_risk":7,"arthritis_risk":5,"migraine_risk":7,"frizz_risk":1,"updated_at":"2026-05-27T02:25:35.669910+05:30"},{"city":"Kochi","state":"Kerala","latitude":9.9312,"longitude":76.2673,"temp":25.9,"humidity":98,"rain":0.0,"pressure":1009.9,"uv_index":7.95,"wind_gusts":29.5,"aqi":57,"pm10":22.1,"pm2_5":20.5,"no2":25.1,"co":270.0,"o3":13.0,"so2":6.0,"mosquito_risk":7,"arthritis_risk":0,"migraine_risk":4,"frizz_risk":1,"updated_at":"2026-05-27T02:25:35.669917+05:30"},{"city":"Thiruvananthapuram","state":"Kerala","latitude":8.5241,"longitude":76.9366,"temp":24.2,"humidity":98,"rain":0.0,"pressure":1009.5,"uv_index":7.8,"wind_gusts":34.2,"aqi":29,"pm10":7.4,"pm2_5":4.3,"no2":2.1,"co":345.0,"o3":55.0,"so2":0.7,"mosquito_risk":3,"arthritis_risk":0,"migraine_risk":4,"frizz_risk":1,"updated_at":"2026-05-27T02:25:35.669924+05:30"},{"city":"Kozhikode","state":"Kerala","latitude":11.2588,"longitude":75.7804,"temp":25.5,"humidity":100,"rain":0.0,"pressure":1009.1,"uv_index":6.8,"wind_gusts":29.5,"aqi":29,"pm10":8.8,"pm2_5":6.0,"no2":2.4,"co":497.0,"o3":60.0,"so2":1.2,"mosquito_risk":7,"arthritis_risk":0,"migraine_risk":4,"frizz_risk":1,"updated_at":"2026-05-27T02:25:35.669931+05:30"},{"city":"Thrissur","state":"Kerala","latitude":10.5276,"longitude":76.2144,"temp":25.2,"humidity":96,"rain":0.0,"pressure":1008.3,"uv_index":7.95,"wind_gusts":30.2,"aqi":55,"pm10":19.2,"pm2_5":17.8,"no2":18.9,"co":265.0,"o3":22.0,"so2":5.9,"mosquito_risk":7,"arthritis_risk":0,"migraine_risk":4,"frizz_risk":1,"updated_at":"2026-05-27T02:25:35.669940+05:30"},{"city":"Kannur","state":"Kerala","latitude":11.8745,"longitude":75.3704,"temp":26.0,"humidity":96,"rain":0.0,"pressure":1008.2,"uv_index":8.15,"wind_gusts":31.0,"aqi":64,"pm10":19.7,"pm2_5":17.8,"no2":19.5,"co":219.0,"o3":24.0,"so2":3.8,"mosquito_risk":7,"arthritis_risk":0,"migraine_risk":4,"frizz_risk":1,"updated_at":"2026-05-27T02:25:35.669947+05:30"},{"city":"Patna","state":"Bihar","latitude":25.5941,"longitude":85.1376,"temp":25.8,"humidity":80,"rain":0.0,"pressure":996.3,"uv_index":8.75,"wind_gusts":44.3,"aqi":101,"pm10":47.4,"pm2_5":39.1,"no2":16.5,"co":409.0,"o3":81.0,"so2":15.7,"mosquito_risk":7,"arthritis_risk":5,"migraine_risk":7,"frizz_risk":1,"updated_at":"2026-05-27T02:25:35.669955+05:30"},{"city":"Gaya","state":"Bihar","latitude":24.7914,"longitude":85.0002,"temp":29.4,"humidity":75,"rain":0.0,"pressure":989.0,"uv_index":8.85,"wind_gusts":37.8,"aqi":129,"pm10":48.5,"pm2_5":42.5,"no2":14.6,"co":438.0,"o3":93.0,"so2":16.2,"mosquito_risk":7,"arthritis_risk":5,"migraine_risk":7,"frizz_risk":1,"updated_at":"2026-05-27T02:25:35.669963+05:30"},{"city":"Muzaffarpur","state":"Bihar","latitude":26.1209,"longitude":85.3647,"temp":24.3,"humidity":92,"rain":0.0,"pressure":996.7,"uv_index":8.75,"wind_gusts":45.4,"aqi":93,"pm10":46.9,"pm2_5":39.6,"no2":18.8,"co":414.0,"o3":67.0,"so2":13.6,"mosquito_risk":3,"arthritis_risk":5,"migraine_risk":7,"frizz_risk":1,"updated_at":"2026-05-27T02:25:35.669971+05:30"},{"city":"Bhagalpur","state":"Bihar","latitude":25.2425,"longitude":87.0117,"temp":23.2,"humidity":95,"rain":0.4,"pressure":998.3,"uv_index":8.7,"wind_gusts":42.5,"aqi":91,"pm10":57.2,"pm2_5":42.0,"no2":9.2,"co":422.0,"o3":105.0,"so2":9.6,"mosquito_risk":6,"arthritis_risk":5,"migraine_risk":7,"frizz_risk":1,"updated_at":"2026-05-27T02:25:35.669979+05:30"},{"city":"Ranchi","state":"Jharkhand","latitude":23.3441,"longitude":85.3096,"temp":25.2,"humidity":94,"rain":0.0,"pressure":933.9,"uv_index":9.0,"wind_gusts":45.7,"aqi":98,"pm10":72.4,"pm2_5":37.4,"no2":15.4,"co":328.0,"o3":77.0,"so2":9.6,"mosquito_risk":7,"arthritis_risk":5,"migraine_risk":7,"frizz_risk":1,"updated_at":"2026-05-27T02:25:35.669987+05:30"},{"city":"Jamshedpur","state":"Jharkhand","latitude":22.8046,"longitude":86.2029,"temp":29.0,"humidity":92,"rain":0.0,"pressure":986.7,"uv_index":9.0,"wind_gusts":54.4,"aqi":154,"pm10":92.9,"pm2_5":69.8,"no2":24.7,"co":625.0,"o3":74.0,"so2":22.5,"mosquito_risk":7,"arthritis_risk":5,"migraine_risk":7,"frizz_risk":1,"updated_at":"2026-05-27T02:25:35.669994+05:30"},{"city":"Dhanbad","state":"Jharkhand","latitude":23.7957,"longitude":86.4304,"temp":29.0,"humidity":87,"rain":0.0,"pressure":975.8,"uv_index":8.85,"wind_gusts":38.5,"aqi":163,"pm10":105.7,"pm2_5":92.4,"no2":57.2,"co":313.0,"o3":40.0,"so2":149.4,"mosquito_risk":7,"arthritis_risk":5,"migraine_risk":7,"frizz_risk":1,"updated_at":"2026-05-27T02:25:35.670001+05:30"},{"city":"Bokaro","state":"Jharkhand","latitude":23.6693,"longitude":86.1511,"temp":28.6,"humidity":91,"rain":0.0,"pressure":979.4,"uv_index":8.85,"wind_gusts":39.6,"aqi":156,"pm10":129.9,"pm2_5":98.7,"no2":60.1,"co":1714.0,"o3":18.0,"so2":118.3,"mosquito_risk":7,"arthritis_risk":5,"migraine_risk":7,"frizz_risk":1,"updated_at":"2026-05-27T02:25:35.670008+05:30"},{"city":"Bhubaneswar","state":"Odisha","latitude":20.2961,"longitude":85.8245,"temp":29.4,"humidity":92,"rain":0.0,"pressure":998.8,"uv_index":9.05,"wind_gusts":41.0,"aqi":117,"pm10":27.0,"pm2_5":21.2,"no2":4.3,"co":189.0,"o3":83.0,"so2":4.7,"mosquito_risk":7,"arthritis_risk":5,"migraine_risk":7,"frizz_risk":1,"updated_at":"2026-05-27T02:25:35.670015+05:30"},{"city":"Cuttack","state":"Odisha","latitude":20.4625,"longitude":85.8828,"temp":29.5,"humidity":92,"rain":0.0,"pressure":1000.5,"uv_index":9.1,"wind_gusts":54.4,"aqi":117,"pm10":27.0,"pm2_5":21.2,"no2":4.3,"co":206.0,"o3":83.0,"so2":4.7,"mosquito_risk":7,"arthritis_risk":5,"migraine_risk":4,"frizz_risk":1,"updated_at":"2026-05-27T02:25:35.670023+05:30"},{"city":"Rourkela","state":"Odisha","latitude":22.2604,"longitude":84.8536,"temp":29.6,"humidity":73,"rain":0.0,"pressure":980.9,"uv_index":8.95,"wind_gusts":49.3,"aqi":152,"pm10":100.8,"pm2_5":67.8,"no2":33.8,"co":278.0,"o3":60.0,"so2":16.9,"mosquito_risk":7,"arthritis_risk":5,"migraine_risk":7,"frizz_risk":1,"updated_at":"2026-05-27T02:25:35.670030+05:30"},{"city":"Raipur","state":"Chhattisgarh","latitude":21.2514,"longitude":81.6296,"temp":33.5,"humidity":30,"rain":0.0,"pressure":970.4,"uv_index":8.95,"wind_gusts":39.2,"aqi":115,"pm10":52.7,"pm2_5":37.8,"no2":30.1,"co":415.0,"o3":64.0,"so2":47.3,"mosquito_risk":0,"arthritis_risk":5,"migraine_risk":7,"frizz_risk":0,"updated_at":"2026-05-27T02:25:35.670037+05:30"},{"city":"Bhilai","state":"Chhattisgarh","latitude":21.1938,"longitude":81.3509,"temp":32.5,"humidity":34,"rain":0.0,"pressure":971.1,"uv_index":8.95,"wind_gusts":42.8,"aqi":106,"pm10":51.1,"pm2_5":36.0,"no2":22.4,"co":593.0,"o3":71.0,"so2":35.2,"mosquito_risk":0,"arthritis_risk":5,"migraine_risk":7,"frizz_risk":0,"updated_at":"2026-05-27T02:25:35.670044+05:30"},{"city":"Guwahati","state":"Assam","latitude":26.1158,"longitude":91.7086,"temp":23.4,"humidity":98,"rain":0.0,"pressure":1001.0,"uv_index":8.7,"wind_gusts":22.7,"aqi":60,"pm10":22.1,"pm2_5":13.7,"no2":6.7,"co":388.0,"o3":70.0,"so2":2.5,"mosquito_risk":3,"arthritis_risk":5,"migraine_risk":4,"frizz_risk":1,"updated_at":"2026-05-27T02:25:35.670052+05:30"},{"city":"Agartala","state":"Tripura","latitude":23.8315,"longitude":91.2868,"temp":23.5,"humidity":93,"rain":0.0,"pressure":1005.1,"uv_index":8.45,"wind_gusts":42.1,"aqi":81,"pm10":25.9,"pm2_5":18.5,"no2":10.9,"co":224.0,"o3":51.0,"so2":1.9,"mosquito_risk":3,"arthritis_risk":5,"migraine_risk":4,"frizz_risk":1,"updated_at":"2026-05-27T02:25:35.670059+05:30"},{"city":"Shillong","state":"Meghalaya","latitude":25.5788,"longitude":91.8933,"temp":16.5,"humidity":96,"rain":0.2,"pressure":855.5,"uv_index":8.45,"wind_gusts":36.7,"aqi":39,"pm10":2.9,"pm2_5":1.8,"no2":4.7,"co":200.0,"o3":80.0,"so2":2.1,"mosquito_risk":6,"arthritis_risk":10,"migraine_risk":7,"frizz_risk":0,"updated_at":"2026-05-27T02:25:35.670066+05:30"},{"city":"Imphal","state":"Manipur","latitude":24.817,"longitude":93.9368,"temp":18.9,"humidity":96,"rain":0.0,"pressure":922.0,"uv_index":9.25,"wind_gusts":32.8,"aqi":80,"pm10":40.6,"pm2_5":25.5,"no2":14.1,"co":395.0,"o3":56.0,"so2":3.1,"mosquito_risk":3,"arthritis_risk":10,"migraine_risk":7,"frizz_risk":1,"updated_at":"2026-05-27T02:25:35.670074+05:30"},{"city":"Aizawl","state":"Mizoram","latitude":23.7271,"longitude":92.7176,"temp":15.3,"humidity":93,"rain":0.0,"pressure":890.5,"uv_index":9.05,"wind_gusts":33.8,"aqi":69,"pm10":40.5,"pm2_5":23.8,"no2":3.7,"co":166.0,"o3":62.0,"so2":1.5,"mosquito_risk":3,"arthritis_risk":10,"migraine_risk":7,"frizz_risk":0,"updated_at":"2026-05-27T02:25:35.670081+05:30"},{"city":"Kohima","state":"Nagaland","latitude":25.6701,"longitude":94.1077,"temp":15.4,"humidity":80,"rain":0.0,"pressure":853.1,"uv_index":9.25,"wind_gusts":31.7,"aqi":48,"pm10":23.7,"pm2_5":12.2,"no2":4.9,"co":222.0,"o3":69.0,"so2":1.4,"mosquito_risk":3,"arthritis_risk":5,"migraine_risk":7,"frizz_risk":0,"updated_at":"2026-05-27T02:25:35.670088+05:30"},{"city":"Gangtok","state":"Sikkim","latitude":27.3314,"longitude":88.6138,"temp":14.3,"humidity":94,"rain":0.1,"pressure":835.5,"uv_index":9.15,"wind_gusts":37.1,"aqi":79,"pm10":23.4,"pm2_5":8.9,"no2":4.9,"co":512.0,"o3":125.0,"so2":2.3,"mosquito_risk":6,"arthritis_risk":10,"migraine_risk":7,"frizz_risk":0,"updated_at":"2026-05-27T02:25:35.670095+05:30"},{"city":"Siliguri","state":"West Bengal","latitude":26.7271,"longitude":88.3953,"temp":21.6,"humidity":94,"rain":0.0,"pressure":992.1,"uv_index":8.65,"wind_gusts":28.8,"aqi":85,"pm10":31.8,"pm2_5":21.7,"no2":15.8,"co":365.0,"o3":82.0,"so2":3.5,"mosquito_risk":3,"arthritis_risk":5,"migraine_risk":7,"frizz_risk":1,"updated_at":"2026-05-27T02:25:38.948658+05:30"},{"city":"Durgapur","state":"West Bengal","latitude":23.5204,"longitude":87.3119,"temp":28.9,"humidity":91,"rain":0.0,"pressure":990.7,"uv_index":8.9,"wind_gusts":36.4,"aqi":158,"pm10":51.2,"pm2_5":47.1,"no2":22.4,"co":351.0,"o3":56.0,"so2":31.6,"mosquito_risk":7,"arthritis_risk":5,"migraine_risk":7,"frizz_risk":1,"updated_at":"2026-05-27T02:25:38.948690+05:30"},{"city":"Asansol","state":"West Bengal","latitude":23.6739,"longitude":86.9524,"temp":29.0,"humidity":91,"rain":0.0,"pressure":989.2,"uv_index":8.95,"wind_gusts":33.5,"aqi":161,"pm10":56.1,"pm2_5":51.7,"no2":23.8,"co":657.0,"o3":62.0,"so2":31.7,"mosquito_risk":7,"arthritis_risk":5,"migraine_risk":7,"frizz_risk":1,"updated_at":"2026-05-27T02:25:38.948702+05:30"},{"city":"Pondicherry","state":"Puducherry","latitude":11.9139,"longitude":79.8145,"temp":28.9,"humidity":83,"rain":0.0,"pressure":1006.2,"uv_index":6.3,"wind_gusts":43.9,"aqi":77,"pm10":10.9,"pm2_5":8.9,"no2":12.1,"co":200.0,"o3":50.0,"so2":9.2,"mosquito_risk":7,"arthritis_risk":5,"migraine_risk":4,"frizz_risk":1,"updated_at":"2026-05-27T02:25:38.948711+05:30"},{"city":"Port Blair","state":"Andaman and Nicobar Islands","latitude":11.6234,"longitude":92.7265,"temp":26.1,"humidity":90,"rain":0.0,"pressure":1005.9,"uv_index":8.15,"wind_gusts":39.2,"aqi":30,"pm10":14.6,"pm2_5":8.4,"no2":0.2,"co":103.0,"o3":66.0,"so2":0.4,"mosquito_risk":7,"arthritis_risk":5,"migraine_risk":4,"frizz_risk":1,"updated_at":"2026-05-27T02:25:38.948719+05:30"},{"city":"Haridwar","state":"Uttarakhand","latitude":29.9457,"longitude":78.1642,"temp":24.5,"humidity":36,"rain":0.0,"pressure":966.5,"uv_index":7.55,"wind_gusts":39.2,"aqi":78,"pm10":13.9,"pm2_5":13.0,"no2":12.3,"co":245.0,"o3":89.0,"so2":7.6,"mosquito_risk":0,"arthritis_risk":5,"migraine_risk":7,"frizz_risk":0,"updated_at":"2026-05-27T02:25:38.948727+05:30"},{"city":"Rishikesh","state":"Uttarakhand","latitude":30.0869,"longitude":78.2676,"temp":21.8,"humidity":45,"rain":0.0,"pressure":959.4,"uv_index":7.65,"wind_gusts":36.7,"aqi":101,"pm10":17.8,"pm2_5":15.1,"no2":14.3,"co":286.0,"o3":98.0,"so2":6.1,"mosquito_risk":0,"arthritis_risk":5,"migraine_risk":7,"frizz_risk":0,"updated_at":"2026-05-27T02:25:38.948735+05:30"},{"city":"Nainital","state":"Uttarakhand","latitude":29.3919,"longitude":79.4542,"temp":15.5,"humidity":34,"rain":0.0,"pressure":801.3,"uv_index":8.5,"wind_gusts":32.8,"aqi":101,"pm10":74.7,"pm2_5":23.6,"no2":15.8,"co":247.0,"o3":99.0,"so2":5.2,"mosquito_risk":0,"arthritis_risk":5,"migraine_risk":7,"frizz_risk":1,"updated_at":"2026-05-27T02:25:38.948743+05:30"},{"city":"Mussoorie","state":"Uttarakhand","latitude":30.4599,"longitude":78.0664,"temp":17.5,"humidity":32,"rain":0.0,"pressure":799.9,"uv_index":8.1,"wind_gusts":52.6,"aqi":72,"pm10":22.5,"pm2_5":18.6,"no2":29.6,"co":155.0,"o3":58.0,"so2":5.3,"mosquito_risk":0,"arthritis_risk":5,"migraine_risk":7,"frizz_risk":0,"updated_at":"2026-05-27T02:25:38.948750+05:30"},{"city":"Dharamshala","state":"Himachal Pradesh","latitude":32.219,"longitude":76.3234,"temp":22.4,"humidity":34,"rain":0.0,"pressure":865.8,"uv_index":8.5,"wind_gusts":46.8,"aqi":42,"pm10":13.6,"pm2_5":10.9,"no2":13.2,"co":195.0,"o3":45.0,"so2":0.2,"mosquito_risk":0,"arthritis_risk":5,"migraine_risk":7,"frizz_risk":0,"updated_at":"2026-05-27T02:25:38.948757+05:30"},{"city":"Dalhousie","state":"Himachal Pradesh","latitude":32.5387,"longitude":75.971,"temp":11.0,"humidity":64,"rain":0.0,"pressure":798.3,"uv_index":8.7,"wind_gusts":42.8,"aqi":54,"pm10":26.2,"pm2_5":23.1,"no2":47.4,"co":333.0,"o3":9.0,"so2":1.6,"mosquito_risk":3,"arthritis_risk":5,"migraine_risk":7,"frizz_risk":0,"updated_at":"2026-05-27T02:25:38.948765+05:30"},{"city":"Patiala","state":"Punjab","latitude":30.3398,"longitude":76.3869,"temp":29.5,"humidity":24,"rain":0.0,"pressure":972.2,"uv_index":7.7,"wind_gusts":40.7,"aqi":446,"pm10":323.2,"pm2_5":61.0,"no2":15.8,"co":308.0,"o3":67.0,"so2":6.8,"mosquito_risk":4,"arthritis_risk":5,"migraine_risk":7,"frizz_risk":0,"updated_at":"2026-05-27T02:25:38.948772+05:30"},{"city":"Bhatinda","state":"Punjab","latitude":30.211,"longitude":74.9455,"temp":30.6,"humidity":33,"rain":0.0,"pressure":978.7,"uv_index":8.35,"wind_gusts":29.9,"aqi":78,"pm10":39.7,"pm2_5":34.2,"no2":23.4,"co":354.0,"o3":80.0,"so2":10.4,"mosquito_risk":0,"arthritis_risk":5,"migraine_risk":7,"frizz_risk":0,"updated_at":"2026-05-27T02:25:38.948780+05:30"},{"city":"Rohtak","state":"Haryana","latitude":28.8955,"longitude":76.6066,"temp":29.6,"humidity":33,"rain":0.0,"pressure":975.8,"uv_index":7.8,"wind_gusts":33.5,"aqi":624,"pm10":922.0,"pm2_5":177.9,"no2":29.1,"co":372.0,"o3":62.0,"so2":9.9,"mosquito_risk":4,"arthritis_risk":5,"migraine_risk":7,"frizz_risk":0,"updated_at":"2026-05-27T02:25:38.948787+05:30"},{"city":"Panipat","state":"Haryana","latitude":29.3909,"longitude":76.9635,"temp":30.8,"humidity":22,"rain":0.0,"pressure":974.2,"uv_index":7.6,"wind_gusts":37.8,"aqi":1433,"pm10":1363.5,"pm2_5":233.3,"no2":16.1,"co":286.0,"o3":74.0,"so2":6.5,"mosquito_risk":0,"arthritis_risk":5,"migraine_risk":7,"frizz_risk":0,"updated_at":"2026-05-27T02:25:38.948794+05:30"},{"city":"Mathura","state":"Uttar Pradesh","latitude":27.4924,"longitude":77.6737,"temp":31.7,"humidity":30,"rain":0.0,"pressure":981.1,"uv_index":8.0,"wind_gusts":34.9,"aqi":619,"pm10":223.1,"pm2_5":88.7,"no2":73.4,"co":541.0,"o3":5.0,"so2":12.4,"mosquito_risk":0,"arthritis_risk":5,"migraine_risk":7,"frizz_risk":0,"updated_at":"2026-05-27T02:25:38.948801+05:30"},{"city":"Vrindavan","state":"Uttar Pradesh","latitude":27.5823,"longitude":77.7027,"temp":30.6,"humidity":35,"rain":0.0,"pressure":981.3,"uv_index":8.0,"wind_gusts":33.5,"aqi":619,"pm10":223.1,"pm2_5":88.7,"no2":73.4,"co":463.0,"o3":5.0,"so2":12.4,"mosquito_risk":0,"arthritis_risk":5,"migraine_risk":7,"frizz_risk":0,"updated_at":"2026-05-27T02:25:38.948808+05:30"},{"city":"Ayodhya","state":"Uttar Pradesh","latitude":26.7922,"longitude":82.1998,"temp":27.5,"humidity":64,"rain":0.0,"pressure":991.0,"uv_index":8.3,"wind_gusts":36.0,"aqi":138,"pm10":50.3,"pm2_5":35.3,"no2":9.9,"co":395.0,"o3":114.0,"so2":9.4,"mosquito_risk":7,"arthritis_risk":5,"migraine_risk":7,"frizz_risk":1,"updated_at":"2026-05-27T02:25:38.948816+05:30"},{"city":"Ratlam","state":"Madhya Pradesh","latitude":23.3315,"longitude":75.0367,"temp":29.1,"humidity":57,"rain":0.0,"pressure":953.5,"uv_index":8.55,"wind_gusts":47.2,"aqi":74,"pm10":32.6,"pm2_5":22.7,"no2":5.6,"co":236.0,"o3":73.0,"so2":11.4,"mosquito_risk":4,"arthritis_risk":5,"migraine_risk":7,"frizz_risk":1,"updated_at":"2026-05-27T02:25:38.948823+05:30"},{"city":"Sagar","state":"Madhya Pradesh","latitude":23.8388,"longitude":78.7378,"temp":33.0,"humidity":22,"rain":0.0,"pressure":947.1,"uv_index":8.7,"wind_gusts":46.1,"aqi":83,"pm10":58.0,"pm2_5":31.9,"no2":15.1,"co":193.0,"o3":49.0,"so2":4.2,"mosquito_risk":0,"arthritis_risk":5,"migraine_risk":7,"frizz_risk":0,"updated_at":"2026-05-27T02:25:38.948830+05:30"},{"city":"Satna","state":"Madhya Pradesh","latitude":24.6005,"longitude":80.8322,"temp":31.3,"humidity":28,"rain":0.0,"pressure":966.4,"uv_index":8.75,"wind_gusts":53.3,"aqi":79,"pm10":112.9,"pm2_5":33.6,"no2":24.1,"co":241.0,"o3":70.0,"so2":4.5,"mosquito_risk":0,"arthritis_risk":5,"migraine_risk":7,"frizz_risk":0,"updated_at":"2026-05-27T02:25:38.948837+05:30"},{"city":"Akola","state":"Maharashtra","latitude":20.7002,"longitude":77.0082,"temp":33.0,"humidity":43,"rain":0.0,"pressure":972.9,"uv_index":8.85,"wind_gusts":46.4,"aqi":58,"pm10":23.9,"pm2_5":18.3,"no2":8.6,"co":241.0,"o3":88.0,"so2":11.8,"mosquito_risk":0,"arthritis_risk":5,"migraine_risk":7,"frizz_risk":1,"updated_at":"2026-05-27T02:25:38.948845+05:30"},{"city":"Amravati","state":"Maharashtra","latitude":20.9374,"longitude":77.7796,"temp":34.0,"humidity":36,"rain":0.0,"pressure":964.6,"uv_index":8.85,"wind_gusts":45.4,"aqi":61,"pm10":24.3,"pm2_5":17.9,"no2":10.2,"co":215.0,"o3":78.0,"so2":10.2,"mosquito_risk":0,"arthritis_risk":5,"migraine_risk":7,"frizz_risk":1,"updated_at":"2026-05-27T02:25:38.948853+05:30"},{"city":"Latur","state":"Maharashtra","latitude":18.4088,"longitude":76.5604,"temp":27.9,"humidity":64,"rain":0.1,"pressure":939.3,"uv_index":9.0,"wind_gusts":37.8,"aqi":73,"pm10":16.2,"pm2_5":13.7,"no2":8.6,"co":191.0,"o3":81.0,"so2":5.7,"mosquito_risk":10,"arthritis_risk":5,"migraine_risk":7,"frizz_risk":1,"updated_at":"2026-05-27T02:25:38.948860+05:30"},{"city":"Nanded","state":"Maharashtra","latitude":19.1383,"longitude":77.3091,"temp":28.6,"humidity":64,"rain":0.0,"pressure":966.8,"uv_index":8.95,"wind_gusts":37.8,"aqi":77,"pm10":40.5,"pm2_5":26.8,"no2":11.1,"co":233.0,"o3":74.0,"so2":5.3,"mosquito_risk":7,"arthritis_risk":5,"migraine_risk":7,"frizz_risk":1,"updated_at":"2026-05-27T02:25:38.948868+05:30"},{"city":"Gulbarga","state":"Karnataka","latitude":17.3297,"longitude":76.8343,"temp":29.9,"humidity":57,"rain":0.0,"pressure":958.2,"uv_index":8.4,"wind_gusts":41.8,"aqi":54,"pm10":11.7,"pm2_5":10.1,"no2":10.2,"co":236.0,"o3":60.0,"so2":3.3,"mosquito_risk":4,"arthritis_risk":5,"migraine_risk":7,"frizz_risk":1,"updated_at":"2026-05-27T02:25:38.948875+05:30"},{"city":"Bidar","state":"Karnataka","latitude":17.9104,"longitude":77.5199,"temp":28.6,"humidity":54,"rain":0.0,"pressure":934.8,"uv_index":8.85,"wind_gusts":46.8,"aqi":94,"pm10":41.6,"pm2_5":34.1,"no2":22.5,"co":215.0,"o3":58.0,"so2":4.9,"mosquito_risk":4,"arthritis_risk":5,"migraine_risk":7,"frizz_risk":1,"updated_at":"2026-05-27T02:25:38.948882+05:30"},{"city":"Hospet","state":"Karnataka","latitude":15.2689,"longitude":76.3909,"temp":25.6,"humidity":86,"rain":0.0,"pressure":956.1,"uv_index":6.05,"wind_gusts":40.3,"aqi":35,"pm10":10.9,"pm2_5":10.4,"no2":12.8,"co":173.0,"o3":40.0,"so2":2.0,"mosquito_risk":7,"arthritis_risk":5,"migraine_risk":7,"frizz_risk":1,"updated_at":"2026-05-27T02:25:38.948888+05:30"},{"city":"Tirupur","state":"Tamil Nadu","latitude":11.1085,"longitude":77.3411,"temp":25.9,"humidity":85,"rain":0.0,"pressure":974.8,"uv_index":8.2,"wind_gusts":57.2,"aqi":58,"pm10":17.1,"pm2_5":15.7,"no2":21.4,"co":167.0,"o3":35.0,"so2":5.3,"mosquito_risk":7,"arthritis_risk":5,"migraine_risk":7,"frizz_risk":1,"updated_at":"2026-05-27T02:25:38.948895+05:30"},{"city":"Alappuzha","state":"Kerala","latitude":9.4981,"longitude":76.3388,"temp":25.9,"humidity":98,"rain":0.0,"pressure":1010.2,"uv_index":8.25,"wind_gusts":29.5,"aqi":45,"pm10":18.4,"pm2_5":16.3,"no2":11.9,"co":167.0,"o3":45.0,"so2":3.2,"mosquito_risk":7,"arthritis_risk":0,"migraine_risk":4,"frizz_risk":1,"updated_at":"2026-05-27T02:25:38.948902+05:30"},{"city":"Munnar","state":"Kerala","latitude":10.0889,"longitude":77.0595,"temp":18.0,"humidity":100,"rain":0.1,"pressure":857.5,"uv_index":8.65,"wind_gusts":28.1,"aqi":43,"pm10":9.3,"pm2_5":9.1,"no2":9.6,"co":142.0,"o3":31.0,"so2":1.6,"mosquito_risk":6,"arthritis_risk":10,"migraine_risk":7,"frizz_risk":1,"updated_at":"2026-05-27T02:25:38.948910+05:30"},{"city":"Silchar","state":"Assam","latitude":24.8333,"longitude":92.7789,"temp":23.4,"humidity":99,"rain":0.0,"pressure":1004.6,"uv_index":8.85,"wind_gusts":31.0,"aqi":78,"pm10":35.6,"pm2_5":20.4,"no2":5.5,"co":225.0,"o3":84.0,"so2":2.5,"mosquito_risk":3,"arthritis_risk":5,"migraine_risk":4,"frizz_risk":1,"updated_at":"2026-05-27T02:25:38.948917+05:30"},{"city":"Dibrugarh","state":"Assam","latitude":27.4728,"longitude":94.912,"temp":23.0,"humidity":96,"rain":0.0,"pressure":994.7,"uv_index":7.0,"wind_gusts":27.7,"aqi":81,"pm10":19.8,"pm2_5":15.3,"no2":15.3,"co":201.0,"o3":33.0,"so2":1.1,"mosquito_risk":3,"arthritis_risk":5,"migraine_risk":7,"frizz_risk":1,"updated_at":"2026-05-27T02:25:38.948924+05:30"}]