[{"city":"Delhi","state":"Delhi","latitude":28.6139,"longitude":77.209,"temp":29.8,"humidity":39,"rain":0.0,"pressure":986.4,"uv_index":5.75,"wind_gusts":36.0,"aqi":188,"pm10":293.4,"pm2_5":58.8,"mosquito_risk":4,"arthritis_risk":5,"migraine_risk":3,"frizz_risk":0,"updated_at":"2026-03-02T14:21:54.184363+05:30"},{"city":"Mumbai","state":"Maharashtra","latitude":19.076,"longitude":72.8777,"temp":26.3,"humidity":76,"rain":0.0,"pressure":1010.1,"uv_index":7.35,"wind_gusts":26.6,"aqi":89,"pm10":53.2,"pm2_5":35.6,"mosquito_risk":7,"arthritis_risk":0,"migraine_risk":4,"frizz_risk":1,"updated_at":"2026-03-02T14:21:54.184430+05:30"},{"city":"Bangalore","state":"Karnataka","latitude":12.9716,"longitude":77.5946,"temp":30.8,"humidity":31,"rain":0.0,"pressure":912.5,"uv_index":9.05,"wind_gusts":25.2,"aqi":134,"pm10":37.5,"pm2_5":36.6,"mosquito_risk":0,"arthritis_risk":5,"migraine_risk":7,"frizz_risk":0,"updated_at":"2026-03-02T14:21:54.184447+05:30"},{"city":"Hyderabad","state":"Telangana","latitude":17.385,"longitude":78.4867,"temp":34.1,"humidity":27,"rain":0.0,"pressure":954.1,"uv_index":8.3,"wind_gusts":22.0,"aqi":149,"pm10":39.6,"pm2_5":38.9,"mosquito_risk":0,"arthritis_risk":5,"migraine_risk":7,"frizz_risk":0,"updated_at":"2026-03-02T14:21:54.184458+05:30"},{"city":"Chennai","state":"Tamil Nadu","latitude":13.0827,"longitude":80.2707,"temp":32.0,"humidity":43,"rain":0.0,"pressure":1008.3,"uv_index":8.8,"wind_gusts":30.6,"aqi":134,"pm10":50.6,"pm2_5":46.3,"mosquito_risk":0,"arthritis_risk":0,"migraine_risk":4,"frizz_risk":1,"updated_at":"2026-03-02T14:21:54.184467+05:30"},{"city":"Kolkata","state":"West Bengal","latitude":22.5726,"longitude":88.3639,"temp":31.4,"humidity":56,"rain":0.0,"pressure":1006.0,"uv_index":7.65,"wind_gusts":19.8,"aqi":143,"pm10":68.5,"pm2_5":58.3,"mosquito_risk":0,"arthritis_risk":5,"migraine_risk":4,"frizz_risk":1,"updated_at":"2026-03-02T14:21:54.184476+05:30"},{"city":"Pune","state":"Maharashtra","latitude":18.5204,"longitude":73.8567,"temp":35.5,"humidity":24,"rain":0.0,"pressure":949.5,"uv_index":7.85,"wind_gusts":26.6,"aqi":92,"pm10":19.7,"pm2_5":19.3,"mosquito_risk":0,"arthritis_risk":5,"migraine_risk":10,"frizz_risk":0,"updated_at":"2026-03-02T14:21:54.184490+05:30"},{"city":"Ahmedabad","state":"Gujarat","latitude":23.0225,"longitude":72.5714,"temp":34.9,"humidity":28,"rain":0.0,"pressure":1004.8,"uv_index":7.1,"wind_gusts":16.2,"aqi":107,"pm10":37.1,"pm2_5":22.9,"mosquito_risk":0,"arthritis_risk":5,"migraine_risk":4,"frizz_risk":0,"updated_at":"2026-03-02T14:21:54.184499+05:30"},{"city":"Jaipur","state":"Rajasthan","latitude":26.9124,"longitude":75.7873,"temp":33.6,"humidity":16,"rain":0.0,"pressure":963.3,"uv_index":6.55,"wind_gusts":30.6,"aqi":96,"pm10":88.0,"pm2_5":25.2,"mosquito_risk":0,"arthritis_risk":5,"migraine_risk":7,"frizz_risk":0,"updated_at":"2026-03-02T14:21:54.184507+05:30"},{"city":"Lucknow","state":"Uttar Pradesh","latitude":26.8467,"longitude":80.9462,"temp":30.7,"humidity":28,"rain":0.0,"pressure":995.9,"uv_index":6.25,"wind_gusts":37.1,"aqi":129,"pm10":102.4,"pm2_5":43.7,"mosquito_risk":0,"arthritis_risk":5,"migraine_risk":7,"frizz_risk":0,"updated_at":"2026-03-02T14:21:54.184516+05:30"},{"city":"Kanpur","state":"Uttar Pradesh","latitude":26.4499,"longitude":80.3319,"temp":30.9,"humidity":33,"rain":0.0,"pressure":994.5,"uv_index":6.25,"wind_gusts":32.4,"aqi":148,"pm10":241.2,"pm2_5":55.3,"mosquito_risk":0,"arthritis_risk":5,"migraine_risk":7,"frizz_risk":0,"updated_at":"2026-03-02T14:21:54.184524+05:30"},{"city":"Chandigarh","state":"Chandigarh","latitude":30.7333,"longitude":76.7794,"temp":28.3,"humidity":40,"rain":0.0,"pressure":971.9,"uv_index":5.65,"wind_gusts":39.6,"aqi":87,"pm10":28.3,"pm2_5":19.4,"mosquito_risk":4,"arthritis_risk":5,"migraine_risk":3,"frizz_risk":0,"updated_at":"2026-03-02T14:21:54.184532+05:30"},{"city":"Srinagar","state":"Jammu and Kashmir","latitude":34.0837,"longitude":74.7973,"temp":19.0,"humidity":19,"rain":0.0,"pressure":845.9,"uv_index":6.55,"wind_gusts":18.4,"aqi":142,"pm10":28.3,"pm2_5":21.3,"mosquito_risk":0,"arthritis_risk":5,"migraine_risk":7,"frizz_risk":1,"updated_at":"2026-03-02T14:21:54.184542+05:30"},{"city":"Jammu","state":"Jammu and Kashmir","latitude":32.7266,"longitude":74.857,"temp":28.3,"humidity":41,"rain":0.0,"pressure":976.2,"uv_index":6.25,"wind_gusts":28.4,"aqi":104,"pm10":30.7,"pm2_5":19.8,"mosquito_risk":4,"arthritis_risk":5,"migraine_risk":7,"frizz_risk":0,"updated_at":"2026-03-02T14:21:54.184550+05:30"},{"city":"Amritsar","state":"Punjab","latitude":31.634,"longitude":74.8723,"temp":28.8,"humidity":42,"rain":0.0,"pressure":984.7,"uv_index":5.95,"wind_gusts":26.6,"aqi":137,"pm10":34.5,"pm2_5":22.8,"mosquito_risk":4,"arthritis_risk":5,"migraine_risk":3,"frizz_risk":0,"updated_at":"2026-03-02T14:21:54.184558+05:30"},{"city":"Ludhiana","state":"Punjab","latitude":30.901,"longitude":75.8573,"temp":28.9,"humidity":40,"rain":0.0,"pressure":982.5,"uv_index":5.85,"wind_gusts":33.8,"aqi":159,"pm10":58.1,"pm2_5":39.2,"mosquito_risk":4,"arthritis_risk":5,"migraine_risk":3,"frizz_risk":0,"updated_at":"2026-03-02T14:21:54.184565+05:30"},{"city":"Jalandhar","state":"Punjab","latitude":31.326,"longitude":75.5762,"temp":28.6,"humidity":41,"rain":0.0,"pressure":983.7,"uv_index":6.05,"wind_gusts":31.3,"aqi":160,"pm10":54.0,"pm2_5":32.9,"mosquito_risk":4,"arthritis_risk":5,"migraine_risk":7,"frizz_risk":0,"updated_at":"2026-03-02T14:21:54.184574+05:30"},{"city":"Dehradun","state":"Uttarakhand","latitude":30.6284,"longitude":78.0322,"temp":19.7,"humidity":41,"rain":0.0,"pressure":831.9,"uv_index":6.0,"wind_gusts":26.6,"aqi":59,"pm10":21.5,"pm2_5":13.8,"mosquito_risk":0,"arthritis_risk":5,"migraine_risk":3,"frizz_risk":0,"updated_at":"2026-03-02T14:21:54.184582+05:30"},{"city":"Shimla","state":"Himachal Pradesh","latitude":31.1048,"longitude":77.1734,"temp":16.9,"humidity":45,"rain":0.0,"pressure":786.8,"uv_index":6.05,"wind_gusts":58.0,"aqi":73,"pm10":21.5,"pm2_5":13.4,"mosquito_risk":0,"arthritis_risk":5,"migraine_risk":7,"frizz_risk":0,"updated_at":"2026-03-02T14:21:54.184589+05:30"},{"city":"Manali","state":"Himachal Pradesh","latitude":32.2396,"longitude":77.1887,"temp":21.1,"humidity":31,"rain":0.0,"pressure":821.6,"uv_index":7.7,"wind_gusts":36.7,"aqi":56,"pm10":13.2,"pm2_5":8.3,"mosquito_risk":0,"arthritis_risk":5,"migraine_risk":7,"frizz_risk":0,"updated_at":"2026-03-02T14:21:54.184597+05:30"},{"city":"Gurgaon","state":"Haryana","latitude":28.4595,"longitude":77.0266,"temp":30.1,"humidity":37,"rain":0.0,"pressure":984.9,"uv_index":5.85,"wind_gusts":33.1,"aqi":752,"pm10":1102.7,"pm2_5":127.6,"mosquito_risk":0,"arthritis_risk":5,"migraine_risk":3,"frizz_risk":0,"updated_at":"2026-03-02T14:21:54.184604+05:30"},{"city":"Noida","state":"Uttar Pradesh","latitude":28.5355,"longitude":77.391,"temp":30.2,"humidity":37,"rain":0.0,"pressure":987.8,"uv_index":5.75,"wind_gusts":35.6,"aqi":752,"pm10":1102.7,"pm2_5":127.6,"mosquito_risk":0,"arthritis_risk":5,"migraine_risk":3,"frizz_risk":0,"updated_at":"2026-03-02T14:21:54.184610+05:30"},{"city":"Ghaziabad","state":"Uttar Pradesh","latitude":28.6692,"longitude":77.4538,"temp":29.3,"humidity":41,"rain":0.0,"pressure":986.0,"uv_index":5.75,"wind_gusts":35.3,"aqi":165,"pm10":219.8,"pm2_5":45.9,"mosquito_risk":4,"arthritis_risk":5,"migraine_risk":3,"frizz_risk":0,"updated_at":"2026-03-02T14:21:54.184618+05:30"},{"city":"Faridabad","state":"Haryana","latitude":28.4089,"longitude":77.3178,"temp":29.7,"humidity":39,"rain":0.0,"pressure":987.1,"uv_index":5.8,"wind_gusts":32.0,"aqi":752,"pm10":1102.7,"pm2_5":127.6,"mosquito_risk":4,"arthritis_risk":5,"migraine_risk":3,"frizz_risk":0,"updated_at":"2026-03-02T14:21:54.184625+05:30"},{"city":"Meerut","state":"Uttar Pradesh","latitude":28.9845,"longitude":77.7064,"temp":29.2,"humidity":38,"rain":0.0,"pressure":984.5,"uv_index":5.6,"wind_gusts":38.9,"aqi":165,"pm10":219.8,"pm2_5":45.9,"mosquito_risk":4,"arthritis_risk":5,"migraine_risk":3,"frizz_risk":0,"updated_at":"2026-03-02T14:21:54.184631+05:30"},{"city":"Agra","state":"Uttar Pradesh","latitude":27.1767,"longitude":78.0081,"temp":31.7,"humidity":32,"rain":0.0,"pressure":991.2,"uv_index":6.1,"wind_gusts":28.8,"aqi":333,"pm10":409.8,"pm2_5":64.7,"mosquito_risk":0,"arthritis_risk":5,"migraine_risk":7,"frizz_risk":0,"updated_at":"2026-03-02T14:21:54.184641+05:30"},{"city":"Varanasi","state":"Uttar Pradesh","latitude":25.3176,"longitude":82.9739,"temp":30.2,"humidity":31,"rain":0.0,"pressure":999.8,"uv_index":6.9,"wind_gusts":33.1,"aqi":92,"pm10":70.3,"pm2_5":25.7,"mosquito_risk":0,"arthritis_risk":5,"migraine_risk":7,"frizz_risk":0,"updated_at":"2026-03-02T14:21:54.184651+05:30"},{"city":"Prayagraj","state":"Uttar Pradesh","latitude":25.4358,"longitude":81.8463,"temp":30.8,"humidity":29,"rain":0.0,"pressure":998.7,"uv_index":6.75,"wind_gusts":31.0,"aqi":96,"pm10":73.6,"pm2_5":29.2,"mosquito_risk":0,"arthritis_risk":5,"migraine_risk":7,"frizz_risk":0,"updated_at":"2026-03-02T14:21:54.184659+05:30"},{"city":"Gorakhpur","state":"Uttar Pradesh","latitude":26.7606,"longitude":83.3732,"temp":29.1,"humidity":39,"rain":0.0,"pressure":998.8,"uv_index":6.6,"wind_gusts":25.9,"aqi":109,"pm10":93.4,"pm2_5":41.7,"mosquito_risk":4,"arthritis_risk":5,"migraine_risk":7,"frizz_risk":0,"updated_at":"2026-03-02T14:21:54.184666+05:30"},{"city":"Bareilly","state":"Uttar Pradesh","latitude":28.367,"longitude":79.4304,"temp":28.8,"humidity":34,"rain":0.0,"pressure":989.2,"uv_index":5.95,"wind_gusts":31.7,"aqi":128,"pm10":53.8,"pm2_5":37.3,"mosquito_risk":4,"arthritis_risk":5,"migraine_risk":3,"frizz_risk":0,"updated_at":"2026-03-02T14:21:54.184673+05:30"},{"city":"Aligarh","state":"Uttar Pradesh","latitude":27.8974,"longitude":78.088,"temp":30.5,"humidity":35,"rain":0.0,"pressure":988.8,"uv_index":5.85,"wind_gusts":32.8,"aqi":440,"pm10":571.8,"pm2_5":91.5,"mosquito_risk":0,"arthritis_risk":5,"migraine_risk":3,"frizz_risk":0,"updated_at":"2026-03-02T14:21:54.184679+05:30"},{"city":"Moradabad","state":"Uttar Pradesh","latitude":28.8386,"longitude":78.7733,"temp":28.7,"humidity":37,"rain":0.0,"pressure":986.2,"uv_index":5.75,"wind_gusts":35.3,"aqi":136,"pm10":64.0,"pm2_5":39.2,"mosquito_risk":4,"arthritis_risk":5,"migraine_risk":3,"frizz_risk":0,"updated_at":"2026-03-02T14:21:54.184686+05:30"},{"city":"Saharanpur","state":"Uttar Pradesh","latitude":29.9637,"longitude":77.546,"temp":28.6,"humidity":35,"rain":0.0,"pressure":978.0,"uv_index":5.4,"wind_gusts":52.9,"aqi":114,"pm10":42.5,"pm2_5":25.1,"mosquito_risk":4,"arthritis_risk":5,"migraine_risk":3,"frizz_risk":0,"updated_at":"2026-03-02T14:21:54.184695+05:30"},{"city":"Jhansi","state":"Uttar Pradesh","latitude":25.4484,"longitude":78.5685,"temp":33.3,"humidity":22,"rain":0.0,"pressure":981.1,"uv_index":6.7,"wind_gusts":28.1,"aqi":78,"pm10":51.0,"pm2_5":21.8,"mosquito_risk":0,"arthritis_risk":5,"migraine_risk":7,"frizz_risk":0,"updated_at":"2026-03-02T14:21:57.428717+05:30"},{"city":"Surat","state":"Gujarat","latitude":21.1702,"longitude":72.8311,"temp":31.8,"humidity":52,"rain":0.0,"pressure":1009.2,"uv_index":7.0,"wind_gusts":23.4,"aqi":144,"pm10":77.5,"pm2_5":63.8,"mosquito_risk":0,"arthritis_risk":0,"migraine_risk":4,"frizz_risk":1,"updated_at":"2026-03-02T14:21:57.428751+05:30"},{"city":"Vadodara","state":"Gujarat","latitude":22.3072,"longitude":73.1812,"temp":35.3,"humidity":29,"rain":0.0,"pressure":1006.8,"uv_index":7.1,"wind_gusts":11.9,"aqi":149,"pm10":45.4,"pm2_5":34.5,"mosquito_risk":0,"arthritis_risk":5,"migraine_risk":7,"frizz_risk":0,"updated_at":"2026-03-02T14:21:57.428761+05:30"},{"city":"Rajkot","state":"Gujarat","latitude":22.3039,"longitude":70.8022,"temp":33.3,"humidity":32,"rain":0.0,"pressure":996.9,"uv_index":6.95,"wind_gusts":21.2,"aqi":68,"pm10":34.5,"pm2_5":16.6,"mosquito_risk":0,"arthritis_risk":5,"migraine_risk":7,"frizz_risk":0,"updated_at":"2026-03-02T14:21:57.428769+05:30"},{"city":"Thane","state":"Maharashtra","latitude":19.2183,"longitude":72.9781,"temp":29.4,"humidity":59,"rain":0.0,"pressure":1009.8,"uv_index":7.3,"wind_gusts":37.4,"aqi":89,"pm10":53.2,"pm2_5":35.6,"mosquito_risk":4,"arthritis_risk":0,"migraine_risk":4,"frizz_risk":1,"updated_at":"2026-03-02T14:21:57.428777+05:30"},{"city":"Nagpur","state":"Maharashtra","latitude":21.1458,"longitude":79.0882,"temp":33.9,"humidity":25,"rain":0.0,"pressure":975.2,"uv_index":7.7,"wind_gusts":22.7,"aqi":64,"pm10":24.4,"pm2_5":19.8,"mosquito_risk":0,"arthritis_risk":5,"migraine_risk":7,"frizz_risk":0,"updated_at":"2026-03-02T14:21:57.428784+05:30"},{"city":"Nashik","state":"Maharashtra","latitude":19.9975,"longitude":73.7898,"temp":33.5,"humidity":27,"rain":0.0,"pressure":947.4,"uv_index":7.5,"wind_gusts":28.1,"aqi":90,"pm10":26.1,"pm2_5":24.4,"mosquito_risk":0,"arthritis_risk":5,"migraine_risk":7,"frizz_risk":0,"updated_at":"2026-03-02T14:21:57.428791+05:30"},{"city":"Aurangabad","state":"Maharashtra","latitude":19.8762,"longitude":75.3433,"temp":33.8,"humidity":24,"rain":0.0,"pressure":946.0,"uv_index":8.0,"wind_gusts":21.2,"aqi":72,"pm10":19.7,"pm2_5":18.9,"mosquito_risk":0,"arthritis_risk":5,"migraine_risk":7,"frizz_risk":0,"updated_at":"2026-03-02T14:21:57.428798+05:30"},{"city":"Solapur","state":"Maharashtra","latitude":17.6599,"longitude":75.9064,"temp":33.7,"humidity":33,"rain":0.0,"pressure":958.0,"uv_index":8.2,"wind_gusts":14.0,"aqi":117,"pm10":40.0,"pm2_5":39.5,"mosquito_risk":0,"arthritis_risk":5,"migraine_risk":7,"frizz_risk":0,"updated_at":"2026-03-02T14:21:57.428804+05:30"},{"city":"Kolhapur","state":"Maharashtra","latitude":16.705,"longitude":74.2433,"temp":33.2,"humidity":29,"rain":0.0,"pressure":948.7,"uv_index":8.35,"wind_gusts":37.1,"aqi":88,"pm10":28.7,"pm2_5":27.6,"mosquito_risk":0,"arthritis_risk":5,"migraine_risk":7,"frizz_risk":0,"updated_at":"2026-03-02T14:21:57.428811+05:30"},{"city":"Goa","state":"Goa","latitude":15.2993,"longitude":74.124,"temp":29.9,"humidity":60,"rain":0.0,"pressure":999.1,"uv_index":8.45,"wind_gusts":30.6,"aqi":69,"pm10":28.8,"pm2_5":19.2,"mosquito_risk":4,"arthritis_risk":5,"migraine_risk":7,"frizz_risk":1,"updated_at":"2026-03-02T14:21:57.428818+05:30"},{"city":"Jodhpur","state":"Rajasthan","latitude":26.2389,"longitude":73.0243,"temp":34.5,"humidity":21,"rain":0.0,"pressure":986.5,"uv_index":6.8,"wind_gusts":12.6,"aqi":85,"pm10":95.5,"pm2_5":25.8,"mosquito_risk":0,"arthritis_risk":5,"migraine_risk":7,"frizz_risk":0,"updated_at":"2026-03-02T14:21:57.428824+05:30"},{"city":"Udaipur","state":"Rajasthan","latitude":24.5854,"longitude":73.7125,"temp":31.5,"humidity":27,"rain":0.0,"pressure":949.8,"uv_index":7.4,"wind_gusts":15.5,"aqi":67,"pm10":28.1,"pm2_5":16.4,"mosquito_risk":0,"arthritis_risk":5,"migraine_risk":7,"frizz_risk":0,"updated_at":"2026-03-02T14:21:57.428831+05:30"},{"city":"Kota","state":"Rajasthan","latitude":25.2138,"longitude":75.8648,"temp":34.1,"humidity":24,"rain":0.0,"pressure":982.0,"uv_index":6.8,"wind_gusts":18.7,"aqi":86,"pm10":32.9,"pm2_5":22.0,"mosquito_risk":0,"arthritis_risk":5,"migraine_risk":7,"frizz_risk":0,"updated_at":"2026-03-02T14:21:57.428838+05:30"},{"city":"Bikaner","state":"Rajasthan","latitude":28.0229,"longitude":73.3119,"temp":33.1,"humidity":23,"rain":0.0,"pressure":985.6,"uv_index":6.5,"wind_gusts":19.4,"aqi":69,"pm10":52.2,"pm2_5":24.3,"mosquito_risk":0,"arthritis_risk":5,"migraine_risk":7,"frizz_risk":0,"updated_at":"2026-03-02T14:21:57.428844+05:30"},{"city":"Ajmer","state":"Rajasthan","latitude":26.4499,"longitude":74.6399,"temp":32.8,"humidity":22,"rain":0.0,"pressure":958.2,"uv_index":6.75,"wind_gusts":22.7,"aqi":80,"pm10":47.8,"pm2_5":18.5,"mosquito_risk":0,"arthritis_risk":5,"migraine_risk":7,"frizz_risk":0,"updated_at":"2026-03-02T14:21:57.428851+05:30"},{"city":"Gwalior","state":"Madhya Pradesh","latitude":26.2183,"longitude":78.1828,"temp":32.1,"humidity":28,"rain":0.0,"pressure":986.4,"uv_index":6.4,"wind_gusts":31.0,"aqi":91,"pm10":77.8,"pm2_5":28.1,"mosquito_risk":0,"arthritis_risk":5,"migraine_risk":7,"frizz_risk":0,"updated_at":"2026-03-02T14:21:57.428858+05:30"},{"city":"Indore","state":"Madhya Pradesh","latitude":22.7196,"longitude":75.8577,"temp":31.6,"humidity":28,"rain":0.0,"pressure":951.1,"uv_index":7.4,"wind_gusts":12.6,"aqi":94,"pm10":30.3,"pm2_5":21.0,"mosquito_risk":0,"arthritis_risk":5,"migraine_risk":7,"frizz_risk":0,"updated_at":"2026-03-02T14:21:57.428864+05:30"},{"city":"Bhopal","state":"Madhya Pradesh","latitude":23.2599,"longitude":77.4126,"temp":31.7,"humidity":30,"rain":0.0,"pressure":956.9,"uv_index":7.25,"wind_gusts":18.4,"aqi":81,"pm10":29.3,"pm2_5":16.9,"mosquito_risk":0,"arthritis_risk":5,"migraine_risk":7,"frizz_risk":0,"updated_at":"2026-03-02T14:21:57.428871+05:30"},{"city":"Jabalpur","state":"Madhya Pradesh","latitude":23.1815,"longitude":79.9864,"temp":31.4,"humidity":27,"rain":0.0,"pressure":964.5,"uv_index":7.35,"wind_gusts":19.4,"aqi":70,"pm10":27.9,"pm2_5":15.1,"mosquito_risk":0,"arthritis_risk":5,"migraine_risk":7,"frizz_risk":0,"updated_at":"2026-03-02T14:21:57.428878+05:30"},{"city":"Ujjain","state":"Madhya Pradesh","latitude":23.1765,"longitude":75.7885,"temp":31.4,"humidity":32,"rain":0.0,"pressure":956.9,"uv_index":7.3,"wind_gusts":11.5,"aqi":120,"pm10":32.0,"pm2_5":21.4,"mosquito_risk":0,"arthritis_risk":5,"migraine_risk":7,"frizz_risk":0,"updated_at":"2026-03-02T14:21:57.428885+05:30"},{"city":"Visakhapatnam","state":"Andhra Pradesh","latitude":17.6868,"longitude":83.2185,"temp":33.2,"humidity":38,"rain":0.0,"pressure":1004.0,"uv_index":8.35,"wind_gusts":41.0,"aqi":151,"pm10":57.2,"pm2_5":54.2,"mosquito_risk":0,"arthritis_risk":5,"migraine_risk":4,"frizz_risk":1,"updated_at":"2026-03-02T14:21:57.428891+05:30"},{"city":"Vijayawada","state":"Andhra Pradesh","latitude":16.5062,"longitude":80.648,"temp":34.3,"humidity":42,"rain":0.0,"pressure":1003.0,"uv_index":8.4,"wind_gusts":25.9,"aqi":146,"pm10":51.9,"pm2_5":49.1,"mosquito_risk":0,"arthritis_risk":5,"migraine_risk":4,"frizz_risk":1,"updated_at":"2026-03-02T14:21:57.428899+05:30"},{"city":"Guntur","state":"Andhra Pradesh","latitude":16.3067,"longitude":80.4365,"temp":35.2,"humidity":38,"rain":0.0,"pressure":1004.1,"uv_index":8.4,"wind_gusts":31.0,"aqi":136,"pm10":49.5,"pm2_5":47.4,"mosquito_risk":0,"arthritis_risk":5,"migraine_risk":7,"frizz_risk":1,"updated_at":"2026-03-02T14:21:57.428905+05:30"},{"city":"Nellore","state":"Andhra Pradesh","latitude":14.4426,"longitude":79.9865,"temp":35.9,"humidity":28,"rain":0.0,"pressure":1006.3,"uv_index":8.65,"wind_gusts":29.5,"aqi":128,"pm10":47.3,"pm2_5":44.8,"mosquito_risk":0,"arthritis_risk":5,"migraine_risk":7,"frizz_risk":0,"updated_at":"2026-03-02T14:21:57.428913+05:30"},{"city":"Kurnool","state":"Andhra Pradesh","latitude":15.8281,"longitude":78.0373,"temp":35.6,"humidity":29,"rain":0.0,"pressure":977.3,"uv_index":8.45,"wind_gusts":22.3,"aqi":121,"pm10":43.2,"pm2_5":42.3,"mosquito_risk":0,"arthritis_risk":5,"migraine_risk":10,"frizz_risk":0,"updated_at":"2026-03-02T14:21:57.428920+05:30"},{"city":"Kakinada","state":"Andhra Pradesh","latitude":16.9891,"longitude":82.2475,"temp":35.9,"humidity":35,"rain":0.0,"pressure":1007.4,"uv_index":8.35,"wind_gusts":30.6,"aqi":148,"pm10":51.8,"pm2_5":47.8,"mosquito_risk":0,"arthritis_risk":5,"migraine_risk":7,"frizz_risk":1,"updated_at":"2026-03-02T14:21:57.428926+05:30"},{"city":"Tirupati","state":"Andhra Pradesh","latitude":13.6288,"longitude":79.4192,"temp":34.3,"humidity":28,"rain":0.0,"pressure":991.9,"uv_index":8.75,"wind_gusts":27.7,"aqi":132,"pm10":43.5,"pm2_5":41.7,"mosquito_risk":0,"arthritis_risk":5,"migraine_risk":7,"frizz_risk":0,"updated_at":"2026-03-02T14:21:57.428934+05:30"},{"city":"Warangal","state":"Telangana","latitude":17.9689,"longitude":79.5941,"temp":34.3,"humidity":38,"rain":0.0,"pressure":979.6,"uv_index":8.15,"wind_gusts":17.3,"aqi":144,"pm10":51.6,"pm2_5":50.2,"mosquito_risk":0,"arthritis_risk":5,"migraine_risk":7,"frizz_risk":1,"updated_at":"2026-03-02T14:21:57.428940+05:30"},{"city":"Nizamabad","state":"Telangana","latitude":18.6725,"longitude":78.0941,"temp":34.3,"humidity":29,"rain":0.0,"pressure":966.1,"uv_index":8.05,"wind_gusts":27.0,"aqi":129,"pm10":23.6,"pm2_5":23.2,"mosquito_risk":0,"arthritis_risk":5,"migraine_risk":7,"frizz_risk":0,"updated_at":"2026-03-02T14:21:57.428945+05:30"},{"city":"Mysore","state":"Karnataka","latitude":12.2958,"longitude":76.6396,"temp":32.4,"humidity":30,"rain":0.0,"pressure":929.1,"uv_index":9.1,"wind_gusts":27.0,"aqi":152,"pm10":41.8,"pm2_5":40.5,"mosquito_risk":0,"arthritis_risk":5,"migraine_risk":7,"frizz_risk":0,"updated_at":"2026-03-02T14:21:57.428951+05:30"},{"city":"Mangalore","state":"Karnataka","latitude":12.9141,"longitude":74.856,"temp":27.8,"humidity":79,"rain":0.0,"pressure":1007.3,"uv_index":8.7,"wind_gusts":30.2,"aqi":53,"pm10":18.8,"pm2_5":15.9,"mosquito_risk":7,"arthritis_risk":5,"migraine_risk":4,"frizz_risk":1,"updated_at":"2026-03-02T14:21:57.428957+05:30"},{"city":"Hubli-Dharwad","state":"Karnataka","latitude":15.3647,"longitude":75.124,"temp":32.3,"humidity":34,"rain":0.0,"pressure":941.3,"uv_index":8.6,"wind_gusts":27.0,"aqi":66,"pm10":32.1,"pm2_5":31.2,"mosquito_risk":0,"arthritis_risk":5,"migraine_risk":7,"frizz_risk":0,"updated_at":"2026-03-02T14:21:57.428964+05:30"},{"city":"Belgaum","state":"Karnataka","latitude":15.8497,"longitude":74.4977,"temp":32.9,"humidity":26,"rain":0.0,"pressure":926.7,"uv_index":8.65,"wind_gusts":39.2,"aqi":69,"pm10":26.1,"pm2_5":24.8,"mosquito_risk":0,"arthritis_risk":5,"migraine_risk":7,"frizz_risk":0,"updated_at":"2026-03-02T14:22:00.758671+05:30"},{"city":"Coimbatore","state":"Tamil Nadu","latitude":11.0168,"longitude":76.9558,"temp":34.0,"humidity":29,"rain":0.0,"pressure":962.0,"uv_index":9.1,"wind_gusts":27.4,"aqi":150,"pm10":40.9,"pm2_5":39.5,"mosquito_risk":0,"arthritis_risk":5,"migraine_risk":7,"frizz_risk":0,"updated_at":"2026-03-02T14:22:00.758707+05:30"},{"city":"Madurai","state":"Tamil Nadu","latitude":9.9252,"longitude":78.1198,"temp":35.1,"humidity":32,"rain":0.0,"pressure":992.7,"uv_index":9.05,"wind_gusts":32.4,"aqi":125,"pm10":37.1,"pm2_5":35.4,"mosquito_risk":0,"arthritis_risk":5,"migraine_risk":10,"frizz_risk":0,"updated_at":"2026-03-02T14:22:00.758718+05:30"},{"city":"Trichy","state":"Tamil Nadu","latitude":10.7905,"longitude":78.7047,"temp":35.6,"humidity":31,"rain":0.0,"pressure":999.5,"uv_index":8.95,"wind_gusts":29.9,"aqi":133,"pm10":41.2,"pm2_5":39.3,"mosquito_risk":0,"arthritis_risk":5,"migraine_risk":10,"frizz_risk":0,"updated_at":"2026-03-02T14:22:00.758727+05:30"},{"city":"Salem","state":"Tamil Nadu","latitude":11.6643,"longitude":78.146,"temp":35.8,"humidity":28,"rain":0.0,"pressure":976.9,"uv_index":9.0,"wind_gusts":31.7,"aqi":134,"pm10":45.8,"pm2_5":44.1,"mosquito_risk":0,"arthritis_risk":5,"migraine_risk":10,"frizz_risk":0,"updated_at":"2026-03-02T14:22:00.758735+05:30"},{"city":"Tirunelveli","state":"Tamil Nadu","latitude":8.7139,"longitude":77.7567,"temp":36.2,"humidity":27,"rain":0.0,"pressure":1002.8,"uv_index":9.1,"wind_gusts":39.6,"aqi":139,"pm10":35.5,"pm2_5":33.8,"mosquito_risk":0,"arthritis_risk":5,"migraine_risk":7,"frizz_risk":0,"updated_at":"2026-03-02T14:22:00.758743+05:30"},{"city":"Vellore","state":"Tamil Nadu","latitude":12.9165,"longitude":79.1325,"temp":34.3,"humidity":27,"rain":0.0,"pressure":984.9,"uv_index":8.85,"wind_gusts":34.6,"aqi":144,"pm10":43.4,"pm2_5":41.6,"mosquito_risk":0,"arthritis_risk":5,"migraine_risk":7,"frizz_risk":0,"updated_at":"2026-03-02T14:22:00.758750+05:30"},{"city":"Erode","state":"Tamil Nadu","latitude":11.341,"longitude":77.7172,"temp":36.2,"humidity":30,"rain":0.0,"pressure":988.4,"uv_index":9.0,"wind_gusts":30.2,"aqi":121,"pm10":41.1,"pm2_5":39.3,"mosquito_risk":0,"arthritis_risk":5,"migraine_risk":10,"frizz_risk":0,"updated_at":"2026-03-02T14:22:00.758758+05:30"},{"city":"Kochi","state":"Kerala","latitude":9.9312,"longitude":76.2673,"temp":27.9,"humidity":78,"rain":0.0,"pressure":1008.6,"uv_index":8.9,"wind_gusts":32.4,"aqi":89,"pm10":36.4,"pm2_5":34.8,"mosquito_risk":7,"arthritis_risk":0,"migraine_risk":4,"frizz_risk":1,"updated_at":"2026-03-02T14:22:00.758765+05:30"},{"city":"Thiruvananthapuram","state":"Kerala","latitude":8.5241,"longitude":76.9366,"temp":28.4,"humidity":73,"rain":0.0,"pressure":1007.8,"uv_index":8.9,"wind_gusts":27.0,"aqi":89,"pm10":27.4,"pm2_5":25.7,"mosquito_risk":7,"arthritis_risk":5,"migraine_risk":4,"frizz_risk":1,"updated_at":"2026-03-02T14:22:00.758773+05:30"},{"city":"Kozhikode","state":"Kerala","latitude":11.2588,"longitude":75.7804,"temp":29.3,"humidity":72,"rain":0.0,"pressure":1008.1,"uv_index":8.8,"wind_gusts":28.8,"aqi":56,"pm10":22.9,"pm2_5":18.0,"mosquito_risk":7,"arthritis_risk":0,"migraine_risk":4,"frizz_risk":1,"updated_at":"2026-03-02T14:22:00.758780+05:30"},{"city":"Thrissur","state":"Kerala","latitude":10.5276,"longitude":76.2144,"temp":31.8,"humidity":60,"rain":0.0,"pressure":1007.1,"uv_index":8.9,"wind_gusts":36.7,"aqi":96,"pm10":37.7,"pm2_5":35.9,"mosquito_risk":0,"arthritis_risk":5,"migraine_risk":4,"frizz_risk":1,"updated_at":"2026-03-02T14:22:00.758787+05:30"},{"city":"Kannur","state":"Kerala","latitude":11.8745,"longitude":75.3704,"temp":30.6,"humidity":62,"rain":0.0,"pressure":1007.6,"uv_index":8.75,"wind_gusts":33.8,"aqi":53,"pm10":20.1,"pm2_5":17.1,"mosquito_risk":3,"arthritis_risk":5,"migraine_risk":4,"frizz_risk":1,"updated_at":"2026-03-02T14:22:00.758795+05:30"},{"city":"Patna","state":"Bihar","latitude":25.5941,"longitude":85.1376,"temp":30.3,"humidity":31,"rain":0.0,"pressure":1002.1,"uv_index":7.05,"wind_gusts":29.2,"aqi":130,"pm10":166.7,"pm2_5":46.1,"mosquito_risk":0,"arthritis_risk":5,"migraine_risk":4,"frizz_risk":0,"updated_at":"2026-03-02T14:22:00.758803+05:30"},{"city":"Gaya","state":"Bihar","latitude":24.7914,"longitude":85.0002,"temp":30.2,"humidity":36,"rain":0.0,"pressure":995.4,"uv_index":7.15,"wind_gusts":27.4,"aqi":129,"pm10":113.4,"pm2_5":30.4,"mosquito_risk":0,"arthritis_risk":5,"migraine_risk":7,"frizz_risk":0,"updated_at":"2026-03-02T14:22:00.758809+05:30"},{"city":"Muzaffarpur","state":"Bihar","latitude":26.1209,"longitude":85.3647,"temp":30.5,"humidity":31,"rain":0.0,"pressure":1001.8,"uv_index":7.0,"wind_gusts":27.0,"aqi":124,"pm10":150.4,"pm2_5":46.8,"mosquito_risk":0,"arthritis_risk":5,"migraine_risk":4,"frizz_risk":0,"updated_at":"2026-03-02T14:22:00.758815+05:30"},{"city":"Bhagalpur","state":"Bihar","latitude":25.2425,"longitude":87.0117,"temp":29.7,"humidity":34,"rain":0.0,"pressure":1002.5,"uv_index":7.1,"wind_gusts":22.7,"aqi":150,"pm10":58.7,"pm2_5":34.7,"mosquito_risk":4,"arthritis_risk":5,"migraine_risk":4,"frizz_risk":0,"updated_at":"2026-03-02T14:22:00.758822+05:30"},{"city":"Ranchi","state":"Jharkhand","latitude":23.3441,"longitude":85.3096,"temp":29.7,"humidity":17,"rain":0.0,"pressure":939.5,"uv_index":7.8,"wind_gusts":42.8,"aqi":91,"pm10":33.8,"pm2_5":12.2,"mosquito_risk":4,"arthritis_risk":5,"migraine_risk":7,"frizz_risk":0,"updated_at":"2026-03-02T14:22:00.758829+05:30"},{"city":"Jamshedpur","state":"Jharkhand","latitude":22.8046,"longitude":86.2029,"temp":34.0,"humidity":25,"rain":0.0,"pressure":991.3,"uv_index":7.75,"wind_gusts":26.3,"aqi":152,"pm10":63.1,"pm2_5":24.1,"mosquito_risk":0,"arthritis_risk":5,"migraine_risk":7,"frizz_risk":0,"updated_at":"2026-03-02T14:22:00.758835+05:30"},{"city":"Dhanbad","state":"Jharkhand","latitude":23.7957,"longitude":86.4304,"temp":34.5,"humidity":15,"rain":0.0,"pressure":980.5,"uv_index":7.6,"wind_gusts":36.4,"aqi":136,"pm10":66.6,"pm2_5":22.0,"mosquito_risk":0,"arthritis_risk":5,"migraine_risk":7,"frizz_risk":0,"updated_at":"2026-03-02T14:22:00.758842+05:30"},{"city":"Bokaro","state":"Jharkhand","latitude":23.6693,"longitude":86.1511,"temp":33.8,"humidity":15,"rain":0.0,"pressure":984.6,"uv_index":7.6,"wind_gusts":40.7,"aqi":140,"pm10":63.1,"pm2_5":21.1,"mosquito_risk":0,"arthritis_risk":5,"migraine_risk":7,"frizz_risk":0,"updated_at":"2026-03-02T14:22:00.758849+05:30"},{"city":"Bhubaneswar","state":"Odisha","latitude":20.2961,"longitude":85.8245,"temp":34.3,"humidity":41,"rain":0.0,"pressure":1002.1,"uv_index":8.05,"wind_gusts":29.9,"aqi":145,"pm10":74.0,"pm2_5":65.7,"mosquito_risk":0,"arthritis_risk":5,"migraine_risk":4,"frizz_risk":1,"updated_at":"2026-03-02T14:22:00.758856+05:30"},{"city":"Cuttack","state":"Odisha","latitude":20.4625,"longitude":85.8828,"temp":36.0,"humidity":32,"rain":0.0,"pressure":1003.9,"uv_index":8.1,"wind_gusts":20.9,"aqi":145,"pm10":74.0,"pm2_5":65.7,"mosquito_risk":0,"arthritis_risk":5,"migraine_risk":7,"frizz_risk":1,"updated_at":"2026-03-02T14:22:00.758863+05:30"},{"city":"Rourkela","state":"Odisha","latitude":22.2604,"longitude":84.8536,"temp":34.3,"humidity":27,"rain":0.0,"pressure":985.9,"uv_index":7.65,"wind_gusts":27.4,"aqi":142,"pm10":37.8,"pm2_5":14.3,"mosquito_risk":0,"arthritis_risk":5,"migraine_risk":7,"frizz_risk":0,"updated_at":"2026-03-02T14:22:00.758870+05:30"},{"city":"Raipur","state":"Chhattisgarh","latitude":21.2514,"longitude":81.6296,"temp":34.1,"humidity":25,"rain":0.0,"pressure":976.3,"uv_index":7.8,"wind_gusts":24.1,"aqi":98,"pm10":36.6,"pm2_5":23.9,"mosquito_risk":0,"arthritis_risk":5,"migraine_risk":7,"frizz_risk":0,"updated_at":"2026-03-02T14:22:00.758875+05:30"},{"city":"Bhilai","state":"Chhattisgarh","latitude":21.1938,"longitude":81.3509,"temp":34.3,"humidity":27,"rain":0.0,"pressure":976.8,"uv_index":7.8,"wind_gusts":22.7,"aqi":85,"pm10":39.1,"pm2_5":26.6,"mosquito_risk":0,"arthritis_risk":5,"migraine_risk":7,"frizz_risk":0,"updated_at":"2026-03-02T14:22:00.758881+05:30"},{"city":"Guwahati","state":"Assam","latitude":26.1158,"longitude":91.7086,"temp":27.2,"humidity":56,"rain":0.0,"pressure":1002.5,"uv_index":7.0,"wind_gusts":28.4,"aqi":154,"pm10":71.9,"pm2_5":51.7,"mosquito_risk":4,"arthritis_risk":5,"migraine_risk":4,"frizz_risk":1,"updated_at":"2026-03-02T14:22:00.758887+05:30"},{"city":"Agartala","state":"Tripura","latitude":23.8315,"longitude":91.2868,"temp":30.3,"humidity":49,"rain":0.0,"pressure":1006.3,"uv_index":7.4,"wind_gusts":18.0,"aqi":121,"pm10":73.3,"pm2_5":58.9,"mosquito_risk":0,"arthritis_risk":5,"migraine_risk":4,"frizz_risk":1,"updated_at":"2026-03-02T14:22:00.758893+05:30"},{"city":"Shillong","state":"Meghalaya","latitude":25.5788,"longitude":91.8933,"temp":17.3,"humidity":42,"rain":0.0,"pressure":856.2,"uv_index":7.35,"wind_gusts":66.2,"aqi":120,"pm10":52.6,"pm2_5":36.8,"mosquito_risk":0,"arthritis_risk":5,"migraine_risk":7,"frizz_risk":0,"updated_at":"2026-03-02T14:22:00.758899+05:30"},{"city":"Imphal","state":"Manipur","latitude":24.817,"longitude":93.9368,"temp":21.0,"humidity":54,"rain":0.0,"pressure":923.4,"uv_index":7.6,"wind_gusts":72.4,"aqi":150,"pm10":58.3,"pm2_5":43.5,"mosquito_risk":0,"arthritis_risk":5,"migraine_risk":7,"frizz_risk":0,"updated_at":"2026-03-02T14:22:00.758906+05:30"},{"city":"Aizawl","state":"Mizoram","latitude":23.7271,"longitude":92.7176,"temp":23.4,"humidity":54,"rain":0.0,"pressure":894.1,"uv_index":7.45,"wind_gusts":41.8,"aqi":131,"pm10":66.6,"pm2_5":60.8,"mosquito_risk":0,"arthritis_risk":5,"migraine_risk":7,"frizz_risk":0,"updated_at":"2026-03-02T14:22:00.758912+05:30"},{"city":"Kohima","state":"Nagaland","latitude":25.6701,"longitude":94.1077,"temp":16.9,"humidity":51,"rain":0.0,"pressure":855.2,"uv_index":7.45,"wind_gusts":86.0,"aqi":151,"pm10":59.8,"pm2_5":43.2,"mosquito_risk":0,"arthritis_risk":5,"migraine_risk":7,"frizz_risk":0,"updated_at":"2026-03-02T14:22:00.758918+05:30"},{"city":"Gangtok","state":"Sikkim","latitude":27.3314,"longitude":88.6138,"temp":17.4,"humidity":57,"rain":0.0,"pressure":837.1,"uv_index":5.8,"wind_gusts":19.4,"aqi":140,"pm10":72.6,"pm2_5":49.1,"mosquito_risk":0,"arthritis_risk":5,"migraine_risk":3,"frizz_risk":0,"updated_at":"2026-03-02T14:22:00.758925+05:30"},{"city":"Siliguri","state":"West Bengal","latitude":26.7271,"longitude":88.3953,"temp":22.0,"humidity":67,"rain":0.0,"pressure":995.0,"uv_index":7.0,"wind_gusts":20.5,"aqi":172,"pm10":103.4,"pm2_5":67.5,"mosquito_risk":3,"arthritis_risk":5,"migraine_risk":7,"frizz_risk":0,"updated_at":"2026-03-02T14:22:04.005130+05:30"},{"city":"Durgapur","state":"West Bengal","latitude":23.5204,"longitude":87.3119,"temp":35.0,"humidity":21,"rain":0.0,"pressure":995.1,"uv_index":7.6,"wind_gusts":26.6,"aqi":136,"pm10":58.8,"pm2_5":21.5,"mosquito_risk":0,"arthritis_risk":5,"migraine_risk":7,"frizz_risk":0,"updated_at":"2026-03-02T14:22:04.005165+05:30"},{"city":"Asansol","state":"West Bengal","latitude":23.6739,"longitude":86.9524,"temp":35.4,"humidity":18,"rain":0.0,"pressure":993.9,"uv_index":7.6,"wind_gusts":29.2,"aqi":114,"pm10":64.5,"pm2_5":21.3,"mosquito_risk":0,"arthritis_risk":5,"migraine_risk":10,"frizz_risk":0,"updated_at":"2026-03-02T14:22:04.005176+05:30"},{"city":"Pondicherry","state":"Puducherry","latitude":11.9139,"longitude":79.8145,"temp":32.9,"humidity":44,"rain":0.0,"pressure":1009.1,"uv_index":8.8,"wind_gusts":27.7,"aqi":130,"pm10":51.3,"pm2_5":47.0,"mosquito_risk":0,"arthritis_risk":0,"migraine_risk":4,"frizz_risk":1,"updated_at":"2026-03-02T14:22:04.005184+05:30"},{"city":"Port Blair","state":"Andaman and Nicobar Islands","latitude":11.6234,"longitude":92.7265,"temp":26.9,"humidity":78,"rain":0.0,"pressure":1006.9,"uv_index":8.75,"wind_gusts":18.0,"aqi":74,"pm10":28.8,"pm2_5":22.2,"mosquito_risk":7,"arthritis_risk":5,"migraine_risk":4,"frizz_risk":1,"updated_at":"2026-03-02T14:22:04.005192+05:30"},{"city":"Haridwar","state":"Uttarakhand","latitude":29.9457,"longitude":78.1642,"temp":28.8,"humidity":41,"rain":0.0,"pressure":976.2,"uv_index":5.55,"wind_gusts":43.9,"aqi":95,"pm10":33.5,"pm2_5":24.6,"mosquito_risk":4,"arthritis_risk":5,"migraine_risk":3,"frizz_risk":0,"updated_at":"2026-03-02T14:22:04.005199+05:30"},{"city":"Rishikesh","state":"Uttarakhand","latitude":30.0869,"longitude":78.2676,"temp":27.6,"humidity":38,"rain":0.0,"pressure":969.0,"uv_index":5.6,"wind_gusts":34.2,"aqi":77,"pm10":30.7,"pm2_5":20.5,"mosquito_risk":4,"arthritis_risk":5,"migraine_risk":3,"frizz_risk":0,"updated_at":"2026-03-02T14:22:04.005206+05:30"},{"city":"Nainital","state":"Uttarakhand","latitude":29.3919,"longitude":79.4542,"temp":20.4,"humidity":47,"rain":0.0,"pressure":807.7,"uv_index":6.4,"wind_gusts":48.6,"aqi":78,"pm10":32.5,"pm2_5":23.7,"mosquito_risk":0,"arthritis_risk":5,"migraine_risk":7,"frizz_risk":0,"updated_at":"2026-03-02T14:22:04.005214+05:30"},{"city":"Mussoorie","state":"Uttarakhand","latitude":30.4599,"longitude":78.0664,"temp":19.4,"humidity":41,"rain":0.0,"pressure":804.7,"uv_index":5.9,"wind_gusts":32.8,"aqi":80,"pm10":30.2,"pm2_5":21.8,"mosquito_risk":0,"arthritis_risk":5,"migraine_risk":3,"frizz_risk":0,"updated_at":"2026-03-02T14:22:04.005221+05:30"},{"city":"Dharamshala","state":"Himachal Pradesh","latitude":32.219,"longitude":76.3234,"temp":22.3,"humidity":46,"rain":0.0,"pressure":871.7,"uv_index":6.1,"wind_gusts":27.4,"aqi":57,"pm10":19.4,"pm2_5":12.3,"mosquito_risk":0,"arthritis_risk":5,"migraine_risk":7,"frizz_risk":0,"updated_at":"2026-03-02T14:22:04.005229+05:30"},{"city":"Dalhousie","state":"Himachal Pradesh","latitude":32.5387,"longitude":75.971,"temp":21.5,"humidity":35,"rain":0.0,"pressure":807.3,"uv_index":6.35,"wind_gusts":23.8,"aqi":102,"pm10":33.2,"pm2_5":22.2,"mosquito_risk":0,"arthritis_risk":5,"migraine_risk":7,"frizz_risk":0,"updated_at":"2026-03-02T14:22:04.005237+05:30"},{"city":"Patiala","state":"Punjab","latitude":30.3398,"longitude":76.3869,"temp":28.9,"humidity":39,"rain":0.0,"pressure":981.7,"uv_index":5.55,"wind_gusts":37.1,"aqi":158,"pm10":308.3,"pm2_5":61.0,"mosquito_risk":4,"arthritis_risk":5,"migraine_risk":3,"frizz_risk":0,"updated_at":"2026-03-02T14:22:04.005244+05:30"},{"city":"Bhatinda","state":"Punjab","latitude":30.211,"longitude":74.9455,"temp":30.3,"humidity":28,"rain":0.0,"pressure":987.7,"uv_index":6.2,"wind_gusts":24.8,"aqi":158,"pm10":83.4,"pm2_5":51.1,"mosquito_risk":0,"arthritis_risk":5,"migraine_risk":7,"frizz_risk":0,"updated_at":"2026-03-02T14:22:04.005251+05:30"},{"city":"Rohtak","state":"Haryana","latitude":28.8955,"longitude":76.6066,"temp":29.9,"humidity":38,"rain":0.0,"pressure":985.4,"uv_index":5.75,"wind_gusts":33.8,"aqi":236,"pm10":409.8,"pm2_5":68.9,"mosquito_risk":4,"arthritis_risk":5,"migraine_risk":3,"frizz_risk":0,"updated_at":"2026-03-02T14:22:04.005257+05:30"},{"city":"Panipat","state":"Haryana","latitude":29.3909,"longitude":76.9635,"temp":29.0,"humidity":39,"rain":0.0,"pressure":983.9,"uv_index":5.55,"wind_gusts":34.6,"aqi":595,"pm10":875.4,"pm2_5":103.8,"mosquito_risk":4,"arthritis_risk":5,"migraine_risk":3,"frizz_risk":0,"updated_at":"2026-03-02T14:22:04.005264+05:30"},{"city":"Mathura","state":"Uttar Pradesh","latitude":27.4924,"longitude":77.6737,"temp":31.2,"humidity":34,"rain":0.0,"pressure":990.3,"uv_index":6.0,"wind_gusts":26.3,"aqi":367,"pm10":471.2,"pm2_5":70.8,"mosquito_risk":0,"arthritis_risk":5,"migraine_risk":3,"frizz_risk":0,"updated_at":"2026-03-02T14:22:04.005271+05:30"},{"city":"Vrindavan","state":"Uttar Pradesh","latitude":27.5823,"longitude":77.7027,"temp":30.9,"humidity":35,"rain":0.0,"pressure":990.7,"uv_index":6.0,"wind_gusts":29.9,"aqi":367,"pm10":471.2,"pm2_5":70.8,"mosquito_risk":0,"arthritis_risk":5,"migraine_risk":3,"frizz_risk":0,"updated_at":"2026-03-02T14:22:04.005277+05:30"},{"city":"Ayodhya","state":"Uttar Pradesh","latitude":26.7922,"longitude":82.1998,"temp":30.1,"humidity":27,"rain":0.0,"pressure":997.3,"uv_index":6.4,"wind_gusts":35.6,"aqi":111,"pm10":78.0,"pm2_5":44.2,"mosquito_risk":0,"arthritis_risk":5,"migraine_risk":7,"frizz_risk":0,"updated_at":"2026-03-02T14:22:04.005284+05:30"},{"city":"Ratlam","state":"Madhya Pradesh","latitude":23.3315,"longitude":75.0367,"temp":31.7,"humidity":30,"rain":0.0,"pressure":957.7,"uv_index":7.25,"wind_gusts":7.6,"aqi":108,"pm10":28.8,"pm2_5":20.1,"mosquito_risk":0,"arthritis_risk":5,"migraine_risk":7,"frizz_risk":0,"updated_at":"2026-03-02T14:22:04.005290+05:30"},{"city":"Sagar","state":"Madhya Pradesh","latitude":23.8388,"longitude":78.7378,"temp":31.5,"humidity":25,"rain":0.0,"pressure":953.4,"uv_index":7.2,"wind_gusts":24.5,"aqi":67,"pm10":25.9,"pm2_5":15.1,"mosquito_risk":0,"arthritis_risk":5,"migraine_risk":7,"frizz_risk":0,"updated_at":"2026-03-02T14:22:04.005297+05:30"},{"city":"Satna","state":"Madhya Pradesh","latitude":24.6005,"longitude":80.8322,"temp":33.1,"humidity":16,"rain":0.0,"pressure":974.2,"uv_index":7.15,"wind_gusts":36.7,"aqi":62,"pm10":44.2,"pm2_5":17.9,"mosquito_risk":0,"arthritis_risk":5,"migraine_risk":7,"frizz_risk":0,"updated_at":"2026-03-02T14:22:04.005304+05:30"},{"city":"Akola","state":"Maharashtra","latitude":20.7002,"longitude":77.0082,"temp":35.9,"humidity":24,"rain":0.0,"pressure":976.9,"uv_index":7.75,"wind_gusts":23.8,"aqi":70,"pm10":22.1,"pm2_5":19.6,"mosquito_risk":0,"arthritis_risk":5,"migraine_risk":10,"frizz_risk":0,"updated_at":"2026-03-02T14:22:04.005310+05:30"},{"city":"Amravati","state":"Maharashtra","latitude":20.9374,"longitude":77.7796,"temp":35.9,"humidity":21,"rain":0.0,"pressure":969.1,"uv_index":7.7,"wind_gusts":22.7,"aqi":70,"pm10":21.0,"pm2_5":18.2,"mosquito_risk":0,"arthritis_risk":5,"migraine_risk":10,"frizz_risk":0,"updated_at":"2026-03-02T14:22:04.005317+05:30"},{"city":"Latur","state":"Maharashtra","latitude":18.4088,"longitude":76.5604,"temp":33.3,"humidity":28,"rain":0.0,"pressure":941.3,"uv_index":8.15,"wind_gusts":26.3,"aqi":81,"pm10":34.5,"pm2_5":33.9,"mosquito_risk":0,"arthritis_risk":5,"migraine_risk":7,"frizz_risk":0,"updated_at":"2026-03-02T14:22:04.005323+05:30"},{"city":"Nanded","state":"Maharashtra","latitude":19.1383,"longitude":77.3091,"temp":35.2,"humidity":28,"rain":0.0,"pressure":970.2,"uv_index":7.95,"wind_gusts":18.7,"aqi":78,"pm10":20.1,"pm2_5":19.3,"mosquito_risk":0,"arthritis_risk":5,"migraine_risk":10,"frizz_risk":0,"updated_at":"2026-03-02T14:22:04.005329+05:30"},{"city":"Gulbarga","state":"Karnataka","latitude":17.3297,"longitude":76.8343,"temp":34.6,"humidity":27,"rain":0.0,"pressure":959.6,"uv_index":8.25,"wind_gusts":19.4,"aqi":125,"pm10":43.5,"pm2_5":42.7,"mosquito_risk":0,"arthritis_risk":5,"migraine_risk":7,"frizz_risk":0,"updated_at":"2026-03-02T14:22:04.005335+05:30"},{"city":"Bidar","state":"Karnataka","latitude":17.9104,"longitude":77.5199,"temp":32.8,"humidity":34,"rain":0.0,"pressure":936.6,"uv_index":8.2,"wind_gusts":17.3,"aqi":152,"pm10":47.5,"pm2_5":46.8,"mosquito_risk":0,"arthritis_risk":5,"migraine_risk":7,"frizz_risk":0,"updated_at":"2026-03-02T14:22:04.005340+05:30"},{"city":"Hospet","state":"Karnataka","latitude":15.2689,"longitude":76.3909,"temp":33.5,"humidity":33,"rain":0.0,"pressure":956.5,"uv_index":8.6,"wind_gusts":21.2,"aqi":112,"pm10":38.9,"pm2_5":38.1,"mosquito_risk":0,"arthritis_risk":5,"migraine_risk":7,"frizz_risk":0,"updated_at":"2026-03-02T14:22:04.005346+05:30"},{"city":"Tirupur","state":"Tamil Nadu","latitude":11.1085,"longitude":77.3411,"temp":35.5,"humidity":27,"rain":0.0,"pressure":975.0,"uv_index":9.1,"wind_gusts":32.0,"aqi":150,"pm10":41.6,"pm2_5":39.9,"mosquito_risk":0,"arthritis_risk":5,"migraine_risk":10,"frizz_risk":0,"updated_at":"2026-03-02T14:22:04.005352+05:30"},{"city":"Alappuzha","state":"Kerala","latitude":9.4981,"longitude":76.3388,"temp":27.9,"humidity":79,"rain":0.0,"pressure":1008.8,"uv_index":8.95,"wind_gusts":29.5,"aqi":87,"pm10":33.4,"pm2_5":31.9,"mosquito_risk":7,"arthritis_risk":0,"migraine_risk":4,"frizz_risk":1,"updated_at":"2026-03-02T14:22:04.005358+05:30"},{"city":"Munnar","state":"Kerala","latitude":10.0889,"longitude":77.0595,"temp":29.4,"humidity":38,"rain":0.0,"pressure":858.8,"uv_index":9.4,"wind_gusts":23.8,"aqi":131,"pm10":35.0,"pm2_5":33.6,"mosquito_risk":4,"arthritis_risk":5,"migraine_risk":7,"frizz_risk":0,"updated_at":"2026-03-02T14:22:04.005365+05:30"},{"city":"Silchar","state":"Assam","latitude":24.8333,"longitude":92.7789,"temp":29.8,"humidity":48,"rain":0.0,"pressure":1005.3,"uv_index":7.35,"wind_gusts":18.7,"aqi":153,"pm10":70.3,"pm2_5":51.5,"mosquito_risk":4,"arthritis_risk":5,"migraine_risk":4,"frizz_risk":1,"updated_at":"2026-03-02T14:22:04.005370+05:30"},{"city":"Dibrugarh","state":"Assam","latitude":27.4728,"longitude":94.912,"temp":24.2,"humidity":64,"rain":0.0,"pressure":997.4,"uv_index":7.05,"wind_gusts":11.9,"aqi":152,"pm10":95.9,"pm2_5":67.3,"mosquito_risk":3,"arthritis_risk":5,"migraine_risk":7,"frizz_risk":1,"updated_at":"2026-03-02T14:22:04.005394+05:30"}]