[{"city":"Delhi","state":"Delhi","latitude":28.6139,"longitude":77.209,"temp":17.6,"humidity":73,"rain":0.0,"pressure":983.1,"uv_index":5.6,"aqi":155,"mosquito_risk":3,"arthritis_risk":5,"migraine_risk":3,"frizz_risk":0,"updated_at":"2026-02-27T02:11:38.789595+05:30"},{"city":"Mumbai","state":"Maharashtra","latitude":19.076,"longitude":72.8777,"temp":25.8,"humidity":71,"rain":0.0,"pressure":1009.2,"uv_index":7.35,"aqi":73,"mosquito_risk":7,"arthritis_risk":0,"migraine_risk":4,"frizz_risk":1,"updated_at":"2026-02-27T02:11:38.789632+05:30"},{"city":"Bangalore","state":"Karnataka","latitude":12.9716,"longitude":77.5946,"temp":21.9,"humidity":69,"rain":0.0,"pressure":910.5,"uv_index":8.95,"aqi":112,"mosquito_risk":3,"arthritis_risk":5,"migraine_risk":7,"frizz_risk":0,"updated_at":"2026-02-27T02:11:38.789652+05:30"},{"city":"Hyderabad","state":"Telangana","latitude":17.385,"longitude":78.4867,"temp":22.7,"humidity":71,"rain":0.0,"pressure":952.3,"uv_index":8.15,"aqi":141,"mosquito_risk":3,"arthritis_risk":5,"migraine_risk":7,"frizz_risk":1,"updated_at":"2026-02-27T02:11:38.789662+05:30"},{"city":"Chennai","state":"Tamil Nadu","latitude":13.0827,"longitude":80.2707,"temp":25.0,"humidity":87,"rain":0.0,"pressure":1007.4,"uv_index":8.65,"aqi":94,"mosquito_risk":7,"arthritis_risk":5,"migraine_risk":4,"frizz_risk":1,"updated_at":"2026-02-27T02:11:38.789673+05:30"},{"city":"Kolkata","state":"West Bengal","latitude":22.5726,"longitude":88.3639,"temp":19.0,"humidity":71,"rain":0.0,"pressure":1006.9,"uv_index":7.5,"aqi":169,"mosquito_risk":3,"arthritis_risk":5,"migraine_risk":4,"frizz_risk":0,"updated_at":"2026-02-27T02:11:38.789681+05:30"},{"city":"Pune","state":"Maharashtra","latitude":18.5204,"longitude":73.8567,"temp":16.4,"humidity":85,"rain":0.0,"pressure":947.3,"uv_index":7.85,"aqi":65,"mosquito_risk":3,"arthritis_risk":10,"migraine_risk":7,"frizz_risk":0,"updated_at":"2026-02-27T02:11:38.789689+05:30"},{"city":"Ahmedabad","state":"Gujarat","latitude":23.0225,"longitude":72.5714,"temp":20.6,"humidity":72,"rain":0.0,"pressure":1002.1,"uv_index":7.1,"aqi":76,"mosquito_risk":3,"arthritis_risk":5,"migraine_risk":4,"frizz_risk":0,"updated_at":"2026-02-27T02:11:38.789696+05:30"},{"city":"Jaipur","state":"Rajasthan","latitude":26.9124,"longitude":75.7873,"temp":20.5,"humidity":41,"rain":0.0,"pressure":959.3,"uv_index":6.45,"aqi":93,"mosquito_risk":0,"arthritis_risk":5,"migraine_risk":7,"frizz_risk":0,"updated_at":"2026-02-27T02:11:38.789706+05:30"},{"city":"Lucknow","state":"Uttar Pradesh","latitude":26.8467,"longitude":80.9462,"temp":18.2,"humidity":62,"rain":0.0,"pressure":994.0,"uv_index":6.05,"aqi":147,"mosquito_risk":3,"arthritis_risk":5,"migraine_risk":7,"frizz_risk":0,"updated_at":"2026-02-27T02:11:38.789713+05:30"},{"city":"Kanpur","state":"Uttar Pradesh","latitude":26.4499,"longitude":80.3319,"temp":18.6,"humidity":60,"rain":0.0,"pressure":992.3,"uv_index":6.05,"aqi":150,"mosquito_risk":0,"arthritis_risk":5,"migraine_risk":7,"frizz_risk":0,"updated_at":"2026-02-27T02:11:38.789720+05:30"},{"city":"Chandigarh","state":"Chandigarh","latitude":30.7333,"longitude":76.7794,"temp":16.0,"humidity":76,"rain":0.0,"pressure":968.4,"uv_index":5.5,"aqi":130,"mosquito_risk":3,"arthritis_risk":5,"migraine_risk":3,"frizz_risk":0,"updated_at":"2026-02-27T02:11:38.789727+05:30"},{"city":"Srinagar","state":"Jammu and Kashmir","latitude":34.0837,"longitude":74.7973,"temp":3.4,"humidity":80,"rain":0.0,"pressure":835.3,"uv_index":6.35,"aqi":144,"mosquito_risk":3,"arthritis_risk":5,"migraine_risk":7,"frizz_risk":0,"updated_at":"2026-02-27T02:11:38.789733+05:30"},{"city":"Jammu","state":"Jammu and Kashmir","latitude":32.7266,"longitude":74.857,"temp":15.9,"humidity":84,"rain":0.0,"pressure":972.9,"uv_index":6.1,"aqi":123,"mosquito_risk":3,"arthritis_risk":10,"migraine_risk":7,"frizz_risk":0,"updated_at":"2026-02-27T02:11:38.789740+05:30"},{"city":"Amritsar","state":"Punjab","latitude":31.634,"longitude":74.8723,"temp":15.7,"humidity":85,"rain":0.0,"pressure":981.0,"uv_index":6.05,"aqi":171,"mosquito_risk":3,"arthritis_risk":10,"migraine_risk":7,"frizz_risk":0,"updated_at":"2026-02-27T02:11:38.789746+05:30"},{"city":"Ludhiana","state":"Punjab","latitude":30.901,"longitude":75.8573,"temp":17.6,"humidity":80,"rain":0.0,"pressure":978.9,"uv_index":5.75,"aqi":173,"mosquito_risk":3,"arthritis_risk":5,"migraine_risk":3,"frizz_risk":0,"updated_at":"2026-02-27T02:11:38.789753+05:30"},{"city":"Jalandhar","state":"Punjab","latitude":31.326,"longitude":75.5762,"temp":16.3,"humidity":88,"rain":0.0,"pressure":980.2,"uv_index":5.9,"aqi":176,"mosquito_risk":3,"arthritis_risk":10,"migraine_risk":3,"frizz_risk":0,"updated_at":"2026-02-27T02:11:38.789760+05:30"},{"city":"Dehradun","state":"Uttarakhand","latitude":30.6284,"longitude":78.0322,"temp":9.4,"humidity":80,"rain":0.0,"pressure":825.8,"uv_index":5.85,"aqi":76,"mosquito_risk":3,"arthritis_risk":5,"migraine_risk":3,"frizz_risk":0,"updated_at":"2026-02-27T02:11:38.789766+05:30"},{"city":"Shimla","state":"Himachal Pradesh","latitude":31.1048,"longitude":77.1734,"temp":5.9,"humidity":62,"rain":0.0,"pressure":778.4,"uv_index":5.9,"aqi":92,"mosquito_risk":3,"arthritis_risk":5,"migraine_risk":3,"frizz_risk":1,"updated_at":"2026-02-27T02:11:38.789775+05:30"},{"city":"Manali","state":"Himachal Pradesh","latitude":32.2396,"longitude":77.1887,"temp":9.3,"humidity":62,"rain":0.0,"pressure":814.5,"uv_index":7.35,"aqi":101,"mosquito_risk":3,"arthritis_risk":5,"migraine_risk":7,"frizz_risk":0,"updated_at":"2026-02-27T02:11:38.789783+05:30"},{"city":"Gurgaon","state":"Haryana","latitude":28.4595,"longitude":77.0266,"temp":13.7,"humidity":90,"rain":0.0,"pressure":981.2,"uv_index":5.7,"aqi":191,"mosquito_risk":3,"arthritis_risk":10,"migraine_risk":3,"frizz_risk":0,"updated_at":"2026-02-27T02:11:38.789790+05:30"},{"city":"Noida","state":"Uttar Pradesh","latitude":28.5355,"longitude":77.391,"temp":17.8,"humidity":72,"rain":0.0,"pressure":984.7,"uv_index":5.6,"aqi":191,"mosquito_risk":3,"arthritis_risk":5,"migraine_risk":3,"frizz_risk":0,"updated_at":"2026-02-27T02:11:38.789797+05:30"},{"city":"Ghaziabad","state":"Uttar Pradesh","latitude":28.6692,"longitude":77.4538,"temp":16.3,"humidity":83,"rain":0.0,"pressure":982.9,"uv_index":5.55,"aqi":153,"mosquito_risk":3,"arthritis_risk":10,"migraine_risk":3,"frizz_risk":0,"updated_at":"2026-02-27T02:11:38.789803+05:30"},{"city":"Faridabad","state":"Haryana","latitude":28.4089,"longitude":77.3178,"temp":16.0,"humidity":75,"rain":0.0,"pressure":983.7,"uv_index":5.65,"aqi":191,"mosquito_risk":3,"arthritis_risk":5,"migraine_risk":3,"frizz_risk":0,"updated_at":"2026-02-27T02:11:38.789809+05:30"},{"city":"Meerut","state":"Uttar Pradesh","latitude":28.9845,"longitude":77.7064,"temp":15.9,"humidity":89,"rain":0.0,"pressure":981.6,"uv_index":5.45,"aqi":153,"mosquito_risk":3,"arthritis_risk":10,"migraine_risk":3,"frizz_risk":0,"updated_at":"2026-02-27T02:11:38.789816+05:30"},{"city":"Agra","state":"Uttar Pradesh","latitude":27.1767,"longitude":78.0081,"temp":18.0,"humidity":53,"rain":0.0,"pressure":988.2,"uv_index":5.95,"aqi":157,"mosquito_risk":0,"arthritis_risk":5,"migraine_risk":3,"frizz_risk":0,"updated_at":"2026-02-27T02:11:38.789822+05:30"},{"city":"Varanasi","state":"Uttar Pradesh","latitude":25.3176,"longitude":82.9739,"temp":17.2,"humidity":72,"rain":0.0,"pressure":998.7,"uv_index":6.75,"aqi":113,"mosquito_risk":3,"arthritis_risk":5,"migraine_risk":7,"frizz_risk":0,"updated_at":"2026-02-27T02:11:38.789829+05:30"},{"city":"Prayagraj","state":"Uttar Pradesh","latitude":25.4358,"longitude":81.8463,"temp":18.8,"humidity":76,"rain":0.0,"pressure":997.3,"uv_index":6.6,"aqi":129,"mosquito_risk":3,"arthritis_risk":5,"migraine_risk":7,"frizz_risk":0,"updated_at":"2026-02-27T02:11:38.789836+05:30"},{"city":"Gorakhpur","state":"Uttar Pradesh","latitude":26.7606,"longitude":83.3732,"temp":15.3,"humidity":76,"rain":0.0,"pressure":997.9,"uv_index":6.45,"aqi":152,"mosquito_risk":3,"arthritis_risk":5,"migraine_risk":7,"frizz_risk":0,"updated_at":"2026-02-27T02:11:38.789845+05:30"},{"city":"Bareilly","state":"Uttar Pradesh","latitude":28.367,"longitude":79.4304,"temp":15.1,"humidity":86,"rain":0.0,"pressure":987.0,"uv_index":5.75,"aqi":152,"mosquito_risk":3,"arthritis_risk":10,"migraine_risk":3,"frizz_risk":0,"updated_at":"2026-02-27T02:11:38.789851+05:30"},{"city":"Aligarh","state":"Uttar Pradesh","latitude":27.8974,"longitude":78.088,"temp":15.5,"humidity":70,"rain":0.0,"pressure":985.8,"uv_index":5.7,"aqi":158,"mosquito_risk":3,"arthritis_risk":5,"migraine_risk":3,"frizz_risk":0,"updated_at":"2026-02-27T02:11:38.789857+05:30"},{"city":"Moradabad","state":"Uttar Pradesh","latitude":28.8386,"longitude":78.7733,"temp":15.0,"humidity":86,"rain":0.0,"pressure":983.8,"uv_index":5.6,"aqi":152,"mosquito_risk":3,"arthritis_risk":10,"migraine_risk":3,"frizz_risk":0,"updated_at":"2026-02-27T02:11:38.789863+05:30"},{"city":"Saharanpur","state":"Uttar Pradesh","latitude":29.9637,"longitude":77.546,"temp":15.4,"humidity":88,"rain":0.0,"pressure":975.4,"uv_index":5.25,"aqi":162,"mosquito_risk":3,"arthritis_risk":10,"migraine_risk":3,"frizz_risk":0,"updated_at":"2026-02-27T02:11:38.789887+05:30"},{"city":"Jhansi","state":"Uttar Pradesh","latitude":25.4484,"longitude":78.5685,"temp":18.9,"humidity":72,"rain":0.0,"pressure":978.4,"uv_index":6.55,"aqi":87,"mosquito_risk":3,"arthritis_risk":5,"migraine_risk":7,"frizz_risk":0,"updated_at":"2026-02-27T02:11:42.132979+05:30"},{"city":"Surat","state":"Gujarat","latitude":21.1702,"longitude":72.8311,"temp":23.4,"humidity":75,"rain":0.0,"pressure":1007.7,"uv_index":7.05,"aqi":86,"mosquito_risk":3,"arthritis_risk":5,"migraine_risk":4,"frizz_risk":1,"updated_at":"2026-02-27T02:11:42.133017+05:30"},{"city":"Vadodara","state":"Gujarat","latitude":22.3072,"longitude":73.1812,"temp":21.0,"humidity":85,"rain":0.0,"pressure":1004.7,"uv_index":7.15,"aqi":66,"mosquito_risk":3,"arthritis_risk":5,"migraine_risk":4,"frizz_risk":1,"updated_at":"2026-02-27T02:11:42.133030+05:30"},{"city":"Rajkot","state":"Gujarat","latitude":22.3039,"longitude":70.8022,"temp":20.7,"humidity":74,"rain":0.0,"pressure":994.5,"uv_index":7.05,"aqi":58,"mosquito_risk":3,"arthritis_risk":5,"migraine_risk":7,"frizz_risk":0,"updated_at":"2026-02-27T02:11:42.133039+05:30"},{"city":"Thane","state":"Maharashtra","latitude":19.2183,"longitude":72.9781,"temp":23.8,"humidity":79,"rain":0.0,"pressure":1008.7,"uv_index":7.35,"aqi":73,"mosquito_risk":3,"arthritis_risk":0,"migraine_risk":4,"frizz_risk":1,"updated_at":"2026-02-27T02:11:42.133048+05:30"},{"city":"Nagpur","state":"Maharashtra","latitude":21.1458,"longitude":79.0882,"temp":22.6,"humidity":60,"rain":0.0,"pressure":973.0,"uv_index":7.45,"aqi":102,"mosquito_risk":0,"arthritis_risk":5,"migraine_risk":7,"frizz_risk":0,"updated_at":"2026-02-27T02:11:42.133056+05:30"},{"city":"Nashik","state":"Maharashtra","latitude":19.9975,"longitude":73.7898,"temp":17.5,"humidity":95,"rain":0.0,"pressure":944.6,"uv_index":7.5,"aqi":48,"mosquito_risk":3,"arthritis_risk":10,"migraine_risk":7,"frizz_risk":1,"updated_at":"2026-02-27T02:11:42.133064+05:30"},{"city":"Aurangabad","state":"Maharashtra","latitude":19.8762,"longitude":75.3433,"temp":21.4,"humidity":63,"rain":0.0,"pressure":943.1,"uv_index":7.85,"aqi":77,"mosquito_risk":3,"arthritis_risk":5,"migraine_risk":7,"frizz_risk":0,"updated_at":"2026-02-27T02:11:42.133073+05:30"},{"city":"Solapur","state":"Maharashtra","latitude":17.6599,"longitude":75.9064,"temp":21.1,"humidity":67,"rain":0.0,"pressure":956.0,"uv_index":8.1,"aqi":81,"mosquito_risk":3,"arthritis_risk":5,"migraine_risk":7,"frizz_risk":0,"updated_at":"2026-02-27T02:11:42.133081+05:30"},{"city":"Kolhapur","state":"Maharashtra","latitude":16.705,"longitude":74.2433,"temp":16.8,"humidity":67,"rain":0.0,"pressure":946.5,"uv_index":8.3,"aqi":64,"mosquito_risk":3,"arthritis_risk":5,"migraine_risk":7,"frizz_risk":0,"updated_at":"2026-02-27T02:11:42.133090+05:30"},{"city":"Goa","state":"Goa","latitude":15.2993,"longitude":74.124,"temp":23.9,"humidity":84,"rain":0.0,"pressure":997.1,"uv_index":8.3,"aqi":56,"mosquito_risk":3,"arthritis_risk":5,"migraine_risk":7,"frizz_risk":1,"updated_at":"2026-02-27T02:11:42.133097+05:30"},{"city":"Jodhpur","state":"Rajasthan","latitude":26.2389,"longitude":73.0243,"temp":22.0,"humidity":48,"rain":0.0,"pressure":982.1,"uv_index":6.7,"aqi":73,"mosquito_risk":0,"arthritis_risk":5,"migraine_risk":7,"frizz_risk":0,"updated_at":"2026-02-27T02:11:42.133105+05:30"},{"city":"Udaipur","state":"Rajasthan","latitude":24.5854,"longitude":73.7125,"temp":20.0,"humidity":55,"rain":0.0,"pressure":945.9,"uv_index":7.35,"aqi":68,"mosquito_risk":0,"arthritis_risk":5,"migraine_risk":7,"frizz_risk":0,"updated_at":"2026-02-27T02:11:42.133113+05:30"},{"city":"Kota","state":"Rajasthan","latitude":25.2138,"longitude":75.8648,"temp":19.4,"humidity":75,"rain":0.0,"pressure":978.2,"uv_index":6.75,"aqi":93,"mosquito_risk":3,"arthritis_risk":5,"migraine_risk":7,"frizz_risk":0,"updated_at":"2026-02-27T02:11:42.133121+05:30"},{"city":"Bikaner","state":"Rajasthan","latitude":28.0229,"longitude":73.3119,"temp":23.0,"humidity":36,"rain":0.0,"pressure":981.6,"uv_index":6.35,"aqi":54,"mosquito_risk":0,"arthritis_risk":5,"migraine_risk":7,"frizz_risk":0,"updated_at":"2026-02-27T02:11:42.133129+05:30"},{"city":"Ajmer","state":"Rajasthan","latitude":26.4499,"longitude":74.6399,"temp":20.9,"humidity":42,"rain":0.0,"pressure":953.5,"uv_index":6.7,"aqi":82,"mosquito_risk":0,"arthritis_risk":5,"migraine_risk":7,"frizz_risk":0,"updated_at":"2026-02-27T02:11:42.133137+05:30"},{"city":"Gwalior","state":"Madhya Pradesh","latitude":26.2183,"longitude":78.1828,"temp":19.5,"humidity":65,"rain":0.0,"pressure":983.8,"uv_index":6.25,"aqi":106,"mosquito_risk":3,"arthritis_risk":5,"migraine_risk":7,"frizz_risk":0,"updated_at":"2026-02-27T02:11:42.133145+05:30"},{"city":"Indore","state":"Madhya Pradesh","latitude":22.7196,"longitude":75.8577,"temp":18.8,"humidity":65,"rain":0.0,"pressure":946.8,"uv_index":7.25,"aqi":89,"mosquito_risk":3,"arthritis_risk":5,"migraine_risk":7,"frizz_risk":0,"updated_at":"2026-02-27T02:11:42.133154+05:30"},{"city":"Bhopal","state":"Madhya Pradesh","latitude":23.2599,"longitude":77.4126,"temp":19.6,"humidity":58,"rain":0.0,"pressure":952.7,"uv_index":7.1,"aqi":74,"mosquito_risk":0,"arthritis_risk":5,"migraine_risk":7,"frizz_risk":0,"updated_at":"2026-02-27T02:11:42.133162+05:30"},{"city":"Jabalpur","state":"Madhya Pradesh","latitude":23.1815,"longitude":79.9864,"temp":19.5,"humidity":50,"rain":0.0,"pressure":961.1,"uv_index":7.2,"aqi":69,"mosquito_risk":0,"arthritis_risk":5,"migraine_risk":7,"frizz_risk":0,"updated_at":"2026-02-27T02:11:42.133171+05:30"},{"city":"Ujjain","state":"Madhya Pradesh","latitude":23.1765,"longitude":75.7885,"temp":19.5,"humidity":59,"rain":0.0,"pressure":952.8,"uv_index":7.15,"aqi":97,"mosquito_risk":0,"arthritis_risk":5,"migraine_risk":7,"frizz_risk":0,"updated_at":"2026-02-27T02:11:42.133180+05:30"},{"city":"Visakhapatnam","state":"Andhra Pradesh","latitude":17.6868,"longitude":83.2185,"temp":24.4,"humidity":91,"rain":0.0,"pressure":1004.3,"uv_index":8.15,"aqi":127,"mosquito_risk":3,"arthritis_risk":5,"migraine_risk":4,"frizz_risk":1,"updated_at":"2026-02-27T02:11:42.133188+05:30"},{"city":"Vijayawada","state":"Andhra Pradesh","latitude":16.5062,"longitude":80.648,"temp":24.2,"humidity":94,"rain":0.0,"pressure":1002.6,"uv_index":8.2,"aqi":112,"mosquito_risk":3,"arthritis_risk":5,"migraine_risk":4,"frizz_risk":1,"updated_at":"2026-02-27T02:11:42.133195+05:30"},{"city":"Guntur","state":"Andhra Pradesh","latitude":16.3067,"longitude":80.4365,"temp":24.2,"humidity":93,"rain":0.0,"pressure":1003.8,"uv_index":8.2,"aqi":107,"mosquito_risk":3,"arthritis_risk":5,"migraine_risk":4,"frizz_risk":1,"updated_at":"2026-02-27T02:11:42.133203+05:30"},{"city":"Nellore","state":"Andhra Pradesh","latitude":14.4426,"longitude":79.9865,"temp":24.9,"humidity":87,"rain":0.0,"pressure":1006.0,"uv_index":8.45,"aqi":85,"mosquito_risk":3,"arthritis_risk":5,"migraine_risk":4,"frizz_risk":1,"updated_at":"2026-02-27T02:11:42.133210+05:30"},{"city":"Kurnool","state":"Andhra Pradesh","latitude":15.8281,"longitude":78.0373,"temp":24.9,"humidity":61,"rain":0.0,"pressure":975.9,"uv_index":8.25,"aqi":103,"mosquito_risk":3,"arthritis_risk":5,"migraine_risk":7,"frizz_risk":1,"updated_at":"2026-02-27T02:11:42.133216+05:30"},{"city":"Kakinada","state":"Andhra Pradesh","latitude":16.9891,"longitude":82.2475,"temp":22.4,"humidity":97,"rain":0.0,"pressure":1007.8,"uv_index":8.15,"aqi":79,"mosquito_risk":3,"arthritis_risk":5,"migraine_risk":4,"frizz_risk":1,"updated_at":"2026-02-27T02:11:42.133223+05:30"},{"city":"Tirupati","state":"Andhra Pradesh","latitude":13.6288,"longitude":79.4192,"temp":22.6,"humidity":77,"rain":0.0,"pressure":992.0,"uv_index":8.6,"aqi":107,"mosquito_risk":3,"arthritis_risk":5,"migraine_risk":7,"frizz_risk":1,"updated_at":"2026-02-27T02:11:42.133228+05:30"},{"city":"Warangal","state":"Telangana","latitude":17.9689,"longitude":79.5941,"temp":23.8,"humidity":56,"rain":0.0,"pressure":977.9,"uv_index":7.95,"aqi":153,"mosquito_risk":0,"arthritis_risk":5,"migraine_risk":7,"frizz_risk":0,"updated_at":"2026-02-27T02:11:42.133234+05:30"},{"city":"Nizamabad","state":"Telangana","latitude":18.6725,"longitude":78.0941,"temp":22.9,"humidity":65,"rain":0.0,"pressure":963.6,"uv_index":7.85,"aqi":154,"mosquito_risk":3,"arthritis_risk":5,"migraine_risk":7,"frizz_risk":0,"updated_at":"2026-02-27T02:11:42.133240+05:30"},{"city":"Mysore","state":"Karnataka","latitude":12.2958,"longitude":76.6396,"temp":21.9,"humidity":89,"rain":0.0,"pressure":927.1,"uv_index":9.0,"aqi":120,"mosquito_risk":3,"arthritis_risk":5,"migraine_risk":7,"frizz_risk":1,"updated_at":"2026-02-27T02:11:42.133246+05:30"},{"city":"Mangalore","state":"Karnataka","latitude":12.9141,"longitude":74.856,"temp":28.4,"humidity":76,"rain":0.0,"pressure":1005.8,"uv_index":8.55,"aqi":80,"mosquito_risk":7,"arthritis_risk":5,"migraine_risk":4,"frizz_risk":1,"updated_at":"2026-02-27T02:11:42.133252+05:30"},{"city":"Hubli-Dharwad","state":"Karnataka","latitude":15.3647,"longitude":75.124,"temp":21.1,"humidity":57,"rain":0.0,"pressure":939.2,"uv_index":8.45,"aqi":54,"mosquito_risk":0,"arthritis_risk":5,"migraine_risk":7,"frizz_risk":0,"updated_at":"2026-02-27T02:11:42.133258+05:30"},{"city":"Belgaum","state":"Karnataka","latitude":15.8497,"longitude":74.4977,"temp":19.3,"humidity":57,"rain":0.0,"pressure":923.8,"uv_index":8.5,"aqi":50,"mosquito_risk":0,"arthritis_risk":5,"migraine_risk":7,"frizz_risk":0,"updated_at":"2026-02-27T02:11:45.479467+05:30"},{"city":"Coimbatore","state":"Tamil Nadu","latitude":11.0168,"longitude":76.9558,"temp":22.5,"humidity":82,"rain":0.0,"pressure":961.3,"uv_index":9.0,"aqi":105,"mosquito_risk":3,"arthritis_risk":5,"migraine_risk":7,"frizz_risk":1,"updated_at":"2026-02-27T02:11:45.479496+05:30"},{"city":"Madurai","state":"Tamil Nadu","latitude":9.9252,"longitude":78.1198,"temp":23.5,"humidity":89,"rain":0.0,"pressure":993.3,"uv_index":9.0,"aqi":102,"mosquito_risk":3,"arthritis_risk":5,"migraine_risk":7,"frizz_risk":1,"updated_at":"2026-02-27T02:11:45.479506+05:30"},{"city":"Trichy","state":"Tamil Nadu","latitude":10.7905,"longitude":78.7047,"temp":24.7,"humidity":92,"rain":0.0,"pressure":999.9,"uv_index":8.85,"aqi":107,"mosquito_risk":3,"arthritis_risk":5,"migraine_risk":7,"frizz_risk":1,"updated_at":"2026-02-27T02:11:45.479514+05:30"},{"city":"Salem","state":"Tamil Nadu","latitude":11.6643,"longitude":78.146,"temp":24.4,"humidity":80,"rain":0.0,"pressure":977.2,"uv_index":8.85,"aqi":126,"mosquito_risk":3,"arthritis_risk":5,"migraine_risk":7,"frizz_risk":1,"updated_at":"2026-02-27T02:11:45.479521+05:30"},{"city":"Tirunelveli","state":"Tamil Nadu","latitude":8.7139,"longitude":77.7567,"temp":24.1,"humidity":92,"rain":0.0,"pressure":1003.2,"uv_index":9.0,"aqi":79,"mosquito_risk":3,"arthritis_risk":5,"migraine_risk":4,"frizz_risk":1,"updated_at":"2026-02-27T02:11:45.479527+05:30"},{"city":"Vellore","state":"Tamil Nadu","latitude":12.9165,"longitude":79.1325,"temp":21.8,"humidity":84,"rain":0.0,"pressure":984.8,"uv_index":8.7,"aqi":113,"mosquito_risk":3,"arthritis_risk":5,"migraine_risk":7,"frizz_risk":1,"updated_at":"2026-02-27T02:11:45.479534+05:30"},{"city":"Erode","state":"Tamil Nadu","latitude":11.341,"longitude":77.7172,"temp":25.0,"humidity":84,"rain":0.0,"pressure":989.1,"uv_index":8.45,"aqi":129,"mosquito_risk":7,"arthritis_risk":5,"migraine_risk":7,"frizz_risk":1,"updated_at":"2026-02-27T02:11:45.479541+05:30"},{"city":"Kochi","state":"Kerala","latitude":9.9312,"longitude":76.2673,"temp":27.0,"humidity":83,"rain":0.0,"pressure":1007.9,"uv_index":8.8,"aqi":83,"mosquito_risk":7,"arthritis_risk":5,"migraine_risk":4,"frizz_risk":1,"updated_at":"2026-02-27T02:11:45.479548+05:30"},{"city":"Thiruvananthapuram","state":"Kerala","latitude":8.5241,"longitude":76.9366,"temp":27.5,"humidity":82,"rain":0.0,"pressure":1007.2,"uv_index":8.8,"aqi":69,"mosquito_risk":7,"arthritis_risk":5,"migraine_risk":4,"frizz_risk":1,"updated_at":"2026-02-27T02:11:45.479554+05:30"},{"city":"Kozhikode","state":"Kerala","latitude":11.2588,"longitude":75.7804,"temp":28.6,"humidity":76,"rain":0.0,"pressure":1006.6,"uv_index":8.7,"aqi":91,"mosquito_risk":7,"arthritis_risk":5,"migraine_risk":4,"frizz_risk":1,"updated_at":"2026-02-27T02:11:45.479561+05:30"},{"city":"Thrissur","state":"Kerala","latitude":10.5276,"longitude":76.2144,"temp":25.0,"humidity":86,"rain":0.0,"pressure":1006.3,"uv_index":8.8,"aqi":96,"mosquito_risk":7,"arthritis_risk":5,"migraine_risk":4,"frizz_risk":1,"updated_at":"2026-02-27T02:11:45.479569+05:30"},{"city":"Kannur","state":"Kerala","latitude":11.8745,"longitude":75.3704,"temp":27.2,"humidity":81,"rain":0.0,"pressure":1006.1,"uv_index":8.7,"aqi":85,"mosquito_risk":7,"arthritis_risk":5,"migraine_risk":4,"frizz_risk":1,"updated_at":"2026-02-27T02:11:45.479576+05:30"},{"city":"Patna","state":"Bihar","latitude":25.5941,"longitude":85.1376,"temp":18.5,"humidity":67,"rain":0.0,"pressure":1001.5,"uv_index":6.9,"aqi":153,"mosquito_risk":3,"arthritis_risk":5,"migraine_risk":4,"frizz_risk":0,"updated_at":"2026-02-27T02:11:45.479582+05:30"},{"city":"Gaya","state":"Bihar","latitude":24.7914,"longitude":85.0002,"temp":17.5,"humidity":58,"rain":0.0,"pressure":995.0,"uv_index":7.0,"aqi":126,"mosquito_risk":0,"arthritis_risk":5,"migraine_risk":7,"frizz_risk":0,"updated_at":"2026-02-27T02:11:45.479588+05:30"},{"city":"Muzaffarpur","state":"Bihar","latitude":26.1209,"longitude":85.3647,"temp":16.6,"humidity":71,"rain":0.0,"pressure":1001.3,"uv_index":6.85,"aqi":156,"mosquito_risk":3,"arthritis_risk":5,"migraine_risk":4,"frizz_risk":0,"updated_at":"2026-02-27T02:11:45.479595+05:30"},{"city":"Bhagalpur","state":"Bihar","latitude":25.2425,"longitude":87.0117,"temp":18.7,"humidity":61,"rain":0.0,"pressure":1002.0,"uv_index":6.95,"aqi":148,"mosquito_risk":3,"arthritis_risk":5,"migraine_risk":4,"frizz_risk":0,"updated_at":"2026-02-27T02:11:45.479602+05:30"},{"city":"Ranchi","state":"Jharkhand","latitude":23.3441,"longitude":85.3096,"temp":16.5,"humidity":47,"rain":0.0,"pressure":937.4,"uv_index":7.65,"aqi":90,"mosquito_risk":0,"arthritis_risk":5,"migraine_risk":7,"frizz_risk":0,"updated_at":"2026-02-27T02:11:45.479608+05:30"},{"city":"Jamshedpur","state":"Jharkhand","latitude":22.8046,"longitude":86.2029,"temp":16.0,"humidity":80,"rain":0.0,"pressure":991.8,"uv_index":7.55,"aqi":143,"mosquito_risk":3,"arthritis_risk":5,"migraine_risk":7,"frizz_risk":0,"updated_at":"2026-02-27T02:11:45.479615+05:30"},{"city":"Dhanbad","state":"Jharkhand","latitude":23.7957,"longitude":86.4304,"temp":16.7,"humidity":55,"rain":0.0,"pressure":980.6,"uv_index":7.45,"aqi":138,"mosquito_risk":0,"arthritis_risk":5,"migraine_risk":7,"frizz_risk":0,"updated_at":"2026-02-27T02:11:45.479621+05:30"},{"city":"Bokaro","state":"Jharkhand","latitude":23.6693,"longitude":86.1511,"temp":17.2,"humidity":52,"rain":0.0,"pressure":984.9,"uv_index":7.45,"aqi":141,"mosquito_risk":0,"arthritis_risk":5,"migraine_risk":7,"frizz_risk":0,"updated_at":"2026-02-27T02:11:45.479627+05:30"},{"city":"Bhubaneswar","state":"Odisha","latitude":20.2961,"longitude":85.8245,"temp":23.0,"humidity":96,"rain":0.0,"pressure":1003.5,"uv_index":7.85,"aqi":126,"mosquito_risk":3,"arthritis_risk":5,"migraine_risk":4,"frizz_risk":1,"updated_at":"2026-02-27T02:11:45.479634+05:30"},{"city":"Cuttack","state":"Odisha","latitude":20.4625,"longitude":85.8828,"temp":22.4,"humidity":97,"rain":0.0,"pressure":1005.4,"uv_index":7.9,"aqi":126,"mosquito_risk":3,"arthritis_risk":5,"migraine_risk":4,"frizz_risk":1,"updated_at":"2026-02-27T02:11:45.479640+05:30"},{"city":"Rourkela","state":"Odisha","latitude":22.2604,"longitude":84.8536,"temp":19.3,"humidity":57,"rain":0.0,"pressure":985.9,"uv_index":7.45,"aqi":92,"mosquito_risk":0,"arthritis_risk":5,"migraine_risk":7,"frizz_risk":0,"updated_at":"2026-02-27T02:11:45.479647+05:30"},{"city":"Raipur","state":"Chhattisgarh","latitude":21.2514,"longitude":81.6296,"temp":20.5,"humidity":54,"rain":0.0,"pressure":974.7,"uv_index":7.55,"aqi":126,"mosquito_risk":0,"arthritis_risk":5,"migraine_risk":7,"frizz_risk":0,"updated_at":"2026-02-27T02:11:45.479653+05:30"},{"city":"Bhilai","state":"Chhattisgarh","latitude":21.1938,"longitude":81.3509,"temp":20.7,"humidity":49,"rain":0.0,"pressure":975.0,"uv_index":7.55,"aqi":130,"mosquito_risk":0,"arthritis_risk":5,"migraine_risk":7,"frizz_risk":0,"updated_at":"2026-02-27T02:11:45.479659+05:30"},{"city":"Guwahati","state":"Assam","latitude":26.1158,"longitude":91.7086,"temp":18.8,"humidity":87,"rain":0.0,"pressure":1001.6,"uv_index":6.9,"aqi":149,"mosquito_risk":3,"arthritis_risk":10,"migraine_risk":4,"frizz_risk":1,"updated_at":"2026-02-27T02:11:45.479665+05:30"},{"city":"Agartala","state":"Tripura","latitude":23.8315,"longitude":91.2868,"temp":17.8,"humidity":68,"rain":0.0,"pressure":1006.7,"uv_index":7.25,"aqi":170,"mosquito_risk":3,"arthritis_risk":5,"migraine_risk":4,"frizz_risk":0,"updated_at":"2026-02-27T02:11:45.479672+05:30"},{"city":"Shillong","state":"Meghalaya","latitude":25.5788,"longitude":91.8933,"temp":7.1,"humidity":92,"rain":0.0,"pressure":851.3,"uv_index":4.9,"aqi":130,"mosquito_risk":3,"arthritis_risk":10,"migraine_risk":3,"frizz_risk":0,"updated_at":"2026-02-27T02:11:45.479679+05:30"},{"city":"Imphal","state":"Manipur","latitude":24.817,"longitude":93.9368,"temp":12.8,"humidity":80,"rain":0.0,"pressure":921.3,"uv_index":7.45,"aqi":152,"mosquito_risk":3,"arthritis_risk":5,"migraine_risk":7,"frizz_risk":0,"updated_at":"2026-02-27T02:11:45.479686+05:30"},{"city":"Aizawl","state":"Mizoram","latitude":23.7271,"longitude":92.7176,"temp":14.5,"humidity":72,"rain":0.0,"pressure":890.7,"uv_index":7.4,"aqi":155,"mosquito_risk":3,"arthritis_risk":5,"migraine_risk":7,"frizz_risk":0,"updated_at":"2026-02-27T02:11:45.479693+05:30"},{"city":"Kohima","state":"Nagaland","latitude":25.6701,"longitude":94.1077,"temp":10.8,"humidity":80,"rain":0.0,"pressure":851.4,"uv_index":7.25,"aqi":151,"mosquito_risk":3,"arthritis_risk":5,"migraine_risk":7,"frizz_risk":0,"updated_at":"2026-02-27T02:11:45.479699+05:30"},{"city":"Gangtok","state":"Sikkim","latitude":27.3314,"longitude":88.6138,"temp":10.4,"humidity":77,"rain":0.1,"pressure":833.3,"uv_index":4.4,"aqi":151,"mosquito_risk":6,"arthritis_risk":5,"migraine_risk":3,"frizz_risk":0,"updated_at":"2026-02-27T02:11:45.479706+05:30"},{"city":"Siliguri","state":"West Bengal","latitude":26.7271,"longitude":88.3953,"temp":18.2,"humidity":63,"rain":0.0,"pressure":993.9,"uv_index":6.9,"aqi":160,"mosquito_risk":3,"arthritis_risk":5,"migraine_risk":7,"frizz_risk":0,"updated_at":"2026-02-27T02:11:48.828302+05:30"},{"city":"Durgapur","state":"West Bengal","latitude":23.5204,"longitude":87.3119,"temp":20.1,"humidity":50,"rain":0.0,"pressure":996.0,"uv_index":7.4,"aqi":128,"mosquito_risk":0,"arthritis_risk":5,"migraine_risk":7,"frizz_risk":0,"updated_at":"2026-02-27T02:11:48.828336+05:30"},{"city":"Asansol","state":"West Bengal","latitude":23.6739,"longitude":86.9524,"temp":21.3,"humidity":39,"rain":0.0,"pressure":994.6,"uv_index":7.4,"aqi":115,"mosquito_risk":0,"arthritis_risk":5,"migraine_risk":7,"frizz_risk":0,"updated_at":"2026-02-27T02:11:48.828349+05:30"},{"city":"Pondicherry","state":"Puducherry","latitude":11.9139,"longitude":79.8145,"temp":23.2,"humidity":96,"rain":0.0,"pressure":1008.7,"uv_index":8.7,"aqi":84,"mosquito_risk":3,"arthritis_risk":0,"migraine_risk":4,"frizz_risk":1,"updated_at":"2026-02-27T02:11:48.828359+05:30"},{"city":"Port Blair","state":"Andaman and Nicobar Islands","latitude":11.6234,"longitude":92.7265,"temp":26.4,"humidity":86,"rain":0.0,"pressure":1004.9,"uv_index":8.7,"aqi":31,"mosquito_risk":7,"arthritis_risk":5,"migraine_risk":4,"frizz_risk":1,"updated_at":"2026-02-27T02:11:48.828368+05:30"},{"city":"Haridwar","state":"Uttarakhand","latitude":29.9457,"longitude":78.1642,"temp":14.4,"humidity":92,"rain":0.0,"pressure":973.9,"uv_index":5.3,"aqi":153,"mosquito_risk":3,"arthritis_risk":10,"migraine_risk":3,"frizz_risk":0,"updated_at":"2026-02-27T02:11:48.828376+05:30"},{"city":"Rishikesh","state":"Uttarakhand","latitude":30.0869,"longitude":78.2676,"temp":15.4,"humidity":81,"rain":0.0,"pressure":966.4,"uv_index":5.4,"aqi":123,"mosquito_risk":3,"arthritis_risk":10,"migraine_risk":3,"frizz_risk":0,"updated_at":"2026-02-27T02:11:48.828385+05:30"},{"city":"Nainital","state":"Uttarakhand","latitude":29.3919,"longitude":79.4542,"temp":13.0,"humidity":70,"rain":0.0,"pressure":802.4,"uv_index":6.2,"aqi":119,"mosquito_risk":3,"arthritis_risk":5,"migraine_risk":7,"frizz_risk":0,"updated_at":"2026-02-27T02:11:48.828394+05:30"},{"city":"Mussoorie","state":"Uttarakhand","latitude":30.4599,"longitude":78.0664,"temp":11.2,"humidity":75,"rain":0.0,"pressure":798.6,"uv_index":5.75,"aqi":126,"mosquito_risk":3,"arthritis_risk":5,"migraine_risk":3,"frizz_risk":0,"updated_at":"2026-02-27T02:11:48.828403+05:30"},{"city":"Dharamshala","state":"Himachal Pradesh","latitude":32.219,"longitude":76.3234,"temp":15.2,"humidity":41,"rain":0.0,"pressure":866.7,"uv_index":5.95,"aqi":101,"mosquito_risk":0,"arthritis_risk":5,"migraine_risk":3,"frizz_risk":0,"updated_at":"2026-02-27T02:11:48.828411+05:30"},{"city":"Dalhousie","state":"Himachal Pradesh","latitude":32.5387,"longitude":75.971,"temp":11.7,"humidity":49,"rain":0.0,"pressure":800.3,"uv_index":6.2,"aqi":116,"mosquito_risk":0,"arthritis_risk":5,"migraine_risk":7,"frizz_risk":0,"updated_at":"2026-02-27T02:11:48.828420+05:30"},{"city":"Patiala","state":"Punjab","latitude":30.3398,"longitude":76.3869,"temp":16.1,"humidity":90,"rain":0.0,"pressure":978.2,"uv_index":5.4,"aqi":164,"mosquito_risk":3,"arthritis_risk":10,"migraine_risk":3,"frizz_risk":0,"updated_at":"2026-02-27T02:11:48.828429+05:30"},{"city":"Bhatinda","state":"Punjab","latitude":30.211,"longitude":74.9455,"temp":16.4,"humidity":84,"rain":0.0,"pressure":983.5,"uv_index":6.1,"aqi":161,"mosquito_risk":3,"arthritis_risk":10,"migraine_risk":7,"frizz_risk":0,"updated_at":"2026-02-27T02:11:48.828438+05:30"},{"city":"Rohtak","state":"Haryana","latitude":28.8955,"longitude":76.6066,"temp":15.5,"humidity":86,"rain":0.0,"pressure":981.7,"uv_index":5.6,"aqi":157,"mosquito_risk":3,"arthritis_risk":10,"migraine_risk":3,"frizz_risk":0,"updated_at":"2026-02-27T02:11:48.828446+05:30"},{"city":"Panipat","state":"Haryana","latitude":29.3909,"longitude":76.9635,"temp":15.7,"humidity":90,"rain":0.0,"pressure":980.5,"uv_index":5.4,"aqi":169,"mosquito_risk":3,"arthritis_risk":10,"migraine_risk":3,"frizz_risk":0,"updated_at":"2026-02-27T02:11:48.828455+05:30"},{"city":"Mathura","state":"Uttar Pradesh","latitude":27.4924,"longitude":77.6737,"temp":17.5,"humidity":51,"rain":0.0,"pressure":987.2,"uv_index":5.85,"aqi":153,"mosquito_risk":0,"arthritis_risk":5,"migraine_risk":3,"frizz_risk":0,"updated_at":"2026-02-27T02:11:48.828463+05:30"},{"city":"Vrindavan","state":"Uttar Pradesh","latitude":27.5823,"longitude":77.7027,"temp":15.8,"humidity":58,"rain":0.0,"pressure":987.7,"uv_index":5.85,"aqi":153,"mosquito_risk":0,"arthritis_risk":5,"migraine_risk":3,"frizz_risk":0,"updated_at":"2026-02-27T02:11:48.828471+05:30"},{"city":"Ayodhya","state":"Uttar Pradesh","latitude":26.7922,"longitude":82.1998,"temp":17.2,"humidity":67,"rain":0.0,"pressure":995.9,"uv_index":6.25,"aqi":146,"mosquito_risk":3,"arthritis_risk":5,"migraine_risk":7,"frizz_risk":0,"updated_at":"2026-02-27T02:11:48.828479+05:30"},{"city":"Ratlam","state":"Madhya Pradesh","latitude":23.3315,"longitude":75.0367,"temp":20.3,"humidity":58,"rain":0.0,"pressure":953.7,"uv_index":7.15,"aqi":89,"mosquito_risk":0,"arthritis_risk":5,"migraine_risk":7,"frizz_risk":0,"updated_at":"2026-02-27T02:11:48.828488+05:30"},{"city":"Sagar","state":"Madhya Pradesh","latitude":23.8388,"longitude":78.7378,"temp":22.2,"humidity":48,"rain":0.0,"pressure":949.9,"uv_index":7.05,"aqi":60,"mosquito_risk":0,"arthritis_risk":5,"migraine_risk":7,"frizz_risk":0,"updated_at":"2026-02-27T02:11:48.828496+05:30"},{"city":"Satna","state":"Madhya Pradesh","latitude":24.6005,"longitude":80.8322,"temp":19.2,"humidity":49,"rain":0.0,"pressure":971.8,"uv_index":7.0,"aqi":73,"mosquito_risk":0,"arthritis_risk":5,"migraine_risk":7,"frizz_risk":0,"updated_at":"2026-02-27T02:11:48.828504+05:30"},{"city":"Akola","state":"Maharashtra","latitude":20.7002,"longitude":77.0082,"temp":23.8,"humidity":55,"rain":0.0,"pressure":974.3,"uv_index":7.55,"aqi":126,"mosquito_risk":0,"arthritis_risk":5,"migraine_risk":7,"frizz_risk":0,"updated_at":"2026-02-27T02:11:48.828514+05:30"},{"city":"Amravati","state":"Maharashtra","latitude":20.9374,"longitude":77.7796,"temp":22.9,"humidity":54,"rain":0.0,"pressure":966.3,"uv_index":7.5,"aqi":124,"mosquito_risk":0,"arthritis_risk":5,"migraine_risk":7,"frizz_risk":0,"updated_at":"2026-02-27T02:11:48.828523+05:30"},{"city":"Latur","state":"Maharashtra","latitude":18.4088,"longitude":76.5604,"temp":21.8,"humidity":59,"rain":0.0,"pressure":938.2,"uv_index":8.0,"aqi":113,"mosquito_risk":0,"arthritis_risk":5,"migraine_risk":7,"frizz_risk":0,"updated_at":"2026-02-27T02:11:48.828531+05:30"},{"city":"Nanded","state":"Maharashtra","latitude":19.1383,"longitude":77.3091,"temp":23.3,"humidity":66,"rain":0.0,"pressure":967.3,"uv_index":7.75,"aqi":153,"mosquito_risk":3,"arthritis_risk":5,"migraine_risk":7,"frizz_risk":1,"updated_at":"2026-02-27T02:11:48.828539+05:30"},{"city":"Gulbarga","state":"Karnataka","latitude":17.3297,"longitude":76.8343,"temp":22.9,"humidity":60,"rain":0.0,"pressure":957.4,"uv_index":8.1,"aqi":117,"mosquito_risk":0,"arthritis_risk":5,"migraine_risk":7,"frizz_risk":0,"updated_at":"2026-02-27T02:11:48.828547+05:30"},{"city":"Bidar","state":"Karnataka","latitude":17.9104,"longitude":77.5199,"temp":23.0,"humidity":66,"rain":0.0,"pressure":934.2,"uv_index":8.05,"aqi":148,"mosquito_risk":3,"arthritis_risk":5,"migraine_risk":7,"frizz_risk":1,"updated_at":"2026-02-27T02:11:48.828555+05:30"},{"city":"Hospet","state":"Karnataka","latitude":15.2689,"longitude":76.3909,"temp":24.1,"humidity":61,"rain":0.0,"pressure":954.4,"uv_index":8.4,"aqi":110,"mosquito_risk":3,"arthritis_risk":5,"migraine_risk":7,"frizz_risk":1,"updated_at":"2026-02-27T02:11:48.828563+05:30"},{"city":"Tirupur","state":"Tamil Nadu","latitude":11.1085,"longitude":77.3411,"temp":24.3,"humidity":80,"rain":0.0,"pressure":975.1,"uv_index":8.05,"aqi":132,"mosquito_risk":3,"arthritis_risk":5,"migraine_risk":7,"frizz_risk":1,"updated_at":"2026-02-27T02:11:48.828572+05:30"},{"city":"Alappuzha","state":"Kerala","latitude":9.4981,"longitude":76.3388,"temp":27.1,"humidity":83,"rain":0.0,"pressure":1008.0,"uv_index":8.7,"aqi":80,"mosquito_risk":7,"arthritis_risk":0,"migraine_risk":4,"frizz_risk":1,"updated_at":"2026-02-27T02:11:48.828580+05:30"},{"city":"Munnar","state":"Kerala","latitude":10.0889,"longitude":77.0595,"temp":18.7,"humidity":93,"rain":0.0,"pressure":855.0,"uv_index":6.3,"aqi":77,"mosquito_risk":3,"arthritis_risk":10,"migraine_risk":7,"frizz_risk":1,"updated_at":"2026-02-27T02:11:48.828588+05:30"},{"city":"Silchar","state":"Assam","latitude":24.8333,"longitude":92.7789,"temp":17.2,"humidity":74,"rain":0.0,"pressure":1005.6,"uv_index":7.2,"aqi":160,"mosquito_risk":3,"arthritis_risk":5,"migraine_risk":4,"frizz_risk":0,"updated_at":"2026-02-27T02:11:48.828596+05:30"},{"city":"Dibrugarh","state":"Assam","latitude":27.4728,"longitude":94.912,"temp":20.2,"humidity":79,"rain":0.0,"pressure":995.7,"uv_index":6.95,"aqi":126,"mosquito_risk":3,"arthritis_risk":5,"migraine_risk":7,"frizz_risk":1,"updated_at":"2026-02-27T02:11:48.828604+05:30"}]