[{"city":"Delhi","state":"Delhi","latitude":28.6139,"longitude":77.209,"temp":37.9,"humidity":26,"rain":0.0,"pressure":976.6,"uv_index":7.75,"wind_gusts":40.7,"aqi":168,"pm10":258.9,"pm2_5":62.6,"no2":11.0,"co":299.0,"o3":147.0,"so2":12.4,"mosquito_risk":0,"arthritis_risk":5,"migraine_risk":10,"frizz_risk":0,"updated_at":"2026-06-06T17:36:51.095663+05:30"},{"city":"Mumbai","state":"Maharashtra","latitude":19.076,"longitude":72.8777,"temp":32.5,"humidity":65,"rain":0.0,"pressure":1004.1,"uv_index":7.2,"wind_gusts":39.2,"aqi":76,"pm10":45.9,"pm2_5":21.2,"no2":7.1,"co":172.0,"o3":67.0,"so2":5.5,"mosquito_risk":3,"arthritis_risk":5,"migraine_risk":4,"frizz_risk":1,"updated_at":"2026-06-06T17:36:51.095708+05:30"},{"city":"Bangalore","state":"Karnataka","latitude":12.9716,"longitude":77.5946,"temp":22.0,"humidity":91,"rain":0.0,"pressure":909.4,"uv_index":8.4,"wind_gusts":43.9,"aqi":33,"pm10":5.6,"pm2_5":5.4,"no2":18.1,"co":561.0,"o3":54.0,"so2":3.2,"mosquito_risk":3,"arthritis_risk":5,"migraine_risk":7,"frizz_risk":1,"updated_at":"2026-06-06T17:36:51.095726+05:30"},{"city":"Hyderabad","state":"Telangana","latitude":17.385,"longitude":78.4867,"temp":35.3,"humidity":32,"rain":0.0,"pressure":948.2,"uv_index":9.05,"wind_gusts":37.8,"aqi":94,"pm10":48.3,"pm2_5":26.0,"no2":6.2,"co":336.0,"o3":121.0,"so2":6.3,"mosquito_risk":0,"arthritis_risk":5,"migraine_risk":10,"frizz_risk":1,"updated_at":"2026-06-06T17:36:51.095736+05:30"},{"city":"Chennai","state":"Tamil Nadu","latitude":13.0827,"longitude":80.2707,"temp":33.9,"humidity":57,"rain":0.1,"pressure":1001.5,"uv_index":8.5,"wind_gusts":45.7,"aqi":63,"pm10":26.3,"pm2_5":18.7,"no2":5.2,"co":287.0,"o3":119.0,"so2":6.1,"mosquito_risk":3,"arthritis_risk":5,"migraine_risk":4,"frizz_risk":1,"updated_at":"2026-06-06T17:36:51.095745+05:30"},{"city":"Kolkata","state":"West Bengal","latitude":22.5726,"longitude":88.3639,"temp":27.6,"humidity":97,"rain":0.2,"pressure":998.6,"uv_index":9.0,"wind_gusts":45.7,"aqi":128,"pm10":45.8,"pm2_5":38.6,"no2":10.9,"co":640.0,"o3":87.0,"so2":8.0,"mosquito_risk":10,"arthritis_risk":5,"migraine_risk":7,"frizz_risk":1,"updated_at":"2026-06-06T17:36:51.095752+05:30"},{"city":"Pune","state":"Maharashtra","latitude":18.5204,"longitude":73.8567,"temp":29.6,"humidity":63,"rain":0.1,"pressure":944.8,"uv_index":8.35,"wind_gusts":50.4,"aqi":51,"pm10":26.4,"pm2_5":13.9,"no2":4.5,"co":164.0,"o3":86.0,"so2":3.9,"mosquito_risk":10,"arthritis_risk":5,"migraine_risk":7,"frizz_risk":1,"updated_at":"2026-06-06T17:36:51.095759+05:30"},{"city":"Ahmedabad","state":"Gujarat","latitude":23.0225,"longitude":72.5714,"temp":40.7,"humidity":29,"rain":0.0,"pressure":995.0,"uv_index":8.1,"wind_gusts":36.4,"aqi":93,"pm10":78.7,"pm2_5":30.2,"no2":3.0,"co":156.0,"o3":99.0,"so2":4.8,"mosquito_risk":0,"arthritis_risk":5,"migraine_risk":10,"frizz_risk":1,"updated_at":"2026-06-06T17:36:51.095765+05:30"},{"city":"Jaipur","state":"Rajasthan","latitude":26.9124,"longitude":75.7873,"temp":37.1,"humidity":29,"rain":0.0,"pressure":954.2,"uv_index":8.25,"wind_gusts":34.2,"aqi":107,"pm10":158.3,"pm2_5":42.7,"no2":5.4,"co":182.0,"o3":97.0,"so2":3.6,"mosquito_risk":0,"arthritis_risk":5,"migraine_risk":10,"frizz_risk":0,"updated_at":"2026-06-06T17:36:51.095777+05:30"},{"city":"Lucknow","state":"Uttar Pradesh","latitude":26.8467,"longitude":80.9462,"temp":36.3,"humidity":39,"rain":0.0,"pressure":986.2,"uv_index":8.3,"wind_gusts":25.9,"aqi":164,"pm10":77.8,"pm2_5":45.3,"no2":4.8,"co":305.0,"o3":167.0,"so2":8.8,"mosquito_risk":0,"arthritis_risk":5,"migraine_risk":10,"frizz_risk":1,"updated_at":"2026-06-06T17:36:51.095783+05:30"},{"city":"Kanpur","state":"Uttar Pradesh","latitude":26.4499,"longitude":80.3319,"temp":37.6,"humidity":30,"rain":0.0,"pressure":984.3,"uv_index":8.3,"wind_gusts":37.1,"aqi":196,"pm10":387.4,"pm2_5":74.3,"no2":3.8,"co":267.0,"o3":161.0,"so2":9.5,"mosquito_risk":0,"arthritis_risk":5,"migraine_risk":10,"frizz_risk":1,"updated_at":"2026-06-06T17:36:51.095790+05:30"},{"city":"Chandigarh","state":"Chandigarh","latitude":30.7333,"longitude":76.7794,"temp":34.4,"humidity":37,"rain":0.0,"pressure":962.6,"uv_index":7.8,"wind_gusts":32.4,"aqi":180,"pm10":30.2,"pm2_5":21.8,"no2":4.6,"co":384.0,"o3":174.0,"so2":10.2,"mosquito_risk":0,"arthritis_risk":5,"migraine_risk":7,"frizz_risk":1,"updated_at":"2026-06-06T17:36:51.095797+05:30"},{"city":"Srinagar","state":"Jammu and Kashmir","latitude":34.0837,"longitude":74.7973,"temp":23.8,"humidity":43,"rain":0.0,"pressure":841.8,"uv_index":9.0,"wind_gusts":22.0,"aqi":101,"pm10":13.6,"pm2_5":9.8,"no2":3.4,"co":364.0,"o3":131.0,"so2":1.4,"mosquito_risk":0,"arthritis_risk":5,"migraine_risk":7,"frizz_risk":0,"updated_at":"2026-06-06T17:36:51.095804+05:30"},{"city":"Jammu","state":"Jammu and Kashmir","latitude":32.7266,"longitude":74.857,"temp":36.8,"humidity":22,"rain":0.0,"pressure":967.0,"uv_index":8.6,"wind_gusts":30.2,"aqi":127,"pm10":29.8,"pm2_5":16.3,"no2":3.2,"co":194.0,"o3":156.0,"so2":2.8,"mosquito_risk":0,"arthritis_risk":5,"migraine_risk":10,"frizz_risk":0,"updated_at":"2026-06-06T17:36:51.095810+05:30"},{"city":"Amritsar","state":"Punjab","latitude":31.634,"longitude":74.8723,"temp":37.9,"humidity":23,"rain":0.0,"pressure":974.5,"uv_index":8.45,"wind_gusts":25.2,"aqi":177,"pm10":43.9,"pm2_5":27.8,"no2":3.0,"co":287.0,"o3":190.0,"so2":9.3,"mosquito_risk":0,"arthritis_risk":5,"migraine_risk":10,"frizz_risk":0,"updated_at":"2026-06-06T17:36:51.095817+05:30"},{"city":"Ludhiana","state":"Punjab","latitude":30.901,"longitude":75.8573,"temp":37.8,"humidity":23,"rain":0.0,"pressure":972.4,"uv_index":8.05,"wind_gusts":28.4,"aqi":157,"pm10":62.9,"pm2_5":26.7,"no2":2.9,"co":264.0,"o3":156.0,"so2":4.7,"mosquito_risk":0,"arthritis_risk":5,"migraine_risk":10,"frizz_risk":0,"updated_at":"2026-06-06T17:36:51.095824+05:30"},{"city":"Jalandhar","state":"Punjab","latitude":31.326,"longitude":75.5762,"temp":38.1,"humidity":23,"rain":0.0,"pressure":973.3,"uv_index":8.25,"wind_gusts":21.2,"aqi":165,"pm10":54.1,"pm2_5":24.8,"no2":2.8,"co":284.0,"o3":169.0,"so2":6.0,"mosquito_risk":0,"arthritis_risk":5,"migraine_risk":10,"frizz_risk":0,"updated_at":"2026-06-06T17:36:51.095832+05:30"},{"city":"Dehradun","state":"Uttarakhand","latitude":30.6284,"longitude":78.0322,"temp":23.1,"humidity":53,"rain":0.0,"pressure":829.1,"uv_index":8.25,"wind_gusts":33.8,"aqi":129,"pm10":20.3,"pm2_5":13.6,"no2":1.8,"co":246.0,"o3":160.0,"so2":5.6,"mosquito_risk":0,"arthritis_risk":5,"migraine_risk":7,"frizz_risk":0,"updated_at":"2026-06-06T17:36:51.095839+05:30"},{"city":"Shimla","state":"Himachal Pradesh","latitude":31.1048,"longitude":77.1734,"temp":21.6,"humidity":31,"rain":0.0,"pressure":784.7,"uv_index":8.35,"wind_gusts":42.8,"aqi":116,"pm10":17.9,"pm2_5":9.5,"no2":1.5,"co":201.0,"o3":146.0,"so2":3.2,"mosquito_risk":0,"arthritis_risk":5,"migraine_risk":7,"frizz_risk":0,"updated_at":"2026-06-06T17:36:51.095847+05:30"},{"city":"Manali","state":"Himachal Pradesh","latitude":32.2396,"longitude":77.1887,"temp":22.0,"humidity":44,"rain":0.0,"pressure":818.1,"uv_index":9.9,"wind_gusts":36.7,"aqi":140,"pm10":14.5,"pm2_5":11.4,"no2":12.8,"co":152.0,"o3":159.0,"so2":0.4,"mosquito_risk":0,"arthritis_risk":5,"migraine_risk":7,"frizz_risk":0,"updated_at":"2026-06-06T17:36:51.095864+05:30"},{"city":"Gurgaon","state":"Haryana","latitude":28.4595,"longitude":77.0266,"temp":36.9,"humidity":30,"rain":0.0,"pressure":975.3,"uv_index":7.85,"wind_gusts":34.2,"aqi":269,"pm10":305.5,"pm2_5":67.5,"no2":10.7,"co":267.0,"o3":151.0,"so2":10.9,"mosquito_risk":0,"arthritis_risk":5,"migraine_risk":10,"frizz_risk":1,"updated_at":"2026-06-06T17:36:51.095871+05:30"},{"city":"Noida","state":"Uttar Pradesh","latitude":28.5355,"longitude":77.391,"temp":34.9,"humidity":41,"rain":0.0,"pressure":978.0,"uv_index":7.8,"wind_gusts":33.5,"aqi":269,"pm10":305.5,"pm2_5":67.5,"no2":10.7,"co":587.0,"o3":151.0,"so2":10.9,"mosquito_risk":0,"arthritis_risk":5,"migraine_risk":7,"frizz_risk":1,"updated_at":"2026-06-06T17:36:51.095877+05:30"},{"city":"Ghaziabad","state":"Uttar Pradesh","latitude":28.6692,"longitude":77.4538,"temp":35.7,"humidity":36,"rain":0.0,"pressure":976.3,"uv_index":7.8,"wind_gusts":29.2,"aqi":190,"pm10":196.0,"pm2_5":57.3,"no2":8.0,"co":257.0,"o3":171.0,"so2":16.2,"mosquito_risk":0,"arthritis_risk":5,"migraine_risk":10,"frizz_risk":1,"updated_at":"2026-06-06T17:36:51.095883+05:30"},{"city":"Faridabad","state":"Haryana","latitude":28.4089,"longitude":77.3178,"temp":37.0,"humidity":28,"rain":0.0,"pressure":977.4,"uv_index":7.85,"wind_gusts":27.4,"aqi":269,"pm10":305.5,"pm2_5":67.5,"no2":10.7,"co":412.0,"o3":151.0,"so2":10.9,"mosquito_risk":0,"arthritis_risk":5,"migraine_risk":10,"frizz_risk":0,"updated_at":"2026-06-06T17:36:51.095890+05:30"},{"city":"Meerut","state":"Uttar Pradesh","latitude":28.9845,"longitude":77.7064,"temp":34.8,"humidity":43,"rain":0.0,"pressure":975.2,"uv_index":7.7,"wind_gusts":27.7,"aqi":190,"pm10":196.0,"pm2_5":57.3,"no2":8.0,"co":287.0,"o3":171.0,"so2":16.2,"mosquito_risk":0,"arthritis_risk":5,"migraine_risk":7,"frizz_risk":1,"updated_at":"2026-06-06T17:36:51.095896+05:30"},{"city":"Agra","state":"Uttar Pradesh","latitude":27.1767,"longitude":78.0081,"temp":37.7,"humidity":30,"rain":0.0,"pressure":980.8,"uv_index":8.1,"wind_gusts":28.1,"aqi":508,"pm10":203.5,"pm2_5":49.8,"no2":7.2,"co":197.0,"o3":116.0,"so2":4.9,"mosquito_risk":0,"arthritis_risk":5,"migraine_risk":10,"frizz_risk":1,"updated_at":"2026-06-06T17:36:51.095903+05:30"},{"city":"Varanasi","state":"Uttar Pradesh","latitude":25.3176,"longitude":82.9739,"temp":36.9,"humidity":36,"rain":0.1,"pressure":989.9,"uv_index":8.8,"wind_gusts":32.0,"aqi":159,"pm10":98.0,"pm2_5":50.8,"no2":4.5,"co":331.0,"o3":146.0,"so2":7.9,"mosquito_risk":3,"arthritis_risk":5,"migraine_risk":10,"frizz_risk":1,"updated_at":"2026-06-06T17:36:51.095909+05:30"},{"city":"Prayagraj","state":"Uttar Pradesh","latitude":25.4358,"longitude":81.8463,"temp":37.1,"humidity":36,"rain":0.0,"pressure":988.4,"uv_index":8.7,"wind_gusts":36.7,"aqi":152,"pm10":194.2,"pm2_5":63.1,"no2":3.7,"co":270.0,"o3":158.0,"so2":11.4,"mosquito_risk":0,"arthritis_risk":5,"migraine_risk":10,"frizz_risk":1,"updated_at":"2026-06-06T17:36:51.095916+05:30"},{"city":"Gorakhpur","state":"Uttar Pradesh","latitude":26.7606,"longitude":83.3732,"temp":34.0,"humidity":50,"rain":0.0,"pressure":990.1,"uv_index":8.7,"wind_gusts":36.7,"aqi":166,"pm10":93.6,"pm2_5":43.4,"no2":5.1,"co":373.0,"o3":137.0,"so2":5.3,"mosquito_risk":0,"arthritis_risk":5,"migraine_risk":7,"frizz_risk":1,"updated_at":"2026-06-06T17:36:51.095924+05:30"},{"city":"Bareilly","state":"Uttar Pradesh","latitude":28.367,"longitude":79.4304,"temp":34.9,"humidity":45,"rain":0.0,"pressure":979.8,"uv_index":8.1,"wind_gusts":22.0,"aqi":159,"pm10":106.2,"pm2_5":43.1,"no2":5.1,"co":344.0,"o3":163.0,"so2":9.4,"mosquito_risk":0,"arthritis_risk":5,"migraine_risk":7,"frizz_risk":1,"updated_at":"2026-06-06T17:36:51.095930+05:30"},{"city":"Aligarh","state":"Uttar Pradesh","latitude":27.8974,"longitude":78.088,"temp":36.4,"humidity":39,"rain":0.0,"pressure":978.9,"uv_index":7.95,"wind_gusts":23.8,"aqi":202,"pm10":362.3,"pm2_5":77.5,"no2":6.6,"co":217.0,"o3":172.0,"so2":13.3,"mosquito_risk":0,"arthritis_risk":5,"migraine_risk":10,"frizz_risk":1,"updated_at":"2026-06-06T17:36:51.095935+05:30"},{"city":"Moradabad","state":"Uttar Pradesh","latitude":28.8386,"longitude":78.7733,"temp":35.6,"humidity":38,"rain":0.0,"pressure":977.1,"uv_index":7.9,"wind_gusts":25.9,"aqi":177,"pm10":161.6,"pm2_5":54.0,"no2":9.0,"co":329.0,"o3":144.0,"so2":10.7,"mosquito_risk":0,"arthritis_risk":5,"migraine_risk":10,"frizz_risk":1,"updated_at":"2026-06-06T17:36:51.095942+05:30"},{"city":"Saharanpur","state":"Uttar Pradesh","latitude":29.9637,"longitude":77.546,"temp":33.9,"humidity":45,"rain":0.0,"pressure":969.1,"uv_index":7.5,"wind_gusts":26.6,"aqi":178,"pm10":94.3,"pm2_5":32.7,"no2":7.3,"co":328.0,"o3":156.0,"so2":12.2,"mosquito_risk":0,"arthritis_risk":5,"migraine_risk":7,"frizz_risk":1,"updated_at":"2026-06-06T17:36:51.095948+05:30"},{"city":"Jhansi","state":"Uttar Pradesh","latitude":25.4484,"longitude":78.5685,"temp":36.9,"humidity":35,"rain":0.0,"pressure":971.5,"uv_index":8.45,"wind_gusts":32.4,"aqi":70,"pm10":62.6,"pm2_5":24.4,"no2":1.7,"co":142.0,"o3":113.0,"so2":5.4,"mosquito_risk":0,"arthritis_risk":5,"migraine_risk":10,"frizz_risk":1,"updated_at":"2026-06-06T17:36:54.421953+05:30"},{"city":"Surat","state":"Gujarat","latitude":21.1702,"longitude":72.8311,"temp":33.3,"humidity":62,"rain":0.0,"pressure":1001.6,"uv_index":7.6,"wind_gusts":45.0,"aqi":90,"pm10":64.7,"pm2_5":30.5,"no2":13.4,"co":242.0,"o3":47.0,"so2":32.9,"mosquito_risk":3,"arthritis_risk":5,"migraine_risk":4,"frizz_risk":1,"updated_at":"2026-06-06T17:36:54.421994+05:30"},{"city":"Vadodara","state":"Gujarat","latitude":22.3072,"longitude":73.1812,"temp":38.3,"humidity":37,"rain":0.0,"pressure":997.9,"uv_index":8.0,"wind_gusts":40.0,"aqi":85,"pm10":84.5,"pm2_5":36.2,"no2":3.3,"co":146.0,"o3":112.0,"so2":6.1,"mosquito_risk":0,"arthritis_risk":5,"migraine_risk":10,"frizz_risk":1,"updated_at":"2026-06-06T17:36:54.422005+05:30"},{"city":"Rajkot","state":"Gujarat","latitude":22.3039,"longitude":70.8022,"temp":36.9,"humidity":49,"rain":0.0,"pressure":988.0,"uv_index":7.55,"wind_gusts":43.2,"aqi":85,"pm10":62.2,"pm2_5":24.8,"no2":1.6,"co":115.0,"o3":96.0,"so2":4.3,"mosquito_risk":0,"arthritis_risk":5,"migraine_risk":10,"frizz_risk":1,"updated_at":"2026-06-06T17:36:54.422014+05:30"},{"city":"Thane","state":"Maharashtra","latitude":19.2183,"longitude":72.9781,"temp":33.6,"humidity":59,"rain":0.0,"pressure":1003.1,"uv_index":7.6,"wind_gusts":40.7,"aqi":76,"pm10":45.9,"pm2_5":21.2,"no2":7.1,"co":158.0,"o3":67.0,"so2":5.5,"mosquito_risk":0,"arthritis_risk":5,"migraine_risk":4,"frizz_risk":1,"updated_at":"2026-06-06T17:36:54.422021+05:30"},{"city":"Nagpur","state":"Maharashtra","latitude":21.1458,"longitude":79.0882,"temp":38.0,"humidity":27,"rain":0.0,"pressure":966.8,"uv_index":8.35,"wind_gusts":43.9,"aqi":85,"pm10":26.1,"pm2_5":12.4,"no2":5.3,"co":172.0,"o3":125.0,"so2":11.3,"mosquito_risk":0,"arthritis_risk":5,"migraine_risk":10,"frizz_risk":0,"updated_at":"2026-06-06T17:36:54.422029+05:30"},{"city":"Nashik","state":"Maharashtra","latitude":19.9975,"longitude":73.7898,"temp":33.2,"humidity":44,"rain":0.0,"pressure":941.8,"uv_index":8.05,"wind_gusts":42.1,"aqi":61,"pm10":53.0,"pm2_5":22.2,"no2":1.7,"co":132.0,"o3":81.0,"so2":1.1,"mosquito_risk":0,"arthritis_risk":5,"migraine_risk":7,"frizz_risk":1,"updated_at":"2026-06-06T17:36:54.422036+05:30"},{"city":"Aurangabad","state":"Maharashtra","latitude":19.8762,"longitude":75.3433,"temp":37.1,"humidity":22,"rain":0.0,"pressure":939.4,"uv_index":8.95,"wind_gusts":41.0,"aqi":63,"pm10":53.1,"pm2_5":20.6,"no2":1.5,"co":140.0,"o3":106.0,"so2":1.7,"mosquito_risk":0,"arthritis_risk":5,"migraine_risk":10,"frizz_risk":0,"updated_at":"2026-06-06T17:36:54.422043+05:30"},{"city":"Solapur","state":"Maharashtra","latitude":17.6599,"longitude":75.9064,"temp":35.8,"humidity":33,"rain":0.0,"pressure":952.3,"uv_index":8.95,"wind_gusts":57.2,"aqi":70,"pm10":42.0,"pm2_5":19.4,"no2":2.1,"co":131.0,"o3":110.0,"so2":2.7,"mosquito_risk":0,"arthritis_risk":5,"migraine_risk":10,"frizz_risk":1,"updated_at":"2026-06-06T17:36:54.422052+05:30"},{"city":"Kolhapur","state":"Maharashtra","latitude":16.705,"longitude":74.2433,"temp":27.3,"humidity":74,"rain":0.1,"pressure":945.1,"uv_index":7.95,"wind_gusts":41.8,"aqi":41,"pm10":15.6,"pm2_5":9.8,"no2":4.7,"co":131.0,"o3":79.0,"so2":1.7,"mosquito_risk":10,"arthritis_risk":5,"migraine_risk":7,"frizz_risk":1,"updated_at":"2026-06-06T17:36:54.422059+05:30"},{"city":"Goa","state":"Goa","latitude":15.2993,"longitude":74.124,"temp":28.6,"humidity":78,"rain":0.0,"pressure":995.5,"uv_index":7.0,"wind_gusts":29.5,"aqi":33,"pm10":9.4,"pm2_5":5.8,"no2":2.3,"co":128.0,"o3":59.0,"so2":0.8,"mosquito_risk":7,"arthritis_risk":5,"migraine_risk":7,"frizz_risk":1,"updated_at":"2026-06-06T17:36:54.422066+05:30"},{"city":"Jodhpur","state":"Rajasthan","latitude":26.2389,"longitude":73.0243,"temp":39.8,"humidity":30,"rain":0.0,"pressure":976.0,"uv_index":8.45,"wind_gusts":34.9,"aqi":123,"pm10":187.7,"pm2_5":40.7,"no2":1.2,"co":125.0,"o3":97.0,"so2":1.9,"mosquito_risk":0,"arthritis_risk":5,"migraine_risk":10,"frizz_risk":1,"updated_at":"2026-06-06T17:36:54.422074+05:30"},{"city":"Udaipur","state":"Rajasthan","latitude":24.5854,"longitude":73.7125,"temp":35.3,"humidity":35,"rain":0.0,"pressure":942.2,"uv_index":8.85,"wind_gusts":32.4,"aqi":96,"pm10":83.4,"pm2_5":30.9,"no2":1.0,"co":128.0,"o3":103.0,"so2":3.6,"mosquito_risk":0,"arthritis_risk":5,"migraine_risk":10,"frizz_risk":1,"updated_at":"2026-06-06T17:36:54.422081+05:30"},{"city":"Kota","state":"Rajasthan","latitude":25.2138,"longitude":75.8648,"temp":38.4,"humidity":28,"rain":0.0,"pressure":972.5,"uv_index":8.4,"wind_gusts":28.1,"aqi":79,"pm10":76.8,"pm2_5":29.6,"no2":1.4,"co":147.0,"o3":114.0,"so2":3.7,"mosquito_risk":0,"arthritis_risk":5,"migraine_risk":10,"frizz_risk":1,"updated_at":"2026-06-06T17:36:54.422088+05:30"},{"city":"Bikaner","state":"Rajasthan","latitude":28.0229,"longitude":73.3119,"temp":40.5,"humidity":25,"rain":0.0,"pressure":974.2,"uv_index":8.5,"wind_gusts":41.0,"aqi":103,"pm10":138.8,"pm2_5":43.5,"no2":0.6,"co":172.0,"o3":98.0,"so2":2.5,"mosquito_risk":0,"arthritis_risk":5,"migraine_risk":10,"frizz_risk":1,"updated_at":"2026-06-06T17:36:54.422095+05:30"},{"city":"Ajmer","state":"Rajasthan","latitude":26.4499,"longitude":74.6399,"temp":34.6,"humidity":41,"rain":0.1,"pressure":949.4,"uv_index":8.35,"wind_gusts":36.0,"aqi":97,"pm10":145.8,"pm2_5":38.1,"no2":1.1,"co":134.0,"o3":103.0,"so2":2.5,"mosquito_risk":3,"arthritis_risk":5,"migraine_risk":7,"frizz_risk":1,"updated_at":"2026-06-06T17:36:54.422102+05:30"},{"city":"Gwalior","state":"Madhya Pradesh","latitude":26.2183,"longitude":78.1828,"temp":38.1,"humidity":31,"rain":0.0,"pressure":976.3,"uv_index":8.25,"wind_gusts":32.4,"aqi":167,"pm10":82.2,"pm2_5":28.5,"no2":1.3,"co":148.0,"o3":116.0,"so2":3.5,"mosquito_risk":0,"arthritis_risk":5,"migraine_risk":10,"frizz_risk":1,"updated_at":"2026-06-06T17:36:54.422109+05:30"},{"city":"Indore","state":"Madhya Pradesh","latitude":22.7196,"longitude":75.8577,"temp":35.3,"humidity":39,"rain":0.0,"pressure":943.2,"uv_index":8.6,"wind_gusts":34.9,"aqi":90,"pm10":62.6,"pm2_5":27.3,"no2":2.0,"co":199.0,"o3":113.0,"so2":3.9,"mosquito_risk":0,"arthritis_risk":5,"migraine_risk":10,"frizz_risk":1,"updated_at":"2026-06-06T17:36:54.422115+05:30"},{"city":"Bhopal","state":"Madhya Pradesh","latitude":23.2599,"longitude":77.4126,"temp":36.9,"humidity":32,"rain":0.0,"pressure":948.1,"uv_index":8.7,"wind_gusts":38.2,"aqi":88,"pm10":64.7,"pm2_5":29.2,"no2":1.4,"co":173.0,"o3":105.0,"so2":3.2,"mosquito_risk":0,"arthritis_risk":5,"migraine_risk":10,"frizz_risk":1,"updated_at":"2026-06-06T17:36:54.422122+05:30"},{"city":"Jabalpur","state":"Madhya Pradesh","latitude":23.1815,"longitude":79.9864,"temp":35.8,"humidity":30,"rain":0.0,"pressure":955.4,"uv_index":8.35,"wind_gusts":36.4,"aqi":89,"pm10":129.0,"pm2_5":36.3,"no2":1.6,"co":158.0,"o3":127.0,"so2":3.9,"mosquito_risk":0,"arthritis_risk":5,"migraine_risk":10,"frizz_risk":0,"updated_at":"2026-06-06T17:36:54.422129+05:30"},{"city":"Ujjain","state":"Madhya Pradesh","latitude":23.1765,"longitude":75.7885,"temp":33.9,"humidity":43,"rain":0.0,"pressure":948.7,"uv_index":8.6,"wind_gusts":32.8,"aqi":89,"pm10":68.2,"pm2_5":29.5,"no2":1.1,"co":161.0,"o3":112.0,"so2":4.5,"mosquito_risk":0,"arthritis_risk":5,"migraine_risk":7,"frizz_risk":1,"updated_at":"2026-06-06T17:36:54.422136+05:30"},{"city":"Visakhapatnam","state":"Andhra Pradesh","latitude":17.6868,"longitude":83.2185,"temp":34.6,"humidity":59,"rain":0.0,"pressure":997.1,"uv_index":8.6,"wind_gusts":41.8,"aqi":168,"pm10":51.5,"pm2_5":39.8,"no2":20.4,"co":352.0,"o3":138.0,"so2":43.5,"mosquito_risk":0,"arthritis_risk":5,"migraine_risk":7,"frizz_risk":1,"updated_at":"2026-06-06T17:36:54.422142+05:30"},{"city":"Vijayawada","state":"Andhra Pradesh","latitude":16.5062,"longitude":80.648,"temp":37.4,"humidity":38,"rain":0.0,"pressure":995.5,"uv_index":8.8,"wind_gusts":47.2,"aqi":105,"pm10":61.0,"pm2_5":38.0,"no2":5.9,"co":218.0,"o3":131.0,"so2":6.6,"mosquito_risk":0,"arthritis_risk":5,"migraine_risk":10,"frizz_risk":1,"updated_at":"2026-06-06T17:36:54.422149+05:30"},{"city":"Guntur","state":"Andhra Pradesh","latitude":16.3067,"longitude":80.4365,"temp":36.3,"humidity":45,"rain":0.1,"pressure":996.9,"uv_index":9.0,"wind_gusts":44.3,"aqi":98,"pm10":60.3,"pm2_5":34.2,"no2":3.3,"co":221.0,"o3":131.0,"so2":5.6,"mosquito_risk":3,"arthritis_risk":5,"migraine_risk":10,"frizz_risk":1,"updated_at":"2026-06-06T17:36:54.422156+05:30"},{"city":"Nellore","state":"Andhra Pradesh","latitude":14.4426,"longitude":79.9865,"temp":30.6,"humidity":71,"rain":0.1,"pressure":1000.3,"uv_index":8.45,"wind_gusts":41.4,"aqi":68,"pm10":25.3,"pm2_5":18.5,"no2":3.4,"co":186.0,"o3":122.0,"so2":3.8,"mosquito_risk":6,"arthritis_risk":5,"migraine_risk":4,"frizz_risk":1,"updated_at":"2026-06-06T17:36:54.422164+05:30"},{"city":"Kurnool","state":"Andhra Pradesh","latitude":15.8281,"longitude":78.0373,"temp":32.3,"humidity":58,"rain":0.1,"pressure":971.9,"uv_index":5.95,"wind_gusts":35.3,"aqi":100,"pm10":33.8,"pm2_5":23.2,"no2":3.2,"co":167.0,"o3":138.0,"so2":10.3,"mosquito_risk":3,"arthritis_risk":5,"migraine_risk":3,"frizz_risk":1,"updated_at":"2026-06-06T17:36:54.422171+05:30"},{"city":"Kakinada","state":"Andhra Pradesh","latitude":16.9891,"longitude":82.2475,"temp":35.2,"humidity":53,"rain":0.0,"pressure":1000.3,"uv_index":8.7,"wind_gusts":52.9,"aqi":122,"pm10":34.3,"pm2_5":23.3,"no2":3.0,"co":291.0,"o3":130.0,"so2":3.9,"mosquito_risk":0,"arthritis_risk":5,"migraine_risk":7,"frizz_risk":1,"updated_at":"2026-06-06T17:36:54.422178+05:30"},{"city":"Tirupati","state":"Andhra Pradesh","latitude":13.6288,"longitude":79.4192,"temp":28.8,"humidity":76,"rain":0.2,"pressure":986.4,"uv_index":8.6,"wind_gusts":37.8,"aqi":47,"pm10":12.9,"pm2_5":9.0,"no2":4.0,"co":222.0,"o3":86.0,"so2":1.5,"mosquito_risk":10,"arthritis_risk":5,"migraine_risk":7,"frizz_risk":1,"updated_at":"2026-06-06T17:36:54.422184+05:30"},{"city":"Warangal","state":"Telangana","latitude":17.9689,"longitude":79.5941,"temp":35.9,"humidity":36,"rain":0.0,"pressure":972.4,"uv_index":9.05,"wind_gusts":44.6,"aqi":98,"pm10":46.7,"pm2_5":25.0,"no2":3.2,"co":205.0,"o3":121.0,"so2":5.1,"mosquito_risk":0,"arthritis_risk":5,"migraine_risk":10,"frizz_risk":1,"updated_at":"2026-06-06T17:36:54.422191+05:30"},{"city":"Nizamabad","state":"Telangana","latitude":18.6725,"longitude":78.0941,"temp":36.2,"humidity":31,"rain":0.0,"pressure":959.1,"uv_index":9.05,"wind_gusts":42.5,"aqi":93,"pm10":43.5,"pm2_5":22.7,"no2":1.7,"co":168.0,"o3":114.0,"so2":2.9,"mosquito_risk":0,"arthritis_risk":5,"migraine_risk":10,"frizz_risk":1,"updated_at":"2026-06-06T17:36:54.422197+05:30"},{"city":"Mysore","state":"Karnataka","latitude":12.2958,"longitude":76.6396,"temp":22.6,"humidity":95,"rain":0.1,"pressure":926.4,"uv_index":6.45,"wind_gusts":49.7,"aqi":33,"pm10":3.2,"pm2_5":3.1,"no2":8.5,"co":222.0,"o3":57.0,"so2":1.4,"mosquito_risk":6,"arthritis_risk":5,"migraine_risk":7,"frizz_risk":1,"updated_at":"2026-06-06T17:36:54.422204+05:30"},{"city":"Mangalore","state":"Karnataka","latitude":12.9141,"longitude":74.856,"temp":25.4,"humidity":94,"rain":0.1,"pressure":1005.6,"uv_index":1.45,"wind_gusts":27.7,"aqi":24,"pm10":6.2,"pm2_5":5.3,"no2":8.7,"co":228.0,"o3":45.0,"so2":2.0,"mosquito_risk":10,"arthritis_risk":5,"migraine_risk":0,"frizz_risk":1,"updated_at":"2026-06-06T17:36:54.422210+05:30"},{"city":"Hubli-Dharwad","state":"Karnataka","latitude":15.3647,"longitude":75.124,"temp":26.4,"humidity":75,"rain":0.0,"pressure":938.3,"uv_index":8.4,"wind_gusts":39.6,"aqi":36,"pm10":3.9,"pm2_5":3.2,"no2":7.1,"co":142.0,"o3":65.0,"so2":0.9,"mosquito_risk":7,"arthritis_risk":5,"migraine_risk":7,"frizz_risk":1,"updated_at":"2026-06-06T17:36:54.422217+05:30"},{"city":"Belgaum","state":"Karnataka","latitude":15.8497,"longitude":74.4977,"temp":25.4,"humidity":81,"rain":0.0,"pressure":923.4,"uv_index":8.95,"wind_gusts":38.9,"aqi":36,"pm10":5.8,"pm2_5":4.3,"no2":4.2,"co":143.0,"o3":70.0,"so2":1.6,"mosquito_risk":7,"arthritis_risk":5,"migraine_risk":7,"frizz_risk":1,"updated_at":"2026-06-06T17:36:57.666343+05:30"},{"city":"Coimbatore","state":"Tamil Nadu","latitude":11.0168,"longitude":76.9558,"temp":24.0,"humidity":91,"rain":0.0,"pressure":959.2,"uv_index":8.9,"wind_gusts":41.8,"aqi":25,"pm10":2.3,"pm2_5":2.0,"no2":5.4,"co":258.0,"o3":43.0,"so2":1.6,"mosquito_risk":3,"arthritis_risk":5,"migraine_risk":7,"frizz_risk":1,"updated_at":"2026-06-06T17:36:57.666378+05:30"},{"city":"Madurai","state":"Tamil Nadu","latitude":9.9252,"longitude":78.1198,"temp":33.1,"humidity":45,"rain":0.0,"pressure":989.7,"uv_index":8.75,"wind_gusts":67.0,"aqi":36,"pm10":10.9,"pm2_5":4.9,"no2":3.3,"co":123.0,"o3":70.0,"so2":1.3,"mosquito_risk":0,"arthritis_risk":5,"migraine_risk":7,"frizz_risk":1,"updated_at":"2026-06-06T17:36:57.666388+05:30"},{"city":"Trichy","state":"Tamil Nadu","latitude":10.7905,"longitude":78.7047,"temp":32.3,"humidity":52,"rain":0.0,"pressure":996.2,"uv_index":8.85,"wind_gusts":52.6,"aqi":38,"pm10":10.3,"pm2_5":6.4,"no2":6.6,"co":184.0,"o3":59.0,"so2":1.9,"mosquito_risk":0,"arthritis_risk":5,"migraine_risk":7,"frizz_risk":1,"updated_at":"2026-06-06T17:36:57.666397+05:30"},{"city":"Salem","state":"Tamil Nadu","latitude":11.6643,"longitude":78.146,"temp":30.3,"humidity":57,"rain":0.0,"pressure":974.5,"uv_index":8.65,"wind_gusts":57.2,"aqi":41,"pm10":6.6,"pm2_5":4.9,"no2":5.9,"co":201.0,"o3":78.0,"so2":5.8,"mosquito_risk":0,"arthritis_risk":5,"migraine_risk":7,"frizz_risk":1,"updated_at":"2026-06-06T17:36:57.666405+05:30"},{"city":"Tirunelveli","state":"Tamil Nadu","latitude":8.7139,"longitude":77.7567,"temp":32.4,"humidity":51,"rain":0.0,"pressure":1001.1,"uv_index":8.7,"wind_gusts":47.5,"aqi":25,"pm10":4.7,"pm2_5":3.1,"no2":2.4,"co":108.0,"o3":54.0,"so2":0.7,"mosquito_risk":0,"arthritis_risk":5,"migraine_risk":4,"frizz_risk":1,"updated_at":"2026-06-06T17:36:57.666412+05:30"},{"city":"Vellore","state":"Tamil Nadu","latitude":12.9165,"longitude":79.1325,"temp":31.1,"humidity":67,"rain":0.1,"pressure":979.7,"uv_index":8.95,"wind_gusts":47.2,"aqi":41,"pm10":5.8,"pm2_5":5.5,"no2":5.6,"co":209.0,"o3":79.0,"so2":1.9,"mosquito_risk":6,"arthritis_risk":5,"migraine_risk":7,"frizz_risk":1,"updated_at":"2026-06-06T17:36:57.666420+05:30"},{"city":"Erode","state":"Tamil Nadu","latitude":11.341,"longitude":77.7172,"temp":28.0,"humidity":72,"rain":0.0,"pressure":986.4,"uv_index":8.8,"wind_gusts":60.5,"aqi":34,"pm10":3.7,"pm2_5":2.8,"no2":4.5,"co":150.0,"o3":60.0,"so2":1.5,"mosquito_risk":7,"arthritis_risk":5,"migraine_risk":7,"frizz_risk":1,"updated_at":"2026-06-06T17:36:57.666428+05:30"},{"city":"Kochi","state":"Kerala","latitude":9.9312,"longitude":76.2673,"temp":26.8,"humidity":83,"rain":0.0,"pressure":1008.6,"uv_index":7.85,"wind_gusts":40.3,"aqi":48,"pm10":14.9,"pm2_5":7.7,"no2":6.3,"co":185.0,"o3":44.0,"so2":2.1,"mosquito_risk":7,"arthritis_risk":0,"migraine_risk":4,"frizz_risk":1,"updated_at":"2026-06-06T17:36:57.666435+05:30"},{"city":"Thiruvananthapuram","state":"Kerala","latitude":8.5241,"longitude":76.9366,"temp":25.4,"humidity":93,"rain":0.1,"pressure":1008.2,"uv_index":8.3,"wind_gusts":45.4,"aqi":26,"pm10":11.7,"pm2_5":5.8,"no2":1.7,"co":121.0,"o3":51.0,"so2":0.5,"mosquito_risk":10,"arthritis_risk":0,"migraine_risk":4,"frizz_risk":1,"updated_at":"2026-06-06T17:36:57.666441+05:30"},{"city":"Kozhikode","state":"Kerala","latitude":11.2588,"longitude":75.7804,"temp":25.4,"humidity":98,"rain":0.2,"pressure":1007.4,"uv_index":2.0,"wind_gusts":27.0,"aqi":24,"pm10":10.7,"pm2_5":4.9,"no2":1.0,"co":188.0,"o3":56.0,"so2":0.3,"mosquito_risk":10,"arthritis_risk":5,"migraine_risk":0,"frizz_risk":1,"updated_at":"2026-06-06T17:36:57.666448+05:30"},{"city":"Thrissur","state":"Kerala","latitude":10.5276,"longitude":76.2144,"temp":24.8,"humidity":97,"rain":0.1,"pressure":1007.0,"uv_index":6.8,"wind_gusts":25.2,"aqi":47,"pm10":11.5,"pm2_5":7.4,"no2":7.5,"co":248.0,"o3":36.0,"so2":1.4,"mosquito_risk":6,"arthritis_risk":5,"migraine_risk":4,"frizz_risk":1,"updated_at":"2026-06-06T17:36:57.666472+05:30"},{"city":"Kannur","state":"Kerala","latitude":11.8745,"longitude":75.3704,"temp":24.6,"humidity":98,"rain":0.2,"pressure":1006.4,"uv_index":0.8,"wind_gusts":27.4,"aqi":22,"pm10":5.3,"pm2_5":4.0,"no2":6.9,"co":202.0,"o3":50.0,"so2":0.9,"mosquito_risk":6,"arthritis_risk":5,"migraine_risk":0,"frizz_risk":1,"updated_at":"2026-06-06T17:36:57.666480+05:30"},{"city":"Patna","state":"Bihar","latitude":25.5941,"longitude":85.1376,"temp":34.7,"humidity":54,"rain":0.0,"pressure":992.7,"uv_index":8.9,"wind_gusts":27.4,"aqi":203,"pm10":101.0,"pm2_5":74.5,"no2":7.2,"co":336.0,"o3":194.0,"so2":14.0,"mosquito_risk":0,"arthritis_risk":5,"migraine_risk":7,"frizz_risk":1,"updated_at":"2026-06-06T17:36:57.666487+05:30"},{"city":"Gaya","state":"Bihar","latitude":24.7914,"longitude":85.0002,"temp":35.5,"humidity":46,"rain":0.0,"pressure":986.5,"uv_index":8.7,"wind_gusts":34.2,"aqi":177,"pm10":97.8,"pm2_5":73.6,"no2":7.0,"co":343.0,"o3":164.0,"so2":11.4,"mosquito_risk":0,"arthritis_risk":5,"migraine_risk":10,"frizz_risk":1,"updated_at":"2026-06-06T17:36:57.666494+05:30"},{"city":"Muzaffarpur","state":"Bihar","latitude":26.1209,"longitude":85.3647,"temp":33.7,"humidity":61,"rain":0.0,"pressure":992.9,"uv_index":8.9,"wind_gusts":39.6,"aqi":201,"pm10":90.1,"pm2_5":74.7,"no2":9.3,"co":362.0,"o3":193.0,"so2":16.2,"mosquito_risk":3,"arthritis_risk":5,"migraine_risk":7,"frizz_risk":1,"updated_at":"2026-06-06T17:36:57.666501+05:30"},{"city":"Bhagalpur","state":"Bihar","latitude":25.2425,"longitude":87.0117,"temp":34.8,"humidity":52,"rain":0.0,"pressure":993.5,"uv_index":8.75,"wind_gusts":31.7,"aqi":208,"pm10":71.5,"pm2_5":64.3,"no2":11.7,"co":351.0,"o3":192.0,"so2":21.2,"mosquito_risk":0,"arthritis_risk":5,"migraine_risk":7,"frizz_risk":1,"updated_at":"2026-06-06T17:36:57.666507+05:30"},{"city":"Ranchi","state":"Jharkhand","latitude":23.3441,"longitude":85.3096,"temp":26.5,"humidity":86,"rain":0.2,"pressure":932.8,"uv_index":9.3,"wind_gusts":33.1,"aqi":152,"pm10":60.5,"pm2_5":47.5,"no2":5.9,"co":301.0,"o3":132.0,"so2":6.1,"mosquito_risk":10,"arthritis_risk":5,"migraine_risk":7,"frizz_risk":1,"updated_at":"2026-06-06T17:36:57.666514+05:30"},{"city":"Jamshedpur","state":"Jharkhand","latitude":22.8046,"longitude":86.2029,"temp":33.2,"humidity":58,"rain":0.0,"pressure":983.9,"uv_index":9.1,"wind_gusts":34.9,"aqi":199,"pm10":84.1,"pm2_5":63.6,"no2":7.1,"co":471.0,"o3":192.0,"so2":21.2,"mosquito_risk":0,"arthritis_risk":5,"migraine_risk":7,"frizz_risk":1,"updated_at":"2026-06-06T17:36:57.666521+05:30"},{"city":"Dhanbad","state":"Jharkhand","latitude":23.7957,"longitude":86.4304,"temp":32.6,"humidity":65,"rain":0.0,"pressure":973.2,"uv_index":8.65,"wind_gusts":27.0,"aqi":205,"pm10":109.9,"pm2_5":91.5,"no2":25.9,"co":461.0,"o3":210.0,"so2":79.7,"mosquito_risk":3,"arthritis_risk":5,"migraine_risk":7,"frizz_risk":1,"updated_at":"2026-06-06T17:36:57.666527+05:30"},{"city":"Bokaro","state":"Jharkhand","latitude":23.6693,"longitude":86.1511,"temp":32.9,"humidity":57,"rain":0.0,"pressure":977.0,"uv_index":8.5,"wind_gusts":30.6,"aqi":181,"pm10":91.7,"pm2_5":75.0,"no2":23.3,"co":444.0,"o3":187.0,"so2":69.8,"mosquito_risk":0,"arthritis_risk":5,"migraine_risk":7,"frizz_risk":1,"updated_at":"2026-06-06T17:36:57.666535+05:30"},{"city":"Bhubaneswar","state":"Odisha","latitude":20.2961,"longitude":85.8245,"temp":31.5,"humidity":78,"rain":0.0,"pressure":995.3,"uv_index":8.9,"wind_gusts":19.4,"aqi":151,"pm10":36.9,"pm2_5":31.9,"no2":10.1,"co":487.0,"o3":118.0,"so2":7.8,"mosquito_risk":3,"arthritis_risk":5,"migraine_risk":7,"frizz_risk":1,"updated_at":"2026-06-06T17:36:57.666541+05:30"},{"city":"Cuttack","state":"Odisha","latitude":20.4625,"longitude":85.8828,"temp":31.8,"humidity":78,"rain":0.0,"pressure":997.0,"uv_index":8.95,"wind_gusts":30.2,"aqi":151,"pm10":36.9,"pm2_5":31.9,"no2":10.1,"co":404.0,"o3":118.0,"so2":7.8,"mosquito_risk":3,"arthritis_risk":5,"migraine_risk":7,"frizz_risk":1,"updated_at":"2026-06-06T17:36:57.666547+05:30"},{"city":"Rourkela","state":"Odisha","latitude":22.2604,"longitude":84.8536,"temp":34.5,"humidity":46,"rain":0.0,"pressure":978.3,"uv_index":8.4,"wind_gusts":24.5,"aqi":161,"pm10":89.2,"pm2_5":58.1,"no2":5.7,"co":350.0,"o3":153.0,"so2":12.1,"mosquito_risk":0,"arthritis_risk":5,"migraine_risk":7,"frizz_risk":1,"updated_at":"2026-06-06T17:36:57.666554+05:30"},{"city":"Raipur","state":"Chhattisgarh","latitude":21.2514,"longitude":81.6296,"temp":36.6,"humidity":33,"rain":0.0,"pressure":967.4,"uv_index":8.8,"wind_gusts":34.9,"aqi":125,"pm10":41.3,"pm2_5":21.9,"no2":8.8,"co":156.0,"o3":129.0,"so2":23.5,"mosquito_risk":0,"arthritis_risk":5,"migraine_risk":10,"frizz_risk":1,"updated_at":"2026-06-06T17:36:57.666561+05:30"},{"city":"Bhilai","state":"Chhattisgarh","latitude":21.1938,"longitude":81.3509,"temp":36.5,"humidity":34,"rain":0.0,"pressure":967.9,"uv_index":8.95,"wind_gusts":39.6,"aqi":114,"pm10":32.0,"pm2_5":17.1,"no2":8.5,"co":204.0,"o3":115.0,"so2":19.2,"mosquito_risk":0,"arthritis_risk":5,"migraine_risk":10,"frizz_risk":1,"updated_at":"2026-06-06T17:36:57.666567+05:30"},{"city":"Guwahati","state":"Assam","latitude":26.1158,"longitude":91.7086,"temp":29.8,"humidity":80,"rain":0.0,"pressure":994.4,"uv_index":8.7,"wind_gusts":25.9,"aqi":93,"pm10":26.0,"pm2_5":23.9,"no2":5.1,"co":351.0,"o3":98.0,"so2":2.0,"mosquito_risk":7,"arthritis_risk":5,"migraine_risk":7,"frizz_risk":1,"updated_at":"2026-06-06T17:36:57.666573+05:30"},{"city":"Agartala","state":"Tripura","latitude":23.8315,"longitude":91.2868,"temp":32.1,"humidity":70,"rain":0.0,"pressure":998.9,"uv_index":8.8,"wind_gusts":24.8,"aqi":157,"pm10":47.8,"pm2_5":43.0,"no2":15.2,"co":290.0,"o3":121.0,"so2":7.4,"mosquito_risk":3,"arthritis_risk":5,"migraine_risk":7,"frizz_risk":1,"updated_at":"2026-06-06T17:36:57.666579+05:30"},{"city":"Shillong","state":"Meghalaya","latitude":25.5788,"longitude":91.8933,"temp":23.0,"humidity":74,"rain":0.0,"pressure":853.7,"uv_index":8.65,"wind_gusts":22.0,"aqi":96,"pm10":28.5,"pm2_5":25.7,"no2":5.8,"co":298.0,"o3":112.0,"so2":3.0,"mosquito_risk":3,"arthritis_risk":5,"migraine_risk":7,"frizz_risk":1,"updated_at":"2026-06-06T17:36:57.666586+05:30"},{"city":"Imphal","state":"Manipur","latitude":24.817,"longitude":93.9368,"temp":27.8,"humidity":66,"rain":0.0,"pressure":917.7,"uv_index":9.05,"wind_gusts":32.4,"aqi":112,"pm10":33.5,"pm2_5":29.2,"no2":5.6,"co":294.0,"o3":96.0,"so2":2.7,"mosquito_risk":7,"arthritis_risk":5,"migraine_risk":7,"frizz_risk":1,"updated_at":"2026-06-06T17:36:57.666592+05:30"},{"city":"Aizawl","state":"Mizoram","latitude":23.7271,"longitude":92.7176,"temp":25.0,"humidity":78,"rain":0.0,"pressure":888.1,"uv_index":8.45,"wind_gusts":26.6,"aqi":113,"pm10":45.1,"pm2_5":38.1,"no2":4.9,"co":215.0,"o3":89.0,"so2":3.2,"mosquito_risk":7,"arthritis_risk":5,"migraine_risk":7,"frizz_risk":1,"updated_at":"2026-06-06T17:36:57.666599+05:30"},{"city":"Kohima","state":"Nagaland","latitude":25.6701,"longitude":94.1077,"temp":21.7,"humidity":96,"rain":0.2,"pressure":851.7,"uv_index":9.2,"wind_gusts":26.3,"aqi":69,"pm10":23.2,"pm2_5":19.8,"no2":5.3,"co":284.0,"o3":92.0,"so2":1.5,"mosquito_risk":6,"arthritis_risk":5,"migraine_risk":7,"frizz_risk":1,"updated_at":"2026-06-06T17:36:57.666605+05:30"},{"city":"Gangtok","state":"Sikkim","latitude":27.3314,"longitude":88.6138,"temp":19.8,"humidity":95,"rain":0.1,"pressure":833.8,"uv_index":9.1,"wind_gusts":36.0,"aqi":112,"pm10":15.9,"pm2_5":12.9,"no2":4.3,"co":379.0,"o3":138.0,"so2":3.0,"mosquito_risk":6,"arthritis_risk":10,"migraine_risk":7,"frizz_risk":1,"updated_at":"2026-06-06T17:36:57.666612+05:30"},{"city":"Siliguri","state":"West Bengal","latitude":26.7271,"longitude":88.3953,"temp":28.7,"humidity":81,"rain":0.0,"pressure":986.1,"uv_index":8.75,"wind_gusts":22.0,"aqi":137,"pm10":46.3,"pm2_5":38.5,"no2":8.6,"co":627.0,"o3":151.0,"so2":6.8,"mosquito_risk":7,"arthritis_risk":5,"migraine_risk":7,"frizz_risk":1,"updated_at":"2026-06-06T17:37:00.929278+05:30"},{"city":"Durgapur","state":"West Bengal","latitude":23.5204,"longitude":87.3119,"temp":31.3,"humidity":80,"rain":0.0,"pressure":987.7,"uv_index":9.05,"wind_gusts":36.7,"aqi":189,"pm10":85.4,"pm2_5":73.3,"no2":19.5,"co":400.0,"o3":182.0,"so2":46.8,"mosquito_risk":3,"arthritis_risk":5,"migraine_risk":7,"frizz_risk":1,"updated_at":"2026-06-06T17:37:00.929314+05:30"},{"city":"Asansol","state":"West Bengal","latitude":23.6739,"longitude":86.9524,"temp":32.1,"humidity":71,"rain":0.0,"pressure":986.4,"uv_index":9.05,"wind_gusts":29.9,"aqi":204,"pm10":98.5,"pm2_5":82.2,"no2":18.4,"co":554.0,"o3":197.0,"so2":47.8,"mosquito_risk":3,"arthritis_risk":5,"migraine_risk":7,"frizz_risk":1,"updated_at":"2026-06-06T17:37:00.929325+05:30"},{"city":"Pondicherry","state":"Puducherry","latitude":11.9139,"longitude":79.8145,"temp":34.6,"humidity":49,"rain":0.0,"pressure":1003.3,"uv_index":8.7,"wind_gusts":46.4,"aqi":62,"pm10":19.8,"pm2_5":13.7,"no2":7.5,"co":241.0,"o3":92.0,"so2":4.6,"mosquito_risk":0,"arthritis_risk":5,"migraine_risk":4,"frizz_risk":1,"updated_at":"2026-06-06T17:37:00.929334+05:30"},{"city":"Port Blair","state":"Andaman and Nicobar Islands","latitude":11.6234,"longitude":92.7265,"temp":26.0,"humidity":96,"rain":0.1,"pressure":1006.6,"uv_index":7.85,"wind_gusts":45.4,"aqi":27,"pm10":7.3,"pm2_5":4.6,"no2":0.6,"co":110.0,"o3":59.0,"so2":0.4,"mosquito_risk":10,"arthritis_risk":5,"migraine_risk":4,"frizz_risk":1,"updated_at":"2026-06-06T17:37:00.929342+05:30"},{"city":"Haridwar","state":"Uttarakhand","latitude":29.9457,"longitude":78.1642,"temp":34.3,"humidity":45,"rain":0.0,"pressure":967.6,"uv_index":7.6,"wind_gusts":22.7,"aqi":171,"pm10":42.4,"pm2_5":24.9,"no2":3.1,"co":309.0,"o3":176.0,"so2":11.4,"mosquito_risk":0,"arthritis_risk":5,"migraine_risk":7,"frizz_risk":1,"updated_at":"2026-06-06T17:37:00.929350+05:30"},{"city":"Rishikesh","state":"Uttarakhand","latitude":30.0869,"longitude":78.2676,"temp":33.1,"humidity":47,"rain":0.0,"pressure":960.7,"uv_index":7.7,"wind_gusts":28.4,"aqi":154,"pm10":35.2,"pm2_5":22.1,"no2":1.6,"co":287.0,"o3":176.0,"so2":8.8,"mosquito_risk":0,"arthritis_risk":5,"migraine_risk":7,"frizz_risk":1,"updated_at":"2026-06-06T17:37:00.929357+05:30"},{"city":"Nainital","state":"Uttarakhand","latitude":29.3919,"longitude":79.4542,"temp":20.5,"humidity":60,"rain":0.0,"pressure":804.4,"uv_index":8.3,"wind_gusts":24.1,"aqi":150,"pm10":62.6,"pm2_5":29.7,"no2":2.5,"co":254.0,"o3":173.0,"so2":7.6,"mosquito_risk":0,"arthritis_risk":5,"migraine_risk":7,"frizz_risk":0,"updated_at":"2026-06-06T17:37:00.929364+05:30"},{"city":"Mussoorie","state":"Uttarakhand","latitude":30.4599,"longitude":78.0664,"temp":20.8,"humidity":53,"rain":0.0,"pressure":802.0,"uv_index":8.1,"wind_gusts":45.0,"aqi":168,"pm10":35.7,"pm2_5":23.9,"no2":2.5,"co":255.0,"o3":181.0,"so2":10.6,"mosquito_risk":0,"arthritis_risk":5,"migraine_risk":7,"frizz_risk":0,"updated_at":"2026-06-06T17:37:00.929372+05:30"},{"city":"Dharamshala","state":"Himachal Pradesh","latitude":32.219,"longitude":76.3234,"temp":26.5,"humidity":32,"rain":0.0,"pressure":867.0,"uv_index":8.5,"wind_gusts":43.6,"aqi":112,"pm10":11.7,"pm2_5":7.6,"no2":1.0,"co":217.0,"o3":141.0,"so2":1.0,"mosquito_risk":4,"arthritis_risk":5,"migraine_risk":7,"frizz_risk":0,"updated_at":"2026-06-06T17:37:00.929379+05:30"},{"city":"Dalhousie","state":"Himachal Pradesh","latitude":32.5387,"longitude":75.971,"temp":22.0,"humidity":37,"rain":0.0,"pressure":804.5,"uv_index":8.75,"wind_gusts":35.3,"aqi":135,"pm10":25.0,"pm2_5":16.2,"no2":2.6,"co":187.0,"o3":162.0,"so2":2.5,"mosquito_risk":0,"arthritis_risk":5,"migraine_risk":7,"frizz_risk":0,"updated_at":"2026-06-06T17:37:00.929387+05:30"},{"city":"Patiala","state":"Punjab","latitude":30.3398,"longitude":76.3869,"temp":37.2,"humidity":27,"rain":0.0,"pressure":971.9,"uv_index":7.7,"wind_gusts":30.2,"aqi":194,"pm10":447.0,"pm2_5":66.1,"no2":2.4,"co":241.0,"o3":155.0,"so2":6.2,"mosquito_risk":0,"arthritis_risk":5,"migraine_risk":10,"frizz_risk":0,"updated_at":"2026-06-06T17:37:00.929394+05:30"},{"city":"Bhatinda","state":"Punjab","latitude":30.211,"longitude":74.9455,"temp":38.6,"humidity":26,"rain":0.0,"pressure":977.1,"uv_index":8.35,"wind_gusts":25.9,"aqi":173,"pm10":91.0,"pm2_5":43.1,"no2":3.9,"co":208.0,"o3":183.0,"so2":18.6,"mosquito_risk":0,"arthritis_risk":5,"migraine_risk":10,"frizz_risk":0,"updated_at":"2026-06-06T17:37:00.929401+05:30"},{"city":"Rohtak","state":"Haryana","latitude":28.8955,"longitude":76.6066,"temp":36.9,"humidity":32,"rain":0.0,"pressure":975.5,"uv_index":7.8,"wind_gusts":22.0,"aqi":198,"pm10":417.2,"pm2_5":69.6,"no2":4.2,"co":208.0,"o3":137.0,"so2":4.4,"mosquito_risk":0,"arthritis_risk":5,"migraine_risk":10,"frizz_risk":1,"updated_at":"2026-06-06T17:37:00.929408+05:30"},{"city":"Panipat","state":"Haryana","latitude":29.3909,"longitude":76.9635,"temp":36.6,"humidity":34,"rain":0.0,"pressure":973.9,"uv_index":7.65,"wind_gusts":27.0,"aqi":303,"pm10":558.8,"pm2_5":84.1,"no2":4.8,"co":222.0,"o3":140.0,"so2":10.3,"mosquito_risk":0,"arthritis_risk":5,"migraine_risk":10,"frizz_risk":1,"updated_at":"2026-06-06T17:37:00.929415+05:30"},{"city":"Mathura","state":"Uttar Pradesh","latitude":27.4924,"longitude":77.6737,"temp":36.0,"humidity":38,"rain":0.0,"pressure":980.1,"uv_index":8.05,"wind_gusts":23.8,"aqi":355,"pm10":261.7,"pm2_5":60.3,"no2":7.2,"co":241.0,"o3":122.0,"so2":4.8,"mosquito_risk":0,"arthritis_risk":5,"migraine_risk":10,"frizz_risk":1,"updated_at":"2026-06-06T17:37:00.929422+05:30"},{"city":"Vrindavan","state":"Uttar Pradesh","latitude":27.5823,"longitude":77.7027,"temp":36.4,"humidity":34,"rain":0.0,"pressure":980.5,"uv_index":8.05,"wind_gusts":26.3,"aqi":355,"pm10":261.7,"pm2_5":60.3,"no2":7.2,"co":207.0,"o3":122.0,"so2":4.8,"mosquito_risk":0,"arthritis_risk":5,"migraine_risk":10,"frizz_risk":1,"updated_at":"2026-06-06T17:37:00.929429+05:30"},{"city":"Ayodhya","state":"Uttar Pradesh","latitude":26.7922,"longitude":82.1998,"temp":31.1,"humidity":69,"rain":0.0,"pressure":988.4,"uv_index":8.45,"wind_gusts":25.9,"aqi":153,"pm10":142.0,"pm2_5":54.6,"no2":4.0,"co":318.0,"o3":151.0,"so2":7.9,"mosquito_risk":3,"arthritis_risk":5,"migraine_risk":7,"frizz_risk":1,"updated_at":"2026-06-06T17:37:00.929435+05:30"},{"city":"Ratlam","state":"Madhya Pradesh","latitude":23.3315,"longitude":75.0367,"temp":35.2,"humidity":40,"rain":0.0,"pressure":949.9,"uv_index":8.5,"wind_gusts":36.7,"aqi":88,"pm10":71.2,"pm2_5":30.5,"no2":0.8,"co":135.0,"o3":110.0,"so2":4.2,"mosquito_risk":0,"arthritis_risk":5,"migraine_risk":10,"frizz_risk":1,"updated_at":"2026-06-06T17:37:00.929441+05:30"},{"city":"Sagar","state":"Madhya Pradesh","latitude":23.8388,"longitude":78.7378,"temp":35.4,"humidity":30,"rain":0.0,"pressure":945.0,"uv_index":8.7,"wind_gusts":38.9,"aqi":72,"pm10":45.4,"pm2_5":18.4,"no2":0.9,"co":138.0,"o3":120.0,"so2":3.3,"mosquito_risk":0,"arthritis_risk":5,"migraine_risk":10,"frizz_risk":0,"updated_at":"2026-06-06T17:37:00.929448+05:30"},{"city":"Satna","state":"Madhya Pradesh","latitude":24.6005,"longitude":80.8322,"temp":35.3,"humidity":34,"rain":0.0,"pressure":965.2,"uv_index":8.8,"wind_gusts":37.1,"aqi":116,"pm10":244.0,"pm2_5":64.7,"no2":1.3,"co":173.0,"o3":138.0,"so2":5.3,"mosquito_risk":0,"arthritis_risk":5,"migraine_risk":10,"frizz_risk":1,"updated_at":"2026-06-06T17:37:00.929472+05:30"},{"city":"Akola","state":"Maharashtra","latitude":20.7002,"longitude":77.0082,"temp":38.0,"humidity":29,"rain":0.0,"pressure":969.0,"uv_index":8.8,"wind_gusts":41.4,"aqi":76,"pm10":49.7,"pm2_5":23.5,"no2":2.1,"co":139.0,"o3":111.0,"so2":4.2,"mosquito_risk":0,"arthritis_risk":5,"migraine_risk":10,"frizz_risk":1,"updated_at":"2026-06-06T17:37:00.929480+05:30"},{"city":"Amravati","state":"Maharashtra","latitude":20.9374,"longitude":77.7796,"temp":36.2,"humidity":32,"rain":0.0,"pressure":961.9,"uv_index":8.85,"wind_gusts":44.6,"aqi":78,"pm10":46.8,"pm2_5":22.6,"no2":2.6,"co":144.0,"o3":113.0,"so2":5.2,"mosquito_risk":0,"arthritis_risk":5,"migraine_risk":10,"frizz_risk":1,"updated_at":"2026-06-06T17:37:00.929488+05:30"},{"city":"Latur","state":"Maharashtra","latitude":18.4088,"longitude":76.5604,"temp":34.5,"humidity":32,"rain":0.0,"pressure":935.2,"uv_index":8.75,"wind_gusts":36.0,"aqi":76,"pm10":55.4,"pm2_5":23.5,"no2":1.6,"co":148.0,"o3":107.0,"so2":2.6,"mosquito_risk":0,"arthritis_risk":5,"migraine_risk":7,"frizz_risk":0,"updated_at":"2026-06-06T17:37:00.929495+05:30"},{"city":"Nanded","state":"Maharashtra","latitude":19.1383,"longitude":77.3091,"temp":37.6,"humidity":25,"rain":0.0,"pressure":962.6,"uv_index":8.9,"wind_gusts":32.8,"aqi":83,"pm10":45.2,"pm2_5":21.4,"no2":1.7,"co":154.0,"o3":110.0,"so2":2.0,"mosquito_risk":0,"arthritis_risk":5,"migraine_risk":10,"frizz_risk":0,"updated_at":"2026-06-06T17:37:00.929501+05:30"},{"city":"Gulbarga","state":"Karnataka","latitude":17.3297,"longitude":76.8343,"temp":34.3,"humidity":41,"rain":0.0,"pressure":953.5,"uv_index":8.95,"wind_gusts":40.7,"aqi":74,"pm10":38.4,"pm2_5":20.1,"no2":3.5,"co":221.0,"o3":117.0,"so2":3.6,"mosquito_risk":0,"arthritis_risk":5,"migraine_risk":7,"frizz_risk":1,"updated_at":"2026-06-06T17:37:00.929507+05:30"},{"city":"Bidar","state":"Karnataka","latitude":17.9104,"longitude":77.5199,"temp":33.3,"humidity":39,"rain":0.0,"pressure":931.1,"uv_index":8.35,"wind_gusts":35.3,"aqi":95,"pm10":47.0,"pm2_5":24.3,"no2":2.9,"co":175.0,"o3":117.0,"so2":4.4,"mosquito_risk":0,"arthritis_risk":5,"migraine_risk":7,"frizz_risk":1,"updated_at":"2026-06-06T17:37:00.929514+05:30"},{"city":"Hospet","state":"Karnataka","latitude":15.2689,"longitude":76.3909,"temp":26.9,"humidity":78,"rain":0.0,"pressure":952.8,"uv_index":8.9,"wind_gusts":41.4,"aqi":33,"pm10":16.9,"pm2_5":10.1,"no2":4.6,"co":164.0,"o3":84.0,"so2":2.0,"mosquito_risk":7,"arthritis_risk":5,"migraine_risk":7,"frizz_risk":1,"updated_at":"2026-06-06T17:37:00.929521+05:30"},{"city":"Tirupur","state":"Tamil Nadu","latitude":11.1085,"longitude":77.3411,"temp":25.5,"humidity":85,"rain":0.0,"pressure":972.8,"uv_index":8.95,"wind_gusts":52.9,"aqi":32,"pm10":3.3,"pm2_5":2.9,"no2":5.8,"co":145.0,"o3":55.0,"so2":2.2,"mosquito_risk":7,"arthritis_risk":5,"migraine_risk":7,"frizz_risk":1,"updated_at":"2026-06-06T17:37:00.929527+05:30"},{"city":"Alappuzha","state":"Kerala","latitude":9.4981,"longitude":76.3388,"temp":26.4,"humidity":88,"rain":0.1,"pressure":1008.8,"uv_index":8.15,"wind_gusts":36.4,"aqi":38,"pm10":16.3,"pm2_5":7.6,"no2":4.2,"co":91.0,"o3":56.0,"so2":1.4,"mosquito_risk":10,"arthritis_risk":0,"migraine_risk":4,"frizz_risk":1,"updated_at":"2026-06-06T17:37:00.929534+05:30"},{"city":"Munnar","state":"Kerala","latitude":10.0889,"longitude":77.0595,"temp":17.5,"humidity":96,"rain":0.2,"pressure":855.7,"uv_index":8.75,"wind_gusts":47.5,"aqi":25,"pm10":3.6,"pm2_5":2.4,"no2":4.4,"co":125.0,"o3":50.0,"so2":0.9,"mosquito_risk":6,"arthritis_risk":10,"migraine_risk":7,"frizz_risk":1,"updated_at":"2026-06-06T17:37:00.929541+05:30"},{"city":"Silchar","state":"Assam","latitude":24.8333,"longitude":92.7789,"temp":31.9,"humidity":74,"rain":0.1,"pressure":997.3,"uv_index":8.9,"wind_gusts":23.4,"aqi":139,"pm10":51.0,"pm2_5":43.3,"no2":6.8,"co":309.0,"o3":127.0,"so2":5.4,"mosquito_risk":6,"arthritis_risk":5,"migraine_risk":7,"frizz_risk":1,"updated_at":"2026-06-06T17:37:00.929547+05:30"},{"city":"Dibrugarh","state":"Assam","latitude":27.4728,"longitude":94.912,"temp":30.6,"humidity":74,"rain":0.0,"pressure":987.8,"uv_index":8.95,"wind_gusts":32.4,"aqi":122,"pm10":35.6,"pm2_5":31.8,"no2":9.0,"co":352.0,"o3":97.0,"so2":2.9,"mosquito_risk":3,"arthritis_risk":5,"migraine_risk":7,"frizz_risk":1,"updated_at":"2026-06-06T17:37:00.929554+05:30"}]