[{"city":"Delhi","state":"Delhi","latitude":28.6139,"longitude":77.209,"temp":18.1,"humidity":88,"rain":0.0,"pressure":983.0,"uv_index":6.9,"wind_gusts":28.1,"aqi":245,"pm10":116.4,"pm2_5":43.1,"mosquito_risk":3,"arthritis_risk":10,"migraine_risk":7,"frizz_risk":1,"updated_at":"2026-04-08T08:12:26.502405+05:30"},{"city":"Mumbai","state":"Maharashtra","latitude":19.076,"longitude":72.8777,"temp":28.1,"humidity":77,"rain":0.0,"pressure":1010.2,"uv_index":7.95,"wind_gusts":20.5,"aqi":76,"pm10":93.4,"pm2_5":29.2,"mosquito_risk":7,"arthritis_risk":0,"migraine_risk":4,"frizz_risk":1,"updated_at":"2026-04-08T08:12:26.502454+05:30"},{"city":"Bangalore","state":"Karnataka","latitude":12.9716,"longitude":77.5946,"temp":22.8,"humidity":74,"rain":0.0,"pressure":913.5,"uv_index":9.6,"wind_gusts":23.0,"aqi":50,"pm10":36.7,"pm2_5":35.4,"mosquito_risk":3,"arthritis_risk":5,"migraine_risk":7,"frizz_risk":1,"updated_at":"2026-04-08T08:12:26.502471+05:30"},{"city":"Hyderabad","state":"Telangana","latitude":17.385,"longitude":78.4867,"temp":28.0,"humidity":41,"rain":0.0,"pressure":955.2,"uv_index":9.15,"wind_gusts":25.9,"aqi":89,"pm10":71.9,"pm2_5":55.4,"mosquito_risk":4,"arthritis_risk":5,"migraine_risk":7,"frizz_risk":0,"updated_at":"2026-04-08T08:12:26.502482+05:30"},{"city":"Chennai","state":"Tamil Nadu","latitude":13.0827,"longitude":80.2707,"temp":29.7,"humidity":78,"rain":0.0,"pressure":1008.8,"uv_index":9.35,"wind_gusts":36.7,"aqi":84,"pm10":31.8,"pm2_5":25.5,"mosquito_risk":7,"arthritis_risk":0,"migraine_risk":4,"frizz_risk":1,"updated_at":"2026-04-08T08:12:26.502491+05:30"},{"city":"Kolkata","state":"West Bengal","latitude":22.5726,"longitude":88.3639,"temp":26.4,"humidity":84,"rain":0.0,"pressure":1008.5,"uv_index":8.7,"wind_gusts":24.8,"aqi":105,"pm10":27.8,"pm2_5":25.0,"mosquito_risk":7,"arthritis_risk":0,"migraine_risk":4,"frizz_risk":1,"updated_at":"2026-04-08T08:12:26.502499+05:30"},{"city":"Pune","state":"Maharashtra","latitude":18.5204,"longitude":73.8567,"temp":22.8,"humidity":79,"rain":0.0,"pressure":950.2,"uv_index":8.5,"wind_gusts":40.3,"aqi":75,"pm10":67.1,"pm2_5":23.3,"mosquito_risk":3,"arthritis_risk":5,"migraine_risk":7,"frizz_risk":1,"updated_at":"2026-04-08T08:12:26.502510+05:30"},{"city":"Ahmedabad","state":"Gujarat","latitude":23.0225,"longitude":72.5714,"temp":25.9,"humidity":78,"rain":0.0,"pressure":1002.6,"uv_index":8.0,"wind_gusts":33.1,"aqi":58,"pm10":22.7,"pm2_5":11.4,"mosquito_risk":7,"arthritis_risk":5,"migraine_risk":4,"frizz_risk":1,"updated_at":"2026-04-08T08:12:26.502518+05:30"},{"city":"Jaipur","state":"Rajasthan","latitude":26.9124,"longitude":75.7873,"temp":19.2,"humidity":85,"rain":0.0,"pressure":959.1,"uv_index":7.65,"wind_gusts":36.7,"aqi":128,"pm10":110.8,"pm2_5":35.7,"mosquito_risk":3,"arthritis_risk":10,"migraine_risk":7,"frizz_risk":1,"updated_at":"2026-04-08T08:12:26.502526+05:30"},{"city":"Lucknow","state":"Uttar Pradesh","latitude":26.8467,"longitude":80.9462,"temp":19.4,"humidity":91,"rain":2.3,"pressure":995.7,"uv_index":7.45,"wind_gusts":36.7,"aqi":88,"pm10":73.6,"pm2_5":37.8,"mosquito_risk":6,"arthritis_risk":10,"migraine_risk":7,"frizz_risk":1,"updated_at":"2026-04-08T08:12:26.502535+05:30"},{"city":"Kanpur","state":"Uttar Pradesh","latitude":26.4499,"longitude":80.3319,"temp":20.6,"humidity":86,"rain":0.4,"pressure":992.9,"uv_index":7.5,"wind_gusts":29.5,"aqi":108,"pm10":74.3,"pm2_5":35.3,"mosquito_risk":6,"arthritis_risk":5,"migraine_risk":7,"frizz_risk":1,"updated_at":"2026-04-08T08:12:26.502543+05:30"},{"city":"Chandigarh","state":"Chandigarh","latitude":30.7333,"longitude":76.7794,"temp":16.5,"humidity":94,"rain":0.0,"pressure":968.9,"uv_index":5.5,"wind_gusts":30.6,"aqi":78,"pm10":53.9,"pm2_5":25.7,"mosquito_risk":3,"arthritis_risk":10,"migraine_risk":3,"frizz_risk":0,"updated_at":"2026-04-08T08:12:26.502551+05:30"},{"city":"Srinagar","state":"Jammu and Kashmir","latitude":34.0837,"longitude":74.7973,"temp":8.2,"humidity":81,"rain":0.0,"pressure":836.4,"uv_index":5.5,"wind_gusts":25.6,"aqi":54,"pm10":12.6,"pm2_5":12.6,"mosquito_risk":3,"arthritis_risk":10,"migraine_risk":3,"frizz_risk":0,"updated_at":"2026-04-08T08:12:26.502559+05:30"},{"city":"Jammu","state":"Jammu and Kashmir","latitude":32.7266,"longitude":74.857,"temp":17.0,"humidity":88,"rain":0.0,"pressure":973.1,"uv_index":7.2,"wind_gusts":21.2,"aqi":65,"pm10":35.6,"pm2_5":17.2,"mosquito_risk":3,"arthritis_risk":10,"migraine_risk":7,"frizz_risk":0,"updated_at":"2026-04-08T08:12:26.502566+05:30"},{"city":"Amritsar","state":"Punjab","latitude":31.634,"longitude":74.8723,"temp":16.4,"humidity":93,"rain":0.0,"pressure":981.7,"uv_index":7.2,"wind_gusts":20.9,"aqi":103,"pm10":65.2,"pm2_5":30.2,"mosquito_risk":3,"arthritis_risk":10,"migraine_risk":7,"frizz_risk":0,"updated_at":"2026-04-08T08:12:26.502574+05:30"},{"city":"Ludhiana","state":"Punjab","latitude":30.901,"longitude":75.8573,"temp":17.1,"humidity":84,"rain":0.0,"pressure":979.3,"uv_index":5.05,"wind_gusts":21.2,"aqi":144,"pm10":63.1,"pm2_5":33.4,"mosquito_risk":3,"arthritis_risk":10,"migraine_risk":3,"frizz_risk":0,"updated_at":"2026-04-08T08:12:26.502581+05:30"},{"city":"Jalandhar","state":"Punjab","latitude":31.326,"longitude":75.5762,"temp":16.9,"humidity":88,"rain":0.0,"pressure":980.7,"uv_index":5.6,"wind_gusts":24.1,"aqi":126,"pm10":59.8,"pm2_5":31.8,"mosquito_risk":3,"arthritis_risk":10,"migraine_risk":3,"frizz_risk":0,"updated_at":"2026-04-08T08:12:26.502590+05:30"},{"city":"Dehradun","state":"Uttarakhand","latitude":30.6284,"longitude":78.0322,"temp":9.5,"humidity":87,"rain":0.1,"pressure":825.4,"uv_index":2.25,"wind_gusts":42.5,"aqi":51,"pm10":40.9,"pm2_5":17.6,"mosquito_risk":6,"arthritis_risk":10,"migraine_risk":3,"frizz_risk":0,"updated_at":"2026-04-08T08:12:26.502598+05:30"},{"city":"Shimla","state":"Himachal Pradesh","latitude":31.1048,"longitude":77.1734,"temp":8.8,"humidity":82,"rain":0.0,"pressure":778.9,"uv_index":5.75,"wind_gusts":38.2,"aqi":62,"pm10":41.6,"pm2_5":16.7,"mosquito_risk":3,"arthritis_risk":10,"migraine_risk":3,"frizz_risk":0,"updated_at":"2026-04-08T08:12:26.502605+05:30"},{"city":"Manali","state":"Himachal Pradesh","latitude":32.2396,"longitude":77.1887,"temp":9.8,"humidity":97,"rain":0.4,"pressure":812.6,"uv_index":5.45,"wind_gusts":29.9,"aqi":47,"pm10":11.8,"pm2_5":10.7,"mosquito_risk":6,"arthritis_risk":10,"migraine_risk":3,"frizz_risk":0,"updated_at":"2026-04-08T08:12:26.502613+05:30"},{"city":"Gurgaon","state":"Haryana","latitude":28.4595,"longitude":77.0266,"temp":18.6,"humidity":87,"rain":0.0,"pressure":981.3,"uv_index":7.05,"wind_gusts":23.4,"aqi":1068,"pm10":224.4,"pm2_5":58.9,"mosquito_risk":3,"arthritis_risk":10,"migraine_risk":7,"frizz_risk":1,"updated_at":"2026-04-08T08:12:26.502620+05:30"},{"city":"Noida","state":"Uttar Pradesh","latitude":28.5355,"longitude":77.391,"temp":18.1,"humidity":90,"rain":0.0,"pressure":984.6,"uv_index":6.95,"wind_gusts":27.7,"aqi":1068,"pm10":224.4,"pm2_5":58.9,"mosquito_risk":3,"arthritis_risk":10,"migraine_risk":7,"frizz_risk":1,"updated_at":"2026-04-08T08:12:26.502627+05:30"},{"city":"Ghaziabad","state":"Uttar Pradesh","latitude":28.6692,"longitude":77.4538,"temp":18.2,"humidity":89,"rain":0.0,"pressure":982.8,"uv_index":6.9,"wind_gusts":27.7,"aqi":145,"pm10":96.2,"pm2_5":40.3,"mosquito_risk":3,"arthritis_risk":10,"migraine_risk":7,"frizz_risk":1,"updated_at":"2026-04-08T08:12:26.502634+05:30"},{"city":"Faridabad","state":"Haryana","latitude":28.4089,"longitude":77.3178,"temp":18.3,"humidity":91,"rain":0.0,"pressure":983.6,"uv_index":7.0,"wind_gusts":25.9,"aqi":1068,"pm10":224.4,"pm2_5":58.9,"mosquito_risk":3,"arthritis_risk":10,"migraine_risk":7,"frizz_risk":1,"updated_at":"2026-04-08T08:12:26.502641+05:30"},{"city":"Meerut","state":"Uttar Pradesh","latitude":28.9845,"longitude":77.7064,"temp":18.0,"humidity":91,"rain":0.0,"pressure":981.5,"uv_index":6.75,"wind_gusts":25.6,"aqi":145,"pm10":96.2,"pm2_5":40.3,"mosquito_risk":3,"arthritis_risk":10,"migraine_risk":7,"frizz_risk":1,"updated_at":"2026-04-08T08:12:26.502647+05:30"},{"city":"Agra","state":"Uttar Pradesh","latitude":27.1767,"longitude":78.0081,"temp":20.7,"humidity":86,"rain":0.0,"pressure":988.0,"uv_index":7.35,"wind_gusts":29.9,"aqi":489,"pm10":162.1,"pm2_5":47.1,"mosquito_risk":3,"arthritis_risk":5,"migraine_risk":7,"frizz_risk":1,"updated_at":"2026-04-08T08:12:26.502654+05:30"},{"city":"Varanasi","state":"Uttar Pradesh","latitude":25.3176,"longitude":82.9739,"temp":23.0,"humidity":68,"rain":0.0,"pressure":999.4,"uv_index":7.55,"wind_gusts":35.6,"aqi":84,"pm10":53.7,"pm2_5":30.4,"mosquito_risk":3,"arthritis_risk":5,"migraine_risk":7,"frizz_risk":1,"updated_at":"2026-04-08T08:12:26.502663+05:30"},{"city":"Prayagraj","state":"Uttar Pradesh","latitude":25.4358,"longitude":81.8463,"temp":22.3,"humidity":73,"rain":0.0,"pressure":997.9,"uv_index":7.95,"wind_gusts":36.0,"aqi":83,"pm10":66.6,"pm2_5":37.4,"mosquito_risk":3,"arthritis_risk":5,"migraine_risk":7,"frizz_risk":1,"updated_at":"2026-04-08T08:12:26.502670+05:30"},{"city":"Gorakhpur","state":"Uttar Pradesh","latitude":26.7606,"longitude":83.3732,"temp":20.2,"humidity":84,"rain":0.7,"pressure":1000.4,"uv_index":7.0,"wind_gusts":38.5,"aqi":81,"pm10":41.9,"pm2_5":26.9,"mosquito_risk":6,"arthritis_risk":5,"migraine_risk":4,"frizz_risk":1,"updated_at":"2026-04-08T08:12:26.502677+05:30"},{"city":"Bareilly","state":"Uttar Pradesh","latitude":28.367,"longitude":79.4304,"temp":19.0,"humidity":90,"rain":0.0,"pressure":988.2,"uv_index":7.05,"wind_gusts":29.9,"aqi":86,"pm10":92.0,"pm2_5":41.3,"mosquito_risk":3,"arthritis_risk":10,"migraine_risk":7,"frizz_risk":1,"updated_at":"2026-04-08T08:12:26.502683+05:30"},{"city":"Aligarh","state":"Uttar Pradesh","latitude":27.8974,"longitude":78.088,"temp":19.5,"humidity":89,"rain":0.0,"pressure":985.7,"uv_index":7.1,"wind_gusts":28.4,"aqi":344,"pm10":279.4,"pm2_5":68.0,"mosquito_risk":3,"arthritis_risk":10,"migraine_risk":7,"frizz_risk":1,"updated_at":"2026-04-08T08:12:26.502691+05:30"},{"city":"Moradabad","state":"Uttar Pradesh","latitude":28.8386,"longitude":78.7733,"temp":17.9,"humidity":93,"rain":0.0,"pressure":984.4,"uv_index":4.6,"wind_gusts":27.4,"aqi":94,"pm10":66.6,"pm2_5":36.3,"mosquito_risk":3,"arthritis_risk":10,"migraine_risk":3,"frizz_risk":1,"updated_at":"2026-04-08T08:12:26.502699+05:30"},{"city":"Saharanpur","state":"Uttar Pradesh","latitude":29.9637,"longitude":77.546,"temp":17.1,"humidity":89,"rain":0.0,"pressure":975.9,"uv_index":5.45,"wind_gusts":24.8,"aqi":85,"pm10":55.4,"pm2_5":22.9,"mosquito_risk":3,"arthritis_risk":10,"migraine_risk":3,"frizz_risk":0,"updated_at":"2026-04-08T08:12:26.502706+05:30"},{"city":"Jhansi","state":"Uttar Pradesh","latitude":25.4484,"longitude":78.5685,"temp":21.6,"humidity":77,"rain":0.0,"pressure":978.1,"uv_index":7.95,"wind_gusts":42.8,"aqi":78,"pm10":43.9,"pm2_5":24.2,"mosquito_risk":3,"arthritis_risk":5,"migraine_risk":7,"frizz_risk":1,"updated_at":"2026-04-08T08:12:29.801321+05:30"},{"city":"Surat","state":"Gujarat","latitude":21.1702,"longitude":72.8311,"temp":27.4,"humidity":78,"rain":0.0,"pressure":1007.8,"uv_index":7.7,"wind_gusts":42.8,"aqi":68,"pm10":42.1,"pm2_5":23.2,"mosquito_risk":7,"arthritis_risk":5,"migraine_risk":4,"frizz_risk":1,"updated_at":"2026-04-08T08:12:29.801353+05:30"},{"city":"Vadodara","state":"Gujarat","latitude":22.3072,"longitude":73.1812,"temp":26.9,"humidity":79,"rain":0.0,"pressure":1004.8,"uv_index":7.95,"wind_gusts":41.4,"aqi":65,"pm10":27.6,"pm2_5":14.0,"mosquito_risk":7,"arthritis_risk":5,"migraine_risk":4,"frizz_risk":1,"updated_at":"2026-04-08T08:12:29.801363+05:30"},{"city":"Rajkot","state":"Gujarat","latitude":22.3039,"longitude":70.8022,"temp":25.4,"humidity":83,"rain":0.0,"pressure":994.4,"uv_index":7.7,"wind_gusts":36.0,"aqi":54,"pm10":28.2,"pm2_5":10.9,"mosquito_risk":7,"arthritis_risk":5,"migraine_risk":7,"frizz_risk":1,"updated_at":"2026-04-08T08:12:29.801372+05:30"},{"city":"Thane","state":"Maharashtra","latitude":19.2183,"longitude":72.9781,"temp":27.6,"humidity":78,"rain":0.0,"pressure":1009.7,"uv_index":7.95,"wind_gusts":36.7,"aqi":76,"pm10":93.4,"pm2_5":29.2,"mosquito_risk":7,"arthritis_risk":0,"migraine_risk":4,"frizz_risk":1,"updated_at":"2026-04-08T08:12:29.801379+05:30"},{"city":"Nagpur","state":"Maharashtra","latitude":21.1458,"longitude":79.0882,"temp":25.0,"humidity":65,"rain":0.0,"pressure":974.4,"uv_index":8.25,"wind_gusts":35.6,"aqi":73,"pm10":42.0,"pm2_5":25.7,"mosquito_risk":7,"arthritis_risk":5,"migraine_risk":7,"frizz_risk":1,"updated_at":"2026-04-08T08:12:29.801386+05:30"},{"city":"Nashik","state":"Maharashtra","latitude":19.9975,"longitude":73.7898,"temp":23.0,"humidity":83,"rain":0.0,"pressure":946.8,"uv_index":8.2,"wind_gusts":43.9,"aqi":62,"pm10":62.9,"pm2_5":24.7,"mosquito_risk":3,"arthritis_risk":5,"migraine_risk":7,"frizz_risk":1,"updated_at":"2026-04-08T08:12:29.801393+05:30"},{"city":"Aurangabad","state":"Maharashtra","latitude":19.8762,"longitude":75.3433,"temp":23.0,"humidity":76,"rain":0.0,"pressure":945.7,"uv_index":8.85,"wind_gusts":47.9,"aqi":60,"pm10":51.6,"pm2_5":18.3,"mosquito_risk":3,"arthritis_risk":5,"migraine_risk":7,"frizz_risk":1,"updated_at":"2026-04-08T08:12:29.801400+05:30"},{"city":"Solapur","state":"Maharashtra","latitude":17.6599,"longitude":75.9064,"temp":25.2,"humidity":51,"rain":0.0,"pressure":959.2,"uv_index":8.95,"wind_gusts":31.0,"aqi":65,"pm10":58.9,"pm2_5":26.4,"mosquito_risk":4,"arthritis_risk":5,"migraine_risk":7,"frizz_risk":0,"updated_at":"2026-04-08T08:12:29.801407+05:30"},{"city":"Kolhapur","state":"Maharashtra","latitude":16.705,"longitude":74.2433,"temp":21.6,"humidity":78,"rain":0.0,"pressure":949.5,"uv_index":9.0,"wind_gusts":42.8,"aqi":60,"pm10":66.1,"pm2_5":41.9,"mosquito_risk":3,"arthritis_risk":5,"migraine_risk":7,"frizz_risk":1,"updated_at":"2026-04-08T08:12:29.801414+05:30"},{"city":"Goa","state":"Goa","latitude":15.2993,"longitude":74.124,"temp":26.5,"humidity":74,"rain":0.0,"pressure":999.9,"uv_index":9.0,"wind_gusts":38.5,"aqi":54,"pm10":46.2,"pm2_5":22.0,"mosquito_risk":7,"arthritis_risk":5,"migraine_risk":7,"frizz_risk":1,"updated_at":"2026-04-08T08:12:29.801421+05:30"},{"city":"Jodhpur","state":"Rajasthan","latitude":26.2389,"longitude":73.0243,"temp":21.3,"humidity":84,"rain":0.0,"pressure":983.0,"uv_index":7.9,"wind_gusts":24.8,"aqi":104,"pm10":89.2,"pm2_5":25.2,"mosquito_risk":3,"arthritis_risk":5,"migraine_risk":7,"frizz_risk":1,"updated_at":"2026-04-08T08:12:29.801427+05:30"},{"city":"Udaipur","state":"Rajasthan","latitude":24.5854,"longitude":73.7125,"temp":21.1,"humidity":57,"rain":0.0,"pressure":945.9,"uv_index":8.5,"wind_gusts":33.1,"aqi":65,"pm10":22.5,"pm2_5":11.1,"mosquito_risk":0,"arthritis_risk":5,"migraine_risk":7,"frizz_risk":0,"updated_at":"2026-04-08T08:12:29.801434+05:30"},{"city":"Kota","state":"Rajasthan","latitude":25.2138,"longitude":75.8648,"temp":21.3,"humidity":72,"rain":0.0,"pressure":978.8,"uv_index":7.95,"wind_gusts":34.2,"aqi":75,"pm10":40.3,"pm2_5":22.6,"mosquito_risk":3,"arthritis_risk":5,"migraine_risk":7,"frizz_risk":1,"updated_at":"2026-04-08T08:12:29.801440+05:30"},{"city":"Bikaner","state":"Rajasthan","latitude":28.0229,"longitude":73.3119,"temp":18.8,"humidity":83,"rain":0.0,"pressure":981.9,"uv_index":7.7,"wind_gusts":25.6,"aqi":54,"pm10":32.6,"pm2_5":13.5,"mosquito_risk":3,"arthritis_risk":10,"migraine_risk":7,"frizz_risk":0,"updated_at":"2026-04-08T08:12:29.801447+05:30"},{"city":"Ajmer","state":"Rajasthan","latitude":26.4499,"longitude":74.6399,"temp":19.7,"humidity":92,"rain":0.0,"pressure":953.7,"uv_index":7.85,"wind_gusts":30.2,"aqi":71,"pm10":95.9,"pm2_5":25.4,"mosquito_risk":3,"arthritis_risk":10,"migraine_risk":7,"frizz_risk":1,"updated_at":"2026-04-08T08:12:29.801453+05:30"},{"city":"Gwalior","state":"Madhya Pradesh","latitude":26.2183,"longitude":78.1828,"temp":21.3,"humidity":84,"rain":0.0,"pressure":983.1,"uv_index":7.65,"wind_gusts":34.9,"aqi":79,"pm10":44.7,"pm2_5":22.9,"mosquito_risk":3,"arthritis_risk":5,"migraine_risk":7,"frizz_risk":1,"updated_at":"2026-04-08T08:12:29.801459+05:30"},{"city":"Indore","state":"Madhya Pradesh","latitude":22.7196,"longitude":75.8577,"temp":23.3,"humidity":79,"rain":0.0,"pressure":948.4,"uv_index":8.4,"wind_gusts":49.7,"aqi":70,"pm10":29.2,"pm2_5":15.9,"mosquito_risk":3,"arthritis_risk":5,"migraine_risk":7,"frizz_risk":1,"updated_at":"2026-04-08T08:12:29.801465+05:30"},{"city":"Bhopal","state":"Madhya Pradesh","latitude":23.2599,"longitude":77.4126,"temp":24.9,"humidity":69,"rain":0.0,"pressure":953.9,"uv_index":8.15,"wind_gusts":51.1,"aqi":70,"pm10":56.7,"pm2_5":24.5,"mosquito_risk":3,"arthritis_risk":5,"migraine_risk":7,"frizz_risk":1,"updated_at":"2026-04-08T08:12:29.801472+05:30"},{"city":"Jabalpur","state":"Madhya Pradesh","latitude":23.1815,"longitude":79.9864,"temp":25.9,"humidity":55,"rain":0.0,"pressure":962.0,"uv_index":8.45,"wind_gusts":49.0,"aqi":85,"pm10":64.3,"pm2_5":29.6,"mosquito_risk":4,"arthritis_risk":5,"migraine_risk":7,"frizz_risk":1,"updated_at":"2026-04-08T08:12:29.801478+05:30"},{"city":"Ujjain","state":"Madhya Pradesh","latitude":23.1765,"longitude":75.7885,"temp":22.0,"humidity":83,"rain":0.0,"pressure":954.2,"uv_index":8.3,"wind_gusts":47.9,"aqi":69,"pm10":28.6,"pm2_5":15.8,"mosquito_risk":3,"arthritis_risk":5,"migraine_risk":7,"frizz_risk":1,"updated_at":"2026-04-08T08:12:29.801485+05:30"},{"city":"Visakhapatnam","state":"Andhra Pradesh","latitude":17.6868,"longitude":83.2185,"temp":28.9,"humidity":79,"rain":0.0,"pressure":1005.4,"uv_index":9.1,"wind_gusts":45.4,"aqi":72,"pm10":33.8,"pm2_5":29.2,"mosquito_risk":7,"arthritis_risk":5,"migraine_risk":4,"frizz_risk":1,"updated_at":"2026-04-08T08:12:29.801491+05:30"},{"city":"Vijayawada","state":"Andhra Pradesh","latitude":16.5062,"longitude":80.648,"temp":29.0,"humidity":81,"rain":0.0,"pressure":1004.3,"uv_index":9.15,"wind_gusts":28.4,"aqi":103,"pm10":31.5,"pm2_5":28.2,"mosquito_risk":7,"arthritis_risk":5,"migraine_risk":4,"frizz_risk":1,"updated_at":"2026-04-08T08:12:29.801498+05:30"},{"city":"Guntur","state":"Andhra Pradesh","latitude":16.3067,"longitude":80.4365,"temp":29.5,"humidity":81,"rain":0.0,"pressure":1005.4,"uv_index":9.15,"wind_gusts":31.3,"aqi":99,"pm10":29.6,"pm2_5":26.4,"mosquito_risk":7,"arthritis_risk":5,"migraine_risk":4,"frizz_risk":1,"updated_at":"2026-04-08T08:12:29.801505+05:30"},{"city":"Nellore","state":"Andhra Pradesh","latitude":14.4426,"longitude":79.9865,"temp":30.1,"humidity":79,"rain":0.0,"pressure":1007.0,"uv_index":9.3,"wind_gusts":38.5,"aqi":80,"pm10":32.0,"pm2_5":28.6,"mosquito_risk":3,"arthritis_risk":5,"migraine_risk":4,"frizz_risk":1,"updated_at":"2026-04-08T08:12:29.801511+05:30"},{"city":"Kurnool","state":"Andhra Pradesh","latitude":15.8281,"longitude":78.0373,"temp":28.2,"humidity":50,"rain":0.0,"pressure":978.7,"uv_index":9.15,"wind_gusts":25.9,"aqi":71,"pm10":28.2,"pm2_5":26.4,"mosquito_risk":4,"arthritis_risk":5,"migraine_risk":7,"frizz_risk":1,"updated_at":"2026-04-08T08:12:29.801518+05:30"},{"city":"Kakinada","state":"Andhra Pradesh","latitude":16.9891,"longitude":82.2475,"temp":27.6,"humidity":88,"rain":0.0,"pressure":1009.7,"uv_index":9.1,"wind_gusts":29.9,"aqi":67,"pm10":33.2,"pm2_5":27.8,"mosquito_risk":7,"arthritis_risk":0,"migraine_risk":4,"frizz_risk":1,"updated_at":"2026-04-08T08:12:29.801525+05:30"},{"city":"Tirupati","state":"Andhra Pradesh","latitude":13.6288,"longitude":79.4192,"temp":29.1,"humidity":78,"rain":0.0,"pressure":993.5,"uv_index":9.05,"wind_gusts":30.6,"aqi":89,"pm10":41.4,"pm2_5":37.6,"mosquito_risk":7,"arthritis_risk":5,"migraine_risk":7,"frizz_risk":1,"updated_at":"2026-04-08T08:12:29.801531+05:30"},{"city":"Warangal","state":"Telangana","latitude":17.9689,"longitude":79.5941,"temp":28.0,"humidity":84,"rain":0.0,"pressure":980.7,"uv_index":9.0,"wind_gusts":21.2,"aqi":104,"pm10":49.5,"pm2_5":46.1,"mosquito_risk":7,"arthritis_risk":5,"migraine_risk":7,"frizz_risk":1,"updated_at":"2026-04-08T08:12:29.801537+05:30"},{"city":"Nizamabad","state":"Telangana","latitude":18.6725,"longitude":78.0941,"temp":26.0,"humidity":57,"rain":0.0,"pressure":967.0,"uv_index":8.95,"wind_gusts":27.4,"aqi":76,"pm10":51.1,"pm2_5":33.6,"mosquito_risk":4,"arthritis_risk":5,"migraine_risk":7,"frizz_risk":1,"updated_at":"2026-04-08T08:12:29.801542+05:30"},{"city":"Mysore","state":"Karnataka","latitude":12.2958,"longitude":76.6396,"temp":21.6,"humidity":82,"rain":0.0,"pressure":930.3,"uv_index":9.45,"wind_gusts":44.3,"aqi":44,"pm10":25.0,"pm2_5":23.1,"mosquito_risk":3,"arthritis_risk":5,"migraine_risk":7,"frizz_risk":1,"updated_at":"2026-04-08T08:12:29.801548+05:30"},{"city":"Mangalore","state":"Karnataka","latitude":12.9141,"longitude":74.856,"temp":27.2,"humidity":78,"rain":0.0,"pressure":1008.6,"uv_index":9.15,"wind_gusts":31.0,"aqi":54,"pm10":24.4,"pm2_5":19.8,"mosquito_risk":7,"arthritis_risk":0,"migraine_risk":4,"frizz_risk":1,"updated_at":"2026-04-08T08:12:29.801553+05:30"},{"city":"Hubli-Dharwad","state":"Karnataka","latitude":15.3647,"longitude":75.124,"temp":22.0,"humidity":83,"rain":0.0,"pressure":942.4,"uv_index":9.2,"wind_gusts":43.2,"aqi":38,"pm10":31.0,"pm2_5":18.2,"mosquito_risk":3,"arthritis_risk":5,"migraine_risk":7,"frizz_risk":1,"updated_at":"2026-04-08T08:12:29.801560+05:30"},{"city":"Siliguri","state":"West Bengal","latitude":26.7271,"longitude":88.3953,"temp":21.3,"humidity":68,"rain":0.0,"pressure":997.8,"uv_index":8.05,"wind_gusts":22.0,"aqi":84,"pm10":50.5,"pm2_5":38.3,"mosquito_risk":3,"arthritis_risk":5,"migraine_risk":7,"frizz_risk":0,"updated_at":"2026-04-08T08:13:06.656836+05:30"},{"city":"Durgapur","state":"West Bengal","latitude":23.5204,"longitude":87.3119,"temp":25.3,"humidity":82,"rain":0.0,"pressure":997.1,"uv_index":8.45,"wind_gusts":24.1,"aqi":131,"pm10":69.2,"pm2_5":65.0,"mosquito_risk":7,"arthritis_risk":5,"migraine_risk":7,"frizz_risk":1,"updated_at":"2026-04-08T08:13:06.656893+05:30"},{"city":"Asansol","state":"West Bengal","latitude":23.6739,"longitude":86.9524,"temp":25.2,"humidity":82,"rain":0.0,"pressure":995.6,"uv_index":8.6,"wind_gusts":28.1,"aqi":115,"pm10":68.0,"pm2_5":62.9,"mosquito_risk":7,"arthritis_risk":5,"migraine_risk":7,"frizz_risk":1,"updated_at":"2026-04-08T08:13:06.656904+05:30"},{"city":"Pondicherry","state":"Puducherry","latitude":11.9139,"longitude":79.8145,"temp":27.9,"humidity":90,"rain":0.0,"pressure":1010.5,"uv_index":9.3,"wind_gusts":23.8,"aqi":84,"pm10":33.1,"pm2_5":26.8,"mosquito_risk":7,"arthritis_risk":0,"migraine_risk":4,"frizz_risk":1,"updated_at":"2026-04-08T08:13:06.656912+05:30"},{"city":"Port Blair","state":"Andaman and Nicobar Islands","latitude":11.6234,"longitude":92.7265,"temp":29.4,"humidity":69,"rain":0.0,"pressure":1010.3,"uv_index":9.2,"wind_gusts":14.0,"aqi":28,"pm10":7.4,"pm2_5":4.9,"mosquito_risk":7,"arthritis_risk":0,"migraine_risk":4,"frizz_risk":1,"updated_at":"2026-04-08T08:13:06.656920+05:30"},{"city":"Haridwar","state":"Uttarakhand","latitude":29.9457,"longitude":78.1642,"temp":17.9,"humidity":87,"rain":0.0,"pressure":974.5,"uv_index":6.75,"wind_gusts":25.2,"aqi":70,"pm10":44.7,"pm2_5":19.0,"mosquito_risk":3,"arthritis_risk":10,"migraine_risk":7,"frizz_risk":0,"updated_at":"2026-04-08T08:13:06.656928+05:30"},{"city":"Rishikesh","state":"Uttarakhand","latitude":30.0869,"longitude":78.2676,"temp":17.6,"humidity":88,"rain":0.0,"pressure":966.8,"uv_index":6.65,"wind_gusts":24.1,"aqi":82,"pm10":43.1,"pm2_5":17.7,"mosquito_risk":3,"arthritis_risk":10,"migraine_risk":7,"frizz_risk":0,"updated_at":"2026-04-08T08:13:06.656936+05:30"},{"city":"Nainital","state":"Uttarakhand","latitude":29.3919,"longitude":79.4542,"temp":12.6,"humidity":86,"rain":0.0,"pressure":802.4,"uv_index":5.9,"wind_gusts":55.4,"aqi":70,"pm10":21.7,"pm2_5":13.7,"mosquito_risk":3,"arthritis_risk":10,"migraine_risk":3,"frizz_risk":0,"updated_at":"2026-04-08T08:13:06.656944+05:30"},{"city":"Mussoorie","state":"Uttarakhand","latitude":30.4599,"longitude":78.0664,"temp":10.1,"humidity":87,"rain":0.2,"pressure":797.6,"uv_index":4.4,"wind_gusts":49.3,"aqi":62,"pm10":43.3,"pm2_5":20.6,"mosquito_risk":6,"arthritis_risk":10,"migraine_risk":3,"frizz_risk":0,"updated_at":"2026-04-08T08:13:06.656952+05:30"},{"city":"Dharamshala","state":"Himachal Pradesh","latitude":32.219,"longitude":76.3234,"temp":12.4,"humidity":89,"rain":0.0,"pressure":865.3,"uv_index":5.75,"wind_gusts":32.4,"aqi":57,"pm10":9.9,"pm2_5":6.8,"mosquito_risk":3,"arthritis_risk":10,"migraine_risk":3,"frizz_risk":0,"updated_at":"2026-04-08T08:13:06.656959+05:30"},{"city":"Dalhousie","state":"Himachal Pradesh","latitude":32.5387,"longitude":75.971,"temp":9.3,"humidity":79,"rain":0.0,"pressure":798.5,"uv_index":4.3,"wind_gusts":34.9,"aqi":64,"pm10":70.8,"pm2_5":22.7,"mosquito_risk":3,"arthritis_risk":5,"migraine_risk":3,"frizz_risk":0,"updated_at":"2026-04-08T08:13:06.656969+05:30"},{"city":"Patiala","state":"Punjab","latitude":30.3398,"longitude":76.3869,"temp":16.8,"humidity":91,"rain":0.0,"pressure":978.7,"uv_index":6.0,"wind_gusts":26.6,"aqi":227,"pm10":60.1,"pm2_5":28.2,"mosquito_risk":3,"arthritis_risk":10,"migraine_risk":3,"frizz_risk":0,"updated_at":"2026-04-08T08:13:06.656977+05:30"},{"city":"Bhatinda","state":"Punjab","latitude":30.211,"longitude":74.9455,"temp":17.1,"humidity":89,"rain":0.0,"pressure":984.3,"uv_index":7.45,"wind_gusts":24.8,"aqi":133,"pm10":98.5,"pm2_5":36.7,"mosquito_risk":3,"arthritis_risk":10,"migraine_risk":7,"frizz_risk":0,"updated_at":"2026-04-08T08:13:06.656985+05:30"},{"city":"Rohtak","state":"Haryana","latitude":28.8955,"longitude":76.6066,"temp":17.5,"humidity":89,"rain":0.0,"pressure":981.9,"uv_index":6.9,"wind_gusts":24.8,"aqi":364,"pm10":124.8,"pm2_5":44.1,"mosquito_risk":3,"arthritis_risk":10,"migraine_risk":7,"frizz_risk":0,"updated_at":"2026-04-08T08:13:06.656992+05:30"},{"city":"Panipat","state":"Haryana","latitude":29.3909,"longitude":76.9635,"temp":17.4,"humidity":90,"rain":0.0,"pressure":980.7,"uv_index":6.7,"wind_gusts":26.3,"aqi":420,"pm10":82.9,"pm2_5":34.5,"mosquito_risk":3,"arthritis_risk":10,"migraine_risk":7,"frizz_risk":0,"updated_at":"2026-04-08T08:13:06.656999+05:30"},{"city":"Mathura","state":"Uttar Pradesh","latitude":27.4924,"longitude":77.6737,"temp":19.6,"humidity":88,"rain":0.0,"pressure":987.0,"uv_index":7.25,"wind_gusts":29.2,"aqi":521,"pm10":105.7,"pm2_5":39.7,"mosquito_risk":3,"arthritis_risk":10,"migraine_risk":7,"frizz_risk":1,"updated_at":"2026-04-08T08:13:06.657006+05:30"},{"city":"Vrindavan","state":"Uttar Pradesh","latitude":27.5823,"longitude":77.7027,"temp":19.1,"humidity":91,"rain":0.0,"pressure":987.4,"uv_index":7.2,"wind_gusts":28.1,"aqi":521,"pm10":105.7,"pm2_5":39.7,"mosquito_risk":3,"arthritis_risk":10,"migraine_risk":7,"frizz_risk":1,"updated_at":"2026-04-08T08:13:06.657013+05:30"},{"city":"Ayodhya","state":"Uttar Pradesh","latitude":26.7922,"longitude":82.1998,"temp":20.0,"humidity":84,"rain":0.1,"pressure":997.5,"uv_index":7.55,"wind_gusts":40.0,"aqi":85,"pm10":100.8,"pm2_5":47.3,"mosquito_risk":6,"arthritis_risk":5,"migraine_risk":7,"frizz_risk":1,"updated_at":"2026-04-08T08:13:06.657021+05:30"},{"city":"Ratlam","state":"Madhya Pradesh","latitude":23.3315,"longitude":75.0367,"temp":21.9,"humidity":86,"rain":0.0,"pressure":955.0,"uv_index":8.25,"wind_gusts":47.9,"aqi":68,"pm10":26.4,"pm2_5":14.7,"mosquito_risk":3,"arthritis_risk":5,"migraine_risk":7,"frizz_risk":1,"updated_at":"2026-04-08T08:13:06.657028+05:30"},{"city":"Sagar","state":"Madhya Pradesh","latitude":23.8388,"longitude":78.7378,"temp":23.6,"humidity":66,"rain":0.0,"pressure":950.4,"uv_index":7.75,"wind_gusts":50.4,"aqi":63,"pm10":60.8,"pm2_5":23.8,"mosquito_risk":3,"arthritis_risk":5,"migraine_risk":7,"frizz_risk":1,"updated_at":"2026-04-08T08:13:06.657034+05:30"},{"city":"Satna","state":"Madhya Pradesh","latitude":24.6005,"longitude":80.8322,"temp":22.4,"humidity":66,"rain":0.0,"pressure":972.2,"uv_index":8.35,"wind_gusts":42.8,"aqi":65,"pm10":70.3,"pm2_5":36.3,"mosquito_risk":3,"arthritis_risk":5,"migraine_risk":7,"frizz_risk":0,"updated_at":"2026-04-08T08:13:06.657041+05:30"},{"city":"Akola","state":"Maharashtra","latitude":20.7002,"longitude":77.0082,"temp":25.3,"humidity":64,"rain":0.0,"pressure":976.9,"uv_index":8.7,"wind_gusts":45.7,"aqi":65,"pm10":41.0,"pm2_5":16.4,"mosquito_risk":7,"arthritis_risk":5,"migraine_risk":7,"frizz_risk":1,"updated_at":"2026-04-08T08:13:06.657048+05:30"},{"city":"Amravati","state":"Maharashtra","latitude":20.9374,"longitude":77.7796,"temp":25.5,"humidity":63,"rain":0.0,"pressure":968.7,"uv_index":8.7,"wind_gusts":43.2,"aqi":61,"pm10":36.1,"pm2_5":16.1,"mosquito_risk":7,"arthritis_risk":5,"migraine_risk":7,"frizz_risk":1,"updated_at":"2026-04-08T08:13:06.657055+05:30"},{"city":"Latur","state":"Maharashtra","latitude":18.4088,"longitude":76.5604,"temp":23.5,"humidity":56,"rain":0.0,"pressure":941.3,"uv_index":8.95,"wind_gusts":34.9,"aqi":68,"pm10":60.8,"pm2_5":24.8,"mosquito_risk":0,"arthritis_risk":5,"migraine_risk":7,"frizz_risk":0,"updated_at":"2026-04-08T08:13:06.657062+05:30"},{"city":"Nanded","state":"Maharashtra","latitude":19.1383,"longitude":77.3091,"temp":24.8,"humidity":60,"rain":0.0,"pressure":970.7,"uv_index":8.85,"wind_gusts":34.6,"aqi":75,"pm10":45.1,"pm2_5":25.0,"mosquito_risk":0,"arthritis_risk":5,"migraine_risk":7,"frizz_risk":1,"updated_at":"2026-04-08T08:13:06.657069+05:30"},{"city":"Gulbarga","state":"Karnataka","latitude":17.3297,"longitude":76.8343,"temp":27.1,"humidity":43,"rain":0.0,"pressure":960.8,"uv_index":9.05,"wind_gusts":31.3,"aqi":65,"pm10":36.0,"pm2_5":22.7,"mosquito_risk":4,"arthritis_risk":5,"migraine_risk":7,"frizz_risk":0,"updated_at":"2026-04-08T08:13:06.657075+05:30"},{"city":"Bidar","state":"Karnataka","latitude":17.9104,"longitude":77.5199,"temp":25.7,"humidity":47,"rain":0.0,"pressure":937.5,"uv_index":9.0,"wind_gusts":28.8,"aqi":74,"pm10":51.3,"pm2_5":26.7,"mosquito_risk":4,"arthritis_risk":5,"migraine_risk":7,"frizz_risk":0,"updated_at":"2026-04-08T08:13:06.657083+05:30"},{"city":"Hospet","state":"Karnataka","latitude":15.2689,"longitude":76.3909,"temp":24.1,"humidity":76,"rain":0.0,"pressure":957.9,"uv_index":9.25,"wind_gusts":27.0,"aqi":46,"pm10":20.3,"pm2_5":13.0,"mosquito_risk":3,"arthritis_risk":5,"migraine_risk":7,"frizz_risk":1,"updated_at":"2026-04-08T08:13:06.657090+05:30"},{"city":"Tirupur","state":"Tamil Nadu","latitude":11.1085,"longitude":77.3411,"temp":26.5,"humidity":71,"rain":0.0,"pressure":977.5,"uv_index":9.5,"wind_gusts":38.5,"aqi":61,"pm10":26.9,"pm2_5":25.1,"mosquito_risk":7,"arthritis_risk":5,"migraine_risk":7,"frizz_risk":1,"updated_at":"2026-04-08T08:13:06.657096+05:30"},{"city":"Alappuzha","state":"Kerala","latitude":9.4981,"longitude":76.3388,"temp":28.8,"humidity":71,"rain":0.0,"pressure":1010.7,"uv_index":9.15,"wind_gusts":31.0,"aqi":59,"pm10":25.4,"pm2_5":17.9,"mosquito_risk":7,"arthritis_risk":0,"migraine_risk":4,"frizz_risk":1,"updated_at":"2026-04-08T08:13:06.657103+05:30"},{"city":"Munnar","state":"Kerala","latitude":10.0889,"longitude":77.0595,"temp":21.0,"humidity":71,"rain":0.0,"pressure":858.2,"uv_index":9.25,"wind_gusts":38.5,"aqi":59,"pm10":19.2,"pm2_5":16.6,"mosquito_risk":3,"arthritis_risk":5,"migraine_risk":7,"frizz_risk":0,"updated_at":"2026-04-08T08:13:06.657109+05:30"},{"city":"Silchar","state":"Assam","latitude":24.8333,"longitude":92.7789,"temp":23.3,"humidity":77,"rain":0.0,"pressure":1010.1,"uv_index":8.45,"wind_gusts":23.0,"aqi":116,"pm10":41.4,"pm2_5":37.0,"mosquito_risk":3,"arthritis_risk":0,"migraine_risk":4,"frizz_risk":1,"updated_at":"2026-04-08T08:13:06.657116+05:30"},{"city":"Dibrugarh","state":"Assam","latitude":27.4728,"longitude":94.912,"temp":21.9,"humidity":80,"rain":0.0,"pressure":1001.2,"uv_index":8.2,"wind_gusts":10.8,"aqi":76,"pm10":15.7,"pm2_5":12.2,"mosquito_risk":3,"arthritis_risk":5,"migraine_risk":4,"frizz_risk":1,"updated_at":"2026-04-08T08:13:06.657122+05:30"}]