[{"city":"Delhi","state":"Delhi","latitude":28.6139,"longitude":77.209,"temp":28.5,"humidity":46,"rain":0.0,"pressure":978.5,"uv_index":7.7,"wind_gusts":38.9,"aqi":299,"pm10":381.8,"pm2_5":118.0,"no2":48.6,"co":909.0,"o3":20.0,"so2":20.7,"mosquito_risk":4,"arthritis_risk":5,"migraine_risk":7,"frizz_risk":0,"updated_at":"2026-05-16T05:29:09.914984+05:30"},{"city":"Mumbai","state":"Maharashtra","latitude":19.076,"longitude":72.8777,"temp":29.1,"humidity":75,"rain":0.0,"pressure":1004.7,"uv_index":7.9,"wind_gusts":49.0,"aqi":63,"pm10":25.9,"pm2_5":14.8,"no2":5.0,"co":155.0,"o3":41.0,"so2":2.8,"mosquito_risk":7,"arthritis_risk":5,"migraine_risk":4,"frizz_risk":1,"updated_at":"2026-05-16T05:29:09.915031+05:30"},{"city":"Bangalore","state":"Karnataka","latitude":12.9716,"longitude":77.5946,"temp":24.2,"humidity":70,"rain":0.0,"pressure":907.8,"uv_index":8.1,"wind_gusts":33.8,"aqi":128,"pm10":79.6,"pm2_5":58.2,"no2":54.7,"co":437.0,"o3":18.0,"so2":12.5,"mosquito_risk":3,"arthritis_risk":5,"migraine_risk":7,"frizz_risk":1,"updated_at":"2026-05-16T05:29:09.915047+05:30"},{"city":"Hyderabad","state":"Telangana","latitude":17.385,"longitude":78.4867,"temp":29.3,"humidity":59,"rain":0.0,"pressure":948.6,"uv_index":9.3,"wind_gusts":27.7,"aqi":152,"pm10":60.3,"pm2_5":45.9,"no2":15.2,"co":277.0,"o3":61.0,"so2":7.0,"mosquito_risk":4,"arthritis_risk":5,"migraine_risk":7,"frizz_risk":1,"updated_at":"2026-05-16T05:29:09.915057+05:30"},{"city":"Chennai","state":"Tamil Nadu","latitude":13.0827,"longitude":80.2707,"temp":26.4,"humidity":96,"rain":0.0,"pressure":1002.1,"uv_index":7.6,"wind_gusts":32.8,"aqi":31,"pm10":10.5,"pm2_5":8.1,"no2":10.2,"co":337.0,"o3":67.0,"so2":6.6,"mosquito_risk":7,"arthritis_risk":5,"migraine_risk":4,"frizz_risk":1,"updated_at":"2026-05-16T05:29:09.915066+05:30"},{"city":"Kolkata","state":"West Bengal","latitude":22.5726,"longitude":88.3639,"temp":28.3,"humidity":88,"rain":0.0,"pressure":1001.9,"uv_index":9.0,"wind_gusts":34.9,"aqi":58,"pm10":18.0,"pm2_5":12.1,"no2":6.8,"co":184.0,"o3":39.0,"so2":4.0,"mosquito_risk":7,"arthritis_risk":5,"migraine_risk":4,"frizz_risk":1,"updated_at":"2026-05-16T05:29:09.915074+05:30"},{"city":"Pune","state":"Maharashtra","latitude":18.5204,"longitude":73.8567,"temp":23.4,"humidity":90,"rain":0.0,"pressure":944.2,"uv_index":8.5,"wind_gusts":38.2,"aqi":69,"pm10":26.1,"pm2_5":20.8,"no2":22.3,"co":257.0,"o3":36.0,"so2":26.1,"mosquito_risk":3,"arthritis_risk":5,"migraine_risk":7,"frizz_risk":1,"updated_at":"2026-05-16T05:29:09.915081+05:30"},{"city":"Ahmedabad","state":"Gujarat","latitude":23.0225,"longitude":72.5714,"temp":28.6,"humidity":71,"rain":0.0,"pressure":998.2,"uv_index":8.15,"wind_gusts":32.0,"aqi":50,"pm10":26.5,"pm2_5":13.4,"no2":4.5,"co":132.0,"o3":41.0,"so2":2.9,"mosquito_risk":7,"arthritis_risk":5,"migraine_risk":7,"frizz_risk":1,"updated_at":"2026-05-16T05:29:09.915088+05:30"},{"city":"Jaipur","state":"Rajasthan","latitude":26.9124,"longitude":75.7873,"temp":27.6,"humidity":38,"rain":0.0,"pressure":955.5,"uv_index":8.25,"wind_gusts":29.5,"aqi":145,"pm10":335.3,"pm2_5":67.3,"no2":13.9,"co":325.0,"o3":52.0,"so2":9.0,"mosquito_risk":4,"arthritis_risk":5,"migraine_risk":7,"frizz_risk":0,"updated_at":"2026-05-16T05:29:09.915099+05:30"},{"city":"Lucknow","state":"Uttar Pradesh","latitude":26.8467,"longitude":80.9462,"temp":26.5,"humidity":80,"rain":0.0,"pressure":988.2,"uv_index":8.2,"wind_gusts":30.6,"aqi":150,"pm10":187.2,"pm2_5":83.4,"no2":70.3,"co":614.0,"o3":3.0,"so2":22.5,"mosquito_risk":7,"arthritis_risk":5,"migraine_risk":7,"frizz_risk":1,"updated_at":"2026-05-16T05:29:09.915105+05:30"},{"city":"Kanpur","state":"Uttar Pradesh","latitude":26.4499,"longitude":80.3319,"temp":28.0,"humidity":58,"rain":0.0,"pressure":986.6,"uv_index":8.25,"wind_gusts":31.3,"aqi":147,"pm10":154.1,"pm2_5":70.1,"no2":48.6,"co":587.0,"o3":17.0,"so2":14.8,"mosquito_risk":4,"arthritis_risk":5,"migraine_risk":7,"frizz_risk":1,"updated_at":"2026-05-16T05:29:09.915112+05:30"},{"city":"Chandigarh","state":"Chandigarh","latitude":30.7333,"longitude":76.7794,"temp":23.3,"humidity":49,"rain":0.0,"pressure":962.9,"uv_index":7.7,"wind_gusts":41.0,"aqi":88,"pm10":36.9,"pm2_5":30.9,"no2":26.0,"co":251.0,"o3":27.0,"so2":6.1,"mosquito_risk":0,"arthritis_risk":5,"migraine_risk":7,"frizz_risk":0,"updated_at":"2026-05-16T05:29:09.915118+05:30"},{"city":"Srinagar","state":"Jammu and Kashmir","latitude":34.0837,"longitude":74.7973,"temp":9.4,"humidity":100,"rain":0.0,"pressure":838.0,"uv_index":8.9,"wind_gusts":22.0,"aqi":87,"pm10":62.9,"pm2_5":55.1,"no2":37.0,"co":388.0,"o3":17.0,"so2":0.8,"mosquito_risk":3,"arthritis_risk":10,"migraine_risk":7,"frizz_risk":0,"updated_at":"2026-05-16T05:29:09.915126+05:30"},{"city":"Jammu","state":"Jammu and Kashmir","latitude":32.7266,"longitude":74.857,"temp":20.0,"humidity":69,"rain":0.0,"pressure":966.7,"uv_index":8.5,"wind_gusts":26.3,"aqi":91,"pm10":41.1,"pm2_5":36.2,"no2":25.5,"co":259.0,"o3":13.0,"so2":0.9,"mosquito_risk":3,"arthritis_risk":5,"migraine_risk":7,"frizz_risk":0,"updated_at":"2026-05-16T05:29:09.915132+05:30"},{"city":"Amritsar","state":"Punjab","latitude":31.634,"longitude":74.8723,"temp":24.0,"humidity":66,"rain":0.0,"pressure":975.7,"uv_index":8.35,"wind_gusts":22.7,"aqi":141,"pm10":64.3,"pm2_5":58.9,"no2":29.9,"co":463.0,"o3":28.0,"so2":8.5,"mosquito_risk":3,"arthritis_risk":5,"migraine_risk":7,"frizz_risk":1,"updated_at":"2026-05-16T05:29:09.915138+05:30"},{"city":"Ludhiana","state":"Punjab","latitude":30.901,"longitude":75.8573,"temp":24.4,"humidity":62,"rain":0.0,"pressure":973.8,"uv_index":7.95,"wind_gusts":42.5,"aqi":121,"pm10":61.0,"pm2_5":52.0,"no2":17.3,"co":434.0,"o3":47.0,"so2":7.3,"mosquito_risk":3,"arthritis_risk":5,"migraine_risk":7,"frizz_risk":1,"updated_at":"2026-05-16T05:29:09.915143+05:30"},{"city":"Jalandhar","state":"Punjab","latitude":31.326,"longitude":75.5762,"temp":23.5,"humidity":67,"rain":0.0,"pressure":974.6,"uv_index":8.15,"wind_gusts":30.2,"aqi":139,"pm10":70.5,"pm2_5":59.1,"no2":21.1,"co":453.0,"o3":35.0,"so2":6.0,"mosquito_risk":3,"arthritis_risk":5,"migraine_risk":7,"frizz_risk":1,"updated_at":"2026-05-16T05:29:09.915149+05:30"},{"city":"Dehradun","state":"Uttarakhand","latitude":30.6284,"longitude":78.0322,"temp":9.4,"humidity":94,"rain":0.0,"pressure":822.6,"uv_index":8.1,"wind_gusts":40.3,"aqi":56,"pm10":16.2,"pm2_5":11.3,"no2":18.0,"co":196.0,"o3":28.0,"so2":0.0,"mosquito_risk":3,"arthritis_risk":10,"migraine_risk":7,"frizz_risk":0,"updated_at":"2026-05-16T05:29:09.915156+05:30"},{"city":"Shimla","state":"Himachal Pradesh","latitude":31.1048,"longitude":77.1734,"temp":9.4,"humidity":64,"rain":0.0,"pressure":777.5,"uv_index":8.2,"wind_gusts":48.2,"aqi":64,"pm10":33.4,"pm2_5":25.1,"no2":27.8,"co":171.0,"o3":19.0,"so2":0.3,"mosquito_risk":3,"arthritis_risk":5,"migraine_risk":7,"frizz_risk":0,"updated_at":"2026-05-16T05:29:09.915164+05:30"},{"city":"Manali","state":"Himachal Pradesh","latitude":32.2396,"longitude":77.1887,"temp":8.1,"humidity":57,"rain":0.0,"pressure":811.3,"uv_index":9.75,"wind_gusts":37.8,"aqi":37,"pm10":3.1,"pm2_5":2.7,"no2":13.5,"co":174.0,"o3":106.0,"so2":0.0,"mosquito_risk":0,"arthritis_risk":5,"migraine_risk":7,"frizz_risk":0,"updated_at":"2026-05-16T05:29:09.915170+05:30"},{"city":"Gurgaon","state":"Haryana","latitude":28.4595,"longitude":77.0266,"temp":26.5,"humidity":54,"rain":0.0,"pressure":976.7,"uv_index":7.8,"wind_gusts":37.4,"aqi":561,"pm10":499.2,"pm2_5":143.0,"no2":52.1,"co":932.0,"o3":15.0,"so2":29.4,"mosquito_risk":4,"arthritis_risk":5,"migraine_risk":7,"frizz_risk":1,"updated_at":"2026-05-16T05:29:09.915179+05:30"},{"city":"Noida","state":"Uttar Pradesh","latitude":28.5355,"longitude":77.391,"temp":27.2,"humidity":53,"rain":0.0,"pressure":979.7,"uv_index":7.7,"wind_gusts":29.5,"aqi":561,"pm10":499.2,"pm2_5":143.0,"no2":52.1,"co":884.0,"o3":15.0,"so2":29.4,"mosquito_risk":4,"arthritis_risk":5,"migraine_risk":7,"frizz_risk":1,"updated_at":"2026-05-16T05:29:09.915185+05:30"},{"city":"Ghaziabad","state":"Uttar Pradesh","latitude":28.6692,"longitude":77.4538,"temp":24.6,"humidity":64,"rain":0.0,"pressure":977.7,"uv_index":7.7,"wind_gusts":36.4,"aqi":174,"pm10":293.4,"pm2_5":103.4,"no2":41.9,"co":747.0,"o3":20.0,"so2":18.3,"mosquito_risk":3,"arthritis_risk":5,"migraine_risk":7,"frizz_risk":1,"updated_at":"2026-05-16T05:29:09.915191+05:30"},{"city":"Faridabad","state":"Haryana","latitude":28.4089,"longitude":77.3178,"temp":28.0,"humidity":48,"rain":0.0,"pressure":979.0,"uv_index":7.75,"wind_gusts":40.0,"aqi":561,"pm10":499.2,"pm2_5":143.0,"no2":52.1,"co":679.0,"o3":15.0,"so2":29.4,"mosquito_risk":4,"arthritis_risk":5,"migraine_risk":7,"frizz_risk":0,"updated_at":"2026-05-16T05:29:09.915200+05:30"},{"city":"Meerut","state":"Uttar Pradesh","latitude":28.9845,"longitude":77.7064,"temp":25.9,"humidity":49,"rain":0.0,"pressure":976.6,"uv_index":7.6,"wind_gusts":37.4,"aqi":174,"pm10":293.4,"pm2_5":103.4,"no2":41.9,"co":536.0,"o3":20.0,"so2":18.3,"mosquito_risk":4,"arthritis_risk":5,"migraine_risk":7,"frizz_risk":0,"updated_at":"2026-05-16T05:29:09.915207+05:30"},{"city":"Agra","state":"Uttar Pradesh","latitude":27.1767,"longitude":78.0081,"temp":27.4,"humidity":52,"rain":0.0,"pressure":982.8,"uv_index":8.05,"wind_gusts":29.2,"aqi":453,"pm10":362.3,"pm2_5":90.1,"no2":19.4,"co":449.0,"o3":49.0,"so2":13.0,"mosquito_risk":4,"arthritis_risk":5,"migraine_risk":7,"frizz_risk":1,"updated_at":"2026-05-16T05:29:09.915213+05:30"},{"city":"Varanasi","state":"Uttar Pradesh","latitude":25.3176,"longitude":82.9739,"temp":27.8,"humidity":67,"rain":0.0,"pressure":992.3,"uv_index":8.7,"wind_gusts":37.1,"aqi":151,"pm10":142.0,"pm2_5":92.0,"no2":38.0,"co":1151.0,"o3":36.0,"so2":15.7,"mosquito_risk":7,"arthritis_risk":5,"migraine_risk":7,"frizz_risk":1,"updated_at":"2026-05-16T05:29:09.915220+05:30"},{"city":"Prayagraj","state":"Uttar Pradesh","latitude":25.4358,"longitude":81.8463,"temp":28.1,"humidity":67,"rain":0.0,"pressure":990.8,"uv_index":8.55,"wind_gusts":32.0,"aqi":150,"pm10":135.5,"pm2_5":86.8,"no2":51.2,"co":608.0,"o3":12.0,"so2":13.3,"mosquito_risk":7,"arthritis_risk":5,"migraine_risk":7,"frizz_risk":1,"updated_at":"2026-05-16T05:29:09.915226+05:30"},{"city":"Gorakhpur","state":"Uttar Pradesh","latitude":26.7606,"longitude":83.3732,"temp":25.2,"humidity":83,"rain":0.0,"pressure":992.6,"uv_index":8.55,"wind_gusts":28.8,"aqi":156,"pm10":60.3,"pm2_5":48.1,"no2":15.3,"co":853.0,"o3":76.0,"so2":5.5,"mosquito_risk":7,"arthritis_risk":5,"migraine_risk":7,"frizz_risk":1,"updated_at":"2026-05-16T05:29:09.915234+05:30"},{"city":"Bareilly","state":"Uttar Pradesh","latitude":28.367,"longitude":79.4304,"temp":23.4,"humidity":80,"rain":0.0,"pressure":981.8,"uv_index":8.0,"wind_gusts":29.2,"aqi":151,"pm10":134.6,"pm2_5":89.4,"no2":52.7,"co":559.0,"o3":29.0,"so2":19.3,"mosquito_risk":3,"arthritis_risk":5,"migraine_risk":7,"frizz_risk":1,"updated_at":"2026-05-16T05:29:09.915240+05:30"},{"city":"Aligarh","state":"Uttar Pradesh","latitude":27.8974,"longitude":78.088,"temp":24.6,"humidity":67,"rain":0.0,"pressure":980.5,"uv_index":7.85,"wind_gusts":28.8,"aqi":339,"pm10":220.3,"pm2_5":90.3,"no2":31.2,"co":498.0,"o3":32.0,"so2":14.0,"mosquito_risk":3,"arthritis_risk":5,"migraine_risk":7,"frizz_risk":1,"updated_at":"2026-05-16T05:29:09.915247+05:30"},{"city":"Moradabad","state":"Uttar Pradesh","latitude":28.8386,"longitude":78.7733,"temp":24.5,"humidity":59,"rain":0.0,"pressure":978.6,"uv_index":7.8,"wind_gusts":36.7,"aqi":161,"pm10":122.5,"pm2_5":91.7,"no2":59.0,"co":582.0,"o3":0.0,"so2":12.4,"mosquito_risk":0,"arthritis_risk":5,"migraine_risk":7,"frizz_risk":0,"updated_at":"2026-05-16T05:29:09.915252+05:30"},{"city":"Saharanpur","state":"Uttar Pradesh","latitude":29.9637,"longitude":77.546,"temp":23.1,"humidity":62,"rain":0.0,"pressure":970.1,"uv_index":7.35,"wind_gusts":37.4,"aqi":152,"pm10":71.2,"pm2_5":61.7,"no2":49.5,"co":509.0,"o3":0.0,"so2":8.6,"mosquito_risk":3,"arthritis_risk":5,"migraine_risk":7,"frizz_risk":0,"updated_at":"2026-05-16T05:29:09.915259+05:30"},{"city":"Jhansi","state":"Uttar Pradesh","latitude":25.4484,"longitude":78.5685,"temp":28.6,"humidity":47,"rain":0.0,"pressure":973.3,"uv_index":8.5,"wind_gusts":33.5,"aqi":104,"pm10":86.6,"pm2_5":34.1,"no2":8.1,"co":388.0,"o3":57.0,"so2":6.6,"mosquito_risk":4,"arthritis_risk":5,"migraine_risk":7,"frizz_risk":1,"updated_at":"2026-05-16T05:29:13.169659+05:30"},{"city":"Surat","state":"Gujarat","latitude":21.1702,"longitude":72.8311,"temp":29.5,"humidity":72,"rain":0.0,"pressure":1002.6,"uv_index":7.75,"wind_gusts":37.1,"aqi":76,"pm10":26.0,"pm2_5":19.3,"no2":30.2,"co":314.0,"o3":15.0,"so2":47.5,"mosquito_risk":7,"arthritis_risk":5,"migraine_risk":4,"frizz_risk":1,"updated_at":"2026-05-16T05:29:13.169694+05:30"},{"city":"Vadodara","state":"Gujarat","latitude":22.3072,"longitude":73.1812,"temp":28.8,"humidity":78,"rain":0.0,"pressure":1000.5,"uv_index":8.1,"wind_gusts":33.5,"aqi":54,"pm10":17.9,"pm2_5":12.8,"no2":15.4,"co":192.0,"o3":24.0,"so2":14.8,"mosquito_risk":7,"arthritis_risk":5,"migraine_risk":4,"frizz_risk":1,"updated_at":"2026-05-16T05:29:13.169705+05:30"},{"city":"Rajkot","state":"Gujarat","latitude":22.3039,"longitude":70.8022,"temp":26.4,"humidity":82,"rain":0.0,"pressure":990.7,"uv_index":7.75,"wind_gusts":42.5,"aqi":50,"pm10":17.2,"pm2_5":8.5,"no2":6.1,"co":119.0,"o3":37.0,"so2":6.5,"mosquito_risk":7,"arthritis_risk":5,"migraine_risk":7,"frizz_risk":1,"updated_at":"2026-05-16T05:29:13.169713+05:30"},{"city":"Thane","state":"Maharashtra","latitude":19.2183,"longitude":72.9781,"temp":28.2,"humidity":82,"rain":0.0,"pressure":1004.1,"uv_index":7.9,"wind_gusts":43.6,"aqi":63,"pm10":25.9,"pm2_5":14.8,"no2":5.0,"co":145.0,"o3":41.0,"so2":2.8,"mosquito_risk":7,"arthritis_risk":5,"migraine_risk":4,"frizz_risk":1,"updated_at":"2026-05-16T05:29:13.169721+05:30"},{"city":"Nagpur","state":"Maharashtra","latitude":21.1458,"longitude":79.0882,"temp":31.5,"humidity":28,"rain":0.0,"pressure":967.4,"uv_index":8.7,"wind_gusts":38.2,"aqi":97,"pm10":62.9,"pm2_5":43.8,"no2":32.4,"co":260.0,"o3":31.0,"so2":9.6,"mosquito_risk":0,"arthritis_risk":5,"migraine_risk":7,"frizz_risk":0,"updated_at":"2026-05-16T05:29:13.169729+05:30"},{"city":"Nashik","state":"Maharashtra","latitude":19.9975,"longitude":73.7898,"temp":23.9,"humidity":87,"rain":0.0,"pressure":942.0,"uv_index":8.2,"wind_gusts":37.1,"aqi":51,"pm10":15.1,"pm2_5":9.7,"no2":3.3,"co":121.0,"o3":43.0,"so2":0.5,"mosquito_risk":3,"arthritis_risk":5,"migraine_risk":7,"frizz_risk":1,"updated_at":"2026-05-16T05:29:13.169737+05:30"},{"city":"Aurangabad","state":"Maharashtra","latitude":19.8762,"longitude":75.3433,"temp":27.5,"humidity":41,"rain":0.0,"pressure":939.7,"uv_index":9.1,"wind_gusts":36.4,"aqi":57,"pm10":13.0,"pm2_5":9.8,"no2":10.9,"co":162.0,"o3":40.0,"so2":2.8,"mosquito_risk":4,"arthritis_risk":5,"migraine_risk":7,"frizz_risk":0,"updated_at":"2026-05-16T05:29:13.169744+05:30"},{"city":"Solapur","state":"Maharashtra","latitude":17.6599,"longitude":75.9064,"temp":27.5,"humidity":52,"rain":0.0,"pressure":952.4,"uv_index":8.5,"wind_gusts":31.7,"aqi":94,"pm10":19.2,"pm2_5":16.6,"no2":13.0,"co":183.0,"o3":62.0,"so2":7.7,"mosquito_risk":4,"arthritis_risk":5,"migraine_risk":7,"frizz_risk":1,"updated_at":"2026-05-16T05:29:13.169751+05:30"},{"city":"Kolhapur","state":"Maharashtra","latitude":16.705,"longitude":74.2433,"temp":23.2,"humidity":86,"rain":0.0,"pressure":943.3,"uv_index":8.95,"wind_gusts":49.3,"aqi":65,"pm10":21.4,"pm2_5":17.6,"no2":11.4,"co":212.0,"o3":38.0,"so2":3.1,"mosquito_risk":3,"arthritis_risk":5,"migraine_risk":7,"frizz_risk":1,"updated_at":"2026-05-16T05:29:13.169758+05:30"},{"city":"Goa","state":"Goa","latitude":15.2993,"longitude":74.124,"temp":27.5,"humidity":85,"rain":0.0,"pressure":993.6,"uv_index":8.9,"wind_gusts":39.2,"aqi":68,"pm10":29.3,"pm2_5":22.2,"no2":7.5,"co":242.0,"o3":50.0,"so2":1.8,"mosquito_risk":7,"arthritis_risk":5,"migraine_risk":7,"frizz_risk":1,"updated_at":"2026-05-16T05:29:13.169765+05:30"},{"city":"Jodhpur","state":"Rajasthan","latitude":26.2389,"longitude":73.0243,"temp":30.0,"humidity":37,"rain":0.0,"pressure":978.2,"uv_index":8.45,"wind_gusts":32.8,"aqi":123,"pm10":110.8,"pm2_5":23.3,"no2":6.2,"co":172.0,"o3":42.0,"so2":2.1,"mosquito_risk":4,"arthritis_risk":5,"migraine_risk":7,"frizz_risk":0,"updated_at":"2026-05-16T05:29:13.169773+05:30"},{"city":"Udaipur","state":"Rajasthan","latitude":24.5854,"longitude":73.7125,"temp":26.6,"humidity":48,"rain":0.0,"pressure":942.4,"uv_index":8.85,"wind_gusts":31.0,"aqi":40,"pm10":28.8,"pm2_5":14.0,"no2":3.7,"co":144.0,"o3":58.0,"so2":3.2,"mosquito_risk":4,"arthritis_risk":5,"migraine_risk":7,"frizz_risk":0,"updated_at":"2026-05-16T05:29:13.169780+05:30"},{"city":"Kota","state":"Rajasthan","latitude":25.2138,"longitude":75.8648,"temp":30.2,"humidity":27,"rain":0.0,"pressure":974.2,"uv_index":8.45,"wind_gusts":34.2,"aqi":71,"pm10":24.0,"pm2_5":8.7,"no2":4.2,"co":160.0,"o3":60.0,"so2":2.7,"mosquito_risk":0,"arthritis_risk":5,"migraine_risk":7,"frizz_risk":0,"updated_at":"2026-05-16T05:29:13.169787+05:30"},{"city":"Bikaner","state":"Rajasthan","latitude":28.0229,"longitude":73.3119,"temp":28.4,"humidity":39,"rain":0.0,"pressure":977.3,"uv_index":8.4,"wind_gusts":27.7,"aqi":95,"pm10":68.2,"pm2_5":29.5,"no2":8.0,"co":279.0,"o3":47.0,"so2":7.3,"mosquito_risk":4,"arthritis_risk":5,"migraine_risk":7,"frizz_risk":0,"updated_at":"2026-05-16T05:29:13.169794+05:30"},{"city":"Ajmer","state":"Rajasthan","latitude":26.4499,"longitude":74.6399,"temp":27.8,"humidity":37,"rain":0.0,"pressure":950.5,"uv_index":8.4,"wind_gusts":32.4,"aqi":76,"pm10":67.8,"pm2_5":17.7,"no2":4.2,"co":167.0,"o3":59.0,"so2":3.4,"mosquito_risk":4,"arthritis_risk":5,"migraine_risk":7,"frizz_risk":0,"updated_at":"2026-05-16T05:29:13.169801+05:30"},{"city":"Gwalior","state":"Madhya Pradesh","latitude":26.2183,"longitude":78.1828,"temp":28.1,"humidity":48,"rain":0.0,"pressure":978.5,"uv_index":8.25,"wind_gusts":37.4,"aqi":149,"pm10":217.5,"pm2_5":52.2,"no2":9.9,"co":336.0,"o3":50.0,"so2":6.7,"mosquito_risk":4,"arthritis_risk":5,"migraine_risk":7,"frizz_risk":0,"updated_at":"2026-05-16T05:29:13.169807+05:30"},{"city":"Indore","state":"Madhya Pradesh","latitude":22.7196,"longitude":75.8577,"temp":27.5,"humidity":46,"rain":0.0,"pressure":944.7,"uv_index":8.7,"wind_gusts":36.4,"aqi":50,"pm10":15.8,"pm2_5":10.7,"no2":5.2,"co":200.0,"o3":85.0,"so2":9.3,"mosquito_risk":4,"arthritis_risk":5,"migraine_risk":7,"frizz_risk":0,"updated_at":"2026-05-16T05:29:13.169814+05:30"},{"city":"Bhopal","state":"Madhya Pradesh","latitude":23.2599,"longitude":77.4126,"temp":30.3,"humidity":27,"rain":0.0,"pressure":949.6,"uv_index":8.7,"wind_gusts":37.4,"aqi":64,"pm10":7.1,"pm2_5":6.6,"no2":3.6,"co":207.0,"o3":84.0,"so2":4.7,"mosquito_risk":0,"arthritis_risk":5,"migraine_risk":7,"frizz_risk":0,"updated_at":"2026-05-16T05:29:13.169821+05:30"},{"city":"Jabalpur","state":"Madhya Pradesh","latitude":23.1815,"longitude":79.9864,"temp":28.3,"humidity":47,"rain":0.0,"pressure":956.6,"uv_index":8.9,"wind_gusts":34.2,"aqi":109,"pm10":70.3,"pm2_5":41.0,"no2":10.2,"co":331.0,"o3":92.0,"so2":12.4,"mosquito_risk":4,"arthritis_risk":5,"migraine_risk":7,"frizz_risk":0,"updated_at":"2026-05-16T05:29:13.169827+05:30"},{"city":"Ujjain","state":"Madhya Pradesh","latitude":23.1765,"longitude":75.7885,"temp":27.6,"humidity":37,"rain":0.0,"pressure":950.2,"uv_index":8.65,"wind_gusts":42.8,"aqi":48,"pm10":17.9,"pm2_5":11.9,"no2":5.8,"co":205.0,"o3":68.0,"so2":8.3,"mosquito_risk":4,"arthritis_risk":5,"migraine_risk":7,"frizz_risk":0,"updated_at":"2026-05-16T05:29:13.169835+05:30"},{"city":"Visakhapatnam","state":"Andhra Pradesh","latitude":17.6868,"longitude":83.2185,"temp":28.1,"humidity":90,"rain":0.0,"pressure":999.7,"uv_index":9.15,"wind_gusts":40.0,"aqi":77,"pm10":23.9,"pm2_5":19.3,"no2":21.4,"co":527.0,"o3":24.0,"so2":44.4,"mosquito_risk":7,"arthritis_risk":5,"migraine_risk":7,"frizz_risk":1,"updated_at":"2026-05-16T05:29:13.169841+05:30"},{"city":"Vijayawada","state":"Andhra Pradesh","latitude":16.5062,"longitude":80.648,"temp":28.9,"humidity":87,"rain":0.0,"pressure":998.0,"uv_index":9.2,"wind_gusts":32.0,"aqi":71,"pm10":14.0,"pm2_5":10.8,"no2":7.3,"co":189.0,"o3":28.0,"so2":4.5,"mosquito_risk":7,"arthritis_risk":5,"migraine_risk":7,"frizz_risk":1,"updated_at":"2026-05-16T05:29:13.169848+05:30"},{"city":"Guntur","state":"Andhra Pradesh","latitude":16.3067,"longitude":80.4365,"temp":29.1,"humidity":83,"rain":0.0,"pressure":999.0,"uv_index":9.25,"wind_gusts":33.8,"aqi":74,"pm10":14.6,"pm2_5":10.0,"no2":5.5,"co":145.0,"o3":29.0,"so2":2.9,"mosquito_risk":7,"arthritis_risk":5,"migraine_risk":7,"frizz_risk":1,"updated_at":"2026-05-16T05:29:13.169855+05:30"},{"city":"Nellore","state":"Andhra Pradesh","latitude":14.4426,"longitude":79.9865,"temp":28.0,"humidity":88,"rain":0.0,"pressure":1000.6,"uv_index":9.2,"wind_gusts":37.1,"aqi":39,"pm10":8.5,"pm2_5":5.9,"no2":4.5,"co":172.0,"o3":37.0,"so2":2.1,"mosquito_risk":7,"arthritis_risk":5,"migraine_risk":4,"frizz_risk":1,"updated_at":"2026-05-16T05:29:13.169863+05:30"},{"city":"Kurnool","state":"Andhra Pradesh","latitude":15.8281,"longitude":78.0373,"temp":31.0,"humidity":56,"rain":0.0,"pressure":971.5,"uv_index":7.7,"wind_gusts":33.5,"aqi":136,"pm10":47.0,"pm2_5":32.6,"no2":10.7,"co":188.0,"o3":63.0,"so2":6.4,"mosquito_risk":0,"arthritis_risk":5,"migraine_risk":7,"frizz_risk":1,"updated_at":"2026-05-16T05:29:13.169870+05:30"},{"city":"Kakinada","state":"Andhra Pradesh","latitude":16.9891,"longitude":82.2475,"temp":28.9,"humidity":87,"rain":0.0,"pressure":1003.0,"uv_index":9.15,"wind_gusts":38.9,"aqi":39,"pm10":11.0,"pm2_5":6.6,"no2":1.4,"co":152.0,"o3":54.0,"so2":1.0,"mosquito_risk":7,"arthritis_risk":5,"migraine_risk":4,"frizz_risk":1,"updated_at":"2026-05-16T05:29:13.169892+05:30"},{"city":"Tirupati","state":"Andhra Pradesh","latitude":13.6288,"longitude":79.4192,"temp":26.6,"humidity":90,"rain":0.0,"pressure":986.3,"uv_index":9.25,"wind_gusts":25.2,"aqi":56,"pm10":18.2,"pm2_5":15.6,"no2":27.4,"co":251.0,"o3":7.0,"so2":10.8,"mosquito_risk":7,"arthritis_risk":5,"migraine_risk":7,"frizz_risk":1,"updated_at":"2026-05-16T05:29:13.169900+05:30"},{"city":"Warangal","state":"Telangana","latitude":17.9689,"longitude":79.5941,"temp":28.1,"humidity":80,"rain":0.0,"pressure":973.8,"uv_index":9.2,"wind_gusts":42.5,"aqi":133,"pm10":26.2,"pm2_5":20.1,"no2":10.1,"co":218.0,"o3":46.0,"so2":9.8,"mosquito_risk":7,"arthritis_risk":5,"migraine_risk":7,"frizz_risk":1,"updated_at":"2026-05-16T05:29:13.169907+05:30"},{"city":"Nizamabad","state":"Telangana","latitude":18.6725,"longitude":78.0941,"temp":28.4,"humidity":51,"rain":0.0,"pressure":959.8,"uv_index":9.05,"wind_gusts":33.1,"aqi":135,"pm10":68.9,"pm2_5":52.4,"no2":29.6,"co":537.0,"o3":34.0,"so2":6.5,"mosquito_risk":4,"arthritis_risk":5,"migraine_risk":7,"frizz_risk":1,"updated_at":"2026-05-16T05:29:13.169914+05:30"},{"city":"Mysore","state":"Karnataka","latitude":12.2958,"longitude":76.6396,"temp":23.6,"humidity":82,"rain":0.0,"pressure":924.0,"uv_index":6.45,"wind_gusts":42.5,"aqi":94,"pm10":44.4,"pm2_5":30.6,"no2":14.7,"co":273.0,"o3":58.0,"so2":3.5,"mosquito_risk":3,"arthritis_risk":5,"migraine_risk":7,"frizz_risk":1,"updated_at":"2026-05-16T05:29:13.169921+05:30"},{"city":"Mangalore","state":"Karnataka","latitude":12.9141,"longitude":74.856,"temp":25.6,"humidity":98,"rain":0.0,"pressure":1002.3,"uv_index":8.5,"wind_gusts":45.7,"aqi":66,"pm10":22.8,"pm2_5":15.1,"no2":3.1,"co":175.0,"o3":77.0,"so2":2.0,"mosquito_risk":7,"arthritis_risk":5,"migraine_risk":4,"frizz_risk":1,"updated_at":"2026-05-16T05:29:13.169929+05:30"},{"city":"Hubli-Dharwad","state":"Karnataka","latitude":15.3647,"longitude":75.124,"temp":23.7,"humidity":96,"rain":0.0,"pressure":936.3,"uv_index":8.5,"wind_gusts":41.0,"aqi":78,"pm10":17.6,"pm2_5":14.3,"no2":8.4,"co":254.0,"o3":43.0,"so2":1.9,"mosquito_risk":3,"arthritis_risk":5,"migraine_risk":7,"frizz_risk":1,"updated_at":"2026-05-16T05:29:13.169936+05:30"},{"city":"Belgaum","state":"Karnataka","latitude":15.8497,"longitude":74.4977,"temp":23.0,"humidity":84,"rain":0.0,"pressure":921.4,"uv_index":9.2,"wind_gusts":43.6,"aqi":65,"pm10":25.2,"pm2_5":20.6,"no2":17.1,"co":249.0,"o3":32.0,"so2":2.2,"mosquito_risk":3,"arthritis_risk":5,"migraine_risk":7,"frizz_risk":1,"updated_at":"2026-05-16T05:29:16.418752+05:30"},{"city":"Coimbatore","state":"Tamil Nadu","latitude":11.0168,"longitude":76.9558,"temp":24.5,"humidity":95,"rain":0.0,"pressure":956.9,"uv_index":9.0,"wind_gusts":37.4,"aqi":79,"pm10":33.3,"pm2_5":23.2,"no2":13.3,"co":240.0,"o3":39.0,"so2":3.9,"mosquito_risk":3,"arthritis_risk":5,"migraine_risk":7,"frizz_risk":1,"updated_at":"2026-05-16T05:29:16.418788+05:30"},{"city":"Madurai","state":"Tamil Nadu","latitude":9.9252,"longitude":78.1198,"temp":26.1,"humidity":89,"rain":0.0,"pressure":988.5,"uv_index":9.05,"wind_gusts":43.6,"aqi":81,"pm10":33.5,"pm2_5":29.8,"no2":37.7,"co":321.0,"o3":11.0,"so2":9.3,"mosquito_risk":7,"arthritis_risk":5,"migraine_risk":7,"frizz_risk":1,"updated_at":"2026-05-16T05:29:16.418799+05:30"},{"city":"Trichy","state":"Tamil Nadu","latitude":10.7905,"longitude":78.7047,"temp":25.5,"humidity":93,"rain":0.0,"pressure":995.0,"uv_index":5.25,"wind_gusts":31.3,"aqi":86,"pm10":29.5,"pm2_5":23.9,"no2":19.1,"co":413.0,"o3":46.0,"so2":6.7,"mosquito_risk":7,"arthritis_risk":5,"migraine_risk":3,"frizz_risk":1,"updated_at":"2026-05-16T05:29:16.418809+05:30"},{"city":"Salem","state":"Tamil Nadu","latitude":11.6643,"longitude":78.146,"temp":26.0,"humidity":87,"rain":0.0,"pressure":972.8,"uv_index":8.95,"wind_gusts":22.7,"aqi":127,"pm10":74.5,"pm2_5":51.5,"no2":33.2,"co":462.0,"o3":34.0,"so2":9.6,"mosquito_risk":7,"arthritis_risk":5,"migraine_risk":7,"frizz_risk":1,"updated_at":"2026-05-16T05:29:16.418817+05:30"},{"city":"Tirunelveli","state":"Tamil Nadu","latitude":8.7139,"longitude":77.7567,"temp":26.1,"humidity":88,"rain":0.0,"pressure":998.6,"uv_index":8.5,"wind_gusts":23.8,"aqi":50,"pm10":18.1,"pm2_5":14.3,"no2":8.5,"co":241.0,"o3":43.0,"so2":3.6,"mosquito_risk":7,"arthritis_risk":5,"migraine_risk":7,"frizz_risk":1,"updated_at":"2026-05-16T05:29:16.418824+05:30"},{"city":"Vellore","state":"Tamil Nadu","latitude":12.9165,"longitude":79.1325,"temp":26.4,"humidity":90,"rain":0.0,"pressure":979.7,"uv_index":9.25,"wind_gusts":33.1,"aqi":92,"pm10":46.3,"pm2_5":42.8,"no2":17.6,"co":374.0,"o3":28.0,"so2":8.3,"mosquito_risk":7,"arthritis_risk":5,"migraine_risk":7,"frizz_risk":1,"updated_at":"2026-05-16T05:29:16.418832+05:30"},{"city":"Erode","state":"Tamil Nadu","latitude":11.341,"longitude":77.7172,"temp":25.3,"humidity":91,"rain":0.0,"pressure":984.2,"uv_index":8.75,"wind_gusts":36.4,"aqi":90,"pm10":34.0,"pm2_5":24.9,"no2":21.3,"co":242.0,"o3":47.0,"so2":5.5,"mosquito_risk":7,"arthritis_risk":5,"migraine_risk":7,"frizz_risk":1,"updated_at":"2026-05-16T05:29:16.418839+05:30"},{"city":"Kochi","state":"Kerala","latitude":9.9312,"longitude":76.2673,"temp":26.0,"humidity":95,"rain":0.1,"pressure":1004.3,"uv_index":7.7,"wind_gusts":31.7,"aqi":64,"pm10":24.0,"pm2_5":21.4,"no2":18.5,"co":346.0,"o3":18.0,"so2":5.1,"mosquito_risk":10,"arthritis_risk":5,"migraine_risk":4,"frizz_risk":1,"updated_at":"2026-05-16T05:29:16.418847+05:30"},{"city":"Thiruvananthapuram","state":"Kerala","latitude":8.5241,"longitude":76.9366,"temp":25.0,"humidity":98,"rain":0.1,"pressure":1004.3,"uv_index":8.15,"wind_gusts":33.5,"aqi":52,"pm10":23.1,"pm2_5":12.9,"no2":1.8,"co":256.0,"o3":92.0,"so2":1.0,"mosquito_risk":10,"arthritis_risk":5,"migraine_risk":4,"frizz_risk":1,"updated_at":"2026-05-16T05:29:16.418854+05:30"},{"city":"Kozhikode","state":"Kerala","latitude":11.2588,"longitude":75.7804,"temp":25.0,"humidity":96,"rain":0.0,"pressure":1003.2,"uv_index":7.15,"wind_gusts":37.1,"aqi":67,"pm10":32.2,"pm2_5":19.7,"no2":3.2,"co":263.0,"o3":77.0,"so2":1.5,"mosquito_risk":7,"arthritis_risk":5,"migraine_risk":4,"frizz_risk":1,"updated_at":"2026-05-16T05:29:16.418862+05:30"},{"city":"Thrissur","state":"Kerala","latitude":10.5276,"longitude":76.2144,"temp":25.2,"humidity":96,"rain":0.0,"pressure":1002.8,"uv_index":8.0,"wind_gusts":29.2,"aqi":68,"pm10":23.5,"pm2_5":21.0,"no2":14.7,"co":261.0,"o3":33.0,"so2":4.1,"mosquito_risk":7,"arthritis_risk":5,"migraine_risk":4,"frizz_risk":1,"updated_at":"2026-05-16T05:29:16.418870+05:30"},{"city":"Kannur","state":"Kerala","latitude":11.8745,"longitude":75.3704,"temp":24.9,"humidity":98,"rain":0.5,"pressure":1002.7,"uv_index":7.85,"wind_gusts":37.4,"aqi":72,"pm10":25.3,"pm2_5":18.9,"no2":8.1,"co":185.0,"o3":54.0,"so2":2.4,"mosquito_risk":6,"arthritis_risk":5,"migraine_risk":4,"frizz_risk":1,"updated_at":"2026-05-16T05:29:16.418894+05:30"},{"city":"Patna","state":"Bihar","latitude":25.5941,"longitude":85.1376,"temp":26.5,"humidity":86,"rain":0.0,"pressure":996.2,"uv_index":8.8,"wind_gusts":28.1,"aqi":129,"pm10":69.6,"pm2_5":65.0,"no2":15.5,"co":597.0,"o3":68.0,"so2":14.4,"mosquito_risk":7,"arthritis_risk":5,"migraine_risk":7,"frizz_risk":1,"updated_at":"2026-05-16T05:29:16.418902+05:30"},{"city":"Gaya","state":"Bihar","latitude":24.7914,"longitude":85.0002,"temp":25.6,"humidity":74,"rain":0.0,"pressure":989.1,"uv_index":8.85,"wind_gusts":31.7,"aqi":147,"pm10":80.6,"pm2_5":70.3,"no2":26.6,"co":648.0,"o3":41.0,"so2":14.7,"mosquito_risk":7,"arthritis_risk":5,"migraine_risk":7,"frizz_risk":1,"updated_at":"2026-05-16T05:29:16.418909+05:30"},{"city":"Muzaffarpur","state":"Bihar","latitude":26.1209,"longitude":85.3647,"temp":25.2,"humidity":87,"rain":0.0,"pressure":996.6,"uv_index":8.8,"wind_gusts":33.8,"aqi":141,"pm10":65.7,"pm2_5":60.3,"no2":13.3,"co":763.0,"o3":76.0,"so2":13.1,"mosquito_risk":7,"arthritis_risk":5,"migraine_risk":7,"frizz_risk":1,"updated_at":"2026-05-16T05:29:16.418916+05:30"},{"city":"Bhagalpur","state":"Bihar","latitude":25.2425,"longitude":87.0117,"temp":25.5,"humidity":88,"rain":0.0,"pressure":997.5,"uv_index":8.8,"wind_gusts":32.0,"aqi":127,"pm10":44.2,"pm2_5":39.9,"no2":13.0,"co":481.0,"o3":68.0,"so2":5.8,"mosquito_risk":7,"arthritis_risk":5,"migraine_risk":7,"frizz_risk":1,"updated_at":"2026-05-16T05:29:16.418923+05:30"},{"city":"Ranchi","state":"Jharkhand","latitude":23.3441,"longitude":85.3096,"temp":23.6,"humidity":74,"rain":0.0,"pressure":933.7,"uv_index":9.3,"wind_gusts":34.2,"aqi":124,"pm10":88.5,"pm2_5":68.5,"no2":14.1,"co":419.0,"o3":100.0,"so2":23.2,"mosquito_risk":3,"arthritis_risk":5,"migraine_risk":7,"frizz_risk":1,"updated_at":"2026-05-16T05:29:16.418930+05:30"},{"city":"Jamshedpur","state":"Jharkhand","latitude":22.8046,"longitude":86.2029,"temp":26.1,"humidity":82,"rain":0.0,"pressure":986.7,"uv_index":9.1,"wind_gusts":26.6,"aqi":116,"pm10":66.6,"pm2_5":52.5,"no2":30.6,"co":318.0,"o3":38.0,"so2":25.1,"mosquito_risk":7,"arthritis_risk":5,"migraine_risk":7,"frizz_risk":1,"updated_at":"2026-05-16T05:29:16.418937+05:30"},{"city":"Dhanbad","state":"Jharkhand","latitude":23.7957,"longitude":86.4304,"temp":26.0,"humidity":74,"rain":0.0,"pressure":975.4,"uv_index":9.05,"wind_gusts":25.2,"aqi":153,"pm10":115.7,"pm2_5":96.6,"no2":70.7,"co":2823.0,"o3":23.0,"so2":162.2,"mosquito_risk":7,"arthritis_risk":5,"migraine_risk":7,"frizz_risk":1,"updated_at":"2026-05-16T05:29:16.418944+05:30"},{"city":"Bokaro","state":"Jharkhand","latitude":23.6693,"longitude":86.1511,"temp":26.0,"humidity":73,"rain":0.0,"pressure":979.3,"uv_index":9.05,"wind_gusts":29.2,"aqi":151,"pm10":107.6,"pm2_5":87.5,"no2":53.7,"co":802.0,"o3":8.0,"so2":108.6,"mosquito_risk":7,"arthritis_risk":5,"migraine_risk":7,"frizz_risk":1,"updated_at":"2026-05-16T05:29:16.418952+05:30"},{"city":"Bhubaneswar","state":"Odisha","latitude":20.2961,"longitude":85.8245,"temp":28.6,"humidity":86,"rain":0.0,"pressure":998.8,"uv_index":9.2,"wind_gusts":43.6,"aqi":46,"pm10":10.9,"pm2_5":7.8,"no2":4.3,"co":141.0,"o3":38.0,"so2":1.9,"mosquito_risk":7,"arthritis_risk":5,"migraine_risk":7,"frizz_risk":1,"updated_at":"2026-05-16T05:29:16.418959+05:30"},{"city":"Cuttack","state":"Odisha","latitude":20.4625,"longitude":85.8828,"temp":28.7,"humidity":86,"rain":0.0,"pressure":1000.6,"uv_index":9.25,"wind_gusts":43.6,"aqi":46,"pm10":10.9,"pm2_5":7.8,"no2":4.3,"co":153.0,"o3":38.0,"so2":1.9,"mosquito_risk":7,"arthritis_risk":5,"migraine_risk":4,"frizz_risk":1,"updated_at":"2026-05-16T05:29:16.418966+05:30"},{"city":"Rourkela","state":"Odisha","latitude":22.2604,"longitude":84.8536,"temp":26.4,"humidity":83,"rain":0.0,"pressure":980.8,"uv_index":8.7,"wind_gusts":35.6,"aqi":139,"pm10":82.0,"pm2_5":64.5,"no2":31.1,"co":239.0,"o3":59.0,"so2":34.1,"mosquito_risk":7,"arthritis_risk":5,"migraine_risk":7,"frizz_risk":1,"updated_at":"2026-05-16T05:29:16.418973+05:30"},{"city":"Raipur","state":"Chhattisgarh","latitude":21.2514,"longitude":81.6296,"temp":29.6,"humidity":57,"rain":0.0,"pressure":969.7,"uv_index":9.05,"wind_gusts":38.2,"aqi":152,"pm10":99.4,"pm2_5":78.7,"no2":48.1,"co":511.0,"o3":28.0,"so2":29.4,"mosquito_risk":4,"arthritis_risk":5,"migraine_risk":7,"frizz_risk":1,"updated_at":"2026-05-16T05:29:16.418979+05:30"},{"city":"Bhilai","state":"Chhattisgarh","latitude":21.1938,"longitude":81.3509,"temp":29.4,"humidity":62,"rain":0.0,"pressure":970.0,"uv_index":9.05,"wind_gusts":43.6,"aqi":151,"pm10":99.9,"pm2_5":79.2,"no2":53.3,"co":445.0,"o3":27.0,"so2":44.4,"mosquito_risk":7,"arthritis_risk":5,"migraine_risk":7,"frizz_risk":1,"updated_at":"2026-05-16T05:29:16.418986+05:30"},{"city":"Guwahati","state":"Assam","latitude":26.1158,"longitude":91.7086,"temp":22.8,"humidity":98,"rain":0.2,"pressure":999.4,"uv_index":7.75,"wind_gusts":27.0,"aqi":80,"pm10":29.9,"pm2_5":23.9,"no2":7.2,"co":295.0,"o3":62.0,"so2":2.6,"mosquito_risk":6,"arthritis_risk":5,"migraine_risk":7,"frizz_risk":1,"updated_at":"2026-05-16T05:29:16.418993+05:30"},{"city":"Agartala","state":"Tripura","latitude":23.8315,"longitude":91.2868,"temp":25.5,"humidity":94,"rain":0.0,"pressure":1003.6,"uv_index":5.9,"wind_gusts":33.1,"aqi":65,"pm10":25.7,"pm2_5":19.2,"no2":17.3,"co":170.0,"o3":18.0,"so2":2.2,"mosquito_risk":7,"arthritis_risk":5,"migraine_risk":0,"frizz_risk":1,"updated_at":"2026-05-16T05:29:16.419000+05:30"},{"city":"Shillong","state":"Meghalaya","latitude":25.5788,"longitude":91.8933,"temp":18.4,"humidity":93,"rain":0.0,"pressure":854.6,"uv_index":6.5,"wind_gusts":36.7,"aqi":52,"pm10":13.6,"pm2_5":9.5,"no2":7.1,"co":206.0,"o3":60.0,"so2":4.0,"mosquito_risk":3,"arthritis_risk":10,"migraine_risk":7,"frizz_risk":1,"updated_at":"2026-05-16T05:29:16.419007+05:30"},{"city":"Imphal","state":"Manipur","latitude":24.817,"longitude":93.9368,"temp":20.2,"humidity":84,"rain":0.0,"pressure":921.3,"uv_index":8.75,"wind_gusts":27.0,"aqi":70,"pm10":44.1,"pm2_5":38.2,"no2":21.2,"co":481.0,"o3":4.0,"so2":1.4,"mosquito_risk":3,"arthritis_risk":5,"migraine_risk":7,"frizz_risk":1,"updated_at":"2026-05-16T05:29:16.419016+05:30"},{"city":"Aizawl","state":"Mizoram","latitude":23.7271,"longitude":92.7176,"temp":17.0,"humidity":95,"rain":0.0,"pressure":889.3,"uv_index":9.1,"wind_gusts":34.6,"aqi":50,"pm10":29.3,"pm2_5":16.9,"no2":11.1,"co":129.0,"o3":39.0,"so2":3.4,"mosquito_risk":3,"arthritis_risk":10,"migraine_risk":7,"frizz_risk":1,"updated_at":"2026-05-16T05:29:16.419023+05:30"},{"city":"Kohima","state":"Nagaland","latitude":25.6701,"longitude":94.1077,"temp":16.8,"humidity":89,"rain":0.0,"pressure":852.3,"uv_index":9.0,"wind_gusts":28.1,"aqi":47,"pm10":18.3,"pm2_5":14.8,"no2":9.0,"co":275.0,"o3":21.0,"so2":0.4,"mosquito_risk":3,"arthritis_risk":10,"migraine_risk":7,"frizz_risk":0,"updated_at":"2026-05-16T05:29:16.419029+05:30"},{"city":"Gangtok","state":"Sikkim","latitude":27.3314,"longitude":88.6138,"temp":13.4,"humidity":94,"rain":0.1,"pressure":833.4,"uv_index":9.1,"wind_gusts":38.2,"aqi":67,"pm10":24.2,"pm2_5":19.6,"no2":11.3,"co":488.0,"o3":80.0,"so2":2.5,"mosquito_risk":6,"arthritis_risk":10,"migraine_risk":7,"frizz_risk":0,"updated_at":"2026-05-16T05:29:16.419036+05:30"},{"city":"Siliguri","state":"West Bengal","latitude":26.7271,"longitude":88.3953,"temp":21.8,"humidity":98,"rain":0.0,"pressure":991.0,"uv_index":8.6,"wind_gusts":24.8,"aqi":97,"pm10":36.9,"pm2_5":28.8,"no2":10.6,"co":355.0,"o3":100.0,"so2":4.0,"mosquito_risk":3,"arthritis_risk":5,"migraine_risk":7,"frizz_risk":1,"updated_at":"2026-05-16T05:29:19.671324+05:30"},{"city":"Durgapur","state":"West Bengal","latitude":23.5204,"longitude":87.3119,"temp":26.8,"humidity":96,"rain":0.0,"pressure":990.7,"uv_index":9.0,"wind_gusts":34.2,"aqi":127,"pm10":33.6,"pm2_5":29.5,"no2":29.1,"co":674.0,"o3":18.0,"so2":37.9,"mosquito_risk":7,"arthritis_risk":5,"migraine_risk":7,"frizz_risk":1,"updated_at":"2026-05-16T05:29:19.671362+05:30"},{"city":"Asansol","state":"West Bengal","latitude":23.6739,"longitude":86.9524,"temp":26.2,"humidity":96,"rain":0.0,"pressure":989.2,"uv_index":9.05,"wind_gusts":35.3,"aqi":133,"pm10":60.5,"pm2_5":50.8,"no2":38.7,"co":372.0,"o3":34.0,"so2":56.9,"mosquito_risk":7,"arthritis_risk":5,"migraine_risk":7,"frizz_risk":1,"updated_at":"2026-05-16T05:29:19.671374+05:30"},{"city":"Pondicherry","state":"Puducherry","latitude":11.9139,"longitude":79.8145,"temp":25.9,"humidity":96,"rain":0.0,"pressure":1003.6,"uv_index":9.05,"wind_gusts":40.3,"aqi":75,"pm10":41.2,"pm2_5":36.1,"no2":16.4,"co":629.0,"o3":38.0,"so2":13.6,"mosquito_risk":7,"arthritis_risk":5,"migraine_risk":4,"frizz_risk":1,"updated_at":"2026-05-16T05:29:19.671383+05:30"},{"city":"Port Blair","state":"Andaman and Nicobar Islands","latitude":11.6234,"longitude":92.7265,"temp":25.3,"humidity":97,"rain":0.1,"pressure":1005.1,"uv_index":6.2,"wind_gusts":45.7,"aqi":31,"pm10":13.1,"pm2_5":8.0,"no2":0.3,"co":141.0,"o3":65.0,"so2":0.3,"mosquito_risk":10,"arthritis_risk":5,"migraine_risk":4,"frizz_risk":1,"updated_at":"2026-05-16T05:29:19.671391+05:30"},{"city":"Haridwar","state":"Uttarakhand","latitude":29.9457,"longitude":78.1642,"temp":20.8,"humidity":74,"rain":0.0,"pressure":968.2,"uv_index":7.5,"wind_gusts":32.8,"aqi":107,"pm10":36.2,"pm2_5":31.4,"no2":36.1,"co":266.0,"o3":9.0,"so2":2.9,"mosquito_risk":3,"arthritis_risk":5,"migraine_risk":7,"frizz_risk":0,"updated_at":"2026-05-16T05:29:19.671399+05:30"},{"city":"Rishikesh","state":"Uttarakhand","latitude":30.0869,"longitude":78.2676,"temp":19.2,"humidity":77,"rain":0.0,"pressure":960.7,"uv_index":7.6,"wind_gusts":32.0,"aqi":87,"pm10":40.0,"pm2_5":28.3,"no2":18.7,"co":288.0,"o3":54.0,"so2":3.0,"mosquito_risk":3,"arthritis_risk":5,"migraine_risk":7,"frizz_risk":0,"updated_at":"2026-05-16T05:29:19.671408+05:30"},{"city":"Nainital","state":"Uttarakhand","latitude":29.3919,"longitude":79.4542,"temp":12.5,"humidity":68,"rain":0.0,"pressure":800.5,"uv_index":8.45,"wind_gusts":37.4,"aqi":101,"pm10":45.4,"pm2_5":32.6,"no2":28.9,"co":260.0,"o3":28.0,"so2":2.8,"mosquito_risk":3,"arthritis_risk":5,"migraine_risk":7,"frizz_risk":0,"updated_at":"2026-05-16T05:29:19.671414+05:30"},{"city":"Mussoorie","state":"Uttarakhand","latitude":30.4599,"longitude":78.0664,"temp":14.0,"humidity":55,"rain":0.0,"pressure":798.1,"uv_index":8.0,"wind_gusts":51.8,"aqi":79,"pm10":34.5,"pm2_5":26.8,"no2":38.0,"co":188.0,"o3":11.0,"so2":3.1,"mosquito_risk":0,"arthritis_risk":5,"migraine_risk":7,"frizz_risk":0,"updated_at":"2026-05-16T05:29:19.671422+05:30"},{"city":"Dharamshala","state":"Himachal Pradesh","latitude":32.219,"longitude":76.3234,"temp":18.7,"humidity":52,"rain":0.0,"pressure":864.2,"uv_index":8.35,"wind_gusts":41.4,"aqi":55,"pm10":16.2,"pm2_5":9.2,"no2":12.9,"co":194.0,"o3":43.0,"so2":0.1,"mosquito_risk":0,"arthritis_risk":5,"migraine_risk":7,"frizz_risk":0,"updated_at":"2026-05-16T05:29:19.671429+05:30"},{"city":"Dalhousie","state":"Himachal Pradesh","latitude":32.5387,"longitude":75.971,"temp":8.7,"humidity":85,"rain":0.0,"pressure":796.1,"uv_index":8.6,"wind_gusts":42.1,"aqi":71,"pm10":30.3,"pm2_5":22.8,"no2":24.1,"co":239.0,"o3":19.0,"so2":0.4,"mosquito_risk":3,"arthritis_risk":10,"migraine_risk":7,"frizz_risk":0,"updated_at":"2026-05-16T05:29:19.671437+05:30"},{"city":"Patiala","state":"Punjab","latitude":30.3398,"longitude":76.3869,"temp":24.6,"humidity":61,"rain":0.0,"pressure":973.2,"uv_index":7.6,"wind_gusts":40.7,"aqi":228,"pm10":269.2,"pm2_5":73.1,"no2":13.5,"co":482.0,"o3":61.0,"so2":7.7,"mosquito_risk":3,"arthritis_risk":5,"migraine_risk":7,"frizz_risk":1,"updated_at":"2026-05-16T05:29:19.671444+05:30"},{"city":"Bhatinda","state":"Punjab","latitude":30.211,"longitude":74.9455,"temp":25.6,"humidity":61,"rain":0.0,"pressure":979.0,"uv_index":8.3,"wind_gusts":31.7,"aqi":120,"pm10":68.0,"pm2_5":51.6,"no2":17.3,"co":493.0,"o3":53.0,"so2":10.3,"mosquito_risk":7,"arthritis_risk":5,"migraine_risk":7,"frizz_risk":1,"updated_at":"2026-05-16T05:29:19.671451+05:30"},{"city":"Rohtak","state":"Haryana","latitude":28.8955,"longitude":76.6066,"temp":25.5,"humidity":57,"rain":0.0,"pressure":977.0,"uv_index":7.75,"wind_gusts":36.7,"aqi":449,"pm10":402.3,"pm2_5":115.7,"no2":35.0,"co":586.0,"o3":34.0,"so2":10.9,"mosquito_risk":4,"arthritis_risk":5,"migraine_risk":7,"frizz_risk":1,"updated_at":"2026-05-16T05:29:19.671458+05:30"},{"city":"Panipat","state":"Haryana","latitude":29.3909,"longitude":76.9635,"temp":25.1,"humidity":57,"rain":0.0,"pressure":975.3,"uv_index":7.55,"wind_gusts":34.9,"aqi":916,"pm10":651.9,"pm2_5":136.4,"no2":17.5,"co":381.0,"o3":51.0,"so2":6.8,"mosquito_risk":4,"arthritis_risk":5,"migraine_risk":7,"frizz_risk":0,"updated_at":"2026-05-16T05:29:19.671465+05:30"},{"city":"Mathura","state":"Uttar Pradesh","latitude":27.4924,"longitude":77.6737,"temp":25.4,"humidity":61,"rain":0.0,"pressure":982.1,"uv_index":8.0,"wind_gusts":29.2,"aqi":528,"pm10":389.3,"pm2_5":114.1,"no2":27.6,"co":495.0,"o3":42.0,"so2":14.0,"mosquito_risk":7,"arthritis_risk":5,"migraine_risk":7,"frizz_risk":1,"updated_at":"2026-05-16T05:29:19.671472+05:30"},{"city":"Vrindavan","state":"Uttar Pradesh","latitude":27.5823,"longitude":77.7027,"temp":25.0,"humidity":64,"rain":0.0,"pressure":982.5,"uv_index":7.95,"wind_gusts":28.4,"aqi":528,"pm10":389.3,"pm2_5":114.1,"no2":27.6,"co":527.0,"o3":42.0,"so2":14.0,"mosquito_risk":7,"arthritis_risk":5,"migraine_risk":7,"frizz_risk":1,"updated_at":"2026-05-16T05:29:19.671478+05:30"},{"city":"Ayodhya","state":"Uttar Pradesh","latitude":26.7922,"longitude":82.1998,"temp":25.4,"humidity":87,"rain":0.0,"pressure":990.5,"uv_index":8.35,"wind_gusts":28.1,"aqi":155,"pm10":146.2,"pm2_5":103.1,"no2":59.9,"co":634.0,"o3":5.0,"so2":13.4,"mosquito_risk":7,"arthritis_risk":5,"migraine_risk":7,"frizz_risk":1,"updated_at":"2026-05-16T05:29:19.671486+05:30"},{"city":"Ratlam","state":"Madhya Pradesh","latitude":23.3315,"longitude":75.0367,"temp":26.0,"humidity":63,"rain":0.0,"pressure":951.2,"uv_index":8.55,"wind_gusts":32.0,"aqi":44,"pm10":18.5,"pm2_5":13.6,"no2":8.5,"co":190.0,"o3":52.0,"so2":11.5,"mosquito_risk":7,"arthritis_risk":5,"migraine_risk":7,"frizz_risk":1,"updated_at":"2026-05-16T05:29:19.671493+05:30"},{"city":"Sagar","state":"Madhya Pradesh","latitude":23.8388,"longitude":78.7378,"temp":28.9,"humidity":41,"rain":0.0,"pressure":946.2,"uv_index":8.75,"wind_gusts":35.6,"aqi":87,"pm10":53.0,"pm2_5":28.1,"no2":12.9,"co":304.0,"o3":65.0,"so2":6.3,"mosquito_risk":4,"arthritis_risk":5,"migraine_risk":7,"frizz_risk":0,"updated_at":"2026-05-16T05:29:19.671500+05:30"},{"city":"Satna","state":"Madhya Pradesh","latitude":24.6005,"longitude":80.8322,"temp":28.4,"humidity":51,"rain":0.0,"pressure":966.6,"uv_index":8.75,"wind_gusts":40.3,"aqi":111,"pm10":93.8,"pm2_5":53.1,"no2":17.9,"co":399.0,"o3":68.0,"so2":13.9,"mosquito_risk":4,"arthritis_risk":5,"migraine_risk":7,"frizz_risk":1,"updated_at":"2026-05-16T05:29:19.671507+05:30"},{"city":"Akola","state":"Maharashtra","latitude":20.7002,"longitude":77.0082,"temp":30.5,"humidity":34,"rain":0.0,"pressure":970.6,"uv_index":8.45,"wind_gusts":43.6,"aqi":60,"pm10":13.8,"pm2_5":12.3,"no2":7.5,"co":182.0,"o3":81.0,"so2":7.6,"mosquito_risk":0,"arthritis_risk":5,"migraine_risk":7,"frizz_risk":0,"updated_at":"2026-05-16T05:29:19.671515+05:30"},{"city":"Amravati","state":"Maharashtra","latitude":20.9374,"longitude":77.7796,"temp":31.0,"humidity":30,"rain":0.0,"pressure":962.4,"uv_index":8.9,"wind_gusts":38.5,"aqi":63,"pm10":10.8,"pm2_5":9.3,"no2":7.1,"co":196.0,"o3":78.0,"so2":5.1,"mosquito_risk":0,"arthritis_risk":5,"migraine_risk":7,"frizz_risk":0,"updated_at":"2026-05-16T05:29:19.671523+05:30"},{"city":"Latur","state":"Maharashtra","latitude":18.4088,"longitude":76.5604,"temp":27.1,"humidity":43,"rain":0.0,"pressure":935.2,"uv_index":8.0,"wind_gusts":34.9,"aqi":96,"pm10":20.0,"pm2_5":17.5,"no2":13.3,"co":239.0,"o3":59.0,"so2":4.7,"mosquito_risk":4,"arthritis_risk":5,"migraine_risk":7,"frizz_risk":0,"updated_at":"2026-05-16T05:29:19.671530+05:30"},{"city":"Nanded","state":"Maharashtra","latitude":19.1383,"longitude":77.3091,"temp":28.6,"humidity":41,"rain":0.0,"pressure":963.6,"uv_index":8.05,"wind_gusts":29.9,"aqi":101,"pm10":23.6,"pm2_5":19.8,"no2":19.4,"co":379.0,"o3":56.0,"so2":8.2,"mosquito_risk":4,"arthritis_risk":5,"migraine_risk":7,"frizz_risk":0,"updated_at":"2026-05-16T05:29:19.671538+05:30"},{"city":"Gulbarga","state":"Karnataka","latitude":17.3297,"longitude":76.8343,"temp":28.4,"humidity":52,"rain":0.0,"pressure":953.5,"uv_index":8.75,"wind_gusts":35.3,"aqi":125,"pm10":50.2,"pm2_5":36.7,"no2":28.8,"co":341.0,"o3":35.0,"so2":6.7,"mosquito_risk":4,"arthritis_risk":5,"migraine_risk":7,"frizz_risk":1,"updated_at":"2026-05-16T05:29:19.671544+05:30"},{"city":"Bidar","state":"Karnataka","latitude":17.9104,"longitude":77.5199,"temp":27.8,"humidity":48,"rain":0.0,"pressure":931.0,"uv_index":9.1,"wind_gusts":33.5,"aqi":138,"pm10":83.4,"pm2_5":57.7,"no2":28.0,"co":385.0,"o3":43.0,"so2":5.7,"mosquito_risk":4,"arthritis_risk":5,"migraine_risk":7,"frizz_risk":0,"updated_at":"2026-05-16T05:29:19.671551+05:30"},{"city":"Hospet","state":"Karnataka","latitude":15.2689,"longitude":76.3909,"temp":26.9,"humidity":72,"rain":0.0,"pressure":951.0,"uv_index":8.4,"wind_gusts":46.8,"aqi":90,"pm10":23.1,"pm2_5":18.9,"no2":10.9,"co":280.0,"o3":57.0,"so2":2.8,"mosquito_risk":7,"arthritis_risk":5,"migraine_risk":7,"frizz_risk":1,"updated_at":"2026-05-16T05:29:19.671558+05:30"},{"city":"Tirupur","state":"Tamil Nadu","latitude":11.1085,"longitude":77.3411,"temp":25.7,"humidity":85,"rain":0.0,"pressure":970.3,"uv_index":9.05,"wind_gusts":40.3,"aqi":91,"pm10":41.6,"pm2_5":29.2,"no2":23.3,"co":209.0,"o3":43.0,"so2":6.4,"mosquito_risk":7,"arthritis_risk":5,"migraine_risk":7,"frizz_risk":1,"updated_at":"2026-05-16T05:29:19.671565+05:30"},{"city":"Alappuzha","state":"Kerala","latitude":9.4981,"longitude":76.3388,"temp":25.6,"humidity":99,"rain":0.0,"pressure":1004.4,"uv_index":2.45,"wind_gusts":31.0,"aqi":58,"pm10":27.1,"pm2_5":20.0,"no2":11.7,"co":247.0,"o3":57.0,"so2":4.8,"mosquito_risk":7,"arthritis_risk":5,"migraine_risk":0,"frizz_risk":1,"updated_at":"2026-05-16T05:29:19.671572+05:30"},{"city":"Munnar","state":"Kerala","latitude":10.0889,"longitude":77.0595,"temp":17.0,"humidity":63,"rain":0.0,"pressure":851.9,"uv_index":9.4,"wind_gusts":28.4,"aqi":55,"pm10":15.6,"pm2_5":13.8,"no2":13.6,"co":202.0,"o3":19.0,"so2":1.4,"mosquito_risk":3,"arthritis_risk":5,"migraine_risk":7,"frizz_risk":0,"updated_at":"2026-05-16T05:29:19.671579+05:30"},{"city":"Silchar","state":"Assam","latitude":24.8333,"longitude":92.7789,"temp":23.3,"humidity":93,"rain":0.0,"pressure":1003.0,"uv_index":8.75,"wind_gusts":29.5,"aqi":66,"pm10":43.1,"pm2_5":31.3,"no2":15.9,"co":241.0,"o3":49.0,"so2":5.5,"mosquito_risk":3,"arthritis_risk":5,"migraine_risk":4,"frizz_risk":1,"updated_at":"2026-05-16T05:29:19.671587+05:30"},{"city":"Dibrugarh","state":"Assam","latitude":27.4728,"longitude":94.912,"temp":22.3,"humidity":92,"rain":0.0,"pressure":994.3,"uv_index":8.85,"wind_gusts":35.3,"aqi":97,"pm10":44.5,"pm2_5":37.5,"no2":25.5,"co":240.0,"o3":16.0,"so2":1.4,"mosquito_risk":3,"arthritis_risk":5,"migraine_risk":7,"frizz_risk":1,"updated_at":"2026-05-16T05:29:19.671594+05:30"}]