[{"city":"Delhi","state":"Delhi","latitude":28.6139,"longitude":77.209,"temp":32.2,"humidity":40,"rain":0.0,"pressure":977.7,"uv_index":7.8,"wind_gusts":38.2,"aqi":174,"pm10":471.2,"pm2_5":125.7,"no2":87.5,"co":729.0,"o3":7.0,"so2":31.0,"mosquito_risk":0,"arthritis_risk":5,"migraine_risk":7,"frizz_risk":1,"updated_at":"2026-06-07T01:41:21.316179+05:30"},{"city":"Mumbai","state":"Maharashtra","latitude":19.076,"longitude":72.8777,"temp":30.9,"humidity":68,"rain":0.0,"pressure":1006.6,"uv_index":7.55,"wind_gusts":40.0,"aqi":73,"pm10":38.3,"pm2_5":16.1,"no2":7.4,"co":152.0,"o3":45.0,"so2":6.8,"mosquito_risk":3,"arthritis_risk":5,"migraine_risk":4,"frizz_risk":1,"updated_at":"2026-06-07T01:41:21.316220+05:30"},{"city":"Bangalore","state":"Karnataka","latitude":12.9716,"longitude":77.5946,"temp":21.3,"humidity":92,"rain":0.0,"pressure":910.9,"uv_index":7.35,"wind_gusts":37.4,"aqi":20,"pm10":5.0,"pm2_5":5.0,"no2":15.8,"co":278.0,"o3":29.0,"so2":4.5,"mosquito_risk":3,"arthritis_risk":5,"migraine_risk":7,"frizz_risk":1,"updated_at":"2026-06-07T01:41:21.316235+05:30"},{"city":"Hyderabad","state":"Telangana","latitude":17.385,"longitude":78.4867,"temp":27.2,"humidity":68,"rain":0.0,"pressure":951.4,"uv_index":7.5,"wind_gusts":38.5,"aqi":94,"pm10":29.6,"pm2_5":23.5,"no2":18.2,"co":234.0,"o3":66.0,"so2":8.2,"mosquito_risk":7,"arthritis_risk":5,"migraine_risk":7,"frizz_risk":1,"updated_at":"2026-06-07T01:41:21.316246+05:30"},{"city":"Chennai","state":"Tamil Nadu","latitude":13.0827,"longitude":80.2707,"temp":32.5,"humidity":49,"rain":0.0,"pressure":1004.4,"uv_index":7.65,"wind_gusts":46.4,"aqi":54,"pm10":15.1,"pm2_5":13.6,"no2":19.5,"co":258.0,"o3":46.0,"so2":10.6,"mosquito_risk":0,"arthritis_risk":5,"migraine_risk":4,"frizz_risk":1,"updated_at":"2026-06-07T01:41:21.316254+05:30"},{"city":"Kolkata","state":"West Bengal","latitude":22.5726,"longitude":88.3639,"temp":27.8,"humidity":95,"rain":0.0,"pressure":1001.7,"uv_index":8.7,"wind_gusts":28.4,"aqi":119,"pm10":46.6,"pm2_5":42.7,"no2":18.9,"co":317.0,"o3":63.0,"so2":9.0,"mosquito_risk":7,"arthritis_risk":5,"migraine_risk":4,"frizz_risk":1,"updated_at":"2026-06-07T01:41:21.316262+05:30"},{"city":"Pune","state":"Maharashtra","latitude":18.5204,"longitude":73.8567,"temp":25.4,"humidity":85,"rain":0.0,"pressure":946.6,"uv_index":8.35,"wind_gusts":49.3,"aqi":51,"pm10":17.2,"pm2_5":9.8,"no2":8.5,"co":128.0,"o3":41.0,"so2":7.3,"mosquito_risk":7,"arthritis_risk":5,"migraine_risk":7,"frizz_risk":1,"updated_at":"2026-06-07T01:41:21.316270+05:30"},{"city":"Ahmedabad","state":"Gujarat","latitude":23.0225,"longitude":72.5714,"temp":32.1,"humidity":60,"rain":0.0,"pressure":998.5,"uv_index":8.05,"wind_gusts":40.3,"aqi":88,"pm10":34.3,"pm2_5":20.4,"no2":8.1,"co":145.0,"o3":49.0,"so2":5.4,"mosquito_risk":0,"arthritis_risk":5,"migraine_risk":7,"frizz_risk":1,"updated_at":"2026-06-07T01:41:21.316277+05:30"},{"city":"Jaipur","state":"Rajasthan","latitude":26.9124,"longitude":75.7873,"temp":30.5,"humidity":48,"rain":0.0,"pressure":955.5,"uv_index":8.2,"wind_gusts":34.9,"aqi":122,"pm10":254.3,"pm2_5":63.6,"no2":6.2,"co":244.0,"o3":68.0,"so2":3.9,"mosquito_risk":0,"arthritis_risk":5,"migraine_risk":7,"frizz_risk":1,"updated_at":"2026-06-07T01:41:21.316288+05:30"},{"city":"Lucknow","state":"Uttar Pradesh","latitude":26.8467,"longitude":80.9462,"temp":29.8,"humidity":64,"rain":0.0,"pressure":988.8,"uv_index":8.35,"wind_gusts":35.6,"aqi":156,"pm10":68.2,"pm2_5":62.6,"no2":33.2,"co":435.0,"o3":48.0,"so2":12.9,"mosquito_risk":7,"arthritis_risk":5,"migraine_risk":7,"frizz_risk":1,"updated_at":"2026-06-07T01:41:21.316295+05:30"},{"city":"Kanpur","state":"Uttar Pradesh","latitude":26.4499,"longitude":80.3319,"temp":31.2,"humidity":58,"rain":0.0,"pressure":986.9,"uv_index":8.3,"wind_gusts":34.2,"aqi":198,"pm10":166.7,"pm2_5":74.0,"no2":39.2,"co":439.0,"o3":40.0,"so2":12.6,"mosquito_risk":0,"arthritis_risk":5,"migraine_risk":7,"frizz_risk":1,"updated_at":"2026-06-07T01:41:21.316302+05:30"},{"city":"Chandigarh","state":"Chandigarh","latitude":30.7333,"longitude":76.7794,"temp":25.6,"humidity":47,"rain":0.0,"pressure":962.5,"uv_index":7.8,"wind_gusts":27.0,"aqi":96,"pm10":31.9,"pm2_5":27.2,"no2":28.3,"co":764.0,"o3":57.0,"so2":8.9,"mosquito_risk":4,"arthritis_risk":5,"migraine_risk":7,"frizz_risk":0,"updated_at":"2026-06-07T01:41:21.316309+05:30"},{"city":"Srinagar","state":"Jammu and Kashmir","latitude":34.0837,"longitude":74.7973,"temp":14.0,"humidity":96,"rain":0.0,"pressure":838.8,"uv_index":9.0,"wind_gusts":29.9,"aqi":67,"pm10":38.5,"pm2_5":36.9,"no2":34.0,"co":731.0,"o3":12.0,"so2":1.8,"mosquito_risk":3,"arthritis_risk":10,"migraine_risk":7,"frizz_risk":0,"updated_at":"2026-06-07T01:41:21.316316+05:30"},{"city":"Jammu","state":"Jammu and Kashmir","latitude":32.7266,"longitude":74.857,"temp":24.9,"humidity":55,"rain":0.0,"pressure":966.3,"uv_index":8.6,"wind_gusts":30.2,"aqi":75,"pm10":28.5,"pm2_5":26.3,"no2":33.7,"co":364.0,"o3":29.0,"so2":3.0,"mosquito_risk":0,"arthritis_risk":5,"migraine_risk":7,"frizz_risk":0,"updated_at":"2026-06-07T01:41:21.316322+05:30"},{"city":"Amritsar","state":"Punjab","latitude":31.634,"longitude":74.8723,"temp":29.9,"humidity":40,"rain":0.0,"pressure":974.7,"uv_index":8.5,"wind_gusts":25.9,"aqi":138,"pm10":77.8,"pm2_5":70.5,"no2":58.2,"co":939.0,"o3":19.0,"so2":8.8,"mosquito_risk":4,"arthritis_risk":5,"migraine_risk":7,"frizz_risk":0,"updated_at":"2026-06-07T01:41:21.316329+05:30"},{"city":"Ludhiana","state":"Punjab","latitude":30.901,"longitude":75.8573,"temp":30.3,"humidity":40,"rain":0.0,"pressure":972.9,"uv_index":8.05,"wind_gusts":30.2,"aqi":150,"pm10":70.8,"pm2_5":58.0,"no2":43.8,"co":1063.0,"o3":51.0,"so2":9.6,"mosquito_risk":0,"arthritis_risk":5,"migraine_risk":7,"frizz_risk":0,"updated_at":"2026-06-07T01:41:21.316335+05:30"},{"city":"Jalandhar","state":"Punjab","latitude":31.326,"longitude":75.5762,"temp":29.9,"humidity":39,"rain":0.0,"pressure":973.8,"uv_index":8.25,"wind_gusts":28.4,"aqi":138,"pm10":66.8,"pm2_5":60.8,"no2":50.7,"co":804.0,"o3":39.0,"so2":9.5,"mosquito_risk":4,"arthritis_risk":5,"migraine_risk":7,"frizz_risk":0,"updated_at":"2026-06-07T01:41:21.316341+05:30"},{"city":"Dehradun","state":"Uttarakhand","latitude":30.6284,"longitude":78.0322,"temp":16.3,"humidity":71,"rain":0.0,"pressure":826.9,"uv_index":8.25,"wind_gusts":41.8,"aqi":58,"pm10":20.1,"pm2_5":16.3,"no2":32.3,"co":207.0,"o3":22.0,"so2":0.9,"mosquito_risk":3,"arthritis_risk":5,"migraine_risk":7,"frizz_risk":0,"updated_at":"2026-06-07T01:41:21.316348+05:30"},{"city":"Shimla","state":"Himachal Pradesh","latitude":31.1048,"longitude":77.1734,"temp":13.9,"humidity":52,"rain":0.0,"pressure":780.9,"uv_index":8.35,"wind_gusts":39.2,"aqi":61,"pm10":20.6,"pm2_5":16.1,"no2":25.2,"co":243.0,"o3":42.0,"so2":1.5,"mosquito_risk":0,"arthritis_risk":5,"migraine_risk":7,"frizz_risk":0,"updated_at":"2026-06-07T01:41:21.316356+05:30"},{"city":"Manali","state":"Himachal Pradesh","latitude":32.2396,"longitude":77.1887,"temp":12.5,"humidity":58,"rain":0.0,"pressure":814.0,"uv_index":9.3,"wind_gusts":35.3,"aqi":42,"pm10":5.5,"pm2_5":4.8,"no2":35.5,"co":279.0,"o3":100.0,"so2":0.0,"mosquito_risk":0,"arthritis_risk":5,"migraine_risk":7,"frizz_risk":0,"updated_at":"2026-06-07T01:41:21.316362+05:30"},{"city":"Gurgaon","state":"Haryana","latitude":28.4595,"longitude":77.0266,"temp":30.1,"humidity":48,"rain":0.0,"pressure":976.1,"uv_index":7.9,"wind_gusts":29.9,"aqi":270,"pm10":387.4,"pm2_5":127.1,"no2":93.4,"co":689.0,"o3":0.0,"so2":31.1,"mosquito_risk":0,"arthritis_risk":5,"migraine_risk":7,"frizz_risk":1,"updated_at":"2026-06-07T01:41:21.316370+05:30"},{"city":"Noida","state":"Uttar Pradesh","latitude":28.5355,"longitude":77.391,"temp":30.5,"humidity":47,"rain":0.0,"pressure":978.9,"uv_index":7.85,"wind_gusts":33.8,"aqi":270,"pm10":387.4,"pm2_5":127.1,"no2":93.4,"co":795.0,"o3":0.0,"so2":31.1,"mosquito_risk":0,"arthritis_risk":5,"migraine_risk":7,"frizz_risk":1,"updated_at":"2026-06-07T01:41:21.316377+05:30"},{"city":"Ghaziabad","state":"Uttar Pradesh","latitude":28.6692,"longitude":77.4538,"temp":30.4,"humidity":49,"rain":0.0,"pressure":977.1,"uv_index":7.8,"wind_gusts":29.5,"aqi":170,"pm10":402.3,"pm2_5":122.0,"no2":75.6,"co":1112.0,"o3":16.0,"so2":26.6,"mosquito_risk":0,"arthritis_risk":5,"migraine_risk":7,"frizz_risk":1,"updated_at":"2026-06-07T01:41:21.316385+05:30"},{"city":"Faridabad","state":"Haryana","latitude":28.4089,"longitude":77.3178,"temp":31.5,"humidity":42,"rain":0.0,"pressure":978.4,"uv_index":7.85,"wind_gusts":36.0,"aqi":270,"pm10":387.4,"pm2_5":127.1,"no2":93.4,"co":674.0,"o3":0.0,"so2":31.1,"mosquito_risk":0,"arthritis_risk":5,"migraine_risk":7,"frizz_risk":1,"updated_at":"2026-06-07T01:41:21.316391+05:30"},{"city":"Meerut","state":"Uttar Pradesh","latitude":28.9845,"longitude":77.7064,"temp":29.4,"humidity":52,"rain":0.0,"pressure":976.0,"uv_index":7.7,"wind_gusts":31.7,"aqi":170,"pm10":402.3,"pm2_5":122.0,"no2":75.6,"co":619.0,"o3":16.0,"so2":26.6,"mosquito_risk":4,"arthritis_risk":5,"migraine_risk":7,"frizz_risk":1,"updated_at":"2026-06-07T01:41:21.316398+05:30"},{"city":"Agra","state":"Uttar Pradesh","latitude":27.1767,"longitude":78.0081,"temp":29.8,"humidity":45,"rain":0.0,"pressure":982.9,"uv_index":8.15,"wind_gusts":33.1,"aqi":358,"pm10":360.4,"pm2_5":110.1,"no2":76.9,"co":639.0,"o3":4.0,"so2":19.7,"mosquito_risk":4,"arthritis_risk":5,"migraine_risk":7,"frizz_risk":1,"updated_at":"2026-06-07T01:41:21.316404+05:30"},{"city":"Varanasi","state":"Uttar Pradesh","latitude":25.3176,"longitude":82.9739,"temp":29.3,"humidity":66,"rain":0.0,"pressure":992.6,"uv_index":8.8,"wind_gusts":36.0,"aqi":157,"pm10":89.2,"pm2_5":73.6,"no2":38.0,"co":1122.0,"o3":35.0,"so2":13.8,"mosquito_risk":7,"arthritis_risk":5,"migraine_risk":7,"frizz_risk":1,"updated_at":"2026-06-07T01:41:21.316411+05:30"},{"city":"Prayagraj","state":"Uttar Pradesh","latitude":25.4358,"longitude":81.8463,"temp":30.7,"humidity":59,"rain":0.0,"pressure":991.0,"uv_index":8.7,"wind_gusts":37.4,"aqi":155,"pm10":152.3,"pm2_5":91.3,"no2":49.9,"co":569.0,"o3":31.0,"so2":19.9,"mosquito_risk":0,"arthritis_risk":5,"migraine_risk":7,"frizz_risk":1,"updated_at":"2026-06-07T01:41:21.316417+05:30"},{"city":"Gorakhpur","state":"Uttar Pradesh","latitude":26.7606,"longitude":83.3732,"temp":28.1,"humidity":79,"rain":0.0,"pressure":993.0,"uv_index":8.7,"wind_gusts":24.8,"aqi":160,"pm10":71.0,"pm2_5":58.9,"no2":21.5,"co":573.0,"o3":60.0,"so2":9.0,"mosquito_risk":7,"arthritis_risk":5,"migraine_risk":7,"frizz_risk":1,"updated_at":"2026-06-07T01:41:21.316429+05:30"},{"city":"Bareilly","state":"Uttar Pradesh","latitude":28.367,"longitude":79.4304,"temp":27.3,"humidity":71,"rain":0.0,"pressure":982.1,"uv_index":8.1,"wind_gusts":33.5,"aqi":148,"pm10":46.9,"pm2_5":41.0,"no2":20.3,"co":737.0,"o3":59.0,"so2":4.1,"mosquito_risk":7,"arthritis_risk":5,"migraine_risk":7,"frizz_risk":1,"updated_at":"2026-06-07T01:41:21.316436+05:30"},{"city":"Aligarh","state":"Uttar Pradesh","latitude":27.8974,"longitude":78.088,"temp":28.4,"humidity":61,"rain":0.0,"pressure":980.3,"uv_index":7.95,"wind_gusts":25.9,"aqi":224,"pm10":359.5,"pm2_5":124.3,"no2":81.7,"co":744.0,"o3":10.0,"so2":19.9,"mosquito_risk":7,"arthritis_risk":5,"migraine_risk":7,"frizz_risk":1,"updated_at":"2026-06-07T01:41:21.316442+05:30"},{"city":"Moradabad","state":"Uttar Pradesh","latitude":28.8386,"longitude":78.7733,"temp":29.2,"humidity":50,"rain":0.0,"pressure":979.1,"uv_index":7.95,"wind_gusts":37.8,"aqi":163,"pm10":162.1,"pm2_5":99.4,"no2":66.5,"co":882.0,"o3":21.0,"so2":18.6,"mosquito_risk":4,"arthritis_risk":5,"migraine_risk":7,"frizz_risk":1,"updated_at":"2026-06-07T01:41:21.316449+05:30"},{"city":"Saharanpur","state":"Uttar Pradesh","latitude":29.9637,"longitude":77.546,"temp":26.6,"humidity":64,"rain":0.0,"pressure":970.1,"uv_index":7.5,"wind_gusts":28.8,"aqi":140,"pm10":120.6,"pm2_5":68.2,"no2":45.9,"co":465.0,"o3":44.0,"so2":14.2,"mosquito_risk":7,"arthritis_risk":5,"migraine_risk":7,"frizz_risk":1,"updated_at":"2026-06-07T01:41:21.316456+05:30"},{"city":"Jhansi","state":"Uttar Pradesh","latitude":25.4484,"longitude":78.5685,"temp":29.4,"humidity":50,"rain":0.0,"pressure":973.5,"uv_index":8.5,"wind_gusts":40.7,"aqi":78,"pm10":51.6,"pm2_5":29.4,"no2":13.9,"co":197.0,"o3":37.0,"so2":3.7,"mosquito_risk":4,"arthritis_risk":5,"migraine_risk":7,"frizz_risk":1,"updated_at":"2026-06-07T01:41:25.093001+05:30"},{"city":"Surat","state":"Gujarat","latitude":21.1702,"longitude":72.8311,"temp":30.0,"humidity":82,"rain":0.0,"pressure":1004.2,"uv_index":7.15,"wind_gusts":45.7,"aqi":87,"pm10":38.8,"pm2_5":18.6,"no2":13.6,"co":230.0,"o3":37.0,"so2":23.7,"mosquito_risk":7,"arthritis_risk":5,"migraine_risk":4,"frizz_risk":1,"updated_at":"2026-06-07T01:41:25.093034+05:30"},{"city":"Vadodara","state":"Gujarat","latitude":22.3072,"longitude":73.1812,"temp":30.6,"humidity":77,"rain":0.0,"pressure":1001.1,"uv_index":7.75,"wind_gusts":45.4,"aqi":88,"pm10":31.9,"pm2_5":18.6,"no2":15.3,"co":176.0,"o3":32.0,"so2":18.0,"mosquito_risk":3,"arthritis_risk":5,"migraine_risk":4,"frizz_risk":1,"updated_at":"2026-06-07T01:41:25.093045+05:30"},{"city":"Rajkot","state":"Gujarat","latitude":22.3039,"longitude":70.8022,"temp":29.1,"humidity":75,"rain":0.0,"pressure":991.0,"uv_index":6.75,"wind_gusts":47.2,"aqi":78,"pm10":35.2,"pm2_5":16.3,"no2":4.7,"co":112.0,"o3":45.0,"so2":4.6,"mosquito_risk":7,"arthritis_risk":5,"migraine_risk":7,"frizz_risk":1,"updated_at":"2026-06-07T01:41:25.093054+05:30"},{"city":"Thane","state":"Maharashtra","latitude":19.2183,"longitude":72.9781,"temp":30.5,"humidity":70,"rain":0.0,"pressure":1006.0,"uv_index":7.6,"wind_gusts":37.8,"aqi":73,"pm10":38.3,"pm2_5":16.1,"no2":7.4,"co":161.0,"o3":45.0,"so2":6.8,"mosquito_risk":3,"arthritis_risk":5,"migraine_risk":4,"frizz_risk":1,"updated_at":"2026-06-07T01:41:25.093063+05:30"},{"city":"Nagpur","state":"Maharashtra","latitude":21.1458,"longitude":79.0882,"temp":32.6,"humidity":42,"rain":0.0,"pressure":969.7,"uv_index":8.9,"wind_gusts":47.2,"aqi":70,"pm10":46.7,"pm2_5":28.6,"no2":14.8,"co":233.0,"o3":61.0,"so2":7.8,"mosquito_risk":0,"arthritis_risk":5,"migraine_risk":7,"frizz_risk":1,"updated_at":"2026-06-07T01:41:25.093070+05:30"},{"city":"Nashik","state":"Maharashtra","latitude":19.9975,"longitude":73.7898,"temp":25.1,"humidity":87,"rain":0.0,"pressure":944.0,"uv_index":8.05,"wind_gusts":40.3,"aqi":62,"pm10":24.3,"pm2_5":12.9,"no2":7.2,"co":122.0,"o3":42.0,"so2":4.9,"mosquito_risk":7,"arthritis_risk":5,"migraine_risk":7,"frizz_risk":1,"updated_at":"2026-06-07T01:41:25.093078+05:30"},{"city":"Aurangabad","state":"Maharashtra","latitude":19.8762,"longitude":75.3433,"temp":28.5,"humidity":62,"rain":0.0,"pressure":942.5,"uv_index":8.95,"wind_gusts":44.3,"aqi":65,"pm10":30.9,"pm2_5":18.0,"no2":6.5,"co":126.0,"o3":53.0,"so2":5.9,"mosquito_risk":7,"arthritis_risk":5,"migraine_risk":7,"frizz_risk":1,"updated_at":"2026-06-07T01:41:25.093086+05:30"},{"city":"Solapur","state":"Maharashtra","latitude":17.6599,"longitude":75.9064,"temp":28.5,"humidity":66,"rain":0.0,"pressure":955.5,"uv_index":8.8,"wind_gusts":38.9,"aqi":60,"pm10":11.5,"pm2_5":8.9,"no2":8.7,"co":164.0,"o3":45.0,"so2":2.4,"mosquito_risk":7,"arthritis_risk":5,"migraine_risk":7,"frizz_risk":1,"updated_at":"2026-06-07T01:41:25.093094+05:30"},{"city":"Kolhapur","state":"Maharashtra","latitude":16.705,"longitude":74.2433,"temp":24.1,"humidity":89,"rain":0.0,"pressure":946.9,"uv_index":3.85,"wind_gusts":45.4,"aqi":37,"pm10":7.5,"pm2_5":5.9,"no2":4.1,"co":117.0,"o3":45.0,"so2":1.1,"mosquito_risk":3,"arthritis_risk":5,"migraine_risk":3,"frizz_risk":1,"updated_at":"2026-06-07T01:41:25.093102+05:30"},{"city":"Goa","state":"Goa","latitude":15.2993,"longitude":74.124,"temp":26.1,"humidity":96,"rain":0.0,"pressure":996.9,"uv_index":1.45,"wind_gusts":26.3,"aqi":35,"pm10":18.7,"pm2_5":12.6,"no2":5.7,"co":220.0,"o3":45.0,"so2":1.2,"mosquito_risk":7,"arthritis_risk":5,"migraine_risk":3,"frizz_risk":1,"updated_at":"2026-06-07T01:41:25.093111+05:30"},{"city":"Jodhpur","state":"Rajasthan","latitude":26.2389,"longitude":73.0243,"temp":33.3,"humidity":49,"rain":0.0,"pressure":978.1,"uv_index":8.4,"wind_gusts":39.6,"aqi":129,"pm10":94.1,"pm2_5":32.4,"no2":7.1,"co":180.0,"o3":55.0,"so2":2.0,"mosquito_risk":0,"arthritis_risk":5,"migraine_risk":7,"frizz_risk":1,"updated_at":"2026-06-07T01:41:25.093118+05:30"},{"city":"Udaipur","state":"Rajasthan","latitude":24.5854,"longitude":73.7125,"temp":29.5,"humidity":52,"rain":0.0,"pressure":943.6,"uv_index":8.8,"wind_gusts":34.6,"aqi":93,"pm10":56.8,"pm2_5":31.5,"no2":6.8,"co":175.0,"o3":70.0,"so2":8.4,"mosquito_risk":4,"arthritis_risk":5,"migraine_risk":7,"frizz_risk":1,"updated_at":"2026-06-07T01:41:25.093126+05:30"},{"city":"Kota","state":"Rajasthan","latitude":25.2138,"longitude":75.8648,"temp":31.3,"humidity":51,"rain":0.0,"pressure":974.4,"uv_index":8.4,"wind_gusts":33.1,"aqi":96,"pm10":60.8,"pm2_5":35.6,"no2":14.3,"co":289.0,"o3":56.0,"so2":5.3,"mosquito_risk":0,"arthritis_risk":5,"migraine_risk":7,"frizz_risk":1,"updated_at":"2026-06-07T01:41:25.093134+05:30"},{"city":"Bikaner","state":"Rajasthan","latitude":28.0229,"longitude":73.3119,"temp":32.9,"humidity":36,"rain":0.0,"pressure":976.1,"uv_index":8.45,"wind_gusts":36.7,"aqi":108,"pm10":102.2,"pm2_5":35.7,"no2":2.3,"co":130.0,"o3":79.0,"so2":3.1,"mosquito_risk":0,"arthritis_risk":5,"migraine_risk":7,"frizz_risk":0,"updated_at":"2026-06-07T01:41:25.093142+05:30"},{"city":"Ajmer","state":"Rajasthan","latitude":26.4499,"longitude":74.6399,"temp":29.6,"humidity":53,"rain":0.0,"pressure":950.5,"uv_index":8.35,"wind_gusts":43.2,"aqi":104,"pm10":93.6,"pm2_5":33.8,"no2":5.5,"co":173.0,"o3":62.0,"so2":2.1,"mosquito_risk":4,"arthritis_risk":5,"migraine_risk":7,"frizz_risk":1,"updated_at":"2026-06-07T01:41:25.093149+05:30"},{"city":"Gwalior","state":"Madhya Pradesh","latitude":26.2183,"longitude":78.1828,"temp":30.3,"humidity":42,"rain":0.0,"pressure":978.6,"uv_index":8.3,"wind_gusts":34.2,"aqi":122,"pm10":135.5,"pm2_5":48.1,"no2":24.2,"co":238.0,"o3":37.0,"so2":7.0,"mosquito_risk":0,"arthritis_risk":5,"migraine_risk":7,"frizz_risk":0,"updated_at":"2026-06-07T01:41:25.093157+05:30"},{"city":"Indore","state":"Madhya Pradesh","latitude":22.7196,"longitude":75.8577,"temp":28.6,"humidity":61,"rain":0.0,"pressure":945.7,"uv_index":8.65,"wind_gusts":35.6,"aqi":91,"pm10":65.7,"pm2_5":45.2,"no2":14.2,"co":322.0,"o3":57.0,"so2":7.7,"mosquito_risk":7,"arthritis_risk":5,"migraine_risk":7,"frizz_risk":1,"updated_at":"2026-06-07T01:41:25.093164+05:30"},{"city":"Bhopal","state":"Madhya Pradesh","latitude":23.2599,"longitude":77.4126,"temp":28.0,"humidity":62,"rain":0.0,"pressure":950.7,"uv_index":8.7,"wind_gusts":30.6,"aqi":89,"pm10":47.3,"pm2_5":29.8,"no2":9.1,"co":335.0,"o3":62.0,"so2":4.8,"mosquito_risk":7,"arthritis_risk":5,"migraine_risk":7,"frizz_risk":1,"updated_at":"2026-06-07T01:41:25.093172+05:30"},{"city":"Jabalpur","state":"Madhya Pradesh","latitude":23.1815,"longitude":79.9864,"temp":29.0,"humidity":56,"rain":0.0,"pressure":958.0,"uv_index":8.15,"wind_gusts":34.6,"aqi":104,"pm10":136.0,"pm2_5":60.1,"no2":38.0,"co":305.0,"o3":40.0,"so2":8.2,"mosquito_risk":4,"arthritis_risk":5,"migraine_risk":7,"frizz_risk":1,"updated_at":"2026-06-07T01:41:25.093179+05:30"},{"city":"Ujjain","state":"Madhya Pradesh","latitude":23.1765,"longitude":75.7885,"temp":28.5,"humidity":62,"rain":0.0,"pressure":951.0,"uv_index":8.6,"wind_gusts":35.6,"aqi":88,"pm10":53.3,"pm2_5":33.1,"no2":4.2,"co":314.0,"o3":81.0,"so2":6.4,"mosquito_risk":7,"arthritis_risk":5,"migraine_risk":7,"frizz_risk":1,"updated_at":"2026-06-07T01:41:25.093187+05:30"},{"city":"Visakhapatnam","state":"Andhra Pradesh","latitude":17.6868,"longitude":83.2185,"temp":30.3,"humidity":81,"rain":0.0,"pressure":999.4,"uv_index":8.1,"wind_gusts":42.1,"aqi":108,"pm10":30.2,"pm2_5":23.8,"no2":14.9,"co":293.0,"o3":88.0,"so2":25.8,"mosquito_risk":3,"arthritis_risk":5,"migraine_risk":7,"frizz_risk":1,"updated_at":"2026-06-07T01:41:25.093195+05:30"},{"city":"Vijayawada","state":"Andhra Pradesh","latitude":16.5062,"longitude":80.648,"temp":31.8,"humidity":65,"rain":0.0,"pressure":998.6,"uv_index":8.3,"wind_gusts":36.0,"aqi":85,"pm10":24.0,"pm2_5":19.6,"no2":6.0,"co":210.0,"o3":96.0,"so2":4.5,"mosquito_risk":3,"arthritis_risk":5,"migraine_risk":7,"frizz_risk":1,"updated_at":"2026-06-07T01:41:25.093203+05:30"},{"city":"Guntur","state":"Andhra Pradesh","latitude":16.3067,"longitude":80.4365,"temp":31.5,"humidity":63,"rain":0.0,"pressure":1000.0,"uv_index":8.15,"wind_gusts":32.4,"aqi":84,"pm10":28.8,"pm2_5":23.5,"no2":7.8,"co":197.0,"o3":84.0,"so2":2.8,"mosquito_risk":3,"arthritis_risk":5,"migraine_risk":4,"frizz_risk":1,"updated_at":"2026-06-07T01:41:25.093210+05:30"},{"city":"Nellore","state":"Andhra Pradesh","latitude":14.4426,"longitude":79.9865,"temp":30.1,"humidity":62,"rain":0.0,"pressure":1003.2,"uv_index":7.55,"wind_gusts":39.2,"aqi":54,"pm10":15.3,"pm2_5":12.7,"no2":5.9,"co":155.0,"o3":80.0,"so2":2.9,"mosquito_risk":3,"arthritis_risk":5,"migraine_risk":4,"frizz_risk":1,"updated_at":"2026-06-07T01:41:25.093219+05:30"},{"city":"Kurnool","state":"Andhra Pradesh","latitude":15.8281,"longitude":78.0373,"temp":24.6,"humidity":93,"rain":0.3,"pressure":975.7,"uv_index":8.45,"wind_gusts":38.9,"aqi":66,"pm10":19.6,"pm2_5":15.3,"no2":9.4,"co":183.0,"o3":72.0,"so2":2.8,"mosquito_risk":6,"arthritis_risk":5,"migraine_risk":7,"frizz_risk":1,"updated_at":"2026-06-07T01:41:25.093228+05:30"},{"city":"Kakinada","state":"Andhra Pradesh","latitude":16.9891,"longitude":82.2475,"temp":30.1,"humidity":79,"rain":0.0,"pressure":1003.5,"uv_index":8.15,"wind_gusts":38.9,"aqi":76,"pm10":26.7,"pm2_5":19.0,"no2":1.8,"co":189.0,"o3":115.0,"so2":3.2,"mosquito_risk":3,"arthritis_risk":5,"migraine_risk":4,"frizz_risk":1,"updated_at":"2026-06-07T01:41:25.093236+05:30"},{"city":"Tirupati","state":"Andhra Pradesh","latitude":13.6288,"longitude":79.4192,"temp":29.1,"humidity":59,"rain":0.0,"pressure":988.8,"uv_index":8.75,"wind_gusts":35.3,"aqi":36,"pm10":8.5,"pm2_5":8.3,"no2":15.6,"co":180.0,"o3":34.0,"so2":1.7,"mosquito_risk":4,"arthritis_risk":5,"migraine_risk":7,"frizz_risk":1,"updated_at":"2026-06-07T01:41:25.093244+05:30"},{"city":"Warangal","state":"Telangana","latitude":17.9689,"longitude":79.5941,"temp":30.7,"humidity":48,"rain":0.0,"pressure":975.0,"uv_index":8.75,"wind_gusts":36.0,"aqi":101,"pm10":53.2,"pm2_5":41.7,"no2":22.1,"co":367.0,"o3":46.0,"so2":5.3,"mosquito_risk":0,"arthritis_risk":5,"migraine_risk":7,"frizz_risk":1,"updated_at":"2026-06-07T01:41:25.093251+05:30"},{"city":"Nizamabad","state":"Telangana","latitude":18.6725,"longitude":78.0941,"temp":30.2,"humidity":53,"rain":0.0,"pressure":961.7,"uv_index":8.65,"wind_gusts":38.5,"aqi":86,"pm10":49.5,"pm2_5":34.1,"no2":16.9,"co":274.0,"o3":58.0,"so2":4.2,"mosquito_risk":0,"arthritis_risk":5,"migraine_risk":7,"frizz_risk":1,"updated_at":"2026-06-07T01:41:25.093259+05:30"},{"city":"Mysore","state":"Karnataka","latitude":12.2958,"longitude":76.6396,"temp":21.1,"humidity":98,"rain":0.1,"pressure":927.9,"uv_index":6.9,"wind_gusts":36.0,"aqi":19,"pm10":3.1,"pm2_5":3.0,"no2":8.0,"co":171.0,"o3":39.0,"so2":1.5,"mosquito_risk":6,"arthritis_risk":5,"migraine_risk":7,"frizz_risk":1,"updated_at":"2026-06-07T01:41:25.093267+05:30"},{"city":"Mangalore","state":"Karnataka","latitude":12.9141,"longitude":74.856,"temp":24.1,"humidity":99,"rain":0.1,"pressure":1006.8,"uv_index":2.0,"wind_gusts":27.7,"aqi":23,"pm10":6.5,"pm2_5":5.5,"no2":8.3,"co":179.0,"o3":43.0,"so2":1.8,"mosquito_risk":6,"arthritis_risk":5,"migraine_risk":0,"frizz_risk":1,"updated_at":"2026-06-07T01:41:25.093275+05:30"},{"city":"Hubli-Dharwad","state":"Karnataka","latitude":15.3647,"longitude":75.124,"temp":22.9,"humidity":98,"rain":0.0,"pressure":939.5,"uv_index":1.85,"wind_gusts":43.2,"aqi":25,"pm10":3.0,"pm2_5":2.0,"no2":3.4,"co":127.0,"o3":46.0,"so2":0.9,"mosquito_risk":3,"arthritis_risk":5,"migraine_risk":3,"frizz_risk":1,"updated_at":"2026-06-07T01:41:25.093283+05:30"},{"city":"Belgaum","state":"Karnataka","latitude":15.8497,"longitude":74.4977,"temp":22.2,"humidity":99,"rain":0.0,"pressure":924.3,"uv_index":6.65,"wind_gusts":37.8,"aqi":25,"pm10":3.2,"pm2_5":2.5,"no2":3.2,"co":106.0,"o3":47.0,"so2":1.3,"mosquito_risk":3,"arthritis_risk":5,"migraine_risk":7,"frizz_risk":1,"updated_at":"2026-06-07T01:41:28.905375+05:30"},{"city":"Coimbatore","state":"Tamil Nadu","latitude":11.0168,"longitude":76.9558,"temp":23.6,"humidity":89,"rain":0.0,"pressure":961.4,"uv_index":5.55,"wind_gusts":58.7,"aqi":17,"pm10":1.5,"pm2_5":1.4,"no2":4.4,"co":154.0,"o3":38.0,"so2":1.8,"mosquito_risk":3,"arthritis_risk":5,"migraine_risk":3,"frizz_risk":1,"updated_at":"2026-06-07T01:41:28.905410+05:30"},{"city":"Madurai","state":"Tamil Nadu","latitude":9.9252,"longitude":78.1198,"temp":29.3,"humidity":60,"rain":0.0,"pressure":992.6,"uv_index":8.7,"wind_gusts":65.9,"aqi":25,"pm10":6.1,"pm2_5":5.0,"no2":7.4,"co":129.0,"o3":36.0,"so2":2.7,"mosquito_risk":4,"arthritis_risk":5,"migraine_risk":7,"frizz_risk":1,"updated_at":"2026-06-07T01:41:28.905424+05:30"},{"city":"Trichy","state":"Tamil Nadu","latitude":10.7905,"longitude":78.7047,"temp":29.2,"humidity":60,"rain":0.0,"pressure":998.9,"uv_index":7.95,"wind_gusts":43.2,"aqi":28,"pm10":4.0,"pm2_5":3.2,"no2":6.1,"co":123.0,"o3":33.0,"so2":2.3,"mosquito_risk":4,"arthritis_risk":5,"migraine_risk":7,"frizz_risk":1,"updated_at":"2026-06-07T01:41:28.905434+05:30"},{"city":"Salem","state":"Tamil Nadu","latitude":11.6643,"longitude":78.146,"temp":25.8,"humidity":79,"rain":0.0,"pressure":977.0,"uv_index":8.75,"wind_gusts":47.5,"aqi":33,"pm10":8.2,"pm2_5":7.5,"no2":15.6,"co":198.0,"o3":28.0,"so2":5.8,"mosquito_risk":7,"arthritis_risk":5,"migraine_risk":7,"frizz_risk":1,"updated_at":"2026-06-07T01:41:28.905444+05:30"},{"city":"Tirunelveli","state":"Tamil Nadu","latitude":8.7139,"longitude":77.7567,"temp":27.8,"humidity":74,"rain":0.0,"pressure":1003.9,"uv_index":7.85,"wind_gusts":49.0,"aqi":19,"pm10":4.6,"pm2_5":3.2,"no2":5.0,"co":159.0,"o3":35.0,"so2":1.1,"mosquito_risk":7,"arthritis_risk":5,"migraine_risk":4,"frizz_risk":1,"updated_at":"2026-06-07T01:41:28.905453+05:30"},{"city":"Vellore","state":"Tamil Nadu","latitude":12.9165,"longitude":79.1325,"temp":28.8,"humidity":57,"rain":0.0,"pressure":982.7,"uv_index":8.9,"wind_gusts":40.3,"aqi":26,"pm10":6.7,"pm2_5":6.3,"no2":12.8,"co":208.0,"o3":40.0,"so2":4.0,"mosquito_risk":4,"arthritis_risk":5,"migraine_risk":7,"frizz_risk":1,"updated_at":"2026-06-07T01:41:28.905462+05:30"},{"city":"Erode","state":"Tamil Nadu","latitude":11.341,"longitude":77.7172,"temp":25.7,"humidity":80,"rain":0.0,"pressure":988.8,"uv_index":8.65,"wind_gusts":52.9,"aqi":23,"pm10":4.9,"pm2_5":4.5,"no2":9.7,"co":137.0,"o3":32.0,"so2":2.8,"mosquito_risk":7,"arthritis_risk":5,"migraine_risk":7,"frizz_risk":1,"updated_at":"2026-06-07T01:41:28.905472+05:30"},{"city":"Kochi","state":"Kerala","latitude":9.9312,"longitude":76.2673,"temp":26.0,"humidity":91,"rain":0.2,"pressure":1009.8,"uv_index":6.65,"wind_gusts":46.1,"aqi":36,"pm10":11.5,"pm2_5":7.9,"no2":9.8,"co":90.0,"o3":30.0,"so2":2.5,"mosquito_risk":10,"arthritis_risk":0,"migraine_risk":4,"frizz_risk":1,"updated_at":"2026-06-07T01:41:28.905481+05:30"},{"city":"Thiruvananthapuram","state":"Kerala","latitude":8.5241,"longitude":76.9366,"temp":25.5,"humidity":94,"rain":0.1,"pressure":1009.9,"uv_index":7.95,"wind_gusts":48.2,"aqi":25,"pm10":12.2,"pm2_5":5.7,"no2":1.8,"co":84.0,"o3":44.0,"so2":0.5,"mosquito_risk":10,"arthritis_risk":0,"migraine_risk":4,"frizz_risk":1,"updated_at":"2026-06-07T01:41:28.905490+05:30"},{"city":"Kozhikode","state":"Kerala","latitude":11.2588,"longitude":75.7804,"temp":24.9,"humidity":98,"rain":0.4,"pressure":1008.5,"uv_index":4.55,"wind_gusts":24.8,"aqi":26,"pm10":6.2,"pm2_5":3.1,"no2":0.9,"co":123.0,"o3":58.0,"so2":0.3,"mosquito_risk":6,"arthritis_risk":0,"migraine_risk":0,"frizz_risk":1,"updated_at":"2026-06-07T01:41:28.905499+05:30"},{"city":"Thrissur","state":"Kerala","latitude":10.5276,"longitude":76.2144,"temp":24.7,"humidity":97,"rain":0.2,"pressure":1008.0,"uv_index":6.05,"wind_gusts":40.7,"aqi":36,"pm10":10.1,"pm2_5":7.7,"no2":9.0,"co":223.0,"o3":31.0,"so2":2.3,"mosquito_risk":6,"arthritis_risk":0,"migraine_risk":4,"frizz_risk":1,"updated_at":"2026-06-07T01:41:28.905509+05:30"},{"city":"Kannur","state":"Kerala","latitude":11.8745,"longitude":75.3704,"temp":24.9,"humidity":98,"rain":0.6,"pressure":1007.6,"uv_index":3.0,"wind_gusts":26.6,"aqi":20,"pm10":2.1,"pm2_5":1.5,"no2":5.4,"co":184.0,"o3":47.0,"so2":1.0,"mosquito_risk":6,"arthritis_risk":5,"migraine_risk":0,"frizz_risk":1,"updated_at":"2026-06-07T01:41:28.905517+05:30"},{"city":"Patna","state":"Bihar","latitude":25.5941,"longitude":85.1376,"temp":25.5,"humidity":95,"rain":0.2,"pressure":996.7,"uv_index":8.7,"wind_gusts":27.4,"aqi":159,"pm10":74.7,"pm2_5":67.8,"no2":15.3,"co":476.0,"o3":99.0,"so2":9.1,"mosquito_risk":10,"arthritis_risk":5,"migraine_risk":7,"frizz_risk":1,"updated_at":"2026-06-07T01:41:28.905526+05:30"},{"city":"Gaya","state":"Bihar","latitude":24.7914,"longitude":85.0002,"temp":28.6,"humidity":73,"rain":0.0,"pressure":989.8,"uv_index":8.85,"wind_gusts":25.9,"aqi":154,"pm10":62.2,"pm2_5":54.7,"no2":9.8,"co":451.0,"o3":106.0,"so2":5.5,"mosquito_risk":7,"arthritis_risk":5,"migraine_risk":7,"frizz_risk":1,"updated_at":"2026-06-07T01:41:28.905534+05:30"},{"city":"Muzaffarpur","state":"Bihar","latitude":26.1209,"longitude":85.3647,"temp":25.8,"humidity":89,"rain":0.0,"pressure":997.0,"uv_index":8.6,"wind_gusts":36.4,"aqi":158,"pm10":86.1,"pm2_5":80.3,"no2":20.5,"co":492.0,"o3":80.0,"so2":11.7,"mosquito_risk":7,"arthritis_risk":5,"migraine_risk":7,"frizz_risk":1,"updated_at":"2026-06-07T01:41:28.905543+05:30"},{"city":"Bhagalpur","state":"Bihar","latitude":25.2425,"longitude":87.0117,"temp":28.4,"humidity":80,"rain":0.0,"pressure":997.5,"uv_index":8.85,"wind_gusts":34.6,"aqi":154,"pm10":66.4,"pm2_5":60.3,"no2":10.2,"co":335.0,"o3":126.0,"so2":13.5,"mosquito_risk":7,"arthritis_risk":5,"migraine_risk":7,"frizz_risk":1,"updated_at":"2026-06-07T01:41:28.905551+05:30"},{"city":"Ranchi","state":"Jharkhand","latitude":23.3441,"longitude":85.3096,"temp":24.8,"humidity":86,"rain":0.0,"pressure":934.3,"uv_index":8.9,"wind_gusts":35.3,"aqi":143,"pm10":74.3,"pm2_5":62.2,"no2":20.5,"co":347.0,"o3":62.0,"so2":7.8,"mosquito_risk":3,"arthritis_risk":5,"migraine_risk":7,"frizz_risk":1,"updated_at":"2026-06-07T01:41:28.905559+05:30"},{"city":"Jamshedpur","state":"Jharkhand","latitude":22.8046,"longitude":86.2029,"temp":28.0,"humidity":92,"rain":0.0,"pressure":986.7,"uv_index":9.05,"wind_gusts":31.7,"aqi":159,"pm10":109.9,"pm2_5":96.6,"no2":39.4,"co":729.0,"o3":62.0,"so2":52.0,"mosquito_risk":7,"arthritis_risk":5,"migraine_risk":7,"frizz_risk":1,"updated_at":"2026-06-07T01:41:28.905567+05:30"},{"city":"Dhanbad","state":"Jharkhand","latitude":23.7957,"longitude":86.4304,"temp":28.1,"humidity":90,"rain":0.0,"pressure":976.2,"uv_index":7.85,"wind_gusts":52.6,"aqi":174,"pm10":110.8,"pm2_5":100.8,"no2":46.1,"co":311.0,"o3":67.0,"so2":82.8,"mosquito_risk":7,"arthritis_risk":5,"migraine_risk":7,"frizz_risk":1,"updated_at":"2026-06-07T01:41:28.905576+05:30"},{"city":"Bokaro","state":"Jharkhand","latitude":23.6693,"longitude":86.1511,"temp":28.6,"humidity":87,"rain":0.0,"pressure":980.0,"uv_index":8.6,"wind_gusts":37.8,"aqi":165,"pm10":104.3,"pm2_5":92.4,"no2":45.4,"co":295.0,"o3":68.0,"so2":76.6,"mosquito_risk":7,"arthritis_risk":5,"migraine_risk":7,"frizz_risk":1,"updated_at":"2026-06-07T01:41:28.905584+05:30"},{"city":"Bhubaneswar","state":"Odisha","latitude":20.2961,"longitude":85.8245,"temp":27.7,"humidity":97,"rain":0.0,"pressure":997.5,"uv_index":8.9,"wind_gusts":28.1,"aqi":136,"pm10":40.6,"pm2_5":35.3,"no2":9.4,"co":533.0,"o3":102.0,"so2":6.7,"mosquito_risk":7,"arthritis_risk":5,"migraine_risk":7,"frizz_risk":1,"updated_at":"2026-06-07T01:41:28.905592+05:30"},{"city":"Cuttack","state":"Odisha","latitude":20.4625,"longitude":85.8828,"temp":28.1,"humidity":94,"rain":0.0,"pressure":999.4,"uv_index":9.15,"wind_gusts":33.5,"aqi":136,"pm10":40.6,"pm2_5":35.3,"no2":9.4,"co":586.0,"o3":102.0,"so2":6.7,"mosquito_risk":7,"arthritis_risk":5,"migraine_risk":7,"frizz_risk":1,"updated_at":"2026-06-07T01:41:28.905601+05:30"},{"city":"Rourkela","state":"Odisha","latitude":22.2604,"longitude":84.8536,"temp":28.1,"humidity":83,"rain":0.1,"pressure":981.2,"uv_index":9.05,"wind_gusts":28.1,"aqi":154,"pm10":94.1,"pm2_5":74.3,"no2":17.5,"co":410.0,"o3":97.0,"so2":20.6,"mosquito_risk":10,"arthritis_risk":5,"migraine_risk":7,"frizz_risk":1,"updated_at":"2026-06-07T01:41:28.905610+05:30"},{"city":"Raipur","state":"Chhattisgarh","latitude":21.2514,"longitude":81.6296,"temp":32.0,"humidity":45,"rain":0.0,"pressure":970.3,"uv_index":8.45,"wind_gusts":34.6,"aqi":115,"pm10":72.4,"pm2_5":56.6,"no2":62.5,"co":357.0,"o3":9.0,"so2":55.2,"mosquito_risk":0,"arthritis_risk":5,"migraine_risk":7,"frizz_risk":1,"updated_at":"2026-06-07T01:41:28.905619+05:30"},{"city":"Bhilai","state":"Chhattisgarh","latitude":21.1938,"longitude":81.3509,"temp":31.1,"humidity":48,"rain":0.0,"pressure":970.9,"uv_index":8.55,"wind_gusts":33.5,"aqi":101,"pm10":74.7,"pm2_5":51.3,"no2":48.9,"co":441.0,"o3":18.0,"so2":44.6,"mosquito_risk":0,"arthritis_risk":5,"migraine_risk":7,"frizz_risk":1,"updated_at":"2026-06-07T01:41:28.905627+05:30"},{"city":"Guwahati","state":"Assam","latitude":26.1158,"longitude":91.7086,"temp":25.7,"humidity":94,"rain":0.0,"pressure":997.8,"uv_index":8.8,"wind_gusts":31.0,"aqi":85,"pm10":35.4,"pm2_5":33.4,"no2":13.5,"co":420.0,"o3":42.0,"so2":2.6,"mosquito_risk":7,"arthritis_risk":5,"migraine_risk":7,"frizz_risk":1,"updated_at":"2026-06-07T01:41:28.905636+05:30"},{"city":"Agartala","state":"Tripura","latitude":23.8315,"longitude":91.2868,"temp":26.6,"humidity":99,"rain":0.0,"pressure":1002.3,"uv_index":5.15,"wind_gusts":27.4,"aqi":145,"pm10":30.3,"pm2_5":27.5,"no2":11.5,"co":220.0,"o3":73.0,"so2":2.5,"mosquito_risk":7,"arthritis_risk":5,"migraine_risk":0,"frizz_risk":1,"updated_at":"2026-06-07T01:41:28.905643+05:30"},{"city":"Shillong","state":"Meghalaya","latitude":25.5788,"longitude":91.8933,"temp":18.0,"humidity":98,"rain":0.0,"pressure":854.0,"uv_index":8.5,"wind_gusts":24.5,"aqi":74,"pm10":29.6,"pm2_5":27.4,"no2":5.8,"co":242.0,"o3":97.0,"so2":3.3,"mosquito_risk":3,"arthritis_risk":10,"migraine_risk":7,"frizz_risk":1,"updated_at":"2026-06-07T01:41:28.905650+05:30"},{"city":"Imphal","state":"Manipur","latitude":24.817,"longitude":93.9368,"temp":22.6,"humidity":92,"rain":0.0,"pressure":919.5,"uv_index":9.05,"wind_gusts":31.0,"aqi":112,"pm10":41.0,"pm2_5":39.2,"no2":18.3,"co":645.0,"o3":22.0,"so2":2.1,"mosquito_risk":3,"arthritis_risk":5,"migraine_risk":7,"frizz_risk":1,"updated_at":"2026-06-07T01:41:28.905656+05:30"},{"city":"Aizawl","state":"Mizoram","latitude":23.7271,"longitude":92.7176,"temp":20.0,"humidity":93,"rain":0.0,"pressure":889.2,"uv_index":9.05,"wind_gusts":29.9,"aqi":105,"pm10":29.5,"pm2_5":26.1,"no2":4.9,"co":211.0,"o3":61.0,"so2":2.9,"mosquito_risk":3,"arthritis_risk":5,"migraine_risk":7,"frizz_risk":1,"updated_at":"2026-06-07T01:41:28.905663+05:30"},{"city":"Kohima","state":"Nagaland","latitude":25.6701,"longitude":94.1077,"temp":17.9,"humidity":98,"rain":0.0,"pressure":852.1,"uv_index":9.1,"wind_gusts":33.5,"aqi":69,"pm10":24.3,"pm2_5":21.9,"no2":8.8,"co":295.0,"o3":36.0,"so2":0.8,"mosquito_risk":3,"arthritis_risk":10,"migraine_risk":7,"frizz_risk":1,"updated_at":"2026-06-07T01:41:28.905669+05:30"},{"city":"Gangtok","state":"Sikkim","latitude":27.3314,"longitude":88.6138,"temp":16.5,"humidity":94,"rain":0.2,"pressure":835.6,"uv_index":9.1,"wind_gusts":38.9,"aqi":73,"pm10":22.5,"pm2_5":19.3,"no2":9.0,"co":491.0,"o3":109.0,"so2":3.2,"mosquito_risk":6,"arthritis_risk":10,"migraine_risk":7,"frizz_risk":0,"updated_at":"2026-06-07T01:41:28.905675+05:30"},{"city":"Siliguri","state":"West Bengal","latitude":26.7271,"longitude":88.3953,"temp":24.7,"humidity":94,"rain":0.0,"pressure":990.0,"uv_index":8.7,"wind_gusts":20.9,"aqi":96,"pm10":43.9,"pm2_5":37.4,"no2":11.2,"co":686.0,"o3":111.0,"so2":4.4,"mosquito_risk":3,"arthritis_risk":5,"migraine_risk":7,"frizz_risk":1,"updated_at":"2026-06-07T01:41:32.734245+05:30"},{"city":"Durgapur","state":"West Bengal","latitude":23.5204,"longitude":87.3119,"temp":27.5,"humidity":92,"rain":0.0,"pressure":991.1,"uv_index":8.95,"wind_gusts":24.5,"aqi":165,"pm10":87.5,"pm2_5":82.4,"no2":33.3,"co":891.0,"o3":64.0,"so2":36.5,"mosquito_risk":7,"arthritis_risk":5,"migraine_risk":7,"frizz_risk":1,"updated_at":"2026-06-07T01:41:32.734276+05:30"},{"city":"Asansol","state":"West Bengal","latitude":23.6739,"longitude":86.9524,"temp":27.7,"humidity":90,"rain":0.0,"pressure":989.7,"uv_index":8.85,"wind_gusts":29.2,"aqi":166,"pm10":92.4,"pm2_5":85.2,"no2":31.3,"co":828.0,"o3":69.0,"so2":39.1,"mosquito_risk":7,"arthritis_risk":5,"migraine_risk":7,"frizz_risk":1,"updated_at":"2026-06-07T01:41:32.734287+05:30"},{"city":"Pondicherry","state":"Puducherry","latitude":11.9139,"longitude":79.8145,"temp":30.1,"humidity":58,"rain":0.0,"pressure":1006.5,"uv_index":8.5,"wind_gusts":53.3,"aqi":58,"pm10":16.5,"pm2_5":13.7,"no2":19.2,"co":203.0,"o3":33.0,"so2":7.1,"mosquito_risk":0,"arthritis_risk":5,"migraine_risk":4,"frizz_risk":1,"updated_at":"2026-06-07T01:41:32.734296+05:30"},{"city":"Port Blair","state":"Andaman and Nicobar Islands","latitude":11.6234,"longitude":92.7265,"temp":27.1,"humidity":93,"rain":0.0,"pressure":1006.2,"uv_index":5.75,"wind_gusts":40.7,"aqi":27,"pm10":10.2,"pm2_5":6.1,"no2":0.2,"co":90.0,"o3":60.0,"so2":0.4,"mosquito_risk":7,"arthritis_risk":5,"migraine_risk":0,"frizz_risk":1,"updated_at":"2026-06-07T01:41:32.734304+05:30"},{"city":"Haridwar","state":"Uttarakhand","latitude":29.9457,"longitude":78.1642,"temp":26.8,"humidity":62,"rain":0.0,"pressure":969.0,"uv_index":7.65,"wind_gusts":23.0,"aqi":116,"pm10":68.0,"pm2_5":58.1,"no2":40.9,"co":388.0,"o3":40.0,"so2":11.0,"mosquito_risk":7,"arthritis_risk":5,"migraine_risk":7,"frizz_risk":1,"updated_at":"2026-06-07T01:41:32.734312+05:30"},{"city":"Rishikesh","state":"Uttarakhand","latitude":30.0869,"longitude":78.2676,"temp":23.1,"humidity":82,"rain":0.0,"pressure":961.6,"uv_index":7.75,"wind_gusts":27.4,"aqi":89,"pm10":41.0,"pm2_5":32.2,"no2":20.2,"co":329.0,"o3":85.0,"so2":6.3,"mosquito_risk":3,"arthritis_risk":5,"migraine_risk":7,"frizz_risk":1,"updated_at":"2026-06-07T01:41:32.734319+05:30"},{"city":"Nainital","state":"Uttarakhand","latitude":29.3919,"longitude":79.4542,"temp":15.4,"humidity":78,"rain":0.0,"pressure":803.2,"uv_index":8.6,"wind_gusts":43.9,"aqi":93,"pm10":54.1,"pm2_5":39.6,"no2":31.6,"co":315.0,"o3":40.0,"so2":3.0,"mosquito_risk":3,"arthritis_risk":5,"migraine_risk":7,"frizz_risk":0,"updated_at":"2026-06-07T01:41:32.734327+05:30"},{"city":"Mussoorie","state":"Uttarakhand","latitude":30.4599,"longitude":78.0664,"temp":14.9,"humidity":75,"rain":0.0,"pressure":799.6,"uv_index":8.15,"wind_gusts":47.9,"aqi":91,"pm10":46.1,"pm2_5":37.0,"no2":40.0,"co":266.0,"o3":47.0,"so2":8.3,"mosquito_risk":3,"arthritis_risk":5,"migraine_risk":7,"frizz_risk":0,"updated_at":"2026-06-07T01:41:32.734335+05:30"},{"city":"Dharamshala","state":"Himachal Pradesh","latitude":32.219,"longitude":76.3234,"temp":22.0,"humidity":44,"rain":0.0,"pressure":865.8,"uv_index":8.5,"wind_gusts":40.3,"aqi":41,"pm10":10.1,"pm2_5":8.9,"no2":16.6,"co":215.0,"o3":28.0,"so2":0.1,"mosquito_risk":0,"arthritis_risk":5,"migraine_risk":7,"frizz_risk":0,"updated_at":"2026-06-07T01:41:32.734342+05:30"},{"city":"Dalhousie","state":"Himachal Pradesh","latitude":32.5387,"longitude":75.971,"temp":12.1,"humidity":72,"rain":0.0,"pressure":798.7,"uv_index":8.75,"wind_gusts":38.2,"aqi":67,"pm10":30.2,"pm2_5":27.1,"no2":46.2,"co":348.0,"o3":18.0,"so2":1.9,"mosquito_risk":3,"arthritis_risk":5,"migraine_risk":7,"frizz_risk":0,"updated_at":"2026-06-07T01:41:32.734350+05:30"},{"city":"Patiala","state":"Punjab","latitude":30.3398,"longitude":76.3869,"temp":29.8,"humidity":37,"rain":0.0,"pressure":972.5,"uv_index":7.7,"wind_gusts":28.1,"aqi":156,"pm10":74.3,"pm2_5":55.6,"no2":29.8,"co":953.0,"o3":47.0,"so2":8.6,"mosquito_risk":4,"arthritis_risk":5,"migraine_risk":7,"frizz_risk":0,"updated_at":"2026-06-07T01:41:32.734357+05:30"},{"city":"Bhatinda","state":"Punjab","latitude":30.211,"longitude":74.9455,"temp":31.7,"humidity":40,"rain":0.0,"pressure":977.8,"uv_index":8.35,"wind_gusts":24.1,"aqi":153,"pm10":92.4,"pm2_5":59.4,"no2":38.1,"co":420.0,"o3":53.0,"so2":11.5,"mosquito_risk":0,"arthritis_risk":5,"migraine_risk":7,"frizz_risk":1,"updated_at":"2026-06-07T01:41:32.734365+05:30"},{"city":"Rohtak","state":"Haryana","latitude":28.8955,"longitude":76.6066,"temp":29.1,"humidity":51,"rain":0.0,"pressure":976.2,"uv_index":7.8,"wind_gusts":28.4,"aqi":191,"pm10":445.2,"pm2_5":125.3,"no2":89.6,"co":459.0,"o3":2.0,"so2":20.9,"mosquito_risk":4,"arthritis_risk":5,"migraine_risk":7,"frizz_risk":1,"updated_at":"2026-06-07T01:41:32.734371+05:30"},{"city":"Panipat","state":"Haryana","latitude":29.3909,"longitude":76.9635,"temp":29.3,"humidity":54,"rain":0.0,"pressure":974.7,"uv_index":7.65,"wind_gusts":32.8,"aqi":347,"pm10":486.2,"pm2_5":117.8,"no2":50.6,"co":429.0,"o3":31.0,"so2":9.2,"mosquito_risk":4,"arthritis_risk":5,"migraine_risk":7,"frizz_risk":1,"updated_at":"2026-06-07T01:41:32.734378+05:30"},{"city":"Mathura","state":"Uttar Pradesh","latitude":27.4924,"longitude":77.6737,"temp":27.2,"humidity":66,"rain":0.0,"pressure":981.6,"uv_index":8.1,"wind_gusts":25.6,"aqi":202,"pm10":331.6,"pm2_5":95.5,"no2":67.7,"co":515.0,"o3":7.0,"so2":9.0,"mosquito_risk":7,"arthritis_risk":5,"migraine_risk":7,"frizz_risk":1,"updated_at":"2026-06-07T01:41:32.734385+05:30"},{"city":"Vrindavan","state":"Uttar Pradesh","latitude":27.5823,"longitude":77.7027,"temp":27.6,"humidity":62,"rain":0.0,"pressure":982.1,"uv_index":8.05,"wind_gusts":29.5,"aqi":202,"pm10":331.6,"pm2_5":95.5,"no2":67.7,"co":479.0,"o3":7.0,"so2":9.0,"mosquito_risk":7,"arthritis_risk":5,"migraine_risk":7,"frizz_risk":1,"updated_at":"2026-06-07T01:41:32.734392+05:30"},{"city":"Ayodhya","state":"Uttar Pradesh","latitude":26.7922,"longitude":82.1998,"temp":28.1,"humidity":82,"rain":0.0,"pressure":990.9,"uv_index":8.4,"wind_gusts":25.2,"aqi":154,"pm10":109.0,"pm2_5":66.8,"no2":29.1,"co":666.0,"o3":49.0,"so2":9.1,"mosquito_risk":7,"arthritis_risk":5,"migraine_risk":7,"frizz_risk":1,"updated_at":"2026-06-07T01:41:32.734399+05:30"},{"city":"Ratlam","state":"Madhya Pradesh","latitude":23.3315,"longitude":75.0367,"temp":28.3,"humidity":65,"rain":0.0,"pressure":952.3,"uv_index":8.5,"wind_gusts":40.3,"aqi":87,"pm10":52.3,"pm2_5":33.1,"no2":5.2,"co":186.0,"o3":75.0,"so2":9.7,"mosquito_risk":7,"arthritis_risk":5,"migraine_risk":7,"frizz_risk":1,"updated_at":"2026-06-07T01:41:32.734406+05:30"},{"city":"Sagar","state":"Madhya Pradesh","latitude":23.8388,"longitude":78.7378,"temp":28.2,"humidity":55,"rain":0.0,"pressure":946.7,"uv_index":8.75,"wind_gusts":35.6,"aqi":67,"pm10":47.1,"pm2_5":27.7,"no2":15.8,"co":197.0,"o3":54.0,"so2":4.3,"mosquito_risk":4,"arthritis_risk":5,"migraine_risk":7,"frizz_risk":1,"updated_at":"2026-06-07T01:41:32.734412+05:30"},{"city":"Satna","state":"Madhya Pradesh","latitude":24.6005,"longitude":80.8322,"temp":29.6,"humidity":57,"rain":0.0,"pressure":966.9,"uv_index":8.8,"wind_gusts":36.7,"aqi":145,"pm10":198.8,"pm2_5":69.8,"no2":37.8,"co":368.0,"o3":41.0,"so2":6.0,"mosquito_risk":4,"arthritis_risk":5,"migraine_risk":7,"frizz_risk":1,"updated_at":"2026-06-07T01:41:32.734419+05:30"},{"city":"Akola","state":"Maharashtra","latitude":20.7002,"longitude":77.0082,"temp":27.6,"humidity":69,"rain":0.1,"pressure":972.6,"uv_index":8.8,"wind_gusts":40.3,"aqi":83,"pm10":60.5,"pm2_5":37.1,"no2":23.7,"co":352.0,"o3":49.0,"so2":6.9,"mosquito_risk":10,"arthritis_risk":5,"migraine_risk":7,"frizz_risk":1,"updated_at":"2026-06-07T01:41:32.734428+05:30"},{"city":"Amravati","state":"Maharashtra","latitude":20.9374,"longitude":77.7796,"temp":28.1,"humidity":65,"rain":0.0,"pressure":964.1,"uv_index":8.85,"wind_gusts":40.7,"aqi":84,"pm10":65.2,"pm2_5":39.5,"no2":28.3,"co":201.0,"o3":40.0,"so2":6.0,"mosquito_risk":7,"arthritis_risk":5,"migraine_risk":7,"frizz_risk":1,"updated_at":"2026-06-07T01:41:32.734436+05:30"},{"city":"Latur","state":"Maharashtra","latitude":18.4088,"longitude":76.5604,"temp":28.0,"humidity":61,"rain":0.0,"pressure":937.5,"uv_index":8.95,"wind_gusts":44.3,"aqi":71,"pm10":21.3,"pm2_5":15.1,"no2":6.5,"co":193.0,"o3":71.0,"so2":5.2,"mosquito_risk":7,"arthritis_risk":5,"migraine_risk":7,"frizz_risk":1,"updated_at":"2026-06-07T01:41:32.734444+05:30"},{"city":"Nanded","state":"Maharashtra","latitude":19.1383,"longitude":77.3091,"temp":30.2,"humidity":55,"rain":0.0,"pressure":965.0,"uv_index":8.9,"wind_gusts":42.8,"aqi":81,"pm10":48.1,"pm2_5":31.0,"no2":22.8,"co":370.0,"o3":47.0,"so2":4.6,"mosquito_risk":0,"arthritis_risk":5,"migraine_risk":7,"frizz_risk":1,"updated_at":"2026-06-07T01:41:32.734451+05:30"},{"city":"Gulbarga","state":"Karnataka","latitude":17.3297,"longitude":76.8343,"temp":27.1,"humidity":74,"rain":0.0,"pressure":957.1,"uv_index":8.65,"wind_gusts":35.6,"aqi":62,"pm10":11.4,"pm2_5":9.0,"no2":9.1,"co":189.0,"o3":54.0,"so2":2.5,"mosquito_risk":7,"arthritis_risk":5,"migraine_risk":7,"frizz_risk":1,"updated_at":"2026-06-07T01:41:32.734458+05:30"},{"city":"Bidar","state":"Karnataka","latitude":17.9104,"longitude":77.5199,"temp":27.3,"humidity":67,"rain":0.0,"pressure":933.7,"uv_index":7.65,"wind_gusts":34.6,"aqi":86,"pm10":31.5,"pm2_5":23.6,"no2":20.7,"co":187.0,"o3":49.0,"so2":3.1,"mosquito_risk":7,"arthritis_risk":5,"migraine_risk":7,"frizz_risk":1,"updated_at":"2026-06-07T01:41:32.734465+05:30"},{"city":"Hospet","state":"Karnataka","latitude":15.2689,"longitude":76.3909,"temp":24.0,"humidity":94,"rain":0.1,"pressure":955.1,"uv_index":7.6,"wind_gusts":53.6,"aqi":29,"pm10":4.3,"pm2_5":3.7,"no2":5.0,"co":162.0,"o3":47.0,"so2":1.2,"mosquito_risk":6,"arthritis_risk":5,"migraine_risk":7,"frizz_risk":1,"updated_at":"2026-06-07T01:41:32.734473+05:30"},{"city":"Tirupur","state":"Tamil Nadu","latitude":11.1085,"longitude":77.3411,"temp":25.1,"humidity":81,"rain":0.0,"pressure":974.9,"uv_index":7.15,"wind_gusts":61.9,"aqi":25,"pm10":5.5,"pm2_5":5.2,"no2":11.0,"co":125.0,"o3":30.0,"so2":3.4,"mosquito_risk":7,"arthritis_risk":5,"migraine_risk":7,"frizz_risk":1,"updated_at":"2026-06-07T01:41:32.734480+05:30"},{"city":"Alappuzha","state":"Kerala","latitude":9.4981,"longitude":76.3388,"temp":26.0,"humidity":92,"rain":0.0,"pressure":1010.2,"uv_index":6.7,"wind_gusts":47.9,"aqi":33,"pm10":13.6,"pm2_5":7.1,"no2":3.8,"co":80.0,"o3":43.0,"so2":0.9,"mosquito_risk":7,"arthritis_risk":0,"migraine_risk":4,"frizz_risk":1,"updated_at":"2026-06-07T01:41:32.734487+05:30"},{"city":"Munnar","state":"Kerala","latitude":10.0889,"longitude":77.0595,"temp":17.1,"humidity":100,"rain":0.4,"pressure":856.7,"uv_index":1.0,"wind_gusts":47.2,"aqi":18,"pm10":2.0,"pm2_5":1.9,"no2":6.6,"co":90.0,"o3":28.0,"so2":1.6,"mosquito_risk":6,"arthritis_risk":10,"migraine_risk":3,"frizz_risk":1,"updated_at":"2026-06-07T01:41:32.734494+05:30"},{"city":"Silchar","state":"Assam","latitude":24.8333,"longitude":92.7789,"temp":25.3,"humidity":99,"rain":0.0,"pressure":1001.7,"uv_index":8.95,"wind_gusts":24.1,"aqi":146,"pm10":52.0,"pm2_5":46.1,"no2":10.1,"co":473.0,"o3":96.0,"so2":4.4,"mosquito_risk":7,"arthritis_risk":5,"migraine_risk":4,"frizz_risk":1,"updated_at":"2026-06-07T01:41:32.734501+05:30"},{"city":"Dibrugarh","state":"Assam","latitude":27.4728,"longitude":94.912,"temp":26.4,"humidity":93,"rain":0.1,"pressure":991.3,"uv_index":8.5,"wind_gusts":22.7,"aqi":109,"pm10":20.4,"pm2_5":19.0,"no2":13.7,"co":318.0,"o3":47.0,"so2":1.1,"mosquito_risk":10,"arthritis_risk":5,"migraine_risk":7,"frizz_risk":1,"updated_at":"2026-06-07T01:41:32.734508+05:30"}]