[{"city":"Delhi","state":"Delhi","latitude":28.6139,"longitude":77.209,"temp":27.0,"humidity":62,"rain":0.0,"pressure":988.4,"uv_index":5.5,"wind_gusts":27.7,"aqi":161,"pm10":220.3,"pm2_5":81.5,"mosquito_risk":7,"arthritis_risk":5,"migraine_risk":3,"frizz_risk":1,"updated_at":"2026-03-09T10:24:25.161436+05:30"},{"city":"Mumbai","state":"Maharashtra","latitude":19.076,"longitude":72.8777,"temp":28.9,"humidity":60,"rain":0.0,"pressure":1011.0,"uv_index":7.55,"wind_gusts":24.1,"aqi":117,"pm10":44.7,"pm2_5":44.4,"mosquito_risk":4,"arthritis_risk":0,"migraine_risk":4,"frizz_risk":1,"updated_at":"2026-03-09T10:24:25.161482+05:30"},{"city":"Bangalore","state":"Karnataka","latitude":12.9716,"longitude":77.5946,"temp":26.3,"humidity":60,"rain":0.0,"pressure":915.2,"uv_index":9.2,"wind_gusts":37.4,"aqi":100,"pm10":44.4,"pm2_5":34.2,"mosquito_risk":4,"arthritis_risk":5,"migraine_risk":7,"frizz_risk":1,"updated_at":"2026-03-09T10:24:25.161497+05:30"},{"city":"Hyderabad","state":"Telangana","latitude":17.385,"longitude":78.4867,"temp":29.6,"humidity":50,"rain":0.0,"pressure":958.5,"uv_index":8.55,"wind_gusts":30.2,"aqi":98,"pm10":45.2,"pm2_5":36.0,"mosquito_risk":4,"arthritis_risk":5,"migraine_risk":7,"frizz_risk":1,"updated_at":"2026-03-09T10:24:25.161518+05:30"},{"city":"Chennai","state":"Tamil Nadu","latitude":13.0827,"longitude":80.2707,"temp":29.7,"humidity":59,"rain":0.0,"pressure":1012.2,"uv_index":8.95,"wind_gusts":33.1,"aqi":79,"pm10":53.6,"pm2_5":39.2,"mosquito_risk":4,"arthritis_risk":0,"migraine_risk":4,"frizz_risk":1,"updated_at":"2026-03-09T10:24:25.161527+05:30"},{"city":"Kolkata","state":"West Bengal","latitude":22.5726,"longitude":88.3639,"temp":28.9,"humidity":69,"rain":0.0,"pressure":1013.0,"uv_index":7.95,"wind_gusts":16.6,"aqi":148,"pm10":54.6,"pm2_5":41.9,"mosquito_risk":7,"arthritis_risk":0,"migraine_risk":4,"frizz_risk":1,"updated_at":"2026-03-09T10:24:25.161535+05:30"},{"city":"Pune","state":"Maharashtra","latitude":18.5204,"longitude":73.8567,"temp":32.2,"humidity":25,"rain":0.0,"pressure":953.0,"uv_index":8.1,"wind_gusts":31.0,"aqi":69,"pm10":22.9,"pm2_5":19.8,"mosquito_risk":0,"arthritis_risk":5,"migraine_risk":7,"frizz_risk":0,"updated_at":"2026-03-09T10:24:25.161544+05:30"},{"city":"Ahmedabad","state":"Gujarat","latitude":23.0225,"longitude":72.5714,"temp":30.1,"humidity":36,"rain":0.0,"pressure":1007.9,"uv_index":7.4,"wind_gusts":18.4,"aqi":63,"pm10":23.3,"pm2_5":17.6,"mosquito_risk":0,"arthritis_risk":5,"migraine_risk":4,"frizz_risk":0,"updated_at":"2026-03-09T10:24:25.161551+05:30"},{"city":"Jaipur","state":"Rajasthan","latitude":26.9124,"longitude":75.7873,"temp":32.1,"humidity":22,"rain":0.0,"pressure":965.9,"uv_index":6.8,"wind_gusts":29.2,"aqi":77,"pm10":109.0,"pm2_5":27.8,"mosquito_risk":0,"arthritis_risk":5,"migraine_risk":7,"frizz_risk":0,"updated_at":"2026-03-09T10:24:25.161558+05:30"},{"city":"Lucknow","state":"Uttar Pradesh","latitude":26.8467,"longitude":80.9462,"temp":29.4,"humidity":60,"rain":0.0,"pressure":999.7,"uv_index":6.55,"wind_gusts":20.5,"aqi":178,"pm10":161.6,"pm2_5":97.6,"mosquito_risk":4,"arthritis_risk":5,"migraine_risk":7,"frizz_risk":1,"updated_at":"2026-03-09T10:24:25.161564+05:30"},{"city":"Kanpur","state":"Uttar Pradesh","latitude":26.4499,"longitude":80.3319,"temp":29.1,"humidity":61,"rain":0.0,"pressure":997.7,"uv_index":6.55,"wind_gusts":18.0,"aqi":166,"pm10":125.3,"pm2_5":62.2,"mosquito_risk":7,"arthritis_risk":5,"migraine_risk":7,"frizz_risk":1,"updated_at":"2026-03-09T10:24:25.161571+05:30"},{"city":"Chandigarh","state":"Chandigarh","latitude":30.7333,"longitude":76.7794,"temp":26.4,"humidity":52,"rain":0.0,"pressure":973.4,"uv_index":5.95,"wind_gusts":28.1,"aqi":128,"pm10":48.7,"pm2_5":29.6,"mosquito_risk":4,"arthritis_risk":5,"migraine_risk":3,"frizz_risk":0,"updated_at":"2026-03-09T10:24:25.161577+05:30"},{"city":"Srinagar","state":"Jammu and Kashmir","latitude":34.0837,"longitude":74.7973,"temp":15.4,"humidity":59,"rain":0.0,"pressure":848.0,"uv_index":6.35,"wind_gusts":25.9,"aqi":131,"pm10":61.5,"pm2_5":47.7,"mosquito_risk":0,"arthritis_risk":5,"migraine_risk":7,"frizz_risk":0,"updated_at":"2026-03-09T10:24:25.161584+05:30"},{"city":"Jammu","state":"Jammu and Kashmir","latitude":32.7266,"longitude":74.857,"temp":26.4,"humidity":65,"rain":0.0,"pressure":977.2,"uv_index":6.55,"wind_gusts":20.9,"aqi":86,"pm10":38.5,"pm2_5":32.4,"mosquito_risk":7,"arthritis_risk":5,"migraine_risk":7,"frizz_risk":1,"updated_at":"2026-03-09T10:24:25.161590+05:30"},{"city":"Amritsar","state":"Punjab","latitude":31.634,"longitude":74.8723,"temp":27.0,"humidity":68,"rain":0.0,"pressure":985.7,"uv_index":6.5,"wind_gusts":16.9,"aqi":160,"pm10":109.7,"pm2_5":89.2,"mosquito_risk":7,"arthritis_risk":5,"migraine_risk":7,"frizz_risk":1,"updated_at":"2026-03-09T10:24:25.161596+05:30"},{"city":"Ludhiana","state":"Punjab","latitude":30.901,"longitude":75.8573,"temp":27.0,"humidity":63,"rain":0.0,"pressure":983.8,"uv_index":6.05,"wind_gusts":22.7,"aqi":156,"pm10":85.9,"pm2_5":75.4,"mosquito_risk":7,"arthritis_risk":5,"migraine_risk":7,"frizz_risk":1,"updated_at":"2026-03-09T10:24:25.161602+05:30"},{"city":"Jalandhar","state":"Punjab","latitude":31.326,"longitude":75.5762,"temp":26.5,"humidity":66,"rain":0.0,"pressure":984.9,"uv_index":6.25,"wind_gusts":20.9,"aqi":159,"pm10":94.3,"pm2_5":77.5,"mosquito_risk":7,"arthritis_risk":5,"migraine_risk":7,"frizz_risk":1,"updated_at":"2026-03-09T10:24:25.161610+05:30"},{"city":"Dehradun","state":"Uttarakhand","latitude":30.6284,"longitude":78.0322,"temp":21.6,"humidity":41,"rain":0.0,"pressure":835.6,"uv_index":6.3,"wind_gusts":29.9,"aqi":74,"pm10":31.4,"pm2_5":12.7,"mosquito_risk":0,"arthritis_risk":5,"migraine_risk":7,"frizz_risk":0,"updated_at":"2026-03-09T10:24:25.161616+05:30"},{"city":"Shimla","state":"Himachal Pradesh","latitude":31.1048,"longitude":77.1734,"temp":20.7,"humidity":30,"rain":0.0,"pressure":791.2,"uv_index":6.35,"wind_gusts":50.4,"aqi":74,"pm10":44.6,"pm2_5":17.1,"mosquito_risk":0,"arthritis_risk":5,"migraine_risk":7,"frizz_risk":0,"updated_at":"2026-03-09T10:24:25.161621+05:30"},{"city":"Manali","state":"Himachal Pradesh","latitude":32.2396,"longitude":77.1887,"temp":22.7,"humidity":13,"rain":0.0,"pressure":827.0,"uv_index":7.6,"wind_gusts":35.6,"aqi":44,"pm10":12.3,"pm2_5":5.7,"mosquito_risk":0,"arthritis_risk":5,"migraine_risk":7,"frizz_risk":1,"updated_at":"2026-03-09T10:24:25.161627+05:30"},{"city":"Gurgaon","state":"Haryana","latitude":28.4595,"longitude":77.0266,"temp":26.5,"humidity":66,"rain":0.0,"pressure":986.8,"uv_index":5.85,"wind_gusts":26.3,"aqi":605,"pm10":663.1,"pm2_5":121.5,"mosquito_risk":7,"arthritis_risk":5,"migraine_risk":3,"frizz_risk":1,"updated_at":"2026-03-09T10:24:25.161633+05:30"},{"city":"Noida","state":"Uttar Pradesh","latitude":28.5355,"longitude":77.391,"temp":27.6,"humidity":61,"rain":0.0,"pressure":989.9,"uv_index":5.5,"wind_gusts":27.0,"aqi":605,"pm10":663.1,"pm2_5":121.5,"mosquito_risk":7,"arthritis_risk":5,"migraine_risk":3,"frizz_risk":1,"updated_at":"2026-03-09T10:24:25.161639+05:30"},{"city":"Ghaziabad","state":"Uttar Pradesh","latitude":28.6692,"longitude":77.4538,"temp":27.0,"humidity":67,"rain":0.0,"pressure":988.0,"uv_index":5.25,"wind_gusts":27.4,"aqi":158,"pm10":224.4,"pm2_5":82.4,"mosquito_risk":7,"arthritis_risk":5,"migraine_risk":3,"frizz_risk":1,"updated_at":"2026-03-09T10:24:25.161645+05:30"},{"city":"Faridabad","state":"Haryana","latitude":28.4089,"longitude":77.3178,"temp":27.6,"humidity":62,"rain":0.0,"pressure":989.1,"uv_index":5.65,"wind_gusts":24.5,"aqi":605,"pm10":663.1,"pm2_5":121.5,"mosquito_risk":7,"arthritis_risk":5,"migraine_risk":3,"frizz_risk":1,"updated_at":"2026-03-09T10:24:25.161651+05:30"},{"city":"Meerut","state":"Uttar Pradesh","latitude":28.9845,"longitude":77.7064,"temp":27.4,"humidity":65,"rain":0.0,"pressure":986.7,"uv_index":5.65,"wind_gusts":28.4,"aqi":158,"pm10":224.4,"pm2_5":82.4,"mosquito_risk":7,"arthritis_risk":5,"migraine_risk":3,"frizz_risk":1,"updated_at":"2026-03-09T10:24:25.161657+05:30"},{"city":"Agra","state":"Uttar Pradesh","latitude":27.1767,"longitude":78.0081,"temp":30.4,"humidity":49,"rain":0.0,"pressure":993.5,"uv_index":6.15,"wind_gusts":22.3,"aqi":181,"pm10":336.2,"pm2_5":92.7,"mosquito_risk":0,"arthritis_risk":5,"migraine_risk":7,"frizz_risk":1,"updated_at":"2026-03-09T10:24:25.161662+05:30"},{"city":"Varanasi","state":"Uttar Pradesh","latitude":25.3176,"longitude":82.9739,"temp":29.8,"humidity":61,"rain":0.0,"pressure":1004.0,"uv_index":7.2,"wind_gusts":15.8,"aqi":181,"pm10":111.5,"pm2_5":100.8,"mosquito_risk":7,"arthritis_risk":5,"migraine_risk":4,"frizz_risk":1,"updated_at":"2026-03-09T10:24:25.161669+05:30"},{"city":"Prayagraj","state":"Uttar Pradesh","latitude":25.4358,"longitude":81.8463,"temp":29.2,"humidity":63,"rain":0.0,"pressure":1002.4,"uv_index":7.1,"wind_gusts":14.8,"aqi":188,"pm10":133.2,"pm2_5":117.1,"mosquito_risk":7,"arthritis_risk":5,"migraine_risk":4,"frizz_risk":1,"updated_at":"2026-03-09T10:24:25.161675+05:30"},{"city":"Gorakhpur","state":"Uttar Pradesh","latitude":26.7606,"longitude":83.3732,"temp":26.2,"humidity":72,"rain":0.0,"pressure":1004.4,"uv_index":6.9,"wind_gusts":27.0,"aqi":183,"pm10":130.4,"pm2_5":122.0,"mosquito_risk":7,"arthritis_risk":5,"migraine_risk":4,"frizz_risk":1,"updated_at":"2026-03-09T10:24:25.161680+05:30"},{"city":"Bareilly","state":"Uttar Pradesh","latitude":28.367,"longitude":79.4304,"temp":26.8,"humidity":77,"rain":0.0,"pressure":992.2,"uv_index":6.25,"wind_gusts":18.4,"aqi":166,"pm10":150.9,"pm2_5":97.3,"mosquito_risk":7,"arthritis_risk":5,"migraine_risk":7,"frizz_risk":1,"updated_at":"2026-03-09T10:24:25.161687+05:30"},{"city":"Aligarh","state":"Uttar Pradesh","latitude":27.8974,"longitude":78.088,"temp":29.6,"humidity":54,"rain":0.0,"pressure":990.9,"uv_index":6.15,"wind_gusts":24.8,"aqi":221,"pm10":312.9,"pm2_5":96.6,"mosquito_risk":4,"arthritis_risk":5,"migraine_risk":7,"frizz_risk":1,"updated_at":"2026-03-09T10:24:25.161692+05:30"},{"city":"Moradabad","state":"Uttar Pradesh","latitude":28.8386,"longitude":78.7733,"temp":26.1,"humidity":78,"rain":0.0,"pressure":988.9,"uv_index":6.05,"wind_gusts":19.1,"aqi":171,"pm10":127.6,"pm2_5":106.2,"mosquito_risk":7,"arthritis_risk":5,"migraine_risk":7,"frizz_risk":1,"updated_at":"2026-03-09T10:24:25.161697+05:30"},{"city":"Saharanpur","state":"Uttar Pradesh","latitude":29.9637,"longitude":77.546,"temp":25.9,"humidity":69,"rain":0.0,"pressure":980.5,"uv_index":5.7,"wind_gusts":28.4,"aqi":160,"pm10":101.5,"pm2_5":81.7,"mosquito_risk":7,"arthritis_risk":5,"migraine_risk":3,"frizz_risk":1,"updated_at":"2026-03-09T10:24:25.161704+05:30"},{"city":"Jhansi","state":"Uttar Pradesh","latitude":25.4484,"longitude":78.5685,"temp":31.5,"humidity":36,"rain":0.0,"pressure":984.1,"uv_index":7.0,"wind_gusts":25.6,"aqi":74,"pm10":20.7,"pm2_5":15.5,"mosquito_risk":0,"arthritis_risk":5,"migraine_risk":7,"frizz_risk":0,"updated_at":"2026-03-09T10:24:28.468714+05:30"},{"city":"Surat","state":"Gujarat","latitude":21.1702,"longitude":72.8311,"temp":30.3,"humidity":39,"rain":0.0,"pressure":1011.4,"uv_index":7.25,"wind_gusts":24.8,"aqi":105,"pm10":37.4,"pm2_5":36.0,"mosquito_risk":0,"arthritis_risk":0,"migraine_risk":4,"frizz_risk":0,"updated_at":"2026-03-09T10:24:28.468746+05:30"},{"city":"Vadodara","state":"Gujarat","latitude":22.3072,"longitude":73.1812,"temp":31.0,"humidity":33,"rain":0.0,"pressure":1009.7,"uv_index":7.4,"wind_gusts":15.5,"aqi":68,"pm10":23.0,"pm2_5":21.2,"mosquito_risk":0,"arthritis_risk":0,"migraine_risk":4,"frizz_risk":0,"updated_at":"2026-03-09T10:24:28.468757+05:30"},{"city":"Rajkot","state":"Gujarat","latitude":22.3039,"longitude":70.8022,"temp":29.5,"humidity":46,"rain":0.0,"pressure":999.6,"uv_index":7.2,"wind_gusts":24.1,"aqi":65,"pm10":30.2,"pm2_5":17.8,"mosquito_risk":4,"arthritis_risk":5,"migraine_risk":7,"frizz_risk":1,"updated_at":"2026-03-09T10:24:28.468767+05:30"},{"city":"Thane","state":"Maharashtra","latitude":19.2183,"longitude":72.9781,"temp":33.6,"humidity":31,"rain":0.0,"pressure":1010.7,"uv_index":7.55,"wind_gusts":33.8,"aqi":117,"pm10":44.7,"pm2_5":44.4,"mosquito_risk":0,"arthritis_risk":0,"migraine_risk":4,"frizz_risk":0,"updated_at":"2026-03-09T10:24:28.468776+05:30"},{"city":"Nagpur","state":"Maharashtra","latitude":21.1458,"longitude":79.0882,"temp":31.4,"humidity":35,"rain":0.0,"pressure":979.3,"uv_index":7.95,"wind_gusts":28.8,"aqi":81,"pm10":55.1,"pm2_5":35.5,"mosquito_risk":0,"arthritis_risk":5,"migraine_risk":7,"frizz_risk":0,"updated_at":"2026-03-09T10:24:28.468785+05:30"},{"city":"Nashik","state":"Maharashtra","latitude":19.9975,"longitude":73.7898,"temp":31.5,"humidity":28,"rain":0.0,"pressure":950.7,"uv_index":7.75,"wind_gusts":31.0,"aqi":53,"pm10":14.8,"pm2_5":14.3,"mosquito_risk":0,"arthritis_risk":5,"migraine_risk":7,"frizz_risk":0,"updated_at":"2026-03-09T10:24:28.468794+05:30"},{"city":"Aurangabad","state":"Maharashtra","latitude":19.8762,"longitude":75.3433,"temp":32.0,"humidity":21,"rain":0.0,"pressure":949.6,"uv_index":8.25,"wind_gusts":34.2,"aqi":65,"pm10":18.7,"pm2_5":12.0,"mosquito_risk":0,"arthritis_risk":5,"migraine_risk":7,"frizz_risk":0,"updated_at":"2026-03-09T10:24:28.468803+05:30"},{"city":"Solapur","state":"Maharashtra","latitude":17.6599,"longitude":75.9064,"temp":29.6,"humidity":40,"rain":0.0,"pressure":961.9,"uv_index":8.45,"wind_gusts":26.6,"aqi":75,"pm10":39.2,"pm2_5":31.0,"mosquito_risk":4,"arthritis_risk":5,"migraine_risk":7,"frizz_risk":0,"updated_at":"2026-03-09T10:24:28.468812+05:30"},{"city":"Kolhapur","state":"Maharashtra","latitude":16.705,"longitude":74.2433,"temp":29.4,"humidity":40,"rain":0.0,"pressure":951.9,"uv_index":8.6,"wind_gusts":40.0,"aqi":139,"pm10":56.1,"pm2_5":52.9,"mosquito_risk":4,"arthritis_risk":5,"migraine_risk":7,"frizz_risk":0,"updated_at":"2026-03-09T10:24:28.468820+05:30"},{"city":"Goa","state":"Goa","latitude":15.2993,"longitude":74.124,"temp":30.6,"humidity":63,"rain":0.0,"pressure":1000.6,"uv_index":8.65,"wind_gusts":34.2,"aqi":136,"pm10":57.4,"pm2_5":52.3,"mosquito_risk":3,"arthritis_risk":5,"migraine_risk":4,"frizz_risk":1,"updated_at":"2026-03-09T10:24:28.468828+05:30"},{"city":"Jodhpur","state":"Rajasthan","latitude":26.2389,"longitude":73.0243,"temp":30.2,"humidity":35,"rain":0.0,"pressure":989.6,"uv_index":7.1,"wind_gusts":22.7,"aqi":57,"pm10":75.4,"pm2_5":23.2,"mosquito_risk":0,"arthritis_risk":5,"migraine_risk":7,"frizz_risk":0,"updated_at":"2026-03-09T10:24:28.468835+05:30"},{"city":"Udaipur","state":"Rajasthan","latitude":24.5854,"longitude":73.7125,"temp":31.4,"humidity":20,"rain":0.0,"pressure":953.0,"uv_index":7.7,"wind_gusts":14.4,"aqi":38,"pm10":15.3,"pm2_5":8.6,"mosquito_risk":0,"arthritis_risk":5,"migraine_risk":7,"frizz_risk":0,"updated_at":"2026-03-09T10:24:28.468842+05:30"},{"city":"Kota","state":"Rajasthan","latitude":25.2138,"longitude":75.8648,"temp":30.1,"humidity":34,"rain":0.0,"pressure":984.9,"uv_index":7.1,"wind_gusts":17.3,"aqi":78,"pm10":18.7,"pm2_5":18.5,"mosquito_risk":0,"arthritis_risk":5,"migraine_risk":7,"frizz_risk":0,"updated_at":"2026-03-09T10:24:28.468849+05:30"},{"city":"Bikaner","state":"Rajasthan","latitude":28.0229,"longitude":73.3119,"temp":28.7,"humidity":37,"rain":0.0,"pressure":987.9,"uv_index":6.8,"wind_gusts":22.3,"aqi":55,"pm10":37.7,"pm2_5":15.5,"mosquito_risk":4,"arthritis_risk":5,"migraine_risk":7,"frizz_risk":0,"updated_at":"2026-03-09T10:24:28.468855+05:30"},{"city":"Ajmer","state":"Rajasthan","latitude":26.4499,"longitude":74.6399,"temp":29.1,"humidity":36,"rain":0.0,"pressure":961.0,"uv_index":7.1,"wind_gusts":22.3,"aqi":42,"pm10":58.1,"pm2_5":18.4,"mosquito_risk":4,"arthritis_risk":5,"migraine_risk":7,"frizz_risk":0,"updated_at":"2026-03-09T10:24:28.468863+05:30"},{"city":"Gwalior","state":"Madhya Pradesh","latitude":26.2183,"longitude":78.1828,"temp":30.9,"humidity":45,"rain":0.0,"pressure":988.9,"uv_index":6.75,"wind_gusts":23.0,"aqi":72,"pm10":81.7,"pm2_5":29.6,"mosquito_risk":0,"arthritis_risk":5,"migraine_risk":7,"frizz_risk":1,"updated_at":"2026-03-09T10:24:28.468869+05:30"},{"city":"Indore","state":"Madhya Pradesh","latitude":22.7196,"longitude":75.8577,"temp":30.9,"humidity":31,"rain":0.0,"pressure":954.2,"uv_index":7.65,"wind_gusts":24.5,"aqi":82,"pm10":21.0,"pm2_5":20.9,"mosquito_risk":0,"arthritis_risk":5,"migraine_risk":7,"frizz_risk":0,"updated_at":"2026-03-09T10:24:28.468876+05:30"},{"city":"Bhopal","state":"Madhya Pradesh","latitude":23.2599,"longitude":77.4126,"temp":31.5,"humidity":34,"rain":0.0,"pressure":960.0,"uv_index":7.55,"wind_gusts":15.8,"aqi":69,"pm10":25.0,"pm2_5":15.8,"mosquito_risk":0,"arthritis_risk":5,"migraine_risk":7,"frizz_risk":0,"updated_at":"2026-03-09T10:24:28.468883+05:30"},{"city":"Jabalpur","state":"Madhya Pradesh","latitude":23.1815,"longitude":79.9864,"temp":29.7,"humidity":43,"rain":0.0,"pressure":968.0,"uv_index":7.65,"wind_gusts":21.2,"aqi":115,"pm10":71.9,"pm2_5":46.0,"mosquito_risk":4,"arthritis_risk":5,"migraine_risk":7,"frizz_risk":0,"updated_at":"2026-03-09T10:24:28.468889+05:30"},{"city":"Ujjain","state":"Madhya Pradesh","latitude":23.1765,"longitude":75.7885,"temp":29.4,"humidity":40,"rain":0.0,"pressure":959.8,"uv_index":7.55,"wind_gusts":14.8,"aqi":99,"pm10":32.9,"pm2_5":32.8,"mosquito_risk":4,"arthritis_risk":5,"migraine_risk":7,"frizz_risk":0,"updated_at":"2026-03-09T10:24:28.468897+05:30"},{"city":"Visakhapatnam","state":"Andhra Pradesh","latitude":17.6868,"longitude":83.2185,"temp":30.0,"humidity":61,"rain":0.0,"pressure":1009.7,"uv_index":8.55,"wind_gusts":33.8,"aqi":93,"pm10":51.6,"pm2_5":41.0,"mosquito_risk":7,"arthritis_risk":0,"migraine_risk":4,"frizz_risk":1,"updated_at":"2026-03-09T10:24:28.468903+05:30"},{"city":"Vijayawada","state":"Andhra Pradesh","latitude":16.5062,"longitude":80.648,"temp":28.3,"humidity":70,"rain":0.0,"pressure":1008.5,"uv_index":8.65,"wind_gusts":26.3,"aqi":90,"pm10":42.8,"pm2_5":33.4,"mosquito_risk":7,"arthritis_risk":0,"migraine_risk":4,"frizz_risk":1,"updated_at":"2026-03-09T10:24:28.468910+05:30"},{"city":"Guntur","state":"Andhra Pradesh","latitude":16.3067,"longitude":80.4365,"temp":28.7,"humidity":68,"rain":0.0,"pressure":1009.5,"uv_index":8.65,"wind_gusts":27.0,"aqi":87,"pm10":39.5,"pm2_5":30.3,"mosquito_risk":7,"arthritis_risk":0,"migraine_risk":4,"frizz_risk":1,"updated_at":"2026-03-09T10:24:28.468917+05:30"},{"city":"Nellore","state":"Andhra Pradesh","latitude":14.4426,"longitude":79.9865,"temp":29.4,"humidity":64,"rain":0.0,"pressure":1011.1,"uv_index":8.8,"wind_gusts":33.8,"aqi":77,"pm10":37.1,"pm2_5":28.4,"mosquito_risk":7,"arthritis_risk":0,"migraine_risk":4,"frizz_risk":1,"updated_at":"2026-03-09T10:24:28.468925+05:30"},{"city":"Kurnool","state":"Andhra Pradesh","latitude":15.8281,"longitude":78.0373,"temp":30.7,"humidity":50,"rain":0.0,"pressure":981.5,"uv_index":8.65,"wind_gusts":38.5,"aqi":87,"pm10":34.7,"pm2_5":27.9,"mosquito_risk":0,"arthritis_risk":5,"migraine_risk":7,"frizz_risk":1,"updated_at":"2026-03-09T10:24:28.468933+05:30"},{"city":"Kakinada","state":"Andhra Pradesh","latitude":16.9891,"longitude":82.2475,"temp":29.3,"humidity":64,"rain":0.0,"pressure":1013.5,"uv_index":8.55,"wind_gusts":31.7,"aqi":82,"pm10":47.6,"pm2_5":35.6,"mosquito_risk":7,"arthritis_risk":0,"migraine_risk":4,"frizz_risk":1,"updated_at":"2026-03-09T10:24:28.468940+05:30"},{"city":"Tirupati","state":"Andhra Pradesh","latitude":13.6288,"longitude":79.4192,"temp":28.1,"humidity":63,"rain":0.0,"pressure":996.5,"uv_index":8.95,"wind_gusts":38.5,"aqi":91,"pm10":34.0,"pm2_5":25.1,"mosquito_risk":7,"arthritis_risk":5,"migraine_risk":7,"frizz_risk":1,"updated_at":"2026-03-09T10:24:28.468947+05:30"},{"city":"Warangal","state":"Telangana","latitude":17.9689,"longitude":79.5941,"temp":28.7,"humidity":66,"rain":0.0,"pressure":984.3,"uv_index":8.4,"wind_gusts":28.1,"aqi":114,"pm10":39.2,"pm2_5":32.8,"mosquito_risk":7,"arthritis_risk":5,"migraine_risk":7,"frizz_risk":1,"updated_at":"2026-03-09T10:24:28.468953+05:30"},{"city":"Nizamabad","state":"Telangana","latitude":18.6725,"longitude":78.0941,"temp":31.0,"humidity":38,"rain":0.0,"pressure":970.1,"uv_index":8.3,"wind_gusts":31.7,"aqi":115,"pm10":39.7,"pm2_5":32.7,"mosquito_risk":0,"arthritis_risk":5,"migraine_risk":7,"frizz_risk":0,"updated_at":"2026-03-09T10:24:28.468960+05:30"},{"city":"Mysore","state":"Karnataka","latitude":12.2958,"longitude":76.6396,"temp":27.6,"humidity":59,"rain":0.0,"pressure":931.7,"uv_index":9.25,"wind_gusts":41.0,"aqi":128,"pm10":46.9,"pm2_5":40.5,"mosquito_risk":4,"arthritis_risk":5,"migraine_risk":7,"frizz_risk":1,"updated_at":"2026-03-09T10:24:28.468968+05:30"},{"city":"Mangalore","state":"Karnataka","latitude":12.9141,"longitude":74.856,"temp":28.8,"humidity":80,"rain":0.0,"pressure":1009.1,"uv_index":8.85,"wind_gusts":23.8,"aqi":125,"pm10":56.0,"pm2_5":52.0,"mosquito_risk":7,"arthritis_risk":0,"migraine_risk":4,"frizz_risk":1,"updated_at":"2026-03-09T10:24:28.468974+05:30"},{"city":"Hubli-Dharwad","state":"Karnataka","latitude":15.3647,"longitude":75.124,"temp":29.1,"humidity":51,"rain":0.0,"pressure":944.6,"uv_index":8.85,"wind_gusts":36.7,"aqi":88,"pm10":39.3,"pm2_5":34.0,"mosquito_risk":4,"arthritis_risk":5,"migraine_risk":7,"frizz_risk":1,"updated_at":"2026-03-09T10:24:28.468981+05:30"},{"city":"Belgaum","state":"Karnataka","latitude":15.8497,"longitude":74.4977,"temp":30.9,"humidity":28,"rain":0.0,"pressure":929.5,"uv_index":8.85,"wind_gusts":45.0,"aqi":119,"pm10":36.2,"pm2_5":30.2,"mosquito_risk":0,"arthritis_risk":5,"migraine_risk":7,"frizz_risk":0,"updated_at":"2026-03-09T10:24:31.773815+05:30"},{"city":"Coimbatore","state":"Tamil Nadu","latitude":11.0168,"longitude":76.9558,"temp":27.6,"humidity":64,"rain":0.0,"pressure":965.5,"uv_index":9.25,"wind_gusts":47.9,"aqi":112,"pm10":34.2,"pm2_5":24.9,"mosquito_risk":7,"arthritis_risk":5,"migraine_risk":7,"frizz_risk":1,"updated_at":"2026-03-09T10:24:31.773847+05:30"},{"city":"Madurai","state":"Tamil Nadu","latitude":9.9252,"longitude":78.1198,"temp":29.7,"humidity":56,"rain":0.0,"pressure":996.8,"uv_index":9.2,"wind_gusts":36.7,"aqi":96,"pm10":24.2,"pm2_5":17.0,"mosquito_risk":4,"arthritis_risk":5,"migraine_risk":7,"frizz_risk":1,"updated_at":"2026-03-09T10:24:31.773858+05:30"},{"city":"Trichy","state":"Tamil Nadu","latitude":10.7905,"longitude":78.7047,"temp":29.2,"humidity":63,"rain":0.0,"pressure":1004.1,"uv_index":9.1,"wind_gusts":32.4,"aqi":80,"pm10":37.7,"pm2_5":28.8,"mosquito_risk":7,"arthritis_risk":5,"migraine_risk":4,"frizz_risk":1,"updated_at":"2026-03-09T10:24:31.773867+05:30"},{"city":"Salem","state":"Tamil Nadu","latitude":11.6643,"longitude":78.146,"temp":28.4,"humidity":61,"rain":0.0,"pressure":981.6,"uv_index":9.15,"wind_gusts":34.9,"aqi":109,"pm10":39.9,"pm2_5":30.7,"mosquito_risk":7,"arthritis_risk":5,"migraine_risk":7,"frizz_risk":1,"updated_at":"2026-03-09T10:24:31.773876+05:30"},{"city":"Tirunelveli","state":"Tamil Nadu","latitude":8.7139,"longitude":77.7567,"temp":31.1,"humidity":50,"rain":0.0,"pressure":1006.7,"uv_index":9.15,"wind_gusts":31.7,"aqi":105,"pm10":24.5,"pm2_5":18.1,"mosquito_risk":0,"arthritis_risk":5,"migraine_risk":4,"frizz_risk":1,"updated_at":"2026-03-09T10:24:31.773884+05:30"},{"city":"Vellore","state":"Tamil Nadu","latitude":12.9165,"longitude":79.1325,"temp":28.2,"humidity":57,"rain":0.0,"pressure":989.4,"uv_index":9.05,"wind_gusts":41.8,"aqi":110,"pm10":35.0,"pm2_5":25.6,"mosquito_risk":4,"arthritis_risk":5,"migraine_risk":7,"frizz_risk":1,"updated_at":"2026-03-09T10:24:31.773893+05:30"},{"city":"Erode","state":"Tamil Nadu","latitude":11.341,"longitude":77.7172,"temp":28.9,"humidity":65,"rain":0.0,"pressure":993.2,"uv_index":9.15,"wind_gusts":28.8,"aqi":85,"pm10":29.6,"pm2_5":19.3,"mosquito_risk":7,"arthritis_risk":5,"migraine_risk":7,"frizz_risk":1,"updated_at":"2026-03-09T10:24:31.773902+05:30"},{"city":"Kochi","state":"Kerala","latitude":9.9312,"longitude":76.2673,"temp":27.2,"humidity":81,"rain":0.0,"pressure":1011.3,"uv_index":8.95,"wind_gusts":29.9,"aqi":147,"pm10":54.5,"pm2_5":50.6,"mosquito_risk":7,"arthritis_risk":0,"migraine_risk":4,"frizz_risk":1,"updated_at":"2026-03-09T10:24:31.773912+05:30"},{"city":"Thiruvananthapuram","state":"Kerala","latitude":8.5241,"longitude":76.9366,"temp":27.3,"humidity":86,"rain":0.0,"pressure":1010.4,"uv_index":9.1,"wind_gusts":26.6,"aqi":107,"pm10":47.7,"pm2_5":43.2,"mosquito_risk":7,"arthritis_risk":0,"migraine_risk":4,"frizz_risk":1,"updated_at":"2026-03-09T10:24:31.773921+05:30"},{"city":"Kozhikode","state":"Kerala","latitude":11.2588,"longitude":75.7804,"temp":29.0,"humidity":76,"rain":0.0,"pressure":1010.4,"uv_index":8.65,"wind_gusts":24.5,"aqi":107,"pm10":26.8,"pm2_5":25.3,"mosquito_risk":7,"arthritis_risk":0,"migraine_risk":4,"frizz_risk":1,"updated_at":"2026-03-09T10:24:31.773929+05:30"},{"city":"Thrissur","state":"Kerala","latitude":10.5276,"longitude":76.2144,"temp":31.0,"humidity":64,"rain":0.0,"pressure":1009.5,"uv_index":9.05,"wind_gusts":41.4,"aqi":128,"pm10":47.3,"pm2_5":44.1,"mosquito_risk":3,"arthritis_risk":0,"migraine_risk":4,"frizz_risk":1,"updated_at":"2026-03-09T10:24:31.773937+05:30"},{"city":"Kannur","state":"Kerala","latitude":11.8745,"longitude":75.3704,"temp":29.9,"humidity":71,"rain":0.0,"pressure":1009.5,"uv_index":8.9,"wind_gusts":27.0,"aqi":122,"pm10":48.9,"pm2_5":45.6,"mosquito_risk":7,"arthritis_risk":0,"migraine_risk":4,"frizz_risk":1,"updated_at":"2026-03-09T10:24:31.773944+05:30"},{"city":"Patna","state":"Bihar","latitude":25.5941,"longitude":85.1376,"temp":27.3,"humidity":71,"rain":0.0,"pressure":1007.6,"uv_index":7.4,"wind_gusts":30.6,"aqi":171,"pm10":99.9,"pm2_5":94.5,"mosquito_risk":7,"arthritis_risk":5,"migraine_risk":4,"frizz_risk":1,"updated_at":"2026-03-09T10:24:31.773951+05:30"},{"city":"Gaya","state":"Bihar","latitude":24.7914,"longitude":85.0002,"temp":28.7,"humidity":70,"rain":0.0,"pressure":1000.1,"uv_index":7.5,"wind_gusts":27.0,"aqi":163,"pm10":96.2,"pm2_5":86.1,"mosquito_risk":7,"arthritis_risk":5,"migraine_risk":4,"frizz_risk":1,"updated_at":"2026-03-09T10:24:31.773958+05:30"},{"city":"Muzaffarpur","state":"Bihar","latitude":26.1209,"longitude":85.3647,"temp":26.1,"humidity":69,"rain":0.0,"pressure":1008.1,"uv_index":7.35,"wind_gusts":34.2,"aqi":174,"pm10":124.3,"pm2_5":116.2,"mosquito_risk":7,"arthritis_risk":0,"migraine_risk":4,"frizz_risk":1,"updated_at":"2026-03-09T10:24:31.773965+05:30"},{"city":"Bhagalpur","state":"Bihar","latitude":25.2425,"longitude":87.0117,"temp":27.1,"humidity":76,"rain":0.0,"pressure":1008.7,"uv_index":7.3,"wind_gusts":25.9,"aqi":162,"pm10":77.8,"pm2_5":69.6,"mosquito_risk":7,"arthritis_risk":0,"migraine_risk":4,"frizz_risk":1,"updated_at":"2026-03-09T10:24:31.773971+05:30"},{"city":"Ranchi","state":"Jharkhand","latitude":23.3441,"longitude":85.3096,"temp":27.9,"humidity":59,"rain":0.0,"pressure":943.8,"uv_index":8.1,"wind_gusts":33.5,"aqi":163,"pm10":86.4,"pm2_5":70.5,"mosquito_risk":4,"arthritis_risk":5,"migraine_risk":7,"frizz_risk":1,"updated_at":"2026-03-09T10:24:31.773978+05:30"},{"city":"Jamshedpur","state":"Jharkhand","latitude":22.8046,"longitude":86.2029,"temp":28.8,"humidity":68,"rain":0.0,"pressure":997.2,"uv_index":8.0,"wind_gusts":28.8,"aqi":157,"pm10":78.2,"pm2_5":67.1,"mosquito_risk":7,"arthritis_risk":5,"migraine_risk":7,"frizz_risk":1,"updated_at":"2026-03-09T10:24:31.773985+05:30"},{"city":"Dhanbad","state":"Jharkhand","latitude":23.7957,"longitude":86.4304,"temp":29.5,"humidity":60,"rain":0.0,"pressure":986.2,"uv_index":7.9,"wind_gusts":32.8,"aqi":168,"pm10":94.8,"pm2_5":85.4,"mosquito_risk":4,"arthritis_risk":5,"migraine_risk":7,"frizz_risk":1,"updated_at":"2026-03-09T10:24:31.773991+05:30"},{"city":"Bokaro","state":"Jharkhand","latitude":23.6693,"longitude":86.1511,"temp":29.3,"humidity":63,"rain":0.0,"pressure":990.2,"uv_index":7.9,"wind_gusts":35.6,"aqi":174,"pm10":97.1,"pm2_5":87.1,"mosquito_risk":7,"arthritis_risk":5,"migraine_risk":7,"frizz_risk":1,"updated_at":"2026-03-09T10:24:31.773998+05:30"},{"city":"Bhubaneswar","state":"Odisha","latitude":20.2961,"longitude":85.8245,"temp":30.0,"humidity":58,"rain":0.0,"pressure":1009.1,"uv_index":8.3,"wind_gusts":31.3,"aqi":97,"pm10":45.6,"pm2_5":34.5,"mosquito_risk":4,"arthritis_risk":0,"migraine_risk":4,"frizz_risk":1,"updated_at":"2026-03-09T10:24:31.774006+05:30"},{"city":"Cuttack","state":"Odisha","latitude":20.4625,"longitude":85.8828,"temp":30.2,"humidity":60,"rain":0.0,"pressure":1011.0,"uv_index":8.35,"wind_gusts":30.2,"aqi":97,"pm10":45.6,"pm2_5":34.5,"mosquito_risk":0,"arthritis_risk":0,"migraine_risk":4,"frizz_risk":1,"updated_at":"2026-03-09T10:24:31.774013+05:30"},{"city":"Rourkela","state":"Odisha","latitude":22.2604,"longitude":84.8536,"temp":30.2,"humidity":58,"rain":0.0,"pressure":991.2,"uv_index":7.9,"wind_gusts":22.7,"aqi":167,"pm10":79.9,"pm2_5":66.6,"mosquito_risk":0,"arthritis_risk":5,"migraine_risk":7,"frizz_risk":1,"updated_at":"2026-03-09T10:24:31.774019+05:30"},{"city":"Raipur","state":"Chhattisgarh","latitude":21.2514,"longitude":81.6296,"temp":31.3,"humidity":41,"rain":0.0,"pressure":980.6,"uv_index":8.0,"wind_gusts":24.8,"aqi":161,"pm10":80.1,"pm2_5":72.4,"mosquito_risk":0,"arthritis_risk":5,"migraine_risk":7,"frizz_risk":1,"updated_at":"2026-03-09T10:24:31.774025+05:30"},{"city":"Bhilai","state":"Chhattisgarh","latitude":21.1938,"longitude":81.3509,"temp":31.6,"humidity":37,"rain":0.0,"pressure":981.0,"uv_index":8.05,"wind_gusts":24.5,"aqi":155,"pm10":82.9,"pm2_5":71.2,"mosquito_risk":0,"arthritis_risk":5,"migraine_risk":7,"frizz_risk":0,"updated_at":"2026-03-09T10:24:31.774032+05:30"},{"city":"Guwahati","state":"Assam","latitude":26.1158,"longitude":91.7086,"temp":29.2,"humidity":59,"rain":0.0,"pressure":1009.3,"uv_index":7.3,"wind_gusts":11.5,"aqi":154,"pm10":75.4,"pm2_5":61.0,"mosquito_risk":4,"arthritis_risk":0,"migraine_risk":4,"frizz_risk":1,"updated_at":"2026-03-09T10:24:31.774038+05:30"},{"city":"Agartala","state":"Tripura","latitude":23.8315,"longitude":91.2868,"temp":29.0,"humidity":62,"rain":0.0,"pressure":1013.6,"uv_index":7.7,"wind_gusts":10.8,"aqi":160,"pm10":74.5,"pm2_5":60.1,"mosquito_risk":7,"arthritis_risk":0,"migraine_risk":4,"frizz_risk":1,"updated_at":"2026-03-09T10:24:31.774045+05:30"},{"city":"Shillong","state":"Meghalaya","latitude":25.5788,"longitude":91.8933,"temp":18.1,"humidity":56,"rain":0.0,"pressure":863.0,"uv_index":6.7,"wind_gusts":26.6,"aqi":137,"pm10":68.9,"pm2_5":56.3,"mosquito_risk":0,"arthritis_risk":5,"migraine_risk":7,"frizz_risk":0,"updated_at":"2026-03-09T10:24:31.774052+05:30"},{"city":"Imphal","state":"Manipur","latitude":24.817,"longitude":93.9368,"temp":23.6,"humidity":56,"rain":0.0,"pressure":930.0,"uv_index":7.95,"wind_gusts":27.0,"aqi":159,"pm10":68.2,"pm2_5":60.8,"mosquito_risk":0,"arthritis_risk":5,"migraine_risk":7,"frizz_risk":0,"updated_at":"2026-03-09T10:24:31.774058+05:30"},{"city":"Aizawl","state":"Mizoram","latitude":23.7271,"longitude":92.7176,"temp":23.6,"humidity":52,"rain":0.0,"pressure":899.6,"uv_index":6.9,"wind_gusts":27.4,"aqi":162,"pm10":89.6,"pm2_5":75.7,"mosquito_risk":0,"arthritis_risk":5,"migraine_risk":7,"frizz_risk":0,"updated_at":"2026-03-09T10:24:31.774065+05:30"},{"city":"Kohima","state":"Nagaland","latitude":25.6701,"longitude":94.1077,"temp":18.3,"humidity":76,"rain":0.0,"pressure":861.6,"uv_index":6.8,"wind_gusts":55.1,"aqi":155,"pm10":66.1,"pm2_5":57.6,"mosquito_risk":3,"arthritis_risk":5,"migraine_risk":7,"frizz_risk":0,"updated_at":"2026-03-09T10:24:31.774071+05:30"},{"city":"Gangtok","state":"Sikkim","latitude":27.3314,"longitude":88.6138,"temp":16.7,"humidity":77,"rain":0.0,"pressure":844.3,"uv_index":4.6,"wind_gusts":18.4,"aqi":152,"pm10":75.2,"pm2_5":53.9,"mosquito_risk":3,"arthritis_risk":5,"migraine_risk":3,"frizz_risk":0,"updated_at":"2026-03-09T10:24:31.774078+05:30"},{"city":"Siliguri","state":"West Bengal","latitude":26.7271,"longitude":88.3953,"temp":24.3,"humidity":58,"rain":0.0,"pressure":1002.4,"uv_index":7.35,"wind_gusts":18.4,"aqi":155,"pm10":77.1,"pm2_5":52.7,"mosquito_risk":0,"arthritis_risk":5,"migraine_risk":4,"frizz_risk":0,"updated_at":"2026-03-09T10:24:35.079341+05:30"},{"city":"Durgapur","state":"West Bengal","latitude":23.5204,"longitude":87.3119,"temp":29.7,"humidity":63,"rain":0.0,"pressure":1001.7,"uv_index":7.6,"wind_gusts":23.4,"aqi":160,"pm10":71.5,"pm2_5":63.8,"mosquito_risk":7,"arthritis_risk":5,"migraine_risk":4,"frizz_risk":1,"updated_at":"2026-03-09T10:24:35.079369+05:30"},{"city":"Asansol","state":"West Bengal","latitude":23.6739,"longitude":86.9524,"temp":29.6,"humidity":63,"rain":0.0,"pressure":1000.3,"uv_index":7.55,"wind_gusts":27.0,"aqi":160,"pm10":72.4,"pm2_5":64.5,"mosquito_risk":7,"arthritis_risk":5,"migraine_risk":4,"frizz_risk":1,"updated_at":"2026-03-09T10:24:35.079377+05:30"},{"city":"Pondicherry","state":"Puducherry","latitude":11.9139,"longitude":79.8145,"temp":29.6,"humidity":63,"rain":0.0,"pressure":1013.1,"uv_index":8.95,"wind_gusts":32.4,"aqi":71,"pm10":52.4,"pm2_5":37.7,"mosquito_risk":7,"arthritis_risk":0,"migraine_risk":4,"frizz_risk":1,"updated_at":"2026-03-09T10:24:35.079384+05:30"},{"city":"Port Blair","state":"Andaman and Nicobar Islands","latitude":11.6234,"longitude":92.7265,"temp":27.8,"humidity":76,"rain":0.0,"pressure":1011.0,"uv_index":8.9,"wind_gusts":27.4,"aqi":84,"pm10":31.0,"pm2_5":25.8,"mosquito_risk":7,"arthritis_risk":0,"migraine_risk":4,"frizz_risk":1,"updated_at":"2026-03-09T10:24:35.079391+05:30"},{"city":"Haridwar","state":"Uttarakhand","latitude":29.9457,"longitude":78.1642,"temp":27.7,"humidity":64,"rain":0.0,"pressure":979.1,"uv_index":5.8,"wind_gusts":25.6,"aqi":159,"pm10":99.4,"pm2_5":67.3,"mosquito_risk":7,"arthritis_risk":5,"migraine_risk":3,"frizz_risk":1,"updated_at":"2026-03-09T10:24:35.079398+05:30"},{"city":"Rishikesh","state":"Uttarakhand","latitude":30.0869,"longitude":78.2676,"temp":28.5,"humidity":56,"rain":0.0,"pressure":971.7,"uv_index":5.85,"wind_gusts":27.0,"aqi":155,"pm10":83.8,"pm2_5":59.4,"mosquito_risk":4,"arthritis_risk":5,"migraine_risk":3,"frizz_risk":1,"updated_at":"2026-03-09T10:24:35.079404+05:30"},{"city":"Nainital","state":"Uttarakhand","latitude":29.3919,"longitude":79.4542,"temp":21.2,"humidity":73,"rain":0.0,"pressure":811.3,"uv_index":6.7,"wind_gusts":55.8,"aqi":158,"pm10":104.5,"pm2_5":65.7,"mosquito_risk":3,"arthritis_risk":5,"migraine_risk":7,"frizz_risk":1,"updated_at":"2026-03-09T10:24:35.079410+05:30"},{"city":"Mussoorie","state":"Uttarakhand","latitude":30.4599,"longitude":78.0664,"temp":21.7,"humidity":43,"rain":0.0,"pressure":808.3,"uv_index":6.2,"wind_gusts":41.0,"aqi":152,"pm10":79.4,"pm2_5":53.3,"mosquito_risk":0,"arthritis_risk":5,"migraine_risk":7,"frizz_risk":0,"updated_at":"2026-03-09T10:24:35.079416+05:30"},{"city":"Dharamshala","state":"Himachal Pradesh","latitude":32.219,"longitude":76.3234,"temp":25.5,"humidity":32,"rain":0.0,"pressure":874.6,"uv_index":6.45,"wind_gusts":26.6,"aqi":54,"pm10":24.3,"pm2_5":8.4,"mosquito_risk":4,"arthritis_risk":5,"migraine_risk":7,"frizz_risk":0,"updated_at":"2026-03-09T10:24:35.079422+05:30"},{"city":"Dalhousie","state":"Himachal Pradesh","latitude":32.5387,"longitude":75.971,"temp":24.4,"humidity":20,"rain":0.0,"pressure":810.3,"uv_index":6.65,"wind_gusts":21.6,"aqi":81,"pm10":28.1,"pm2_5":17.4,"mosquito_risk":0,"arthritis_risk":5,"migraine_risk":7,"frizz_risk":0,"updated_at":"2026-03-09T10:24:35.079428+05:30"},{"city":"Patiala","state":"Punjab","latitude":30.3398,"longitude":76.3869,"temp":27.4,"humidity":63,"rain":0.0,"pressure":983.1,"uv_index":5.4,"wind_gusts":25.6,"aqi":165,"pm10":264.5,"pm2_5":79.6,"mosquito_risk":7,"arthritis_risk":5,"migraine_risk":3,"frizz_risk":1,"updated_at":"2026-03-09T10:24:35.079434+05:30"},{"city":"Bhatinda","state":"Punjab","latitude":30.211,"longitude":74.9455,"temp":28.4,"humidity":66,"rain":0.0,"pressure":989.0,"uv_index":6.05,"wind_gusts":21.6,"aqi":153,"pm10":119.2,"pm2_5":96.6,"mosquito_risk":7,"arthritis_risk":5,"migraine_risk":7,"frizz_risk":1,"updated_at":"2026-03-09T10:24:35.079440+05:30"},{"city":"Rohtak","state":"Haryana","latitude":28.8955,"longitude":76.6066,"temp":27.4,"humidity":66,"rain":0.0,"pressure":987.2,"uv_index":6.05,"wind_gusts":28.4,"aqi":173,"pm10":227.2,"pm2_5":73.1,"mosquito_risk":7,"arthritis_risk":5,"migraine_risk":7,"frizz_risk":1,"updated_at":"2026-03-09T10:24:35.079446+05:30"},{"city":"Panipat","state":"Haryana","latitude":29.3909,"longitude":76.9635,"temp":28.2,"humidity":63,"rain":0.0,"pressure":985.5,"uv_index":5.75,"wind_gusts":28.8,"aqi":510,"pm10":555.1,"pm2_5":110.6,"mosquito_risk":7,"arthritis_risk":5,"migraine_risk":3,"frizz_risk":1,"updated_at":"2026-03-09T10:24:35.079452+05:30"},{"city":"Mathura","state":"Uttar Pradesh","latitude":27.4924,"longitude":77.6737,"temp":30.7,"humidity":49,"rain":0.0,"pressure":992.4,"uv_index":6.3,"wind_gusts":24.1,"aqi":188,"pm10":288.7,"pm2_5":75.9,"mosquito_risk":0,"arthritis_risk":5,"migraine_risk":7,"frizz_risk":1,"updated_at":"2026-03-09T10:24:35.079457+05:30"},{"city":"Vrindavan","state":"Uttar Pradesh","latitude":27.5823,"longitude":77.7027,"temp":30.2,"humidity":51,"rain":0.0,"pressure":992.9,"uv_index":6.25,"wind_gusts":26.3,"aqi":188,"pm10":288.7,"pm2_5":75.9,"mosquito_risk":0,"arthritis_risk":5,"migraine_risk":7,"frizz_risk":1,"updated_at":"2026-03-09T10:24:35.079463+05:30"},{"city":"Ayodhya","state":"Uttar Pradesh","latitude":26.7922,"longitude":82.1998,"temp":27.2,"humidity":72,"rain":0.0,"pressure":1002.1,"uv_index":6.7,"wind_gusts":17.3,"aqi":190,"pm10":152.3,"pm2_5":138.8,"mosquito_risk":7,"arthritis_risk":5,"migraine_risk":4,"frizz_risk":1,"updated_at":"2026-03-09T10:24:35.079468+05:30"},{"city":"Ratlam","state":"Madhya Pradesh","latitude":23.3315,"longitude":75.0367,"temp":29.7,"humidity":42,"rain":0.0,"pressure":960.3,"uv_index":7.5,"wind_gusts":11.9,"aqi":81,"pm10":28.9,"pm2_5":28.7,"mosquito_risk":4,"arthritis_risk":5,"migraine_risk":7,"frizz_risk":0,"updated_at":"2026-03-09T10:24:35.079474+05:30"},{"city":"Sagar","state":"Madhya Pradesh","latitude":23.8388,"longitude":78.7378,"temp":30.9,"humidity":36,"rain":0.0,"pressure":956.5,"uv_index":7.5,"wind_gusts":16.9,"aqi":69,"pm10":34.5,"pm2_5":17.7,"mosquito_risk":0,"arthritis_risk":5,"migraine_risk":7,"frizz_risk":0,"updated_at":"2026-03-09T10:24:35.079480+05:30"},{"city":"Satna","state":"Madhya Pradesh","latitude":24.6005,"longitude":80.8322,"temp":30.5,"humidity":46,"rain":0.0,"pressure":977.6,"uv_index":7.45,"wind_gusts":24.1,"aqi":151,"pm10":85.4,"pm2_5":53.1,"mosquito_risk":0,"arthritis_risk":5,"migraine_risk":7,"frizz_risk":1,"updated_at":"2026-03-09T10:24:35.079485+05:30"},{"city":"Akola","state":"Maharashtra","latitude":20.7002,"longitude":77.0082,"temp":32.0,"humidity":28,"rain":0.0,"pressure":981.1,"uv_index":7.95,"wind_gusts":19.1,"aqi":69,"pm10":27.4,"pm2_5":19.1,"mosquito_risk":0,"arthritis_risk":5,"migraine_risk":7,"frizz_risk":0,"updated_at":"2026-03-09T10:24:35.079491+05:30"},{"city":"Amravati","state":"Maharashtra","latitude":20.9374,"longitude":77.7796,"temp":33.1,"humidity":28,"rain":0.0,"pressure":973.3,"uv_index":7.9,"wind_gusts":26.6,"aqi":63,"pm10":30.7,"pm2_5":20.4,"mosquito_risk":0,"arthritis_risk":5,"migraine_risk":7,"frizz_risk":0,"updated_at":"2026-03-09T10:24:35.079497+05:30"},{"city":"Latur","state":"Maharashtra","latitude":18.4088,"longitude":76.5604,"temp":31.1,"humidity":28,"rain":0.0,"pressure":945.0,"uv_index":8.4,"wind_gusts":29.5,"aqi":97,"pm10":28.1,"pm2_5":23.6,"mosquito_risk":0,"arthritis_risk":5,"migraine_risk":7,"frizz_risk":0,"updated_at":"2026-03-09T10:24:35.079520+05:30"},{"city":"Nanded","state":"Maharashtra","latitude":19.1383,"longitude":77.3091,"temp":33.4,"humidity":23,"rain":0.0,"pressure":974.1,"uv_index":8.15,"wind_gusts":29.9,"aqi":78,"pm10":32.9,"pm2_5":24.3,"mosquito_risk":0,"arthritis_risk":5,"migraine_risk":7,"frizz_risk":0,"updated_at":"2026-03-09T10:24:35.079526+05:30"},{"city":"Gulbarga","state":"Karnataka","latitude":17.3297,"longitude":76.8343,"temp":32.7,"humidity":28,"rain":0.0,"pressure":963.5,"uv_index":8.5,"wind_gusts":32.0,"aqi":83,"pm10":39.2,"pm2_5":32.8,"mosquito_risk":0,"arthritis_risk":5,"migraine_risk":7,"frizz_risk":0,"updated_at":"2026-03-09T10:24:35.079531+05:30"},{"city":"Bidar","state":"Karnataka","latitude":17.9104,"longitude":77.5199,"temp":31.0,"humidity":31,"rain":0.0,"pressure":940.7,"uv_index":8.45,"wind_gusts":31.7,"aqi":102,"pm10":30.3,"pm2_5":24.9,"mosquito_risk":0,"arthritis_risk":5,"migraine_risk":7,"frizz_risk":0,"updated_at":"2026-03-09T10:24:35.079537+05:30"},{"city":"Hospet","state":"Karnataka","latitude":15.2689,"longitude":76.3909,"temp":28.8,"humidity":52,"rain":0.0,"pressure":960.0,"uv_index":8.8,"wind_gusts":36.7,"aqi":89,"pm10":39.7,"pm2_5":33.3,"mosquito_risk":4,"arthritis_risk":5,"migraine_risk":7,"frizz_risk":1,"updated_at":"2026-03-09T10:24:35.079543+05:30"},{"city":"Tirupur","state":"Tamil Nadu","latitude":11.1085,"longitude":77.3411,"temp":29.0,"humidity":57,"rain":0.0,"pressure":979.3,"uv_index":9.25,"wind_gusts":39.2,"aqi":101,"pm10":30.5,"pm2_5":19.0,"mosquito_risk":4,"arthritis_risk":5,"migraine_risk":7,"frizz_risk":1,"updated_at":"2026-03-09T10:24:35.079548+05:30"},{"city":"Alappuzha","state":"Kerala","latitude":9.4981,"longitude":76.3388,"temp":26.8,"humidity":81,"rain":0.0,"pressure":1011.5,"uv_index":8.95,"wind_gusts":25.6,"aqi":130,"pm10":44.9,"pm2_5":42.0,"mosquito_risk":7,"arthritis_risk":0,"migraine_risk":4,"frizz_risk":1,"updated_at":"2026-03-09T10:24:35.079554+05:30"},{"city":"Munnar","state":"Kerala","latitude":10.0889,"longitude":77.0595,"temp":26.1,"humidity":53,"rain":0.0,"pressure":860.3,"uv_index":9.55,"wind_gusts":19.1,"aqi":104,"pm10":40.0,"pm2_5":24.3,"mosquito_risk":4,"arthritis_risk":5,"migraine_risk":7,"frizz_risk":0,"updated_at":"2026-03-09T10:24:35.079561+05:30"},{"city":"Silchar","state":"Assam","latitude":24.8333,"longitude":92.7789,"temp":27.8,"humidity":68,"rain":0.0,"pressure":1012.5,"uv_index":7.65,"wind_gusts":12.6,"aqi":166,"pm10":94.3,"pm2_5":80.1,"mosquito_risk":7,"arthritis_risk":0,"migraine_risk":4,"frizz_risk":1,"updated_at":"2026-03-09T10:24:35.079567+05:30"},{"city":"Dibrugarh","state":"Assam","latitude":27.4728,"longitude":94.912,"temp":27.7,"humidity":62,"rain":0.0,"pressure":1002.8,"uv_index":7.4,"wind_gusts":14.0,"aqi":159,"pm10":100.6,"pm2_5":81.5,"mosquito_risk":7,"arthritis_risk":5,"migraine_risk":4,"frizz_risk":1,"updated_at":"2026-03-09T10:24:35.079573+05:30"}]