[{"city":"Delhi","state":"Delhi","latitude":28.6139,"longitude":77.209,"temp":28.4,"humidity":56,"rain":0.0,"pressure":981.6,"uv_index":7.05,"wind_gusts":25.6,"aqi":186,"pm10":278.5,"pm2_5":74.7,"mosquito_risk":4,"arthritis_risk":5,"migraine_risk":7,"frizz_risk":1,"updated_at":"2026-04-19T08:27:31.708827+05:30"},{"city":"Mumbai","state":"Maharashtra","latitude":19.076,"longitude":72.8777,"temp":29.3,"humidity":78,"rain":0.0,"pressure":1008.1,"uv_index":7.45,"wind_gusts":25.6,"aqi":88,"pm10":56.5,"pm2_5":28.8,"mosquito_risk":7,"arthritis_risk":0,"migraine_risk":4,"frizz_risk":1,"updated_at":"2026-04-19T08:27:31.708874+05:30"},{"city":"Bangalore","state":"Karnataka","latitude":12.9716,"longitude":77.5946,"temp":25.7,"humidity":63,"rain":0.0,"pressure":913.0,"uv_index":9.6,"wind_gusts":27.0,"aqi":89,"pm10":40.6,"pm2_5":36.6,"mosquito_risk":7,"arthritis_risk":5,"migraine_risk":7,"frizz_risk":1,"updated_at":"2026-04-19T08:27:31.708887+05:30"},{"city":"Hyderabad","state":"Telangana","latitude":17.385,"longitude":78.4867,"temp":29.9,"humidity":60,"rain":0.0,"pressure":955.1,"uv_index":9.25,"wind_gusts":55.4,"aqi":103,"pm10":43.0,"pm2_5":36.0,"mosquito_risk":4,"arthritis_risk":5,"migraine_risk":7,"frizz_risk":1,"updated_at":"2026-04-19T08:27:31.708897+05:30"},{"city":"Chennai","state":"Tamil Nadu","latitude":13.0827,"longitude":80.2707,"temp":29.9,"humidity":73,"rain":0.0,"pressure":1008.2,"uv_index":9.3,"wind_gusts":34.2,"aqi":37,"pm10":14.0,"pm2_5":9.5,"mosquito_risk":7,"arthritis_risk":0,"migraine_risk":4,"frizz_risk":1,"updated_at":"2026-04-19T08:27:31.708905+05:30"},{"city":"Kolkata","state":"West Bengal","latitude":22.5726,"longitude":88.3639,"temp":29.7,"humidity":82,"rain":0.0,"pressure":1006.1,"uv_index":8.9,"wind_gusts":30.6,"aqi":84,"pm10":31.2,"pm2_5":24.4,"mosquito_risk":7,"arthritis_risk":5,"migraine_risk":4,"frizz_risk":1,"updated_at":"2026-04-19T08:27:31.708915+05:30"},{"city":"Pune","state":"Maharashtra","latitude":18.5204,"longitude":73.8567,"temp":29.7,"humidity":63,"rain":0.0,"pressure":949.2,"uv_index":8.6,"wind_gusts":37.4,"aqi":96,"pm10":39.6,"pm2_5":32.9,"mosquito_risk":7,"arthritis_risk":5,"migraine_risk":7,"frizz_risk":1,"updated_at":"2026-04-19T08:27:31.708921+05:30"},{"city":"Ahmedabad","state":"Gujarat","latitude":23.0225,"longitude":72.5714,"temp":27.2,"humidity":57,"rain":0.0,"pressure":1002.3,"uv_index":7.75,"wind_gusts":23.4,"aqi":62,"pm10":20.4,"pm2_5":13.5,"mosquito_risk":4,"arthritis_risk":5,"migraine_risk":4,"frizz_risk":1,"updated_at":"2026-04-19T08:27:31.708928+05:30"},{"city":"Jaipur","state":"Rajasthan","latitude":26.9124,"longitude":75.7873,"temp":30.3,"humidity":27,"rain":0.0,"pressure":959.4,"uv_index":7.9,"wind_gusts":41.4,"aqi":153,"pm10":283.1,"pm2_5":40.0,"mosquito_risk":0,"arthritis_risk":5,"migraine_risk":7,"frizz_risk":0,"updated_at":"2026-04-19T08:27:31.708937+05:30"},{"city":"Lucknow","state":"Uttar Pradesh","latitude":26.8467,"longitude":80.9462,"temp":29.3,"humidity":54,"rain":0.0,"pressure":992.3,"uv_index":7.85,"wind_gusts":29.9,"aqi":111,"pm10":106.4,"pm2_5":44.2,"mosquito_risk":4,"arthritis_risk":5,"migraine_risk":7,"frizz_risk":1,"updated_at":"2026-04-19T08:27:31.708944+05:30"},{"city":"Kanpur","state":"Uttar Pradesh","latitude":26.4499,"longitude":80.3319,"temp":27.5,"humidity":69,"rain":0.0,"pressure":990.4,"uv_index":7.9,"wind_gusts":23.4,"aqi":171,"pm10":305.5,"pm2_5":66.8,"mosquito_risk":7,"arthritis_risk":5,"migraine_risk":7,"frizz_risk":1,"updated_at":"2026-04-19T08:27:31.708950+05:30"},{"city":"Chandigarh","state":"Chandigarh","latitude":30.7333,"longitude":76.7794,"temp":25.5,"humidity":63,"rain":0.0,"pressure":967.2,"uv_index":6.15,"wind_gusts":39.2,"aqi":66,"pm10":32.1,"pm2_5":24.2,"mosquito_risk":7,"arthritis_risk":5,"migraine_risk":7,"frizz_risk":1,"updated_at":"2026-04-19T08:27:31.708956+05:30"},{"city":"Srinagar","state":"Jammu and Kashmir","latitude":34.0837,"longitude":74.7973,"temp":12.5,"humidity":83,"rain":0.0,"pressure":843.9,"uv_index":7.55,"wind_gusts":23.0,"aqi":68,"pm10":36.6,"pm2_5":23.9,"mosquito_risk":3,"arthritis_risk":10,"migraine_risk":7,"frizz_risk":0,"updated_at":"2026-04-19T08:27:31.708962+05:30"},{"city":"Jammu","state":"Jammu and Kashmir","latitude":32.7266,"longitude":74.857,"temp":25.5,"humidity":50,"rain":0.0,"pressure":972.4,"uv_index":5.75,"wind_gusts":32.8,"aqi":63,"pm10":16.0,"pm2_5":12.9,"mosquito_risk":4,"arthritis_risk":5,"migraine_risk":3,"frizz_risk":0,"updated_at":"2026-04-19T08:27:31.708968+05:30"},{"city":"Amritsar","state":"Punjab","latitude":31.634,"longitude":74.8723,"temp":24.8,"humidity":53,"rain":0.0,"pressure":980.5,"uv_index":7.35,"wind_gusts":28.8,"aqi":63,"pm10":31.9,"pm2_5":22.1,"mosquito_risk":0,"arthritis_risk":5,"migraine_risk":7,"frizz_risk":0,"updated_at":"2026-04-19T08:27:31.708974+05:30"},{"city":"Ludhiana","state":"Punjab","latitude":30.901,"longitude":75.8573,"temp":25.6,"humidity":53,"rain":0.0,"pressure":978.1,"uv_index":7.4,"wind_gusts":36.0,"aqi":87,"pm10":37.6,"pm2_5":28.5,"mosquito_risk":4,"arthritis_risk":5,"migraine_risk":7,"frizz_risk":0,"updated_at":"2026-04-19T08:27:31.708981+05:30"},{"city":"Jalandhar","state":"Punjab","latitude":31.326,"longitude":75.5762,"temp":24.9,"humidity":51,"rain":0.0,"pressure":979.4,"uv_index":6.4,"wind_gusts":29.9,"aqi":72,"pm10":46.4,"pm2_5":29.9,"mosquito_risk":0,"arthritis_risk":5,"migraine_risk":7,"frizz_risk":0,"updated_at":"2026-04-19T08:27:31.708987+05:30"},{"city":"Dehradun","state":"Uttarakhand","latitude":30.6284,"longitude":78.0322,"temp":20.3,"humidity":37,"rain":0.0,"pressure":832.0,"uv_index":6.9,"wind_gusts":40.7,"aqi":33,"pm10":7.7,"pm2_5":5.2,"mosquito_risk":0,"arthritis_risk":5,"migraine_risk":7,"frizz_risk":0,"updated_at":"2026-04-19T08:27:31.708992+05:30"},{"city":"Shimla","state":"Himachal Pradesh","latitude":31.1048,"longitude":77.1734,"temp":19.2,"humidity":48,"rain":0.0,"pressure":787.1,"uv_index":6.75,"wind_gusts":46.4,"aqi":50,"pm10":18.4,"pm2_5":12.5,"mosquito_risk":0,"arthritis_risk":5,"migraine_risk":7,"frizz_risk":0,"updated_at":"2026-04-19T08:27:31.708998+05:30"},{"city":"Manali","state":"Himachal Pradesh","latitude":32.2396,"longitude":77.1887,"temp":20.1,"humidity":29,"rain":0.0,"pressure":823.5,"uv_index":6.7,"wind_gusts":41.4,"aqi":41,"pm10":5.7,"pm2_5":2.9,"mosquito_risk":0,"arthritis_risk":5,"migraine_risk":7,"frizz_risk":0,"updated_at":"2026-04-19T08:27:31.709004+05:30"},{"city":"Gurgaon","state":"Haryana","latitude":28.4595,"longitude":77.0266,"temp":26.5,"humidity":68,"rain":0.0,"pressure":980.0,"uv_index":7.15,"wind_gusts":27.7,"aqi":420,"pm10":869.9,"pm2_5":133.6,"mosquito_risk":7,"arthritis_risk":5,"migraine_risk":7,"frizz_risk":1,"updated_at":"2026-04-19T08:27:31.709025+05:30"},{"city":"Noida","state":"Uttar Pradesh","latitude":28.5355,"longitude":77.391,"temp":29.1,"humidity":53,"rain":0.0,"pressure":983.2,"uv_index":7.0,"wind_gusts":22.3,"aqi":420,"pm10":869.9,"pm2_5":133.6,"mosquito_risk":4,"arthritis_risk":5,"migraine_risk":7,"frizz_risk":1,"updated_at":"2026-04-19T08:27:31.709031+05:30"},{"city":"Ghaziabad","state":"Uttar Pradesh","latitude":28.6692,"longitude":77.4538,"temp":27.8,"humidity":59,"rain":0.0,"pressure":981.3,"uv_index":6.9,"wind_gusts":24.5,"aqi":163,"pm10":203.5,"pm2_5":63.8,"mosquito_risk":4,"arthritis_risk":5,"migraine_risk":7,"frizz_risk":1,"updated_at":"2026-04-19T08:27:31.709036+05:30"},{"city":"Faridabad","state":"Haryana","latitude":28.4089,"longitude":77.3178,"temp":28.8,"humidity":54,"rain":0.0,"pressure":982.3,"uv_index":7.2,"wind_gusts":21.2,"aqi":420,"pm10":869.9,"pm2_5":133.6,"mosquito_risk":4,"arthritis_risk":5,"migraine_risk":7,"frizz_risk":1,"updated_at":"2026-04-19T08:27:31.709041+05:30"},{"city":"Meerut","state":"Uttar Pradesh","latitude":28.9845,"longitude":77.7064,"temp":27.3,"humidity":61,"rain":0.0,"pressure":979.8,"uv_index":6.55,"wind_gusts":29.5,"aqi":163,"pm10":203.5,"pm2_5":63.8,"mosquito_risk":7,"arthritis_risk":5,"migraine_risk":7,"frizz_risk":1,"updated_at":"2026-04-19T08:27:31.709046+05:30"},{"city":"Agra","state":"Uttar Pradesh","latitude":27.1767,"longitude":78.0081,"temp":28.2,"humidity":63,"rain":0.0,"pressure":986.2,"uv_index":7.6,"wind_gusts":26.3,"aqi":366,"pm10":360.4,"pm2_5":106.9,"mosquito_risk":7,"arthritis_risk":5,"migraine_risk":7,"frizz_risk":1,"updated_at":"2026-04-19T08:27:31.709053+05:30"},{"city":"Varanasi","state":"Uttar Pradesh","latitude":25.3176,"longitude":82.9739,"temp":30.8,"humidity":49,"rain":0.0,"pressure":996.3,"uv_index":8.45,"wind_gusts":28.4,"aqi":102,"pm10":75.7,"pm2_5":38.3,"mosquito_risk":0,"arthritis_risk":5,"migraine_risk":7,"frizz_risk":1,"updated_at":"2026-04-19T08:27:31.709058+05:30"},{"city":"Prayagraj","state":"Uttar Pradesh","latitude":25.4358,"longitude":81.8463,"temp":30.4,"humidity":54,"rain":0.0,"pressure":994.8,"uv_index":8.35,"wind_gusts":27.0,"aqi":95,"pm10":130.9,"pm2_5":46.6,"mosquito_risk":0,"arthritis_risk":5,"migraine_risk":7,"frizz_risk":1,"updated_at":"2026-04-19T08:27:31.709063+05:30"},{"city":"Gorakhpur","state":"Uttar Pradesh","latitude":26.7606,"longitude":83.3732,"temp":28.8,"humidity":76,"rain":0.0,"pressure":996.0,"uv_index":8.3,"wind_gusts":27.0,"aqi":113,"pm10":69.2,"pm2_5":64.7,"mosquito_risk":7,"arthritis_risk":5,"migraine_risk":7,"frizz_risk":1,"updated_at":"2026-04-19T08:27:31.709070+05:30"},{"city":"Bareilly","state":"Uttar Pradesh","latitude":28.367,"longitude":79.4304,"temp":28.3,"humidity":59,"rain":0.0,"pressure":985.0,"uv_index":7.4,"wind_gusts":27.4,"aqi":83,"pm10":69.6,"pm2_5":31.3,"mosquito_risk":4,"arthritis_risk":5,"migraine_risk":7,"frizz_risk":1,"updated_at":"2026-04-19T08:27:31.709075+05:30"},{"city":"Aligarh","state":"Uttar Pradesh","latitude":27.8974,"longitude":78.088,"temp":29.4,"humidity":48,"rain":0.0,"pressure":984.2,"uv_index":7.55,"wind_gusts":30.2,"aqi":253,"pm10":350.2,"pm2_5":86.8,"mosquito_risk":4,"arthritis_risk":5,"migraine_risk":7,"frizz_risk":1,"updated_at":"2026-04-19T08:27:31.709079+05:30"},{"city":"Moradabad","state":"Uttar Pradesh","latitude":28.8386,"longitude":78.7733,"temp":26.7,"humidity":65,"rain":0.0,"pressure":981.7,"uv_index":7.25,"wind_gusts":31.3,"aqi":105,"pm10":70.3,"pm2_5":38.9,"mosquito_risk":7,"arthritis_risk":5,"migraine_risk":7,"frizz_risk":1,"updated_at":"2026-04-19T08:27:31.709084+05:30"},{"city":"Saharanpur","state":"Uttar Pradesh","latitude":29.9637,"longitude":77.546,"temp":26.0,"humidity":56,"rain":0.0,"pressure":974.1,"uv_index":6.35,"wind_gusts":44.6,"aqi":97,"pm10":57.6,"pm2_5":47.5,"mosquito_risk":4,"arthritis_risk":5,"migraine_risk":7,"frizz_risk":1,"updated_at":"2026-04-19T08:27:31.709089+05:30"},{"city":"Jhansi","state":"Uttar Pradesh","latitude":25.4484,"longitude":78.5685,"temp":30.5,"humidity":49,"rain":0.0,"pressure":977.0,"uv_index":8.25,"wind_gusts":29.2,"aqi":72,"pm10":27.2,"pm2_5":15.2,"mosquito_risk":0,"arthritis_risk":5,"migraine_risk":7,"frizz_risk":1,"updated_at":"2026-04-19T08:27:35.047045+05:30"},{"city":"Surat","state":"Gujarat","latitude":21.1702,"longitude":72.8311,"temp":29.0,"humidity":65,"rain":0.0,"pressure":1006.7,"uv_index":7.85,"wind_gusts":25.6,"aqi":103,"pm10":44.8,"pm2_5":35.2,"mosquito_risk":7,"arthritis_risk":5,"migraine_risk":4,"frizz_risk":1,"updated_at":"2026-04-19T08:27:35.047077+05:30"},{"city":"Vadodara","state":"Gujarat","latitude":22.3072,"longitude":73.1812,"temp":28.6,"humidity":43,"rain":0.0,"pressure":1004.6,"uv_index":8.15,"wind_gusts":28.1,"aqi":77,"pm10":22.3,"pm2_5":16.4,"mosquito_risk":4,"arthritis_risk":5,"migraine_risk":4,"frizz_risk":0,"updated_at":"2026-04-19T08:27:35.047086+05:30"},{"city":"Rajkot","state":"Gujarat","latitude":22.3039,"longitude":70.8022,"temp":24.3,"humidity":84,"rain":0.0,"pressure":994.8,"uv_index":7.15,"wind_gusts":30.2,"aqi":55,"pm10":47.5,"pm2_5":18.0,"mosquito_risk":3,"arthritis_risk":5,"migraine_risk":7,"frizz_risk":1,"updated_at":"2026-04-19T08:27:35.047092+05:30"},{"city":"Thane","state":"Maharashtra","latitude":19.2183,"longitude":72.9781,"temp":28.6,"humidity":77,"rain":0.0,"pressure":1007.6,"uv_index":7.3,"wind_gusts":38.2,"aqi":88,"pm10":56.5,"pm2_5":28.8,"mosquito_risk":7,"arthritis_risk":5,"migraine_risk":4,"frizz_risk":1,"updated_at":"2026-04-19T08:27:35.047098+05:30"},{"city":"Nagpur","state":"Maharashtra","latitude":21.1458,"longitude":79.0882,"temp":31.1,"humidity":57,"rain":0.0,"pressure":972.8,"uv_index":8.8,"wind_gusts":23.4,"aqi":91,"pm10":38.9,"pm2_5":36.9,"mosquito_risk":0,"arthritis_risk":5,"migraine_risk":7,"frizz_risk":1,"updated_at":"2026-04-19T08:27:35.047103+05:30"},{"city":"Nashik","state":"Maharashtra","latitude":19.9975,"longitude":73.7898,"temp":27.9,"humidity":50,"rain":0.0,"pressure":946.1,"uv_index":6.35,"wind_gusts":29.9,"aqi":73,"pm10":43.2,"pm2_5":27.1,"mosquito_risk":4,"arthritis_risk":5,"migraine_risk":7,"frizz_risk":1,"updated_at":"2026-04-19T08:27:35.047109+05:30"},{"city":"Aurangabad","state":"Maharashtra","latitude":19.8762,"longitude":75.3433,"temp":29.4,"humidity":42,"rain":0.0,"pressure":945.0,"uv_index":8.85,"wind_gusts":28.4,"aqi":61,"pm10":30.2,"pm2_5":23.7,"mosquito_risk":4,"arthritis_risk":5,"migraine_risk":7,"frizz_risk":0,"updated_at":"2026-04-19T08:27:35.047114+05:30"},{"city":"Solapur","state":"Maharashtra","latitude":17.6599,"longitude":75.9064,"temp":30.0,"humidity":55,"rain":0.0,"pressure":957.5,"uv_index":8.95,"wind_gusts":34.2,"aqi":129,"pm10":50.5,"pm2_5":47.5,"mosquito_risk":4,"arthritis_risk":5,"migraine_risk":7,"frizz_risk":1,"updated_at":"2026-04-19T08:27:35.047120+05:30"},{"city":"Kolhapur","state":"Maharashtra","latitude":16.705,"longitude":74.2433,"temp":26.7,"humidity":86,"rain":0.0,"pressure":948.2,"uv_index":9.05,"wind_gusts":37.8,"aqi":99,"pm10":63.3,"pm2_5":51.6,"mosquito_risk":7,"arthritis_risk":5,"migraine_risk":7,"frizz_risk":1,"updated_at":"2026-04-19T08:27:35.047126+05:30"},{"city":"Goa","state":"Goa","latitude":15.2993,"longitude":74.124,"temp":29.3,"humidity":76,"rain":0.0,"pressure":998.1,"uv_index":9.0,"wind_gusts":29.9,"aqi":84,"pm10":61.2,"pm2_5":29.5,"mosquito_risk":7,"arthritis_risk":5,"migraine_risk":7,"frizz_risk":1,"updated_at":"2026-04-19T08:27:35.047131+05:30"},{"city":"Jodhpur","state":"Rajasthan","latitude":26.2389,"longitude":73.0243,"temp":28.2,"humidity":40,"rain":0.0,"pressure":982.9,"uv_index":8.15,"wind_gusts":27.4,"aqi":108,"pm10":209.1,"pm2_5":55.5,"mosquito_risk":4,"arthritis_risk":5,"migraine_risk":7,"frizz_risk":0,"updated_at":"2026-04-19T08:27:35.047137+05:30"},{"city":"Udaipur","state":"Rajasthan","latitude":24.5854,"longitude":73.7125,"temp":27.5,"humidity":39,"rain":0.0,"pressure":946.9,"uv_index":8.4,"wind_gusts":36.0,"aqi":41,"pm10":15.0,"pm2_5":8.7,"mosquito_risk":4,"arthritis_risk":5,"migraine_risk":7,"frizz_risk":0,"updated_at":"2026-04-19T08:27:35.047143+05:30"},{"city":"Kota","state":"Rajasthan","latitude":25.2138,"longitude":75.8648,"temp":30.7,"humidity":35,"rain":0.0,"pressure":978.6,"uv_index":8.25,"wind_gusts":36.7,"aqi":82,"pm10":18.5,"pm2_5":9.3,"mosquito_risk":0,"arthritis_risk":5,"migraine_risk":7,"frizz_risk":0,"updated_at":"2026-04-19T08:27:35.047149+05:30"},{"city":"Bikaner","state":"Rajasthan","latitude":28.0229,"longitude":73.3119,"temp":27.9,"humidity":49,"rain":0.0,"pressure":981.2,"uv_index":8.0,"wind_gusts":26.6,"aqi":82,"pm10":61.5,"pm2_5":26.8,"mosquito_risk":4,"arthritis_risk":5,"migraine_risk":7,"frizz_risk":1,"updated_at":"2026-04-19T08:27:35.047153+05:30"},{"city":"Ajmer","state":"Rajasthan","latitude":26.4499,"longitude":74.6399,"temp":26.5,"humidity":42,"rain":0.0,"pressure":954.5,"uv_index":7.65,"wind_gusts":31.7,"aqi":59,"pm10":78.7,"pm2_5":17.1,"mosquito_risk":4,"arthritis_risk":5,"migraine_risk":7,"frizz_risk":0,"updated_at":"2026-04-19T08:27:35.047158+05:30"},{"city":"Gwalior","state":"Madhya Pradesh","latitude":26.2183,"longitude":78.1828,"temp":32.3,"humidity":42,"rain":0.0,"pressure":982.3,"uv_index":7.65,"wind_gusts":38.9,"aqi":88,"pm10":83.1,"pm2_5":31.8,"mosquito_risk":0,"arthritis_risk":5,"migraine_risk":7,"frizz_risk":1,"updated_at":"2026-04-19T08:27:35.047163+05:30"},{"city":"Indore","state":"Madhya Pradesh","latitude":22.7196,"longitude":75.8577,"temp":28.2,"humidity":44,"rain":0.0,"pressure":948.5,"uv_index":8.6,"wind_gusts":31.0,"aqi":52,"pm10":11.0,"pm2_5":9.7,"mosquito_risk":4,"arthritis_risk":5,"migraine_risk":7,"frizz_risk":0,"updated_at":"2026-04-19T08:27:35.047168+05:30"},{"city":"Bhopal","state":"Madhya Pradesh","latitude":23.2599,"longitude":77.4126,"temp":28.8,"humidity":43,"rain":0.0,"pressure":954.4,"uv_index":8.6,"wind_gusts":31.0,"aqi":57,"pm10":17.5,"pm2_5":13.0,"mosquito_risk":4,"arthritis_risk":5,"migraine_risk":7,"frizz_risk":0,"updated_at":"2026-04-19T08:27:35.047173+05:30"},{"city":"Jabalpur","state":"Madhya Pradesh","latitude":23.1815,"longitude":79.9864,"temp":29.8,"humidity":43,"rain":0.0,"pressure":961.3,"uv_index":8.75,"wind_gusts":23.8,"aqi":72,"pm10":21.9,"pm2_5":20.5,"mosquito_risk":4,"arthritis_risk":5,"migraine_risk":7,"frizz_risk":0,"updated_at":"2026-04-19T08:27:35.047178+05:30"},{"city":"Ujjain","state":"Madhya Pradesh","latitude":23.1765,"longitude":75.7885,"temp":28.1,"humidity":46,"rain":0.0,"pressure":954.1,"uv_index":8.5,"wind_gusts":34.2,"aqi":51,"pm10":15.0,"pm2_5":13.4,"mosquito_risk":4,"arthritis_risk":5,"migraine_risk":7,"frizz_risk":0,"updated_at":"2026-04-19T08:27:35.047183+05:30"},{"city":"Visakhapatnam","state":"Andhra Pradesh","latitude":17.6868,"longitude":83.2185,"temp":29.6,"humidity":76,"rain":0.0,"pressure":1004.4,"uv_index":9.15,"wind_gusts":40.0,"aqi":64,"pm10":26.7,"pm2_5":19.0,"mosquito_risk":7,"arthritis_risk":5,"migraine_risk":4,"frizz_risk":1,"updated_at":"2026-04-19T08:27:35.047188+05:30"},{"city":"Vijayawada","state":"Andhra Pradesh","latitude":16.5062,"longitude":80.648,"temp":29.5,"humidity":77,"rain":0.0,"pressure":1003.5,"uv_index":9.2,"wind_gusts":27.7,"aqi":59,"pm10":16.5,"pm2_5":11.0,"mosquito_risk":7,"arthritis_risk":5,"migraine_risk":4,"frizz_risk":1,"updated_at":"2026-04-19T08:27:35.047193+05:30"},{"city":"Guntur","state":"Andhra Pradesh","latitude":16.3067,"longitude":80.4365,"temp":29.6,"humidity":76,"rain":0.0,"pressure":1004.7,"uv_index":9.25,"wind_gusts":32.4,"aqi":63,"pm10":15.4,"pm2_5":10.5,"mosquito_risk":7,"arthritis_risk":5,"migraine_risk":4,"frizz_risk":1,"updated_at":"2026-04-19T08:27:35.047198+05:30"},{"city":"Nellore","state":"Andhra Pradesh","latitude":14.4426,"longitude":79.9865,"temp":29.5,"humidity":74,"rain":0.0,"pressure":1006.4,"uv_index":9.25,"wind_gusts":34.2,"aqi":52,"pm10":13.5,"pm2_5":10.1,"mosquito_risk":7,"arthritis_risk":5,"migraine_risk":4,"frizz_risk":1,"updated_at":"2026-04-19T08:27:35.047205+05:30"},{"city":"Kurnool","state":"Andhra Pradesh","latitude":15.8281,"longitude":78.0373,"temp":32.9,"humidity":51,"rain":0.0,"pressure":977.1,"uv_index":9.25,"wind_gusts":25.9,"aqi":89,"pm10":23.1,"pm2_5":20.4,"mosquito_risk":0,"arthritis_risk":5,"migraine_risk":7,"frizz_risk":1,"updated_at":"2026-04-19T08:27:35.047210+05:30"},{"city":"Kakinada","state":"Andhra Pradesh","latitude":16.9891,"longitude":82.2475,"temp":30.0,"humidity":73,"rain":0.0,"pressure":1008.7,"uv_index":9.2,"wind_gusts":31.7,"aqi":53,"pm10":20.0,"pm2_5":11.8,"mosquito_risk":7,"arthritis_risk":0,"migraine_risk":4,"frizz_risk":1,"updated_at":"2026-04-19T08:27:35.047216+05:30"},{"city":"Tirupati","state":"Andhra Pradesh","latitude":13.6288,"longitude":79.4192,"temp":28.0,"humidity":79,"rain":0.0,"pressure":993.0,"uv_index":9.35,"wind_gusts":32.8,"aqi":66,"pm10":17.8,"pm2_5":14.4,"mosquito_risk":7,"arthritis_risk":5,"migraine_risk":7,"frizz_risk":1,"updated_at":"2026-04-19T08:27:35.047220+05:30"},{"city":"Warangal","state":"Telangana","latitude":17.9689,"longitude":79.5941,"temp":29.2,"humidity":71,"rain":0.0,"pressure":979.4,"uv_index":9.15,"wind_gusts":30.2,"aqi":90,"pm10":23.1,"pm2_5":19.2,"mosquito_risk":7,"arthritis_risk":5,"migraine_risk":7,"frizz_risk":1,"updated_at":"2026-04-19T08:27:35.047226+05:30"},{"city":"Nizamabad","state":"Telangana","latitude":18.6725,"longitude":78.0941,"temp":31.5,"humidity":46,"rain":0.0,"pressure":965.6,"uv_index":9.1,"wind_gusts":28.1,"aqi":111,"pm10":55.1,"pm2_5":51.7,"mosquito_risk":0,"arthritis_risk":5,"migraine_risk":7,"frizz_risk":1,"updated_at":"2026-04-19T08:27:35.047231+05:30"},{"city":"Mysore","state":"Karnataka","latitude":12.2958,"longitude":76.6396,"temp":25.7,"humidity":78,"rain":0.0,"pressure":929.7,"uv_index":9.5,"wind_gusts":41.0,"aqi":89,"pm10":44.5,"pm2_5":40.0,"mosquito_risk":7,"arthritis_risk":5,"migraine_risk":7,"frizz_risk":1,"updated_at":"2026-04-19T08:27:35.047235+05:30"},{"city":"Mangalore","state":"Karnataka","latitude":12.9141,"longitude":74.856,"temp":29.7,"humidity":84,"rain":0.0,"pressure":1006.6,"uv_index":9.1,"wind_gusts":24.1,"aqi":67,"pm10":41.9,"pm2_5":27.1,"mosquito_risk":7,"arthritis_risk":5,"migraine_risk":4,"frizz_risk":1,"updated_at":"2026-04-19T08:27:35.047240+05:30"},{"city":"Hubli-Dharwad","state":"Karnataka","latitude":15.3647,"longitude":75.124,"temp":25.3,"humidity":87,"rain":0.0,"pressure":941.3,"uv_index":9.2,"wind_gusts":29.5,"aqi":74,"pm10":42.0,"pm2_5":29.9,"mosquito_risk":7,"arthritis_risk":5,"migraine_risk":7,"frizz_risk":1,"updated_at":"2026-04-19T08:27:35.047246+05:30"},{"city":"Belgaum","state":"Karnataka","latitude":15.8497,"longitude":74.4977,"temp":25.1,"humidity":84,"rain":0.0,"pressure":926.3,"uv_index":9.25,"wind_gusts":33.1,"aqi":89,"pm10":50.4,"pm2_5":36.0,"mosquito_risk":7,"arthritis_risk":5,"migraine_risk":7,"frizz_risk":1,"updated_at":"2026-04-19T08:27:38.380557+05:30"},{"city":"Coimbatore","state":"Tamil Nadu","latitude":11.0168,"longitude":76.9558,"temp":27.9,"humidity":74,"rain":0.0,"pressure":963.1,"uv_index":9.4,"wind_gusts":43.2,"aqi":93,"pm10":34.5,"pm2_5":29.4,"mosquito_risk":7,"arthritis_risk":5,"migraine_risk":7,"frizz_risk":1,"updated_at":"2026-04-19T08:27:38.380588+05:30"},{"city":"Madurai","state":"Tamil Nadu","latitude":9.9252,"longitude":78.1198,"temp":28.6,"humidity":78,"rain":0.0,"pressure":994.6,"uv_index":9.3,"wind_gusts":42.1,"aqi":65,"pm10":30.7,"pm2_5":29.6,"mosquito_risk":7,"arthritis_risk":5,"migraine_risk":7,"frizz_risk":1,"updated_at":"2026-04-19T08:27:38.380597+05:30"},{"city":"Trichy","state":"Tamil Nadu","latitude":10.7905,"longitude":78.7047,"temp":29.1,"humidity":77,"rain":0.0,"pressure":1001.2,"uv_index":9.3,"wind_gusts":22.3,"aqi":53,"pm10":29.5,"pm2_5":26.9,"mosquito_risk":7,"arthritis_risk":5,"migraine_risk":4,"frizz_risk":1,"updated_at":"2026-04-19T08:27:38.380605+05:30"},{"city":"Salem","state":"Tamil Nadu","latitude":11.6643,"longitude":78.146,"temp":28.5,"humidity":74,"rain":0.0,"pressure":978.7,"uv_index":9.35,"wind_gusts":18.7,"aqi":66,"pm10":19.2,"pm2_5":17.2,"mosquito_risk":7,"arthritis_risk":5,"migraine_risk":7,"frizz_risk":1,"updated_at":"2026-04-19T08:27:38.380612+05:30"},{"city":"Tirunelveli","state":"Tamil Nadu","latitude":8.7139,"longitude":77.7567,"temp":29.8,"humidity":66,"rain":0.0,"pressure":1004.6,"uv_index":9.25,"wind_gusts":50.4,"aqi":69,"pm10":36.9,"pm2_5":29.6,"mosquito_risk":7,"arthritis_risk":5,"migraine_risk":4,"frizz_risk":1,"updated_at":"2026-04-19T08:27:38.380618+05:30"},{"city":"Vellore","state":"Tamil Nadu","latitude":12.9165,"longitude":79.1325,"temp":27.2,"humidity":82,"rain":0.0,"pressure":986.0,"uv_index":9.4,"wind_gusts":28.4,"aqi":86,"pm10":41.0,"pm2_5":38.5,"mosquito_risk":7,"arthritis_risk":5,"migraine_risk":7,"frizz_risk":1,"updated_at":"2026-04-19T08:27:38.380625+05:30"},{"city":"Erode","state":"Tamil Nadu","latitude":11.341,"longitude":77.7172,"temp":29.3,"humidity":71,"rain":0.0,"pressure":990.4,"uv_index":9.35,"wind_gusts":27.7,"aqi":59,"pm10":19.5,"pm2_5":18.1,"mosquito_risk":7,"arthritis_risk":5,"migraine_risk":7,"frizz_risk":1,"updated_at":"2026-04-19T08:27:38.380631+05:30"},{"city":"Kochi","state":"Kerala","latitude":9.9312,"longitude":76.2673,"temp":29.2,"humidity":82,"rain":0.0,"pressure":1008.9,"uv_index":9.15,"wind_gusts":29.2,"aqi":78,"pm10":34.1,"pm2_5":28.4,"mosquito_risk":7,"arthritis_risk":0,"migraine_risk":4,"frizz_risk":1,"updated_at":"2026-04-19T08:27:38.380638+05:30"},{"city":"Thiruvananthapuram","state":"Kerala","latitude":8.5241,"longitude":76.9366,"temp":28.4,"humidity":87,"rain":0.0,"pressure":1008.4,"uv_index":9.1,"wind_gusts":27.7,"aqi":71,"pm10":29.7,"pm2_5":20.4,"mosquito_risk":7,"arthritis_risk":0,"migraine_risk":4,"frizz_risk":1,"updated_at":"2026-04-19T08:27:38.380643+05:30"},{"city":"Kozhikode","state":"Kerala","latitude":11.2588,"longitude":75.7804,"temp":29.8,"humidity":82,"rain":0.0,"pressure":1008.0,"uv_index":9.1,"wind_gusts":32.8,"aqi":66,"pm10":21.7,"pm2_5":16.2,"mosquito_risk":7,"arthritis_risk":0,"migraine_risk":4,"frizz_risk":1,"updated_at":"2026-04-19T08:27:38.380649+05:30"},{"city":"Thrissur","state":"Kerala","latitude":10.5276,"longitude":76.2144,"temp":30.1,"humidity":79,"rain":0.0,"pressure":1007.4,"uv_index":9.15,"wind_gusts":37.8,"aqi":78,"pm10":29.5,"pm2_5":24.9,"mosquito_risk":3,"arthritis_risk":5,"migraine_risk":4,"frizz_risk":1,"updated_at":"2026-04-19T08:27:38.380656+05:30"},{"city":"Kannur","state":"Kerala","latitude":11.8745,"longitude":75.3704,"temp":30.1,"humidity":76,"rain":0.0,"pressure":1007.4,"uv_index":9.1,"wind_gusts":32.4,"aqi":69,"pm10":34.5,"pm2_5":24.6,"mosquito_risk":3,"arthritis_risk":5,"migraine_risk":4,"frizz_risk":1,"updated_at":"2026-04-19T08:27:38.380662+05:30"},{"city":"Patna","state":"Bihar","latitude":25.5941,"longitude":85.1376,"temp":28.1,"humidity":81,"rain":0.0,"pressure":999.7,"uv_index":8.6,"wind_gusts":27.0,"aqi":134,"pm10":48.7,"pm2_5":45.2,"mosquito_risk":7,"arthritis_risk":5,"migraine_risk":7,"frizz_risk":1,"updated_at":"2026-04-19T08:27:38.380667+05:30"},{"city":"Gaya","state":"Bihar","latitude":24.7914,"longitude":85.0002,"temp":31.1,"humidity":54,"rain":0.0,"pressure":992.6,"uv_index":8.7,"wind_gusts":30.2,"aqi":97,"pm10":52.9,"pm2_5":35.4,"mosquito_risk":0,"arthritis_risk":5,"migraine_risk":7,"frizz_risk":1,"updated_at":"2026-04-19T08:27:38.380672+05:30"},{"city":"Muzaffarpur","state":"Bihar","latitude":26.1209,"longitude":85.3647,"temp":27.0,"humidity":80,"rain":0.0,"pressure":1000.1,"uv_index":8.6,"wind_gusts":29.9,"aqi":150,"pm10":40.4,"pm2_5":37.3,"mosquito_risk":7,"arthritis_risk":5,"migraine_risk":4,"frizz_risk":1,"updated_at":"2026-04-19T08:27:38.380677+05:30"},{"city":"Bhagalpur","state":"Bihar","latitude":25.2425,"longitude":87.0117,"temp":26.7,"humidity":82,"rain":0.0,"pressure":1001.2,"uv_index":8.65,"wind_gusts":31.3,"aqi":123,"pm10":56.3,"pm2_5":52.2,"mosquito_risk":7,"arthritis_risk":5,"migraine_risk":4,"frizz_risk":1,"updated_at":"2026-04-19T08:27:38.380682+05:30"},{"city":"Ranchi","state":"Jharkhand","latitude":23.3441,"longitude":85.3096,"temp":30.8,"humidity":47,"rain":0.0,"pressure":938.7,"uv_index":9.2,"wind_gusts":46.8,"aqi":74,"pm10":41.1,"pm2_5":20.1,"mosquito_risk":0,"arthritis_risk":5,"migraine_risk":7,"frizz_risk":1,"updated_at":"2026-04-19T08:27:38.380686+05:30"},{"city":"Jamshedpur","state":"Jharkhand","latitude":22.8046,"longitude":86.2029,"temp":31.9,"humidity":72,"rain":0.0,"pressure":990.4,"uv_index":9.0,"wind_gusts":29.9,"aqi":114,"pm10":55.2,"pm2_5":46.9,"mosquito_risk":3,"arthritis_risk":5,"migraine_risk":7,"frizz_risk":1,"updated_at":"2026-04-19T08:27:38.380691+05:30"},{"city":"Dhanbad","state":"Jharkhand","latitude":23.7957,"longitude":86.4304,"temp":32.0,"humidity":66,"rain":0.0,"pressure":979.2,"uv_index":8.95,"wind_gusts":40.7,"aqi":157,"pm10":97.8,"pm2_5":83.1,"mosquito_risk":3,"arthritis_risk":5,"migraine_risk":7,"frizz_risk":1,"updated_at":"2026-04-19T08:27:38.380696+05:30"},{"city":"Bokaro","state":"Jharkhand","latitude":23.6693,"longitude":86.1511,"temp":32.4,"humidity":61,"rain":0.0,"pressure":983.3,"uv_index":8.95,"wind_gusts":46.1,"aqi":150,"pm10":76.4,"pm2_5":57.5,"mosquito_risk":3,"arthritis_risk":5,"migraine_risk":7,"frizz_risk":1,"updated_at":"2026-04-19T08:27:38.380701+05:30"},{"city":"Bhubaneswar","state":"Odisha","latitude":20.2961,"longitude":85.8245,"temp":29.3,"humidity":83,"rain":0.0,"pressure":1003.0,"uv_index":9.1,"wind_gusts":33.1,"aqi":64,"pm10":27.3,"pm2_5":19.2,"mosquito_risk":7,"arthritis_risk":5,"migraine_risk":4,"frizz_risk":1,"updated_at":"2026-04-19T08:27:38.380706+05:30"},{"city":"Cuttack","state":"Odisha","latitude":20.4625,"longitude":85.8828,"temp":29.7,"humidity":82,"rain":0.0,"pressure":1004.9,"uv_index":9.15,"wind_gusts":31.0,"aqi":64,"pm10":27.3,"pm2_5":19.2,"mosquito_risk":7,"arthritis_risk":5,"migraine_risk":4,"frizz_risk":1,"updated_at":"2026-04-19T08:27:38.380710+05:30"},{"city":"Rourkela","state":"Odisha","latitude":22.2604,"longitude":84.8536,"temp":33.0,"humidity":63,"rain":0.0,"pressure":984.9,"uv_index":8.8,"wind_gusts":23.4,"aqi":135,"pm10":80.3,"pm2_5":67.1,"mosquito_risk":3,"arthritis_risk":5,"migraine_risk":7,"frizz_risk":1,"updated_at":"2026-04-19T08:27:38.380716+05:30"},{"city":"Raipur","state":"Chhattisgarh","latitude":21.2514,"longitude":81.6296,"temp":32.6,"humidity":49,"rain":0.0,"pressure":974.9,"uv_index":9.0,"wind_gusts":36.4,"aqi":151,"pm10":51.1,"pm2_5":48.5,"mosquito_risk":0,"arthritis_risk":5,"migraine_risk":7,"frizz_risk":1,"updated_at":"2026-04-19T08:27:38.380721+05:30"},{"city":"Bhilai","state":"Chhattisgarh","latitude":21.1938,"longitude":81.3509,"temp":32.2,"humidity":52,"rain":0.0,"pressure":975.2,"uv_index":8.95,"wind_gusts":34.6,"aqi":153,"pm10":51.7,"pm2_5":49.0,"mosquito_risk":0,"arthritis_risk":5,"migraine_risk":7,"frizz_risk":1,"updated_at":"2026-04-19T08:27:38.380725+05:30"},{"city":"Guwahati","state":"Assam","latitude":26.1158,"longitude":91.7086,"temp":24.5,"humidity":91,"rain":0.0,"pressure":1003.6,"uv_index":8.55,"wind_gusts":24.1,"aqi":118,"pm10":58.6,"pm2_5":44.9,"mosquito_risk":3,"arthritis_risk":5,"migraine_risk":4,"frizz_risk":1,"updated_at":"2026-04-19T08:27:38.380730+05:30"},{"city":"Agartala","state":"Tripura","latitude":23.8315,"longitude":91.2868,"temp":27.6,"humidity":84,"rain":0.0,"pressure":1007.3,"uv_index":8.75,"wind_gusts":25.9,"aqi":123,"pm10":35.2,"pm2_5":30.4,"mosquito_risk":7,"arthritis_risk":5,"migraine_risk":4,"frizz_risk":1,"updated_at":"2026-04-19T08:27:38.380734+05:30"},{"city":"Shillong","state":"Meghalaya","latitude":25.5788,"longitude":91.8933,"temp":18.0,"humidity":82,"rain":0.0,"pressure":858.2,"uv_index":6.75,"wind_gusts":44.6,"aqi":104,"pm10":41.7,"pm2_5":28.2,"mosquito_risk":3,"arthritis_risk":10,"migraine_risk":7,"frizz_risk":0,"updated_at":"2026-04-19T08:27:38.380740+05:30"},{"city":"Imphal","state":"Manipur","latitude":24.817,"longitude":93.9368,"temp":21.2,"humidity":80,"rain":0.0,"pressure":924.9,"uv_index":8.2,"wind_gusts":58.7,"aqi":150,"pm10":75.7,"pm2_5":57.5,"mosquito_risk":3,"arthritis_risk":5,"migraine_risk":7,"frizz_risk":1,"updated_at":"2026-04-19T08:27:38.380745+05:30"},{"city":"Aizawl","state":"Mizoram","latitude":23.7271,"longitude":92.7176,"temp":23.2,"humidity":78,"rain":0.0,"pressure":895.0,"uv_index":8.7,"wind_gusts":38.9,"aqi":150,"pm10":54.9,"pm2_5":44.2,"mosquito_risk":3,"arthritis_risk":5,"migraine_risk":7,"frizz_risk":1,"updated_at":"2026-04-19T08:27:38.380750+05:30"},{"city":"Kohima","state":"Nagaland","latitude":25.6701,"longitude":94.1077,"temp":19.4,"humidity":77,"rain":0.0,"pressure":857.1,"uv_index":8.65,"wind_gusts":45.4,"aqi":129,"pm10":58.8,"pm2_5":41.1,"mosquito_risk":3,"arthritis_risk":5,"migraine_risk":7,"frizz_risk":0,"updated_at":"2026-04-19T08:27:38.380754+05:30"},{"city":"Gangtok","state":"Sikkim","latitude":27.3314,"longitude":88.6138,"temp":18.9,"humidity":82,"rain":0.0,"pressure":839.7,"uv_index":8.9,"wind_gusts":22.0,"aqi":83,"pm10":13.0,"pm2_5":11.7,"mosquito_risk":3,"arthritis_risk":10,"migraine_risk":7,"frizz_risk":0,"updated_at":"2026-04-19T08:27:38.380759+05:30"},{"city":"Siliguri","state":"West Bengal","latitude":26.7271,"longitude":88.3953,"temp":24.7,"humidity":79,"rain":0.0,"pressure":995.3,"uv_index":8.45,"wind_gusts":24.8,"aqi":151,"pm10":69.8,"pm2_5":58.7,"mosquito_risk":3,"arthritis_risk":5,"migraine_risk":7,"frizz_risk":1,"updated_at":"2026-04-19T08:27:41.725961+05:30"},{"city":"Durgapur","state":"West Bengal","latitude":23.5204,"longitude":87.3119,"temp":30.6,"humidity":79,"rain":0.0,"pressure":994.5,"uv_index":8.9,"wind_gusts":49.7,"aqi":124,"pm10":47.8,"pm2_5":43.5,"mosquito_risk":3,"arthritis_risk":5,"migraine_risk":7,"frizz_risk":1,"updated_at":"2026-04-19T08:27:41.725992+05:30"},{"city":"Asansol","state":"West Bengal","latitude":23.6739,"longitude":86.9524,"temp":31.0,"humidity":78,"rain":0.0,"pressure":992.8,"uv_index":8.95,"wind_gusts":39.2,"aqi":136,"pm10":70.5,"pm2_5":62.2,"mosquito_risk":3,"arthritis_risk":5,"migraine_risk":7,"frizz_risk":1,"updated_at":"2026-04-19T08:27:41.726001+05:30"},{"city":"Pondicherry","state":"Puducherry","latitude":11.9139,"longitude":79.8145,"temp":29.4,"humidity":78,"rain":0.0,"pressure":1009.7,"uv_index":9.25,"wind_gusts":30.6,"aqi":32,"pm10":13.1,"pm2_5":9.3,"mosquito_risk":7,"arthritis_risk":0,"migraine_risk":4,"frizz_risk":1,"updated_at":"2026-04-19T08:27:41.726007+05:30"},{"city":"Port Blair","state":"Andaman and Nicobar Islands","latitude":11.6234,"longitude":92.7265,"temp":29.1,"humidity":76,"rain":0.0,"pressure":1008.1,"uv_index":9.15,"wind_gusts":13.7,"aqi":55,"pm10":16.7,"pm2_5":13.1,"mosquito_risk":7,"arthritis_risk":0,"migraine_risk":4,"frizz_risk":1,"updated_at":"2026-04-19T08:27:41.726040+05:30"},{"city":"Haridwar","state":"Uttarakhand","latitude":29.9457,"longitude":78.1642,"temp":28.7,"humidity":45,"rain":0.0,"pressure":972.8,"uv_index":6.3,"wind_gusts":31.0,"aqi":65,"pm10":28.2,"pm2_5":22.1,"mosquito_risk":4,"arthritis_risk":5,"migraine_risk":7,"frizz_risk":0,"updated_at":"2026-04-19T08:27:41.726046+05:30"},{"city":"Rishikesh","state":"Uttarakhand","latitude":30.0869,"longitude":78.2676,"temp":27.3,"humidity":51,"rain":0.0,"pressure":966.1,"uv_index":6.7,"wind_gusts":25.6,"aqi":57,"pm10":22.5,"pm2_5":13.2,"mosquito_risk":4,"arthritis_risk":5,"migraine_risk":7,"frizz_risk":1,"updated_at":"2026-04-19T08:27:41.726052+05:30"},{"city":"Nainital","state":"Uttarakhand","latitude":29.3919,"longitude":79.4542,"temp":26.3,"humidity":34,"rain":0.0,"pressure":809.2,"uv_index":8.1,"wind_gusts":60.8,"aqi":56,"pm10":24.7,"pm2_5":14.1,"mosquito_risk":4,"arthritis_risk":5,"migraine_risk":7,"frizz_risk":0,"updated_at":"2026-04-19T08:27:41.726058+05:30"},{"city":"Mussoorie","state":"Uttarakhand","latitude":30.4599,"longitude":78.0664,"temp":22.1,"humidity":36,"rain":0.0,"pressure":804.8,"uv_index":6.9,"wind_gusts":41.0,"aqi":56,"pm10":19.7,"pm2_5":16.0,"mosquito_risk":0,"arthritis_risk":5,"migraine_risk":7,"frizz_risk":0,"updated_at":"2026-04-19T08:27:41.726063+05:30"},{"city":"Dharamshala","state":"Himachal Pradesh","latitude":32.219,"longitude":76.3234,"temp":24.3,"humidity":36,"rain":0.0,"pressure":870.2,"uv_index":6.3,"wind_gusts":33.5,"aqi":34,"pm10":11.0,"pm2_5":5.3,"mosquito_risk":0,"arthritis_risk":5,"migraine_risk":7,"frizz_risk":0,"updated_at":"2026-04-19T08:27:41.726069+05:30"},{"city":"Dalhousie","state":"Himachal Pradesh","latitude":32.5387,"longitude":75.971,"temp":20.0,"humidity":38,"rain":0.0,"pressure":805.5,"uv_index":6.2,"wind_gusts":32.0,"aqi":57,"pm10":15.5,"pm2_5":10.5,"mosquito_risk":0,"arthritis_risk":5,"migraine_risk":7,"frizz_risk":0,"updated_at":"2026-04-19T08:27:41.726075+05:30"},{"city":"Patiala","state":"Punjab","latitude":30.3398,"longitude":76.3869,"temp":25.2,"humidity":61,"rain":0.0,"pressure":976.8,"uv_index":6.05,"wind_gusts":32.4,"aqi":134,"pm10":303.6,"pm2_5":66.1,"mosquito_risk":7,"arthritis_risk":5,"migraine_risk":7,"frizz_risk":1,"updated_at":"2026-04-19T08:27:41.726083+05:30"},{"city":"Bhatinda","state":"Punjab","latitude":30.211,"longitude":74.9455,"temp":26.5,"humidity":43,"rain":0.0,"pressure":983.2,"uv_index":7.75,"wind_gusts":32.8,"aqi":80,"pm10":51.2,"pm2_5":23.7,"mosquito_risk":4,"arthritis_risk":5,"migraine_risk":7,"frizz_risk":0,"updated_at":"2026-04-19T08:27:41.726088+05:30"},{"city":"Rohtak","state":"Haryana","latitude":28.8955,"longitude":76.6066,"temp":26.3,"humidity":69,"rain":0.0,"pressure":980.2,"uv_index":6.55,"wind_gusts":24.1,"aqi":223,"pm10":406.1,"pm2_5":85.4,"mosquito_risk":7,"arthritis_risk":5,"migraine_risk":7,"frizz_risk":1,"updated_at":"2026-04-19T08:27:41.726093+05:30"},{"city":"Panipat","state":"Haryana","latitude":29.3909,"longitude":76.9635,"temp":27.1,"humidity":58,"rain":0.0,"pressure":978.8,"uv_index":6.05,"wind_gusts":36.4,"aqi":428,"pm10":451.7,"pm2_5":93.4,"mosquito_risk":4,"arthritis_risk":5,"migraine_risk":7,"frizz_risk":1,"updated_at":"2026-04-19T08:27:41.726098+05:30"},{"city":"Mathura","state":"Uttar Pradesh","latitude":27.4924,"longitude":77.6737,"temp":28.5,"humidity":59,"rain":0.0,"pressure":985.2,"uv_index":7.65,"wind_gusts":27.4,"aqi":308,"pm10":476.8,"pm2_5":106.9,"mosquito_risk":4,"arthritis_risk":5,"migraine_risk":7,"frizz_risk":1,"updated_at":"2026-04-19T08:27:41.726103+05:30"},{"city":"Vrindavan","state":"Uttar Pradesh","latitude":27.5823,"longitude":77.7027,"temp":29.1,"humidity":53,"rain":0.0,"pressure":985.6,"uv_index":7.65,"wind_gusts":28.1,"aqi":308,"pm10":476.8,"pm2_5":106.9,"mosquito_risk":4,"arthritis_risk":5,"migraine_risk":7,"frizz_risk":1,"updated_at":"2026-04-19T08:27:41.726108+05:30"},{"city":"Ayodhya","state":"Uttar Pradesh","latitude":26.7922,"longitude":82.1998,"temp":28.7,"humidity":76,"rain":0.0,"pressure":994.0,"uv_index":8.05,"wind_gusts":33.8,"aqi":91,"pm10":71.7,"pm2_5":42.8,"mosquito_risk":7,"arthritis_risk":5,"migraine_risk":7,"frizz_risk":1,"updated_at":"2026-04-19T08:27:41.726113+05:30"},{"city":"Ratlam","state":"Madhya Pradesh","latitude":23.3315,"longitude":75.0367,"temp":27.8,"humidity":51,"rain":0.0,"pressure":954.5,"uv_index":8.45,"wind_gusts":26.3,"aqi":36,"pm10":16.1,"pm2_5":13.6,"mosquito_risk":4,"arthritis_risk":5,"migraine_risk":7,"frizz_risk":1,"updated_at":"2026-04-19T08:27:41.726118+05:30"},{"city":"Sagar","state":"Madhya Pradesh","latitude":23.8388,"longitude":78.7378,"temp":30.5,"humidity":42,"rain":0.0,"pressure":950.3,"uv_index":8.65,"wind_gusts":30.2,"aqi":54,"pm10":25.9,"pm2_5":14.9,"mosquito_risk":0,"arthritis_risk":5,"migraine_risk":7,"frizz_risk":1,"updated_at":"2026-04-19T08:27:41.726124+05:30"},{"city":"Satna","state":"Madhya Pradesh","latitude":24.6005,"longitude":80.8322,"temp":31.9,"humidity":45,"rain":0.0,"pressure":970.6,"uv_index":8.65,"wind_gusts":32.0,"aqi":73,"pm10":64.7,"pm2_5":28.8,"mosquito_risk":0,"arthritis_risk":5,"migraine_risk":7,"frizz_risk":1,"updated_at":"2026-04-19T08:27:41.726128+05:30"},{"city":"Akola","state":"Maharashtra","latitude":20.7002,"longitude":77.0082,"temp":30.2,"humidity":50,"rain":0.0,"pressure":975.3,"uv_index":8.85,"wind_gusts":25.6,"aqi":65,"pm10":19.5,"pm2_5":17.3,"mosquito_risk":0,"arthritis_risk":5,"migraine_risk":7,"frizz_risk":1,"updated_at":"2026-04-19T08:27:41.726134+05:30"},{"city":"Amravati","state":"Maharashtra","latitude":20.9374,"longitude":77.7796,"temp":28.4,"humidity":55,"rain":0.0,"pressure":967.4,"uv_index":8.85,"wind_gusts":20.2,"aqi":67,"pm10":19.8,"pm2_5":18.2,"mosquito_risk":4,"arthritis_risk":5,"migraine_risk":7,"frizz_risk":1,"updated_at":"2026-04-19T08:27:41.726139+05:30"},{"city":"Latur","state":"Maharashtra","latitude":18.4088,"longitude":76.5604,"temp":28.7,"humidity":51,"rain":0.0,"pressure":941.2,"uv_index":8.7,"wind_gusts":40.7,"aqi":106,"pm10":40.5,"pm2_5":36.4,"mosquito_risk":4,"arthritis_risk":5,"migraine_risk":7,"frizz_risk":1,"updated_at":"2026-04-19T08:27:41.726145+05:30"},{"city":"Nanded","state":"Maharashtra","latitude":19.1383,"longitude":77.3091,"temp":29.3,"humidity":54,"rain":0.0,"pressure":969.4,"uv_index":9.0,"wind_gusts":26.3,"aqi":87,"pm10":41.6,"pm2_5":39.0,"mosquito_risk":4,"arthritis_risk":5,"migraine_risk":7,"frizz_risk":1,"updated_at":"2026-04-19T08:27:41.726150+05:30"},{"city":"Gulbarga","state":"Karnataka","latitude":17.3297,"longitude":76.8343,"temp":30.7,"humidity":52,"rain":0.0,"pressure":959.6,"uv_index":9.1,"wind_gusts":58.7,"aqi":97,"pm10":41.3,"pm2_5":38.2,"mosquito_risk":0,"arthritis_risk":5,"migraine_risk":7,"frizz_risk":1,"updated_at":"2026-04-19T08:27:41.726154+05:30"},{"city":"Bidar","state":"Karnataka","latitude":17.9104,"longitude":77.5199,"temp":30.6,"humidity":48,"rain":0.0,"pressure":937.0,"uv_index":9.15,"wind_gusts":45.7,"aqi":102,"pm10":46.3,"pm2_5":42.3,"mosquito_risk":0,"arthritis_risk":5,"migraine_risk":7,"frizz_risk":1,"updated_at":"2026-04-19T08:27:41.726159+05:30"},{"city":"Hospet","state":"Karnataka","latitude":15.2689,"longitude":76.3909,"temp":27.2,"humidity":80,"rain":0.0,"pressure":956.2,"uv_index":9.25,"wind_gusts":26.3,"aqi":90,"pm10":30.0,"pm2_5":27.5,"mosquito_risk":7,"arthritis_risk":5,"migraine_risk":7,"frizz_risk":1,"updated_at":"2026-04-19T08:27:41.726164+05:30"},{"city":"Tirupur","state":"Tamil Nadu","latitude":11.1085,"longitude":77.3411,"temp":28.8,"humidity":76,"rain":0.0,"pressure":976.6,"uv_index":9.4,"wind_gusts":30.2,"aqi":74,"pm10":28.4,"pm2_5":25.3,"mosquito_risk":7,"arthritis_risk":5,"migraine_risk":7,"frizz_risk":1,"updated_at":"2026-04-19T08:27:41.726168+05:30"},{"city":"Alappuzha","state":"Kerala","latitude":9.4981,"longitude":76.3388,"temp":29.1,"humidity":82,"rain":0.0,"pressure":1009.1,"uv_index":9.1,"wind_gusts":27.4,"aqi":84,"pm10":40.2,"pm2_5":32.7,"mosquito_risk":7,"arthritis_risk":0,"migraine_risk":4,"frizz_risk":1,"updated_at":"2026-04-19T08:27:41.726173+05:30"},{"city":"Munnar","state":"Kerala","latitude":10.0889,"longitude":77.0595,"temp":24.9,"humidity":64,"rain":0.0,"pressure":858.8,"uv_index":9.65,"wind_gusts":27.4,"aqi":80,"pm10":34.1,"pm2_5":31.9,"mosquito_risk":3,"arthritis_risk":5,"migraine_risk":7,"frizz_risk":1,"updated_at":"2026-04-19T08:27:41.726178+05:30"},{"city":"Silchar","state":"Assam","latitude":24.8333,"longitude":92.7789,"temp":25.0,"humidity":90,"rain":0.0,"pressure":1007.3,"uv_index":8.8,"wind_gusts":29.5,"aqi":157,"pm10":94.8,"pm2_5":74.7,"mosquito_risk":7,"arthritis_risk":5,"migraine_risk":4,"frizz_risk":1,"updated_at":"2026-04-19T08:27:41.726183+05:30"},{"city":"Dibrugarh","state":"Assam","latitude":27.4728,"longitude":94.912,"temp":25.0,"humidity":84,"rain":0.0,"pressure":997.5,"uv_index":8.65,"wind_gusts":19.4,"aqi":137,"pm10":76.1,"pm2_5":56.5,"mosquito_risk":7,"arthritis_risk":5,"migraine_risk":7,"frizz_risk":1,"updated_at":"2026-04-19T08:27:41.726188+05:30"}]