[{"city":"Delhi","state":"Delhi","latitude":28.6139,"longitude":77.209,"temp":29.9,"humidity":50,"rain":0.0,"pressure":987.1,"uv_index":5.85,"wind_gusts":32.0,"aqi":369,"pm10":433.1,"pm2_5":94.8,"mosquito_risk":4,"arthritis_risk":5,"migraine_risk":3,"frizz_risk":1,"updated_at":"2026-03-05T12:27:38.075634+05:30"},{"city":"Mumbai","state":"Maharashtra","latitude":19.076,"longitude":72.8777,"temp":29.5,"humidity":59,"rain":0.0,"pressure":1011.3,"uv_index":7.4,"wind_gusts":27.7,"aqi":119,"pm10":43.2,"pm2_5":40.0,"mosquito_risk":4,"arthritis_risk":0,"migraine_risk":4,"frizz_risk":1,"updated_at":"2026-03-05T12:27:38.075677+05:30"},{"city":"Bangalore","state":"Karnataka","latitude":12.9716,"longitude":77.5946,"temp":30.3,"humidity":34,"rain":0.0,"pressure":914.9,"uv_index":9.1,"wind_gusts":29.5,"aqi":87,"pm10":26.9,"pm2_5":25.6,"mosquito_risk":0,"arthritis_risk":5,"migraine_risk":7,"frizz_risk":0,"updated_at":"2026-03-05T12:27:38.075693+05:30"},{"city":"Hyderabad","state":"Telangana","latitude":17.385,"longitude":78.4867,"temp":34.7,"humidity":20,"rain":0.0,"pressure":956.8,"uv_index":8.45,"wind_gusts":28.1,"aqi":87,"pm10":16.3,"pm2_5":14.3,"mosquito_risk":0,"arthritis_risk":5,"migraine_risk":7,"frizz_risk":0,"updated_at":"2026-03-05T12:27:38.075702+05:30"},{"city":"Chennai","state":"Tamil Nadu","latitude":13.0827,"longitude":80.2707,"temp":35.3,"humidity":32,"rain":0.0,"pressure":1009.8,"uv_index":8.85,"wind_gusts":31.3,"aqi":95,"pm10":35.4,"pm2_5":32.2,"mosquito_risk":0,"arthritis_risk":0,"migraine_risk":7,"frizz_risk":1,"updated_at":"2026-03-05T12:27:38.075711+05:30"},{"city":"Kolkata","state":"West Bengal","latitude":22.5726,"longitude":88.3639,"temp":31.3,"humidity":40,"rain":0.0,"pressure":1007.9,"uv_index":7.8,"wind_gusts":13.0,"aqi":165,"pm10":94.8,"pm2_5":66.4,"mosquito_risk":0,"arthritis_risk":5,"migraine_risk":4,"frizz_risk":1,"updated_at":"2026-03-05T12:27:38.075719+05:30"},{"city":"Pune","state":"Maharashtra","latitude":18.5204,"longitude":73.8567,"temp":35.4,"humidity":21,"rain":0.0,"pressure":952.6,"uv_index":7.95,"wind_gusts":31.3,"aqi":85,"pm10":18.6,"pm2_5":17.2,"mosquito_risk":0,"arthritis_risk":5,"migraine_risk":10,"frizz_risk":0,"updated_at":"2026-03-05T12:27:38.075730+05:30"},{"city":"Ahmedabad","state":"Gujarat","latitude":23.0225,"longitude":72.5714,"temp":35.1,"humidity":22,"rain":0.0,"pressure":1007.9,"uv_index":7.2,"wind_gusts":27.0,"aqi":67,"pm10":18.3,"pm2_5":11.1,"mosquito_risk":0,"arthritis_risk":5,"migraine_risk":7,"frizz_risk":0,"updated_at":"2026-03-05T12:27:38.075739+05:30"},{"city":"Jaipur","state":"Rajasthan","latitude":26.9124,"longitude":75.7873,"temp":34.7,"humidity":15,"rain":0.0,"pressure":965.1,"uv_index":6.65,"wind_gusts":37.8,"aqi":86,"pm10":161.6,"pm2_5":31.1,"mosquito_risk":0,"arthritis_risk":5,"migraine_risk":7,"frizz_risk":0,"updated_at":"2026-03-05T12:27:38.075746+05:30"},{"city":"Lucknow","state":"Uttar Pradesh","latitude":26.8467,"longitude":80.9462,"temp":29.9,"humidity":48,"rain":0.0,"pressure":996.9,"uv_index":6.4,"wind_gusts":13.7,"aqi":164,"pm10":402.3,"pm2_5":100.8,"mosquito_risk":4,"arthritis_risk":5,"migraine_risk":7,"frizz_risk":1,"updated_at":"2026-03-05T12:27:38.075754+05:30"},{"city":"Kanpur","state":"Uttar Pradesh","latitude":26.4499,"longitude":80.3319,"temp":30.0,"humidity":53,"rain":0.0,"pressure":995.3,"uv_index":6.4,"wind_gusts":29.5,"aqi":174,"pm10":368.8,"pm2_5":90.3,"mosquito_risk":4,"arthritis_risk":5,"migraine_risk":7,"frizz_risk":1,"updated_at":"2026-03-05T12:27:38.075762+05:30"},{"city":"Chandigarh","state":"Chandigarh","latitude":30.7333,"longitude":76.7794,"temp":30.4,"humidity":44,"rain":0.0,"pressure":972.3,"uv_index":5.75,"wind_gusts":30.6,"aqi":89,"pm10":44.1,"pm2_5":27.3,"mosquito_risk":0,"arthritis_risk":5,"migraine_risk":3,"frizz_risk":1,"updated_at":"2026-03-05T12:27:38.075769+05:30"},{"city":"Srinagar","state":"Jammu and Kashmir","latitude":34.0837,"longitude":74.7973,"temp":19.5,"humidity":43,"rain":0.0,"pressure":848.7,"uv_index":6.55,"wind_gusts":15.5,"aqi":153,"pm10":65.0,"pm2_5":35.0,"mosquito_risk":0,"arthritis_risk":5,"migraine_risk":7,"frizz_risk":0,"updated_at":"2026-03-05T12:27:38.075776+05:30"},{"city":"Jammu","state":"Jammu and Kashmir","latitude":32.7266,"longitude":74.857,"temp":30.5,"humidity":45,"rain":0.0,"pressure":976.0,"uv_index":6.4,"wind_gusts":25.2,"aqi":103,"pm10":53.9,"pm2_5":32.7,"mosquito_risk":0,"arthritis_risk":5,"migraine_risk":7,"frizz_risk":1,"updated_at":"2026-03-05T12:27:38.075783+05:30"},{"city":"Amritsar","state":"Punjab","latitude":31.634,"longitude":74.8723,"temp":29.7,"humidity":47,"rain":0.0,"pressure":984.6,"uv_index":6.35,"wind_gusts":21.6,"aqi":152,"pm10":65.7,"pm2_5":50.5,"mosquito_risk":4,"arthritis_risk":5,"migraine_risk":7,"frizz_risk":1,"updated_at":"2026-03-05T12:27:38.075789+05:30"},{"city":"Ludhiana","state":"Punjab","latitude":30.901,"longitude":75.8573,"temp":29.2,"humidity":47,"rain":0.0,"pressure":982.8,"uv_index":6.0,"wind_gusts":24.1,"aqi":156,"pm10":85.7,"pm2_5":66.1,"mosquito_risk":4,"arthritis_risk":5,"migraine_risk":3,"frizz_risk":1,"updated_at":"2026-03-05T12:27:38.075796+05:30"},{"city":"Jalandhar","state":"Punjab","latitude":31.326,"longitude":75.5762,"temp":29.0,"humidity":46,"rain":0.0,"pressure":983.8,"uv_index":6.2,"wind_gusts":23.0,"aqi":158,"pm10":91.0,"pm2_5":64.5,"mosquito_risk":4,"arthritis_risk":5,"migraine_risk":7,"frizz_risk":1,"updated_at":"2026-03-05T12:27:38.075804+05:30"},{"city":"Dehradun","state":"Uttarakhand","latitude":30.6284,"longitude":78.0322,"temp":22.6,"humidity":48,"rain":0.0,"pressure":834.8,"uv_index":6.15,"wind_gusts":32.8,"aqi":64,"pm10":28.9,"pm2_5":12.5,"mosquito_risk":0,"arthritis_risk":5,"migraine_risk":7,"frizz_risk":0,"updated_at":"2026-03-05T12:27:38.075811+05:30"},{"city":"Shimla","state":"Himachal Pradesh","latitude":31.1048,"longitude":77.1734,"temp":23.5,"humidity":28,"rain":0.0,"pressure":791.5,"uv_index":6.2,"wind_gusts":50.4,"aqi":65,"pm10":28.9,"pm2_5":11.0,"mosquito_risk":0,"arthritis_risk":5,"migraine_risk":7,"frizz_risk":0,"updated_at":"2026-03-05T12:27:38.075818+05:30"},{"city":"Manali","state":"Himachal Pradesh","latitude":32.2396,"longitude":77.1887,"temp":27.5,"humidity":18,"rain":0.0,"pressure":827.5,"uv_index":7.8,"wind_gusts":36.7,"aqi":54,"pm10":21.9,"pm2_5":9.1,"mosquito_risk":4,"arthritis_risk":5,"migraine_risk":7,"frizz_risk":0,"updated_at":"2026-03-05T12:27:38.075825+05:30"},{"city":"Gurgaon","state":"Haryana","latitude":28.4595,"longitude":77.0266,"temp":30.4,"humidity":47,"rain":0.0,"pressure":985.6,"uv_index":5.95,"wind_gusts":30.2,"aqi":1363,"pm10":1307.6,"pm2_5":167.2,"mosquito_risk":0,"arthritis_risk":5,"migraine_risk":3,"frizz_risk":1,"updated_at":"2026-03-05T12:27:38.075832+05:30"},{"city":"Noida","state":"Uttar Pradesh","latitude":28.5355,"longitude":77.391,"temp":30.4,"humidity":48,"rain":0.0,"pressure":988.5,"uv_index":5.85,"wind_gusts":31.7,"aqi":1363,"pm10":1307.6,"pm2_5":167.2,"mosquito_risk":0,"arthritis_risk":5,"migraine_risk":3,"frizz_risk":1,"updated_at":"2026-03-05T12:27:38.075839+05:30"},{"city":"Ghaziabad","state":"Uttar Pradesh","latitude":28.6692,"longitude":77.4538,"temp":29.3,"humidity":56,"rain":0.0,"pressure":986.6,"uv_index":5.85,"wind_gusts":28.8,"aqi":240,"pm10":348.3,"pm2_5":92.0,"mosquito_risk":4,"arthritis_risk":5,"migraine_risk":3,"frizz_risk":1,"updated_at":"2026-03-05T12:27:38.075846+05:30"},{"city":"Faridabad","state":"Haryana","latitude":28.4089,"longitude":77.3178,"temp":29.9,"humidity":49,"rain":0.0,"pressure":987.9,"uv_index":5.9,"wind_gusts":31.0,"aqi":1363,"pm10":1307.6,"pm2_5":167.2,"mosquito_risk":4,"arthritis_risk":5,"migraine_risk":3,"frizz_risk":1,"updated_at":"2026-03-05T12:27:38.075852+05:30"},{"city":"Meerut","state":"Uttar Pradesh","latitude":28.9845,"longitude":77.7064,"temp":28.8,"humidity":53,"rain":0.0,"pressure":985.2,"uv_index":5.75,"wind_gusts":28.1,"aqi":240,"pm10":348.3,"pm2_5":92.0,"mosquito_risk":4,"arthritis_risk":5,"migraine_risk":3,"frizz_risk":1,"updated_at":"2026-03-05T12:27:38.075858+05:30"},{"city":"Agra","state":"Uttar Pradesh","latitude":27.1767,"longitude":78.0081,"temp":32.7,"humidity":34,"rain":0.0,"pressure":992.0,"uv_index":6.25,"wind_gusts":36.0,"aqi":438,"pm10":407.0,"pm2_5":68.0,"mosquito_risk":0,"arthritis_risk":5,"migraine_risk":7,"frizz_risk":0,"updated_at":"2026-03-05T12:27:38.075868+05:30"},{"city":"Varanasi","state":"Uttar Pradesh","latitude":25.3176,"longitude":82.9739,"temp":29.6,"humidity":51,"rain":0.0,"pressure":1001.0,"uv_index":7.05,"wind_gusts":16.9,"aqi":155,"pm10":200.2,"pm2_5":64.0,"mosquito_risk":4,"arthritis_risk":5,"migraine_risk":4,"frizz_risk":1,"updated_at":"2026-03-05T12:27:38.075877+05:30"},{"city":"Prayagraj","state":"Uttar Pradesh","latitude":25.4358,"longitude":81.8463,"temp":30.2,"humidity":50,"rain":0.0,"pressure":999.5,"uv_index":6.9,"wind_gusts":20.9,"aqi":155,"pm10":236.6,"pm2_5":68.0,"mosquito_risk":0,"arthritis_risk":5,"migraine_risk":7,"frizz_risk":1,"updated_at":"2026-03-05T12:27:38.075884+05:30"},{"city":"Gorakhpur","state":"Uttar Pradesh","latitude":26.7606,"longitude":83.3732,"temp":29.2,"humidity":53,"rain":0.0,"pressure":1000.8,"uv_index":6.75,"wind_gusts":13.0,"aqi":172,"pm10":95.7,"pm2_5":72.4,"mosquito_risk":4,"arthritis_risk":5,"migraine_risk":4,"frizz_risk":1,"updated_at":"2026-03-05T12:27:38.075892+05:30"},{"city":"Bareilly","state":"Uttar Pradesh","latitude":28.367,"longitude":79.4304,"temp":28.0,"humidity":61,"rain":0.0,"pressure":990.4,"uv_index":6.05,"wind_gusts":13.3,"aqi":167,"pm10":156.5,"pm2_5":76.4,"mosquito_risk":7,"arthritis_risk":5,"migraine_risk":7,"frizz_risk":1,"updated_at":"2026-03-05T12:27:38.075899+05:30"},{"city":"Aligarh","state":"Uttar Pradesh","latitude":27.8974,"longitude":78.088,"temp":30.4,"humidity":48,"rain":0.0,"pressure":989.6,"uv_index":5.95,"wind_gusts":32.0,"aqi":670,"pm10":607.2,"pm2_5":119.2,"mosquito_risk":0,"arthritis_risk":5,"migraine_risk":3,"frizz_risk":1,"updated_at":"2026-03-05T12:27:38.075905+05:30"},{"city":"Moradabad","state":"Uttar Pradesh","latitude":28.8386,"longitude":78.7733,"temp":27.5,"humidity":61,"rain":0.0,"pressure":987.4,"uv_index":5.9,"wind_gusts":14.4,"aqi":168,"pm10":164.4,"pm2_5":82.0,"mosquito_risk":7,"arthritis_risk":5,"migraine_risk":3,"frizz_risk":1,"updated_at":"2026-03-05T12:27:38.075911+05:30"},{"city":"Saharanpur","state":"Uttar Pradesh","latitude":29.9637,"longitude":77.546,"temp":27.4,"humidity":58,"rain":0.0,"pressure":979.3,"uv_index":5.5,"wind_gusts":16.6,"aqi":153,"pm10":88.5,"pm2_5":52.0,"mosquito_risk":4,"arthritis_risk":5,"migraine_risk":3,"frizz_risk":1,"updated_at":"2026-03-05T12:27:38.075917+05:30"},{"city":"Jhansi","state":"Uttar Pradesh","latitude":25.4484,"longitude":78.5685,"temp":34.7,"humidity":24,"rain":0.0,"pressure":982.3,"uv_index":6.85,"wind_gusts":36.7,"aqi":56,"pm10":35.3,"pm2_5":15.4,"mosquito_risk":0,"arthritis_risk":5,"migraine_risk":7,"frizz_risk":0,"updated_at":"2026-03-05T12:27:41.290896+05:30"},{"city":"Surat","state":"Gujarat","latitude":21.1702,"longitude":72.8311,"temp":33.2,"humidity":35,"rain":0.0,"pressure":1011.7,"uv_index":7.1,"wind_gusts":28.1,"aqi":119,"pm10":34.5,"pm2_5":32.5,"mosquito_risk":0,"arthritis_risk":0,"migraine_risk":4,"frizz_risk":0,"updated_at":"2026-03-05T12:27:41.290928+05:30"},{"city":"Vadodara","state":"Gujarat","latitude":22.3072,"longitude":73.1812,"temp":36.7,"humidity":24,"rain":0.0,"pressure":1009.5,"uv_index":7.2,"wind_gusts":23.4,"aqi":85,"pm10":21.2,"pm2_5":17.0,"mosquito_risk":0,"arthritis_risk":0,"migraine_risk":7,"frizz_risk":0,"updated_at":"2026-03-05T12:27:41.290938+05:30"},{"city":"Rajkot","state":"Gujarat","latitude":22.3039,"longitude":70.8022,"temp":33.5,"humidity":19,"rain":0.0,"pressure":1000.6,"uv_index":7.05,"wind_gusts":33.5,"aqi":58,"pm10":12.6,"pm2_5":12.0,"mosquito_risk":0,"arthritis_risk":5,"migraine_risk":4,"frizz_risk":0,"updated_at":"2026-03-05T12:27:41.290947+05:30"},{"city":"Thane","state":"Maharashtra","latitude":19.2183,"longitude":72.9781,"temp":36.0,"humidity":28,"rain":0.0,"pressure":1010.8,"uv_index":7.4,"wind_gusts":40.7,"aqi":119,"pm10":43.2,"pm2_5":40.0,"mosquito_risk":0,"arthritis_risk":0,"migraine_risk":7,"frizz_risk":0,"updated_at":"2026-03-05T12:27:41.290954+05:30"},{"city":"Nagpur","state":"Maharashtra","latitude":21.1458,"longitude":79.0882,"temp":34.8,"humidity":17,"rain":0.0,"pressure":977.3,"uv_index":7.8,"wind_gusts":27.0,"aqi":65,"pm10":12.7,"pm2_5":10.7,"mosquito_risk":0,"arthritis_risk":5,"migraine_risk":7,"frizz_risk":0,"updated_at":"2026-03-05T12:27:41.290961+05:30"},{"city":"Nashik","state":"Maharashtra","latitude":19.9975,"longitude":73.7898,"temp":33.9,"humidity":20,"rain":0.0,"pressure":950.2,"uv_index":7.6,"wind_gusts":31.3,"aqi":74,"pm10":21.7,"pm2_5":17.1,"mosquito_risk":0,"arthritis_risk":5,"migraine_risk":7,"frizz_risk":0,"updated_at":"2026-03-05T12:27:41.290968+05:30"},{"city":"Aurangabad","state":"Maharashtra","latitude":19.8762,"longitude":75.3433,"temp":34.0,"humidity":20,"rain":0.0,"pressure":948.7,"uv_index":8.1,"wind_gusts":28.1,"aqi":74,"pm10":19.6,"pm2_5":15.8,"mosquito_risk":0,"arthritis_risk":5,"migraine_risk":7,"frizz_risk":0,"updated_at":"2026-03-05T12:27:41.290975+05:30"},{"city":"Solapur","state":"Maharashtra","latitude":17.6599,"longitude":75.9064,"temp":33.8,"humidity":28,"rain":0.0,"pressure":961.2,"uv_index":8.35,"wind_gusts":17.3,"aqi":77,"pm10":24.7,"pm2_5":21.6,"mosquito_risk":0,"arthritis_risk":5,"migraine_risk":7,"frizz_risk":0,"updated_at":"2026-03-05T12:27:41.290982+05:30"},{"city":"Kolhapur","state":"Maharashtra","latitude":16.705,"longitude":74.2433,"temp":33.5,"humidity":25,"rain":0.0,"pressure":951.5,"uv_index":8.5,"wind_gusts":34.6,"aqi":154,"pm10":30.7,"pm2_5":28.3,"mosquito_risk":0,"arthritis_risk":5,"migraine_risk":7,"frizz_risk":0,"updated_at":"2026-03-05T12:27:41.290989+05:30"},{"city":"Goa","state":"Goa","latitude":15.2993,"longitude":74.124,"temp":31.6,"humidity":59,"rain":0.0,"pressure":1000.7,"uv_index":8.55,"wind_gusts":33.8,"aqi":152,"pm10":58.3,"pm2_5":55.9,"mosquito_risk":0,"arthritis_risk":5,"migraine_risk":4,"frizz_risk":1,"updated_at":"2026-03-05T12:27:41.290996+05:30"},{"city":"Jodhpur","state":"Rajasthan","latitude":26.2389,"longitude":73.0243,"temp":33.7,"humidity":22,"rain":0.0,"pressure":989.0,"uv_index":6.9,"wind_gusts":25.9,"aqi":85,"pm10":58.6,"pm2_5":23.3,"mosquito_risk":0,"arthritis_risk":5,"migraine_risk":7,"frizz_risk":0,"updated_at":"2026-03-05T12:27:41.291003+05:30"},{"city":"Udaipur","state":"Rajasthan","latitude":24.5854,"longitude":73.7125,"temp":32.6,"humidity":21,"rain":0.0,"pressure":952.8,"uv_index":7.55,"wind_gusts":25.9,"aqi":60,"pm10":17.3,"pm2_5":12.5,"mosquito_risk":0,"arthritis_risk":5,"migraine_risk":7,"frizz_risk":0,"updated_at":"2026-03-05T12:27:41.291010+05:30"},{"city":"Kota","state":"Rajasthan","latitude":25.2138,"longitude":75.8648,"temp":34.4,"humidity":27,"rain":0.0,"pressure":984.3,"uv_index":6.95,"wind_gusts":29.2,"aqi":72,"pm10":55.1,"pm2_5":21.3,"mosquito_risk":0,"arthritis_risk":5,"migraine_risk":7,"frizz_risk":0,"updated_at":"2026-03-05T12:27:41.291017+05:30"},{"city":"Bikaner","state":"Rajasthan","latitude":28.0229,"longitude":73.3119,"temp":32.3,"humidity":34,"rain":0.0,"pressure":987.4,"uv_index":6.6,"wind_gusts":22.0,"aqi":62,"pm10":24.5,"pm2_5":14.3,"mosquito_risk":0,"arthritis_risk":5,"migraine_risk":7,"frizz_risk":0,"updated_at":"2026-03-05T12:27:41.291025+05:30"},{"city":"Ajmer","state":"Rajasthan","latitude":26.4499,"longitude":74.6399,"temp":32.0,"humidity":28,"rain":0.0,"pressure":960.7,"uv_index":6.9,"wind_gusts":25.6,"aqi":65,"pm10":120.6,"pm2_5":29.8,"mosquito_risk":0,"arthritis_risk":5,"migraine_risk":7,"frizz_risk":0,"updated_at":"2026-03-05T12:27:41.291031+05:30"},{"city":"Gwalior","state":"Madhya Pradesh","latitude":26.2183,"longitude":78.1828,"temp":32.7,"humidity":31,"rain":0.0,"pressure":987.7,"uv_index":6.55,"wind_gusts":32.8,"aqi":66,"pm10":32.6,"pm2_5":16.8,"mosquito_risk":0,"arthritis_risk":5,"migraine_risk":7,"frizz_risk":0,"updated_at":"2026-03-05T12:27:41.291038+05:30"},{"city":"Indore","state":"Madhya Pradesh","latitude":22.7196,"longitude":75.8577,"temp":32.8,"humidity":26,"rain":0.0,"pressure":953.5,"uv_index":7.5,"wind_gusts":25.6,"aqi":78,"pm10":25.9,"pm2_5":13.0,"mosquito_risk":0,"arthritis_risk":5,"migraine_risk":7,"frizz_risk":0,"updated_at":"2026-03-05T12:27:41.291044+05:30"},{"city":"Bhopal","state":"Madhya Pradesh","latitude":23.2599,"longitude":77.4126,"temp":33.2,"humidity":23,"rain":0.0,"pressure":958.9,"uv_index":7.35,"wind_gusts":31.3,"aqi":57,"pm10":26.3,"pm2_5":12.8,"mosquito_risk":0,"arthritis_risk":5,"migraine_risk":7,"frizz_risk":0,"updated_at":"2026-03-05T12:27:41.291050+05:30"},{"city":"Jabalpur","state":"Madhya Pradesh","latitude":23.1815,"longitude":79.9864,"temp":31.7,"humidity":32,"rain":0.0,"pressure":965.7,"uv_index":7.5,"wind_gusts":30.6,"aqi":56,"pm10":17.1,"pm2_5":11.0,"mosquito_risk":0,"arthritis_risk":5,"migraine_risk":7,"frizz_risk":0,"updated_at":"2026-03-05T12:27:41.291057+05:30"},{"city":"Ujjain","state":"Madhya Pradesh","latitude":23.1765,"longitude":75.7885,"temp":33.0,"humidity":26,"rain":0.0,"pressure":959.2,"uv_index":7.4,"wind_gusts":24.1,"aqi":108,"pm10":32.7,"pm2_5":17.6,"mosquito_risk":0,"arthritis_risk":5,"migraine_risk":7,"frizz_risk":0,"updated_at":"2026-03-05T12:27:41.291065+05:30"},{"city":"Visakhapatnam","state":"Andhra Pradesh","latitude":17.6868,"longitude":83.2185,"temp":35.4,"humidity":36,"rain":0.0,"pressure":1005.0,"uv_index":8.45,"wind_gusts":32.4,"aqi":106,"pm10":47.7,"pm2_5":44.5,"mosquito_risk":0,"arthritis_risk":5,"migraine_risk":7,"frizz_risk":1,"updated_at":"2026-03-05T12:27:41.291072+05:30"},{"city":"Vijayawada","state":"Andhra Pradesh","latitude":16.5062,"longitude":80.648,"temp":34.1,"humidity":40,"rain":0.0,"pressure":1005.1,"uv_index":8.5,"wind_gusts":17.6,"aqi":116,"pm10":39.9,"pm2_5":38.1,"mosquito_risk":0,"arthritis_risk":5,"migraine_risk":4,"frizz_risk":1,"updated_at":"2026-03-05T12:27:41.291078+05:30"},{"city":"Guntur","state":"Andhra Pradesh","latitude":16.3067,"longitude":80.4365,"temp":35.2,"humidity":33,"rain":0.0,"pressure":1006.1,"uv_index":8.5,"wind_gusts":20.9,"aqi":113,"pm10":41.0,"pm2_5":39.1,"mosquito_risk":0,"arthritis_risk":5,"migraine_risk":7,"frizz_risk":1,"updated_at":"2026-03-05T12:27:41.291085+05:30"},{"city":"Nellore","state":"Andhra Pradesh","latitude":14.4426,"longitude":79.9865,"temp":36.1,"humidity":26,"rain":0.0,"pressure":1008.1,"uv_index":8.7,"wind_gusts":30.6,"aqi":100,"pm10":34.8,"pm2_5":32.1,"mosquito_risk":0,"arthritis_risk":0,"migraine_risk":7,"frizz_risk":0,"updated_at":"2026-03-05T12:27:41.291092+05:30"},{"city":"Kurnool","state":"Andhra Pradesh","latitude":15.8281,"longitude":78.0373,"temp":36.1,"humidity":21,"rain":0.0,"pressure":980.1,"uv_index":8.5,"wind_gusts":27.0,"aqi":78,"pm10":32.0,"pm2_5":29.3,"mosquito_risk":0,"arthritis_risk":5,"migraine_risk":10,"frizz_risk":0,"updated_at":"2026-03-05T12:27:41.291099+05:30"},{"city":"Kakinada","state":"Andhra Pradesh","latitude":16.9891,"longitude":82.2475,"temp":35.6,"humidity":35,"rain":0.0,"pressure":1009.0,"uv_index":8.45,"wind_gusts":27.7,"aqi":95,"pm10":41.1,"pm2_5":38.5,"mosquito_risk":0,"arthritis_risk":0,"migraine_risk":7,"frizz_risk":1,"updated_at":"2026-03-05T12:27:41.291106+05:30"},{"city":"Tirupati","state":"Andhra Pradesh","latitude":13.6288,"longitude":79.4192,"temp":34.9,"humidity":25,"rain":0.0,"pressure":994.3,"uv_index":8.8,"wind_gusts":28.8,"aqi":132,"pm10":32.5,"pm2_5":29.0,"mosquito_risk":0,"arthritis_risk":5,"migraine_risk":7,"frizz_risk":0,"updated_at":"2026-03-05T12:27:41.291112+05:30"},{"city":"Warangal","state":"Telangana","latitude":17.9689,"longitude":79.5941,"temp":35.0,"humidity":23,"rain":0.0,"pressure":982.0,"uv_index":8.3,"wind_gusts":30.2,"aqi":84,"pm10":23.6,"pm2_5":21.3,"mosquito_risk":0,"arthritis_risk":5,"migraine_risk":7,"frizz_risk":0,"updated_at":"2026-03-05T12:27:41.291119+05:30"},{"city":"Nizamabad","state":"Telangana","latitude":18.6725,"longitude":78.0941,"temp":34.3,"humidity":28,"rain":0.0,"pressure":968.8,"uv_index":8.15,"wind_gusts":22.7,"aqi":89,"pm10":19.8,"pm2_5":17.3,"mosquito_risk":0,"arthritis_risk":5,"migraine_risk":7,"frizz_risk":0,"updated_at":"2026-03-05T12:27:41.291126+05:30"},{"city":"Mysore","state":"Karnataka","latitude":12.2958,"longitude":76.6396,"temp":30.4,"humidity":39,"rain":0.0,"pressure":931.6,"uv_index":9.15,"wind_gusts":23.8,"aqi":94,"pm10":36.7,"pm2_5":35.0,"mosquito_risk":0,"arthritis_risk":5,"migraine_risk":7,"frizz_risk":0,"updated_at":"2026-03-05T12:27:41.291132+05:30"},{"city":"Mangalore","state":"Karnataka","latitude":12.9141,"longitude":74.856,"temp":28.2,"humidity":82,"rain":0.0,"pressure":1009.2,"uv_index":8.75,"wind_gusts":28.4,"aqi":127,"pm10":55.1,"pm2_5":51.5,"mosquito_risk":7,"arthritis_risk":0,"migraine_risk":4,"frizz_risk":1,"updated_at":"2026-03-05T12:27:41.291138+05:30"},{"city":"Hubli-Dharwad","state":"Karnataka","latitude":15.3647,"longitude":75.124,"temp":33.8,"humidity":28,"rain":0.0,"pressure":944.2,"uv_index":8.75,"wind_gusts":26.3,"aqi":81,"pm10":27.6,"pm2_5":25.9,"mosquito_risk":0,"arthritis_risk":5,"migraine_risk":7,"frizz_risk":0,"updated_at":"2026-03-05T12:27:41.291145+05:30"},{"city":"Belgaum","state":"Karnataka","latitude":15.8497,"longitude":74.4977,"temp":33.2,"humidity":25,"rain":0.0,"pressure":929.3,"uv_index":8.75,"wind_gusts":37.1,"aqi":127,"pm10":22.5,"pm2_5":20.2,"mosquito_risk":0,"arthritis_risk":5,"migraine_risk":7,"frizz_risk":0,"updated_at":"2026-03-05T12:27:44.503965+05:30"},{"city":"Coimbatore","state":"Tamil Nadu","latitude":11.0168,"longitude":76.9558,"temp":32.6,"humidity":32,"rain":0.0,"pressure":964.5,"uv_index":9.15,"wind_gusts":34.2,"aqi":101,"pm10":21.6,"pm2_5":20.9,"mosquito_risk":0,"arthritis_risk":5,"migraine_risk":7,"frizz_risk":0,"updated_at":"2026-03-05T12:27:44.503994+05:30"},{"city":"Madurai","state":"Tamil Nadu","latitude":9.9252,"longitude":78.1198,"temp":34.3,"humidity":35,"rain":0.0,"pressure":995.2,"uv_index":9.1,"wind_gusts":31.0,"aqi":74,"pm10":21.8,"pm2_5":20.1,"mosquito_risk":0,"arthritis_risk":5,"migraine_risk":7,"frizz_risk":1,"updated_at":"2026-03-05T12:27:44.504004+05:30"},{"city":"Trichy","state":"Tamil Nadu","latitude":10.7905,"longitude":78.7047,"temp":33.7,"humidity":38,"rain":0.0,"pressure":1002.3,"uv_index":9.0,"wind_gusts":34.2,"aqi":84,"pm10":35.7,"pm2_5":33.2,"mosquito_risk":0,"arthritis_risk":5,"migraine_risk":4,"frizz_risk":1,"updated_at":"2026-03-05T12:27:44.504012+05:30"},{"city":"Salem","state":"Tamil Nadu","latitude":11.6643,"longitude":78.146,"temp":33.3,"humidity":35,"rain":0.0,"pressure":979.9,"uv_index":9.05,"wind_gusts":23.0,"aqi":89,"pm10":33.3,"pm2_5":31.8,"mosquito_risk":0,"arthritis_risk":5,"migraine_risk":7,"frizz_risk":0,"updated_at":"2026-03-05T12:27:44.504019+05:30"},{"city":"Tirunelveli","state":"Tamil Nadu","latitude":8.7139,"longitude":77.7567,"temp":35.3,"humidity":33,"rain":0.0,"pressure":1005.4,"uv_index":9.15,"wind_gusts":47.5,"aqi":71,"pm10":15.4,"pm2_5":14.4,"mosquito_risk":0,"arthritis_risk":5,"migraine_risk":7,"frizz_risk":1,"updated_at":"2026-03-05T12:27:44.504026+05:30"},{"city":"Vellore","state":"Tamil Nadu","latitude":12.9165,"longitude":79.1325,"temp":34.2,"humidity":25,"rain":0.0,"pressure":987.3,"uv_index":8.9,"wind_gusts":28.4,"aqi":120,"pm10":30.7,"pm2_5":27.7,"mosquito_risk":0,"arthritis_risk":5,"migraine_risk":7,"frizz_risk":0,"updated_at":"2026-03-05T12:27:44.504034+05:30"},{"city":"Erode","state":"Tamil Nadu","latitude":11.341,"longitude":77.7172,"temp":33.7,"humidity":35,"rain":0.0,"pressure":991.6,"uv_index":9.05,"wind_gusts":23.4,"aqi":81,"pm10":26.7,"pm2_5":25.1,"mosquito_risk":0,"arthritis_risk":5,"migraine_risk":7,"frizz_risk":1,"updated_at":"2026-03-05T12:27:44.504041+05:30"},{"city":"Kochi","state":"Kerala","latitude":9.9312,"longitude":76.2673,"temp":27.7,"humidity":78,"rain":0.0,"pressure":1011.0,"uv_index":8.95,"wind_gusts":37.4,"aqi":138,"pm10":52.4,"pm2_5":49.6,"mosquito_risk":7,"arthritis_risk":0,"migraine_risk":4,"frizz_risk":1,"updated_at":"2026-03-05T12:27:44.504048+05:30"},{"city":"Thiruvananthapuram","state":"Kerala","latitude":8.5241,"longitude":76.9366,"temp":27.7,"humidity":74,"rain":0.0,"pressure":1010.2,"uv_index":9.0,"wind_gusts":28.1,"aqi":89,"pm10":38.2,"pm2_5":35.9,"mosquito_risk":7,"arthritis_risk":0,"migraine_risk":4,"frizz_risk":1,"updated_at":"2026-03-05T12:27:44.504055+05:30"},{"city":"Kozhikode","state":"Kerala","latitude":11.2588,"longitude":75.7804,"temp":29.2,"humidity":75,"rain":0.0,"pressure":1010.3,"uv_index":8.85,"wind_gusts":30.2,"aqi":123,"pm10":57.7,"pm2_5":53.7,"mosquito_risk":7,"arthritis_risk":0,"migraine_risk":4,"frizz_risk":1,"updated_at":"2026-03-05T12:27:44.504061+05:30"},{"city":"Thrissur","state":"Kerala","latitude":10.5276,"longitude":76.2144,"temp":33.5,"humidity":50,"rain":0.0,"pressure":1008.9,"uv_index":8.95,"wind_gusts":37.1,"aqi":142,"pm10":45.5,"pm2_5":42.7,"mosquito_risk":0,"arthritis_risk":0,"migraine_risk":4,"frizz_risk":1,"updated_at":"2026-03-05T12:27:44.504069+05:30"},{"city":"Kannur","state":"Kerala","latitude":11.8745,"longitude":75.3704,"temp":30.5,"humidity":68,"rain":0.0,"pressure":1009.7,"uv_index":8.85,"wind_gusts":33.8,"aqi":127,"pm10":50.5,"pm2_5":46.8,"mosquito_risk":3,"arthritis_risk":0,"migraine_risk":4,"frizz_risk":1,"updated_at":"2026-03-05T12:27:44.504076+05:30"},{"city":"Patna","state":"Bihar","latitude":25.5941,"longitude":85.1376,"temp":30.2,"humidity":42,"rain":0.0,"pressure":1003.9,"uv_index":7.2,"wind_gusts":15.8,"aqi":169,"pm10":97.8,"pm2_5":64.7,"mosquito_risk":0,"arthritis_risk":5,"migraine_risk":4,"frizz_risk":0,"updated_at":"2026-03-05T12:27:44.504083+05:30"},{"city":"Gaya","state":"Bihar","latitude":24.7914,"longitude":85.0002,"temp":29.2,"humidity":51,"rain":0.0,"pressure":997.1,"uv_index":7.3,"wind_gusts":13.3,"aqi":152,"pm10":106.6,"pm2_5":54.4,"mosquito_risk":4,"arthritis_risk":5,"migraine_risk":7,"frizz_risk":1,"updated_at":"2026-03-05T12:27:44.504089+05:30"},{"city":"Muzaffarpur","state":"Bihar","latitude":26.1209,"longitude":85.3647,"temp":30.6,"humidity":42,"rain":0.0,"pressure":1003.8,"uv_index":7.15,"wind_gusts":16.6,"aqi":175,"pm10":93.6,"pm2_5":65.9,"mosquito_risk":0,"arthritis_risk":5,"migraine_risk":4,"frizz_risk":1,"updated_at":"2026-03-05T12:27:44.504096+05:30"},{"city":"Bhagalpur","state":"Bihar","latitude":25.2425,"longitude":87.0117,"temp":29.6,"humidity":48,"rain":0.0,"pressure":1004.5,"uv_index":7.25,"wind_gusts":14.0,"aqi":164,"pm10":84.1,"pm2_5":62.2,"mosquito_risk":4,"arthritis_risk":5,"migraine_risk":4,"frizz_risk":1,"updated_at":"2026-03-05T12:27:44.504103+05:30"},{"city":"Ranchi","state":"Jharkhand","latitude":23.3441,"longitude":85.3096,"temp":28.5,"humidity":35,"rain":0.0,"pressure":940.3,"uv_index":7.95,"wind_gusts":18.7,"aqi":108,"pm10":162.5,"pm2_5":51.6,"mosquito_risk":4,"arthritis_risk":5,"migraine_risk":7,"frizz_risk":0,"updated_at":"2026-03-05T12:27:44.504110+05:30"},{"city":"Jamshedpur","state":"Jharkhand","latitude":22.8046,"longitude":86.2029,"temp":31.9,"humidity":31,"rain":0.0,"pressure":992.9,"uv_index":7.85,"wind_gusts":10.8,"aqi":154,"pm10":102.7,"pm2_5":58.9,"mosquito_risk":0,"arthritis_risk":5,"migraine_risk":7,"frizz_risk":0,"updated_at":"2026-03-05T12:27:44.504116+05:30"},{"city":"Dhanbad","state":"Jharkhand","latitude":23.7957,"longitude":86.4304,"temp":32.3,"humidity":25,"rain":0.0,"pressure":982.3,"uv_index":7.75,"wind_gusts":16.2,"aqi":156,"pm10":118.7,"pm2_5":65.4,"mosquito_risk":0,"arthritis_risk":5,"migraine_risk":7,"frizz_risk":0,"updated_at":"2026-03-05T12:27:44.504123+05:30"},{"city":"Bokaro","state":"Jharkhand","latitude":23.6693,"longitude":86.1511,"temp":31.8,"humidity":29,"rain":0.0,"pressure":986.3,"uv_index":7.75,"wind_gusts":13.3,"aqi":157,"pm10":130.4,"pm2_5":62.9,"mosquito_risk":0,"arthritis_risk":5,"migraine_risk":7,"frizz_risk":0,"updated_at":"2026-03-05T12:27:44.504130+05:30"},{"city":"Bhubaneswar","state":"Odisha","latitude":20.2961,"longitude":85.8245,"temp":34.7,"humidity":32,"rain":0.0,"pressure":1003.8,"uv_index":8.15,"wind_gusts":29.9,"aqi":153,"pm10":78.2,"pm2_5":68.9,"mosquito_risk":0,"arthritis_risk":5,"migraine_risk":4,"frizz_risk":0,"updated_at":"2026-03-05T12:27:44.504136+05:30"},{"city":"Cuttack","state":"Odisha","latitude":20.4625,"longitude":85.8828,"temp":34.9,"humidity":32,"rain":0.0,"pressure":1005.8,"uv_index":8.2,"wind_gusts":24.8,"aqi":153,"pm10":78.2,"pm2_5":68.9,"mosquito_risk":0,"arthritis_risk":5,"migraine_risk":4,"frizz_risk":0,"updated_at":"2026-03-05T12:27:44.504143+05:30"},{"city":"Rourkela","state":"Odisha","latitude":22.2604,"longitude":84.8536,"temp":32.4,"humidity":30,"rain":0.0,"pressure":987.2,"uv_index":7.8,"wind_gusts":23.4,"aqi":102,"pm10":145.8,"pm2_5":46.2,"mosquito_risk":0,"arthritis_risk":5,"migraine_risk":7,"frizz_risk":0,"updated_at":"2026-03-05T12:27:44.504149+05:30"},{"city":"Raipur","state":"Chhattisgarh","latitude":21.2514,"longitude":81.6296,"temp":35.0,"humidity":21,"rain":0.0,"pressure":977.9,"uv_index":7.85,"wind_gusts":26.3,"aqi":119,"pm10":23.0,"pm2_5":19.8,"mosquito_risk":0,"arthritis_risk":5,"migraine_risk":7,"frizz_risk":0,"updated_at":"2026-03-05T12:27:44.504156+05:30"},{"city":"Bhilai","state":"Chhattisgarh","latitude":21.1938,"longitude":81.3509,"temp":35.7,"humidity":20,"rain":0.0,"pressure":978.2,"uv_index":7.85,"wind_gusts":25.9,"aqi":99,"pm10":20.2,"pm2_5":16.4,"mosquito_risk":0,"arthritis_risk":5,"migraine_risk":10,"frizz_risk":0,"updated_at":"2026-03-05T12:27:44.504162+05:30"},{"city":"Guwahati","state":"Assam","latitude":26.1158,"longitude":91.7086,"temp":29.9,"humidity":49,"rain":0.0,"pressure":1003.8,"uv_index":7.15,"wind_gusts":16.2,"aqi":148,"pm10":49.6,"pm2_5":41.1,"mosquito_risk":4,"arthritis_risk":5,"migraine_risk":4,"frizz_risk":1,"updated_at":"2026-03-05T12:27:44.504169+05:30"},{"city":"Agartala","state":"Tripura","latitude":23.8315,"longitude":91.2868,"temp":30.8,"humidity":46,"rain":0.0,"pressure":1008.0,"uv_index":7.55,"wind_gusts":18.0,"aqi":153,"pm10":65.4,"pm2_5":45.1,"mosquito_risk":0,"arthritis_risk":0,"migraine_risk":4,"frizz_risk":1,"updated_at":"2026-03-05T12:27:44.504176+05:30"},{"city":"Shillong","state":"Meghalaya","latitude":25.5788,"longitude":91.8933,"temp":21.1,"humidity":40,"rain":0.0,"pressure":859.2,"uv_index":7.55,"wind_gusts":14.8,"aqi":114,"pm10":42.6,"pm2_5":34.8,"mosquito_risk":0,"arthritis_risk":5,"migraine_risk":7,"frizz_risk":0,"updated_at":"2026-03-05T12:27:44.504184+05:30"},{"city":"Imphal","state":"Manipur","latitude":24.817,"longitude":93.9368,"temp":25.1,"humidity":40,"rain":0.0,"pressure":925.3,"uv_index":7.75,"wind_gusts":21.2,"aqi":150,"pm10":40.9,"pm2_5":34.6,"mosquito_risk":4,"arthritis_risk":5,"migraine_risk":7,"frizz_risk":0,"updated_at":"2026-03-05T12:27:44.504190+05:30"},{"city":"Aizawl","state":"Mizoram","latitude":23.7271,"longitude":92.7176,"temp":26.1,"humidity":36,"rain":0.0,"pressure":895.2,"uv_index":7.75,"wind_gusts":22.7,"aqi":160,"pm10":62.6,"pm2_5":52.4,"mosquito_risk":4,"arthritis_risk":5,"migraine_risk":7,"frizz_risk":0,"updated_at":"2026-03-05T12:27:44.504197+05:30"},{"city":"Kohima","state":"Nagaland","latitude":25.6701,"longitude":94.1077,"temp":19.6,"humidity":61,"rain":0.0,"pressure":857.6,"uv_index":7.6,"wind_gusts":38.9,"aqi":151,"pm10":43.8,"pm2_5":36.3,"mosquito_risk":3,"arthritis_risk":5,"migraine_risk":7,"frizz_risk":0,"updated_at":"2026-03-05T12:27:44.504203+05:30"},{"city":"Gangtok","state":"Sikkim","latitude":27.3314,"longitude":88.6138,"temp":21.4,"humidity":51,"rain":0.0,"pressure":841.2,"uv_index":7.5,"wind_gusts":23.0,"aqi":113,"pm10":32.0,"pm2_5":28.0,"mosquito_risk":0,"arthritis_risk":5,"migraine_risk":7,"frizz_risk":0,"updated_at":"2026-03-05T12:27:44.504210+05:30"},{"city":"Siliguri","state":"West Bengal","latitude":26.7271,"longitude":88.3953,"temp":26.0,"humidity":60,"rain":0.0,"pressure":996.8,"uv_index":7.15,"wind_gusts":23.8,"aqi":146,"pm10":36.6,"pm2_5":29.0,"mosquito_risk":4,"arthritis_risk":5,"migraine_risk":7,"frizz_risk":1,"updated_at":"2026-03-05T12:27:47.720392+05:30"},{"city":"Durgapur","state":"West Bengal","latitude":23.5204,"longitude":87.3119,"temp":33.5,"humidity":28,"rain":0.0,"pressure":997.3,"uv_index":7.7,"wind_gusts":16.9,"aqi":157,"pm10":102.7,"pm2_5":64.3,"mosquito_risk":0,"arthritis_risk":5,"migraine_risk":7,"frizz_risk":0,"updated_at":"2026-03-05T12:27:47.720425+05:30"},{"city":"Asansol","state":"West Bengal","latitude":23.6739,"longitude":86.9524,"temp":33.1,"humidity":27,"rain":0.0,"pressure":995.8,"uv_index":7.7,"wind_gusts":19.8,"aqi":150,"pm10":109.4,"pm2_5":63.3,"mosquito_risk":0,"arthritis_risk":5,"migraine_risk":7,"frizz_risk":0,"updated_at":"2026-03-05T12:27:47.720438+05:30"},{"city":"Pondicherry","state":"Puducherry","latitude":11.9139,"longitude":79.8145,"temp":33.9,"humidity":44,"rain":0.0,"pressure":1010.8,"uv_index":8.85,"wind_gusts":25.6,"aqi":78,"pm10":25.8,"pm2_5":22.1,"mosquito_risk":0,"arthritis_risk":0,"migraine_risk":4,"frizz_risk":1,"updated_at":"2026-03-05T12:27:47.720448+05:30"},{"city":"Port Blair","state":"Andaman and Nicobar Islands","latitude":11.6234,"longitude":92.7265,"temp":26.8,"humidity":71,"rain":0.0,"pressure":1008.0,"uv_index":8.8,"wind_gusts":23.4,"aqi":81,"pm10":23.7,"pm2_5":20.2,"mosquito_risk":7,"arthritis_risk":0,"migraine_risk":4,"frizz_risk":1,"updated_at":"2026-03-05T12:27:47.720457+05:30"},{"city":"Haridwar","state":"Uttarakhand","latitude":29.9457,"longitude":78.1642,"temp":27.5,"humidity":59,"rain":0.0,"pressure":978.0,"uv_index":5.65,"wind_gusts":22.3,"aqi":133,"pm10":84.5,"pm2_5":47.8,"mosquito_risk":4,"arthritis_risk":5,"migraine_risk":3,"frizz_risk":1,"updated_at":"2026-03-05T12:27:47.720467+05:30"},{"city":"Rishikesh","state":"Uttarakhand","latitude":30.0869,"longitude":78.2676,"temp":27.5,"humidity":56,"rain":0.0,"pressure":970.7,"uv_index":5.7,"wind_gusts":21.6,"aqi":106,"pm10":90.3,"pm2_5":44.8,"mosquito_risk":4,"arthritis_risk":5,"migraine_risk":3,"frizz_risk":1,"updated_at":"2026-03-05T12:27:47.720503+05:30"},{"city":"Nainital","state":"Uttarakhand","latitude":29.3919,"longitude":79.4542,"temp":20.2,"humidity":71,"rain":0.0,"pressure":809.5,"uv_index":6.5,"wind_gusts":53.6,"aqi":152,"pm10":93.8,"pm2_5":51.6,"mosquito_risk":3,"arthritis_risk":5,"migraine_risk":7,"frizz_risk":0,"updated_at":"2026-03-05T12:27:47.720518+05:30"},{"city":"Mussoorie","state":"Uttarakhand","latitude":30.4599,"longitude":78.0664,"temp":20.9,"humidity":61,"rain":0.0,"pressure":806.9,"uv_index":6.05,"wind_gusts":37.4,"aqi":101,"pm10":49.8,"pm2_5":32.7,"mosquito_risk":3,"arthritis_risk":5,"migraine_risk":7,"frizz_risk":0,"updated_at":"2026-03-05T12:27:47.720526+05:30"},{"city":"Dharamshala","state":"Himachal Pradesh","latitude":32.219,"longitude":76.3234,"temp":27.1,"humidity":36,"rain":0.0,"pressure":874.1,"uv_index":6.3,"wind_gusts":24.8,"aqi":51,"pm10":16.9,"pm2_5":6.2,"mosquito_risk":4,"arthritis_risk":5,"migraine_risk":7,"frizz_risk":0,"updated_at":"2026-03-05T12:27:47.720533+05:30"},{"city":"Dalhousie","state":"Himachal Pradesh","latitude":32.5387,"longitude":75.971,"temp":27.4,"humidity":19,"rain":0.0,"pressure":810.6,"uv_index":6.45,"wind_gusts":22.3,"aqi":83,"pm10":32.6,"pm2_5":15.7,"mosquito_risk":4,"arthritis_risk":5,"migraine_risk":7,"frizz_risk":0,"updated_at":"2026-03-05T12:27:47.720541+05:30"},{"city":"Patiala","state":"Punjab","latitude":30.3398,"longitude":76.3869,"temp":30.1,"humidity":43,"rain":0.0,"pressure":982.0,"uv_index":5.7,"wind_gusts":26.6,"aqi":307,"pm10":376.3,"pm2_5":85.7,"mosquito_risk":0,"arthritis_risk":5,"migraine_risk":3,"frizz_risk":1,"updated_at":"2026-03-05T12:27:47.720548+05:30"},{"city":"Bhatinda","state":"Punjab","latitude":30.211,"longitude":74.9455,"temp":31.2,"humidity":47,"rain":0.0,"pressure":987.9,"uv_index":6.35,"wind_gusts":26.6,"aqi":135,"pm10":86.4,"pm2_5":58.1,"mosquito_risk":0,"arthritis_risk":5,"migraine_risk":7,"frizz_risk":1,"updated_at":"2026-03-05T12:27:47.720555+05:30"},{"city":"Rohtak","state":"Haryana","latitude":28.8955,"longitude":76.6066,"temp":30.3,"humidity":48,"rain":0.0,"pressure":986.1,"uv_index":5.85,"wind_gusts":30.2,"aqi":517,"pm10":581.1,"pm2_5":99.2,"mosquito_risk":0,"arthritis_risk":5,"migraine_risk":3,"frizz_risk":1,"updated_at":"2026-03-05T12:27:47.720562+05:30"},{"city":"Panipat","state":"Haryana","latitude":29.3909,"longitude":76.9635,"temp":30.7,"humidity":46,"rain":0.0,"pressure":984.3,"uv_index":5.65,"wind_gusts":29.9,"aqi":1171,"pm10":1084.1,"pm2_5":154.1,"mosquito_risk":0,"arthritis_risk":5,"migraine_risk":3,"frizz_risk":1,"updated_at":"2026-03-05T12:27:47.720568+05:30"},{"city":"Mathura","state":"Uttar Pradesh","latitude":27.4924,"longitude":77.6737,"temp":32.0,"humidity":39,"rain":0.0,"pressure":991.2,"uv_index":6.15,"wind_gusts":32.4,"aqi":556,"pm10":516.0,"pm2_5":80.1,"mosquito_risk":0,"arthritis_risk":5,"migraine_risk":7,"frizz_risk":1,"updated_at":"2026-03-05T12:27:47.720575+05:30"},{"city":"Vrindavan","state":"Uttar Pradesh","latitude":27.5823,"longitude":77.7027,"temp":31.3,"humidity":41,"rain":0.0,"pressure":991.5,"uv_index":6.1,"wind_gusts":34.2,"aqi":556,"pm10":516.0,"pm2_5":80.1,"mosquito_risk":0,"arthritis_risk":5,"migraine_risk":7,"frizz_risk":1,"updated_at":"2026-03-05T12:27:47.720581+05:30"},{"city":"Ayodhya","state":"Uttar Pradesh","latitude":26.7922,"longitude":82.1998,"temp":29.6,"humidity":50,"rain":0.0,"pressure":998.9,"uv_index":6.55,"wind_gusts":10.4,"aqi":176,"pm10":148.1,"pm2_5":74.5,"mosquito_risk":4,"arthritis_risk":5,"migraine_risk":7,"frizz_risk":1,"updated_at":"2026-03-05T12:27:47.720588+05:30"},{"city":"Ratlam","state":"Madhya Pradesh","latitude":23.3315,"longitude":75.0367,"temp":33.1,"humidity":28,"rain":0.0,"pressure":960.3,"uv_index":7.35,"wind_gusts":22.3,"aqi":95,"pm10":32.5,"pm2_5":15.8,"mosquito_risk":0,"arthritis_risk":5,"migraine_risk":7,"frizz_risk":0,"updated_at":"2026-03-05T12:27:47.720595+05:30"},{"city":"Sagar","state":"Madhya Pradesh","latitude":23.8388,"longitude":78.7378,"temp":33.0,"humidity":23,"rain":0.0,"pressure":954.9,"uv_index":7.3,"wind_gusts":33.8,"aqi":47,"pm10":28.8,"pm2_5":12.0,"mosquito_risk":0,"arthritis_risk":5,"migraine_risk":7,"frizz_risk":0,"updated_at":"2026-03-05T12:27:47.720602+05:30"},{"city":"Satna","state":"Madhya Pradesh","latitude":24.6005,"longitude":80.8322,"temp":33.8,"humidity":24,"rain":0.0,"pressure":974.8,"uv_index":7.3,"wind_gusts":41.0,"aqi":64,"pm10":57.3,"pm2_5":21.2,"mosquito_risk":0,"arthritis_risk":5,"migraine_risk":7,"frizz_risk":0,"updated_at":"2026-03-05T12:27:47.720608+05:30"},{"city":"Akola","state":"Maharashtra","latitude":20.7002,"longitude":77.0082,"temp":35.7,"humidity":22,"rain":0.0,"pressure":979.6,"uv_index":7.8,"wind_gusts":23.4,"aqi":79,"pm10":16.8,"pm2_5":13.2,"mosquito_risk":0,"arthritis_risk":5,"migraine_risk":10,"frizz_risk":0,"updated_at":"2026-03-05T12:27:47.720617+05:30"},{"city":"Amravati","state":"Maharashtra","latitude":20.9374,"longitude":77.7796,"temp":35.7,"humidity":17,"rain":0.0,"pressure":971.8,"uv_index":7.8,"wind_gusts":16.9,"aqi":76,"pm10":14.3,"pm2_5":11.5,"mosquito_risk":0,"arthritis_risk":5,"migraine_risk":10,"frizz_risk":0,"updated_at":"2026-03-05T12:27:47.720625+05:30"},{"city":"Latur","state":"Maharashtra","latitude":18.4088,"longitude":76.5604,"temp":33.4,"humidity":20,"rain":0.0,"pressure":944.2,"uv_index":8.3,"wind_gusts":32.0,"aqi":97,"pm10":23.9,"pm2_5":20.7,"mosquito_risk":0,"arthritis_risk":5,"migraine_risk":7,"frizz_risk":0,"updated_at":"2026-03-05T12:27:47.720632+05:30"},{"city":"Nanded","state":"Maharashtra","latitude":19.1383,"longitude":77.3091,"temp":35.8,"humidity":19,"rain":0.0,"pressure":972.8,"uv_index":8.05,"wind_gusts":25.2,"aqi":96,"pm10":17.2,"pm2_5":14.2,"mosquito_risk":0,"arthritis_risk":5,"migraine_risk":10,"frizz_risk":0,"updated_at":"2026-03-05T12:27:47.720638+05:30"},{"city":"Gulbarga","state":"Karnataka","latitude":17.3297,"longitude":76.8343,"temp":35.4,"humidity":21,"rain":0.0,"pressure":962.5,"uv_index":8.35,"wind_gusts":21.6,"aqi":77,"pm10":21.7,"pm2_5":18.7,"mosquito_risk":0,"arthritis_risk":5,"migraine_risk":10,"frizz_risk":0,"updated_at":"2026-03-05T12:27:47.720644+05:30"},{"city":"Bidar","state":"Karnataka","latitude":17.9104,"longitude":77.5199,"temp":33.7,"humidity":23,"rain":0.0,"pressure":939.6,"uv_index":8.3,"wind_gusts":24.1,"aqi":94,"pm10":14.6,"pm2_5":12.4,"mosquito_risk":0,"arthritis_risk":5,"migraine_risk":7,"frizz_risk":0,"updated_at":"2026-03-05T12:27:47.720651+05:30"},{"city":"Hospet","state":"Karnataka","latitude":15.2689,"longitude":76.3909,"temp":32.3,"humidity":36,"rain":0.0,"pressure":959.3,"uv_index":8.7,"wind_gusts":23.8,"aqi":84,"pm10":23.7,"pm2_5":21.7,"mosquito_risk":0,"arthritis_risk":5,"migraine_risk":7,"frizz_risk":0,"updated_at":"2026-03-05T12:27:47.720657+05:30"},{"city":"Tirupur","state":"Tamil Nadu","latitude":11.1085,"longitude":77.3411,"temp":33.4,"humidity":33,"rain":0.0,"pressure":978.0,"uv_index":9.15,"wind_gusts":28.8,"aqi":101,"pm10":25.1,"pm2_5":24.2,"mosquito_risk":0,"arthritis_risk":5,"migraine_risk":7,"frizz_risk":0,"updated_at":"2026-03-05T12:27:47.720663+05:30"},{"city":"Alappuzha","state":"Kerala","latitude":9.4981,"longitude":76.3388,"temp":27.6,"humidity":79,"rain":0.0,"pressure":1011.1,"uv_index":8.95,"wind_gusts":36.4,"aqi":117,"pm10":40.9,"pm2_5":38.6,"mosquito_risk":7,"arthritis_risk":0,"migraine_risk":4,"frizz_risk":1,"updated_at":"2026-03-05T12:27:47.720669+05:30"},{"city":"Munnar","state":"Kerala","latitude":10.0889,"longitude":77.0595,"temp":28.4,"humidity":45,"rain":0.0,"pressure":860.6,"uv_index":9.45,"wind_gusts":24.5,"aqi":74,"pm10":17.2,"pm2_5":16.5,"mosquito_risk":4,"arthritis_risk":5,"migraine_risk":7,"frizz_risk":0,"updated_at":"2026-03-05T12:27:47.720676+05:30"},{"city":"Silchar","state":"Assam","latitude":24.8333,"longitude":92.7789,"temp":31.6,"humidity":36,"rain":0.0,"pressure":1006.7,"uv_index":7.5,"wind_gusts":15.1,"aqi":151,"pm10":61.0,"pm2_5":49.2,"mosquito_risk":0,"arthritis_risk":5,"migraine_risk":4,"frizz_risk":0,"updated_at":"2026-03-05T12:27:47.720683+05:30"},{"city":"Dibrugarh","state":"Assam","latitude":27.4728,"longitude":94.912,"temp":28.0,"humidity":57,"rain":0.0,"pressure":997.7,"uv_index":7.2,"wind_gusts":11.5,"aqi":129,"pm10":54.8,"pm2_5":44.1,"mosquito_risk":4,"arthritis_risk":5,"migraine_risk":7,"frizz_risk":1,"updated_at":"2026-03-05T12:27:47.720689+05:30"}]