[{"city":"Delhi","state":"Delhi","latitude":28.6139,"longitude":77.209,"temp":26.8,"humidity":97,"rain":0.0,"pressure":974.4,"uv_index":6.0,"wind_gusts":25.6,"aqi":151,"pm10":97.8,"pm2_5":68.9,"no2":45.2,"co":762.0,"o3":72.0,"so2":39.9,"mosquito_risk":7,"arthritis_risk":5,"migraine_risk":3,"frizz_risk":1,"updated_at":"2026-07-08T01:28:43.699494+05:30"},{"city":"Mumbai","state":"Maharashtra","latitude":19.076,"longitude":72.8777,"temp":25.9,"humidity":95,"rain":0.4,"pressure":1001.3,"uv_index":1.5,"wind_gusts":45.0,"aqi":54,"pm10":21.5,"pm2_5":10.7,"no2":4.3,"co":170.0,"o3":65.0,"so2":3.3,"mosquito_risk":10,"arthritis_risk":5,"migraine_risk":0,"frizz_risk":1,"updated_at":"2026-07-08T01:28:43.699546+05:30"},{"city":"Bangalore","state":"Karnataka","latitude":12.9716,"longitude":77.5946,"temp":21.5,"humidity":83,"rain":0.0,"pressure":910.0,"uv_index":8.95,"wind_gusts":69.5,"aqi":24,"pm10":7.2,"pm2_5":4.5,"no2":6.8,"co":179.0,"o3":42.0,"so2":2.9,"mosquito_risk":3,"arthritis_risk":5,"migraine_risk":7,"frizz_risk":1,"updated_at":"2026-07-08T01:28:43.699562+05:30"},{"city":"Hyderabad","state":"Telangana","latitude":17.385,"longitude":78.4867,"temp":25.4,"humidity":75,"rain":0.0,"pressure":947.6,"uv_index":8.9,"wind_gusts":58.7,"aqi":28,"pm10":6.9,"pm2_5":4.4,"no2":6.3,"co":161.0,"o3":42.0,"so2":4.0,"mosquito_risk":7,"arthritis_risk":5,"migraine_risk":7,"frizz_risk":1,"updated_at":"2026-07-08T01:28:43.699572+05:30"},{"city":"Chennai","state":"Tamil Nadu","latitude":13.0827,"longitude":80.2707,"temp":32.5,"humidity":47,"rain":0.0,"pressure":1004.9,"uv_index":8.05,"wind_gusts":55.4,"aqi":60,"pm10":16.2,"pm2_5":10.6,"no2":14.4,"co":182.0,"o3":46.0,"so2":8.6,"mosquito_risk":0,"arthritis_risk":5,"migraine_risk":4,"frizz_risk":1,"updated_at":"2026-07-08T01:28:43.699581+05:30"},{"city":"Kolkata","state":"West Bengal","latitude":22.5726,"longitude":88.3639,"temp":28.4,"humidity":86,"rain":0.0,"pressure":1000.4,"uv_index":6.3,"wind_gusts":30.6,"aqi":62,"pm10":21.1,"pm2_5":15.7,"no2":5.9,"co":187.0,"o3":69.0,"so2":5.7,"mosquito_risk":7,"arthritis_risk":5,"migraine_risk":4,"frizz_risk":1,"updated_at":"2026-07-08T01:28:43.699589+05:30"},{"city":"Pune","state":"Maharashtra","latitude":18.5204,"longitude":73.8567,"temp":23.2,"humidity":96,"rain":0.9,"pressure":940.7,"uv_index":2.25,"wind_gusts":53.3,"aqi":23,"pm10":3.1,"pm2_5":2.2,"no2":4.8,"co":134.0,"o3":49.0,"so2":3.8,"mosquito_risk":6,"arthritis_risk":5,"migraine_risk":3,"frizz_risk":1,"updated_at":"2026-07-08T01:28:43.699596+05:30"},{"city":"Ahmedabad","state":"Gujarat","latitude":23.0225,"longitude":72.5714,"temp":26.8,"humidity":97,"rain":0.2,"pressure":993.2,"uv_index":1.9,"wind_gusts":29.2,"aqi":89,"pm10":34.3,"pm2_5":25.0,"no2":14.4,"co":308.0,"o3":52.0,"so2":8.0,"mosquito_risk":10,"arthritis_risk":5,"migraine_risk":3,"frizz_risk":1,"updated_at":"2026-07-08T01:28:43.699603+05:30"},{"city":"Jaipur","state":"Rajasthan","latitude":26.9124,"longitude":75.7873,"temp":27.1,"humidity":85,"rain":0.0,"pressure":950.8,"uv_index":7.3,"wind_gusts":32.8,"aqi":71,"pm10":33.5,"pm2_5":30.0,"no2":28.1,"co":663.0,"o3":50.0,"so2":8.5,"mosquito_risk":7,"arthritis_risk":5,"migraine_risk":7,"frizz_risk":1,"updated_at":"2026-07-08T01:28:43.699610+05:30"},{"city":"Lucknow","state":"Uttar Pradesh","latitude":26.8467,"longitude":80.9462,"temp":26.3,"humidity":96,"rain":0.1,"pressure":984.1,"uv_index":5.65,"wind_gusts":46.1,"aqi":57,"pm10":21.7,"pm2_5":21.7,"no2":12.2,"co":312.0,"o3":82.0,"so2":10.1,"mosquito_risk":10,"arthritis_risk":5,"migraine_risk":3,"frizz_risk":1,"updated_at":"2026-07-08T01:28:43.699625+05:30"},{"city":"Kanpur","state":"Uttar Pradesh","latitude":26.4499,"longitude":80.3319,"temp":26.6,"humidity":96,"rain":0.1,"pressure":981.3,"uv_index":6.9,"wind_gusts":45.7,"aqi":58,"pm10":17.4,"pm2_5":17.3,"no2":12.1,"co":270.0,"o3":74.0,"so2":7.3,"mosquito_risk":10,"arthritis_risk":5,"migraine_risk":7,"frizz_risk":1,"updated_at":"2026-07-08T01:28:43.699631+05:30"},{"city":"Chandigarh","state":"Chandigarh","latitude":30.7333,"longitude":76.7794,"temp":27.2,"humidity":91,"rain":0.0,"pressure":960.6,"uv_index":5.55,"wind_gusts":31.3,"aqi":145,"pm10":77.5,"pm2_5":75.0,"no2":35.5,"co":1125.0,"o3":65.0,"so2":11.3,"mosquito_risk":7,"arthritis_risk":5,"migraine_risk":3,"frizz_risk":1,"updated_at":"2026-07-08T01:28:43.699638+05:30"},{"city":"Srinagar","state":"Jammu and Kashmir","latitude":34.0837,"longitude":74.7973,"temp":20.2,"humidity":89,"rain":0.0,"pressure":836.2,"uv_index":9.0,"wind_gusts":27.4,"aqi":73,"pm10":58.0,"pm2_5":52.2,"no2":37.8,"co":1199.0,"o3":11.0,"so2":1.7,"mosquito_risk":3,"arthritis_risk":5,"migraine_risk":7,"frizz_risk":1,"updated_at":"2026-07-08T01:28:43.699648+05:30"},{"city":"Jammu","state":"Jammu and Kashmir","latitude":32.7266,"longitude":74.857,"temp":29.4,"humidity":75,"rain":0.0,"pressure":963.6,"uv_index":8.45,"wind_gusts":33.8,"aqi":112,"pm10":64.0,"pm2_5":60.8,"no2":67.5,"co":692.0,"o3":18.0,"so2":8.4,"mosquito_risk":7,"arthritis_risk":5,"migraine_risk":7,"frizz_risk":1,"updated_at":"2026-07-08T01:28:43.699654+05:30"},{"city":"Amritsar","state":"Punjab","latitude":31.634,"longitude":74.8723,"temp":29.7,"humidity":82,"rain":0.0,"pressure":971.2,"uv_index":7.5,"wind_gusts":31.7,"aqi":156,"pm10":97.6,"pm2_5":77.1,"no2":31.9,"co":876.0,"o3":62.0,"so2":8.4,"mosquito_risk":7,"arthritis_risk":5,"migraine_risk":7,"frizz_risk":1,"updated_at":"2026-07-08T01:28:43.699660+05:30"},{"city":"Ludhiana","state":"Punjab","latitude":30.901,"longitude":75.8573,"temp":28.2,"humidity":89,"rain":0.0,"pressure":969.9,"uv_index":7.2,"wind_gusts":31.0,"aqi":155,"pm10":52.2,"pm2_5":49.1,"no2":22.3,"co":1470.0,"o3":78.0,"so2":9.9,"mosquito_risk":7,"arthritis_risk":5,"migraine_risk":7,"frizz_risk":1,"updated_at":"2026-07-08T01:28:43.699666+05:30"},{"city":"Jalandhar","state":"Punjab","latitude":31.326,"longitude":75.5762,"temp":28.0,"humidity":91,"rain":0.0,"pressure":970.8,"uv_index":7.4,"wind_gusts":29.2,"aqi":160,"pm10":105.2,"pm2_5":77.8,"no2":33.7,"co":1039.0,"o3":65.0,"so2":9.7,"mosquito_risk":7,"arthritis_risk":5,"migraine_risk":7,"frizz_risk":1,"updated_at":"2026-07-08T01:28:43.699672+05:30"},{"city":"Dehradun","state":"Uttarakhand","latitude":30.6284,"longitude":78.0322,"temp":19.2,"humidity":100,"rain":0.0,"pressure":825.3,"uv_index":3.45,"wind_gusts":16.9,"aqi":64,"pm10":15.4,"pm2_5":15.1,"no2":12.9,"co":271.0,"o3":94.0,"so2":2.6,"mosquito_risk":3,"arthritis_risk":10,"migraine_risk":3,"frizz_risk":1,"updated_at":"2026-07-08T01:28:43.699679+05:30"},{"city":"Shimla","state":"Himachal Pradesh","latitude":31.1048,"longitude":77.1734,"temp":16.3,"humidity":92,"rain":0.0,"pressure":779.5,"uv_index":8.15,"wind_gusts":17.3,"aqi":72,"pm10":49.4,"pm2_5":46.8,"no2":23.7,"co":423.0,"o3":66.0,"so2":0.9,"mosquito_risk":3,"arthritis_risk":10,"migraine_risk":7,"frizz_risk":0,"updated_at":"2026-07-08T01:28:43.699686+05:30"},{"city":"Manali","state":"Himachal Pradesh","latitude":32.2396,"longitude":77.1887,"temp":19.3,"humidity":87,"rain":0.1,"pressure":815.2,"uv_index":8.4,"wind_gusts":36.4,"aqi":39,"pm10":4.4,"pm2_5":4.4,"no2":21.2,"co":326.0,"o3":93.0,"so2":0.0,"mosquito_risk":6,"arthritis_risk":10,"migraine_risk":7,"frizz_risk":1,"updated_at":"2026-07-08T01:28:43.699695+05:30"},{"city":"Gurgaon","state":"Haryana","latitude":28.4595,"longitude":77.0266,"temp":26.8,"humidity":97,"rain":0.0,"pressure":972.8,"uv_index":5.95,"wind_gusts":24.8,"aqi":143,"pm10":318.5,"pm2_5":87.3,"no2":40.8,"co":581.0,"o3":74.0,"so2":34.1,"mosquito_risk":7,"arthritis_risk":5,"migraine_risk":3,"frizz_risk":1,"updated_at":"2026-07-08T01:28:43.699701+05:30"},{"city":"Noida","state":"Uttar Pradesh","latitude":28.5355,"longitude":77.391,"temp":26.7,"humidity":96,"rain":0.0,"pressure":975.8,"uv_index":5.9,"wind_gusts":26.3,"aqi":143,"pm10":318.5,"pm2_5":87.3,"no2":40.8,"co":682.0,"o3":74.0,"so2":34.1,"mosquito_risk":7,"arthritis_risk":5,"migraine_risk":3,"frizz_risk":1,"updated_at":"2026-07-08T01:28:43.699710+05:30"},{"city":"Ghaziabad","state":"Uttar Pradesh","latitude":28.6692,"longitude":77.4538,"temp":26.5,"humidity":93,"rain":0.0,"pressure":974.1,"uv_index":6.75,"wind_gusts":29.2,"aqi":141,"pm10":77.8,"pm2_5":50.8,"no2":21.2,"co":454.0,"o3":77.0,"so2":10.6,"mosquito_risk":7,"arthritis_risk":5,"migraine_risk":7,"frizz_risk":1,"updated_at":"2026-07-08T01:28:43.699716+05:30"},{"city":"Faridabad","state":"Haryana","latitude":28.4089,"longitude":77.3178,"temp":26.6,"humidity":97,"rain":0.0,"pressure":975.1,"uv_index":6.0,"wind_gusts":29.9,"aqi":143,"pm10":318.5,"pm2_5":87.3,"no2":40.8,"co":528.0,"o3":74.0,"so2":34.1,"mosquito_risk":7,"arthritis_risk":5,"migraine_risk":3,"frizz_risk":1,"updated_at":"2026-07-08T01:28:43.699722+05:30"},{"city":"Meerut","state":"Uttar Pradesh","latitude":28.9845,"longitude":77.7064,"temp":27.1,"humidity":88,"rain":0.0,"pressure":973.2,"uv_index":6.45,"wind_gusts":32.8,"aqi":141,"pm10":77.8,"pm2_5":50.8,"no2":21.2,"co":545.0,"o3":77.0,"so2":10.6,"mosquito_risk":7,"arthritis_risk":5,"migraine_risk":7,"frizz_risk":1,"updated_at":"2026-07-08T01:28:43.699728+05:30"},{"city":"Agra","state":"Uttar Pradesh","latitude":27.1767,"longitude":78.0081,"temp":26.1,"humidity":95,"rain":0.3,"pressure":978.2,"uv_index":6.25,"wind_gusts":32.8,"aqi":113,"pm10":13.9,"pm2_5":13.9,"no2":12.0,"co":277.0,"o3":92.0,"so2":6.5,"mosquito_risk":10,"arthritis_risk":5,"migraine_risk":7,"frizz_risk":1,"updated_at":"2026-07-08T01:28:43.699734+05:30"},{"city":"Varanasi","state":"Uttar Pradesh","latitude":25.3176,"longitude":82.9739,"temp":28.2,"humidity":85,"rain":0.0,"pressure":989.1,"uv_index":6.9,"wind_gusts":32.4,"aqi":62,"pm10":34.3,"pm2_5":33.8,"no2":23.0,"co":347.0,"o3":56.0,"so2":21.5,"mosquito_risk":7,"arthritis_risk":5,"migraine_risk":7,"frizz_risk":1,"updated_at":"2026-07-08T01:28:43.699740+05:30"},{"city":"Prayagraj","state":"Uttar Pradesh","latitude":25.4358,"longitude":81.8463,"temp":29.0,"humidity":77,"rain":0.0,"pressure":986.4,"uv_index":7.45,"wind_gusts":33.8,"aqi":59,"pm10":27.2,"pm2_5":26.7,"no2":17.6,"co":231.0,"o3":68.0,"so2":14.4,"mosquito_risk":7,"arthritis_risk":5,"migraine_risk":7,"frizz_risk":1,"updated_at":"2026-07-08T01:28:43.699747+05:30"},{"city":"Gorakhpur","state":"Uttar Pradesh","latitude":26.7606,"longitude":83.3732,"temp":26.6,"humidity":96,"rain":0.2,"pressure":990.0,"uv_index":6.25,"wind_gusts":37.8,"aqi":59,"pm10":18.2,"pm2_5":18.2,"no2":11.1,"co":298.0,"o3":85.0,"so2":6.6,"mosquito_risk":10,"arthritis_risk":5,"migraine_risk":7,"frizz_risk":1,"updated_at":"2026-07-08T01:28:43.699753+05:30"},{"city":"Bareilly","state":"Uttar Pradesh","latitude":28.367,"longitude":79.4304,"temp":26.8,"humidity":94,"rain":0.0,"pressure":978.4,"uv_index":5.45,"wind_gusts":43.2,"aqi":103,"pm10":16.4,"pm2_5":16.4,"no2":12.3,"co":349.0,"o3":75.0,"so2":6.5,"mosquito_risk":7,"arthritis_risk":5,"migraine_risk":3,"frizz_risk":1,"updated_at":"2026-07-08T01:28:43.699760+05:30"},{"city":"Aligarh","state":"Uttar Pradesh","latitude":27.8974,"longitude":78.088,"temp":26.3,"humidity":96,"rain":0.4,"pressure":976.8,"uv_index":4.7,"wind_gusts":33.5,"aqi":103,"pm10":29.9,"pm2_5":28.9,"no2":16.5,"co":279.0,"o3":81.0,"so2":11.3,"mosquito_risk":10,"arthritis_risk":5,"migraine_risk":3,"frizz_risk":1,"updated_at":"2026-07-08T01:28:43.699766+05:30"},{"city":"Moradabad","state":"Uttar Pradesh","latitude":28.8386,"longitude":78.7733,"temp":26.8,"humidity":93,"rain":0.2,"pressure":975.8,"uv_index":7.65,"wind_gusts":33.1,"aqi":152,"pm10":33.2,"pm2_5":33.1,"no2":17.5,"co":338.0,"o3":84.0,"so2":14.7,"mosquito_risk":10,"arthritis_risk":5,"migraine_risk":7,"frizz_risk":1,"updated_at":"2026-07-08T01:28:43.699772+05:30"},{"city":"Saharanpur","state":"Uttar Pradesh","latitude":29.9637,"longitude":77.546,"temp":26.7,"humidity":97,"rain":0.0,"pressure":968.0,"uv_index":3.25,"wind_gusts":26.3,"aqi":154,"pm10":81.3,"pm2_5":78.2,"no2":36.7,"co":578.0,"o3":82.0,"so2":17.8,"mosquito_risk":7,"arthritis_risk":5,"migraine_risk":3,"frizz_risk":1,"updated_at":"2026-07-08T01:28:43.699778+05:30"},{"city":"Jhansi","state":"Uttar Pradesh","latitude":25.4484,"longitude":78.5685,"temp":25.8,"humidity":96,"rain":0.2,"pressure":966.7,"uv_index":5.4,"wind_gusts":27.0,"aqi":53,"pm10":8.2,"pm2_5":8.2,"no2":8.0,"co":249.0,"o3":85.0,"so2":3.2,"mosquito_risk":10,"arthritis_risk":5,"migraine_risk":3,"frizz_risk":1,"updated_at":"2026-07-08T01:28:46.982857+05:30"},{"city":"Surat","state":"Gujarat","latitude":21.1702,"longitude":72.8311,"temp":27.0,"humidity":95,"rain":0.2,"pressure":997.7,"uv_index":1.35,"wind_gusts":40.3,"aqi":99,"pm10":41.7,"pm2_5":35.0,"no2":40.6,"co":433.0,"o3":30.0,"so2":50.6,"mosquito_risk":10,"arthritis_risk":5,"migraine_risk":3,"frizz_risk":1,"updated_at":"2026-07-08T01:28:46.982894+05:30"},{"city":"Vadodara","state":"Gujarat","latitude":22.3072,"longitude":73.1812,"temp":26.3,"humidity":98,"rain":0.2,"pressure":995.6,"uv_index":1.85,"wind_gusts":37.1,"aqi":87,"pm10":25.0,"pm2_5":21.5,"no2":13.6,"co":311.0,"o3":57.0,"so2":5.8,"mosquito_risk":10,"arthritis_risk":5,"migraine_risk":3,"frizz_risk":1,"updated_at":"2026-07-08T01:28:46.982905+05:30"},{"city":"Rajkot","state":"Gujarat","latitude":22.3039,"longitude":70.8022,"temp":27.4,"humidity":91,"rain":0.0,"pressure":985.4,"uv_index":6.95,"wind_gusts":44.6,"aqi":76,"pm10":34.2,"pm2_5":18.5,"no2":6.6,"co":115.0,"o3":47.0,"so2":5.9,"mosquito_risk":7,"arthritis_risk":5,"migraine_risk":7,"frizz_risk":1,"updated_at":"2026-07-08T01:28:46.982914+05:30"},{"city":"Thane","state":"Maharashtra","latitude":19.2183,"longitude":72.9781,"temp":25.3,"humidity":97,"rain":0.2,"pressure":1000.6,"uv_index":1.05,"wind_gusts":37.8,"aqi":54,"pm10":21.5,"pm2_5":10.7,"no2":4.3,"co":173.0,"o3":65.0,"so2":3.3,"mosquito_risk":10,"arthritis_risk":5,"migraine_risk":0,"frizz_risk":1,"updated_at":"2026-07-08T01:28:46.982922+05:30"},{"city":"Nagpur","state":"Maharashtra","latitude":21.1458,"longitude":79.0882,"temp":26.4,"humidity":82,"rain":0.0,"pressure":964.6,"uv_index":6.25,"wind_gusts":46.8,"aqi":39,"pm10":9.6,"pm2_5":9.4,"no2":12.9,"co":194.0,"o3":67.0,"so2":14.9,"mosquito_risk":7,"arthritis_risk":5,"migraine_risk":7,"frizz_risk":1,"updated_at":"2026-07-08T01:28:46.982930+05:30"},{"city":"Nashik","state":"Maharashtra","latitude":19.9975,"longitude":73.7898,"temp":23.0,"humidity":96,"rain":0.1,"pressure":937.7,"uv_index":3.4,"wind_gusts":51.8,"aqi":25,"pm10":3.8,"pm2_5":2.8,"no2":7.2,"co":146.0,"o3":52.0,"so2":2.3,"mosquito_risk":6,"arthritis_risk":5,"migraine_risk":3,"frizz_risk":1,"updated_at":"2026-07-08T01:28:46.982938+05:30"},{"city":"Aurangabad","state":"Maharashtra","latitude":19.8762,"longitude":75.3433,"temp":23.5,"humidity":96,"rain":0.1,"pressure":935.8,"uv_index":6.15,"wind_gusts":55.4,"aqi":30,"pm10":4.7,"pm2_5":4.3,"no2":12.0,"co":186.0,"o3":41.0,"so2":9.0,"mosquito_risk":6,"arthritis_risk":5,"migraine_risk":7,"frizz_risk":1,"updated_at":"2026-07-08T01:28:46.982945+05:30"},{"city":"Solapur","state":"Maharashtra","latitude":17.6599,"longitude":75.9064,"temp":25.3,"humidity":79,"rain":0.0,"pressure":951.2,"uv_index":7.05,"wind_gusts":58.7,"aqi":23,"pm10":2.7,"pm2_5":2.2,"no2":4.2,"co":121.0,"o3":43.0,"so2":2.2,"mosquito_risk":7,"arthritis_risk":5,"migraine_risk":7,"frizz_risk":1,"updated_at":"2026-07-08T01:28:46.982953+05:30"},{"city":"Kolhapur","state":"Maharashtra","latitude":16.705,"longitude":74.2433,"temp":22.3,"humidity":95,"rain":0.2,"pressure":942.8,"uv_index":7.8,"wind_gusts":69.8,"aqi":21,"pm10":3.4,"pm2_5":2.6,"no2":3.6,"co":116.0,"o3":44.0,"so2":1.6,"mosquito_risk":6,"arthritis_risk":5,"migraine_risk":7,"frizz_risk":1,"updated_at":"2026-07-08T01:28:46.982960+05:30"},{"city":"Goa","state":"Goa","latitude":15.2993,"longitude":74.124,"temp":24.5,"humidity":97,"rain":0.1,"pressure":995.7,"uv_index":8.5,"wind_gusts":50.0,"aqi":58,"pm10":25.6,"pm2_5":13.0,"no2":1.4,"co":207.0,"o3":44.0,"so2":0.7,"mosquito_risk":6,"arthritis_risk":5,"migraine_risk":7,"frizz_risk":1,"updated_at":"2026-07-08T01:28:46.982966+05:30"},{"city":"Jodhpur","state":"Rajasthan","latitude":26.2389,"longitude":73.0243,"temp":27.5,"humidity":92,"rain":0.6,"pressure":973.8,"uv_index":8.15,"wind_gusts":33.8,"aqi":85,"pm10":205.4,"pm2_5":61.0,"no2":7.1,"co":195.0,"o3":60.0,"so2":3.6,"mosquito_risk":10,"arthritis_risk":5,"migraine_risk":7,"frizz_risk":1,"updated_at":"2026-07-08T01:28:46.982973+05:30"},{"city":"Udaipur","state":"Rajasthan","latitude":24.5854,"longitude":73.7125,"temp":25.5,"humidity":93,"rain":0.0,"pressure":937.8,"uv_index":7.0,"wind_gusts":36.4,"aqi":67,"pm10":46.3,"pm2_5":28.9,"no2":10.0,"co":216.0,"o3":59.0,"so2":5.7,"mosquito_risk":7,"arthritis_risk":5,"migraine_risk":7,"frizz_risk":1,"updated_at":"2026-07-08T01:28:46.982980+05:30"},{"city":"Kota","state":"Rajasthan","latitude":25.2138,"longitude":75.8648,"temp":28.1,"humidity":83,"rain":0.0,"pressure":969.1,"uv_index":7.1,"wind_gusts":40.3,"aqi":63,"pm10":20.3,"pm2_5":18.5,"no2":10.5,"co":362.0,"o3":72.0,"so2":2.2,"mosquito_risk":7,"arthritis_risk":5,"migraine_risk":7,"frizz_risk":1,"updated_at":"2026-07-08T01:28:46.982987+05:30"},{"city":"Bikaner","state":"Rajasthan","latitude":28.0229,"longitude":73.3119,"temp":30.3,"humidity":70,"rain":0.0,"pressure":971.7,"uv_index":8.45,"wind_gusts":69.8,"aqi":95,"pm10":95.7,"pm2_5":39.9,"no2":5.4,"co":173.0,"o3":61.0,"so2":3.6,"mosquito_risk":3,"arthritis_risk":5,"migraine_risk":7,"frizz_risk":1,"updated_at":"2026-07-08T01:28:46.982994+05:30"},{"city":"Ajmer","state":"Rajasthan","latitude":26.4499,"longitude":74.6399,"temp":27.0,"humidity":84,"rain":0.0,"pressure":946.4,"uv_index":8.1,"wind_gusts":39.6,"aqi":66,"pm10":28.6,"pm2_5":23.1,"no2":14.6,"co":254.0,"o3":63.0,"so2":4.8,"mosquito_risk":7,"arthritis_risk":5,"migraine_risk":7,"frizz_risk":1,"updated_at":"2026-07-08T01:28:46.983000+05:30"},{"city":"Gwalior","state":"Madhya Pradesh","latitude":26.2183,"longitude":78.1828,"temp":26.1,"humidity":94,"rain":0.1,"pressure":972.4,"uv_index":6.65,"wind_gusts":27.7,"aqi":66,"pm10":5.7,"pm2_5":5.6,"no2":6.4,"co":289.0,"o3":96.0,"so2":2.6,"mosquito_risk":10,"arthritis_risk":5,"migraine_risk":7,"frizz_risk":1,"updated_at":"2026-07-08T01:28:46.983007+05:30"},{"city":"Indore","state":"Madhya Pradesh","latitude":22.7196,"longitude":75.8577,"temp":24.8,"humidity":97,"rain":0.2,"pressure":938.6,"uv_index":7.7,"wind_gusts":46.4,"aqi":73,"pm10":18.5,"pm2_5":18.3,"no2":10.6,"co":570.0,"o3":75.0,"so2":4.0,"mosquito_risk":6,"arthritis_risk":5,"migraine_risk":7,"frizz_risk":1,"updated_at":"2026-07-08T01:28:46.983013+05:30"},{"city":"Bhopal","state":"Madhya Pradesh","latitude":23.2599,"longitude":77.4126,"temp":24.5,"humidity":95,"rain":0.1,"pressure":943.4,"uv_index":2.55,"wind_gusts":41.4,"aqi":53,"pm10":11.6,"pm2_5":11.5,"no2":8.3,"co":325.0,"o3":70.0,"so2":2.3,"mosquito_risk":6,"arthritis_risk":5,"migraine_risk":3,"frizz_risk":1,"updated_at":"2026-07-08T01:28:46.983019+05:30"},{"city":"Jabalpur","state":"Madhya Pradesh","latitude":23.1815,"longitude":79.9864,"temp":25.5,"humidity":90,"rain":0.0,"pressure":951.6,"uv_index":2.95,"wind_gusts":45.0,"aqi":40,"pm10":8.1,"pm2_5":7.8,"no2":8.0,"co":237.0,"o3":58.0,"so2":6.6,"mosquito_risk":7,"arthritis_risk":5,"migraine_risk":3,"frizz_risk":1,"updated_at":"2026-07-08T01:28:46.983025+05:30"},{"city":"Ujjain","state":"Madhya Pradesh","latitude":23.1765,"longitude":75.7885,"temp":25.0,"humidity":97,"rain":0.6,"pressure":944.3,"uv_index":2.85,"wind_gusts":43.9,"aqi":75,"pm10":16.8,"pm2_5":16.3,"no2":7.2,"co":602.0,"o3":81.0,"so2":2.9,"mosquito_risk":10,"arthritis_risk":5,"migraine_risk":3,"frizz_risk":1,"updated_at":"2026-07-08T01:28:46.983032+05:30"},{"city":"Visakhapatnam","state":"Andhra Pradesh","latitude":17.6868,"longitude":83.2185,"temp":27.8,"humidity":85,"rain":0.0,"pressure":999.7,"uv_index":9.0,"wind_gusts":54.0,"aqi":71,"pm10":28.8,"pm2_5":20.3,"no2":11.1,"co":242.0,"o3":91.0,"so2":21.6,"mosquito_risk":7,"arthritis_risk":5,"migraine_risk":7,"frizz_risk":1,"updated_at":"2026-07-08T01:28:46.983039+05:30"},{"city":"Vijayawada","state":"Andhra Pradesh","latitude":16.5062,"longitude":80.648,"temp":31.2,"humidity":54,"rain":0.0,"pressure":998.0,"uv_index":8.95,"wind_gusts":52.6,"aqi":52,"pm10":27.4,"pm2_5":20.1,"no2":9.0,"co":192.0,"o3":71.0,"so2":5.5,"mosquito_risk":0,"arthritis_risk":5,"migraine_risk":7,"frizz_risk":1,"updated_at":"2026-07-08T01:28:46.983045+05:30"},{"city":"Guntur","state":"Andhra Pradesh","latitude":16.3067,"longitude":80.4365,"temp":31.3,"humidity":53,"rain":0.0,"pressure":999.4,"uv_index":8.45,"wind_gusts":52.9,"aqi":47,"pm10":22.9,"pm2_5":18.0,"no2":12.0,"co":142.0,"o3":53.0,"so2":5.1,"mosquito_risk":0,"arthritis_risk":5,"migraine_risk":7,"frizz_risk":1,"updated_at":"2026-07-08T01:28:46.983051+05:30"},{"city":"Nellore","state":"Andhra Pradesh","latitude":14.4426,"longitude":79.9865,"temp":30.9,"humidity":54,"rain":0.0,"pressure":1002.8,"uv_index":8.5,"wind_gusts":55.4,"aqi":41,"pm10":21.0,"pm2_5":9.9,"no2":5.5,"co":100.0,"o3":44.0,"so2":2.9,"mosquito_risk":0,"arthritis_risk":5,"migraine_risk":4,"frizz_risk":1,"updated_at":"2026-07-08T01:28:46.983059+05:30"},{"city":"Kurnool","state":"Andhra Pradesh","latitude":15.8281,"longitude":78.0373,"temp":27.0,"humidity":71,"rain":0.0,"pressure":973.5,"uv_index":5.85,"wind_gusts":61.9,"aqi":26,"pm10":6.3,"pm2_5":4.1,"no2":5.7,"co":115.0,"o3":40.0,"so2":3.5,"mosquito_risk":7,"arthritis_risk":5,"migraine_risk":3,"frizz_risk":1,"updated_at":"2026-07-08T01:28:46.983066+05:30"},{"city":"Kakinada","state":"Andhra Pradesh","latitude":16.9891,"longitude":82.2475,"temp":29.2,"humidity":77,"rain":0.0,"pressure":1002.7,"uv_index":8.65,"wind_gusts":53.3,"aqi":63,"pm10":32.6,"pm2_5":21.3,"no2":2.9,"co":181.0,"o3":102.0,"so2":3.3,"mosquito_risk":7,"arthritis_risk":5,"migraine_risk":4,"frizz_risk":1,"updated_at":"2026-07-08T01:28:46.983073+05:30"},{"city":"Tirupati","state":"Andhra Pradesh","latitude":13.6288,"longitude":79.4192,"temp":29.9,"humidity":52,"rain":0.0,"pressure":989.2,"uv_index":8.65,"wind_gusts":54.0,"aqi":34,"pm10":14.3,"pm2_5":8.2,"no2":6.2,"co":124.0,"o3":44.0,"so2":2.0,"mosquito_risk":4,"arthritis_risk":5,"migraine_risk":7,"frizz_risk":1,"updated_at":"2026-07-08T01:28:46.983079+05:30"},{"city":"Warangal","state":"Telangana","latitude":17.9689,"longitude":79.5941,"temp":28.1,"humidity":67,"rain":0.0,"pressure":973.1,"uv_index":6.95,"wind_gusts":51.1,"aqi":31,"pm10":7.2,"pm2_5":5.6,"no2":7.1,"co":148.0,"o3":46.0,"so2":4.0,"mosquito_risk":7,"arthritis_risk":5,"migraine_risk":7,"frizz_risk":1,"updated_at":"2026-07-08T01:28:46.983085+05:30"},{"city":"Nizamabad","state":"Telangana","latitude":18.6725,"longitude":78.0941,"temp":26.7,"humidity":72,"rain":0.0,"pressure":957.7,"uv_index":7.7,"wind_gusts":50.8,"aqi":25,"pm10":4.8,"pm2_5":4.1,"no2":5.7,"co":129.0,"o3":42.0,"so2":2.7,"mosquito_risk":7,"arthritis_risk":5,"migraine_risk":7,"frizz_risk":1,"updated_at":"2026-07-08T01:28:46.983091+05:30"},{"city":"Mysore","state":"Karnataka","latitude":12.2958,"longitude":76.6396,"temp":21.6,"humidity":88,"rain":0.0,"pressure":927.7,"uv_index":7.4,"wind_gusts":64.1,"aqi":24,"pm10":4.2,"pm2_5":2.7,"no2":4.1,"co":111.0,"o3":44.0,"so2":1.5,"mosquito_risk":3,"arthritis_risk":5,"migraine_risk":7,"frizz_risk":1,"updated_at":"2026-07-08T01:28:46.983097+05:30"},{"city":"Mangalore","state":"Karnataka","latitude":12.9141,"longitude":74.856,"temp":23.2,"humidity":96,"rain":0.2,"pressure":1007.2,"uv_index":8.7,"wind_gusts":60.8,"aqi":63,"pm10":32.5,"pm2_5":18.3,"no2":6.6,"co":150.0,"o3":35.0,"so2":2.1,"mosquito_risk":6,"arthritis_risk":5,"migraine_risk":4,"frizz_risk":1,"updated_at":"2026-07-08T01:28:46.983104+05:30"},{"city":"Hubli-Dharwad","state":"Karnataka","latitude":15.3647,"longitude":75.124,"temp":21.7,"humidity":97,"rain":0.0,"pressure":937.3,"uv_index":7.55,"wind_gusts":66.6,"aqi":21,"pm10":3.4,"pm2_5":2.0,"no2":2.4,"co":98.0,"o3":42.0,"so2":0.8,"mosquito_risk":3,"arthritis_risk":5,"migraine_risk":7,"frizz_risk":1,"updated_at":"2026-07-08T01:28:46.983110+05:30"},{"city":"Belgaum","state":"Karnataka","latitude":15.8497,"longitude":74.4977,"temp":21.3,"humidity":97,"rain":0.1,"pressure":921.3,"uv_index":2.85,"wind_gusts":70.9,"aqi":21,"pm10":2.0,"pm2_5":1.4,"no2":2.5,"co":98.0,"o3":45.0,"so2":1.1,"mosquito_risk":6,"arthritis_risk":5,"migraine_risk":3,"frizz_risk":1,"updated_at":"2026-07-08T01:28:50.268556+05:30"},{"city":"Coimbatore","state":"Tamil Nadu","latitude":11.0168,"longitude":76.9558,"temp":22.8,"humidity":92,"rain":0.0,"pressure":961.1,"uv_index":8.7,"wind_gusts":59.8,"aqi":30,"pm10":12.8,"pm2_5":8.1,"no2":6.4,"co":164.0,"o3":37.0,"so2":2.4,"mosquito_risk":3,"arthritis_risk":5,"migraine_risk":7,"frizz_risk":1,"updated_at":"2026-07-08T01:28:50.268593+05:30"},{"city":"Madurai","state":"Tamil Nadu","latitude":9.9252,"longitude":78.1198,"temp":28.4,"humidity":56,"rain":0.0,"pressure":992.2,"uv_index":8.7,"wind_gusts":44.3,"aqi":60,"pm10":39.3,"pm2_5":25.6,"no2":26.5,"co":138.0,"o3":19.0,"so2":6.0,"mosquito_risk":4,"arthritis_risk":5,"migraine_risk":7,"frizz_risk":1,"updated_at":"2026-07-08T01:28:50.268604+05:30"},{"city":"Trichy","state":"Tamil Nadu","latitude":10.7905,"longitude":78.7047,"temp":29.4,"humidity":55,"rain":0.0,"pressure":998.9,"uv_index":8.75,"wind_gusts":63.4,"aqi":50,"pm10":20.8,"pm2_5":12.8,"no2":4.2,"co":111.0,"o3":46.0,"so2":2.2,"mosquito_risk":4,"arthritis_risk":5,"migraine_risk":7,"frizz_risk":1,"updated_at":"2026-07-08T01:28:50.268613+05:30"},{"city":"Salem","state":"Tamil Nadu","latitude":11.6643,"longitude":78.146,"temp":25.0,"humidity":81,"rain":0.0,"pressure":976.8,"uv_index":8.8,"wind_gusts":46.1,"aqi":51,"pm10":27.5,"pm2_5":18.2,"no2":15.4,"co":275.0,"o3":33.0,"so2":6.1,"mosquito_risk":7,"arthritis_risk":5,"migraine_risk":7,"frizz_risk":1,"updated_at":"2026-07-08T01:28:50.268621+05:30"},{"city":"Tirunelveli","state":"Tamil Nadu","latitude":8.7139,"longitude":77.7567,"temp":28.2,"humidity":63,"rain":0.0,"pressure":1003.5,"uv_index":8.6,"wind_gusts":56.5,"aqi":52,"pm10":15.1,"pm2_5":9.9,"no2":5.3,"co":160.0,"o3":42.0,"so2":2.0,"mosquito_risk":7,"arthritis_risk":5,"migraine_risk":4,"frizz_risk":1,"updated_at":"2026-07-08T01:28:50.268629+05:30"},{"city":"Vellore","state":"Tamil Nadu","latitude":12.9165,"longitude":79.1325,"temp":28.8,"humidity":55,"rain":0.0,"pressure":983.0,"uv_index":8.7,"wind_gusts":55.1,"aqi":32,"pm10":13.5,"pm2_5":8.2,"no2":6.8,"co":127.0,"o3":44.0,"so2":2.9,"mosquito_risk":4,"arthritis_risk":5,"migraine_risk":7,"frizz_risk":1,"updated_at":"2026-07-08T01:28:50.268636+05:30"},{"city":"Erode","state":"Tamil Nadu","latitude":11.341,"longitude":77.7172,"temp":25.7,"humidity":78,"rain":0.0,"pressure":988.6,"uv_index":8.7,"wind_gusts":42.5,"aqi":50,"pm10":25.3,"pm2_5":17.9,"no2":16.1,"co":173.0,"o3":32.0,"so2":3.9,"mosquito_risk":7,"arthritis_risk":5,"migraine_risk":7,"frizz_risk":1,"updated_at":"2026-07-08T01:28:50.268643+05:30"},{"city":"Kochi","state":"Kerala","latitude":9.9312,"longitude":76.2673,"temp":26.0,"humidity":90,"rain":0.0,"pressure":1009.8,"uv_index":8.35,"wind_gusts":43.2,"aqi":63,"pm10":24.7,"pm2_5":19.5,"no2":21.4,"co":136.0,"o3":14.0,"so2":5.7,"mosquito_risk":7,"arthritis_risk":0,"migraine_risk":4,"frizz_risk":1,"updated_at":"2026-07-08T01:28:50.268651+05:30"},{"city":"Thiruvananthapuram","state":"Kerala","latitude":8.5241,"longitude":76.9366,"temp":25.9,"humidity":92,"rain":0.0,"pressure":1009.1,"uv_index":8.4,"wind_gusts":56.5,"aqi":53,"pm10":16.4,"pm2_5":10.2,"no2":3.7,"co":105.0,"o3":44.0,"so2":1.5,"mosquito_risk":7,"arthritis_risk":0,"migraine_risk":4,"frizz_risk":1,"updated_at":"2026-07-08T01:28:50.268658+05:30"},{"city":"Kozhikode","state":"Kerala","latitude":11.2588,"longitude":75.7804,"temp":23.5,"humidity":95,"rain":0.1,"pressure":1009.2,"uv_index":8.5,"wind_gusts":35.6,"aqi":60,"pm10":27.4,"pm2_5":14.1,"no2":2.8,"co":214.0,"o3":47.0,"so2":1.5,"mosquito_risk":6,"arthritis_risk":0,"migraine_risk":4,"frizz_risk":1,"updated_at":"2026-07-08T01:28:50.268664+05:30"},{"city":"Thrissur","state":"Kerala","latitude":10.5276,"longitude":76.2144,"temp":25.1,"humidity":96,"rain":0.1,"pressure":1008.4,"uv_index":8.55,"wind_gusts":44.6,"aqi":59,"pm10":26.0,"pm2_5":20.9,"no2":16.0,"co":196.0,"o3":17.0,"so2":4.0,"mosquito_risk":10,"arthritis_risk":0,"migraine_risk":4,"frizz_risk":1,"updated_at":"2026-07-08T01:28:50.268672+05:30"},{"city":"Kannur","state":"Kerala","latitude":11.8745,"longitude":75.3704,"temp":23.5,"humidity":98,"rain":0.3,"pressure":1008.3,"uv_index":8.3,"wind_gusts":39.6,"aqi":61,"pm10":27.0,"pm2_5":14.1,"no2":8.7,"co":223.0,"o3":29.0,"so2":2.0,"mosquito_risk":6,"arthritis_risk":0,"migraine_risk":4,"frizz_risk":1,"updated_at":"2026-07-08T01:28:50.268680+05:30"},{"city":"Patna","state":"Bihar","latitude":25.5941,"longitude":85.1376,"temp":28.3,"humidity":89,"rain":0.0,"pressure":993.4,"uv_index":8.15,"wind_gusts":25.2,"aqi":63,"pm10":27.5,"pm2_5":26.3,"no2":20.1,"co":273.0,"o3":52.0,"so2":14.1,"mosquito_risk":7,"arthritis_risk":5,"migraine_risk":7,"frizz_risk":1,"updated_at":"2026-07-08T01:28:50.268686+05:30"},{"city":"Gaya","state":"Bihar","latitude":24.7914,"longitude":85.0002,"temp":28.4,"humidity":78,"rain":0.0,"pressure":986.7,"uv_index":7.45,"wind_gusts":26.3,"aqi":62,"pm10":24.9,"pm2_5":21.2,"no2":12.5,"co":198.0,"o3":59.0,"so2":10.6,"mosquito_risk":7,"arthritis_risk":5,"migraine_risk":7,"frizz_risk":1,"updated_at":"2026-07-08T01:28:50.268693+05:30"},{"city":"Muzaffarpur","state":"Bihar","latitude":26.1209,"longitude":85.3647,"temp":28.0,"humidity":90,"rain":0.0,"pressure":993.8,"uv_index":6.95,"wind_gusts":29.5,"aqi":63,"pm10":29.2,"pm2_5":28.5,"no2":21.4,"co":382.0,"o3":55.0,"so2":14.1,"mosquito_risk":7,"arthritis_risk":5,"migraine_risk":7,"frizz_risk":1,"updated_at":"2026-07-08T01:28:50.268699+05:30"},{"city":"Bhagalpur","state":"Bihar","latitude":25.2425,"longitude":87.0117,"temp":26.9,"humidity":97,"rain":0.1,"pressure":995.0,"uv_index":7.75,"wind_gusts":22.0,"aqi":65,"pm10":27.0,"pm2_5":26.0,"no2":15.7,"co":325.0,"o3":70.0,"so2":21.5,"mosquito_risk":10,"arthritis_risk":5,"migraine_risk":7,"frizz_risk":1,"updated_at":"2026-07-08T01:28:50.268706+05:30"},{"city":"Ranchi","state":"Jharkhand","latitude":23.3441,"longitude":85.3096,"temp":23.2,"humidity":96,"rain":0.0,"pressure":931.8,"uv_index":8.5,"wind_gusts":50.0,"aqi":45,"pm10":13.3,"pm2_5":12.0,"no2":10.6,"co":229.0,"o3":61.0,"so2":17.2,"mosquito_risk":3,"arthritis_risk":5,"migraine_risk":7,"frizz_risk":1,"updated_at":"2026-07-08T01:28:50.268713+05:30"},{"city":"Jamshedpur","state":"Jharkhand","latitude":22.8046,"longitude":86.2029,"temp":26.2,"humidity":95,"rain":0.2,"pressure":985.2,"uv_index":8.35,"wind_gusts":33.5,"aqi":59,"pm10":25.6,"pm2_5":23.4,"no2":18.7,"co":480.0,"o3":62.0,"so2":27.2,"mosquito_risk":10,"arthritis_risk":5,"migraine_risk":7,"frizz_risk":1,"updated_at":"2026-07-08T01:28:50.268719+05:30"},{"city":"Dhanbad","state":"Jharkhand","latitude":23.7957,"longitude":86.4304,"temp":25.6,"humidity":95,"rain":0.0,"pressure":974.0,"uv_index":6.85,"wind_gusts":32.8,"aqi":81,"pm10":42.4,"pm2_5":39.6,"no2":45.2,"co":1301.0,"o3":33.0,"so2":93.1,"mosquito_risk":7,"arthritis_risk":5,"migraine_risk":7,"frizz_risk":1,"updated_at":"2026-07-08T01:28:50.268726+05:30"},{"city":"Bokaro","state":"Jharkhand","latitude":23.6693,"longitude":86.1511,"temp":26.6,"humidity":90,"rain":0.1,"pressure":977.9,"uv_index":8.2,"wind_gusts":37.8,"aqi":69,"pm10":37.8,"pm2_5":33.9,"no2":33.2,"co":1707.0,"o3":47.0,"so2":71.7,"mosquito_risk":10,"arthritis_risk":5,"migraine_risk":7,"frizz_risk":1,"updated_at":"2026-07-08T01:28:50.268733+05:30"},{"city":"Bhubaneswar","state":"Odisha","latitude":20.2961,"longitude":85.8245,"temp":28.0,"humidity":80,"rain":0.0,"pressure":997.4,"uv_index":7.95,"wind_gusts":57.2,"aqi":63,"pm10":22.8,"pm2_5":15.5,"no2":4.7,"co":136.0,"o3":78.0,"so2":4.3,"mosquito_risk":7,"arthritis_risk":5,"migraine_risk":7,"frizz_risk":1,"updated_at":"2026-07-08T01:28:50.268739+05:30"},{"city":"Cuttack","state":"Odisha","latitude":20.4625,"longitude":85.8828,"temp":28.1,"humidity":79,"rain":0.0,"pressure":999.1,"uv_index":8.2,"wind_gusts":42.8,"aqi":63,"pm10":22.8,"pm2_5":15.5,"no2":4.7,"co":144.0,"o3":78.0,"so2":4.3,"mosquito_risk":7,"arthritis_risk":5,"migraine_risk":7,"frizz_risk":1,"updated_at":"2026-07-08T01:28:50.268745+05:30"},{"city":"Rourkela","state":"Odisha","latitude":22.2604,"longitude":84.8536,"temp":26.0,"humidity":96,"rain":0.1,"pressure":978.9,"uv_index":4.85,"wind_gusts":41.0,"aqi":48,"pm10":18.4,"pm2_5":16.6,"no2":12.9,"co":253.0,"o3":55.0,"so2":15.7,"mosquito_risk":10,"arthritis_risk":5,"migraine_risk":3,"frizz_risk":1,"updated_at":"2026-07-08T01:28:50.268752+05:30"},{"city":"Raipur","state":"Chhattisgarh","latitude":21.2514,"longitude":81.6296,"temp":27.2,"humidity":77,"rain":0.0,"pressure":967.3,"uv_index":6.3,"wind_gusts":55.4,"aqi":51,"pm10":11.2,"pm2_5":9.5,"no2":11.8,"co":155.0,"o3":58.0,"so2":20.9,"mosquito_risk":7,"arthritis_risk":5,"migraine_risk":7,"frizz_risk":1,"updated_at":"2026-07-08T01:28:50.268758+05:30"},{"city":"Bhilai","state":"Chhattisgarh","latitude":21.1938,"longitude":81.3509,"temp":26.8,"humidity":80,"rain":0.0,"pressure":967.6,"uv_index":6.65,"wind_gusts":60.1,"aqi":50,"pm10":9.4,"pm2_5":8.6,"no2":13.1,"co":250.0,"o3":56.0,"so2":23.5,"mosquito_risk":7,"arthritis_risk":5,"migraine_risk":7,"frizz_risk":1,"updated_at":"2026-07-08T01:28:50.268765+05:30"},{"city":"Guwahati","state":"Assam","latitude":26.1158,"longitude":91.7086,"temp":25.8,"humidity":97,"rain":0.0,"pressure":996.9,"uv_index":8.4,"wind_gusts":22.7,"aqi":40,"pm10":12.5,"pm2_5":12.4,"no2":9.3,"co":240.0,"o3":41.0,"so2":1.8,"mosquito_risk":7,"arthritis_risk":5,"migraine_risk":7,"frizz_risk":1,"updated_at":"2026-07-08T01:28:50.268772+05:30"},{"city":"Agartala","state":"Tripura","latitude":23.8315,"longitude":91.2868,"temp":24.9,"humidity":99,"rain":0.3,"pressure":1002.2,"uv_index":1.0,"wind_gusts":37.4,"aqi":38,"pm10":13.6,"pm2_5":11.4,"no2":8.7,"co":134.0,"o3":47.0,"so2":2.1,"mosquito_risk":6,"arthritis_risk":5,"migraine_risk":0,"frizz_risk":1,"updated_at":"2026-07-08T01:28:50.268779+05:30"},{"city":"Shillong","state":"Meghalaya","latitude":25.5788,"longitude":91.8933,"temp":20.1,"humidity":96,"rain":0.0,"pressure":854.1,"uv_index":4.15,"wind_gusts":25.9,"aqi":28,"pm10":1.5,"pm2_5":1.5,"no2":6.8,"co":217.0,"o3":51.0,"so2":2.2,"mosquito_risk":3,"arthritis_risk":5,"migraine_risk":3,"frizz_risk":1,"updated_at":"2026-07-08T01:28:50.268785+05:30"},{"city":"Imphal","state":"Manipur","latitude":24.817,"longitude":93.9368,"temp":22.8,"humidity":97,"rain":0.1,"pressure":919.5,"uv_index":2.5,"wind_gusts":31.3,"aqi":22,"pm10":3.3,"pm2_5":3.2,"no2":5.2,"co":228.0,"o3":48.0,"so2":1.6,"mosquito_risk":6,"arthritis_risk":5,"migraine_risk":3,"frizz_risk":1,"updated_at":"2026-07-08T01:28:50.268792+05:30"},{"city":"Aizawl","state":"Mizoram","latitude":23.7271,"longitude":92.7176,"temp":19.4,"humidity":99,"rain":0.2,"pressure":889.3,"uv_index":1.2,"wind_gusts":42.5,"aqi":26,"pm10":0.8,"pm2_5":0.7,"no2":3.2,"co":107.0,"o3":48.0,"so2":1.0,"mosquito_risk":6,"arthritis_risk":10,"migraine_risk":3,"frizz_risk":1,"updated_at":"2026-07-08T01:28:50.268799+05:30"},{"city":"Kohima","state":"Nagaland","latitude":25.6701,"longitude":94.1077,"temp":20.3,"humidity":100,"rain":0.1,"pressure":852.3,"uv_index":4.35,"wind_gusts":20.5,"aqi":22,"pm10":1.6,"pm2_5":1.6,"no2":4.4,"co":210.0,"o3":45.0,"so2":0.6,"mosquito_risk":6,"arthritis_risk":5,"migraine_risk":3,"frizz_risk":1,"updated_at":"2026-07-08T01:28:50.268805+05:30"},{"city":"Gangtok","state":"Sikkim","latitude":27.3314,"longitude":88.6138,"temp":18.8,"humidity":100,"rain":0.0,"pressure":834.8,"uv_index":6.3,"wind_gusts":29.2,"aqi":43,"pm10":6.7,"pm2_5":6.7,"no2":5.7,"co":336.0,"o3":88.0,"so2":2.0,"mosquito_risk":3,"arthritis_risk":10,"migraine_risk":7,"frizz_risk":1,"updated_at":"2026-07-08T01:28:50.268812+05:30"},{"city":"Siliguri","state":"West Bengal","latitude":26.7271,"longitude":88.3953,"temp":25.6,"humidity":96,"rain":0.1,"pressure":987.8,"uv_index":6.1,"wind_gusts":27.0,"aqi":41,"pm10":14.6,"pm2_5":14.4,"no2":10.0,"co":397.0,"o3":85.0,"so2":3.4,"mosquito_risk":10,"arthritis_risk":5,"migraine_risk":7,"frizz_risk":1,"updated_at":"2026-07-08T01:28:53.589197+05:30"},{"city":"Durgapur","state":"West Bengal","latitude":23.5204,"longitude":87.3119,"temp":27.5,"humidity":94,"rain":0.1,"pressure":989.1,"uv_index":8.35,"wind_gusts":28.8,"aqi":79,"pm10":35.0,"pm2_5":31.8,"no2":25.0,"co":424.0,"o3":44.0,"so2":33.4,"mosquito_risk":10,"arthritis_risk":5,"migraine_risk":7,"frizz_risk":1,"updated_at":"2026-07-08T01:28:53.589233+05:30"},{"city":"Asansol","state":"West Bengal","latitude":23.6739,"longitude":86.9524,"temp":26.8,"humidity":95,"rain":0.1,"pressure":987.9,"uv_index":7.6,"wind_gusts":36.4,"aqi":71,"pm10":28.3,"pm2_5":25.7,"no2":24.1,"co":335.0,"o3":47.0,"so2":35.8,"mosquito_risk":10,"arthritis_risk":5,"migraine_risk":7,"frizz_risk":1,"updated_at":"2026-07-08T01:28:53.589245+05:30"},{"city":"Pondicherry","state":"Puducherry","latitude":11.9139,"longitude":79.8145,"temp":30.8,"humidity":51,"rain":0.0,"pressure":1006.8,"uv_index":8.2,"wind_gusts":52.6,"aqi":59,"pm10":23.2,"pm2_5":16.4,"no2":15.6,"co":201.0,"o3":47.0,"so2":7.0,"mosquito_risk":0,"arthritis_risk":5,"migraine_risk":4,"frizz_risk":1,"updated_at":"2026-07-08T01:28:53.589254+05:30"},{"city":"Port Blair","state":"Andaman and Nicobar Islands","latitude":11.6234,"longitude":92.7265,"temp":27.1,"humidity":81,"rain":0.0,"pressure":1007.8,"uv_index":8.05,"wind_gusts":43.2,"aqi":59,"pm10":29.7,"pm2_5":16.9,"no2":0.2,"co":93.0,"o3":68.0,"so2":0.6,"mosquito_risk":7,"arthritis_risk":5,"migraine_risk":4,"frizz_risk":1,"updated_at":"2026-07-08T01:28:53.589262+05:30"},{"city":"Haridwar","state":"Uttarakhand","latitude":29.9457,"longitude":78.1642,"temp":26.3,"humidity":97,"rain":0.0,"pressure":966.5,"uv_index":4.5,"wind_gusts":20.5,"aqi":121,"pm10":67.8,"pm2_5":65.9,"no2":29.8,"co":327.0,"o3":76.0,"so2":11.6,"mosquito_risk":7,"arthritis_risk":5,"migraine_risk":3,"frizz_risk":1,"updated_at":"2026-07-08T01:28:53.589270+05:30"},{"city":"Rishikesh","state":"Uttarakhand","latitude":30.0869,"longitude":78.2676,"temp":25.5,"humidity":97,"rain":0.0,"pressure":959.4,"uv_index":1.9,"wind_gusts":15.1,"aqi":84,"pm10":36.9,"pm2_5":35.9,"no2":15.2,"co":358.0,"o3":98.0,"so2":6.9,"mosquito_risk":7,"arthritis_risk":5,"migraine_risk":3,"frizz_risk":1,"updated_at":"2026-07-08T01:28:53.589276+05:30"},{"city":"Nainital","state":"Uttarakhand","latitude":29.3919,"longitude":79.4542,"temp":18.1,"humidity":99,"rain":0.2,"pressure":801.2,"uv_index":7.7,"wind_gusts":31.3,"aqi":67,"pm10":14.7,"pm2_5":14.5,"no2":6.8,"co":228.0,"o3":95.0,"so2":2.4,"mosquito_risk":6,"arthritis_risk":10,"migraine_risk":7,"frizz_risk":1,"updated_at":"2026-07-08T01:28:53.589284+05:30"},{"city":"Mussoorie","state":"Uttarakhand","latitude":30.4599,"longitude":78.0664,"temp":17.3,"humidity":100,"rain":0.0,"pressure":797.9,"uv_index":3.4,"wind_gusts":19.4,"aqi":85,"pm10":43.2,"pm2_5":42.0,"no2":30.3,"co":362.0,"o3":91.0,"so2":11.7,"mosquito_risk":3,"arthritis_risk":10,"migraine_risk":3,"frizz_risk":1,"updated_at":"2026-07-08T01:28:53.589291+05:30"},{"city":"Dharamshala","state":"Himachal Pradesh","latitude":32.219,"longitude":76.3234,"temp":21.9,"humidity":93,"rain":0.0,"pressure":863.1,"uv_index":8.05,"wind_gusts":34.6,"aqi":42,"pm10":8.5,"pm2_5":7.9,"no2":12.7,"co":484.0,"o3":52.0,"so2":0.3,"mosquito_risk":3,"arthritis_risk":5,"migraine_risk":7,"frizz_risk":1,"updated_at":"2026-07-08T01:28:53.589298+05:30"},{"city":"Dalhousie","state":"Himachal Pradesh","latitude":32.5387,"longitude":75.971,"temp":17.2,"humidity":97,"rain":0.0,"pressure":799.1,"uv_index":8.65,"wind_gusts":26.3,"aqi":83,"pm10":42.3,"pm2_5":40.4,"no2":37.1,"co":583.0,"o3":34.0,"so2":2.3,"mosquito_risk":3,"arthritis_risk":10,"migraine_risk":7,"frizz_risk":1,"updated_at":"2026-07-08T01:28:53.589305+05:30"},{"city":"Patiala","state":"Punjab","latitude":30.3398,"longitude":76.3869,"temp":27.9,"humidity":88,"rain":0.0,"pressure":969.6,"uv_index":7.55,"wind_gusts":32.0,"aqi":150,"pm10":62.6,"pm2_5":59.3,"no2":22.8,"co":1286.0,"o3":79.0,"so2":11.9,"mosquito_risk":7,"arthritis_risk":5,"migraine_risk":7,"frizz_risk":1,"updated_at":"2026-07-08T01:28:53.589312+05:30"},{"city":"Bhatinda","state":"Punjab","latitude":30.211,"longitude":74.9455,"temp":29.8,"humidity":78,"rain":0.0,"pressure":974.3,"uv_index":7.65,"wind_gusts":27.7,"aqi":169,"pm10":165.3,"pm2_5":87.1,"no2":32.6,"co":608.0,"o3":67.0,"so2":12.3,"mosquito_risk":7,"arthritis_risk":5,"migraine_risk":7,"frizz_risk":1,"updated_at":"2026-07-08T01:28:53.589321+05:30"},{"city":"Rohtak","state":"Haryana","latitude":28.8955,"longitude":76.6066,"temp":27.5,"humidity":90,"rain":0.0,"pressure":973.2,"uv_index":6.2,"wind_gusts":31.7,"aqi":129,"pm10":104.3,"pm2_5":71.7,"no2":46.4,"co":894.0,"o3":78.0,"so2":37.7,"mosquito_risk":7,"arthritis_risk":5,"migraine_risk":7,"frizz_risk":1,"updated_at":"2026-07-08T01:28:53.589328+05:30"},{"city":"Panipat","state":"Haryana","latitude":29.3909,"longitude":76.9635,"temp":26.8,"humidity":97,"rain":0.1,"pressure":972.3,"uv_index":7.5,"wind_gusts":32.0,"aqi":131,"pm10":84.3,"pm2_5":78.9,"no2":38.2,"co":569.0,"o3":80.0,"so2":22.8,"mosquito_risk":10,"arthritis_risk":5,"migraine_risk":7,"frizz_risk":1,"updated_at":"2026-07-08T01:28:53.589335+05:30"},{"city":"Mathura","state":"Uttar Pradesh","latitude":27.4924,"longitude":77.6737,"temp":26.6,"humidity":95,"rain":0.1,"pressure":977.8,"uv_index":6.5,"wind_gusts":31.0,"aqi":115,"pm10":55.4,"pm2_5":27.0,"no2":15.5,"co":268.0,"o3":88.0,"so2":10.1,"mosquito_risk":10,"arthritis_risk":5,"migraine_risk":7,"frizz_risk":1,"updated_at":"2026-07-08T01:28:53.589341+05:30"},{"city":"Vrindavan","state":"Uttar Pradesh","latitude":27.5823,"longitude":77.7027,"temp":26.8,"humidity":94,"rain":0.2,"pressure":978.2,"uv_index":6.55,"wind_gusts":30.2,"aqi":115,"pm10":55.4,"pm2_5":27.0,"no2":15.5,"co":271.0,"o3":88.0,"so2":10.1,"mosquito_risk":10,"arthritis_risk":5,"migraine_risk":7,"frizz_risk":1,"updated_at":"2026-07-08T01:28:53.589348+05:30"},{"city":"Ayodhya","state":"Uttar Pradesh","latitude":26.7922,"longitude":82.1998,"temp":26.8,"humidity":93,"rain":0.0,"pressure":987.0,"uv_index":6.15,"wind_gusts":38.9,"aqi":58,"pm10":21.7,"pm2_5":21.7,"no2":10.7,"co":372.0,"o3":99.0,"so2":8.7,"mosquito_risk":7,"arthritis_risk":5,"migraine_risk":7,"frizz_risk":1,"updated_at":"2026-07-08T01:28:53.589355+05:30"},{"city":"Ratlam","state":"Madhya Pradesh","latitude":23.3315,"longitude":75.0367,"temp":25.6,"humidity":98,"rain":0.1,"pressure":945.5,"uv_index":5.45,"wind_gusts":45.4,"aqi":69,"pm10":15.5,"pm2_5":14.8,"no2":6.4,"co":283.0,"o3":78.0,"so2":3.0,"mosquito_risk":10,"arthritis_risk":5,"migraine_risk":3,"frizz_risk":1,"updated_at":"2026-07-08T01:28:53.589362+05:30"},{"city":"Sagar","state":"Madhya Pradesh","latitude":23.8388,"longitude":78.7378,"temp":24.6,"humidity":96,"rain":0.0,"pressure":939.4,"uv_index":3.55,"wind_gusts":39.2,"aqi":37,"pm10":5.1,"pm2_5":4.8,"no2":7.5,"co":249.0,"o3":80.0,"so2":2.7,"mosquito_risk":3,"arthritis_risk":5,"migraine_risk":3,"frizz_risk":1,"updated_at":"2026-07-08T01:28:53.589369+05:30"},{"city":"Satna","state":"Madhya Pradesh","latitude":24.6005,"longitude":80.8322,"temp":26.6,"humidity":84,"rain":0.0,"pressure":961.1,"uv_index":7.2,"wind_gusts":44.3,"aqi":42,"pm10":11.6,"pm2_5":11.4,"no2":12.0,"co":214.0,"o3":52.0,"so2":7.9,"mosquito_risk":7,"arthritis_risk":5,"migraine_risk":7,"frizz_risk":1,"updated_at":"2026-07-08T01:28:53.589376+05:30"},{"city":"Akola","state":"Maharashtra","latitude":20.7002,"longitude":77.0082,"temp":26.7,"humidity":79,"rain":0.0,"pressure":966.2,"uv_index":6.6,"wind_gusts":49.0,"aqi":39,"pm10":9.8,"pm2_5":8.9,"no2":9.2,"co":172.0,"o3":71.0,"so2":9.1,"mosquito_risk":7,"arthritis_risk":5,"migraine_risk":7,"frizz_risk":1,"updated_at":"2026-07-08T01:28:53.589384+05:30"},{"city":"Amravati","state":"Maharashtra","latitude":20.9374,"longitude":77.7796,"temp":26.4,"humidity":78,"rain":0.0,"pressure":958.7,"uv_index":7.75,"wind_gusts":47.9,"aqi":37,"pm10":8.9,"pm2_5":8.1,"no2":9.0,"co":184.0,"o3":73.0,"so2":9.2,"mosquito_risk":7,"arthritis_risk":5,"migraine_risk":7,"frizz_risk":1,"updated_at":"2026-07-08T01:28:53.589392+05:30"},{"city":"Latur","state":"Maharashtra","latitude":18.4088,"longitude":76.5604,"temp":24.6,"humidity":83,"rain":0.0,"pressure":933.0,"uv_index":8.05,"wind_gusts":57.2,"aqi":25,"pm10":3.6,"pm2_5":2.9,"no2":4.5,"co":127.0,"o3":43.0,"so2":2.1,"mosquito_risk":3,"arthritis_risk":5,"migraine_risk":7,"frizz_risk":1,"updated_at":"2026-07-08T01:28:53.589399+05:30"},{"city":"Nanded","state":"Maharashtra","latitude":19.1383,"longitude":77.3091,"temp":26.7,"humidity":75,"rain":0.0,"pressure":961.0,"uv_index":6.9,"wind_gusts":49.0,"aqi":27,"pm10":4.4,"pm2_5":3.6,"no2":6.4,"co":138.0,"o3":45.0,"so2":4.5,"mosquito_risk":7,"arthritis_risk":5,"migraine_risk":7,"frizz_risk":1,"updated_at":"2026-07-08T01:28:53.589406+05:30"},{"city":"Gulbarga","state":"Karnataka","latitude":17.3297,"longitude":76.8343,"temp":25.6,"humidity":77,"rain":0.0,"pressure":953.3,"uv_index":6.9,"wind_gusts":63.0,"aqi":24,"pm10":3.9,"pm2_5":2.8,"no2":5.7,"co":124.0,"o3":41.0,"so2":2.7,"mosquito_risk":7,"arthritis_risk":5,"migraine_risk":7,"frizz_risk":1,"updated_at":"2026-07-08T01:28:53.589414+05:30"},{"city":"Bidar","state":"Karnataka","latitude":17.9104,"longitude":77.5199,"temp":24.6,"humidity":79,"rain":0.0,"pressure":929.2,"uv_index":8.45,"wind_gusts":61.6,"aqi":25,"pm10":5.6,"pm2_5":3.9,"no2":5.3,"co":122.0,"o3":43.0,"so2":2.5,"mosquito_risk":3,"arthritis_risk":5,"migraine_risk":7,"frizz_risk":1,"updated_at":"2026-07-08T01:28:53.589420+05:30"},{"city":"Hospet","state":"Karnataka","latitude":15.2689,"longitude":76.3909,"temp":23.6,"humidity":87,"rain":0.0,"pressure":952.5,"uv_index":7.95,"wind_gusts":68.8,"aqi":22,"pm10":2.2,"pm2_5":1.7,"no2":3.4,"co":112.0,"o3":41.0,"so2":1.3,"mosquito_risk":3,"arthritis_risk":5,"migraine_risk":7,"frizz_risk":1,"updated_at":"2026-07-08T01:28:53.589427+05:30"},{"city":"Tirupur","state":"Tamil Nadu","latitude":11.1085,"longitude":77.3411,"temp":24.8,"humidity":81,"rain":0.0,"pressure":974.5,"uv_index":8.8,"wind_gusts":66.2,"aqi":51,"pm10":26.5,"pm2_5":19.0,"no2":20.0,"co":156.0,"o3":26.0,"so2":5.0,"mosquito_risk":3,"arthritis_risk":5,"migraine_risk":7,"frizz_risk":1,"updated_at":"2026-07-08T01:28:53.589434+05:30"},{"city":"Alappuzha","state":"Kerala","latitude":9.4981,"longitude":76.3388,"temp":27.6,"humidity":88,"rain":0.0,"pressure":1009.7,"uv_index":8.45,"wind_gusts":45.4,"aqi":62,"pm10":24.7,"pm2_5":16.5,"no2":11.8,"co":84.0,"o3":33.0,"so2":3.7,"mosquito_risk":7,"arthritis_risk":0,"migraine_risk":4,"frizz_risk":1,"updated_at":"2026-07-08T01:28:53.589442+05:30"},{"city":"Munnar","state":"Kerala","latitude":10.0889,"longitude":77.0595,"temp":16.5,"humidity":97,"rain":0.0,"pressure":856.8,"uv_index":6.85,"wind_gusts":57.2,"aqi":34,"pm10":12.0,"pm2_5":8.4,"no2":7.8,"co":85.0,"o3":28.0,"so2":1.6,"mosquito_risk":3,"arthritis_risk":10,"migraine_risk":7,"frizz_risk":0,"updated_at":"2026-07-08T01:28:53.589449+05:30"},{"city":"Silchar","state":"Assam","latitude":24.8333,"longitude":92.7789,"temp":25.6,"humidity":95,"rain":1.4,"pressure":1000.8,"uv_index":0.55,"wind_gusts":30.6,"aqi":33,"pm10":6.2,"pm2_5":5.8,"no2":5.5,"co":150.0,"o3":48.0,"so2":1.6,"mosquito_risk":10,"arthritis_risk":5,"migraine_risk":0,"frizz_risk":1,"updated_at":"2026-07-08T01:28:53.589471+05:30"},{"city":"Dibrugarh","state":"Assam","latitude":27.4728,"longitude":94.912,"temp":25.8,"humidity":98,"rain":0.2,"pressure":990.7,"uv_index":6.1,"wind_gusts":31.3,"aqi":33,"pm10":7.2,"pm2_5":6.8,"no2":6.8,"co":153.0,"o3":48.0,"so2":1.3,"mosquito_risk":10,"arthritis_risk":5,"migraine_risk":7,"frizz_risk":1,"updated_at":"2026-07-08T01:28:53.589478+05:30"}]