[{"city":"Delhi","state":"Delhi","latitude":28.6139,"longitude":77.209,"temp":25.4,"humidity":49,"rain":0.0,"pressure":981.7,"uv_index":6.1,"wind_gusts":41.4,"aqi":434,"pm10":581.1,"pm2_5":83.6,"mosquito_risk":4,"arthritis_risk":5,"migraine_risk":7,"frizz_risk":0,"updated_at":"2026-03-16T18:50:34.283534+05:30"},{"city":"Mumbai","state":"Maharashtra","latitude":19.076,"longitude":72.8777,"temp":27.2,"humidity":77,"rain":0.0,"pressure":1008.3,"uv_index":7.7,"wind_gusts":18.0,"aqi":126,"pm10":119.7,"pm2_5":36.1,"mosquito_risk":7,"arthritis_risk":0,"migraine_risk":4,"frizz_risk":1,"updated_at":"2026-03-16T18:50:34.283583+05:30"},{"city":"Bangalore","state":"Karnataka","latitude":12.9716,"longitude":77.5946,"temp":26.3,"humidity":48,"rain":0.0,"pressure":912.0,"uv_index":9.35,"wind_gusts":22.0,"aqi":173,"pm10":36.6,"pm2_5":32.9,"mosquito_risk":4,"arthritis_risk":5,"migraine_risk":7,"frizz_risk":0,"updated_at":"2026-03-16T18:50:34.283600+05:30"},{"city":"Hyderabad","state":"Telangana","latitude":17.385,"longitude":78.4867,"temp":28.1,"humidity":52,"rain":0.0,"pressure":953.9,"uv_index":8.65,"wind_gusts":22.3,"aqi":115,"pm10":54.4,"pm2_5":44.1,"mosquito_risk":4,"arthritis_risk":5,"migraine_risk":7,"frizz_risk":1,"updated_at":"2026-03-16T18:50:34.283609+05:30"},{"city":"Chennai","state":"Tamil Nadu","latitude":13.0827,"longitude":80.2707,"temp":27.3,"humidity":75,"rain":0.0,"pressure":1007.9,"uv_index":9.05,"wind_gusts":31.0,"aqi":42,"pm10":8.6,"pm2_5":6.4,"mosquito_risk":7,"arthritis_risk":5,"migraine_risk":4,"frizz_risk":1,"updated_at":"2026-03-16T18:50:34.283618+05:30"},{"city":"Kolkata","state":"West Bengal","latitude":22.5726,"longitude":88.3639,"temp":24.4,"humidity":87,"rain":0.0,"pressure":1008.7,"uv_index":8.15,"wind_gusts":33.8,"aqi":75,"pm10":21.8,"pm2_5":18.2,"mosquito_risk":3,"arthritis_risk":0,"migraine_risk":4,"frizz_risk":1,"updated_at":"2026-03-16T18:50:34.283627+05:30"},{"city":"Pune","state":"Maharashtra","latitude":18.5204,"longitude":73.8567,"temp":29.0,"humidity":35,"rain":0.0,"pressure":948.2,"uv_index":8.25,"wind_gusts":42.8,"aqi":119,"pm10":29.1,"pm2_5":21.7,"mosquito_risk":4,"arthritis_risk":5,"migraine_risk":7,"frizz_risk":0,"updated_at":"2026-03-16T18:50:34.283641+05:30"},{"city":"Ahmedabad","state":"Gujarat","latitude":23.0225,"longitude":72.5714,"temp":33.2,"humidity":15,"rain":0.0,"pressure":1000.4,"uv_index":7.45,"wind_gusts":28.4,"aqi":84,"pm10":31.2,"pm2_5":13.9,"mosquito_risk":0,"arthritis_risk":5,"migraine_risk":4,"frizz_risk":0,"updated_at":"2026-03-16T18:50:34.283651+05:30"},{"city":"Jaipur","state":"Rajasthan","latitude":26.9124,"longitude":75.7873,"temp":30.5,"humidity":12,"rain":0.0,"pressure":957.9,"uv_index":6.9,"wind_gusts":31.3,"aqi":164,"pm10":118.7,"pm2_5":22.4,"mosquito_risk":0,"arthritis_risk":5,"migraine_risk":7,"frizz_risk":1,"updated_at":"2026-03-16T18:50:34.283659+05:30"},{"city":"Lucknow","state":"Uttar Pradesh","latitude":26.8467,"longitude":80.9462,"temp":29.1,"humidity":35,"rain":0.0,"pressure":992.3,"uv_index":6.65,"wind_gusts":48.6,"aqi":106,"pm10":59.3,"pm2_5":38.2,"mosquito_risk":4,"arthritis_risk":5,"migraine_risk":7,"frizz_risk":0,"updated_at":"2026-03-16T18:50:34.283668+05:30"},{"city":"Kanpur","state":"Uttar Pradesh","latitude":26.4499,"longitude":80.3319,"temp":29.0,"humidity":42,"rain":0.0,"pressure":990.2,"uv_index":6.7,"wind_gusts":35.3,"aqi":119,"pm10":102.7,"pm2_5":42.1,"mosquito_risk":4,"arthritis_risk":5,"migraine_risk":7,"frizz_risk":0,"updated_at":"2026-03-16T18:50:34.283693+05:30"},{"city":"Chandigarh","state":"Chandigarh","latitude":30.7333,"longitude":76.7794,"temp":17.8,"humidity":68,"rain":0.0,"pressure":969.0,"uv_index":5.25,"wind_gusts":43.2,"aqi":65,"pm10":45.4,"pm2_5":24.9,"mosquito_risk":3,"arthritis_risk":5,"migraine_risk":3,"frizz_risk":0,"updated_at":"2026-03-16T18:50:34.283702+05:30"},{"city":"Srinagar","state":"Jammu and Kashmir","latitude":34.0837,"longitude":74.7973,"temp":7.3,"humidity":84,"rain":0.0,"pressure":838.3,"uv_index":5.0,"wind_gusts":21.6,"aqi":79,"pm10":16.4,"pm2_5":14.7,"mosquito_risk":3,"arthritis_risk":10,"migraine_risk":3,"frizz_risk":0,"updated_at":"2026-03-16T18:50:34.283710+05:30"},{"city":"Jammu","state":"Jammu and Kashmir","latitude":32.7266,"longitude":74.857,"temp":19.1,"humidity":65,"rain":0.0,"pressure":975.0,"uv_index":6.5,"wind_gusts":34.2,"aqi":65,"pm10":44.7,"pm2_5":23.0,"mosquito_risk":3,"arthritis_risk":5,"migraine_risk":7,"frizz_risk":0,"updated_at":"2026-03-16T18:50:34.283717+05:30"},{"city":"Amritsar","state":"Punjab","latitude":31.634,"longitude":74.8723,"temp":16.3,"humidity":80,"rain":0.0,"pressure":983.1,"uv_index":6.45,"wind_gusts":34.2,"aqi":77,"pm10":50.6,"pm2_5":21.5,"mosquito_risk":3,"arthritis_risk":5,"migraine_risk":7,"frizz_risk":0,"updated_at":"2026-03-16T18:50:34.283725+05:30"},{"city":"Ludhiana","state":"Punjab","latitude":30.901,"longitude":75.8573,"temp":17.1,"humidity":63,"rain":0.0,"pressure":980.3,"uv_index":6.15,"wind_gusts":42.8,"aqi":83,"pm10":36.9,"pm2_5":20.4,"mosquito_risk":3,"arthritis_risk":5,"migraine_risk":7,"frizz_risk":0,"updated_at":"2026-03-16T18:50:34.283732+05:30"},{"city":"Jalandhar","state":"Punjab","latitude":31.326,"longitude":75.5762,"temp":16.4,"humidity":74,"rain":0.0,"pressure":981.7,"uv_index":6.3,"wind_gusts":43.2,"aqi":73,"pm10":40.5,"pm2_5":18.9,"mosquito_risk":3,"arthritis_risk":5,"migraine_risk":7,"frizz_risk":0,"updated_at":"2026-03-16T18:50:34.283742+05:30"},{"city":"Dehradun","state":"Uttarakhand","latitude":30.6284,"longitude":78.0322,"temp":10.7,"humidity":71,"rain":0.0,"pressure":827.7,"uv_index":5.25,"wind_gusts":31.0,"aqi":88,"pm10":37.0,"pm2_5":11.9,"mosquito_risk":3,"arthritis_risk":5,"migraine_risk":3,"frizz_risk":0,"updated_at":"2026-03-16T18:50:34.283749+05:30"},{"city":"Shimla","state":"Himachal Pradesh","latitude":31.1048,"longitude":77.1734,"temp":10.0,"humidity":71,"rain":0.0,"pressure":780.9,"uv_index":4.4,"wind_gusts":35.6,"aqi":77,"pm10":43.4,"pm2_5":12.3,"mosquito_risk":3,"arthritis_risk":5,"migraine_risk":3,"frizz_risk":0,"updated_at":"2026-03-16T18:50:34.283756+05:30"},{"city":"Manali","state":"Himachal Pradesh","latitude":32.2396,"longitude":77.1887,"temp":8.0,"humidity":97,"rain":0.6,"pressure":813.8,"uv_index":5.2,"wind_gusts":43.2,"aqi":109,"pm10":20.4,"pm2_5":6.4,"mosquito_risk":6,"arthritis_risk":10,"migraine_risk":3,"frizz_risk":0,"updated_at":"2026-03-16T18:50:34.283764+05:30"},{"city":"Gurgaon","state":"Haryana","latitude":28.4595,"longitude":77.0266,"temp":24.5,"humidity":55,"rain":0.0,"pressure":979.8,"uv_index":6.2,"wind_gusts":45.7,"aqi":2034,"pm10":728.3,"pm2_5":109.7,"mosquito_risk":0,"arthritis_risk":5,"migraine_risk":7,"frizz_risk":0,"updated_at":"2026-03-16T18:50:34.283771+05:30"},{"city":"Noida","state":"Uttar Pradesh","latitude":28.5355,"longitude":77.391,"temp":25.4,"humidity":48,"rain":0.0,"pressure":983.2,"uv_index":6.1,"wind_gusts":42.1,"aqi":2034,"pm10":728.3,"pm2_5":109.7,"mosquito_risk":4,"arthritis_risk":5,"migraine_risk":7,"frizz_risk":0,"updated_at":"2026-03-16T18:50:34.283778+05:30"},{"city":"Ghaziabad","state":"Uttar Pradesh","latitude":28.6692,"longitude":77.4538,"temp":22.7,"humidity":62,"rain":0.0,"pressure":981.7,"uv_index":6.1,"wind_gusts":45.7,"aqi":117,"pm10":181.6,"pm2_5":43.2,"mosquito_risk":3,"arthritis_risk":5,"migraine_risk":7,"frizz_risk":0,"updated_at":"2026-03-16T18:50:34.283784+05:30"},{"city":"Faridabad","state":"Haryana","latitude":28.4089,"longitude":77.3178,"temp":25.2,"humidity":50,"rain":0.0,"pressure":982.1,"uv_index":6.15,"wind_gusts":41.0,"aqi":2034,"pm10":728.3,"pm2_5":109.7,"mosquito_risk":4,"arthritis_risk":5,"migraine_risk":7,"frizz_risk":0,"updated_at":"2026-03-16T18:50:34.283791+05:30"},{"city":"Meerut","state":"Uttar Pradesh","latitude":28.9845,"longitude":77.7064,"temp":20.9,"humidity":74,"rain":0.0,"pressure":980.7,"uv_index":6.0,"wind_gusts":53.6,"aqi":117,"pm10":181.6,"pm2_5":43.2,"mosquito_risk":3,"arthritis_risk":5,"migraine_risk":3,"frizz_risk":1,"updated_at":"2026-03-16T18:50:34.283797+05:30"},{"city":"Agra","state":"Uttar Pradesh","latitude":27.1767,"longitude":78.0081,"temp":27.2,"humidity":32,"rain":0.0,"pressure":986.1,"uv_index":6.5,"wind_gusts":34.9,"aqi":1023,"pm10":234.2,"pm2_5":56.1,"mosquito_risk":4,"arthritis_risk":5,"migraine_risk":7,"frizz_risk":0,"updated_at":"2026-03-16T18:50:34.283804+05:30"},{"city":"Varanasi","state":"Uttar Pradesh","latitude":25.3176,"longitude":82.9739,"temp":27.0,"humidity":57,"rain":0.0,"pressure":996.3,"uv_index":7.35,"wind_gusts":29.9,"aqi":156,"pm10":59.8,"pm2_5":47.4,"mosquito_risk":4,"arthritis_risk":5,"migraine_risk":7,"frizz_risk":1,"updated_at":"2026-03-16T18:50:34.283814+05:30"},{"city":"Prayagraj","state":"Uttar Pradesh","latitude":25.4358,"longitude":81.8463,"temp":26.2,"humidity":70,"rain":0.0,"pressure":994.4,"uv_index":7.2,"wind_gusts":33.8,"aqi":173,"pm10":62.4,"pm2_5":48.8,"mosquito_risk":7,"arthritis_risk":5,"migraine_risk":7,"frizz_risk":1,"updated_at":"2026-03-16T18:50:34.283821+05:30"},{"city":"Gorakhpur","state":"Uttar Pradesh","latitude":26.7606,"longitude":83.3732,"temp":25.4,"humidity":50,"rain":0.0,"pressure":996.7,"uv_index":6.85,"wind_gusts":27.4,"aqi":128,"pm10":41.7,"pm2_5":25.7,"mosquito_risk":4,"arthritis_risk":5,"migraine_risk":7,"frizz_risk":0,"updated_at":"2026-03-16T18:50:34.283828+05:30"},{"city":"Bareilly","state":"Uttar Pradesh","latitude":28.367,"longitude":79.4304,"temp":21.7,"humidity":74,"rain":0.0,"pressure":987.5,"uv_index":6.3,"wind_gusts":60.8,"aqi":88,"pm10":84.1,"pm2_5":36.1,"mosquito_risk":3,"arthritis_risk":5,"migraine_risk":7,"frizz_risk":1,"updated_at":"2026-03-16T18:50:34.283835+05:30"},{"city":"Aligarh","state":"Uttar Pradesh","latitude":27.8974,"longitude":78.088,"temp":26.8,"humidity":47,"rain":0.0,"pressure":983.9,"uv_index":6.25,"wind_gusts":37.1,"aqi":613,"pm10":432.1,"pm2_5":74.3,"mosquito_risk":4,"arthritis_risk":5,"migraine_risk":7,"frizz_risk":0,"updated_at":"2026-03-16T18:50:34.283842+05:30"},{"city":"Moradabad","state":"Uttar Pradesh","latitude":28.8386,"longitude":78.7733,"temp":23.5,"humidity":66,"rain":0.0,"pressure":984.4,"uv_index":6.15,"wind_gusts":69.1,"aqi":99,"pm10":71.0,"pm2_5":38.1,"mosquito_risk":3,"arthritis_risk":5,"migraine_risk":7,"frizz_risk":1,"updated_at":"2026-03-16T18:50:34.283848+05:30"},{"city":"Saharanpur","state":"Uttar Pradesh","latitude":29.9637,"longitude":77.546,"temp":20.2,"humidity":68,"rain":0.0,"pressure":975.5,"uv_index":5.7,"wind_gusts":40.7,"aqi":77,"pm10":71.5,"pm2_5":37.3,"mosquito_risk":3,"arthritis_risk":5,"migraine_risk":3,"frizz_risk":0,"updated_at":"2026-03-16T18:50:34.283857+05:30"},{"city":"Jhansi","state":"Uttar Pradesh","latitude":25.4484,"longitude":78.5685,"temp":30.3,"humidity":26,"rain":0.0,"pressure":976.4,"uv_index":7.15,"wind_gusts":27.4,"aqi":93,"pm10":152.3,"pm2_5":35.0,"mosquito_risk":0,"arthritis_risk":5,"migraine_risk":7,"frizz_risk":0,"updated_at":"2026-03-16T18:50:37.506433+05:30"},{"city":"Surat","state":"Gujarat","latitude":21.1702,"longitude":72.8311,"temp":26.6,"humidity":81,"rain":0.0,"pressure":1006.1,"uv_index":7.35,"wind_gusts":28.1,"aqi":100,"pm10":65.2,"pm2_5":38.3,"mosquito_risk":7,"arthritis_risk":5,"migraine_risk":4,"frizz_risk":1,"updated_at":"2026-03-16T18:50:37.506464+05:30"},{"city":"Vadodara","state":"Gujarat","latitude":22.3072,"longitude":73.1812,"temp":33.2,"humidity":22,"rain":0.0,"pressure":1002.7,"uv_index":7.0,"wind_gusts":28.4,"aqi":95,"pm10":46.7,"pm2_5":21.8,"mosquito_risk":0,"arthritis_risk":5,"migraine_risk":4,"frizz_risk":0,"updated_at":"2026-03-16T18:50:37.506474+05:30"},{"city":"Rajkot","state":"Gujarat","latitude":22.3039,"longitude":70.8022,"temp":34.0,"humidity":16,"rain":0.0,"pressure":992.7,"uv_index":7.3,"wind_gusts":25.6,"aqi":83,"pm10":45.2,"pm2_5":16.2,"mosquito_risk":0,"arthritis_risk":5,"migraine_risk":7,"frizz_risk":0,"updated_at":"2026-03-16T18:50:37.506482+05:30"},{"city":"Thane","state":"Maharashtra","latitude":19.2183,"longitude":72.9781,"temp":27.1,"humidity":73,"rain":0.0,"pressure":1007.7,"uv_index":7.7,"wind_gusts":31.3,"aqi":126,"pm10":119.7,"pm2_5":36.1,"mosquito_risk":7,"arthritis_risk":5,"migraine_risk":4,"frizz_risk":1,"updated_at":"2026-03-16T18:50:37.506490+05:30"},{"city":"Nagpur","state":"Maharashtra","latitude":21.1458,"longitude":79.0882,"temp":31.6,"humidity":26,"rain":0.0,"pressure":971.2,"uv_index":7.95,"wind_gusts":20.5,"aqi":112,"pm10":36.2,"pm2_5":27.6,"mosquito_risk":0,"arthritis_risk":5,"migraine_risk":7,"frizz_risk":0,"updated_at":"2026-03-16T18:50:37.506497+05:30"},{"city":"Nashik","state":"Maharashtra","latitude":19.9975,"longitude":73.7898,"temp":27.6,"humidity":46,"rain":0.0,"pressure":945.1,"uv_index":7.9,"wind_gusts":26.6,"aqi":80,"pm10":43.5,"pm2_5":16.8,"mosquito_risk":4,"arthritis_risk":5,"migraine_risk":7,"frizz_risk":0,"updated_at":"2026-03-16T18:50:37.506504+05:30"},{"city":"Aurangabad","state":"Maharashtra","latitude":19.8762,"longitude":75.3433,"temp":30.9,"humidity":22,"rain":0.0,"pressure":943.0,"uv_index":8.45,"wind_gusts":28.1,"aqi":78,"pm10":22.6,"pm2_5":13.5,"mosquito_risk":0,"arthritis_risk":5,"migraine_risk":7,"frizz_risk":0,"updated_at":"2026-03-16T18:50:37.506511+05:30"},{"city":"Solapur","state":"Maharashtra","latitude":17.6599,"longitude":75.9064,"temp":30.8,"humidity":31,"rain":0.0,"pressure":956.1,"uv_index":8.65,"wind_gusts":26.6,"aqi":132,"pm10":32.2,"pm2_5":27.9,"mosquito_risk":0,"arthritis_risk":5,"migraine_risk":7,"frizz_risk":0,"updated_at":"2026-03-16T18:50:37.506518+05:30"},{"city":"Kolhapur","state":"Maharashtra","latitude":16.705,"longitude":74.2433,"temp":26.5,"humidity":57,"rain":0.0,"pressure":947.8,"uv_index":8.75,"wind_gusts":41.0,"aqi":101,"pm10":41.0,"pm2_5":35.0,"mosquito_risk":4,"arthritis_risk":5,"migraine_risk":7,"frizz_risk":1,"updated_at":"2026-03-16T18:50:37.506525+05:30"},{"city":"Goa","state":"Goa","latitude":15.2993,"longitude":74.124,"temp":28.4,"humidity":67,"rain":0.0,"pressure":998.2,"uv_index":8.75,"wind_gusts":33.1,"aqi":96,"pm10":40.5,"pm2_5":19.2,"mosquito_risk":7,"arthritis_risk":5,"migraine_risk":7,"frizz_risk":1,"updated_at":"2026-03-16T18:50:37.506543+05:30"},{"city":"Jodhpur","state":"Rajasthan","latitude":26.2389,"longitude":73.0243,"temp":32.9,"humidity":13,"rain":0.0,"pressure":980.0,"uv_index":7.2,"wind_gusts":34.2,"aqi":105,"pm10":105.9,"pm2_5":18.6,"mosquito_risk":0,"arthritis_risk":5,"migraine_risk":7,"frizz_risk":0,"updated_at":"2026-03-16T18:50:37.506558+05:30"},{"city":"Udaipur","state":"Rajasthan","latitude":24.5854,"longitude":73.7125,"temp":29.1,"humidity":16,"rain":0.0,"pressure":945.4,"uv_index":7.8,"wind_gusts":33.5,"aqi":77,"pm10":22.2,"pm2_5":9.2,"mosquito_risk":4,"arthritis_risk":5,"migraine_risk":7,"frizz_risk":0,"updated_at":"2026-03-16T18:50:37.506571+05:30"},{"city":"Kota","state":"Rajasthan","latitude":25.2138,"longitude":75.8648,"temp":31.6,"humidity":17,"rain":0.0,"pressure":976.4,"uv_index":7.2,"wind_gusts":23.0,"aqi":78,"pm10":77.5,"pm2_5":25.3,"mosquito_risk":0,"arthritis_risk":5,"migraine_risk":7,"frizz_risk":0,"updated_at":"2026-03-16T18:50:37.506584+05:30"},{"city":"Bikaner","state":"Rajasthan","latitude":28.0229,"longitude":73.3119,"temp":29.1,"humidity":18,"rain":0.0,"pressure":980.7,"uv_index":6.9,"wind_gusts":28.4,"aqi":76,"pm10":73.3,"pm2_5":21.5,"mosquito_risk":4,"arthritis_risk":5,"migraine_risk":7,"frizz_risk":0,"updated_at":"2026-03-16T18:50:37.506591+05:30"},{"city":"Ajmer","state":"Rajasthan","latitude":26.4499,"longitude":74.6399,"temp":29.6,"humidity":17,"rain":0.0,"pressure":952.6,"uv_index":7.15,"wind_gusts":32.4,"aqi":70,"pm10":28.2,"pm2_5":10.2,"mosquito_risk":4,"arthritis_risk":5,"migraine_risk":7,"frizz_risk":0,"updated_at":"2026-03-16T18:50:37.506598+05:30"},{"city":"Gwalior","state":"Madhya Pradesh","latitude":26.2183,"longitude":78.1828,"temp":27.9,"humidity":39,"rain":0.0,"pressure":981.8,"uv_index":6.8,"wind_gusts":31.0,"aqi":102,"pm10":97.6,"pm2_5":26.6,"mosquito_risk":4,"arthritis_risk":5,"migraine_risk":7,"frizz_risk":0,"updated_at":"2026-03-16T18:50:37.506605+05:30"},{"city":"Indore","state":"Madhya Pradesh","latitude":22.7196,"longitude":75.8577,"temp":29.9,"humidity":28,"rain":0.0,"pressure":946.7,"uv_index":7.75,"wind_gusts":33.1,"aqi":82,"pm10":33.3,"pm2_5":16.2,"mosquito_risk":4,"arthritis_risk":5,"migraine_risk":7,"frizz_risk":0,"updated_at":"2026-03-16T18:50:37.506612+05:30"},{"city":"Bhopal","state":"Madhya Pradesh","latitude":23.2599,"longitude":77.4126,"temp":29.0,"humidity":22,"rain":0.0,"pressure":952.4,"uv_index":7.65,"wind_gusts":32.4,"aqi":76,"pm10":21.6,"pm2_5":12.7,"mosquito_risk":4,"arthritis_risk":5,"migraine_risk":7,"frizz_risk":0,"updated_at":"2026-03-16T18:50:37.506619+05:30"},{"city":"Jabalpur","state":"Madhya Pradesh","latitude":23.1815,"longitude":79.9864,"temp":28.7,"humidity":29,"rain":0.0,"pressure":959.7,"uv_index":7.8,"wind_gusts":37.4,"aqi":80,"pm10":17.9,"pm2_5":14.3,"mosquito_risk":4,"arthritis_risk":5,"migraine_risk":7,"frizz_risk":0,"updated_at":"2026-03-16T18:50:37.506626+05:30"},{"city":"Ujjain","state":"Madhya Pradesh","latitude":23.1765,"longitude":75.7885,"temp":29.1,"humidity":28,"rain":0.0,"pressure":952.7,"uv_index":7.65,"wind_gusts":32.4,"aqi":70,"pm10":31.9,"pm2_5":17.3,"mosquito_risk":4,"arthritis_risk":5,"migraine_risk":7,"frizz_risk":0,"updated_at":"2026-03-16T18:50:37.506633+05:30"},{"city":"Visakhapatnam","state":"Andhra Pradesh","latitude":17.6868,"longitude":83.2185,"temp":26.5,"humidity":72,"rain":0.0,"pressure":1006.1,"uv_index":8.7,"wind_gusts":40.0,"aqi":59,"pm10":13.5,"pm2_5":11.3,"mosquito_risk":7,"arthritis_risk":5,"migraine_risk":4,"frizz_risk":1,"updated_at":"2026-03-16T18:50:37.506639+05:30"},{"city":"Vijayawada","state":"Andhra Pradesh","latitude":16.5062,"longitude":80.648,"temp":28.1,"humidity":58,"rain":0.0,"pressure":1003.5,"uv_index":8.75,"wind_gusts":26.6,"aqi":48,"pm10":12.9,"pm2_5":11.0,"mosquito_risk":4,"arthritis_risk":5,"migraine_risk":4,"frizz_risk":1,"updated_at":"2026-03-16T18:50:37.506646+05:30"},{"city":"Guntur","state":"Andhra Pradesh","latitude":16.3067,"longitude":80.4365,"temp":27.5,"humidity":60,"rain":0.0,"pressure":1004.7,"uv_index":8.75,"wind_gusts":28.4,"aqi":46,"pm10":13.5,"pm2_5":11.0,"mosquito_risk":4,"arthritis_risk":5,"migraine_risk":4,"frizz_risk":1,"updated_at":"2026-03-16T18:50:37.506653+05:30"},{"city":"Nellore","state":"Andhra Pradesh","latitude":14.4426,"longitude":79.9865,"temp":27.3,"humidity":70,"rain":0.0,"pressure":1006.5,"uv_index":8.95,"wind_gusts":32.4,"aqi":67,"pm10":10.0,"pm2_5":7.9,"mosquito_risk":7,"arthritis_risk":5,"migraine_risk":4,"frizz_risk":1,"updated_at":"2026-03-16T18:50:37.506661+05:30"},{"city":"Kurnool","state":"Andhra Pradesh","latitude":15.8281,"longitude":78.0373,"temp":30.2,"humidity":48,"rain":0.0,"pressure":976.7,"uv_index":8.8,"wind_gusts":26.3,"aqi":123,"pm10":38.8,"pm2_5":29.8,"mosquito_risk":0,"arthritis_risk":5,"migraine_risk":7,"frizz_risk":1,"updated_at":"2026-03-16T18:50:37.506668+05:30"},{"city":"Kakinada","state":"Andhra Pradesh","latitude":16.9891,"longitude":82.2475,"temp":26.8,"humidity":67,"rain":0.0,"pressure":1009.1,"uv_index":8.7,"wind_gusts":31.0,"aqi":43,"pm10":7.4,"pm2_5":5.3,"mosquito_risk":7,"arthritis_risk":0,"migraine_risk":4,"frizz_risk":1,"updated_at":"2026-03-16T18:50:37.506690+05:30"},{"city":"Tirupati","state":"Andhra Pradesh","latitude":13.6288,"longitude":79.4192,"temp":29.4,"humidity":42,"rain":0.0,"pressure":991.6,"uv_index":9.05,"wind_gusts":28.4,"aqi":76,"pm10":15.9,"pm2_5":14.8,"mosquito_risk":4,"arthritis_risk":5,"migraine_risk":7,"frizz_risk":0,"updated_at":"2026-03-16T18:50:37.506698+05:30"},{"city":"Warangal","state":"Telangana","latitude":17.9689,"longitude":79.5941,"temp":28.0,"humidity":66,"rain":0.0,"pressure":979.2,"uv_index":8.5,"wind_gusts":32.0,"aqi":75,"pm10":39.9,"pm2_5":33.1,"mosquito_risk":7,"arthritis_risk":5,"migraine_risk":7,"frizz_risk":1,"updated_at":"2026-03-16T18:50:37.506705+05:30"},{"city":"Nizamabad","state":"Telangana","latitude":18.6725,"longitude":78.0941,"temp":27.9,"humidity":54,"rain":0.0,"pressure":964.8,"uv_index":8.45,"wind_gusts":33.5,"aqi":147,"pm10":61.0,"pm2_5":52.2,"mosquito_risk":4,"arthritis_risk":5,"migraine_risk":7,"frizz_risk":1,"updated_at":"2026-03-16T18:50:37.506711+05:30"},{"city":"Mysore","state":"Karnataka","latitude":12.2958,"longitude":76.6396,"temp":25.5,"humidity":72,"rain":0.0,"pressure":928.8,"uv_index":9.35,"wind_gusts":33.5,"aqi":174,"pm10":45.3,"pm2_5":39.2,"mosquito_risk":7,"arthritis_risk":5,"migraine_risk":7,"frizz_risk":1,"updated_at":"2026-03-16T18:50:37.506718+05:30"},{"city":"Mangalore","state":"Karnataka","latitude":12.9141,"longitude":74.856,"temp":29.5,"humidity":75,"rain":0.0,"pressure":1006.7,"uv_index":9.0,"wind_gusts":23.8,"aqi":99,"pm10":43.8,"pm2_5":35.2,"mosquito_risk":7,"arthritis_risk":5,"migraine_risk":4,"frizz_risk":1,"updated_at":"2026-03-16T18:50:37.506724+05:30"},{"city":"Hubli-Dharwad","state":"Karnataka","latitude":15.3647,"longitude":75.124,"temp":28.2,"humidity":51,"rain":0.0,"pressure":941.0,"uv_index":8.95,"wind_gusts":44.6,"aqi":153,"pm10":42.0,"pm2_5":36.1,"mosquito_risk":4,"arthritis_risk":5,"migraine_risk":7,"frizz_risk":1,"updated_at":"2026-03-16T18:50:37.506731+05:30"},{"city":"Belgaum","state":"Karnataka","latitude":15.8497,"longitude":74.4977,"temp":25.7,"humidity":64,"rain":0.0,"pressure":925.7,"uv_index":9.0,"wind_gusts":36.7,"aqi":124,"pm10":31.2,"pm2_5":23.2,"mosquito_risk":7,"arthritis_risk":5,"migraine_risk":7,"frizz_risk":1,"updated_at":"2026-03-16T18:50:40.722377+05:30"},{"city":"Coimbatore","state":"Tamil Nadu","latitude":11.0168,"longitude":76.9558,"temp":26.6,"humidity":67,"rain":0.0,"pressure":961.7,"uv_index":9.3,"wind_gusts":40.0,"aqi":136,"pm10":28.8,"pm2_5":26.1,"mosquito_risk":7,"arthritis_risk":5,"migraine_risk":7,"frizz_risk":1,"updated_at":"2026-03-16T18:50:40.722406+05:30"},{"city":"Madurai","state":"Tamil Nadu","latitude":9.9252,"longitude":78.1198,"temp":31.1,"humidity":48,"rain":0.0,"pressure":992.5,"uv_index":9.25,"wind_gusts":25.6,"aqi":68,"pm10":14.5,"pm2_5":12.7,"mosquito_risk":0,"arthritis_risk":5,"migraine_risk":7,"frizz_risk":1,"updated_at":"2026-03-16T18:50:40.722416+05:30"},{"city":"Trichy","state":"Tamil Nadu","latitude":10.7905,"longitude":78.7047,"temp":31.0,"humidity":48,"rain":0.0,"pressure":999.1,"uv_index":9.2,"wind_gusts":22.7,"aqi":75,"pm10":22.3,"pm2_5":20.4,"mosquito_risk":0,"arthritis_risk":5,"migraine_risk":7,"frizz_risk":1,"updated_at":"2026-03-16T18:50:40.722424+05:30"},{"city":"Salem","state":"Tamil Nadu","latitude":11.6643,"longitude":78.146,"temp":31.8,"humidity":45,"rain":0.0,"pressure":976.3,"uv_index":9.25,"wind_gusts":16.6,"aqi":113,"pm10":26.1,"pm2_5":23.7,"mosquito_risk":0,"arthritis_risk":5,"migraine_risk":7,"frizz_risk":1,"updated_at":"2026-03-16T18:50:40.722432+05:30"},{"city":"Tirunelveli","state":"Tamil Nadu","latitude":8.7139,"longitude":77.7567,"temp":29.9,"humidity":62,"rain":0.0,"pressure":1002.8,"uv_index":9.25,"wind_gusts":38.9,"aqi":65,"pm10":13.7,"pm2_5":12.5,"mosquito_risk":7,"arthritis_risk":5,"migraine_risk":4,"frizz_risk":1,"updated_at":"2026-03-16T18:50:40.722439+05:30"},{"city":"Vellore","state":"Tamil Nadu","latitude":12.9165,"longitude":79.1325,"temp":29.1,"humidity":44,"rain":0.0,"pressure":984.4,"uv_index":9.15,"wind_gusts":29.9,"aqi":84,"pm10":21.1,"pm2_5":19.3,"mosquito_risk":4,"arthritis_risk":5,"migraine_risk":7,"frizz_risk":0,"updated_at":"2026-03-16T18:50:40.722446+05:30"},{"city":"Erode","state":"Tamil Nadu","latitude":11.341,"longitude":77.7172,"temp":33.2,"humidity":41,"rain":0.0,"pressure":987.7,"uv_index":9.2,"wind_gusts":23.8,"aqi":69,"pm10":19.7,"pm2_5":17.2,"mosquito_risk":0,"arthritis_risk":5,"migraine_risk":7,"frizz_risk":1,"updated_at":"2026-03-16T18:50:40.722453+05:30"},{"city":"Kochi","state":"Kerala","latitude":9.9312,"longitude":76.2673,"temp":28.8,"humidity":80,"rain":0.0,"pressure":1008.1,"uv_index":9.1,"wind_gusts":32.0,"aqi":102,"pm10":25.2,"pm2_5":22.2,"mosquito_risk":7,"arthritis_risk":0,"migraine_risk":4,"frizz_risk":1,"updated_at":"2026-03-16T18:50:40.722460+05:30"},{"city":"Thiruvananthapuram","state":"Kerala","latitude":8.5241,"longitude":76.9366,"temp":28.8,"humidity":76,"rain":0.0,"pressure":1007.7,"uv_index":9.15,"wind_gusts":28.4,"aqi":101,"pm10":16.4,"pm2_5":13.1,"mosquito_risk":7,"arthritis_risk":5,"migraine_risk":4,"frizz_risk":1,"updated_at":"2026-03-16T18:50:40.722467+05:30"},{"city":"Kozhikode","state":"Kerala","latitude":11.2588,"longitude":75.7804,"temp":29.1,"humidity":76,"rain":0.0,"pressure":1007.5,"uv_index":9.0,"wind_gusts":31.7,"aqi":76,"pm10":27.7,"pm2_5":22.8,"mosquito_risk":7,"arthritis_risk":5,"migraine_risk":4,"frizz_risk":1,"updated_at":"2026-03-16T18:50:40.722473+05:30"},{"city":"Thrissur","state":"Kerala","latitude":10.5276,"longitude":76.2144,"temp":28.9,"humidity":76,"rain":0.0,"pressure":1006.6,"uv_index":9.05,"wind_gusts":35.6,"aqi":93,"pm10":25.0,"pm2_5":22.5,"mosquito_risk":7,"arthritis_risk":5,"migraine_risk":4,"frizz_risk":1,"updated_at":"2026-03-16T18:50:40.722481+05:30"},{"city":"Kannur","state":"Kerala","latitude":11.8745,"longitude":75.3704,"temp":29.4,"humidity":72,"rain":0.0,"pressure":1007.3,"uv_index":8.9,"wind_gusts":29.9,"aqi":92,"pm10":39.0,"pm2_5":33.4,"mosquito_risk":7,"arthritis_risk":5,"migraine_risk":4,"frizz_risk":1,"updated_at":"2026-03-16T18:50:40.722487+05:30"},{"city":"Patna","state":"Bihar","latitude":25.5941,"longitude":85.1376,"temp":28.8,"humidity":56,"rain":0.0,"pressure":1000.0,"uv_index":7.5,"wind_gusts":24.5,"aqi":157,"pm10":81.3,"pm2_5":56.5,"mosquito_risk":4,"arthritis_risk":5,"migraine_risk":4,"frizz_risk":1,"updated_at":"2026-03-16T18:50:40.722493+05:30"},{"city":"Gaya","state":"Bihar","latitude":24.7914,"longitude":85.0002,"temp":26.3,"humidity":60,"rain":0.0,"pressure":993.2,"uv_index":7.25,"wind_gusts":33.5,"aqi":138,"pm10":54.1,"pm2_5":36.9,"mosquito_risk":4,"arthritis_risk":5,"migraine_risk":7,"frizz_risk":1,"updated_at":"2026-03-16T18:50:40.722499+05:30"},{"city":"Muzaffarpur","state":"Bihar","latitude":26.1209,"longitude":85.3647,"temp":26.6,"humidity":59,"rain":0.0,"pressure":1000.0,"uv_index":7.5,"wind_gusts":21.6,"aqi":158,"pm10":70.5,"pm2_5":51.1,"mosquito_risk":4,"arthritis_risk":5,"migraine_risk":4,"frizz_risk":1,"updated_at":"2026-03-16T18:50:40.722505+05:30"},{"city":"Bhagalpur","state":"Bihar","latitude":25.2425,"longitude":87.0117,"temp":27.6,"humidity":63,"rain":0.0,"pressure":1001.0,"uv_index":7.55,"wind_gusts":31.7,"aqi":184,"pm10":76.6,"pm2_5":62.4,"mosquito_risk":7,"arthritis_risk":5,"migraine_risk":4,"frizz_risk":1,"updated_at":"2026-03-16T18:50:40.722511+05:30"},{"city":"Ranchi","state":"Jharkhand","latitude":23.3441,"longitude":85.3096,"temp":25.0,"humidity":51,"rain":0.0,"pressure":938.3,"uv_index":8.0,"wind_gusts":35.3,"aqi":149,"pm10":39.3,"pm2_5":34.3,"mosquito_risk":4,"arthritis_risk":5,"migraine_risk":7,"frizz_risk":0,"updated_at":"2026-03-16T18:50:40.722518+05:30"},{"city":"Jamshedpur","state":"Jharkhand","latitude":22.8046,"longitude":86.2029,"temp":24.9,"humidity":73,"rain":0.0,"pressure":992.6,"uv_index":8.0,"wind_gusts":39.6,"aqi":164,"pm10":48.1,"pm2_5":42.8,"mosquito_risk":3,"arthritis_risk":5,"migraine_risk":7,"frizz_risk":1,"updated_at":"2026-03-16T18:50:40.722524+05:30"},{"city":"Dhanbad","state":"Jharkhand","latitude":23.7957,"longitude":86.4304,"temp":27.5,"humidity":48,"rain":0.0,"pressure":980.4,"uv_index":7.6,"wind_gusts":35.6,"aqi":162,"pm10":54.2,"pm2_5":47.7,"mosquito_risk":4,"arthritis_risk":5,"migraine_risk":7,"frizz_risk":0,"updated_at":"2026-03-16T18:50:40.722530+05:30"},{"city":"Bokaro","state":"Jharkhand","latitude":23.6693,"longitude":86.1511,"temp":26.9,"humidity":59,"rain":0.0,"pressure":984.4,"uv_index":7.8,"wind_gusts":28.4,"aqi":156,"pm10":47.4,"pm2_5":41.0,"mosquito_risk":4,"arthritis_risk":5,"migraine_risk":7,"frizz_risk":1,"updated_at":"2026-03-16T18:50:40.722536+05:30"},{"city":"Bhubaneswar","state":"Odisha","latitude":20.2961,"longitude":85.8245,"temp":25.8,"humidity":79,"rain":0.0,"pressure":1005.2,"uv_index":8.5,"wind_gusts":37.4,"aqi":73,"pm10":33.5,"pm2_5":29.5,"mosquito_risk":7,"arthritis_risk":5,"migraine_risk":4,"frizz_risk":1,"updated_at":"2026-03-16T18:50:40.722542+05:30"},{"city":"Cuttack","state":"Odisha","latitude":20.4625,"longitude":85.8828,"temp":25.7,"humidity":80,"rain":0.0,"pressure":1007.3,"uv_index":8.5,"wind_gusts":39.6,"aqi":73,"pm10":33.5,"pm2_5":29.5,"mosquito_risk":7,"arthritis_risk":5,"migraine_risk":4,"frizz_risk":1,"updated_at":"2026-03-16T18:50:40.722548+05:30"},{"city":"Rourkela","state":"Odisha","latitude":22.2604,"longitude":84.8536,"temp":26.9,"humidity":60,"rain":0.0,"pressure":986.2,"uv_index":8.0,"wind_gusts":42.1,"aqi":171,"pm10":56.5,"pm2_5":50.4,"mosquito_risk":4,"arthritis_risk":5,"migraine_risk":7,"frizz_risk":1,"updated_at":"2026-03-16T18:50:40.722555+05:30"},{"city":"Raipur","state":"Chhattisgarh","latitude":21.2514,"longitude":81.6296,"temp":29.5,"humidity":44,"rain":0.0,"pressure":973.9,"uv_index":8.2,"wind_gusts":36.0,"aqi":139,"pm10":48.2,"pm2_5":43.9,"mosquito_risk":4,"arthritis_risk":5,"migraine_risk":7,"frizz_risk":0,"updated_at":"2026-03-16T18:50:40.722561+05:30"},{"city":"Bhilai","state":"Chhattisgarh","latitude":21.1938,"longitude":81.3509,"temp":29.5,"humidity":45,"rain":0.0,"pressure":974.0,"uv_index":8.2,"wind_gusts":34.2,"aqi":132,"pm10":47.0,"pm2_5":41.9,"mosquito_risk":4,"arthritis_risk":5,"migraine_risk":7,"frizz_risk":1,"updated_at":"2026-03-16T18:50:40.722567+05:30"},{"city":"Guwahati","state":"Assam","latitude":26.1158,"longitude":91.7086,"temp":24.8,"humidity":80,"rain":0.0,"pressure":1002.0,"uv_index":7.2,"wind_gusts":36.7,"aqi":84,"pm10":34.0,"pm2_5":31.0,"mosquito_risk":3,"arthritis_risk":5,"migraine_risk":4,"frizz_risk":1,"updated_at":"2026-03-16T18:50:40.722574+05:30"},{"city":"Agartala","state":"Tripura","latitude":23.8315,"longitude":91.2868,"temp":25.0,"humidity":74,"rain":0.0,"pressure":1008.0,"uv_index":5.55,"wind_gusts":31.7,"aqi":68,"pm10":36.7,"pm2_5":32.1,"mosquito_risk":7,"arthritis_risk":0,"migraine_risk":0,"frizz_risk":1,"updated_at":"2026-03-16T18:50:40.722580+05:30"},{"city":"Shillong","state":"Meghalaya","latitude":25.5788,"longitude":91.8933,"temp":12.9,"humidity":91,"rain":0.0,"pressure":855.6,"uv_index":7.85,"wind_gusts":74.2,"aqi":65,"pm10":18.4,"pm2_5":16.6,"mosquito_risk":3,"arthritis_risk":10,"migraine_risk":7,"frizz_risk":0,"updated_at":"2026-03-16T18:50:40.722586+05:30"},{"city":"Imphal","state":"Manipur","latitude":24.817,"longitude":93.9368,"temp":16.0,"humidity":88,"rain":0.0,"pressure":924.2,"uv_index":8.2,"wind_gusts":70.2,"aqi":88,"pm10":38.6,"pm2_5":31.0,"mosquito_risk":3,"arthritis_risk":10,"migraine_risk":7,"frizz_risk":0,"updated_at":"2026-03-16T18:50:40.722593+05:30"},{"city":"Aizawl","state":"Mizoram","latitude":23.7271,"longitude":92.7176,"temp":17.6,"humidity":84,"rain":0.0,"pressure":894.0,"uv_index":8.05,"wind_gusts":60.1,"aqi":87,"pm10":48.9,"pm2_5":40.2,"mosquito_risk":3,"arthritis_risk":10,"migraine_risk":7,"frizz_risk":0,"updated_at":"2026-03-16T18:50:40.722600+05:30"},{"city":"Kohima","state":"Nagaland","latitude":25.6701,"longitude":94.1077,"temp":15.0,"humidity":67,"rain":0.0,"pressure":854.7,"uv_index":7.9,"wind_gusts":110.5,"aqi":71,"pm10":33.4,"pm2_5":26.6,"mosquito_risk":3,"arthritis_risk":5,"migraine_risk":7,"frizz_risk":0,"updated_at":"2026-03-16T18:50:40.722606+05:30"},{"city":"Gangtok","state":"Sikkim","latitude":27.3314,"longitude":88.6138,"temp":12.8,"humidity":79,"rain":0.0,"pressure":835.4,"uv_index":7.85,"wind_gusts":18.7,"aqi":86,"pm10":38.1,"pm2_5":24.8,"mosquito_risk":3,"arthritis_risk":5,"migraine_risk":7,"frizz_risk":0,"updated_at":"2026-03-16T18:50:40.722612+05:30"},{"city":"Siliguri","state":"West Bengal","latitude":26.7271,"longitude":88.3953,"temp":21.1,"humidity":76,"rain":0.0,"pressure":994.6,"uv_index":7.5,"wind_gusts":28.8,"aqi":133,"pm10":49.0,"pm2_5":35.5,"mosquito_risk":3,"arthritis_risk":5,"migraine_risk":7,"frizz_risk":1,"updated_at":"2026-03-16T18:50:43.969201+05:30"},{"city":"Durgapur","state":"West Bengal","latitude":23.5204,"longitude":87.3119,"temp":25.9,"humidity":73,"rain":0.0,"pressure":996.3,"uv_index":7.75,"wind_gusts":41.4,"aqi":156,"pm10":64.7,"pm2_5":59.6,"mosquito_risk":7,"arthritis_risk":5,"migraine_risk":7,"frizz_risk":1,"updated_at":"2026-03-16T18:50:43.969230+05:30"},{"city":"Asansol","state":"West Bengal","latitude":23.6739,"longitude":86.9524,"temp":26.7,"humidity":68,"rain":0.0,"pressure":994.4,"uv_index":7.75,"wind_gusts":46.1,"aqi":155,"pm10":56.3,"pm2_5":50.1,"mosquito_risk":7,"arthritis_risk":5,"migraine_risk":7,"frizz_risk":1,"updated_at":"2026-03-16T18:50:43.969240+05:30"},{"city":"Pondicherry","state":"Puducherry","latitude":11.9139,"longitude":79.8145,"temp":27.3,"humidity":77,"rain":0.0,"pressure":1008.7,"uv_index":9.05,"wind_gusts":32.4,"aqi":35,"pm10":7.7,"pm2_5":5.4,"mosquito_risk":7,"arthritis_risk":0,"migraine_risk":4,"frizz_risk":1,"updated_at":"2026-03-16T18:50:43.969247+05:30"},{"city":"Port Blair","state":"Andaman and Nicobar Islands","latitude":11.6234,"longitude":92.7265,"temp":28.0,"humidity":77,"rain":0.0,"pressure":1008.3,"uv_index":9.0,"wind_gusts":20.2,"aqi":70,"pm10":15.9,"pm2_5":13.4,"mosquito_risk":7,"arthritis_risk":0,"migraine_risk":4,"frizz_risk":1,"updated_at":"2026-03-16T18:50:43.969255+05:30"},{"city":"Haridwar","state":"Uttarakhand","latitude":29.9457,"longitude":78.1642,"temp":21.6,"humidity":58,"rain":0.0,"pressure":974.6,"uv_index":5.85,"wind_gusts":51.8,"aqi":87,"pm10":51.1,"pm2_5":24.3,"mosquito_risk":0,"arthritis_risk":5,"migraine_risk":3,"frizz_risk":0,"updated_at":"2026-03-16T18:50:43.969263+05:30"},{"city":"Rishikesh","state":"Uttarakhand","latitude":30.0869,"longitude":78.2676,"temp":20.0,"humidity":57,"rain":0.0,"pressure":967.6,"uv_index":5.9,"wind_gusts":32.8,"aqi":92,"pm10":33.9,"pm2_5":15.0,"mosquito_risk":0,"arthritis_risk":5,"migraine_risk":3,"frizz_risk":0,"updated_at":"2026-03-16T18:50:43.969270+05:30"},{"city":"Nainital","state":"Uttarakhand","latitude":29.3919,"longitude":79.4542,"temp":17.5,"humidity":44,"rain":0.0,"pressure":805.8,"uv_index":6.75,"wind_gusts":68.8,"aqi":78,"pm10":64.0,"pm2_5":23.5,"mosquito_risk":0,"arthritis_risk":5,"migraine_risk":7,"frizz_risk":0,"updated_at":"2026-03-16T18:50:43.969278+05:30"},{"city":"Mussoorie","state":"Uttarakhand","latitude":30.4599,"longitude":78.0664,"temp":12.1,"humidity":63,"rain":0.0,"pressure":800.2,"uv_index":5.3,"wind_gusts":33.8,"aqi":82,"pm10":49.8,"pm2_5":22.1,"mosquito_risk":3,"arthritis_risk":5,"migraine_risk":3,"frizz_risk":0,"updated_at":"2026-03-16T18:50:43.969284+05:30"},{"city":"Dharamshala","state":"Himachal Pradesh","latitude":32.219,"longitude":76.3234,"temp":14.9,"humidity":46,"rain":0.0,"pressure":867.5,"uv_index":4.9,"wind_gusts":37.8,"aqi":76,"pm10":25.3,"pm2_5":8.8,"mosquito_risk":0,"arthritis_risk":5,"migraine_risk":3,"frizz_risk":0,"updated_at":"2026-03-16T18:50:43.969291+05:30"},{"city":"Dalhousie","state":"Himachal Pradesh","latitude":32.5387,"longitude":75.971,"temp":11.2,"humidity":55,"rain":0.0,"pressure":800.9,"uv_index":5.2,"wind_gusts":26.3,"aqi":66,"pm10":42.4,"pm2_5":16.0,"mosquito_risk":0,"arthritis_risk":5,"migraine_risk":3,"frizz_risk":0,"updated_at":"2026-03-16T18:50:43.969299+05:30"},{"city":"Patiala","state":"Punjab","latitude":30.3398,"longitude":76.3869,"temp":18.3,"humidity":66,"rain":0.0,"pressure":978.9,"uv_index":5.8,"wind_gusts":52.6,"aqi":74,"pm10":38.0,"pm2_5":24.2,"mosquito_risk":3,"arthritis_risk":5,"migraine_risk":3,"frizz_risk":0,"updated_at":"2026-03-16T18:50:43.969306+05:30"},{"city":"Bhatinda","state":"Punjab","latitude":30.211,"longitude":74.9455,"temp":19.5,"humidity":63,"rain":0.0,"pressure":985.1,"uv_index":6.55,"wind_gusts":36.0,"aqi":86,"pm10":63.6,"pm2_5":28.4,"mosquito_risk":3,"arthritis_risk":5,"migraine_risk":7,"frizz_risk":0,"updated_at":"2026-03-16T18:50:43.969313+05:30"},{"city":"Rohtak","state":"Haryana","latitude":28.8955,"longitude":76.6066,"temp":25.0,"humidity":50,"rain":0.0,"pressure":980.4,"uv_index":6.15,"wind_gusts":48.2,"aqi":621,"pm10":1363.5,"pm2_5":161.6,"mosquito_risk":4,"arthritis_risk":5,"migraine_risk":7,"frizz_risk":0,"updated_at":"2026-03-16T18:50:43.969319+05:30"},{"city":"Panipat","state":"Haryana","latitude":29.3909,"longitude":76.9635,"temp":22.8,"humidity":59,"rain":0.0,"pressure":979.9,"uv_index":5.9,"wind_gusts":41.4,"aqi":190,"pm10":847.5,"pm2_5":101.3,"mosquito_risk":0,"arthritis_risk":5,"migraine_risk":3,"frizz_risk":0,"updated_at":"2026-03-16T18:50:43.969326+05:30"},{"city":"Mathura","state":"Uttar Pradesh","latitude":27.4924,"longitude":77.6737,"temp":28.5,"humidity":34,"rain":0.0,"pressure":984.7,"uv_index":6.4,"wind_gusts":34.2,"aqi":1139,"pm10":257.0,"pm2_5":55.9,"mosquito_risk":4,"arthritis_risk":5,"migraine_risk":7,"frizz_risk":0,"updated_at":"2026-03-16T18:50:43.969332+05:30"},{"city":"Vrindavan","state":"Uttar Pradesh","latitude":27.5823,"longitude":77.7027,"temp":27.4,"humidity":36,"rain":0.0,"pressure":985.2,"uv_index":6.35,"wind_gusts":37.1,"aqi":1139,"pm10":257.0,"pm2_5":55.9,"mosquito_risk":4,"arthritis_risk":5,"migraine_risk":7,"frizz_risk":0,"updated_at":"2026-03-16T18:50:43.969338+05:30"},{"city":"Ayodhya","state":"Uttar Pradesh","latitude":26.7922,"longitude":82.1998,"temp":26.3,"humidity":48,"rain":0.0,"pressure":994.5,"uv_index":6.75,"wind_gusts":33.1,"aqi":102,"pm10":48.8,"pm2_5":31.2,"mosquito_risk":4,"arthritis_risk":5,"migraine_risk":7,"frizz_risk":0,"updated_at":"2026-03-16T18:50:43.969345+05:30"},{"city":"Ratlam","state":"Madhya Pradesh","latitude":23.3315,"longitude":75.0367,"temp":30.2,"humidity":28,"rain":0.0,"pressure":953.7,"uv_index":7.55,"wind_gusts":34.2,"aqi":76,"pm10":27.6,"pm2_5":14.1,"mosquito_risk":0,"arthritis_risk":5,"migraine_risk":7,"frizz_risk":0,"updated_at":"2026-03-16T18:50:43.969351+05:30"},{"city":"Sagar","state":"Madhya Pradesh","latitude":23.8388,"longitude":78.7378,"temp":28.1,"humidity":29,"rain":0.0,"pressure":948.7,"uv_index":7.6,"wind_gusts":29.2,"aqi":79,"pm10":37.6,"pm2_5":12.6,"mosquito_risk":4,"arthritis_risk":5,"migraine_risk":7,"frizz_risk":0,"updated_at":"2026-03-16T18:50:43.969358+05:30"},{"city":"Satna","state":"Madhya Pradesh","latitude":24.6005,"longitude":80.8322,"temp":30.5,"humidity":21,"rain":0.0,"pressure":969.3,"uv_index":7.6,"wind_gusts":38.9,"aqi":99,"pm10":21.9,"pm2_5":13.6,"mosquito_risk":0,"arthritis_risk":5,"migraine_risk":7,"frizz_risk":0,"updated_at":"2026-03-16T18:50:43.969364+05:30"},{"city":"Akola","state":"Maharashtra","latitude":20.7002,"longitude":77.0082,"temp":33.2,"humidity":24,"rain":0.0,"pressure":973.0,"uv_index":8.1,"wind_gusts":23.4,"aqi":108,"pm10":34.5,"pm2_5":23.1,"mosquito_risk":0,"arthritis_risk":5,"migraine_risk":7,"frizz_risk":0,"updated_at":"2026-03-16T18:50:43.969371+05:30"},{"city":"Amravati","state":"Maharashtra","latitude":20.9374,"longitude":77.7796,"temp":31.9,"humidity":26,"rain":0.0,"pressure":965.3,"uv_index":8.05,"wind_gusts":31.0,"aqi":113,"pm10":35.5,"pm2_5":25.2,"mosquito_risk":0,"arthritis_risk":5,"migraine_risk":7,"frizz_risk":0,"updated_at":"2026-03-16T18:50:43.969378+05:30"},{"city":"Latur","state":"Maharashtra","latitude":18.4088,"longitude":76.5604,"temp":28.9,"humidity":33,"rain":0.0,"pressure":939.1,"uv_index":8.55,"wind_gusts":24.5,"aqi":114,"pm10":38.5,"pm2_5":30.4,"mosquito_risk":4,"arthritis_risk":5,"migraine_risk":7,"frizz_risk":0,"updated_at":"2026-03-16T18:50:43.969384+05:30"},{"city":"Nanded","state":"Maharashtra","latitude":19.1383,"longitude":77.3091,"temp":32.4,"humidity":31,"rain":0.0,"pressure":967.2,"uv_index":8.35,"wind_gusts":23.8,"aqi":113,"pm10":37.4,"pm2_5":29.9,"mosquito_risk":0,"arthritis_risk":5,"migraine_risk":7,"frizz_risk":0,"updated_at":"2026-03-16T18:50:43.969390+05:30"},{"city":"Gulbarga","state":"Karnataka","latitude":17.3297,"longitude":76.8343,"temp":29.6,"humidity":40,"rain":0.0,"pressure":958.5,"uv_index":8.65,"wind_gusts":32.4,"aqi":159,"pm10":43.9,"pm2_5":37.6,"mosquito_risk":4,"arthritis_risk":5,"migraine_risk":7,"frizz_risk":0,"updated_at":"2026-03-16T18:50:43.969396+05:30"},{"city":"Bidar","state":"Karnataka","latitude":17.9104,"longitude":77.5199,"temp":26.2,"humidity":55,"rain":0.0,"pressure":935.7,"uv_index":8.6,"wind_gusts":37.1,"aqi":164,"pm10":52.5,"pm2_5":46.9,"mosquito_risk":4,"arthritis_risk":5,"migraine_risk":7,"frizz_risk":1,"updated_at":"2026-03-16T18:50:43.969402+05:30"},{"city":"Hospet","state":"Karnataka","latitude":15.2689,"longitude":76.3909,"temp":29.5,"humidity":51,"rain":0.0,"pressure":955.8,"uv_index":8.9,"wind_gusts":28.8,"aqi":174,"pm10":48.0,"pm2_5":41.2,"mosquito_risk":4,"arthritis_risk":5,"migraine_risk":7,"frizz_risk":1,"updated_at":"2026-03-16T18:50:43.969408+05:30"},{"city":"Tirupur","state":"Tamil Nadu","latitude":11.1085,"longitude":77.3411,"temp":28.9,"humidity":38,"rain":0.0,"pressure":975.1,"uv_index":9.3,"wind_gusts":33.1,"aqi":116,"pm10":21.4,"pm2_5":18.7,"mosquito_risk":4,"arthritis_risk":5,"migraine_risk":7,"frizz_risk":0,"updated_at":"2026-03-16T18:50:43.969414+05:30"},{"city":"Alappuzha","state":"Kerala","latitude":9.4981,"longitude":76.3388,"temp":28.8,"humidity":79,"rain":0.0,"pressure":1008.2,"uv_index":9.1,"wind_gusts":30.2,"aqi":114,"pm10":22.8,"pm2_5":19.0,"mosquito_risk":7,"arthritis_risk":0,"migraine_risk":4,"frizz_risk":1,"updated_at":"2026-03-16T18:50:43.969420+05:30"},{"city":"Munnar","state":"Kerala","latitude":10.0889,"longitude":77.0595,"temp":22.8,"humidity":76,"rain":0.0,"pressure":857.4,"uv_index":9.6,"wind_gusts":33.1,"aqi":85,"pm10":25.3,"pm2_5":23.5,"mosquito_risk":3,"arthritis_risk":5,"migraine_risk":7,"frizz_risk":1,"updated_at":"2026-03-16T18:50:43.969427+05:30"},{"city":"Silchar","state":"Assam","latitude":24.8333,"longitude":92.7789,"temp":22.2,"humidity":87,"rain":0.0,"pressure":1007.6,"uv_index":7.85,"wind_gusts":44.6,"aqi":74,"pm10":28.2,"pm2_5":24.4,"mosquito_risk":3,"arthritis_risk":5,"migraine_risk":4,"frizz_risk":1,"updated_at":"2026-03-16T18:50:43.969433+05:30"},{"city":"Dibrugarh","state":"Assam","latitude":27.4728,"longitude":94.912,"temp":19.0,"humidity":92,"rain":0.0,"pressure":997.8,"uv_index":3.25,"wind_gusts":40.7,"aqi":80,"pm10":34.1,"pm2_5":30.3,"mosquito_risk":3,"arthritis_risk":10,"migraine_risk":3,"frizz_risk":1,"updated_at":"2026-03-16T18:50:43.969439+05:30"}]