[{"city":"Delhi","state":"Delhi","latitude":28.6139,"longitude":77.209,"temp":31.0,"humidity":80,"rain":0.0,"pressure":975.8,"uv_index":7.3,"wind_gusts":26.3,"aqi":171,"pm10":79.2,"pm2_5":59.0,"no2":37.1,"co":887.0,"o3":88.0,"so2":37.3,"mosquito_risk":3,"arthritis_risk":5,"migraine_risk":7,"frizz_risk":1,"updated_at":"2026-07-05T22:44:28.091017+05:30"},{"city":"Mumbai","state":"Maharashtra","latitude":19.076,"longitude":72.8777,"temp":27.0,"humidity":89,"rain":0.6,"pressure":1000.8,"uv_index":1.05,"wind_gusts":74.9,"aqi":31,"pm10":33.9,"pm2_5":14.8,"no2":5.6,"co":130.0,"o3":54.0,"so2":4.5,"mosquito_risk":10,"arthritis_risk":5,"migraine_risk":0,"frizz_risk":1,"updated_at":"2026-07-05T22:44:28.091054+05:30"},{"city":"Bangalore","state":"Karnataka","latitude":12.9716,"longitude":77.5946,"temp":21.8,"humidity":81,"rain":0.0,"pressure":910.6,"uv_index":8.0,"wind_gusts":75.6,"aqi":28,"pm10":9.8,"pm2_5":5.8,"no2":6.6,"co":203.0,"o3":44.0,"so2":3.0,"mosquito_risk":3,"arthritis_risk":5,"migraine_risk":7,"frizz_risk":1,"updated_at":"2026-07-05T22:44:28.091069+05:30"},{"city":"Hyderabad","state":"Telangana","latitude":17.385,"longitude":78.4867,"temp":24.8,"humidity":79,"rain":0.0,"pressure":948.4,"uv_index":1.55,"wind_gusts":60.1,"aqi":26,"pm10":4.0,"pm2_5":3.2,"no2":5.2,"co":145.0,"o3":46.0,"so2":3.4,"mosquito_risk":3,"arthritis_risk":5,"migraine_risk":3,"frizz_risk":1,"updated_at":"2026-07-05T22:44:28.091078+05:30"},{"city":"Chennai","state":"Tamil Nadu","latitude":13.0827,"longitude":80.2707,"temp":33.2,"humidity":40,"rain":0.0,"pressure":1004.4,"uv_index":8.9,"wind_gusts":56.9,"aqi":52,"pm10":22.1,"pm2_5":15.1,"no2":10.8,"co":228.0,"o3":59.0,"so2":7.6,"mosquito_risk":0,"arthritis_risk":5,"migraine_risk":4,"frizz_risk":1,"updated_at":"2026-07-05T22:44:28.091086+05:30"},{"city":"Kolkata","state":"West Bengal","latitude":22.5726,"longitude":88.3639,"temp":26.6,"humidity":95,"rain":0.1,"pressure":994.6,"uv_index":2.9,"wind_gusts":40.7,"aqi":47,"pm10":16.7,"pm2_5":14.8,"no2":8.3,"co":245.0,"o3":72.0,"so2":5.8,"mosquito_risk":10,"arthritis_risk":5,"migraine_risk":3,"frizz_risk":1,"updated_at":"2026-07-05T22:44:28.091094+05:30"},{"city":"Pune","state":"Maharashtra","latitude":18.5204,"longitude":73.8567,"temp":23.1,"humidity":94,"rain":0.4,"pressure":941.1,"uv_index":0.35,"wind_gusts":55.8,"aqi":20,"pm10":2.1,"pm2_5":2.0,"no2":6.1,"co":121.0,"o3":45.0,"so2":4.2,"mosquito_risk":6,"arthritis_risk":5,"migraine_risk":3,"frizz_risk":1,"updated_at":"2026-07-05T22:44:28.091101+05:30"},{"city":"Ahmedabad","state":"Gujarat","latitude":23.0225,"longitude":72.5714,"temp":27.7,"humidity":95,"rain":0.0,"pressure":993.7,"uv_index":5.2,"wind_gusts":27.7,"aqi":79,"pm10":36.2,"pm2_5":23.2,"no2":15.5,"co":535.0,"o3":70.0,"so2":8.4,"mosquito_risk":7,"arthritis_risk":5,"migraine_risk":3,"frizz_risk":1,"updated_at":"2026-07-05T22:44:28.091107+05:30"},{"city":"Jaipur","state":"Rajasthan","latitude":26.9124,"longitude":75.7873,"temp":30.1,"humidity":76,"rain":0.0,"pressure":952.5,"uv_index":8.05,"wind_gusts":24.1,"aqi":84,"pm10":36.1,"pm2_5":31.7,"no2":27.9,"co":603.0,"o3":69.0,"so2":10.6,"mosquito_risk":3,"arthritis_risk":5,"migraine_risk":7,"frizz_risk":1,"updated_at":"2026-07-05T22:44:28.091113+05:30"},{"city":"Lucknow","state":"Uttar Pradesh","latitude":26.8467,"longitude":80.9462,"temp":30.9,"humidity":79,"rain":0.0,"pressure":986.0,"uv_index":8.2,"wind_gusts":21.6,"aqi":90,"pm10":39.6,"pm2_5":39.3,"no2":23.7,"co":333.0,"o3":72.0,"so2":10.9,"mosquito_risk":3,"arthritis_risk":5,"migraine_risk":7,"frizz_risk":1,"updated_at":"2026-07-05T22:44:28.091124+05:30"},{"city":"Kanpur","state":"Uttar Pradesh","latitude":26.4499,"longitude":80.3319,"temp":30.9,"humidity":81,"rain":0.0,"pressure":984.1,"uv_index":7.65,"wind_gusts":22.0,"aqi":89,"pm10":30.2,"pm2_5":30.0,"no2":18.9,"co":359.0,"o3":80.0,"so2":8.0,"mosquito_risk":3,"arthritis_risk":5,"migraine_risk":7,"frizz_risk":1,"updated_at":"2026-07-05T22:44:28.091131+05:30"},{"city":"Chandigarh","state":"Chandigarh","latitude":30.7333,"longitude":76.7794,"temp":29.4,"humidity":81,"rain":0.0,"pressure":962.1,"uv_index":7.45,"wind_gusts":26.3,"aqi":157,"pm10":107.6,"pm2_5":102.4,"no2":43.3,"co":1044.0,"o3":80.0,"so2":19.0,"mosquito_risk":7,"arthritis_risk":5,"migraine_risk":7,"frizz_risk":1,"updated_at":"2026-07-05T22:44:28.091138+05:30"},{"city":"Srinagar","state":"Jammu and Kashmir","latitude":34.0837,"longitude":74.7973,"temp":25.1,"humidity":57,"rain":0.0,"pressure":836.7,"uv_index":9.05,"wind_gusts":19.8,"aqi":89,"pm10":49.0,"pm2_5":44.4,"no2":29.2,"co":694.0,"o3":49.0,"so2":3.1,"mosquito_risk":4,"arthritis_risk":5,"migraine_risk":7,"frizz_risk":0,"updated_at":"2026-07-05T22:44:28.091145+05:30"},{"city":"Jammu","state":"Jammu and Kashmir","latitude":32.7266,"longitude":74.857,"temp":30.8,"humidity":74,"rain":0.0,"pressure":964.2,"uv_index":8.45,"wind_gusts":36.0,"aqi":151,"pm10":103.4,"pm2_5":86.6,"no2":41.2,"co":541.0,"o3":80.0,"so2":12.5,"mosquito_risk":3,"arthritis_risk":5,"migraine_risk":7,"frizz_risk":1,"updated_at":"2026-07-05T22:44:28.091152+05:30"},{"city":"Amritsar","state":"Punjab","latitude":31.634,"longitude":74.8723,"temp":30.9,"humidity":75,"rain":0.0,"pressure":972.3,"uv_index":8.45,"wind_gusts":54.7,"aqi":161,"pm10":105.9,"pm2_5":95.0,"no2":25.9,"co":638.0,"o3":86.0,"so2":10.2,"mosquito_risk":3,"arthritis_risk":5,"migraine_risk":7,"frizz_risk":1,"updated_at":"2026-07-05T22:44:28.091158+05:30"},{"city":"Ludhiana","state":"Punjab","latitude":30.901,"longitude":75.8573,"temp":30.6,"humidity":85,"rain":0.0,"pressure":970.9,"uv_index":7.9,"wind_gusts":31.7,"aqi":178,"pm10":157.9,"pm2_5":128.1,"no2":42.0,"co":993.0,"o3":71.0,"so2":14.8,"mosquito_risk":3,"arthritis_risk":5,"migraine_risk":7,"frizz_risk":1,"updated_at":"2026-07-05T22:44:28.091167+05:30"},{"city":"Jalandhar","state":"Punjab","latitude":31.326,"longitude":75.5762,"temp":30.0,"humidity":85,"rain":0.0,"pressure":971.7,"uv_index":7.9,"wind_gusts":24.5,"aqi":175,"pm10":94.8,"pm2_5":88.0,"no2":30.4,"co":1081.0,"o3":77.0,"so2":10.0,"mosquito_risk":7,"arthritis_risk":5,"migraine_risk":7,"frizz_risk":1,"updated_at":"2026-07-05T22:44:28.091173+05:30"},{"city":"Dehradun","state":"Uttarakhand","latitude":30.6284,"longitude":78.0322,"temp":19.6,"humidity":99,"rain":0.0,"pressure":828.0,"uv_index":6.8,"wind_gusts":29.2,"aqi":76,"pm10":31.4,"pm2_5":31.1,"no2":22.3,"co":287.0,"o3":84.0,"so2":1.7,"mosquito_risk":3,"arthritis_risk":10,"migraine_risk":7,"frizz_risk":1,"updated_at":"2026-07-05T22:44:28.091180+05:30"},{"city":"Shimla","state":"Himachal Pradesh","latitude":31.1048,"longitude":77.1734,"temp":16.5,"humidity":96,"rain":0.0,"pressure":781.6,"uv_index":6.9,"wind_gusts":34.9,"aqi":99,"pm10":42.8,"pm2_5":41.4,"no2":11.8,"co":452.0,"o3":100.0,"so2":1.2,"mosquito_risk":3,"arthritis_risk":10,"migraine_risk":7,"frizz_risk":0,"updated_at":"2026-07-05T22:44:28.091186+05:30"},{"city":"Manali","state":"Himachal Pradesh","latitude":32.2396,"longitude":77.1887,"temp":20.9,"humidity":97,"rain":0.0,"pressure":817.3,"uv_index":9.6,"wind_gusts":34.9,"aqi":69,"pm10":13.9,"pm2_5":13.8,"no2":27.1,"co":275.0,"o3":102.0,"so2":0.1,"mosquito_risk":3,"arthritis_risk":5,"migraine_risk":7,"frizz_risk":1,"updated_at":"2026-07-05T22:44:28.091194+05:30"},{"city":"Gurgaon","state":"Haryana","latitude":28.4595,"longitude":77.0266,"temp":30.9,"humidity":78,"rain":0.0,"pressure":974.2,"uv_index":5.95,"wind_gusts":24.5,"aqi":123,"pm10":93.4,"pm2_5":55.9,"no2":40.2,"co":661.0,"o3":74.0,"so2":24.5,"mosquito_risk":3,"arthritis_risk":5,"migraine_risk":3,"frizz_risk":1,"updated_at":"2026-07-05T22:44:28.091200+05:30"},{"city":"Noida","state":"Uttar Pradesh","latitude":28.5355,"longitude":77.391,"temp":31.0,"humidity":79,"rain":0.0,"pressure":977.3,"uv_index":6.2,"wind_gusts":27.7,"aqi":123,"pm10":93.4,"pm2_5":55.9,"no2":40.2,"co":1088.0,"o3":74.0,"so2":24.5,"mosquito_risk":3,"arthritis_risk":5,"migraine_risk":7,"frizz_risk":1,"updated_at":"2026-07-05T22:44:28.091207+05:30"},{"city":"Ghaziabad","state":"Uttar Pradesh","latitude":28.6692,"longitude":77.4538,"temp":30.5,"humidity":82,"rain":0.0,"pressure":975.6,"uv_index":6.7,"wind_gusts":23.8,"aqi":103,"pm10":59.0,"pm2_5":55.4,"no2":28.8,"co":636.0,"o3":74.0,"so2":14.3,"mosquito_risk":3,"arthritis_risk":5,"migraine_risk":7,"frizz_risk":1,"updated_at":"2026-07-05T22:44:28.091212+05:30"},{"city":"Faridabad","state":"Haryana","latitude":28.4089,"longitude":77.3178,"temp":31.4,"humidity":78,"rain":0.0,"pressure":976.6,"uv_index":5.9,"wind_gusts":31.7,"aqi":123,"pm10":93.4,"pm2_5":55.9,"no2":40.2,"co":607.0,"o3":74.0,"so2":24.5,"mosquito_risk":3,"arthritis_risk":5,"migraine_risk":3,"frizz_risk":1,"updated_at":"2026-07-05T22:44:28.091218+05:30"},{"city":"Meerut","state":"Uttar Pradesh","latitude":28.9845,"longitude":77.7064,"temp":30.1,"humidity":85,"rain":0.0,"pressure":974.5,"uv_index":7.45,"wind_gusts":26.3,"aqi":103,"pm10":59.0,"pm2_5":55.4,"no2":28.8,"co":549.0,"o3":74.0,"so2":14.3,"mosquito_risk":3,"arthritis_risk":5,"migraine_risk":7,"frizz_risk":1,"updated_at":"2026-07-05T22:44:28.091224+05:30"},{"city":"Agra","state":"Uttar Pradesh","latitude":27.1767,"longitude":78.0081,"temp":30.9,"humidity":80,"rain":0.0,"pressure":980.3,"uv_index":7.8,"wind_gusts":32.0,"aqi":97,"pm10":128.5,"pm2_5":45.1,"no2":26.0,"co":502.0,"o3":65.0,"so2":11.6,"mosquito_risk":3,"arthritis_risk":5,"migraine_risk":7,"frizz_risk":1,"updated_at":"2026-07-05T22:44:28.091230+05:30"},{"city":"Varanasi","state":"Uttar Pradesh","latitude":25.3176,"longitude":82.9739,"temp":29.2,"humidity":87,"rain":0.0,"pressure":989.3,"uv_index":7.75,"wind_gusts":40.0,"aqi":85,"pm10":34.0,"pm2_5":33.9,"no2":19.6,"co":396.0,"o3":65.0,"so2":9.9,"mosquito_risk":7,"arthritis_risk":5,"migraine_risk":7,"frizz_risk":1,"updated_at":"2026-07-05T22:44:28.091236+05:30"},{"city":"Prayagraj","state":"Uttar Pradesh","latitude":25.4358,"longitude":81.8463,"temp":27.8,"humidity":94,"rain":0.0,"pressure":988.8,"uv_index":8.1,"wind_gusts":33.8,"aqi":87,"pm10":39.3,"pm2_5":39.1,"no2":23.5,"co":363.0,"o3":60.0,"so2":8.9,"mosquito_risk":7,"arthritis_risk":5,"migraine_risk":7,"frizz_risk":1,"updated_at":"2026-07-05T22:44:28.091243+05:30"},{"city":"Gorakhpur","state":"Uttar Pradesh","latitude":26.7606,"longitude":83.3732,"temp":30.5,"humidity":78,"rain":0.0,"pressure":990.2,"uv_index":8.5,"wind_gusts":41.4,"aqi":91,"pm10":31.8,"pm2_5":31.4,"no2":15.8,"co":434.0,"o3":77.0,"so2":7.3,"mosquito_risk":3,"arthritis_risk":5,"migraine_risk":7,"frizz_risk":1,"updated_at":"2026-07-05T22:44:28.091249+05:30"},{"city":"Bareilly","state":"Uttar Pradesh","latitude":28.367,"longitude":79.4304,"temp":30.8,"humidity":78,"rain":0.0,"pressure":979.9,"uv_index":6.65,"wind_gusts":22.0,"aqi":86,"pm10":42.4,"pm2_5":41.4,"no2":27.8,"co":380.0,"o3":57.0,"so2":12.6,"mosquito_risk":3,"arthritis_risk":5,"migraine_risk":7,"frizz_risk":1,"updated_at":"2026-07-05T22:44:28.091257+05:30"},{"city":"Aligarh","state":"Uttar Pradesh","latitude":27.8974,"longitude":78.088,"temp":31.2,"humidity":75,"rain":0.0,"pressure":978.3,"uv_index":6.5,"wind_gusts":25.9,"aqi":95,"pm10":53.6,"pm2_5":40.4,"no2":29.1,"co":526.0,"o3":66.0,"so2":11.8,"mosquito_risk":3,"arthritis_risk":5,"migraine_risk":7,"frizz_risk":1,"updated_at":"2026-07-05T22:44:28.091263+05:30"},{"city":"Moradabad","state":"Uttar Pradesh","latitude":28.8386,"longitude":78.7733,"temp":30.5,"humidity":79,"rain":0.0,"pressure":976.8,"uv_index":7.0,"wind_gusts":29.2,"aqi":103,"pm10":45.8,"pm2_5":45.5,"no2":27.6,"co":414.0,"o3":67.0,"so2":13.4,"mosquito_risk":3,"arthritis_risk":5,"migraine_risk":7,"frizz_risk":1,"updated_at":"2026-07-05T22:44:28.091270+05:30"},{"city":"Saharanpur","state":"Uttar Pradesh","latitude":29.9637,"longitude":77.546,"temp":29.4,"humidity":84,"rain":0.0,"pressure":969.1,"uv_index":6.8,"wind_gusts":25.2,"aqi":153,"pm10":43.8,"pm2_5":43.7,"no2":15.2,"co":504.0,"o3":97.0,"so2":8.0,"mosquito_risk":7,"arthritis_risk":5,"migraine_risk":7,"frizz_risk":1,"updated_at":"2026-07-05T22:44:28.091277+05:30"},{"city":"Jhansi","state":"Uttar Pradesh","latitude":25.4484,"longitude":78.5685,"temp":29.1,"humidity":97,"rain":0.0,"pressure":970.3,"uv_index":7.35,"wind_gusts":31.7,"aqi":69,"pm10":25.3,"pm2_5":24.7,"no2":22.0,"co":280.0,"o3":69.0,"so2":6.8,"mosquito_risk":7,"arthritis_risk":5,"migraine_risk":7,"frizz_risk":1,"updated_at":"2026-07-05T22:44:31.471280+05:30"},{"city":"Surat","state":"Gujarat","latitude":21.1702,"longitude":72.8311,"temp":26.5,"humidity":99,"rain":0.1,"pressure":997.8,"uv_index":6.3,"wind_gusts":28.8,"aqi":81,"pm10":26.3,"pm2_5":21.1,"no2":33.3,"co":1012.0,"o3":21.0,"so2":46.5,"mosquito_risk":10,"arthritis_risk":5,"migraine_risk":7,"frizz_risk":1,"updated_at":"2026-07-05T22:44:31.471311+05:30"},{"city":"Vadodara","state":"Gujarat","latitude":22.3072,"longitude":73.1812,"temp":27.0,"humidity":96,"rain":0.1,"pressure":995.7,"uv_index":6.45,"wind_gusts":27.0,"aqi":65,"pm10":31.1,"pm2_5":24.5,"no2":19.6,"co":531.0,"o3":55.0,"so2":11.1,"mosquito_risk":10,"arthritis_risk":5,"migraine_risk":7,"frizz_risk":1,"updated_at":"2026-07-05T22:44:31.471322+05:30"},{"city":"Rajkot","state":"Gujarat","latitude":22.3039,"longitude":70.8022,"temp":27.1,"humidity":93,"rain":0.0,"pressure":986.1,"uv_index":1.45,"wind_gusts":42.8,"aqi":71,"pm10":52.0,"pm2_5":22.5,"no2":8.3,"co":126.0,"o3":44.0,"so2":5.6,"mosquito_risk":7,"arthritis_risk":5,"migraine_risk":3,"frizz_risk":1,"updated_at":"2026-07-05T22:44:31.471330+05:30"},{"city":"Thane","state":"Maharashtra","latitude":19.2183,"longitude":72.9781,"temp":26.1,"humidity":95,"rain":0.4,"pressure":999.7,"uv_index":1.3,"wind_gusts":50.4,"aqi":31,"pm10":33.9,"pm2_5":14.8,"no2":5.6,"co":139.0,"o3":54.0,"so2":4.5,"mosquito_risk":10,"arthritis_risk":5,"migraine_risk":3,"frizz_risk":1,"updated_at":"2026-07-05T22:44:31.471338+05:30"},{"city":"Nagpur","state":"Maharashtra","latitude":21.1458,"longitude":79.0882,"temp":26.9,"humidity":89,"rain":0.0,"pressure":966.1,"uv_index":4.85,"wind_gusts":28.8,"aqi":45,"pm10":11.3,"pm2_5":11.2,"no2":13.3,"co":254.0,"o3":52.0,"so2":8.3,"mosquito_risk":7,"arthritis_risk":5,"migraine_risk":3,"frizz_risk":1,"updated_at":"2026-07-05T22:44:31.471346+05:30"},{"city":"Nashik","state":"Maharashtra","latitude":19.9975,"longitude":73.7898,"temp":23.7,"humidity":95,"rain":0.0,"pressure":936.9,"uv_index":5.85,"wind_gusts":50.8,"aqi":22,"pm10":2.0,"pm2_5":1.7,"no2":5.7,"co":122.0,"o3":44.0,"so2":2.0,"mosquito_risk":3,"arthritis_risk":5,"migraine_risk":3,"frizz_risk":1,"updated_at":"2026-07-05T22:44:31.471353+05:30"},{"city":"Aurangabad","state":"Maharashtra","latitude":19.8762,"longitude":75.3433,"temp":23.5,"humidity":96,"rain":0.1,"pressure":936.5,"uv_index":8.15,"wind_gusts":50.8,"aqi":28,"pm10":2.3,"pm2_5":2.2,"no2":6.7,"co":154.0,"o3":44.0,"so2":5.9,"mosquito_risk":6,"arthritis_risk":5,"migraine_risk":7,"frizz_risk":1,"updated_at":"2026-07-05T22:44:31.471360+05:30"},{"city":"Solapur","state":"Maharashtra","latitude":17.6599,"longitude":75.9064,"temp":24.2,"humidity":88,"rain":0.0,"pressure":952.3,"uv_index":2.85,"wind_gusts":73.4,"aqi":23,"pm10":3.2,"pm2_5":2.7,"no2":4.2,"co":122.0,"o3":45.0,"so2":2.0,"mosquito_risk":3,"arthritis_risk":5,"migraine_risk":3,"frizz_risk":1,"updated_at":"2026-07-05T22:44:31.471368+05:30"},{"city":"Kolhapur","state":"Maharashtra","latitude":16.705,"longitude":74.2433,"temp":22.0,"humidity":95,"rain":0.1,"pressure":943.6,"uv_index":2.8,"wind_gusts":69.8,"aqi":23,"pm10":2.9,"pm2_5":2.4,"no2":3.2,"co":116.0,"o3":51.0,"so2":1.5,"mosquito_risk":6,"arthritis_risk":5,"migraine_risk":3,"frizz_risk":1,"updated_at":"2026-07-05T22:44:31.471375+05:30"},{"city":"Goa","state":"Goa","latitude":15.2993,"longitude":74.124,"temp":24.1,"humidity":97,"rain":0.1,"pressure":996.2,"uv_index":7.85,"wind_gusts":46.8,"aqi":49,"pm10":25.0,"pm2_5":12.6,"no2":1.6,"co":186.0,"o3":57.0,"so2":0.6,"mosquito_risk":6,"arthritis_risk":5,"migraine_risk":7,"frizz_risk":1,"updated_at":"2026-07-05T22:44:31.471382+05:30"},{"city":"Jodhpur","state":"Rajasthan","latitude":26.2389,"longitude":73.0243,"temp":30.9,"humidity":77,"rain":0.0,"pressure":974.5,"uv_index":8.4,"wind_gusts":24.5,"aqi":109,"pm10":55.5,"pm2_5":27.9,"no2":9.0,"co":212.0,"o3":74.0,"so2":3.1,"mosquito_risk":3,"arthritis_risk":5,"migraine_risk":7,"frizz_risk":1,"updated_at":"2026-07-05T22:44:31.471389+05:30"},{"city":"Udaipur","state":"Rajasthan","latitude":24.5854,"longitude":73.7125,"temp":26.4,"humidity":95,"rain":0.0,"pressure":939.0,"uv_index":8.5,"wind_gusts":27.0,"aqi":70,"pm10":40.0,"pm2_5":24.9,"no2":12.7,"co":371.0,"o3":52.0,"so2":4.2,"mosquito_risk":7,"arthritis_risk":5,"migraine_risk":7,"frizz_risk":1,"updated_at":"2026-07-05T22:44:31.471396+05:30"},{"city":"Kota","state":"Rajasthan","latitude":25.2138,"longitude":75.8648,"temp":29.8,"humidity":75,"rain":0.0,"pressure":970.8,"uv_index":8.2,"wind_gusts":23.0,"aqi":85,"pm10":24.3,"pm2_5":22.8,"no2":12.2,"co":377.0,"o3":86.0,"so2":8.7,"mosquito_risk":7,"arthritis_risk":5,"migraine_risk":7,"frizz_risk":1,"updated_at":"2026-07-05T22:44:31.471403+05:30"},{"city":"Bikaner","state":"Rajasthan","latitude":28.0229,"longitude":73.3119,"temp":35.2,"humidity":46,"rain":0.0,"pressure":972.9,"uv_index":7.85,"wind_gusts":25.9,"aqi":138,"pm10":79.6,"pm2_5":43.9,"no2":5.6,"co":240.0,"o3":89.0,"so2":7.3,"mosquito_risk":0,"arthritis_risk":5,"migraine_risk":10,"frizz_risk":1,"updated_at":"2026-07-05T22:44:31.471411+05:30"},{"city":"Ajmer","state":"Rajasthan","latitude":26.4499,"longitude":74.6399,"temp":28.5,"humidity":82,"rain":0.0,"pressure":947.3,"uv_index":8.35,"wind_gusts":21.2,"aqi":89,"pm10":28.9,"pm2_5":19.2,"no2":10.6,"co":432.0,"o3":82.0,"so2":3.0,"mosquito_risk":7,"arthritis_risk":5,"migraine_risk":7,"frizz_risk":1,"updated_at":"2026-07-05T22:44:31.471418+05:30"},{"city":"Gwalior","state":"Madhya Pradesh","latitude":26.2183,"longitude":78.1828,"temp":29.7,"humidity":82,"rain":0.0,"pressure":975.7,"uv_index":7.0,"wind_gusts":24.8,"aqi":86,"pm10":23.1,"pm2_5":22.5,"no2":13.2,"co":330.0,"o3":76.0,"so2":5.4,"mosquito_risk":7,"arthritis_risk":5,"migraine_risk":7,"frizz_risk":1,"updated_at":"2026-07-05T22:44:31.471426+05:30"},{"city":"Indore","state":"Madhya Pradesh","latitude":22.7196,"longitude":75.8577,"temp":26.6,"humidity":92,"rain":0.0,"pressure":940.4,"uv_index":8.35,"wind_gusts":27.0,"aqi":62,"pm10":38.3,"pm2_5":37.6,"no2":25.1,"co":662.0,"o3":45.0,"so2":7.4,"mosquito_risk":7,"arthritis_risk":5,"migraine_risk":7,"frizz_risk":1,"updated_at":"2026-07-05T22:44:31.471433+05:30"},{"city":"Bhopal","state":"Madhya Pradesh","latitude":23.2599,"longitude":77.4126,"temp":25.9,"humidity":95,"rain":0.0,"pressure":946.1,"uv_index":8.55,"wind_gusts":19.4,"aqi":72,"pm10":23.5,"pm2_5":23.2,"no2":11.1,"co":502.0,"o3":66.0,"so2":3.0,"mosquito_risk":7,"arthritis_risk":5,"migraine_risk":7,"frizz_risk":1,"updated_at":"2026-07-05T22:44:31.471441+05:30"},{"city":"Jabalpur","state":"Madhya Pradesh","latitude":23.1815,"longitude":79.9864,"temp":25.2,"humidity":97,"rain":0.1,"pressure":954.1,"uv_index":7.6,"wind_gusts":35.6,"aqi":69,"pm10":18.6,"pm2_5":18.5,"no2":8.3,"co":284.0,"o3":72.0,"so2":2.6,"mosquito_risk":10,"arthritis_risk":5,"migraine_risk":7,"frizz_risk":1,"updated_at":"2026-07-05T22:44:31.471448+05:30"},{"city":"Ujjain","state":"Madhya Pradesh","latitude":23.1765,"longitude":75.7885,"temp":26.6,"humidity":91,"rain":0.0,"pressure":946.0,"uv_index":8.45,"wind_gusts":28.1,"aqi":60,"pm10":31.3,"pm2_5":30.4,"no2":12.5,"co":1074.0,"o3":66.0,"so2":3.6,"mosquito_risk":7,"arthritis_risk":5,"migraine_risk":7,"frizz_risk":1,"updated_at":"2026-07-05T22:44:31.471457+05:30"},{"city":"Visakhapatnam","state":"Andhra Pradesh","latitude":17.6868,"longitude":83.2185,"temp":29.0,"humidity":68,"rain":0.0,"pressure":996.7,"uv_index":3.15,"wind_gusts":64.8,"aqi":30,"pm10":14.4,"pm2_5":10.2,"no2":9.7,"co":190.0,"o3":54.0,"so2":16.1,"mosquito_risk":7,"arthritis_risk":5,"migraine_risk":3,"frizz_risk":1,"updated_at":"2026-07-05T22:44:31.471465+05:30"},{"city":"Vijayawada","state":"Andhra Pradesh","latitude":16.5062,"longitude":80.648,"temp":30.9,"humidity":54,"rain":0.0,"pressure":997.7,"uv_index":4.15,"wind_gusts":46.1,"aqi":33,"pm10":17.9,"pm2_5":12.3,"no2":6.7,"co":137.0,"o3":51.0,"so2":4.9,"mosquito_risk":0,"arthritis_risk":5,"migraine_risk":3,"frizz_risk":1,"updated_at":"2026-07-05T22:44:31.471472+05:30"},{"city":"Guntur","state":"Andhra Pradesh","latitude":16.3067,"longitude":80.4365,"temp":31.1,"humidity":52,"rain":0.0,"pressure":999.3,"uv_index":7.35,"wind_gusts":55.8,"aqi":30,"pm10":15.4,"pm2_5":10.8,"no2":5.9,"co":120.0,"o3":50.0,"so2":4.3,"mosquito_risk":0,"arthritis_risk":5,"migraine_risk":7,"frizz_risk":1,"updated_at":"2026-07-05T22:44:31.471479+05:30"},{"city":"Nellore","state":"Andhra Pradesh","latitude":14.4426,"longitude":79.9865,"temp":32.7,"humidity":42,"rain":0.0,"pressure":1002.4,"uv_index":4.15,"wind_gusts":58.3,"aqi":32,"pm10":13.6,"pm2_5":7.9,"no2":3.4,"co":122.0,"o3":55.0,"so2":2.6,"mosquito_risk":0,"arthritis_risk":5,"migraine_risk":0,"frizz_risk":1,"updated_at":"2026-07-05T22:44:31.471486+05:30"},{"city":"Kurnool","state":"Andhra Pradesh","latitude":15.8281,"longitude":78.0373,"temp":26.8,"humidity":70,"rain":0.0,"pressure":974.0,"uv_index":7.0,"wind_gusts":71.6,"aqi":28,"pm10":5.3,"pm2_5":3.4,"no2":4.2,"co":109.0,"o3":46.0,"so2":3.0,"mosquito_risk":7,"arthritis_risk":5,"migraine_risk":7,"frizz_risk":1,"updated_at":"2026-07-05T22:44:31.471496+05:30"},{"city":"Kakinada","state":"Andhra Pradesh","latitude":16.9891,"longitude":82.2475,"temp":29.1,"humidity":67,"rain":0.0,"pressure":1001.7,"uv_index":3.0,"wind_gusts":85.0,"aqi":33,"pm10":22.6,"pm2_5":15.8,"no2":5.5,"co":222.0,"o3":70.0,"so2":3.9,"mosquito_risk":7,"arthritis_risk":5,"migraine_risk":0,"frizz_risk":1,"updated_at":"2026-07-05T22:44:31.471503+05:30"},{"city":"Tirupati","state":"Andhra Pradesh","latitude":13.6288,"longitude":79.4192,"temp":30.1,"humidity":48,"rain":0.0,"pressure":989.2,"uv_index":7.8,"wind_gusts":55.4,"aqi":33,"pm10":13.8,"pm2_5":8.8,"no2":4.3,"co":117.0,"o3":52.0,"so2":1.8,"mosquito_risk":0,"arthritis_risk":5,"migraine_risk":7,"frizz_risk":1,"updated_at":"2026-07-05T22:44:31.471509+05:30"},{"city":"Warangal","state":"Telangana","latitude":17.9689,"longitude":79.5941,"temp":26.3,"humidity":79,"rain":0.0,"pressure":973.4,"uv_index":1.0,"wind_gusts":53.3,"aqi":27,"pm10":3.8,"pm2_5":3.6,"no2":5.0,"co":131.0,"o3":46.0,"so2":2.7,"mosquito_risk":7,"arthritis_risk":5,"migraine_risk":3,"frizz_risk":1,"updated_at":"2026-07-05T22:44:31.471515+05:30"},{"city":"Nizamabad","state":"Telangana","latitude":18.6725,"longitude":78.0941,"temp":24.1,"humidity":95,"rain":0.1,"pressure":958.9,"uv_index":1.3,"wind_gusts":50.8,"aqi":25,"pm10":3.4,"pm2_5":3.2,"no2":4.7,"co":123.0,"o3":44.0,"so2":2.7,"mosquito_risk":6,"arthritis_risk":5,"migraine_risk":3,"frizz_risk":1,"updated_at":"2026-07-05T22:44:31.471522+05:30"},{"city":"Mysore","state":"Karnataka","latitude":12.2958,"longitude":76.6396,"temp":21.9,"humidity":88,"rain":0.0,"pressure":927.9,"uv_index":8.25,"wind_gusts":69.8,"aqi":26,"pm10":4.5,"pm2_5":3.0,"no2":4.1,"co":121.0,"o3":46.0,"so2":1.6,"mosquito_risk":3,"arthritis_risk":5,"migraine_risk":7,"frizz_risk":1,"updated_at":"2026-07-05T22:44:31.471529+05:30"},{"city":"Mangalore","state":"Karnataka","latitude":12.9141,"longitude":74.856,"temp":25.3,"humidity":91,"rain":0.0,"pressure":1007.0,"uv_index":6.25,"wind_gusts":60.8,"aqi":53,"pm10":24.9,"pm2_5":13.3,"no2":5.4,"co":100.0,"o3":43.0,"so2":2.4,"mosquito_risk":7,"arthritis_risk":5,"migraine_risk":4,"frizz_risk":1,"updated_at":"2026-07-05T22:44:31.471535+05:30"},{"city":"Hubli-Dharwad","state":"Karnataka","latitude":15.3647,"longitude":75.124,"temp":21.5,"humidity":97,"rain":0.1,"pressure":938.1,"uv_index":6.0,"wind_gusts":68.8,"aqi":24,"pm10":3.8,"pm2_5":2.3,"no2":2.6,"co":101.0,"o3":50.0,"so2":0.8,"mosquito_risk":6,"arthritis_risk":5,"migraine_risk":3,"frizz_risk":1,"updated_at":"2026-07-05T22:44:31.471541+05:30"},{"city":"Belgaum","state":"Karnataka","latitude":15.8497,"longitude":74.4977,"temp":21.5,"humidity":97,"rain":0.1,"pressure":922.3,"uv_index":3.9,"wind_gusts":61.9,"aqi":23,"pm10":2.3,"pm2_5":1.6,"no2":2.4,"co":104.0,"o3":53.0,"so2":1.1,"mosquito_risk":6,"arthritis_risk":5,"migraine_risk":3,"frizz_risk":1,"updated_at":"2026-07-05T22:44:34.814588+05:30"},{"city":"Coimbatore","state":"Tamil Nadu","latitude":11.0168,"longitude":76.9558,"temp":24.2,"humidity":87,"rain":0.0,"pressure":961.9,"uv_index":8.3,"wind_gusts":63.0,"aqi":25,"pm10":10.1,"pm2_5":6.8,"no2":4.9,"co":128.0,"o3":41.0,"so2":2.3,"mosquito_risk":3,"arthritis_risk":5,"migraine_risk":7,"frizz_risk":1,"updated_at":"2026-07-05T22:44:34.814615+05:30"},{"city":"Madurai","state":"Tamil Nadu","latitude":9.9252,"longitude":78.1198,"temp":28.7,"humidity":60,"rain":0.0,"pressure":993.1,"uv_index":8.25,"wind_gusts":69.8,"aqi":50,"pm10":22.9,"pm2_5":14.7,"no2":11.7,"co":122.0,"o3":41.0,"so2":4.2,"mosquito_risk":4,"arthritis_risk":5,"migraine_risk":7,"frizz_risk":1,"updated_at":"2026-07-05T22:44:34.814626+05:30"},{"city":"Trichy","state":"Tamil Nadu","latitude":10.7905,"longitude":78.7047,"temp":30.7,"humidity":46,"rain":0.0,"pressure":999.0,"uv_index":8.6,"wind_gusts":75.6,"aqi":38,"pm10":19.4,"pm2_5":11.2,"no2":4.5,"co":114.0,"o3":49.0,"so2":2.3,"mosquito_risk":0,"arthritis_risk":5,"migraine_risk":7,"frizz_risk":1,"updated_at":"2026-07-05T22:44:34.814634+05:30"},{"city":"Salem","state":"Tamil Nadu","latitude":11.6643,"longitude":78.146,"temp":25.7,"humidity":77,"rain":0.0,"pressure":977.1,"uv_index":6.65,"wind_gusts":41.8,"aqi":43,"pm10":21.5,"pm2_5":15.2,"no2":12.8,"co":218.0,"o3":36.0,"so2":5.1,"mosquito_risk":7,"arthritis_risk":5,"migraine_risk":7,"frizz_risk":1,"updated_at":"2026-07-05T22:44:34.814641+05:30"},{"city":"Tirunelveli","state":"Tamil Nadu","latitude":8.7139,"longitude":77.7567,"temp":28.6,"humidity":63,"rain":0.0,"pressure":1004.4,"uv_index":8.25,"wind_gusts":55.1,"aqi":37,"pm10":19.7,"pm2_5":11.7,"no2":5.5,"co":122.0,"o3":41.0,"so2":1.8,"mosquito_risk":7,"arthritis_risk":5,"migraine_risk":4,"frizz_risk":1,"updated_at":"2026-07-05T22:44:34.814647+05:30"},{"city":"Vellore","state":"Tamil Nadu","latitude":12.9165,"longitude":79.1325,"temp":30.1,"humidity":49,"rain":0.0,"pressure":983.0,"uv_index":8.1,"wind_gusts":60.1,"aqi":34,"pm10":15.4,"pm2_5":9.9,"no2":4.4,"co":122.0,"o3":53.0,"so2":2.4,"mosquito_risk":0,"arthritis_risk":5,"migraine_risk":7,"frizz_risk":1,"updated_at":"2026-07-05T22:44:34.814653+05:30"},{"city":"Erode","state":"Tamil Nadu","latitude":11.341,"longitude":77.7172,"temp":26.7,"humidity":72,"rain":0.0,"pressure":989.0,"uv_index":8.7,"wind_gusts":56.5,"aqi":37,"pm10":20.6,"pm2_5":14.2,"no2":12.0,"co":142.0,"o3":36.0,"so2":3.4,"mosquito_risk":7,"arthritis_risk":5,"migraine_risk":7,"frizz_risk":1,"updated_at":"2026-07-05T22:44:34.814660+05:30"},{"city":"Kochi","state":"Kerala","latitude":9.9312,"longitude":76.2673,"temp":27.9,"humidity":81,"rain":0.0,"pressure":1010.5,"uv_index":7.05,"wind_gusts":41.4,"aqi":54,"pm10":26.3,"pm2_5":16.6,"no2":11.8,"co":104.0,"o3":30.0,"so2":4.2,"mosquito_risk":7,"arthritis_risk":0,"migraine_risk":4,"frizz_risk":1,"updated_at":"2026-07-05T22:44:34.814666+05:30"},{"city":"Thiruvananthapuram","state":"Kerala","latitude":8.5241,"longitude":76.9366,"temp":26.1,"humidity":89,"rain":0.0,"pressure":1010.4,"uv_index":7.75,"wind_gusts":48.6,"aqi":51,"pm10":28.3,"pm2_5":13.8,"no2":2.8,"co":99.0,"o3":53.0,"so2":1.1,"mosquito_risk":7,"arthritis_risk":0,"migraine_risk":4,"frizz_risk":1,"updated_at":"2026-07-05T22:44:34.814673+05:30"},{"city":"Kozhikode","state":"Kerala","latitude":11.2588,"longitude":75.7804,"temp":24.9,"humidity":96,"rain":0.3,"pressure":1009.7,"uv_index":8.05,"wind_gusts":42.8,"aqi":48,"pm10":28.4,"pm2_5":13.6,"no2":1.0,"co":120.0,"o3":55.0,"so2":0.8,"mosquito_risk":6,"arthritis_risk":0,"migraine_risk":4,"frizz_risk":1,"updated_at":"2026-07-05T22:44:34.814679+05:30"},{"city":"Thrissur","state":"Kerala","latitude":10.5276,"longitude":76.2144,"temp":25.8,"humidity":93,"rain":0.0,"pressure":1008.6,"uv_index":6.8,"wind_gusts":46.1,"aqi":51,"pm10":23.1,"pm2_5":14.6,"no2":7.8,"co":124.0,"o3":35.0,"so2":3.0,"mosquito_risk":7,"arthritis_risk":0,"migraine_risk":4,"frizz_risk":1,"updated_at":"2026-07-05T22:44:34.814687+05:30"},{"city":"Kannur","state":"Kerala","latitude":11.8745,"longitude":75.3704,"temp":25.0,"humidity":93,"rain":0.1,"pressure":1008.6,"uv_index":8.15,"wind_gusts":51.1,"aqi":50,"pm10":25.9,"pm2_5":13.8,"no2":3.8,"co":110.0,"o3":46.0,"so2":1.4,"mosquito_risk":10,"arthritis_risk":0,"migraine_risk":4,"frizz_risk":1,"updated_at":"2026-07-05T22:44:34.814693+05:30"},{"city":"Patna","state":"Bihar","latitude":25.5941,"longitude":85.1376,"temp":29.7,"humidity":78,"rain":0.0,"pressure":992.5,"uv_index":8.05,"wind_gusts":55.1,"aqi":67,"pm10":16.0,"pm2_5":15.4,"no2":10.8,"co":264.0,"o3":74.0,"so2":6.5,"mosquito_risk":7,"arthritis_risk":5,"migraine_risk":7,"frizz_risk":1,"updated_at":"2026-07-05T22:44:34.814699+05:30"},{"city":"Gaya","state":"Bihar","latitude":24.7914,"longitude":85.0002,"temp":27.2,"humidity":90,"rain":0.0,"pressure":985.2,"uv_index":7.5,"wind_gusts":52.2,"aqi":61,"pm10":15.0,"pm2_5":14.8,"no2":10.9,"co":229.0,"o3":70.0,"so2":6.9,"mosquito_risk":7,"arthritis_risk":5,"migraine_risk":7,"frizz_risk":1,"updated_at":"2026-07-05T22:44:34.814705+05:30"},{"city":"Muzaffarpur","state":"Bihar","latitude":26.1209,"longitude":85.3647,"temp":30.1,"humidity":74,"rain":0.0,"pressure":993.1,"uv_index":8.5,"wind_gusts":53.3,"aqi":70,"pm10":19.3,"pm2_5":18.7,"no2":11.9,"co":237.0,"o3":74.0,"so2":6.2,"mosquito_risk":3,"arthritis_risk":5,"migraine_risk":7,"frizz_risk":1,"updated_at":"2026-07-05T22:44:34.814711+05:30"},{"city":"Bhagalpur","state":"Bihar","latitude":25.2425,"longitude":87.0117,"temp":28.6,"humidity":81,"rain":0.0,"pressure":993.1,"uv_index":8.6,"wind_gusts":59.8,"aqi":54,"pm10":11.1,"pm2_5":10.9,"no2":9.1,"co":193.0,"o3":73.0,"so2":5.3,"mosquito_risk":7,"arthritis_risk":5,"migraine_risk":7,"frizz_risk":1,"updated_at":"2026-07-05T22:44:34.814718+05:30"},{"city":"Ranchi","state":"Jharkhand","latitude":23.3441,"longitude":85.3096,"temp":23.5,"humidity":99,"rain":0.0,"pressure":928.0,"uv_index":5.25,"wind_gusts":51.1,"aqi":54,"pm10":12.6,"pm2_5":12.6,"no2":11.1,"co":209.0,"o3":73.0,"so2":13.3,"mosquito_risk":3,"arthritis_risk":5,"migraine_risk":3,"frizz_risk":1,"updated_at":"2026-07-05T22:44:34.814724+05:30"},{"city":"Jamshedpur","state":"Jharkhand","latitude":22.8046,"longitude":86.2029,"temp":26.3,"humidity":92,"rain":0.0,"pressure":979.6,"uv_index":7.0,"wind_gusts":46.4,"aqi":50,"pm10":16.9,"pm2_5":16.4,"no2":21.4,"co":473.0,"o3":48.0,"so2":26.8,"mosquito_risk":7,"arthritis_risk":5,"migraine_risk":7,"frizz_risk":1,"updated_at":"2026-07-05T22:44:34.814730+05:30"},{"city":"Dhanbad","state":"Jharkhand","latitude":23.7957,"longitude":86.4304,"temp":26.0,"humidity":92,"rain":0.0,"pressure":969.8,"uv_index":6.9,"wind_gusts":55.8,"aqi":63,"pm10":17.6,"pm2_5":17.3,"no2":24.5,"co":215.0,"o3":52.0,"so2":48.3,"mosquito_risk":7,"arthritis_risk":5,"migraine_risk":7,"frizz_risk":1,"updated_at":"2026-07-05T22:44:34.814736+05:30"},{"city":"Bokaro","state":"Jharkhand","latitude":23.6693,"longitude":86.1511,"temp":25.9,"humidity":93,"rain":0.0,"pressure":973.6,"uv_index":5.8,"wind_gusts":51.1,"aqi":64,"pm10":16.2,"pm2_5":16.1,"no2":22.4,"co":212.0,"o3":60.0,"so2":47.6,"mosquito_risk":7,"arthritis_risk":5,"migraine_risk":3,"frizz_risk":1,"updated_at":"2026-07-05T22:44:34.814742+05:30"},{"city":"Bhubaneswar","state":"Odisha","latitude":20.2961,"longitude":85.8245,"temp":26.4,"humidity":91,"rain":0.1,"pressure":991.8,"uv_index":2.35,"wind_gusts":40.7,"aqi":34,"pm10":8.5,"pm2_5":8.5,"no2":10.4,"co":211.0,"o3":58.0,"so2":6.5,"mosquito_risk":10,"arthritis_risk":5,"migraine_risk":3,"frizz_risk":1,"updated_at":"2026-07-05T22:44:34.814748+05:30"},{"city":"Cuttack","state":"Odisha","latitude":20.4625,"longitude":85.8828,"temp":26.4,"humidity":95,"rain":0.2,"pressure":993.4,"uv_index":2.6,"wind_gusts":37.8,"aqi":34,"pm10":8.5,"pm2_5":8.5,"no2":10.4,"co":228.0,"o3":58.0,"so2":6.5,"mosquito_risk":10,"arthritis_risk":5,"migraine_risk":3,"frizz_risk":1,"updated_at":"2026-07-05T22:44:34.814777+05:30"},{"city":"Rourkela","state":"Odisha","latitude":22.2604,"longitude":84.8536,"temp":25.9,"humidity":98,"rain":0.0,"pressure":974.4,"uv_index":6.25,"wind_gusts":46.1,"aqi":52,"pm10":18.5,"pm2_5":18.4,"no2":13.3,"co":434.0,"o3":62.0,"so2":11.9,"mosquito_risk":7,"arthritis_risk":5,"migraine_risk":7,"frizz_risk":1,"updated_at":"2026-07-05T22:44:34.814784+05:30"},{"city":"Raipur","state":"Chhattisgarh","latitude":21.2514,"longitude":81.6296,"temp":25.1,"humidity":97,"rain":0.4,"pressure":966.8,"uv_index":5.15,"wind_gusts":48.2,"aqi":65,"pm10":19.9,"pm2_5":19.8,"no2":21.3,"co":269.0,"o3":67.0,"so2":29.1,"mosquito_risk":10,"arthritis_risk":5,"migraine_risk":3,"frizz_risk":1,"updated_at":"2026-07-05T22:44:34.814790+05:30"},{"city":"Bhilai","state":"Chhattisgarh","latitude":21.1938,"longitude":81.3509,"temp":25.3,"humidity":96,"rain":0.3,"pressure":967.5,"uv_index":5.4,"wind_gusts":49.0,"aqi":59,"pm10":16.4,"pm2_5":16.3,"no2":15.9,"co":496.0,"o3":69.0,"so2":22.4,"mosquito_risk":10,"arthritis_risk":5,"migraine_risk":3,"frizz_risk":1,"updated_at":"2026-07-05T22:44:34.814797+05:30"},{"city":"Guwahati","state":"Assam","latitude":26.1158,"longitude":91.7086,"temp":27.9,"humidity":89,"rain":0.0,"pressure":995.7,"uv_index":8.55,"wind_gusts":37.4,"aqi":28,"pm10":10.3,"pm2_5":10.2,"no2":8.5,"co":210.0,"o3":32.0,"so2":1.5,"mosquito_risk":7,"arthritis_risk":5,"migraine_risk":7,"frizz_risk":1,"updated_at":"2026-07-05T22:44:34.814803+05:30"},{"city":"Agartala","state":"Tripura","latitude":23.8315,"longitude":91.2868,"temp":25.5,"humidity":98,"rain":0.2,"pressure":1000.5,"uv_index":1.9,"wind_gusts":53.6,"aqi":29,"pm10":6.1,"pm2_5":5.6,"no2":7.3,"co":152.0,"o3":50.0,"so2":1.7,"mosquito_risk":10,"arthritis_risk":5,"migraine_risk":0,"frizz_risk":1,"updated_at":"2026-07-05T22:44:34.814809+05:30"},{"city":"Shillong","state":"Meghalaya","latitude":25.5788,"longitude":91.8933,"temp":19.6,"humidity":99,"rain":0.1,"pressure":854.1,"uv_index":8.5,"wind_gusts":42.8,"aqi":26,"pm10":3.3,"pm2_5":3.3,"no2":4.8,"co":177.0,"o3":50.0,"so2":1.4,"mosquito_risk":6,"arthritis_risk":10,"migraine_risk":7,"frizz_risk":1,"updated_at":"2026-07-05T22:44:34.814816+05:30"},{"city":"Imphal","state":"Manipur","latitude":24.817,"longitude":93.9368,"temp":24.2,"humidity":94,"rain":0.0,"pressure":920.5,"uv_index":3.1,"wind_gusts":30.6,"aqi":23,"pm10":9.4,"pm2_5":9.2,"no2":7.9,"co":312.0,"o3":30.0,"so2":2.1,"mosquito_risk":3,"arthritis_risk":5,"migraine_risk":3,"frizz_risk":1,"updated_at":"2026-07-05T22:44:34.814822+05:30"},{"city":"Aizawl","state":"Mizoram","latitude":23.7271,"longitude":92.7176,"temp":20.9,"humidity":97,"rain":0.2,"pressure":888.3,"uv_index":3.2,"wind_gusts":29.2,"aqi":19,"pm10":1.9,"pm2_5":1.8,"no2":3.1,"co":142.0,"o3":38.0,"so2":0.6,"mosquito_risk":6,"arthritis_risk":5,"migraine_risk":3,"frizz_risk":1,"updated_at":"2026-07-05T22:44:34.814828+05:30"},{"city":"Kohima","state":"Nagaland","latitude":25.6701,"longitude":94.1077,"temp":21.8,"humidity":84,"rain":0.0,"pressure":853.1,"uv_index":8.95,"wind_gusts":27.7,"aqi":24,"pm10":7.6,"pm2_5":7.4,"no2":10.0,"co":175.0,"o3":31.0,"so2":1.3,"mosquito_risk":3,"arthritis_risk":5,"migraine_risk":7,"frizz_risk":1,"updated_at":"2026-07-05T22:44:34.814834+05:30"},{"city":"Gangtok","state":"Sikkim","latitude":27.3314,"longitude":88.6138,"temp":18.8,"humidity":98,"rain":0.0,"pressure":835.8,"uv_index":8.2,"wind_gusts":32.8,"aqi":46,"pm10":7.2,"pm2_5":7.0,"no2":4.9,"co":256.0,"o3":97.0,"so2":1.2,"mosquito_risk":3,"arthritis_risk":10,"migraine_risk":7,"frizz_risk":1,"updated_at":"2026-07-05T22:44:34.814840+05:30"},{"city":"Siliguri","state":"West Bengal","latitude":26.7271,"longitude":88.3953,"temp":26.3,"humidity":87,"rain":0.0,"pressure":987.7,"uv_index":8.65,"wind_gusts":42.8,"aqi":54,"pm10":11.4,"pm2_5":11.0,"no2":5.9,"co":234.0,"o3":91.0,"so2":2.5,"mosquito_risk":7,"arthritis_risk":5,"migraine_risk":7,"frizz_risk":1,"updated_at":"2026-07-05T22:44:38.173693+05:30"},{"city":"Durgapur","state":"West Bengal","latitude":23.5204,"longitude":87.3119,"temp":25.7,"humidity":97,"rain":0.5,"pressure":983.8,"uv_index":6.7,"wind_gusts":54.0,"aqi":53,"pm10":18.2,"pm2_5":17.5,"no2":19.4,"co":288.0,"o3":55.0,"so2":20.8,"mosquito_risk":10,"arthritis_risk":5,"migraine_risk":7,"frizz_risk":1,"updated_at":"2026-07-05T22:44:38.173722+05:30"},{"city":"Asansol","state":"West Bengal","latitude":23.6739,"longitude":86.9524,"temp":26.2,"humidity":94,"rain":0.0,"pressure":982.8,"uv_index":6.8,"wind_gusts":54.7,"aqi":53,"pm10":14.4,"pm2_5":14.0,"no2":18.9,"co":282.0,"o3":56.0,"so2":19.9,"mosquito_risk":7,"arthritis_risk":5,"migraine_risk":7,"frizz_risk":1,"updated_at":"2026-07-05T22:44:38.173732+05:30"},{"city":"Pondicherry","state":"Puducherry","latitude":11.9139,"longitude":79.8145,"temp":30.6,"humidity":52,"rain":0.0,"pressure":1006.8,"uv_index":8.35,"wind_gusts":51.5,"aqi":52,"pm10":18.6,"pm2_5":11.9,"no2":11.1,"co":192.0,"o3":50.0,"so2":10.1,"mosquito_risk":0,"arthritis_risk":5,"migraine_risk":4,"frizz_risk":1,"updated_at":"2026-07-05T22:44:38.173741+05:30"},{"city":"Port Blair","state":"Andaman and Nicobar Islands","latitude":11.6234,"longitude":92.7265,"temp":28.1,"humidity":83,"rain":0.0,"pressure":1008.4,"uv_index":8.15,"wind_gusts":47.9,"aqi":51,"pm10":18.3,"pm2_5":10.8,"no2":0.2,"co":91.0,"o3":51.0,"so2":0.5,"mosquito_risk":7,"arthritis_risk":0,"migraine_risk":4,"frizz_risk":1,"updated_at":"2026-07-05T22:44:38.173748+05:30"},{"city":"Haridwar","state":"Uttarakhand","latitude":29.9457,"longitude":78.1642,"temp":29.3,"humidity":83,"rain":0.0,"pressure":967.7,"uv_index":6.95,"wind_gusts":22.7,"aqi":109,"pm10":38.8,"pm2_5":38.5,"no2":10.4,"co":402.0,"o3":100.0,"so2":6.1,"mosquito_risk":7,"arthritis_risk":5,"migraine_risk":7,"frizz_risk":1,"updated_at":"2026-07-05T22:44:38.173776+05:30"},{"city":"Rishikesh","state":"Uttarakhand","latitude":30.0869,"longitude":78.2676,"temp":28.3,"humidity":85,"rain":0.0,"pressure":960.7,"uv_index":6.95,"wind_gusts":23.8,"aqi":80,"pm10":28.7,"pm2_5":28.3,"no2":5.5,"co":369.0,"o3":109.0,"so2":4.1,"mosquito_risk":7,"arthritis_risk":5,"migraine_risk":7,"frizz_risk":1,"updated_at":"2026-07-05T22:44:38.173784+05:30"},{"city":"Nainital","state":"Uttarakhand","latitude":29.3919,"longitude":79.4542,"temp":17.2,"humidity":100,"rain":0.1,"pressure":803.2,"uv_index":6.45,"wind_gusts":26.3,"aqi":47,"pm10":13.9,"pm2_5":13.7,"no2":10.3,"co":320.0,"o3":75.0,"so2":2.1,"mosquito_risk":6,"arthritis_risk":10,"migraine_risk":7,"frizz_risk":1,"updated_at":"2026-07-05T22:44:38.173792+05:30"},{"city":"Mussoorie","state":"Uttarakhand","latitude":30.4599,"longitude":78.0664,"temp":18.1,"humidity":98,"rain":0.0,"pressure":800.8,"uv_index":6.2,"wind_gusts":35.3,"aqi":109,"pm10":43.0,"pm2_5":42.5,"no2":12.4,"co":395.0,"o3":119.0,"so2":8.1,"mosquito_risk":3,"arthritis_risk":10,"migraine_risk":7,"frizz_risk":1,"updated_at":"2026-07-05T22:44:38.173799+05:30"},{"city":"Dharamshala","state":"Himachal Pradesh","latitude":32.219,"longitude":76.3234,"temp":23.8,"humidity":74,"rain":0.0,"pressure":865.2,"uv_index":8.25,"wind_gusts":30.2,"aqi":46,"pm10":6.6,"pm2_5":6.5,"no2":15.1,"co":413.0,"o3":43.0,"so2":0.6,"mosquito_risk":3,"arthritis_risk":5,"migraine_risk":7,"frizz_risk":1,"updated_at":"2026-07-05T22:44:38.173805+05:30"},{"city":"Dalhousie","state":"Himachal Pradesh","latitude":32.5387,"longitude":75.971,"temp":18.5,"humidity":93,"rain":0.0,"pressure":801.4,"uv_index":8.0,"wind_gusts":27.7,"aqi":128,"pm10":42.8,"pm2_5":38.5,"no2":23.9,"co":563.0,"o3":94.0,"so2":3.3,"mosquito_risk":3,"arthritis_risk":10,"migraine_risk":7,"frizz_risk":1,"updated_at":"2026-07-05T22:44:38.173813+05:30"},{"city":"Patiala","state":"Punjab","latitude":30.3398,"longitude":76.3869,"temp":29.9,"humidity":82,"rain":0.0,"pressure":970.8,"uv_index":6.9,"wind_gusts":18.7,"aqi":174,"pm10":161.1,"pm2_5":142.0,"no2":54.9,"co":933.0,"o3":51.0,"so2":16.1,"mosquito_risk":7,"arthritis_risk":5,"migraine_risk":7,"frizz_risk":1,"updated_at":"2026-07-05T22:44:38.173819+05:30"},{"city":"Bhatinda","state":"Punjab","latitude":30.211,"longitude":74.9455,"temp":32.5,"humidity":68,"rain":0.0,"pressure":975.5,"uv_index":7.45,"wind_gusts":23.0,"aqi":159,"pm10":129.9,"pm2_5":76.1,"no2":28.8,"co":502.0,"o3":92.0,"so2":15.0,"mosquito_risk":3,"arthritis_risk":5,"migraine_risk":7,"frizz_risk":1,"updated_at":"2026-07-05T22:44:38.173826+05:30"},{"city":"Rohtak","state":"Haryana","latitude":28.8955,"longitude":76.6066,"temp":31.0,"humidity":77,"rain":0.0,"pressure":974.2,"uv_index":7.4,"wind_gusts":31.3,"aqi":176,"pm10":74.0,"pm2_5":54.5,"no2":32.2,"co":779.0,"o3":99.0,"so2":24.9,"mosquito_risk":3,"arthritis_risk":5,"migraine_risk":7,"frizz_risk":1,"updated_at":"2026-07-05T22:44:38.173833+05:30"},{"city":"Panipat","state":"Haryana","latitude":29.3909,"longitude":76.9635,"temp":29.9,"humidity":83,"rain":0.0,"pressure":973.2,"uv_index":6.95,"wind_gusts":37.8,"aqi":161,"pm10":60.3,"pm2_5":56.6,"no2":23.7,"co":582.0,"o3":109.0,"so2":21.6,"mosquito_risk":7,"arthritis_risk":5,"migraine_risk":7,"frizz_risk":1,"updated_at":"2026-07-05T22:44:38.173839+05:30"},{"city":"Mathura","state":"Uttar Pradesh","latitude":27.4924,"longitude":77.6737,"temp":31.6,"humidity":74,"rain":0.0,"pressure":979.3,"uv_index":7.05,"wind_gusts":32.0,"aqi":103,"pm10":79.6,"pm2_5":48.0,"no2":39.8,"co":418.0,"o3":52.0,"so2":9.2,"mosquito_risk":3,"arthritis_risk":5,"migraine_risk":7,"frizz_risk":1,"updated_at":"2026-07-05T22:44:38.173845+05:30"},{"city":"Vrindavan","state":"Uttar Pradesh","latitude":27.5823,"longitude":77.7027,"temp":31.6,"humidity":75,"rain":0.0,"pressure":979.7,"uv_index":6.7,"wind_gusts":30.6,"aqi":103,"pm10":79.6,"pm2_5":48.0,"no2":39.8,"co":445.0,"o3":52.0,"so2":9.2,"mosquito_risk":3,"arthritis_risk":5,"migraine_risk":7,"frizz_risk":1,"updated_at":"2026-07-05T22:44:38.173852+05:30"},{"city":"Ayodhya","state":"Uttar Pradesh","latitude":26.7922,"longitude":82.1998,"temp":30.8,"humidity":74,"rain":0.0,"pressure":987.9,"uv_index":8.3,"wind_gusts":41.0,"aqi":94,"pm10":37.7,"pm2_5":37.6,"no2":21.5,"co":393.0,"o3":66.0,"so2":6.9,"mosquito_risk":3,"arthritis_risk":5,"migraine_risk":7,"frizz_risk":1,"updated_at":"2026-07-05T22:44:38.173859+05:30"},{"city":"Ratlam","state":"Madhya Pradesh","latitude":23.3315,"longitude":75.0367,"temp":26.0,"humidity":93,"rain":0.0,"pressure":946.6,"uv_index":8.45,"wind_gusts":33.8,"aqi":55,"pm10":28.1,"pm2_5":27.0,"no2":11.2,"co":262.0,"o3":62.0,"so2":3.4,"mosquito_risk":7,"arthritis_risk":5,"migraine_risk":7,"frizz_risk":1,"updated_at":"2026-07-05T22:44:38.173865+05:30"},{"city":"Sagar","state":"Madhya Pradesh","latitude":23.8388,"longitude":78.7378,"temp":25.7,"humidity":97,"rain":0.0,"pressure":942.8,"uv_index":8.1,"wind_gusts":23.0,"aqi":71,"pm10":18.3,"pm2_5":18.0,"no2":8.6,"co":237.0,"o3":72.0,"so2":2.3,"mosquito_risk":7,"arthritis_risk":5,"migraine_risk":7,"frizz_risk":1,"updated_at":"2026-07-05T22:44:38.173872+05:30"},{"city":"Satna","state":"Madhya Pradesh","latitude":24.6005,"longitude":80.8322,"temp":25.6,"humidity":97,"rain":0.1,"pressure":964.0,"uv_index":8.2,"wind_gusts":34.6,"aqi":88,"pm10":17.4,"pm2_5":17.2,"no2":11.6,"co":306.0,"o3":76.0,"so2":3.4,"mosquito_risk":10,"arthritis_risk":5,"migraine_risk":7,"frizz_risk":1,"updated_at":"2026-07-05T22:44:38.173878+05:30"},{"city":"Akola","state":"Maharashtra","latitude":20.7002,"longitude":77.0082,"temp":27.9,"humidity":74,"rain":0.0,"pressure":967.6,"uv_index":6.45,"wind_gusts":31.0,"aqi":34,"pm10":5.4,"pm2_5":5.4,"no2":8.9,"co":147.0,"o3":45.0,"so2":4.8,"mosquito_risk":7,"arthritis_risk":5,"migraine_risk":7,"frizz_risk":1,"updated_at":"2026-07-05T22:44:38.173886+05:30"},{"city":"Amravati","state":"Maharashtra","latitude":20.9374,"longitude":77.7796,"temp":27.7,"humidity":78,"rain":0.0,"pressure":960.1,"uv_index":7.35,"wind_gusts":35.3,"aqi":35,"pm10":6.0,"pm2_5":5.9,"no2":8.9,"co":192.0,"o3":46.0,"so2":4.4,"mosquito_risk":7,"arthritis_risk":5,"migraine_risk":7,"frizz_risk":1,"updated_at":"2026-07-05T22:44:38.173893+05:30"},{"city":"Latur","state":"Maharashtra","latitude":18.4088,"longitude":76.5604,"temp":23.9,"humidity":85,"rain":0.0,"pressure":934.1,"uv_index":1.25,"wind_gusts":59.4,"aqi":23,"pm10":2.8,"pm2_5":2.6,"no2":4.2,"co":125.0,"o3":44.0,"so2":1.8,"mosquito_risk":3,"arthritis_risk":5,"migraine_risk":3,"frizz_risk":1,"updated_at":"2026-07-05T22:44:38.173899+05:30"},{"city":"Nanded","state":"Maharashtra","latitude":19.1383,"longitude":77.3091,"temp":26.1,"humidity":81,"rain":0.0,"pressure":962.5,"uv_index":5.75,"wind_gusts":47.9,"aqi":26,"pm10":3.2,"pm2_5":2.8,"no2":4.8,"co":127.0,"o3":44.0,"so2":3.6,"mosquito_risk":7,"arthritis_risk":5,"migraine_risk":3,"frizz_risk":1,"updated_at":"2026-07-05T22:44:38.173905+05:30"},{"city":"Gulbarga","state":"Karnataka","latitude":17.3297,"longitude":76.8343,"temp":25.0,"humidity":78,"rain":0.0,"pressure":954.7,"uv_index":5.1,"wind_gusts":72.0,"aqi":24,"pm10":3.7,"pm2_5":2.7,"no2":5.4,"co":119.0,"o3":44.0,"so2":2.3,"mosquito_risk":7,"arthritis_risk":5,"migraine_risk":3,"frizz_risk":1,"updated_at":"2026-07-05T22:44:38.173912+05:30"},{"city":"Bidar","state":"Karnataka","latitude":17.9104,"longitude":77.5199,"temp":24.0,"humidity":82,"rain":0.0,"pressure":930.4,"uv_index":1.8,"wind_gusts":59.8,"aqi":24,"pm10":2.8,"pm2_5":2.6,"no2":5.4,"co":118.0,"o3":45.0,"so2":2.1,"mosquito_risk":3,"arthritis_risk":5,"migraine_risk":3,"frizz_risk":1,"updated_at":"2026-07-05T22:44:38.173918+05:30"},{"city":"Hospet","state":"Karnataka","latitude":15.2689,"longitude":76.3909,"temp":23.8,"humidity":84,"rain":0.0,"pressure":953.5,"uv_index":2.3,"wind_gusts":78.5,"aqi":25,"pm10":2.9,"pm2_5":2.1,"no2":3.3,"co":115.0,"o3":48.0,"so2":1.3,"mosquito_risk":3,"arthritis_risk":5,"migraine_risk":3,"frizz_risk":1,"updated_at":"2026-07-05T22:44:38.173924+05:30"},{"city":"Tirupur","state":"Tamil Nadu","latitude":11.1085,"longitude":77.3411,"temp":25.6,"humidity":80,"rain":0.0,"pressure":974.9,"uv_index":7.55,"wind_gusts":71.3,"aqi":39,"pm10":20.5,"pm2_5":15.0,"no2":14.7,"co":118.0,"o3":31.0,"so2":4.5,"mosquito_risk":7,"arthritis_risk":5,"migraine_risk":7,"frizz_risk":1,"updated_at":"2026-07-05T22:44:38.173931+05:30"},{"city":"Alappuzha","state":"Kerala","latitude":9.4981,"longitude":76.3388,"temp":27.8,"humidity":82,"rain":0.0,"pressure":1010.6,"uv_index":8.45,"wind_gusts":42.1,"aqi":53,"pm10":32.5,"pm2_5":19.4,"no2":7.8,"co":86.0,"o3":44.0,"so2":2.3,"mosquito_risk":7,"arthritis_risk":0,"migraine_risk":4,"frizz_risk":1,"updated_at":"2026-07-05T22:44:38.173937+05:30"},{"city":"Munnar","state":"Kerala","latitude":10.0889,"longitude":77.0595,"temp":16.7,"humidity":100,"rain":0.1,"pressure":857.0,"uv_index":4.55,"wind_gusts":58.0,"aqi":24,"pm10":10.7,"pm2_5":7.1,"no2":6.0,"co":91.0,"o3":34.0,"so2":2.1,"mosquito_risk":6,"arthritis_risk":10,"migraine_risk":3,"frizz_risk":1,"updated_at":"2026-07-05T22:44:38.173944+05:30"},{"city":"Silchar","state":"Assam","latitude":24.8333,"longitude":92.7789,"temp":26.3,"humidity":98,"rain":0.1,"pressure":1000.2,"uv_index":8.95,"wind_gusts":34.2,"aqi":46,"pm10":11.9,"pm2_5":11.8,"no2":6.8,"co":188.0,"o3":44.0,"so2":2.3,"mosquito_risk":10,"arthritis_risk":5,"migraine_risk":4,"frizz_risk":1,"updated_at":"2026-07-05T22:44:38.173950+05:30"},{"city":"Dibrugarh","state":"Assam","latitude":27.4728,"longitude":94.912,"temp":29.7,"humidity":74,"rain":0.0,"pressure":989.6,"uv_index":8.95,"wind_gusts":26.3,"aqi":42,"pm10":19.4,"pm2_5":19.3,"no2":16.2,"co":163.0,"o3":17.0,"so2":1.5,"mosquito_risk":7,"arthritis_risk":5,"migraine_risk":7,"frizz_risk":1,"updated_at":"2026-07-05T22:44:38.173956+05:30"}]