[{"city":"Delhi","state":"Delhi","latitude":28.6139,"longitude":77.209,"temp":18.9,"humidity":66,"rain":0.0,"pressure":983.8,"uv_index":5.55,"aqi":155,"mosquito_risk":3,"arthritis_risk":5,"migraine_risk":3,"frizz_risk":0,"updated_at":"2026-02-27T00:27:07.473194+05:30"},{"city":"Mumbai","state":"Maharashtra","latitude":19.076,"longitude":72.8777,"temp":26.1,"humidity":71,"rain":0.0,"pressure":1009.5,"uv_index":7.3,"aqi":74,"mosquito_risk":7,"arthritis_risk":0,"migraine_risk":4,"frizz_risk":1,"updated_at":"2026-02-27T00:27:07.473241+05:30"},{"city":"Bangalore","state":"Karnataka","latitude":12.9716,"longitude":77.5946,"temp":22.9,"humidity":61,"rain":0.0,"pressure":911.3,"uv_index":8.85,"aqi":111,"mosquito_risk":3,"arthritis_risk":5,"migraine_risk":7,"frizz_risk":0,"updated_at":"2026-02-27T00:27:07.473257+05:30"},{"city":"Hyderabad","state":"Telangana","latitude":17.385,"longitude":78.4867,"temp":23.2,"humidity":70,"rain":0.0,"pressure":952.9,"uv_index":8.05,"aqi":145,"mosquito_risk":3,"arthritis_risk":5,"migraine_risk":7,"frizz_risk":1,"updated_at":"2026-02-27T00:27:07.473267+05:30"},{"city":"Chennai","state":"Tamil Nadu","latitude":13.0827,"longitude":80.2707,"temp":25.3,"humidity":86,"rain":0.0,"pressure":1008.2,"uv_index":8.6,"aqi":92,"mosquito_risk":7,"arthritis_risk":0,"migraine_risk":4,"frizz_risk":1,"updated_at":"2026-02-27T00:27:07.473275+05:30"},{"city":"Kolkata","state":"West Bengal","latitude":22.5726,"longitude":88.3639,"temp":22.0,"humidity":48,"rain":0.0,"pressure":1006.8,"uv_index":7.4,"aqi":171,"mosquito_risk":0,"arthritis_risk":5,"migraine_risk":4,"frizz_risk":0,"updated_at":"2026-02-27T00:27:07.473284+05:30"},{"city":"Pune","state":"Maharashtra","latitude":18.5204,"longitude":73.8567,"temp":18.0,"humidity":76,"rain":0.0,"pressure":947.9,"uv_index":7.8,"aqi":68,"mosquito_risk":3,"arthritis_risk":5,"migraine_risk":7,"frizz_risk":0,"updated_at":"2026-02-27T00:27:07.473291+05:30"},{"city":"Ahmedabad","state":"Gujarat","latitude":23.0225,"longitude":72.5714,"temp":21.7,"humidity":64,"rain":0.0,"pressure":1002.3,"uv_index":7.05,"aqi":82,"mosquito_risk":3,"arthritis_risk":5,"migraine_risk":4,"frizz_risk":0,"updated_at":"2026-02-27T00:27:07.473297+05:30"},{"city":"Jaipur","state":"Rajasthan","latitude":26.9124,"longitude":75.7873,"temp":20.8,"humidity":39,"rain":0.0,"pressure":959.6,"uv_index":6.35,"aqi":94,"mosquito_risk":0,"arthritis_risk":5,"migraine_risk":7,"frizz_risk":0,"updated_at":"2026-02-27T00:27:07.473308+05:30"},{"city":"Lucknow","state":"Uttar Pradesh","latitude":26.8467,"longitude":80.9462,"temp":18.8,"humidity":61,"rain":0.0,"pressure":994.6,"uv_index":6.0,"aqi":145,"mosquito_risk":3,"arthritis_risk":5,"migraine_risk":3,"frizz_risk":0,"updated_at":"2026-02-27T00:27:07.473316+05:30"},{"city":"Kanpur","state":"Uttar Pradesh","latitude":26.4499,"longitude":80.3319,"temp":18.9,"humidity":66,"rain":0.0,"pressure":992.7,"uv_index":6.0,"aqi":148,"mosquito_risk":3,"arthritis_risk":5,"migraine_risk":3,"frizz_risk":0,"updated_at":"2026-02-27T00:27:07.473325+05:30"},{"city":"Chandigarh","state":"Chandigarh","latitude":30.7333,"longitude":76.7794,"temp":17.0,"humidity":79,"rain":0.0,"pressure":969.1,"uv_index":5.45,"aqi":132,"mosquito_risk":3,"arthritis_risk":5,"migraine_risk":3,"frizz_risk":0,"updated_at":"2026-02-27T00:27:07.473354+05:30"},{"city":"Srinagar","state":"Jammu and Kashmir","latitude":34.0837,"longitude":74.7973,"temp":4.1,"humidity":82,"rain":0.0,"pressure":835.7,"uv_index":6.35,"aqi":144,"mosquito_risk":3,"arthritis_risk":10,"migraine_risk":7,"frizz_risk":0,"updated_at":"2026-02-27T00:27:07.473363+05:30"},{"city":"Jammu","state":"Jammu and Kashmir","latitude":32.7266,"longitude":74.857,"temp":16.8,"humidity":85,"rain":0.0,"pressure":973.2,"uv_index":6.05,"aqi":125,"mosquito_risk":3,"arthritis_risk":10,"migraine_risk":7,"frizz_risk":0,"updated_at":"2026-02-27T00:27:07.473371+05:30"},{"city":"Amritsar","state":"Punjab","latitude":31.634,"longitude":74.8723,"temp":16.4,"humidity":85,"rain":0.0,"pressure":981.3,"uv_index":6.0,"aqi":170,"mosquito_risk":3,"arthritis_risk":10,"migraine_risk":3,"frizz_risk":0,"updated_at":"2026-02-27T00:27:07.473378+05:30"},{"city":"Ludhiana","state":"Punjab","latitude":30.901,"longitude":75.8573,"temp":18.0,"humidity":83,"rain":0.0,"pressure":979.6,"uv_index":5.7,"aqi":172,"mosquito_risk":3,"arthritis_risk":10,"migraine_risk":3,"frizz_risk":0,"updated_at":"2026-02-27T00:27:07.473385+05:30"},{"city":"Jalandhar","state":"Punjab","latitude":31.326,"longitude":75.5762,"temp":16.8,"humidity":88,"rain":0.0,"pressure":980.6,"uv_index":5.85,"aqi":176,"mosquito_risk":3,"arthritis_risk":10,"migraine_risk":3,"frizz_risk":0,"updated_at":"2026-02-27T00:27:07.473391+05:30"},{"city":"Dehradun","state":"Uttarakhand","latitude":30.6284,"longitude":78.0322,"temp":9.8,"humidity":86,"rain":0.0,"pressure":826.4,"uv_index":5.8,"aqi":100,"mosquito_risk":3,"arthritis_risk":10,"migraine_risk":3,"frizz_risk":0,"updated_at":"2026-02-27T00:27:07.473399+05:30"},{"city":"Shimla","state":"Himachal Pradesh","latitude":31.1048,"longitude":77.1734,"temp":6.5,"humidity":62,"rain":0.0,"pressure":779.3,"uv_index":5.85,"aqi":93,"mosquito_risk":3,"arthritis_risk":5,"migraine_risk":3,"frizz_risk":1,"updated_at":"2026-02-27T00:27:07.473409+05:30"},{"city":"Manali","state":"Himachal Pradesh","latitude":32.2396,"longitude":77.1887,"temp":10.6,"humidity":48,"rain":0.0,"pressure":815.6,"uv_index":7.55,"aqi":116,"mosquito_risk":0,"arthritis_risk":5,"migraine_risk":7,"frizz_risk":0,"updated_at":"2026-02-27T00:27:07.473418+05:30"},{"city":"Gurgaon","state":"Haryana","latitude":28.4595,"longitude":77.0266,"temp":15.7,"humidity":75,"rain":0.0,"pressure":981.9,"uv_index":5.65,"aqi":197,"mosquito_risk":3,"arthritis_risk":5,"migraine_risk":3,"frizz_risk":0,"updated_at":"2026-02-27T00:27:07.473424+05:30"},{"city":"Noida","state":"Uttar Pradesh","latitude":28.5355,"longitude":77.391,"temp":18.9,"humidity":64,"rain":0.0,"pressure":985.4,"uv_index":5.55,"aqi":197,"mosquito_risk":3,"arthritis_risk":5,"migraine_risk":3,"frizz_risk":0,"updated_at":"2026-02-27T00:27:07.473431+05:30"},{"city":"Ghaziabad","state":"Uttar Pradesh","latitude":28.6692,"longitude":77.4538,"temp":17.9,"humidity":74,"rain":0.0,"pressure":983.5,"uv_index":5.55,"aqi":153,"mosquito_risk":3,"arthritis_risk":5,"migraine_risk":3,"frizz_risk":0,"updated_at":"2026-02-27T00:27:07.473438+05:30"},{"city":"Faridabad","state":"Haryana","latitude":28.4089,"longitude":77.3178,"temp":17.3,"humidity":64,"rain":0.0,"pressure":984.5,"uv_index":5.6,"aqi":197,"mosquito_risk":3,"arthritis_risk":5,"migraine_risk":3,"frizz_risk":0,"updated_at":"2026-02-27T00:27:07.473445+05:30"},{"city":"Meerut","state":"Uttar Pradesh","latitude":28.9845,"longitude":77.7064,"temp":16.6,"humidity":85,"rain":0.0,"pressure":982.2,"uv_index":5.4,"aqi":153,"mosquito_risk":3,"arthritis_risk":10,"migraine_risk":3,"frizz_risk":0,"updated_at":"2026-02-27T00:27:07.473452+05:30"},{"city":"Agra","state":"Uttar Pradesh","latitude":27.1767,"longitude":78.0081,"temp":19.4,"humidity":49,"rain":0.0,"pressure":988.6,"uv_index":5.9,"aqi":157,"mosquito_risk":0,"arthritis_risk":5,"migraine_risk":3,"frizz_risk":0,"updated_at":"2026-02-27T00:27:07.473458+05:30"},{"city":"Varanasi","state":"Uttar Pradesh","latitude":25.3176,"longitude":82.9739,"temp":18.5,"humidity":70,"rain":0.0,"pressure":998.8,"uv_index":6.7,"aqi":110,"mosquito_risk":3,"arthritis_risk":5,"migraine_risk":7,"frizz_risk":0,"updated_at":"2026-02-27T00:27:07.473465+05:30"},{"city":"Prayagraj","state":"Uttar Pradesh","latitude":25.4358,"longitude":81.8463,"temp":19.3,"humidity":75,"rain":0.0,"pressure":997.3,"uv_index":6.55,"aqi":125,"mosquito_risk":3,"arthritis_risk":5,"migraine_risk":7,"frizz_risk":0,"updated_at":"2026-02-27T00:27:07.473472+05:30"},{"city":"Gorakhpur","state":"Uttar Pradesh","latitude":26.7606,"longitude":83.3732,"temp":16.2,"humidity":73,"rain":0.0,"pressure":998.3,"uv_index":6.4,"aqi":153,"mosquito_risk":3,"arthritis_risk":5,"migraine_risk":7,"frizz_risk":0,"updated_at":"2026-02-27T00:27:07.473481+05:30"},{"city":"Bareilly","state":"Uttar Pradesh","latitude":28.367,"longitude":79.4304,"temp":16.0,"humidity":82,"rain":0.0,"pressure":987.5,"uv_index":5.7,"aqi":152,"mosquito_risk":3,"arthritis_risk":10,"migraine_risk":3,"frizz_risk":0,"updated_at":"2026-02-27T00:27:07.473487+05:30"},{"city":"Aligarh","state":"Uttar Pradesh","latitude":27.8974,"longitude":78.088,"temp":16.2,"humidity":62,"rain":0.0,"pressure":986.2,"uv_index":5.65,"aqi":157,"mosquito_risk":3,"arthritis_risk":5,"migraine_risk":3,"frizz_risk":0,"updated_at":"2026-02-27T00:27:07.473494+05:30"},{"city":"Moradabad","state":"Uttar Pradesh","latitude":28.8386,"longitude":78.7733,"temp":15.9,"humidity":82,"rain":0.0,"pressure":984.3,"uv_index":5.55,"aqi":152,"mosquito_risk":3,"arthritis_risk":10,"migraine_risk":3,"frizz_risk":0,"updated_at":"2026-02-27T00:27:07.473500+05:30"},{"city":"Saharanpur","state":"Uttar Pradesh","latitude":29.9637,"longitude":77.546,"temp":16.6,"humidity":86,"rain":0.0,"pressure":976.0,"uv_index":5.2,"aqi":162,"mosquito_risk":3,"arthritis_risk":10,"migraine_risk":3,"frizz_risk":0,"updated_at":"2026-02-27T00:27:07.473506+05:30"},{"city":"Jhansi","state":"Uttar Pradesh","latitude":25.4484,"longitude":78.5685,"temp":20.1,"humidity":68,"rain":0.0,"pressure":978.6,"uv_index":6.5,"aqi":87,"mosquito_risk":3,"arthritis_risk":5,"migraine_risk":7,"frizz_risk":0,"updated_at":"2026-02-27T00:27:10.736204+05:30"},{"city":"Surat","state":"Gujarat","latitude":21.1702,"longitude":72.8311,"temp":23.6,"humidity":78,"rain":0.0,"pressure":1007.9,"uv_index":7.0,"aqi":86,"mosquito_risk":3,"arthritis_risk":5,"migraine_risk":4,"frizz_risk":1,"updated_at":"2026-02-27T00:27:10.736238+05:30"},{"city":"Vadodara","state":"Gujarat","latitude":22.3072,"longitude":73.1812,"temp":21.8,"humidity":76,"rain":0.0,"pressure":1004.8,"uv_index":7.1,"aqi":67,"mosquito_risk":3,"arthritis_risk":5,"migraine_risk":4,"frizz_risk":1,"updated_at":"2026-02-27T00:27:10.736250+05:30"},{"city":"Rajkot","state":"Gujarat","latitude":22.3039,"longitude":70.8022,"temp":21.9,"humidity":76,"rain":0.0,"pressure":995.0,"uv_index":7.0,"aqi":58,"mosquito_risk":3,"arthritis_risk":5,"migraine_risk":7,"frizz_risk":1,"updated_at":"2026-02-27T00:27:10.736259+05:30"},{"city":"Thane","state":"Maharashtra","latitude":19.2183,"longitude":72.9781,"temp":24.2,"humidity":77,"rain":0.0,"pressure":1009.1,"uv_index":7.3,"aqi":74,"mosquito_risk":3,"arthritis_risk":0,"migraine_risk":4,"frizz_risk":1,"updated_at":"2026-02-27T00:27:10.736269+05:30"},{"city":"Nagpur","state":"Maharashtra","latitude":21.1458,"longitude":79.0882,"temp":22.9,"humidity":61,"rain":0.0,"pressure":973.4,"uv_index":7.4,"aqi":106,"mosquito_risk":3,"arthritis_risk":5,"migraine_risk":7,"frizz_risk":0,"updated_at":"2026-02-27T00:27:10.736278+05:30"},{"city":"Nashik","state":"Maharashtra","latitude":19.9975,"longitude":73.7898,"temp":18.5,"humidity":93,"rain":0.0,"pressure":945.1,"uv_index":7.45,"aqi":46,"mosquito_risk":3,"arthritis_risk":10,"migraine_risk":7,"frizz_risk":1,"updated_at":"2026-02-27T00:27:10.736287+05:30"},{"city":"Aurangabad","state":"Maharashtra","latitude":19.8762,"longitude":75.3433,"temp":22.8,"humidity":56,"rain":0.0,"pressure":943.5,"uv_index":7.75,"aqi":76,"mosquito_risk":0,"arthritis_risk":5,"migraine_risk":7,"frizz_risk":0,"updated_at":"2026-02-27T00:27:10.736296+05:30"},{"city":"Solapur","state":"Maharashtra","latitude":17.6599,"longitude":75.9064,"temp":23.4,"humidity":48,"rain":0.0,"pressure":956.3,"uv_index":8.0,"aqi":82,"mosquito_risk":0,"arthritis_risk":5,"migraine_risk":7,"frizz_risk":0,"updated_at":"2026-02-27T00:27:10.736305+05:30"},{"city":"Kolhapur","state":"Maharashtra","latitude":16.705,"longitude":74.2433,"temp":18.3,"humidity":56,"rain":0.0,"pressure":947.3,"uv_index":8.2,"aqi":65,"mosquito_risk":0,"arthritis_risk":5,"migraine_risk":7,"frizz_risk":0,"updated_at":"2026-02-27T00:27:10.736313+05:30"},{"city":"Goa","state":"Goa","latitude":15.2993,"longitude":74.124,"temp":25.0,"humidity":79,"rain":0.0,"pressure":997.7,"uv_index":8.25,"aqi":57,"mosquito_risk":7,"arthritis_risk":5,"migraine_risk":7,"frizz_risk":1,"updated_at":"2026-02-27T00:27:10.736322+05:30"},{"city":"Jodhpur","state":"Rajasthan","latitude":26.2389,"longitude":73.0243,"temp":23.8,"humidity":41,"rain":0.0,"pressure":982.6,"uv_index":6.6,"aqi":71,"mosquito_risk":0,"arthritis_risk":5,"migraine_risk":7,"frizz_risk":0,"updated_at":"2026-02-27T00:27:10.736351+05:30"},{"city":"Udaipur","state":"Rajasthan","latitude":24.5854,"longitude":73.7125,"temp":20.9,"humidity":53,"rain":0.0,"pressure":946.4,"uv_index":7.3,"aqi":77,"mosquito_risk":0,"arthritis_risk":5,"migraine_risk":7,"frizz_risk":0,"updated_at":"2026-02-27T00:27:10.736360+05:30"},{"city":"Kota","state":"Rajasthan","latitude":25.2138,"longitude":75.8648,"temp":20.5,"humidity":72,"rain":0.0,"pressure":978.6,"uv_index":6.65,"aqi":93,"mosquito_risk":3,"arthritis_risk":5,"migraine_risk":7,"frizz_risk":0,"updated_at":"2026-02-27T00:27:10.736367+05:30"},{"city":"Bikaner","state":"Rajasthan","latitude":28.0229,"longitude":73.3119,"temp":24.0,"humidity":35,"rain":0.0,"pressure":981.8,"uv_index":6.3,"aqi":53,"mosquito_risk":0,"arthritis_risk":5,"migraine_risk":7,"frizz_risk":0,"updated_at":"2026-02-27T00:27:10.736375+05:30"},{"city":"Ajmer","state":"Rajasthan","latitude":26.4499,"longitude":74.6399,"temp":22.2,"humidity":40,"rain":0.0,"pressure":954.2,"uv_index":6.6,"aqi":85,"mosquito_risk":0,"arthritis_risk":5,"migraine_risk":7,"frizz_risk":0,"updated_at":"2026-02-27T00:27:10.736381+05:30"},{"city":"Gwalior","state":"Madhya Pradesh","latitude":26.2183,"longitude":78.1828,"temp":20.4,"humidity":65,"rain":0.0,"pressure":983.9,"uv_index":6.2,"aqi":107,"mosquito_risk":3,"arthritis_risk":5,"migraine_risk":7,"frizz_risk":0,"updated_at":"2026-02-27T00:27:10.736388+05:30"},{"city":"Indore","state":"Madhya Pradesh","latitude":22.7196,"longitude":75.8577,"temp":20.0,"humidity":63,"rain":0.0,"pressure":947.3,"uv_index":7.2,"aqi":88,"mosquito_risk":3,"arthritis_risk":5,"migraine_risk":7,"frizz_risk":0,"updated_at":"2026-02-27T00:27:10.736395+05:30"},{"city":"Bhopal","state":"Madhya Pradesh","latitude":23.2599,"longitude":77.4126,"temp":19.7,"humidity":59,"rain":0.0,"pressure":953.2,"uv_index":7.1,"aqi":72,"mosquito_risk":0,"arthritis_risk":5,"migraine_risk":7,"frizz_risk":0,"updated_at":"2026-02-27T00:27:10.736402+05:30"},{"city":"Jabalpur","state":"Madhya Pradesh","latitude":23.1815,"longitude":79.9864,"temp":21.1,"humidity":45,"rain":0.0,"pressure":961.2,"uv_index":7.1,"aqi":67,"mosquito_risk":0,"arthritis_risk":5,"migraine_risk":7,"frizz_risk":0,"updated_at":"2026-02-27T00:27:10.736408+05:30"},{"city":"Ujjain","state":"Madhya Pradesh","latitude":23.1765,"longitude":75.7885,"temp":20.6,"humidity":60,"rain":0.0,"pressure":953.3,"uv_index":7.1,"aqi":95,"mosquito_risk":0,"arthritis_risk":5,"migraine_risk":7,"frizz_risk":0,"updated_at":"2026-02-27T00:27:10.736415+05:30"},{"city":"Visakhapatnam","state":"Andhra Pradesh","latitude":17.6868,"longitude":83.2185,"temp":24.9,"humidity":90,"rain":0.0,"pressure":1004.9,"uv_index":8.1,"aqi":125,"mosquito_risk":3,"arthritis_risk":5,"migraine_risk":4,"frizz_risk":1,"updated_at":"2026-02-27T00:27:10.736422+05:30"},{"city":"Vijayawada","state":"Andhra Pradesh","latitude":16.5062,"longitude":80.648,"temp":24.7,"humidity":91,"rain":0.0,"pressure":1003.2,"uv_index":8.15,"aqi":110,"mosquito_risk":3,"arthritis_risk":5,"migraine_risk":4,"frizz_risk":1,"updated_at":"2026-02-27T00:27:10.736429+05:30"},{"city":"Guntur","state":"Andhra Pradesh","latitude":16.3067,"longitude":80.4365,"temp":24.7,"humidity":91,"rain":0.0,"pressure":1004.4,"uv_index":8.15,"aqi":105,"mosquito_risk":3,"arthritis_risk":5,"migraine_risk":4,"frizz_risk":1,"updated_at":"2026-02-27T00:27:10.736436+05:30"},{"city":"Nellore","state":"Andhra Pradesh","latitude":14.4426,"longitude":79.9865,"temp":25.0,"humidity":87,"rain":0.0,"pressure":1006.8,"uv_index":8.4,"aqi":82,"mosquito_risk":7,"arthritis_risk":5,"migraine_risk":4,"frizz_risk":1,"updated_at":"2026-02-27T00:27:10.736443+05:30"},{"city":"Kurnool","state":"Andhra Pradesh","latitude":15.8281,"longitude":78.0373,"temp":25.6,"humidity":60,"rain":0.0,"pressure":976.5,"uv_index":8.2,"aqi":101,"mosquito_risk":4,"arthritis_risk":5,"migraine_risk":7,"frizz_risk":1,"updated_at":"2026-02-27T00:27:10.736451+05:30"},{"city":"Kakinada","state":"Andhra Pradesh","latitude":16.9891,"longitude":82.2475,"temp":23.2,"humidity":94,"rain":0.0,"pressure":1008.2,"uv_index":8.1,"aqi":76,"mosquito_risk":3,"arthritis_risk":0,"migraine_risk":4,"frizz_risk":1,"updated_at":"2026-02-27T00:27:10.736457+05:30"},{"city":"Tirupati","state":"Andhra Pradesh","latitude":13.6288,"longitude":79.4192,"temp":24.0,"humidity":70,"rain":0.0,"pressure":992.7,"uv_index":8.5,"aqi":102,"mosquito_risk":3,"arthritis_risk":5,"migraine_risk":7,"frizz_risk":1,"updated_at":"2026-02-27T00:27:10.736464+05:30"},{"city":"Warangal","state":"Telangana","latitude":17.9689,"longitude":79.5941,"temp":25.7,"humidity":49,"rain":0.0,"pressure":978.4,"uv_index":7.9,"aqi":152,"mosquito_risk":4,"arthritis_risk":5,"migraine_risk":7,"frizz_risk":0,"updated_at":"2026-02-27T00:27:10.736471+05:30"},{"city":"Nizamabad","state":"Telangana","latitude":18.6725,"longitude":78.0941,"temp":22.9,"humidity":65,"rain":0.0,"pressure":964.1,"uv_index":7.8,"aqi":154,"mosquito_risk":3,"arthritis_risk":5,"migraine_risk":7,"frizz_risk":0,"updated_at":"2026-02-27T00:27:10.736477+05:30"},{"city":"Mysore","state":"Karnataka","latitude":12.2958,"longitude":76.6396,"temp":22.1,"humidity":90,"rain":0.0,"pressure":927.9,"uv_index":8.9,"aqi":117,"mosquito_risk":3,"arthritis_risk":5,"migraine_risk":7,"frizz_risk":1,"updated_at":"2026-02-27T00:27:10.736484+05:30"},{"city":"Mangalore","state":"Karnataka","latitude":12.9141,"longitude":74.856,"temp":28.6,"humidity":77,"rain":0.0,"pressure":1006.4,"uv_index":8.5,"aqi":87,"mosquito_risk":7,"arthritis_risk":5,"migraine_risk":4,"frizz_risk":1,"updated_at":"2026-02-27T00:27:10.736490+05:30"},{"city":"Hubli-Dharwad","state":"Karnataka","latitude":15.3647,"longitude":75.124,"temp":23.1,"humidity":51,"rain":0.0,"pressure":940.0,"uv_index":8.4,"aqi":55,"mosquito_risk":0,"arthritis_risk":5,"migraine_risk":7,"frizz_risk":0,"updated_at":"2026-02-27T00:27:10.736497+05:30"},{"city":"Belgaum","state":"Karnataka","latitude":15.8497,"longitude":74.4977,"temp":20.8,"humidity":55,"rain":0.0,"pressure":924.6,"uv_index":8.45,"aqi":51,"mosquito_risk":0,"arthritis_risk":5,"migraine_risk":7,"frizz_risk":0,"updated_at":"2026-02-27T00:27:13.991404+05:30"},{"city":"Coimbatore","state":"Tamil Nadu","latitude":11.0168,"longitude":76.9558,"temp":22.9,"humidity":84,"rain":0.0,"pressure":962.2,"uv_index":8.9,"aqi":100,"mosquito_risk":3,"arthritis_risk":5,"migraine_risk":7,"frizz_risk":1,"updated_at":"2026-02-27T00:27:13.991437+05:30"},{"city":"Madurai","state":"Tamil Nadu","latitude":9.9252,"longitude":78.1198,"temp":23.9,"humidity":88,"rain":0.0,"pressure":994.5,"uv_index":8.0,"aqi":102,"mosquito_risk":3,"arthritis_risk":5,"migraine_risk":7,"frizz_risk":1,"updated_at":"2026-02-27T00:27:13.991449+05:30"},{"city":"Trichy","state":"Tamil Nadu","latitude":10.7905,"longitude":78.7047,"temp":25.2,"humidity":90,"rain":0.0,"pressure":1000.8,"uv_index":7.25,"aqi":104,"mosquito_risk":7,"arthritis_risk":5,"migraine_risk":4,"frizz_risk":1,"updated_at":"2026-02-27T00:27:13.991459+05:30"},{"city":"Salem","state":"Tamil Nadu","latitude":11.6643,"longitude":78.146,"temp":25.0,"humidity":77,"rain":0.0,"pressure":977.9,"uv_index":8.7,"aqi":122,"mosquito_risk":7,"arthritis_risk":5,"migraine_risk":7,"frizz_risk":1,"updated_at":"2026-02-27T00:27:13.991468+05:30"},{"city":"Tirunelveli","state":"Tamil Nadu","latitude":8.7139,"longitude":77.7567,"temp":24.6,"humidity":91,"rain":0.0,"pressure":1004.3,"uv_index":8.95,"aqi":84,"mosquito_risk":3,"arthritis_risk":5,"migraine_risk":4,"frizz_risk":1,"updated_at":"2026-02-27T00:27:13.991477+05:30"},{"city":"Vellore","state":"Tamil Nadu","latitude":12.9165,"longitude":79.1325,"temp":22.9,"humidity":79,"rain":0.0,"pressure":985.5,"uv_index":8.6,"aqi":113,"mosquito_risk":3,"arthritis_risk":5,"migraine_risk":7,"frizz_risk":1,"updated_at":"2026-02-27T00:27:13.991485+05:30"},{"city":"Erode","state":"Tamil Nadu","latitude":11.341,"longitude":77.7172,"temp":25.8,"humidity":77,"rain":0.0,"pressure":989.8,"uv_index":7.95,"aqi":121,"mosquito_risk":7,"arthritis_risk":5,"migraine_risk":7,"frizz_risk":1,"updated_at":"2026-02-27T00:27:13.991494+05:30"},{"city":"Kochi","state":"Kerala","latitude":9.9312,"longitude":76.2673,"temp":27.8,"humidity":80,"rain":0.0,"pressure":1008.7,"uv_index":8.7,"aqi":80,"mosquito_risk":7,"arthritis_risk":0,"migraine_risk":4,"frizz_risk":1,"updated_at":"2026-02-27T00:27:13.991503+05:30"},{"city":"Thiruvananthapuram","state":"Kerala","latitude":8.5241,"longitude":76.9366,"temp":27.5,"humidity":82,"rain":0.0,"pressure":1008.3,"uv_index":8.75,"aqi":81,"mosquito_risk":7,"arthritis_risk":0,"migraine_risk":4,"frizz_risk":1,"updated_at":"2026-02-27T00:27:13.991510+05:30"},{"city":"Kozhikode","state":"Kerala","latitude":11.2588,"longitude":75.7804,"temp":29.0,"humidity":74,"rain":0.0,"pressure":1007.4,"uv_index":8.6,"aqi":99,"mosquito_risk":7,"arthritis_risk":5,"migraine_risk":4,"frizz_risk":1,"updated_at":"2026-02-27T00:27:13.991517+05:30"},{"city":"Thrissur","state":"Kerala","latitude":10.5276,"longitude":76.2144,"temp":25.8,"humidity":88,"rain":0.0,"pressure":1006.9,"uv_index":8.7,"aqi":91,"mosquito_risk":7,"arthritis_risk":5,"migraine_risk":4,"frizz_risk":1,"updated_at":"2026-02-27T00:27:13.991525+05:30"},{"city":"Kannur","state":"Kerala","latitude":11.8745,"longitude":75.3704,"temp":27.4,"humidity":80,"rain":0.0,"pressure":1006.8,"uv_index":8.6,"aqi":90,"mosquito_risk":7,"arthritis_risk":5,"migraine_risk":4,"frizz_risk":1,"updated_at":"2026-02-27T00:27:13.991532+05:30"},{"city":"Patna","state":"Bihar","latitude":25.5941,"longitude":85.1376,"temp":19.2,"humidity":62,"rain":0.0,"pressure":1001.7,"uv_index":6.85,"aqi":153,"mosquito_risk":3,"arthritis_risk":5,"migraine_risk":4,"frizz_risk":0,"updated_at":"2026-02-27T00:27:13.991539+05:30"},{"city":"Gaya","state":"Bihar","latitude":24.7914,"longitude":85.0002,"temp":18.4,"humidity":55,"rain":0.0,"pressure":995.3,"uv_index":6.95,"aqi":130,"mosquito_risk":0,"arthritis_risk":5,"migraine_risk":7,"frizz_risk":0,"updated_at":"2026-02-27T00:27:13.991546+05:30"},{"city":"Muzaffarpur","state":"Bihar","latitude":26.1209,"longitude":85.3647,"temp":17.4,"humidity":66,"rain":0.0,"pressure":1001.5,"uv_index":6.8,"aqi":156,"mosquito_risk":3,"arthritis_risk":5,"migraine_risk":4,"frizz_risk":0,"updated_at":"2026-02-27T00:27:13.991552+05:30"},{"city":"Bhagalpur","state":"Bihar","latitude":25.2425,"longitude":87.0117,"temp":20.5,"humidity":55,"rain":0.0,"pressure":1002.3,"uv_index":6.9,"aqi":149,"mosquito_risk":0,"arthritis_risk":5,"migraine_risk":4,"frizz_risk":0,"updated_at":"2026-02-27T00:27:13.991558+05:30"},{"city":"Ranchi","state":"Jharkhand","latitude":23.3441,"longitude":85.3096,"temp":17.5,"humidity":45,"rain":0.0,"pressure":937.7,"uv_index":7.6,"aqi":91,"mosquito_risk":0,"arthritis_risk":5,"migraine_risk":7,"frizz_risk":0,"updated_at":"2026-02-27T00:27:13.991563+05:30"},{"city":"Jamshedpur","state":"Jharkhand","latitude":22.8046,"longitude":86.2029,"temp":18.3,"humidity":69,"rain":0.0,"pressure":991.7,"uv_index":7.5,"aqi":141,"mosquito_risk":3,"arthritis_risk":5,"migraine_risk":7,"frizz_risk":0,"updated_at":"2026-02-27T00:27:13.991569+05:30"},{"city":"Dhanbad","state":"Jharkhand","latitude":23.7957,"longitude":86.4304,"temp":18.0,"humidity":48,"rain":0.0,"pressure":980.6,"uv_index":7.35,"aqi":139,"mosquito_risk":0,"arthritis_risk":5,"migraine_risk":7,"frizz_risk":0,"updated_at":"2026-02-27T00:27:13.991574+05:30"},{"city":"Bokaro","state":"Jharkhand","latitude":23.6693,"longitude":86.1511,"temp":19.1,"humidity":45,"rain":0.0,"pressure":985.1,"uv_index":7.4,"aqi":142,"mosquito_risk":0,"arthritis_risk":5,"migraine_risk":7,"frizz_risk":0,"updated_at":"2026-02-27T00:27:13.991580+05:30"},{"city":"Bhubaneswar","state":"Odisha","latitude":20.2961,"longitude":85.8245,"temp":23.2,"humidity":94,"rain":0.0,"pressure":1003.7,"uv_index":7.8,"aqi":123,"mosquito_risk":3,"arthritis_risk":5,"migraine_risk":4,"frizz_risk":1,"updated_at":"2026-02-27T00:27:13.991585+05:30"},{"city":"Cuttack","state":"Odisha","latitude":20.4625,"longitude":85.8828,"temp":22.6,"humidity":94,"rain":0.0,"pressure":1005.7,"uv_index":7.85,"aqi":123,"mosquito_risk":3,"arthritis_risk":5,"migraine_risk":4,"frizz_risk":1,"updated_at":"2026-02-27T00:27:13.991591+05:30"},{"city":"Rourkela","state":"Odisha","latitude":22.2604,"longitude":84.8536,"temp":20.7,"humidity":53,"rain":0.0,"pressure":986.2,"uv_index":7.4,"aqi":91,"mosquito_risk":0,"arthritis_risk":5,"migraine_risk":7,"frizz_risk":0,"updated_at":"2026-02-27T00:27:13.991596+05:30"},{"city":"Raipur","state":"Chhattisgarh","latitude":21.2514,"longitude":81.6296,"temp":21.4,"humidity":53,"rain":0.0,"pressure":974.9,"uv_index":7.5,"aqi":133,"mosquito_risk":0,"arthritis_risk":5,"migraine_risk":7,"frizz_risk":0,"updated_at":"2026-02-27T00:27:13.991602+05:30"},{"city":"Bhilai","state":"Chhattisgarh","latitude":21.1938,"longitude":81.3509,"temp":22.3,"humidity":44,"rain":0.0,"pressure":975.3,"uv_index":7.5,"aqi":133,"mosquito_risk":0,"arthritis_risk":5,"migraine_risk":7,"frizz_risk":0,"updated_at":"2026-02-27T00:27:13.991607+05:30"},{"city":"Guwahati","state":"Assam","latitude":26.1158,"longitude":91.7086,"temp":19.5,"humidity":85,"rain":0.0,"pressure":1001.7,"uv_index":6.8,"aqi":150,"mosquito_risk":3,"arthritis_risk":10,"migraine_risk":4,"frizz_risk":1,"updated_at":"2026-02-27T00:27:13.991613+05:30"},{"city":"Agartala","state":"Tripura","latitude":23.8315,"longitude":91.2868,"temp":19.4,"humidity":62,"rain":0.0,"pressure":1006.6,"uv_index":7.2,"aqi":171,"mosquito_risk":3,"arthritis_risk":5,"migraine_risk":4,"frizz_risk":0,"updated_at":"2026-02-27T00:27:13.991619+05:30"},{"city":"Shillong","state":"Meghalaya","latitude":25.5788,"longitude":91.8933,"temp":7.4,"humidity":90,"rain":0.0,"pressure":851.8,"uv_index":4.7,"aqi":132,"mosquito_risk":3,"arthritis_risk":10,"migraine_risk":3,"frizz_risk":0,"updated_at":"2026-02-27T00:27:13.991625+05:30"},{"city":"Imphal","state":"Manipur","latitude":24.817,"longitude":93.9368,"temp":13.2,"humidity":78,"rain":0.0,"pressure":921.5,"uv_index":7.4,"aqi":151,"mosquito_risk":3,"arthritis_risk":5,"migraine_risk":7,"frizz_risk":0,"updated_at":"2026-02-27T00:27:13.991631+05:30"},{"city":"Aizawl","state":"Mizoram","latitude":23.7271,"longitude":92.7176,"temp":15.3,"humidity":70,"rain":0.0,"pressure":890.9,"uv_index":7.35,"aqi":153,"mosquito_risk":3,"arthritis_risk":5,"migraine_risk":7,"frizz_risk":0,"updated_at":"2026-02-27T00:27:13.991636+05:30"},{"city":"Kohima","state":"Nagaland","latitude":25.6701,"longitude":94.1077,"temp":11.0,"humidity":78,"rain":0.0,"pressure":851.8,"uv_index":7.25,"aqi":150,"mosquito_risk":3,"arthritis_risk":5,"migraine_risk":7,"frizz_risk":0,"updated_at":"2026-02-27T00:27:13.991642+05:30"},{"city":"Gangtok","state":"Sikkim","latitude":27.3314,"longitude":88.6138,"temp":10.6,"humidity":82,"rain":0.1,"pressure":833.8,"uv_index":5.05,"aqi":151,"mosquito_risk":6,"arthritis_risk":10,"migraine_risk":3,"frizz_risk":0,"updated_at":"2026-02-27T00:27:13.991648+05:30"},{"city":"Siliguri","state":"West Bengal","latitude":26.7271,"longitude":88.3953,"temp":18.7,"humidity":63,"rain":0.0,"pressure":994.2,"uv_index":6.85,"aqi":160,"mosquito_risk":3,"arthritis_risk":5,"migraine_risk":7,"frizz_risk":0,"updated_at":"2026-02-27T00:27:17.246666+05:30"},{"city":"Durgapur","state":"West Bengal","latitude":23.5204,"longitude":87.3119,"temp":21.5,"humidity":48,"rain":0.0,"pressure":996.0,"uv_index":7.35,"aqi":131,"mosquito_risk":0,"arthritis_risk":5,"migraine_risk":7,"frizz_risk":0,"updated_at":"2026-02-27T00:27:17.246698+05:30"},{"city":"Asansol","state":"West Bengal","latitude":23.6739,"longitude":86.9524,"temp":22.0,"humidity":40,"rain":0.0,"pressure":994.5,"uv_index":7.35,"aqi":118,"mosquito_risk":0,"arthritis_risk":5,"migraine_risk":7,"frizz_risk":0,"updated_at":"2026-02-27T00:27:17.246708+05:30"},{"city":"Pondicherry","state":"Puducherry","latitude":11.9139,"longitude":79.8145,"temp":23.9,"humidity":92,"rain":0.0,"pressure":1009.4,"uv_index":8.6,"aqi":81,"mosquito_risk":3,"arthritis_risk":0,"migraine_risk":4,"frizz_risk":1,"updated_at":"2026-02-27T00:27:17.246716+05:30"},{"city":"Port Blair","state":"Andaman and Nicobar Islands","latitude":11.6234,"longitude":92.7265,"temp":26.5,"humidity":86,"rain":0.0,"pressure":1006.0,"uv_index":8.65,"aqi":32,"mosquito_risk":7,"arthritis_risk":5,"migraine_risk":4,"frizz_risk":1,"updated_at":"2026-02-27T00:27:17.246723+05:30"},{"city":"Haridwar","state":"Uttarakhand","latitude":29.9457,"longitude":78.1642,"temp":17.2,"humidity":78,"rain":0.0,"pressure":974.5,"uv_index":5.3,"aqi":153,"mosquito_risk":3,"arthritis_risk":5,"migraine_risk":3,"frizz_risk":0,"updated_at":"2026-02-27T00:27:17.246731+05:30"},{"city":"Rishikesh","state":"Uttarakhand","latitude":30.0869,"longitude":78.2676,"temp":15.7,"humidity":82,"rain":0.0,"pressure":967.0,"uv_index":5.35,"aqi":126,"mosquito_risk":3,"arthritis_risk":10,"migraine_risk":3,"frizz_risk":0,"updated_at":"2026-02-27T00:27:17.246738+05:30"},{"city":"Nainital","state":"Uttarakhand","latitude":29.3919,"longitude":79.4542,"temp":13.3,"humidity":70,"rain":0.0,"pressure":803.1,"uv_index":6.15,"aqi":127,"mosquito_risk":3,"arthritis_risk":5,"migraine_risk":7,"frizz_risk":0,"updated_at":"2026-02-27T00:27:17.246745+05:30"},{"city":"Mussoorie","state":"Uttarakhand","latitude":30.4599,"longitude":78.0664,"temp":11.5,"humidity":77,"rain":0.0,"pressure":799.2,"uv_index":5.7,"aqi":130,"mosquito_risk":3,"arthritis_risk":5,"migraine_risk":3,"frizz_risk":0,"updated_at":"2026-02-27T00:27:17.246753+05:30"},{"city":"Dharamshala","state":"Himachal Pradesh","latitude":32.219,"longitude":76.3234,"temp":15.2,"humidity":52,"rain":0.0,"pressure":867.2,"uv_index":5.95,"aqi":120,"mosquito_risk":0,"arthritis_risk":5,"migraine_risk":3,"frizz_risk":0,"updated_at":"2026-02-27T00:27:17.246759+05:30"},{"city":"Dalhousie","state":"Himachal Pradesh","latitude":32.5387,"longitude":75.971,"temp":11.9,"humidity":60,"rain":0.0,"pressure":800.9,"uv_index":6.15,"aqi":117,"mosquito_risk":0,"arthritis_risk":5,"migraine_risk":7,"frizz_risk":0,"updated_at":"2026-02-27T00:27:17.246767+05:30"},{"city":"Patiala","state":"Punjab","latitude":30.3398,"longitude":76.3869,"temp":16.7,"humidity":90,"rain":0.0,"pressure":978.9,"uv_index":5.35,"aqi":164,"mosquito_risk":3,"arthritis_risk":10,"migraine_risk":3,"frizz_risk":0,"updated_at":"2026-02-27T00:27:17.246774+05:30"},{"city":"Bhatinda","state":"Punjab","latitude":30.211,"longitude":74.9455,"temp":17.4,"humidity":77,"rain":0.0,"pressure":984.0,"uv_index":6.05,"aqi":160,"mosquito_risk":3,"arthritis_risk":5,"migraine_risk":7,"frizz_risk":0,"updated_at":"2026-02-27T00:27:17.246781+05:30"},{"city":"Rohtak","state":"Haryana","latitude":28.8955,"longitude":76.6066,"temp":16.2,"humidity":81,"rain":0.0,"pressure":982.3,"uv_index":5.55,"aqi":157,"mosquito_risk":3,"arthritis_risk":10,"migraine_risk":3,"frizz_risk":0,"updated_at":"2026-02-27T00:27:17.246788+05:30"},{"city":"Panipat","state":"Haryana","latitude":29.3909,"longitude":76.9635,"temp":16.3,"humidity":88,"rain":0.0,"pressure":981.1,"uv_index":5.35,"aqi":167,"mosquito_risk":3,"arthritis_risk":10,"migraine_risk":3,"frizz_risk":0,"updated_at":"2026-02-27T00:27:17.246794+05:30"},{"city":"Mathura","state":"Uttar Pradesh","latitude":27.4924,"longitude":77.6737,"temp":18.9,"humidity":49,"rain":0.0,"pressure":987.7,"uv_index":5.8,"aqi":153,"mosquito_risk":0,"arthritis_risk":5,"migraine_risk":3,"frizz_risk":0,"updated_at":"2026-02-27T00:27:17.246801+05:30"},{"city":"Vrindavan","state":"Uttar Pradesh","latitude":27.5823,"longitude":77.7027,"temp":17.0,"humidity":55,"rain":0.0,"pressure":988.2,"uv_index":5.75,"aqi":153,"mosquito_risk":0,"arthritis_risk":5,"migraine_risk":3,"frizz_risk":0,"updated_at":"2026-02-27T00:27:17.246808+05:30"},{"city":"Ayodhya","state":"Uttar Pradesh","latitude":26.7922,"longitude":82.1998,"temp":17.2,"humidity":69,"rain":0.0,"pressure":996.4,"uv_index":6.15,"aqi":146,"mosquito_risk":3,"arthritis_risk":5,"migraine_risk":7,"frizz_risk":0,"updated_at":"2026-02-27T00:27:17.246815+05:30"},{"city":"Ratlam","state":"Madhya Pradesh","latitude":23.3315,"longitude":75.0367,"temp":20.9,"humidity":57,"rain":0.0,"pressure":953.9,"uv_index":7.1,"aqi":89,"mosquito_risk":0,"arthritis_risk":5,"migraine_risk":7,"frizz_risk":0,"updated_at":"2026-02-27T00:27:17.246822+05:30"},{"city":"Sagar","state":"Madhya Pradesh","latitude":23.8388,"longitude":78.7378,"temp":22.7,"humidity":47,"rain":0.0,"pressure":950.2,"uv_index":7.0,"aqi":58,"mosquito_risk":0,"arthritis_risk":5,"migraine_risk":7,"frizz_risk":0,"updated_at":"2026-02-27T00:27:17.246828+05:30"},{"city":"Satna","state":"Madhya Pradesh","latitude":24.6005,"longitude":80.8322,"temp":20.1,"humidity":48,"rain":0.0,"pressure":972.0,"uv_index":6.95,"aqi":73,"mosquito_risk":0,"arthritis_risk":5,"migraine_risk":7,"frizz_risk":0,"updated_at":"2026-02-27T00:27:17.246835+05:30"},{"city":"Akola","state":"Maharashtra","latitude":20.7002,"longitude":77.0082,"temp":24.9,"humidity":54,"rain":0.0,"pressure":974.4,"uv_index":7.5,"aqi":127,"mosquito_risk":0,"arthritis_risk":5,"migraine_risk":7,"frizz_risk":0,"updated_at":"2026-02-27T00:27:17.246842+05:30"},{"city":"Amravati","state":"Maharashtra","latitude":20.9374,"longitude":77.7796,"temp":24.2,"humidity":50,"rain":0.0,"pressure":966.7,"uv_index":7.45,"aqi":124,"mosquito_risk":0,"arthritis_risk":5,"migraine_risk":7,"frizz_risk":0,"updated_at":"2026-02-27T00:27:17.246849+05:30"},{"city":"Latur","state":"Maharashtra","latitude":18.4088,"longitude":76.5604,"temp":22.1,"humidity":61,"rain":0.0,"pressure":938.8,"uv_index":7.9,"aqi":114,"mosquito_risk":3,"arthritis_risk":5,"migraine_risk":7,"frizz_risk":0,"updated_at":"2026-02-27T00:27:17.246856+05:30"},{"city":"Nanded","state":"Maharashtra","latitude":19.1383,"longitude":77.3091,"temp":23.9,"humidity":63,"rain":0.0,"pressure":967.8,"uv_index":7.7,"aqi":153,"mosquito_risk":3,"arthritis_risk":5,"migraine_risk":7,"frizz_risk":1,"updated_at":"2026-02-27T00:27:17.246863+05:30"},{"city":"Gulbarga","state":"Karnataka","latitude":17.3297,"longitude":76.8343,"temp":24.3,"humidity":53,"rain":0.0,"pressure":958.0,"uv_index":8.0,"aqi":119,"mosquito_risk":0,"arthritis_risk":5,"migraine_risk":7,"frizz_risk":0,"updated_at":"2026-02-27T00:27:17.246869+05:30"},{"city":"Bidar","state":"Karnataka","latitude":17.9104,"longitude":77.5199,"temp":23.6,"humidity":61,"rain":0.0,"pressure":934.7,"uv_index":7.95,"aqi":151,"mosquito_risk":3,"arthritis_risk":5,"migraine_risk":7,"frizz_risk":0,"updated_at":"2026-02-27T00:27:17.246876+05:30"},{"city":"Hospet","state":"Karnataka","latitude":15.2689,"longitude":76.3909,"temp":25.6,"humidity":53,"rain":0.0,"pressure":955.0,"uv_index":8.35,"aqi":126,"mosquito_risk":4,"arthritis_risk":5,"migraine_risk":7,"frizz_risk":0,"updated_at":"2026-02-27T00:27:17.246883+05:30"},{"city":"Tirupur","state":"Tamil Nadu","latitude":11.1085,"longitude":77.3411,"temp":25.0,"humidity":79,"rain":0.0,"pressure":975.8,"uv_index":8.0,"aqi":124,"mosquito_risk":7,"arthritis_risk":5,"migraine_risk":7,"frizz_risk":1,"updated_at":"2026-02-27T00:27:17.246890+05:30"},{"city":"Alappuzha","state":"Kerala","latitude":9.4981,"longitude":76.3388,"temp":27.4,"humidity":84,"rain":0.0,"pressure":1008.9,"uv_index":8.8,"aqi":76,"mosquito_risk":7,"arthritis_risk":0,"migraine_risk":4,"frizz_risk":1,"updated_at":"2026-02-27T00:27:17.246896+05:30"},{"city":"Munnar","state":"Kerala","latitude":10.0889,"longitude":77.0595,"temp":18.9,"humidity":90,"rain":0.0,"pressure":855.8,"uv_index":7.5,"aqi":75,"mosquito_risk":3,"arthritis_risk":10,"migraine_risk":7,"frizz_risk":1,"updated_at":"2026-02-27T00:27:17.246903+05:30"},{"city":"Silchar","state":"Assam","latitude":24.8333,"longitude":92.7789,"temp":17.9,"humidity":71,"rain":0.0,"pressure":1005.4,"uv_index":7.15,"aqi":159,"mosquito_risk":3,"arthritis_risk":5,"migraine_risk":4,"frizz_risk":0,"updated_at":"2026-02-27T00:27:17.246910+05:30"},{"city":"Dibrugarh","state":"Assam","latitude":27.4728,"longitude":94.912,"temp":20.8,"humidity":77,"rain":0.0,"pressure":996.0,"uv_index":6.9,"aqi":126,"mosquito_risk":3,"arthritis_risk":5,"migraine_risk":7,"frizz_risk":1,"updated_at":"2026-02-27T00:27:17.246917+05:30"}]