[{"city":"Delhi","state":"Delhi","latitude":28.6139,"longitude":77.209,"temp":33.1,"humidity":44,"rain":0.0,"pressure":980.0,"uv_index":7.8,"wind_gusts":37.1,"aqi":381,"pm10":590.5,"pm2_5":142.0,"no2":45.3,"co":464.0,"o3":45.0,"so2":18.9,"mosquito_risk":0,"arthritis_risk":5,"migraine_risk":7,"frizz_risk":1,"updated_at":"2026-06-20T00:27:04.864347+05:30"},{"city":"Mumbai","state":"Maharashtra","latitude":19.076,"longitude":72.8777,"temp":29.9,"humidity":66,"rain":0.0,"pressure":1009.0,"uv_index":7.7,"wind_gusts":45.0,"aqi":56,"pm10":26.1,"pm2_5":13.4,"no2":8.2,"co":170.0,"o3":43.0,"so2":6.9,"mosquito_risk":7,"arthritis_risk":0,"migraine_risk":4,"frizz_risk":1,"updated_at":"2026-06-20T00:27:04.864400+05:30"},{"city":"Bangalore","state":"Karnataka","latitude":12.9716,"longitude":77.5946,"temp":21.4,"humidity":93,"rain":0.0,"pressure":912.6,"uv_index":6.65,"wind_gusts":29.2,"aqi":58,"pm10":29.3,"pm2_5":26.4,"no2":41.4,"co":1412.0,"o3":35.0,"so2":11.2,"mosquito_risk":3,"arthritis_risk":5,"migraine_risk":7,"frizz_risk":1,"updated_at":"2026-06-20T00:27:04.864416+05:30"},{"city":"Hyderabad","state":"Telangana","latitude":17.385,"longitude":78.4867,"temp":28.6,"humidity":68,"rain":0.0,"pressure":952.7,"uv_index":8.8,"wind_gusts":37.4,"aqi":73,"pm10":59.6,"pm2_5":51.9,"no2":52.0,"co":676.0,"o3":21.0,"so2":14.8,"mosquito_risk":7,"arthritis_risk":5,"migraine_risk":7,"frizz_risk":1,"updated_at":"2026-06-20T00:27:04.864427+05:30"},{"city":"Chennai","state":"Tamil Nadu","latitude":13.0827,"longitude":80.2707,"temp":28.7,"humidity":79,"rain":0.0,"pressure":1007.8,"uv_index":7.6,"wind_gusts":36.4,"aqi":116,"pm10":29.6,"pm2_5":23.5,"no2":10.7,"co":368.0,"o3":123.0,"so2":9.6,"mosquito_risk":7,"arthritis_risk":5,"migraine_risk":4,"frizz_risk":1,"updated_at":"2026-06-20T00:27:04.864435+05:30"},{"city":"Kolkata","state":"West Bengal","latitude":22.5726,"longitude":88.3639,"temp":26.9,"humidity":89,"rain":0.0,"pressure":1003.9,"uv_index":9.0,"wind_gusts":27.4,"aqi":107,"pm10":39.0,"pm2_5":36.2,"no2":12.2,"co":520.0,"o3":91.0,"so2":9.3,"mosquito_risk":7,"arthritis_risk":5,"migraine_risk":4,"frizz_risk":1,"updated_at":"2026-06-20T00:27:04.864444+05:30"},{"city":"Pune","state":"Maharashtra","latitude":18.5204,"longitude":73.8567,"temp":24.5,"humidity":79,"rain":0.0,"pressure":948.9,"uv_index":8.25,"wind_gusts":41.4,"aqi":48,"pm10":13.3,"pm2_5":8.7,"no2":7.3,"co":157.0,"o3":41.0,"so2":6.2,"mosquito_risk":3,"arthritis_risk":5,"migraine_risk":7,"frizz_risk":1,"updated_at":"2026-06-20T00:27:04.864451+05:30"},{"city":"Ahmedabad","state":"Gujarat","latitude":23.0225,"longitude":72.5714,"temp":30.1,"humidity":63,"rain":0.0,"pressure":1001.1,"uv_index":6.65,"wind_gusts":39.6,"aqi":67,"pm10":28.8,"pm2_5":18.2,"no2":9.6,"co":176.0,"o3":48.0,"so2":5.6,"mosquito_risk":3,"arthritis_risk":5,"migraine_risk":4,"frizz_risk":1,"updated_at":"2026-06-20T00:27:04.864459+05:30"},{"city":"Jaipur","state":"Rajasthan","latitude":26.9124,"longitude":75.7873,"temp":28.4,"humidity":60,"rain":0.0,"pressure":957.9,"uv_index":8.2,"wind_gusts":28.8,"aqi":120,"pm10":190.5,"pm2_5":52.3,"no2":11.9,"co":210.0,"o3":52.0,"so2":5.0,"mosquito_risk":4,"arthritis_risk":5,"migraine_risk":7,"frizz_risk":1,"updated_at":"2026-06-20T00:27:04.864467+05:30"},{"city":"Lucknow","state":"Uttar Pradesh","latitude":26.8467,"longitude":80.9462,"temp":33.0,"humidity":47,"rain":0.0,"pressure":989.5,"uv_index":8.35,"wind_gusts":47.5,"aqi":158,"pm10":328.8,"pm2_5":91.5,"no2":16.8,"co":237.0,"o3":77.0,"so2":9.7,"mosquito_risk":0,"arthritis_risk":5,"migraine_risk":7,"frizz_risk":1,"updated_at":"2026-06-20T00:27:04.864478+05:30"},{"city":"Kanpur","state":"Uttar Pradesh","latitude":26.4499,"longitude":80.3319,"temp":34.0,"humidity":42,"rain":0.0,"pressure":988.3,"uv_index":8.3,"wind_gusts":40.3,"aqi":156,"pm10":454.5,"pm2_5":99.0,"no2":18.3,"co":253.0,"o3":59.0,"so2":7.3,"mosquito_risk":0,"arthritis_risk":5,"migraine_risk":7,"frizz_risk":1,"updated_at":"2026-06-20T00:27:04.864487+05:30"},{"city":"Chandigarh","state":"Chandigarh","latitude":30.7333,"longitude":76.7794,"temp":27.0,"humidity":74,"rain":0.0,"pressure":965.7,"uv_index":7.8,"wind_gusts":29.5,"aqi":125,"pm10":54.5,"pm2_5":48.5,"no2":26.4,"co":813.0,"o3":88.0,"so2":13.9,"mosquito_risk":7,"arthritis_risk":5,"migraine_risk":7,"frizz_risk":1,"updated_at":"2026-06-20T00:27:04.864494+05:30"},{"city":"Srinagar","state":"Jammu and Kashmir","latitude":34.0837,"longitude":74.7973,"temp":16.7,"humidity":91,"rain":0.0,"pressure":842.1,"uv_index":7.7,"wind_gusts":31.3,"aqi":72,"pm10":25.6,"pm2_5":24.7,"no2":32.6,"co":1083.0,"o3":26.0,"so2":2.3,"mosquito_risk":3,"arthritis_risk":10,"migraine_risk":7,"frizz_risk":0,"updated_at":"2026-06-20T00:27:04.864502+05:30"},{"city":"Jammu","state":"Jammu and Kashmir","latitude":32.7266,"longitude":74.857,"temp":26.5,"humidity":71,"rain":0.0,"pressure":969.6,"uv_index":8.6,"wind_gusts":60.8,"aqi":95,"pm10":65.4,"pm2_5":54.2,"no2":60.6,"co":751.0,"o3":35.0,"so2":8.9,"mosquito_risk":7,"arthritis_risk":5,"migraine_risk":7,"frizz_risk":1,"updated_at":"2026-06-20T00:27:04.864510+05:30"},{"city":"Amritsar","state":"Punjab","latitude":31.634,"longitude":74.8723,"temp":27.0,"humidity":78,"rain":0.0,"pressure":977.5,"uv_index":8.4,"wind_gusts":29.5,"aqi":122,"pm10":59.6,"pm2_5":48.0,"no2":33.8,"co":644.0,"o3":66.0,"so2":12.6,"mosquito_risk":7,"arthritis_risk":5,"migraine_risk":7,"frizz_risk":1,"updated_at":"2026-06-20T00:27:04.864518+05:30"},{"city":"Ludhiana","state":"Punjab","latitude":30.901,"longitude":75.8573,"temp":28.0,"humidity":73,"rain":0.0,"pressure":975.6,"uv_index":8.05,"wind_gusts":26.3,"aqi":151,"pm10":109.0,"pm2_5":56.5,"no2":20.9,"co":731.0,"o3":72.0,"so2":7.2,"mosquito_risk":7,"arthritis_risk":5,"migraine_risk":7,"frizz_risk":1,"updated_at":"2026-06-20T00:27:04.864525+05:30"},{"city":"Jalandhar","state":"Punjab","latitude":31.326,"longitude":75.5762,"temp":27.7,"humidity":75,"rain":0.0,"pressure":976.5,"uv_index":8.25,"wind_gusts":28.1,"aqi":151,"pm10":108.3,"pm2_5":57.0,"no2":23.2,"co":964.0,"o3":75.0,"so2":8.9,"mosquito_risk":7,"arthritis_risk":5,"migraine_risk":7,"frizz_risk":1,"updated_at":"2026-06-20T00:27:04.864532+05:30"},{"city":"Dehradun","state":"Uttarakhand","latitude":30.6284,"longitude":78.0322,"temp":17.1,"humidity":92,"rain":0.0,"pressure":828.8,"uv_index":7.7,"wind_gusts":30.2,"aqi":72,"pm10":31.1,"pm2_5":24.3,"no2":33.7,"co":223.0,"o3":51.0,"so2":1.3,"mosquito_risk":3,"arthritis_risk":10,"migraine_risk":7,"frizz_risk":0,"updated_at":"2026-06-20T00:27:04.864540+05:30"},{"city":"Shimla","state":"Himachal Pradesh","latitude":31.1048,"longitude":77.1734,"temp":12.7,"humidity":96,"rain":0.0,"pressure":781.6,"uv_index":7.75,"wind_gusts":28.4,"aqi":101,"pm10":62.9,"pm2_5":47.3,"no2":22.1,"co":343.0,"o3":89.0,"so2":5.4,"mosquito_risk":3,"arthritis_risk":10,"migraine_risk":7,"frizz_risk":0,"updated_at":"2026-06-20T00:27:04.864551+05:30"},{"city":"Manali","state":"Himachal Pradesh","latitude":32.2396,"longitude":77.1887,"temp":15.7,"humidity":87,"rain":0.0,"pressure":817.9,"uv_index":9.45,"wind_gusts":38.9,"aqi":46,"pm10":5.8,"pm2_5":5.6,"no2":30.1,"co":386.0,"o3":97.0,"so2":0.0,"mosquito_risk":3,"arthritis_risk":10,"migraine_risk":7,"frizz_risk":0,"updated_at":"2026-06-20T00:27:04.864559+05:30"},{"city":"Gurgaon","state":"Haryana","latitude":28.4595,"longitude":77.0266,"temp":30.4,"humidity":59,"rain":0.0,"pressure":978.4,"uv_index":7.9,"wind_gusts":32.0,"aqi":504,"pm10":337.1,"pm2_5":105.5,"no2":56.4,"co":1160.0,"o3":30.0,"so2":18.5,"mosquito_risk":0,"arthritis_risk":5,"migraine_risk":7,"frizz_risk":1,"updated_at":"2026-06-20T00:27:04.864567+05:30"},{"city":"Noida","state":"Uttar Pradesh","latitude":28.5355,"longitude":77.391,"temp":31.4,"humidity":55,"rain":0.0,"pressure":981.2,"uv_index":7.85,"wind_gusts":28.4,"aqi":504,"pm10":337.1,"pm2_5":105.5,"no2":56.4,"co":873.0,"o3":30.0,"so2":18.5,"mosquito_risk":0,"arthritis_risk":5,"migraine_risk":7,"frizz_risk":1,"updated_at":"2026-06-20T00:27:04.864574+05:30"},{"city":"Ghaziabad","state":"Uttar Pradesh","latitude":28.6692,"longitude":77.4538,"temp":29.9,"humidity":59,"rain":0.0,"pressure":979.4,"uv_index":7.8,"wind_gusts":25.6,"aqi":252,"pm10":532.7,"pm2_5":136.4,"no2":39.2,"co":465.0,"o3":59.0,"so2":21.6,"mosquito_risk":4,"arthritis_risk":5,"migraine_risk":7,"frizz_risk":1,"updated_at":"2026-06-20T00:27:04.864581+05:30"},{"city":"Faridabad","state":"Haryana","latitude":28.4089,"longitude":77.3178,"temp":32.6,"humidity":48,"rain":0.0,"pressure":980.6,"uv_index":7.9,"wind_gusts":35.6,"aqi":504,"pm10":337.1,"pm2_5":105.5,"no2":56.4,"co":973.0,"o3":30.0,"so2":18.5,"mosquito_risk":0,"arthritis_risk":5,"migraine_risk":7,"frizz_risk":1,"updated_at":"2026-06-20T00:27:04.864588+05:30"},{"city":"Meerut","state":"Uttar Pradesh","latitude":28.9845,"longitude":77.7064,"temp":29.4,"humidity":64,"rain":0.0,"pressure":978.4,"uv_index":7.75,"wind_gusts":31.7,"aqi":252,"pm10":532.7,"pm2_5":136.4,"no2":39.2,"co":577.0,"o3":59.0,"so2":21.6,"mosquito_risk":7,"arthritis_risk":5,"migraine_risk":7,"frizz_risk":1,"updated_at":"2026-06-20T00:27:04.864595+05:30"},{"city":"Agra","state":"Uttar Pradesh","latitude":27.1767,"longitude":78.0081,"temp":31.8,"humidity":50,"rain":0.0,"pressure":985.0,"uv_index":8.15,"wind_gusts":37.8,"aqi":337,"pm10":651.9,"pm2_5":98.7,"no2":29.1,"co":329.0,"o3":41.0,"so2":8.6,"mosquito_risk":0,"arthritis_risk":5,"migraine_risk":7,"frizz_risk":1,"updated_at":"2026-06-20T00:27:04.864602+05:30"},{"city":"Varanasi","state":"Uttar Pradesh","latitude":25.3176,"longitude":82.9739,"temp":31.6,"humidity":62,"rain":0.0,"pressure":994.0,"uv_index":8.8,"wind_gusts":33.8,"aqi":103,"pm10":69.6,"pm2_5":46.2,"no2":24.8,"co":466.0,"o3":46.0,"so2":11.2,"mosquito_risk":3,"arthritis_risk":5,"migraine_risk":7,"frizz_risk":1,"updated_at":"2026-06-20T00:27:04.864610+05:30"},{"city":"Prayagraj","state":"Uttar Pradesh","latitude":25.4358,"longitude":81.8463,"temp":33.2,"humidity":51,"rain":0.0,"pressure":992.2,"uv_index":8.7,"wind_gusts":36.7,"aqi":108,"pm10":69.2,"pm2_5":43.8,"no2":21.3,"co":343.0,"o3":47.0,"so2":8.5,"mosquito_risk":0,"arthritis_risk":5,"migraine_risk":7,"frizz_risk":1,"updated_at":"2026-06-20T00:27:04.864618+05:30"},{"city":"Gorakhpur","state":"Uttar Pradesh","latitude":26.7606,"longitude":83.3732,"temp":29.1,"humidity":83,"rain":0.1,"pressure":993.5,"uv_index":8.7,"wind_gusts":29.9,"aqi":160,"pm10":139.7,"pm2_5":95.9,"no2":57.4,"co":625.0,"o3":45.0,"so2":23.8,"mosquito_risk":10,"arthritis_risk":5,"migraine_risk":7,"frizz_risk":1,"updated_at":"2026-06-20T00:27:04.864625+05:30"},{"city":"Bareilly","state":"Uttar Pradesh","latitude":28.367,"longitude":79.4304,"temp":30.3,"humidity":63,"rain":0.0,"pressure":983.1,"uv_index":8.15,"wind_gusts":32.4,"aqi":154,"pm10":181.6,"pm2_5":92.2,"no2":27.0,"co":413.0,"o3":80.0,"so2":15.8,"mosquito_risk":3,"arthritis_risk":5,"migraine_risk":7,"frizz_risk":1,"updated_at":"2026-06-20T00:27:04.864635+05:30"},{"city":"Aligarh","state":"Uttar Pradesh","latitude":27.8974,"longitude":78.088,"temp":30.7,"humidity":60,"rain":0.0,"pressure":982.3,"uv_index":8.0,"wind_gusts":35.3,"aqi":355,"pm10":444.2,"pm2_5":112.0,"no2":31.4,"co":564.0,"o3":50.0,"so2":9.2,"mosquito_risk":0,"arthritis_risk":5,"migraine_risk":7,"frizz_risk":1,"updated_at":"2026-06-20T00:27:04.864642+05:30"},{"city":"Moradabad","state":"Uttar Pradesh","latitude":28.8386,"longitude":78.7733,"temp":30.6,"humidity":63,"rain":0.0,"pressure":980.0,"uv_index":7.95,"wind_gusts":34.2,"aqi":162,"pm10":242.1,"pm2_5":135.5,"no2":56.8,"co":437.0,"o3":47.0,"so2":20.8,"mosquito_risk":3,"arthritis_risk":5,"migraine_risk":7,"frizz_risk":1,"updated_at":"2026-06-20T00:27:04.864652+05:30"},{"city":"Saharanpur","state":"Uttar Pradesh","latitude":29.9637,"longitude":77.546,"temp":28.4,"humidity":68,"rain":0.0,"pressure":972.6,"uv_index":7.55,"wind_gusts":27.0,"aqi":162,"pm10":322.2,"pm2_5":103.4,"no2":20.2,"co":517.0,"o3":85.0,"so2":11.2,"mosquito_risk":7,"arthritis_risk":5,"migraine_risk":7,"frizz_risk":1,"updated_at":"2026-06-20T00:27:04.864659+05:30"},{"city":"Jhansi","state":"Uttar Pradesh","latitude":25.4484,"longitude":78.5685,"temp":30.5,"humidity":58,"rain":0.0,"pressure":975.9,"uv_index":8.5,"wind_gusts":36.0,"aqi":73,"pm10":57.0,"pm2_5":25.9,"no2":4.8,"co":156.0,"o3":67.0,"so2":2.2,"mosquito_risk":0,"arthritis_risk":5,"migraine_risk":7,"frizz_risk":1,"updated_at":"2026-06-20T00:27:08.414383+05:30"},{"city":"Surat","state":"Gujarat","latitude":21.1702,"longitude":72.8311,"temp":29.5,"humidity":74,"rain":0.0,"pressure":1006.8,"uv_index":7.6,"wind_gusts":43.6,"aqi":67,"pm10":27.4,"pm2_5":17.3,"no2":17.9,"co":264.0,"o3":34.0,"so2":29.5,"mosquito_risk":7,"arthritis_risk":5,"migraine_risk":4,"frizz_risk":1,"updated_at":"2026-06-20T00:27:08.414417+05:30"},{"city":"Vadodara","state":"Gujarat","latitude":22.3072,"longitude":73.1812,"temp":27.5,"humidity":89,"rain":0.1,"pressure":1003.8,"uv_index":7.85,"wind_gusts":37.8,"aqi":60,"pm10":21.3,"pm2_5":14.9,"no2":16.4,"co":141.0,"o3":32.0,"so2":15.6,"mosquito_risk":10,"arthritis_risk":5,"migraine_risk":4,"frizz_risk":1,"updated_at":"2026-06-20T00:27:08.414427+05:30"},{"city":"Rajkot","state":"Gujarat","latitude":22.3039,"longitude":70.8022,"temp":28.5,"humidity":70,"rain":0.0,"pressure":993.9,"uv_index":7.5,"wind_gusts":42.1,"aqi":62,"pm10":40.4,"pm2_5":17.6,"no2":4.5,"co":113.0,"o3":42.0,"so2":3.8,"mosquito_risk":7,"arthritis_risk":5,"migraine_risk":7,"frizz_risk":1,"updated_at":"2026-06-20T00:27:08.414435+05:30"},{"city":"Thane","state":"Maharashtra","latitude":19.2183,"longitude":72.9781,"temp":29.8,"humidity":65,"rain":0.0,"pressure":1008.4,"uv_index":7.7,"wind_gusts":39.6,"aqi":56,"pm10":26.1,"pm2_5":13.4,"no2":8.2,"co":179.0,"o3":43.0,"so2":6.9,"mosquito_risk":7,"arthritis_risk":0,"migraine_risk":4,"frizz_risk":1,"updated_at":"2026-06-20T00:27:08.414443+05:30"},{"city":"Nagpur","state":"Maharashtra","latitude":21.1458,"longitude":79.0882,"temp":31.8,"humidity":44,"rain":0.0,"pressure":972.1,"uv_index":8.85,"wind_gusts":39.6,"aqi":80,"pm10":30.7,"pm2_5":23.5,"no2":20.1,"co":277.0,"o3":51.0,"so2":10.1,"mosquito_risk":0,"arthritis_risk":5,"migraine_risk":7,"frizz_risk":1,"updated_at":"2026-06-20T00:27:08.414451+05:30"},{"city":"Nashik","state":"Maharashtra","latitude":19.9975,"longitude":73.7898,"temp":24.6,"humidity":80,"rain":0.0,"pressure":946.1,"uv_index":8.05,"wind_gusts":42.8,"aqi":48,"pm10":20.1,"pm2_5":11.8,"no2":5.5,"co":126.0,"o3":46.0,"so2":3.6,"mosquito_risk":3,"arthritis_risk":5,"migraine_risk":7,"frizz_risk":1,"updated_at":"2026-06-20T00:27:08.414458+05:30"},{"city":"Aurangabad","state":"Maharashtra","latitude":19.8762,"longitude":75.3433,"temp":28.3,"humidity":51,"rain":0.0,"pressure":944.6,"uv_index":8.95,"wind_gusts":42.5,"aqi":58,"pm10":15.0,"pm2_5":10.9,"no2":5.6,"co":138.0,"o3":76.0,"so2":6.1,"mosquito_risk":4,"arthritis_risk":5,"migraine_risk":7,"frizz_risk":1,"updated_at":"2026-06-20T00:27:08.414466+05:30"},{"city":"Solapur","state":"Maharashtra","latitude":17.6599,"longitude":75.9064,"temp":29.9,"humidity":49,"rain":0.0,"pressure":957.7,"uv_index":8.3,"wind_gusts":42.1,"aqi":52,"pm10":14.3,"pm2_5":10.4,"no2":4.7,"co":146.0,"o3":68.0,"so2":2.2,"mosquito_risk":4,"arthritis_risk":5,"migraine_risk":7,"frizz_risk":1,"updated_at":"2026-06-20T00:27:08.414474+05:30"},{"city":"Kolhapur","state":"Maharashtra","latitude":16.705,"longitude":74.2433,"temp":24.0,"humidity":85,"rain":0.0,"pressure":949.0,"uv_index":8.0,"wind_gusts":38.9,"aqi":48,"pm10":13.2,"pm2_5":9.6,"no2":6.6,"co":169.0,"o3":38.0,"so2":3.0,"mosquito_risk":3,"arthritis_risk":5,"migraine_risk":7,"frizz_risk":1,"updated_at":"2026-06-20T00:27:08.414482+05:30"},{"city":"Goa","state":"Goa","latitude":15.2993,"longitude":74.124,"temp":26.1,"humidity":90,"rain":0.0,"pressure":999.5,"uv_index":8.4,"wind_gusts":27.7,"aqi":57,"pm10":24.2,"pm2_5":16.8,"no2":7.5,"co":623.0,"o3":39.0,"so2":2.3,"mosquito_risk":7,"arthritis_risk":5,"migraine_risk":7,"frizz_risk":1,"updated_at":"2026-06-20T00:27:08.414489+05:30"},{"city":"Jodhpur","state":"Rajasthan","latitude":26.2389,"longitude":73.0243,"temp":30.8,"humidity":56,"rain":0.0,"pressure":980.7,"uv_index":8.4,"wind_gusts":36.7,"aqi":102,"pm10":157.9,"pm2_5":38.4,"no2":9.2,"co":139.0,"o3":47.0,"so2":2.6,"mosquito_risk":0,"arthritis_risk":5,"migraine_risk":7,"frizz_risk":1,"updated_at":"2026-06-20T00:27:08.414497+05:30"},{"city":"Udaipur","state":"Rajasthan","latitude":24.5854,"longitude":73.7125,"temp":26.1,"humidity":74,"rain":0.0,"pressure":945.7,"uv_index":7.9,"wind_gusts":37.4,"aqi":64,"pm10":49.6,"pm2_5":24.1,"no2":8.7,"co":195.0,"o3":57.0,"so2":3.8,"mosquito_risk":7,"arthritis_risk":5,"migraine_risk":7,"frizz_risk":1,"updated_at":"2026-06-20T00:27:08.414505+05:30"},{"city":"Kota","state":"Rajasthan","latitude":25.2138,"longitude":75.8648,"temp":29.0,"humidity":66,"rain":0.0,"pressure":977.2,"uv_index":8.35,"wind_gusts":52.9,"aqi":68,"pm10":29.3,"pm2_5":23.1,"no2":12.7,"co":179.0,"o3":44.0,"so2":4.3,"mosquito_risk":7,"arthritis_risk":5,"migraine_risk":7,"frizz_risk":1,"updated_at":"2026-06-20T00:27:08.414513+05:30"},{"city":"Bikaner","state":"Rajasthan","latitude":28.0229,"longitude":73.3119,"temp":29.5,"humidity":69,"rain":0.0,"pressure":979.1,"uv_index":8.45,"wind_gusts":22.7,"aqi":113,"pm10":108.0,"pm2_5":36.9,"no2":6.5,"co":172.0,"o3":50.0,"so2":2.9,"mosquito_risk":7,"arthritis_risk":5,"migraine_risk":7,"frizz_risk":1,"updated_at":"2026-06-20T00:27:08.414521+05:30"},{"city":"Ajmer","state":"Rajasthan","latitude":26.4499,"longitude":74.6399,"temp":27.8,"humidity":68,"rain":0.0,"pressure":953.0,"uv_index":8.35,"wind_gusts":34.6,"aqi":87,"pm10":53.6,"pm2_5":30.3,"no2":11.7,"co":168.0,"o3":48.0,"so2":4.0,"mosquito_risk":7,"arthritis_risk":5,"migraine_risk":7,"frizz_risk":1,"updated_at":"2026-06-20T00:27:08.414528+05:30"},{"city":"Gwalior","state":"Madhya Pradesh","latitude":26.2183,"longitude":78.1828,"temp":30.6,"humidity":56,"rain":0.0,"pressure":980.9,"uv_index":8.3,"wind_gusts":40.7,"aqi":89,"pm10":73.1,"pm2_5":30.9,"no2":4.9,"co":145.0,"o3":69.0,"so2":2.3,"mosquito_risk":0,"arthritis_risk":5,"migraine_risk":7,"frizz_risk":1,"updated_at":"2026-06-20T00:27:08.414536+05:30"},{"city":"Indore","state":"Madhya Pradesh","latitude":22.7196,"longitude":75.8577,"temp":27.8,"humidity":64,"rain":0.0,"pressure":948.1,"uv_index":8.6,"wind_gusts":46.8,"aqi":62,"pm10":36.1,"pm2_5":25.3,"no2":11.9,"co":264.0,"o3":55.0,"so2":6.1,"mosquito_risk":7,"arthritis_risk":5,"migraine_risk":7,"frizz_risk":1,"updated_at":"2026-06-20T00:27:08.414543+05:30"},{"city":"Bhopal","state":"Madhya Pradesh","latitude":23.2599,"longitude":77.4126,"temp":27.0,"humidity":62,"rain":0.0,"pressure":952.8,"uv_index":8.7,"wind_gusts":38.5,"aqi":64,"pm10":21.6,"pm2_5":17.5,"no2":6.1,"co":251.0,"o3":66.0,"so2":3.0,"mosquito_risk":7,"arthritis_risk":5,"migraine_risk":7,"frizz_risk":1,"updated_at":"2026-06-20T00:27:08.414550+05:30"},{"city":"Jabalpur","state":"Madhya Pradesh","latitude":23.1815,"longitude":79.9864,"temp":29.0,"humidity":60,"rain":0.0,"pressure":960.1,"uv_index":8.0,"wind_gusts":34.2,"aqi":66,"pm10":35.0,"pm2_5":25.0,"no2":14.4,"co":204.0,"o3":62.0,"so2":5.2,"mosquito_risk":4,"arthritis_risk":5,"migraine_risk":7,"frizz_risk":1,"updated_at":"2026-06-20T00:27:08.414557+05:30"},{"city":"Ujjain","state":"Madhya Pradesh","latitude":23.1765,"longitude":75.7885,"temp":28.0,"humidity":65,"rain":0.0,"pressure":953.4,"uv_index":8.55,"wind_gusts":46.4,"aqi":62,"pm10":43.8,"pm2_5":29.3,"no2":7.9,"co":270.0,"o3":60.0,"so2":5.1,"mosquito_risk":7,"arthritis_risk":5,"migraine_risk":7,"frizz_risk":1,"updated_at":"2026-06-20T00:27:08.414565+05:30"},{"city":"Visakhapatnam","state":"Andhra Pradesh","latitude":17.6868,"longitude":83.2185,"temp":28.5,"humidity":95,"rain":0.0,"pressure":1002.1,"uv_index":8.85,"wind_gusts":30.6,"aqi":98,"pm10":40.2,"pm2_5":35.9,"no2":38.5,"co":333.0,"o3":84.0,"so2":46.5,"mosquito_risk":7,"arthritis_risk":5,"migraine_risk":4,"frizz_risk":1,"updated_at":"2026-06-20T00:27:08.414573+05:30"},{"city":"Vijayawada","state":"Andhra Pradesh","latitude":16.5062,"longitude":80.648,"temp":30.3,"humidity":78,"rain":0.0,"pressure":1001.0,"uv_index":8.75,"wind_gusts":27.4,"aqi":82,"pm10":35.6,"pm2_5":31.8,"no2":14.3,"co":295.0,"o3":75.0,"so2":6.2,"mosquito_risk":3,"arthritis_risk":5,"migraine_risk":4,"frizz_risk":1,"updated_at":"2026-06-20T00:27:08.414580+05:30"},{"city":"Guntur","state":"Andhra Pradesh","latitude":16.3067,"longitude":80.4365,"temp":30.6,"humidity":75,"rain":0.0,"pressure":1002.1,"uv_index":8.9,"wind_gusts":30.2,"aqi":77,"pm10":33.8,"pm2_5":29.7,"no2":15.2,"co":284.0,"o3":73.0,"so2":6.2,"mosquito_risk":3,"arthritis_risk":5,"migraine_risk":4,"frizz_risk":1,"updated_at":"2026-06-20T00:27:08.414588+05:30"},{"city":"Nellore","state":"Andhra Pradesh","latitude":14.4426,"longitude":79.9865,"temp":29.3,"humidity":76,"rain":0.0,"pressure":1005.1,"uv_index":6.9,"wind_gusts":35.6,"aqi":90,"pm10":32.2,"pm2_5":28.6,"no2":7.7,"co":296.0,"o3":130.0,"so2":14.0,"mosquito_risk":7,"arthritis_risk":5,"migraine_risk":4,"frizz_risk":1,"updated_at":"2026-06-20T00:27:08.414596+05:30"},{"city":"Kurnool","state":"Andhra Pradesh","latitude":15.8281,"longitude":78.0373,"temp":29.2,"humidity":57,"rain":0.0,"pressure":976.6,"uv_index":8.0,"wind_gusts":38.2,"aqi":69,"pm10":48.4,"pm2_5":40.2,"no2":33.0,"co":441.0,"o3":52.0,"so2":13.5,"mosquito_risk":4,"arthritis_risk":5,"migraine_risk":7,"frizz_risk":1,"updated_at":"2026-06-20T00:27:08.414605+05:30"},{"city":"Kakinada","state":"Andhra Pradesh","latitude":16.9891,"longitude":82.2475,"temp":28.9,"humidity":84,"rain":0.0,"pressure":1005.9,"uv_index":5.55,"wind_gusts":38.2,"aqi":97,"pm10":28.0,"pm2_5":21.8,"no2":5.3,"co":333.0,"o3":114.0,"so2":4.3,"mosquito_risk":7,"arthritis_risk":5,"migraine_risk":0,"frizz_risk":1,"updated_at":"2026-06-20T00:27:08.414612+05:30"},{"city":"Tirupati","state":"Andhra Pradesh","latitude":13.6288,"longitude":79.4192,"temp":27.3,"humidity":76,"rain":0.0,"pressure":991.4,"uv_index":5.4,"wind_gusts":28.4,"aqi":74,"pm10":30.4,"pm2_5":26.4,"no2":20.4,"co":391.0,"o3":74.0,"so2":8.1,"mosquito_risk":7,"arthritis_risk":5,"migraine_risk":3,"frizz_risk":1,"updated_at":"2026-06-20T00:27:08.414620+05:30"},{"city":"Warangal","state":"Telangana","latitude":17.9689,"longitude":79.5941,"temp":29.6,"humidity":68,"rain":0.0,"pressure":977.4,"uv_index":8.15,"wind_gusts":36.7,"aqi":83,"pm10":55.2,"pm2_5":46.9,"no2":30.8,"co":637.0,"o3":32.0,"so2":7.4,"mosquito_risk":7,"arthritis_risk":5,"migraine_risk":7,"frizz_risk":1,"updated_at":"2026-06-20T00:27:08.414627+05:30"},{"city":"Nizamabad","state":"Telangana","latitude":18.6725,"longitude":78.0941,"temp":30.7,"humidity":53,"rain":0.0,"pressure":964.1,"uv_index":8.95,"wind_gusts":31.3,"aqi":70,"pm10":36.7,"pm2_5":27.5,"no2":16.8,"co":713.0,"o3":72.0,"so2":6.0,"mosquito_risk":0,"arthritis_risk":5,"migraine_risk":7,"frizz_risk":1,"updated_at":"2026-06-20T00:27:08.414634+05:30"},{"city":"Mysore","state":"Karnataka","latitude":12.2958,"longitude":76.6396,"temp":22.4,"humidity":95,"rain":0.0,"pressure":929.7,"uv_index":6.9,"wind_gusts":25.2,"aqi":51,"pm10":22.6,"pm2_5":19.3,"no2":34.8,"co":296.0,"o3":13.0,"so2":4.4,"mosquito_risk":3,"arthritis_risk":5,"migraine_risk":7,"frizz_risk":1,"updated_at":"2026-06-20T00:27:08.414641+05:30"},{"city":"Mangalore","state":"Karnataka","latitude":12.9141,"longitude":74.856,"temp":26.1,"humidity":90,"rain":0.0,"pressure":1008.5,"uv_index":6.95,"wind_gusts":24.8,"aqi":60,"pm10":39.5,"pm2_5":27.6,"no2":19.5,"co":405.0,"o3":26.0,"so2":7.0,"mosquito_risk":7,"arthritis_risk":0,"migraine_risk":4,"frizz_risk":1,"updated_at":"2026-06-20T00:27:08.414649+05:30"},{"city":"Hubli-Dharwad","state":"Karnataka","latitude":15.3647,"longitude":75.124,"temp":23.3,"humidity":89,"rain":0.0,"pressure":942.3,"uv_index":8.9,"wind_gusts":40.7,"aqi":49,"pm10":14.8,"pm2_5":9.4,"no2":6.1,"co":146.0,"o3":40.0,"so2":1.9,"mosquito_risk":3,"arthritis_risk":5,"migraine_risk":7,"frizz_risk":1,"updated_at":"2026-06-20T00:27:08.414656+05:30"},{"city":"Belgaum","state":"Karnataka","latitude":15.8497,"longitude":74.4977,"temp":21.6,"humidity":97,"rain":0.0,"pressure":926.7,"uv_index":8.9,"wind_gusts":41.0,"aqi":50,"pm10":15.3,"pm2_5":10.7,"no2":8.7,"co":144.0,"o3":32.0,"so2":2.5,"mosquito_risk":3,"arthritis_risk":5,"migraine_risk":7,"frizz_risk":1,"updated_at":"2026-06-20T00:27:11.763714+05:30"},{"city":"Coimbatore","state":"Tamil Nadu","latitude":11.0168,"longitude":76.9558,"temp":24.0,"humidity":95,"rain":0.0,"pressure":962.9,"uv_index":8.35,"wind_gusts":33.1,"aqi":33,"pm10":23.1,"pm2_5":20.5,"no2":32.7,"co":352.0,"o3":5.0,"so2":5.8,"mosquito_risk":3,"arthritis_risk":5,"migraine_risk":7,"frizz_risk":1,"updated_at":"2026-06-20T00:27:11.763747+05:30"},{"city":"Madurai","state":"Tamil Nadu","latitude":9.9252,"longitude":78.1198,"temp":26.5,"humidity":91,"rain":0.0,"pressure":994.1,"uv_index":8.1,"wind_gusts":32.8,"aqi":57,"pm10":25.4,"pm2_5":23.1,"no2":44.5,"co":486.0,"o3":12.0,"so2":7.7,"mosquito_risk":7,"arthritis_risk":5,"migraine_risk":7,"frizz_risk":1,"updated_at":"2026-06-20T00:27:11.763759+05:30"},{"city":"Trichy","state":"Tamil Nadu","latitude":10.7905,"longitude":78.7047,"temp":26.2,"humidity":93,"rain":0.0,"pressure":1001.1,"uv_index":8.15,"wind_gusts":40.0,"aqi":46,"pm10":18.3,"pm2_5":16.2,"no2":18.3,"co":216.0,"o3":54.0,"so2":3.9,"mosquito_risk":7,"arthritis_risk":5,"migraine_risk":4,"frizz_risk":1,"updated_at":"2026-06-20T00:27:11.763768+05:30"},{"city":"Salem","state":"Tamil Nadu","latitude":11.6643,"longitude":78.146,"temp":24.6,"humidity":94,"rain":0.0,"pressure":978.8,"uv_index":8.0,"wind_gusts":29.2,"aqi":58,"pm10":27.9,"pm2_5":24.4,"no2":24.2,"co":452.0,"o3":72.0,"so2":11.3,"mosquito_risk":3,"arthritis_risk":5,"migraine_risk":7,"frizz_risk":1,"updated_at":"2026-06-20T00:27:11.763777+05:30"},{"city":"Tirunelveli","state":"Tamil Nadu","latitude":8.7139,"longitude":77.7567,"temp":28.8,"humidity":68,"rain":0.0,"pressure":1004.5,"uv_index":8.1,"wind_gusts":31.7,"aqi":50,"pm10":25.1,"pm2_5":20.1,"no2":19.2,"co":329.0,"o3":35.0,"so2":3.5,"mosquito_risk":7,"arthritis_risk":5,"migraine_risk":4,"frizz_risk":1,"updated_at":"2026-06-20T00:27:11.763785+05:30"},{"city":"Vellore","state":"Tamil Nadu","latitude":12.9165,"longitude":79.1325,"temp":24.7,"humidity":94,"rain":0.1,"pressure":985.3,"uv_index":8.05,"wind_gusts":28.4,"aqi":71,"pm10":22.8,"pm2_5":20.1,"no2":12.2,"co":227.0,"o3":81.0,"so2":4.8,"mosquito_risk":6,"arthritis_risk":5,"migraine_risk":7,"frizz_risk":1,"updated_at":"2026-06-20T00:27:11.763794+05:30"},{"city":"Erode","state":"Tamil Nadu","latitude":11.341,"longitude":77.7172,"temp":25.2,"humidity":93,"rain":0.0,"pressure":990.7,"uv_index":7.25,"wind_gusts":27.7,"aqi":47,"pm10":31.4,"pm2_5":27.6,"no2":43.3,"co":537.0,"o3":24.0,"so2":6.4,"mosquito_risk":7,"arthritis_risk":5,"migraine_risk":7,"frizz_risk":1,"updated_at":"2026-06-20T00:27:11.763802+05:30"},{"city":"Kochi","state":"Kerala","latitude":9.9312,"longitude":76.2673,"temp":27.0,"humidity":89,"rain":0.0,"pressure":1010.5,"uv_index":7.9,"wind_gusts":24.8,"aqi":64,"pm10":49.6,"pm2_5":41.1,"no2":43.8,"co":155.0,"o3":7.0,"so2":11.2,"mosquito_risk":7,"arthritis_risk":0,"migraine_risk":4,"frizz_risk":1,"updated_at":"2026-06-20T00:27:11.763810+05:30"},{"city":"Thiruvananthapuram","state":"Kerala","latitude":8.5241,"longitude":76.9366,"temp":25.0,"humidity":94,"rain":0.0,"pressure":1010.2,"uv_index":7.4,"wind_gusts":34.6,"aqi":59,"pm10":33.5,"pm2_5":15.4,"no2":3.3,"co":425.0,"o3":60.0,"so2":1.9,"mosquito_risk":7,"arthritis_risk":0,"migraine_risk":4,"frizz_risk":1,"updated_at":"2026-06-20T00:27:11.763817+05:30"},{"city":"Kozhikode","state":"Kerala","latitude":11.2588,"longitude":75.7804,"temp":25.6,"humidity":93,"rain":0.0,"pressure":1009.7,"uv_index":8.25,"wind_gusts":23.0,"aqi":51,"pm10":30.0,"pm2_5":14.6,"no2":2.6,"co":357.0,"o3":59.0,"so2":1.8,"mosquito_risk":7,"arthritis_risk":0,"migraine_risk":4,"frizz_risk":1,"updated_at":"2026-06-20T00:27:11.763824+05:30"},{"city":"Thrissur","state":"Kerala","latitude":10.5276,"longitude":76.2144,"temp":25.7,"humidity":91,"rain":0.0,"pressure":1008.9,"uv_index":6.3,"wind_gusts":24.1,"aqi":64,"pm10":61.7,"pm2_5":51.1,"no2":40.5,"co":865.0,"o3":16.0,"so2":11.1,"mosquito_risk":7,"arthritis_risk":0,"migraine_risk":4,"frizz_risk":1,"updated_at":"2026-06-20T00:27:11.763832+05:30"},{"city":"Kannur","state":"Kerala","latitude":11.8745,"longitude":75.3704,"temp":25.4,"humidity":96,"rain":0.0,"pressure":1009.0,"uv_index":7.75,"wind_gusts":25.6,"aqi":60,"pm10":39.9,"pm2_5":27.6,"no2":26.6,"co":759.0,"o3":25.0,"so2":6.4,"mosquito_risk":7,"arthritis_risk":0,"migraine_risk":4,"frizz_risk":1,"updated_at":"2026-06-20T00:27:11.763840+05:30"},{"city":"Patna","state":"Bihar","latitude":25.5941,"longitude":85.1376,"temp":28.4,"humidity":88,"rain":0.0,"pressure":997.5,"uv_index":8.65,"wind_gusts":28.1,"aqi":155,"pm10":104.3,"pm2_5":75.7,"no2":32.9,"co":622.0,"o3":69.0,"so2":18.5,"mosquito_risk":7,"arthritis_risk":5,"migraine_risk":7,"frizz_risk":1,"updated_at":"2026-06-20T00:27:11.763847+05:30"},{"city":"Gaya","state":"Bihar","latitude":24.7914,"longitude":85.0002,"temp":30.2,"humidity":65,"rain":0.0,"pressure":990.9,"uv_index":8.45,"wind_gusts":38.5,"aqi":136,"pm10":63.1,"pm2_5":40.6,"no2":11.8,"co":229.0,"o3":77.0,"so2":6.3,"mosquito_risk":3,"arthritis_risk":5,"migraine_risk":7,"frizz_risk":1,"updated_at":"2026-06-20T00:27:11.763855+05:30"},{"city":"Muzaffarpur","state":"Bihar","latitude":26.1209,"longitude":85.3647,"temp":26.1,"humidity":92,"rain":0.0,"pressure":997.9,"uv_index":8.65,"wind_gusts":41.8,"aqi":155,"pm10":78.0,"pm2_5":63.6,"no2":17.1,"co":497.0,"o3":101.0,"so2":15.5,"mosquito_risk":7,"arthritis_risk":5,"migraine_risk":7,"frizz_risk":1,"updated_at":"2026-06-20T00:27:11.763862+05:30"},{"city":"Bhagalpur","state":"Bihar","latitude":25.2425,"longitude":87.0117,"temp":26.7,"humidity":96,"rain":0.0,"pressure":998.3,"uv_index":8.45,"wind_gusts":48.2,"aqi":160,"pm10":67.1,"pm2_5":61.5,"no2":17.5,"co":378.0,"o3":94.0,"so2":28.6,"mosquito_risk":7,"arthritis_risk":5,"migraine_risk":7,"frizz_risk":1,"updated_at":"2026-06-20T00:27:11.763869+05:30"},{"city":"Ranchi","state":"Jharkhand","latitude":23.3441,"longitude":85.3096,"temp":24.7,"humidity":94,"rain":0.0,"pressure":935.9,"uv_index":8.0,"wind_gusts":43.9,"aqi":137,"pm10":41.2,"pm2_5":38.4,"no2":11.1,"co":306.0,"o3":109.0,"so2":9.8,"mosquito_risk":3,"arthritis_risk":5,"migraine_risk":7,"frizz_risk":1,"updated_at":"2026-06-20T00:27:11.763898+05:30"},{"city":"Jamshedpur","state":"Jharkhand","latitude":22.8046,"longitude":86.2029,"temp":27.1,"humidity":97,"rain":0.0,"pressure":988.8,"uv_index":8.85,"wind_gusts":35.3,"aqi":153,"pm10":57.5,"pm2_5":53.9,"no2":23.2,"co":480.0,"o3":82.0,"so2":29.4,"mosquito_risk":7,"arthritis_risk":5,"migraine_risk":7,"frizz_risk":1,"updated_at":"2026-06-20T00:27:11.763906+05:30"},{"city":"Dhanbad","state":"Jharkhand","latitude":23.7957,"longitude":86.4304,"temp":27.5,"humidity":85,"rain":0.0,"pressure":977.3,"uv_index":7.85,"wind_gusts":40.0,"aqi":162,"pm10":69.2,"pm2_5":66.4,"no2":41.9,"co":547.0,"o3":79.0,"so2":110.3,"mosquito_risk":7,"arthritis_risk":5,"migraine_risk":7,"frizz_risk":1,"updated_at":"2026-06-20T00:27:11.763913+05:30"},{"city":"Bokaro","state":"Jharkhand","latitude":23.6693,"longitude":86.1511,"temp":27.6,"humidity":84,"rain":0.0,"pressure":981.1,"uv_index":7.5,"wind_gusts":38.5,"aqi":156,"pm10":56.8,"pm2_5":54.6,"no2":29.1,"co":349.0,"o3":92.0,"so2":76.1,"mosquito_risk":7,"arthritis_risk":5,"migraine_risk":7,"frizz_risk":1,"updated_at":"2026-06-20T00:27:11.763921+05:30"},{"city":"Bhubaneswar","state":"Odisha","latitude":20.2961,"longitude":85.8245,"temp":27.8,"humidity":97,"rain":0.0,"pressure":1000.8,"uv_index":8.15,"wind_gusts":43.2,"aqi":90,"pm10":29.1,"pm2_5":27.4,"no2":9.9,"co":303.0,"o3":114.0,"so2":6.7,"mosquito_risk":7,"arthritis_risk":5,"migraine_risk":4,"frizz_risk":1,"updated_at":"2026-06-20T00:27:11.763928+05:30"},{"city":"Cuttack","state":"Odisha","latitude":20.4625,"longitude":85.8828,"temp":27.3,"humidity":95,"rain":0.0,"pressure":1002.5,"uv_index":7.2,"wind_gusts":37.1,"aqi":90,"pm10":29.1,"pm2_5":27.4,"no2":9.9,"co":476.0,"o3":114.0,"so2":6.7,"mosquito_risk":7,"arthritis_risk":5,"migraine_risk":4,"frizz_risk":1,"updated_at":"2026-06-20T00:27:11.763935+05:30"},{"city":"Rourkela","state":"Odisha","latitude":22.2604,"longitude":84.8536,"temp":27.7,"humidity":89,"rain":0.0,"pressure":983.1,"uv_index":9.0,"wind_gusts":47.9,"aqi":151,"pm10":68.9,"pm2_5":64.7,"no2":25.6,"co":392.0,"o3":95.0,"so2":20.5,"mosquito_risk":7,"arthritis_risk":5,"migraine_risk":7,"frizz_risk":1,"updated_at":"2026-06-20T00:27:11.763942+05:30"},{"city":"Raipur","state":"Chhattisgarh","latitude":21.2514,"longitude":81.6296,"temp":29.1,"humidity":73,"rain":0.0,"pressure":972.9,"uv_index":7.55,"wind_gusts":34.2,"aqi":103,"pm10":60.3,"pm2_5":52.0,"no2":51.9,"co":603.0,"o3":33.0,"so2":50.3,"mosquito_risk":7,"arthritis_risk":5,"migraine_risk":7,"frizz_risk":1,"updated_at":"2026-06-20T00:27:11.763949+05:30"},{"city":"Bhilai","state":"Chhattisgarh","latitude":21.1938,"longitude":81.3509,"temp":28.6,"humidity":76,"rain":0.0,"pressure":973.4,"uv_index":8.5,"wind_gusts":38.5,"aqi":103,"pm10":75.9,"pm2_5":64.7,"no2":62.9,"co":649.0,"o3":27.0,"so2":55.5,"mosquito_risk":7,"arthritis_risk":5,"migraine_risk":7,"frizz_risk":1,"updated_at":"2026-06-20T00:27:11.763956+05:30"},{"city":"Guwahati","state":"Assam","latitude":26.1158,"longitude":91.7086,"temp":26.2,"humidity":91,"rain":0.0,"pressure":999.4,"uv_index":8.7,"wind_gusts":32.8,"aqi":98,"pm10":76.4,"pm2_5":61.2,"no2":15.0,"co":401.0,"o3":62.0,"so2":6.6,"mosquito_risk":7,"arthritis_risk":5,"migraine_risk":7,"frizz_risk":1,"updated_at":"2026-06-20T00:27:11.763963+05:30"},{"city":"Agartala","state":"Tripura","latitude":23.8315,"longitude":91.2868,"temp":25.9,"humidity":91,"rain":0.0,"pressure":1004.8,"uv_index":8.0,"wind_gusts":30.2,"aqi":88,"pm10":25.6,"pm2_5":22.6,"no2":10.6,"co":212.0,"o3":60.0,"so2":3.0,"mosquito_risk":7,"arthritis_risk":5,"migraine_risk":4,"frizz_risk":1,"updated_at":"2026-06-20T00:27:11.763971+05:30"},{"city":"Shillong","state":"Meghalaya","latitude":25.5788,"longitude":91.8933,"temp":19.7,"humidity":92,"rain":0.0,"pressure":856.4,"uv_index":7.9,"wind_gusts":23.8,"aqi":56,"pm10":31.1,"pm2_5":23.1,"no2":5.6,"co":260.0,"o3":96.0,"so2":3.7,"mosquito_risk":3,"arthritis_risk":10,"migraine_risk":7,"frizz_risk":1,"updated_at":"2026-06-20T00:27:11.763978+05:30"},{"city":"Imphal","state":"Manipur","latitude":24.817,"longitude":93.9368,"temp":23.0,"humidity":92,"rain":0.0,"pressure":922.1,"uv_index":8.15,"wind_gusts":31.3,"aqi":57,"pm10":24.8,"pm2_5":21.8,"no2":12.5,"co":455.0,"o3":41.0,"so2":2.7,"mosquito_risk":3,"arthritis_risk":5,"migraine_risk":7,"frizz_risk":1,"updated_at":"2026-06-20T00:27:11.763986+05:30"},{"city":"Aizawl","state":"Mizoram","latitude":23.7271,"longitude":92.7176,"temp":19.4,"humidity":94,"rain":0.0,"pressure":891.6,"uv_index":8.55,"wind_gusts":32.0,"aqi":50,"pm10":8.6,"pm2_5":7.2,"no2":4.1,"co":174.0,"o3":59.0,"so2":1.4,"mosquito_risk":3,"arthritis_risk":10,"migraine_risk":7,"frizz_risk":1,"updated_at":"2026-06-20T00:27:11.763994+05:30"},{"city":"Kohima","state":"Nagaland","latitude":25.6701,"longitude":94.1077,"temp":18.4,"humidity":98,"rain":0.0,"pressure":853.8,"uv_index":7.85,"wind_gusts":21.6,"aqi":46,"pm10":8.4,"pm2_5":6.4,"no2":5.0,"co":369.0,"o3":66.0,"so2":1.2,"mosquito_risk":3,"arthritis_risk":10,"migraine_risk":7,"frizz_risk":1,"updated_at":"2026-06-20T00:27:11.764001+05:30"},{"city":"Gangtok","state":"Sikkim","latitude":27.3314,"longitude":88.6138,"temp":17.8,"humidity":97,"rain":1.0,"pressure":836.1,"uv_index":8.45,"wind_gusts":33.8,"aqi":75,"pm10":12.2,"pm2_5":10.8,"no2":6.8,"co":415.0,"o3":127.0,"so2":5.8,"mosquito_risk":6,"arthritis_risk":10,"migraine_risk":7,"frizz_risk":1,"updated_at":"2026-06-20T00:27:11.764008+05:30"},{"city":"Siliguri","state":"West Bengal","latitude":26.7271,"longitude":88.3953,"temp":24.7,"humidity":98,"rain":0.0,"pressure":991.4,"uv_index":6.45,"wind_gusts":23.4,"aqi":101,"pm10":54.0,"pm2_5":44.9,"no2":10.3,"co":635.0,"o3":117.0,"so2":9.4,"mosquito_risk":3,"arthritis_risk":5,"migraine_risk":7,"frizz_risk":1,"updated_at":"2026-06-20T00:27:15.116240+05:30"},{"city":"Durgapur","state":"West Bengal","latitude":23.5204,"longitude":87.3119,"temp":26.5,"humidity":81,"rain":0.0,"pressure":992.6,"uv_index":8.85,"wind_gusts":29.5,"aqi":162,"pm10":82.2,"pm2_5":78.9,"no2":36.2,"co":1175.0,"o3":68.0,"so2":53.4,"mosquito_risk":7,"arthritis_risk":5,"migraine_risk":7,"frizz_risk":1,"updated_at":"2026-06-20T00:27:15.116275+05:30"},{"city":"Asansol","state":"West Bengal","latitude":23.6739,"longitude":86.9524,"temp":27.7,"humidity":84,"rain":0.0,"pressure":991.0,"uv_index":8.9,"wind_gusts":33.1,"aqi":161,"pm10":70.3,"pm2_5":67.3,"no2":39.0,"co":609.0,"o3":67.0,"so2":68.4,"mosquito_risk":7,"arthritis_risk":5,"migraine_risk":7,"frizz_risk":1,"updated_at":"2026-06-20T00:27:15.116286+05:30"},{"city":"Pondicherry","state":"Puducherry","latitude":11.9139,"longitude":79.8145,"temp":25.7,"humidity":92,"rain":0.0,"pressure":1009.5,"uv_index":7.4,"wind_gusts":60.8,"aqi":98,"pm10":19.8,"pm2_5":16.6,"no2":13.1,"co":270.0,"o3":90.0,"so2":12.7,"mosquito_risk":7,"arthritis_risk":0,"migraine_risk":4,"frizz_risk":1,"updated_at":"2026-06-20T00:27:15.116295+05:30"},{"city":"Port Blair","state":"Andaman and Nicobar Islands","latitude":11.6234,"longitude":92.7265,"temp":26.8,"humidity":85,"rain":0.0,"pressure":1008.8,"uv_index":8.75,"wind_gusts":32.0,"aqi":27,"pm10":13.0,"pm2_5":5.8,"no2":0.2,"co":98.0,"o3":42.0,"so2":0.4,"mosquito_risk":7,"arthritis_risk":0,"migraine_risk":4,"frizz_risk":1,"updated_at":"2026-06-20T00:27:15.116304+05:30"},{"city":"Haridwar","state":"Uttarakhand","latitude":29.9457,"longitude":78.1642,"temp":27.7,"humidity":75,"rain":0.0,"pressure":970.7,"uv_index":7.65,"wind_gusts":24.1,"aqi":150,"pm10":194.6,"pm2_5":84.5,"no2":31.6,"co":534.0,"o3":79.0,"so2":15.6,"mosquito_risk":7,"arthritis_risk":5,"migraine_risk":7,"frizz_risk":1,"updated_at":"2026-06-20T00:27:15.116313+05:30"},{"city":"Rishikesh","state":"Uttarakhand","latitude":30.0869,"longitude":78.2676,"temp":27.0,"humidity":73,"rain":0.0,"pressure":963.6,"uv_index":7.75,"wind_gusts":26.3,"aqi":148,"pm10":57.9,"pm2_5":46.9,"no2":14.2,"co":494.0,"o3":130.0,"so2":9.0,"mosquito_risk":7,"arthritis_risk":5,"migraine_risk":7,"frizz_risk":1,"updated_at":"2026-06-20T00:27:15.116322+05:30"},{"city":"Nainital","state":"Uttarakhand","latitude":29.3919,"longitude":79.4542,"temp":15.4,"humidity":94,"rain":0.0,"pressure":803.7,"uv_index":8.6,"wind_gusts":29.9,"aqi":110,"pm10":47.1,"pm2_5":39.7,"no2":16.1,"co":397.0,"o3":78.0,"so2":4.5,"mosquito_risk":3,"arthritis_risk":10,"migraine_risk":7,"frizz_risk":0,"updated_at":"2026-06-20T00:27:15.116330+05:30"},{"city":"Mussoorie","state":"Uttarakhand","latitude":30.4599,"longitude":78.0664,"temp":15.9,"humidity":90,"rain":0.0,"pressure":801.7,"uv_index":7.6,"wind_gusts":36.7,"aqi":115,"pm10":55.9,"pm2_5":51.7,"no2":39.9,"co":356.0,"o3":80.0,"so2":11.3,"mosquito_risk":3,"arthritis_risk":10,"migraine_risk":7,"frizz_risk":0,"updated_at":"2026-06-20T00:27:15.116339+05:30"},{"city":"Dharamshala","state":"Himachal Pradesh","latitude":32.219,"longitude":76.3234,"temp":21.1,"humidity":74,"rain":0.0,"pressure":867.8,"uv_index":8.2,"wind_gusts":40.0,"aqi":51,"pm10":12.6,"pm2_5":10.5,"no2":15.0,"co":363.0,"o3":58.0,"so2":0.5,"mosquito_risk":3,"arthritis_risk":5,"migraine_risk":7,"frizz_risk":1,"updated_at":"2026-06-20T00:27:15.116347+05:30"},{"city":"Dalhousie","state":"Himachal Pradesh","latitude":32.5387,"longitude":75.971,"temp":13.7,"humidity":95,"rain":0.0,"pressure":801.9,"uv_index":7.95,"wind_gusts":26.6,"aqi":86,"pm10":41.6,"pm2_5":35.5,"no2":42.5,"co":420.0,"o3":34.0,"so2":1.9,"mosquito_risk":3,"arthritis_risk":10,"migraine_risk":7,"frizz_risk":0,"updated_at":"2026-06-20T00:27:15.116355+05:30"},{"city":"Patiala","state":"Punjab","latitude":30.3398,"longitude":76.3869,"temp":28.4,"humidity":69,"rain":0.0,"pressure":975.0,"uv_index":7.7,"wind_gusts":31.7,"aqi":260,"pm10":651.9,"pm2_5":134.6,"no2":16.9,"co":430.0,"o3":81.0,"so2":10.9,"mosquito_risk":7,"arthritis_risk":5,"migraine_risk":7,"frizz_risk":1,"updated_at":"2026-06-20T00:27:15.116364+05:30"},{"city":"Bhatinda","state":"Punjab","latitude":30.211,"longitude":74.9455,"temp":28.8,"humidity":67,"rain":0.0,"pressure":980.7,"uv_index":8.3,"wind_gusts":27.7,"aqi":135,"pm10":62.4,"pm2_5":42.3,"no2":24.9,"co":382.0,"o3":51.0,"so2":5.1,"mosquito_risk":7,"arthritis_risk":5,"migraine_risk":7,"frizz_risk":1,"updated_at":"2026-06-20T00:27:15.116371+05:30"},{"city":"Rohtak","state":"Haryana","latitude":28.8955,"longitude":76.6066,"temp":29.7,"humidity":58,"rain":0.0,"pressure":978.7,"uv_index":7.8,"wind_gusts":30.2,"aqi":541,"pm10":592.3,"pm2_5":141.6,"no2":57.9,"co":373.0,"o3":24.0,"so2":11.4,"mosquito_risk":4,"arthritis_risk":5,"migraine_risk":7,"frizz_risk":1,"updated_at":"2026-06-20T00:27:15.116380+05:30"},{"city":"Panipat","state":"Haryana","latitude":29.3909,"longitude":76.9635,"temp":29.0,"humidity":66,"rain":0.0,"pressure":977.3,"uv_index":7.65,"wind_gusts":28.4,"aqi":1003,"pm10":1706.2,"pm2_5":282.2,"no2":24.0,"co":507.0,"o3":73.0,"so2":9.1,"mosquito_risk":7,"arthritis_risk":5,"migraine_risk":7,"frizz_risk":1,"updated_at":"2026-06-20T00:27:15.116387+05:30"},{"city":"Mathura","state":"Uttar Pradesh","latitude":27.4924,"longitude":77.6737,"temp":30.7,"humidity":53,"rain":0.0,"pressure":983.7,"uv_index":8.1,"wind_gusts":31.7,"aqi":195,"pm10":259.8,"pm2_5":71.2,"no2":43.7,"co":334.0,"o3":28.0,"so2":7.6,"mosquito_risk":0,"arthritis_risk":5,"migraine_risk":7,"frizz_risk":1,"updated_at":"2026-06-20T00:27:15.116395+05:30"},{"city":"Vrindavan","state":"Uttar Pradesh","latitude":27.5823,"longitude":77.7027,"temp":30.8,"humidity":54,"rain":0.0,"pressure":984.1,"uv_index":8.1,"wind_gusts":31.3,"aqi":195,"pm10":259.8,"pm2_5":71.2,"no2":43.7,"co":327.0,"o3":28.0,"so2":7.6,"mosquito_risk":0,"arthritis_risk":5,"migraine_risk":7,"frizz_risk":1,"updated_at":"2026-06-20T00:27:15.116403+05:30"},{"city":"Ayodhya","state":"Uttar Pradesh","latitude":26.7922,"longitude":82.1998,"temp":31.1,"humidity":63,"rain":0.0,"pressure":991.0,"uv_index":8.45,"wind_gusts":44.3,"aqi":156,"pm10":121.1,"pm2_5":60.8,"no2":25.5,"co":470.0,"o3":54.0,"so2":8.9,"mosquito_risk":3,"arthritis_risk":5,"migraine_risk":7,"frizz_risk":1,"updated_at":"2026-06-20T00:27:15.116410+05:30"},{"city":"Ratlam","state":"Madhya Pradesh","latitude":23.3315,"longitude":75.0367,"temp":27.6,"humidity":66,"rain":0.0,"pressure":954.4,"uv_index":6.6,"wind_gusts":47.9,"aqi":61,"pm10":41.2,"pm2_5":26.4,"no2":5.2,"co":191.0,"o3":73.0,"so2":5.5,"mosquito_risk":7,"arthritis_risk":5,"migraine_risk":7,"frizz_risk":1,"updated_at":"2026-06-20T00:27:15.116418+05:30"},{"city":"Sagar","state":"Madhya Pradesh","latitude":23.8388,"longitude":78.7378,"temp":28.4,"humidity":61,"rain":0.0,"pressure":949.1,"uv_index":8.75,"wind_gusts":35.6,"aqi":58,"pm10":23.4,"pm2_5":16.7,"no2":6.0,"co":188.0,"o3":75.0,"so2":3.5,"mosquito_risk":7,"arthritis_risk":5,"migraine_risk":7,"frizz_risk":1,"updated_at":"2026-06-20T00:27:15.116426+05:30"},{"city":"Satna","state":"Madhya Pradesh","latitude":24.6005,"longitude":80.8322,"temp":31.2,"humidity":52,"rain":0.0,"pressure":969.0,"uv_index":8.8,"wind_gusts":32.8,"aqi":76,"pm10":31.9,"pm2_5":22.8,"no2":12.7,"co":193.0,"o3":58.0,"so2":3.9,"mosquito_risk":0,"arthritis_risk":5,"migraine_risk":7,"frizz_risk":1,"updated_at":"2026-06-20T00:27:15.116434+05:30"},{"city":"Akola","state":"Maharashtra","latitude":20.7002,"longitude":77.0082,"temp":31.4,"humidity":43,"rain":0.0,"pressure":974.6,"uv_index":8.8,"wind_gusts":44.6,"aqi":56,"pm10":21.4,"pm2_5":15.0,"no2":11.0,"co":174.0,"o3":67.0,"so2":6.2,"mosquito_risk":0,"arthritis_risk":5,"migraine_risk":7,"frizz_risk":1,"updated_at":"2026-06-20T00:27:15.116443+05:30"},{"city":"Amravati","state":"Maharashtra","latitude":20.9374,"longitude":77.7796,"temp":29.8,"humidity":52,"rain":0.0,"pressure":966.7,"uv_index":8.8,"wind_gusts":39.2,"aqi":57,"pm10":21.9,"pm2_5":15.8,"no2":13.8,"co":338.0,"o3":61.0,"so2":6.2,"mosquito_risk":4,"arthritis_risk":5,"migraine_risk":7,"frizz_risk":1,"updated_at":"2026-06-20T00:27:15.116451+05:30"},{"city":"Latur","state":"Maharashtra","latitude":18.4088,"longitude":76.5604,"temp":30.1,"humidity":41,"rain":0.0,"pressure":939.4,"uv_index":8.8,"wind_gusts":27.0,"aqi":59,"pm10":20.4,"pm2_5":16.1,"no2":9.4,"co":258.0,"o3":66.0,"so2":2.6,"mosquito_risk":0,"arthritis_risk":5,"migraine_risk":7,"frizz_risk":0,"updated_at":"2026-06-20T00:27:15.116459+05:30"},{"city":"Nanded","state":"Maharashtra","latitude":19.1383,"longitude":77.3091,"temp":31.3,"humidity":41,"rain":0.0,"pressure":967.6,"uv_index":8.85,"wind_gusts":35.3,"aqi":62,"pm10":45.6,"pm2_5":38.1,"no2":34.9,"co":302.0,"o3":38.0,"so2":8.4,"mosquito_risk":0,"arthritis_risk":5,"migraine_risk":7,"frizz_risk":1,"updated_at":"2026-06-20T00:27:15.116467+05:30"},{"city":"Gulbarga","state":"Karnataka","latitude":17.3297,"longitude":76.8343,"temp":30.2,"humidity":47,"rain":0.0,"pressure":958.8,"uv_index":8.1,"wind_gusts":36.7,"aqi":57,"pm10":29.5,"pm2_5":23.7,"no2":29.1,"co":232.0,"o3":44.0,"so2":4.9,"mosquito_risk":0,"arthritis_risk":5,"migraine_risk":7,"frizz_risk":1,"updated_at":"2026-06-20T00:27:15.116474+05:30"},{"city":"Bidar","state":"Karnataka","latitude":17.9104,"longitude":77.5199,"temp":28.9,"humidity":51,"rain":0.0,"pressure":935.2,"uv_index":8.45,"wind_gusts":32.8,"aqi":71,"pm10":64.5,"pm2_5":56.1,"no2":62.7,"co":425.0,"o3":11.0,"so2":8.3,"mosquito_risk":4,"arthritis_risk":5,"migraine_risk":7,"frizz_risk":1,"updated_at":"2026-06-20T00:27:15.116482+05:30"},{"city":"Hospet","state":"Karnataka","latitude":15.2689,"longitude":76.3909,"temp":26.3,"humidity":73,"rain":0.0,"pressure":956.9,"uv_index":5.8,"wind_gusts":40.0,"aqi":52,"pm10":18.1,"pm2_5":12.7,"no2":8.8,"co":184.0,"o3":55.0,"so2":2.1,"mosquito_risk":7,"arthritis_risk":5,"migraine_risk":3,"frizz_risk":1,"updated_at":"2026-06-20T00:27:15.116490+05:30"},{"city":"Tirupur","state":"Tamil Nadu","latitude":11.1085,"longitude":77.3411,"temp":25.4,"humidity":85,"rain":0.0,"pressure":976.5,"uv_index":8.4,"wind_gusts":33.1,"aqi":51,"pm10":36.7,"pm2_5":33.5,"no2":51.2,"co":263.0,"o3":8.0,"so2":9.4,"mosquito_risk":7,"arthritis_risk":5,"migraine_risk":7,"frizz_risk":1,"updated_at":"2026-06-20T00:27:15.116497+05:30"},{"city":"Alappuzha","state":"Kerala","latitude":9.4981,"longitude":76.3388,"temp":27.2,"humidity":86,"rain":0.0,"pressure":1010.7,"uv_index":7.5,"wind_gusts":28.8,"aqi":58,"pm10":38.1,"pm2_5":24.8,"no2":18.8,"co":93.0,"o3":40.0,"so2":6.2,"mosquito_risk":7,"arthritis_risk":0,"migraine_risk":4,"frizz_risk":1,"updated_at":"2026-06-20T00:27:15.116505+05:30"},{"city":"Munnar","state":"Kerala","latitude":10.0889,"longitude":77.0595,"temp":16.6,"humidity":95,"rain":0.0,"pressure":856.8,"uv_index":5.65,"wind_gusts":26.6,"aqi":17,"pm10":11.8,"pm2_5":11.0,"no2":19.5,"co":212.0,"o3":9.0,"so2":1.5,"mosquito_risk":3,"arthritis_risk":10,"migraine_risk":3,"frizz_risk":0,"updated_at":"2026-06-20T00:27:15.116513+05:30"},{"city":"Silchar","state":"Assam","latitude":24.8333,"longitude":92.7789,"temp":24.4,"humidity":97,"rain":0.1,"pressure":1004.5,"uv_index":8.2,"wind_gusts":24.5,"aqi":83,"pm10":30.3,"pm2_5":24.4,"no2":9.7,"co":283.0,"o3":85.0,"so2":4.9,"mosquito_risk":6,"arthritis_risk":5,"migraine_risk":4,"frizz_risk":1,"updated_at":"2026-06-20T00:27:15.116520+05:30"},{"city":"Dibrugarh","state":"Assam","latitude":27.4728,"longitude":94.912,"temp":24.6,"humidity":98,"rain":0.1,"pressure":993.3,"uv_index":8.9,"wind_gusts":28.4,"aqi":67,"pm10":20.3,"pm2_5":17.8,"no2":7.0,"co":281.0,"o3":91.0,"so2":1.9,"mosquito_risk":6,"arthritis_risk":5,"migraine_risk":7,"frizz_risk":1,"updated_at":"2026-06-20T00:27:15.116527+05:30"}]