[{"city":"Delhi","state":"Delhi","latitude":28.6139,"longitude":77.209,"temp":32.4,"humidity":26,"rain":0.0,"pressure":976.9,"uv_index":7.75,"wind_gusts":31.3,"aqi":377,"pm10":504.8,"pm2_5":115.3,"no2":52.0,"co":361.0,"o3":18.0,"so2":13.6,"mosquito_risk":0,"arthritis_risk":5,"migraine_risk":7,"frizz_risk":0,"updated_at":"2026-05-20T02:52:04.911059+05:30"},{"city":"Mumbai","state":"Maharashtra","latitude":19.076,"longitude":72.8777,"temp":28.9,"humidity":74,"rain":0.0,"pressure":1005.3,"uv_index":6.6,"wind_gusts":39.6,"aqi":74,"pm10":38.2,"pm2_5":19.0,"no2":5.6,"co":140.0,"o3":54.0,"so2":4.2,"mosquito_risk":7,"arthritis_risk":5,"migraine_risk":4,"frizz_risk":1,"updated_at":"2026-05-20T02:52:04.911107+05:30"},{"city":"Bangalore","state":"Karnataka","latitude":12.9716,"longitude":77.5946,"temp":21.2,"humidity":97,"rain":0.0,"pressure":909.6,"uv_index":5.5,"wind_gusts":41.4,"aqi":36,"pm10":6.6,"pm2_5":6.3,"no2":13.5,"co":251.0,"o3":42.0,"so2":4.5,"mosquito_risk":3,"arthritis_risk":5,"migraine_risk":3,"frizz_risk":1,"updated_at":"2026-05-20T02:52:04.911122+05:30"},{"city":"Hyderabad","state":"Telangana","latitude":17.385,"longitude":78.4867,"temp":30.0,"humidity":55,"rain":0.0,"pressure":949.4,"uv_index":8.7,"wind_gusts":33.5,"aqi":93,"pm10":27.7,"pm2_5":24.4,"no2":9.0,"co":247.0,"o3":99.0,"so2":7.5,"mosquito_risk":4,"arthritis_risk":5,"migraine_risk":7,"frizz_risk":1,"updated_at":"2026-05-20T02:52:04.911132+05:30"},{"city":"Chennai","state":"Tamil Nadu","latitude":13.0827,"longitude":80.2707,"temp":28.6,"humidity":75,"rain":0.0,"pressure":1002.6,"uv_index":9.0,"wind_gusts":39.6,"aqi":63,"pm10":13.1,"pm2_5":12.5,"no2":12.1,"co":300.0,"o3":79.0,"so2":9.7,"mosquito_risk":7,"arthritis_risk":5,"migraine_risk":4,"frizz_risk":1,"updated_at":"2026-05-20T02:52:04.911140+05:30"},{"city":"Kolkata","state":"West Bengal","latitude":22.5726,"longitude":88.3639,"temp":28.8,"humidity":92,"rain":0.0,"pressure":999.5,"uv_index":8.95,"wind_gusts":24.5,"aqi":69,"pm10":20.7,"pm2_5":17.2,"no2":8.5,"co":246.0,"o3":48.0,"so2":5.8,"mosquito_risk":7,"arthritis_risk":5,"migraine_risk":7,"frizz_risk":1,"updated_at":"2026-05-20T02:52:04.911148+05:30"},{"city":"Pune","state":"Maharashtra","latitude":18.5204,"longitude":73.8567,"temp":24.5,"humidity":84,"rain":0.0,"pressure":944.9,"uv_index":8.45,"wind_gusts":40.0,"aqi":76,"pm10":33.3,"pm2_5":19.0,"no2":11.9,"co":146.0,"o3":50.0,"so2":11.4,"mosquito_risk":3,"arthritis_risk":5,"migraine_risk":7,"frizz_risk":1,"updated_at":"2026-05-20T02:52:04.911155+05:30"},{"city":"Ahmedabad","state":"Gujarat","latitude":23.0225,"longitude":72.5714,"temp":30.8,"humidity":39,"rain":0.0,"pressure":997.7,"uv_index":8.15,"wind_gusts":35.3,"aqi":65,"pm10":40.7,"pm2_5":16.8,"no2":5.5,"co":168.0,"o3":48.0,"so2":3.6,"mosquito_risk":0,"arthritis_risk":5,"migraine_risk":7,"frizz_risk":0,"updated_at":"2026-05-20T02:52:04.911163+05:30"},{"city":"Jaipur","state":"Rajasthan","latitude":26.9124,"longitude":75.7873,"temp":32.2,"humidity":22,"rain":0.0,"pressure":955.0,"uv_index":8.3,"wind_gusts":37.8,"aqi":130,"pm10":167.6,"pm2_5":36.0,"no2":8.2,"co":204.0,"o3":61.0,"so2":4.1,"mosquito_risk":0,"arthritis_risk":5,"migraine_risk":7,"frizz_risk":0,"updated_at":"2026-05-20T02:52:04.911186+05:30"},{"city":"Lucknow","state":"Uttar Pradesh","latitude":26.8467,"longitude":80.9462,"temp":30.9,"humidity":67,"rain":0.0,"pressure":986.3,"uv_index":8.25,"wind_gusts":35.6,"aqi":165,"pm10":280.3,"pm2_5":112.5,"no2":66.7,"co":311.0,"o3":11.0,"so2":19.9,"mosquito_risk":3,"arthritis_risk":5,"migraine_risk":7,"frizz_risk":1,"updated_at":"2026-05-20T02:52:04.911196+05:30"},{"city":"Kanpur","state":"Uttar Pradesh","latitude":26.4499,"longitude":80.3319,"temp":32.0,"humidity":46,"rain":0.0,"pressure":984.8,"uv_index":8.25,"wind_gusts":39.6,"aqi":362,"pm10":455.4,"pm2_5":121.1,"no2":44.8,"co":364.0,"o3":41.0,"so2":18.7,"mosquito_risk":0,"arthritis_risk":5,"migraine_risk":7,"frizz_risk":1,"updated_at":"2026-05-20T02:52:04.911204+05:30"},{"city":"Chandigarh","state":"Chandigarh","latitude":30.7333,"longitude":76.7794,"temp":24.9,"humidity":55,"rain":0.0,"pressure":961.7,"uv_index":7.8,"wind_gusts":23.4,"aqi":82,"pm10":108.0,"pm2_5":43.0,"no2":29.4,"co":491.0,"o3":46.0,"so2":11.4,"mosquito_risk":0,"arthritis_risk":5,"migraine_risk":7,"frizz_risk":0,"updated_at":"2026-05-20T02:52:04.911211+05:30"},{"city":"Srinagar","state":"Jammu and Kashmir","latitude":34.0837,"longitude":74.7973,"temp":13.0,"humidity":89,"rain":0.0,"pressure":840.3,"uv_index":9.0,"wind_gusts":25.9,"aqi":68,"pm10":32.2,"pm2_5":23.6,"no2":29.1,"co":511.0,"o3":8.0,"so2":2.1,"mosquito_risk":3,"arthritis_risk":10,"migraine_risk":7,"frizz_risk":0,"updated_at":"2026-05-20T02:52:04.911219+05:30"},{"city":"Jammu","state":"Jammu and Kashmir","latitude":32.7266,"longitude":74.857,"temp":25.8,"humidity":43,"rain":0.0,"pressure":966.2,"uv_index":8.6,"wind_gusts":33.1,"aqi":70,"pm10":24.4,"pm2_5":19.9,"no2":21.2,"co":250.0,"o3":34.0,"so2":2.8,"mosquito_risk":4,"arthritis_risk":5,"migraine_risk":7,"frizz_risk":0,"updated_at":"2026-05-20T02:52:04.911226+05:30"},{"city":"Amritsar","state":"Punjab","latitude":31.634,"longitude":74.8723,"temp":27.9,"humidity":43,"rain":0.0,"pressure":973.7,"uv_index":8.5,"wind_gusts":22.0,"aqi":113,"pm10":79.9,"pm2_5":68.2,"no2":48.9,"co":462.0,"o3":16.0,"so2":9.9,"mosquito_risk":4,"arthritis_risk":5,"migraine_risk":7,"frizz_risk":0,"updated_at":"2026-05-20T02:52:04.911235+05:30"},{"city":"Ludhiana","state":"Punjab","latitude":30.901,"longitude":75.8573,"temp":30.6,"humidity":31,"rain":0.0,"pressure":971.6,"uv_index":8.05,"wind_gusts":20.9,"aqi":141,"pm10":231.4,"pm2_5":85.4,"no2":36.5,"co":417.0,"o3":36.0,"so2":12.3,"mosquito_risk":0,"arthritis_risk":5,"migraine_risk":7,"frizz_risk":0,"updated_at":"2026-05-20T02:52:04.911242+05:30"},{"city":"Jalandhar","state":"Punjab","latitude":31.326,"longitude":75.5762,"temp":29.2,"humidity":36,"rain":0.0,"pressure":972.7,"uv_index":8.25,"wind_gusts":26.6,"aqi":133,"pm10":150.4,"pm2_5":77.8,"no2":53.7,"co":763.0,"o3":16.0,"so2":9.4,"mosquito_risk":4,"arthritis_risk":5,"migraine_risk":7,"frizz_risk":0,"updated_at":"2026-05-20T02:52:04.911248+05:30"},{"city":"Dehradun","state":"Uttarakhand","latitude":30.6284,"longitude":78.0322,"temp":14.5,"humidity":68,"rain":0.0,"pressure":824.9,"uv_index":8.25,"wind_gusts":41.0,"aqi":56,"pm10":19.6,"pm2_5":17.8,"no2":29.9,"co":316.0,"o3":16.0,"so2":1.3,"mosquito_risk":3,"arthritis_risk":5,"migraine_risk":7,"frizz_risk":0,"updated_at":"2026-05-20T02:52:04.911255+05:30"},{"city":"Shimla","state":"Himachal Pradesh","latitude":31.1048,"longitude":77.1734,"temp":14.4,"humidity":48,"rain":0.0,"pressure":780.9,"uv_index":8.3,"wind_gusts":44.6,"aqi":60,"pm10":42.5,"pm2_5":21.0,"no2":21.3,"co":224.0,"o3":57.0,"so2":5.8,"mosquito_risk":0,"arthritis_risk":5,"migraine_risk":7,"frizz_risk":0,"updated_at":"2026-05-20T02:52:04.911263+05:30"},{"city":"Manali","state":"Himachal Pradesh","latitude":32.2396,"longitude":77.1887,"temp":11.4,"humidity":57,"rain":0.0,"pressure":814.5,"uv_index":9.65,"wind_gusts":37.4,"aqi":42,"pm10":2.6,"pm2_5":2.4,"no2":35.6,"co":204.0,"o3":77.0,"so2":0.0,"mosquito_risk":0,"arthritis_risk":5,"migraine_risk":7,"frizz_risk":0,"updated_at":"2026-05-20T02:52:04.911270+05:30"},{"city":"Gurgaon","state":"Haryana","latitude":28.4595,"longitude":77.0266,"temp":30.0,"humidity":30,"rain":0.0,"pressure":975.3,"uv_index":7.85,"wind_gusts":29.9,"aqi":803,"pm10":1382.1,"pm2_5":207.7,"no2":37.0,"co":358.0,"o3":37.0,"so2":13.4,"mosquito_risk":4,"arthritis_risk":5,"migraine_risk":7,"frizz_risk":0,"updated_at":"2026-05-20T02:52:04.911276+05:30"},{"city":"Noida","state":"Uttar Pradesh","latitude":28.5355,"longitude":77.391,"temp":30.4,"humidity":32,"rain":0.0,"pressure":978.0,"uv_index":7.8,"wind_gusts":26.6,"aqi":803,"pm10":1382.1,"pm2_5":207.7,"no2":37.0,"co":355.0,"o3":37.0,"so2":13.4,"mosquito_risk":0,"arthritis_risk":5,"migraine_risk":7,"frizz_risk":0,"updated_at":"2026-05-20T02:52:04.911283+05:30"},{"city":"Ghaziabad","state":"Uttar Pradesh","latitude":28.6692,"longitude":77.4538,"temp":31.9,"humidity":27,"rain":0.0,"pressure":976.2,"uv_index":7.75,"wind_gusts":27.4,"aqi":357,"pm10":530.9,"pm2_5":128.1,"no2":43.1,"co":521.0,"o3":23.0,"so2":15.0,"mosquito_risk":0,"arthritis_risk":5,"migraine_risk":7,"frizz_risk":0,"updated_at":"2026-05-20T02:52:04.911291+05:30"},{"city":"Faridabad","state":"Haryana","latitude":28.4089,"longitude":77.3178,"temp":32.8,"humidity":25,"rain":0.0,"pressure":977.5,"uv_index":7.8,"wind_gusts":34.9,"aqi":803,"pm10":1382.1,"pm2_5":207.7,"no2":37.0,"co":315.0,"o3":37.0,"so2":13.4,"mosquito_risk":0,"arthritis_risk":5,"migraine_risk":7,"frizz_risk":0,"updated_at":"2026-05-20T02:52:04.911297+05:30"},{"city":"Meerut","state":"Uttar Pradesh","latitude":28.9845,"longitude":77.7064,"temp":30.4,"humidity":34,"rain":0.0,"pressure":974.9,"uv_index":7.7,"wind_gusts":25.6,"aqi":357,"pm10":530.9,"pm2_5":128.1,"no2":43.1,"co":473.0,"o3":23.0,"so2":15.0,"mosquito_risk":0,"arthritis_risk":5,"migraine_risk":7,"frizz_risk":0,"updated_at":"2026-05-20T02:52:04.911304+05:30"},{"city":"Agra","state":"Uttar Pradesh","latitude":27.1767,"longitude":78.0081,"temp":32.0,"humidity":37,"rain":0.0,"pressure":981.0,"uv_index":8.1,"wind_gusts":34.2,"aqi":533,"pm10":480.6,"pm2_5":99.4,"no2":41.7,"co":243.0,"o3":23.0,"so2":12.7,"mosquito_risk":0,"arthritis_risk":5,"migraine_risk":7,"frizz_risk":0,"updated_at":"2026-05-20T02:52:04.911310+05:30"},{"city":"Varanasi","state":"Uttar Pradesh","latitude":25.3176,"longitude":82.9739,"temp":31.4,"humidity":64,"rain":0.0,"pressure":990.8,"uv_index":8.75,"wind_gusts":46.8,"aqi":154,"pm10":94.8,"pm2_5":71.0,"no2":26.3,"co":689.0,"o3":60.0,"so2":15.4,"mosquito_risk":3,"arthritis_risk":5,"migraine_risk":7,"frizz_risk":1,"updated_at":"2026-05-20T02:52:04.911317+05:30"},{"city":"Prayagraj","state":"Uttar Pradesh","latitude":25.4358,"longitude":81.8463,"temp":32.0,"humidity":62,"rain":0.0,"pressure":988.7,"uv_index":8.6,"wind_gusts":39.6,"aqi":156,"pm10":145.3,"pm2_5":93.1,"no2":54.4,"co":349.0,"o3":26.0,"so2":19.7,"mosquito_risk":3,"arthritis_risk":5,"migraine_risk":7,"frizz_risk":1,"updated_at":"2026-05-20T02:52:04.911324+05:30"},{"city":"Gorakhpur","state":"Uttar Pradesh","latitude":26.7606,"longitude":83.3732,"temp":28.9,"humidity":78,"rain":0.0,"pressure":991.1,"uv_index":8.65,"wind_gusts":30.2,"aqi":152,"pm10":77.8,"pm2_5":59.6,"no2":17.4,"co":628.0,"o3":77.0,"so2":13.5,"mosquito_risk":7,"arthritis_risk":5,"migraine_risk":7,"frizz_risk":1,"updated_at":"2026-05-20T02:52:04.911332+05:30"},{"city":"Bareilly","state":"Uttar Pradesh","latitude":28.367,"longitude":79.4304,"temp":27.1,"humidity":79,"rain":0.0,"pressure":979.5,"uv_index":8.05,"wind_gusts":26.3,"aqi":143,"pm10":176.5,"pm2_5":93.4,"no2":46.3,"co":399.0,"o3":50.0,"so2":19.1,"mosquito_risk":7,"arthritis_risk":5,"migraine_risk":7,"frizz_risk":1,"updated_at":"2026-05-20T02:52:04.911339+05:30"},{"city":"Aligarh","state":"Uttar Pradesh","latitude":27.8974,"longitude":78.088,"temp":30.5,"humidity":35,"rain":0.0,"pressure":978.8,"uv_index":7.95,"wind_gusts":32.0,"aqi":535,"pm10":472.2,"pm2_5":118.3,"no2":46.5,"co":288.0,"o3":19.0,"so2":15.2,"mosquito_risk":0,"arthritis_risk":5,"migraine_risk":7,"frizz_risk":0,"updated_at":"2026-05-20T02:52:04.911345+05:30"},{"city":"Moradabad","state":"Uttar Pradesh","latitude":28.8386,"longitude":78.7733,"temp":29.0,"humidity":60,"rain":0.0,"pressure":976.4,"uv_index":7.9,"wind_gusts":28.4,"aqi":161,"pm10":311.1,"pm2_5":100.4,"no2":38.7,"co":434.0,"o3":31.0,"so2":12.3,"mosquito_risk":4,"arthritis_risk":5,"migraine_risk":7,"frizz_risk":1,"updated_at":"2026-05-20T02:52:04.911351+05:30"},{"city":"Saharanpur","state":"Uttar Pradesh","latitude":29.9637,"longitude":77.546,"temp":28.9,"humidity":36,"rain":0.0,"pressure":968.7,"uv_index":7.4,"wind_gusts":21.6,"aqi":138,"pm10":152.7,"pm2_5":48.9,"no2":22.4,"co":524.0,"o3":64.0,"so2":9.6,"mosquito_risk":4,"arthritis_risk":5,"migraine_risk":7,"frizz_risk":0,"updated_at":"2026-05-20T02:52:04.911357+05:30"},{"city":"Jhansi","state":"Uttar Pradesh","latitude":25.4484,"longitude":78.5685,"temp":31.6,"humidity":34,"rain":0.0,"pressure":971.5,"uv_index":8.5,"wind_gusts":46.1,"aqi":75,"pm10":50.8,"pm2_5":26.3,"no2":10.7,"co":190.0,"o3":47.0,"so2":4.3,"mosquito_risk":0,"arthritis_risk":5,"migraine_risk":7,"frizz_risk":0,"updated_at":"2026-05-20T02:52:08.174758+05:30"},{"city":"Surat","state":"Gujarat","latitude":21.1702,"longitude":72.8311,"temp":28.8,"humidity":85,"rain":0.0,"pressure":1002.7,"uv_index":7.7,"wind_gusts":42.8,"aqi":97,"pm10":27.5,"pm2_5":18.0,"no2":20.6,"co":268.0,"o3":34.0,"so2":35.0,"mosquito_risk":7,"arthritis_risk":5,"migraine_risk":4,"frizz_risk":1,"updated_at":"2026-05-20T02:52:08.174796+05:30"},{"city":"Vadodara","state":"Gujarat","latitude":22.3072,"longitude":73.1812,"temp":29.2,"humidity":82,"rain":0.0,"pressure":1000.0,"uv_index":8.1,"wind_gusts":48.2,"aqi":74,"pm10":21.5,"pm2_5":15.8,"no2":14.4,"co":203.0,"o3":37.0,"so2":16.0,"mosquito_risk":7,"arthritis_risk":5,"migraine_risk":4,"frizz_risk":1,"updated_at":"2026-05-20T02:52:08.174809+05:30"},{"city":"Rajkot","state":"Gujarat","latitude":22.3039,"longitude":70.8022,"temp":26.9,"humidity":84,"rain":0.0,"pressure":990.4,"uv_index":7.75,"wind_gusts":42.8,"aqi":61,"pm10":25.0,"pm2_5":12.4,"no2":5.5,"co":129.0,"o3":41.0,"so2":5.5,"mosquito_risk":7,"arthritis_risk":5,"migraine_risk":7,"frizz_risk":1,"updated_at":"2026-05-20T02:52:08.174820+05:30"},{"city":"Thane","state":"Maharashtra","latitude":19.2183,"longitude":72.9781,"temp":28.5,"humidity":78,"rain":0.0,"pressure":1004.7,"uv_index":7.85,"wind_gusts":37.1,"aqi":74,"pm10":38.2,"pm2_5":19.0,"no2":5.6,"co":153.0,"o3":54.0,"so2":4.2,"mosquito_risk":7,"arthritis_risk":5,"migraine_risk":4,"frizz_risk":1,"updated_at":"2026-05-20T02:52:08.174831+05:30"},{"city":"Nagpur","state":"Maharashtra","latitude":21.1458,"longitude":79.0882,"temp":33.9,"humidity":32,"rain":0.0,"pressure":967.5,"uv_index":8.95,"wind_gusts":46.4,"aqi":90,"pm10":82.0,"pm2_5":48.4,"no2":40.5,"co":271.0,"o3":33.0,"so2":13.7,"mosquito_risk":0,"arthritis_risk":5,"migraine_risk":7,"frizz_risk":0,"updated_at":"2026-05-20T02:52:08.174842+05:30"},{"city":"Nashik","state":"Maharashtra","latitude":19.9975,"longitude":73.7898,"temp":23.8,"humidity":84,"rain":0.0,"pressure":942.4,"uv_index":8.15,"wind_gusts":39.6,"aqi":70,"pm10":37.6,"pm2_5":17.3,"no2":6.0,"co":124.0,"o3":52.0,"so2":2.2,"mosquito_risk":3,"arthritis_risk":5,"migraine_risk":7,"frizz_risk":1,"updated_at":"2026-05-20T02:52:08.174853+05:30"},{"city":"Aurangabad","state":"Maharashtra","latitude":19.8762,"longitude":75.3433,"temp":29.2,"humidity":46,"rain":0.0,"pressure":940.1,"uv_index":9.05,"wind_gusts":40.0,"aqi":73,"pm10":31.4,"pm2_5":20.3,"no2":8.8,"co":201.0,"o3":76.0,"so2":6.1,"mosquito_risk":4,"arthritis_risk":5,"migraine_risk":7,"frizz_risk":1,"updated_at":"2026-05-20T02:52:08.174862+05:30"},{"city":"Solapur","state":"Maharashtra","latitude":17.6599,"longitude":75.9064,"temp":29.0,"humidity":60,"rain":0.0,"pressure":953.7,"uv_index":9.0,"wind_gusts":34.6,"aqi":74,"pm10":25.4,"pm2_5":18.5,"no2":8.3,"co":152.0,"o3":57.0,"so2":3.2,"mosquito_risk":4,"arthritis_risk":5,"migraine_risk":7,"frizz_risk":1,"updated_at":"2026-05-20T02:52:08.174873+05:30"},{"city":"Kolhapur","state":"Maharashtra","latitude":16.705,"longitude":74.2433,"temp":23.6,"humidity":81,"rain":0.0,"pressure":945.2,"uv_index":8.9,"wind_gusts":39.6,"aqi":69,"pm10":39.0,"pm2_5":18.7,"no2":6.0,"co":149.0,"o3":49.0,"so2":2.6,"mosquito_risk":3,"arthritis_risk":5,"migraine_risk":7,"frizz_risk":1,"updated_at":"2026-05-20T02:52:08.174883+05:30"},{"city":"Goa","state":"Goa","latitude":15.2993,"longitude":74.124,"temp":26.1,"humidity":96,"rain":0.0,"pressure":995.8,"uv_index":7.85,"wind_gusts":29.5,"aqi":57,"pm10":15.5,"pm2_5":13.1,"no2":6.8,"co":272.0,"o3":57.0,"so2":1.6,"mosquito_risk":7,"arthritis_risk":5,"migraine_risk":7,"frizz_risk":1,"updated_at":"2026-05-20T02:52:08.174892+05:30"},{"city":"Jodhpur","state":"Rajasthan","latitude":26.2389,"longitude":73.0243,"temp":32.1,"humidity":33,"rain":0.0,"pressure":977.6,"uv_index":8.45,"wind_gusts":40.3,"aqi":121,"pm10":196.5,"pm2_5":45.4,"no2":4.5,"co":135.0,"o3":57.0,"so2":2.4,"mosquito_risk":0,"arthritis_risk":5,"migraine_risk":7,"frizz_risk":0,"updated_at":"2026-05-20T02:52:08.174902+05:30"},{"city":"Udaipur","state":"Rajasthan","latitude":24.5854,"longitude":73.7125,"temp":29.0,"humidity":37,"rain":0.0,"pressure":942.7,"uv_index":8.85,"wind_gusts":45.7,"aqi":57,"pm10":52.4,"pm2_5":22.8,"no2":3.4,"co":155.0,"o3":67.0,"so2":2.8,"mosquito_risk":4,"arthritis_risk":5,"migraine_risk":7,"frizz_risk":0,"updated_at":"2026-05-20T02:52:08.174911+05:30"},{"city":"Kota","state":"Rajasthan","latitude":25.2138,"longitude":75.8648,"temp":33.2,"humidity":19,"rain":0.0,"pressure":973.6,"uv_index":8.4,"wind_gusts":33.8,"aqi":59,"pm10":19.0,"pm2_5":12.1,"no2":3.9,"co":163.0,"o3":81.0,"so2":4.9,"mosquito_risk":0,"arthritis_risk":5,"migraine_risk":7,"frizz_risk":0,"updated_at":"2026-05-20T02:52:08.174922+05:30"},{"city":"Bikaner","state":"Rajasthan","latitude":28.0229,"longitude":73.3119,"temp":32.4,"humidity":34,"rain":0.0,"pressure":975.4,"uv_index":8.4,"wind_gusts":37.1,"aqi":134,"pm10":122.5,"pm2_5":36.1,"no2":2.7,"co":133.0,"o3":68.0,"so2":2.2,"mosquito_risk":0,"arthritis_risk":5,"migraine_risk":7,"frizz_risk":0,"updated_at":"2026-05-20T02:52:08.174932+05:30"},{"city":"Ajmer","state":"Rajasthan","latitude":26.4499,"longitude":74.6399,"temp":29.5,"humidity":32,"rain":0.0,"pressure":950.0,"uv_index":8.4,"wind_gusts":42.5,"aqi":63,"pm10":37.0,"pm2_5":18.0,"no2":6.1,"co":184.0,"o3":62.0,"so2":4.5,"mosquito_risk":4,"arthritis_risk":5,"migraine_risk":7,"frizz_risk":0,"updated_at":"2026-05-20T02:52:08.174941+05:30"},{"city":"Gwalior","state":"Madhya Pradesh","latitude":26.2183,"longitude":78.1828,"temp":32.1,"humidity":33,"rain":0.0,"pressure":976.8,"uv_index":8.3,"wind_gusts":42.8,"aqi":86,"pm10":19.0,"pm2_5":15.8,"no2":8.0,"co":178.0,"o3":57.0,"so2":3.7,"mosquito_risk":0,"arthritis_risk":5,"migraine_risk":7,"frizz_risk":0,"updated_at":"2026-05-20T02:52:08.174951+05:30"},{"city":"Indore","state":"Madhya Pradesh","latitude":22.7196,"longitude":75.8577,"temp":31.1,"humidity":22,"rain":0.0,"pressure":944.2,"uv_index":8.0,"wind_gusts":41.8,"aqi":63,"pm10":26.7,"pm2_5":17.1,"no2":3.4,"co":215.0,"o3":108.0,"so2":6.1,"mosquito_risk":0,"arthritis_risk":5,"migraine_risk":7,"frizz_risk":0,"updated_at":"2026-05-20T02:52:08.174961+05:30"},{"city":"Bhopal","state":"Madhya Pradesh","latitude":23.2599,"longitude":77.4126,"temp":32.6,"humidity":19,"rain":0.0,"pressure":948.7,"uv_index":8.7,"wind_gusts":46.1,"aqi":76,"pm10":24.2,"pm2_5":18.8,"no2":5.2,"co":191.0,"o3":80.0,"so2":5.3,"mosquito_risk":0,"arthritis_risk":5,"migraine_risk":7,"frizz_risk":0,"updated_at":"2026-05-20T02:52:08.174971+05:30"},{"city":"Jabalpur","state":"Madhya Pradesh","latitude":23.1815,"longitude":79.9864,"temp":30.5,"humidity":38,"rain":0.0,"pressure":955.3,"uv_index":8.9,"wind_gusts":29.9,"aqi":75,"pm10":70.5,"pm2_5":29.5,"no2":18.7,"co":276.0,"o3":58.0,"so2":5.5,"mosquito_risk":0,"arthritis_risk":5,"migraine_risk":7,"frizz_risk":0,"updated_at":"2026-05-20T02:52:08.174981+05:30"},{"city":"Ujjain","state":"Madhya Pradesh","latitude":23.1765,"longitude":75.7885,"temp":31.1,"humidity":22,"rain":0.0,"pressure":949.7,"uv_index":8.5,"wind_gusts":41.0,"aqi":62,"pm10":28.3,"pm2_5":18.2,"no2":3.8,"co":221.0,"o3":101.0,"so2":7.3,"mosquito_risk":0,"arthritis_risk":5,"migraine_risk":7,"frizz_risk":0,"updated_at":"2026-05-20T02:52:08.174993+05:30"},{"city":"Visakhapatnam","state":"Andhra Pradesh","latitude":17.6868,"longitude":83.2185,"temp":29.0,"humidity":94,"rain":0.0,"pressure":997.9,"uv_index":8.65,"wind_gusts":40.0,"aqi":72,"pm10":32.8,"pm2_5":27.0,"no2":17.3,"co":390.0,"o3":114.0,"so2":33.8,"mosquito_risk":7,"arthritis_risk":5,"migraine_risk":7,"frizz_risk":1,"updated_at":"2026-05-20T02:52:08.175003+05:30"},{"city":"Vijayawada","state":"Andhra Pradesh","latitude":16.5062,"longitude":80.648,"temp":31.0,"humidity":77,"rain":0.0,"pressure":997.0,"uv_index":9.1,"wind_gusts":37.4,"aqi":81,"pm10":29.3,"pm2_5":27.4,"no2":8.7,"co":301.0,"o3":110.0,"so2":6.5,"mosquito_risk":3,"arthritis_risk":5,"migraine_risk":7,"frizz_risk":1,"updated_at":"2026-05-20T02:52:08.175012+05:30"},{"city":"Guntur","state":"Andhra Pradesh","latitude":16.3067,"longitude":80.4365,"temp":30.8,"humidity":80,"rain":0.0,"pressure":998.2,"uv_index":9.05,"wind_gusts":37.1,"aqi":73,"pm10":29.3,"pm2_5":27.6,"no2":8.9,"co":283.0,"o3":113.0,"so2":6.6,"mosquito_risk":3,"arthritis_risk":5,"migraine_risk":7,"frizz_risk":1,"updated_at":"2026-05-20T02:52:08.175022+05:30"},{"city":"Nellore","state":"Andhra Pradesh","latitude":14.4426,"longitude":79.9865,"temp":32.1,"humidity":57,"rain":0.0,"pressure":1000.4,"uv_index":8.45,"wind_gusts":52.9,"aqi":86,"pm10":14.6,"pm2_5":13.4,"no2":5.5,"co":191.0,"o3":93.0,"so2":4.6,"mosquito_risk":0,"arthritis_risk":5,"migraine_risk":4,"frizz_risk":1,"updated_at":"2026-05-20T02:52:08.175032+05:30"},{"city":"Kurnool","state":"Andhra Pradesh","latitude":15.8281,"longitude":78.0373,"temp":30.2,"humidity":60,"rain":0.0,"pressure":973.4,"uv_index":8.7,"wind_gusts":43.6,"aqi":69,"pm10":11.6,"pm2_5":10.0,"no2":10.4,"co":197.0,"o3":64.0,"so2":5.4,"mosquito_risk":0,"arthritis_risk":5,"migraine_risk":7,"frizz_risk":1,"updated_at":"2026-05-20T02:52:08.175042+05:30"},{"city":"Kakinada","state":"Andhra Pradesh","latitude":16.9891,"longitude":82.2475,"temp":30.0,"humidity":86,"rain":0.0,"pressure":1001.9,"uv_index":8.95,"wind_gusts":54.4,"aqi":99,"pm10":30.9,"pm2_5":23.9,"no2":2.0,"co":321.0,"o3":143.0,"so2":3.8,"mosquito_risk":7,"arthritis_risk":5,"migraine_risk":4,"frizz_risk":1,"updated_at":"2026-05-20T02:52:08.175052+05:30"},{"city":"Tirupati","state":"Andhra Pradesh","latitude":13.6288,"longitude":79.4192,"temp":29.4,"humidity":62,"rain":0.0,"pressure":986.7,"uv_index":9.05,"wind_gusts":34.9,"aqi":64,"pm10":14.3,"pm2_5":13.4,"no2":8.8,"co":210.0,"o3":73.0,"so2":1.9,"mosquito_risk":7,"arthritis_risk":5,"migraine_risk":7,"frizz_risk":1,"updated_at":"2026-05-20T02:52:08.175061+05:30"},{"city":"Warangal","state":"Telangana","latitude":17.9689,"longitude":79.5941,"temp":30.8,"humidity":58,"rain":0.0,"pressure":973.4,"uv_index":8.6,"wind_gusts":28.8,"aqi":94,"pm10":38.3,"pm2_5":34.1,"no2":14.7,"co":334.0,"o3":72.0,"so2":9.4,"mosquito_risk":0,"arthritis_risk":5,"migraine_risk":7,"frizz_risk":1,"updated_at":"2026-05-20T02:52:08.175071+05:30"},{"city":"Nizamabad","state":"Telangana","latitude":18.6725,"longitude":78.0941,"temp":30.8,"humidity":53,"rain":0.0,"pressure":960.0,"uv_index":8.95,"wind_gusts":33.5,"aqi":100,"pm10":43.8,"pm2_5":39.0,"no2":15.7,"co":244.0,"o3":80.0,"so2":4.8,"mosquito_risk":0,"arthritis_risk":5,"migraine_risk":7,"frizz_risk":1,"updated_at":"2026-05-20T02:52:08.175080+05:30"},{"city":"Mysore","state":"Karnataka","latitude":12.2958,"longitude":76.6396,"temp":21.8,"humidity":96,"rain":0.0,"pressure":926.3,"uv_index":7.75,"wind_gusts":43.6,"aqi":22,"pm10":5.8,"pm2_5":5.3,"no2":8.0,"co":173.0,"o3":43.0,"so2":1.8,"mosquito_risk":3,"arthritis_risk":5,"migraine_risk":7,"frizz_risk":1,"updated_at":"2026-05-20T02:52:08.175089+05:30"},{"city":"Mangalore","state":"Karnataka","latitude":12.9141,"longitude":74.856,"temp":24.6,"humidity":98,"rain":0.1,"pressure":1005.0,"uv_index":2.05,"wind_gusts":32.8,"aqi":29,"pm10":9.1,"pm2_5":7.5,"no2":7.0,"co":195.0,"o3":46.0,"so2":2.1,"mosquito_risk":6,"arthritis_risk":5,"migraine_risk":0,"frizz_risk":1,"updated_at":"2026-05-20T02:52:08.175099+05:30"},{"city":"Hubli-Dharwad","state":"Karnataka","latitude":15.3647,"longitude":75.124,"temp":23.4,"humidity":94,"rain":0.0,"pressure":938.5,"uv_index":8.0,"wind_gusts":43.2,"aqi":32,"pm10":3.6,"pm2_5":3.3,"no2":4.7,"co":138.0,"o3":64.0,"so2":1.1,"mosquito_risk":3,"arthritis_risk":5,"migraine_risk":7,"frizz_risk":1,"updated_at":"2026-05-20T02:52:08.175108+05:30"},{"city":"Belgaum","state":"Karnataka","latitude":15.8497,"longitude":74.4977,"temp":21.7,"humidity":93,"rain":0.0,"pressure":923.2,"uv_index":8.75,"wind_gusts":37.4,"aqi":56,"pm10":21.1,"pm2_5":10.3,"no2":3.7,"co":135.0,"o3":56.0,"so2":2.1,"mosquito_risk":3,"arthritis_risk":5,"migraine_risk":7,"frizz_risk":1,"updated_at":"2026-05-20T02:52:11.431906+05:30"},{"city":"Coimbatore","state":"Tamil Nadu","latitude":11.0168,"longitude":76.9558,"temp":24.0,"humidity":88,"rain":0.0,"pressure":959.8,"uv_index":8.55,"wind_gusts":54.7,"aqi":25,"pm10":4.1,"pm2_5":3.5,"no2":4.5,"co":143.0,"o3":51.0,"so2":2.2,"mosquito_risk":3,"arthritis_risk":5,"migraine_risk":7,"frizz_risk":1,"updated_at":"2026-05-20T02:52:11.431942+05:30"},{"city":"Madurai","state":"Tamil Nadu","latitude":9.9252,"longitude":78.1198,"temp":27.6,"humidity":74,"rain":0.0,"pressure":990.7,"uv_index":8.65,"wind_gusts":47.9,"aqi":55,"pm10":29.3,"pm2_5":28.3,"no2":42.0,"co":204.0,"o3":2.0,"so2":7.7,"mosquito_risk":7,"arthritis_risk":5,"migraine_risk":7,"frizz_risk":1,"updated_at":"2026-05-20T02:52:11.431956+05:30"},{"city":"Trichy","state":"Tamil Nadu","latitude":10.7905,"longitude":78.7047,"temp":27.0,"humidity":79,"rain":0.0,"pressure":997.1,"uv_index":7.5,"wind_gusts":49.0,"aqi":41,"pm10":10.0,"pm2_5":9.2,"no2":14.3,"co":178.0,"o3":37.0,"so2":4.5,"mosquito_risk":7,"arthritis_risk":5,"migraine_risk":7,"frizz_risk":1,"updated_at":"2026-05-20T02:52:11.431968+05:30"},{"city":"Salem","state":"Tamil Nadu","latitude":11.6643,"longitude":78.146,"temp":25.7,"humidity":89,"rain":0.0,"pressure":975.1,"uv_index":5.15,"wind_gusts":36.0,"aqi":48,"pm10":16.4,"pm2_5":15.5,"no2":23.5,"co":252.0,"o3":32.0,"so2":7.6,"mosquito_risk":7,"arthritis_risk":5,"migraine_risk":3,"frizz_risk":1,"updated_at":"2026-05-20T02:52:11.431979+05:30"},{"city":"Tirunelveli","state":"Tamil Nadu","latitude":8.7139,"longitude":77.7567,"temp":27.7,"humidity":76,"rain":0.0,"pressure":1001.5,"uv_index":8.0,"wind_gusts":43.6,"aqi":24,"pm10":5.3,"pm2_5":4.4,"no2":5.5,"co":189.0,"o3":38.0,"so2":1.7,"mosquito_risk":7,"arthritis_risk":5,"migraine_risk":4,"frizz_risk":1,"updated_at":"2026-05-20T02:52:11.431991+05:30"},{"city":"Vellore","state":"Tamil Nadu","latitude":12.9165,"longitude":79.1325,"temp":27.3,"humidity":74,"rain":0.0,"pressure":980.6,"uv_index":7.75,"wind_gusts":46.1,"aqi":56,"pm10":10.1,"pm2_5":9.9,"no2":12.1,"co":227.0,"o3":56.0,"so2":4.1,"mosquito_risk":7,"arthritis_risk":5,"migraine_risk":7,"frizz_risk":1,"updated_at":"2026-05-20T02:52:11.432001+05:30"},{"city":"Erode","state":"Tamil Nadu","latitude":11.341,"longitude":77.7172,"temp":26.5,"humidity":78,"rain":0.0,"pressure":987.1,"uv_index":8.05,"wind_gusts":41.4,"aqi":32,"pm10":11.5,"pm2_5":10.7,"no2":16.7,"co":160.0,"o3":35.0,"so2":4.0,"mosquito_risk":7,"arthritis_risk":5,"migraine_risk":7,"frizz_risk":1,"updated_at":"2026-05-20T02:52:11.432011+05:30"},{"city":"Kochi","state":"Kerala","latitude":9.9312,"longitude":76.2673,"temp":25.8,"humidity":94,"rain":0.3,"pressure":1008.0,"uv_index":3.3,"wind_gusts":31.7,"aqi":43,"pm10":14.3,"pm2_5":13.3,"no2":16.4,"co":140.0,"o3":20.0,"so2":3.4,"mosquito_risk":10,"arthritis_risk":0,"migraine_risk":0,"frizz_risk":1,"updated_at":"2026-05-20T02:52:11.432022+05:30"},{"city":"Thiruvananthapuram","state":"Kerala","latitude":8.5241,"longitude":76.9366,"temp":24.8,"humidity":96,"rain":0.2,"pressure":1007.6,"uv_index":7.65,"wind_gusts":45.4,"aqi":26,"pm10":6.9,"pm2_5":3.9,"no2":1.1,"co":102.0,"o3":53.0,"so2":0.3,"mosquito_risk":6,"arthritis_risk":5,"migraine_risk":4,"frizz_risk":1,"updated_at":"2026-05-20T02:52:11.432031+05:30"},{"city":"Kozhikode","state":"Kerala","latitude":11.2588,"longitude":75.7804,"temp":24.2,"humidity":99,"rain":0.1,"pressure":1006.9,"uv_index":7.6,"wind_gusts":29.9,"aqi":30,"pm10":7.3,"pm2_5":4.7,"no2":1.1,"co":232.0,"o3":63.0,"so2":0.4,"mosquito_risk":6,"arthritis_risk":5,"migraine_risk":4,"frizz_risk":1,"updated_at":"2026-05-20T02:52:11.432041+05:30"},{"city":"Thrissur","state":"Kerala","latitude":10.5276,"longitude":76.2144,"temp":24.0,"humidity":99,"rain":0.1,"pressure":1006.3,"uv_index":3.8,"wind_gusts":32.8,"aqi":37,"pm10":12.4,"pm2_5":11.5,"no2":13.7,"co":251.0,"o3":26.0,"so2":4.1,"mosquito_risk":6,"arthritis_risk":5,"migraine_risk":0,"frizz_risk":1,"updated_at":"2026-05-20T02:52:11.432052+05:30"},{"city":"Kannur","state":"Kerala","latitude":11.8745,"longitude":75.3704,"temp":25.1,"humidity":97,"rain":0.2,"pressure":1005.8,"uv_index":7.9,"wind_gusts":32.0,"aqi":24,"pm10":7.0,"pm2_5":5.7,"no2":5.4,"co":225.0,"o3":44.0,"so2":1.7,"mosquito_risk":10,"arthritis_risk":5,"migraine_risk":4,"frizz_risk":1,"updated_at":"2026-05-20T02:52:11.432062+05:30"},{"city":"Patna","state":"Bihar","latitude":25.5941,"longitude":85.1376,"temp":27.5,"humidity":81,"rain":0.0,"pressure":994.8,"uv_index":8.85,"wind_gusts":24.5,"aqi":151,"pm10":50.1,"pm2_5":44.5,"no2":14.8,"co":414.0,"o3":83.0,"so2":16.5,"mosquito_risk":7,"arthritis_risk":5,"migraine_risk":7,"frizz_risk":1,"updated_at":"2026-05-20T02:52:11.432071+05:30"},{"city":"Gaya","state":"Bihar","latitude":24.7914,"longitude":85.0002,"temp":28.4,"humidity":74,"rain":0.0,"pressure":988.0,"uv_index":8.9,"wind_gusts":34.2,"aqi":152,"pm10":57.9,"pm2_5":53.4,"no2":14.7,"co":515.0,"o3":85.0,"so2":16.9,"mosquito_risk":7,"arthritis_risk":5,"migraine_risk":7,"frizz_risk":1,"updated_at":"2026-05-20T02:52:11.432081+05:30"},{"city":"Muzaffarpur","state":"Bihar","latitude":26.1209,"longitude":85.3647,"temp":27.4,"humidity":82,"rain":0.0,"pressure":995.0,"uv_index":8.85,"wind_gusts":28.4,"aqi":150,"pm10":54.0,"pm2_5":45.8,"no2":16.3,"co":403.0,"o3":75.0,"so2":15.3,"mosquito_risk":7,"arthritis_risk":5,"migraine_risk":7,"frizz_risk":1,"updated_at":"2026-05-20T02:52:11.432091+05:30"},{"city":"Bhagalpur","state":"Bihar","latitude":25.2425,"longitude":87.0117,"temp":27.2,"humidity":85,"rain":0.0,"pressure":995.7,"uv_index":8.7,"wind_gusts":26.6,"aqi":123,"pm10":48.7,"pm2_5":43.9,"no2":14.7,"co":425.0,"o3":71.0,"so2":8.9,"mosquito_risk":7,"arthritis_risk":5,"migraine_risk":7,"frizz_risk":1,"updated_at":"2026-05-20T02:52:11.432101+05:30"},{"city":"Ranchi","state":"Jharkhand","latitude":23.3441,"longitude":85.3096,"temp":25.2,"humidity":72,"rain":0.0,"pressure":932.1,"uv_index":9.3,"wind_gusts":41.8,"aqi":130,"pm10":148.5,"pm2_5":67.8,"no2":23.6,"co":348.0,"o3":93.0,"so2":16.1,"mosquito_risk":7,"arthritis_risk":5,"migraine_risk":7,"frizz_risk":1,"updated_at":"2026-05-20T02:52:11.432110+05:30"},{"city":"Jamshedpur","state":"Jharkhand","latitude":22.8046,"longitude":86.2029,"temp":27.6,"humidity":96,"rain":0.0,"pressure":984.6,"uv_index":9.1,"wind_gusts":34.2,"aqi":146,"pm10":105.2,"pm2_5":103.4,"no2":71.1,"co":638.0,"o3":17.0,"so2":67.1,"mosquito_risk":7,"arthritis_risk":5,"migraine_risk":7,"frizz_risk":1,"updated_at":"2026-05-20T02:52:11.432120+05:30"},{"city":"Dhanbad","state":"Jharkhand","latitude":23.7957,"longitude":86.4304,"temp":28.7,"humidity":79,"rain":0.0,"pressure":974.1,"uv_index":9.1,"wind_gusts":39.6,"aqi":168,"pm10":148.1,"pm2_5":140.6,"no2":53.3,"co":510.0,"o3":50.0,"so2":199.5,"mosquito_risk":7,"arthritis_risk":5,"migraine_risk":7,"frizz_risk":1,"updated_at":"2026-05-20T02:52:11.432130+05:30"},{"city":"Bokaro","state":"Jharkhand","latitude":23.6693,"longitude":86.1511,"temp":27.6,"humidity":88,"rain":0.0,"pressure":977.8,"uv_index":9.1,"wind_gusts":40.0,"aqi":163,"pm10":145.3,"pm2_5":134.6,"no2":54.0,"co":630.0,"o3":60.0,"so2":196.5,"mosquito_risk":7,"arthritis_risk":5,"migraine_risk":7,"frizz_risk":1,"updated_at":"2026-05-20T02:52:11.432141+05:30"},{"city":"Bhubaneswar","state":"Odisha","latitude":20.2961,"longitude":85.8245,"temp":28.9,"humidity":91,"rain":0.0,"pressure":995.7,"uv_index":9.1,"wind_gusts":33.5,"aqi":62,"pm10":17.5,"pm2_5":15.3,"no2":6.4,"co":231.0,"o3":68.0,"so2":6.0,"mosquito_risk":7,"arthritis_risk":5,"migraine_risk":7,"frizz_risk":1,"updated_at":"2026-05-20T02:52:11.432151+05:30"},{"city":"Cuttack","state":"Odisha","latitude":20.4625,"longitude":85.8828,"temp":29.0,"humidity":91,"rain":0.0,"pressure":997.5,"uv_index":9.15,"wind_gusts":32.4,"aqi":62,"pm10":17.5,"pm2_5":15.3,"no2":6.4,"co":255.0,"o3":68.0,"so2":6.0,"mosquito_risk":7,"arthritis_risk":5,"migraine_risk":7,"frizz_risk":1,"updated_at":"2026-05-20T02:52:11.432160+05:30"},{"city":"Rourkela","state":"Odisha","latitude":22.2604,"longitude":84.8536,"temp":26.9,"humidity":79,"rain":0.0,"pressure":978.7,"uv_index":9.0,"wind_gusts":30.2,"aqi":153,"pm10":260.8,"pm2_5":106.2,"no2":56.9,"co":331.0,"o3":21.0,"so2":26.1,"mosquito_risk":7,"arthritis_risk":5,"migraine_risk":7,"frizz_risk":1,"updated_at":"2026-05-20T02:52:11.432170+05:30"},{"city":"Raipur","state":"Chhattisgarh","latitude":21.2514,"longitude":81.6296,"temp":31.8,"humidity":49,"rain":0.0,"pressure":968.8,"uv_index":8.95,"wind_gusts":34.9,"aqi":114,"pm10":49.2,"pm2_5":44.8,"no2":35.2,"co":476.0,"o3":56.0,"so2":46.7,"mosquito_risk":0,"arthritis_risk":5,"migraine_risk":7,"frizz_risk":1,"updated_at":"2026-05-20T02:52:11.432179+05:30"},{"city":"Bhilai","state":"Chhattisgarh","latitude":21.1938,"longitude":81.3509,"temp":31.3,"humidity":51,"rain":0.0,"pressure":969.4,"uv_index":9.0,"wind_gusts":37.1,"aqi":104,"pm10":45.3,"pm2_5":40.9,"no2":28.6,"co":713.0,"o3":69.0,"so2":40.6,"mosquito_risk":0,"arthritis_risk":5,"migraine_risk":7,"frizz_risk":1,"updated_at":"2026-05-20T02:52:11.432188+05:30"},{"city":"Guwahati","state":"Assam","latitude":26.1158,"longitude":91.7086,"temp":24.5,"humidity":91,"rain":0.0,"pressure":997.1,"uv_index":8.7,"wind_gusts":19.1,"aqi":81,"pm10":58.9,"pm2_5":47.5,"no2":24.1,"co":363.0,"o3":23.0,"so2":5.5,"mosquito_risk":3,"arthritis_risk":5,"migraine_risk":7,"frizz_risk":1,"updated_at":"2026-05-20T02:52:11.432198+05:30"},{"city":"Agartala","state":"Tripura","latitude":23.8315,"longitude":91.2868,"temp":26.5,"humidity":97,"rain":0.0,"pressure":1001.3,"uv_index":8.9,"wind_gusts":23.8,"aqi":73,"pm10":17.7,"pm2_5":14.3,"no2":13.0,"co":208.0,"o3":40.0,"so2":2.7,"mosquito_risk":7,"arthritis_risk":5,"migraine_risk":4,"frizz_risk":1,"updated_at":"2026-05-20T02:52:11.432208+05:30"},{"city":"Shillong","state":"Meghalaya","latitude":25.5788,"longitude":91.8933,"temp":16.1,"humidity":97,"rain":0.0,"pressure":852.7,"uv_index":8.4,"wind_gusts":19.4,"aqi":65,"pm10":33.4,"pm2_5":23.3,"no2":7.4,"co":261.0,"o3":60.0,"so2":4.3,"mosquito_risk":3,"arthritis_risk":10,"migraine_risk":7,"frizz_risk":0,"updated_at":"2026-05-20T02:52:11.432217+05:30"},{"city":"Imphal","state":"Manipur","latitude":24.817,"longitude":93.9368,"temp":20.1,"humidity":96,"rain":0.0,"pressure":919.1,"uv_index":9.25,"wind_gusts":29.9,"aqi":70,"pm10":47.6,"pm2_5":36.7,"no2":17.9,"co":556.0,"o3":40.0,"so2":5.0,"mosquito_risk":3,"arthritis_risk":5,"migraine_risk":7,"frizz_risk":1,"updated_at":"2026-05-20T02:52:11.432228+05:30"},{"city":"Aizawl","state":"Mizoram","latitude":23.7271,"longitude":92.7176,"temp":18.2,"humidity":98,"rain":0.0,"pressure":888.1,"uv_index":9.1,"wind_gusts":22.3,"aqi":86,"pm10":41.8,"pm2_5":23.3,"no2":7.6,"co":234.0,"o3":34.0,"so2":1.6,"mosquito_risk":3,"arthritis_risk":10,"migraine_risk":7,"frizz_risk":1,"updated_at":"2026-05-20T02:52:11.432237+05:30"},{"city":"Kohima","state":"Nagaland","latitude":25.6701,"longitude":94.1077,"temp":15.8,"humidity":96,"rain":0.0,"pressure":850.7,"uv_index":8.7,"wind_gusts":28.4,"aqi":57,"pm10":36.1,"pm2_5":29.8,"no2":14.5,"co":255.0,"o3":44.0,"so2":1.0,"mosquito_risk":3,"arthritis_risk":10,"migraine_risk":7,"frizz_risk":0,"updated_at":"2026-05-20T02:52:11.432247+05:30"},{"city":"Gangtok","state":"Sikkim","latitude":27.3314,"longitude":88.6138,"temp":15.8,"humidity":78,"rain":0.1,"pressure":833.9,"uv_index":8.75,"wind_gusts":34.6,"aqi":74,"pm10":22.6,"pm2_5":19.2,"no2":13.4,"co":634.0,"o3":39.0,"so2":0.5,"mosquito_risk":6,"arthritis_risk":5,"migraine_risk":7,"frizz_risk":0,"updated_at":"2026-05-20T02:52:11.432257+05:30"},{"city":"Siliguri","state":"West Bengal","latitude":26.7271,"longitude":88.3953,"temp":26.1,"humidity":80,"rain":0.0,"pressure":988.3,"uv_index":8.7,"wind_gusts":21.6,"aqi":133,"pm10":84.5,"pm2_5":64.3,"no2":21.9,"co":482.0,"o3":67.0,"so2":7.1,"mosquito_risk":7,"arthritis_risk":5,"migraine_risk":7,"frizz_risk":1,"updated_at":"2026-05-20T02:52:14.691055+05:30"},{"city":"Durgapur","state":"West Bengal","latitude":23.5204,"longitude":87.3119,"temp":27.7,"humidity":92,"rain":0.0,"pressure":988.8,"uv_index":9.0,"wind_gusts":23.0,"aqi":156,"pm10":77.8,"pm2_5":73.1,"no2":37.1,"co":392.0,"o3":38.0,"so2":35.3,"mosquito_risk":7,"arthritis_risk":5,"migraine_risk":7,"frizz_risk":1,"updated_at":"2026-05-20T02:52:14.691093+05:30"},{"city":"Asansol","state":"West Bengal","latitude":23.6739,"longitude":86.9524,"temp":27.6,"humidity":90,"rain":0.0,"pressure":987.6,"uv_index":9.05,"wind_gusts":31.7,"aqi":157,"pm10":87.3,"pm2_5":81.7,"no2":36.8,"co":548.0,"o3":44.0,"so2":38.5,"mosquito_risk":7,"arthritis_risk":5,"migraine_risk":7,"frizz_risk":1,"updated_at":"2026-05-20T02:52:14.691106+05:30"},{"city":"Pondicherry","state":"Puducherry","latitude":11.9139,"longitude":79.8145,"temp":27.7,"humidity":80,"rain":0.0,"pressure":1004.7,"uv_index":8.9,"wind_gusts":37.1,"aqi":55,"pm10":12.0,"pm2_5":11.1,"no2":14.4,"co":218.0,"o3":58.0,"so2":9.7,"mosquito_risk":7,"arthritis_risk":5,"migraine_risk":4,"frizz_risk":1,"updated_at":"2026-05-20T02:52:14.691119+05:30"},{"city":"Port Blair","state":"Andaman and Nicobar Islands","latitude":11.6234,"longitude":92.7265,"temp":25.9,"humidity":95,"rain":0.0,"pressure":1003.3,"uv_index":8.95,"wind_gusts":50.0,"aqi":28,"pm10":11.1,"pm2_5":6.8,"no2":0.2,"co":132.0,"o3":64.0,"so2":0.5,"mosquito_risk":7,"arthritis_risk":5,"migraine_risk":4,"frizz_risk":1,"updated_at":"2026-05-20T02:52:14.691130+05:30"},{"city":"Haridwar","state":"Uttarakhand","latitude":29.9457,"longitude":78.1642,"temp":25.1,"humidity":51,"rain":0.0,"pressure":966.6,"uv_index":7.6,"wind_gusts":24.5,"aqi":105,"pm10":126.2,"pm2_5":36.0,"no2":13.8,"co":382.0,"o3":84.0,"so2":8.7,"mosquito_risk":4,"arthritis_risk":5,"migraine_risk":7,"frizz_risk":0,"updated_at":"2026-05-20T02:52:14.691141+05:30"},{"city":"Rishikesh","state":"Uttarakhand","latitude":30.0869,"longitude":78.2676,"temp":23.2,"humidity":57,"rain":0.0,"pressure":959.5,"uv_index":7.7,"wind_gusts":29.2,"aqi":104,"pm10":204.0,"pm2_5":48.0,"no2":11.1,"co":391.0,"o3":107.0,"so2":10.2,"mosquito_risk":0,"arthritis_risk":5,"migraine_risk":7,"frizz_risk":0,"updated_at":"2026-05-20T02:52:14.691152+05:30"},{"city":"Nainital","state":"Uttarakhand","latitude":29.3919,"longitude":79.4542,"temp":17.5,"humidity":46,"rain":0.0,"pressure":802.2,"uv_index":8.55,"wind_gusts":60.8,"aqi":109,"pm10":174.2,"pm2_5":41.6,"no2":11.8,"co":259.0,"o3":111.0,"so2":7.8,"mosquito_risk":0,"arthritis_risk":5,"migraine_risk":7,"frizz_risk":0,"updated_at":"2026-05-20T02:52:14.691162+05:30"},{"city":"Mussoorie","state":"Uttarakhand","latitude":30.4599,"longitude":78.0664,"temp":19.7,"humidity":37,"rain":0.0,"pressure":801.5,"uv_index":8.1,"wind_gusts":53.6,"aqi":90,"pm10":93.1,"pm2_5":41.7,"no2":33.7,"co":283.0,"o3":45.0,"so2":7.8,"mosquito_risk":0,"arthritis_risk":5,"migraine_risk":7,"frizz_risk":0,"updated_at":"2026-05-20T02:52:14.691172+05:30"},{"city":"Dharamshala","state":"Himachal Pradesh","latitude":32.219,"longitude":76.3234,"temp":24.0,"humidity":29,"rain":0.0,"pressure":866.3,"uv_index":8.5,"wind_gusts":44.3,"aqi":49,"pm10":14.2,"pm2_5":10.4,"no2":14.1,"co":200.0,"o3":32.0,"so2":0.1,"mosquito_risk":0,"arthritis_risk":5,"migraine_risk":7,"frizz_risk":0,"updated_at":"2026-05-20T02:52:14.691182+05:30"},{"city":"Dalhousie","state":"Himachal Pradesh","latitude":32.5387,"longitude":75.971,"temp":14.2,"humidity":56,"rain":0.0,"pressure":800.3,"uv_index":8.75,"wind_gusts":41.0,"aqi":62,"pm10":19.7,"pm2_5":16.4,"no2":32.4,"co":291.0,"o3":15.0,"so2":0.7,"mosquito_risk":0,"arthritis_risk":5,"migraine_risk":7,"frizz_risk":0,"updated_at":"2026-05-20T02:52:14.691193+05:30"},{"city":"Patiala","state":"Punjab","latitude":30.3398,"longitude":76.3869,"temp":30.6,"humidity":32,"rain":0.0,"pressure":971.4,"uv_index":7.65,"wind_gusts":26.3,"aqi":430,"pm10":583.0,"pm2_5":132.7,"no2":36.3,"co":428.0,"o3":39.0,"so2":11.7,"mosquito_risk":0,"arthritis_risk":5,"migraine_risk":7,"frizz_risk":0,"updated_at":"2026-05-20T02:52:14.691203+05:30"},{"city":"Bhatinda","state":"Punjab","latitude":30.211,"longitude":74.9455,"temp":29.2,"humidity":26,"rain":0.0,"pressure":976.6,"uv_index":8.35,"wind_gusts":25.9,"aqi":100,"pm10":59.8,"pm2_5":45.8,"no2":40.7,"co":545.0,"o3":32.0,"so2":9.7,"mosquito_risk":4,"arthritis_risk":5,"migraine_risk":7,"frizz_risk":0,"updated_at":"2026-05-20T02:52:14.691212+05:30"},{"city":"Rohtak","state":"Haryana","latitude":28.8955,"longitude":76.6066,"temp":30.5,"humidity":25,"rain":0.0,"pressure":975.3,"uv_index":7.8,"wind_gusts":29.2,"aqi":423,"pm10":573.7,"pm2_5":98.3,"no2":26.0,"co":231.0,"o3":43.0,"so2":3.8,"mosquito_risk":0,"arthritis_risk":5,"migraine_risk":7,"frizz_risk":0,"updated_at":"2026-05-20T02:52:14.691223+05:30"},{"city":"Panipat","state":"Haryana","latitude":29.3909,"longitude":76.9635,"temp":29.5,"humidity":36,"rain":0.0,"pressure":973.8,"uv_index":7.65,"wind_gusts":27.7,"aqi":985,"pm10":949.9,"pm2_5":168.1,"no2":30.1,"co":388.0,"o3":32.0,"so2":5.7,"mosquito_risk":4,"arthritis_risk":5,"migraine_risk":7,"frizz_risk":0,"updated_at":"2026-05-20T02:52:14.691233+05:30"},{"city":"Mathura","state":"Uttar Pradesh","latitude":27.4924,"longitude":77.6737,"temp":31.2,"humidity":36,"rain":0.0,"pressure":980.0,"uv_index":8.05,"wind_gusts":31.3,"aqi":529,"pm10":482.4,"pm2_5":93.1,"no2":34.6,"co":270.0,"o3":26.0,"so2":6.3,"mosquito_risk":0,"arthritis_risk":5,"migraine_risk":7,"frizz_risk":0,"updated_at":"2026-05-20T02:52:14.691243+05:30"},{"city":"Vrindavan","state":"Uttar Pradesh","latitude":27.5823,"longitude":77.7027,"temp":29.6,"humidity":41,"rain":0.0,"pressure":980.5,"uv_index":8.05,"wind_gusts":29.9,"aqi":529,"pm10":482.4,"pm2_5":93.1,"no2":34.6,"co":290.0,"o3":26.0,"so2":6.3,"mosquito_risk":4,"arthritis_risk":5,"migraine_risk":7,"frizz_risk":0,"updated_at":"2026-05-20T02:52:14.691252+05:30"},{"city":"Ayodhya","state":"Uttar Pradesh","latitude":26.7922,"longitude":82.1998,"temp":29.6,"humidity":73,"rain":0.0,"pressure":988.6,"uv_index":8.4,"wind_gusts":23.8,"aqi":152,"pm10":81.3,"pm2_5":63.1,"no2":17.6,"co":738.0,"o3":75.0,"so2":13.6,"mosquito_risk":7,"arthritis_risk":5,"migraine_risk":7,"frizz_risk":1,"updated_at":"2026-05-20T02:52:14.691262+05:30"},{"city":"Ratlam","state":"Madhya Pradesh","latitude":23.3315,"longitude":75.0367,"temp":28.1,"humidity":41,"rain":0.0,"pressure":950.7,"uv_index":8.55,"wind_gusts":45.4,"aqi":63,"pm10":33.8,"pm2_5":21.4,"no2":6.0,"co":189.0,"o3":88.0,"so2":12.2,"mosquito_risk":4,"arthritis_risk":5,"migraine_risk":7,"frizz_risk":0,"updated_at":"2026-05-20T02:52:14.691272+05:30"},{"city":"Sagar","state":"Madhya Pradesh","latitude":23.8388,"longitude":78.7378,"temp":31.5,"humidity":27,"rain":0.0,"pressure":944.6,"uv_index":8.75,"wind_gusts":40.3,"aqi":67,"pm10":64.5,"pm2_5":23.0,"no2":14.4,"co":208.0,"o3":79.0,"so2":4.8,"mosquito_risk":0,"arthritis_risk":5,"migraine_risk":7,"frizz_risk":0,"updated_at":"2026-05-20T02:52:14.691282+05:30"},{"city":"Satna","state":"Madhya Pradesh","latitude":24.6005,"longitude":80.8322,"temp":31.1,"humidity":41,"rain":0.0,"pressure":964.8,"uv_index":8.8,"wind_gusts":45.0,"aqi":118,"pm10":268.2,"pm2_5":59.1,"no2":20.2,"co":259.0,"o3":79.0,"so2":6.8,"mosquito_risk":0,"arthritis_risk":5,"migraine_risk":7,"frizz_risk":1,"updated_at":"2026-05-20T02:52:14.691292+05:30"},{"city":"Akola","state":"Maharashtra","latitude":20.7002,"longitude":77.0082,"temp":33.8,"humidity":23,"rain":0.0,"pressure":970.0,"uv_index":8.9,"wind_gusts":42.1,"aqi":73,"pm10":25.9,"pm2_5":16.9,"no2":5.3,"co":182.0,"o3":95.0,"so2":5.2,"mosquito_risk":0,"arthritis_risk":5,"migraine_risk":7,"frizz_risk":0,"updated_at":"2026-05-20T02:52:14.691302+05:30"},{"city":"Amravati","state":"Maharashtra","latitude":20.9374,"longitude":77.7796,"temp":33.3,"humidity":25,"rain":0.0,"pressure":962.1,"uv_index":8.9,"wind_gusts":46.1,"aqi":77,"pm10":25.4,"pm2_5":17.3,"no2":5.6,"co":338.0,"o3":95.0,"so2":5.7,"mosquito_risk":0,"arthritis_risk":5,"migraine_risk":7,"frizz_risk":0,"updated_at":"2026-05-20T02:52:14.691313+05:30"},{"city":"Latur","state":"Maharashtra","latitude":18.4088,"longitude":76.5604,"temp":29.9,"humidity":53,"rain":0.0,"pressure":936.0,"uv_index":8.45,"wind_gusts":34.9,"aqi":80,"pm10":29.5,"pm2_5":23.5,"no2":6.8,"co":213.0,"o3":99.0,"so2":10.0,"mosquito_risk":4,"arthritis_risk":5,"migraine_risk":7,"frizz_risk":1,"updated_at":"2026-05-20T02:52:14.691323+05:30"},{"city":"Nanded","state":"Maharashtra","latitude":19.1383,"longitude":77.3091,"temp":32.7,"humidity":44,"rain":0.0,"pressure":963.6,"uv_index":9.0,"wind_gusts":35.6,"aqi":91,"pm10":43.0,"pm2_5":34.6,"no2":19.2,"co":216.0,"o3":64.0,"so2":7.2,"mosquito_risk":0,"arthritis_risk":5,"migraine_risk":7,"frizz_risk":1,"updated_at":"2026-05-20T02:52:14.691332+05:30"},{"city":"Gulbarga","state":"Karnataka","latitude":17.3297,"longitude":76.8343,"temp":28.6,"humidity":63,"rain":0.0,"pressure":955.1,"uv_index":8.8,"wind_gusts":40.7,"aqi":76,"pm10":26.3,"pm2_5":19.2,"no2":11.9,"co":207.0,"o3":53.0,"so2":3.9,"mosquito_risk":7,"arthritis_risk":5,"migraine_risk":7,"frizz_risk":1,"updated_at":"2026-05-20T02:52:14.691341+05:30"},{"city":"Bidar","state":"Karnataka","latitude":17.9104,"longitude":77.5199,"temp":28.2,"humidity":61,"rain":0.0,"pressure":931.6,"uv_index":8.7,"wind_gusts":31.3,"aqi":90,"pm10":26.0,"pm2_5":21.8,"no2":9.7,"co":214.0,"o3":89.0,"so2":5.4,"mosquito_risk":7,"arthritis_risk":5,"migraine_risk":7,"frizz_risk":1,"updated_at":"2026-05-20T02:52:14.691351+05:30"},{"city":"Hospet","state":"Karnataka","latitude":15.2689,"longitude":76.3909,"temp":24.9,"humidity":87,"rain":0.0,"pressure":953.4,"uv_index":7.25,"wind_gusts":43.9,"aqi":34,"pm10":5.3,"pm2_5":5.0,"no2":7.7,"co":160.0,"o3":59.0,"so2":1.7,"mosquito_risk":3,"arthritis_risk":5,"migraine_risk":7,"frizz_risk":1,"updated_at":"2026-05-20T02:52:14.691360+05:30"},{"city":"Tirupur","state":"Tamil Nadu","latitude":11.1085,"longitude":77.3411,"temp":24.8,"humidity":86,"rain":0.0,"pressure":973.0,"uv_index":7.4,"wind_gusts":50.4,"aqi":34,"pm10":12.9,"pm2_5":12.0,"no2":18.8,"co":138.0,"o3":32.0,"so2":4.3,"mosquito_risk":3,"arthritis_risk":5,"migraine_risk":7,"frizz_risk":1,"updated_at":"2026-05-20T02:52:14.691369+05:30"},{"city":"Alappuzha","state":"Kerala","latitude":9.4981,"longitude":76.3388,"temp":25.2,"humidity":95,"rain":0.3,"pressure":1008.5,"uv_index":3.35,"wind_gusts":33.8,"aqi":35,"pm10":8.7,"pm2_5":6.7,"no2":7.1,"co":110.0,"o3":46.0,"so2":1.5,"mosquito_risk":10,"arthritis_risk":0,"migraine_risk":0,"frizz_risk":1,"updated_at":"2026-05-20T02:52:14.691379+05:30"},{"city":"Munnar","state":"Kerala","latitude":10.0889,"longitude":77.0595,"temp":17.7,"humidity":100,"rain":0.1,"pressure":855.4,"uv_index":5.85,"wind_gusts":38.9,"aqi":19,"pm10":4.9,"pm2_5":4.5,"no2":5.8,"co":115.0,"o3":32.0,"so2":0.9,"mosquito_risk":6,"arthritis_risk":10,"migraine_risk":3,"frizz_risk":1,"updated_at":"2026-05-20T02:52:14.691390+05:30"},{"city":"Silchar","state":"Assam","latitude":24.8333,"longitude":92.7789,"temp":24.6,"humidity":97,"rain":0.1,"pressure":1000.9,"uv_index":8.95,"wind_gusts":23.8,"aqi":99,"pm10":86.6,"pm2_5":60.5,"no2":24.7,"co":287.0,"o3":54.0,"so2":10.0,"mosquito_risk":6,"arthritis_risk":5,"migraine_risk":4,"frizz_risk":1,"updated_at":"2026-05-20T02:52:14.691400+05:30"},{"city":"Dibrugarh","state":"Assam","latitude":27.4728,"longitude":94.912,"temp":24.1,"humidity":92,"rain":0.0,"pressure":991.3,"uv_index":8.85,"wind_gusts":16.2,"aqi":98,"pm10":37.8,"pm2_5":35.9,"no2":27.4,"co":452.0,"o3":15.0,"so2":1.6,"mosquito_risk":3,"arthritis_risk":5,"migraine_risk":7,"frizz_risk":1,"updated_at":"2026-05-20T02:52:14.691409+05:30"}]