[{"city":"Delhi","state":"Delhi","latitude":28.6139,"longitude":77.209,"temp":38.2,"humidity":17,"rain":0.0,"pressure":977.6,"uv_index":7.4,"wind_gusts":48.6,"aqi":583,"pm10":827.0,"pm2_5":105.0,"mosquito_risk":0,"arthritis_risk":5,"migraine_risk":10,"frizz_risk":0,"updated_at":"2026-04-26T18:43:21.658825+05:30"},{"city":"Mumbai","state":"Maharashtra","latitude":19.076,"longitude":72.8777,"temp":30.6,"humidity":70,"rain":0.0,"pressure":1004.6,"uv_index":7.6,"wind_gusts":37.1,"aqi":143,"pm10":70.8,"pm2_5":37.3,"mosquito_risk":3,"arthritis_risk":5,"migraine_risk":4,"frizz_risk":1,"updated_at":"2026-04-26T18:43:21.658863+05:30"},{"city":"Bangalore","state":"Karnataka","latitude":12.9716,"longitude":77.5946,"temp":33.0,"humidity":25,"rain":0.0,"pressure":910.6,"uv_index":9.55,"wind_gusts":36.7,"aqi":165,"pm10":39.7,"pm2_5":31.2,"mosquito_risk":0,"arthritis_risk":5,"migraine_risk":7,"frizz_risk":0,"updated_at":"2026-04-26T18:43:21.658876+05:30"},{"city":"Hyderabad","state":"Telangana","latitude":17.385,"longitude":78.4867,"temp":35.7,"humidity":26,"rain":0.0,"pressure":951.4,"uv_index":9.25,"wind_gusts":33.5,"aqi":162,"pm10":54.8,"pm2_5":46.0,"mosquito_risk":0,"arthritis_risk":5,"migraine_risk":10,"frizz_risk":0,"updated_at":"2026-04-26T18:43:21.658885+05:30"},{"city":"Chennai","state":"Tamil Nadu","latitude":13.0827,"longitude":80.2707,"temp":30.1,"humidity":75,"rain":0.0,"pressure":1005.0,"uv_index":9.25,"wind_gusts":49.7,"aqi":40,"pm10":19.4,"pm2_5":12.6,"mosquito_risk":3,"arthritis_risk":5,"migraine_risk":4,"frizz_risk":1,"updated_at":"2026-04-26T18:43:21.658893+05:30"},{"city":"Kolkata","state":"West Bengal","latitude":22.5726,"longitude":88.3639,"temp":30.6,"humidity":67,"rain":0.0,"pressure":1002.9,"uv_index":8.9,"wind_gusts":40.0,"aqi":62,"pm10":23.7,"pm2_5":17.3,"mosquito_risk":3,"arthritis_risk":5,"migraine_risk":4,"frizz_risk":1,"updated_at":"2026-04-26T18:43:21.658905+05:30"},{"city":"Pune","state":"Maharashtra","latitude":18.5204,"longitude":73.8567,"temp":34.7,"humidity":31,"rain":0.0,"pressure":945.5,"uv_index":8.35,"wind_gusts":38.9,"aqi":164,"pm10":31.8,"pm2_5":23.6,"mosquito_risk":0,"arthritis_risk":5,"migraine_risk":7,"frizz_risk":0,"updated_at":"2026-04-26T18:43:21.658911+05:30"},{"city":"Ahmedabad","state":"Gujarat","latitude":23.0225,"longitude":72.5714,"temp":42.4,"humidity":10,"rain":0.0,"pressure":997.0,"uv_index":8.2,"wind_gusts":38.9,"aqi":88,"pm10":37.3,"pm2_5":15.7,"mosquito_risk":0,"arthritis_risk":5,"migraine_risk":10,"frizz_risk":0,"updated_at":"2026-04-26T18:43:21.658918+05:30"},{"city":"Jaipur","state":"Rajasthan","latitude":26.9124,"longitude":75.7873,"temp":39.2,"humidity":14,"rain":0.0,"pressure":956.4,"uv_index":8.05,"wind_gusts":41.8,"aqi":149,"pm10":319.4,"pm2_5":43.8,"mosquito_risk":0,"arthritis_risk":5,"migraine_risk":10,"frizz_risk":0,"updated_at":"2026-04-26T18:43:21.658925+05:30"},{"city":"Lucknow","state":"Uttar Pradesh","latitude":26.8467,"longitude":80.9462,"temp":39.7,"humidity":15,"rain":0.0,"pressure":987.2,"uv_index":7.9,"wind_gusts":52.6,"aqi":154,"pm10":296.2,"pm2_5":55.3,"mosquito_risk":0,"arthritis_risk":5,"migraine_risk":10,"frizz_risk":0,"updated_at":"2026-04-26T18:43:21.658931+05:30"},{"city":"Kanpur","state":"Uttar Pradesh","latitude":26.4499,"longitude":80.3319,"temp":40.2,"humidity":15,"rain":0.0,"pressure":985.7,"uv_index":7.9,"wind_gusts":54.7,"aqi":471,"pm10":683.6,"pm2_5":90.3,"mosquito_risk":0,"arthritis_risk":5,"migraine_risk":10,"frizz_risk":0,"updated_at":"2026-04-26T18:43:21.658937+05:30"},{"city":"Chandigarh","state":"Chandigarh","latitude":30.7333,"longitude":76.7794,"temp":33.7,"humidity":23,"rain":0.0,"pressure":963.8,"uv_index":7.4,"wind_gusts":45.7,"aqi":108,"pm10":17.6,"pm2_5":10.5,"mosquito_risk":0,"arthritis_risk":5,"migraine_risk":7,"frizz_risk":0,"updated_at":"2026-04-26T18:43:21.658944+05:30"},{"city":"Srinagar","state":"Jammu and Kashmir","latitude":34.0837,"longitude":74.7973,"temp":20.5,"humidity":59,"rain":0.0,"pressure":840.3,"uv_index":8.6,"wind_gusts":16.2,"aqi":91,"pm10":22.2,"pm2_5":12.8,"mosquito_risk":0,"arthritis_risk":5,"migraine_risk":7,"frizz_risk":0,"updated_at":"2026-04-26T18:43:21.658950+05:30"},{"city":"Jammu","state":"Jammu and Kashmir","latitude":32.7266,"longitude":74.857,"temp":34.5,"humidity":19,"rain":0.0,"pressure":967.3,"uv_index":8.15,"wind_gusts":33.8,"aqi":88,"pm10":28.7,"pm2_5":14.8,"mosquito_risk":0,"arthritis_risk":5,"migraine_risk":7,"frizz_risk":0,"updated_at":"2026-04-26T18:43:21.658956+05:30"},{"city":"Amritsar","state":"Punjab","latitude":31.634,"longitude":74.8723,"temp":35.5,"humidity":21,"rain":0.0,"pressure":975.6,"uv_index":8.1,"wind_gusts":36.7,"aqi":115,"pm10":24.7,"pm2_5":11.2,"mosquito_risk":0,"arthritis_risk":5,"migraine_risk":10,"frizz_risk":0,"updated_at":"2026-04-26T18:43:21.658962+05:30"},{"city":"Ludhiana","state":"Punjab","latitude":30.901,"longitude":75.8573,"temp":36.2,"humidity":18,"rain":0.0,"pressure":973.3,"uv_index":7.65,"wind_gusts":41.8,"aqi":96,"pm10":53.0,"pm2_5":15.8,"mosquito_risk":0,"arthritis_risk":5,"migraine_risk":10,"frizz_risk":0,"updated_at":"2026-04-26T18:43:21.658973+05:30"},{"city":"Jalandhar","state":"Punjab","latitude":31.326,"longitude":75.5762,"temp":34.8,"humidity":21,"rain":0.0,"pressure":974.4,"uv_index":7.85,"wind_gusts":37.4,"aqi":108,"pm10":61.5,"pm2_5":16.8,"mosquito_risk":0,"arthritis_risk":5,"migraine_risk":7,"frizz_risk":0,"updated_at":"2026-04-26T18:43:21.658978+05:30"},{"city":"Dehradun","state":"Uttarakhand","latitude":30.6284,"longitude":78.0322,"temp":21.7,"humidity":33,"rain":0.0,"pressure":827.3,"uv_index":7.8,"wind_gusts":49.0,"aqi":94,"pm10":19.9,"pm2_5":8.0,"mosquito_risk":0,"arthritis_risk":5,"migraine_risk":7,"frizz_risk":0,"updated_at":"2026-04-26T18:43:21.658983+05:30"},{"city":"Shimla","state":"Himachal Pradesh","latitude":31.1048,"longitude":77.1734,"temp":18.1,"humidity":31,"rain":0.0,"pressure":783.5,"uv_index":7.9,"wind_gusts":52.9,"aqi":91,"pm10":20.2,"pm2_5":8.1,"mosquito_risk":0,"arthritis_risk":5,"migraine_risk":7,"frizz_risk":0,"updated_at":"2026-04-26T18:43:21.658989+05:30"},{"city":"Manali","state":"Himachal Pradesh","latitude":32.2396,"longitude":77.1887,"temp":16.5,"humidity":42,"rain":0.0,"pressure":815.3,"uv_index":9.8,"wind_gusts":45.0,"aqi":125,"pm10":22.1,"pm2_5":7.4,"mosquito_risk":0,"arthritis_risk":5,"migraine_risk":7,"frizz_risk":0,"updated_at":"2026-04-26T18:43:21.658994+05:30"},{"city":"Gurgaon","state":"Haryana","latitude":28.4595,"longitude":77.0266,"temp":36.6,"humidity":19,"rain":0.0,"pressure":976.3,"uv_index":7.55,"wind_gusts":49.7,"aqi":1603,"pm10":2332.0,"pm2_5":241.2,"mosquito_risk":0,"arthritis_risk":5,"migraine_risk":10,"frizz_risk":0,"updated_at":"2026-04-26T18:43:21.659000+05:30"},{"city":"Noida","state":"Uttar Pradesh","latitude":28.5355,"longitude":77.391,"temp":38.2,"humidity":17,"rain":0.0,"pressure":978.8,"uv_index":7.45,"wind_gusts":43.9,"aqi":1603,"pm10":2332.0,"pm2_5":241.2,"mosquito_risk":0,"arthritis_risk":5,"migraine_risk":10,"frizz_risk":0,"updated_at":"2026-04-26T18:43:21.659005+05:30"},{"city":"Ghaziabad","state":"Uttar Pradesh","latitude":28.6692,"longitude":77.4538,"temp":38.3,"humidity":16,"rain":0.0,"pressure":977.0,"uv_index":7.4,"wind_gusts":47.9,"aqi":463,"pm10":735.7,"pm2_5":95.7,"mosquito_risk":0,"arthritis_risk":5,"migraine_risk":10,"frizz_risk":0,"updated_at":"2026-04-26T18:43:21.659011+05:30"},{"city":"Faridabad","state":"Haryana","latitude":28.4089,"longitude":77.3178,"temp":38.5,"humidity":16,"rain":0.0,"pressure":978.3,"uv_index":7.5,"wind_gusts":53.3,"aqi":1603,"pm10":2332.0,"pm2_5":241.2,"mosquito_risk":0,"arthritis_risk":5,"migraine_risk":10,"frizz_risk":0,"updated_at":"2026-04-26T18:43:21.659016+05:30"},{"city":"Meerut","state":"Uttar Pradesh","latitude":28.9845,"longitude":77.7064,"temp":36.7,"humidity":19,"rain":0.0,"pressure":975.0,"uv_index":7.3,"wind_gusts":50.8,"aqi":463,"pm10":735.7,"pm2_5":95.7,"mosquito_risk":0,"arthritis_risk":5,"migraine_risk":10,"frizz_risk":0,"updated_at":"2026-04-26T18:43:21.659021+05:30"},{"city":"Agra","state":"Uttar Pradesh","latitude":27.1767,"longitude":78.0081,"temp":38.7,"humidity":18,"rain":0.0,"pressure":982.5,"uv_index":7.8,"wind_gusts":50.4,"aqi":1075,"pm10":681.7,"pm2_5":86.6,"mosquito_risk":0,"arthritis_risk":5,"migraine_risk":10,"frizz_risk":0,"updated_at":"2026-04-26T18:43:21.659027+05:30"},{"city":"Varanasi","state":"Uttar Pradesh","latitude":25.3176,"longitude":82.9739,"temp":39.5,"humidity":17,"rain":0.0,"pressure":991.2,"uv_index":8.5,"wind_gusts":53.3,"aqi":169,"pm10":91.0,"pm2_5":38.8,"mosquito_risk":0,"arthritis_risk":5,"migraine_risk":10,"frizz_risk":0,"updated_at":"2026-04-26T18:43:21.659033+05:30"},{"city":"Prayagraj","state":"Uttar Pradesh","latitude":25.4358,"longitude":81.8463,"temp":39.9,"humidity":15,"rain":0.0,"pressure":989.8,"uv_index":8.4,"wind_gusts":50.8,"aqi":153,"pm10":106.4,"pm2_5":33.8,"mosquito_risk":0,"arthritis_risk":5,"migraine_risk":10,"frizz_risk":0,"updated_at":"2026-04-26T18:43:21.659038+05:30"},{"city":"Gorakhpur","state":"Uttar Pradesh","latitude":26.7606,"longitude":83.3732,"temp":32.8,"humidity":45,"rain":0.0,"pressure":992.0,"uv_index":8.35,"wind_gusts":40.7,"aqi":178,"pm10":86.8,"pm2_5":60.1,"mosquito_risk":0,"arthritis_risk":5,"migraine_risk":7,"frizz_risk":1,"updated_at":"2026-04-26T18:43:21.659044+05:30"},{"city":"Bareilly","state":"Uttar Pradesh","latitude":28.367,"longitude":79.4304,"temp":37.2,"humidity":19,"rain":0.0,"pressure":980.2,"uv_index":7.65,"wind_gusts":54.7,"aqi":114,"pm10":90.6,"pm2_5":29.1,"mosquito_risk":0,"arthritis_risk":5,"migraine_risk":10,"frizz_risk":0,"updated_at":"2026-04-26T18:43:21.659049+05:30"},{"city":"Aligarh","state":"Uttar Pradesh","latitude":27.8974,"longitude":78.088,"temp":37.5,"humidity":18,"rain":0.0,"pressure":980.1,"uv_index":7.6,"wind_gusts":51.8,"aqi":1040,"pm10":1471.5,"pm2_5":170.9,"mosquito_risk":0,"arthritis_risk":5,"migraine_risk":10,"frizz_risk":0,"updated_at":"2026-04-26T18:43:21.659056+05:30"},{"city":"Moradabad","state":"Uttar Pradesh","latitude":28.8386,"longitude":78.7733,"temp":36.9,"humidity":19,"rain":0.0,"pressure":976.9,"uv_index":7.5,"wind_gusts":55.8,"aqi":127,"pm10":222.1,"pm2_5":45.1,"mosquito_risk":0,"arthritis_risk":5,"migraine_risk":10,"frizz_risk":0,"updated_at":"2026-04-26T18:43:21.659061+05:30"},{"city":"Saharanpur","state":"Uttar Pradesh","latitude":29.9637,"longitude":77.546,"temp":35.0,"humidity":18,"rain":0.0,"pressure":969.6,"uv_index":7.1,"wind_gusts":52.2,"aqi":96,"pm10":129.9,"pm2_5":28.0,"mosquito_risk":0,"arthritis_risk":5,"migraine_risk":7,"frizz_risk":0,"updated_at":"2026-04-26T18:43:21.659066+05:30"},{"city":"Jhansi","state":"Uttar Pradesh","latitude":25.4484,"longitude":78.5685,"temp":38.0,"humidity":17,"rain":0.0,"pressure":974.1,"uv_index":8.3,"wind_gusts":49.0,"aqi":93,"pm10":66.1,"pm2_5":21.9,"mosquito_risk":0,"arthritis_risk":5,"migraine_risk":10,"frizz_risk":0,"updated_at":"2026-04-26T18:43:24.963641+05:30"},{"city":"Surat","state":"Gujarat","latitude":21.1702,"longitude":72.8311,"temp":36.9,"humidity":31,"rain":0.0,"pressure":1001.8,"uv_index":7.85,"wind_gusts":36.0,"aqi":111,"pm10":72.6,"pm2_5":53.0,"mosquito_risk":0,"arthritis_risk":5,"migraine_risk":7,"frizz_risk":1,"updated_at":"2026-04-26T18:43:24.963672+05:30"},{"city":"Vadodara","state":"Gujarat","latitude":22.3072,"longitude":73.1812,"temp":41.0,"humidity":14,"rain":0.0,"pressure":999.0,"uv_index":8.15,"wind_gusts":41.4,"aqi":145,"pm10":39.7,"pm2_5":26.7,"mosquito_risk":0,"arthritis_risk":5,"migraine_risk":10,"frizz_risk":0,"updated_at":"2026-04-26T18:43:24.963680+05:30"},{"city":"Rajkot","state":"Gujarat","latitude":22.3039,"longitude":70.8022,"temp":38.6,"humidity":15,"rain":0.0,"pressure":990.6,"uv_index":7.85,"wind_gusts":39.2,"aqi":60,"pm10":49.6,"pm2_5":16.6,"mosquito_risk":0,"arthritis_risk":5,"migraine_risk":10,"frizz_risk":0,"updated_at":"2026-04-26T18:43:24.963686+05:30"},{"city":"Thane","state":"Maharashtra","latitude":19.2183,"longitude":72.9781,"temp":32.9,"humidity":56,"rain":0.0,"pressure":1003.6,"uv_index":7.6,"wind_gusts":32.8,"aqi":143,"pm10":70.8,"pm2_5":37.3,"mosquito_risk":0,"arthritis_risk":5,"migraine_risk":4,"frizz_risk":1,"updated_at":"2026-04-26T18:43:24.963692+05:30"},{"city":"Nagpur","state":"Maharashtra","latitude":21.1458,"longitude":79.0882,"temp":41.3,"humidity":12,"rain":0.0,"pressure":968.7,"uv_index":8.9,"wind_gusts":34.6,"aqi":205,"pm10":65.0,"pm2_5":30.3,"mosquito_risk":0,"arthritis_risk":5,"migraine_risk":10,"frizz_risk":0,"updated_at":"2026-04-26T18:43:24.963697+05:30"},{"city":"Nashik","state":"Maharashtra","latitude":19.9975,"longitude":73.7898,"temp":36.8,"humidity":17,"rain":0.0,"pressure":943.3,"uv_index":8.1,"wind_gusts":36.0,"aqi":139,"pm10":31.4,"pm2_5":22.6,"mosquito_risk":0,"arthritis_risk":5,"migraine_risk":10,"frizz_risk":0,"updated_at":"2026-04-26T18:43:24.963703+05:30"},{"city":"Aurangabad","state":"Maharashtra","latitude":19.8762,"longitude":75.3433,"temp":38.3,"humidity":13,"rain":0.0,"pressure":941.3,"uv_index":9.05,"wind_gusts":32.4,"aqi":121,"pm10":17.9,"pm2_5":11.4,"mosquito_risk":0,"arthritis_risk":5,"migraine_risk":10,"frizz_risk":0,"updated_at":"2026-04-26T18:43:24.963708+05:30"},{"city":"Solapur","state":"Maharashtra","latitude":17.6599,"longitude":75.9064,"temp":38.0,"humidity":17,"rain":0.0,"pressure":953.9,"uv_index":9.05,"wind_gusts":25.2,"aqi":176,"pm10":42.5,"pm2_5":33.2,"mosquito_risk":0,"arthritis_risk":5,"migraine_risk":10,"frizz_risk":0,"updated_at":"2026-04-26T18:43:24.963714+05:30"},{"city":"Kolhapur","state":"Maharashtra","latitude":16.705,"longitude":74.2433,"temp":30.8,"humidity":61,"rain":0.0,"pressure":945.8,"uv_index":9.0,"wind_gusts":50.8,"aqi":169,"pm10":32.9,"pm2_5":29.3,"mosquito_risk":3,"arthritis_risk":5,"migraine_risk":7,"frizz_risk":1,"updated_at":"2026-04-26T18:43:24.963720+05:30"},{"city":"Goa","state":"Goa","latitude":15.2993,"longitude":74.124,"temp":31.6,"humidity":68,"rain":0.0,"pressure":995.3,"uv_index":8.95,"wind_gusts":34.9,"aqi":88,"pm10":35.0,"pm2_5":25.0,"mosquito_risk":3,"arthritis_risk":5,"migraine_risk":7,"frizz_risk":1,"updated_at":"2026-04-26T18:43:24.963725+05:30"},{"city":"Jodhpur","state":"Rajasthan","latitude":26.2389,"longitude":73.0243,"temp":40.7,"humidity":14,"rain":0.0,"pressure":978.4,"uv_index":8.3,"wind_gusts":34.2,"aqi":78,"pm10":123.9,"pm2_5":18.9,"mosquito_risk":0,"arthritis_risk":5,"migraine_risk":10,"frizz_risk":0,"updated_at":"2026-04-26T18:43:24.963731+05:30"},{"city":"Udaipur","state":"Rajasthan","latitude":24.5854,"longitude":73.7125,"temp":35.9,"humidity":19,"rain":0.0,"pressure":943.6,"uv_index":8.75,"wind_gusts":47.9,"aqi":85,"pm10":13.4,"pm2_5":6.0,"mosquito_risk":0,"arthritis_risk":5,"migraine_risk":10,"frizz_risk":0,"updated_at":"2026-04-26T18:43:24.963737+05:30"},{"city":"Kota","state":"Rajasthan","latitude":25.2138,"longitude":75.8648,"temp":37.8,"humidity":25,"rain":0.0,"pressure":975.1,"uv_index":8.3,"wind_gusts":46.8,"aqi":91,"pm10":80.3,"pm2_5":26.0,"mosquito_risk":0,"arthritis_risk":5,"migraine_risk":10,"frizz_risk":0,"updated_at":"2026-04-26T18:43:24.963742+05:30"},{"city":"Bikaner","state":"Rajasthan","latitude":28.0229,"longitude":73.3119,"temp":40.5,"humidity":14,"rain":0.0,"pressure":977.1,"uv_index":8.15,"wind_gusts":37.1,"aqi":73,"pm10":63.8,"pm2_5":17.6,"mosquito_risk":0,"arthritis_risk":5,"migraine_risk":10,"frizz_risk":0,"updated_at":"2026-04-26T18:43:24.963748+05:30"},{"city":"Ajmer","state":"Rajasthan","latitude":26.4499,"longitude":74.6399,"temp":37.6,"humidity":16,"rain":0.0,"pressure":951.9,"uv_index":8.25,"wind_gusts":41.4,"aqi":69,"pm10":50.3,"pm2_5":14.5,"mosquito_risk":0,"arthritis_risk":5,"migraine_risk":10,"frizz_risk":0,"updated_at":"2026-04-26T18:43:24.963753+05:30"},{"city":"Gwalior","state":"Madhya Pradesh","latitude":26.2183,"longitude":78.1828,"temp":39.0,"humidity":16,"rain":0.0,"pressure":978.7,"uv_index":8.0,"wind_gusts":45.4,"aqi":126,"pm10":73.8,"pm2_5":23.3,"mosquito_risk":0,"arthritis_risk":5,"migraine_risk":10,"frizz_risk":0,"updated_at":"2026-04-26T18:43:24.963757+05:30"},{"city":"Indore","state":"Madhya Pradesh","latitude":22.7196,"longitude":75.8577,"temp":36.5,"humidity":19,"rain":0.0,"pressure":945.9,"uv_index":8.65,"wind_gusts":37.4,"aqi":116,"pm10":44.9,"pm2_5":20.0,"mosquito_risk":0,"arthritis_risk":5,"migraine_risk":10,"frizz_risk":0,"updated_at":"2026-04-26T18:43:24.963763+05:30"},{"city":"Bhopal","state":"Madhya Pradesh","latitude":23.2599,"longitude":77.4126,"temp":38.1,"humidity":16,"rain":0.0,"pressure":951.0,"uv_index":8.65,"wind_gusts":37.8,"aqi":129,"pm10":64.3,"pm2_5":23.9,"mosquito_risk":0,"arthritis_risk":5,"migraine_risk":10,"frizz_risk":0,"updated_at":"2026-04-26T18:43:24.963767+05:30"},{"city":"Jabalpur","state":"Madhya Pradesh","latitude":23.1815,"longitude":79.9864,"temp":37.2,"humidity":17,"rain":0.0,"pressure":958.1,"uv_index":8.7,"wind_gusts":42.1,"aqi":94,"pm10":54.2,"pm2_5":19.8,"mosquito_risk":0,"arthritis_risk":5,"migraine_risk":10,"frizz_risk":0,"updated_at":"2026-04-26T18:43:24.963773+05:30"},{"city":"Ujjain","state":"Madhya Pradesh","latitude":23.1765,"longitude":75.7885,"temp":36.1,"humidity":21,"rain":0.0,"pressure":951.2,"uv_index":8.55,"wind_gusts":41.4,"aqi":88,"pm10":47.0,"pm2_5":22.8,"mosquito_risk":0,"arthritis_risk":5,"migraine_risk":10,"frizz_risk":0,"updated_at":"2026-04-26T18:43:24.963778+05:30"},{"city":"Visakhapatnam","state":"Andhra Pradesh","latitude":17.6868,"longitude":83.2185,"temp":29.4,"humidity":80,"rain":0.0,"pressure":1001.1,"uv_index":8.95,"wind_gusts":47.5,"aqi":55,"pm10":22.0,"pm2_5":14.6,"mosquito_risk":7,"arthritis_risk":5,"migraine_risk":4,"frizz_risk":1,"updated_at":"2026-04-26T18:43:24.963784+05:30"},{"city":"Vijayawada","state":"Andhra Pradesh","latitude":16.5062,"longitude":80.648,"temp":33.8,"humidity":40,"rain":0.0,"pressure":999.8,"uv_index":8.9,"wind_gusts":37.4,"aqi":56,"pm10":22.6,"pm2_5":17.2,"mosquito_risk":0,"arthritis_risk":5,"migraine_risk":7,"frizz_risk":1,"updated_at":"2026-04-26T18:43:24.963788+05:30"},{"city":"Guntur","state":"Andhra Pradesh","latitude":16.3067,"longitude":80.4365,"temp":31.5,"humidity":58,"rain":0.0,"pressure":1001.3,"uv_index":8.95,"wind_gusts":40.7,"aqi":80,"pm10":26.1,"pm2_5":20.4,"mosquito_risk":0,"arthritis_risk":5,"migraine_risk":4,"frizz_risk":1,"updated_at":"2026-04-26T18:43:24.963792+05:30"},{"city":"Nellore","state":"Andhra Pradesh","latitude":14.4426,"longitude":79.9865,"temp":30.4,"humidity":74,"rain":0.0,"pressure":1003.0,"uv_index":9.1,"wind_gusts":43.9,"aqi":82,"pm10":21.2,"pm2_5":15.6,"mosquito_risk":3,"arthritis_risk":5,"migraine_risk":4,"frizz_risk":1,"updated_at":"2026-04-26T18:43:24.963798+05:30"},{"city":"Kurnool","state":"Andhra Pradesh","latitude":15.8281,"longitude":78.0373,"temp":38.6,"humidity":18,"rain":0.0,"pressure":973.2,"uv_index":9.2,"wind_gusts":33.8,"aqi":150,"pm10":43.3,"pm2_5":35.0,"mosquito_risk":0,"arthritis_risk":5,"migraine_risk":10,"frizz_risk":0,"updated_at":"2026-04-26T18:43:24.963803+05:30"},{"city":"Kakinada","state":"Andhra Pradesh","latitude":16.9891,"longitude":82.2475,"temp":31.2,"humidity":64,"rain":0.0,"pressure":1004.7,"uv_index":8.85,"wind_gusts":40.3,"aqi":47,"pm10":20.3,"pm2_5":11.8,"mosquito_risk":3,"arthritis_risk":5,"migraine_risk":4,"frizz_risk":1,"updated_at":"2026-04-26T18:43:24.963808+05:30"},{"city":"Tirupati","state":"Andhra Pradesh","latitude":13.6288,"longitude":79.4192,"temp":36.0,"humidity":28,"rain":0.0,"pressure":988.1,"uv_index":9.3,"wind_gusts":40.3,"aqi":80,"pm10":27.7,"pm2_5":23.7,"mosquito_risk":0,"arthritis_risk":5,"migraine_risk":10,"frizz_risk":0,"updated_at":"2026-04-26T18:43:24.963812+05:30"},{"city":"Warangal","state":"Telangana","latitude":17.9689,"longitude":79.5941,"temp":37.0,"humidity":23,"rain":0.0,"pressure":975.6,"uv_index":9.0,"wind_gusts":35.3,"aqi":125,"pm10":44.2,"pm2_5":38.0,"mosquito_risk":0,"arthritis_risk":5,"migraine_risk":10,"frizz_risk":0,"updated_at":"2026-04-26T18:43:24.963817+05:30"},{"city":"Nizamabad","state":"Telangana","latitude":18.6725,"longitude":78.0941,"temp":36.7,"humidity":20,"rain":0.0,"pressure":961.3,"uv_index":8.6,"wind_gusts":31.3,"aqi":162,"pm10":39.7,"pm2_5":29.6,"mosquito_risk":0,"arthritis_risk":5,"migraine_risk":10,"frizz_risk":0,"updated_at":"2026-04-26T18:43:24.963822+05:30"},{"city":"Mysore","state":"Karnataka","latitude":12.2958,"longitude":76.6396,"temp":32.6,"humidity":33,"rain":0.0,"pressure":926.2,"uv_index":9.45,"wind_gusts":40.0,"aqi":154,"pm10":44.5,"pm2_5":33.2,"mosquito_risk":0,"arthritis_risk":5,"migraine_risk":7,"frizz_risk":0,"updated_at":"2026-04-26T18:43:24.963826+05:30"},{"city":"Mangalore","state":"Karnataka","latitude":12.9141,"longitude":74.856,"temp":30.6,"humidity":76,"rain":0.0,"pressure":1004.4,"uv_index":9.05,"wind_gusts":39.2,"aqi":80,"pm10":31.4,"pm2_5":23.6,"mosquito_risk":3,"arthritis_risk":5,"migraine_risk":4,"frizz_risk":1,"updated_at":"2026-04-26T18:43:24.963831+05:30"},{"city":"Hubli-Dharwad","state":"Karnataka","latitude":15.3647,"longitude":75.124,"temp":29.8,"humidity":56,"rain":0.0,"pressure":939.1,"uv_index":8.85,"wind_gusts":45.7,"aqi":155,"pm10":38.1,"pm2_5":34.6,"mosquito_risk":4,"arthritis_risk":5,"migraine_risk":7,"frizz_risk":1,"updated_at":"2026-04-26T18:43:24.963836+05:30"},{"city":"Belgaum","state":"Karnataka","latitude":15.8497,"longitude":74.4977,"temp":28.8,"humidity":65,"rain":0.0,"pressure":924.4,"uv_index":8.85,"wind_gusts":48.2,"aqi":164,"pm10":39.3,"pm2_5":34.1,"mosquito_risk":7,"arthritis_risk":5,"migraine_risk":7,"frizz_risk":1,"updated_at":"2026-04-26T18:43:28.272596+05:30"},{"city":"Coimbatore","state":"Tamil Nadu","latitude":11.0168,"longitude":76.9558,"temp":36.4,"humidity":22,"rain":0.0,"pressure":959.0,"uv_index":9.35,"wind_gusts":39.6,"aqi":135,"pm10":31.7,"pm2_5":25.9,"mosquito_risk":0,"arthritis_risk":5,"migraine_risk":10,"frizz_risk":0,"updated_at":"2026-04-26T18:43:28.272626+05:30"},{"city":"Madurai","state":"Tamil Nadu","latitude":9.9252,"longitude":78.1198,"temp":36.2,"humidity":29,"rain":0.0,"pressure":990.0,"uv_index":9.25,"wind_gusts":37.4,"aqi":74,"pm10":10.5,"pm2_5":9.8,"mosquito_risk":0,"arthritis_risk":5,"migraine_risk":10,"frizz_risk":0,"updated_at":"2026-04-26T18:43:28.272635+05:30"},{"city":"Trichy","state":"Tamil Nadu","latitude":10.7905,"longitude":78.7047,"temp":34.5,"humidity":38,"rain":0.0,"pressure":996.9,"uv_index":9.25,"wind_gusts":30.6,"aqi":51,"pm10":14.8,"pm2_5":13.8,"mosquito_risk":0,"arthritis_risk":5,"migraine_risk":7,"frizz_risk":1,"updated_at":"2026-04-26T18:43:28.272642+05:30"},{"city":"Salem","state":"Tamil Nadu","latitude":11.6643,"longitude":78.146,"temp":35.4,"humidity":28,"rain":0.0,"pressure":974.6,"uv_index":9.35,"wind_gusts":41.8,"aqi":95,"pm10":20.7,"pm2_5":17.9,"mosquito_risk":0,"arthritis_risk":5,"migraine_risk":10,"frizz_risk":0,"updated_at":"2026-04-26T18:43:28.272648+05:30"},{"city":"Tirunelveli","state":"Tamil Nadu","latitude":8.7139,"longitude":77.7567,"temp":32.8,"humidity":53,"rain":0.0,"pressure":1000.6,"uv_index":9.2,"wind_gusts":37.4,"aqi":82,"pm10":12.2,"pm2_5":11.5,"mosquito_risk":0,"arthritis_risk":5,"migraine_risk":4,"frizz_risk":1,"updated_at":"2026-04-26T18:43:28.272654+05:30"},{"city":"Vellore","state":"Tamil Nadu","latitude":12.9165,"longitude":79.1325,"temp":35.0,"humidity":32,"rain":0.0,"pressure":982.0,"uv_index":9.3,"wind_gusts":34.6,"aqi":85,"pm10":32.0,"pm2_5":28.8,"mosquito_risk":0,"arthritis_risk":5,"migraine_risk":7,"frizz_risk":0,"updated_at":"2026-04-26T18:43:28.272660+05:30"},{"city":"Erode","state":"Tamil Nadu","latitude":11.341,"longitude":77.7172,"temp":37.0,"humidity":22,"rain":0.0,"pressure":985.5,"uv_index":9.3,"wind_gusts":39.2,"aqi":81,"pm10":19.7,"pm2_5":17.2,"mosquito_risk":0,"arthritis_risk":5,"migraine_risk":10,"frizz_risk":0,"updated_at":"2026-04-26T18:43:28.272665+05:30"},{"city":"Kochi","state":"Kerala","latitude":9.9312,"longitude":76.2673,"temp":30.5,"humidity":74,"rain":0.0,"pressure":1005.8,"uv_index":9.0,"wind_gusts":39.2,"aqi":103,"pm10":17.1,"pm2_5":15.0,"mosquito_risk":3,"arthritis_risk":5,"migraine_risk":4,"frizz_risk":1,"updated_at":"2026-04-26T18:43:28.272671+05:30"},{"city":"Thiruvananthapuram","state":"Kerala","latitude":8.5241,"longitude":76.9366,"temp":29.7,"humidity":68,"rain":0.0,"pressure":1005.7,"uv_index":8.8,"wind_gusts":32.4,"aqi":57,"pm10":11.1,"pm2_5":8.2,"mosquito_risk":7,"arthritis_risk":5,"migraine_risk":4,"frizz_risk":1,"updated_at":"2026-04-26T18:43:28.272677+05:30"},{"city":"Kozhikode","state":"Kerala","latitude":11.2588,"longitude":75.7804,"temp":29.5,"humidity":80,"rain":0.0,"pressure":1005.0,"uv_index":8.4,"wind_gusts":38.2,"aqi":66,"pm10":12.9,"pm2_5":9.8,"mosquito_risk":7,"arthritis_risk":5,"migraine_risk":4,"frizz_risk":1,"updated_at":"2026-04-26T18:43:28.272682+05:30"},{"city":"Thrissur","state":"Kerala","latitude":10.5276,"longitude":76.2144,"temp":29.6,"humidity":76,"rain":0.0,"pressure":1004.2,"uv_index":9.0,"wind_gusts":41.0,"aqi":93,"pm10":16.5,"pm2_5":14.6,"mosquito_risk":7,"arthritis_risk":5,"migraine_risk":4,"frizz_risk":1,"updated_at":"2026-04-26T18:43:28.272688+05:30"},{"city":"Kannur","state":"Kerala","latitude":11.8745,"longitude":75.3704,"temp":30.2,"humidity":77,"rain":0.0,"pressure":1004.6,"uv_index":9.0,"wind_gusts":39.6,"aqi":70,"pm10":20.8,"pm2_5":15.9,"mosquito_risk":3,"arthritis_risk":5,"migraine_risk":4,"frizz_risk":1,"updated_at":"2026-04-26T18:43:28.272693+05:30"},{"city":"Patna","state":"Bihar","latitude":25.5941,"longitude":85.1376,"temp":30.1,"humidity":60,"rain":0.0,"pressure":996.4,"uv_index":8.65,"wind_gusts":45.4,"aqi":202,"pm10":77.3,"pm2_5":64.7,"mosquito_risk":0,"arthritis_risk":5,"migraine_risk":7,"frizz_risk":1,"updated_at":"2026-04-26T18:43:28.272698+05:30"},{"city":"Gaya","state":"Bihar","latitude":24.7914,"longitude":85.0002,"temp":33.1,"humidity":43,"rain":0.0,"pressure":988.6,"uv_index":8.7,"wind_gusts":36.7,"aqi":188,"pm10":79.9,"pm2_5":53.9,"mosquito_risk":0,"arthritis_risk":5,"migraine_risk":7,"frizz_risk":1,"updated_at":"2026-04-26T18:43:28.272703+05:30"},{"city":"Muzaffarpur","state":"Bihar","latitude":26.1209,"longitude":85.3647,"temp":28.1,"humidity":66,"rain":0.0,"pressure":997.2,"uv_index":8.65,"wind_gusts":48.6,"aqi":185,"pm10":78.9,"pm2_5":64.5,"mosquito_risk":7,"arthritis_risk":5,"migraine_risk":7,"frizz_risk":1,"updated_at":"2026-04-26T18:43:28.272708+05:30"},{"city":"Bhagalpur","state":"Bihar","latitude":25.2425,"longitude":87.0117,"temp":28.7,"humidity":64,"rain":0.0,"pressure":998.1,"uv_index":8.6,"wind_gusts":40.3,"aqi":153,"pm10":60.5,"pm2_5":52.4,"mosquito_risk":7,"arthritis_risk":5,"migraine_risk":7,"frizz_risk":1,"updated_at":"2026-04-26T18:43:28.272714+05:30"},{"city":"Ranchi","state":"Jharkhand","latitude":23.3441,"longitude":85.3096,"temp":32.7,"humidity":24,"rain":0.0,"pressure":934.5,"uv_index":9.15,"wind_gusts":44.3,"aqi":153,"pm10":107.1,"pm2_5":35.0,"mosquito_risk":0,"arthritis_risk":5,"migraine_risk":7,"frizz_risk":0,"updated_at":"2026-04-26T18:43:28.272719+05:30"},{"city":"Jamshedpur","state":"Jharkhand","latitude":22.8046,"longitude":86.2029,"temp":35.7,"humidity":31,"rain":0.0,"pressure":985.7,"uv_index":8.85,"wind_gusts":37.8,"aqi":202,"pm10":67.8,"pm2_5":37.8,"mosquito_risk":0,"arthritis_risk":5,"migraine_risk":10,"frizz_risk":0,"updated_at":"2026-04-26T18:43:28.272724+05:30"},{"city":"Dhanbad","state":"Jharkhand","latitude":23.7957,"longitude":86.4304,"temp":31.4,"humidity":61,"rain":0.0,"pressure":975.9,"uv_index":8.95,"wind_gusts":42.5,"aqi":185,"pm10":138.8,"pm2_5":61.2,"mosquito_risk":3,"arthritis_risk":5,"migraine_risk":7,"frizz_risk":1,"updated_at":"2026-04-26T18:43:28.272730+05:30"},{"city":"Bokaro","state":"Jharkhand","latitude":23.6693,"longitude":86.1511,"temp":33.7,"humidity":45,"rain":0.0,"pressure":979.3,"uv_index":8.95,"wind_gusts":41.0,"aqi":161,"pm10":146.2,"pm2_5":56.0,"mosquito_risk":0,"arthritis_risk":5,"migraine_risk":7,"frizz_risk":1,"updated_at":"2026-04-26T18:43:28.272735+05:30"},{"city":"Bhubaneswar","state":"Odisha","latitude":20.2961,"longitude":85.8245,"temp":29.0,"humidity":80,"rain":0.0,"pressure":1000.3,"uv_index":9.1,"wind_gusts":50.4,"aqi":54,"pm10":17.0,"pm2_5":12.6,"mosquito_risk":7,"arthritis_risk":5,"migraine_risk":4,"frizz_risk":1,"updated_at":"2026-04-26T18:43:28.272740+05:30"},{"city":"Cuttack","state":"Odisha","latitude":20.4625,"longitude":85.8828,"temp":29.5,"humidity":78,"rain":0.0,"pressure":1001.4,"uv_index":9.1,"wind_gusts":47.2,"aqi":54,"pm10":17.0,"pm2_5":12.6,"mosquito_risk":7,"arthritis_risk":5,"migraine_risk":4,"frizz_risk":1,"updated_at":"2026-04-26T18:43:28.272745+05:30"},{"city":"Rourkela","state":"Odisha","latitude":22.2604,"longitude":84.8536,"temp":38.8,"humidity":17,"rain":0.0,"pressure":980.0,"uv_index":8.65,"wind_gusts":46.4,"aqi":219,"pm10":76.6,"pm2_5":39.1,"mosquito_risk":0,"arthritis_risk":5,"migraine_risk":10,"frizz_risk":0,"updated_at":"2026-04-26T18:43:28.272750+05:30"},{"city":"Raipur","state":"Chhattisgarh","latitude":21.2514,"longitude":81.6296,"temp":38.3,"humidity":17,"rain":0.0,"pressure":970.1,"uv_index":8.95,"wind_gusts":41.0,"aqi":203,"pm10":45.4,"pm2_5":39.6,"mosquito_risk":0,"arthritis_risk":5,"migraine_risk":10,"frizz_risk":0,"updated_at":"2026-04-26T18:43:28.272754+05:30"},{"city":"Bhilai","state":"Chhattisgarh","latitude":21.1938,"longitude":81.3509,"temp":38.1,"humidity":17,"rain":0.0,"pressure":970.6,"uv_index":9.0,"wind_gusts":44.3,"aqi":182,"pm10":39.5,"pm2_5":33.3,"mosquito_risk":0,"arthritis_risk":5,"migraine_risk":10,"frizz_risk":0,"updated_at":"2026-04-26T18:43:28.272759+05:30"},{"city":"Guwahati","state":"Assam","latitude":26.1158,"longitude":91.7086,"temp":22.1,"humidity":98,"rain":0.1,"pressure":1001.0,"uv_index":3.7,"wind_gusts":40.3,"aqi":137,"pm10":72.4,"pm2_5":53.1,"mosquito_risk":6,"arthritis_risk":5,"migraine_risk":0,"frizz_risk":1,"updated_at":"2026-04-26T18:43:28.272763+05:30"},{"city":"Agartala","state":"Tripura","latitude":23.8315,"longitude":91.2868,"temp":25.0,"humidity":91,"rain":0.0,"pressure":1004.2,"uv_index":8.8,"wind_gusts":32.0,"aqi":103,"pm10":42.1,"pm2_5":30.0,"mosquito_risk":7,"arthritis_risk":5,"migraine_risk":4,"frizz_risk":1,"updated_at":"2026-04-26T18:43:28.272768+05:30"},{"city":"Shillong","state":"Meghalaya","latitude":25.5788,"longitude":91.8933,"temp":15.9,"humidity":96,"rain":0.0,"pressure":854.6,"uv_index":4.65,"wind_gusts":45.4,"aqi":132,"pm10":73.8,"pm2_5":49.5,"mosquito_risk":3,"arthritis_risk":10,"migraine_risk":3,"frizz_risk":0,"updated_at":"2026-04-26T18:43:28.272773+05:30"},{"city":"Imphal","state":"Manipur","latitude":24.817,"longitude":93.9368,"temp":20.0,"humidity":93,"rain":0.2,"pressure":922.9,"uv_index":5.7,"wind_gusts":24.1,"aqi":152,"pm10":95.7,"pm2_5":57.7,"mosquito_risk":6,"arthritis_risk":5,"migraine_risk":3,"frizz_risk":1,"updated_at":"2026-04-26T18:43:28.272779+05:30"},{"city":"Aizawl","state":"Mizoram","latitude":23.7271,"longitude":92.7176,"temp":17.8,"humidity":97,"rain":0.3,"pressure":891.2,"uv_index":9.0,"wind_gusts":34.9,"aqi":115,"pm10":50.1,"pm2_5":28.9,"mosquito_risk":6,"arthritis_risk":10,"migraine_risk":7,"frizz_risk":1,"updated_at":"2026-04-26T18:43:28.272784+05:30"},{"city":"Kohima","state":"Nagaland","latitude":25.6701,"longitude":94.1077,"temp":18.3,"humidity":83,"rain":0.0,"pressure":854.0,"uv_index":6.95,"wind_gusts":32.0,"aqi":152,"pm10":85.2,"pm2_5":53.4,"mosquito_risk":3,"arthritis_risk":10,"migraine_risk":7,"frizz_risk":0,"updated_at":"2026-04-26T18:43:28.272789+05:30"},{"city":"Gangtok","state":"Sikkim","latitude":27.3314,"longitude":88.6138,"temp":14.6,"humidity":95,"rain":0.1,"pressure":835.0,"uv_index":6.75,"wind_gusts":41.0,"aqi":127,"pm10":45.8,"pm2_5":25.7,"mosquito_risk":6,"arthritis_risk":10,"migraine_risk":7,"frizz_risk":0,"updated_at":"2026-04-26T18:43:28.272794+05:30"},{"city":"Siliguri","state":"West Bengal","latitude":26.7271,"longitude":88.3953,"temp":22.5,"humidity":86,"rain":0.0,"pressure":992.5,"uv_index":8.4,"wind_gusts":33.1,"aqi":127,"pm10":71.0,"pm2_5":44.8,"mosquito_risk":3,"arthritis_risk":5,"migraine_risk":7,"frizz_risk":1,"updated_at":"2026-04-26T18:43:31.581067+05:30"},{"city":"Durgapur","state":"West Bengal","latitude":23.5204,"longitude":87.3119,"temp":27.5,"humidity":81,"rain":0.0,"pressure":991.5,"uv_index":8.85,"wind_gusts":35.6,"aqi":166,"pm10":36.0,"pm2_5":34.2,"mosquito_risk":7,"arthritis_risk":5,"migraine_risk":7,"frizz_risk":1,"updated_at":"2026-04-26T18:43:31.581099+05:30"},{"city":"Asansol","state":"West Bengal","latitude":23.6739,"longitude":86.9524,"temp":28.4,"humidity":73,"rain":0.0,"pressure":989.6,"uv_index":8.9,"wind_gusts":38.5,"aqi":189,"pm10":72.6,"pm2_5":45.5,"mosquito_risk":7,"arthritis_risk":5,"migraine_risk":7,"frizz_risk":1,"updated_at":"2026-04-26T18:43:31.581108+05:30"},{"city":"Pondicherry","state":"Puducherry","latitude":11.9139,"longitude":79.8145,"temp":30.0,"humidity":72,"rain":0.0,"pressure":1006.3,"uv_index":9.2,"wind_gusts":41.8,"aqi":35,"pm10":15.9,"pm2_5":10.6,"mosquito_risk":7,"arthritis_risk":5,"migraine_risk":4,"frizz_risk":1,"updated_at":"2026-04-26T18:43:31.581115+05:30"},{"city":"Port Blair","state":"Andaman and Nicobar Islands","latitude":11.6234,"longitude":92.7265,"temp":29.5,"humidity":71,"rain":0.0,"pressure":1006.3,"uv_index":9.1,"wind_gusts":35.3,"aqi":58,"pm10":18.6,"pm2_5":14.0,"mosquito_risk":7,"arthritis_risk":5,"migraine_risk":4,"frizz_risk":1,"updated_at":"2026-04-26T18:43:31.581121+05:30"},{"city":"Haridwar","state":"Uttarakhand","latitude":29.9457,"longitude":78.1642,"temp":33.6,"humidity":21,"rain":0.0,"pressure":967.3,"uv_index":7.2,"wind_gusts":54.0,"aqi":101,"pm10":46.8,"pm2_5":15.8,"mosquito_risk":0,"arthritis_risk":5,"migraine_risk":7,"frizz_risk":0,"updated_at":"2026-04-26T18:43:31.581128+05:30"},{"city":"Rishikesh","state":"Uttarakhand","latitude":30.0869,"longitude":78.2676,"temp":29.9,"humidity":29,"rain":0.0,"pressure":960.1,"uv_index":7.3,"wind_gusts":42.1,"aqi":98,"pm10":31.1,"pm2_5":12.5,"mosquito_risk":4,"arthritis_risk":5,"migraine_risk":7,"frizz_risk":0,"updated_at":"2026-04-26T18:43:31.581135+05:30"},{"city":"Nainital","state":"Uttarakhand","latitude":29.3919,"longitude":79.4542,"temp":20.0,"humidity":31,"rain":0.0,"pressure":803.7,"uv_index":8.15,"wind_gusts":54.4,"aqi":114,"pm10":47.7,"pm2_5":15.7,"mosquito_risk":0,"arthritis_risk":5,"migraine_risk":7,"frizz_risk":0,"updated_at":"2026-04-26T18:43:31.581142+05:30"},{"city":"Mussoorie","state":"Uttarakhand","latitude":30.4599,"longitude":78.0664,"temp":18.3,"humidity":41,"rain":0.0,"pressure":800.4,"uv_index":7.7,"wind_gusts":65.2,"aqi":101,"pm10":16.4,"pm2_5":10.9,"mosquito_risk":0,"arthritis_risk":5,"migraine_risk":7,"frizz_risk":0,"updated_at":"2026-04-26T18:43:31.581148+05:30"},{"city":"Dharamshala","state":"Himachal Pradesh","latitude":32.219,"longitude":76.3234,"temp":24.0,"humidity":34,"rain":0.0,"pressure":867.2,"uv_index":8.05,"wind_gusts":43.2,"aqi":84,"pm10":28.2,"pm2_5":10.3,"mosquito_risk":0,"arthritis_risk":5,"migraine_risk":7,"frizz_risk":0,"updated_at":"2026-04-26T18:43:31.581153+05:30"},{"city":"Dalhousie","state":"Himachal Pradesh","latitude":32.5387,"longitude":75.971,"temp":18.8,"humidity":52,"rain":0.0,"pressure":803.6,"uv_index":8.3,"wind_gusts":41.0,"aqi":94,"pm10":29.2,"pm2_5":12.3,"mosquito_risk":0,"arthritis_risk":5,"migraine_risk":7,"frizz_risk":0,"updated_at":"2026-04-26T18:43:31.581160+05:30"},{"city":"Patiala","state":"Punjab","latitude":30.3398,"longitude":76.3869,"temp":36.8,"humidity":15,"rain":0.0,"pressure":972.6,"uv_index":7.3,"wind_gusts":47.9,"aqi":372,"pm10":812.1,"pm2_5":80.6,"mosquito_risk":0,"arthritis_risk":5,"migraine_risk":10,"frizz_risk":0,"updated_at":"2026-04-26T18:43:31.581166+05:30"},{"city":"Bhatinda","state":"Punjab","latitude":30.211,"longitude":74.9455,"temp":37.8,"humidity":16,"rain":0.0,"pressure":978.5,"uv_index":8.0,"wind_gusts":37.8,"aqi":107,"pm10":79.4,"pm2_5":21.2,"mosquito_risk":0,"arthritis_risk":5,"migraine_risk":10,"frizz_risk":0,"updated_at":"2026-04-26T18:43:31.581171+05:30"},{"city":"Rohtak","state":"Haryana","latitude":28.8955,"longitude":76.6066,"temp":37.3,"humidity":17,"rain":0.0,"pressure":976.3,"uv_index":7.45,"wind_gusts":44.6,"aqi":769,"pm10":1128.8,"pm2_5":128.5,"mosquito_risk":0,"arthritis_risk":5,"migraine_risk":10,"frizz_risk":0,"updated_at":"2026-04-26T18:43:31.581177+05:30"},{"city":"Panipat","state":"Haryana","latitude":29.3909,"longitude":76.9635,"temp":38.8,"humidity":14,"rain":0.0,"pressure":974.1,"uv_index":7.25,"wind_gusts":48.6,"aqi":1488,"pm10":2287.3,"pm2_5":235.2,"mosquito_risk":0,"arthritis_risk":5,"migraine_risk":10,"frizz_risk":0,"updated_at":"2026-04-26T18:43:31.581182+05:30"},{"city":"Mathura","state":"Uttar Pradesh","latitude":27.4924,"longitude":77.6737,"temp":36.3,"humidity":23,"rain":0.0,"pressure":981.4,"uv_index":7.75,"wind_gusts":50.8,"aqi":1023,"pm10":976.0,"pm2_5":114.8,"mosquito_risk":0,"arthritis_risk":5,"migraine_risk":10,"frizz_risk":0,"updated_at":"2026-04-26T18:43:31.581187+05:30"},{"city":"Vrindavan","state":"Uttar Pradesh","latitude":27.5823,"longitude":77.7027,"temp":36.0,"humidity":23,"rain":0.0,"pressure":981.7,"uv_index":7.7,"wind_gusts":47.9,"aqi":1023,"pm10":976.0,"pm2_5":114.8,"mosquito_risk":0,"arthritis_risk":5,"migraine_risk":10,"frizz_risk":0,"updated_at":"2026-04-26T18:43:31.581192+05:30"},{"city":"Ayodhya","state":"Uttar Pradesh","latitude":26.7922,"longitude":82.1998,"temp":33.9,"humidity":39,"rain":0.0,"pressure":989.1,"uv_index":8.1,"wind_gusts":42.8,"aqi":160,"pm10":86.1,"pm2_5":39.2,"mosquito_risk":0,"arthritis_risk":5,"migraine_risk":7,"frizz_risk":1,"updated_at":"2026-04-26T18:43:31.581196+05:30"},{"city":"Ratlam","state":"Madhya Pradesh","latitude":23.3315,"longitude":75.0367,"temp":37.8,"humidity":14,"rain":0.0,"pressure":951.8,"uv_index":8.5,"wind_gusts":39.2,"aqi":81,"pm10":34.8,"pm2_5":15.4,"mosquito_risk":0,"arthritis_risk":5,"migraine_risk":10,"frizz_risk":0,"updated_at":"2026-04-26T18:43:31.581223+05:30"},{"city":"Sagar","state":"Madhya Pradesh","latitude":23.8388,"longitude":78.7378,"temp":35.8,"humidity":19,"rain":0.0,"pressure":947.9,"uv_index":8.65,"wind_gusts":41.4,"aqi":85,"pm10":61.0,"pm2_5":21.1,"mosquito_risk":0,"arthritis_risk":5,"migraine_risk":10,"frizz_risk":0,"updated_at":"2026-04-26T18:43:31.581229+05:30"},{"city":"Satna","state":"Madhya Pradesh","latitude":24.6005,"longitude":80.8322,"temp":37.5,"humidity":17,"rain":0.0,"pressure":967.3,"uv_index":8.65,"wind_gusts":50.0,"aqi":101,"pm10":88.7,"pm2_5":27.4,"mosquito_risk":0,"arthritis_risk":5,"migraine_risk":10,"frizz_risk":0,"updated_at":"2026-04-26T18:43:31.581234+05:30"},{"city":"Akola","state":"Maharashtra","latitude":20.7002,"longitude":77.0082,"temp":39.8,"humidity":13,"rain":0.0,"pressure":970.4,"uv_index":8.85,"wind_gusts":34.2,"aqi":131,"pm10":29.8,"pm2_5":15.2,"mosquito_risk":0,"arthritis_risk":5,"migraine_risk":10,"frizz_risk":0,"updated_at":"2026-04-26T18:43:31.581240+05:30"},{"city":"Amravati","state":"Maharashtra","latitude":20.9374,"longitude":77.7796,"temp":39.2,"humidity":12,"rain":0.0,"pressure":962.8,"uv_index":8.85,"wind_gusts":33.8,"aqi":145,"pm10":29.9,"pm2_5":15.6,"mosquito_risk":0,"arthritis_risk":5,"migraine_risk":10,"frizz_risk":0,"updated_at":"2026-04-26T18:43:31.581246+05:30"},{"city":"Latur","state":"Maharashtra","latitude":18.4088,"longitude":76.5604,"temp":36.8,"humidity":16,"rain":0.0,"pressure":937.0,"uv_index":8.95,"wind_gusts":26.6,"aqi":160,"pm10":26.7,"pm2_5":20.4,"mosquito_risk":0,"arthritis_risk":5,"migraine_risk":10,"frizz_risk":0,"updated_at":"2026-04-26T18:43:31.581252+05:30"},{"city":"Nanded","state":"Maharashtra","latitude":19.1383,"longitude":77.3091,"temp":37.8,"humidity":15,"rain":0.0,"pressure":964.6,"uv_index":9.0,"wind_gusts":29.9,"aqi":140,"pm10":27.1,"pm2_5":17.6,"mosquito_risk":0,"arthritis_risk":5,"migraine_risk":10,"frizz_risk":0,"updated_at":"2026-04-26T18:43:31.581256+05:30"},{"city":"Gulbarga","state":"Karnataka","latitude":17.3297,"longitude":76.8343,"temp":37.8,"humidity":18,"rain":0.0,"pressure":955.6,"uv_index":7.9,"wind_gusts":24.5,"aqi":182,"pm10":47.4,"pm2_5":39.3,"mosquito_risk":0,"arthritis_risk":5,"migraine_risk":10,"frizz_risk":0,"updated_at":"2026-04-26T18:43:31.581261+05:30"},{"city":"Bidar","state":"Karnataka","latitude":17.9104,"longitude":77.5199,"temp":34.7,"humidity":29,"rain":0.0,"pressure":933.3,"uv_index":7.95,"wind_gusts":33.8,"aqi":177,"pm10":46.7,"pm2_5":38.3,"mosquito_risk":0,"arthritis_risk":5,"migraine_risk":7,"frizz_risk":0,"updated_at":"2026-04-26T18:43:31.581266+05:30"},{"city":"Hospet","state":"Karnataka","latitude":15.2689,"longitude":76.3909,"temp":34.5,"humidity":33,"rain":0.0,"pressure":953.5,"uv_index":8.65,"wind_gusts":32.4,"aqi":176,"pm10":47.4,"pm2_5":40.2,"mosquito_risk":0,"arthritis_risk":5,"migraine_risk":7,"frizz_risk":0,"updated_at":"2026-04-26T18:43:31.581271+05:30"},{"city":"Tirupur","state":"Tamil Nadu","latitude":11.1085,"longitude":77.3411,"temp":36.2,"humidity":19,"rain":0.0,"pressure":972.0,"uv_index":9.4,"wind_gusts":29.9,"aqi":109,"pm10":23.6,"pm2_5":19.8,"mosquito_risk":0,"arthritis_risk":5,"migraine_risk":10,"frizz_risk":0,"updated_at":"2026-04-26T18:43:31.581275+05:30"},{"city":"Alappuzha","state":"Kerala","latitude":9.4981,"longitude":76.3388,"temp":29.7,"humidity":78,"rain":0.0,"pressure":1006.0,"uv_index":8.55,"wind_gusts":37.8,"aqi":85,"pm10":17.3,"pm2_5":13.6,"mosquito_risk":7,"arthritis_risk":5,"migraine_risk":4,"frizz_risk":1,"updated_at":"2026-04-26T18:43:31.581280+05:30"},{"city":"Munnar","state":"Kerala","latitude":10.0889,"longitude":77.0595,"temp":20.8,"humidity":82,"rain":0.0,"pressure":856.4,"uv_index":9.6,"wind_gusts":26.6,"aqi":83,"pm10":19.6,"pm2_5":18.2,"mosquito_risk":3,"arthritis_risk":5,"migraine_risk":7,"frizz_risk":1,"updated_at":"2026-04-26T18:43:31.581286+05:30"},{"city":"Silchar","state":"Assam","latitude":24.8333,"longitude":92.7789,"temp":24.7,"humidity":85,"rain":0.0,"pressure":1004.1,"uv_index":6.8,"wind_gusts":27.4,"aqi":162,"pm10":122.0,"pm2_5":76.4,"mosquito_risk":3,"arthritis_risk":5,"migraine_risk":4,"frizz_risk":1,"updated_at":"2026-04-26T18:43:31.581291+05:30"},{"city":"Dibrugarh","state":"Assam","latitude":27.4728,"longitude":94.912,"temp":22.3,"humidity":97,"rain":0.1,"pressure":995.5,"uv_index":5.15,"wind_gusts":20.5,"aqi":90,"pm10":55.9,"pm2_5":37.6,"mosquito_risk":6,"arthritis_risk":5,"migraine_risk":3,"frizz_risk":1,"updated_at":"2026-04-26T18:43:31.581296+05:30"}]