[{"city":"Delhi","state":"Delhi","latitude":28.6139,"longitude":77.209,"temp":33.2,"humidity":24,"rain":0.0,"pressure":983.7,"uv_index":7.4,"wind_gusts":47.9,"aqi":307,"pm10":508.5,"pm2_5":114.6,"mosquito_risk":0,"arthritis_risk":5,"migraine_risk":7,"frizz_risk":0,"updated_at":"2026-04-25T08:12:45.849593+05:30"},{"city":"Mumbai","state":"Maharashtra","latitude":19.076,"longitude":72.8777,"temp":29.5,"humidity":49,"rain":0.0,"pressure":1008.5,"uv_index":8.0,"wind_gusts":42.8,"aqi":80,"pm10":46.7,"pm2_5":30.3,"mosquito_risk":4,"arthritis_risk":0,"migraine_risk":4,"frizz_risk":1,"updated_at":"2026-04-25T08:12:45.849640+05:30"},{"city":"Bangalore","state":"Karnataka","latitude":12.9716,"longitude":77.5946,"temp":26.4,"humidity":50,"rain":0.0,"pressure":913.7,"uv_index":8.95,"wind_gusts":38.5,"aqi":77,"pm10":30.9,"pm2_5":29.2,"mosquito_risk":4,"arthritis_risk":5,"migraine_risk":7,"frizz_risk":0,"updated_at":"2026-04-25T08:12:45.849655+05:30"},{"city":"Hyderabad","state":"Telangana","latitude":17.385,"longitude":78.4867,"temp":29.8,"humidity":44,"rain":0.0,"pressure":955.1,"uv_index":9.3,"wind_gusts":36.4,"aqi":125,"pm10":47.4,"pm2_5":41.3,"mosquito_risk":4,"arthritis_risk":5,"migraine_risk":7,"frizz_risk":1,"updated_at":"2026-04-25T08:12:45.849665+05:30"},{"city":"Chennai","state":"Tamil Nadu","latitude":13.0827,"longitude":80.2707,"temp":31.0,"humidity":69,"rain":0.0,"pressure":1008.5,"uv_index":8.95,"wind_gusts":48.6,"aqi":29,"pm10":11.3,"pm2_5":8.0,"mosquito_risk":3,"arthritis_risk":0,"migraine_risk":4,"frizz_risk":1,"updated_at":"2026-04-25T08:12:45.849672+05:30"},{"city":"Kolkata","state":"West Bengal","latitude":22.5726,"longitude":88.3639,"temp":31.2,"humidity":73,"rain":0.0,"pressure":1007.8,"uv_index":8.55,"wind_gusts":41.0,"aqi":77,"pm10":39.3,"pm2_5":29.6,"mosquito_risk":3,"arthritis_risk":5,"migraine_risk":4,"frizz_risk":1,"updated_at":"2026-04-25T08:12:45.849688+05:30"},{"city":"Pune","state":"Maharashtra","latitude":18.5204,"longitude":73.8567,"temp":29.4,"humidity":37,"rain":0.0,"pressure":949.6,"uv_index":8.35,"wind_gusts":32.8,"aqi":102,"pm10":56.8,"pm2_5":52.3,"mosquito_risk":4,"arthritis_risk":5,"migraine_risk":7,"frizz_risk":0,"updated_at":"2026-04-25T08:12:45.849695+05:30"},{"city":"Ahmedabad","state":"Gujarat","latitude":23.0225,"longitude":72.5714,"temp":30.0,"humidity":45,"rain":0.0,"pressure":1003.5,"uv_index":8.2,"wind_gusts":24.1,"aqi":59,"pm10":29.0,"pm2_5":14.7,"mosquito_risk":4,"arthritis_risk":5,"migraine_risk":4,"frizz_risk":1,"updated_at":"2026-04-25T08:12:45.849702+05:30"},{"city":"Jaipur","state":"Rajasthan","latitude":26.9124,"longitude":75.7873,"temp":31.6,"humidity":24,"rain":0.0,"pressure":961.4,"uv_index":8.05,"wind_gusts":26.3,"aqi":114,"pm10":394.9,"pm2_5":67.3,"mosquito_risk":0,"arthritis_risk":5,"migraine_risk":7,"frizz_risk":0,"updated_at":"2026-04-25T08:12:45.849709+05:30"},{"city":"Lucknow","state":"Uttar Pradesh","latitude":26.8467,"longitude":80.9462,"temp":32.7,"humidity":21,"rain":0.0,"pressure":994.0,"uv_index":7.9,"wind_gusts":38.9,"aqi":122,"pm10":141.6,"pm2_5":51.8,"mosquito_risk":0,"arthritis_risk":5,"migraine_risk":7,"frizz_risk":0,"updated_at":"2026-04-25T08:12:45.849715+05:30"},{"city":"Kanpur","state":"Uttar Pradesh","latitude":26.4499,"longitude":80.3319,"temp":32.3,"humidity":23,"rain":0.0,"pressure":992.3,"uv_index":7.9,"wind_gusts":43.6,"aqi":137,"pm10":220.3,"pm2_5":51.1,"mosquito_risk":0,"arthritis_risk":5,"migraine_risk":7,"frizz_risk":0,"updated_at":"2026-04-25T08:12:45.849721+05:30"},{"city":"Chandigarh","state":"Chandigarh","latitude":30.7333,"longitude":76.7794,"temp":32.2,"humidity":27,"rain":0.0,"pressure":969.2,"uv_index":7.3,"wind_gusts":52.2,"aqi":67,"pm10":27.3,"pm2_5":21.0,"mosquito_risk":0,"arthritis_risk":5,"migraine_risk":7,"frizz_risk":0,"updated_at":"2026-04-25T08:12:45.849727+05:30"},{"city":"Srinagar","state":"Jammu and Kashmir","latitude":34.0837,"longitude":74.7973,"temp":11.8,"humidity":93,"rain":0.0,"pressure":846.9,"uv_index":8.55,"wind_gusts":36.4,"aqi":72,"pm10":65.9,"pm2_5":24.7,"mosquito_risk":3,"arthritis_risk":10,"migraine_risk":7,"frizz_risk":0,"updated_at":"2026-04-25T08:12:45.849733+05:30"},{"city":"Jammu","state":"Jammu and Kashmir","latitude":32.7266,"longitude":74.857,"temp":29.6,"humidity":30,"rain":0.0,"pressure":973.8,"uv_index":8.2,"wind_gusts":43.9,"aqi":78,"pm10":27.5,"pm2_5":21.7,"mosquito_risk":4,"arthritis_risk":5,"migraine_risk":7,"frizz_risk":0,"updated_at":"2026-04-25T08:12:45.849739+05:30"},{"city":"Amritsar","state":"Punjab","latitude":31.634,"longitude":74.8723,"temp":28.9,"humidity":38,"rain":0.0,"pressure":981.6,"uv_index":8.1,"wind_gusts":37.1,"aqi":88,"pm10":57.7,"pm2_5":35.7,"mosquito_risk":4,"arthritis_risk":5,"migraine_risk":7,"frizz_risk":0,"updated_at":"2026-04-25T08:12:45.849745+05:30"},{"city":"Ludhiana","state":"Punjab","latitude":30.901,"longitude":75.8573,"temp":29.4,"humidity":37,"rain":0.0,"pressure":979.2,"uv_index":7.7,"wind_gusts":46.8,"aqi":77,"pm10":44.5,"pm2_5":28.8,"mosquito_risk":4,"arthritis_risk":5,"migraine_risk":7,"frizz_risk":0,"updated_at":"2026-04-25T08:12:45.849752+05:30"},{"city":"Jalandhar","state":"Punjab","latitude":31.326,"longitude":75.5762,"temp":28.8,"humidity":36,"rain":0.0,"pressure":980.4,"uv_index":7.9,"wind_gusts":38.2,"aqi":83,"pm10":71.9,"pm2_5":41.0,"mosquito_risk":4,"arthritis_risk":5,"migraine_risk":7,"frizz_risk":0,"updated_at":"2026-04-25T08:12:45.849759+05:30"},{"city":"Dehradun","state":"Uttarakhand","latitude":30.6284,"longitude":78.0322,"temp":20.0,"humidity":47,"rain":0.0,"pressure":833.6,"uv_index":7.85,"wind_gusts":49.0,"aqi":54,"pm10":8.7,"pm2_5":6.8,"mosquito_risk":0,"arthritis_risk":5,"migraine_risk":7,"frizz_risk":0,"updated_at":"2026-04-25T08:12:45.849765+05:30"},{"city":"Shimla","state":"Himachal Pradesh","latitude":31.1048,"longitude":77.1734,"temp":19.6,"humidity":35,"rain":0.0,"pressure":789.1,"uv_index":7.5,"wind_gusts":58.0,"aqi":55,"pm10":21.4,"pm2_5":16.5,"mosquito_risk":0,"arthritis_risk":5,"migraine_risk":7,"frizz_risk":0,"updated_at":"2026-04-25T08:12:45.849771+05:30"},{"city":"Manali","state":"Himachal Pradesh","latitude":32.2396,"longitude":77.1887,"temp":16.8,"humidity":44,"rain":0.0,"pressure":822.4,"uv_index":8.05,"wind_gusts":43.9,"aqi":49,"pm10":2.6,"pm2_5":1.7,"mosquito_risk":0,"arthritis_risk":5,"migraine_risk":7,"frizz_risk":0,"updated_at":"2026-04-25T08:12:45.849776+05:30"},{"city":"Gurgaon","state":"Haryana","latitude":28.4595,"longitude":77.0266,"temp":30.4,"humidity":29,"rain":0.0,"pressure":982.3,"uv_index":7.55,"wind_gusts":49.7,"aqi":872,"pm10":1233.1,"pm2_5":185.3,"mosquito_risk":0,"arthritis_risk":5,"migraine_risk":7,"frizz_risk":0,"updated_at":"2026-04-25T08:12:45.849782+05:30"},{"city":"Noida","state":"Uttar Pradesh","latitude":28.5355,"longitude":77.391,"temp":32.8,"humidity":28,"rain":0.0,"pressure":985.0,"uv_index":7.45,"wind_gusts":38.5,"aqi":872,"pm10":1233.1,"pm2_5":185.3,"mosquito_risk":0,"arthritis_risk":5,"migraine_risk":7,"frizz_risk":0,"updated_at":"2026-04-25T08:12:45.849788+05:30"},{"city":"Ghaziabad","state":"Uttar Pradesh","latitude":28.6692,"longitude":77.4538,"temp":32.2,"humidity":26,"rain":0.0,"pressure":983.2,"uv_index":7.4,"wind_gusts":43.6,"aqi":170,"pm10":306.4,"pm2_5":80.6,"mosquito_risk":0,"arthritis_risk":5,"migraine_risk":7,"frizz_risk":0,"updated_at":"2026-04-25T08:12:45.849793+05:30"},{"city":"Faridabad","state":"Haryana","latitude":28.4089,"longitude":77.3178,"temp":33.2,"humidity":24,"rain":0.0,"pressure":984.3,"uv_index":7.45,"wind_gusts":51.8,"aqi":872,"pm10":1233.1,"pm2_5":185.3,"mosquito_risk":0,"arthritis_risk":5,"migraine_risk":7,"frizz_risk":0,"updated_at":"2026-04-25T08:12:45.849799+05:30"},{"city":"Meerut","state":"Uttar Pradesh","latitude":28.9845,"longitude":77.7064,"temp":29.5,"humidity":37,"rain":0.0,"pressure":981.7,"uv_index":7.35,"wind_gusts":38.2,"aqi":170,"pm10":306.4,"pm2_5":80.6,"mosquito_risk":4,"arthritis_risk":5,"migraine_risk":7,"frizz_risk":0,"updated_at":"2026-04-25T08:12:45.849804+05:30"},{"city":"Agra","state":"Uttar Pradesh","latitude":27.1767,"longitude":78.0081,"temp":31.6,"humidity":29,"rain":0.0,"pressure":988.1,"uv_index":7.8,"wind_gusts":40.3,"aqi":200,"pm10":1039.4,"pm2_5":145.3,"mosquito_risk":0,"arthritis_risk":5,"migraine_risk":7,"frizz_risk":0,"updated_at":"2026-04-25T08:12:45.849812+05:30"},{"city":"Varanasi","state":"Uttar Pradesh","latitude":25.3176,"longitude":82.9739,"temp":32.0,"humidity":22,"rain":0.0,"pressure":998.2,"uv_index":8.5,"wind_gusts":39.2,"aqi":130,"pm10":112.7,"pm2_5":55.2,"mosquito_risk":0,"arthritis_risk":5,"migraine_risk":7,"frizz_risk":0,"updated_at":"2026-04-25T08:12:45.849817+05:30"},{"city":"Prayagraj","state":"Uttar Pradesh","latitude":25.4358,"longitude":81.8463,"temp":31.3,"humidity":31,"rain":0.0,"pressure":996.3,"uv_index":8.4,"wind_gusts":34.9,"aqi":101,"pm10":55.3,"pm2_5":46.4,"mosquito_risk":0,"arthritis_risk":5,"migraine_risk":7,"frizz_risk":0,"updated_at":"2026-04-25T08:12:45.849823+05:30"},{"city":"Gorakhpur","state":"Uttar Pradesh","latitude":26.7606,"longitude":83.3732,"temp":30.8,"humidity":62,"rain":0.0,"pressure":998.7,"uv_index":8.35,"wind_gusts":46.4,"aqi":153,"pm10":79.9,"pm2_5":63.6,"mosquito_risk":3,"arthritis_risk":5,"migraine_risk":7,"frizz_risk":1,"updated_at":"2026-04-25T08:12:45.849830+05:30"},{"city":"Bareilly","state":"Uttar Pradesh","latitude":28.367,"longitude":79.4304,"temp":30.3,"humidity":38,"rain":0.0,"pressure":987.0,"uv_index":7.7,"wind_gusts":42.5,"aqi":126,"pm10":67.8,"pm2_5":48.4,"mosquito_risk":0,"arthritis_risk":5,"migraine_risk":7,"frizz_risk":0,"updated_at":"2026-04-25T08:12:45.849835+05:30"},{"city":"Aligarh","state":"Uttar Pradesh","latitude":27.8974,"longitude":78.088,"temp":31.4,"humidity":31,"rain":0.0,"pressure":986.0,"uv_index":7.6,"wind_gusts":43.9,"aqi":345,"pm10":720.8,"pm2_5":123.9,"mosquito_risk":0,"arthritis_risk":5,"migraine_risk":7,"frizz_risk":0,"updated_at":"2026-04-25T08:12:45.849840+05:30"},{"city":"Moradabad","state":"Uttar Pradesh","latitude":28.8386,"longitude":78.7733,"temp":28.6,"humidity":45,"rain":0.0,"pressure":984.0,"uv_index":7.5,"wind_gusts":45.4,"aqi":158,"pm10":93.6,"pm2_5":79.4,"mosquito_risk":4,"arthritis_risk":5,"migraine_risk":7,"frizz_risk":0,"updated_at":"2026-04-25T08:12:45.849846+05:30"},{"city":"Saharanpur","state":"Uttar Pradesh","latitude":29.9637,"longitude":77.546,"temp":26.5,"humidity":48,"rain":0.0,"pressure":975.9,"uv_index":7.05,"wind_gusts":56.5,"aqi":100,"pm10":50.6,"pm2_5":42.1,"mosquito_risk":4,"arthritis_risk":5,"migraine_risk":7,"frizz_risk":0,"updated_at":"2026-04-25T08:12:45.849851+05:30"},{"city":"Jhansi","state":"Uttar Pradesh","latitude":25.4484,"longitude":78.5685,"temp":33.4,"humidity":23,"rain":0.0,"pressure":979.0,"uv_index":8.3,"wind_gusts":33.5,"aqi":56,"pm10":19.9,"pm2_5":12.0,"mosquito_risk":0,"arthritis_risk":5,"migraine_risk":7,"frizz_risk":0,"updated_at":"2026-04-25T08:12:49.161314+05:30"},{"city":"Surat","state":"Gujarat","latitude":21.1702,"longitude":72.8311,"temp":30.1,"humidity":43,"rain":0.0,"pressure":1007.6,"uv_index":7.85,"wind_gusts":37.4,"aqi":98,"pm10":43.1,"pm2_5":32.4,"mosquito_risk":0,"arthritis_risk":5,"migraine_risk":4,"frizz_risk":1,"updated_at":"2026-04-25T08:12:49.161346+05:30"},{"city":"Vadodara","state":"Gujarat","latitude":22.3072,"longitude":73.1812,"temp":29.7,"humidity":29,"rain":0.0,"pressure":1005.7,"uv_index":8.15,"wind_gusts":31.3,"aqi":78,"pm10":39.7,"pm2_5":28.9,"mosquito_risk":4,"arthritis_risk":5,"migraine_risk":4,"frizz_risk":0,"updated_at":"2026-04-25T08:12:49.161355+05:30"},{"city":"Rajkot","state":"Gujarat","latitude":22.3039,"longitude":70.8022,"temp":25.8,"humidity":86,"rain":0.0,"pressure":995.8,"uv_index":7.9,"wind_gusts":37.1,"aqi":42,"pm10":30.5,"pm2_5":11.7,"mosquito_risk":7,"arthritis_risk":5,"migraine_risk":7,"frizz_risk":1,"updated_at":"2026-04-25T08:12:49.161364+05:30"},{"city":"Thane","state":"Maharashtra","latitude":19.2183,"longitude":72.9781,"temp":29.5,"humidity":54,"rain":0.0,"pressure":1007.8,"uv_index":8.0,"wind_gusts":41.4,"aqi":80,"pm10":46.7,"pm2_5":30.3,"mosquito_risk":4,"arthritis_risk":5,"migraine_risk":4,"frizz_risk":1,"updated_at":"2026-04-25T08:12:49.161371+05:30"},{"city":"Nagpur","state":"Maharashtra","latitude":21.1458,"longitude":79.0882,"temp":32.6,"humidity":22,"rain":0.0,"pressure":974.7,"uv_index":8.9,"wind_gusts":45.7,"aqi":95,"pm10":28.2,"pm2_5":24.5,"mosquito_risk":0,"arthritis_risk":5,"migraine_risk":7,"frizz_risk":0,"updated_at":"2026-04-25T08:12:49.161379+05:30"},{"city":"Nashik","state":"Maharashtra","latitude":19.9975,"longitude":73.7898,"temp":30.0,"humidity":29,"rain":0.0,"pressure":947.2,"uv_index":8.25,"wind_gusts":32.4,"aqi":80,"pm10":45.5,"pm2_5":29.8,"mosquito_risk":4,"arthritis_risk":5,"migraine_risk":7,"frizz_risk":0,"updated_at":"2026-04-25T08:12:49.161387+05:30"},{"city":"Aurangabad","state":"Maharashtra","latitude":19.8762,"longitude":75.3433,"temp":32.5,"humidity":18,"rain":0.0,"pressure":946.2,"uv_index":8.95,"wind_gusts":35.6,"aqi":72,"pm10":36.2,"pm2_5":24.6,"mosquito_risk":0,"arthritis_risk":5,"migraine_risk":7,"frizz_risk":0,"updated_at":"2026-04-25T08:12:49.161395+05:30"},{"city":"Solapur","state":"Maharashtra","latitude":17.6599,"longitude":75.9064,"temp":32.2,"humidity":31,"rain":0.0,"pressure":958.8,"uv_index":8.8,"wind_gusts":37.4,"aqi":116,"pm10":49.1,"pm2_5":45.8,"mosquito_risk":0,"arthritis_risk":5,"migraine_risk":7,"frizz_risk":0,"updated_at":"2026-04-25T08:12:49.161402+05:30"},{"city":"Kolhapur","state":"Maharashtra","latitude":16.705,"longitude":74.2433,"temp":28.5,"humidity":49,"rain":0.0,"pressure":948.6,"uv_index":9.05,"wind_gusts":35.6,"aqi":150,"pm10":69.6,"pm2_5":65.9,"mosquito_risk":4,"arthritis_risk":5,"migraine_risk":7,"frizz_risk":1,"updated_at":"2026-04-25T08:12:49.161409+05:30"},{"city":"Goa","state":"Goa","latitude":15.2993,"longitude":74.124,"temp":30.0,"humidity":73,"rain":0.0,"pressure":997.9,"uv_index":9.0,"wind_gusts":33.1,"aqi":78,"pm10":32.1,"pm2_5":26.3,"mosquito_risk":7,"arthritis_risk":5,"migraine_risk":7,"frizz_risk":1,"updated_at":"2026-04-25T08:12:49.161416+05:30"},{"city":"Jodhpur","state":"Rajasthan","latitude":26.2389,"longitude":73.0243,"temp":31.0,"humidity":29,"rain":0.0,"pressure":984.6,"uv_index":8.3,"wind_gusts":28.4,"aqi":82,"pm10":230.5,"pm2_5":49.4,"mosquito_risk":0,"arthritis_risk":5,"migraine_risk":7,"frizz_risk":0,"updated_at":"2026-04-25T08:12:49.161424+05:30"},{"city":"Udaipur","state":"Rajasthan","latitude":24.5854,"longitude":73.7125,"temp":31.7,"humidity":28,"rain":0.0,"pressure":948.6,"uv_index":8.8,"wind_gusts":41.8,"aqi":54,"pm10":53.2,"pm2_5":17.7,"mosquito_risk":0,"arthritis_risk":5,"migraine_risk":7,"frizz_risk":0,"updated_at":"2026-04-25T08:12:49.161430+05:30"},{"city":"Kota","state":"Rajasthan","latitude":25.2138,"longitude":75.8648,"temp":31.8,"humidity":27,"rain":0.0,"pressure":980.0,"uv_index":8.3,"wind_gusts":30.2,"aqi":63,"pm10":28.9,"pm2_5":18.4,"mosquito_risk":0,"arthritis_risk":5,"migraine_risk":7,"frizz_risk":0,"updated_at":"2026-04-25T08:12:49.161437+05:30"},{"city":"Bikaner","state":"Rajasthan","latitude":28.0229,"longitude":73.3119,"temp":31.4,"humidity":27,"rain":0.0,"pressure":982.9,"uv_index":8.15,"wind_gusts":28.4,"aqi":65,"pm10":46.2,"pm2_5":21.8,"mosquito_risk":0,"arthritis_risk":5,"migraine_risk":7,"frizz_risk":0,"updated_at":"2026-04-25T08:12:49.161444+05:30"},{"city":"Ajmer","state":"Rajasthan","latitude":26.4499,"longitude":74.6399,"temp":31.6,"humidity":25,"rain":0.0,"pressure":956.9,"uv_index":8.25,"wind_gusts":28.4,"aqi":63,"pm10":73.1,"pm2_5":25.6,"mosquito_risk":0,"arthritis_risk":5,"migraine_risk":7,"frizz_risk":0,"updated_at":"2026-04-25T08:12:49.161452+05:30"},{"city":"Gwalior","state":"Madhya Pradesh","latitude":26.2183,"longitude":78.1828,"temp":32.8,"humidity":26,"rain":0.0,"pressure":984.2,"uv_index":8.05,"wind_gusts":39.2,"aqi":67,"pm10":27.4,"pm2_5":13.5,"mosquito_risk":0,"arthritis_risk":5,"migraine_risk":7,"frizz_risk":0,"updated_at":"2026-04-25T08:12:49.161459+05:30"},{"city":"Indore","state":"Madhya Pradesh","latitude":22.7196,"longitude":75.8577,"temp":31.1,"humidity":24,"rain":0.0,"pressure":950.3,"uv_index":8.6,"wind_gusts":30.2,"aqi":53,"pm10":40.0,"pm2_5":17.7,"mosquito_risk":0,"arthritis_risk":5,"migraine_risk":7,"frizz_risk":0,"updated_at":"2026-04-25T08:12:49.161466+05:30"},{"city":"Bhopal","state":"Madhya Pradesh","latitude":23.2599,"longitude":77.4126,"temp":32.0,"humidity":22,"rain":0.0,"pressure":955.7,"uv_index":8.65,"wind_gusts":33.8,"aqi":55,"pm10":29.2,"pm2_5":16.3,"mosquito_risk":0,"arthritis_risk":5,"migraine_risk":7,"frizz_risk":0,"updated_at":"2026-04-25T08:12:49.161473+05:30"},{"city":"Jabalpur","state":"Madhya Pradesh","latitude":23.1815,"longitude":79.9864,"temp":32.0,"humidity":20,"rain":0.0,"pressure":963.5,"uv_index":8.75,"wind_gusts":30.6,"aqi":56,"pm10":30.4,"pm2_5":24.1,"mosquito_risk":0,"arthritis_risk":5,"migraine_risk":7,"frizz_risk":0,"updated_at":"2026-04-25T08:12:49.161480+05:30"},{"city":"Ujjain","state":"Madhya Pradesh","latitude":23.1765,"longitude":75.7885,"temp":31.3,"humidity":26,"rain":0.0,"pressure":955.9,"uv_index":8.55,"wind_gusts":28.1,"aqi":54,"pm10":45.9,"pm2_5":19.3,"mosquito_risk":0,"arthritis_risk":5,"migraine_risk":7,"frizz_risk":0,"updated_at":"2026-04-25T08:12:49.161487+05:30"},{"city":"Visakhapatnam","state":"Andhra Pradesh","latitude":17.6868,"longitude":83.2185,"temp":30.1,"humidity":73,"rain":0.0,"pressure":1005.4,"uv_index":8.5,"wind_gusts":43.2,"aqi":61,"pm10":24.9,"pm2_5":20.9,"mosquito_risk":3,"arthritis_risk":5,"migraine_risk":4,"frizz_risk":1,"updated_at":"2026-04-25T08:12:49.161495+05:30"},{"city":"Vijayawada","state":"Andhra Pradesh","latitude":16.5062,"longitude":80.648,"temp":30.4,"humidity":75,"rain":0.0,"pressure":1004.4,"uv_index":8.35,"wind_gusts":33.5,"aqi":52,"pm10":14.7,"pm2_5":11.5,"mosquito_risk":3,"arthritis_risk":5,"migraine_risk":4,"frizz_risk":1,"updated_at":"2026-04-25T08:12:49.161501+05:30"},{"city":"Guntur","state":"Andhra Pradesh","latitude":16.3067,"longitude":80.4365,"temp":30.7,"humidity":74,"rain":0.0,"pressure":1005.6,"uv_index":8.35,"wind_gusts":36.7,"aqi":55,"pm10":12.9,"pm2_5":10.3,"mosquito_risk":3,"arthritis_risk":5,"migraine_risk":4,"frizz_risk":1,"updated_at":"2026-04-25T08:12:49.161509+05:30"},{"city":"Nellore","state":"Andhra Pradesh","latitude":14.4426,"longitude":79.9865,"temp":30.2,"humidity":72,"rain":0.0,"pressure":1007.0,"uv_index":9.1,"wind_gusts":42.8,"aqi":42,"pm10":10.4,"pm2_5":8.9,"mosquito_risk":3,"arthritis_risk":5,"migraine_risk":4,"frizz_risk":1,"updated_at":"2026-04-25T08:12:49.161516+05:30"},{"city":"Kurnool","state":"Andhra Pradesh","latitude":15.8281,"longitude":78.0373,"temp":32.8,"humidity":44,"rain":0.0,"pressure":978.0,"uv_index":8.8,"wind_gusts":34.2,"aqi":84,"pm10":21.1,"pm2_5":18.5,"mosquito_risk":0,"arthritis_risk":5,"migraine_risk":7,"frizz_risk":1,"updated_at":"2026-04-25T08:12:49.161524+05:30"},{"city":"Kakinada","state":"Andhra Pradesh","latitude":16.9891,"longitude":82.2475,"temp":30.4,"humidity":73,"rain":0.0,"pressure":1009.3,"uv_index":8.55,"wind_gusts":38.9,"aqi":40,"pm10":16.8,"pm2_5":11.9,"mosquito_risk":3,"arthritis_risk":0,"migraine_risk":4,"frizz_risk":1,"updated_at":"2026-04-25T08:12:49.161531+05:30"},{"city":"Tirupati","state":"Andhra Pradesh","latitude":13.6288,"longitude":79.4192,"temp":29.4,"humidity":69,"rain":0.0,"pressure":992.9,"uv_index":9.35,"wind_gusts":36.7,"aqi":58,"pm10":15.0,"pm2_5":13.4,"mosquito_risk":7,"arthritis_risk":5,"migraine_risk":7,"frizz_risk":1,"updated_at":"2026-04-25T08:12:49.161538+05:30"},{"city":"Warangal","state":"Telangana","latitude":17.9689,"longitude":79.5941,"temp":29.9,"humidity":54,"rain":0.0,"pressure":980.6,"uv_index":9.2,"wind_gusts":30.2,"aqi":117,"pm10":28.3,"pm2_5":25.9,"mosquito_risk":4,"arthritis_risk":5,"migraine_risk":7,"frizz_risk":1,"updated_at":"2026-04-25T08:12:49.161546+05:30"},{"city":"Nizamabad","state":"Telangana","latitude":18.6725,"longitude":78.0941,"temp":30.9,"humidity":40,"rain":0.0,"pressure":966.6,"uv_index":8.6,"wind_gusts":30.2,"aqi":118,"pm10":50.4,"pm2_5":47.0,"mosquito_risk":0,"arthritis_risk":5,"migraine_risk":7,"frizz_risk":0,"updated_at":"2026-04-25T08:12:49.161552+05:30"},{"city":"Mysore","state":"Karnataka","latitude":12.2958,"longitude":76.6396,"temp":26.0,"humidity":67,"rain":0.0,"pressure":929.9,"uv_index":7.55,"wind_gusts":45.4,"aqi":91,"pm10":50.4,"pm2_5":46.6,"mosquito_risk":7,"arthritis_risk":5,"migraine_risk":7,"frizz_risk":1,"updated_at":"2026-04-25T08:12:49.161559+05:30"},{"city":"Mangalore","state":"Karnataka","latitude":12.9141,"longitude":74.856,"temp":29.7,"humidity":78,"rain":0.0,"pressure":1006.6,"uv_index":9.15,"wind_gusts":42.1,"aqi":66,"pm10":23.9,"pm2_5":20.4,"mosquito_risk":7,"arthritis_risk":5,"migraine_risk":4,"frizz_risk":1,"updated_at":"2026-04-25T08:12:49.161566+05:30"},{"city":"Hubli-Dharwad","state":"Karnataka","latitude":15.3647,"longitude":75.124,"temp":27.9,"humidity":62,"rain":0.0,"pressure":941.4,"uv_index":9.05,"wind_gusts":37.1,"aqi":101,"pm10":53.8,"pm2_5":47.8,"mosquito_risk":7,"arthritis_risk":5,"migraine_risk":7,"frizz_risk":1,"updated_at":"2026-04-25T08:12:49.161590+05:30"},{"city":"Belgaum","state":"Karnataka","latitude":15.8497,"longitude":74.4977,"temp":29.4,"humidity":38,"rain":0.0,"pressure":926.9,"uv_index":9.2,"wind_gusts":35.6,"aqi":109,"pm10":59.3,"pm2_5":50.6,"mosquito_risk":4,"arthritis_risk":5,"migraine_risk":7,"frizz_risk":0,"updated_at":"2026-04-25T08:12:52.477618+05:30"},{"city":"Coimbatore","state":"Tamil Nadu","latitude":11.0168,"longitude":76.9558,"temp":28.5,"humidity":61,"rain":0.0,"pressure":963.2,"uv_index":8.9,"wind_gusts":45.4,"aqi":79,"pm10":24.9,"pm2_5":24.1,"mosquito_risk":7,"arthritis_risk":5,"migraine_risk":7,"frizz_risk":1,"updated_at":"2026-04-25T08:12:52.477648+05:30"},{"city":"Madurai","state":"Tamil Nadu","latitude":9.9252,"longitude":78.1198,"temp":29.8,"humidity":68,"rain":0.0,"pressure":994.7,"uv_index":9.25,"wind_gusts":41.4,"aqi":50,"pm10":24.3,"pm2_5":23.2,"mosquito_risk":7,"arthritis_risk":5,"migraine_risk":7,"frizz_risk":1,"updated_at":"2026-04-25T08:12:52.477656+05:30"},{"city":"Trichy","state":"Tamil Nadu","latitude":10.7905,"longitude":78.7047,"temp":29.7,"humidity":74,"rain":0.0,"pressure":1001.3,"uv_index":8.6,"wind_gusts":33.8,"aqi":48,"pm10":18.0,"pm2_5":17.0,"mosquito_risk":7,"arthritis_risk":5,"migraine_risk":4,"frizz_risk":1,"updated_at":"2026-04-25T08:12:52.477663+05:30"},{"city":"Salem","state":"Tamil Nadu","latitude":11.6643,"longitude":78.146,"temp":29.3,"humidity":64,"rain":0.0,"pressure":979.0,"uv_index":9.15,"wind_gusts":41.4,"aqi":59,"pm10":17.8,"pm2_5":16.8,"mosquito_risk":7,"arthritis_risk":5,"migraine_risk":7,"frizz_risk":1,"updated_at":"2026-04-25T08:12:52.477669+05:30"},{"city":"Tirunelveli","state":"Tamil Nadu","latitude":8.7139,"longitude":77.7567,"temp":29.4,"humidity":73,"rain":0.0,"pressure":1004.7,"uv_index":9.2,"wind_gusts":38.9,"aqi":65,"pm10":27.1,"pm2_5":25.5,"mosquito_risk":7,"arthritis_risk":5,"migraine_risk":4,"frizz_risk":1,"updated_at":"2026-04-25T08:12:52.477676+05:30"},{"city":"Vellore","state":"Tamil Nadu","latitude":12.9165,"longitude":79.1325,"temp":29.1,"humidity":69,"rain":0.0,"pressure":986.3,"uv_index":9.25,"wind_gusts":35.6,"aqi":79,"pm10":35.2,"pm2_5":34.0,"mosquito_risk":7,"arthritis_risk":5,"migraine_risk":7,"frizz_risk":1,"updated_at":"2026-04-25T08:12:52.477682+05:30"},{"city":"Erode","state":"Tamil Nadu","latitude":11.341,"longitude":77.7172,"temp":29.5,"humidity":64,"rain":0.0,"pressure":990.8,"uv_index":9.05,"wind_gusts":42.8,"aqi":48,"pm10":16.4,"pm2_5":15.9,"mosquito_risk":7,"arthritis_risk":5,"migraine_risk":7,"frizz_risk":1,"updated_at":"2026-04-25T08:12:52.477688+05:30"},{"city":"Kochi","state":"Kerala","latitude":9.9312,"longitude":76.2673,"temp":29.0,"humidity":80,"rain":0.0,"pressure":1009.2,"uv_index":8.9,"wind_gusts":39.6,"aqi":94,"pm10":37.0,"pm2_5":34.8,"mosquito_risk":7,"arthritis_risk":0,"migraine_risk":4,"frizz_risk":1,"updated_at":"2026-04-25T08:12:52.477694+05:30"},{"city":"Thiruvananthapuram","state":"Kerala","latitude":8.5241,"longitude":76.9366,"temp":27.8,"humidity":85,"rain":0.0,"pressure":1008.8,"uv_index":9.05,"wind_gusts":30.6,"aqi":58,"pm10":20.1,"pm2_5":17.1,"mosquito_risk":7,"arthritis_risk":0,"migraine_risk":4,"frizz_risk":1,"updated_at":"2026-04-25T08:12:52.477700+05:30"},{"city":"Kozhikode","state":"Kerala","latitude":11.2588,"longitude":75.7804,"temp":29.2,"humidity":80,"rain":0.0,"pressure":1008.2,"uv_index":8.25,"wind_gusts":37.8,"aqi":67,"pm10":25.7,"pm2_5":22.6,"mosquito_risk":7,"arthritis_risk":0,"migraine_risk":4,"frizz_risk":1,"updated_at":"2026-04-25T08:12:52.477706+05:30"},{"city":"Thrissur","state":"Kerala","latitude":10.5276,"longitude":76.2144,"temp":29.0,"humidity":79,"rain":0.0,"pressure":1007.6,"uv_index":8.85,"wind_gusts":47.2,"aqi":92,"pm10":37.6,"pm2_5":34.6,"mosquito_risk":7,"arthritis_risk":5,"migraine_risk":4,"frizz_risk":1,"updated_at":"2026-04-25T08:12:52.477712+05:30"},{"city":"Kannur","state":"Kerala","latitude":11.8745,"longitude":75.3704,"temp":29.5,"humidity":74,"rain":0.0,"pressure":1007.3,"uv_index":7.9,"wind_gusts":41.4,"aqi":74,"pm10":29.2,"pm2_5":26.1,"mosquito_risk":7,"arthritis_risk":5,"migraine_risk":4,"frizz_risk":1,"updated_at":"2026-04-25T08:12:52.477718+05:30"},{"city":"Patna","state":"Bihar","latitude":25.5941,"longitude":85.1376,"temp":31.0,"humidity":68,"rain":0.0,"pressure":1001.6,"uv_index":8.65,"wind_gusts":52.9,"aqi":151,"pm10":79.6,"pm2_5":70.8,"mosquito_risk":3,"arthritis_risk":5,"migraine_risk":4,"frizz_risk":1,"updated_at":"2026-04-25T08:12:52.477724+05:30"},{"city":"Gaya","state":"Bihar","latitude":24.7914,"longitude":85.0002,"temp":31.5,"humidity":39,"rain":0.0,"pressure":995.0,"uv_index":8.7,"wind_gusts":54.4,"aqi":114,"pm10":65.4,"pm2_5":40.7,"mosquito_risk":0,"arthritis_risk":5,"migraine_risk":7,"frizz_risk":0,"updated_at":"2026-04-25T08:12:52.477730+05:30"},{"city":"Muzaffarpur","state":"Bihar","latitude":26.1209,"longitude":85.3647,"temp":29.0,"humidity":70,"rain":0.0,"pressure":1002.2,"uv_index":8.65,"wind_gusts":47.9,"aqi":154,"pm10":82.9,"pm2_5":72.4,"mosquito_risk":7,"arthritis_risk":5,"migraine_risk":4,"frizz_risk":1,"updated_at":"2026-04-25T08:12:52.477735+05:30"},{"city":"Bhagalpur","state":"Bihar","latitude":25.2425,"longitude":87.0117,"temp":30.6,"humidity":71,"rain":0.0,"pressure":1002.8,"uv_index":8.6,"wind_gusts":49.0,"aqi":155,"pm10":74.3,"pm2_5":61.9,"mosquito_risk":3,"arthritis_risk":5,"migraine_risk":4,"frizz_risk":1,"updated_at":"2026-04-25T08:12:52.477741+05:30"},{"city":"Ranchi","state":"Jharkhand","latitude":23.3441,"longitude":85.3096,"temp":30.1,"humidity":40,"rain":0.0,"pressure":940.2,"uv_index":9.2,"wind_gusts":34.2,"aqi":109,"pm10":59.8,"pm2_5":45.3,"mosquito_risk":0,"arthritis_risk":5,"migraine_risk":7,"frizz_risk":0,"updated_at":"2026-04-25T08:12:52.477747+05:30"},{"city":"Jamshedpur","state":"Jharkhand","latitude":22.8046,"longitude":86.2029,"temp":31.6,"humidity":55,"rain":0.0,"pressure":992.9,"uv_index":8.75,"wind_gusts":34.9,"aqi":148,"pm10":61.0,"pm2_5":51.6,"mosquito_risk":0,"arthritis_risk":5,"migraine_risk":7,"frizz_risk":1,"updated_at":"2026-04-25T08:12:52.477753+05:30"},{"city":"Dhanbad","state":"Jharkhand","latitude":23.7957,"longitude":86.4304,"temp":30.2,"humidity":71,"rain":0.0,"pressure":981.7,"uv_index":8.95,"wind_gusts":40.0,"aqi":159,"pm10":77.1,"pm2_5":68.2,"mosquito_risk":3,"arthritis_risk":5,"migraine_risk":7,"frizz_risk":1,"updated_at":"2026-04-25T08:12:52.477758+05:30"},{"city":"Bokaro","state":"Jharkhand","latitude":23.6693,"longitude":86.1511,"temp":29.7,"humidity":69,"rain":0.0,"pressure":985.6,"uv_index":8.95,"wind_gusts":38.9,"aqi":158,"pm10":99.2,"pm2_5":78.5,"mosquito_risk":7,"arthritis_risk":5,"migraine_risk":7,"frizz_risk":1,"updated_at":"2026-04-25T08:12:52.477764+05:30"},{"city":"Bhubaneswar","state":"Odisha","latitude":20.2961,"longitude":85.8245,"temp":29.9,"humidity":77,"rain":0.0,"pressure":1004.4,"uv_index":8.8,"wind_gusts":40.3,"aqi":70,"pm10":23.9,"pm2_5":17.9,"mosquito_risk":7,"arthritis_risk":5,"migraine_risk":4,"frizz_risk":1,"updated_at":"2026-04-25T08:12:52.477769+05:30"},{"city":"Cuttack","state":"Odisha","latitude":20.4625,"longitude":85.8828,"temp":29.6,"humidity":79,"rain":0.0,"pressure":1006.3,"uv_index":8.9,"wind_gusts":37.8,"aqi":70,"pm10":23.9,"pm2_5":17.9,"mosquito_risk":7,"arthritis_risk":5,"migraine_risk":4,"frizz_risk":1,"updated_at":"2026-04-25T08:12:52.477776+05:30"},{"city":"Rourkela","state":"Odisha","latitude":22.2604,"longitude":84.8536,"temp":31.1,"humidity":55,"rain":0.0,"pressure":987.0,"uv_index":8.65,"wind_gusts":39.6,"aqi":137,"pm10":70.3,"pm2_5":62.6,"mosquito_risk":0,"arthritis_risk":5,"migraine_risk":7,"frizz_risk":1,"updated_at":"2026-04-25T08:12:52.477781+05:30"},{"city":"Raipur","state":"Chhattisgarh","latitude":21.2514,"longitude":81.6296,"temp":31.8,"humidity":33,"rain":0.0,"pressure":976.2,"uv_index":8.95,"wind_gusts":31.3,"aqi":114,"pm10":53.6,"pm2_5":51.0,"mosquito_risk":0,"arthritis_risk":5,"migraine_risk":7,"frizz_risk":0,"updated_at":"2026-04-25T08:12:52.477786+05:30"},{"city":"Bhilai","state":"Chhattisgarh","latitude":21.1938,"longitude":81.3509,"temp":31.0,"humidity":36,"rain":0.0,"pressure":976.5,"uv_index":9.0,"wind_gusts":37.1,"aqi":112,"pm10":52.5,"pm2_5":50.9,"mosquito_risk":0,"arthritis_risk":5,"migraine_risk":7,"frizz_risk":0,"updated_at":"2026-04-25T08:12:52.477792+05:30"},{"city":"Guwahati","state":"Assam","latitude":26.1158,"longitude":91.7086,"temp":23.6,"humidity":88,"rain":0.0,"pressure":1005.7,"uv_index":8.55,"wind_gusts":42.1,"aqi":158,"pm10":124.3,"pm2_5":80.3,"mosquito_risk":3,"arthritis_risk":5,"migraine_risk":4,"frizz_risk":1,"updated_at":"2026-04-25T08:12:52.477797+05:30"},{"city":"Agartala","state":"Tripura","latitude":23.8315,"longitude":91.2868,"temp":29.9,"humidity":74,"rain":0.0,"pressure":1009.1,"uv_index":8.75,"wind_gusts":26.3,"aqi":152,"pm10":55.6,"pm2_5":49.4,"mosquito_risk":7,"arthritis_risk":0,"migraine_risk":4,"frizz_risk":1,"updated_at":"2026-04-25T08:12:52.477803+05:30"},{"city":"Shillong","state":"Meghalaya","latitude":25.5788,"longitude":91.8933,"temp":24.8,"humidity":50,"rain":0.0,"pressure":862.1,"uv_index":8.2,"wind_gusts":27.4,"aqi":142,"pm10":99.7,"pm2_5":51.8,"mosquito_risk":0,"arthritis_risk":5,"migraine_risk":7,"frizz_risk":0,"updated_at":"2026-04-25T08:12:52.477808+05:30"},{"city":"Imphal","state":"Manipur","latitude":24.817,"longitude":93.9368,"temp":25.5,"humidity":63,"rain":0.0,"pressure":927.3,"uv_index":9.1,"wind_gusts":33.5,"aqi":154,"pm10":126.7,"pm2_5":64.0,"mosquito_risk":7,"arthritis_risk":5,"migraine_risk":7,"frizz_risk":1,"updated_at":"2026-04-25T08:12:52.477813+05:30"},{"city":"Aizawl","state":"Mizoram","latitude":23.7271,"longitude":92.7176,"temp":27.2,"humidity":45,"rain":0.0,"pressure":897.2,"uv_index":8.95,"wind_gusts":36.7,"aqi":119,"pm10":92.2,"pm2_5":42.8,"mosquito_risk":4,"arthritis_risk":5,"migraine_risk":7,"frizz_risk":0,"updated_at":"2026-04-25T08:12:52.477819+05:30"},{"city":"Kohima","state":"Nagaland","latitude":25.6701,"longitude":94.1077,"temp":23.3,"humidity":64,"rain":0.0,"pressure":860.4,"uv_index":8.45,"wind_gusts":36.4,"aqi":153,"pm10":123.4,"pm2_5":64.0,"mosquito_risk":3,"arthritis_risk":5,"migraine_risk":7,"frizz_risk":1,"updated_at":"2026-04-25T08:12:52.477824+05:30"},{"city":"Gangtok","state":"Sikkim","latitude":27.3314,"longitude":88.6138,"temp":20.2,"humidity":63,"rain":0.0,"pressure":841.3,"uv_index":8.9,"wind_gusts":44.3,"aqi":102,"pm10":26.3,"pm2_5":18.1,"mosquito_risk":3,"arthritis_risk":5,"migraine_risk":7,"frizz_risk":0,"updated_at":"2026-04-25T08:12:52.477830+05:30"},{"city":"Siliguri","state":"West Bengal","latitude":26.7271,"longitude":88.3953,"temp":27.8,"humidity":71,"rain":0.0,"pressure":995.5,"uv_index":8.45,"wind_gusts":40.0,"aqi":153,"pm10":48.8,"pm2_5":41.1,"mosquito_risk":7,"arthritis_risk":5,"migraine_risk":7,"frizz_risk":1,"updated_at":"2026-04-25T08:12:55.786182+05:30"},{"city":"Durgapur","state":"West Bengal","latitude":23.5204,"longitude":87.3119,"temp":30.6,"humidity":74,"rain":0.0,"pressure":996.8,"uv_index":8.9,"wind_gusts":39.2,"aqi":146,"pm10":58.2,"pm2_5":45.8,"mosquito_risk":3,"arthritis_risk":5,"migraine_risk":7,"frizz_risk":1,"updated_at":"2026-04-25T08:12:55.786210+05:30"},{"city":"Asansol","state":"West Bengal","latitude":23.6739,"longitude":86.9524,"temp":31.0,"humidity":71,"rain":0.0,"pressure":995.3,"uv_index":8.95,"wind_gusts":45.0,"aqi":149,"pm10":59.6,"pm2_5":51.0,"mosquito_risk":3,"arthritis_risk":5,"migraine_risk":7,"frizz_risk":1,"updated_at":"2026-04-25T08:12:55.786218+05:30"},{"city":"Pondicherry","state":"Puducherry","latitude":11.9139,"longitude":79.8145,"temp":30.9,"humidity":68,"rain":0.0,"pressure":1009.8,"uv_index":9.05,"wind_gusts":43.9,"aqi":23,"pm10":10.5,"pm2_5":7.1,"mosquito_risk":3,"arthritis_risk":0,"migraine_risk":4,"frizz_risk":1,"updated_at":"2026-04-25T08:12:55.786226+05:30"},{"city":"Port Blair","state":"Andaman and Nicobar Islands","latitude":11.6234,"longitude":92.7265,"temp":31.6,"humidity":59,"rain":0.0,"pressure":1009.1,"uv_index":9.15,"wind_gusts":27.4,"aqi":33,"pm10":17.5,"pm2_5":9.3,"mosquito_risk":0,"arthritis_risk":0,"migraine_risk":4,"frizz_risk":1,"updated_at":"2026-04-25T08:12:55.786235+05:30"},{"city":"Haridwar","state":"Uttarakhand","latitude":29.9457,"longitude":78.1642,"temp":26.7,"humidity":54,"rain":0.0,"pressure":974.1,"uv_index":7.2,"wind_gusts":20.5,"aqi":79,"pm10":20.2,"pm2_5":17.7,"mosquito_risk":4,"arthritis_risk":5,"migraine_risk":7,"frizz_risk":1,"updated_at":"2026-04-25T08:12:55.786243+05:30"},{"city":"Rishikesh","state":"Uttarakhand","latitude":30.0869,"longitude":78.2676,"temp":26.1,"humidity":53,"rain":0.0,"pressure":967.1,"uv_index":7.35,"wind_gusts":26.3,"aqi":63,"pm10":18.4,"pm2_5":16.7,"mosquito_risk":4,"arthritis_risk":5,"migraine_risk":7,"frizz_risk":0,"updated_at":"2026-04-25T08:12:55.786251+05:30"},{"city":"Nainital","state":"Uttarakhand","latitude":29.3919,"longitude":79.4542,"temp":21.1,"humidity":45,"rain":0.0,"pressure":810.2,"uv_index":8.15,"wind_gusts":40.7,"aqi":75,"pm10":25.4,"pm2_5":20.5,"mosquito_risk":0,"arthritis_risk":5,"migraine_risk":7,"frizz_risk":0,"updated_at":"2026-04-25T08:12:55.786259+05:30"},{"city":"Mussoorie","state":"Uttarakhand","latitude":30.4599,"longitude":78.0664,"temp":21.0,"humidity":42,"rain":0.0,"pressure":807.4,"uv_index":7.75,"wind_gusts":51.8,"aqi":67,"pm10":15.9,"pm2_5":13.8,"mosquito_risk":0,"arthritis_risk":5,"migraine_risk":7,"frizz_risk":0,"updated_at":"2026-04-25T08:12:55.786266+05:30"},{"city":"Dharamshala","state":"Himachal Pradesh","latitude":32.219,"longitude":76.3234,"temp":26.4,"humidity":28,"rain":0.0,"pressure":872.9,"uv_index":7.8,"wind_gusts":55.1,"aqi":46,"pm10":17.3,"pm2_5":11.2,"mosquito_risk":4,"arthritis_risk":5,"migraine_risk":7,"frizz_risk":0,"updated_at":"2026-04-25T08:12:55.786273+05:30"},{"city":"Dalhousie","state":"Himachal Pradesh","latitude":32.5387,"longitude":75.971,"temp":19.0,"humidity":49,"rain":0.0,"pressure":808.2,"uv_index":8.3,"wind_gusts":44.3,"aqi":56,"pm10":18.5,"pm2_5":11.6,"mosquito_risk":0,"arthritis_risk":5,"migraine_risk":7,"frizz_risk":0,"updated_at":"2026-04-25T08:12:55.786280+05:30"},{"city":"Patiala","state":"Punjab","latitude":30.3398,"longitude":76.3869,"temp":31.1,"humidity":31,"rain":0.0,"pressure":978.6,"uv_index":7.35,"wind_gusts":51.8,"aqi":416,"pm10":226.3,"pm2_5":44.7,"mosquito_risk":0,"arthritis_risk":5,"migraine_risk":7,"frizz_risk":0,"updated_at":"2026-04-25T08:12:55.786288+05:30"},{"city":"Bhatinda","state":"Punjab","latitude":30.211,"longitude":74.9455,"temp":32.3,"humidity":27,"rain":0.0,"pressure":984.5,"uv_index":8.0,"wind_gusts":51.5,"aqi":85,"pm10":62.9,"pm2_5":33.8,"mosquito_risk":0,"arthritis_risk":5,"migraine_risk":7,"frizz_risk":0,"updated_at":"2026-04-25T08:12:55.786295+05:30"},{"city":"Rohtak","state":"Haryana","latitude":28.8955,"longitude":76.6066,"temp":31.9,"humidity":25,"rain":0.0,"pressure":982.6,"uv_index":7.35,"wind_gusts":49.7,"aqi":516,"pm10":787.9,"pm2_5":148.1,"mosquito_risk":0,"arthritis_risk":5,"migraine_risk":7,"frizz_risk":0,"updated_at":"2026-04-25T08:12:55.786302+05:30"},{"city":"Panipat","state":"Haryana","latitude":29.3909,"longitude":76.9635,"temp":32.5,"humidity":26,"rain":0.0,"pressure":981.0,"uv_index":7.3,"wind_gusts":48.6,"aqi":908,"pm10":990.9,"pm2_5":158.8,"mosquito_risk":0,"arthritis_risk":5,"migraine_risk":7,"frizz_risk":0,"updated_at":"2026-04-25T08:12:55.786308+05:30"},{"city":"Mathura","state":"Uttar Pradesh","latitude":27.4924,"longitude":77.6737,"temp":31.5,"humidity":31,"rain":0.0,"pressure":987.2,"uv_index":7.75,"wind_gusts":44.6,"aqi":300,"pm10":1192.1,"pm2_5":179.3,"mosquito_risk":0,"arthritis_risk":5,"migraine_risk":7,"frizz_risk":0,"updated_at":"2026-04-25T08:12:55.786315+05:30"},{"city":"Vrindavan","state":"Uttar Pradesh","latitude":27.5823,"longitude":77.7027,"temp":31.1,"humidity":33,"rain":0.0,"pressure":987.6,"uv_index":7.7,"wind_gusts":43.9,"aqi":300,"pm10":1192.1,"pm2_5":179.3,"mosquito_risk":0,"arthritis_risk":5,"migraine_risk":7,"frizz_risk":0,"updated_at":"2026-04-25T08:12:55.786322+05:30"},{"city":"Ayodhya","state":"Uttar Pradesh","latitude":26.7922,"longitude":82.1998,"temp":31.5,"humidity":47,"rain":0.0,"pressure":996.3,"uv_index":8.05,"wind_gusts":43.6,"aqi":137,"pm10":104.5,"pm2_5":58.4,"mosquito_risk":0,"arthritis_risk":5,"migraine_risk":7,"frizz_risk":1,"updated_at":"2026-04-25T08:12:55.786328+05:30"},{"city":"Ratlam","state":"Madhya Pradesh","latitude":23.3315,"longitude":75.0367,"temp":30.7,"humidity":28,"rain":0.0,"pressure":956.6,"uv_index":8.45,"wind_gusts":29.5,"aqi":52,"pm10":49.1,"pm2_5":20.3,"mosquito_risk":0,"arthritis_risk":5,"migraine_risk":7,"frizz_risk":0,"updated_at":"2026-04-25T08:12:55.786335+05:30"},{"city":"Sagar","state":"Madhya Pradesh","latitude":23.8388,"longitude":78.7378,"temp":32.0,"humidity":23,"rain":0.0,"pressure":952.2,"uv_index":8.65,"wind_gusts":28.4,"aqi":44,"pm10":18.4,"pm2_5":15.9,"mosquito_risk":0,"arthritis_risk":5,"migraine_risk":7,"frizz_risk":0,"updated_at":"2026-04-25T08:12:55.786342+05:30"},{"city":"Satna","state":"Madhya Pradesh","latitude":24.6005,"longitude":80.8322,"temp":32.0,"humidity":21,"rain":0.0,"pressure":972.6,"uv_index":8.65,"wind_gusts":37.4,"aqi":56,"pm10":32.8,"pm2_5":27.4,"mosquito_risk":0,"arthritis_risk":5,"migraine_risk":7,"frizz_risk":0,"updated_at":"2026-04-25T08:12:55.786349+05:30"},{"city":"Akola","state":"Maharashtra","latitude":20.7002,"longitude":77.0082,"temp":32.3,"humidity":26,"rain":0.0,"pressure":976.9,"uv_index":8.35,"wind_gusts":25.6,"aqi":76,"pm10":34.1,"pm2_5":28.6,"mosquito_risk":0,"arthritis_risk":5,"migraine_risk":7,"frizz_risk":0,"updated_at":"2026-04-25T08:12:55.786356+05:30"},{"city":"Amravati","state":"Maharashtra","latitude":20.9374,"longitude":77.7796,"temp":32.8,"humidity":21,"rain":0.0,"pressure":969.1,"uv_index":8.65,"wind_gusts":29.2,"aqi":81,"pm10":31.3,"pm2_5":25.0,"mosquito_risk":0,"arthritis_risk":5,"migraine_risk":7,"frizz_risk":0,"updated_at":"2026-04-25T08:12:55.786363+05:30"},{"city":"Latur","state":"Maharashtra","latitude":18.4088,"longitude":76.5604,"temp":31.9,"humidity":28,"rain":0.0,"pressure":941.9,"uv_index":9.1,"wind_gusts":32.0,"aqi":106,"pm10":44.0,"pm2_5":40.4,"mosquito_risk":0,"arthritis_risk":5,"migraine_risk":7,"frizz_risk":0,"updated_at":"2026-04-25T08:12:55.786371+05:30"},{"city":"Nanded","state":"Maharashtra","latitude":19.1383,"longitude":77.3091,"temp":31.8,"humidity":33,"rain":0.0,"pressure":970.3,"uv_index":9.0,"wind_gusts":32.4,"aqi":109,"pm10":44.5,"pm2_5":42.1,"mosquito_risk":0,"arthritis_risk":5,"migraine_risk":7,"frizz_risk":0,"updated_at":"2026-04-25T08:12:55.786377+05:30"},{"city":"Gulbarga","state":"Karnataka","latitude":17.3297,"longitude":76.8343,"temp":31.0,"humidity":38,"rain":0.0,"pressure":960.6,"uv_index":8.9,"wind_gusts":29.9,"aqi":116,"pm10":59.6,"pm2_5":52.6,"mosquito_risk":0,"arthritis_risk":5,"migraine_risk":7,"frizz_risk":0,"updated_at":"2026-04-25T08:12:55.786384+05:30"},{"city":"Bidar","state":"Karnataka","latitude":17.9104,"longitude":77.5199,"temp":30.3,"humidity":41,"rain":0.0,"pressure":937.7,"uv_index":8.5,"wind_gusts":25.2,"aqi":119,"pm10":55.6,"pm2_5":50.2,"mosquito_risk":0,"arthritis_risk":5,"migraine_risk":7,"frizz_risk":0,"updated_at":"2026-04-25T08:12:55.786391+05:30"},{"city":"Hospet","state":"Karnataka","latitude":15.2689,"longitude":76.3909,"temp":28.1,"humidity":75,"rain":0.0,"pressure":956.9,"uv_index":9.3,"wind_gusts":28.1,"aqi":101,"pm10":28.9,"pm2_5":27.1,"mosquito_risk":7,"arthritis_risk":5,"migraine_risk":7,"frizz_risk":1,"updated_at":"2026-04-25T08:12:55.786398+05:30"},{"city":"Tirupur","state":"Tamil Nadu","latitude":11.1085,"longitude":77.3411,"temp":29.2,"humidity":64,"rain":0.0,"pressure":976.8,"uv_index":9.05,"wind_gusts":37.8,"aqi":58,"pm10":17.8,"pm2_5":17.3,"mosquito_risk":7,"arthritis_risk":5,"migraine_risk":7,"frizz_risk":1,"updated_at":"2026-04-25T08:12:55.786405+05:30"},{"city":"Alappuzha","state":"Kerala","latitude":9.4981,"longitude":76.3388,"temp":28.5,"humidity":86,"rain":0.0,"pressure":1009.3,"uv_index":9.1,"wind_gusts":38.5,"aqi":86,"pm10":38.0,"pm2_5":35.2,"mosquito_risk":7,"arthritis_risk":0,"migraine_risk":4,"frizz_risk":1,"updated_at":"2026-04-25T08:12:55.786411+05:30"},{"city":"Munnar","state":"Kerala","latitude":10.0889,"longitude":77.0595,"temp":20.5,"humidity":63,"rain":0.0,"pressure":858.3,"uv_index":9.6,"wind_gusts":25.9,"aqi":63,"pm10":22.6,"pm2_5":21.9,"mosquito_risk":3,"arthritis_risk":5,"migraine_risk":7,"frizz_risk":0,"updated_at":"2026-04-25T08:12:55.786418+05:30"},{"city":"Silchar","state":"Assam","latitude":24.8333,"longitude":92.7789,"temp":30.1,"humidity":70,"rain":0.0,"pressure":1007.4,"uv_index":8.7,"wind_gusts":22.0,"aqi":159,"pm10":123.4,"pm2_5":72.9,"mosquito_risk":3,"arthritis_risk":5,"migraine_risk":4,"frizz_risk":1,"updated_at":"2026-04-25T08:12:55.786425+05:30"},{"city":"Dibrugarh","state":"Assam","latitude":27.4728,"longitude":94.912,"temp":23.8,"humidity":88,"rain":0.0,"pressure":1000.5,"uv_index":8.65,"wind_gusts":39.6,"aqi":96,"pm10":19.4,"pm2_5":13.7,"mosquito_risk":3,"arthritis_risk":5,"migraine_risk":4,"frizz_risk":1,"updated_at":"2026-04-25T08:12:55.786432+05:30"}]