[{"city":"Delhi","state":"Delhi","latitude":28.6139,"longitude":77.209,"temp":26.3,"humidity":51,"rain":0.0,"pressure":987.2,"uv_index":6.5,"wind_gusts":27.4,"aqi":159,"pm10":437.7,"pm2_5":79.9,"mosquito_risk":4,"arthritis_risk":5,"migraine_risk":7,"frizz_risk":0,"updated_at":"2026-03-26T22:36:22.606400+05:30"},{"city":"Mumbai","state":"Maharashtra","latitude":19.076,"longitude":72.8777,"temp":29.6,"humidity":72,"rain":0.0,"pressure":1010.0,"uv_index":7.95,"wind_gusts":29.2,"aqi":151,"pm10":47.4,"pm2_5":44.4,"mosquito_risk":7,"arthritis_risk":0,"migraine_risk":4,"frizz_risk":1,"updated_at":"2026-03-26T22:36:22.606445+05:30"},{"city":"Bangalore","state":"Karnataka","latitude":12.9716,"longitude":77.5946,"temp":25.1,"humidity":50,"rain":0.0,"pressure":914.4,"uv_index":9.45,"wind_gusts":33.5,"aqi":73,"pm10":23.4,"pm2_5":20.3,"mosquito_risk":4,"arthritis_risk":5,"migraine_risk":7,"frizz_risk":0,"updated_at":"2026-03-26T22:36:22.606461+05:30"},{"city":"Hyderabad","state":"Telangana","latitude":17.385,"longitude":78.4867,"temp":27.0,"humidity":62,"rain":0.0,"pressure":955.5,"uv_index":9.0,"wind_gusts":16.2,"aqi":97,"pm10":41.4,"pm2_5":35.2,"mosquito_risk":7,"arthritis_risk":5,"migraine_risk":7,"frizz_risk":1,"updated_at":"2026-03-26T22:36:22.606470+05:30"},{"city":"Chennai","state":"Tamil Nadu","latitude":13.0827,"longitude":80.2707,"temp":26.4,"humidity":84,"rain":0.0,"pressure":1010.8,"uv_index":9.2,"wind_gusts":31.3,"aqi":60,"pm10":27.5,"pm2_5":16.1,"mosquito_risk":7,"arthritis_risk":0,"migraine_risk":4,"frizz_risk":1,"updated_at":"2026-03-26T22:36:22.606478+05:30"},{"city":"Kolkata","state":"West Bengal","latitude":22.5726,"longitude":88.3639,"temp":25.8,"humidity":86,"rain":0.0,"pressure":1008.2,"uv_index":8.4,"wind_gusts":14.0,"aqi":137,"pm10":58.0,"pm2_5":53.0,"mosquito_risk":7,"arthritis_risk":0,"migraine_risk":4,"frizz_risk":1,"updated_at":"2026-03-26T22:36:22.606485+05:30"},{"city":"Pune","state":"Maharashtra","latitude":18.5204,"longitude":73.8567,"temp":26.9,"humidity":71,"rain":0.0,"pressure":951.4,"uv_index":8.5,"wind_gusts":39.2,"aqi":118,"pm10":82.9,"pm2_5":72.6,"mosquito_risk":7,"arthritis_risk":5,"migraine_risk":7,"frizz_risk":1,"updated_at":"2026-03-26T22:36:22.606496+05:30"},{"city":"Ahmedabad","state":"Gujarat","latitude":23.0225,"longitude":72.5714,"temp":27.8,"humidity":38,"rain":0.0,"pressure":1005.0,"uv_index":7.9,"wind_gusts":27.7,"aqi":68,"pm10":44.7,"pm2_5":32.2,"mosquito_risk":4,"arthritis_risk":5,"migraine_risk":4,"frizz_risk":0,"updated_at":"2026-03-26T22:36:22.606503+05:30"},{"city":"Jaipur","state":"Rajasthan","latitude":26.9124,"longitude":75.7873,"temp":26.2,"humidity":47,"rain":0.0,"pressure":963.4,"uv_index":7.2,"wind_gusts":29.5,"aqi":95,"pm10":179.7,"pm2_5":35.6,"mosquito_risk":4,"arthritis_risk":5,"migraine_risk":7,"frizz_risk":0,"updated_at":"2026-03-26T22:36:22.606510+05:30"},{"city":"Lucknow","state":"Uttar Pradesh","latitude":26.8467,"longitude":80.9462,"temp":25.7,"humidity":48,"rain":0.0,"pressure":995.8,"uv_index":7.1,"wind_gusts":34.9,"aqi":117,"pm10":163.4,"pm2_5":43.0,"mosquito_risk":4,"arthritis_risk":5,"migraine_risk":7,"frizz_risk":0,"updated_at":"2026-03-26T22:36:22.606516+05:30"},{"city":"Kanpur","state":"Uttar Pradesh","latitude":26.4499,"longitude":80.3319,"temp":25.4,"humidity":59,"rain":0.0,"pressure":994.1,"uv_index":7.15,"wind_gusts":27.0,"aqi":178,"pm10":287.8,"pm2_5":57.0,"mosquito_risk":4,"arthritis_risk":5,"migraine_risk":7,"frizz_risk":1,"updated_at":"2026-03-26T22:36:22.606522+05:30"},{"city":"Chandigarh","state":"Chandigarh","latitude":30.7333,"longitude":76.7794,"temp":21.5,"humidity":77,"rain":0.0,"pressure":973.2,"uv_index":6.55,"wind_gusts":34.9,"aqi":62,"pm10":26.0,"pm2_5":23.3,"mosquito_risk":3,"arthritis_risk":5,"migraine_risk":7,"frizz_risk":1,"updated_at":"2026-03-26T22:36:22.606528+05:30"},{"city":"Srinagar","state":"Jammu and Kashmir","latitude":34.0837,"longitude":74.7973,"temp":10.0,"humidity":77,"rain":0.0,"pressure":842.3,"uv_index":7.45,"wind_gusts":23.0,"aqi":91,"pm10":44.4,"pm2_5":39.9,"mosquito_risk":3,"arthritis_risk":5,"migraine_risk":7,"frizz_risk":0,"updated_at":"2026-03-26T22:36:22.606536+05:30"},{"city":"Jammu","state":"Jammu and Kashmir","latitude":32.7266,"longitude":74.857,"temp":21.7,"humidity":78,"rain":0.0,"pressure":977.3,"uv_index":6.8,"wind_gusts":23.4,"aqi":76,"pm10":43.7,"pm2_5":38.6,"mosquito_risk":3,"arthritis_risk":5,"migraine_risk":7,"frizz_risk":1,"updated_at":"2026-03-26T22:36:22.606542+05:30"},{"city":"Amritsar","state":"Punjab","latitude":31.634,"longitude":74.8723,"temp":21.3,"humidity":67,"rain":0.0,"pressure":986.1,"uv_index":6.6,"wind_gusts":24.1,"aqi":88,"pm10":63.3,"pm2_5":44.9,"mosquito_risk":3,"arthritis_risk":5,"migraine_risk":7,"frizz_risk":0,"updated_at":"2026-03-26T22:36:22.606547+05:30"},{"city":"Ludhiana","state":"Punjab","latitude":30.901,"longitude":75.8573,"temp":22.3,"humidity":69,"rain":0.0,"pressure":983.7,"uv_index":6.15,"wind_gusts":32.0,"aqi":90,"pm10":34.6,"pm2_5":29.6,"mosquito_risk":3,"arthritis_risk":5,"migraine_risk":7,"frizz_risk":1,"updated_at":"2026-03-26T22:36:22.606553+05:30"},{"city":"Jalandhar","state":"Punjab","latitude":31.326,"longitude":75.5762,"temp":22.0,"humidity":73,"rain":0.0,"pressure":984.9,"uv_index":6.8,"wind_gusts":26.6,"aqi":84,"pm10":47.7,"pm2_5":34.0,"mosquito_risk":3,"arthritis_risk":5,"migraine_risk":7,"frizz_risk":1,"updated_at":"2026-03-26T22:36:22.606561+05:30"},{"city":"Dehradun","state":"Uttarakhand","latitude":30.6284,"longitude":78.0322,"temp":13.6,"humidity":70,"rain":0.0,"pressure":831.2,"uv_index":6.95,"wind_gusts":39.2,"aqi":51,"pm10":27.9,"pm2_5":17.6,"mosquito_risk":3,"arthritis_risk":5,"migraine_risk":7,"frizz_risk":0,"updated_at":"2026-03-26T22:36:22.606567+05:30"},{"city":"Shimla","state":"Himachal Pradesh","latitude":31.1048,"longitude":77.1734,"temp":11.9,"humidity":74,"rain":0.0,"pressure":785.8,"uv_index":7.0,"wind_gusts":43.2,"aqi":58,"pm10":29.0,"pm2_5":21.2,"mosquito_risk":3,"arthritis_risk":5,"migraine_risk":7,"frizz_risk":0,"updated_at":"2026-03-26T22:36:22.606572+05:30"},{"city":"Manali","state":"Himachal Pradesh","latitude":32.2396,"longitude":77.1887,"temp":14.1,"humidity":72,"rain":0.0,"pressure":821.1,"uv_index":8.75,"wind_gusts":23.4,"aqi":96,"pm10":10.8,"pm2_5":8.1,"mosquito_risk":3,"arthritis_risk":5,"migraine_risk":7,"frizz_risk":0,"updated_at":"2026-03-26T22:36:22.606578+05:30"},{"city":"Gurgaon","state":"Haryana","latitude":28.4595,"longitude":77.0266,"temp":24.6,"humidity":61,"rain":0.0,"pressure":985.6,"uv_index":5.8,"wind_gusts":29.5,"aqi":289,"pm10":471.2,"pm2_5":101.0,"mosquito_risk":3,"arthritis_risk":5,"migraine_risk":3,"frizz_risk":1,"updated_at":"2026-03-26T22:36:22.606584+05:30"},{"city":"Noida","state":"Uttar Pradesh","latitude":28.5355,"longitude":77.391,"temp":26.4,"humidity":51,"rain":0.0,"pressure":988.6,"uv_index":6.45,"wind_gusts":27.7,"aqi":289,"pm10":471.2,"pm2_5":101.0,"mosquito_risk":4,"arthritis_risk":5,"migraine_risk":7,"frizz_risk":0,"updated_at":"2026-03-26T22:36:22.606590+05:30"},{"city":"Ghaziabad","state":"Uttar Pradesh","latitude":28.6692,"longitude":77.4538,"temp":25.6,"humidity":53,"rain":0.0,"pressure":986.8,"uv_index":6.5,"wind_gusts":25.6,"aqi":134,"pm10":252.4,"pm2_5":55.9,"mosquito_risk":4,"arthritis_risk":5,"migraine_risk":7,"frizz_risk":0,"updated_at":"2026-03-26T22:36:22.606595+05:30"},{"city":"Faridabad","state":"Haryana","latitude":28.4089,"longitude":77.3178,"temp":25.9,"humidity":51,"rain":0.0,"pressure":987.9,"uv_index":6.2,"wind_gusts":29.9,"aqi":289,"pm10":471.2,"pm2_5":101.0,"mosquito_risk":4,"arthritis_risk":5,"migraine_risk":7,"frizz_risk":0,"updated_at":"2026-03-26T22:36:22.606600+05:30"},{"city":"Meerut","state":"Uttar Pradesh","latitude":28.9845,"longitude":77.7064,"temp":22.9,"humidity":68,"rain":0.0,"pressure":985.4,"uv_index":6.4,"wind_gusts":28.8,"aqi":134,"pm10":252.4,"pm2_5":55.9,"mosquito_risk":3,"arthritis_risk":5,"migraine_risk":7,"frizz_risk":1,"updated_at":"2026-03-26T22:36:22.606606+05:30"},{"city":"Agra","state":"Uttar Pradesh","latitude":27.1767,"longitude":78.0081,"temp":26.6,"humidity":49,"rain":0.0,"pressure":991.3,"uv_index":6.95,"wind_gusts":25.9,"aqi":222,"pm10":377.2,"pm2_5":72.2,"mosquito_risk":4,"arthritis_risk":5,"migraine_risk":7,"frizz_risk":0,"updated_at":"2026-03-26T22:36:22.606612+05:30"},{"city":"Varanasi","state":"Uttar Pradesh","latitude":25.3176,"longitude":82.9739,"temp":24.0,"humidity":53,"rain":0.0,"pressure":999.4,"uv_index":7.8,"wind_gusts":28.8,"aqi":101,"pm10":69.4,"pm2_5":34.2,"mosquito_risk":0,"arthritis_risk":5,"migraine_risk":7,"frizz_risk":0,"updated_at":"2026-03-26T22:36:22.606619+05:30"},{"city":"Prayagraj","state":"Uttar Pradesh","latitude":25.4358,"longitude":81.8463,"temp":27.3,"humidity":44,"rain":0.0,"pressure":998.2,"uv_index":7.7,"wind_gusts":28.1,"aqi":99,"pm10":81.5,"pm2_5":31.2,"mosquito_risk":4,"arthritis_risk":5,"migraine_risk":7,"frizz_risk":0,"updated_at":"2026-03-26T22:36:22.606624+05:30"},{"city":"Gorakhpur","state":"Uttar Pradesh","latitude":26.7606,"longitude":83.3732,"temp":24.2,"humidity":58,"rain":0.0,"pressure":998.7,"uv_index":7.55,"wind_gusts":11.5,"aqi":109,"pm10":54.8,"pm2_5":38.4,"mosquito_risk":0,"arthritis_risk":5,"migraine_risk":7,"frizz_risk":0,"updated_at":"2026-03-26T22:36:22.606630+05:30"},{"city":"Bareilly","state":"Uttar Pradesh","latitude":28.367,"longitude":79.4304,"temp":22.9,"humidity":64,"rain":0.0,"pressure":989.8,"uv_index":6.8,"wind_gusts":30.2,"aqi":85,"pm10":69.6,"pm2_5":30.5,"mosquito_risk":3,"arthritis_risk":5,"migraine_risk":7,"frizz_risk":0,"updated_at":"2026-03-26T22:36:22.606635+05:30"},{"city":"Aligarh","state":"Uttar Pradesh","latitude":27.8974,"longitude":78.088,"temp":25.0,"humidity":58,"rain":0.0,"pressure":989.4,"uv_index":6.7,"wind_gusts":28.1,"aqi":185,"pm10":356.7,"pm2_5":78.9,"mosquito_risk":4,"arthritis_risk":5,"migraine_risk":7,"frizz_risk":1,"updated_at":"2026-03-26T22:36:22.606640+05:30"},{"city":"Moradabad","state":"Uttar Pradesh","latitude":28.8386,"longitude":78.7733,"temp":23.3,"humidity":61,"rain":0.0,"pressure":987.0,"uv_index":6.6,"wind_gusts":34.2,"aqi":90,"pm10":53.7,"pm2_5":26.9,"mosquito_risk":3,"arthritis_risk":5,"migraine_risk":7,"frizz_risk":0,"updated_at":"2026-03-26T22:36:22.606648+05:30"},{"city":"Saharanpur","state":"Uttar Pradesh","latitude":29.9637,"longitude":77.546,"temp":22.9,"humidity":67,"rain":0.0,"pressure":979.5,"uv_index":6.25,"wind_gusts":41.8,"aqi":84,"pm10":36.7,"pm2_5":27.8,"mosquito_risk":3,"arthritis_risk":5,"migraine_risk":7,"frizz_risk":1,"updated_at":"2026-03-26T22:36:22.606653+05:30"},{"city":"Jhansi","state":"Uttar Pradesh","latitude":25.4484,"longitude":78.5685,"temp":26.2,"humidity":52,"rain":0.0,"pressure":980.5,"uv_index":7.6,"wind_gusts":23.0,"aqi":111,"pm10":69.8,"pm2_5":28.6,"mosquito_risk":4,"arthritis_risk":5,"migraine_risk":7,"frizz_risk":0,"updated_at":"2026-03-26T22:36:25.864152+05:30"},{"city":"Surat","state":"Gujarat","latitude":21.1702,"longitude":72.8311,"temp":28.3,"humidity":66,"rain":0.0,"pressure":1008.7,"uv_index":7.7,"wind_gusts":25.9,"aqi":105,"pm10":87.1,"pm2_5":78.5,"mosquito_risk":7,"arthritis_risk":0,"migraine_risk":4,"frizz_risk":1,"updated_at":"2026-03-26T22:36:25.864181+05:30"},{"city":"Vadodara","state":"Gujarat","latitude":22.3072,"longitude":73.1812,"temp":29.6,"humidity":41,"rain":0.0,"pressure":1006.5,"uv_index":7.9,"wind_gusts":28.8,"aqi":95,"pm10":55.8,"pm2_5":45.3,"mosquito_risk":4,"arthritis_risk":5,"migraine_risk":4,"frizz_risk":0,"updated_at":"2026-03-26T22:36:25.864190+05:30"},{"city":"Rajkot","state":"Gujarat","latitude":22.3039,"longitude":70.8022,"temp":26.1,"humidity":42,"rain":0.0,"pressure":997.9,"uv_index":7.75,"wind_gusts":29.5,"aqi":54,"pm10":25.3,"pm2_5":19.0,"mosquito_risk":4,"arthritis_risk":5,"migraine_risk":7,"frizz_risk":0,"updated_at":"2026-03-26T22:36:25.864198+05:30"},{"city":"Thane","state":"Maharashtra","latitude":19.2183,"longitude":72.9781,"temp":29.7,"humidity":57,"rain":0.0,"pressure":1009.4,"uv_index":7.95,"wind_gusts":41.8,"aqi":151,"pm10":47.4,"pm2_5":44.4,"mosquito_risk":4,"arthritis_risk":0,"migraine_risk":4,"frizz_risk":1,"updated_at":"2026-03-26T22:36:25.864205+05:30"},{"city":"Nagpur","state":"Maharashtra","latitude":21.1458,"longitude":79.0882,"temp":29.8,"humidity":48,"rain":0.0,"pressure":974.8,"uv_index":8.45,"wind_gusts":25.2,"aqi":146,"pm10":74.7,"pm2_5":67.3,"mosquito_risk":4,"arthritis_risk":5,"migraine_risk":7,"frizz_risk":1,"updated_at":"2026-03-26T22:36:25.864213+05:30"},{"city":"Nashik","state":"Maharashtra","latitude":19.9975,"longitude":73.7898,"temp":27.2,"humidity":53,"rain":0.0,"pressure":948.5,"uv_index":8.15,"wind_gusts":33.1,"aqi":110,"pm10":31.0,"pm2_5":27.5,"mosquito_risk":4,"arthritis_risk":5,"migraine_risk":7,"frizz_risk":1,"updated_at":"2026-03-26T22:36:25.864220+05:30"},{"city":"Aurangabad","state":"Maharashtra","latitude":19.8762,"longitude":75.3433,"temp":28.5,"humidity":46,"rain":0.0,"pressure":946.9,"uv_index":8.65,"wind_gusts":27.7,"aqi":78,"pm10":25.3,"pm2_5":19.0,"mosquito_risk":4,"arthritis_risk":5,"migraine_risk":7,"frizz_risk":0,"updated_at":"2026-03-26T22:36:25.864227+05:30"},{"city":"Solapur","state":"Maharashtra","latitude":17.6599,"longitude":75.9064,"temp":29.3,"humidity":46,"rain":0.0,"pressure":959.9,"uv_index":8.8,"wind_gusts":29.2,"aqi":103,"pm10":33.8,"pm2_5":29.7,"mosquito_risk":4,"arthritis_risk":5,"migraine_risk":7,"frizz_risk":1,"updated_at":"2026-03-26T22:36:25.864234+05:30"},{"city":"Kolhapur","state":"Maharashtra","latitude":16.705,"longitude":74.2433,"temp":25.6,"humidity":85,"rain":0.0,"pressure":950.4,"uv_index":8.8,"wind_gusts":30.6,"aqi":152,"pm10":51.7,"pm2_5":46.1,"mosquito_risk":7,"arthritis_risk":5,"migraine_risk":7,"frizz_risk":1,"updated_at":"2026-03-26T22:36:25.864242+05:30"},{"city":"Goa","state":"Goa","latitude":15.2993,"longitude":74.124,"temp":29.1,"humidity":82,"rain":0.0,"pressure":999.1,"uv_index":8.75,"wind_gusts":34.2,"aqi":112,"pm10":42.6,"pm2_5":36.0,"mosquito_risk":7,"arthritis_risk":5,"migraine_risk":7,"frizz_risk":1,"updated_at":"2026-03-26T22:36:25.864249+05:30"},{"city":"Jodhpur","state":"Rajasthan","latitude":26.2389,"longitude":73.0243,"temp":28.6,"humidity":30,"rain":0.0,"pressure":986.2,"uv_index":7.55,"wind_gusts":33.1,"aqi":83,"pm10":143.4,"pm2_5":27.5,"mosquito_risk":4,"arthritis_risk":5,"migraine_risk":7,"frizz_risk":0,"updated_at":"2026-03-26T22:36:25.864256+05:30"},{"city":"Udaipur","state":"Rajasthan","latitude":24.5854,"longitude":73.7125,"temp":27.0,"humidity":34,"rain":0.0,"pressure":950.2,"uv_index":7.95,"wind_gusts":35.3,"aqi":42,"pm10":20.0,"pm2_5":10.2,"mosquito_risk":4,"arthritis_risk":5,"migraine_risk":7,"frizz_risk":0,"updated_at":"2026-03-26T22:36:25.864263+05:30"},{"city":"Kota","state":"Rajasthan","latitude":25.2138,"longitude":75.8648,"temp":27.9,"humidity":47,"rain":0.0,"pressure":981.6,"uv_index":7.7,"wind_gusts":23.4,"aqi":72,"pm10":39.1,"pm2_5":32.1,"mosquito_risk":4,"arthritis_risk":5,"migraine_risk":7,"frizz_risk":0,"updated_at":"2026-03-26T22:36:25.864270+05:30"},{"city":"Bikaner","state":"Rajasthan","latitude":28.0229,"longitude":73.3119,"temp":27.4,"humidity":42,"rain":0.0,"pressure":985.7,"uv_index":7.15,"wind_gusts":24.1,"aqi":59,"pm10":35.2,"pm2_5":14.6,"mosquito_risk":4,"arthritis_risk":5,"migraine_risk":7,"frizz_risk":0,"updated_at":"2026-03-26T22:36:25.864276+05:30"},{"city":"Ajmer","state":"Rajasthan","latitude":26.4499,"longitude":74.6399,"temp":25.8,"humidity":46,"rain":0.0,"pressure":957.7,"uv_index":7.15,"wind_gusts":33.1,"aqi":54,"pm10":45.4,"pm2_5":19.0,"mosquito_risk":4,"arthritis_risk":5,"migraine_risk":7,"frizz_risk":0,"updated_at":"2026-03-26T22:36:25.864283+05:30"},{"city":"Gwalior","state":"Madhya Pradesh","latitude":26.2183,"longitude":78.1828,"temp":28.0,"humidity":46,"rain":0.0,"pressure":986.7,"uv_index":7.3,"wind_gusts":23.4,"aqi":84,"pm10":163.4,"pm2_5":39.6,"mosquito_risk":4,"arthritis_risk":5,"migraine_risk":7,"frizz_risk":0,"updated_at":"2026-03-26T22:36:25.864290+05:30"},{"city":"Indore","state":"Madhya Pradesh","latitude":22.7196,"longitude":75.8577,"temp":25.3,"humidity":47,"rain":0.0,"pressure":950.3,"uv_index":8.15,"wind_gusts":32.4,"aqi":60,"pm10":27.2,"pm2_5":24.3,"mosquito_risk":4,"arthritis_risk":5,"migraine_risk":7,"frizz_risk":0,"updated_at":"2026-03-26T22:36:25.864297+05:30"},{"city":"Bhopal","state":"Madhya Pradesh","latitude":23.2599,"longitude":77.4126,"temp":27.6,"humidity":41,"rain":0.0,"pressure":955.4,"uv_index":8.1,"wind_gusts":31.0,"aqi":51,"pm10":24.4,"pm2_5":20.0,"mosquito_risk":4,"arthritis_risk":5,"migraine_risk":7,"frizz_risk":0,"updated_at":"2026-03-26T22:36:25.864304+05:30"},{"city":"Jabalpur","state":"Madhya Pradesh","latitude":23.1815,"longitude":79.9864,"temp":26.3,"humidity":55,"rain":0.0,"pressure":963.0,"uv_index":8.2,"wind_gusts":20.5,"aqi":60,"pm10":45.6,"pm2_5":28.3,"mosquito_risk":4,"arthritis_risk":5,"migraine_risk":7,"frizz_risk":1,"updated_at":"2026-03-26T22:36:25.864311+05:30"},{"city":"Ujjain","state":"Madhya Pradesh","latitude":23.1765,"longitude":75.7885,"temp":25.3,"humidity":51,"rain":0.0,"pressure":956.1,"uv_index":8.1,"wind_gusts":31.3,"aqi":56,"pm10":19.7,"pm2_5":16.1,"mosquito_risk":4,"arthritis_risk":5,"migraine_risk":7,"frizz_risk":0,"updated_at":"2026-03-26T22:36:25.864318+05:30"},{"city":"Visakhapatnam","state":"Andhra Pradesh","latitude":17.6868,"longitude":83.2185,"temp":26.8,"humidity":85,"rain":0.0,"pressure":1006.6,"uv_index":8.7,"wind_gusts":33.8,"aqi":81,"pm10":30.9,"pm2_5":24.0,"mosquito_risk":7,"arthritis_risk":5,"migraine_risk":4,"frizz_risk":1,"updated_at":"2026-03-26T22:36:25.864325+05:30"},{"city":"Vijayawada","state":"Andhra Pradesh","latitude":16.5062,"longitude":80.648,"temp":26.6,"humidity":80,"rain":0.0,"pressure":1005.8,"uv_index":9.0,"wind_gusts":24.1,"aqi":71,"pm10":23.8,"pm2_5":20.1,"mosquito_risk":7,"arthritis_risk":5,"migraine_risk":4,"frizz_risk":1,"updated_at":"2026-03-26T22:36:25.864332+05:30"},{"city":"Guntur","state":"Andhra Pradesh","latitude":16.3067,"longitude":80.4365,"temp":25.8,"humidity":88,"rain":0.0,"pressure":1007.0,"uv_index":9.0,"wind_gusts":27.4,"aqi":68,"pm10":24.2,"pm2_5":20.6,"mosquito_risk":7,"arthritis_risk":5,"migraine_risk":4,"frizz_risk":1,"updated_at":"2026-03-26T22:36:25.864339+05:30"},{"city":"Nellore","state":"Andhra Pradesh","latitude":14.4426,"longitude":79.9865,"temp":25.6,"humidity":90,"rain":0.0,"pressure":1009.3,"uv_index":9.1,"wind_gusts":30.2,"aqi":56,"pm10":23.0,"pm2_5":15.1,"mosquito_risk":7,"arthritis_risk":0,"migraine_risk":4,"frizz_risk":1,"updated_at":"2026-03-26T22:36:25.864347+05:30"},{"city":"Kurnool","state":"Andhra Pradesh","latitude":15.8281,"longitude":78.0373,"temp":31.6,"humidity":36,"rain":0.0,"pressure":979.1,"uv_index":9.0,"wind_gusts":26.3,"aqi":80,"pm10":30.2,"pm2_5":25.5,"mosquito_risk":0,"arthritis_risk":5,"migraine_risk":7,"frizz_risk":0,"updated_at":"2026-03-26T22:36:25.864354+05:30"},{"city":"Kakinada","state":"Andhra Pradesh","latitude":16.9891,"longitude":82.2475,"temp":26.1,"humidity":87,"rain":0.0,"pressure":1010.5,"uv_index":8.95,"wind_gusts":23.8,"aqi":60,"pm10":24.7,"pm2_5":14.9,"mosquito_risk":7,"arthritis_risk":0,"migraine_risk":4,"frizz_risk":1,"updated_at":"2026-03-26T22:36:25.864361+05:30"},{"city":"Tirupati","state":"Andhra Pradesh","latitude":13.6288,"longitude":79.4192,"temp":26.2,"humidity":72,"rain":0.0,"pressure":995.2,"uv_index":9.2,"wind_gusts":34.6,"aqi":81,"pm10":37.6,"pm2_5":32.1,"mosquito_risk":7,"arthritis_risk":5,"migraine_risk":7,"frizz_risk":1,"updated_at":"2026-03-26T22:36:25.864368+05:30"},{"city":"Warangal","state":"Telangana","latitude":17.9689,"longitude":79.5941,"temp":29.3,"humidity":57,"rain":0.0,"pressure":980.6,"uv_index":8.8,"wind_gusts":25.2,"aqi":85,"pm10":43.8,"pm2_5":38.6,"mosquito_risk":4,"arthritis_risk":5,"migraine_risk":7,"frizz_risk":1,"updated_at":"2026-03-26T22:36:25.864374+05:30"},{"city":"Nizamabad","state":"Telangana","latitude":18.6725,"longitude":78.0941,"temp":29.2,"humidity":51,"rain":0.0,"pressure":966.8,"uv_index":8.75,"wind_gusts":30.6,"aqi":99,"pm10":57.6,"pm2_5":52.4,"mosquito_risk":4,"arthritis_risk":5,"migraine_risk":7,"frizz_risk":1,"updated_at":"2026-03-26T22:36:25.864381+05:30"},{"city":"Mysore","state":"Karnataka","latitude":12.2958,"longitude":76.6396,"temp":27.2,"humidity":36,"rain":0.0,"pressure":930.6,"uv_index":9.4,"wind_gusts":37.8,"aqi":88,"pm10":26.1,"pm2_5":22.9,"mosquito_risk":4,"arthritis_risk":5,"migraine_risk":7,"frizz_risk":0,"updated_at":"2026-03-26T22:36:25.864388+05:30"},{"city":"Mangalore","state":"Karnataka","latitude":12.9141,"longitude":74.856,"temp":30.1,"humidity":85,"rain":0.0,"pressure":1008.2,"uv_index":9.1,"wind_gusts":31.0,"aqi":110,"pm10":39.1,"pm2_5":30.0,"mosquito_risk":3,"arthritis_risk":0,"migraine_risk":4,"frizz_risk":1,"updated_at":"2026-03-26T22:36:25.864395+05:30"},{"city":"Hubli-Dharwad","state":"Karnataka","latitude":15.3647,"longitude":75.124,"temp":26.5,"humidity":58,"rain":0.0,"pressure":942.5,"uv_index":9.1,"wind_gusts":29.5,"aqi":105,"pm10":27.7,"pm2_5":24.9,"mosquito_risk":4,"arthritis_risk":5,"migraine_risk":7,"frizz_risk":1,"updated_at":"2026-03-26T22:36:25.864402+05:30"},{"city":"Belgaum","state":"Karnataka","latitude":15.8497,"longitude":74.4977,"temp":24.5,"humidity":72,"rain":0.0,"pressure":927.7,"uv_index":9.05,"wind_gusts":33.1,"aqi":124,"pm10":52.2,"pm2_5":48.0,"mosquito_risk":3,"arthritis_risk":5,"migraine_risk":7,"frizz_risk":1,"updated_at":"2026-03-26T22:36:29.134736+05:30"},{"city":"Coimbatore","state":"Tamil Nadu","latitude":11.0168,"longitude":76.9558,"temp":27.1,"humidity":46,"rain":0.0,"pressure":964.7,"uv_index":9.4,"wind_gusts":41.4,"aqi":95,"pm10":38.0,"pm2_5":33.5,"mosquito_risk":4,"arthritis_risk":5,"migraine_risk":7,"frizz_risk":0,"updated_at":"2026-03-26T22:36:29.134766+05:30"},{"city":"Madurai","state":"Tamil Nadu","latitude":9.9252,"longitude":78.1198,"temp":27.0,"humidity":74,"rain":0.0,"pressure":996.0,"uv_index":9.35,"wind_gusts":26.3,"aqi":69,"pm10":26.1,"pm2_5":22.8,"mosquito_risk":7,"arthritis_risk":5,"migraine_risk":7,"frizz_risk":1,"updated_at":"2026-03-26T22:36:29.134775+05:30"},{"city":"Trichy","state":"Tamil Nadu","latitude":10.7905,"longitude":78.7047,"temp":25.7,"humidity":81,"rain":0.0,"pressure":1003.0,"uv_index":9.3,"wind_gusts":27.4,"aqi":84,"pm10":27.8,"pm2_5":23.7,"mosquito_risk":7,"arthritis_risk":5,"migraine_risk":4,"frizz_risk":1,"updated_at":"2026-03-26T22:36:29.134783+05:30"},{"city":"Salem","state":"Tamil Nadu","latitude":11.6643,"longitude":78.146,"temp":27.3,"humidity":65,"rain":0.0,"pressure":980.1,"uv_index":9.35,"wind_gusts":34.6,"aqi":91,"pm10":38.8,"pm2_5":34.1,"mosquito_risk":7,"arthritis_risk":5,"migraine_risk":7,"frizz_risk":1,"updated_at":"2026-03-26T22:36:29.134791+05:30"},{"city":"Tirunelveli","state":"Tamil Nadu","latitude":8.7139,"longitude":77.7567,"temp":27.2,"humidity":72,"rain":0.0,"pressure":1006.2,"uv_index":9.3,"wind_gusts":37.4,"aqi":50,"pm10":24.3,"pm2_5":20.0,"mosquito_risk":7,"arthritis_risk":5,"migraine_risk":4,"frizz_risk":1,"updated_at":"2026-03-26T22:36:29.134797+05:30"},{"city":"Vellore","state":"Tamil Nadu","latitude":12.9165,"longitude":79.1325,"temp":25.4,"humidity":74,"rain":0.0,"pressure":988.2,"uv_index":9.3,"wind_gusts":34.9,"aqi":79,"pm10":40.3,"pm2_5":35.3,"mosquito_risk":7,"arthritis_risk":5,"migraine_risk":7,"frizz_risk":1,"updated_at":"2026-03-26T22:36:29.134805+05:30"},{"city":"Erode","state":"Tamil Nadu","latitude":11.341,"longitude":77.7172,"temp":28.6,"humidity":60,"rain":0.0,"pressure":991.8,"uv_index":9.3,"wind_gusts":24.5,"aqi":110,"pm10":40.7,"pm2_5":36.7,"mosquito_risk":4,"arthritis_risk":5,"migraine_risk":7,"frizz_risk":1,"updated_at":"2026-03-26T22:36:29.134812+05:30"},{"city":"Kochi","state":"Kerala","latitude":9.9312,"longitude":76.2673,"temp":28.2,"humidity":82,"rain":0.0,"pressure":1011.1,"uv_index":9.2,"wind_gusts":36.4,"aqi":98,"pm10":37.3,"pm2_5":32.8,"mosquito_risk":7,"arthritis_risk":0,"migraine_risk":4,"frizz_risk":1,"updated_at":"2026-03-26T22:36:29.134820+05:30"},{"city":"Thiruvananthapuram","state":"Kerala","latitude":8.5241,"longitude":76.9366,"temp":29.4,"humidity":74,"rain":0.0,"pressure":1010.0,"uv_index":9.2,"wind_gusts":30.2,"aqi":79,"pm10":12.0,"pm2_5":7.9,"mosquito_risk":7,"arthritis_risk":0,"migraine_risk":4,"frizz_risk":1,"updated_at":"2026-03-26T22:36:29.134827+05:30"},{"city":"Kozhikode","state":"Kerala","latitude":11.2588,"longitude":75.7804,"temp":29.5,"humidity":76,"rain":0.0,"pressure":1009.8,"uv_index":9.1,"wind_gusts":31.7,"aqi":90,"pm10":40.9,"pm2_5":31.1,"mosquito_risk":7,"arthritis_risk":0,"migraine_risk":4,"frizz_risk":1,"updated_at":"2026-03-26T22:36:29.134834+05:30"},{"city":"Thrissur","state":"Kerala","latitude":10.5276,"longitude":76.2144,"temp":29.1,"humidity":83,"rain":0.0,"pressure":1009.0,"uv_index":9.15,"wind_gusts":40.0,"aqi":93,"pm10":35.7,"pm2_5":30.9,"mosquito_risk":7,"arthritis_risk":0,"migraine_risk":4,"frizz_risk":1,"updated_at":"2026-03-26T22:36:29.134841+05:30"},{"city":"Kannur","state":"Kerala","latitude":11.8745,"longitude":75.3704,"temp":29.8,"humidity":76,"rain":0.0,"pressure":1008.9,"uv_index":9.1,"wind_gusts":35.6,"aqi":99,"pm10":43.3,"pm2_5":36.4,"mosquito_risk":7,"arthritis_risk":0,"migraine_risk":4,"frizz_risk":1,"updated_at":"2026-03-26T22:36:29.134848+05:30"},{"city":"Patna","state":"Bihar","latitude":25.5941,"longitude":85.1376,"temp":26.3,"humidity":47,"rain":0.0,"pressure":1002.3,"uv_index":7.95,"wind_gusts":22.7,"aqi":152,"pm10":110.1,"pm2_5":77.5,"mosquito_risk":4,"arthritis_risk":5,"migraine_risk":4,"frizz_risk":0,"updated_at":"2026-03-26T22:36:29.134855+05:30"},{"city":"Gaya","state":"Bihar","latitude":24.7914,"longitude":85.0002,"temp":25.1,"humidity":45,"rain":0.0,"pressure":996.0,"uv_index":8.05,"wind_gusts":25.6,"aqi":97,"pm10":78.2,"pm2_5":42.6,"mosquito_risk":4,"arthritis_risk":5,"migraine_risk":7,"frizz_risk":0,"updated_at":"2026-03-26T22:36:29.134862+05:30"},{"city":"Muzaffarpur","state":"Bihar","latitude":26.1209,"longitude":85.3647,"temp":24.6,"humidity":56,"rain":0.0,"pressure":1002.3,"uv_index":7.95,"wind_gusts":17.6,"aqi":157,"pm10":102.0,"pm2_5":83.1,"mosquito_risk":0,"arthritis_risk":5,"migraine_risk":4,"frizz_risk":0,"updated_at":"2026-03-26T22:36:29.134869+05:30"},{"city":"Bhagalpur","state":"Bihar","latitude":25.2425,"longitude":87.0117,"temp":24.8,"humidity":64,"rain":0.0,"pressure":1003.4,"uv_index":8.0,"wind_gusts":16.2,"aqi":113,"pm10":87.3,"pm2_5":57.3,"mosquito_risk":3,"arthritis_risk":5,"migraine_risk":4,"frizz_risk":1,"updated_at":"2026-03-26T22:36:29.134876+05:30"},{"city":"Ranchi","state":"Jharkhand","latitude":23.3441,"longitude":85.3096,"temp":23.1,"humidity":39,"rain":0.0,"pressure":940.1,"uv_index":8.7,"wind_gusts":34.9,"aqi":62,"pm10":36.0,"pm2_5":19.2,"mosquito_risk":0,"arthritis_risk":5,"migraine_risk":7,"frizz_risk":0,"updated_at":"2026-03-26T22:36:29.134883+05:30"},{"city":"Jamshedpur","state":"Jharkhand","latitude":22.8046,"longitude":86.2029,"temp":26.3,"humidity":83,"rain":0.0,"pressure":993.0,"uv_index":8.5,"wind_gusts":27.0,"aqi":163,"pm10":85.2,"pm2_5":69.8,"mosquito_risk":7,"arthritis_risk":5,"migraine_risk":7,"frizz_risk":1,"updated_at":"2026-03-26T22:36:29.134889+05:30"},{"city":"Dhanbad","state":"Jharkhand","latitude":23.7957,"longitude":86.4304,"temp":25.8,"humidity":45,"rain":0.0,"pressure":982.2,"uv_index":8.45,"wind_gusts":23.0,"aqi":155,"pm10":47.1,"pm2_5":33.9,"mosquito_risk":4,"arthritis_risk":5,"migraine_risk":7,"frizz_risk":0,"updated_at":"2026-03-26T22:36:29.134896+05:30"},{"city":"Bokaro","state":"Jharkhand","latitude":23.6693,"longitude":86.1511,"temp":26.6,"humidity":46,"rain":0.0,"pressure":986.6,"uv_index":8.45,"wind_gusts":19.8,"aqi":139,"pm10":55.8,"pm2_5":39.3,"mosquito_risk":4,"arthritis_risk":5,"migraine_risk":7,"frizz_risk":0,"updated_at":"2026-03-26T22:36:29.134903+05:30"},{"city":"Bhubaneswar","state":"Odisha","latitude":20.2961,"longitude":85.8245,"temp":26.0,"humidity":95,"rain":0.0,"pressure":1005.1,"uv_index":8.75,"wind_gusts":18.7,"aqi":99,"pm10":37.5,"pm2_5":32.7,"mosquito_risk":7,"arthritis_risk":5,"migraine_risk":4,"frizz_risk":1,"updated_at":"2026-03-26T22:36:29.134910+05:30"},{"city":"Cuttack","state":"Odisha","latitude":20.4625,"longitude":85.8828,"temp":25.9,"humidity":92,"rain":0.0,"pressure":1007.0,"uv_index":8.8,"wind_gusts":22.3,"aqi":99,"pm10":37.5,"pm2_5":32.7,"mosquito_risk":7,"arthritis_risk":5,"migraine_risk":4,"frizz_risk":1,"updated_at":"2026-03-26T22:36:29.134917+05:30"},{"city":"Rourkela","state":"Odisha","latitude":22.2604,"longitude":84.8536,"temp":27.4,"humidity":70,"rain":0.0,"pressure":987.1,"uv_index":8.45,"wind_gusts":23.8,"aqi":103,"pm10":53.8,"pm2_5":38.9,"mosquito_risk":7,"arthritis_risk":5,"migraine_risk":7,"frizz_risk":1,"updated_at":"2026-03-26T22:36:29.134924+05:30"},{"city":"Raipur","state":"Chhattisgarh","latitude":21.2514,"longitude":81.6296,"temp":29.9,"humidity":43,"rain":0.0,"pressure":975.7,"uv_index":8.5,"wind_gusts":23.8,"aqi":135,"pm10":58.7,"pm2_5":50.2,"mosquito_risk":4,"arthritis_risk":5,"migraine_risk":7,"frizz_risk":0,"updated_at":"2026-03-26T22:36:29.134931+05:30"},{"city":"Bhilai","state":"Chhattisgarh","latitude":21.1938,"longitude":81.3509,"temp":28.8,"humidity":45,"rain":0.0,"pressure":976.0,"uv_index":8.5,"wind_gusts":22.3,"aqi":139,"pm10":60.8,"pm2_5":53.6,"mosquito_risk":4,"arthritis_risk":5,"migraine_risk":7,"frizz_risk":0,"updated_at":"2026-03-26T22:36:29.134938+05:30"},{"city":"Guwahati","state":"Assam","latitude":26.1158,"longitude":91.7086,"temp":23.5,"humidity":83,"rain":0.0,"pressure":1004.7,"uv_index":7.9,"wind_gusts":23.0,"aqi":129,"pm10":74.3,"pm2_5":63.3,"mosquito_risk":3,"arthritis_risk":5,"migraine_risk":4,"frizz_risk":1,"updated_at":"2026-03-26T22:36:29.134945+05:30"},{"city":"Agartala","state":"Tripura","latitude":23.8315,"longitude":91.2868,"temp":24.3,"humidity":90,"rain":0.0,"pressure":1008.5,"uv_index":8.2,"wind_gusts":17.6,"aqi":162,"pm10":106.9,"pm2_5":95.9,"mosquito_risk":3,"arthritis_risk":0,"migraine_risk":4,"frizz_risk":1,"updated_at":"2026-03-26T22:36:29.134952+05:30"},{"city":"Shillong","state":"Meghalaya","latitude":25.5788,"longitude":91.8933,"temp":12.4,"humidity":95,"rain":0.0,"pressure":857.0,"uv_index":8.3,"wind_gusts":26.3,"aqi":105,"pm10":50.3,"pm2_5":41.9,"mosquito_risk":3,"arthritis_risk":10,"migraine_risk":7,"frizz_risk":0,"updated_at":"2026-03-26T22:36:29.134959+05:30"},{"city":"Imphal","state":"Manipur","latitude":24.817,"longitude":93.9368,"temp":16.3,"humidity":72,"rain":0.0,"pressure":925.0,"uv_index":8.55,"wind_gusts":43.9,"aqi":130,"pm10":62.4,"pm2_5":51.6,"mosquito_risk":3,"arthritis_risk":5,"migraine_risk":7,"frizz_risk":0,"updated_at":"2026-03-26T22:36:29.134966+05:30"},{"city":"Aizawl","state":"Mizoram","latitude":23.7271,"longitude":92.7176,"temp":17.6,"humidity":69,"rain":0.0,"pressure":894.0,"uv_index":8.45,"wind_gusts":32.8,"aqi":117,"pm10":49.8,"pm2_5":36.1,"mosquito_risk":3,"arthritis_risk":5,"migraine_risk":7,"frizz_risk":0,"updated_at":"2026-03-26T22:36:29.134972+05:30"},{"city":"Kohima","state":"Nagaland","latitude":25.6701,"longitude":94.1077,"temp":14.3,"humidity":80,"rain":0.0,"pressure":856.0,"uv_index":8.45,"wind_gusts":47.5,"aqi":105,"pm10":49.6,"pm2_5":39.0,"mosquito_risk":3,"arthritis_risk":5,"migraine_risk":7,"frizz_risk":0,"updated_at":"2026-03-26T22:36:29.134979+05:30"},{"city":"Gangtok","state":"Sikkim","latitude":27.3314,"longitude":88.6138,"temp":12.9,"humidity":91,"rain":0.1,"pressure":837.9,"uv_index":8.2,"wind_gusts":18.7,"aqi":110,"pm10":62.2,"pm2_5":48.3,"mosquito_risk":6,"arthritis_risk":10,"migraine_risk":7,"frizz_risk":0,"updated_at":"2026-03-26T22:36:29.134986+05:30"},{"city":"Siliguri","state":"West Bengal","latitude":26.7271,"longitude":88.3953,"temp":20.4,"humidity":71,"rain":0.0,"pressure":996.7,"uv_index":7.9,"wind_gusts":40.0,"aqi":152,"pm10":94.3,"pm2_5":72.2,"mosquito_risk":3,"arthritis_risk":5,"migraine_risk":7,"frizz_risk":0,"updated_at":"2026-03-26T22:36:32.395302+05:30"},{"city":"Durgapur","state":"West Bengal","latitude":23.5204,"longitude":87.3119,"temp":27.3,"humidity":76,"rain":0.0,"pressure":997.3,"uv_index":8.4,"wind_gusts":21.2,"aqi":164,"pm10":89.4,"pm2_5":80.8,"mosquito_risk":7,"arthritis_risk":5,"migraine_risk":7,"frizz_risk":1,"updated_at":"2026-03-26T22:36:32.395333+05:30"},{"city":"Asansol","state":"West Bengal","latitude":23.6739,"longitude":86.9524,"temp":27.6,"humidity":71,"rain":0.0,"pressure":995.9,"uv_index":8.4,"wind_gusts":17.6,"aqi":154,"pm10":53.9,"pm2_5":42.7,"mosquito_risk":7,"arthritis_risk":5,"migraine_risk":7,"frizz_risk":1,"updated_at":"2026-03-26T22:36:32.395342+05:30"},{"city":"Pondicherry","state":"Puducherry","latitude":11.9139,"longitude":79.8145,"temp":24.6,"humidity":90,"rain":0.0,"pressure":1011.9,"uv_index":9.2,"wind_gusts":29.2,"aqi":59,"pm10":28.1,"pm2_5":16.4,"mosquito_risk":3,"arthritis_risk":0,"migraine_risk":4,"frizz_risk":1,"updated_at":"2026-03-26T22:36:32.395350+05:30"},{"city":"Port Blair","state":"Andaman and Nicobar Islands","latitude":11.6234,"longitude":92.7265,"temp":28.3,"humidity":78,"rain":0.0,"pressure":1008.4,"uv_index":9.15,"wind_gusts":28.1,"aqi":56,"pm10":21.5,"pm2_5":13.9,"mosquito_risk":7,"arthritis_risk":0,"migraine_risk":4,"frizz_risk":1,"updated_at":"2026-03-26T22:36:32.395358+05:30"},{"city":"Haridwar","state":"Uttarakhand","latitude":29.9457,"longitude":78.1642,"temp":23.1,"humidity":68,"rain":0.0,"pressure":977.8,"uv_index":6.4,"wind_gusts":48.6,"aqi":75,"pm10":30.6,"pm2_5":29.8,"mosquito_risk":3,"arthritis_risk":5,"migraine_risk":7,"frizz_risk":1,"updated_at":"2026-03-26T22:36:32.395365+05:30"},{"city":"Rishikesh","state":"Uttarakhand","latitude":30.0869,"longitude":78.2676,"temp":20.3,"humidity":76,"rain":0.0,"pressure":970.3,"uv_index":6.45,"wind_gusts":45.7,"aqi":61,"pm10":30.0,"pm2_5":24.9,"mosquito_risk":3,"arthritis_risk":5,"migraine_risk":7,"frizz_risk":0,"updated_at":"2026-03-26T22:36:32.395373+05:30"},{"city":"Nainital","state":"Uttarakhand","latitude":29.3919,"longitude":79.4542,"temp":18.4,"humidity":45,"rain":0.0,"pressure":808.5,"uv_index":7.3,"wind_gusts":59.0,"aqi":59,"pm10":24.1,"pm2_5":16.8,"mosquito_risk":0,"arthritis_risk":5,"migraine_risk":7,"frizz_risk":0,"updated_at":"2026-03-26T22:36:32.395381+05:30"},{"city":"Mussoorie","state":"Uttarakhand","latitude":30.4599,"longitude":78.0664,"temp":15.5,"humidity":60,"rain":0.0,"pressure":804.3,"uv_index":6.8,"wind_gusts":57.2,"aqi":67,"pm10":39.5,"pm2_5":34.5,"mosquito_risk":0,"arthritis_risk":5,"migraine_risk":7,"frizz_risk":0,"updated_at":"2026-03-26T22:36:32.395388+05:30"},{"city":"Dharamshala","state":"Himachal Pradesh","latitude":32.219,"longitude":76.3234,"temp":17.7,"humidity":66,"rain":0.0,"pressure":871.9,"uv_index":6.9,"wind_gusts":19.1,"aqi":52,"pm10":24.4,"pm2_5":18.1,"mosquito_risk":3,"arthritis_risk":5,"migraine_risk":7,"frizz_risk":0,"updated_at":"2026-03-26T22:36:32.395395+05:30"},{"city":"Dalhousie","state":"Himachal Pradesh","latitude":32.5387,"longitude":75.971,"temp":14.5,"humidity":66,"rain":0.0,"pressure":805.4,"uv_index":6.85,"wind_gusts":22.3,"aqi":66,"pm10":42.3,"pm2_5":35.2,"mosquito_risk":3,"arthritis_risk":5,"migraine_risk":7,"frizz_risk":0,"updated_at":"2026-03-26T22:36:32.395402+05:30"},{"city":"Patiala","state":"Punjab","latitude":30.3398,"longitude":76.3869,"temp":22.2,"humidity":71,"rain":0.0,"pressure":983.0,"uv_index":5.95,"wind_gusts":33.5,"aqi":169,"pm10":466.6,"pm2_5":66.1,"mosquito_risk":3,"arthritis_risk":5,"migraine_risk":3,"frizz_risk":1,"updated_at":"2026-03-26T22:36:32.395409+05:30"},{"city":"Bhatinda","state":"Punjab","latitude":30.211,"longitude":74.9455,"temp":22.8,"humidity":73,"rain":0.0,"pressure":988.8,"uv_index":5.9,"wind_gusts":29.2,"aqi":85,"pm10":52.3,"pm2_5":26.8,"mosquito_risk":3,"arthritis_risk":5,"migraine_risk":3,"frizz_risk":1,"updated_at":"2026-03-26T22:36:32.395415+05:30"},{"city":"Rohtak","state":"Haryana","latitude":28.8955,"longitude":76.6066,"temp":23.5,"humidity":69,"rain":0.0,"pressure":986.3,"uv_index":5.8,"wind_gusts":18.7,"aqi":193,"pm10":715.3,"pm2_5":110.1,"mosquito_risk":3,"arthritis_risk":5,"migraine_risk":3,"frizz_risk":1,"updated_at":"2026-03-26T22:36:32.395422+05:30"},{"city":"Panipat","state":"Haryana","latitude":29.3909,"longitude":76.9635,"temp":23.2,"humidity":64,"rain":0.0,"pressure":984.6,"uv_index":6.15,"wind_gusts":23.4,"aqi":464,"pm10":1050.5,"pm2_5":136.9,"mosquito_risk":3,"arthritis_risk":5,"migraine_risk":7,"frizz_risk":0,"updated_at":"2026-03-26T22:36:32.395429+05:30"},{"city":"Mathura","state":"Uttar Pradesh","latitude":27.4924,"longitude":77.6737,"temp":25.4,"humidity":56,"rain":0.0,"pressure":990.6,"uv_index":6.8,"wind_gusts":24.5,"aqi":167,"pm10":231.4,"pm2_5":55.1,"mosquito_risk":4,"arthritis_risk":5,"migraine_risk":7,"frizz_risk":0,"updated_at":"2026-03-26T22:36:32.395435+05:30"},{"city":"Vrindavan","state":"Uttar Pradesh","latitude":27.5823,"longitude":77.7027,"temp":25.3,"humidity":57,"rain":0.0,"pressure":991.1,"uv_index":6.75,"wind_gusts":24.5,"aqi":167,"pm10":231.4,"pm2_5":55.1,"mosquito_risk":4,"arthritis_risk":5,"migraine_risk":7,"frizz_risk":1,"updated_at":"2026-03-26T22:36:32.395442+05:30"},{"city":"Ayodhya","state":"Uttar Pradesh","latitude":26.7922,"longitude":82.1998,"temp":24.6,"humidity":45,"rain":0.0,"pressure":997.1,"uv_index":7.3,"wind_gusts":32.4,"aqi":107,"pm10":65.0,"pm2_5":28.5,"mosquito_risk":0,"arthritis_risk":5,"migraine_risk":7,"frizz_risk":0,"updated_at":"2026-03-26T22:36:32.395449+05:30"},{"city":"Ratlam","state":"Madhya Pradesh","latitude":23.3315,"longitude":75.0367,"temp":26.3,"humidity":53,"rain":0.0,"pressure":956.9,"uv_index":8.05,"wind_gusts":28.8,"aqi":44,"pm10":14.7,"pm2_5":10.5,"mosquito_risk":4,"arthritis_risk":5,"migraine_risk":7,"frizz_risk":0,"updated_at":"2026-03-26T22:36:32.395456+05:30"},{"city":"Sagar","state":"Madhya Pradesh","latitude":23.8388,"longitude":78.7378,"temp":27.0,"humidity":56,"rain":0.0,"pressure":952.4,"uv_index":8.1,"wind_gusts":24.8,"aqi":50,"pm10":26.3,"pm2_5":15.2,"mosquito_risk":4,"arthritis_risk":5,"migraine_risk":7,"frizz_risk":1,"updated_at":"2026-03-26T22:36:32.395463+05:30"},{"city":"Satna","state":"Madhya Pradesh","latitude":24.6005,"longitude":80.8322,"temp":27.7,"humidity":38,"rain":0.0,"pressure":974.1,"uv_index":8.05,"wind_gusts":26.6,"aqi":78,"pm10":81.5,"pm2_5":21.6,"mosquito_risk":4,"arthritis_risk":5,"migraine_risk":7,"frizz_risk":0,"updated_at":"2026-03-26T22:36:32.395469+05:30"},{"city":"Akola","state":"Maharashtra","latitude":20.7002,"longitude":77.0082,"temp":28.4,"humidity":54,"rain":0.0,"pressure":976.7,"uv_index":8.4,"wind_gusts":28.1,"aqi":90,"pm10":26.2,"pm2_5":22.1,"mosquito_risk":4,"arthritis_risk":5,"migraine_risk":7,"frizz_risk":1,"updated_at":"2026-03-26T22:36:32.395477+05:30"},{"city":"Amravati","state":"Maharashtra","latitude":20.9374,"longitude":77.7796,"temp":28.0,"humidity":48,"rain":0.0,"pressure":968.6,"uv_index":8.4,"wind_gusts":25.9,"aqi":98,"pm10":34.8,"pm2_5":29.5,"mosquito_risk":4,"arthritis_risk":5,"migraine_risk":7,"frizz_risk":0,"updated_at":"2026-03-26T22:36:32.395484+05:30"},{"city":"Latur","state":"Maharashtra","latitude":18.4088,"longitude":76.5604,"temp":28.1,"humidity":50,"rain":0.0,"pressure":942.5,"uv_index":8.75,"wind_gusts":22.0,"aqi":82,"pm10":32.5,"pm2_5":27.6,"mosquito_risk":4,"arthritis_risk":5,"migraine_risk":7,"frizz_risk":1,"updated_at":"2026-03-26T22:36:32.395491+05:30"},{"city":"Nanded","state":"Maharashtra","latitude":19.1383,"longitude":77.3091,"temp":29.8,"humidity":45,"rain":0.0,"pressure":970.2,"uv_index":8.6,"wind_gusts":25.2,"aqi":73,"pm10":43.7,"pm2_5":38.0,"mosquito_risk":4,"arthritis_risk":5,"migraine_risk":7,"frizz_risk":1,"updated_at":"2026-03-26T22:36:32.395498+05:30"},{"city":"Gulbarga","state":"Karnataka","latitude":17.3297,"longitude":76.8343,"temp":29.6,"humidity":50,"rain":0.0,"pressure":960.7,"uv_index":8.85,"wind_gusts":17.6,"aqi":97,"pm10":46.4,"pm2_5":40.3,"mosquito_risk":4,"arthritis_risk":5,"migraine_risk":7,"frizz_risk":1,"updated_at":"2026-03-26T22:36:32.395505+05:30"},{"city":"Bidar","state":"Karnataka","latitude":17.9104,"longitude":77.5199,"temp":27.7,"humidity":55,"rain":0.0,"pressure":937.7,"uv_index":8.85,"wind_gusts":20.5,"aqi":95,"pm10":49.8,"pm2_5":44.0,"mosquito_risk":4,"arthritis_risk":5,"migraine_risk":7,"frizz_risk":1,"updated_at":"2026-03-26T22:36:32.395511+05:30"},{"city":"Hospet","state":"Karnataka","latitude":15.2689,"longitude":76.3909,"temp":30.6,"humidity":46,"rain":0.0,"pressure":957.5,"uv_index":9.05,"wind_gusts":28.1,"aqi":110,"pm10":38.2,"pm2_5":33.2,"mosquito_risk":0,"arthritis_risk":5,"migraine_risk":7,"frizz_risk":1,"updated_at":"2026-03-26T22:36:32.395518+05:30"},{"city":"Tirupur","state":"Tamil Nadu","latitude":11.1085,"longitude":77.3411,"temp":28.9,"humidity":53,"rain":0.0,"pressure":978.0,"uv_index":9.4,"wind_gusts":32.4,"aqi":109,"pm10":44.0,"pm2_5":38.6,"mosquito_risk":4,"arthritis_risk":5,"migraine_risk":7,"frizz_risk":1,"updated_at":"2026-03-26T22:36:32.395524+05:30"},{"city":"Alappuzha","state":"Kerala","latitude":9.4981,"longitude":76.3388,"temp":28.9,"humidity":79,"rain":0.0,"pressure":1011.0,"uv_index":9.15,"wind_gusts":30.2,"aqi":87,"pm10":40.5,"pm2_5":33.5,"mosquito_risk":7,"arthritis_risk":0,"migraine_risk":4,"frizz_risk":1,"updated_at":"2026-03-26T22:36:32.395531+05:30"},{"city":"Munnar","state":"Kerala","latitude":10.0889,"longitude":77.0595,"temp":21.5,"humidity":74,"rain":0.0,"pressure":858.8,"uv_index":9.7,"wind_gusts":28.8,"aqi":66,"pm10":40.6,"pm2_5":33.9,"mosquito_risk":3,"arthritis_risk":5,"migraine_risk":7,"frizz_risk":1,"updated_at":"2026-03-26T22:36:32.395538+05:30"},{"city":"Silchar","state":"Assam","latitude":24.8333,"longitude":92.7789,"temp":24.0,"humidity":78,"rain":0.0,"pressure":1007.1,"uv_index":8.25,"wind_gusts":16.6,"aqi":152,"pm10":90.3,"pm2_5":76.6,"mosquito_risk":3,"arthritis_risk":5,"migraine_risk":4,"frizz_risk":1,"updated_at":"2026-03-26T22:36:32.395545+05:30"},{"city":"Dibrugarh","state":"Assam","latitude":27.4728,"longitude":94.912,"temp":23.4,"humidity":80,"rain":0.0,"pressure":998.2,"uv_index":8.05,"wind_gusts":9.0,"aqi":92,"pm10":58.8,"pm2_5":47.4,"mosquito_risk":3,"arthritis_risk":5,"migraine_risk":7,"frizz_risk":1,"updated_at":"2026-03-26T22:36:32.395552+05:30"}]