[{"city":"Delhi","state":"Delhi","latitude":28.6139,"longitude":77.209,"temp":30.7,"humidity":25,"rain":0.0,"pressure":982.6,"uv_index":6.0,"wind_gusts":24.5,"aqi":409,"pm10":246.8,"pm2_5":37.8,"mosquito_risk":0,"arthritis_risk":5,"migraine_risk":3,"frizz_risk":0,"updated_at":"2026-03-14T16:57:09.860428+05:30"},{"city":"Mumbai","state":"Maharashtra","latitude":19.076,"longitude":72.8777,"temp":28.1,"humidity":77,"rain":0.0,"pressure":1007.8,"uv_index":7.65,"wind_gusts":18.4,"aqi":203,"pm10":47.0,"pm2_5":35.4,"mosquito_risk":7,"arthritis_risk":5,"migraine_risk":4,"frizz_risk":1,"updated_at":"2026-03-14T16:57:09.860467+05:30"},{"city":"Bangalore","state":"Karnataka","latitude":12.9716,"longitude":77.5946,"temp":31.7,"humidity":24,"rain":0.0,"pressure":911.9,"uv_index":9.3,"wind_gusts":32.8,"aqi":120,"pm10":38.3,"pm2_5":29.8,"mosquito_risk":0,"arthritis_risk":5,"migraine_risk":7,"frizz_risk":0,"updated_at":"2026-03-14T16:57:09.860482+05:30"},{"city":"Hyderabad","state":"Telangana","latitude":17.385,"longitude":78.4867,"temp":35.2,"humidity":21,"rain":0.0,"pressure":952.6,"uv_index":8.7,"wind_gusts":30.2,"aqi":120,"pm10":44.6,"pm2_5":29.9,"mosquito_risk":0,"arthritis_risk":5,"migraine_risk":10,"frizz_risk":0,"updated_at":"2026-03-14T16:57:09.860492+05:30"},{"city":"Chennai","state":"Tamil Nadu","latitude":13.0827,"longitude":80.2707,"temp":31.1,"humidity":55,"rain":0.0,"pressure":1008.1,"uv_index":9.05,"wind_gusts":32.0,"aqi":58,"pm10":16.8,"pm2_5":12.9,"mosquito_risk":0,"arthritis_risk":0,"migraine_risk":4,"frizz_risk":1,"updated_at":"2026-03-14T16:57:09.860501+05:30"},{"city":"Kolkata","state":"West Bengal","latitude":22.5726,"longitude":88.3639,"temp":29.5,"humidity":65,"rain":0.0,"pressure":1006.2,"uv_index":8.05,"wind_gusts":33.8,"aqi":79,"pm10":29.7,"pm2_5":22.5,"mosquito_risk":7,"arthritis_risk":5,"migraine_risk":4,"frizz_risk":1,"updated_at":"2026-03-14T16:57:09.860510+05:30"},{"city":"Pune","state":"Maharashtra","latitude":18.5204,"longitude":73.8567,"temp":35.8,"humidity":18,"rain":0.0,"pressure":947.5,"uv_index":8.25,"wind_gusts":47.5,"aqi":133,"pm10":35.2,"pm2_5":30.3,"mosquito_risk":0,"arthritis_risk":5,"migraine_risk":10,"frizz_risk":0,"updated_at":"2026-03-14T16:57:09.860522+05:30"},{"city":"Ahmedabad","state":"Gujarat","latitude":23.0225,"longitude":72.5714,"temp":36.7,"humidity":20,"rain":0.0,"pressure":1000.4,"uv_index":7.5,"wind_gusts":24.8,"aqi":79,"pm10":49.2,"pm2_5":18.2,"mosquito_risk":0,"arthritis_risk":5,"migraine_risk":7,"frizz_risk":0,"updated_at":"2026-03-14T16:57:09.860530+05:30"},{"city":"Jaipur","state":"Rajasthan","latitude":26.9124,"longitude":75.7873,"temp":32.6,"humidity":20,"rain":0.0,"pressure":959.0,"uv_index":7.0,"wind_gusts":28.8,"aqi":139,"pm10":124.8,"pm2_5":29.3,"mosquito_risk":0,"arthritis_risk":5,"migraine_risk":7,"frizz_risk":0,"updated_at":"2026-03-14T16:57:09.860537+05:30"},{"city":"Lucknow","state":"Uttar Pradesh","latitude":26.8467,"longitude":80.9462,"temp":33.1,"humidity":23,"rain":0.0,"pressure":992.6,"uv_index":6.7,"wind_gusts":24.5,"aqi":171,"pm10":141.6,"pm2_5":39.3,"mosquito_risk":0,"arthritis_risk":5,"migraine_risk":7,"frizz_risk":0,"updated_at":"2026-03-14T16:57:09.860545+05:30"},{"city":"Kanpur","state":"Uttar Pradesh","latitude":26.4499,"longitude":80.3319,"temp":32.7,"humidity":30,"rain":0.0,"pressure":990.8,"uv_index":6.7,"wind_gusts":17.3,"aqi":370,"pm10":253.3,"pm2_5":46.7,"mosquito_risk":0,"arthritis_risk":5,"migraine_risk":7,"frizz_risk":0,"updated_at":"2026-03-14T16:57:09.860552+05:30"},{"city":"Chandigarh","state":"Chandigarh","latitude":30.7333,"longitude":76.7794,"temp":26.6,"humidity":43,"rain":0.0,"pressure":968.3,"uv_index":5.2,"wind_gusts":20.2,"aqi":70,"pm10":19.3,"pm2_5":14.6,"mosquito_risk":4,"arthritis_risk":5,"migraine_risk":3,"frizz_risk":0,"updated_at":"2026-03-14T16:57:09.860559+05:30"},{"city":"Srinagar","state":"Jammu and Kashmir","latitude":34.0837,"longitude":74.7973,"temp":16.3,"humidity":47,"rain":0.0,"pressure":841.0,"uv_index":5.6,"wind_gusts":19.1,"aqi":91,"pm10":31.5,"pm2_5":11.8,"mosquito_risk":0,"arthritis_risk":5,"migraine_risk":3,"frizz_risk":0,"updated_at":"2026-03-14T16:57:09.860566+05:30"},{"city":"Jammu","state":"Jammu and Kashmir","latitude":32.7266,"longitude":74.857,"temp":28.7,"humidity":38,"rain":0.0,"pressure":971.6,"uv_index":6.35,"wind_gusts":19.1,"aqi":79,"pm10":21.2,"pm2_5":11.4,"mosquito_risk":4,"arthritis_risk":5,"migraine_risk":7,"frizz_risk":0,"updated_at":"2026-03-14T16:57:09.860573+05:30"},{"city":"Amritsar","state":"Punjab","latitude":31.634,"longitude":74.8723,"temp":26.4,"humidity":62,"rain":0.0,"pressure":980.1,"uv_index":4.65,"wind_gusts":17.6,"aqi":72,"pm10":11.1,"pm2_5":8.4,"mosquito_risk":7,"arthritis_risk":5,"migraine_risk":3,"frizz_risk":1,"updated_at":"2026-03-14T16:57:09.860579+05:30"},{"city":"Ludhiana","state":"Punjab","latitude":30.901,"longitude":75.8573,"temp":27.7,"humidity":36,"rain":0.0,"pressure":978.5,"uv_index":5.25,"wind_gusts":20.2,"aqi":85,"pm10":22.2,"pm2_5":15.1,"mosquito_risk":4,"arthritis_risk":5,"migraine_risk":3,"frizz_risk":0,"updated_at":"2026-03-14T16:57:09.860585+05:30"},{"city":"Jalandhar","state":"Punjab","latitude":31.326,"longitude":75.5762,"temp":27.8,"humidity":34,"rain":0.0,"pressure":979.5,"uv_index":6.15,"wind_gusts":23.0,"aqi":91,"pm10":31.9,"pm2_5":13.3,"mosquito_risk":4,"arthritis_risk":5,"migraine_risk":7,"frizz_risk":0,"updated_at":"2026-03-14T16:57:09.860594+05:30"},{"city":"Dehradun","state":"Uttarakhand","latitude":30.6284,"longitude":78.0322,"temp":19.4,"humidity":51,"rain":0.0,"pressure":830.1,"uv_index":4.2,"wind_gusts":21.6,"aqi":53,"pm10":23.0,"pm2_5":9.2,"mosquito_risk":0,"arthritis_risk":5,"migraine_risk":3,"frizz_risk":0,"updated_at":"2026-03-14T16:57:09.860600+05:30"},{"city":"Shimla","state":"Himachal Pradesh","latitude":31.1048,"longitude":77.1734,"temp":16.7,"humidity":52,"rain":0.0,"pressure":784.6,"uv_index":5.5,"wind_gusts":22.3,"aqi":57,"pm10":19.0,"pm2_5":9.7,"mosquito_risk":0,"arthritis_risk":5,"migraine_risk":3,"frizz_risk":0,"updated_at":"2026-03-14T16:57:09.860606+05:30"},{"city":"Manali","state":"Himachal Pradesh","latitude":32.2396,"longitude":77.1887,"temp":16.4,"humidity":35,"rain":0.0,"pressure":819.7,"uv_index":7.3,"wind_gusts":29.2,"aqi":65,"pm10":38.4,"pm2_5":8.9,"mosquito_risk":0,"arthritis_risk":5,"migraine_risk":7,"frizz_risk":0,"updated_at":"2026-03-14T16:57:09.860613+05:30"},{"city":"Gurgaon","state":"Haryana","latitude":28.4595,"longitude":77.0266,"temp":30.8,"humidity":27,"rain":0.0,"pressure":980.9,"uv_index":5.85,"wind_gusts":19.4,"aqi":1207,"pm10":612.8,"pm2_5":68.9,"mosquito_risk":0,"arthritis_risk":5,"migraine_risk":3,"frizz_risk":0,"updated_at":"2026-03-14T16:57:09.860619+05:30"},{"city":"Noida","state":"Uttar Pradesh","latitude":28.5355,"longitude":77.391,"temp":30.8,"humidity":25,"rain":0.0,"pressure":984.2,"uv_index":5.75,"wind_gusts":23.8,"aqi":1207,"pm10":612.8,"pm2_5":68.9,"mosquito_risk":0,"arthritis_risk":5,"migraine_risk":3,"frizz_risk":0,"updated_at":"2026-03-14T16:57:09.860626+05:30"},{"city":"Ghaziabad","state":"Uttar Pradesh","latitude":28.6692,"longitude":77.4538,"temp":30.4,"humidity":28,"rain":0.0,"pressure":982.3,"uv_index":5.95,"wind_gusts":23.8,"aqi":281,"pm10":105.0,"pm2_5":25.0,"mosquito_risk":0,"arthritis_risk":5,"migraine_risk":3,"frizz_risk":0,"updated_at":"2026-03-14T16:57:09.860633+05:30"},{"city":"Faridabad","state":"Haryana","latitude":28.4089,"longitude":77.3178,"temp":29.4,"humidity":32,"rain":0.0,"pressure":983.4,"uv_index":5.75,"wind_gusts":22.7,"aqi":1207,"pm10":612.8,"pm2_5":68.9,"mosquito_risk":4,"arthritis_risk":5,"migraine_risk":3,"frizz_risk":0,"updated_at":"2026-03-14T16:57:09.860640+05:30"},{"city":"Meerut","state":"Uttar Pradesh","latitude":28.9845,"longitude":77.7064,"temp":29.9,"humidity":30,"rain":0.0,"pressure":980.9,"uv_index":5.8,"wind_gusts":27.4,"aqi":281,"pm10":105.0,"pm2_5":25.0,"mosquito_risk":4,"arthritis_risk":5,"migraine_risk":3,"frizz_risk":0,"updated_at":"2026-03-14T16:57:09.860646+05:30"},{"city":"Agra","state":"Uttar Pradesh","latitude":27.1767,"longitude":78.0081,"temp":33.7,"humidity":20,"rain":0.0,"pressure":986.8,"uv_index":6.35,"wind_gusts":15.5,"aqi":705,"pm10":382.8,"pm2_5":54.8,"mosquito_risk":0,"arthritis_risk":5,"migraine_risk":7,"frizz_risk":0,"updated_at":"2026-03-14T16:57:09.860652+05:30"},{"city":"Varanasi","state":"Uttar Pradesh","latitude":25.3176,"longitude":82.9739,"temp":34.0,"humidity":33,"rain":0.0,"pressure":996.5,"uv_index":6.85,"wind_gusts":27.7,"aqi":134,"pm10":81.0,"pm2_5":30.4,"mosquito_risk":0,"arthritis_risk":5,"migraine_risk":7,"frizz_risk":0,"updated_at":"2026-03-14T16:57:09.860660+05:30"},{"city":"Prayagraj","state":"Uttar Pradesh","latitude":25.4358,"longitude":81.8463,"temp":33.4,"humidity":39,"rain":0.0,"pressure":994.7,"uv_index":7.1,"wind_gusts":15.5,"aqi":151,"pm10":100.8,"pm2_5":32.8,"mosquito_risk":0,"arthritis_risk":5,"migraine_risk":7,"frizz_risk":1,"updated_at":"2026-03-14T16:57:09.860667+05:30"},{"city":"Gorakhpur","state":"Uttar Pradesh","latitude":26.7606,"longitude":83.3732,"temp":30.6,"humidity":38,"rain":0.0,"pressure":996.4,"uv_index":6.7,"wind_gusts":24.8,"aqi":135,"pm10":147.6,"pm2_5":48.8,"mosquito_risk":0,"arthritis_risk":5,"migraine_risk":7,"frizz_risk":0,"updated_at":"2026-03-14T16:57:09.860674+05:30"},{"city":"Bareilly","state":"Uttar Pradesh","latitude":28.367,"longitude":79.4304,"temp":28.4,"humidity":52,"rain":0.0,"pressure":986.2,"uv_index":6.4,"wind_gusts":19.4,"aqi":143,"pm10":31.5,"pm2_5":23.5,"mosquito_risk":4,"arthritis_risk":5,"migraine_risk":7,"frizz_risk":1,"updated_at":"2026-03-14T16:57:09.860680+05:30"},{"city":"Aligarh","state":"Uttar Pradesh","latitude":27.8974,"longitude":78.088,"temp":30.7,"humidity":24,"rain":0.0,"pressure":985.4,"uv_index":6.3,"wind_gusts":26.6,"aqi":691,"pm10":523.4,"pm2_5":81.0,"mosquito_risk":0,"arthritis_risk":5,"migraine_risk":7,"frizz_risk":0,"updated_at":"2026-03-14T16:57:09.860686+05:30"},{"city":"Moradabad","state":"Uttar Pradesh","latitude":28.8386,"longitude":78.7733,"temp":29.3,"humidity":36,"rain":0.0,"pressure":982.9,"uv_index":5.95,"wind_gusts":23.0,"aqi":144,"pm10":34.9,"pm2_5":21.8,"mosquito_risk":4,"arthritis_risk":5,"migraine_risk":3,"frizz_risk":0,"updated_at":"2026-03-14T16:57:09.860694+05:30"},{"city":"Saharanpur","state":"Uttar Pradesh","latitude":29.9637,"longitude":77.546,"temp":28.8,"humidity":35,"rain":0.0,"pressure":974.8,"uv_index":4.65,"wind_gusts":23.8,"aqi":137,"pm10":74.7,"pm2_5":25.3,"mosquito_risk":4,"arthritis_risk":5,"migraine_risk":3,"frizz_risk":0,"updated_at":"2026-03-14T16:57:09.860700+05:30"},{"city":"Jhansi","state":"Uttar Pradesh","latitude":25.4484,"longitude":78.5685,"temp":35.5,"humidity":20,"rain":0.0,"pressure":975.9,"uv_index":7.2,"wind_gusts":20.2,"aqi":134,"pm10":112.7,"pm2_5":34.2,"mosquito_risk":0,"arthritis_risk":5,"migraine_risk":10,"frizz_risk":0,"updated_at":"2026-03-14T16:57:13.074453+05:30"},{"city":"Surat","state":"Gujarat","latitude":21.1702,"longitude":72.8311,"temp":30.5,"humidity":39,"rain":0.0,"pressure":1006.2,"uv_index":7.35,"wind_gusts":23.4,"aqi":141,"pm10":92.2,"pm2_5":53.7,"mosquito_risk":0,"arthritis_risk":5,"migraine_risk":4,"frizz_risk":0,"updated_at":"2026-03-14T16:57:13.074479+05:30"},{"city":"Vadodara","state":"Gujarat","latitude":22.3072,"longitude":73.1812,"temp":36.7,"humidity":15,"rain":0.0,"pressure":1002.8,"uv_index":7.5,"wind_gusts":28.1,"aqi":100,"pm10":55.2,"pm2_5":21.9,"mosquito_risk":0,"arthritis_risk":5,"migraine_risk":7,"frizz_risk":0,"updated_at":"2026-03-14T16:57:13.074489+05:30"},{"city":"Rajkot","state":"Gujarat","latitude":22.3039,"longitude":70.8022,"temp":36.1,"humidity":22,"rain":0.0,"pressure":993.5,"uv_index":7.35,"wind_gusts":34.9,"aqi":93,"pm10":74.5,"pm2_5":22.8,"mosquito_risk":0,"arthritis_risk":5,"migraine_risk":10,"frizz_risk":0,"updated_at":"2026-03-14T16:57:13.074496+05:30"},{"city":"Thane","state":"Maharashtra","latitude":19.2183,"longitude":72.9781,"temp":31.5,"humidity":46,"rain":0.0,"pressure":1007.5,"uv_index":7.65,"wind_gusts":31.7,"aqi":203,"pm10":47.0,"pm2_5":35.4,"mosquito_risk":0,"arthritis_risk":5,"migraine_risk":4,"frizz_risk":1,"updated_at":"2026-03-14T16:57:13.074502+05:30"},{"city":"Nagpur","state":"Maharashtra","latitude":21.1458,"longitude":79.0882,"temp":36.4,"humidity":17,"rain":0.0,"pressure":971.6,"uv_index":8.1,"wind_gusts":19.8,"aqi":172,"pm10":33.6,"pm2_5":29.3,"mosquito_risk":0,"arthritis_risk":5,"migraine_risk":10,"frizz_risk":0,"updated_at":"2026-03-14T16:57:13.074508+05:30"},{"city":"Nashik","state":"Maharashtra","latitude":19.9975,"longitude":73.7898,"temp":32.8,"humidity":20,"rain":0.0,"pressure":945.7,"uv_index":7.9,"wind_gusts":39.2,"aqi":109,"pm10":27.4,"pm2_5":23.5,"mosquito_risk":0,"arthritis_risk":5,"migraine_risk":7,"frizz_risk":0,"updated_at":"2026-03-14T16:57:13.074515+05:30"},{"city":"Aurangabad","state":"Maharashtra","latitude":19.8762,"longitude":75.3433,"temp":34.9,"humidity":18,"rain":0.0,"pressure":943.5,"uv_index":8.4,"wind_gusts":32.8,"aqi":126,"pm10":30.4,"pm2_5":24.3,"mosquito_risk":0,"arthritis_risk":5,"migraine_risk":7,"frizz_risk":0,"updated_at":"2026-03-14T16:57:13.074520+05:30"},{"city":"Solapur","state":"Maharashtra","latitude":17.6599,"longitude":75.9064,"temp":35.6,"humidity":22,"rain":0.0,"pressure":955.9,"uv_index":8.6,"wind_gusts":18.7,"aqi":153,"pm10":42.6,"pm2_5":34.5,"mosquito_risk":0,"arthritis_risk":5,"migraine_risk":10,"frizz_risk":0,"updated_at":"2026-03-14T16:57:13.074527+05:30"},{"city":"Kolhapur","state":"Maharashtra","latitude":16.705,"longitude":74.2433,"temp":29.2,"humidity":61,"rain":0.0,"pressure":948.0,"uv_index":8.7,"wind_gusts":44.6,"aqi":152,"pm10":45.2,"pm2_5":41.1,"mosquito_risk":7,"arthritis_risk":5,"migraine_risk":7,"frizz_risk":1,"updated_at":"2026-03-14T16:57:13.074533+05:30"},{"city":"Goa","state":"Goa","latitude":15.2993,"longitude":74.124,"temp":30.7,"humidity":65,"rain":0.0,"pressure":997.8,"uv_index":8.75,"wind_gusts":32.4,"aqi":133,"pm10":39.8,"pm2_5":35.0,"mosquito_risk":3,"arthritis_risk":5,"migraine_risk":7,"frizz_risk":1,"updated_at":"2026-03-14T16:57:13.074539+05:30"},{"city":"Jodhpur","state":"Rajasthan","latitude":26.2389,"longitude":73.0243,"temp":35.5,"humidity":16,"rain":0.0,"pressure":980.8,"uv_index":7.1,"wind_gusts":37.4,"aqi":84,"pm10":134.6,"pm2_5":29.4,"mosquito_risk":0,"arthritis_risk":5,"migraine_risk":10,"frizz_risk":0,"updated_at":"2026-03-14T16:57:13.074545+05:30"},{"city":"Udaipur","state":"Rajasthan","latitude":24.5854,"longitude":73.7125,"temp":33.0,"humidity":18,"rain":0.0,"pressure":945.5,"uv_index":7.85,"wind_gusts":37.1,"aqi":68,"pm10":38.8,"pm2_5":13.7,"mosquito_risk":0,"arthritis_risk":5,"migraine_risk":7,"frizz_risk":0,"updated_at":"2026-03-14T16:57:13.074550+05:30"},{"city":"Kota","state":"Rajasthan","latitude":25.2138,"longitude":75.8648,"temp":36.1,"humidity":17,"rain":0.0,"pressure":976.5,"uv_index":7.25,"wind_gusts":13.7,"aqi":78,"pm10":33.5,"pm2_5":16.9,"mosquito_risk":0,"arthritis_risk":5,"migraine_risk":10,"frizz_risk":0,"updated_at":"2026-03-14T16:57:13.074556+05:30"},{"city":"Bikaner","state":"Rajasthan","latitude":28.0229,"longitude":73.3119,"temp":33.9,"humidity":19,"rain":0.0,"pressure":979.6,"uv_index":6.7,"wind_gusts":21.6,"aqi":62,"pm10":79.6,"pm2_5":21.1,"mosquito_risk":0,"arthritis_risk":5,"migraine_risk":7,"frizz_risk":0,"updated_at":"2026-03-14T16:57:13.074562+05:30"},{"city":"Ajmer","state":"Rajasthan","latitude":26.4499,"longitude":74.6399,"temp":33.3,"humidity":18,"rain":0.0,"pressure":953.0,"uv_index":7.05,"wind_gusts":41.4,"aqi":83,"pm10":52.9,"pm2_5":19.3,"mosquito_risk":0,"arthritis_risk":5,"migraine_risk":7,"frizz_risk":0,"updated_at":"2026-03-14T16:57:13.074568+05:30"},{"city":"Gwalior","state":"Madhya Pradesh","latitude":26.2183,"longitude":78.1828,"temp":31.7,"humidity":37,"rain":0.0,"pressure":982.1,"uv_index":6.9,"wind_gusts":22.0,"aqi":223,"pm10":86.6,"pm2_5":26.8,"mosquito_risk":0,"arthritis_risk":5,"migraine_risk":7,"frizz_risk":0,"updated_at":"2026-03-14T16:57:13.074574+05:30"},{"city":"Indore","state":"Madhya Pradesh","latitude":22.7196,"longitude":75.8577,"temp":35.2,"humidity":16,"rain":0.0,"pressure":946.8,"uv_index":7.8,"wind_gusts":38.2,"aqi":108,"pm10":22.1,"pm2_5":18.2,"mosquito_risk":0,"arthritis_risk":5,"migraine_risk":10,"frizz_risk":0,"updated_at":"2026-03-14T16:57:13.074580+05:30"},{"city":"Bhopal","state":"Madhya Pradesh","latitude":23.2599,"longitude":77.4126,"temp":35.3,"humidity":16,"rain":0.0,"pressure":952.5,"uv_index":7.65,"wind_gusts":35.3,"aqi":111,"pm10":22.9,"pm2_5":17.9,"mosquito_risk":0,"arthritis_risk":5,"migraine_risk":10,"frizz_risk":0,"updated_at":"2026-03-14T16:57:13.074586+05:30"},{"city":"Jabalpur","state":"Madhya Pradesh","latitude":23.1815,"longitude":79.9864,"temp":35.5,"humidity":15,"rain":0.0,"pressure":960.5,"uv_index":7.8,"wind_gusts":27.0,"aqi":109,"pm10":15.0,"pm2_5":14.0,"mosquito_risk":0,"arthritis_risk":5,"migraine_risk":10,"frizz_risk":0,"updated_at":"2026-03-14T16:57:13.074592+05:30"},{"city":"Ujjain","state":"Madhya Pradesh","latitude":23.1765,"longitude":75.7885,"temp":34.1,"humidity":18,"rain":0.0,"pressure":952.7,"uv_index":7.7,"wind_gusts":41.8,"aqi":83,"pm10":21.6,"pm2_5":15.9,"mosquito_risk":0,"arthritis_risk":5,"migraine_risk":7,"frizz_risk":0,"updated_at":"2026-03-14T16:57:13.074599+05:30"},{"city":"Visakhapatnam","state":"Andhra Pradesh","latitude":17.6868,"longitude":83.2185,"temp":28.8,"humidity":68,"rain":0.0,"pressure":1004.9,"uv_index":8.65,"wind_gusts":41.0,"aqi":63,"pm10":19.0,"pm2_5":14.3,"mosquito_risk":7,"arthritis_risk":5,"migraine_risk":4,"frizz_risk":1,"updated_at":"2026-03-14T16:57:13.074604+05:30"},{"city":"Vijayawada","state":"Andhra Pradesh","latitude":16.5062,"longitude":80.648,"temp":32.5,"humidity":50,"rain":0.0,"pressure":1002.9,"uv_index":8.75,"wind_gusts":31.3,"aqi":63,"pm10":20.0,"pm2_5":14.5,"mosquito_risk":0,"arthritis_risk":5,"migraine_risk":4,"frizz_risk":1,"updated_at":"2026-03-14T16:57:13.074610+05:30"},{"city":"Guntur","state":"Andhra Pradesh","latitude":16.3067,"longitude":80.4365,"temp":31.5,"humidity":55,"rain":0.0,"pressure":1004.3,"uv_index":8.75,"wind_gusts":33.8,"aqi":62,"pm10":24.6,"pm2_5":17.9,"mosquito_risk":0,"arthritis_risk":5,"migraine_risk":4,"frizz_risk":1,"updated_at":"2026-03-14T16:57:13.074616+05:30"},{"city":"Nellore","state":"Andhra Pradesh","latitude":14.4426,"longitude":79.9865,"temp":32.0,"humidity":49,"rain":0.0,"pressure":1006.4,"uv_index":8.9,"wind_gusts":33.1,"aqi":62,"pm10":31.4,"pm2_5":22.5,"mosquito_risk":0,"arthritis_risk":5,"migraine_risk":4,"frizz_risk":1,"updated_at":"2026-03-14T16:57:13.074622+05:30"},{"city":"Kurnool","state":"Andhra Pradesh","latitude":15.8281,"longitude":78.0373,"temp":37.1,"humidity":19,"rain":0.0,"pressure":975.6,"uv_index":8.75,"wind_gusts":23.4,"aqi":117,"pm10":45.3,"pm2_5":31.4,"mosquito_risk":0,"arthritis_risk":5,"migraine_risk":10,"frizz_risk":0,"updated_at":"2026-03-14T16:57:13.074628+05:30"},{"city":"Kakinada","state":"Andhra Pradesh","latitude":16.9891,"longitude":82.2475,"temp":30.8,"humidity":58,"rain":0.0,"pressure":1008.1,"uv_index":8.7,"wind_gusts":34.6,"aqi":57,"pm10":17.2,"pm2_5":11.9,"mosquito_risk":0,"arthritis_risk":0,"migraine_risk":4,"frizz_risk":1,"updated_at":"2026-03-14T16:57:13.074634+05:30"},{"city":"Tirupati","state":"Andhra Pradesh","latitude":13.6288,"longitude":79.4192,"temp":33.4,"humidity":33,"rain":0.0,"pressure":991.6,"uv_index":9.0,"wind_gusts":32.4,"aqi":74,"pm10":30.4,"pm2_5":23.5,"mosquito_risk":0,"arthritis_risk":5,"migraine_risk":7,"frizz_risk":0,"updated_at":"2026-03-14T16:57:13.074640+05:30"},{"city":"Warangal","state":"Telangana","latitude":17.9689,"longitude":79.5941,"temp":33.6,"humidity":38,"rain":0.0,"pressure":978.2,"uv_index":8.5,"wind_gusts":27.7,"aqi":97,"pm10":48.8,"pm2_5":35.5,"mosquito_risk":0,"arthritis_risk":5,"migraine_risk":7,"frizz_risk":1,"updated_at":"2026-03-14T16:57:13.074645+05:30"},{"city":"Nizamabad","state":"Telangana","latitude":18.6725,"longitude":78.0941,"temp":35.8,"humidity":24,"rain":0.0,"pressure":963.8,"uv_index":8.4,"wind_gusts":30.2,"aqi":121,"pm10":50.2,"pm2_5":36.6,"mosquito_risk":0,"arthritis_risk":5,"migraine_risk":10,"frizz_risk":0,"updated_at":"2026-03-14T16:57:13.074651+05:30"},{"city":"Mysore","state":"Karnataka","latitude":12.2958,"longitude":76.6396,"temp":32.8,"humidity":20,"rain":0.0,"pressure":928.2,"uv_index":9.3,"wind_gusts":32.8,"aqi":123,"pm10":38.6,"pm2_5":31.1,"mosquito_risk":0,"arthritis_risk":5,"migraine_risk":7,"frizz_risk":0,"updated_at":"2026-03-14T16:57:13.074657+05:30"},{"city":"Mangalore","state":"Karnataka","latitude":12.9141,"longitude":74.856,"temp":29.1,"humidity":81,"rain":0.0,"pressure":1006.0,"uv_index":8.95,"wind_gusts":24.8,"aqi":102,"pm10":29.6,"pm2_5":24.9,"mosquito_risk":7,"arthritis_risk":5,"migraine_risk":4,"frizz_risk":1,"updated_at":"2026-03-14T16:57:13.074662+05:30"},{"city":"Hubli-Dharwad","state":"Karnataka","latitude":15.3647,"longitude":75.124,"temp":33.2,"humidity":33,"rain":0.0,"pressure":940.2,"uv_index":8.9,"wind_gusts":46.4,"aqi":127,"pm10":39.6,"pm2_5":32.4,"mosquito_risk":0,"arthritis_risk":5,"migraine_risk":7,"frizz_risk":0,"updated_at":"2026-03-14T16:57:13.074668+05:30"},{"city":"Belgaum","state":"Karnataka","latitude":15.8497,"longitude":74.4977,"temp":27.1,"humidity":71,"rain":0.0,"pressure":925.8,"uv_index":8.95,"wind_gusts":44.3,"aqi":176,"pm10":49.9,"pm2_5":44.8,"mosquito_risk":7,"arthritis_risk":5,"migraine_risk":7,"frizz_risk":1,"updated_at":"2026-03-14T16:57:16.288608+05:30"},{"city":"Coimbatore","state":"Tamil Nadu","latitude":11.0168,"longitude":76.9558,"temp":34.3,"humidity":18,"rain":0.0,"pressure":960.9,"uv_index":9.3,"wind_gusts":37.1,"aqi":88,"pm10":21.9,"pm2_5":16.9,"mosquito_risk":0,"arthritis_risk":5,"migraine_risk":7,"frizz_risk":0,"updated_at":"2026-03-14T16:57:16.288635+05:30"},{"city":"Madurai","state":"Tamil Nadu","latitude":9.9252,"longitude":78.1198,"temp":35.4,"humidity":31,"rain":0.0,"pressure":991.6,"uv_index":9.25,"wind_gusts":28.8,"aqi":61,"pm10":7.4,"pm2_5":6.0,"mosquito_risk":0,"arthritis_risk":5,"migraine_risk":10,"frizz_risk":0,"updated_at":"2026-03-14T16:57:16.288645+05:30"},{"city":"Trichy","state":"Tamil Nadu","latitude":10.7905,"longitude":78.7047,"temp":34.9,"humidity":34,"rain":0.0,"pressure":998.8,"uv_index":9.2,"wind_gusts":27.0,"aqi":67,"pm10":11.4,"pm2_5":9.2,"mosquito_risk":0,"arthritis_risk":5,"migraine_risk":7,"frizz_risk":1,"updated_at":"2026-03-14T16:57:16.288652+05:30"},{"city":"Salem","state":"Tamil Nadu","latitude":11.6643,"longitude":78.146,"temp":34.7,"humidity":23,"rain":0.0,"pressure":976.7,"uv_index":9.2,"wind_gusts":23.8,"aqi":96,"pm10":25.0,"pm2_5":20.6,"mosquito_risk":0,"arthritis_risk":5,"migraine_risk":7,"frizz_risk":0,"updated_at":"2026-03-14T16:57:16.288659+05:30"},{"city":"Tirunelveli","state":"Tamil Nadu","latitude":8.7139,"longitude":77.7567,"temp":32.6,"humidity":49,"rain":0.0,"pressure":1002.6,"uv_index":9.25,"wind_gusts":36.4,"aqi":50,"pm10":6.5,"pm2_5":5.5,"mosquito_risk":0,"arthritis_risk":5,"migraine_risk":4,"frizz_risk":1,"updated_at":"2026-03-14T16:57:16.288666+05:30"},{"city":"Vellore","state":"Tamil Nadu","latitude":12.9165,"longitude":79.1325,"temp":33.3,"humidity":29,"rain":0.0,"pressure":984.6,"uv_index":9.1,"wind_gusts":32.8,"aqi":101,"pm10":32.8,"pm2_5":28.0,"mosquito_risk":0,"arthritis_risk":5,"migraine_risk":7,"frizz_risk":0,"updated_at":"2026-03-14T16:57:16.288673+05:30"},{"city":"Erode","state":"Tamil Nadu","latitude":11.341,"longitude":77.7172,"temp":35.4,"humidity":32,"rain":0.0,"pressure":988.0,"uv_index":9.2,"wind_gusts":24.8,"aqi":63,"pm10":17.3,"pm2_5":13.7,"mosquito_risk":0,"arthritis_risk":5,"migraine_risk":10,"frizz_risk":1,"updated_at":"2026-03-14T16:57:16.288679+05:30"},{"city":"Kochi","state":"Kerala","latitude":9.9312,"longitude":76.2673,"temp":28.5,"humidity":79,"rain":0.0,"pressure":1007.5,"uv_index":9.1,"wind_gusts":31.3,"aqi":121,"pm10":17.4,"pm2_5":16.0,"mosquito_risk":7,"arthritis_risk":5,"migraine_risk":4,"frizz_risk":1,"updated_at":"2026-03-14T16:57:16.288686+05:30"},{"city":"Thiruvananthapuram","state":"Kerala","latitude":8.5241,"longitude":76.9366,"temp":28.7,"humidity":76,"rain":0.0,"pressure":1007.3,"uv_index":9.1,"wind_gusts":26.3,"aqi":78,"pm10":14.8,"pm2_5":12.0,"mosquito_risk":7,"arthritis_risk":5,"migraine_risk":4,"frizz_risk":1,"updated_at":"2026-03-14T16:57:16.288692+05:30"},{"city":"Kozhikode","state":"Kerala","latitude":11.2588,"longitude":75.7804,"temp":29.6,"humidity":77,"rain":0.0,"pressure":1006.8,"uv_index":9.0,"wind_gusts":24.8,"aqi":75,"pm10":25.7,"pm2_5":22.5,"mosquito_risk":7,"arthritis_risk":5,"migraine_risk":4,"frizz_risk":1,"updated_at":"2026-03-14T16:57:16.288698+05:30"},{"city":"Thrissur","state":"Kerala","latitude":10.5276,"longitude":76.2144,"temp":30.8,"humidity":70,"rain":0.0,"pressure":1005.7,"uv_index":9.05,"wind_gusts":36.0,"aqi":113,"pm10":22.3,"pm2_5":19.9,"mosquito_risk":3,"arthritis_risk":5,"migraine_risk":4,"frizz_risk":1,"updated_at":"2026-03-14T16:57:16.288705+05:30"},{"city":"Kannur","state":"Kerala","latitude":11.8745,"longitude":75.3704,"temp":29.9,"humidity":75,"rain":0.0,"pressure":1006.5,"uv_index":8.95,"wind_gusts":29.2,"aqi":93,"pm10":27.9,"pm2_5":23.7,"mosquito_risk":7,"arthritis_risk":5,"migraine_risk":4,"frizz_risk":1,"updated_at":"2026-03-14T16:57:16.288711+05:30"},{"city":"Patna","state":"Bihar","latitude":25.5941,"longitude":85.1376,"temp":32.7,"humidity":40,"rain":0.0,"pressure":999.6,"uv_index":7.5,"wind_gusts":20.2,"aqi":141,"pm10":83.4,"pm2_5":36.6,"mosquito_risk":0,"arthritis_risk":5,"migraine_risk":7,"frizz_risk":1,"updated_at":"2026-03-14T16:57:16.288717+05:30"},{"city":"Gaya","state":"Bihar","latitude":24.7914,"longitude":85.0002,"temp":32.7,"humidity":40,"rain":0.0,"pressure":993.2,"uv_index":7.55,"wind_gusts":21.2,"aqi":123,"pm10":71.0,"pm2_5":28.0,"mosquito_risk":0,"arthritis_risk":5,"migraine_risk":7,"frizz_risk":1,"updated_at":"2026-03-14T16:57:16.288723+05:30"},{"city":"Muzaffarpur","state":"Bihar","latitude":26.1209,"longitude":85.3647,"temp":31.6,"humidity":39,"rain":0.0,"pressure":999.6,"uv_index":7.45,"wind_gusts":24.5,"aqi":160,"pm10":78.2,"pm2_5":39.6,"mosquito_risk":0,"arthritis_risk":5,"migraine_risk":7,"frizz_risk":0,"updated_at":"2026-03-14T16:57:16.288729+05:30"},{"city":"Bhagalpur","state":"Bihar","latitude":25.2425,"longitude":87.0117,"temp":31.9,"humidity":39,"rain":0.0,"pressure":1000.3,"uv_index":7.5,"wind_gusts":20.5,"aqi":159,"pm10":126.2,"pm2_5":51.3,"mosquito_risk":0,"arthritis_risk":5,"migraine_risk":4,"frizz_risk":1,"updated_at":"2026-03-14T16:57:16.288735+05:30"},{"city":"Ranchi","state":"Jharkhand","latitude":23.3441,"longitude":85.3096,"temp":33.0,"humidity":17,"rain":0.0,"pressure":937.9,"uv_index":8.2,"wind_gusts":24.5,"aqi":121,"pm10":24.5,"pm2_5":12.7,"mosquito_risk":0,"arthritis_risk":5,"migraine_risk":7,"frizz_risk":0,"updated_at":"2026-03-14T16:57:16.288741+05:30"},{"city":"Jamshedpur","state":"Jharkhand","latitude":22.8046,"longitude":86.2029,"temp":36.3,"humidity":21,"rain":0.0,"pressure":989.6,"uv_index":8.1,"wind_gusts":29.2,"aqi":156,"pm10":55.3,"pm2_5":31.2,"mosquito_risk":0,"arthritis_risk":5,"migraine_risk":10,"frizz_risk":0,"updated_at":"2026-03-14T16:57:16.288747+05:30"},{"city":"Dhanbad","state":"Jharkhand","latitude":23.7957,"longitude":86.4304,"temp":36.0,"humidity":17,"rain":0.0,"pressure":978.9,"uv_index":7.95,"wind_gusts":19.8,"aqi":155,"pm10":54.0,"pm2_5":28.6,"mosquito_risk":0,"arthritis_risk":5,"migraine_risk":10,"frizz_risk":0,"updated_at":"2026-03-14T16:57:16.288754+05:30"},{"city":"Bokaro","state":"Jharkhand","latitude":23.6693,"longitude":86.1511,"temp":35.8,"humidity":15,"rain":0.0,"pressure":983.0,"uv_index":8.0,"wind_gusts":20.2,"aqi":151,"pm10":38.6,"pm2_5":21.3,"mosquito_risk":0,"arthritis_risk":5,"migraine_risk":10,"frizz_risk":0,"updated_at":"2026-03-14T16:57:16.288760+05:30"},{"city":"Bhubaneswar","state":"Odisha","latitude":20.2961,"longitude":85.8245,"temp":29.0,"humidity":66,"rain":0.0,"pressure":1003.5,"uv_index":8.4,"wind_gusts":38.9,"aqi":68,"pm10":25.3,"pm2_5":18.9,"mosquito_risk":7,"arthritis_risk":5,"migraine_risk":4,"frizz_risk":1,"updated_at":"2026-03-14T16:57:16.288766+05:30"},{"city":"Cuttack","state":"Odisha","latitude":20.4625,"longitude":85.8828,"temp":31.4,"humidity":56,"rain":0.0,"pressure":1004.9,"uv_index":8.45,"wind_gusts":34.2,"aqi":68,"pm10":25.3,"pm2_5":18.9,"mosquito_risk":0,"arthritis_risk":5,"migraine_risk":4,"frizz_risk":1,"updated_at":"2026-03-14T16:57:16.288772+05:30"},{"city":"Rourkela","state":"Odisha","latitude":22.2604,"longitude":84.8536,"temp":37.3,"humidity":17,"rain":0.0,"pressure":983.8,"uv_index":8.05,"wind_gusts":25.2,"aqi":170,"pm10":29.2,"pm2_5":25.5,"mosquito_risk":0,"arthritis_risk":5,"migraine_risk":10,"frizz_risk":0,"updated_at":"2026-03-14T16:57:16.288778+05:30"},{"city":"Raipur","state":"Chhattisgarh","latitude":21.2514,"longitude":81.6296,"temp":36.6,"humidity":24,"rain":0.0,"pressure":973.3,"uv_index":8.15,"wind_gusts":34.2,"aqi":163,"pm10":31.3,"pm2_5":27.1,"mosquito_risk":0,"arthritis_risk":5,"migraine_risk":10,"frizz_risk":0,"updated_at":"2026-03-14T16:57:16.288784+05:30"},{"city":"Bhilai","state":"Chhattisgarh","latitude":21.1938,"longitude":81.3509,"temp":37.1,"humidity":23,"rain":0.0,"pressure":973.4,"uv_index":8.15,"wind_gusts":27.7,"aqi":146,"pm10":31.3,"pm2_5":26.7,"mosquito_risk":0,"arthritis_risk":5,"migraine_risk":10,"frizz_risk":0,"updated_at":"2026-03-14T16:57:16.288790+05:30"},{"city":"Guwahati","state":"Assam","latitude":26.1158,"longitude":91.7086,"temp":23.7,"humidity":83,"rain":0.0,"pressure":1002.8,"uv_index":7.35,"wind_gusts":32.0,"aqi":77,"pm10":38.0,"pm2_5":25.2,"mosquito_risk":3,"arthritis_risk":5,"migraine_risk":4,"frizz_risk":1,"updated_at":"2026-03-14T16:57:16.288796+05:30"},{"city":"Agartala","state":"Tripura","latitude":23.8315,"longitude":91.2868,"temp":28.5,"humidity":65,"rain":0.0,"pressure":1006.9,"uv_index":7.8,"wind_gusts":48.6,"aqi":78,"pm10":34.6,"pm2_5":26.6,"mosquito_risk":7,"arthritis_risk":5,"migraine_risk":4,"frizz_risk":1,"updated_at":"2026-03-14T16:57:16.288802+05:30"},{"city":"Shillong","state":"Meghalaya","latitude":25.5788,"longitude":91.8933,"temp":15.2,"humidity":81,"rain":0.0,"pressure":856.1,"uv_index":7.85,"wind_gusts":73.8,"aqi":49,"pm10":28.3,"pm2_5":20.3,"mosquito_risk":3,"arthritis_risk":10,"migraine_risk":7,"frizz_risk":0,"updated_at":"2026-03-14T16:57:16.288808+05:30"},{"city":"Imphal","state":"Manipur","latitude":24.817,"longitude":93.9368,"temp":18.1,"humidity":82,"rain":0.0,"pressure":924.5,"uv_index":7.1,"wind_gusts":82.8,"aqi":142,"pm10":54.7,"pm2_5":42.0,"mosquito_risk":3,"arthritis_risk":10,"migraine_risk":7,"frizz_risk":0,"updated_at":"2026-03-14T16:57:16.288815+05:30"},{"city":"Aizawl","state":"Mizoram","latitude":23.7271,"longitude":92.7176,"temp":20.2,"humidity":74,"rain":0.0,"pressure":894.6,"uv_index":8.0,"wind_gusts":63.4,"aqi":113,"pm10":48.5,"pm2_5":36.8,"mosquito_risk":3,"arthritis_risk":5,"migraine_risk":7,"frizz_risk":0,"updated_at":"2026-03-14T16:57:16.288821+05:30"},{"city":"Kohima","state":"Nagaland","latitude":25.6701,"longitude":94.1077,"temp":16.0,"humidity":73,"rain":0.0,"pressure":855.0,"uv_index":6.9,"wind_gusts":100.8,"aqi":106,"pm10":46.4,"pm2_5":32.9,"mosquito_risk":3,"arthritis_risk":5,"migraine_risk":7,"frizz_risk":0,"updated_at":"2026-03-14T16:57:16.288826+05:30"},{"city":"Gangtok","state":"Sikkim","latitude":27.3314,"longitude":88.6138,"temp":15.0,"humidity":86,"rain":0.0,"pressure":837.0,"uv_index":7.55,"wind_gusts":20.2,"aqi":92,"pm10":25.9,"pm2_5":18.1,"mosquito_risk":3,"arthritis_risk":10,"migraine_risk":7,"frizz_risk":0,"updated_at":"2026-03-14T16:57:16.288832+05:30"},{"city":"Siliguri","state":"West Bengal","latitude":26.7271,"longitude":88.3953,"temp":22.5,"humidity":78,"rain":0.0,"pressure":994.3,"uv_index":7.4,"wind_gusts":31.7,"aqi":129,"pm10":70.1,"pm2_5":45.1,"mosquito_risk":3,"arthritis_risk":5,"migraine_risk":7,"frizz_risk":1,"updated_at":"2026-03-14T16:57:19.503593+05:30"},{"city":"Durgapur","state":"West Bengal","latitude":23.5204,"longitude":87.3119,"temp":33.7,"humidity":35,"rain":0.0,"pressure":994.4,"uv_index":7.95,"wind_gusts":23.4,"aqi":152,"pm10":67.3,"pm2_5":40.4,"mosquito_risk":0,"arthritis_risk":5,"migraine_risk":7,"frizz_risk":1,"updated_at":"2026-03-14T16:57:19.503621+05:30"},{"city":"Asansol","state":"West Bengal","latitude":23.6739,"longitude":86.9524,"temp":34.5,"humidity":32,"rain":0.0,"pressure":992.7,"uv_index":7.95,"wind_gusts":21.2,"aqi":141,"pm10":61.0,"pm2_5":33.5,"mosquito_risk":0,"arthritis_risk":5,"migraine_risk":7,"frizz_risk":0,"updated_at":"2026-03-14T16:57:19.503631+05:30"},{"city":"Pondicherry","state":"Puducherry","latitude":11.9139,"longitude":79.8145,"temp":31.6,"humidity":57,"rain":0.0,"pressure":1008.8,"uv_index":9.05,"wind_gusts":29.9,"aqi":55,"pm10":15.3,"pm2_5":11.6,"mosquito_risk":0,"arthritis_risk":0,"migraine_risk":4,"frizz_risk":1,"updated_at":"2026-03-14T16:57:19.503638+05:30"},{"city":"Port Blair","state":"Andaman and Nicobar Islands","latitude":11.6234,"longitude":92.7265,"temp":28.0,"humidity":77,"rain":0.0,"pressure":1008.8,"uv_index":8.95,"wind_gusts":23.0,"aqi":80,"pm10":10.9,"pm2_5":8.5,"mosquito_risk":7,"arthritis_risk":0,"migraine_risk":4,"frizz_risk":1,"updated_at":"2026-03-14T16:57:19.503646+05:30"},{"city":"Haridwar","state":"Uttarakhand","latitude":29.9457,"longitude":78.1642,"temp":29.0,"humidity":39,"rain":0.0,"pressure":973.5,"uv_index":5.0,"wind_gusts":21.2,"aqi":106,"pm10":30.3,"pm2_5":17.7,"mosquito_risk":4,"arthritis_risk":5,"migraine_risk":3,"frizz_risk":0,"updated_at":"2026-03-14T16:57:19.503653+05:30"},{"city":"Rishikesh","state":"Uttarakhand","latitude":30.0869,"longitude":78.2676,"temp":28.1,"humidity":45,"rain":0.0,"pressure":966.3,"uv_index":4.55,"wind_gusts":20.9,"aqi":71,"pm10":26.1,"pm2_5":13.6,"mosquito_risk":4,"arthritis_risk":5,"migraine_risk":3,"frizz_risk":0,"updated_at":"2026-03-14T16:57:19.503660+05:30"},{"city":"Nainital","state":"Uttarakhand","latitude":29.3919,"longitude":79.4542,"temp":20.8,"humidity":51,"rain":0.0,"pressure":806.5,"uv_index":6.15,"wind_gusts":34.9,"aqi":85,"pm10":39.6,"pm2_5":23.2,"mosquito_risk":0,"arthritis_risk":5,"migraine_risk":7,"frizz_risk":0,"updated_at":"2026-03-14T16:57:19.503666+05:30"},{"city":"Mussoorie","state":"Uttarakhand","latitude":30.4599,"longitude":78.0664,"temp":20.1,"humidity":50,"rain":0.0,"pressure":803.2,"uv_index":4.9,"wind_gusts":25.2,"aqi":77,"pm10":28.1,"pm2_5":14.1,"mosquito_risk":0,"arthritis_risk":5,"migraine_risk":3,"frizz_risk":0,"updated_at":"2026-03-14T16:57:19.503673+05:30"},{"city":"Dharamshala","state":"Himachal Pradesh","latitude":32.219,"longitude":76.3234,"temp":22.7,"humidity":27,"rain":0.0,"pressure":868.7,"uv_index":5.45,"wind_gusts":17.6,"aqi":59,"pm10":23.9,"pm2_5":8.1,"mosquito_risk":0,"arthritis_risk":5,"migraine_risk":3,"frizz_risk":0,"updated_at":"2026-03-14T16:57:19.503680+05:30"},{"city":"Dalhousie","state":"Himachal Pradesh","latitude":32.5387,"longitude":75.971,"temp":20.5,"humidity":27,"rain":0.0,"pressure":804.0,"uv_index":6.05,"wind_gusts":18.7,"aqi":66,"pm10":22.2,"pm2_5":10.1,"mosquito_risk":0,"arthritis_risk":5,"migraine_risk":7,"frizz_risk":0,"updated_at":"2026-03-14T16:57:19.503687+05:30"},{"city":"Patiala","state":"Punjab","latitude":30.3398,"longitude":76.3869,"temp":27.6,"humidity":28,"rain":0.0,"pressure":977.8,"uv_index":5.45,"wind_gusts":27.0,"aqi":273,"pm10":242.1,"pm2_5":34.5,"mosquito_risk":4,"arthritis_risk":5,"migraine_risk":3,"frizz_risk":0,"updated_at":"2026-03-14T16:57:19.503694+05:30"},{"city":"Bhatinda","state":"Punjab","latitude":30.211,"longitude":74.9455,"temp":30.0,"humidity":32,"rain":0.0,"pressure":983.1,"uv_index":6.15,"wind_gusts":22.0,"aqi":86,"pm10":18.3,"pm2_5":15.1,"mosquito_risk":4,"arthritis_risk":5,"migraine_risk":7,"frizz_risk":0,"updated_at":"2026-03-14T16:57:19.503700+05:30"},{"city":"Rohtak","state":"Haryana","latitude":28.8955,"longitude":76.6066,"temp":30.6,"humidity":29,"rain":0.0,"pressure":981.3,"uv_index":5.9,"wind_gusts":22.0,"aqi":500,"pm10":360.4,"pm2_5":44.4,"mosquito_risk":0,"arthritis_risk":5,"migraine_risk":3,"frizz_risk":0,"updated_at":"2026-03-14T16:57:19.503706+05:30"},{"city":"Panipat","state":"Haryana","latitude":29.3909,"longitude":76.9635,"temp":29.9,"humidity":31,"rain":0.0,"pressure":979.7,"uv_index":5.6,"wind_gusts":23.0,"aqi":924,"pm10":545.8,"pm2_5":61.2,"mosquito_risk":4,"arthritis_risk":5,"migraine_risk":3,"frizz_risk":0,"updated_at":"2026-03-14T16:57:19.503712+05:30"},{"city":"Mathura","state":"Uttar Pradesh","latitude":27.4924,"longitude":77.6737,"temp":31.2,"humidity":24,"rain":0.0,"pressure":986.2,"uv_index":5.95,"wind_gusts":29.2,"aqi":685,"pm10":463.8,"pm2_5":65.0,"mosquito_risk":0,"arthritis_risk":5,"migraine_risk":3,"frizz_risk":0,"updated_at":"2026-03-14T16:57:19.503719+05:30"},{"city":"Vrindavan","state":"Uttar Pradesh","latitude":27.5823,"longitude":77.7027,"temp":30.1,"humidity":25,"rain":0.0,"pressure":987.0,"uv_index":5.9,"wind_gusts":35.3,"aqi":685,"pm10":463.8,"pm2_5":65.0,"mosquito_risk":0,"arthritis_risk":5,"migraine_risk":3,"frizz_risk":0,"updated_at":"2026-03-14T16:57:19.503726+05:30"},{"city":"Ayodhya","state":"Uttar Pradesh","latitude":26.7922,"longitude":82.1998,"temp":32.1,"humidity":35,"rain":0.0,"pressure":994.3,"uv_index":6.85,"wind_gusts":21.6,"aqi":153,"pm10":97.1,"pm2_5":38.0,"mosquito_risk":0,"arthritis_risk":5,"migraine_risk":7,"frizz_risk":0,"updated_at":"2026-03-14T16:57:19.503732+05:30"},{"city":"Ratlam","state":"Madhya Pradesh","latitude":23.3315,"longitude":75.0367,"temp":34.7,"humidity":16,"rain":0.0,"pressure":953.8,"uv_index":7.65,"wind_gusts":39.6,"aqi":90,"pm10":21.9,"pm2_5":14.3,"mosquito_risk":0,"arthritis_risk":5,"migraine_risk":7,"frizz_risk":0,"updated_at":"2026-03-14T16:57:19.503738+05:30"},{"city":"Sagar","state":"Madhya Pradesh","latitude":23.8388,"longitude":78.7378,"temp":34.3,"humidity":20,"rain":0.0,"pressure":949.2,"uv_index":7.6,"wind_gusts":34.2,"aqi":105,"pm10":18.9,"pm2_5":15.9,"mosquito_risk":0,"arthritis_risk":5,"migraine_risk":7,"frizz_risk":0,"updated_at":"2026-03-14T16:57:19.503744+05:30"},{"city":"Satna","state":"Madhya Pradesh","latitude":24.6005,"longitude":80.8322,"temp":36.2,"humidity":15,"rain":0.0,"pressure":969.9,"uv_index":7.6,"wind_gusts":26.3,"aqi":100,"pm10":50.4,"pm2_5":18.8,"mosquito_risk":0,"arthritis_risk":5,"migraine_risk":10,"frizz_risk":0,"updated_at":"2026-03-14T16:57:19.503750+05:30"},{"city":"Akola","state":"Maharashtra","latitude":20.7002,"longitude":77.0082,"temp":37.9,"humidity":15,"rain":0.0,"pressure":973.4,"uv_index":8.1,"wind_gusts":17.3,"aqi":130,"pm10":24.7,"pm2_5":21.5,"mosquito_risk":0,"arthritis_risk":5,"migraine_risk":10,"frizz_risk":0,"updated_at":"2026-03-14T16:57:19.503757+05:30"},{"city":"Amravati","state":"Maharashtra","latitude":20.9374,"longitude":77.7796,"temp":37.8,"humidity":13,"rain":0.0,"pressure":965.8,"uv_index":8.05,"wind_gusts":22.3,"aqi":129,"pm10":23.4,"pm2_5":20.7,"mosquito_risk":0,"arthritis_risk":5,"migraine_risk":10,"frizz_risk":0,"updated_at":"2026-03-14T16:57:19.503765+05:30"},{"city":"Latur","state":"Maharashtra","latitude":18.4088,"longitude":76.5604,"temp":33.5,"humidity":25,"rain":0.0,"pressure":939.3,"uv_index":8.5,"wind_gusts":26.6,"aqi":133,"pm10":41.7,"pm2_5":33.4,"mosquito_risk":0,"arthritis_risk":5,"migraine_risk":7,"frizz_risk":0,"updated_at":"2026-03-14T16:57:19.503771+05:30"},{"city":"Nanded","state":"Maharashtra","latitude":19.1383,"longitude":77.3091,"temp":37.3,"humidity":19,"rain":0.0,"pressure":967.1,"uv_index":8.3,"wind_gusts":31.0,"aqi":146,"pm10":47.4,"pm2_5":37.7,"mosquito_risk":0,"arthritis_risk":5,"migraine_risk":10,"frizz_risk":0,"updated_at":"2026-03-14T16:57:19.503777+05:30"},{"city":"Gulbarga","state":"Karnataka","latitude":17.3297,"longitude":76.8343,"temp":36.5,"humidity":18,"rain":0.0,"pressure":957.4,"uv_index":8.6,"wind_gusts":38.9,"aqi":138,"pm10":43.9,"pm2_5":34.5,"mosquito_risk":0,"arthritis_risk":5,"migraine_risk":10,"frizz_risk":0,"updated_at":"2026-03-14T16:57:19.503783+05:30"},{"city":"Bidar","state":"Karnataka","latitude":17.9104,"longitude":77.5199,"temp":34.0,"humidity":24,"rain":0.0,"pressure":935.2,"uv_index":8.55,"wind_gusts":37.1,"aqi":138,"pm10":44.0,"pm2_5":32.2,"mosquito_risk":0,"arthritis_risk":5,"migraine_risk":7,"frizz_risk":0,"updated_at":"2026-03-14T16:57:19.503789+05:30"},{"city":"Hospet","state":"Karnataka","latitude":15.2689,"longitude":76.3909,"temp":34.3,"humidity":31,"rain":0.0,"pressure":955.0,"uv_index":8.85,"wind_gusts":28.1,"aqi":132,"pm10":44.6,"pm2_5":35.7,"mosquito_risk":0,"arthritis_risk":5,"migraine_risk":7,"frizz_risk":0,"updated_at":"2026-03-14T16:57:19.503795+05:30"},{"city":"Tirupur","state":"Tamil Nadu","latitude":11.1085,"longitude":77.3411,"temp":35.6,"humidity":18,"rain":0.0,"pressure":974.3,"uv_index":9.3,"wind_gusts":30.2,"aqi":68,"pm10":19.7,"pm2_5":15.3,"mosquito_risk":0,"arthritis_risk":5,"migraine_risk":10,"frizz_risk":0,"updated_at":"2026-03-14T16:57:19.503800+05:30"},{"city":"Alappuzha","state":"Kerala","latitude":9.4981,"longitude":76.3388,"temp":28.7,"humidity":77,"rain":0.0,"pressure":1007.8,"uv_index":9.1,"wind_gusts":28.4,"aqi":108,"pm10":16.4,"pm2_5":14.8,"mosquito_risk":7,"arthritis_risk":5,"migraine_risk":4,"frizz_risk":1,"updated_at":"2026-03-14T16:57:19.503806+05:30"},{"city":"Munnar","state":"Kerala","latitude":10.0889,"longitude":77.0595,"temp":26.5,"humidity":57,"rain":0.0,"pressure":858.0,"uv_index":9.55,"wind_gusts":28.8,"aqi":57,"pm10":10.8,"pm2_5":9.2,"mosquito_risk":4,"arthritis_risk":5,"migraine_risk":7,"frizz_risk":1,"updated_at":"2026-03-14T16:57:19.503812+05:30"},{"city":"Silchar","state":"Assam","latitude":24.8333,"longitude":92.7789,"temp":21.6,"humidity":86,"rain":0.0,"pressure":1008.4,"uv_index":7.75,"wind_gusts":39.6,"aqi":110,"pm10":43.7,"pm2_5":31.9,"mosquito_risk":3,"arthritis_risk":0,"migraine_risk":4,"frizz_risk":1,"updated_at":"2026-03-14T16:57:19.503819+05:30"},{"city":"Dibrugarh","state":"Assam","latitude":27.4728,"longitude":94.912,"temp":20.7,"humidity":86,"rain":0.0,"pressure":998.1,"uv_index":4.45,"wind_gusts":22.0,"aqi":91,"pm10":36.7,"pm2_5":30.7,"mosquito_risk":3,"arthritis_risk":5,"migraine_risk":3,"frizz_risk":1,"updated_at":"2026-03-14T16:57:19.503825+05:30"}]