[{"city":"Delhi","state":"Delhi","latitude":28.6139,"longitude":77.209,"temp":23.1,"humidity":65,"rain":0.0,"pressure":986.9,"uv_index":5.85,"wind_gusts":32.8,"aqi":287,"pm10":614.7,"pm2_5":112.5,"mosquito_risk":3,"arthritis_risk":5,"migraine_risk":3,"frizz_risk":1,"updated_at":"2026-03-04T22:22:29.764710+05:30"},{"city":"Mumbai","state":"Maharashtra","latitude":19.076,"longitude":72.8777,"temp":29.1,"humidity":62,"rain":0.0,"pressure":1010.6,"uv_index":7.35,"wind_gusts":24.5,"aqi":205,"pm10":35.0,"pm2_5":33.8,"mosquito_risk":7,"arthritis_risk":0,"migraine_risk":4,"frizz_risk":1,"updated_at":"2026-03-04T22:22:29.764754+05:30"},{"city":"Bangalore","state":"Karnataka","latitude":12.9716,"longitude":77.5946,"temp":23.7,"humidity":46,"rain":0.0,"pressure":914.5,"uv_index":9.1,"wind_gusts":35.3,"aqi":111,"pm10":28.6,"pm2_5":27.9,"mosquito_risk":0,"arthritis_risk":5,"migraine_risk":7,"frizz_risk":0,"updated_at":"2026-03-04T22:22:29.764770+05:30"},{"city":"Hyderabad","state":"Telangana","latitude":17.385,"longitude":78.4867,"temp":25.3,"humidity":56,"rain":0.0,"pressure":956.4,"uv_index":8.4,"wind_gusts":25.6,"aqi":121,"pm10":37.8,"pm2_5":35.6,"mosquito_risk":4,"arthritis_risk":5,"migraine_risk":7,"frizz_risk":0,"updated_at":"2026-03-04T22:22:29.764780+05:30"},{"city":"Chennai","state":"Tamil Nadu","latitude":13.0827,"longitude":80.2707,"temp":25.5,"humidity":86,"rain":0.0,"pressure":1010.9,"uv_index":8.8,"wind_gusts":29.5,"aqi":96,"pm10":20.3,"pm2_5":17.9,"mosquito_risk":7,"arthritis_risk":0,"migraine_risk":4,"frizz_risk":1,"updated_at":"2026-03-04T22:22:29.764789+05:30"},{"city":"Kolkata","state":"West Bengal","latitude":22.5726,"longitude":88.3639,"temp":23.8,"humidity":60,"rain":0.0,"pressure":1008.7,"uv_index":7.75,"wind_gusts":18.7,"aqi":167,"pm10":136.9,"pm2_5":102.7,"mosquito_risk":0,"arthritis_risk":0,"migraine_risk":4,"frizz_risk":0,"updated_at":"2026-03-04T22:22:29.764798+05:30"},{"city":"Pune","state":"Maharashtra","latitude":18.5204,"longitude":73.8567,"temp":26.4,"humidity":47,"rain":0.0,"pressure":951.3,"uv_index":7.95,"wind_gusts":30.2,"aqi":120,"pm10":22.9,"pm2_5":22.5,"mosquito_risk":4,"arthritis_risk":5,"migraine_risk":7,"frizz_risk":0,"updated_at":"2026-03-04T22:22:29.764810+05:30"},{"city":"Ahmedabad","state":"Gujarat","latitude":23.0225,"longitude":72.5714,"temp":26.8,"humidity":35,"rain":0.0,"pressure":1006.1,"uv_index":7.2,"wind_gusts":19.8,"aqi":79,"pm10":30.2,"pm2_5":27.3,"mosquito_risk":4,"arthritis_risk":5,"migraine_risk":4,"frizz_risk":0,"updated_at":"2026-03-04T22:22:29.764818+05:30"},{"city":"Jaipur","state":"Rajasthan","latitude":26.9124,"longitude":75.7873,"temp":27.1,"humidity":24,"rain":0.0,"pressure":964.5,"uv_index":6.6,"wind_gusts":32.0,"aqi":93,"pm10":84.5,"pm2_5":38.2,"mosquito_risk":4,"arthritis_risk":5,"migraine_risk":7,"frizz_risk":0,"updated_at":"2026-03-04T22:22:29.764826+05:30"},{"city":"Lucknow","state":"Uttar Pradesh","latitude":26.8467,"longitude":80.9462,"temp":22.9,"humidity":70,"rain":0.0,"pressure":997.5,"uv_index":6.35,"wind_gusts":24.8,"aqi":159,"pm10":176.0,"pm2_5":78.7,"mosquito_risk":3,"arthritis_risk":5,"migraine_risk":7,"frizz_risk":1,"updated_at":"2026-03-04T22:22:29.764834+05:30"},{"city":"Kanpur","state":"Uttar Pradesh","latitude":26.4499,"longitude":80.3319,"temp":22.7,"humidity":67,"rain":0.0,"pressure":995.7,"uv_index":6.35,"wind_gusts":27.0,"aqi":176,"pm10":279.4,"pm2_5":84.1,"mosquito_risk":3,"arthritis_risk":5,"migraine_risk":7,"frizz_risk":1,"updated_at":"2026-03-04T22:22:29.764841+05:30"},{"city":"Chandigarh","state":"Chandigarh","latitude":30.7333,"longitude":76.7794,"temp":20.4,"humidity":75,"rain":0.0,"pressure":972.3,"uv_index":5.75,"wind_gusts":34.9,"aqi":117,"pm10":41.9,"pm2_5":38.3,"mosquito_risk":3,"arthritis_risk":5,"migraine_risk":3,"frizz_risk":0,"updated_at":"2026-03-04T22:22:29.764848+05:30"},{"city":"Srinagar","state":"Jammu and Kashmir","latitude":34.0837,"longitude":74.7973,"temp":9.5,"humidity":80,"rain":0.0,"pressure":843.7,"uv_index":6.15,"wind_gusts":14.8,"aqi":149,"pm10":122.9,"pm2_5":94.8,"mosquito_risk":3,"arthritis_risk":5,"migraine_risk":7,"frizz_risk":0,"updated_at":"2026-03-04T22:22:29.764855+05:30"},{"city":"Jammu","state":"Jammu and Kashmir","latitude":32.7266,"longitude":74.857,"temp":22.7,"humidity":61,"rain":0.0,"pressure":976.4,"uv_index":6.35,"wind_gusts":22.3,"aqi":105,"pm10":69.4,"pm2_5":56.0,"mosquito_risk":3,"arthritis_risk":5,"migraine_risk":7,"frizz_risk":0,"updated_at":"2026-03-04T22:22:29.764862+05:30"},{"city":"Amritsar","state":"Punjab","latitude":31.634,"longitude":74.8723,"temp":20.9,"humidity":70,"rain":0.0,"pressure":984.5,"uv_index":6.3,"wind_gusts":22.0,"aqi":151,"pm10":71.2,"pm2_5":55.9,"mosquito_risk":3,"arthritis_risk":5,"migraine_risk":7,"frizz_risk":0,"updated_at":"2026-03-04T22:22:29.764868+05:30"},{"city":"Ludhiana","state":"Punjab","latitude":30.901,"longitude":75.8573,"temp":22.7,"humidity":74,"rain":0.0,"pressure":982.9,"uv_index":5.95,"wind_gusts":28.8,"aqi":154,"pm10":103.6,"pm2_5":75.2,"mosquito_risk":3,"arthritis_risk":5,"migraine_risk":3,"frizz_risk":1,"updated_at":"2026-03-04T22:22:29.764874+05:30"},{"city":"Jalandhar","state":"Punjab","latitude":31.326,"longitude":75.5762,"temp":21.9,"humidity":70,"rain":0.0,"pressure":983.9,"uv_index":6.15,"wind_gusts":27.0,"aqi":155,"pm10":98.7,"pm2_5":75.0,"mosquito_risk":3,"arthritis_risk":5,"migraine_risk":7,"frizz_risk":1,"updated_at":"2026-03-04T22:22:29.764882+05:30"},{"city":"Dehradun","state":"Uttarakhand","latitude":30.6284,"longitude":78.0322,"temp":13.6,"humidity":76,"rain":0.0,"pressure":831.2,"uv_index":6.1,"wind_gusts":29.2,"aqi":87,"pm10":30.6,"pm2_5":23.1,"mosquito_risk":3,"arthritis_risk":5,"migraine_risk":7,"frizz_risk":0,"updated_at":"2026-03-04T22:22:29.764889+05:30"},{"city":"Shimla","state":"Himachal Pradesh","latitude":31.1048,"longitude":77.1734,"temp":14.4,"humidity":45,"rain":0.0,"pressure":787.2,"uv_index":6.15,"wind_gusts":50.4,"aqi":90,"pm10":34.2,"pm2_5":24.9,"mosquito_risk":0,"arthritis_risk":5,"migraine_risk":7,"frizz_risk":0,"updated_at":"2026-03-04T22:22:29.764896+05:30"},{"city":"Manali","state":"Himachal Pradesh","latitude":32.2396,"longitude":77.1887,"temp":18.2,"humidity":28,"rain":0.0,"pressure":824.3,"uv_index":7.75,"wind_gusts":32.8,"aqi":92,"pm10":29.5,"pm2_5":16.6,"mosquito_risk":0,"arthritis_risk":5,"migraine_risk":7,"frizz_risk":1,"updated_at":"2026-03-04T22:22:29.764904+05:30"},{"city":"Gurgaon","state":"Haryana","latitude":28.4595,"longitude":77.0266,"temp":20.2,"humidity":76,"rain":0.0,"pressure":985.4,"uv_index":5.95,"wind_gusts":31.0,"aqi":1183,"pm10":1411.9,"pm2_5":185.3,"mosquito_risk":3,"arthritis_risk":5,"migraine_risk":3,"frizz_risk":0,"updated_at":"2026-03-04T22:22:29.764912+05:30"},{"city":"Noida","state":"Uttar Pradesh","latitude":28.5355,"longitude":77.391,"temp":23.4,"humidity":63,"rain":0.0,"pressure":988.4,"uv_index":5.85,"wind_gusts":32.0,"aqi":1183,"pm10":1411.9,"pm2_5":185.3,"mosquito_risk":3,"arthritis_risk":5,"migraine_risk":3,"frizz_risk":0,"updated_at":"2026-03-04T22:22:29.764919+05:30"},{"city":"Ghaziabad","state":"Uttar Pradesh","latitude":28.6692,"longitude":77.4538,"temp":22.8,"humidity":68,"rain":0.0,"pressure":986.5,"uv_index":5.8,"wind_gusts":29.5,"aqi":193,"pm10":556.9,"pm2_5":107.6,"mosquito_risk":3,"arthritis_risk":5,"migraine_risk":3,"frizz_risk":1,"updated_at":"2026-03-04T22:22:29.764926+05:30"},{"city":"Faridabad","state":"Haryana","latitude":28.4089,"longitude":77.3178,"temp":23.4,"humidity":57,"rain":0.0,"pressure":987.7,"uv_index":5.9,"wind_gusts":29.9,"aqi":1183,"pm10":1411.9,"pm2_5":185.3,"mosquito_risk":0,"arthritis_risk":5,"migraine_risk":3,"frizz_risk":0,"updated_at":"2026-03-04T22:22:29.764932+05:30"},{"city":"Meerut","state":"Uttar Pradesh","latitude":28.9845,"longitude":77.7064,"temp":20.9,"humidity":78,"rain":0.0,"pressure":985.1,"uv_index":5.7,"wind_gusts":32.0,"aqi":193,"pm10":556.9,"pm2_5":107.6,"mosquito_risk":3,"arthritis_risk":5,"migraine_risk":3,"frizz_risk":1,"updated_at":"2026-03-04T22:22:29.764938+05:30"},{"city":"Agra","state":"Uttar Pradesh","latitude":27.1767,"longitude":78.0081,"temp":21.6,"humidity":61,"rain":0.0,"pressure":991.5,"uv_index":6.2,"wind_gusts":32.8,"aqi":424,"pm10":622.1,"pm2_5":96.6,"mosquito_risk":3,"arthritis_risk":5,"migraine_risk":7,"frizz_risk":0,"updated_at":"2026-03-04T22:22:29.764944+05:30"},{"city":"Varanasi","state":"Uttar Pradesh","latitude":25.3176,"longitude":82.9739,"temp":21.5,"humidity":76,"rain":0.0,"pressure":1001.3,"uv_index":7.0,"wind_gusts":18.4,"aqi":153,"pm10":173.7,"pm2_5":88.5,"mosquito_risk":3,"arthritis_risk":5,"migraine_risk":4,"frizz_risk":1,"updated_at":"2026-03-04T22:22:29.764953+05:30"},{"city":"Prayagraj","state":"Uttar Pradesh","latitude":25.4358,"longitude":81.8463,"temp":23.2,"humidity":65,"rain":0.0,"pressure":999.8,"uv_index":6.85,"wind_gusts":23.4,"aqi":154,"pm10":111.8,"pm2_5":67.3,"mosquito_risk":3,"arthritis_risk":5,"migraine_risk":7,"frizz_risk":1,"updated_at":"2026-03-04T22:22:29.764960+05:30"},{"city":"Gorakhpur","state":"Uttar Pradesh","latitude":26.7606,"longitude":83.3732,"temp":21.7,"humidity":72,"rain":0.0,"pressure":1000.9,"uv_index":6.7,"wind_gusts":12.2,"aqi":166,"pm10":165.8,"pm2_5":124.3,"mosquito_risk":3,"arthritis_risk":5,"migraine_risk":4,"frizz_risk":1,"updated_at":"2026-03-04T22:22:29.764966+05:30"},{"city":"Bareilly","state":"Uttar Pradesh","latitude":28.367,"longitude":79.4304,"temp":20.5,"humidity":78,"rain":0.0,"pressure":990.6,"uv_index":6.05,"wind_gusts":20.5,"aqi":162,"pm10":105.0,"pm2_5":86.1,"mosquito_risk":3,"arthritis_risk":5,"migraine_risk":7,"frizz_risk":1,"updated_at":"2026-03-04T22:22:29.764972+05:30"},{"city":"Aligarh","state":"Uttar Pradesh","latitude":27.8974,"longitude":78.088,"temp":20.9,"humidity":68,"rain":0.0,"pressure":989.3,"uv_index":5.95,"wind_gusts":28.8,"aqi":612,"pm10":929.5,"pm2_5":156.9,"mosquito_risk":3,"arthritis_risk":5,"migraine_risk":3,"frizz_risk":0,"updated_at":"2026-03-04T22:22:29.764979+05:30"},{"city":"Moradabad","state":"Uttar Pradesh","latitude":28.8386,"longitude":78.7733,"temp":20.4,"humidity":81,"rain":0.0,"pressure":987.4,"uv_index":5.85,"wind_gusts":23.4,"aqi":158,"pm10":223.5,"pm2_5":97.3,"mosquito_risk":3,"arthritis_risk":5,"migraine_risk":3,"frizz_risk":1,"updated_at":"2026-03-04T22:22:29.764987+05:30"},{"city":"Saharanpur","state":"Uttar Pradesh","latitude":29.9637,"longitude":77.546,"temp":20.3,"humidity":81,"rain":0.0,"pressure":979.1,"uv_index":5.5,"wind_gusts":39.2,"aqi":151,"pm10":158.8,"pm2_5":63.1,"mosquito_risk":3,"arthritis_risk":5,"migraine_risk":3,"frizz_risk":1,"updated_at":"2026-03-04T22:22:29.764993+05:30"},{"city":"Jhansi","state":"Uttar Pradesh","latitude":25.4484,"longitude":78.5685,"temp":24.6,"humidity":44,"rain":0.0,"pressure":982.0,"uv_index":6.8,"wind_gusts":31.7,"aqi":63,"pm10":35.9,"pm2_5":27.1,"mosquito_risk":0,"arthritis_risk":5,"migraine_risk":7,"frizz_risk":0,"updated_at":"2026-03-04T22:22:32.977061+05:30"},{"city":"Surat","state":"Gujarat","latitude":21.1702,"longitude":72.8311,"temp":27.1,"humidity":47,"rain":0.0,"pressure":1009.6,"uv_index":7.05,"wind_gusts":27.7,"aqi":141,"pm10":48.0,"pm2_5":45.1,"mosquito_risk":4,"arthritis_risk":0,"migraine_risk":4,"frizz_risk":0,"updated_at":"2026-03-04T22:22:32.977089+05:30"},{"city":"Vadodara","state":"Gujarat","latitude":22.3072,"longitude":73.1812,"temp":27.1,"humidity":55,"rain":0.0,"pressure":1007.9,"uv_index":7.2,"wind_gusts":18.7,"aqi":144,"pm10":48.8,"pm2_5":44.7,"mosquito_risk":4,"arthritis_risk":5,"migraine_risk":4,"frizz_risk":1,"updated_at":"2026-03-04T22:22:32.977099+05:30"},{"city":"Rajkot","state":"Gujarat","latitude":22.3039,"longitude":70.8022,"temp":26.2,"humidity":46,"rain":0.0,"pressure":998.9,"uv_index":7.0,"wind_gusts":25.9,"aqi":105,"pm10":26.6,"pm2_5":25.4,"mosquito_risk":4,"arthritis_risk":5,"migraine_risk":7,"frizz_risk":0,"updated_at":"2026-03-04T22:22:32.977106+05:30"},{"city":"Thane","state":"Maharashtra","latitude":19.2183,"longitude":72.9781,"temp":28.6,"humidity":46,"rain":0.0,"pressure":1010.0,"uv_index":7.35,"wind_gusts":35.3,"aqi":205,"pm10":35.0,"pm2_5":33.8,"mosquito_risk":4,"arthritis_risk":0,"migraine_risk":4,"frizz_risk":0,"updated_at":"2026-03-04T22:22:32.977112+05:30"},{"city":"Nagpur","state":"Maharashtra","latitude":21.1458,"longitude":79.0882,"temp":26.0,"humidity":47,"rain":0.0,"pressure":976.5,"uv_index":7.75,"wind_gusts":23.0,"aqi":73,"pm10":41.2,"pm2_5":36.3,"mosquito_risk":4,"arthritis_risk":5,"migraine_risk":7,"frizz_risk":0,"updated_at":"2026-03-04T22:22:32.977119+05:30"},{"city":"Nashik","state":"Maharashtra","latitude":19.9975,"longitude":73.7898,"temp":25.3,"humidity":44,"rain":0.0,"pressure":948.7,"uv_index":7.55,"wind_gusts":23.4,"aqi":116,"pm10":29.7,"pm2_5":29.0,"mosquito_risk":4,"arthritis_risk":5,"migraine_risk":7,"frizz_risk":0,"updated_at":"2026-03-04T22:22:32.977126+05:30"},{"city":"Aurangabad","state":"Maharashtra","latitude":19.8762,"longitude":75.3433,"temp":25.2,"humidity":41,"rain":0.0,"pressure":947.0,"uv_index":8.05,"wind_gusts":22.7,"aqi":128,"pm10":31.1,"pm2_5":30.5,"mosquito_risk":4,"arthritis_risk":5,"migraine_risk":7,"frizz_risk":0,"updated_at":"2026-03-04T22:22:32.977132+05:30"},{"city":"Solapur","state":"Maharashtra","latitude":17.6599,"longitude":75.9064,"temp":26.0,"humidity":54,"rain":0.0,"pressure":959.5,"uv_index":8.3,"wind_gusts":18.0,"aqi":129,"pm10":22.2,"pm2_5":21.3,"mosquito_risk":4,"arthritis_risk":5,"migraine_risk":7,"frizz_risk":0,"updated_at":"2026-03-04T22:22:32.977139+05:30"},{"city":"Kolhapur","state":"Maharashtra","latitude":16.705,"longitude":74.2433,"temp":23.5,"humidity":70,"rain":0.0,"pressure":950.7,"uv_index":8.45,"wind_gusts":37.8,"aqi":155,"pm10":58.8,"pm2_5":58.2,"mosquito_risk":3,"arthritis_risk":5,"migraine_risk":7,"frizz_risk":1,"updated_at":"2026-03-04T22:22:32.977146+05:30"},{"city":"Goa","state":"Goa","latitude":15.2993,"longitude":74.124,"temp":27.6,"humidity":86,"rain":0.0,"pressure":1001.0,"uv_index":8.5,"wind_gusts":35.6,"aqi":116,"pm10":48.2,"pm2_5":43.4,"mosquito_risk":7,"arthritis_risk":5,"migraine_risk":4,"frizz_risk":1,"updated_at":"2026-03-04T22:22:32.977152+05:30"},{"city":"Jodhpur","state":"Rajasthan","latitude":26.2389,"longitude":73.0243,"temp":26.4,"humidity":39,"rain":0.0,"pressure":987.7,"uv_index":6.9,"wind_gusts":18.0,"aqi":82,"pm10":78.0,"pm2_5":33.2,"mosquito_risk":4,"arthritis_risk":5,"migraine_risk":7,"frizz_risk":0,"updated_at":"2026-03-04T22:22:32.977158+05:30"},{"city":"Udaipur","state":"Rajasthan","latitude":24.5854,"longitude":73.7125,"temp":23.0,"humidity":43,"rain":0.0,"pressure":951.4,"uv_index":7.5,"wind_gusts":23.8,"aqi":82,"pm10":32.5,"pm2_5":20.6,"mosquito_risk":0,"arthritis_risk":5,"migraine_risk":7,"frizz_risk":0,"updated_at":"2026-03-04T22:22:32.977164+05:30"},{"city":"Kota","state":"Rajasthan","latitude":25.2138,"longitude":75.8648,"temp":25.3,"humidity":45,"rain":0.0,"pressure":983.3,"uv_index":6.9,"wind_gusts":17.6,"aqi":82,"pm10":53.7,"pm2_5":37.4,"mosquito_risk":4,"arthritis_risk":5,"migraine_risk":7,"frizz_risk":0,"updated_at":"2026-03-04T22:22:32.977171+05:30"},{"city":"Bikaner","state":"Rajasthan","latitude":28.0229,"longitude":73.3119,"temp":26.0,"humidity":38,"rain":0.0,"pressure":986.8,"uv_index":6.55,"wind_gusts":23.8,"aqi":67,"pm10":56.9,"pm2_5":20.7,"mosquito_risk":4,"arthritis_risk":5,"migraine_risk":7,"frizz_risk":0,"updated_at":"2026-03-04T22:22:32.977177+05:30"},{"city":"Ajmer","state":"Rajasthan","latitude":26.4499,"longitude":74.6399,"temp":24.8,"humidity":35,"rain":0.0,"pressure":959.2,"uv_index":6.85,"wind_gusts":23.4,"aqi":71,"pm10":64.0,"pm2_5":27.5,"mosquito_risk":0,"arthritis_risk":5,"migraine_risk":7,"frizz_risk":0,"updated_at":"2026-03-04T22:22:32.977183+05:30"},{"city":"Gwalior","state":"Madhya Pradesh","latitude":26.2183,"longitude":78.1828,"temp":23.7,"humidity":55,"rain":0.0,"pressure":987.2,"uv_index":6.5,"wind_gusts":29.2,"aqi":80,"pm10":70.3,"pm2_5":33.6,"mosquito_risk":0,"arthritis_risk":5,"migraine_risk":7,"frizz_risk":0,"updated_at":"2026-03-04T22:22:32.977189+05:30"},{"city":"Indore","state":"Madhya Pradesh","latitude":22.7196,"longitude":75.8577,"temp":23.5,"humidity":50,"rain":0.0,"pressure":951.8,"uv_index":7.45,"wind_gusts":20.5,"aqi":80,"pm10":38.0,"pm2_5":31.2,"mosquito_risk":0,"arthritis_risk":5,"migraine_risk":7,"frizz_risk":0,"updated_at":"2026-03-04T22:22:32.977194+05:30"},{"city":"Bhopal","state":"Madhya Pradesh","latitude":23.2599,"longitude":77.4126,"temp":22.7,"humidity":43,"rain":0.0,"pressure":957.7,"uv_index":7.3,"wind_gusts":23.0,"aqi":68,"pm10":26.7,"pm2_5":22.2,"mosquito_risk":0,"arthritis_risk":5,"migraine_risk":7,"frizz_risk":0,"updated_at":"2026-03-04T22:22:32.977201+05:30"},{"city":"Jabalpur","state":"Madhya Pradesh","latitude":23.1815,"longitude":79.9864,"temp":24.5,"humidity":39,"rain":0.0,"pressure":965.1,"uv_index":7.45,"wind_gusts":23.4,"aqi":68,"pm10":26.6,"pm2_5":18.7,"mosquito_risk":0,"arthritis_risk":5,"migraine_risk":7,"frizz_risk":0,"updated_at":"2026-03-04T22:22:32.977207+05:30"},{"city":"Ujjain","state":"Madhya Pradesh","latitude":23.1765,"longitude":75.7885,"temp":24.0,"humidity":45,"rain":0.0,"pressure":957.7,"uv_index":7.35,"wind_gusts":19.4,"aqi":106,"pm10":59.0,"pm2_5":50.2,"mosquito_risk":0,"arthritis_risk":5,"migraine_risk":7,"frizz_risk":0,"updated_at":"2026-03-04T22:22:32.977213+05:30"},{"city":"Visakhapatnam","state":"Andhra Pradesh","latitude":17.6868,"longitude":83.2185,"temp":25.0,"humidity":81,"rain":0.0,"pressure":1006.5,"uv_index":8.4,"wind_gusts":36.7,"aqi":131,"pm10":33.2,"pm2_5":29.6,"mosquito_risk":7,"arthritis_risk":5,"migraine_risk":4,"frizz_risk":1,"updated_at":"2026-03-04T22:22:32.977220+05:30"},{"city":"Vijayawada","state":"Andhra Pradesh","latitude":16.5062,"longitude":80.648,"temp":25.4,"humidity":74,"rain":0.0,"pressure":1005.8,"uv_index":8.45,"wind_gusts":22.3,"aqi":123,"pm10":31.3,"pm2_5":30.0,"mosquito_risk":7,"arthritis_risk":5,"migraine_risk":4,"frizz_risk":1,"updated_at":"2026-03-04T22:22:32.977225+05:30"},{"city":"Guntur","state":"Andhra Pradesh","latitude":16.3067,"longitude":80.4365,"temp":25.3,"humidity":80,"rain":0.0,"pressure":1007.2,"uv_index":8.45,"wind_gusts":25.2,"aqi":111,"pm10":34.9,"pm2_5":33.8,"mosquito_risk":7,"arthritis_risk":5,"migraine_risk":4,"frizz_risk":1,"updated_at":"2026-03-04T22:22:32.977231+05:30"},{"city":"Nellore","state":"Andhra Pradesh","latitude":14.4426,"longitude":79.9865,"temp":25.0,"humidity":88,"rain":0.0,"pressure":1009.3,"uv_index":8.65,"wind_gusts":29.9,"aqi":101,"pm10":16.2,"pm2_5":14.1,"mosquito_risk":7,"arthritis_risk":0,"migraine_risk":4,"frizz_risk":1,"updated_at":"2026-03-04T22:22:32.977238+05:30"},{"city":"Kurnool","state":"Andhra Pradesh","latitude":15.8281,"longitude":78.0373,"temp":29.7,"humidity":42,"rain":0.0,"pressure":979.7,"uv_index":8.45,"wind_gusts":27.0,"aqi":116,"pm10":17.9,"pm2_5":17.3,"mosquito_risk":4,"arthritis_risk":5,"migraine_risk":7,"frizz_risk":0,"updated_at":"2026-03-04T22:22:32.977245+05:30"},{"city":"Kakinada","state":"Andhra Pradesh","latitude":16.9891,"longitude":82.2475,"temp":23.9,"humidity":86,"rain":0.0,"pressure":1010.4,"uv_index":8.4,"wind_gusts":33.8,"aqi":98,"pm10":30.2,"pm2_5":26.2,"mosquito_risk":3,"arthritis_risk":0,"migraine_risk":4,"frizz_risk":1,"updated_at":"2026-03-04T22:22:32.977251+05:30"},{"city":"Tirupati","state":"Andhra Pradesh","latitude":13.6288,"longitude":79.4192,"temp":25.6,"humidity":53,"rain":0.0,"pressure":995.4,"uv_index":8.8,"wind_gusts":34.6,"aqi":137,"pm10":40.7,"pm2_5":39.8,"mosquito_risk":4,"arthritis_risk":5,"migraine_risk":7,"frizz_risk":0,"updated_at":"2026-03-04T22:22:32.977257+05:30"},{"city":"Warangal","state":"Telangana","latitude":17.9689,"longitude":79.5941,"temp":27.6,"humidity":44,"rain":0.0,"pressure":981.4,"uv_index":8.2,"wind_gusts":20.5,"aqi":118,"pm10":35.6,"pm2_5":33.6,"mosquito_risk":4,"arthritis_risk":5,"migraine_risk":7,"frizz_risk":0,"updated_at":"2026-03-04T22:22:32.977263+05:30"},{"city":"Nizamabad","state":"Telangana","latitude":18.6725,"longitude":78.0941,"temp":24.0,"humidity":56,"rain":0.0,"pressure":967.6,"uv_index":8.1,"wind_gusts":26.3,"aqi":113,"pm10":36.2,"pm2_5":33.5,"mosquito_risk":0,"arthritis_risk":5,"migraine_risk":7,"frizz_risk":0,"updated_at":"2026-03-04T22:22:32.977268+05:30"},{"city":"Mysore","state":"Karnataka","latitude":12.2958,"longitude":76.6396,"temp":24.5,"humidity":40,"rain":0.0,"pressure":930.9,"uv_index":9.15,"wind_gusts":40.3,"aqi":102,"pm10":32.5,"pm2_5":31.5,"mosquito_risk":0,"arthritis_risk":5,"migraine_risk":7,"frizz_risk":0,"updated_at":"2026-03-04T22:22:32.977274+05:30"},{"city":"Mangalore","state":"Karnataka","latitude":12.9141,"longitude":74.856,"temp":28.7,"humidity":81,"rain":0.0,"pressure":1010.1,"uv_index":8.75,"wind_gusts":29.2,"aqi":93,"pm10":40.0,"pm2_5":34.9,"mosquito_risk":7,"arthritis_risk":0,"migraine_risk":4,"frizz_risk":1,"updated_at":"2026-03-04T22:22:32.977280+05:30"},{"city":"Hubli-Dharwad","state":"Karnataka","latitude":15.3647,"longitude":75.124,"temp":24.7,"humidity":65,"rain":0.0,"pressure":943.5,"uv_index":8.65,"wind_gusts":25.6,"aqi":150,"pm10":23.2,"pm2_5":22.8,"mosquito_risk":3,"arthritis_risk":5,"migraine_risk":7,"frizz_risk":1,"updated_at":"2026-03-04T22:22:32.977286+05:30"},{"city":"Belgaum","state":"Karnataka","latitude":15.8497,"longitude":74.4977,"temp":23.7,"humidity":79,"rain":0.0,"pressure":928.5,"uv_index":8.7,"wind_gusts":32.4,"aqi":149,"pm10":44.7,"pm2_5":43.9,"mosquito_risk":3,"arthritis_risk":5,"migraine_risk":7,"frizz_risk":1,"updated_at":"2026-03-04T22:22:36.202709+05:30"},{"city":"Coimbatore","state":"Tamil Nadu","latitude":11.0168,"longitude":76.9558,"temp":22.7,"humidity":66,"rain":0.0,"pressure":965.0,"uv_index":9.15,"wind_gusts":43.2,"aqi":122,"pm10":41.6,"pm2_5":40.5,"mosquito_risk":3,"arthritis_risk":5,"migraine_risk":7,"frizz_risk":0,"updated_at":"2026-03-04T22:22:36.202742+05:30"},{"city":"Madurai","state":"Tamil Nadu","latitude":9.9252,"longitude":78.1198,"temp":26.2,"humidity":72,"rain":0.0,"pressure":996.9,"uv_index":9.1,"wind_gusts":25.9,"aqi":89,"pm10":26.4,"pm2_5":25.8,"mosquito_risk":7,"arthritis_risk":5,"migraine_risk":7,"frizz_risk":1,"updated_at":"2026-03-04T22:22:36.202753+05:30"},{"city":"Trichy","state":"Tamil Nadu","latitude":10.7905,"longitude":78.7047,"temp":25.3,"humidity":81,"rain":0.0,"pressure":1003.5,"uv_index":9.0,"wind_gusts":31.0,"aqi":94,"pm10":21.9,"pm2_5":21.0,"mosquito_risk":7,"arthritis_risk":5,"migraine_risk":4,"frizz_risk":1,"updated_at":"2026-03-04T22:22:36.202764+05:30"},{"city":"Salem","state":"Tamil Nadu","latitude":11.6643,"longitude":78.146,"temp":26.3,"humidity":51,"rain":0.0,"pressure":980.5,"uv_index":9.0,"wind_gusts":37.8,"aqi":103,"pm10":25.0,"pm2_5":24.4,"mosquito_risk":4,"arthritis_risk":5,"migraine_risk":7,"frizz_risk":0,"updated_at":"2026-03-04T22:22:36.202773+05:30"},{"city":"Tirunelveli","state":"Tamil Nadu","latitude":8.7139,"longitude":77.7567,"temp":25.9,"humidity":80,"rain":0.0,"pressure":1006.9,"uv_index":9.15,"wind_gusts":36.0,"aqi":80,"pm10":20.0,"pm2_5":19.0,"mosquito_risk":7,"arthritis_risk":5,"migraine_risk":4,"frizz_risk":1,"updated_at":"2026-03-04T22:22:36.202782+05:30"},{"city":"Vellore","state":"Tamil Nadu","latitude":12.9165,"longitude":79.1325,"temp":24.9,"humidity":61,"rain":0.0,"pressure":988.5,"uv_index":8.85,"wind_gusts":38.9,"aqi":125,"pm10":35.2,"pm2_5":34.3,"mosquito_risk":3,"arthritis_risk":5,"migraine_risk":7,"frizz_risk":1,"updated_at":"2026-03-04T22:22:36.202790+05:30"},{"city":"Erode","state":"Tamil Nadu","latitude":11.341,"longitude":77.7172,"temp":27.6,"humidity":51,"rain":0.0,"pressure":992.1,"uv_index":9.05,"wind_gusts":29.9,"aqi":119,"pm10":30.7,"pm2_5":30.2,"mosquito_risk":4,"arthritis_risk":5,"migraine_risk":7,"frizz_risk":1,"updated_at":"2026-03-04T22:22:36.202799+05:30"},{"city":"Kochi","state":"Kerala","latitude":9.9312,"longitude":76.2673,"temp":27.9,"humidity":80,"rain":0.0,"pressure":1012.2,"uv_index":8.95,"wind_gusts":34.6,"aqi":100,"pm10":48.1,"pm2_5":46.9,"mosquito_risk":7,"arthritis_risk":0,"migraine_risk":4,"frizz_risk":1,"updated_at":"2026-03-04T22:22:36.202807+05:30"},{"city":"Thiruvananthapuram","state":"Kerala","latitude":8.5241,"longitude":76.9366,"temp":27.7,"humidity":78,"rain":0.0,"pressure":1011.2,"uv_index":9.0,"wind_gusts":27.4,"aqi":124,"pm10":22.3,"pm2_5":19.8,"mosquito_risk":7,"arthritis_risk":0,"migraine_risk":4,"frizz_risk":1,"updated_at":"2026-03-04T22:22:36.202816+05:30"},{"city":"Kozhikode","state":"Kerala","latitude":11.2588,"longitude":75.7804,"temp":28.8,"humidity":80,"rain":0.0,"pressure":1011.2,"uv_index":8.85,"wind_gusts":31.0,"aqi":93,"pm10":34.8,"pm2_5":30.0,"mosquito_risk":7,"arthritis_risk":0,"migraine_risk":4,"frizz_risk":1,"updated_at":"2026-03-04T22:22:36.202824+05:30"},{"city":"Thrissur","state":"Kerala","latitude":10.5276,"longitude":76.2144,"temp":26.9,"humidity":88,"rain":0.0,"pressure":1010.5,"uv_index":8.9,"wind_gusts":37.8,"aqi":115,"pm10":35.6,"pm2_5":33.8,"mosquito_risk":7,"arthritis_risk":0,"migraine_risk":4,"frizz_risk":1,"updated_at":"2026-03-04T22:22:36.202833+05:30"},{"city":"Kannur","state":"Kerala","latitude":11.8745,"longitude":75.3704,"temp":28.4,"humidity":79,"rain":0.0,"pressure":1010.5,"uv_index":8.8,"wind_gusts":33.5,"aqi":88,"pm10":41.3,"pm2_5":35.4,"mosquito_risk":7,"arthritis_risk":0,"migraine_risk":4,"frizz_risk":1,"updated_at":"2026-03-04T22:22:36.202841+05:30"},{"city":"Patna","state":"Bihar","latitude":25.5941,"longitude":85.1376,"temp":24.2,"humidity":63,"rain":0.0,"pressure":1004.0,"uv_index":7.2,"wind_gusts":15.5,"aqi":168,"pm10":141.1,"pm2_5":108.7,"mosquito_risk":3,"arthritis_risk":5,"migraine_risk":4,"frizz_risk":1,"updated_at":"2026-03-04T22:22:36.202849+05:30"},{"city":"Gaya","state":"Bihar","latitude":24.7914,"longitude":85.0002,"temp":20.9,"humidity":70,"rain":0.0,"pressure":997.5,"uv_index":7.25,"wind_gusts":17.6,"aqi":152,"pm10":139.7,"pm2_5":85.7,"mosquito_risk":3,"arthritis_risk":5,"migraine_risk":7,"frizz_risk":0,"updated_at":"2026-03-04T22:22:36.202856+05:30"},{"city":"Muzaffarpur","state":"Bihar","latitude":26.1209,"longitude":85.3647,"temp":21.8,"humidity":68,"rain":0.0,"pressure":1004.0,"uv_index":7.15,"wind_gusts":14.0,"aqi":168,"pm10":132.2,"pm2_5":104.8,"mosquito_risk":3,"arthritis_risk":5,"migraine_risk":4,"frizz_risk":0,"updated_at":"2026-03-04T22:22:36.202864+05:30"},{"city":"Bhagalpur","state":"Bihar","latitude":25.2425,"longitude":87.0117,"temp":22.6,"humidity":64,"rain":0.0,"pressure":1004.9,"uv_index":7.2,"wind_gusts":8.3,"aqi":163,"pm10":121.5,"pm2_5":89.4,"mosquito_risk":3,"arthritis_risk":5,"migraine_risk":4,"frizz_risk":0,"updated_at":"2026-03-04T22:22:36.202871+05:30"},{"city":"Ranchi","state":"Jharkhand","latitude":23.3441,"longitude":85.3096,"temp":21.0,"humidity":45,"rain":0.0,"pressure":940.4,"uv_index":7.9,"wind_gusts":30.6,"aqi":101,"pm10":115.5,"pm2_5":40.3,"mosquito_risk":0,"arthritis_risk":5,"migraine_risk":7,"frizz_risk":0,"updated_at":"2026-03-04T22:22:36.202878+05:30"},{"city":"Jamshedpur","state":"Jharkhand","latitude":22.8046,"longitude":86.2029,"temp":23.2,"humidity":60,"rain":0.0,"pressure":993.9,"uv_index":7.85,"wind_gusts":19.1,"aqi":140,"pm10":141.6,"pm2_5":72.6,"mosquito_risk":0,"arthritis_risk":5,"migraine_risk":7,"frizz_risk":0,"updated_at":"2026-03-04T22:22:36.202885+05:30"},{"city":"Dhanbad","state":"Jharkhand","latitude":23.7957,"longitude":86.4304,"temp":24.4,"humidity":41,"rain":0.0,"pressure":983.0,"uv_index":7.7,"wind_gusts":23.4,"aqi":150,"pm10":106.9,"pm2_5":66.4,"mosquito_risk":0,"arthritis_risk":5,"migraine_risk":7,"frizz_risk":0,"updated_at":"2026-03-04T22:22:36.202893+05:30"},{"city":"Bokaro","state":"Jharkhand","latitude":23.6693,"longitude":86.1511,"temp":23.5,"humidity":48,"rain":0.0,"pressure":987.4,"uv_index":7.7,"wind_gusts":23.8,"aqi":152,"pm10":131.3,"pm2_5":67.5,"mosquito_risk":0,"arthritis_risk":5,"migraine_risk":7,"frizz_risk":0,"updated_at":"2026-03-04T22:22:36.202900+05:30"},{"city":"Bhubaneswar","state":"Odisha","latitude":20.2961,"longitude":85.8245,"temp":25.1,"humidity":85,"rain":0.0,"pressure":1004.6,"uv_index":8.15,"wind_gusts":27.0,"aqi":155,"pm10":73.6,"pm2_5":64.5,"mosquito_risk":7,"arthritis_risk":5,"migraine_risk":4,"frizz_risk":1,"updated_at":"2026-03-04T22:22:36.202908+05:30"},{"city":"Cuttack","state":"Odisha","latitude":20.4625,"longitude":85.8828,"temp":25.0,"humidity":75,"rain":0.0,"pressure":1006.8,"uv_index":8.15,"wind_gusts":27.0,"aqi":155,"pm10":73.6,"pm2_5":64.5,"mosquito_risk":7,"arthritis_risk":5,"migraine_risk":4,"frizz_risk":1,"updated_at":"2026-03-04T22:22:36.202915+05:30"},{"city":"Rourkela","state":"Odisha","latitude":22.2604,"longitude":84.8536,"temp":26.2,"humidity":45,"rain":0.0,"pressure":988.2,"uv_index":7.75,"wind_gusts":21.2,"aqi":104,"pm10":69.2,"pm2_5":45.3,"mosquito_risk":4,"arthritis_risk":5,"migraine_risk":7,"frizz_risk":0,"updated_at":"2026-03-04T22:22:36.202922+05:30"},{"city":"Raipur","state":"Chhattisgarh","latitude":21.2514,"longitude":81.6296,"temp":25.5,"humidity":44,"rain":0.0,"pressure":977.5,"uv_index":7.8,"wind_gusts":19.8,"aqi":127,"pm10":68.9,"pm2_5":58.3,"mosquito_risk":4,"arthritis_risk":5,"migraine_risk":7,"frizz_risk":0,"updated_at":"2026-03-04T22:22:36.202929+05:30"},{"city":"Bhilai","state":"Chhattisgarh","latitude":21.1938,"longitude":81.3509,"temp":24.4,"humidity":52,"rain":0.0,"pressure":977.9,"uv_index":7.8,"wind_gusts":16.9,"aqi":113,"pm10":68.2,"pm2_5":58.1,"mosquito_risk":0,"arthritis_risk":5,"migraine_risk":7,"frizz_risk":0,"updated_at":"2026-03-04T22:22:36.202937+05:30"},{"city":"Guwahati","state":"Assam","latitude":26.1158,"longitude":91.7086,"temp":22.7,"humidity":75,"rain":0.0,"pressure":1004.7,"uv_index":7.1,"wind_gusts":18.4,"aqi":148,"pm10":61.2,"pm2_5":55.6,"mosquito_risk":3,"arthritis_risk":5,"migraine_risk":4,"frizz_risk":1,"updated_at":"2026-03-04T22:22:36.202944+05:30"},{"city":"Agartala","state":"Tripura","latitude":23.8315,"longitude":91.2868,"temp":21.5,"humidity":68,"rain":0.0,"pressure":1009.0,"uv_index":7.5,"wind_gusts":20.9,"aqi":163,"pm10":106.6,"pm2_5":83.4,"mosquito_risk":3,"arthritis_risk":0,"migraine_risk":4,"frizz_risk":0,"updated_at":"2026-03-04T22:22:36.202952+05:30"},{"city":"Shillong","state":"Meghalaya","latitude":25.5788,"longitude":91.8933,"temp":11.4,"humidity":93,"rain":0.0,"pressure":857.2,"uv_index":7.5,"wind_gusts":29.9,"aqi":130,"pm10":52.3,"pm2_5":46.6,"mosquito_risk":3,"arthritis_risk":10,"migraine_risk":7,"frizz_risk":0,"updated_at":"2026-03-04T22:22:36.202960+05:30"},{"city":"Imphal","state":"Manipur","latitude":24.817,"longitude":93.9368,"temp":15.6,"humidity":72,"rain":0.0,"pressure":924.8,"uv_index":7.7,"wind_gusts":21.2,"aqi":136,"pm10":73.6,"pm2_5":66.8,"mosquito_risk":3,"arthritis_risk":5,"migraine_risk":7,"frizz_risk":0,"updated_at":"2026-03-04T22:22:36.202968+05:30"},{"city":"Aizawl","state":"Mizoram","latitude":23.7271,"longitude":92.7176,"temp":15.7,"humidity":70,"rain":0.0,"pressure":893.4,"uv_index":7.7,"wind_gusts":22.0,"aqi":160,"pm10":111.5,"pm2_5":98.3,"mosquito_risk":3,"arthritis_risk":5,"migraine_risk":7,"frizz_risk":0,"updated_at":"2026-03-04T22:22:36.202975+05:30"},{"city":"Kohima","state":"Nagaland","latitude":25.6701,"longitude":94.1077,"temp":13.9,"humidity":75,"rain":0.0,"pressure":855.9,"uv_index":7.55,"wind_gusts":38.5,"aqi":150,"pm10":82.4,"pm2_5":73.1,"mosquito_risk":3,"arthritis_risk":5,"migraine_risk":7,"frizz_risk":0,"updated_at":"2026-03-04T22:22:36.202982+05:30"},{"city":"Gangtok","state":"Sikkim","latitude":27.3314,"longitude":88.6138,"temp":12.8,"humidity":80,"rain":0.0,"pressure":839.0,"uv_index":7.45,"wind_gusts":22.7,"aqi":132,"pm10":69.2,"pm2_5":58.8,"mosquito_risk":3,"arthritis_risk":5,"migraine_risk":7,"frizz_risk":0,"updated_at":"2026-03-04T22:22:36.202989+05:30"},{"city":"Siliguri","state":"West Bengal","latitude":26.7271,"longitude":88.3953,"temp":21.4,"humidity":69,"rain":0.0,"pressure":997.6,"uv_index":7.1,"wind_gusts":19.8,"aqi":156,"pm10":84.1,"pm2_5":68.5,"mosquito_risk":3,"arthritis_risk":5,"migraine_risk":7,"frizz_risk":0,"updated_at":"2026-03-04T22:22:39.416381+05:30"},{"city":"Durgapur","state":"West Bengal","latitude":23.5204,"longitude":87.3119,"temp":24.5,"humidity":45,"rain":0.0,"pressure":998.2,"uv_index":7.7,"wind_gusts":20.5,"aqi":131,"pm10":94.5,"pm2_5":66.8,"mosquito_risk":0,"arthritis_risk":5,"migraine_risk":7,"frizz_risk":0,"updated_at":"2026-03-04T22:22:39.416411+05:30"},{"city":"Asansol","state":"West Bengal","latitude":23.6739,"longitude":86.9524,"temp":24.7,"humidity":44,"rain":0.0,"pressure":996.8,"uv_index":7.7,"wind_gusts":20.9,"aqi":117,"pm10":77.3,"pm2_5":51.9,"mosquito_risk":0,"arthritis_risk":5,"migraine_risk":7,"frizz_risk":0,"updated_at":"2026-03-04T22:22:39.416420+05:30"},{"city":"Pondicherry","state":"Puducherry","latitude":11.9139,"longitude":79.8145,"temp":23.8,"humidity":92,"rain":0.0,"pressure":1012.3,"uv_index":8.85,"wind_gusts":29.2,"aqi":86,"pm10":21.1,"pm2_5":17.8,"mosquito_risk":3,"arthritis_risk":0,"migraine_risk":4,"frizz_risk":1,"updated_at":"2026-03-04T22:22:39.416428+05:30"},{"city":"Port Blair","state":"Andaman and Nicobar Islands","latitude":11.6234,"longitude":92.7265,"temp":27.4,"humidity":73,"rain":0.0,"pressure":1008.6,"uv_index":8.8,"wind_gusts":25.6,"aqi":99,"pm10":38.0,"pm2_5":32.8,"mosquito_risk":7,"arthritis_risk":0,"migraine_risk":4,"frizz_risk":1,"updated_at":"2026-03-04T22:22:39.416435+05:30"},{"city":"Haridwar","state":"Uttarakhand","latitude":29.9457,"longitude":78.1642,"temp":20.5,"humidity":78,"rain":0.0,"pressure":977.9,"uv_index":5.6,"wind_gusts":19.8,"aqi":141,"pm10":121.5,"pm2_5":62.2,"mosquito_risk":3,"arthritis_risk":5,"migraine_risk":3,"frizz_risk":1,"updated_at":"2026-03-04T22:22:39.416441+05:30"},{"city":"Rishikesh","state":"Uttarakhand","latitude":30.0869,"longitude":78.2676,"temp":19.6,"humidity":72,"rain":0.0,"pressure":970.6,"uv_index":5.65,"wind_gusts":22.7,"aqi":162,"pm10":55.3,"pm2_5":43.3,"mosquito_risk":3,"arthritis_risk":5,"migraine_risk":3,"frizz_risk":0,"updated_at":"2026-03-04T22:22:39.416448+05:30"},{"city":"Nainital","state":"Uttarakhand","latitude":29.3919,"longitude":79.4542,"temp":16.3,"humidity":64,"rain":0.0,"pressure":807.8,"uv_index":6.45,"wind_gusts":57.2,"aqi":162,"pm10":85.4,"pm2_5":64.0,"mosquito_risk":3,"arthritis_risk":5,"migraine_risk":7,"frizz_risk":0,"updated_at":"2026-03-04T22:22:39.416454+05:30"},{"city":"Mussoorie","state":"Uttarakhand","latitude":30.4599,"longitude":78.0664,"temp":15.5,"humidity":64,"rain":0.0,"pressure":804.4,"uv_index":6.0,"wind_gusts":35.6,"aqi":159,"pm10":64.7,"pm2_5":48.7,"mosquito_risk":3,"arthritis_risk":5,"migraine_risk":3,"frizz_risk":0,"updated_at":"2026-03-04T22:22:39.416460+05:30"},{"city":"Dharamshala","state":"Himachal Pradesh","latitude":32.219,"longitude":76.3234,"temp":22.0,"humidity":38,"rain":0.0,"pressure":873.1,"uv_index":6.25,"wind_gusts":27.7,"aqi":95,"pm10":30.4,"pm2_5":20.0,"mosquito_risk":0,"arthritis_risk":5,"migraine_risk":7,"frizz_risk":0,"updated_at":"2026-03-04T22:22:39.416466+05:30"},{"city":"Dalhousie","state":"Himachal Pradesh","latitude":32.5387,"longitude":75.971,"temp":17.6,"humidity":50,"rain":0.0,"pressure":807.0,"uv_index":6.45,"wind_gusts":22.0,"aqi":103,"pm10":56.2,"pm2_5":47.5,"mosquito_risk":0,"arthritis_risk":5,"migraine_risk":7,"frizz_risk":0,"updated_at":"2026-03-04T22:22:39.416473+05:30"},{"city":"Patiala","state":"Punjab","latitude":30.3398,"longitude":76.3869,"temp":21.1,"humidity":82,"rain":0.0,"pressure":982.0,"uv_index":5.65,"wind_gusts":30.6,"aqi":181,"pm10":391.2,"pm2_5":88.5,"mosquito_risk":3,"arthritis_risk":5,"migraine_risk":3,"frizz_risk":1,"updated_at":"2026-03-04T22:22:39.416479+05:30"},{"city":"Bhatinda","state":"Punjab","latitude":30.211,"longitude":74.9455,"temp":22.3,"humidity":73,"rain":0.0,"pressure":987.7,"uv_index":6.3,"wind_gusts":22.7,"aqi":151,"pm10":63.6,"pm2_5":41.7,"mosquito_risk":3,"arthritis_risk":5,"migraine_risk":7,"frizz_risk":1,"updated_at":"2026-03-04T22:22:39.416485+05:30"},{"city":"Rohtak","state":"Haryana","latitude":28.8955,"longitude":76.6066,"temp":20.9,"humidity":76,"rain":0.0,"pressure":985.7,"uv_index":5.85,"wind_gusts":31.0,"aqi":408,"pm10":726.4,"pm2_5":117.6,"mosquito_risk":3,"arthritis_risk":5,"migraine_risk":3,"frizz_risk":1,"updated_at":"2026-03-04T22:22:39.416491+05:30"},{"city":"Panipat","state":"Haryana","latitude":29.3909,"longitude":76.9635,"temp":20.7,"humidity":83,"rain":0.0,"pressure":984.1,"uv_index":5.65,"wind_gusts":31.0,"aqi":933,"pm10":1307.6,"pm2_5":174.2,"mosquito_risk":3,"arthritis_risk":5,"migraine_risk":3,"frizz_risk":1,"updated_at":"2026-03-04T22:22:39.416497+05:30"},{"city":"Mathura","state":"Uttar Pradesh","latitude":27.4924,"longitude":77.6737,"temp":24.9,"humidity":48,"rain":0.0,"pressure":990.7,"uv_index":6.1,"wind_gusts":29.9,"aqi":488,"pm10":644.5,"pm2_5":101.7,"mosquito_risk":0,"arthritis_risk":5,"migraine_risk":7,"frizz_risk":0,"updated_at":"2026-03-04T22:22:39.416502+05:30"},{"city":"Vrindavan","state":"Uttar Pradesh","latitude":27.5823,"longitude":77.7027,"temp":21.7,"humidity":62,"rain":0.0,"pressure":991.0,"uv_index":6.1,"wind_gusts":31.7,"aqi":488,"pm10":644.5,"pm2_5":101.7,"mosquito_risk":3,"arthritis_risk":5,"migraine_risk":7,"frizz_risk":0,"updated_at":"2026-03-04T22:22:39.416508+05:30"},{"city":"Ayodhya","state":"Uttar Pradesh","latitude":26.7922,"longitude":82.1998,"temp":22.8,"humidity":68,"rain":0.0,"pressure":999.0,"uv_index":6.5,"wind_gusts":9.7,"aqi":165,"pm10":247.7,"pm2_5":115.3,"mosquito_risk":3,"arthritis_risk":5,"migraine_risk":7,"frizz_risk":1,"updated_at":"2026-03-04T22:22:39.416514+05:30"},{"city":"Ratlam","state":"Madhya Pradesh","latitude":23.3315,"longitude":75.0367,"temp":24.7,"humidity":52,"rain":0.0,"pressure":958.5,"uv_index":7.3,"wind_gusts":21.2,"aqi":104,"pm10":41.7,"pm2_5":34.1,"mosquito_risk":0,"arthritis_risk":5,"migraine_risk":7,"frizz_risk":0,"updated_at":"2026-03-04T22:22:39.416520+05:30"},{"city":"Sagar","state":"Madhya Pradesh","latitude":23.8388,"longitude":78.7378,"temp":25.2,"humidity":33,"rain":0.0,"pressure":954.0,"uv_index":7.25,"wind_gusts":25.6,"aqi":80,"pm10":24.6,"pm2_5":17.9,"mosquito_risk":4,"arthritis_risk":5,"migraine_risk":7,"frizz_risk":0,"updated_at":"2026-03-04T22:22:39.416526+05:30"},{"city":"Satna","state":"Madhya Pradesh","latitude":24.6005,"longitude":80.8322,"temp":23.4,"humidity":47,"rain":0.0,"pressure":975.1,"uv_index":7.25,"wind_gusts":34.9,"aqi":104,"pm10":45.2,"pm2_5":29.9,"mosquito_risk":0,"arthritis_risk":5,"migraine_risk":7,"frizz_risk":0,"updated_at":"2026-03-04T22:22:39.416531+05:30"},{"city":"Akola","state":"Maharashtra","latitude":20.7002,"longitude":77.0082,"temp":25.9,"humidity":43,"rain":0.0,"pressure":978.2,"uv_index":7.8,"wind_gusts":17.3,"aqi":101,"pm10":38.5,"pm2_5":35.3,"mosquito_risk":4,"arthritis_risk":5,"migraine_risk":7,"frizz_risk":0,"updated_at":"2026-03-04T22:22:39.416538+05:30"},{"city":"Amravati","state":"Maharashtra","latitude":20.9374,"longitude":77.7796,"temp":25.4,"humidity":57,"rain":0.0,"pressure":970.3,"uv_index":7.75,"wind_gusts":16.2,"aqi":102,"pm10":40.4,"pm2_5":36.1,"mosquito_risk":4,"arthritis_risk":5,"migraine_risk":7,"frizz_risk":1,"updated_at":"2026-03-04T22:22:39.416545+05:30"},{"city":"Latur","state":"Maharashtra","latitude":18.4088,"longitude":76.5604,"temp":25.2,"humidity":49,"rain":0.0,"pressure":942.6,"uv_index":8.25,"wind_gusts":19.8,"aqi":129,"pm10":36.8,"pm2_5":34.2,"mosquito_risk":4,"arthritis_risk":5,"migraine_risk":7,"frizz_risk":0,"updated_at":"2026-03-04T22:22:39.416551+05:30"},{"city":"Nanded","state":"Maharashtra","latitude":19.1383,"longitude":77.3091,"temp":26.0,"humidity":55,"rain":0.0,"pressure":971.4,"uv_index":8.0,"wind_gusts":13.0,"aqi":105,"pm10":28.8,"pm2_5":26.9,"mosquito_risk":4,"arthritis_risk":5,"migraine_risk":7,"frizz_risk":1,"updated_at":"2026-03-04T22:22:39.416557+05:30"},{"city":"Gulbarga","state":"Karnataka","latitude":17.3297,"longitude":76.8343,"temp":27.7,"humidity":40,"rain":0.0,"pressure":961.4,"uv_index":8.35,"wind_gusts":23.0,"aqi":135,"pm10":20.0,"pm2_5":18.8,"mosquito_risk":4,"arthritis_risk":5,"migraine_risk":7,"frizz_risk":0,"updated_at":"2026-03-04T22:22:39.416563+05:30"},{"city":"Bidar","state":"Karnataka","latitude":17.9104,"longitude":77.5199,"temp":25.0,"humidity":47,"rain":0.0,"pressure":938.2,"uv_index":8.3,"wind_gusts":25.9,"aqi":117,"pm10":39.7,"pm2_5":36.6,"mosquito_risk":4,"arthritis_risk":5,"migraine_risk":7,"frizz_risk":0,"updated_at":"2026-03-04T22:22:39.416568+05:30"},{"city":"Hospet","state":"Karnataka","latitude":15.2689,"longitude":76.3909,"temp":28.7,"humidity":37,"rain":0.0,"pressure":958.5,"uv_index":8.6,"wind_gusts":25.9,"aqi":158,"pm10":32.6,"pm2_5":31.8,"mosquito_risk":4,"arthritis_risk":5,"migraine_risk":7,"frizz_risk":0,"updated_at":"2026-03-04T22:22:39.416574+05:30"},{"city":"Tirupur","state":"Tamil Nadu","latitude":11.1085,"longitude":77.3411,"temp":27.5,"humidity":42,"rain":0.0,"pressure":978.5,"uv_index":9.15,"wind_gusts":32.4,"aqi":139,"pm10":46.1,"pm2_5":45.1,"mosquito_risk":4,"arthritis_risk":5,"migraine_risk":7,"frizz_risk":0,"updated_at":"2026-03-04T22:22:39.416579+05:30"},{"city":"Alappuzha","state":"Kerala","latitude":9.4981,"longitude":76.3388,"temp":27.9,"humidity":78,"rain":0.0,"pressure":1012.3,"uv_index":8.95,"wind_gusts":30.2,"aqi":102,"pm10":38.5,"pm2_5":36.3,"mosquito_risk":7,"arthritis_risk":0,"migraine_risk":4,"frizz_risk":1,"updated_at":"2026-03-04T22:22:39.416585+05:30"},{"city":"Munnar","state":"Kerala","latitude":10.0889,"longitude":77.0595,"temp":19.6,"humidity":77,"rain":0.0,"pressure":858.8,"uv_index":9.45,"wind_gusts":24.5,"aqi":78,"pm10":31.5,"pm2_5":31.1,"mosquito_risk":3,"arthritis_risk":5,"migraine_risk":7,"frizz_risk":0,"updated_at":"2026-03-04T22:22:39.416591+05:30"},{"city":"Silchar","state":"Assam","latitude":24.8333,"longitude":92.7789,"temp":24.4,"humidity":61,"rain":0.0,"pressure":1007.4,"uv_index":7.45,"wind_gusts":14.4,"aqi":151,"pm10":87.8,"pm2_5":77.8,"mosquito_risk":3,"arthritis_risk":5,"migraine_risk":4,"frizz_risk":1,"updated_at":"2026-03-04T22:22:39.416597+05:30"},{"city":"Dibrugarh","state":"Assam","latitude":27.4728,"longitude":94.912,"temp":23.2,"humidity":78,"rain":0.0,"pressure":997.7,"uv_index":7.15,"wind_gusts":9.0,"aqi":128,"pm10":64.7,"pm2_5":57.4,"mosquito_risk":3,"arthritis_risk":5,"migraine_risk":7,"frizz_risk":1,"updated_at":"2026-03-04T22:22:39.416602+05:30"}]