[{"city":"Delhi","state":"Delhi","latitude":28.6139,"longitude":77.209,"temp":29.5,"humidity":36,"rain":0.0,"pressure":983.9,"uv_index":6.05,"wind_gusts":27.4,"aqi":158,"pm10":472.2,"pm2_5":63.1,"mosquito_risk":4,"arthritis_risk":5,"migraine_risk":7,"frizz_risk":0,"updated_at":"2026-03-24T17:17:19.520743+05:30"},{"city":"Mumbai","state":"Maharashtra","latitude":19.076,"longitude":72.8777,"temp":28.7,"humidity":69,"rain":0.0,"pressure":1006.4,"uv_index":7.9,"wind_gusts":25.6,"aqi":175,"pm10":41.0,"pm2_5":32.9,"mosquito_risk":7,"arthritis_risk":5,"migraine_risk":4,"frizz_risk":1,"updated_at":"2026-03-24T17:17:19.520783+05:30"},{"city":"Bangalore","state":"Karnataka","latitude":12.9716,"longitude":77.5946,"temp":31.5,"humidity":31,"rain":0.0,"pressure":910.7,"uv_index":9.5,"wind_gusts":30.6,"aqi":103,"pm10":29.8,"pm2_5":20.7,"mosquito_risk":0,"arthritis_risk":5,"migraine_risk":7,"frizz_risk":0,"updated_at":"2026-03-24T17:17:19.520799+05:30"},{"city":"Hyderabad","state":"Telangana","latitude":17.385,"longitude":78.4867,"temp":29.8,"humidity":46,"rain":0.0,"pressure":953.1,"uv_index":8.95,"wind_gusts":23.0,"aqi":97,"pm10":39.2,"pm2_5":28.1,"mosquito_risk":4,"arthritis_risk":5,"migraine_risk":7,"frizz_risk":1,"updated_at":"2026-03-24T17:17:19.520809+05:30"},{"city":"Chennai","state":"Tamil Nadu","latitude":13.0827,"longitude":80.2707,"temp":29.9,"humidity":61,"rain":0.0,"pressure":1006.9,"uv_index":9.2,"wind_gusts":33.8,"aqi":39,"pm10":9.4,"pm2_5":6.4,"mosquito_risk":7,"arthritis_risk":5,"migraine_risk":4,"frizz_risk":1,"updated_at":"2026-03-24T17:17:19.520817+05:30"},{"city":"Kolkata","state":"West Bengal","latitude":22.5726,"longitude":88.3639,"temp":28.1,"humidity":70,"rain":0.0,"pressure":1006.2,"uv_index":8.3,"wind_gusts":21.6,"aqi":150,"pm10":61.7,"pm2_5":41.3,"mosquito_risk":7,"arthritis_risk":5,"migraine_risk":4,"frizz_risk":1,"updated_at":"2026-03-24T17:17:19.520825+05:30"},{"city":"Pune","state":"Maharashtra","latitude":18.5204,"longitude":73.8567,"temp":35.5,"humidity":23,"rain":0.0,"pressure":946.7,"uv_index":8.3,"wind_gusts":32.0,"aqi":116,"pm10":31.2,"pm2_5":19.4,"mosquito_risk":0,"arthritis_risk":5,"migraine_risk":10,"frizz_risk":0,"updated_at":"2026-03-24T17:17:19.520838+05:30"},{"city":"Ahmedabad","state":"Gujarat","latitude":23.0225,"longitude":72.5714,"temp":35.5,"humidity":28,"rain":0.0,"pressure":1000.5,"uv_index":7.45,"wind_gusts":19.4,"aqi":68,"pm10":29.5,"pm2_5":11.3,"mosquito_risk":0,"arthritis_risk":5,"migraine_risk":7,"frizz_risk":0,"updated_at":"2026-03-24T17:17:19.520845+05:30"},{"city":"Jaipur","state":"Rajasthan","latitude":26.9124,"longitude":75.7873,"temp":30.9,"humidity":25,"rain":0.0,"pressure":960.4,"uv_index":6.85,"wind_gusts":21.2,"aqi":120,"pm10":127.6,"pm2_5":21.0,"mosquito_risk":0,"arthritis_risk":5,"migraine_risk":7,"frizz_risk":0,"updated_at":"2026-03-24T17:17:19.520853+05:30"},{"city":"Lucknow","state":"Uttar Pradesh","latitude":26.8467,"longitude":80.9462,"temp":30.4,"humidity":36,"rain":0.0,"pressure":993.6,"uv_index":7.05,"wind_gusts":32.0,"aqi":115,"pm10":137.8,"pm2_5":30.2,"mosquito_risk":0,"arthritis_risk":5,"migraine_risk":7,"frizz_risk":0,"updated_at":"2026-03-24T17:17:19.520861+05:30"},{"city":"Kanpur","state":"Uttar Pradesh","latitude":26.4499,"longitude":80.3319,"temp":29.2,"humidity":45,"rain":0.0,"pressure":992.4,"uv_index":7.1,"wind_gusts":27.7,"aqi":138,"pm10":311.1,"pm2_5":44.7,"mosquito_risk":4,"arthritis_risk":5,"migraine_risk":7,"frizz_risk":0,"updated_at":"2026-03-24T17:17:19.520868+05:30"},{"city":"Chandigarh","state":"Chandigarh","latitude":30.7333,"longitude":76.7794,"temp":26.8,"humidity":40,"rain":0.0,"pressure":969.9,"uv_index":6.5,"wind_gusts":36.4,"aqi":100,"pm10":19.5,"pm2_5":14.6,"mosquito_risk":4,"arthritis_risk":5,"migraine_risk":7,"frizz_risk":0,"updated_at":"2026-03-24T17:17:19.520875+05:30"},{"city":"Srinagar","state":"Jammu and Kashmir","latitude":34.0837,"longitude":74.7973,"temp":17.5,"humidity":28,"rain":0.0,"pressure":842.4,"uv_index":7.6,"wind_gusts":17.6,"aqi":88,"pm10":15.5,"pm2_5":6.6,"mosquito_risk":0,"arthritis_risk":5,"migraine_risk":7,"frizz_risk":1,"updated_at":"2026-03-24T17:17:19.520882+05:30"},{"city":"Jammu","state":"Jammu and Kashmir","latitude":32.7266,"longitude":74.857,"temp":27.9,"humidity":39,"rain":0.0,"pressure":973.6,"uv_index":7.15,"wind_gusts":32.0,"aqi":71,"pm10":20.0,"pm2_5":12.9,"mosquito_risk":4,"arthritis_risk":5,"migraine_risk":7,"frizz_risk":0,"updated_at":"2026-03-24T17:17:19.520890+05:30"},{"city":"Amritsar","state":"Punjab","latitude":31.634,"longitude":74.8723,"temp":28.2,"humidity":36,"rain":0.0,"pressure":982.1,"uv_index":7.15,"wind_gusts":26.3,"aqi":124,"pm10":28.3,"pm2_5":17.5,"mosquito_risk":4,"arthritis_risk":5,"migraine_risk":7,"frizz_risk":0,"updated_at":"2026-03-24T17:17:19.520897+05:30"},{"city":"Ludhiana","state":"Punjab","latitude":30.901,"longitude":75.8573,"temp":28.2,"humidity":36,"rain":0.0,"pressure":980.2,"uv_index":6.75,"wind_gusts":31.3,"aqi":152,"pm10":34.7,"pm2_5":21.5,"mosquito_risk":4,"arthritis_risk":5,"migraine_risk":7,"frizz_risk":0,"updated_at":"2026-03-24T17:17:19.520904+05:30"},{"city":"Jalandhar","state":"Punjab","latitude":31.326,"longitude":75.5762,"temp":27.9,"humidity":37,"rain":0.0,"pressure":981.4,"uv_index":6.95,"wind_gusts":30.2,"aqi":133,"pm10":49.9,"pm2_5":21.0,"mosquito_risk":4,"arthritis_risk":5,"migraine_risk":7,"frizz_risk":0,"updated_at":"2026-03-24T17:17:19.520914+05:30"},{"city":"Dehradun","state":"Uttarakhand","latitude":30.6284,"longitude":78.0322,"temp":16.6,"humidity":56,"rain":0.0,"pressure":829.5,"uv_index":6.95,"wind_gusts":34.2,"aqi":88,"pm10":25.7,"pm2_5":16.8,"mosquito_risk":0,"arthritis_risk":5,"migraine_risk":7,"frizz_risk":0,"updated_at":"2026-03-24T17:17:19.520921+05:30"},{"city":"Shimla","state":"Himachal Pradesh","latitude":31.1048,"longitude":77.1734,"temp":14.1,"humidity":57,"rain":0.0,"pressure":784.2,"uv_index":7.0,"wind_gusts":52.2,"aqi":84,"pm10":14.3,"pm2_5":9.2,"mosquito_risk":0,"arthritis_risk":5,"migraine_risk":7,"frizz_risk":0,"updated_at":"2026-03-24T17:17:19.520928+05:30"},{"city":"Manali","state":"Himachal Pradesh","latitude":32.2396,"longitude":77.1887,"temp":16.1,"humidity":48,"rain":0.0,"pressure":819.0,"uv_index":9.15,"wind_gusts":29.5,"aqi":111,"pm10":11.7,"pm2_5":5.9,"mosquito_risk":0,"arthritis_risk":5,"migraine_risk":7,"frizz_risk":0,"updated_at":"2026-03-24T17:17:19.520935+05:30"},{"city":"Gurgaon","state":"Haryana","latitude":28.4595,"longitude":77.0266,"temp":29.3,"humidity":38,"rain":0.0,"pressure":982.3,"uv_index":6.3,"wind_gusts":25.6,"aqi":443,"pm10":1344.8,"pm2_5":135.5,"mosquito_risk":4,"arthritis_risk":5,"migraine_risk":7,"frizz_risk":0,"updated_at":"2026-03-24T17:17:19.520942+05:30"},{"city":"Noida","state":"Uttar Pradesh","latitude":28.5355,"longitude":77.391,"temp":29.4,"humidity":38,"rain":0.0,"pressure":985.3,"uv_index":6.15,"wind_gusts":25.9,"aqi":443,"pm10":1344.8,"pm2_5":135.5,"mosquito_risk":4,"arthritis_risk":5,"migraine_risk":7,"frizz_risk":0,"updated_at":"2026-03-24T17:17:19.520951+05:30"},{"city":"Ghaziabad","state":"Uttar Pradesh","latitude":28.6692,"longitude":77.4538,"temp":28.8,"humidity":40,"rain":0.0,"pressure":983.5,"uv_index":6.25,"wind_gusts":26.6,"aqi":155,"pm10":316.6,"pm2_5":50.5,"mosquito_risk":4,"arthritis_risk":5,"migraine_risk":7,"frizz_risk":0,"updated_at":"2026-03-24T17:17:19.520957+05:30"},{"city":"Faridabad","state":"Haryana","latitude":28.4089,"longitude":77.3178,"temp":29.1,"humidity":38,"rain":0.0,"pressure":984.6,"uv_index":6.2,"wind_gusts":26.3,"aqi":443,"pm10":1344.8,"pm2_5":135.5,"mosquito_risk":4,"arthritis_risk":5,"migraine_risk":7,"frizz_risk":0,"updated_at":"2026-03-24T17:17:19.520964+05:30"},{"city":"Meerut","state":"Uttar Pradesh","latitude":28.9845,"longitude":77.7064,"temp":28.0,"humidity":42,"rain":0.0,"pressure":982.2,"uv_index":6.4,"wind_gusts":29.2,"aqi":155,"pm10":316.6,"pm2_5":50.5,"mosquito_risk":4,"arthritis_risk":5,"migraine_risk":7,"frizz_risk":0,"updated_at":"2026-03-24T17:17:19.520970+05:30"},{"city":"Agra","state":"Uttar Pradesh","latitude":27.1767,"longitude":78.0081,"temp":31.6,"humidity":27,"rain":0.0,"pressure":988.2,"uv_index":6.6,"wind_gusts":27.4,"aqi":181,"pm10":704.1,"pm2_5":70.5,"mosquito_risk":0,"arthritis_risk":5,"migraine_risk":7,"frizz_risk":0,"updated_at":"2026-03-24T17:17:19.520976+05:30"},{"city":"Varanasi","state":"Uttar Pradesh","latitude":25.3176,"longitude":82.9739,"temp":31.6,"humidity":35,"rain":0.0,"pressure":997.0,"uv_index":7.75,"wind_gusts":25.2,"aqi":142,"pm10":60.8,"pm2_5":24.7,"mosquito_risk":0,"arthritis_risk":5,"migraine_risk":7,"frizz_risk":0,"updated_at":"2026-03-24T17:17:19.520985+05:30"},{"city":"Prayagraj","state":"Uttar Pradesh","latitude":25.4358,"longitude":81.8463,"temp":31.1,"humidity":36,"rain":0.0,"pressure":995.7,"uv_index":7.6,"wind_gusts":22.3,"aqi":122,"pm10":68.0,"pm2_5":25.0,"mosquito_risk":0,"arthritis_risk":5,"migraine_risk":7,"frizz_risk":0,"updated_at":"2026-03-24T17:17:19.520998+05:30"},{"city":"Gorakhpur","state":"Uttar Pradesh","latitude":26.7606,"longitude":83.3732,"temp":30.3,"humidity":36,"rain":0.0,"pressure":996.2,"uv_index":7.45,"wind_gusts":33.8,"aqi":144,"pm10":45.6,"pm2_5":23.1,"mosquito_risk":0,"arthritis_risk":5,"migraine_risk":7,"frizz_risk":0,"updated_at":"2026-03-24T17:17:19.521005+05:30"},{"city":"Bareilly","state":"Uttar Pradesh","latitude":28.367,"longitude":79.4304,"temp":27.7,"humidity":50,"rain":0.0,"pressure":987.3,"uv_index":6.75,"wind_gusts":30.6,"aqi":120,"pm10":51.1,"pm2_5":32.2,"mosquito_risk":4,"arthritis_risk":5,"migraine_risk":7,"frizz_risk":1,"updated_at":"2026-03-24T17:17:19.521011+05:30"},{"city":"Aligarh","state":"Uttar Pradesh","latitude":27.8974,"longitude":78.088,"temp":29.2,"humidity":39,"rain":0.0,"pressure":986.2,"uv_index":6.7,"wind_gusts":27.4,"aqi":163,"pm10":754.4,"pm2_5":89.4,"mosquito_risk":4,"arthritis_risk":5,"migraine_risk":7,"frizz_risk":0,"updated_at":"2026-03-24T17:17:19.521018+05:30"},{"city":"Moradabad","state":"Uttar Pradesh","latitude":28.8386,"longitude":78.7733,"temp":27.7,"humidity":45,"rain":0.0,"pressure":984.2,"uv_index":6.6,"wind_gusts":31.3,"aqi":145,"pm10":40.0,"pm2_5":29.5,"mosquito_risk":4,"arthritis_risk":5,"migraine_risk":7,"frizz_risk":0,"updated_at":"2026-03-24T17:17:19.521024+05:30"},{"city":"Saharanpur","state":"Uttar Pradesh","latitude":29.9637,"longitude":77.546,"temp":27.4,"humidity":36,"rain":0.0,"pressure":976.2,"uv_index":6.25,"wind_gusts":37.1,"aqi":154,"pm10":46.0,"pm2_5":20.7,"mosquito_risk":4,"arthritis_risk":5,"migraine_risk":7,"frizz_risk":0,"updated_at":"2026-03-24T17:17:19.521030+05:30"},{"city":"Jhansi","state":"Uttar Pradesh","latitude":25.4484,"longitude":78.5685,"temp":31.8,"humidity":27,"rain":0.0,"pressure":978.2,"uv_index":7.3,"wind_gusts":27.7,"aqi":129,"pm10":68.5,"pm2_5":21.7,"mosquito_risk":0,"arthritis_risk":5,"migraine_risk":7,"frizz_risk":0,"updated_at":"2026-03-24T17:17:22.742044+05:30"},{"city":"Surat","state":"Gujarat","latitude":21.1702,"longitude":72.8311,"temp":31.4,"humidity":51,"rain":0.0,"pressure":1005.5,"uv_index":7.35,"wind_gusts":25.6,"aqi":138,"pm10":43.0,"pm2_5":34.2,"mosquito_risk":0,"arthritis_risk":5,"migraine_risk":4,"frizz_risk":1,"updated_at":"2026-03-24T17:17:22.742076+05:30"},{"city":"Vadodara","state":"Gujarat","latitude":22.3072,"longitude":73.1812,"temp":35.0,"humidity":27,"rain":0.0,"pressure":1002.8,"uv_index":7.85,"wind_gusts":25.2,"aqi":88,"pm10":21.1,"pm2_5":13.3,"mosquito_risk":0,"arthritis_risk":5,"migraine_risk":4,"frizz_risk":0,"updated_at":"2026-03-24T17:17:22.742086+05:30"},{"city":"Rajkot","state":"Gujarat","latitude":22.3039,"longitude":70.8022,"temp":33.4,"humidity":37,"rain":0.0,"pressure":993.2,"uv_index":7.1,"wind_gusts":22.3,"aqi":44,"pm10":20.6,"pm2_5":7.8,"mosquito_risk":0,"arthritis_risk":5,"migraine_risk":7,"frizz_risk":1,"updated_at":"2026-03-24T17:17:22.742095+05:30"},{"city":"Thane","state":"Maharashtra","latitude":19.2183,"longitude":72.9781,"temp":32.0,"humidity":46,"rain":0.0,"pressure":1006.0,"uv_index":7.85,"wind_gusts":38.9,"aqi":175,"pm10":41.0,"pm2_5":32.9,"mosquito_risk":0,"arthritis_risk":5,"migraine_risk":4,"frizz_risk":1,"updated_at":"2026-03-24T17:17:22.742103+05:30"},{"city":"Nagpur","state":"Maharashtra","latitude":21.1458,"longitude":79.0882,"temp":34.9,"humidity":21,"rain":0.0,"pressure":971.2,"uv_index":8.4,"wind_gusts":30.2,"aqi":153,"pm10":34.3,"pm2_5":20.3,"mosquito_risk":0,"arthritis_risk":5,"migraine_risk":7,"frizz_risk":0,"updated_at":"2026-03-24T17:17:22.742111+05:30"},{"city":"Nashik","state":"Maharashtra","latitude":19.9975,"longitude":73.7898,"temp":32.1,"humidity":28,"rain":0.0,"pressure":944.8,"uv_index":8.15,"wind_gusts":38.9,"aqi":72,"pm10":30.5,"pm2_5":16.8,"mosquito_risk":0,"arthritis_risk":5,"migraine_risk":7,"frizz_risk":0,"updated_at":"2026-03-24T17:17:22.742119+05:30"},{"city":"Aurangabad","state":"Maharashtra","latitude":19.8762,"longitude":75.3433,"temp":34.1,"humidity":23,"rain":0.0,"pressure":943.0,"uv_index":8.7,"wind_gusts":30.6,"aqi":82,"pm10":27.6,"pm2_5":13.6,"mosquito_risk":0,"arthritis_risk":5,"migraine_risk":7,"frizz_risk":0,"updated_at":"2026-03-24T17:17:22.742127+05:30"},{"city":"Solapur","state":"Maharashtra","latitude":17.6599,"longitude":75.9064,"temp":36.0,"humidity":22,"rain":0.0,"pressure":955.0,"uv_index":8.8,"wind_gusts":25.6,"aqi":121,"pm10":37.3,"pm2_5":26.8,"mosquito_risk":0,"arthritis_risk":5,"migraine_risk":10,"frizz_risk":0,"updated_at":"2026-03-24T17:17:22.742135+05:30"},{"city":"Kolhapur","state":"Maharashtra","latitude":16.705,"longitude":74.2433,"temp":30.7,"humidity":52,"rain":0.0,"pressure":946.5,"uv_index":8.9,"wind_gusts":42.5,"aqi":129,"pm10":34.6,"pm2_5":27.5,"mosquito_risk":0,"arthritis_risk":5,"migraine_risk":7,"frizz_risk":1,"updated_at":"2026-03-24T17:17:22.742143+05:30"},{"city":"Goa","state":"Goa","latitude":15.2993,"longitude":74.124,"temp":30.2,"humidity":71,"rain":0.0,"pressure":996.9,"uv_index":8.9,"wind_gusts":29.5,"aqi":98,"pm10":37.3,"pm2_5":24.5,"mosquito_risk":3,"arthritis_risk":5,"migraine_risk":7,"frizz_risk":1,"updated_at":"2026-03-24T17:17:22.742151+05:30"},{"city":"Jodhpur","state":"Rajasthan","latitude":26.2389,"longitude":73.0243,"temp":34.4,"humidity":19,"rain":0.0,"pressure":982.4,"uv_index":7.65,"wind_gusts":11.5,"aqi":61,"pm10":25.0,"pm2_5":8.6,"mosquito_risk":0,"arthritis_risk":5,"migraine_risk":7,"frizz_risk":0,"updated_at":"2026-03-24T17:17:22.742159+05:30"},{"city":"Udaipur","state":"Rajasthan","latitude":24.5854,"longitude":73.7125,"temp":31.5,"humidity":23,"rain":0.0,"pressure":946.2,"uv_index":7.65,"wind_gusts":18.0,"aqi":55,"pm10":51.0,"pm2_5":13.2,"mosquito_risk":0,"arthritis_risk":5,"migraine_risk":7,"frizz_risk":0,"updated_at":"2026-03-24T17:17:22.742166+05:30"},{"city":"Kota","state":"Rajasthan","latitude":25.2138,"longitude":75.8648,"temp":33.8,"humidity":24,"rain":0.0,"pressure":978.3,"uv_index":7.65,"wind_gusts":14.4,"aqi":115,"pm10":56.1,"pm2_5":20.1,"mosquito_risk":0,"arthritis_risk":5,"migraine_risk":7,"frizz_risk":0,"updated_at":"2026-03-24T17:17:22.742173+05:30"},{"city":"Bikaner","state":"Rajasthan","latitude":28.0229,"longitude":73.3119,"temp":33.3,"humidity":16,"rain":0.0,"pressure":982.1,"uv_index":7.35,"wind_gusts":15.8,"aqi":80,"pm10":33.5,"pm2_5":13.8,"mosquito_risk":0,"arthritis_risk":5,"migraine_risk":7,"frizz_risk":0,"updated_at":"2026-03-24T17:17:22.742181+05:30"},{"city":"Ajmer","state":"Rajasthan","latitude":26.4499,"longitude":74.6399,"temp":31.3,"humidity":26,"rain":0.0,"pressure":954.9,"uv_index":7.55,"wind_gusts":15.8,"aqi":99,"pm10":31.5,"pm2_5":11.2,"mosquito_risk":0,"arthritis_risk":5,"migraine_risk":7,"frizz_risk":0,"updated_at":"2026-03-24T17:17:22.742188+05:30"},{"city":"Gwalior","state":"Madhya Pradesh","latitude":26.2183,"longitude":78.1828,"temp":31.1,"humidity":34,"rain":0.0,"pressure":983.8,"uv_index":7.25,"wind_gusts":31.0,"aqi":122,"pm10":54.2,"pm2_5":18.2,"mosquito_risk":0,"arthritis_risk":5,"migraine_risk":7,"frizz_risk":0,"updated_at":"2026-03-24T17:17:22.742196+05:30"},{"city":"Indore","state":"Madhya Pradesh","latitude":22.7196,"longitude":75.8577,"temp":32.1,"humidity":28,"rain":0.0,"pressure":947.2,"uv_index":8.15,"wind_gusts":27.4,"aqi":59,"pm10":21.5,"pm2_5":10.5,"mosquito_risk":0,"arthritis_risk":5,"migraine_risk":7,"frizz_risk":0,"updated_at":"2026-03-24T17:17:22.742203+05:30"},{"city":"Bhopal","state":"Madhya Pradesh","latitude":23.2599,"longitude":77.4126,"temp":32.7,"humidity":26,"rain":0.0,"pressure":953.0,"uv_index":8.05,"wind_gusts":29.2,"aqi":74,"pm10":38.6,"pm2_5":15.7,"mosquito_risk":0,"arthritis_risk":5,"migraine_risk":7,"frizz_risk":0,"updated_at":"2026-03-24T17:17:22.742211+05:30"},{"city":"Jabalpur","state":"Madhya Pradesh","latitude":23.1815,"longitude":79.9864,"temp":32.1,"humidity":31,"rain":0.0,"pressure":960.6,"uv_index":8.1,"wind_gusts":30.2,"aqi":82,"pm10":47.0,"pm2_5":19.8,"mosquito_risk":0,"arthritis_risk":5,"migraine_risk":7,"frizz_risk":0,"updated_at":"2026-03-24T17:17:22.742218+05:30"},{"city":"Ujjain","state":"Madhya Pradesh","latitude":23.1765,"longitude":75.7885,"temp":32.0,"humidity":29,"rain":0.0,"pressure":953.0,"uv_index":8.05,"wind_gusts":21.2,"aqi":61,"pm10":24.8,"pm2_5":12.1,"mosquito_risk":0,"arthritis_risk":5,"migraine_risk":7,"frizz_risk":0,"updated_at":"2026-03-24T17:17:22.742226+05:30"},{"city":"Visakhapatnam","state":"Andhra Pradesh","latitude":17.6868,"longitude":83.2185,"temp":28.8,"humidity":66,"rain":0.0,"pressure":1003.9,"uv_index":8.9,"wind_gusts":34.9,"aqi":87,"pm10":25.0,"pm2_5":16.8,"mosquito_risk":7,"arthritis_risk":5,"migraine_risk":4,"frizz_risk":1,"updated_at":"2026-03-24T17:17:22.742252+05:30"},{"city":"Vijayawada","state":"Andhra Pradesh","latitude":16.5062,"longitude":80.648,"temp":33.2,"humidity":45,"rain":0.0,"pressure":1001.4,"uv_index":9.0,"wind_gusts":27.0,"aqi":67,"pm10":24.3,"pm2_5":16.9,"mosquito_risk":0,"arthritis_risk":5,"migraine_risk":4,"frizz_risk":1,"updated_at":"2026-03-24T17:17:22.742260+05:30"},{"city":"Guntur","state":"Andhra Pradesh","latitude":16.3067,"longitude":80.4365,"temp":30.7,"humidity":57,"rain":0.0,"pressure":1003.2,"uv_index":9.0,"wind_gusts":30.2,"aqi":64,"pm10":28.4,"pm2_5":19.8,"mosquito_risk":0,"arthritis_risk":5,"migraine_risk":4,"frizz_risk":1,"updated_at":"2026-03-24T17:17:22.742267+05:30"},{"city":"Nellore","state":"Andhra Pradesh","latitude":14.4426,"longitude":79.9865,"temp":30.5,"humidity":59,"rain":0.0,"pressure":1005.3,"uv_index":9.1,"wind_gusts":31.7,"aqi":49,"pm10":15.2,"pm2_5":9.8,"mosquito_risk":0,"arthritis_risk":5,"migraine_risk":4,"frizz_risk":1,"updated_at":"2026-03-24T17:17:22.742276+05:30"},{"city":"Kurnool","state":"Andhra Pradesh","latitude":15.8281,"longitude":78.0373,"temp":35.6,"humidity":30,"rain":0.0,"pressure":974.9,"uv_index":9.0,"wind_gusts":27.4,"aqi":77,"pm10":33.4,"pm2_5":22.9,"mosquito_risk":0,"arthritis_risk":5,"migraine_risk":10,"frizz_risk":0,"updated_at":"2026-03-24T17:17:22.742284+05:30"},{"city":"Kakinada","state":"Andhra Pradesh","latitude":16.9891,"longitude":82.2475,"temp":30.5,"humidity":59,"rain":0.0,"pressure":1007.3,"uv_index":8.95,"wind_gusts":29.2,"aqi":50,"pm10":18.7,"pm2_5":9.7,"mosquito_risk":0,"arthritis_risk":5,"migraine_risk":4,"frizz_risk":1,"updated_at":"2026-03-24T17:17:22.742291+05:30"},{"city":"Tirupati","state":"Andhra Pradesh","latitude":13.6288,"longitude":79.4192,"temp":33.5,"humidity":38,"rain":0.0,"pressure":990.1,"uv_index":9.25,"wind_gusts":31.0,"aqi":63,"pm10":26.5,"pm2_5":20.0,"mosquito_risk":0,"arthritis_risk":5,"migraine_risk":7,"frizz_risk":1,"updated_at":"2026-03-24T17:17:22.742298+05:30"},{"city":"Warangal","state":"Telangana","latitude":17.9689,"longitude":79.5941,"temp":33.8,"humidity":38,"rain":0.0,"pressure":977.6,"uv_index":8.8,"wind_gusts":28.1,"aqi":90,"pm10":40.5,"pm2_5":29.9,"mosquito_risk":0,"arthritis_risk":5,"migraine_risk":7,"frizz_risk":1,"updated_at":"2026-03-24T17:17:22.742306+05:30"},{"city":"Nizamabad","state":"Telangana","latitude":18.6725,"longitude":78.0941,"temp":34.6,"humidity":29,"rain":0.0,"pressure":963.3,"uv_index":8.7,"wind_gusts":31.7,"aqi":97,"pm10":43.2,"pm2_5":31.3,"mosquito_risk":0,"arthritis_risk":5,"migraine_risk":7,"frizz_risk":0,"updated_at":"2026-03-24T17:17:22.742313+05:30"},{"city":"Mysore","state":"Karnataka","latitude":12.2958,"longitude":76.6396,"temp":33.5,"humidity":26,"rain":0.0,"pressure":926.4,"uv_index":9.4,"wind_gusts":42.1,"aqi":120,"pm10":29.0,"pm2_5":20.4,"mosquito_risk":0,"arthritis_risk":5,"migraine_risk":7,"frizz_risk":0,"updated_at":"2026-03-24T17:17:22.742321+05:30"},{"city":"Mangalore","state":"Karnataka","latitude":12.9141,"longitude":74.856,"temp":29.1,"humidity":77,"rain":0.0,"pressure":1005.4,"uv_index":9.1,"wind_gusts":24.8,"aqi":134,"pm10":47.6,"pm2_5":34.8,"mosquito_risk":7,"arthritis_risk":5,"migraine_risk":4,"frizz_risk":1,"updated_at":"2026-03-24T17:17:22.742328+05:30"},{"city":"Hubli-Dharwad","state":"Karnataka","latitude":15.3647,"longitude":75.124,"temp":26.7,"humidity":71,"rain":0.0,"pressure":940.0,"uv_index":9.05,"wind_gusts":37.1,"aqi":131,"pm10":45.2,"pm2_5":33.1,"mosquito_risk":7,"arthritis_risk":5,"migraine_risk":7,"frizz_risk":1,"updated_at":"2026-03-24T17:17:22.742335+05:30"},{"city":"Belgaum","state":"Karnataka","latitude":15.8497,"longitude":74.4977,"temp":27.5,"humidity":66,"rain":0.0,"pressure":925.1,"uv_index":9.15,"wind_gusts":42.5,"aqi":153,"pm10":38.4,"pm2_5":29.1,"mosquito_risk":7,"arthritis_risk":5,"migraine_risk":7,"frizz_risk":1,"updated_at":"2026-03-24T17:17:25.964711+05:30"},{"city":"Coimbatore","state":"Tamil Nadu","latitude":11.0168,"longitude":76.9558,"temp":34.1,"humidity":29,"rain":0.0,"pressure":959.5,"uv_index":9.4,"wind_gusts":34.9,"aqi":88,"pm10":18.5,"pm2_5":12.3,"mosquito_risk":0,"arthritis_risk":5,"migraine_risk":7,"frizz_risk":0,"updated_at":"2026-03-24T17:17:25.964743+05:30"},{"city":"Madurai","state":"Tamil Nadu","latitude":9.9252,"longitude":78.1198,"temp":35.1,"humidity":35,"rain":0.0,"pressure":990.6,"uv_index":9.35,"wind_gusts":32.0,"aqi":57,"pm10":10.4,"pm2_5":6.4,"mosquito_risk":0,"arthritis_risk":5,"migraine_risk":10,"frizz_risk":1,"updated_at":"2026-03-24T17:17:25.964754+05:30"},{"city":"Trichy","state":"Tamil Nadu","latitude":10.7905,"longitude":78.7047,"temp":34.0,"humidity":42,"rain":0.0,"pressure":997.8,"uv_index":9.3,"wind_gusts":23.4,"aqi":54,"pm10":11.6,"pm2_5":9.4,"mosquito_risk":0,"arthritis_risk":5,"migraine_risk":7,"frizz_risk":1,"updated_at":"2026-03-24T17:17:25.964763+05:30"},{"city":"Salem","state":"Tamil Nadu","latitude":11.6643,"longitude":78.146,"temp":34.8,"humidity":33,"rain":0.0,"pressure":975.3,"uv_index":9.35,"wind_gusts":27.4,"aqi":85,"pm10":34.0,"pm2_5":25.3,"mosquito_risk":0,"arthritis_risk":5,"migraine_risk":7,"frizz_risk":1,"updated_at":"2026-03-24T17:17:25.964771+05:30"},{"city":"Tirunelveli","state":"Tamil Nadu","latitude":8.7139,"longitude":77.7567,"temp":35.9,"humidity":34,"rain":0.0,"pressure":1000.5,"uv_index":9.35,"wind_gusts":37.4,"aqi":51,"pm10":7.3,"pm2_5":4.1,"mosquito_risk":0,"arthritis_risk":5,"migraine_risk":7,"frizz_risk":1,"updated_at":"2026-03-24T17:17:25.964779+05:30"},{"city":"Vellore","state":"Tamil Nadu","latitude":12.9165,"longitude":79.1325,"temp":32.9,"humidity":40,"rain":0.0,"pressure":983.2,"uv_index":9.3,"wind_gusts":36.4,"aqi":64,"pm10":19.4,"pm2_5":13.1,"mosquito_risk":0,"arthritis_risk":5,"migraine_risk":7,"frizz_risk":1,"updated_at":"2026-03-24T17:17:25.964786+05:30"},{"city":"Erode","state":"Tamil Nadu","latitude":11.341,"longitude":77.7172,"temp":35.5,"humidity":36,"rain":0.0,"pressure":986.4,"uv_index":9.3,"wind_gusts":23.4,"aqi":62,"pm10":21.1,"pm2_5":15.2,"mosquito_risk":0,"arthritis_risk":5,"migraine_risk":10,"frizz_risk":1,"updated_at":"2026-03-24T17:17:25.964793+05:30"},{"city":"Kochi","state":"Kerala","latitude":9.9312,"longitude":76.2673,"temp":29.1,"humidity":80,"rain":0.0,"pressure":1006.2,"uv_index":9.15,"wind_gusts":35.6,"aqi":102,"pm10":29.7,"pm2_5":21.5,"mosquito_risk":7,"arthritis_risk":5,"migraine_risk":4,"frizz_risk":1,"updated_at":"2026-03-24T17:17:25.964800+05:30"},{"city":"Thiruvananthapuram","state":"Kerala","latitude":8.5241,"longitude":76.9366,"temp":29.4,"humidity":76,"rain":0.0,"pressure":1006.0,"uv_index":9.2,"wind_gusts":29.5,"aqi":101,"pm10":32.2,"pm2_5":21.4,"mosquito_risk":7,"arthritis_risk":5,"migraine_risk":4,"frizz_risk":1,"updated_at":"2026-03-24T17:17:25.964808+05:30"},{"city":"Kozhikode","state":"Kerala","latitude":11.2588,"longitude":75.7804,"temp":30.1,"humidity":74,"rain":0.0,"pressure":1005.8,"uv_index":9.05,"wind_gusts":32.0,"aqi":92,"pm10":40.2,"pm2_5":26.3,"mosquito_risk":3,"arthritis_risk":5,"migraine_risk":4,"frizz_risk":1,"updated_at":"2026-03-24T17:17:25.964814+05:30"},{"city":"Thrissur","state":"Kerala","latitude":10.5276,"longitude":76.2144,"temp":31.0,"humidity":66,"rain":0.0,"pressure":1004.7,"uv_index":9.15,"wind_gusts":41.8,"aqi":95,"pm10":27.5,"pm2_5":18.7,"mosquito_risk":3,"arthritis_risk":5,"migraine_risk":4,"frizz_risk":1,"updated_at":"2026-03-24T17:17:25.964822+05:30"},{"city":"Kannur","state":"Kerala","latitude":11.8745,"longitude":75.3704,"temp":30.5,"humidity":70,"rain":0.0,"pressure":1005.6,"uv_index":9.05,"wind_gusts":29.9,"aqi":114,"pm10":51.0,"pm2_5":34.7,"mosquito_risk":3,"arthritis_risk":5,"migraine_risk":4,"frizz_risk":1,"updated_at":"2026-03-24T17:17:25.964829+05:30"},{"city":"Patna","state":"Bihar","latitude":25.5941,"longitude":85.1376,"temp":31.1,"humidity":36,"rain":0.0,"pressure":999.3,"uv_index":7.9,"wind_gusts":33.1,"aqi":159,"pm10":68.0,"pm2_5":32.1,"mosquito_risk":0,"arthritis_risk":5,"migraine_risk":7,"frizz_risk":0,"updated_at":"2026-03-24T17:17:25.964837+05:30"},{"city":"Gaya","state":"Bihar","latitude":24.7914,"longitude":85.0002,"temp":30.4,"humidity":45,"rain":0.0,"pressure":993.1,"uv_index":7.95,"wind_gusts":20.5,"aqi":120,"pm10":68.2,"pm2_5":32.8,"mosquito_risk":0,"arthritis_risk":5,"migraine_risk":7,"frizz_risk":1,"updated_at":"2026-03-24T17:17:25.964843+05:30"},{"city":"Muzaffarpur","state":"Bihar","latitude":26.1209,"longitude":85.3647,"temp":29.9,"humidity":40,"rain":0.0,"pressure":999.2,"uv_index":7.85,"wind_gusts":35.6,"aqi":161,"pm10":67.1,"pm2_5":34.7,"mosquito_risk":4,"arthritis_risk":5,"migraine_risk":7,"frizz_risk":0,"updated_at":"2026-03-24T17:17:25.964850+05:30"},{"city":"Bhagalpur","state":"Bihar","latitude":25.2425,"longitude":87.0117,"temp":29.0,"humidity":50,"rain":0.0,"pressure":1000.0,"uv_index":7.85,"wind_gusts":28.4,"aqi":151,"pm10":74.3,"pm2_5":36.0,"mosquito_risk":4,"arthritis_risk":5,"migraine_risk":4,"frizz_risk":1,"updated_at":"2026-03-24T17:17:25.964857+05:30"},{"city":"Ranchi","state":"Jharkhand","latitude":23.3441,"longitude":85.3096,"temp":25.2,"humidity":57,"rain":0.0,"pressure":938.0,"uv_index":8.6,"wind_gusts":36.4,"aqi":135,"pm10":56.9,"pm2_5":35.0,"mosquito_risk":4,"arthritis_risk":5,"migraine_risk":7,"frizz_risk":0,"updated_at":"2026-03-24T17:17:25.964864+05:30"},{"city":"Jamshedpur","state":"Jharkhand","latitude":22.8046,"longitude":86.2029,"temp":31.6,"humidity":38,"rain":0.0,"pressure":990.5,"uv_index":8.2,"wind_gusts":23.8,"aqi":152,"pm10":64.5,"pm2_5":40.5,"mosquito_risk":0,"arthritis_risk":5,"migraine_risk":7,"frizz_risk":0,"updated_at":"2026-03-24T17:17:25.964870+05:30"},{"city":"Dhanbad","state":"Jharkhand","latitude":23.7957,"longitude":86.4304,"temp":30.5,"humidity":38,"rain":0.0,"pressure":979.3,"uv_index":8.35,"wind_gusts":23.8,"aqi":162,"pm10":70.3,"pm2_5":38.8,"mosquito_risk":0,"arthritis_risk":5,"migraine_risk":7,"frizz_risk":0,"updated_at":"2026-03-24T17:17:25.964877+05:30"},{"city":"Bokaro","state":"Jharkhand","latitude":23.6693,"longitude":86.1511,"temp":30.5,"humidity":36,"rain":0.0,"pressure":983.3,"uv_index":8.3,"wind_gusts":22.0,"aqi":153,"pm10":70.1,"pm2_5":36.1,"mosquito_risk":0,"arthritis_risk":5,"migraine_risk":7,"frizz_risk":0,"updated_at":"2026-03-24T17:17:25.964884+05:30"},{"city":"Bhubaneswar","state":"Odisha","latitude":20.2961,"longitude":85.8245,"temp":29.4,"humidity":61,"rain":0.0,"pressure":1002.8,"uv_index":8.7,"wind_gusts":33.1,"aqi":114,"pm10":39.6,"pm2_5":27.0,"mosquito_risk":7,"arthritis_risk":5,"migraine_risk":4,"frizz_risk":1,"updated_at":"2026-03-24T17:17:25.964891+05:30"},{"city":"Cuttack","state":"Odisha","latitude":20.4625,"longitude":85.8828,"temp":31.5,"humidity":50,"rain":0.0,"pressure":1004.2,"uv_index":8.75,"wind_gusts":29.2,"aqi":114,"pm10":39.6,"pm2_5":27.0,"mosquito_risk":0,"arthritis_risk":5,"migraine_risk":4,"frizz_risk":1,"updated_at":"2026-03-24T17:17:25.964898+05:30"},{"city":"Rourkela","state":"Odisha","latitude":22.2604,"longitude":84.8536,"temp":32.6,"humidity":32,"rain":0.0,"pressure":984.4,"uv_index":8.4,"wind_gusts":24.8,"aqi":191,"pm10":57.0,"pm2_5":40.0,"mosquito_risk":0,"arthritis_risk":5,"migraine_risk":7,"frizz_risk":0,"updated_at":"2026-03-24T17:17:25.964904+05:30"},{"city":"Raipur","state":"Chhattisgarh","latitude":21.2514,"longitude":81.6296,"temp":35.5,"humidity":22,"rain":0.0,"pressure":972.7,"uv_index":8.5,"wind_gusts":23.8,"aqi":141,"pm10":36.3,"pm2_5":26.0,"mosquito_risk":0,"arthritis_risk":5,"migraine_risk":10,"frizz_risk":0,"updated_at":"2026-03-24T17:17:25.964910+05:30"},{"city":"Bhilai","state":"Chhattisgarh","latitude":21.1938,"longitude":81.3509,"temp":35.4,"humidity":23,"rain":0.0,"pressure":973.0,"uv_index":8.5,"wind_gusts":29.9,"aqi":119,"pm10":33.4,"pm2_5":23.8,"mosquito_risk":0,"arthritis_risk":5,"migraine_risk":10,"frizz_risk":0,"updated_at":"2026-03-24T17:17:25.964917+05:30"},{"city":"Guwahati","state":"Assam","latitude":26.1158,"longitude":91.7086,"temp":24.2,"humidity":79,"rain":0.0,"pressure":1002.3,"uv_index":7.75,"wind_gusts":29.5,"aqi":112,"pm10":51.1,"pm2_5":46.0,"mosquito_risk":3,"arthritis_risk":5,"migraine_risk":4,"frizz_risk":1,"updated_at":"2026-03-24T17:17:25.964923+05:30"},{"city":"Agartala","state":"Tripura","latitude":23.8315,"longitude":91.2868,"temp":27.6,"humidity":60,"rain":0.0,"pressure":1006.0,"uv_index":8.1,"wind_gusts":15.1,"aqi":172,"pm10":79.4,"pm2_5":63.6,"mosquito_risk":4,"arthritis_risk":5,"migraine_risk":4,"frizz_risk":1,"updated_at":"2026-03-24T17:17:25.964931+05:30"},{"city":"Shillong","state":"Meghalaya","latitude":25.5788,"longitude":91.8933,"temp":13.6,"humidity":76,"rain":0.0,"pressure":854.7,"uv_index":7.0,"wind_gusts":41.0,"aqi":111,"pm10":42.0,"pm2_5":38.0,"mosquito_risk":3,"arthritis_risk":5,"migraine_risk":7,"frizz_risk":0,"updated_at":"2026-03-24T17:17:25.964938+05:30"},{"city":"Imphal","state":"Manipur","latitude":24.817,"longitude":93.9368,"temp":18.4,"humidity":66,"rain":0.0,"pressure":922.2,"uv_index":8.05,"wind_gusts":38.9,"aqi":115,"pm10":36.6,"pm2_5":31.2,"mosquito_risk":3,"arthritis_risk":5,"migraine_risk":7,"frizz_risk":0,"updated_at":"2026-03-24T17:17:25.964946+05:30"},{"city":"Aizawl","state":"Mizoram","latitude":23.7271,"longitude":92.7176,"temp":20.5,"humidity":54,"rain":0.0,"pressure":892.3,"uv_index":8.35,"wind_gusts":31.0,"aqi":118,"pm10":52.0,"pm2_5":42.3,"mosquito_risk":0,"arthritis_risk":5,"migraine_risk":7,"frizz_risk":0,"updated_at":"2026-03-24T17:17:25.964952+05:30"},{"city":"Kohima","state":"Nagaland","latitude":25.6701,"longitude":94.1077,"temp":13.8,"humidity":94,"rain":0.0,"pressure":853.1,"uv_index":8.05,"wind_gusts":55.4,"aqi":87,"pm10":32.6,"pm2_5":27.6,"mosquito_risk":3,"arthritis_risk":10,"migraine_risk":7,"frizz_risk":0,"updated_at":"2026-03-24T17:17:25.964959+05:30"},{"city":"Gangtok","state":"Sikkim","latitude":27.3314,"longitude":88.6138,"temp":12.6,"humidity":93,"rain":0.1,"pressure":834.4,"uv_index":4.1,"wind_gusts":15.5,"aqi":102,"pm10":39.9,"pm2_5":29.6,"mosquito_risk":6,"arthritis_risk":10,"migraine_risk":3,"frizz_risk":0,"updated_at":"2026-03-24T17:17:25.964967+05:30"},{"city":"Siliguri","state":"West Bengal","latitude":26.7271,"longitude":88.3953,"temp":20.0,"humidity":86,"rain":0.0,"pressure":993.2,"uv_index":5.95,"wind_gusts":38.5,"aqi":135,"pm10":75.2,"pm2_5":59.4,"mosquito_risk":3,"arthritis_risk":5,"migraine_risk":3,"frizz_risk":1,"updated_at":"2026-03-24T17:17:29.192900+05:30"},{"city":"Durgapur","state":"West Bengal","latitude":23.5204,"longitude":87.3119,"temp":30.2,"humidity":46,"rain":0.0,"pressure":994.5,"uv_index":8.05,"wind_gusts":21.2,"aqi":156,"pm10":75.7,"pm2_5":40.0,"mosquito_risk":0,"arthritis_risk":5,"migraine_risk":7,"frizz_risk":1,"updated_at":"2026-03-24T17:17:29.192937+05:30"},{"city":"Asansol","state":"West Bengal","latitude":23.6739,"longitude":86.9524,"temp":30.7,"humidity":41,"rain":0.0,"pressure":992.9,"uv_index":7.95,"wind_gusts":21.2,"aqi":154,"pm10":69.6,"pm2_5":39.2,"mosquito_risk":0,"arthritis_risk":5,"migraine_risk":7,"frizz_risk":0,"updated_at":"2026-03-24T17:17:29.192951+05:30"},{"city":"Pondicherry","state":"Puducherry","latitude":11.9139,"longitude":79.8145,"temp":30.1,"humidity":64,"rain":0.0,"pressure":1007.6,"uv_index":9.15,"wind_gusts":30.2,"aqi":35,"pm10":6.5,"pm2_5":4.2,"mosquito_risk":3,"arthritis_risk":5,"migraine_risk":4,"frizz_risk":1,"updated_at":"2026-03-24T17:17:29.192964+05:30"},{"city":"Port Blair","state":"Andaman and Nicobar Islands","latitude":11.6234,"longitude":92.7265,"temp":28.8,"humidity":71,"rain":0.0,"pressure":1006.1,"uv_index":9.15,"wind_gusts":23.8,"aqi":77,"pm10":27.3,"pm2_5":17.2,"mosquito_risk":7,"arthritis_risk":5,"migraine_risk":4,"frizz_risk":1,"updated_at":"2026-03-24T17:17:29.192977+05:30"},{"city":"Haridwar","state":"Uttarakhand","latitude":29.9457,"longitude":78.1642,"temp":27.8,"humidity":36,"rain":0.0,"pressure":974.5,"uv_index":6.4,"wind_gusts":37.8,"aqi":113,"pm10":25.3,"pm2_5":20.2,"mosquito_risk":4,"arthritis_risk":5,"migraine_risk":7,"frizz_risk":0,"updated_at":"2026-03-24T17:17:29.192989+05:30"},{"city":"Rishikesh","state":"Uttarakhand","latitude":30.0869,"longitude":78.2676,"temp":26.4,"humidity":43,"rain":0.0,"pressure":967.2,"uv_index":6.45,"wind_gusts":35.6,"aqi":103,"pm10":27.1,"pm2_5":20.3,"mosquito_risk":4,"arthritis_risk":5,"migraine_risk":7,"frizz_risk":0,"updated_at":"2026-03-24T17:17:29.193002+05:30"},{"city":"Nainital","state":"Uttarakhand","latitude":29.3919,"longitude":79.4542,"temp":18.4,"humidity":51,"rain":0.0,"pressure":805.7,"uv_index":7.3,"wind_gusts":56.2,"aqi":120,"pm10":33.5,"pm2_5":22.6,"mosquito_risk":0,"arthritis_risk":5,"migraine_risk":7,"frizz_risk":0,"updated_at":"2026-03-24T17:17:29.193014+05:30"},{"city":"Mussoorie","state":"Uttarakhand","latitude":30.4599,"longitude":78.0664,"temp":17.2,"humidity":56,"rain":0.0,"pressure":802.3,"uv_index":6.8,"wind_gusts":46.4,"aqi":102,"pm10":25.6,"pm2_5":19.2,"mosquito_risk":0,"arthritis_risk":5,"migraine_risk":7,"frizz_risk":0,"updated_at":"2026-03-24T17:17:29.193025+05:30"},{"city":"Dharamshala","state":"Himachal Pradesh","latitude":32.219,"longitude":76.3234,"temp":20.2,"humidity":54,"rain":0.0,"pressure":869.3,"uv_index":7.05,"wind_gusts":26.3,"aqi":90,"pm10":19.2,"pm2_5":10.9,"mosquito_risk":0,"arthritis_risk":5,"migraine_risk":7,"frizz_risk":0,"updated_at":"2026-03-24T17:17:29.193038+05:30"},{"city":"Dalhousie","state":"Himachal Pradesh","latitude":32.5387,"longitude":75.971,"temp":18.5,"humidity":48,"rain":0.0,"pressure":804.3,"uv_index":7.3,"wind_gusts":23.0,"aqi":78,"pm10":17.3,"pm2_5":11.6,"mosquito_risk":0,"arthritis_risk":5,"migraine_risk":7,"frizz_risk":0,"updated_at":"2026-03-24T17:17:29.193050+05:30"},{"city":"Patiala","state":"Punjab","latitude":30.3398,"longitude":76.3869,"temp":27.7,"humidity":38,"rain":0.0,"pressure":979.5,"uv_index":6.4,"wind_gusts":33.8,"aqi":159,"pm10":601.6,"pm2_5":68.2,"mosquito_risk":4,"arthritis_risk":5,"migraine_risk":7,"frizz_risk":0,"updated_at":"2026-03-24T17:17:29.193062+05:30"},{"city":"Bhatinda","state":"Punjab","latitude":30.211,"longitude":74.9455,"temp":29.8,"humidity":30,"rain":0.0,"pressure":984.8,"uv_index":7.05,"wind_gusts":25.2,"aqi":136,"pm10":36.7,"pm2_5":21.1,"mosquito_risk":4,"arthritis_risk":5,"migraine_risk":7,"frizz_risk":0,"updated_at":"2026-03-24T17:17:29.193073+05:30"},{"city":"Rohtak","state":"Haryana","latitude":28.8955,"longitude":76.6066,"temp":29.0,"humidity":35,"rain":0.0,"pressure":982.8,"uv_index":6.3,"wind_gusts":26.3,"aqi":162,"pm10":683.6,"pm2_5":75.7,"mosquito_risk":4,"arthritis_risk":5,"migraine_risk":7,"frizz_risk":0,"updated_at":"2026-03-24T17:17:29.193085+05:30"},{"city":"Panipat","state":"Haryana","latitude":29.3909,"longitude":76.9635,"temp":28.1,"humidity":39,"rain":0.0,"pressure":981.3,"uv_index":6.0,"wind_gusts":29.2,"aqi":225,"pm10":1467.8,"pm2_5":141.6,"mosquito_risk":4,"arthritis_risk":5,"migraine_risk":3,"frizz_risk":0,"updated_at":"2026-03-24T17:17:29.193098+05:30"},{"city":"Mathura","state":"Uttar Pradesh","latitude":27.4924,"longitude":77.6737,"temp":30.4,"humidity":34,"rain":0.0,"pressure":987.5,"uv_index":6.5,"wind_gusts":25.2,"aqi":152,"pm10":815.8,"pm2_5":84.3,"mosquito_risk":0,"arthritis_risk":5,"migraine_risk":7,"frizz_risk":0,"updated_at":"2026-03-24T17:17:29.193110+05:30"},{"city":"Vrindavan","state":"Uttar Pradesh","latitude":27.5823,"longitude":77.7027,"temp":29.9,"humidity":37,"rain":0.0,"pressure":988.0,"uv_index":6.65,"wind_gusts":27.0,"aqi":152,"pm10":815.8,"pm2_5":84.3,"mosquito_risk":4,"arthritis_risk":5,"migraine_risk":7,"frizz_risk":0,"updated_at":"2026-03-24T17:17:29.193122+05:30"},{"city":"Ayodhya","state":"Uttar Pradesh","latitude":26.7922,"longitude":82.1998,"temp":30.6,"humidity":35,"rain":0.0,"pressure":995.0,"uv_index":7.2,"wind_gusts":34.6,"aqi":114,"pm10":61.9,"pm2_5":23.9,"mosquito_risk":0,"arthritis_risk":5,"migraine_risk":7,"frizz_risk":0,"updated_at":"2026-03-24T17:17:29.193132+05:30"},{"city":"Ratlam","state":"Madhya Pradesh","latitude":23.3315,"longitude":75.0367,"temp":32.2,"humidity":30,"rain":0.0,"pressure":953.8,"uv_index":8.05,"wind_gusts":23.0,"aqi":55,"pm10":22.9,"pm2_5":9.9,"mosquito_risk":0,"arthritis_risk":5,"migraine_risk":7,"frizz_risk":0,"updated_at":"2026-03-24T17:17:29.193143+05:30"},{"city":"Sagar","state":"Madhya Pradesh","latitude":23.8388,"longitude":78.7378,"temp":31.7,"humidity":26,"rain":0.0,"pressure":949.9,"uv_index":8.05,"wind_gusts":27.4,"aqi":77,"pm10":42.4,"pm2_5":16.7,"mosquito_risk":0,"arthritis_risk":5,"migraine_risk":7,"frizz_risk":0,"updated_at":"2026-03-24T17:17:29.193155+05:30"},{"city":"Satna","state":"Madhya Pradesh","latitude":24.6005,"longitude":80.8322,"temp":32.2,"humidity":26,"rain":0.0,"pressure":970.9,"uv_index":7.5,"wind_gusts":27.7,"aqi":84,"pm10":53.3,"pm2_5":16.7,"mosquito_risk":0,"arthritis_risk":5,"migraine_risk":7,"frizz_risk":0,"updated_at":"2026-03-24T17:17:29.193166+05:30"},{"city":"Akola","state":"Maharashtra","latitude":20.7002,"longitude":77.0082,"temp":35.5,"humidity":24,"rain":0.0,"pressure":973.8,"uv_index":8.45,"wind_gusts":27.7,"aqi":82,"pm10":28.5,"pm2_5":13.1,"mosquito_risk":0,"arthritis_risk":5,"migraine_risk":10,"frizz_risk":0,"updated_at":"2026-03-24T17:17:29.193178+05:30"},{"city":"Amravati","state":"Maharashtra","latitude":20.9374,"longitude":77.7796,"temp":34.9,"humidity":23,"rain":0.0,"pressure":965.8,"uv_index":8.45,"wind_gusts":29.5,"aqi":92,"pm10":29.6,"pm2_5":14.0,"mosquito_risk":0,"arthritis_risk":5,"migraine_risk":7,"frizz_risk":0,"updated_at":"2026-03-24T17:17:29.193191+05:30"},{"city":"Latur","state":"Maharashtra","latitude":18.4088,"longitude":76.5604,"temp":33.6,"humidity":27,"rain":0.0,"pressure":938.6,"uv_index":8.75,"wind_gusts":20.2,"aqi":105,"pm10":46.3,"pm2_5":34.5,"mosquito_risk":0,"arthritis_risk":5,"migraine_risk":7,"frizz_risk":0,"updated_at":"2026-03-24T17:17:29.193202+05:30"},{"city":"Nanded","state":"Maharashtra","latitude":19.1383,"longitude":77.3091,"temp":36.0,"humidity":21,"rain":0.0,"pressure":966.8,"uv_index":8.6,"wind_gusts":16.6,"aqi":112,"pm10":26.3,"pm2_5":18.3,"mosquito_risk":0,"arthritis_risk":5,"migraine_risk":10,"frizz_risk":0,"updated_at":"2026-03-24T17:17:29.193213+05:30"},{"city":"Gulbarga","state":"Karnataka","latitude":17.3297,"longitude":76.8343,"temp":35.0,"humidity":29,"rain":0.0,"pressure":956.7,"uv_index":8.8,"wind_gusts":36.7,"aqi":108,"pm10":40.4,"pm2_5":29.2,"mosquito_risk":0,"arthritis_risk":5,"migraine_risk":7,"frizz_risk":0,"updated_at":"2026-03-24T17:17:29.193224+05:30"},{"city":"Bidar","state":"Karnataka","latitude":17.9104,"longitude":77.5199,"temp":32.8,"humidity":33,"rain":0.0,"pressure":934.4,"uv_index":8.8,"wind_gusts":34.2,"aqi":93,"pm10":41.7,"pm2_5":30.5,"mosquito_risk":0,"arthritis_risk":5,"migraine_risk":7,"frizz_risk":0,"updated_at":"2026-03-24T17:17:29.193255+05:30"},{"city":"Hospet","state":"Karnataka","latitude":15.2689,"longitude":76.3909,"temp":33.2,"humidity":36,"rain":0.0,"pressure":954.4,"uv_index":9.05,"wind_gusts":27.7,"aqi":122,"pm10":32.1,"pm2_5":25.1,"mosquito_risk":0,"arthritis_risk":5,"migraine_risk":7,"frizz_risk":1,"updated_at":"2026-03-24T17:17:29.193267+05:30"},{"city":"Tirupur","state":"Tamil Nadu","latitude":11.1085,"longitude":77.3411,"temp":35.6,"humidity":27,"rain":0.0,"pressure":972.8,"uv_index":9.4,"wind_gusts":28.4,"aqi":75,"pm10":24.2,"pm2_5":17.0,"mosquito_risk":0,"arthritis_risk":5,"migraine_risk":10,"frizz_risk":0,"updated_at":"2026-03-24T17:17:29.193279+05:30"},{"city":"Alappuzha","state":"Kerala","latitude":9.4981,"longitude":76.3388,"temp":29.1,"humidity":79,"rain":0.0,"pressure":1006.4,"uv_index":9.15,"wind_gusts":29.9,"aqi":110,"pm10":32.4,"pm2_5":21.7,"mosquito_risk":7,"arthritis_risk":5,"migraine_risk":4,"frizz_risk":1,"updated_at":"2026-03-24T17:17:29.193290+05:30"},{"city":"Munnar","state":"Kerala","latitude":10.0889,"longitude":77.0595,"temp":25.0,"humidity":72,"rain":0.0,"pressure":856.7,"uv_index":9.65,"wind_gusts":27.0,"aqi":75,"pm10":19.6,"pm2_5":11.6,"mosquito_risk":7,"arthritis_risk":5,"migraine_risk":7,"frizz_risk":1,"updated_at":"2026-03-24T17:17:29.193303+05:30"},{"city":"Silchar","state":"Assam","latitude":24.8333,"longitude":92.7789,"temp":26.2,"humidity":61,"rain":0.0,"pressure":1005.1,"uv_index":8.05,"wind_gusts":18.4,"aqi":148,"pm10":68.5,"pm2_5":60.8,"mosquito_risk":7,"arthritis_risk":5,"migraine_risk":4,"frizz_risk":1,"updated_at":"2026-03-24T17:17:29.193314+05:30"},{"city":"Dibrugarh","state":"Assam","latitude":27.4728,"longitude":94.912,"temp":22.9,"humidity":79,"rain":0.0,"pressure":996.6,"uv_index":7.3,"wind_gusts":14.4,"aqi":86,"pm10":16.1,"pm2_5":12.7,"mosquito_risk":3,"arthritis_risk":5,"migraine_risk":7,"frizz_risk":1,"updated_at":"2026-03-24T17:17:29.193325+05:30"}]