[{"city":"Delhi","state":"Delhi","latitude":28.6139,"longitude":77.209,"temp":27.8,"humidity":38,"rain":0.0,"pressure":985.5,"uv_index":5.4,"aqi":167,"mosquito_risk":4,"arthritis_risk":5,"migraine_risk":3,"frizz_risk":0,"updated_at":"2026-02-23T13:27:12.243319+05:30"},{"city":"Mumbai","state":"Maharashtra","latitude":19.076,"longitude":72.8777,"temp":27.2,"humidity":77,"rain":0.0,"pressure":1007.6,"uv_index":7.25,"aqi":158,"mosquito_risk":7,"arthritis_risk":5,"migraine_risk":4,"frizz_risk":1,"updated_at":"2026-02-23T13:27:12.243362+05:30"},{"city":"Bangalore","state":"Karnataka","latitude":12.9716,"longitude":77.5946,"temp":30.6,"humidity":30,"rain":0.0,"pressure":911.5,"uv_index":8.9,"aqi":55,"mosquito_risk":0,"arthritis_risk":5,"migraine_risk":7,"frizz_risk":0,"updated_at":"2026-02-23T13:27:12.243376+05:30"},{"city":"Hyderabad","state":"Telangana","latitude":17.385,"longitude":78.4867,"temp":29.8,"humidity":42,"rain":0.0,"pressure":953.7,"uv_index":8.05,"aqi":92,"mosquito_risk":4,"arthritis_risk":5,"migraine_risk":7,"frizz_risk":0,"updated_at":"2026-02-23T13:27:12.243386+05:30"},{"city":"Chennai","state":"Tamil Nadu","latitude":13.0827,"longitude":80.2707,"temp":31.9,"humidity":51,"rain":0.0,"pressure":1007.0,"uv_index":8.2,"aqi":41,"mosquito_risk":0,"arthritis_risk":5,"migraine_risk":4,"frizz_risk":1,"updated_at":"2026-02-23T13:27:12.243394+05:30"},{"city":"Kolkata","state":"West Bengal","latitude":22.5726,"longitude":88.3639,"temp":30.5,"humidity":52,"rain":0.0,"pressure":1007.3,"uv_index":7.3,"aqi":162,"mosquito_risk":0,"arthritis_risk":5,"migraine_risk":4,"frizz_risk":1,"updated_at":"2026-02-23T13:27:12.243401+05:30"},{"city":"Pune","state":"Maharashtra","latitude":18.5204,"longitude":73.8567,"temp":32.4,"humidity":25,"rain":0.0,"pressure":948.3,"uv_index":7.75,"aqi":135,"mosquito_risk":0,"arthritis_risk":5,"migraine_risk":7,"frizz_risk":0,"updated_at":"2026-02-23T13:27:12.243408+05:30"},{"city":"Ahmedabad","state":"Gujarat","latitude":23.0225,"longitude":72.5714,"temp":32.5,"humidity":27,"rain":0.0,"pressure":1002.8,"uv_index":6.3,"aqi":90,"mosquito_risk":0,"arthritis_risk":5,"migraine_risk":4,"frizz_risk":0,"updated_at":"2026-02-23T13:27:12.243414+05:30"},{"city":"Jaipur","state":"Rajasthan","latitude":26.9124,"longitude":75.7873,"temp":27.6,"humidity":41,"rain":0.0,"pressure":961.6,"uv_index":6.2,"aqi":119,"mosquito_risk":4,"arthritis_risk":5,"migraine_risk":7,"frizz_risk":0,"updated_at":"2026-02-23T13:27:12.243425+05:30"},{"city":"Lucknow","state":"Uttar Pradesh","latitude":26.8467,"longitude":80.9462,"temp":27.8,"humidity":38,"rain":0.0,"pressure":996.4,"uv_index":5.85,"aqi":158,"mosquito_risk":4,"arthritis_risk":5,"migraine_risk":3,"frizz_risk":0,"updated_at":"2026-02-23T13:27:12.243434+05:30"},{"city":"Kanpur","state":"Uttar Pradesh","latitude":26.4499,"longitude":80.3319,"temp":27.6,"humidity":43,"rain":0.0,"pressure":994.5,"uv_index":5.85,"aqi":155,"mosquito_risk":4,"arthritis_risk":5,"migraine_risk":3,"frizz_risk":0,"updated_at":"2026-02-23T13:27:12.243441+05:30"},{"city":"Chandigarh","state":"Chandigarh","latitude":30.7333,"longitude":76.7794,"temp":25.5,"humidity":52,"rain":0.0,"pressure":971.7,"uv_index":5.25,"aqi":152,"mosquito_risk":4,"arthritis_risk":5,"migraine_risk":3,"frizz_risk":0,"updated_at":"2026-02-23T13:27:12.243448+05:30"},{"city":"Srinagar","state":"Jammu and Kashmir","latitude":34.0837,"longitude":74.7973,"temp":16.3,"humidity":26,"rain":0.0,"pressure":842.8,"uv_index":6.1,"aqi":159,"mosquito_risk":0,"arthritis_risk":5,"migraine_risk":7,"frizz_risk":1,"updated_at":"2026-02-23T13:27:12.243455+05:30"},{"city":"Jammu","state":"Jammu and Kashmir","latitude":32.7266,"longitude":74.857,"temp":25.3,"humidity":54,"rain":0.0,"pressure":975.4,"uv_index":5.8,"aqi":154,"mosquito_risk":4,"arthritis_risk":5,"migraine_risk":3,"frizz_risk":0,"updated_at":"2026-02-23T13:27:12.243462+05:30"},{"city":"Amritsar","state":"Punjab","latitude":31.634,"longitude":74.8723,"temp":25.2,"humidity":55,"rain":0.0,"pressure":984.0,"uv_index":5.75,"aqi":178,"mosquito_risk":4,"arthritis_risk":5,"migraine_risk":3,"frizz_risk":0,"updated_at":"2026-02-23T13:27:12.243468+05:30"},{"city":"Ludhiana","state":"Punjab","latitude":30.901,"longitude":75.8573,"temp":25.8,"humidity":50,"rain":0.0,"pressure":981.8,"uv_index":5.45,"aqi":190,"mosquito_risk":4,"arthritis_risk":5,"migraine_risk":3,"frizz_risk":0,"updated_at":"2026-02-23T13:27:12.243474+05:30"},{"city":"Jalandhar","state":"Punjab","latitude":31.326,"longitude":75.5762,"temp":25.4,"humidity":53,"rain":0.0,"pressure":983.1,"uv_index":5.6,"aqi":187,"mosquito_risk":4,"arthritis_risk":5,"migraine_risk":3,"frizz_risk":0,"updated_at":"2026-02-23T13:27:12.243481+05:30"},{"city":"Dehradun","state":"Uttarakhand","latitude":30.6284,"longitude":78.0322,"temp":15.9,"humidity":62,"rain":0.0,"pressure":830.7,"uv_index":5.55,"aqi":92,"mosquito_risk":3,"arthritis_risk":5,"migraine_risk":3,"frizz_risk":0,"updated_at":"2026-02-23T13:27:12.243487+05:30"},{"city":"Shimla","state":"Himachal Pradesh","latitude":31.1048,"longitude":77.1734,"temp":14.9,"humidity":54,"rain":0.0,"pressure":785.2,"uv_index":5.65,"aqi":112,"mosquito_risk":0,"arthritis_risk":5,"migraine_risk":3,"frizz_risk":0,"updated_at":"2026-02-23T13:27:12.243494+05:30"},{"city":"Manali","state":"Himachal Pradesh","latitude":32.2396,"longitude":77.1887,"temp":19.0,"humidity":17,"rain":0.0,"pressure":819.4,"uv_index":7.2,"aqi":57,"mosquito_risk":0,"arthritis_risk":5,"migraine_risk":7,"frizz_risk":1,"updated_at":"2026-02-23T13:27:12.243503+05:30"},{"city":"Gurgaon","state":"Haryana","latitude":28.4595,"longitude":77.0266,"temp":27.9,"humidity":42,"rain":0.0,"pressure":984.0,"uv_index":5.5,"aqi":167,"mosquito_risk":4,"arthritis_risk":5,"migraine_risk":3,"frizz_risk":0,"updated_at":"2026-02-23T13:27:12.243509+05:30"},{"city":"Noida","state":"Uttar Pradesh","latitude":28.5355,"longitude":77.391,"temp":27.9,"humidity":40,"rain":0.0,"pressure":987.2,"uv_index":5.4,"aqi":167,"mosquito_risk":4,"arthritis_risk":5,"migraine_risk":3,"frizz_risk":0,"updated_at":"2026-02-23T13:27:12.243515+05:30"},{"city":"Ghaziabad","state":"Uttar Pradesh","latitude":28.6692,"longitude":77.4538,"temp":26.6,"humidity":48,"rain":0.0,"pressure":985.5,"uv_index":5.35,"aqi":163,"mosquito_risk":4,"arthritis_risk":5,"migraine_risk":3,"frizz_risk":0,"updated_at":"2026-02-23T13:27:12.243521+05:30"},{"city":"Faridabad","state":"Haryana","latitude":28.4089,"longitude":77.3178,"temp":26.9,"humidity":48,"rain":0.0,"pressure":986.4,"uv_index":5.4,"aqi":167,"mosquito_risk":4,"arthritis_risk":5,"migraine_risk":3,"frizz_risk":0,"updated_at":"2026-02-23T13:27:12.243527+05:30"},{"city":"Meerut","state":"Uttar Pradesh","latitude":28.9845,"longitude":77.7064,"temp":26.7,"humidity":45,"rain":0.0,"pressure":984.4,"uv_index":5.25,"aqi":163,"mosquito_risk":4,"arthritis_risk":5,"migraine_risk":3,"frizz_risk":0,"updated_at":"2026-02-23T13:27:12.243534+05:30"},{"city":"Agra","state":"Uttar Pradesh","latitude":27.1767,"longitude":78.0081,"temp":28.1,"humidity":49,"rain":0.0,"pressure":990.4,"uv_index":5.7,"aqi":165,"mosquito_risk":4,"arthritis_risk":5,"migraine_risk":3,"frizz_risk":1,"updated_at":"2026-02-23T13:27:12.243540+05:30"},{"city":"Varanasi","state":"Uttar Pradesh","latitude":25.3176,"longitude":82.9739,"temp":28.5,"humidity":41,"rain":0.0,"pressure":1000.3,"uv_index":6.5,"aqi":156,"mosquito_risk":4,"arthritis_risk":5,"migraine_risk":4,"frizz_risk":0,"updated_at":"2026-02-23T13:27:12.243547+05:30"},{"city":"Prayagraj","state":"Uttar Pradesh","latitude":25.4358,"longitude":81.8463,"temp":28.0,"humidity":44,"rain":0.0,"pressure":998.6,"uv_index":6.4,"aqi":153,"mosquito_risk":4,"arthritis_risk":5,"migraine_risk":7,"frizz_risk":0,"updated_at":"2026-02-23T13:27:12.243554+05:30"},{"city":"Gorakhpur","state":"Uttar Pradesh","latitude":26.7606,"longitude":83.3732,"temp":27.1,"humidity":41,"rain":0.0,"pressure":1000.1,"uv_index":6.2,"aqi":153,"mosquito_risk":4,"arthritis_risk":5,"migraine_risk":4,"frizz_risk":0,"updated_at":"2026-02-23T13:27:12.243560+05:30"},{"city":"Bareilly","state":"Uttar Pradesh","latitude":28.367,"longitude":79.4304,"temp":26.4,"humidity":49,"rain":0.0,"pressure":989.9,"uv_index":5.5,"aqi":161,"mosquito_risk":4,"arthritis_risk":5,"migraine_risk":3,"frizz_risk":0,"updated_at":"2026-02-23T13:27:12.243567+05:30"},{"city":"Aligarh","state":"Uttar Pradesh","latitude":27.8974,"longitude":78.088,"temp":27.1,"humidity":45,"rain":0.0,"pressure":988.3,"uv_index":5.45,"aqi":169,"mosquito_risk":4,"arthritis_risk":5,"migraine_risk":3,"frizz_risk":0,"updated_at":"2026-02-23T13:27:12.243575+05:30"},{"city":"Moradabad","state":"Uttar Pradesh","latitude":28.8386,"longitude":78.7733,"temp":26.1,"humidity":52,"rain":0.0,"pressure":986.7,"uv_index":5.35,"aqi":167,"mosquito_risk":4,"arthritis_risk":5,"migraine_risk":3,"frizz_risk":0,"updated_at":"2026-02-23T13:27:12.243582+05:30"},{"city":"Saharanpur","state":"Uttar Pradesh","latitude":29.9637,"longitude":77.546,"temp":25.7,"humidity":54,"rain":0.0,"pressure":978.7,"uv_index":5.0,"aqi":163,"mosquito_risk":4,"arthritis_risk":5,"migraine_risk":3,"frizz_risk":0,"updated_at":"2026-02-23T13:27:12.243588+05:30"},{"city":"Jhansi","state":"Uttar Pradesh","latitude":25.4484,"longitude":78.5685,"temp":27.0,"humidity":46,"rain":0.0,"pressure":980.1,"uv_index":6.35,"aqi":114,"mosquito_risk":4,"arthritis_risk":5,"migraine_risk":7,"frizz_risk":0,"updated_at":"2026-02-23T13:27:15.451064+05:30"},{"city":"Surat","state":"Gujarat","latitude":21.1702,"longitude":72.8311,"temp":31.5,"humidity":47,"rain":0.0,"pressure":1006.7,"uv_index":6.95,"aqi":162,"mosquito_risk":0,"arthritis_risk":5,"migraine_risk":4,"frizz_risk":1,"updated_at":"2026-02-23T13:27:15.451095+05:30"},{"city":"Vadodara","state":"Gujarat","latitude":22.3072,"longitude":73.1812,"temp":34.1,"humidity":28,"rain":0.0,"pressure":1004.6,"uv_index":6.6,"aqi":112,"mosquito_risk":0,"arthritis_risk":5,"migraine_risk":4,"frizz_risk":0,"updated_at":"2026-02-23T13:27:15.451104+05:30"},{"city":"Rajkot","state":"Gujarat","latitude":22.3039,"longitude":70.8022,"temp":32.9,"humidity":25,"rain":0.0,"pressure":994.3,"uv_index":6.9,"aqi":71,"mosquito_risk":0,"arthritis_risk":5,"migraine_risk":7,"frizz_risk":0,"updated_at":"2026-02-23T13:27:15.451112+05:30"},{"city":"Thane","state":"Maharashtra","latitude":19.2183,"longitude":72.9781,"temp":33.7,"humidity":35,"rain":0.0,"pressure":1007.0,"uv_index":7.25,"aqi":158,"mosquito_risk":0,"arthritis_risk":5,"migraine_risk":4,"frizz_risk":1,"updated_at":"2026-02-23T13:27:15.451119+05:30"},{"city":"Nagpur","state":"Maharashtra","latitude":21.1458,"longitude":79.0882,"temp":30.9,"humidity":39,"rain":0.0,"pressure":974.3,"uv_index":7.35,"aqi":168,"mosquito_risk":0,"arthritis_risk":5,"migraine_risk":7,"frizz_risk":0,"updated_at":"2026-02-23T13:27:15.451125+05:30"},{"city":"Nashik","state":"Maharashtra","latitude":19.9975,"longitude":73.7898,"temp":31.2,"humidity":23,"rain":0.0,"pressure":945.6,"uv_index":6.75,"aqi":85,"mosquito_risk":0,"arthritis_risk":5,"migraine_risk":7,"frizz_risk":0,"updated_at":"2026-02-23T13:27:15.451132+05:30"},{"city":"Aurangabad","state":"Maharashtra","latitude":19.8762,"longitude":75.3433,"temp":30.7,"humidity":26,"rain":0.0,"pressure":944.4,"uv_index":7.7,"aqi":78,"mosquito_risk":0,"arthritis_risk":5,"migraine_risk":7,"frizz_risk":0,"updated_at":"2026-02-23T13:27:15.451139+05:30"},{"city":"Solapur","state":"Maharashtra","latitude":17.6599,"longitude":75.9064,"temp":31.1,"humidity":42,"rain":0.0,"pressure":956.7,"uv_index":7.85,"aqi":101,"mosquito_risk":0,"arthritis_risk":5,"migraine_risk":7,"frizz_risk":1,"updated_at":"2026-02-23T13:27:15.451146+05:30"},{"city":"Kolhapur","state":"Maharashtra","latitude":16.705,"longitude":74.2433,"temp":30.6,"humidity":40,"rain":0.0,"pressure":947.6,"uv_index":7.9,"aqi":154,"mosquito_risk":0,"arthritis_risk":5,"migraine_risk":7,"frizz_risk":0,"updated_at":"2026-02-23T13:27:15.451153+05:30"},{"city":"Goa","state":"Goa","latitude":15.2993,"longitude":74.124,"temp":30.9,"humidity":65,"rain":0.0,"pressure":997.3,"uv_index":8.25,"aqi":156,"mosquito_risk":3,"arthritis_risk":5,"migraine_risk":7,"frizz_risk":1,"updated_at":"2026-02-23T13:27:15.451159+05:30"},{"city":"Jodhpur","state":"Rajasthan","latitude":26.2389,"longitude":73.0243,"temp":31.7,"humidity":16,"rain":0.0,"pressure":984.2,"uv_index":6.5,"aqi":74,"mosquito_risk":0,"arthritis_risk":5,"migraine_risk":7,"frizz_risk":0,"updated_at":"2026-02-23T13:27:15.451165+05:30"},{"city":"Udaipur","state":"Rajasthan","latitude":24.5854,"longitude":73.7125,"temp":27.8,"humidity":25,"rain":0.0,"pressure":947.6,"uv_index":7.15,"aqi":55,"mosquito_risk":4,"arthritis_risk":5,"migraine_risk":7,"frizz_risk":0,"updated_at":"2026-02-23T13:27:15.451172+05:30"},{"city":"Kota","state":"Rajasthan","latitude":25.2138,"longitude":75.8648,"temp":29.4,"humidity":40,"rain":0.0,"pressure":980.2,"uv_index":6.55,"aqi":153,"mosquito_risk":4,"arthritis_risk":5,"migraine_risk":7,"frizz_risk":0,"updated_at":"2026-02-23T13:27:15.451178+05:30"},{"city":"Bikaner","state":"Rajasthan","latitude":28.0229,"longitude":73.3119,"temp":29.2,"humidity":33,"rain":0.0,"pressure":982.9,"uv_index":6.1,"aqi":65,"mosquito_risk":4,"arthritis_risk":5,"migraine_risk":7,"frizz_risk":0,"updated_at":"2026-02-23T13:27:15.451184+05:30"},{"city":"Ajmer","state":"Rajasthan","latitude":26.4499,"longitude":74.6399,"temp":28.6,"humidity":25,"rain":0.0,"pressure":956.0,"uv_index":6.5,"aqi":151,"mosquito_risk":4,"arthritis_risk":5,"migraine_risk":7,"frizz_risk":0,"updated_at":"2026-02-23T13:27:15.451190+05:30"},{"city":"Gwalior","state":"Madhya Pradesh","latitude":26.2183,"longitude":78.1828,"temp":28.2,"humidity":41,"rain":0.0,"pressure":985.5,"uv_index":6.05,"aqi":105,"mosquito_risk":4,"arthritis_risk":5,"migraine_risk":7,"frizz_risk":0,"updated_at":"2026-02-23T13:27:15.451197+05:30"},{"city":"Indore","state":"Madhya Pradesh","latitude":22.7196,"longitude":75.8577,"temp":27.9,"humidity":33,"rain":0.0,"pressure":949.3,"uv_index":7.1,"aqi":94,"mosquito_risk":4,"arthritis_risk":5,"migraine_risk":7,"frizz_risk":0,"updated_at":"2026-02-23T13:27:15.451202+05:30"},{"city":"Bhopal","state":"Madhya Pradesh","latitude":23.2599,"longitude":77.4126,"temp":27.9,"humidity":41,"rain":0.0,"pressure":955.0,"uv_index":6.9,"aqi":130,"mosquito_risk":4,"arthritis_risk":5,"migraine_risk":7,"frizz_risk":0,"updated_at":"2026-02-23T13:27:15.451209+05:30"},{"city":"Jabalpur","state":"Madhya Pradesh","latitude":23.1815,"longitude":79.9864,"temp":30.0,"humidity":32,"rain":0.0,"pressure":962.5,"uv_index":6.95,"aqi":152,"mosquito_risk":4,"arthritis_risk":5,"migraine_risk":7,"frizz_risk":0,"updated_at":"2026-02-23T13:27:15.451215+05:30"},{"city":"Ujjain","state":"Madhya Pradesh","latitude":23.1765,"longitude":75.7885,"temp":27.9,"humidity":38,"rain":0.0,"pressure":955.0,"uv_index":7.0,"aqi":103,"mosquito_risk":4,"arthritis_risk":5,"migraine_risk":7,"frizz_risk":0,"updated_at":"2026-02-23T13:27:15.451222+05:30"},{"city":"Visakhapatnam","state":"Andhra Pradesh","latitude":17.6868,"longitude":83.2185,"temp":32.8,"humidity":46,"rain":0.0,"pressure":1003.8,"uv_index":8.05,"aqi":110,"mosquito_risk":0,"arthritis_risk":5,"migraine_risk":4,"frizz_risk":1,"updated_at":"2026-02-23T13:27:15.451228+05:30"},{"city":"Vijayawada","state":"Andhra Pradesh","latitude":16.5062,"longitude":80.648,"temp":33.1,"humidity":45,"rain":0.0,"pressure":1002.6,"uv_index":8.15,"aqi":82,"mosquito_risk":0,"arthritis_risk":5,"migraine_risk":4,"frizz_risk":1,"updated_at":"2026-02-23T13:27:15.451234+05:30"},{"city":"Guntur","state":"Andhra Pradesh","latitude":16.3067,"longitude":80.4365,"temp":33.3,"humidity":44,"rain":0.0,"pressure":1003.6,"uv_index":8.15,"aqi":79,"mosquito_risk":0,"arthritis_risk":5,"migraine_risk":4,"frizz_risk":1,"updated_at":"2026-02-23T13:27:15.451240+05:30"},{"city":"Nellore","state":"Andhra Pradesh","latitude":14.4426,"longitude":79.9865,"temp":33.3,"humidity":48,"rain":0.0,"pressure":1005.6,"uv_index":8.4,"aqi":54,"mosquito_risk":0,"arthritis_risk":5,"migraine_risk":4,"frizz_risk":1,"updated_at":"2026-02-23T13:27:15.451247+05:30"},{"city":"Kurnool","state":"Andhra Pradesh","latitude":15.8281,"longitude":78.0373,"temp":33.5,"humidity":38,"rain":0.0,"pressure":976.7,"uv_index":8.2,"aqi":60,"mosquito_risk":0,"arthritis_risk":5,"migraine_risk":7,"frizz_risk":1,"updated_at":"2026-02-23T13:27:15.451255+05:30"},{"city":"Kakinada","state":"Andhra Pradesh","latitude":16.9891,"longitude":82.2475,"temp":32.5,"humidity":46,"rain":0.0,"pressure":1007.6,"uv_index":8.1,"aqi":62,"mosquito_risk":0,"arthritis_risk":5,"migraine_risk":4,"frizz_risk":1,"updated_at":"2026-02-23T13:27:15.451261+05:30"},{"city":"Tirupati","state":"Andhra Pradesh","latitude":13.6288,"longitude":79.4192,"temp":31.5,"humidity":50,"rain":0.0,"pressure":991.3,"uv_index":8.55,"aqi":63,"mosquito_risk":0,"arthritis_risk":5,"migraine_risk":7,"frizz_risk":1,"updated_at":"2026-02-23T13:27:15.451267+05:30"},{"city":"Warangal","state":"Telangana","latitude":17.9689,"longitude":79.5941,"temp":31.2,"humidity":55,"rain":0.0,"pressure":979.4,"uv_index":7.9,"aqi":104,"mosquito_risk":0,"arthritis_risk":5,"migraine_risk":7,"frizz_risk":1,"updated_at":"2026-02-23T13:27:15.451273+05:30"},{"city":"Nizamabad","state":"Telangana","latitude":18.6725,"longitude":78.0941,"temp":31.7,"humidity":41,"rain":0.0,"pressure":965.2,"uv_index":7.25,"aqi":135,"mosquito_risk":0,"arthritis_risk":5,"migraine_risk":7,"frizz_risk":1,"updated_at":"2026-02-23T13:27:15.451279+05:30"},{"city":"Mysore","state":"Karnataka","latitude":12.2958,"longitude":76.6396,"temp":31.3,"humidity":35,"rain":0.0,"pressure":927.8,"uv_index":8.95,"aqi":62,"mosquito_risk":0,"arthritis_risk":5,"migraine_risk":7,"frizz_risk":0,"updated_at":"2026-02-23T13:27:15.451286+05:30"},{"city":"Mangalore","state":"Karnataka","latitude":12.9141,"longitude":74.856,"temp":28.0,"humidity":82,"rain":0.0,"pressure":1005.9,"uv_index":8.55,"aqi":145,"mosquito_risk":7,"arthritis_risk":5,"migraine_risk":4,"frizz_risk":1,"updated_at":"2026-02-23T13:27:15.451292+05:30"},{"city":"Hubli-Dharwad","state":"Karnataka","latitude":15.3647,"longitude":75.124,"temp":31.6,"humidity":44,"rain":0.0,"pressure":940.3,"uv_index":8.2,"aqi":79,"mosquito_risk":0,"arthritis_risk":5,"migraine_risk":7,"frizz_risk":1,"updated_at":"2026-02-23T13:27:15.451298+05:30"},{"city":"Belgaum","state":"Karnataka","latitude":15.8497,"longitude":74.4977,"temp":29.3,"humidity":49,"rain":0.0,"pressure":925.4,"uv_index":8.25,"aqi":118,"mosquito_risk":4,"arthritis_risk":5,"migraine_risk":7,"frizz_risk":1,"updated_at":"2026-02-23T13:27:18.661308+05:30"},{"city":"Coimbatore","state":"Tamil Nadu","latitude":11.0168,"longitude":76.9558,"temp":31.5,"humidity":43,"rain":0.0,"pressure":961.0,"uv_index":8.95,"aqi":72,"mosquito_risk":0,"arthritis_risk":5,"migraine_risk":7,"frizz_risk":1,"updated_at":"2026-02-23T13:27:18.661342+05:30"},{"city":"Madurai","state":"Tamil Nadu","latitude":9.9252,"longitude":78.1198,"temp":33.5,"humidity":47,"rain":0.0,"pressure":991.6,"uv_index":8.95,"aqi":78,"mosquito_risk":0,"arthritis_risk":5,"migraine_risk":7,"frizz_risk":1,"updated_at":"2026-02-23T13:27:18.661354+05:30"},{"city":"Trichy","state":"Tamil Nadu","latitude":10.7905,"longitude":78.7047,"temp":33.0,"humidity":48,"rain":0.0,"pressure":998.7,"uv_index":8.7,"aqi":56,"mosquito_risk":0,"arthritis_risk":5,"migraine_risk":7,"frizz_risk":1,"updated_at":"2026-02-23T13:27:18.661363+05:30"},{"city":"Salem","state":"Tamil Nadu","latitude":11.6643,"longitude":78.146,"temp":33.7,"humidity":40,"rain":0.0,"pressure":976.2,"uv_index":8.65,"aqi":64,"mosquito_risk":0,"arthritis_risk":5,"migraine_risk":7,"frizz_risk":1,"updated_at":"2026-02-23T13:27:18.661371+05:30"},{"city":"Tirunelveli","state":"Tamil Nadu","latitude":8.7139,"longitude":77.7567,"temp":33.5,"humidity":48,"rain":0.0,"pressure":1001.8,"uv_index":8.95,"aqi":59,"mosquito_risk":0,"arthritis_risk":5,"migraine_risk":4,"frizz_risk":1,"updated_at":"2026-02-23T13:27:18.661379+05:30"},{"city":"Vellore","state":"Tamil Nadu","latitude":12.9165,"longitude":79.1325,"temp":32.0,"humidity":44,"rain":0.0,"pressure":984.2,"uv_index":8.65,"aqi":61,"mosquito_risk":0,"arthritis_risk":5,"migraine_risk":7,"frizz_risk":1,"updated_at":"2026-02-23T13:27:18.661387+05:30"},{"city":"Erode","state":"Tamil Nadu","latitude":11.341,"longitude":77.7172,"temp":33.8,"humidity":42,"rain":0.0,"pressure":987.9,"uv_index":8.85,"aqi":59,"mosquito_risk":0,"arthritis_risk":5,"migraine_risk":7,"frizz_risk":1,"updated_at":"2026-02-23T13:27:18.661394+05:30"},{"city":"Kochi","state":"Kerala","latitude":9.9312,"longitude":76.2673,"temp":27.8,"humidity":81,"rain":0.0,"pressure":1007.4,"uv_index":8.3,"aqi":70,"mosquito_risk":7,"arthritis_risk":5,"migraine_risk":4,"frizz_risk":1,"updated_at":"2026-02-23T13:27:18.661403+05:30"},{"city":"Thiruvananthapuram","state":"Kerala","latitude":8.5241,"longitude":76.9366,"temp":28.1,"humidity":79,"rain":0.0,"pressure":1006.5,"uv_index":7.65,"aqi":52,"mosquito_risk":7,"arthritis_risk":5,"migraine_risk":4,"frizz_risk":1,"updated_at":"2026-02-23T13:27:18.661411+05:30"},{"city":"Kozhikode","state":"Kerala","latitude":11.2588,"longitude":75.7804,"temp":29.2,"humidity":74,"rain":0.0,"pressure":1006.9,"uv_index":8.65,"aqi":60,"mosquito_risk":7,"arthritis_risk":5,"migraine_risk":4,"frizz_risk":1,"updated_at":"2026-02-23T13:27:18.661419+05:30"},{"city":"Thrissur","state":"Kerala","latitude":10.5276,"longitude":76.2144,"temp":31.9,"humidity":61,"rain":0.0,"pressure":1005.6,"uv_index":8.75,"aqi":74,"mosquito_risk":3,"arthritis_risk":5,"migraine_risk":4,"frizz_risk":1,"updated_at":"2026-02-23T13:27:18.661428+05:30"},{"city":"Kannur","state":"Kerala","latitude":11.8745,"longitude":75.3704,"temp":29.6,"humidity":70,"rain":0.0,"pressure":1006.5,"uv_index":8.6,"aqi":94,"mosquito_risk":7,"arthritis_risk":5,"migraine_risk":4,"frizz_risk":1,"updated_at":"2026-02-23T13:27:18.661436+05:30"},{"city":"Patna","state":"Bihar","latitude":25.5941,"longitude":85.1376,"temp":28.3,"humidity":35,"rain":0.0,"pressure":1003.2,"uv_index":6.7,"aqi":161,"mosquito_risk":4,"arthritis_risk":5,"migraine_risk":4,"frizz_risk":0,"updated_at":"2026-02-23T13:27:18.661443+05:30"},{"city":"Gaya","state":"Bihar","latitude":24.7914,"longitude":85.0002,"temp":27.6,"humidity":51,"rain":0.0,"pressure":996.5,"uv_index":6.8,"aqi":152,"mosquito_risk":4,"arthritis_risk":5,"migraine_risk":7,"frizz_risk":1,"updated_at":"2026-02-23T13:27:18.661451+05:30"},{"city":"Muzaffarpur","state":"Bihar","latitude":26.1209,"longitude":85.3647,"temp":28.2,"humidity":34,"rain":0.0,"pressure":1003.2,"uv_index":6.65,"aqi":163,"mosquito_risk":4,"arthritis_risk":5,"migraine_risk":4,"frizz_risk":0,"updated_at":"2026-02-23T13:27:18.661458+05:30"},{"city":"Bhagalpur","state":"Bihar","latitude":25.2425,"longitude":87.0117,"temp":27.4,"humidity":45,"rain":0.0,"pressure":1003.9,"uv_index":6.75,"aqi":153,"mosquito_risk":4,"arthritis_risk":5,"migraine_risk":4,"frizz_risk":0,"updated_at":"2026-02-23T13:27:18.661466+05:30"},{"city":"Ranchi","state":"Jharkhand","latitude":23.3441,"longitude":85.3096,"temp":28.1,"humidity":33,"rain":0.0,"pressure":939.4,"uv_index":7.4,"aqi":111,"mosquito_risk":4,"arthritis_risk":5,"migraine_risk":7,"frizz_risk":0,"updated_at":"2026-02-23T13:27:18.661473+05:30"},{"city":"Jamshedpur","state":"Jharkhand","latitude":22.8046,"longitude":86.2029,"temp":31.5,"humidity":39,"rain":0.0,"pressure":992.3,"uv_index":7.35,"aqi":157,"mosquito_risk":0,"arthritis_risk":5,"migraine_risk":7,"frizz_risk":0,"updated_at":"2026-02-23T13:27:18.661481+05:30"},{"city":"Dhanbad","state":"Jharkhand","latitude":23.7957,"longitude":86.4304,"temp":31.5,"humidity":26,"rain":0.0,"pressure":981.5,"uv_index":7.2,"aqi":151,"mosquito_risk":0,"arthritis_risk":5,"migraine_risk":7,"frizz_risk":0,"updated_at":"2026-02-23T13:27:18.661488+05:30"},{"city":"Bokaro","state":"Jharkhand","latitude":23.6693,"longitude":86.1511,"temp":31.1,"humidity":29,"rain":0.0,"pressure":985.5,"uv_index":7.2,"aqi":152,"mosquito_risk":0,"arthritis_risk":5,"migraine_risk":7,"frizz_risk":0,"updated_at":"2026-02-23T13:27:18.661496+05:30"},{"city":"Bhubaneswar","state":"Odisha","latitude":20.2961,"longitude":85.8245,"temp":32.4,"humidity":50,"rain":0.0,"pressure":1003.3,"uv_index":7.75,"aqi":95,"mosquito_risk":0,"arthritis_risk":5,"migraine_risk":4,"frizz_risk":1,"updated_at":"2026-02-23T13:27:18.661503+05:30"},{"city":"Cuttack","state":"Odisha","latitude":20.4625,"longitude":85.8828,"temp":34.0,"humidity":39,"rain":0.0,"pressure":1005.0,"uv_index":7.8,"aqi":95,"mosquito_risk":0,"arthritis_risk":5,"migraine_risk":4,"frizz_risk":1,"updated_at":"2026-02-23T13:27:18.661510+05:30"},{"city":"Rourkela","state":"Odisha","latitude":22.2604,"longitude":84.8536,"temp":32.9,"humidity":30,"rain":0.0,"pressure":986.2,"uv_index":7.25,"aqi":128,"mosquito_risk":0,"arthritis_risk":5,"migraine_risk":7,"frizz_risk":0,"updated_at":"2026-02-23T13:27:18.661518+05:30"},{"city":"Raipur","state":"Chhattisgarh","latitude":21.2514,"longitude":81.6296,"temp":29.4,"humidity":39,"rain":0.0,"pressure":976.0,"uv_index":7.4,"aqi":164,"mosquito_risk":4,"arthritis_risk":5,"migraine_risk":7,"frizz_risk":0,"updated_at":"2026-02-23T13:27:18.661525+05:30"},{"city":"Bhilai","state":"Chhattisgarh","latitude":21.1938,"longitude":81.3509,"temp":28.9,"humidity":44,"rain":0.0,"pressure":976.4,"uv_index":4.6,"aqi":169,"mosquito_risk":4,"arthritis_risk":5,"migraine_risk":3,"frizz_risk":0,"updated_at":"2026-02-23T13:27:18.661533+05:30"},{"city":"Guwahati","state":"Assam","latitude":26.1158,"longitude":91.7086,"temp":27.9,"humidity":50,"rain":0.0,"pressure":1003.1,"uv_index":6.7,"aqi":126,"mosquito_risk":4,"arthritis_risk":5,"migraine_risk":4,"frizz_risk":1,"updated_at":"2026-02-23T13:27:18.661540+05:30"},{"city":"Agartala","state":"Tripura","latitude":23.8315,"longitude":91.2868,"temp":30.7,"humidity":39,"rain":0.0,"pressure":1007.4,"uv_index":7.05,"aqi":169,"mosquito_risk":0,"arthritis_risk":5,"migraine_risk":4,"frizz_risk":0,"updated_at":"2026-02-23T13:27:18.661548+05:30"},{"city":"Shillong","state":"Meghalaya","latitude":25.5788,"longitude":91.8933,"temp":17.9,"humidity":37,"rain":0.0,"pressure":857.0,"uv_index":7.05,"aqi":114,"mosquito_risk":0,"arthritis_risk":5,"migraine_risk":7,"frizz_risk":0,"updated_at":"2026-02-23T13:27:18.661555+05:30"},{"city":"Imphal","state":"Manipur","latitude":24.817,"longitude":93.9368,"temp":22.5,"humidity":36,"rain":0.0,"pressure":923.8,"uv_index":7.25,"aqi":154,"mosquito_risk":0,"arthritis_risk":5,"migraine_risk":7,"frizz_risk":0,"updated_at":"2026-02-23T13:27:18.661563+05:30"},{"city":"Aizawl","state":"Mizoram","latitude":23.7271,"longitude":92.7176,"temp":24.6,"humidity":31,"rain":0.0,"pressure":894.6,"uv_index":7.2,"aqi":152,"mosquito_risk":0,"arthritis_risk":5,"migraine_risk":7,"frizz_risk":0,"updated_at":"2026-02-23T13:27:18.661571+05:30"},{"city":"Kohima","state":"Nagaland","latitude":25.6701,"longitude":94.1077,"temp":16.6,"humidity":54,"rain":0.0,"pressure":855.5,"uv_index":7.1,"aqi":138,"mosquito_risk":0,"arthritis_risk":5,"migraine_risk":7,"frizz_risk":0,"updated_at":"2026-02-23T13:27:18.661578+05:30"},{"city":"Gangtok","state":"Sikkim","latitude":27.3314,"longitude":88.6138,"temp":17.4,"humidity":52,"rain":0.0,"pressure":837.7,"uv_index":6.65,"aqi":102,"mosquito_risk":0,"arthritis_risk":5,"migraine_risk":7,"frizz_risk":0,"updated_at":"2026-02-23T13:27:18.661586+05:30"},{"city":"Siliguri","state":"West Bengal","latitude":26.7271,"longitude":88.3953,"temp":23.9,"humidity":48,"rain":0.0,"pressure":995.5,"uv_index":6.65,"aqi":151,"mosquito_risk":0,"arthritis_risk":5,"migraine_risk":7,"frizz_risk":0,"updated_at":"2026-02-23T13:27:21.870904+05:30"},{"city":"Durgapur","state":"West Bengal","latitude":23.5204,"longitude":87.3119,"temp":31.8,"humidity":32,"rain":0.0,"pressure":996.5,"uv_index":7.2,"aqi":150,"mosquito_risk":0,"arthritis_risk":5,"migraine_risk":7,"frizz_risk":0,"updated_at":"2026-02-23T13:27:21.870934+05:30"},{"city":"Asansol","state":"West Bengal","latitude":23.6739,"longitude":86.9524,"temp":32.1,"humidity":29,"rain":0.0,"pressure":995.2,"uv_index":7.2,"aqi":134,"mosquito_risk":0,"arthritis_risk":5,"migraine_risk":7,"frizz_risk":0,"updated_at":"2026-02-23T13:27:21.870943+05:30"},{"city":"Pondicherry","state":"Puducherry","latitude":11.9139,"longitude":79.8145,"temp":33.2,"humidity":50,"rain":0.0,"pressure":1007.4,"uv_index":8.0,"aqi":44,"mosquito_risk":0,"arthritis_risk":5,"migraine_risk":4,"frizz_risk":1,"updated_at":"2026-02-23T13:27:21.870951+05:30"},{"city":"Port Blair","state":"Andaman and Nicobar Islands","latitude":11.6234,"longitude":92.7265,"temp":28.8,"humidity":69,"rain":0.0,"pressure":1004.8,"uv_index":7.05,"aqi":62,"mosquito_risk":7,"arthritis_risk":5,"migraine_risk":4,"frizz_risk":1,"updated_at":"2026-02-23T13:27:21.870958+05:30"},{"city":"Haridwar","state":"Uttarakhand","latitude":29.9457,"longitude":78.1642,"temp":26.2,"humidity":51,"rain":0.0,"pressure":977.1,"uv_index":5.1,"aqi":144,"mosquito_risk":4,"arthritis_risk":5,"migraine_risk":3,"frizz_risk":0,"updated_at":"2026-02-23T13:27:21.870964+05:30"},{"city":"Rishikesh","state":"Uttarakhand","latitude":30.0869,"longitude":78.2676,"temp":25.8,"humidity":47,"rain":0.0,"pressure":969.5,"uv_index":5.15,"aqi":122,"mosquito_risk":4,"arthritis_risk":5,"migraine_risk":3,"frizz_risk":0,"updated_at":"2026-02-23T13:27:21.870971+05:30"},{"city":"Nainital","state":"Uttarakhand","latitude":29.3919,"longitude":79.4542,"temp":17.5,"humidity":58,"rain":0.0,"pressure":806.8,"uv_index":5.95,"aqi":120,"mosquito_risk":0,"arthritis_risk":5,"migraine_risk":3,"frizz_risk":0,"updated_at":"2026-02-23T13:27:21.870977+05:30"},{"city":"Mussoorie","state":"Uttarakhand","latitude":30.4599,"longitude":78.0664,"temp":16.1,"humidity":59,"rain":0.0,"pressure":803.3,"uv_index":5.45,"aqi":130,"mosquito_risk":0,"arthritis_risk":5,"migraine_risk":3,"frizz_risk":0,"updated_at":"2026-02-23T13:27:21.870983+05:30"},{"city":"Dharamshala","state":"Himachal Pradesh","latitude":32.219,"longitude":76.3234,"temp":20.0,"humidity":59,"rain":0.0,"pressure":870.2,"uv_index":5.7,"aqi":74,"mosquito_risk":0,"arthritis_risk":5,"migraine_risk":3,"frizz_risk":0,"updated_at":"2026-02-23T13:27:21.870989+05:30"},{"city":"Dalhousie","state":"Himachal Pradesh","latitude":32.5387,"longitude":75.971,"temp":18.9,"humidity":47,"rain":0.0,"pressure":805.3,"uv_index":5.9,"aqi":146,"mosquito_risk":0,"arthritis_risk":5,"migraine_risk":3,"frizz_risk":0,"updated_at":"2026-02-23T13:27:21.870996+05:30"},{"city":"Patiala","state":"Punjab","latitude":30.3398,"longitude":76.3869,"temp":25.8,"humidity":52,"rain":0.0,"pressure":981.2,"uv_index":5.15,"aqi":184,"mosquito_risk":4,"arthritis_risk":5,"migraine_risk":3,"frizz_risk":0,"updated_at":"2026-02-23T13:27:21.871002+05:30"},{"city":"Bhatinda","state":"Punjab","latitude":30.211,"longitude":74.9455,"temp":27.6,"humidity":45,"rain":0.0,"pressure":986.5,"uv_index":5.85,"aqi":157,"mosquito_risk":4,"arthritis_risk":5,"migraine_risk":3,"frizz_risk":0,"updated_at":"2026-02-23T13:27:21.871008+05:30"},{"city":"Rohtak","state":"Haryana","latitude":28.8955,"longitude":76.6066,"temp":27.6,"humidity":44,"rain":0.0,"pressure":984.4,"uv_index":5.4,"aqi":170,"mosquito_risk":4,"arthritis_risk":5,"migraine_risk":3,"frizz_risk":0,"updated_at":"2026-02-23T13:27:21.871014+05:30"},{"city":"Panipat","state":"Haryana","latitude":29.3909,"longitude":76.9635,"temp":26.1,"humidity":52,"rain":0.0,"pressure":983.3,"uv_index":5.2,"aqi":170,"mosquito_risk":4,"arthritis_risk":5,"migraine_risk":3,"frizz_risk":0,"updated_at":"2026-02-23T13:27:21.871020+05:30"},{"city":"Mathura","state":"Uttar Pradesh","latitude":27.4924,"longitude":77.6737,"temp":27.8,"humidity":48,"rain":0.0,"pressure":989.5,"uv_index":5.65,"aqi":164,"mosquito_risk":4,"arthritis_risk":5,"migraine_risk":3,"frizz_risk":0,"updated_at":"2026-02-23T13:27:21.871026+05:30"},{"city":"Vrindavan","state":"Uttar Pradesh","latitude":27.5823,"longitude":77.7027,"temp":27.5,"humidity":49,"rain":0.0,"pressure":990.1,"uv_index":5.6,"aqi":164,"mosquito_risk":4,"arthritis_risk":5,"migraine_risk":3,"frizz_risk":0,"updated_at":"2026-02-23T13:27:21.871032+05:30"},{"city":"Ayodhya","state":"Uttar Pradesh","latitude":26.7922,"longitude":82.1998,"temp":27.6,"humidity":38,"rain":0.0,"pressure":998.3,"uv_index":6.0,"aqi":155,"mosquito_risk":4,"arthritis_risk":5,"migraine_risk":3,"frizz_risk":0,"updated_at":"2026-02-23T13:27:21.871037+05:30"},{"city":"Ratlam","state":"Madhya Pradesh","latitude":23.3315,"longitude":75.0367,"temp":29.1,"humidity":29,"rain":0.0,"pressure":955.6,"uv_index":6.95,"aqi":79,"mosquito_risk":4,"arthritis_risk":5,"migraine_risk":7,"frizz_risk":0,"updated_at":"2026-02-23T13:27:21.871044+05:30"},{"city":"Sagar","state":"Madhya Pradesh","latitude":23.8388,"longitude":78.7378,"temp":27.4,"humidity":42,"rain":0.0,"pressure":951.4,"uv_index":6.85,"aqi":125,"mosquito_risk":4,"arthritis_risk":5,"migraine_risk":7,"frizz_risk":0,"updated_at":"2026-02-23T13:27:21.871050+05:30"},{"city":"Satna","state":"Madhya Pradesh","latitude":24.6005,"longitude":80.8322,"temp":27.8,"humidity":42,"rain":0.0,"pressure":973.1,"uv_index":6.75,"aqi":119,"mosquito_risk":4,"arthritis_risk":5,"migraine_risk":7,"frizz_risk":0,"updated_at":"2026-02-23T13:27:21.871056+05:30"},{"city":"Akola","state":"Maharashtra","latitude":20.7002,"longitude":77.0082,"temp":32.9,"humidity":26,"rain":0.0,"pressure":975.7,"uv_index":7.4,"aqi":139,"mosquito_risk":0,"arthritis_risk":5,"migraine_risk":7,"frizz_risk":0,"updated_at":"2026-02-23T13:27:21.871063+05:30"},{"city":"Amravati","state":"Maharashtra","latitude":20.9374,"longitude":77.7796,"temp":32.8,"humidity":27,"rain":0.0,"pressure":967.9,"uv_index":7.35,"aqi":158,"mosquito_risk":0,"arthritis_risk":5,"migraine_risk":7,"frizz_risk":0,"updated_at":"2026-02-23T13:27:21.871070+05:30"},{"city":"Latur","state":"Maharashtra","latitude":18.4088,"longitude":76.5604,"temp":30.3,"humidity":37,"rain":0.0,"pressure":939.9,"uv_index":7.8,"aqi":125,"mosquito_risk":0,"arthritis_risk":5,"migraine_risk":7,"frizz_risk":0,"updated_at":"2026-02-23T13:27:21.871076+05:30"},{"city":"Nanded","state":"Maharashtra","latitude":19.1383,"longitude":77.3091,"temp":33.1,"humidity":36,"rain":0.0,"pressure":968.7,"uv_index":7.6,"aqi":153,"mosquito_risk":0,"arthritis_risk":5,"migraine_risk":7,"frizz_risk":0,"updated_at":"2026-02-23T13:27:21.871082+05:30"},{"city":"Gulbarga","state":"Karnataka","latitude":17.3297,"longitude":76.8343,"temp":32.0,"humidity":39,"rain":0.0,"pressure":958.8,"uv_index":7.95,"aqi":97,"mosquito_risk":0,"arthritis_risk":5,"migraine_risk":7,"frizz_risk":1,"updated_at":"2026-02-23T13:27:21.871087+05:30"},{"city":"Bidar","state":"Karnataka","latitude":17.9104,"longitude":77.5199,"temp":30.1,"humidity":43,"rain":0.0,"pressure":935.9,"uv_index":7.35,"aqi":113,"mosquito_risk":0,"arthritis_risk":5,"migraine_risk":7,"frizz_risk":1,"updated_at":"2026-02-23T13:27:21.871093+05:30"},{"city":"Hospet","state":"Karnataka","latitude":15.2689,"longitude":76.3909,"temp":31.9,"humidity":43,"rain":0.0,"pressure":955.3,"uv_index":7.9,"aqi":58,"mosquito_risk":0,"arthritis_risk":5,"migraine_risk":7,"frizz_risk":1,"updated_at":"2026-02-23T13:27:21.871099+05:30"},{"city":"Tirupur","state":"Tamil Nadu","latitude":11.1085,"longitude":77.3411,"temp":32.6,"humidity":42,"rain":0.0,"pressure":974.3,"uv_index":8.95,"aqi":68,"mosquito_risk":0,"arthritis_risk":5,"migraine_risk":7,"frizz_risk":1,"updated_at":"2026-02-23T13:27:21.871105+05:30"},{"city":"Alappuzha","state":"Kerala","latitude":9.4981,"longitude":76.3388,"temp":27.8,"humidity":81,"rain":0.0,"pressure":1007.4,"uv_index":8.6,"aqi":64,"mosquito_risk":7,"arthritis_risk":5,"migraine_risk":4,"frizz_risk":1,"updated_at":"2026-02-23T13:27:21.871111+05:30"},{"city":"Munnar","state":"Kerala","latitude":10.0889,"longitude":77.0595,"temp":26.5,"humidity":58,"rain":0.0,"pressure":857.3,"uv_index":7.9,"aqi":71,"mosquito_risk":4,"arthritis_risk":5,"migraine_risk":7,"frizz_risk":1,"updated_at":"2026-02-23T13:27:21.871117+05:30"},{"city":"Silchar","state":"Assam","latitude":24.8333,"longitude":92.7789,"temp":30.2,"humidity":36,"rain":0.0,"pressure":1006.0,"uv_index":7.0,"aqi":153,"mosquito_risk":0,"arthritis_risk":5,"migraine_risk":4,"frizz_risk":0,"updated_at":"2026-02-23T13:27:21.871123+05:30"},{"city":"Dibrugarh","state":"Assam","latitude":27.4728,"longitude":94.912,"temp":24.7,"humidity":62,"rain":0.0,"pressure":997.8,"uv_index":6.7,"aqi":150,"mosquito_risk":3,"arthritis_risk":5,"migraine_risk":7,"frizz_risk":1,"updated_at":"2026-02-23T13:27:21.871129+05:30"}]