[{"city":"Delhi","state":"Delhi","latitude":28.6139,"longitude":77.209,"temp":27.7,"humidity":82,"rain":0.0,"pressure":979.8,"uv_index":7.75,"wind_gusts":25.9,"aqi":229,"pm10":220.7,"pm2_5":115.7,"no2":96.4,"co":1330.0,"o3":33.0,"so2":41.4,"mosquito_risk":7,"arthritis_risk":5,"migraine_risk":7,"frizz_risk":1,"updated_at":"2026-06-13T21:45:20.756119+05:30"},{"city":"Mumbai","state":"Maharashtra","latitude":19.076,"longitude":72.8777,"temp":30.9,"humidity":68,"rain":0.0,"pressure":1008.6,"uv_index":6.5,"wind_gusts":51.5,"aqi":72,"pm10":46.1,"pm2_5":21.1,"no2":5.9,"co":168.0,"o3":48.0,"so2":4.0,"mosquito_risk":3,"arthritis_risk":0,"migraine_risk":4,"frizz_risk":1,"updated_at":"2026-06-13T21:45:20.756165+05:30"},{"city":"Bangalore","state":"Karnataka","latitude":12.9716,"longitude":77.5946,"temp":23.2,"humidity":91,"rain":0.0,"pressure":913.2,"uv_index":8.45,"wind_gusts":37.8,"aqi":45,"pm10":18.9,"pm2_5":15.4,"no2":28.2,"co":585.0,"o3":42.0,"so2":5.9,"mosquito_risk":3,"arthritis_risk":5,"migraine_risk":7,"frizz_risk":1,"updated_at":"2026-06-13T21:45:20.756181+05:30"},{"city":"Hyderabad","state":"Telangana","latitude":17.385,"longitude":78.4867,"temp":27.6,"humidity":82,"rain":0.0,"pressure":952.4,"uv_index":6.4,"wind_gusts":38.2,"aqi":85,"pm10":50.8,"pm2_5":31.8,"no2":24.8,"co":812.0,"o3":57.0,"so2":7.1,"mosquito_risk":7,"arthritis_risk":5,"migraine_risk":7,"frizz_risk":1,"updated_at":"2026-06-13T21:45:20.756191+05:30"},{"city":"Chennai","state":"Tamil Nadu","latitude":13.0827,"longitude":80.2707,"temp":30.1,"humidity":70,"rain":0.0,"pressure":1007.3,"uv_index":4.95,"wind_gusts":38.9,"aqi":95,"pm10":30.7,"pm2_5":23.6,"no2":15.7,"co":327.0,"o3":101.0,"so2":7.8,"mosquito_risk":3,"arthritis_risk":5,"migraine_risk":0,"frizz_risk":1,"updated_at":"2026-06-13T21:45:20.756199+05:30"},{"city":"Kolkata","state":"West Bengal","latitude":22.5726,"longitude":88.3639,"temp":28.0,"humidity":93,"rain":0.0,"pressure":1003.0,"uv_index":8.9,"wind_gusts":40.7,"aqi":118,"pm10":50.8,"pm2_5":47.1,"no2":18.7,"co":590.0,"o3":67.0,"so2":10.3,"mosquito_risk":7,"arthritis_risk":5,"migraine_risk":4,"frizz_risk":1,"updated_at":"2026-06-13T21:45:20.756206+05:30"},{"city":"Pune","state":"Maharashtra","latitude":18.5204,"longitude":73.8567,"temp":26.2,"humidity":76,"rain":0.0,"pressure":948.8,"uv_index":7.8,"wind_gusts":51.8,"aqi":60,"pm10":28.3,"pm2_5":15.3,"no2":8.0,"co":147.0,"o3":48.0,"so2":6.6,"mosquito_risk":7,"arthritis_risk":5,"migraine_risk":7,"frizz_risk":1,"updated_at":"2026-06-13T21:45:20.756213+05:30"},{"city":"Ahmedabad","state":"Gujarat","latitude":23.0225,"longitude":72.5714,"temp":33.5,"humidity":61,"rain":0.0,"pressure":999.1,"uv_index":8.05,"wind_gusts":43.9,"aqi":71,"pm10":44.7,"pm2_5":20.1,"no2":4.1,"co":169.0,"o3":68.0,"so2":3.1,"mosquito_risk":3,"arthritis_risk":5,"migraine_risk":7,"frizz_risk":1,"updated_at":"2026-06-13T21:45:20.756219+05:30"},{"city":"Jaipur","state":"Rajasthan","latitude":26.9124,"longitude":75.7873,"temp":28.4,"humidity":71,"rain":0.0,"pressure":956.9,"uv_index":8.2,"wind_gusts":28.4,"aqi":111,"pm10":90.1,"pm2_5":42.1,"no2":25.6,"co":830.0,"o3":53.0,"so2":9.2,"mosquito_risk":7,"arthritis_risk":5,"migraine_risk":7,"frizz_risk":1,"updated_at":"2026-06-13T21:45:20.756230+05:30"},{"city":"Lucknow","state":"Uttar Pradesh","latitude":26.8467,"longitude":80.9462,"temp":28.4,"humidity":81,"rain":0.0,"pressure":990.2,"uv_index":8.0,"wind_gusts":32.4,"aqi":135,"pm10":99.4,"pm2_5":65.2,"no2":36.6,"co":761.0,"o3":53.0,"so2":14.3,"mosquito_risk":7,"arthritis_risk":5,"migraine_risk":7,"frizz_risk":1,"updated_at":"2026-06-13T21:45:20.756237+05:30"},{"city":"Kanpur","state":"Uttar Pradesh","latitude":26.4499,"longitude":80.3319,"temp":29.9,"humidity":66,"rain":0.0,"pressure":988.5,"uv_index":8.3,"wind_gusts":52.2,"aqi":152,"pm10":185.8,"pm2_5":68.0,"no2":27.0,"co":526.0,"o3":67.0,"so2":10.7,"mosquito_risk":7,"arthritis_risk":5,"migraine_risk":7,"frizz_risk":1,"updated_at":"2026-06-13T21:45:20.756243+05:30"},{"city":"Chandigarh","state":"Chandigarh","latitude":30.7333,"longitude":76.7794,"temp":25.6,"humidity":75,"rain":0.0,"pressure":965.7,"uv_index":7.8,"wind_gusts":49.7,"aqi":115,"pm10":117.1,"pm2_5":58.3,"no2":44.8,"co":1177.0,"o3":79.0,"so2":14.0,"mosquito_risk":7,"arthritis_risk":5,"migraine_risk":7,"frizz_risk":1,"updated_at":"2026-06-13T21:45:20.756250+05:30"},{"city":"Srinagar","state":"Jammu and Kashmir","latitude":34.0837,"longitude":74.7973,"temp":16.3,"humidity":86,"rain":0.0,"pressure":841.6,"uv_index":7.4,"wind_gusts":20.9,"aqi":73,"pm10":41.4,"pm2_5":35.5,"no2":39.8,"co":869.0,"o3":54.0,"so2":3.8,"mosquito_risk":3,"arthritis_risk":10,"migraine_risk":7,"frizz_risk":0,"updated_at":"2026-06-13T21:45:20.756256+05:30"},{"city":"Jammu","state":"Jammu and Kashmir","latitude":32.7266,"longitude":74.857,"temp":26.3,"humidity":63,"rain":0.0,"pressure":969.7,"uv_index":8.4,"wind_gusts":38.2,"aqi":87,"pm10":89.4,"pm2_5":46.3,"no2":43.0,"co":631.0,"o3":61.0,"so2":5.6,"mosquito_risk":7,"arthritis_risk":5,"migraine_risk":7,"frizz_risk":1,"updated_at":"2026-06-13T21:45:20.756263+05:30"},{"city":"Amritsar","state":"Punjab","latitude":31.634,"longitude":74.8723,"temp":25.7,"humidity":79,"rain":0.0,"pressure":977.8,"uv_index":8.45,"wind_gusts":51.5,"aqi":115,"pm10":97.1,"pm2_5":44.7,"no2":22.4,"co":488.0,"o3":68.0,"so2":5.2,"mosquito_risk":7,"arthritis_risk":5,"migraine_risk":7,"frizz_risk":1,"updated_at":"2026-06-13T21:45:20.756269+05:30"},{"city":"Ludhiana","state":"Punjab","latitude":30.901,"longitude":75.8573,"temp":26.3,"humidity":81,"rain":0.0,"pressure":975.5,"uv_index":8.05,"wind_gusts":42.1,"aqi":137,"pm10":109.9,"pm2_5":63.8,"no2":35.8,"co":930.0,"o3":57.0,"so2":11.7,"mosquito_risk":7,"arthritis_risk":5,"migraine_risk":7,"frizz_risk":1,"updated_at":"2026-06-13T21:45:20.756275+05:30"},{"city":"Jalandhar","state":"Punjab","latitude":31.326,"longitude":75.5762,"temp":25.7,"humidity":81,"rain":0.0,"pressure":976.7,"uv_index":8.2,"wind_gusts":49.7,"aqi":111,"pm10":99.4,"pm2_5":51.9,"no2":32.1,"co":1085.0,"o3":58.0,"so2":5.9,"mosquito_risk":7,"arthritis_risk":5,"migraine_risk":7,"frizz_risk":1,"updated_at":"2026-06-13T21:45:20.756281+05:30"},{"city":"Dehradun","state":"Uttarakhand","latitude":30.6284,"longitude":78.0322,"temp":14.1,"humidity":96,"rain":0.0,"pressure":826.3,"uv_index":7.65,"wind_gusts":30.6,"aqi":73,"pm10":35.4,"pm2_5":15.9,"no2":21.7,"co":211.0,"o3":72.0,"so2":1.1,"mosquito_risk":3,"arthritis_risk":10,"migraine_risk":7,"frizz_risk":0,"updated_at":"2026-06-13T21:45:20.756287+05:30"},{"city":"Shimla","state":"Himachal Pradesh","latitude":31.1048,"longitude":77.1734,"temp":12.6,"humidity":81,"rain":0.0,"pressure":781.2,"uv_index":7.4,"wind_gusts":27.7,"aqi":87,"pm10":43.2,"pm2_5":26.8,"no2":29.2,"co":318.0,"o3":57.0,"so2":1.6,"mosquito_risk":3,"arthritis_risk":10,"migraine_risk":7,"frizz_risk":0,"updated_at":"2026-06-13T21:45:20.756296+05:30"},{"city":"Manali","state":"Himachal Pradesh","latitude":32.2396,"longitude":77.1887,"temp":15.2,"humidity":66,"rain":0.0,"pressure":816.1,"uv_index":4.85,"wind_gusts":37.1,"aqi":90,"pm10":6.4,"pm2_5":4.7,"no2":31.4,"co":310.0,"o3":91.0,"so2":0.3,"mosquito_risk":3,"arthritis_risk":5,"migraine_risk":3,"frizz_risk":0,"updated_at":"2026-06-13T21:45:20.756303+05:30"},{"city":"Gurgaon","state":"Haryana","latitude":28.4595,"longitude":77.0266,"temp":28.5,"humidity":72,"rain":0.0,"pressure":978.2,"uv_index":7.85,"wind_gusts":27.7,"aqi":1008,"pm10":417.2,"pm2_5":161.6,"no2":117.3,"co":1366.0,"o3":29.0,"so2":42.8,"mosquito_risk":7,"arthritis_risk":5,"migraine_risk":7,"frizz_risk":1,"updated_at":"2026-06-13T21:45:20.756312+05:30"},{"city":"Noida","state":"Uttar Pradesh","latitude":28.5355,"longitude":77.391,"temp":28.0,"humidity":81,"rain":0.0,"pressure":981.2,"uv_index":7.8,"wind_gusts":23.4,"aqi":1008,"pm10":417.2,"pm2_5":161.6,"no2":117.3,"co":972.0,"o3":29.0,"so2":42.8,"mosquito_risk":7,"arthritis_risk":5,"migraine_risk":7,"frizz_risk":1,"updated_at":"2026-06-13T21:45:20.756318+05:30"},{"city":"Ghaziabad","state":"Uttar Pradesh","latitude":28.6692,"longitude":77.4538,"temp":27.3,"humidity":84,"rain":0.0,"pressure":979.5,"uv_index":7.8,"wind_gusts":25.6,"aqi":159,"pm10":215.1,"pm2_5":108.0,"no2":60.3,"co":553.0,"o3":49.0,"so2":22.5,"mosquito_risk":7,"arthritis_risk":5,"migraine_risk":7,"frizz_risk":1,"updated_at":"2026-06-13T21:45:20.756324+05:30"},{"city":"Faridabad","state":"Haryana","latitude":28.4089,"longitude":77.3178,"temp":28.2,"humidity":78,"rain":0.0,"pressure":980.6,"uv_index":7.8,"wind_gusts":25.9,"aqi":1008,"pm10":417.2,"pm2_5":161.6,"no2":117.3,"co":1155.0,"o3":29.0,"so2":42.8,"mosquito_risk":7,"arthritis_risk":5,"migraine_risk":7,"frizz_risk":1,"updated_at":"2026-06-13T21:45:20.756330+05:30"},{"city":"Meerut","state":"Uttar Pradesh","latitude":28.9845,"longitude":77.7064,"temp":27.0,"humidity":83,"rain":0.0,"pressure":978.3,"uv_index":7.7,"wind_gusts":35.3,"aqi":159,"pm10":215.1,"pm2_5":108.0,"no2":60.3,"co":683.0,"o3":49.0,"so2":22.5,"mosquito_risk":7,"arthritis_risk":5,"migraine_risk":7,"frizz_risk":1,"updated_at":"2026-06-13T21:45:20.756337+05:30"},{"city":"Agra","state":"Uttar Pradesh","latitude":27.1767,"longitude":78.0081,"temp":29.3,"humidity":66,"rain":0.0,"pressure":984.7,"uv_index":8.1,"wind_gusts":25.2,"aqi":631,"pm10":411.6,"pm2_5":122.5,"no2":53.9,"co":481.0,"o3":56.0,"so2":20.3,"mosquito_risk":7,"arthritis_risk":5,"migraine_risk":7,"frizz_risk":1,"updated_at":"2026-06-13T21:45:20.756343+05:30"},{"city":"Varanasi","state":"Uttar Pradesh","latitude":25.3176,"longitude":82.9739,"temp":29.6,"humidity":74,"rain":0.0,"pressure":994.7,"uv_index":8.4,"wind_gusts":61.6,"aqi":157,"pm10":94.8,"pm2_5":78.0,"no2":28.2,"co":861.0,"o3":91.0,"so2":17.8,"mosquito_risk":7,"arthritis_risk":5,"migraine_risk":7,"frizz_risk":1,"updated_at":"2026-06-13T21:45:20.756349+05:30"},{"city":"Prayagraj","state":"Uttar Pradesh","latitude":25.4358,"longitude":81.8463,"temp":29.3,"humidity":67,"rain":0.0,"pressure":992.9,"uv_index":8.7,"wind_gusts":46.8,"aqi":158,"pm10":104.5,"pm2_5":86.8,"no2":35.6,"co":452.0,"o3":79.0,"so2":21.0,"mosquito_risk":7,"arthritis_risk":5,"migraine_risk":7,"frizz_risk":1,"updated_at":"2026-06-13T21:45:20.756356+05:30"},{"city":"Gorakhpur","state":"Uttar Pradesh","latitude":26.7606,"longitude":83.3732,"temp":27.4,"humidity":78,"rain":0.0,"pressure":994.2,"uv_index":8.7,"wind_gusts":32.8,"aqi":145,"pm10":73.1,"pm2_5":62.9,"no2":25.9,"co":546.0,"o3":81.0,"so2":12.3,"mosquito_risk":7,"arthritis_risk":5,"migraine_risk":7,"frizz_risk":1,"updated_at":"2026-06-13T21:45:20.756364+05:30"},{"city":"Bareilly","state":"Uttar Pradesh","latitude":28.367,"longitude":79.4304,"temp":28.5,"humidity":80,"rain":0.0,"pressure":983.2,"uv_index":7.95,"wind_gusts":21.2,"aqi":152,"pm10":128.5,"pm2_5":64.7,"no2":24.2,"co":438.0,"o3":85.0,"so2":12.9,"mosquito_risk":7,"arthritis_risk":5,"migraine_risk":7,"frizz_risk":1,"updated_at":"2026-06-13T21:45:20.756370+05:30"},{"city":"Aligarh","state":"Uttar Pradesh","latitude":27.8974,"longitude":78.088,"temp":28.7,"humidity":68,"rain":0.0,"pressure":982.4,"uv_index":7.95,"wind_gusts":25.6,"aqi":294,"pm10":299.0,"pm2_5":116.9,"no2":65.8,"co":437.0,"o3":40.0,"so2":20.2,"mosquito_risk":7,"arthritis_risk":5,"migraine_risk":7,"frizz_risk":1,"updated_at":"2026-06-13T21:45:20.756377+05:30"},{"city":"Moradabad","state":"Uttar Pradesh","latitude":28.8386,"longitude":78.7733,"temp":27.4,"humidity":82,"rain":0.0,"pressure":979.8,"uv_index":7.95,"wind_gusts":44.6,"aqi":152,"pm10":115.5,"pm2_5":67.8,"no2":32.5,"co":533.0,"o3":70.0,"so2":12.0,"mosquito_risk":7,"arthritis_risk":5,"migraine_risk":7,"frizz_risk":1,"updated_at":"2026-06-13T21:45:20.756383+05:30"},{"city":"Saharanpur","state":"Uttar Pradesh","latitude":29.9637,"longitude":77.546,"temp":25.6,"humidity":85,"rain":0.0,"pressure":972.4,"uv_index":7.55,"wind_gusts":37.8,"aqi":124,"pm10":170.9,"pm2_5":95.5,"no2":58.2,"co":558.0,"o3":56.0,"so2":20.9,"mosquito_risk":7,"arthritis_risk":5,"migraine_risk":7,"frizz_risk":1,"updated_at":"2026-06-13T21:45:20.756391+05:30"},{"city":"Jhansi","state":"Uttar Pradesh","latitude":25.4484,"longitude":78.5685,"temp":31.3,"humidity":56,"rain":0.0,"pressure":975.3,"uv_index":8.5,"wind_gusts":29.9,"aqi":136,"pm10":37.8,"pm2_5":28.7,"no2":6.1,"co":379.0,"o3":82.0,"so2":5.3,"mosquito_risk":0,"arthritis_risk":5,"migraine_risk":7,"frizz_risk":1,"updated_at":"2026-06-13T21:45:23.981006+05:30"},{"city":"Surat","state":"Gujarat","latitude":21.1702,"longitude":72.8311,"temp":30.6,"humidity":75,"rain":0.0,"pressure":1005.1,"uv_index":7.6,"wind_gusts":54.7,"aqi":73,"pm10":41.7,"pm2_5":24.1,"no2":14.9,"co":182.0,"o3":38.0,"so2":24.3,"mosquito_risk":3,"arthritis_risk":5,"migraine_risk":4,"frizz_risk":1,"updated_at":"2026-06-13T21:45:23.981044+05:30"},{"city":"Vadodara","state":"Gujarat","latitude":22.3072,"longitude":73.1812,"temp":31.1,"humidity":69,"rain":0.0,"pressure":1001.8,"uv_index":8.0,"wind_gusts":50.8,"aqi":70,"pm10":37.4,"pm2_5":23.6,"no2":16.6,"co":191.0,"o3":39.0,"so2":18.6,"mosquito_risk":3,"arthritis_risk":5,"migraine_risk":4,"frizz_risk":1,"updated_at":"2026-06-13T21:45:23.981055+05:30"},{"city":"Rajkot","state":"Gujarat","latitude":22.3039,"longitude":70.8022,"temp":31.7,"humidity":57,"rain":0.0,"pressure":992.4,"uv_index":7.55,"wind_gusts":53.3,"aqi":66,"pm10":41.6,"pm2_5":18.3,"no2":4.9,"co":110.0,"o3":52.0,"so2":5.3,"mosquito_risk":0,"arthritis_risk":5,"migraine_risk":7,"frizz_risk":1,"updated_at":"2026-06-13T21:45:23.981063+05:30"},{"city":"Thane","state":"Maharashtra","latitude":19.2183,"longitude":72.9781,"temp":30.8,"humidity":68,"rain":0.0,"pressure":1008.0,"uv_index":6.65,"wind_gusts":42.1,"aqi":72,"pm10":46.1,"pm2_5":21.1,"no2":5.9,"co":164.0,"o3":48.0,"so2":4.0,"mosquito_risk":3,"arthritis_risk":0,"migraine_risk":4,"frizz_risk":1,"updated_at":"2026-06-13T21:45:23.981071+05:30"},{"city":"Nagpur","state":"Maharashtra","latitude":21.1458,"longitude":79.0882,"temp":29.8,"humidity":72,"rain":0.0,"pressure":971.2,"uv_index":8.9,"wind_gusts":59.0,"aqi":105,"pm10":62.2,"pm2_5":42.4,"no2":38.2,"co":273.0,"o3":29.0,"so2":17.7,"mosquito_risk":7,"arthritis_risk":5,"migraine_risk":7,"frizz_risk":1,"updated_at":"2026-06-13T21:45:23.981079+05:30"},{"city":"Nashik","state":"Maharashtra","latitude":19.9975,"longitude":73.7898,"temp":26.2,"humidity":78,"rain":0.0,"pressure":945.6,"uv_index":8.0,"wind_gusts":52.9,"aqi":64,"pm10":31.1,"pm2_5":16.2,"no2":3.8,"co":126.0,"o3":49.0,"so2":1.5,"mosquito_risk":7,"arthritis_risk":5,"migraine_risk":7,"frizz_risk":1,"updated_at":"2026-06-13T21:45:23.981086+05:30"},{"city":"Aurangabad","state":"Maharashtra","latitude":19.8762,"longitude":75.3433,"temp":29.9,"humidity":54,"rain":0.0,"pressure":943.7,"uv_index":8.95,"wind_gusts":49.3,"aqi":76,"pm10":39.8,"pm2_5":20.4,"no2":4.5,"co":130.0,"o3":73.0,"so2":4.4,"mosquito_risk":4,"arthritis_risk":5,"migraine_risk":7,"frizz_risk":1,"updated_at":"2026-06-13T21:45:23.981093+05:30"},{"city":"Solapur","state":"Maharashtra","latitude":17.6599,"longitude":75.9064,"temp":31.0,"humidity":50,"rain":0.0,"pressure":956.9,"uv_index":7.8,"wind_gusts":50.4,"aqi":63,"pm10":29.9,"pm2_5":16.6,"no2":5.1,"co":144.0,"o3":74.0,"so2":2.6,"mosquito_risk":0,"arthritis_risk":5,"migraine_risk":7,"frizz_risk":1,"updated_at":"2026-06-13T21:45:23.981101+05:30"},{"city":"Kolhapur","state":"Maharashtra","latitude":16.705,"longitude":74.2433,"temp":25.0,"humidity":87,"rain":0.0,"pressure":948.9,"uv_index":7.7,"wind_gusts":49.7,"aqi":51,"pm10":18.1,"pm2_5":10.9,"no2":6.1,"co":172.0,"o3":46.0,"so2":2.5,"mosquito_risk":7,"arthritis_risk":5,"migraine_risk":7,"frizz_risk":1,"updated_at":"2026-06-13T21:45:23.981108+05:30"},{"city":"Goa","state":"Goa","latitude":15.2993,"longitude":74.124,"temp":28.5,"humidity":78,"rain":0.0,"pressure":999.6,"uv_index":6.9,"wind_gusts":32.0,"aqi":64,"pm10":37.8,"pm2_5":20.0,"no2":5.2,"co":352.0,"o3":47.0,"so2":1.8,"mosquito_risk":7,"arthritis_risk":5,"migraine_risk":7,"frizz_risk":1,"updated_at":"2026-06-13T21:45:23.981116+05:30"},{"city":"Jodhpur","state":"Rajasthan","latitude":26.2389,"longitude":73.0243,"temp":34.1,"humidity":43,"rain":0.0,"pressure":979.1,"uv_index":8.4,"wind_gusts":40.3,"aqi":143,"pm10":244.0,"pm2_5":56.5,"no2":7.4,"co":263.0,"o3":59.0,"so2":2.5,"mosquito_risk":0,"arthritis_risk":5,"migraine_risk":7,"frizz_risk":1,"updated_at":"2026-06-13T21:45:23.981123+05:30"},{"city":"Udaipur","state":"Rajasthan","latitude":24.5854,"longitude":73.7125,"temp":30.7,"humidity":52,"rain":0.0,"pressure":944.1,"uv_index":8.8,"wind_gusts":38.9,"aqi":75,"pm10":53.0,"pm2_5":23.5,"no2":5.0,"co":170.0,"o3":69.0,"so2":2.6,"mosquito_risk":0,"arthritis_risk":5,"migraine_risk":7,"frizz_risk":1,"updated_at":"2026-06-13T21:45:23.981130+05:30"},{"city":"Kota","state":"Rajasthan","latitude":25.2138,"longitude":75.8648,"temp":29.3,"humidity":65,"rain":0.0,"pressure":976.7,"uv_index":8.35,"wind_gusts":49.7,"aqi":90,"pm10":82.2,"pm2_5":42.3,"no2":14.6,"co":230.0,"o3":59.0,"so2":9.1,"mosquito_risk":7,"arthritis_risk":5,"migraine_risk":7,"frizz_risk":1,"updated_at":"2026-06-13T21:45:23.981137+05:30"},{"city":"Bikaner","state":"Rajasthan","latitude":28.0229,"longitude":73.3119,"temp":34.5,"humidity":42,"rain":0.0,"pressure":977.8,"uv_index":8.5,"wind_gusts":33.5,"aqi":153,"pm10":166.2,"pm2_5":63.6,"no2":4.5,"co":271.0,"o3":76.0,"so2":3.2,"mosquito_risk":0,"arthritis_risk":5,"migraine_risk":7,"frizz_risk":1,"updated_at":"2026-06-13T21:45:23.981144+05:30"},{"city":"Ajmer","state":"Rajasthan","latitude":26.4499,"longitude":74.6399,"temp":28.5,"humidity":57,"rain":0.0,"pressure":952.3,"uv_index":8.35,"wind_gusts":49.7,"aqi":96,"pm10":100.4,"pm2_5":39.3,"no2":13.2,"co":471.0,"o3":63.0,"so2":3.7,"mosquito_risk":4,"arthritis_risk":5,"migraine_risk":7,"frizz_risk":1,"updated_at":"2026-06-13T21:45:23.981150+05:30"},{"city":"Gwalior","state":"Madhya Pradesh","latitude":26.2183,"longitude":78.1828,"temp":29.7,"humidity":66,"rain":0.0,"pressure":980.3,"uv_index":8.3,"wind_gusts":21.6,"aqi":159,"pm10":146.2,"pm2_5":57.6,"no2":13.4,"co":401.0,"o3":73.0,"so2":6.6,"mosquito_risk":7,"arthritis_risk":5,"migraine_risk":7,"frizz_risk":1,"updated_at":"2026-06-13T21:45:23.981157+05:30"},{"city":"Indore","state":"Madhya Pradesh","latitude":22.7196,"longitude":75.8577,"temp":32.6,"humidity":42,"rain":0.0,"pressure":946.4,"uv_index":8.6,"wind_gusts":44.6,"aqi":80,"pm10":48.1,"pm2_5":25.1,"no2":4.8,"co":221.0,"o3":92.0,"so2":4.7,"mosquito_risk":0,"arthritis_risk":5,"migraine_risk":7,"frizz_risk":1,"updated_at":"2026-06-13T21:45:23.981164+05:30"},{"city":"Bhopal","state":"Madhya Pradesh","latitude":23.2599,"longitude":77.4126,"temp":28.0,"humidity":68,"rain":0.0,"pressure":951.5,"uv_index":8.65,"wind_gusts":37.1,"aqi":98,"pm10":74.5,"pm2_5":33.8,"no2":10.1,"co":341.0,"o3":65.0,"so2":4.6,"mosquito_risk":7,"arthritis_risk":5,"migraine_risk":7,"frizz_risk":1,"updated_at":"2026-06-13T21:45:23.981171+05:30"},{"city":"Jabalpur","state":"Madhya Pradesh","latitude":23.1815,"longitude":79.9864,"temp":28.6,"humidity":67,"rain":0.0,"pressure":959.1,"uv_index":8.6,"wind_gusts":26.6,"aqi":100,"pm10":63.8,"pm2_5":35.9,"no2":11.5,"co":259.0,"o3":78.0,"so2":4.5,"mosquito_risk":7,"arthritis_risk":5,"migraine_risk":7,"frizz_risk":1,"updated_at":"2026-06-13T21:45:23.981177+05:30"},{"city":"Ujjain","state":"Madhya Pradesh","latitude":23.1765,"longitude":75.7885,"temp":31.9,"humidity":45,"rain":0.0,"pressure":951.9,"uv_index":8.55,"wind_gusts":45.4,"aqi":78,"pm10":49.5,"pm2_5":26.3,"no2":3.0,"co":245.0,"o3":94.0,"so2":5.1,"mosquito_risk":0,"arthritis_risk":5,"migraine_risk":7,"frizz_risk":1,"updated_at":"2026-06-13T21:45:23.981185+05:30"},{"city":"Visakhapatnam","state":"Andhra Pradesh","latitude":17.6868,"longitude":83.2185,"temp":30.3,"humidity":78,"rain":0.0,"pressure":1001.3,"uv_index":9.0,"wind_gusts":43.6,"aqi":106,"pm10":36.4,"pm2_5":29.7,"no2":27.5,"co":362.0,"o3":86.0,"so2":39.9,"mosquito_risk":3,"arthritis_risk":5,"migraine_risk":4,"frizz_risk":1,"updated_at":"2026-06-13T21:45:23.981192+05:30"},{"city":"Vijayawada","state":"Andhra Pradesh","latitude":16.5062,"longitude":80.648,"temp":29.7,"humidity":76,"rain":0.0,"pressure":1001.0,"uv_index":2.5,"wind_gusts":32.0,"aqi":84,"pm10":58.3,"pm2_5":45.1,"no2":20.0,"co":381.0,"o3":59.0,"so2":7.8,"mosquito_risk":7,"arthritis_risk":5,"migraine_risk":0,"frizz_risk":1,"updated_at":"2026-06-13T21:45:23.981198+05:30"},{"city":"Guntur","state":"Andhra Pradesh","latitude":16.3067,"longitude":80.4365,"temp":31.2,"humidity":64,"rain":0.0,"pressure":1002.3,"uv_index":3.45,"wind_gusts":33.8,"aqi":86,"pm10":60.1,"pm2_5":45.6,"no2":24.6,"co":371.0,"o3":47.0,"so2":7.4,"mosquito_risk":3,"arthritis_risk":5,"migraine_risk":0,"frizz_risk":1,"updated_at":"2026-06-13T21:45:23.981205+05:30"},{"city":"Nellore","state":"Andhra Pradesh","latitude":14.4426,"longitude":79.9865,"temp":31.2,"humidity":62,"rain":0.0,"pressure":1005.3,"uv_index":8.0,"wind_gusts":43.2,"aqi":58,"pm10":40.5,"pm2_5":29.9,"no2":12.5,"co":252.0,"o3":92.0,"so2":6.6,"mosquito_risk":3,"arthritis_risk":5,"migraine_risk":4,"frizz_risk":1,"updated_at":"2026-06-13T21:45:23.981213+05:30"},{"city":"Kurnool","state":"Andhra Pradesh","latitude":15.8281,"longitude":78.0373,"temp":29.8,"humidity":60,"rain":0.0,"pressure":976.2,"uv_index":2.8,"wind_gusts":33.8,"aqi":73,"pm10":53.8,"pm2_5":32.0,"no2":16.1,"co":184.0,"o3":61.0,"so2":5.9,"mosquito_risk":4,"arthritis_risk":5,"migraine_risk":3,"frizz_risk":1,"updated_at":"2026-06-13T21:45:23.981221+05:30"},{"city":"Kakinada","state":"Andhra Pradesh","latitude":16.9891,"longitude":82.2475,"temp":28.9,"humidity":75,"rain":0.0,"pressure":1005.4,"uv_index":9.0,"wind_gusts":33.8,"aqi":75,"pm10":31.8,"pm2_5":24.2,"no2":6.2,"co":497.0,"o3":104.0,"so2":4.2,"mosquito_risk":7,"arthritis_risk":5,"migraine_risk":4,"frizz_risk":1,"updated_at":"2026-06-13T21:45:23.981228+05:30"},{"city":"Tirupati","state":"Andhra Pradesh","latitude":13.6288,"longitude":79.4192,"temp":27.8,"humidity":75,"rain":0.0,"pressure":991.2,"uv_index":8.1,"wind_gusts":31.3,"aqi":55,"pm10":25.9,"pm2_5":20.1,"no2":25.6,"co":315.0,"o3":45.0,"so2":3.5,"mosquito_risk":7,"arthritis_risk":5,"migraine_risk":7,"frizz_risk":1,"updated_at":"2026-06-13T21:45:23.981234+05:30"},{"city":"Warangal","state":"Telangana","latitude":17.9689,"longitude":79.5941,"temp":27.3,"humidity":81,"rain":0.0,"pressure":977.1,"uv_index":4.3,"wind_gusts":40.7,"aqi":99,"pm10":82.9,"pm2_5":58.8,"no2":25.8,"co":349.0,"o3":45.0,"so2":7.6,"mosquito_risk":7,"arthritis_risk":5,"migraine_risk":3,"frizz_risk":1,"updated_at":"2026-06-13T21:45:23.981240+05:30"},{"city":"Nizamabad","state":"Telangana","latitude":18.6725,"longitude":78.0941,"temp":26.2,"humidity":89,"rain":0.0,"pressure":962.8,"uv_index":8.8,"wind_gusts":41.0,"aqi":90,"pm10":79.4,"pm2_5":44.1,"no2":20.8,"co":355.0,"o3":66.0,"so2":7.1,"mosquito_risk":7,"arthritis_risk":5,"migraine_risk":7,"frizz_risk":1,"updated_at":"2026-06-13T21:45:23.981247+05:30"},{"city":"Mysore","state":"Karnataka","latitude":12.2958,"longitude":76.6396,"temp":23.0,"humidity":86,"rain":0.0,"pressure":930.6,"uv_index":7.6,"wind_gusts":39.6,"aqi":35,"pm10":15.4,"pm2_5":11.5,"no2":17.5,"co":174.0,"o3":45.0,"so2":2.8,"mosquito_risk":3,"arthritis_risk":5,"migraine_risk":7,"frizz_risk":1,"updated_at":"2026-06-13T21:45:23.981254+05:30"},{"city":"Mangalore","state":"Karnataka","latitude":12.9141,"longitude":74.856,"temp":26.7,"humidity":90,"rain":0.0,"pressure":1009.6,"uv_index":8.55,"wind_gusts":28.4,"aqi":48,"pm10":29.7,"pm2_5":15.4,"no2":12.9,"co":387.0,"o3":43.0,"so2":4.4,"mosquito_risk":7,"arthritis_risk":0,"migraine_risk":4,"frizz_risk":1,"updated_at":"2026-06-13T21:45:23.981260+05:30"},{"city":"Hubli-Dharwad","state":"Karnataka","latitude":15.3647,"longitude":75.124,"temp":24.3,"humidity":86,"rain":0.0,"pressure":942.0,"uv_index":7.3,"wind_gusts":49.7,"aqi":37,"pm10":12.4,"pm2_5":7.8,"no2":7.8,"co":149.0,"o3":43.0,"so2":1.7,"mosquito_risk":3,"arthritis_risk":5,"migraine_risk":7,"frizz_risk":1,"updated_at":"2026-06-13T21:45:23.981266+05:30"},{"city":"Belgaum","state":"Karnataka","latitude":15.8497,"longitude":74.4977,"temp":23.0,"humidity":91,"rain":0.0,"pressure":927.0,"uv_index":7.9,"wind_gusts":49.3,"aqi":40,"pm10":19.8,"pm2_5":10.4,"no2":5.1,"co":141.0,"o3":46.0,"so2":1.6,"mosquito_risk":3,"arthritis_risk":5,"migraine_risk":7,"frizz_risk":1,"updated_at":"2026-06-13T21:45:27.271441+05:30"},{"city":"Coimbatore","state":"Tamil Nadu","latitude":11.0168,"longitude":76.9558,"temp":23.3,"humidity":98,"rain":0.0,"pressure":963.9,"uv_index":8.75,"wind_gusts":49.3,"aqi":32,"pm10":14.5,"pm2_5":10.4,"no2":12.5,"co":229.0,"o3":41.0,"so2":3.3,"mosquito_risk":3,"arthritis_risk":5,"migraine_risk":7,"frizz_risk":1,"updated_at":"2026-06-13T21:45:27.271478+05:30"},{"city":"Madurai","state":"Tamil Nadu","latitude":9.9252,"longitude":78.1198,"temp":29.8,"humidity":58,"rain":0.0,"pressure":994.8,"uv_index":8.4,"wind_gusts":44.3,"aqi":60,"pm10":24.2,"pm2_5":19.4,"no2":29.4,"co":161.0,"o3":25.0,"so2":5.9,"mosquito_risk":4,"arthritis_risk":5,"migraine_risk":7,"frizz_risk":1,"updated_at":"2026-06-13T21:45:27.271489+05:30"},{"city":"Trichy","state":"Tamil Nadu","latitude":10.7905,"longitude":78.7047,"temp":27.4,"humidity":80,"rain":0.0,"pressure":1001.7,"uv_index":8.35,"wind_gusts":55.4,"aqi":51,"pm10":25.7,"pm2_5":20.3,"no2":16.0,"co":232.0,"o3":59.0,"so2":4.5,"mosquito_risk":7,"arthritis_risk":5,"migraine_risk":4,"frizz_risk":1,"updated_at":"2026-06-13T21:45:27.271498+05:30"},{"city":"Salem","state":"Tamil Nadu","latitude":11.6643,"longitude":78.146,"temp":25.1,"humidity":92,"rain":0.0,"pressure":979.3,"uv_index":7.35,"wind_gusts":32.8,"aqi":56,"pm10":21.5,"pm2_5":15.3,"no2":15.8,"co":388.0,"o3":56.0,"so2":6.8,"mosquito_risk":7,"arthritis_risk":5,"migraine_risk":7,"frizz_risk":1,"updated_at":"2026-06-13T21:45:27.271507+05:30"},{"city":"Tirunelveli","state":"Tamil Nadu","latitude":8.7139,"longitude":77.7567,"temp":28.9,"humidity":63,"rain":0.0,"pressure":1005.9,"uv_index":8.4,"wind_gusts":39.2,"aqi":32,"pm10":15.8,"pm2_5":10.0,"no2":6.6,"co":158.0,"o3":48.0,"so2":1.7,"mosquito_risk":7,"arthritis_risk":5,"migraine_risk":4,"frizz_risk":1,"updated_at":"2026-06-13T21:45:27.271515+05:30"},{"city":"Vellore","state":"Tamil Nadu","latitude":12.9165,"longitude":79.1325,"temp":27.3,"humidity":81,"rain":0.0,"pressure":985.2,"uv_index":8.35,"wind_gusts":40.7,"aqi":52,"pm10":18.4,"pm2_5":15.0,"no2":14.8,"co":323.0,"o3":69.0,"so2":3.9,"mosquito_risk":7,"arthritis_risk":5,"migraine_risk":7,"frizz_risk":1,"updated_at":"2026-06-13T21:45:27.271523+05:30"},{"city":"Erode","state":"Tamil Nadu","latitude":11.341,"longitude":77.7172,"temp":26.3,"humidity":79,"rain":0.0,"pressure":991.2,"uv_index":7.95,"wind_gusts":36.7,"aqi":52,"pm10":20.2,"pm2_5":14.3,"no2":13.3,"co":207.0,"o3":56.0,"so2":3.3,"mosquito_risk":7,"arthritis_risk":5,"migraine_risk":7,"frizz_risk":1,"updated_at":"2026-06-13T21:45:27.271531+05:30"},{"city":"Kochi","state":"Kerala","latitude":9.9312,"longitude":76.2673,"temp":25.1,"humidity":98,"rain":0.0,"pressure":1012.7,"uv_index":7.6,"wind_gusts":28.8,"aqi":64,"pm10":34.7,"pm2_5":24.0,"no2":27.2,"co":246.0,"o3":19.0,"so2":5.7,"mosquito_risk":7,"arthritis_risk":0,"migraine_risk":4,"frizz_risk":1,"updated_at":"2026-06-13T21:45:27.271539+05:30"},{"city":"Thiruvananthapuram","state":"Kerala","latitude":8.5241,"longitude":76.9366,"temp":24.7,"humidity":95,"rain":0.1,"pressure":1012.2,"uv_index":8.05,"wind_gusts":41.4,"aqi":31,"pm10":16.3,"pm2_5":7.8,"no2":2.5,"co":124.0,"o3":57.0,"so2":1.0,"mosquito_risk":6,"arthritis_risk":0,"migraine_risk":4,"frizz_risk":1,"updated_at":"2026-06-13T21:45:27.271546+05:30"},{"city":"Kozhikode","state":"Kerala","latitude":11.2588,"longitude":75.7804,"temp":25.3,"humidity":94,"rain":0.0,"pressure":1011.3,"uv_index":8.4,"wind_gusts":34.2,"aqi":35,"pm10":21.8,"pm2_5":9.6,"no2":1.8,"co":488.0,"o3":65.0,"so2":1.1,"mosquito_risk":7,"arthritis_risk":0,"migraine_risk":4,"frizz_risk":1,"updated_at":"2026-06-13T21:45:27.271553+05:30"},{"city":"Thrissur","state":"Kerala","latitude":10.5276,"longitude":76.2144,"temp":24.3,"humidity":99,"rain":0.2,"pressure":1011.1,"uv_index":7.95,"wind_gusts":31.3,"aqi":64,"pm10":38.3,"pm2_5":29.7,"no2":22.5,"co":311.0,"o3":22.0,"so2":4.9,"mosquito_risk":6,"arthritis_risk":0,"migraine_risk":4,"frizz_risk":1,"updated_at":"2026-06-13T21:45:27.271561+05:30"},{"city":"Kannur","state":"Kerala","latitude":11.8745,"longitude":75.3704,"temp":26.1,"humidity":90,"rain":0.0,"pressure":1010.3,"uv_index":8.55,"wind_gusts":31.0,"aqi":43,"pm10":34.2,"pm2_5":23.1,"no2":24.4,"co":401.0,"o3":30.0,"so2":4.5,"mosquito_risk":7,"arthritis_risk":0,"migraine_risk":4,"frizz_risk":1,"updated_at":"2026-06-13T21:45:27.271569+05:30"},{"city":"Patna","state":"Bihar","latitude":25.5941,"longitude":85.1376,"temp":28.4,"humidity":84,"rain":0.0,"pressure":997.2,"uv_index":8.85,"wind_gusts":45.4,"aqi":158,"pm10":111.5,"pm2_5":97.6,"no2":47.3,"co":559.0,"o3":66.0,"so2":25.1,"mosquito_risk":7,"arthritis_risk":5,"migraine_risk":7,"frizz_risk":1,"updated_at":"2026-06-13T21:45:27.271576+05:30"},{"city":"Gaya","state":"Bihar","latitude":24.7914,"longitude":85.0002,"temp":28.5,"humidity":79,"rain":0.0,"pressure":990.9,"uv_index":8.9,"wind_gusts":57.2,"aqi":162,"pm10":127.1,"pm2_5":108.5,"no2":43.6,"co":459.0,"o3":88.0,"so2":24.9,"mosquito_risk":7,"arthritis_risk":5,"migraine_risk":7,"frizz_risk":1,"updated_at":"2026-06-13T21:45:27.271584+05:30"},{"city":"Muzaffarpur","state":"Bihar","latitude":26.1209,"longitude":85.3647,"temp":29.0,"humidity":75,"rain":0.0,"pressure":996.9,"uv_index":8.85,"wind_gusts":23.0,"aqi":157,"pm10":124.3,"pm2_5":109.9,"no2":49.3,"co":501.0,"o3":72.0,"so2":26.2,"mosquito_risk":7,"arthritis_risk":5,"migraine_risk":7,"frizz_risk":1,"updated_at":"2026-06-13T21:45:27.271591+05:30"},{"city":"Bhagalpur","state":"Bihar","latitude":25.2425,"longitude":87.0117,"temp":29.9,"humidity":77,"rain":0.0,"pressure":997.7,"uv_index":7.9,"wind_gusts":40.0,"aqi":184,"pm10":75.4,"pm2_5":68.2,"no2":19.4,"co":469.0,"o3":112.0,"so2":21.6,"mosquito_risk":7,"arthritis_risk":5,"migraine_risk":7,"frizz_risk":1,"updated_at":"2026-06-13T21:45:27.271598+05:30"},{"city":"Ranchi","state":"Jharkhand","latitude":23.3441,"longitude":85.3096,"temp":24.6,"humidity":87,"rain":0.0,"pressure":935.1,"uv_index":9.3,"wind_gusts":30.6,"aqi":150,"pm10":74.7,"pm2_5":58.9,"no2":14.2,"co":350.0,"o3":79.0,"so2":6.1,"mosquito_risk":3,"arthritis_risk":5,"migraine_risk":7,"frizz_risk":1,"updated_at":"2026-06-13T21:45:27.271605+05:30"},{"city":"Jamshedpur","state":"Jharkhand","latitude":22.8046,"longitude":86.2029,"temp":28.5,"humidity":77,"rain":0.0,"pressure":988.1,"uv_index":9.05,"wind_gusts":46.1,"aqi":156,"pm10":89.9,"pm2_5":75.2,"no2":24.1,"co":860.0,"o3":78.0,"so2":20.8,"mosquito_risk":7,"arthritis_risk":5,"migraine_risk":7,"frizz_risk":1,"updated_at":"2026-06-13T21:45:27.271611+05:30"},{"city":"Dhanbad","state":"Jharkhand","latitude":23.7957,"longitude":86.4304,"temp":26.9,"humidity":90,"rain":0.1,"pressure":977.0,"uv_index":8.9,"wind_gusts":34.6,"aqi":170,"pm10":102.2,"pm2_5":91.5,"no2":56.8,"co":568.0,"o3":57.0,"so2":149.9,"mosquito_risk":10,"arthritis_risk":5,"migraine_risk":7,"frizz_risk":1,"updated_at":"2026-06-13T21:45:27.271619+05:30"},{"city":"Bokaro","state":"Jharkhand","latitude":23.6693,"longitude":86.1511,"temp":26.2,"humidity":95,"rain":0.0,"pressure":980.7,"uv_index":8.9,"wind_gusts":29.5,"aqi":166,"pm10":93.8,"pm2_5":78.9,"no2":38.6,"co":317.0,"o3":69.0,"so2":107.6,"mosquito_risk":7,"arthritis_risk":5,"migraine_risk":7,"frizz_risk":1,"updated_at":"2026-06-13T21:45:27.271626+05:30"},{"city":"Bhubaneswar","state":"Odisha","latitude":20.2961,"longitude":85.8245,"temp":28.9,"humidity":89,"rain":0.0,"pressure":999.8,"uv_index":8.8,"wind_gusts":41.4,"aqi":122,"pm10":60.3,"pm2_5":54.4,"no2":26.3,"co":1213.0,"o3":81.0,"so2":10.8,"mosquito_risk":7,"arthritis_risk":5,"migraine_risk":7,"frizz_risk":1,"updated_at":"2026-06-13T21:45:27.271633+05:30"},{"city":"Cuttack","state":"Odisha","latitude":20.4625,"longitude":85.8828,"temp":29.4,"humidity":84,"rain":0.0,"pressure":1001.5,"uv_index":8.9,"wind_gusts":38.5,"aqi":122,"pm10":60.3,"pm2_5":54.4,"no2":26.3,"co":1036.0,"o3":81.0,"so2":10.8,"mosquito_risk":7,"arthritis_risk":5,"migraine_risk":4,"frizz_risk":1,"updated_at":"2026-06-13T21:45:27.271639+05:30"},{"city":"Rourkela","state":"Odisha","latitude":22.2604,"longitude":84.8536,"temp":27.3,"humidity":91,"rain":0.0,"pressure":982.4,"uv_index":9.0,"wind_gusts":46.8,"aqi":143,"pm10":65.0,"pm2_5":55.1,"no2":19.1,"co":688.0,"o3":88.0,"so2":20.1,"mosquito_risk":7,"arthritis_risk":5,"migraine_risk":7,"frizz_risk":1,"updated_at":"2026-06-13T21:45:27.271646+05:30"},{"city":"Raipur","state":"Chhattisgarh","latitude":21.2514,"longitude":81.6296,"temp":32.7,"humidity":49,"rain":0.0,"pressure":972.1,"uv_index":8.95,"wind_gusts":40.0,"aqi":133,"pm10":99.7,"pm2_5":62.6,"no2":42.8,"co":333.0,"o3":51.0,"so2":56.7,"mosquito_risk":0,"arthritis_risk":5,"migraine_risk":7,"frizz_risk":1,"updated_at":"2026-06-13T21:45:27.271653+05:30"},{"city":"Bhilai","state":"Chhattisgarh","latitude":21.1938,"longitude":81.3509,"temp":31.2,"humidity":55,"rain":0.0,"pressure":972.5,"uv_index":8.95,"wind_gusts":43.2,"aqi":125,"pm10":89.9,"pm2_5":55.3,"no2":34.0,"co":755.0,"o3":66.0,"so2":44.2,"mosquito_risk":0,"arthritis_risk":5,"migraine_risk":7,"frizz_risk":1,"updated_at":"2026-06-13T21:45:27.271659+05:30"},{"city":"Guwahati","state":"Assam","latitude":26.1158,"longitude":91.7086,"temp":24.8,"humidity":98,"rain":0.1,"pressure":999.7,"uv_index":8.8,"wind_gusts":26.6,"aqi":78,"pm10":26.0,"pm2_5":23.2,"no2":10.4,"co":514.0,"o3":56.0,"so2":2.3,"mosquito_risk":6,"arthritis_risk":5,"migraine_risk":7,"frizz_risk":1,"updated_at":"2026-06-13T21:45:27.271666+05:30"},{"city":"Agartala","state":"Tripura","latitude":23.8315,"longitude":91.2868,"temp":26.9,"humidity":90,"rain":0.0,"pressure":1004.1,"uv_index":8.85,"wind_gusts":27.7,"aqi":80,"pm10":23.0,"pm2_5":19.0,"no2":13.2,"co":253.0,"o3":52.0,"so2":2.4,"mosquito_risk":7,"arthritis_risk":5,"migraine_risk":4,"frizz_risk":1,"updated_at":"2026-06-13T21:45:27.271672+05:30"},{"city":"Shillong","state":"Meghalaya","latitude":25.5788,"longitude":91.8933,"temp":19.3,"humidity":95,"rain":0.0,"pressure":855.8,"uv_index":6.75,"wind_gusts":19.1,"aqi":60,"pm10":8.0,"pm2_5":7.0,"no2":6.4,"co":258.0,"o3":91.0,"so2":2.4,"mosquito_risk":3,"arthritis_risk":10,"migraine_risk":7,"frizz_risk":1,"updated_at":"2026-06-13T21:45:27.271679+05:30"},{"city":"Imphal","state":"Manipur","latitude":24.817,"longitude":93.9368,"temp":23.0,"humidity":93,"rain":0.0,"pressure":921.7,"uv_index":7.95,"wind_gusts":27.0,"aqi":36,"pm10":16.1,"pm2_5":14.8,"no2":13.2,"co":539.0,"o3":54.0,"so2":3.0,"mosquito_risk":3,"arthritis_risk":5,"migraine_risk":7,"frizz_risk":1,"updated_at":"2026-06-13T21:45:27.271686+05:30"},{"city":"Aizawl","state":"Mizoram","latitude":23.7271,"longitude":92.7176,"temp":19.8,"humidity":95,"rain":0.0,"pressure":891.2,"uv_index":8.85,"wind_gusts":25.2,"aqi":37,"pm10":6.7,"pm2_5":5.3,"no2":4.6,"co":190.0,"o3":60.0,"so2":0.9,"mosquito_risk":3,"arthritis_risk":10,"migraine_risk":7,"frizz_risk":1,"updated_at":"2026-06-13T21:45:27.271693+05:30"},{"city":"Kohima","state":"Nagaland","latitude":25.6701,"longitude":94.1077,"temp":19.3,"humidity":94,"rain":0.1,"pressure":853.9,"uv_index":2.8,"wind_gusts":21.2,"aqi":32,"pm10":5.2,"pm2_5":4.9,"no2":6.9,"co":352.0,"o3":60.0,"so2":0.8,"mosquito_risk":6,"arthritis_risk":10,"migraine_risk":3,"frizz_risk":1,"updated_at":"2026-06-13T21:45:27.271700+05:30"},{"city":"Gangtok","state":"Sikkim","latitude":27.3314,"longitude":88.6138,"temp":16.8,"humidity":98,"rain":0.3,"pressure":836.0,"uv_index":8.6,"wind_gusts":38.5,"aqi":81,"pm10":16.4,"pm2_5":12.7,"no2":10.0,"co":462.0,"o3":105.0,"so2":1.6,"mosquito_risk":6,"arthritis_risk":10,"migraine_risk":7,"frizz_risk":1,"updated_at":"2026-06-13T21:45:27.271706+05:30"},{"city":"Siliguri","state":"West Bengal","latitude":26.7271,"longitude":88.3953,"temp":26.6,"humidity":88,"rain":0.0,"pressure":990.1,"uv_index":8.65,"wind_gusts":20.5,"aqi":149,"pm10":55.6,"pm2_5":42.5,"no2":11.8,"co":659.0,"o3":118.0,"so2":5.7,"mosquito_risk":7,"arthritis_risk":5,"migraine_risk":7,"frizz_risk":1,"updated_at":"2026-06-13T21:45:30.523827+05:30"},{"city":"Durgapur","state":"West Bengal","latitude":23.5204,"longitude":87.3119,"temp":27.3,"humidity":87,"rain":0.0,"pressure":992.1,"uv_index":8.85,"wind_gusts":27.4,"aqi":157,"pm10":78.7,"pm2_5":74.0,"no2":33.3,"co":1043.0,"o3":81.0,"so2":46.3,"mosquito_risk":7,"arthritis_risk":5,"migraine_risk":7,"frizz_risk":1,"updated_at":"2026-06-13T21:45:30.523866+05:30"},{"city":"Asansol","state":"West Bengal","latitude":23.6739,"longitude":86.9524,"temp":28.8,"humidity":81,"rain":0.0,"pressure":990.6,"uv_index":8.85,"wind_gusts":29.9,"aqi":157,"pm10":77.5,"pm2_5":71.5,"no2":31.4,"co":491.0,"o3":88.0,"so2":46.9,"mosquito_risk":7,"arthritis_risk":5,"migraine_risk":7,"frizz_risk":1,"updated_at":"2026-06-13T21:45:30.523877+05:30"},{"city":"Pondicherry","state":"Puducherry","latitude":11.9139,"longitude":79.8145,"temp":27.0,"humidity":92,"rain":0.1,"pressure":1009.5,"uv_index":8.35,"wind_gusts":41.0,"aqi":77,"pm10":23.8,"pm2_5":17.1,"no2":16.6,"co":353.0,"o3":80.0,"so2":6.8,"mosquito_risk":10,"arthritis_risk":0,"migraine_risk":4,"frizz_risk":1,"updated_at":"2026-06-13T21:45:30.523886+05:30"},{"city":"Port Blair","state":"Andaman and Nicobar Islands","latitude":11.6234,"longitude":92.7265,"temp":27.1,"humidity":87,"rain":0.0,"pressure":1009.9,"uv_index":8.8,"wind_gusts":39.6,"aqi":20,"pm10":7.2,"pm2_5":4.4,"no2":0.4,"co":96.0,"o3":41.0,"so2":0.4,"mosquito_risk":7,"arthritis_risk":0,"migraine_risk":4,"frizz_risk":1,"updated_at":"2026-06-13T21:45:30.523895+05:30"},{"city":"Haridwar","state":"Uttarakhand","latitude":29.9457,"longitude":78.1642,"temp":26.0,"humidity":81,"rain":0.0,"pressure":970.6,"uv_index":7.65,"wind_gusts":29.5,"aqi":136,"pm10":118.7,"pm2_5":63.1,"no2":32.3,"co":494.0,"o3":83.0,"so2":11.4,"mosquito_risk":7,"arthritis_risk":5,"migraine_risk":7,"frizz_risk":1,"updated_at":"2026-06-13T21:45:30.523903+05:30"},{"city":"Rishikesh","state":"Uttarakhand","latitude":30.0869,"longitude":78.2676,"temp":24.4,"humidity":82,"rain":0.0,"pressure":963.2,"uv_index":7.7,"wind_gusts":20.5,"aqi":128,"pm10":81.5,"pm2_5":38.1,"no2":13.2,"co":431.0,"o3":120.0,"so2":5.9,"mosquito_risk":3,"arthritis_risk":5,"migraine_risk":7,"frizz_risk":1,"updated_at":"2026-06-13T21:45:30.523911+05:30"},{"city":"Nainital","state":"Uttarakhand","latitude":29.3919,"longitude":79.4542,"temp":15.0,"humidity":76,"rain":0.0,"pressure":802.6,"uv_index":8.25,"wind_gusts":25.9,"aqi":112,"pm10":71.9,"pm2_5":40.7,"no2":16.1,"co":404.0,"o3":106.0,"so2":8.9,"mosquito_risk":3,"arthritis_risk":5,"migraine_risk":7,"frizz_risk":0,"updated_at":"2026-06-13T21:45:30.523919+05:30"},{"city":"Mussoorie","state":"Uttarakhand","latitude":30.4599,"longitude":78.0664,"temp":14.8,"humidity":74,"rain":0.0,"pressure":800.0,"uv_index":8.0,"wind_gusts":25.9,"aqi":125,"pm10":57.3,"pm2_5":31.5,"no2":26.7,"co":317.0,"o3":92.0,"so2":7.4,"mosquito_risk":3,"arthritis_risk":5,"migraine_risk":7,"frizz_risk":0,"updated_at":"2026-06-13T21:45:30.523927+05:30"},{"city":"Dharamshala","state":"Himachal Pradesh","latitude":32.219,"longitude":76.3234,"temp":19.1,"humidity":72,"rain":0.0,"pressure":866.4,"uv_index":7.85,"wind_gusts":31.0,"aqi":57,"pm10":20.7,"pm2_5":11.0,"no2":16.1,"co":469.0,"o3":60.0,"so2":0.6,"mosquito_risk":3,"arthritis_risk":5,"migraine_risk":7,"frizz_risk":0,"updated_at":"2026-06-13T21:45:30.523935+05:30"},{"city":"Dalhousie","state":"Himachal Pradesh","latitude":32.5387,"longitude":75.971,"temp":11.8,"humidity":93,"rain":0.0,"pressure":800.2,"uv_index":7.95,"wind_gusts":26.3,"aqi":82,"pm10":32.7,"pm2_5":21.0,"no2":40.3,"co":568.0,"o3":53.0,"so2":2.1,"mosquito_risk":3,"arthritis_risk":10,"migraine_risk":7,"frizz_risk":0,"updated_at":"2026-06-13T21:45:30.523943+05:30"},{"city":"Patiala","state":"Punjab","latitude":30.3398,"longitude":76.3869,"temp":26.9,"humidity":78,"rain":0.0,"pressure":975.1,"uv_index":7.7,"wind_gusts":38.5,"aqi":262,"pm10":141.1,"pm2_5":59.6,"no2":19.8,"co":585.0,"o3":73.0,"so2":10.3,"mosquito_risk":7,"arthritis_risk":5,"migraine_risk":7,"frizz_risk":1,"updated_at":"2026-06-13T21:45:30.523951+05:30"},{"city":"Bhatinda","state":"Punjab","latitude":30.211,"longitude":74.9455,"temp":29.1,"humidity":63,"rain":0.0,"pressure":980.5,"uv_index":8.3,"wind_gusts":30.6,"aqi":553,"pm10":131.3,"pm2_5":57.4,"no2":21.8,"co":352.0,"o3":73.0,"so2":9.2,"mosquito_risk":7,"arthritis_risk":5,"migraine_risk":7,"frizz_risk":1,"updated_at":"2026-06-13T21:45:30.523958+05:30"},{"city":"Rohtak","state":"Haryana","latitude":28.8955,"longitude":76.6066,"temp":28.1,"humidity":73,"rain":0.0,"pressure":978.6,"uv_index":7.8,"wind_gusts":26.6,"aqi":655,"pm10":285.0,"pm2_5":114.8,"no2":68.6,"co":460.0,"o3":57.0,"so2":27.8,"mosquito_risk":7,"arthritis_risk":5,"migraine_risk":7,"frizz_risk":1,"updated_at":"2026-06-13T21:45:30.523965+05:30"},{"city":"Panipat","state":"Haryana","latitude":29.3909,"longitude":76.9635,"temp":27.3,"humidity":81,"rain":0.0,"pressure":977.3,"uv_index":7.65,"wind_gusts":34.6,"aqi":997,"pm10":343.7,"pm2_5":117.6,"no2":48.7,"co":659.0,"o3":60.0,"so2":22.0,"mosquito_risk":7,"arthritis_risk":5,"migraine_risk":7,"frizz_risk":1,"updated_at":"2026-06-13T21:45:30.523974+05:30"},{"city":"Mathura","state":"Uttar Pradesh","latitude":27.4924,"longitude":77.6737,"temp":29.7,"humidity":64,"rain":0.0,"pressure":983.6,"uv_index":8.05,"wind_gusts":25.9,"aqi":506,"pm10":360.4,"pm2_5":108.7,"no2":68.5,"co":745.0,"o3":36.0,"so2":12.5,"mosquito_risk":7,"arthritis_risk":5,"migraine_risk":7,"frizz_risk":1,"updated_at":"2026-06-13T21:45:30.523981+05:30"},{"city":"Vrindavan","state":"Uttar Pradesh","latitude":27.5823,"longitude":77.7027,"temp":30.0,"humidity":62,"rain":0.0,"pressure":984.0,"uv_index":8.05,"wind_gusts":25.2,"aqi":506,"pm10":360.4,"pm2_5":108.7,"no2":68.5,"co":540.0,"o3":36.0,"so2":12.5,"mosquito_risk":7,"arthritis_risk":5,"migraine_risk":7,"frizz_risk":1,"updated_at":"2026-06-13T21:45:30.523988+05:30"},{"city":"Ayodhya","state":"Uttar Pradesh","latitude":26.7922,"longitude":82.1998,"temp":26.4,"humidity":82,"rain":0.0,"pressure":992.1,"uv_index":8.35,"wind_gusts":42.5,"aqi":127,"pm10":87.3,"pm2_5":66.6,"no2":32.6,"co":476.0,"o3":61.0,"so2":11.0,"mosquito_risk":7,"arthritis_risk":5,"migraine_risk":7,"frizz_risk":1,"updated_at":"2026-06-13T21:45:30.523995+05:30"},{"city":"Ratlam","state":"Madhya Pradesh","latitude":23.3315,"longitude":75.0367,"temp":31.2,"humidity":49,"rain":0.0,"pressure":952.5,"uv_index":8.5,"wind_gusts":40.0,"aqi":77,"pm10":47.1,"pm2_5":25.5,"no2":2.7,"co":148.0,"o3":95.0,"so2":5.9,"mosquito_risk":0,"arthritis_risk":5,"migraine_risk":7,"frizz_risk":1,"updated_at":"2026-06-13T21:45:30.524003+05:30"},{"city":"Sagar","state":"Madhya Pradesh","latitude":23.8388,"longitude":78.7378,"temp":28.0,"humidity":64,"rain":0.0,"pressure":948.1,"uv_index":8.75,"wind_gusts":41.4,"aqi":86,"pm10":31.9,"pm2_5":22.1,"no2":6.4,"co":211.0,"o3":85.0,"so2":2.7,"mosquito_risk":7,"arthritis_risk":5,"migraine_risk":7,"frizz_risk":1,"updated_at":"2026-06-13T21:45:30.524010+05:30"},{"city":"Satna","state":"Madhya Pradesh","latitude":24.6005,"longitude":80.8322,"temp":29.9,"humidity":58,"rain":0.0,"pressure":968.5,"uv_index":8.65,"wind_gusts":35.3,"aqi":111,"pm10":75.0,"pm2_5":49.2,"no2":15.7,"co":268.0,"o3":81.0,"so2":5.6,"mosquito_risk":4,"arthritis_risk":5,"migraine_risk":7,"frizz_risk":1,"updated_at":"2026-06-13T21:45:30.524018+05:30"},{"city":"Akola","state":"Maharashtra","latitude":20.7002,"longitude":77.0082,"temp":34.7,"humidity":36,"rain":0.0,"pressure":972.8,"uv_index":8.8,"wind_gusts":41.0,"aqi":79,"pm10":56.0,"pm2_5":25.0,"no2":7.0,"co":140.0,"o3":91.0,"so2":6.9,"mosquito_risk":0,"arthritis_risk":5,"migraine_risk":7,"frizz_risk":1,"updated_at":"2026-06-13T21:45:30.524026+05:30"},{"city":"Amravati","state":"Maharashtra","latitude":20.9374,"longitude":77.7796,"temp":33.1,"humidity":47,"rain":0.0,"pressure":964.9,"uv_index":8.7,"wind_gusts":39.6,"aqi":84,"pm10":55.6,"pm2_5":25.0,"no2":8.0,"co":191.0,"o3":87.0,"so2":6.8,"mosquito_risk":0,"arthritis_risk":5,"migraine_risk":7,"frizz_risk":1,"updated_at":"2026-06-13T21:45:30.524034+05:30"},{"city":"Latur","state":"Maharashtra","latitude":18.4088,"longitude":76.5604,"temp":29.9,"humidity":45,"rain":0.0,"pressure":938.5,"uv_index":8.85,"wind_gusts":35.6,"aqi":75,"pm10":58.6,"pm2_5":29.8,"no2":9.2,"co":278.0,"o3":80.0,"so2":4.0,"mosquito_risk":4,"arthritis_risk":5,"migraine_risk":7,"frizz_risk":1,"updated_at":"2026-06-13T21:45:30.524042+05:30"},{"city":"Nanded","state":"Maharashtra","latitude":19.1383,"longitude":77.3091,"temp":29.4,"humidity":66,"rain":0.0,"pressure":966.6,"uv_index":8.9,"wind_gusts":36.4,"aqi":90,"pm10":73.1,"pm2_5":34.3,"no2":13.8,"co":247.0,"o3":69.0,"so2":4.4,"mosquito_risk":7,"arthritis_risk":5,"migraine_risk":7,"frizz_risk":1,"updated_at":"2026-06-13T21:45:30.524048+05:30"},{"city":"Gulbarga","state":"Karnataka","latitude":17.3297,"longitude":76.8343,"temp":30.3,"humidity":53,"rain":0.0,"pressure":957.2,"uv_index":8.7,"wind_gusts":34.9,"aqi":65,"pm10":40.0,"pm2_5":20.3,"no2":17.1,"co":258.0,"o3":55.0,"so2":3.3,"mosquito_risk":0,"arthritis_risk":5,"migraine_risk":7,"frizz_risk":1,"updated_at":"2026-06-13T21:45:30.524055+05:30"},{"city":"Bidar","state":"Karnataka","latitude":17.9104,"longitude":77.5199,"temp":26.2,"humidity":71,"rain":0.0,"pressure":934.5,"uv_index":7.2,"wind_gusts":37.4,"aqi":84,"pm10":54.7,"pm2_5":31.4,"no2":21.4,"co":438.0,"o3":55.0,"so2":3.6,"mosquito_risk":7,"arthritis_risk":5,"migraine_risk":7,"frizz_risk":1,"updated_at":"2026-06-13T21:45:30.524062+05:30"},{"city":"Hospet","state":"Karnataka","latitude":15.2689,"longitude":76.3909,"temp":26.7,"humidity":75,"rain":0.0,"pressure":956.5,"uv_index":7.6,"wind_gusts":41.0,"aqi":44,"pm10":15.0,"pm2_5":9.8,"no2":6.8,"co":165.0,"o3":55.0,"so2":1.8,"mosquito_risk":7,"arthritis_risk":5,"migraine_risk":7,"frizz_risk":1,"updated_at":"2026-06-13T21:45:30.524069+05:30"},{"city":"Tirupur","state":"Tamil Nadu","latitude":11.1085,"longitude":77.3411,"temp":24.7,"humidity":87,"rain":0.0,"pressure":977.4,"uv_index":8.8,"wind_gusts":51.5,"aqi":53,"pm10":19.8,"pm2_5":14.8,"no2":16.9,"co":182.0,"o3":45.0,"so2":4.3,"mosquito_risk":3,"arthritis_risk":5,"migraine_risk":7,"frizz_risk":1,"updated_at":"2026-06-13T21:45:30.524075+05:30"},{"city":"Alappuzha","state":"Kerala","latitude":9.4981,"longitude":76.3388,"temp":25.0,"humidity":99,"rain":0.0,"pressure":1012.8,"uv_index":7.5,"wind_gusts":32.4,"aqi":54,"pm10":25.4,"pm2_5":15.0,"no2":12.9,"co":91.0,"o3":45.0,"so2":3.0,"mosquito_risk":7,"arthritis_risk":0,"migraine_risk":4,"frizz_risk":1,"updated_at":"2026-06-13T21:45:30.524082+05:30"},{"city":"Munnar","state":"Kerala","latitude":10.0889,"longitude":77.0595,"temp":16.7,"humidity":100,"rain":0.0,"pressure":859.2,"uv_index":7.9,"wind_gusts":38.2,"aqi":40,"pm10":10.7,"pm2_5":7.6,"no2":8.1,"co":124.0,"o3":47.0,"so2":2.1,"mosquito_risk":3,"arthritis_risk":10,"migraine_risk":7,"frizz_risk":1,"updated_at":"2026-06-13T21:45:30.524089+05:30"},{"city":"Silchar","state":"Assam","latitude":24.8333,"longitude":92.7789,"temp":25.9,"humidity":96,"rain":0.3,"pressure":1003.7,"uv_index":8.6,"wind_gusts":22.7,"aqi":62,"pm10":32.6,"pm2_5":25.0,"no2":10.3,"co":254.0,"o3":82.0,"so2":4.6,"mosquito_risk":10,"arthritis_risk":5,"migraine_risk":4,"frizz_risk":1,"updated_at":"2026-06-13T21:45:30.524096+05:30"},{"city":"Dibrugarh","state":"Assam","latitude":27.4728,"longitude":94.912,"temp":24.9,"humidity":98,"rain":0.0,"pressure":993.3,"uv_index":8.1,"wind_gusts":24.8,"aqi":81,"pm10":20.4,"pm2_5":19.7,"no2":15.2,"co":276.0,"o3":49.0,"so2":2.0,"mosquito_risk":3,"arthritis_risk":5,"migraine_risk":7,"frizz_risk":1,"updated_at":"2026-06-13T21:45:30.524102+05:30"}]