[{"city":"Delhi","state":"Delhi","latitude":28.6139,"longitude":77.209,"temp":34.7,"humidity":29,"rain":0.0,"pressure":979.4,"uv_index":7.2,"wind_gusts":28.4,"aqi":165,"pm10":255.2,"pm2_5":49.8,"mosquito_risk":0,"arthritis_risk":5,"migraine_risk":7,"frizz_risk":0,"updated_at":"2026-04-19T18:38:17.336372+05:30"},{"city":"Mumbai","state":"Maharashtra","latitude":19.076,"longitude":72.8777,"temp":30.1,"humidity":69,"rain":0.0,"pressure":1006.4,"uv_index":7.9,"wind_gusts":25.9,"aqi":123,"pm10":34.0,"pm2_5":20.5,"mosquito_risk":3,"arthritis_risk":5,"migraine_risk":4,"frizz_risk":1,"updated_at":"2026-04-19T18:38:17.336414+05:30"},{"city":"Bangalore","state":"Karnataka","latitude":12.9716,"longitude":77.5946,"temp":32.6,"humidity":25,"rain":0.0,"pressure":910.3,"uv_index":9.55,"wind_gusts":29.2,"aqi":161,"pm10":30.9,"pm2_5":26.5,"mosquito_risk":0,"arthritis_risk":5,"migraine_risk":7,"frizz_risk":0,"updated_at":"2026-04-19T18:38:17.336429+05:30"},{"city":"Hyderabad","state":"Telangana","latitude":17.385,"longitude":78.4867,"temp":30.3,"humidity":52,"rain":0.0,"pressure":952.6,"uv_index":9.25,"wind_gusts":27.0,"aqi":151,"pm10":51.3,"pm2_5":40.7,"mosquito_risk":0,"arthritis_risk":5,"migraine_risk":7,"frizz_risk":1,"updated_at":"2026-04-19T18:38:17.336439+05:30"},{"city":"Chennai","state":"Tamil Nadu","latitude":13.0827,"longitude":80.2707,"temp":30.4,"humidity":70,"rain":0.0,"pressure":1004.9,"uv_index":9.3,"wind_gusts":36.0,"aqi":36,"pm10":11.8,"pm2_5":7.8,"mosquito_risk":3,"arthritis_risk":5,"migraine_risk":4,"frizz_risk":1,"updated_at":"2026-04-19T18:38:17.336448+05:30"},{"city":"Kolkata","state":"West Bengal","latitude":22.5726,"longitude":88.3639,"temp":29.4,"humidity":80,"rain":0.0,"pressure":1002.9,"uv_index":8.9,"wind_gusts":32.4,"aqi":78,"pm10":30.5,"pm2_5":25.4,"mosquito_risk":7,"arthritis_risk":5,"migraine_risk":4,"frizz_risk":1,"updated_at":"2026-04-19T18:38:17.336473+05:30"},{"city":"Pune","state":"Maharashtra","latitude":18.5204,"longitude":73.8567,"temp":33.4,"humidity":45,"rain":0.0,"pressure":947.2,"uv_index":8.6,"wind_gusts":37.1,"aqi":164,"pm10":47.4,"pm2_5":40.7,"mosquito_risk":0,"arthritis_risk":5,"migraine_risk":7,"frizz_risk":1,"updated_at":"2026-04-19T18:38:17.336481+05:30"},{"city":"Ahmedabad","state":"Gujarat","latitude":23.0225,"longitude":72.5714,"temp":37.5,"humidity":16,"rain":0.0,"pressure":999.1,"uv_index":8.0,"wind_gusts":25.6,"aqi":90,"pm10":20.9,"pm2_5":10.1,"mosquito_risk":0,"arthritis_risk":5,"migraine_risk":10,"frizz_risk":0,"updated_at":"2026-04-19T18:38:17.336489+05:30"},{"city":"Jaipur","state":"Rajasthan","latitude":26.9124,"longitude":75.7873,"temp":37.1,"humidity":10,"rain":0.0,"pressure":957.2,"uv_index":7.8,"wind_gusts":40.3,"aqi":119,"pm10":204.0,"pm2_5":32.1,"mosquito_risk":0,"arthritis_risk":5,"migraine_risk":10,"frizz_risk":0,"updated_at":"2026-04-19T18:38:17.336497+05:30"},{"city":"Lucknow","state":"Uttar Pradesh","latitude":26.8467,"longitude":80.9462,"temp":37.5,"humidity":21,"rain":0.0,"pressure":988.4,"uv_index":7.9,"wind_gusts":37.4,"aqi":149,"pm10":123.9,"pm2_5":32.8,"mosquito_risk":0,"arthritis_risk":5,"migraine_risk":10,"frizz_risk":0,"updated_at":"2026-04-19T18:38:17.336504+05:30"},{"city":"Kanpur","state":"Uttar Pradesh","latitude":26.4499,"longitude":80.3319,"temp":34.4,"humidity":36,"rain":0.0,"pressure":987.3,"uv_index":7.9,"wind_gusts":23.4,"aqi":193,"pm10":306.4,"pm2_5":46.3,"mosquito_risk":0,"arthritis_risk":5,"migraine_risk":7,"frizz_risk":1,"updated_at":"2026-04-19T18:38:17.336512+05:30"},{"city":"Chandigarh","state":"Chandigarh","latitude":30.7333,"longitude":76.7794,"temp":29.6,"humidity":40,"rain":0.0,"pressure":967.2,"uv_index":6.05,"wind_gusts":33.8,"aqi":122,"pm10":44.2,"pm2_5":16.7,"mosquito_risk":4,"arthritis_risk":5,"migraine_risk":7,"frizz_risk":0,"updated_at":"2026-04-19T18:38:17.336520+05:30"},{"city":"Srinagar","state":"Jammu and Kashmir","latitude":34.0837,"longitude":74.7973,"temp":14.8,"humidity":74,"rain":0.0,"pressure":843.7,"uv_index":7.35,"wind_gusts":21.2,"aqi":69,"pm10":27.7,"pm2_5":12.1,"mosquito_risk":3,"arthritis_risk":5,"migraine_risk":7,"frizz_risk":0,"updated_at":"2026-04-19T18:38:17.336528+05:30"},{"city":"Jammu","state":"Jammu and Kashmir","latitude":32.7266,"longitude":74.857,"temp":31.1,"humidity":38,"rain":0.0,"pressure":972.1,"uv_index":5.65,"wind_gusts":32.4,"aqi":70,"pm10":67.5,"pm2_5":25.6,"mosquito_risk":0,"arthritis_risk":5,"migraine_risk":3,"frizz_risk":0,"updated_at":"2026-04-19T18:38:17.336535+05:30"},{"city":"Amritsar","state":"Punjab","latitude":31.634,"longitude":74.8723,"temp":30.5,"humidity":44,"rain":0.0,"pressure":979.9,"uv_index":7.45,"wind_gusts":25.9,"aqi":103,"pm10":59.1,"pm2_5":20.8,"mosquito_risk":0,"arthritis_risk":5,"migraine_risk":7,"frizz_risk":1,"updated_at":"2026-04-19T18:38:17.336542+05:30"},{"city":"Ludhiana","state":"Punjab","latitude":30.901,"longitude":75.8573,"temp":32.3,"humidity":32,"rain":0.0,"pressure":977.5,"uv_index":7.35,"wind_gusts":42.5,"aqi":118,"pm10":61.7,"pm2_5":21.1,"mosquito_risk":0,"arthritis_risk":5,"migraine_risk":7,"frizz_risk":0,"updated_at":"2026-04-19T18:38:17.336551+05:30"},{"city":"Jalandhar","state":"Punjab","latitude":31.326,"longitude":75.5762,"temp":31.0,"humidity":36,"rain":0.0,"pressure":978.9,"uv_index":6.6,"wind_gusts":28.1,"aqi":109,"pm10":71.9,"pm2_5":19.6,"mosquito_risk":0,"arthritis_risk":5,"migraine_risk":7,"frizz_risk":0,"updated_at":"2026-04-19T18:38:17.336558+05:30"},{"city":"Dehradun","state":"Uttarakhand","latitude":30.6284,"longitude":78.0322,"temp":20.3,"humidity":52,"rain":0.0,"pressure":831.5,"uv_index":6.3,"wind_gusts":46.1,"aqi":95,"pm10":44.4,"pm2_5":14.2,"mosquito_risk":0,"arthritis_risk":5,"migraine_risk":7,"frizz_risk":0,"updated_at":"2026-04-19T18:38:17.336565+05:30"},{"city":"Shimla","state":"Himachal Pradesh","latitude":31.1048,"longitude":77.1734,"temp":19.9,"humidity":38,"rain":0.0,"pressure":786.8,"uv_index":6.7,"wind_gusts":45.7,"aqi":106,"pm10":44.6,"pm2_5":12.9,"mosquito_risk":0,"arthritis_risk":5,"migraine_risk":7,"frizz_risk":0,"updated_at":"2026-04-19T18:38:17.336574+05:30"},{"city":"Manali","state":"Himachal Pradesh","latitude":32.2396,"longitude":77.1887,"temp":15.9,"humidity":60,"rain":0.0,"pressure":822.7,"uv_index":6.95,"wind_gusts":40.7,"aqi":83,"pm10":14.4,"pm2_5":5.2,"mosquito_risk":0,"arthritis_risk":5,"migraine_risk":7,"frizz_risk":0,"updated_at":"2026-04-19T18:38:17.336581+05:30"},{"city":"Gurgaon","state":"Haryana","latitude":28.4595,"longitude":77.0266,"temp":32.7,"humidity":35,"rain":0.0,"pressure":978.0,"uv_index":7.35,"wind_gusts":25.2,"aqi":522,"pm10":758.1,"pm2_5":93.6,"mosquito_risk":0,"arthritis_risk":5,"migraine_risk":7,"frizz_risk":0,"updated_at":"2026-04-19T18:38:17.336587+05:30"},{"city":"Noida","state":"Uttar Pradesh","latitude":28.5355,"longitude":77.391,"temp":34.9,"humidity":31,"rain":0.0,"pressure":980.8,"uv_index":7.35,"wind_gusts":26.6,"aqi":522,"pm10":758.1,"pm2_5":93.6,"mosquito_risk":0,"arthritis_risk":5,"migraine_risk":7,"frizz_risk":0,"updated_at":"2026-04-19T18:38:17.336594+05:30"},{"city":"Ghaziabad","state":"Uttar Pradesh","latitude":28.6692,"longitude":77.4538,"temp":34.1,"humidity":33,"rain":0.0,"pressure":979.1,"uv_index":7.3,"wind_gusts":29.2,"aqi":164,"pm10":137.4,"pm2_5":41.9,"mosquito_risk":0,"arthritis_risk":5,"migraine_risk":7,"frizz_risk":0,"updated_at":"2026-04-19T18:38:17.336601+05:30"},{"city":"Faridabad","state":"Haryana","latitude":28.4089,"longitude":77.3178,"temp":34.7,"humidity":27,"rain":0.0,"pressure":980.2,"uv_index":7.3,"wind_gusts":28.8,"aqi":522,"pm10":758.1,"pm2_5":93.6,"mosquito_risk":0,"arthritis_risk":5,"migraine_risk":7,"frizz_risk":0,"updated_at":"2026-04-19T18:38:17.336607+05:30"},{"city":"Meerut","state":"Uttar Pradesh","latitude":28.9845,"longitude":77.7064,"temp":33.9,"humidity":29,"rain":0.0,"pressure":977.8,"uv_index":7.05,"wind_gusts":31.7,"aqi":164,"pm10":137.4,"pm2_5":41.9,"mosquito_risk":0,"arthritis_risk":5,"migraine_risk":7,"frizz_risk":0,"updated_at":"2026-04-19T18:38:17.336613+05:30"},{"city":"Agra","state":"Uttar Pradesh","latitude":27.1767,"longitude":78.0081,"temp":35.9,"humidity":28,"rain":0.0,"pressure":983.5,"uv_index":7.55,"wind_gusts":27.7,"aqi":403,"pm10":648.2,"pm2_5":76.8,"mosquito_risk":0,"arthritis_risk":5,"migraine_risk":10,"frizz_risk":0,"updated_at":"2026-04-19T18:38:17.336622+05:30"},{"city":"Varanasi","state":"Uttar Pradesh","latitude":25.3176,"longitude":82.9739,"temp":37.3,"humidity":20,"rain":0.0,"pressure":992.2,"uv_index":8.45,"wind_gusts":29.5,"aqi":157,"pm10":82.2,"pm2_5":29.3,"mosquito_risk":0,"arthritis_risk":5,"migraine_risk":10,"frizz_risk":0,"updated_at":"2026-04-19T18:38:17.336629+05:30"},{"city":"Prayagraj","state":"Uttar Pradesh","latitude":25.4358,"longitude":81.8463,"temp":37.2,"humidity":22,"rain":0.0,"pressure":990.9,"uv_index":8.35,"wind_gusts":29.9,"aqi":153,"pm10":85.0,"pm2_5":27.8,"mosquito_risk":0,"arthritis_risk":5,"migraine_risk":10,"frizz_risk":0,"updated_at":"2026-04-19T18:38:17.336635+05:30"},{"city":"Gorakhpur","state":"Uttar Pradesh","latitude":26.7606,"longitude":83.3732,"temp":37.2,"humidity":27,"rain":0.0,"pressure":991.5,"uv_index":8.3,"wind_gusts":32.4,"aqi":169,"pm10":62.6,"pm2_5":30.3,"mosquito_risk":0,"arthritis_risk":5,"migraine_risk":10,"frizz_risk":0,"updated_at":"2026-04-19T18:38:17.336642+05:30"},{"city":"Bareilly","state":"Uttar Pradesh","latitude":28.367,"longitude":79.4304,"temp":34.1,"humidity":33,"rain":0.0,"pressure":982.3,"uv_index":7.35,"wind_gusts":32.8,"aqi":145,"pm10":41.7,"pm2_5":17.9,"mosquito_risk":0,"arthritis_risk":5,"migraine_risk":7,"frizz_risk":0,"updated_at":"2026-04-19T18:38:17.336648+05:30"},{"city":"Aligarh","state":"Uttar Pradesh","latitude":27.8974,"longitude":78.088,"temp":35.7,"humidity":22,"rain":0.0,"pressure":981.6,"uv_index":7.5,"wind_gusts":39.6,"aqi":227,"pm10":551.3,"pm2_5":75.7,"mosquito_risk":0,"arthritis_risk":5,"migraine_risk":10,"frizz_risk":0,"updated_at":"2026-04-19T18:38:17.336657+05:30"},{"city":"Moradabad","state":"Uttar Pradesh","latitude":28.8386,"longitude":78.7733,"temp":33.9,"humidity":32,"rain":0.0,"pressure":979.5,"uv_index":7.35,"wind_gusts":37.1,"aqi":147,"pm10":47.3,"pm2_5":21.0,"mosquito_risk":0,"arthritis_risk":5,"migraine_risk":7,"frizz_risk":0,"updated_at":"2026-04-19T18:38:17.336663+05:30"},{"city":"Saharanpur","state":"Uttar Pradesh","latitude":29.9637,"longitude":77.546,"temp":31.7,"humidity":32,"rain":0.0,"pressure":973.4,"uv_index":6.5,"wind_gusts":36.0,"aqi":131,"pm10":82.7,"pm2_5":28.8,"mosquito_risk":0,"arthritis_risk":5,"migraine_risk":7,"frizz_risk":0,"updated_at":"2026-04-19T18:38:17.336669+05:30"},{"city":"Jhansi","state":"Uttar Pradesh","latitude":25.4484,"longitude":78.5685,"temp":35.0,"humidity":34,"rain":0.0,"pressure":974.0,"uv_index":8.25,"wind_gusts":32.0,"aqi":108,"pm10":28.3,"pm2_5":12.9,"mosquito_risk":0,"arthritis_risk":5,"migraine_risk":7,"frizz_risk":1,"updated_at":"2026-04-19T18:38:20.558025+05:30"},{"city":"Surat","state":"Gujarat","latitude":21.1702,"longitude":72.8311,"temp":30.2,"humidity":61,"rain":0.0,"pressure":1004.5,"uv_index":7.75,"wind_gusts":25.2,"aqi":99,"pm10":54.6,"pm2_5":48.3,"mosquito_risk":3,"arthritis_risk":5,"migraine_risk":4,"frizz_risk":1,"updated_at":"2026-04-19T18:38:20.558053+05:30"},{"city":"Vadodara","state":"Gujarat","latitude":22.3072,"longitude":73.1812,"temp":37.7,"humidity":19,"rain":0.0,"pressure":1001.0,"uv_index":8.15,"wind_gusts":29.9,"aqi":130,"pm10":29.6,"pm2_5":19.7,"mosquito_risk":0,"arthritis_risk":5,"migraine_risk":7,"frizz_risk":0,"updated_at":"2026-04-19T18:38:20.558064+05:30"},{"city":"Rajkot","state":"Gujarat","latitude":22.3039,"longitude":70.8022,"temp":35.1,"humidity":20,"rain":0.0,"pressure":992.5,"uv_index":7.25,"wind_gusts":27.0,"aqi":92,"pm10":12.7,"pm2_5":8.1,"mosquito_risk":0,"arthritis_risk":5,"migraine_risk":10,"frizz_risk":0,"updated_at":"2026-04-19T18:38:20.558072+05:30"},{"city":"Thane","state":"Maharashtra","latitude":19.2183,"longitude":72.9781,"temp":30.5,"humidity":57,"rain":0.0,"pressure":1006.0,"uv_index":8.05,"wind_gusts":37.4,"aqi":123,"pm10":34.0,"pm2_5":20.5,"mosquito_risk":0,"arthritis_risk":5,"migraine_risk":4,"frizz_risk":1,"updated_at":"2026-04-19T18:38:20.558079+05:30"},{"city":"Nagpur","state":"Maharashtra","latitude":21.1458,"longitude":79.0882,"temp":37.3,"humidity":24,"rain":0.0,"pressure":968.8,"uv_index":8.9,"wind_gusts":21.6,"aqi":155,"pm10":26.9,"pm2_5":24.4,"mosquito_risk":0,"arthritis_risk":5,"migraine_risk":10,"frizz_risk":0,"updated_at":"2026-04-19T18:38:20.558086+05:30"},{"city":"Nashik","state":"Maharashtra","latitude":19.9975,"longitude":73.7898,"temp":31.8,"humidity":35,"rain":0.0,"pressure":945.1,"uv_index":8.05,"wind_gusts":33.5,"aqi":133,"pm10":39.1,"pm2_5":31.3,"mosquito_risk":0,"arthritis_risk":5,"migraine_risk":7,"frizz_risk":0,"updated_at":"2026-04-19T18:38:20.558093+05:30"},{"city":"Aurangabad","state":"Maharashtra","latitude":19.8762,"longitude":75.3433,"temp":33.1,"humidity":34,"rain":0.0,"pressure":943.3,"uv_index":9.0,"wind_gusts":46.8,"aqi":145,"pm10":35.9,"pm2_5":30.2,"mosquito_risk":0,"arthritis_risk":5,"migraine_risk":7,"frizz_risk":0,"updated_at":"2026-04-19T18:38:20.558100+05:30"},{"city":"Solapur","state":"Maharashtra","latitude":17.6599,"longitude":75.9064,"temp":30.1,"humidity":51,"rain":0.0,"pressure":956.8,"uv_index":8.75,"wind_gusts":52.6,"aqi":165,"pm10":63.1,"pm2_5":54.7,"mosquito_risk":0,"arthritis_risk":5,"migraine_risk":7,"frizz_risk":1,"updated_at":"2026-04-19T18:38:20.558107+05:30"},{"city":"Kolhapur","state":"Maharashtra","latitude":16.705,"longitude":74.2433,"temp":28.3,"humidity":73,"rain":0.0,"pressure":947.4,"uv_index":9.0,"wind_gusts":45.7,"aqi":166,"pm10":37.0,"pm2_5":31.5,"mosquito_risk":7,"arthritis_risk":5,"migraine_risk":7,"frizz_risk":1,"updated_at":"2026-04-19T18:38:20.558114+05:30"},{"city":"Goa","state":"Goa","latitude":15.2993,"longitude":74.124,"temp":29.9,"humidity":72,"rain":0.0,"pressure":996.7,"uv_index":9.0,"wind_gusts":28.8,"aqi":86,"pm10":49.5,"pm2_5":25.1,"mosquito_risk":7,"arthritis_risk":5,"migraine_risk":7,"frizz_risk":1,"updated_at":"2026-04-19T18:38:20.558121+05:30"},{"city":"Jodhpur","state":"Rajasthan","latitude":26.2389,"longitude":73.0243,"temp":36.7,"humidity":16,"rain":0.0,"pressure":980.6,"uv_index":8.15,"wind_gusts":28.4,"aqi":99,"pm10":124.3,"pm2_5":18.7,"mosquito_risk":0,"arthritis_risk":5,"migraine_risk":10,"frizz_risk":0,"updated_at":"2026-04-19T18:38:20.558128+05:30"},{"city":"Udaipur","state":"Rajasthan","latitude":24.5854,"longitude":73.7125,"temp":34.3,"humidity":17,"rain":0.0,"pressure":945.1,"uv_index":8.6,"wind_gusts":40.3,"aqi":93,"pm10":14.0,"pm2_5":7.0,"mosquito_risk":0,"arthritis_risk":5,"migraine_risk":7,"frizz_risk":0,"updated_at":"2026-04-19T18:38:20.558136+05:30"},{"city":"Kota","state":"Rajasthan","latitude":25.2138,"longitude":75.8648,"temp":39.0,"humidity":13,"rain":0.0,"pressure":974.9,"uv_index":8.2,"wind_gusts":36.7,"aqi":105,"pm10":14.8,"pm2_5":12.7,"mosquito_risk":0,"arthritis_risk":5,"migraine_risk":10,"frizz_risk":0,"updated_at":"2026-04-19T18:38:20.558143+05:30"},{"city":"Bikaner","state":"Rajasthan","latitude":28.0229,"longitude":73.3119,"temp":37.5,"humidity":16,"rain":0.0,"pressure":979.0,"uv_index":7.9,"wind_gusts":25.2,"aqi":128,"pm10":68.9,"pm2_5":13.7,"mosquito_risk":0,"arthritis_risk":5,"migraine_risk":10,"frizz_risk":0,"updated_at":"2026-04-19T18:38:20.558151+05:30"},{"city":"Ajmer","state":"Rajasthan","latitude":26.4499,"longitude":74.6399,"temp":34.9,"humidity":14,"rain":0.0,"pressure":952.7,"uv_index":7.65,"wind_gusts":32.4,"aqi":105,"pm10":26.2,"pm2_5":10.7,"mosquito_risk":0,"arthritis_risk":5,"migraine_risk":7,"frizz_risk":0,"updated_at":"2026-04-19T18:38:20.558157+05:30"},{"city":"Gwalior","state":"Madhya Pradesh","latitude":26.2183,"longitude":78.1828,"temp":37.3,"humidity":21,"rain":0.0,"pressure":979.4,"uv_index":7.6,"wind_gusts":29.9,"aqi":121,"pm10":24.2,"pm2_5":12.2,"mosquito_risk":0,"arthritis_risk":5,"migraine_risk":10,"frizz_risk":0,"updated_at":"2026-04-19T18:38:20.558164+05:30"},{"city":"Indore","state":"Madhya Pradesh","latitude":22.7196,"longitude":75.8577,"temp":35.4,"humidity":23,"rain":0.0,"pressure":946.3,"uv_index":8.6,"wind_gusts":31.0,"aqi":111,"pm10":27.9,"pm2_5":23.5,"mosquito_risk":0,"arthritis_risk":5,"migraine_risk":10,"frizz_risk":0,"updated_at":"2026-04-19T18:38:20.558170+05:30"},{"city":"Bhopal","state":"Madhya Pradesh","latitude":23.2599,"longitude":77.4126,"temp":36.6,"humidity":20,"rain":0.0,"pressure":951.3,"uv_index":8.6,"wind_gusts":34.9,"aqi":141,"pm10":28.2,"pm2_5":18.2,"mosquito_risk":0,"arthritis_risk":5,"migraine_risk":10,"frizz_risk":0,"updated_at":"2026-04-19T18:38:20.558176+05:30"},{"city":"Jabalpur","state":"Madhya Pradesh","latitude":23.1815,"longitude":79.9864,"temp":37.1,"humidity":22,"rain":0.0,"pressure":957.7,"uv_index":8.75,"wind_gusts":21.2,"aqi":137,"pm10":31.1,"pm2_5":19.0,"mosquito_risk":0,"arthritis_risk":5,"migraine_risk":10,"frizz_risk":0,"updated_at":"2026-04-19T18:38:20.558182+05:30"},{"city":"Ujjain","state":"Madhya Pradesh","latitude":23.1765,"longitude":75.7885,"temp":35.9,"humidity":22,"rain":0.0,"pressure":951.9,"uv_index":8.5,"wind_gusts":33.5,"aqi":104,"pm10":27.9,"pm2_5":24.0,"mosquito_risk":0,"arthritis_risk":5,"migraine_risk":10,"frizz_risk":0,"updated_at":"2026-04-19T18:38:20.558190+05:30"},{"city":"Visakhapatnam","state":"Andhra Pradesh","latitude":17.6868,"longitude":83.2185,"temp":29.1,"humidity":77,"rain":0.0,"pressure":1002.4,"uv_index":9.15,"wind_gusts":36.7,"aqi":63,"pm10":21.4,"pm2_5":15.1,"mosquito_risk":7,"arthritis_risk":5,"migraine_risk":4,"frizz_risk":1,"updated_at":"2026-04-19T18:38:20.558197+05:30"},{"city":"Vijayawada","state":"Andhra Pradesh","latitude":16.5062,"longitude":80.648,"temp":32.7,"humidity":51,"rain":0.0,"pressure":999.9,"uv_index":9.2,"wind_gusts":31.0,"aqi":55,"pm10":18.9,"pm2_5":14.4,"mosquito_risk":0,"arthritis_risk":5,"migraine_risk":7,"frizz_risk":1,"updated_at":"2026-04-19T18:38:20.558204+05:30"},{"city":"Guntur","state":"Andhra Pradesh","latitude":16.3067,"longitude":80.4365,"temp":31.1,"humidity":59,"rain":0.0,"pressure":1001.2,"uv_index":9.25,"wind_gusts":34.6,"aqi":71,"pm10":22.5,"pm2_5":17.7,"mosquito_risk":0,"arthritis_risk":5,"migraine_risk":4,"frizz_risk":1,"updated_at":"2026-04-19T18:38:20.558210+05:30"},{"city":"Nellore","state":"Andhra Pradesh","latitude":14.4426,"longitude":79.9865,"temp":30.8,"humidity":67,"rain":0.0,"pressure":1002.8,"uv_index":9.25,"wind_gusts":33.8,"aqi":85,"pm10":16.6,"pm2_5":13.0,"mosquito_risk":3,"arthritis_risk":5,"migraine_risk":4,"frizz_risk":1,"updated_at":"2026-04-19T18:38:20.558218+05:30"},{"city":"Kurnool","state":"Andhra Pradesh","latitude":15.8281,"longitude":78.0373,"temp":38.0,"humidity":28,"rain":0.0,"pressure":973.5,"uv_index":9.2,"wind_gusts":32.4,"aqi":147,"pm10":49.9,"pm2_5":39.6,"mosquito_risk":0,"arthritis_risk":5,"migraine_risk":10,"frizz_risk":1,"updated_at":"2026-04-19T18:38:20.558225+05:30"},{"city":"Kakinada","state":"Andhra Pradesh","latitude":16.9891,"longitude":82.2475,"temp":30.7,"humidity":66,"rain":0.0,"pressure":1005.8,"uv_index":9.2,"wind_gusts":32.0,"aqi":50,"pm10":16.4,"pm2_5":9.4,"mosquito_risk":3,"arthritis_risk":5,"migraine_risk":4,"frizz_risk":1,"updated_at":"2026-04-19T18:38:20.558231+05:30"},{"city":"Tirupati","state":"Andhra Pradesh","latitude":13.6288,"longitude":79.4192,"temp":33.7,"humidity":40,"rain":0.0,"pressure":989.1,"uv_index":9.35,"wind_gusts":34.6,"aqi":97,"pm10":24.3,"pm2_5":21.2,"mosquito_risk":0,"arthritis_risk":5,"migraine_risk":7,"frizz_risk":1,"updated_at":"2026-04-19T18:38:20.558238+05:30"},{"city":"Warangal","state":"Telangana","latitude":17.9689,"longitude":79.5941,"temp":37.1,"humidity":36,"rain":0.0,"pressure":975.5,"uv_index":9.15,"wind_gusts":30.6,"aqi":108,"pm10":47.3,"pm2_5":39.6,"mosquito_risk":0,"arthritis_risk":5,"migraine_risk":10,"frizz_risk":1,"updated_at":"2026-04-19T18:38:20.558244+05:30"},{"city":"Nizamabad","state":"Telangana","latitude":18.6725,"longitude":78.0941,"temp":38.1,"humidity":20,"rain":0.0,"pressure":961.8,"uv_index":8.95,"wind_gusts":41.0,"aqi":171,"pm10":48.8,"pm2_5":40.4,"mosquito_risk":0,"arthritis_risk":5,"migraine_risk":10,"frizz_risk":0,"updated_at":"2026-04-19T18:38:20.558250+05:30"},{"city":"Mysore","state":"Karnataka","latitude":12.2958,"longitude":76.6396,"temp":32.2,"humidity":36,"rain":0.0,"pressure":927.0,"uv_index":9.45,"wind_gusts":43.6,"aqi":145,"pm10":36.2,"pm2_5":30.2,"mosquito_risk":0,"arthritis_risk":5,"migraine_risk":7,"frizz_risk":0,"updated_at":"2026-04-19T18:38:20.558257+05:30"},{"city":"Mangalore","state":"Karnataka","latitude":12.9141,"longitude":74.856,"temp":29.9,"humidity":81,"rain":0.0,"pressure":1005.0,"uv_index":9.1,"wind_gusts":22.3,"aqi":71,"pm10":43.0,"pm2_5":25.3,"mosquito_risk":7,"arthritis_risk":5,"migraine_risk":4,"frizz_risk":1,"updated_at":"2026-04-19T18:38:20.558264+05:30"},{"city":"Hubli-Dharwad","state":"Karnataka","latitude":15.3647,"longitude":75.124,"temp":30.6,"humidity":57,"rain":0.0,"pressure":940.1,"uv_index":9.2,"wind_gusts":32.0,"aqi":133,"pm10":34.9,"pm2_5":28.2,"mosquito_risk":0,"arthritis_risk":5,"migraine_risk":7,"frizz_risk":1,"updated_at":"2026-04-19T18:38:20.558271+05:30"},{"city":"Belgaum","state":"Karnataka","latitude":15.8497,"longitude":74.4977,"temp":26.9,"humidity":77,"rain":0.0,"pressure":924.6,"uv_index":9.25,"wind_gusts":32.4,"aqi":131,"pm10":39.6,"pm2_5":29.2,"mosquito_risk":7,"arthritis_risk":5,"migraine_risk":7,"frizz_risk":1,"updated_at":"2026-04-19T18:38:23.772095+05:30"},{"city":"Coimbatore","state":"Tamil Nadu","latitude":11.0168,"longitude":76.9558,"temp":28.4,"humidity":75,"rain":0.0,"pressure":960.1,"uv_index":9.4,"wind_gusts":55.4,"aqi":146,"pm10":38.6,"pm2_5":33.9,"mosquito_risk":7,"arthritis_risk":5,"migraine_risk":7,"frizz_risk":1,"updated_at":"2026-04-19T18:38:23.772126+05:30"},{"city":"Madurai","state":"Tamil Nadu","latitude":9.9252,"longitude":78.1198,"temp":33.7,"humidity":51,"rain":0.0,"pressure":990.5,"uv_index":9.3,"wind_gusts":41.8,"aqi":117,"pm10":19.1,"pm2_5":16.1,"mosquito_risk":0,"arthritis_risk":5,"migraine_risk":7,"frizz_risk":1,"updated_at":"2026-04-19T18:38:23.772137+05:30"},{"city":"Trichy","state":"Tamil Nadu","latitude":10.7905,"longitude":78.7047,"temp":34.4,"humidity":48,"rain":0.0,"pressure":997.0,"uv_index":9.3,"wind_gusts":28.4,"aqi":77,"pm10":18.2,"pm2_5":15.3,"mosquito_risk":0,"arthritis_risk":5,"migraine_risk":7,"frizz_risk":1,"updated_at":"2026-04-19T18:38:23.772145+05:30"},{"city":"Salem","state":"Tamil Nadu","latitude":11.6643,"longitude":78.146,"temp":35.1,"humidity":35,"rain":0.0,"pressure":974.6,"uv_index":9.35,"wind_gusts":21.6,"aqi":116,"pm10":23.2,"pm2_5":18.2,"mosquito_risk":0,"arthritis_risk":5,"migraine_risk":10,"frizz_risk":1,"updated_at":"2026-04-19T18:38:23.772152+05:30"},{"city":"Tirunelveli","state":"Tamil Nadu","latitude":8.7139,"longitude":77.7567,"temp":32.7,"humidity":52,"rain":0.0,"pressure":1000.8,"uv_index":9.25,"wind_gusts":51.5,"aqi":105,"pm10":17.2,"pm2_5":14.8,"mosquito_risk":0,"arthritis_risk":5,"migraine_risk":4,"frizz_risk":1,"updated_at":"2026-04-19T18:38:23.772161+05:30"},{"city":"Vellore","state":"Tamil Nadu","latitude":12.9165,"longitude":79.1325,"temp":32.7,"humidity":43,"rain":0.0,"pressure":982.1,"uv_index":9.4,"wind_gusts":29.9,"aqi":100,"pm10":25.0,"pm2_5":22.2,"mosquito_risk":0,"arthritis_risk":5,"migraine_risk":7,"frizz_risk":1,"updated_at":"2026-04-19T18:38:23.772168+05:30"},{"city":"Erode","state":"Tamil Nadu","latitude":11.341,"longitude":77.7172,"temp":36.8,"humidity":26,"rain":0.0,"pressure":985.8,"uv_index":9.35,"wind_gusts":28.4,"aqi":140,"pm10":26.1,"pm2_5":21.0,"mosquito_risk":0,"arthritis_risk":5,"migraine_risk":10,"frizz_risk":0,"updated_at":"2026-04-19T18:38:23.772175+05:30"},{"city":"Kochi","state":"Kerala","latitude":9.9312,"longitude":76.2673,"temp":29.7,"humidity":81,"rain":0.0,"pressure":1007.0,"uv_index":9.1,"wind_gusts":25.2,"aqi":89,"pm10":20.2,"pm2_5":15.8,"mosquito_risk":7,"arthritis_risk":5,"migraine_risk":4,"frizz_risk":1,"updated_at":"2026-04-19T18:38:23.772183+05:30"},{"city":"Thiruvananthapuram","state":"Kerala","latitude":8.5241,"longitude":76.9366,"temp":29.1,"humidity":81,"rain":0.0,"pressure":1006.6,"uv_index":9.1,"wind_gusts":27.4,"aqi":68,"pm10":25.7,"pm2_5":16.8,"mosquito_risk":7,"arthritis_risk":5,"migraine_risk":4,"frizz_risk":1,"updated_at":"2026-04-19T18:38:23.772190+05:30"},{"city":"Kozhikode","state":"Kerala","latitude":11.2588,"longitude":75.7804,"temp":30.3,"humidity":77,"rain":0.0,"pressure":1006.2,"uv_index":9.1,"wind_gusts":31.3,"aqi":64,"pm10":29.6,"pm2_5":18.5,"mosquito_risk":3,"arthritis_risk":5,"migraine_risk":4,"frizz_risk":1,"updated_at":"2026-04-19T18:38:23.772197+05:30"},{"city":"Thrissur","state":"Kerala","latitude":10.5276,"longitude":76.2144,"temp":29.9,"humidity":75,"rain":0.0,"pressure":1005.1,"uv_index":9.15,"wind_gusts":33.8,"aqi":73,"pm10":21.1,"pm2_5":16.7,"mosquito_risk":7,"arthritis_risk":5,"migraine_risk":4,"frizz_risk":1,"updated_at":"2026-04-19T18:38:23.772204+05:30"},{"city":"Kannur","state":"Kerala","latitude":11.8745,"longitude":75.3704,"temp":31.4,"humidity":67,"rain":0.0,"pressure":1005.3,"uv_index":9.1,"wind_gusts":34.2,"aqi":68,"pm10":35.5,"pm2_5":22.8,"mosquito_risk":3,"arthritis_risk":5,"migraine_risk":4,"frizz_risk":1,"updated_at":"2026-04-19T18:38:23.772211+05:30"},{"city":"Patna","state":"Bihar","latitude":25.5941,"longitude":85.1376,"temp":35.8,"humidity":44,"rain":0.0,"pressure":994.8,"uv_index":8.6,"wind_gusts":27.0,"aqi":180,"pm10":77.5,"pm2_5":49.2,"mosquito_risk":0,"arthritis_risk":5,"migraine_risk":10,"frizz_risk":1,"updated_at":"2026-04-19T18:38:23.772218+05:30"},{"city":"Gaya","state":"Bihar","latitude":24.7914,"longitude":85.0002,"temp":36.3,"humidity":23,"rain":0.0,"pressure":988.7,"uv_index":8.7,"wind_gusts":34.9,"aqi":164,"pm10":84.5,"pm2_5":31.9,"mosquito_risk":0,"arthritis_risk":5,"migraine_risk":10,"frizz_risk":0,"updated_at":"2026-04-19T18:38:23.772224+05:30"},{"city":"Muzaffarpur","state":"Bihar","latitude":26.1209,"longitude":85.3647,"temp":33.0,"humidity":52,"rain":0.0,"pressure":995.4,"uv_index":8.6,"wind_gusts":29.5,"aqi":171,"pm10":78.0,"pm2_5":55.3,"mosquito_risk":0,"arthritis_risk":5,"migraine_risk":7,"frizz_risk":1,"updated_at":"2026-04-19T18:38:23.772230+05:30"},{"city":"Bhagalpur","state":"Bihar","latitude":25.2425,"longitude":87.0117,"temp":31.4,"humidity":66,"rain":0.0,"pressure":997.1,"uv_index":8.6,"wind_gusts":27.0,"aqi":196,"pm10":62.2,"pm2_5":53.1,"mosquito_risk":3,"arthritis_risk":5,"migraine_risk":7,"frizz_risk":1,"updated_at":"2026-04-19T18:38:23.772237+05:30"},{"city":"Ranchi","state":"Jharkhand","latitude":23.3441,"longitude":85.3096,"temp":33.9,"humidity":17,"rain":0.0,"pressure":935.2,"uv_index":9.15,"wind_gusts":45.0,"aqi":177,"pm10":53.4,"pm2_5":28.1,"mosquito_risk":0,"arthritis_risk":5,"migraine_risk":7,"frizz_risk":0,"updated_at":"2026-04-19T18:38:23.772244+05:30"},{"city":"Jamshedpur","state":"Jharkhand","latitude":22.8046,"longitude":86.2029,"temp":33.0,"humidity":60,"rain":0.0,"pressure":986.8,"uv_index":9.0,"wind_gusts":37.1,"aqi":204,"pm10":68.0,"pm2_5":53.2,"mosquito_risk":0,"arthritis_risk":5,"migraine_risk":7,"frizz_risk":1,"updated_at":"2026-04-19T18:38:23.772250+05:30"},{"city":"Dhanbad","state":"Jharkhand","latitude":23.7957,"longitude":86.4304,"temp":37.8,"humidity":24,"rain":0.0,"pressure":975.8,"uv_index":8.95,"wind_gusts":33.8,"aqi":181,"pm10":98.5,"pm2_5":51.2,"mosquito_risk":0,"arthritis_risk":5,"migraine_risk":10,"frizz_risk":0,"updated_at":"2026-04-19T18:38:23.772256+05:30"},{"city":"Bokaro","state":"Jharkhand","latitude":23.6693,"longitude":86.1511,"temp":37.2,"humidity":18,"rain":0.0,"pressure":979.5,"uv_index":8.95,"wind_gusts":42.1,"aqi":166,"pm10":92.4,"pm2_5":46.7,"mosquito_risk":0,"arthritis_risk":5,"migraine_risk":10,"frizz_risk":0,"updated_at":"2026-04-19T18:38:23.772263+05:30"},{"city":"Bhubaneswar","state":"Odisha","latitude":20.2961,"longitude":85.8245,"temp":28.4,"humidity":84,"rain":0.0,"pressure":1001.2,"uv_index":9.1,"wind_gusts":34.2,"aqi":69,"pm10":25.4,"pm2_5":20.7,"mosquito_risk":7,"arthritis_risk":5,"migraine_risk":4,"frizz_risk":1,"updated_at":"2026-04-19T18:38:23.772269+05:30"},{"city":"Cuttack","state":"Odisha","latitude":20.4625,"longitude":85.8828,"temp":30.5,"humidity":74,"rain":0.0,"pressure":1003.3,"uv_index":9.15,"wind_gusts":34.6,"aqi":69,"pm10":25.4,"pm2_5":20.7,"mosquito_risk":3,"arthritis_risk":5,"migraine_risk":4,"frizz_risk":1,"updated_at":"2026-04-19T18:38:23.772275+05:30"},{"city":"Rourkela","state":"Odisha","latitude":22.2604,"longitude":84.8536,"temp":35.2,"humidity":53,"rain":0.0,"pressure":981.1,"uv_index":8.9,"wind_gusts":43.2,"aqi":213,"pm10":76.6,"pm2_5":56.2,"mosquito_risk":0,"arthritis_risk":5,"migraine_risk":10,"frizz_risk":1,"updated_at":"2026-04-19T18:38:23.772280+05:30"},{"city":"Raipur","state":"Chhattisgarh","latitude":21.2514,"longitude":81.6296,"temp":37.7,"humidity":26,"rain":0.0,"pressure":970.7,"uv_index":8.95,"wind_gusts":33.8,"aqi":192,"pm10":44.8,"pm2_5":41.3,"mosquito_risk":0,"arthritis_risk":5,"migraine_risk":10,"frizz_risk":0,"updated_at":"2026-04-19T18:38:23.772287+05:30"},{"city":"Bhilai","state":"Chhattisgarh","latitude":21.1938,"longitude":81.3509,"temp":36.9,"humidity":27,"rain":0.0,"pressure":970.7,"uv_index":8.95,"wind_gusts":31.7,"aqi":164,"pm10":38.8,"pm2_5":34.9,"mosquito_risk":0,"arthritis_risk":5,"migraine_risk":10,"frizz_risk":0,"updated_at":"2026-04-19T18:38:23.772292+05:30"},{"city":"Guwahati","state":"Assam","latitude":26.1158,"longitude":91.7086,"temp":26.8,"humidity":85,"rain":0.0,"pressure":999.4,"uv_index":8.55,"wind_gusts":29.2,"aqi":120,"pm10":41.0,"pm2_5":33.8,"mosquito_risk":7,"arthritis_risk":5,"migraine_risk":7,"frizz_risk":1,"updated_at":"2026-04-19T18:38:23.772299+05:30"},{"city":"Agartala","state":"Tripura","latitude":23.8315,"longitude":91.2868,"temp":30.0,"humidity":75,"rain":0.0,"pressure":1003.5,"uv_index":8.75,"wind_gusts":25.2,"aqi":120,"pm10":46.2,"pm2_5":39.1,"mosquito_risk":7,"arthritis_risk":5,"migraine_risk":4,"frizz_risk":1,"updated_at":"2026-04-19T18:38:23.772304+05:30"},{"city":"Shillong","state":"Meghalaya","latitude":25.5788,"longitude":91.8933,"temp":17.0,"humidity":89,"rain":0.0,"pressure":855.2,"uv_index":8.15,"wind_gusts":48.2,"aqi":111,"pm10":27.8,"pm2_5":21.8,"mosquito_risk":3,"arthritis_risk":10,"migraine_risk":7,"frizz_risk":0,"updated_at":"2026-04-19T18:38:23.772311+05:30"},{"city":"Imphal","state":"Manipur","latitude":24.817,"longitude":93.9368,"temp":20.6,"humidity":84,"rain":0.0,"pressure":922.0,"uv_index":8.85,"wind_gusts":61.2,"aqi":150,"pm10":57.6,"pm2_5":45.5,"mosquito_risk":3,"arthritis_risk":5,"migraine_risk":7,"frizz_risk":1,"updated_at":"2026-04-19T18:38:23.772318+05:30"},{"city":"Aizawl","state":"Mizoram","latitude":23.7271,"longitude":92.7176,"temp":21.8,"humidity":81,"rain":0.0,"pressure":891.8,"uv_index":8.3,"wind_gusts":40.0,"aqi":155,"pm10":84.3,"pm2_5":70.1,"mosquito_risk":3,"arthritis_risk":5,"migraine_risk":7,"frizz_risk":1,"updated_at":"2026-04-19T18:38:23.772325+05:30"},{"city":"Kohima","state":"Nagaland","latitude":25.6701,"longitude":94.1077,"temp":17.6,"humidity":90,"rain":0.0,"pressure":853.9,"uv_index":8.7,"wind_gusts":50.8,"aqi":119,"pm10":57.3,"pm2_5":44.4,"mosquito_risk":3,"arthritis_risk":10,"migraine_risk":7,"frizz_risk":0,"updated_at":"2026-04-19T18:38:23.772331+05:30"},{"city":"Gangtok","state":"Sikkim","latitude":27.3314,"longitude":88.6138,"temp":18.4,"humidity":87,"rain":0.0,"pressure":836.6,"uv_index":8.9,"wind_gusts":23.4,"aqi":100,"pm10":16.2,"pm2_5":13.8,"mosquito_risk":3,"arthritis_risk":10,"migraine_risk":7,"frizz_risk":1,"updated_at":"2026-04-19T18:38:23.772338+05:30"},{"city":"Siliguri","state":"West Bengal","latitude":26.7271,"longitude":88.3953,"temp":22.8,"humidity":91,"rain":0.0,"pressure":991.7,"uv_index":8.4,"wind_gusts":21.2,"aqi":124,"pm10":35.2,"pm2_5":29.3,"mosquito_risk":3,"arthritis_risk":5,"migraine_risk":7,"frizz_risk":1,"updated_at":"2026-04-19T18:38:26.994099+05:30"},{"city":"Durgapur","state":"West Bengal","latitude":23.5204,"longitude":87.3119,"temp":29.6,"humidity":78,"rain":0.0,"pressure":991.5,"uv_index":8.9,"wind_gusts":28.1,"aqi":215,"pm10":74.0,"pm2_5":64.5,"mosquito_risk":7,"arthritis_risk":5,"migraine_risk":7,"frizz_risk":1,"updated_at":"2026-04-19T18:38:26.994125+05:30"},{"city":"Asansol","state":"West Bengal","latitude":23.6739,"longitude":86.9524,"temp":30.9,"humidity":73,"rain":0.0,"pressure":990.0,"uv_index":8.9,"wind_gusts":33.8,"aqi":204,"pm10":85.2,"pm2_5":48.9,"mosquito_risk":3,"arthritis_risk":5,"migraine_risk":7,"frizz_risk":1,"updated_at":"2026-04-19T18:38:26.994135+05:30"},{"city":"Pondicherry","state":"Puducherry","latitude":11.9139,"longitude":79.8145,"temp":30.5,"humidity":71,"rain":0.0,"pressure":1006.1,"uv_index":9.25,"wind_gusts":31.0,"aqi":38,"pm10":12.0,"pm2_5":8.0,"mosquito_risk":3,"arthritis_risk":5,"migraine_risk":4,"frizz_risk":1,"updated_at":"2026-04-19T18:38:26.994142+05:30"},{"city":"Port Blair","state":"Andaman and Nicobar Islands","latitude":11.6234,"longitude":92.7265,"temp":29.5,"humidity":74,"rain":0.0,"pressure":1006.6,"uv_index":9.15,"wind_gusts":13.0,"aqi":53,"pm10":13.8,"pm2_5":11.6,"mosquito_risk":7,"arthritis_risk":5,"migraine_risk":4,"frizz_risk":1,"updated_at":"2026-04-19T18:38:26.994150+05:30"},{"city":"Haridwar","state":"Uttarakhand","latitude":29.9457,"longitude":78.1642,"temp":32.5,"humidity":33,"rain":0.0,"pressure":971.7,"uv_index":6.25,"wind_gusts":28.8,"aqi":120,"pm10":51.1,"pm2_5":20.0,"mosquito_risk":0,"arthritis_risk":5,"migraine_risk":7,"frizz_risk":0,"updated_at":"2026-04-19T18:38:26.994158+05:30"},{"city":"Rishikesh","state":"Uttarakhand","latitude":30.0869,"longitude":78.2676,"temp":30.3,"humidity":44,"rain":0.0,"pressure":964.6,"uv_index":6.55,"wind_gusts":31.7,"aqi":109,"pm10":47.4,"pm2_5":16.1,"mosquito_risk":0,"arthritis_risk":5,"migraine_risk":7,"frizz_risk":1,"updated_at":"2026-04-19T18:38:26.994165+05:30"},{"city":"Nainital","state":"Uttarakhand","latitude":29.3919,"longitude":79.4542,"temp":26.2,"humidity":25,"rain":0.0,"pressure":807.8,"uv_index":7.8,"wind_gusts":70.9,"aqi":123,"pm10":33.2,"pm2_5":13.4,"mosquito_risk":4,"arthritis_risk":5,"migraine_risk":7,"frizz_risk":0,"updated_at":"2026-04-19T18:38:26.994172+05:30"},{"city":"Mussoorie","state":"Uttarakhand","latitude":30.4599,"longitude":78.0664,"temp":22.7,"humidity":40,"rain":0.0,"pressure":804.4,"uv_index":6.6,"wind_gusts":45.7,"aqi":113,"pm10":57.0,"pm2_5":19.0,"mosquito_risk":0,"arthritis_risk":5,"migraine_risk":7,"frizz_risk":0,"updated_at":"2026-04-19T18:38:26.994179+05:30"},{"city":"Dharamshala","state":"Himachal Pradesh","latitude":32.219,"longitude":76.3234,"temp":23.5,"humidity":40,"rain":0.0,"pressure":869.8,"uv_index":6.1,"wind_gusts":38.5,"aqi":80,"pm10":29.7,"pm2_5":8.8,"mosquito_risk":0,"arthritis_risk":5,"migraine_risk":7,"frizz_risk":0,"updated_at":"2026-04-19T18:38:26.994185+05:30"},{"city":"Dalhousie","state":"Himachal Pradesh","latitude":32.5387,"longitude":75.971,"temp":20.7,"humidity":40,"rain":0.0,"pressure":805.4,"uv_index":6.8,"wind_gusts":35.3,"aqi":82,"pm10":42.6,"pm2_5":17.4,"mosquito_risk":0,"arthritis_risk":5,"migraine_risk":7,"frizz_risk":0,"updated_at":"2026-04-19T18:38:26.994192+05:30"},{"city":"Patiala","state":"Punjab","latitude":30.3398,"longitude":76.3869,"temp":30.8,"humidity":39,"rain":0.0,"pressure":976.6,"uv_index":6.65,"wind_gusts":45.0,"aqi":179,"pm10":482.4,"pm2_5":57.4,"mosquito_risk":0,"arthritis_risk":5,"migraine_risk":7,"frizz_risk":0,"updated_at":"2026-04-19T18:38:26.994198+05:30"},{"city":"Bhatinda","state":"Punjab","latitude":30.211,"longitude":74.9455,"temp":33.7,"humidity":26,"rain":0.0,"pressure":982.2,"uv_index":7.85,"wind_gusts":41.0,"aqi":138,"pm10":64.5,"pm2_5":18.5,"mosquito_risk":0,"arthritis_risk":5,"migraine_risk":7,"frizz_risk":0,"updated_at":"2026-04-19T18:38:26.994205+05:30"},{"city":"Rohtak","state":"Haryana","latitude":28.8955,"longitude":76.6066,"temp":31.5,"humidity":40,"rain":0.0,"pressure":978.6,"uv_index":7.05,"wind_gusts":28.4,"aqi":191,"pm10":287.8,"pm2_5":49.6,"mosquito_risk":0,"arthritis_risk":5,"migraine_risk":7,"frizz_risk":1,"updated_at":"2026-04-19T18:38:26.994211+05:30"},{"city":"Panipat","state":"Haryana","latitude":29.3909,"longitude":76.9635,"temp":31.7,"humidity":33,"rain":0.0,"pressure":978.4,"uv_index":6.3,"wind_gusts":51.5,"aqi":388,"pm10":457.3,"pm2_5":66.4,"mosquito_risk":0,"arthritis_risk":5,"migraine_risk":7,"frizz_risk":0,"updated_at":"2026-04-19T18:38:26.994217+05:30"},{"city":"Mathura","state":"Uttar Pradesh","latitude":27.4924,"longitude":77.6737,"temp":35.8,"humidity":24,"rain":0.0,"pressure":982.6,"uv_index":7.65,"wind_gusts":44.3,"aqi":323,"pm10":414.4,"pm2_5":57.2,"mosquito_risk":0,"arthritis_risk":5,"migraine_risk":10,"frizz_risk":0,"updated_at":"2026-04-19T18:38:26.994223+05:30"},{"city":"Vrindavan","state":"Uttar Pradesh","latitude":27.5823,"longitude":77.7027,"temp":35.3,"humidity":25,"rain":0.0,"pressure":983.1,"uv_index":7.65,"wind_gusts":43.9,"aqi":323,"pm10":414.4,"pm2_5":57.2,"mosquito_risk":0,"arthritis_risk":5,"migraine_risk":10,"frizz_risk":0,"updated_at":"2026-04-19T18:38:26.994230+05:30"},{"city":"Ayodhya","state":"Uttar Pradesh","latitude":26.7922,"longitude":82.1998,"temp":37.6,"humidity":18,"rain":0.0,"pressure":989.8,"uv_index":8.05,"wind_gusts":40.0,"aqi":162,"pm10":67.8,"pm2_5":25.8,"mosquito_risk":0,"arthritis_risk":5,"migraine_risk":10,"frizz_risk":0,"updated_at":"2026-04-19T18:38:26.994236+05:30"},{"city":"Ratlam","state":"Madhya Pradesh","latitude":23.3315,"longitude":75.0367,"temp":33.1,"humidity":39,"rain":0.0,"pressure":952.7,"uv_index":8.45,"wind_gusts":27.4,"aqi":111,"pm10":22.5,"pm2_5":18.7,"mosquito_risk":0,"arthritis_risk":5,"migraine_risk":7,"frizz_risk":1,"updated_at":"2026-04-19T18:38:26.994242+05:30"},{"city":"Sagar","state":"Madhya Pradesh","latitude":23.8388,"longitude":78.7378,"temp":36.7,"humidity":22,"rain":0.0,"pressure":947.3,"uv_index":8.6,"wind_gusts":38.2,"aqi":133,"pm10":25.7,"pm2_5":15.5,"mosquito_risk":0,"arthritis_risk":5,"migraine_risk":10,"frizz_risk":0,"updated_at":"2026-04-19T18:38:26.994248+05:30"},{"city":"Satna","state":"Madhya Pradesh","latitude":24.6005,"longitude":80.8322,"temp":37.6,"humidity":17,"rain":0.0,"pressure":967.4,"uv_index":8.6,"wind_gusts":32.8,"aqi":135,"pm10":39.5,"pm2_5":14.3,"mosquito_risk":0,"arthritis_risk":5,"migraine_risk":10,"frizz_risk":0,"updated_at":"2026-04-19T18:38:26.994254+05:30"},{"city":"Akola","state":"Maharashtra","latitude":20.7002,"longitude":77.0082,"temp":37.0,"humidity":25,"rain":0.0,"pressure":972.3,"uv_index":8.85,"wind_gusts":32.0,"aqi":129,"pm10":40.4,"pm2_5":34.2,"mosquito_risk":0,"arthritis_risk":5,"migraine_risk":10,"frizz_risk":0,"updated_at":"2026-04-19T18:38:26.994261+05:30"},{"city":"Amravati","state":"Maharashtra","latitude":20.9374,"longitude":77.7796,"temp":36.0,"humidity":31,"rain":0.0,"pressure":963.9,"uv_index":8.85,"wind_gusts":15.8,"aqi":130,"pm10":34.8,"pm2_5":28.5,"mosquito_risk":0,"arthritis_risk":5,"migraine_risk":10,"frizz_risk":1,"updated_at":"2026-04-19T18:38:26.994268+05:30"},{"city":"Latur","state":"Maharashtra","latitude":18.4088,"longitude":76.5604,"temp":32.6,"humidity":37,"rain":0.0,"pressure":938.6,"uv_index":9.1,"wind_gusts":32.0,"aqi":157,"pm10":39.0,"pm2_5":34.3,"mosquito_risk":0,"arthritis_risk":5,"migraine_risk":7,"frizz_risk":1,"updated_at":"2026-04-19T18:38:26.994275+05:30"},{"city":"Nanded","state":"Maharashtra","latitude":19.1383,"longitude":77.3091,"temp":36.2,"humidity":30,"rain":0.0,"pressure":965.5,"uv_index":9.0,"wind_gusts":20.5,"aqi":145,"pm10":38.9,"pm2_5":31.8,"mosquito_risk":0,"arthritis_risk":5,"migraine_risk":10,"frizz_risk":0,"updated_at":"2026-04-19T18:38:26.994280+05:30"},{"city":"Gulbarga","state":"Karnataka","latitude":17.3297,"longitude":76.8343,"temp":29.9,"humidity":55,"rain":0.0,"pressure":957.4,"uv_index":9.1,"wind_gusts":56.5,"aqi":165,"pm10":45.2,"pm2_5":37.7,"mosquito_risk":4,"arthritis_risk":5,"migraine_risk":7,"frizz_risk":1,"updated_at":"2026-04-19T18:38:26.994287+05:30"},{"city":"Bidar","state":"Karnataka","latitude":17.9104,"longitude":77.5199,"temp":30.9,"humidity":48,"rain":0.0,"pressure":933.9,"uv_index":9.15,"wind_gusts":40.7,"aqi":168,"pm10":48.0,"pm2_5":41.2,"mosquito_risk":0,"arthritis_risk":5,"migraine_risk":7,"frizz_risk":1,"updated_at":"2026-04-19T18:38:26.994292+05:30"},{"city":"Hospet","state":"Karnataka","latitude":15.2689,"longitude":76.3909,"temp":34.9,"humidity":41,"rain":0.0,"pressure":953.2,"uv_index":9.25,"wind_gusts":36.4,"aqi":172,"pm10":49.7,"pm2_5":41.6,"mosquito_risk":0,"arthritis_risk":5,"migraine_risk":7,"frizz_risk":1,"updated_at":"2026-04-19T18:38:26.994299+05:30"},{"city":"Tirupur","state":"Tamil Nadu","latitude":11.1085,"longitude":77.3411,"temp":36.5,"humidity":22,"rain":0.0,"pressure":972.5,"uv_index":9.4,"wind_gusts":32.4,"aqi":154,"pm10":31.9,"pm2_5":25.5,"mosquito_risk":0,"arthritis_risk":5,"migraine_risk":10,"frizz_risk":0,"updated_at":"2026-04-19T18:38:26.994305+05:30"},{"city":"Alappuzha","state":"Kerala","latitude":9.4981,"longitude":76.3388,"temp":29.7,"humidity":81,"rain":0.0,"pressure":1007.0,"uv_index":9.1,"wind_gusts":22.7,"aqi":97,"pm10":24.9,"pm2_5":18.0,"mosquito_risk":7,"arthritis_risk":5,"migraine_risk":4,"frizz_risk":1,"updated_at":"2026-04-19T18:38:26.994311+05:30"},{"city":"Munnar","state":"Kerala","latitude":10.0889,"longitude":77.0595,"temp":25.0,"humidity":83,"rain":0.0,"pressure":856.7,"uv_index":9.65,"wind_gusts":39.6,"aqi":97,"pm10":26.4,"pm2_5":21.9,"mosquito_risk":7,"arthritis_risk":5,"migraine_risk":7,"frizz_risk":1,"updated_at":"2026-04-19T18:38:26.994317+05:30"},{"city":"Silchar","state":"Assam","latitude":24.8333,"longitude":92.7789,"temp":27.7,"humidity":79,"rain":0.0,"pressure":1003.1,"uv_index":8.8,"wind_gusts":28.1,"aqi":154,"pm10":57.4,"pm2_5":47.5,"mosquito_risk":7,"arthritis_risk":5,"migraine_risk":4,"frizz_risk":1,"updated_at":"2026-04-19T18:38:26.994324+05:30"},{"city":"Dibrugarh","state":"Assam","latitude":27.4728,"longitude":94.912,"temp":28.3,"humidity":75,"rain":0.0,"pressure":992.8,"uv_index":8.65,"wind_gusts":19.4,"aqi":143,"pm10":74.3,"pm2_5":53.9,"mosquito_risk":7,"arthritis_risk":5,"migraine_risk":7,"frizz_risk":1,"updated_at":"2026-04-19T18:38:26.994330+05:30"}]