[{"city":"Delhi","state":"Delhi","latitude":28.6139,"longitude":77.209,"temp":24.9,"humidity":50,"rain":0.0,"pressure":984.0,"uv_index":6.9,"wind_gusts":29.2,"aqi":179,"pm10":124.8,"pm2_5":45.4,"mosquito_risk":0,"arthritis_risk":5,"migraine_risk":7,"frizz_risk":0,"updated_at":"2026-04-08T12:55:44.671881+05:30"},{"city":"Mumbai","state":"Maharashtra","latitude":19.076,"longitude":72.8777,"temp":28.6,"humidity":74,"rain":0.0,"pressure":1010.4,"uv_index":7.95,"wind_gusts":20.5,"aqi":78,"pm10":89.4,"pm2_5":30.7,"mosquito_risk":7,"arthritis_risk":0,"migraine_risk":4,"frizz_risk":1,"updated_at":"2026-04-08T12:55:44.671928+05:30"},{"city":"Bangalore","state":"Karnataka","latitude":12.9716,"longitude":77.5946,"temp":33.9,"humidity":28,"rain":0.0,"pressure":913.4,"uv_index":9.6,"wind_gusts":25.6,"aqi":53,"pm10":11.4,"pm2_5":10.9,"mosquito_risk":0,"arthritis_risk":5,"migraine_risk":7,"frizz_risk":0,"updated_at":"2026-04-08T12:55:44.671942+05:30"},{"city":"Hyderabad","state":"Telangana","latitude":17.385,"longitude":78.4867,"temp":36.9,"humidity":21,"rain":0.0,"pressure":954.5,"uv_index":9.15,"wind_gusts":22.0,"aqi":93,"pm10":42.6,"pm2_5":23.3,"mosquito_risk":0,"arthritis_risk":5,"migraine_risk":10,"frizz_risk":0,"updated_at":"2026-04-08T12:55:44.671952+05:30"},{"city":"Chennai","state":"Tamil Nadu","latitude":13.0827,"longitude":80.2707,"temp":35.7,"humidity":53,"rain":0.0,"pressure":1007.1,"uv_index":9.35,"wind_gusts":36.0,"aqi":82,"pm10":34.5,"pm2_5":27.8,"mosquito_risk":0,"arthritis_risk":5,"migraine_risk":7,"frizz_risk":1,"updated_at":"2026-04-08T12:55:44.671959+05:30"},{"city":"Kolkata","state":"West Bengal","latitude":22.5726,"longitude":88.3639,"temp":32.7,"humidity":53,"rain":0.0,"pressure":1006.7,"uv_index":8.7,"wind_gusts":31.7,"aqi":99,"pm10":34.5,"pm2_5":28.3,"mosquito_risk":0,"arthritis_risk":5,"migraine_risk":4,"frizz_risk":1,"updated_at":"2026-04-08T12:55:44.671967+05:30"},{"city":"Pune","state":"Maharashtra","latitude":18.5204,"longitude":73.8567,"temp":32.8,"humidity":41,"rain":0.0,"pressure":950.7,"uv_index":8.5,"wind_gusts":38.9,"aqi":76,"pm10":104.1,"pm2_5":25.8,"mosquito_risk":0,"arthritis_risk":5,"migraine_risk":7,"frizz_risk":1,"updated_at":"2026-04-08T12:55:44.671976+05:30"},{"city":"Ahmedabad","state":"Gujarat","latitude":23.0225,"longitude":72.5714,"temp":33.8,"humidity":39,"rain":0.0,"pressure":1002.2,"uv_index":8.0,"wind_gusts":33.1,"aqi":57,"pm10":32.6,"pm2_5":11.1,"mosquito_risk":0,"arthritis_risk":5,"migraine_risk":4,"frizz_risk":1,"updated_at":"2026-04-08T12:55:44.671983+05:30"},{"city":"Jaipur","state":"Rajasthan","latitude":26.9124,"longitude":75.7873,"temp":26.9,"humidity":37,"rain":0.0,"pressure":960.4,"uv_index":7.65,"wind_gusts":33.5,"aqi":127,"pm10":180.7,"pm2_5":24.9,"mosquito_risk":4,"arthritis_risk":5,"migraine_risk":7,"frizz_risk":0,"updated_at":"2026-04-08T12:55:44.671990+05:30"},{"city":"Lucknow","state":"Uttar Pradesh","latitude":26.8467,"longitude":80.9462,"temp":25.1,"humidity":61,"rain":0.0,"pressure":996.1,"uv_index":7.45,"wind_gusts":41.0,"aqi":85,"pm10":88.0,"pm2_5":30.2,"mosquito_risk":7,"arthritis_risk":5,"migraine_risk":7,"frizz_risk":1,"updated_at":"2026-04-08T12:55:44.671997+05:30"},{"city":"Kanpur","state":"Uttar Pradesh","latitude":26.4499,"longitude":80.3319,"temp":24.3,"humidity":66,"rain":0.0,"pressure":993.6,"uv_index":7.5,"wind_gusts":35.3,"aqi":100,"pm10":159.3,"pm2_5":39.6,"mosquito_risk":3,"arthritis_risk":5,"migraine_risk":7,"frizz_risk":1,"updated_at":"2026-04-08T12:55:44.672003+05:30"},{"city":"Chandigarh","state":"Chandigarh","latitude":30.7333,"longitude":76.7794,"temp":20.0,"humidity":77,"rain":0.0,"pressure":970.1,"uv_index":5.5,"wind_gusts":30.6,"aqi":84,"pm10":46.6,"pm2_5":16.7,"mosquito_risk":3,"arthritis_risk":5,"migraine_risk":3,"frizz_risk":0,"updated_at":"2026-04-08T12:55:44.672009+05:30"},{"city":"Srinagar","state":"Jammu and Kashmir","latitude":34.0837,"longitude":74.7973,"temp":11.6,"humidity":71,"rain":0.0,"pressure":836.8,"uv_index":5.5,"wind_gusts":22.0,"aqi":50,"pm10":5.4,"pm2_5":5.0,"mosquito_risk":3,"arthritis_risk":5,"migraine_risk":3,"frizz_risk":0,"updated_at":"2026-04-08T12:55:44.672015+05:30"},{"city":"Jammu","state":"Jammu and Kashmir","latitude":32.7266,"longitude":74.857,"temp":19.7,"humidity":73,"rain":0.0,"pressure":974.2,"uv_index":7.2,"wind_gusts":27.7,"aqi":67,"pm10":72.6,"pm2_5":20.9,"mosquito_risk":3,"arthritis_risk":5,"migraine_risk":7,"frizz_risk":0,"updated_at":"2026-04-08T12:55:44.672020+05:30"},{"city":"Amritsar","state":"Punjab","latitude":31.634,"longitude":74.8723,"temp":22.0,"humidity":55,"rain":0.0,"pressure":982.4,"uv_index":7.2,"wind_gusts":19.1,"aqi":106,"pm10":73.1,"pm2_5":25.3,"mosquito_risk":0,"arthritis_risk":5,"migraine_risk":7,"frizz_risk":0,"updated_at":"2026-04-08T12:55:44.672026+05:30"},{"city":"Ludhiana","state":"Punjab","latitude":30.901,"longitude":75.8573,"temp":21.5,"humidity":63,"rain":0.0,"pressure":980.4,"uv_index":5.05,"wind_gusts":20.5,"aqi":133,"pm10":89.6,"pm2_5":25.2,"mosquito_risk":3,"arthritis_risk":5,"migraine_risk":3,"frizz_risk":0,"updated_at":"2026-04-08T12:55:44.672031+05:30"},{"city":"Jalandhar","state":"Punjab","latitude":31.326,"longitude":75.5762,"temp":21.3,"humidity":66,"rain":0.0,"pressure":981.7,"uv_index":5.6,"wind_gusts":20.9,"aqi":129,"pm10":73.1,"pm2_5":26.4,"mosquito_risk":3,"arthritis_risk":5,"migraine_risk":3,"frizz_risk":0,"updated_at":"2026-04-08T12:55:44.672038+05:30"},{"city":"Dehradun","state":"Uttarakhand","latitude":30.6284,"longitude":78.0322,"temp":10.9,"humidity":85,"rain":0.8,"pressure":827.2,"uv_index":2.25,"wind_gusts":42.5,"aqi":67,"pm10":19.6,"pm2_5":9.7,"mosquito_risk":6,"arthritis_risk":10,"migraine_risk":3,"frizz_risk":0,"updated_at":"2026-04-08T12:55:44.672044+05:30"},{"city":"Shimla","state":"Himachal Pradesh","latitude":31.1048,"longitude":77.1734,"temp":10.2,"humidity":84,"rain":0.0,"pressure":780.3,"uv_index":5.75,"wind_gusts":41.8,"aqi":64,"pm10":23.4,"pm2_5":10.0,"mosquito_risk":3,"arthritis_risk":10,"migraine_risk":3,"frizz_risk":0,"updated_at":"2026-04-08T12:55:44.672050+05:30"},{"city":"Manali","state":"Himachal Pradesh","latitude":32.2396,"longitude":77.1887,"temp":10.3,"humidity":98,"rain":0.5,"pressure":812.8,"uv_index":5.45,"wind_gusts":29.9,"aqi":76,"pm10":8.3,"pm2_5":7.0,"mosquito_risk":6,"arthritis_risk":10,"migraine_risk":3,"frizz_risk":0,"updated_at":"2026-04-08T12:55:44.672056+05:30"},{"city":"Gurgaon","state":"Haryana","latitude":28.4595,"longitude":77.0266,"temp":24.7,"humidity":55,"rain":0.0,"pressure":982.5,"uv_index":7.05,"wind_gusts":25.6,"aqi":761,"pm10":196.0,"pm2_5":44.4,"mosquito_risk":0,"arthritis_risk":5,"migraine_risk":7,"frizz_risk":0,"updated_at":"2026-04-08T12:55:44.672062+05:30"},{"city":"Noida","state":"Uttar Pradesh","latitude":28.5355,"longitude":77.391,"temp":25.1,"humidity":51,"rain":0.0,"pressure":985.6,"uv_index":6.95,"wind_gusts":26.3,"aqi":761,"pm10":196.0,"pm2_5":44.4,"mosquito_risk":4,"arthritis_risk":5,"migraine_risk":7,"frizz_risk":0,"updated_at":"2026-04-08T12:55:44.672067+05:30"},{"city":"Ghaziabad","state":"Uttar Pradesh","latitude":28.6692,"longitude":77.4538,"temp":24.0,"humidity":58,"rain":0.0,"pressure":983.9,"uv_index":6.9,"wind_gusts":25.2,"aqi":124,"pm10":102.4,"pm2_5":29.4,"mosquito_risk":0,"arthritis_risk":5,"migraine_risk":7,"frizz_risk":0,"updated_at":"2026-04-08T12:55:44.672072+05:30"},{"city":"Faridabad","state":"Haryana","latitude":28.4089,"longitude":77.3178,"temp":24.9,"humidity":56,"rain":0.0,"pressure":984.8,"uv_index":7.0,"wind_gusts":26.3,"aqi":761,"pm10":196.0,"pm2_5":44.4,"mosquito_risk":0,"arthritis_risk":5,"migraine_risk":7,"frizz_risk":0,"updated_at":"2026-04-08T12:55:44.672078+05:30"},{"city":"Meerut","state":"Uttar Pradesh","latitude":28.9845,"longitude":77.7064,"temp":22.6,"humidity":71,"rain":0.0,"pressure":983.0,"uv_index":6.75,"wind_gusts":25.6,"aqi":124,"pm10":102.4,"pm2_5":29.4,"mosquito_risk":3,"arthritis_risk":5,"migraine_risk":7,"frizz_risk":1,"updated_at":"2026-04-08T12:55:44.672083+05:30"},{"city":"Agra","state":"Uttar Pradesh","latitude":27.1767,"longitude":78.0081,"temp":28.3,"humidity":41,"rain":0.0,"pressure":988.5,"uv_index":7.35,"wind_gusts":31.3,"aqi":388,"pm10":120.6,"pm2_5":34.9,"mosquito_risk":4,"arthritis_risk":5,"migraine_risk":7,"frizz_risk":0,"updated_at":"2026-04-08T12:55:44.672091+05:30"},{"city":"Varanasi","state":"Uttar Pradesh","latitude":25.3176,"longitude":82.9739,"temp":29.4,"humidity":45,"rain":0.0,"pressure":999.1,"uv_index":7.55,"wind_gusts":36.7,"aqi":86,"pm10":85.0,"pm2_5":41.0,"mosquito_risk":4,"arthritis_risk":5,"migraine_risk":7,"frizz_risk":1,"updated_at":"2026-04-08T12:55:44.672098+05:30"},{"city":"Prayagraj","state":"Uttar Pradesh","latitude":25.4358,"longitude":81.8463,"temp":27.8,"humidity":51,"rain":0.0,"pressure":997.3,"uv_index":7.95,"wind_gusts":33.8,"aqi":83,"pm10":102.0,"pm2_5":36.8,"mosquito_risk":4,"arthritis_risk":5,"migraine_risk":7,"frizz_risk":1,"updated_at":"2026-04-08T12:55:44.672104+05:30"},{"city":"Gorakhpur","state":"Uttar Pradesh","latitude":26.7606,"longitude":83.3732,"temp":22.6,"humidity":75,"rain":0.0,"pressure":1001.0,"uv_index":7.0,"wind_gusts":38.2,"aqi":87,"pm10":70.1,"pm2_5":41.1,"mosquito_risk":3,"arthritis_risk":5,"migraine_risk":4,"frizz_risk":1,"updated_at":"2026-04-08T12:55:44.672109+05:30"},{"city":"Bareilly","state":"Uttar Pradesh","latitude":28.367,"longitude":79.4304,"temp":21.9,"humidity":80,"rain":0.0,"pressure":989.1,"uv_index":7.05,"wind_gusts":29.9,"aqi":92,"pm10":68.5,"pm2_5":26.8,"mosquito_risk":3,"arthritis_risk":5,"migraine_risk":7,"frizz_risk":1,"updated_at":"2026-04-08T12:55:44.672115+05:30"},{"city":"Aligarh","state":"Uttar Pradesh","latitude":27.8974,"longitude":78.088,"temp":25.2,"humidity":59,"rain":0.0,"pressure":986.9,"uv_index":7.1,"wind_gusts":27.0,"aqi":243,"pm10":102.7,"pm2_5":32.5,"mosquito_risk":4,"arthritis_risk":5,"migraine_risk":7,"frizz_risk":1,"updated_at":"2026-04-08T12:55:44.672120+05:30"},{"city":"Moradabad","state":"Uttar Pradesh","latitude":28.8386,"longitude":78.7733,"temp":21.4,"humidity":78,"rain":0.0,"pressure":985.7,"uv_index":4.6,"wind_gusts":27.4,"aqi":100,"pm10":77.8,"pm2_5":30.7,"mosquito_risk":3,"arthritis_risk":5,"migraine_risk":3,"frizz_risk":1,"updated_at":"2026-04-08T12:55:44.672125+05:30"},{"city":"Saharanpur","state":"Uttar Pradesh","latitude":29.9637,"longitude":77.546,"temp":19.8,"humidity":80,"rain":0.0,"pressure":977.5,"uv_index":5.45,"wind_gusts":29.9,"aqi":87,"pm10":54.7,"pm2_5":19.5,"mosquito_risk":3,"arthritis_risk":5,"migraine_risk":3,"frizz_risk":1,"updated_at":"2026-04-08T12:55:44.672130+05:30"},{"city":"Jhansi","state":"Uttar Pradesh","latitude":25.4484,"longitude":78.5685,"temp":29.1,"humidity":44,"rain":0.0,"pressure":978.7,"uv_index":7.95,"wind_gusts":42.8,"aqi":81,"pm10":108.0,"pm2_5":30.6,"mosquito_risk":4,"arthritis_risk":5,"migraine_risk":7,"frizz_risk":0,"updated_at":"2026-04-08T12:55:47.935157+05:30"},{"city":"Surat","state":"Gujarat","latitude":21.1702,"longitude":72.8311,"temp":30.1,"humidity":67,"rain":0.0,"pressure":1008.3,"uv_index":7.7,"wind_gusts":42.5,"aqi":67,"pm10":50.5,"pm2_5":20.7,"mosquito_risk":3,"arthritis_risk":0,"migraine_risk":4,"frizz_risk":1,"updated_at":"2026-04-08T12:55:47.935219+05:30"},{"city":"Vadodara","state":"Gujarat","latitude":22.3072,"longitude":73.1812,"temp":33.0,"humidity":51,"rain":0.0,"pressure":1004.9,"uv_index":7.95,"wind_gusts":39.6,"aqi":65,"pm10":47.6,"pm2_5":16.3,"mosquito_risk":0,"arthritis_risk":5,"migraine_risk":4,"frizz_risk":1,"updated_at":"2026-04-08T12:55:47.935229+05:30"},{"city":"Rajkot","state":"Gujarat","latitude":22.3039,"longitude":70.8022,"temp":33.7,"humidity":38,"rain":0.0,"pressure":994.4,"uv_index":7.7,"wind_gusts":39.6,"aqi":54,"pm10":53.1,"pm2_5":17.8,"mosquito_risk":0,"arthritis_risk":5,"migraine_risk":7,"frizz_risk":1,"updated_at":"2026-04-08T12:55:47.935238+05:30"},{"city":"Thane","state":"Maharashtra","latitude":19.2183,"longitude":72.9781,"temp":31.8,"humidity":56,"rain":0.0,"pressure":1009.9,"uv_index":7.95,"wind_gusts":36.4,"aqi":78,"pm10":89.4,"pm2_5":30.7,"mosquito_risk":0,"arthritis_risk":0,"migraine_risk":4,"frizz_risk":1,"updated_at":"2026-04-08T12:55:47.935246+05:30"},{"city":"Nagpur","state":"Maharashtra","latitude":21.1458,"longitude":79.0882,"temp":34.7,"humidity":29,"rain":0.0,"pressure":973.0,"uv_index":8.25,"wind_gusts":39.6,"aqi":75,"pm10":88.2,"pm2_5":27.2,"mosquito_risk":0,"arthritis_risk":5,"migraine_risk":7,"frizz_risk":0,"updated_at":"2026-04-08T12:55:47.935254+05:30"},{"city":"Nashik","state":"Maharashtra","latitude":19.9975,"longitude":73.7898,"temp":29.2,"humidity":54,"rain":0.0,"pressure":947.8,"uv_index":8.2,"wind_gusts":42.8,"aqi":66,"pm10":81.3,"pm2_5":24.3,"mosquito_risk":4,"arthritis_risk":5,"migraine_risk":7,"frizz_risk":1,"updated_at":"2026-04-08T12:55:47.935262+05:30"},{"city":"Aurangabad","state":"Maharashtra","latitude":19.8762,"longitude":75.3433,"temp":32.4,"humidity":37,"rain":0.0,"pressure":945.7,"uv_index":8.85,"wind_gusts":47.9,"aqi":63,"pm10":83.6,"pm2_5":22.6,"mosquito_risk":0,"arthritis_risk":5,"migraine_risk":7,"frizz_risk":0,"updated_at":"2026-04-08T12:55:47.935269+05:30"},{"city":"Solapur","state":"Maharashtra","latitude":17.6599,"longitude":75.9064,"temp":36.8,"humidity":20,"rain":0.0,"pressure":958.7,"uv_index":8.95,"wind_gusts":26.6,"aqi":68,"pm10":93.1,"pm2_5":26.4,"mosquito_risk":0,"arthritis_risk":5,"migraine_risk":10,"frizz_risk":0,"updated_at":"2026-04-08T12:55:47.935277+05:30"},{"city":"Kolhapur","state":"Maharashtra","latitude":16.705,"longitude":74.2433,"temp":33.4,"humidity":33,"rain":0.0,"pressure":950.2,"uv_index":9.0,"wind_gusts":43.2,"aqi":67,"pm10":104.8,"pm2_5":28.5,"mosquito_risk":0,"arthritis_risk":5,"migraine_risk":7,"frizz_risk":0,"updated_at":"2026-04-08T12:55:47.935285+05:30"},{"city":"Goa","state":"Goa","latitude":15.2993,"longitude":74.124,"temp":32.9,"humidity":53,"rain":0.0,"pressure":999.8,"uv_index":9.0,"wind_gusts":37.4,"aqi":59,"pm10":88.2,"pm2_5":25.0,"mosquito_risk":0,"arthritis_risk":5,"migraine_risk":7,"frizz_risk":1,"updated_at":"2026-04-08T12:55:47.935293+05:30"},{"city":"Jodhpur","state":"Rajasthan","latitude":26.2389,"longitude":73.0243,"temp":28.8,"humidity":49,"rain":0.0,"pressure":983.8,"uv_index":7.9,"wind_gusts":25.6,"aqi":107,"pm10":178.3,"pm2_5":32.0,"mosquito_risk":4,"arthritis_risk":5,"migraine_risk":7,"frizz_risk":1,"updated_at":"2026-04-08T12:55:47.935300+05:30"},{"city":"Udaipur","state":"Rajasthan","latitude":24.5854,"longitude":73.7125,"temp":27.4,"humidity":34,"rain":0.0,"pressure":946.5,"uv_index":8.5,"wind_gusts":35.3,"aqi":64,"pm10":79.9,"pm2_5":21.3,"mosquito_risk":4,"arthritis_risk":5,"migraine_risk":7,"frizz_risk":0,"updated_at":"2026-04-08T12:55:47.935307+05:30"},{"city":"Kota","state":"Rajasthan","latitude":25.2138,"longitude":75.8648,"temp":28.9,"humidity":38,"rain":0.0,"pressure":979.6,"uv_index":7.95,"wind_gusts":34.2,"aqi":79,"pm10":108.3,"pm2_5":26.9,"mosquito_risk":4,"arthritis_risk":5,"migraine_risk":7,"frizz_risk":0,"updated_at":"2026-04-08T12:55:47.935314+05:30"},{"city":"Bikaner","state":"Rajasthan","latitude":28.0229,"longitude":73.3119,"temp":28.3,"humidity":35,"rain":0.0,"pressure":982.6,"uv_index":7.7,"wind_gusts":26.3,"aqi":52,"pm10":139.2,"pm2_5":22.3,"mosquito_risk":4,"arthritis_risk":5,"migraine_risk":7,"frizz_risk":0,"updated_at":"2026-04-08T12:55:47.935322+05:30"},{"city":"Ajmer","state":"Rajasthan","latitude":26.4499,"longitude":74.6399,"temp":27.6,"humidity":34,"rain":0.0,"pressure":955.1,"uv_index":7.85,"wind_gusts":35.3,"aqi":71,"pm10":70.1,"pm2_5":14.3,"mosquito_risk":4,"arthritis_risk":5,"migraine_risk":7,"frizz_risk":0,"updated_at":"2026-04-08T12:55:47.935329+05:30"},{"city":"Gwalior","state":"Madhya Pradesh","latitude":26.2183,"longitude":78.1828,"temp":27.3,"humidity":50,"rain":0.0,"pressure":984.1,"uv_index":7.65,"wind_gusts":39.2,"aqi":82,"pm10":132.2,"pm2_5":29.0,"mosquito_risk":4,"arthritis_risk":5,"migraine_risk":7,"frizz_risk":0,"updated_at":"2026-04-08T12:55:47.935336+05:30"},{"city":"Indore","state":"Madhya Pradesh","latitude":22.7196,"longitude":75.8577,"temp":29.0,"humidity":49,"rain":0.0,"pressure":949.2,"uv_index":8.4,"wind_gusts":50.0,"aqi":70,"pm10":42.0,"pm2_5":17.2,"mosquito_risk":4,"arthritis_risk":5,"migraine_risk":7,"frizz_risk":1,"updated_at":"2026-04-08T12:55:47.935343+05:30"},{"city":"Bhopal","state":"Madhya Pradesh","latitude":23.2599,"longitude":77.4126,"temp":31.2,"humidity":34,"rain":0.0,"pressure":954.1,"uv_index":8.15,"wind_gusts":53.6,"aqi":73,"pm10":49.6,"pm2_5":18.1,"mosquito_risk":0,"arthritis_risk":5,"migraine_risk":7,"frizz_risk":0,"updated_at":"2026-04-08T12:55:47.935350+05:30"},{"city":"Jabalpur","state":"Madhya Pradesh","latitude":23.1815,"longitude":79.9864,"temp":32.2,"humidity":39,"rain":0.0,"pressure":961.7,"uv_index":8.45,"wind_gusts":46.8,"aqi":87,"pm10":104.5,"pm2_5":37.6,"mosquito_risk":0,"arthritis_risk":5,"migraine_risk":7,"frizz_risk":1,"updated_at":"2026-04-08T12:55:47.935357+05:30"},{"city":"Ujjain","state":"Madhya Pradesh","latitude":23.1765,"longitude":75.7885,"temp":29.3,"humidity":44,"rain":0.0,"pressure":954.5,"uv_index":8.3,"wind_gusts":45.4,"aqi":68,"pm10":31.3,"pm2_5":15.3,"mosquito_risk":4,"arthritis_risk":5,"migraine_risk":7,"frizz_risk":0,"updated_at":"2026-04-08T12:55:47.935365+05:30"},{"city":"Visakhapatnam","state":"Andhra Pradesh","latitude":17.6868,"longitude":83.2185,"temp":33.3,"humidity":59,"rain":0.0,"pressure":1004.2,"uv_index":9.1,"wind_gusts":43.9,"aqi":75,"pm10":36.4,"pm2_5":32.4,"mosquito_risk":0,"arthritis_risk":5,"migraine_risk":4,"frizz_risk":1,"updated_at":"2026-04-08T12:55:47.935371+05:30"},{"city":"Vijayawada","state":"Andhra Pradesh","latitude":16.5062,"longitude":80.648,"temp":35.2,"humidity":52,"rain":0.0,"pressure":1002.8,"uv_index":9.15,"wind_gusts":26.6,"aqi":98,"pm10":31.4,"pm2_5":27.8,"mosquito_risk":0,"arthritis_risk":5,"migraine_risk":7,"frizz_risk":1,"updated_at":"2026-04-08T12:55:47.935379+05:30"},{"city":"Guntur","state":"Andhra Pradesh","latitude":16.3067,"longitude":80.4365,"temp":35.9,"humidity":50,"rain":0.0,"pressure":1003.9,"uv_index":9.15,"wind_gusts":30.2,"aqi":92,"pm10":35.2,"pm2_5":30.2,"mosquito_risk":0,"arthritis_risk":5,"migraine_risk":7,"frizz_risk":1,"updated_at":"2026-04-08T12:55:47.935386+05:30"},{"city":"Nellore","state":"Andhra Pradesh","latitude":14.4426,"longitude":79.9865,"temp":38.0,"humidity":38,"rain":0.0,"pressure":1005.0,"uv_index":9.3,"wind_gusts":37.1,"aqi":79,"pm10":43.2,"pm2_5":38.2,"mosquito_risk":0,"arthritis_risk":5,"migraine_risk":7,"frizz_risk":1,"updated_at":"2026-04-08T12:55:47.935394+05:30"},{"city":"Kurnool","state":"Andhra Pradesh","latitude":15.8281,"longitude":78.0373,"temp":39.1,"humidity":20,"rain":0.0,"pressure":977.3,"uv_index":9.15,"wind_gusts":23.0,"aqi":75,"pm10":21.0,"pm2_5":18.1,"mosquito_risk":0,"arthritis_risk":5,"migraine_risk":10,"frizz_risk":0,"updated_at":"2026-04-08T12:55:47.935402+05:30"},{"city":"Kakinada","state":"Andhra Pradesh","latitude":16.9891,"longitude":82.2475,"temp":35.0,"humidity":54,"rain":0.0,"pressure":1007.9,"uv_index":9.1,"wind_gusts":29.9,"aqi":72,"pm10":32.9,"pm2_5":26.9,"mosquito_risk":0,"arthritis_risk":5,"migraine_risk":4,"frizz_risk":1,"updated_at":"2026-04-08T12:55:47.935408+05:30"},{"city":"Tirupati","state":"Andhra Pradesh","latitude":13.6288,"longitude":79.4192,"temp":36.7,"humidity":36,"rain":0.0,"pressure":991.3,"uv_index":9.05,"wind_gusts":31.3,"aqi":88,"pm10":47.7,"pm2_5":43.1,"mosquito_risk":0,"arthritis_risk":5,"migraine_risk":10,"frizz_risk":1,"updated_at":"2026-04-08T12:55:47.935415+05:30"},{"city":"Warangal","state":"Telangana","latitude":17.9689,"longitude":79.5941,"temp":36.1,"humidity":35,"rain":0.0,"pressure":979.4,"uv_index":9.0,"wind_gusts":25.2,"aqi":108,"pm10":39.2,"pm2_5":32.1,"mosquito_risk":0,"arthritis_risk":5,"migraine_risk":10,"frizz_risk":1,"updated_at":"2026-04-08T12:55:47.935421+05:30"},{"city":"Nizamabad","state":"Telangana","latitude":18.6725,"longitude":78.0941,"temp":35.4,"humidity":25,"rain":0.0,"pressure":966.3,"uv_index":8.95,"wind_gusts":25.9,"aqi":81,"pm10":98.7,"pm2_5":25.3,"mosquito_risk":0,"arthritis_risk":5,"migraine_risk":10,"frizz_risk":0,"updated_at":"2026-04-08T12:55:47.935428+05:30"},{"city":"Mysore","state":"Karnataka","latitude":12.2958,"longitude":76.6396,"temp":33.8,"humidity":29,"rain":0.0,"pressure":929.8,"uv_index":9.45,"wind_gusts":43.2,"aqi":47,"pm10":7.0,"pm2_5":6.7,"mosquito_risk":0,"arthritis_risk":5,"migraine_risk":7,"frizz_risk":0,"updated_at":"2026-04-08T12:55:47.935434+05:30"},{"city":"Mangalore","state":"Karnataka","latitude":12.9141,"longitude":74.856,"temp":27.8,"humidity":82,"rain":0.0,"pressure":1008.0,"uv_index":9.15,"wind_gusts":30.6,"aqi":53,"pm10":28.7,"pm2_5":14.3,"mosquito_risk":7,"arthritis_risk":0,"migraine_risk":4,"frizz_risk":1,"updated_at":"2026-04-08T12:55:47.935441+05:30"},{"city":"Hubli-Dharwad","state":"Karnataka","latitude":15.3647,"longitude":75.124,"temp":35.2,"humidity":26,"rain":0.0,"pressure":942.8,"uv_index":9.2,"wind_gusts":41.8,"aqi":50,"pm10":71.2,"pm2_5":24.4,"mosquito_risk":0,"arthritis_risk":5,"migraine_risk":10,"frizz_risk":0,"updated_at":"2026-04-08T12:55:47.935449+05:30"},{"city":"Belgaum","state":"Karnataka","latitude":15.8497,"longitude":74.4977,"temp":32.9,"humidity":29,"rain":0.0,"pressure":928.1,"uv_index":9.2,"wind_gusts":39.6,"aqi":60,"pm10":94.1,"pm2_5":25.7,"mosquito_risk":0,"arthritis_risk":5,"migraine_risk":7,"frizz_risk":0,"updated_at":"2026-04-08T12:56:22.675082+05:30"},{"city":"Coimbatore","state":"Tamil Nadu","latitude":11.0168,"longitude":76.9558,"temp":34.2,"humidity":42,"rain":0.0,"pressure":963.0,"uv_index":9.5,"wind_gusts":55.8,"aqi":53,"pm10":9.7,"pm2_5":8.3,"mosquito_risk":0,"arthritis_risk":5,"migraine_risk":7,"frizz_risk":1,"updated_at":"2026-04-08T12:56:22.675111+05:30"},{"city":"Madurai","state":"Tamil Nadu","latitude":9.9252,"longitude":78.1198,"temp":35.3,"humidity":47,"rain":0.0,"pressure":993.3,"uv_index":9.05,"wind_gusts":33.1,"aqi":103,"pm10":41.9,"pm2_5":34.6,"mosquito_risk":0,"arthritis_risk":5,"migraine_risk":10,"frizz_risk":1,"updated_at":"2026-04-08T12:56:22.675120+05:30"},{"city":"Trichy","state":"Tamil Nadu","latitude":10.7905,"longitude":78.7047,"temp":35.2,"humidity":48,"rain":0.0,"pressure":999.9,"uv_index":8.9,"wind_gusts":25.2,"aqi":91,"pm10":35.9,"pm2_5":29.5,"mosquito_risk":0,"arthritis_risk":5,"migraine_risk":10,"frizz_risk":1,"updated_at":"2026-04-08T12:56:22.675128+05:30"},{"city":"Salem","state":"Tamil Nadu","latitude":11.6643,"longitude":78.146,"temp":37.3,"humidity":34,"rain":0.0,"pressure":977.6,"uv_index":9.45,"wind_gusts":28.8,"aqi":58,"pm10":16.7,"pm2_5":15.0,"mosquito_risk":0,"arthritis_risk":5,"migraine_risk":10,"frizz_risk":1,"updated_at":"2026-04-08T12:56:22.675136+05:30"},{"city":"Tirunelveli","state":"Tamil Nadu","latitude":8.7139,"longitude":77.7567,"temp":37.8,"humidity":37,"rain":0.0,"pressure":1002.9,"uv_index":9.1,"wind_gusts":42.1,"aqi":63,"pm10":33.1,"pm2_5":25.1,"mosquito_risk":0,"arthritis_risk":5,"migraine_risk":7,"frizz_risk":1,"updated_at":"2026-04-08T12:56:22.675143+05:30"},{"city":"Vellore","state":"Tamil Nadu","latitude":12.9165,"longitude":79.1325,"temp":37.0,"humidity":35,"rain":0.0,"pressure":984.4,"uv_index":9.3,"wind_gusts":33.1,"aqi":94,"pm10":39.3,"pm2_5":35.3,"mosquito_risk":0,"arthritis_risk":5,"migraine_risk":10,"frizz_risk":1,"updated_at":"2026-04-08T12:56:22.675151+05:30"},{"city":"Erode","state":"Tamil Nadu","latitude":11.341,"longitude":77.7172,"temp":37.5,"humidity":37,"rain":0.0,"pressure":988.9,"uv_index":9.4,"wind_gusts":28.8,"aqi":59,"pm10":11.8,"pm2_5":9.5,"mosquito_risk":0,"arthritis_risk":5,"migraine_risk":10,"frizz_risk":1,"updated_at":"2026-04-08T12:56:22.675192+05:30"},{"city":"Kochi","state":"Kerala","latitude":9.9312,"longitude":76.2673,"temp":29.4,"humidity":70,"rain":0.0,"pressure":1009.5,"uv_index":9.2,"wind_gusts":34.6,"aqi":60,"pm10":21.9,"pm2_5":14.7,"mosquito_risk":7,"arthritis_risk":0,"migraine_risk":4,"frizz_risk":1,"updated_at":"2026-04-08T12:56:22.675201+05:30"},{"city":"Thiruvananthapuram","state":"Kerala","latitude":8.5241,"longitude":76.9366,"temp":29.2,"humidity":71,"rain":0.0,"pressure":1008.6,"uv_index":9.15,"wind_gusts":45.4,"aqi":56,"pm10":22.9,"pm2_5":14.5,"mosquito_risk":7,"arthritis_risk":0,"migraine_risk":4,"frizz_risk":1,"updated_at":"2026-04-08T12:56:22.675208+05:30"},{"city":"Kozhikode","state":"Kerala","latitude":11.2588,"longitude":75.7804,"temp":30.4,"humidity":62,"rain":0.0,"pressure":1008.8,"uv_index":9.15,"wind_gusts":28.4,"aqi":52,"pm10":20.1,"pm2_5":11.9,"mosquito_risk":3,"arthritis_risk":0,"migraine_risk":4,"frizz_risk":1,"updated_at":"2026-04-08T12:56:22.675215+05:30"},{"city":"Thrissur","state":"Kerala","latitude":10.5276,"longitude":76.2144,"temp":34.0,"humidity":50,"rain":0.0,"pressure":1007.8,"uv_index":9.2,"wind_gusts":35.3,"aqi":62,"pm10":20.4,"pm2_5":14.1,"mosquito_risk":0,"arthritis_risk":5,"migraine_risk":4,"frizz_risk":1,"updated_at":"2026-04-08T12:56:22.675222+05:30"},{"city":"Kannur","state":"Kerala","latitude":11.8745,"longitude":75.3704,"temp":31.8,"humidity":58,"rain":0.0,"pressure":1008.2,"uv_index":9.15,"wind_gusts":33.5,"aqi":50,"pm10":19.1,"pm2_5":11.9,"mosquito_risk":0,"arthritis_risk":0,"migraine_risk":4,"frizz_risk":1,"updated_at":"2026-04-08T12:56:22.675229+05:30"},{"city":"Patna","state":"Bihar","latitude":25.5941,"longitude":85.1376,"temp":28.7,"humidity":50,"rain":0.0,"pressure":1002.0,"uv_index":7.25,"wind_gusts":34.2,"aqi":103,"pm10":48.9,"pm2_5":24.7,"mosquito_risk":4,"arthritis_risk":5,"migraine_risk":4,"frizz_risk":1,"updated_at":"2026-04-08T12:56:22.675237+05:30"},{"city":"Gaya","state":"Bihar","latitude":24.7914,"longitude":85.0002,"temp":30.4,"humidity":42,"rain":0.0,"pressure":994.9,"uv_index":8.35,"wind_gusts":31.0,"aqi":79,"pm10":50.3,"pm2_5":41.1,"mosquito_risk":0,"arthritis_risk":5,"migraine_risk":7,"frizz_risk":1,"updated_at":"2026-04-08T12:56:22.675244+05:30"},{"city":"Muzaffarpur","state":"Bihar","latitude":26.1209,"longitude":85.3647,"temp":27.7,"humidity":54,"rain":0.0,"pressure":1002.7,"uv_index":6.0,"wind_gusts":30.6,"aqi":116,"pm10":46.0,"pm2_5":20.7,"mosquito_risk":4,"arthritis_risk":5,"migraine_risk":0,"frizz_risk":1,"updated_at":"2026-04-08T12:56:22.675250+05:30"},{"city":"Bhagalpur","state":"Bihar","latitude":25.2425,"longitude":87.0117,"temp":29.5,"humidity":59,"rain":0.0,"pressure":1002.9,"uv_index":8.3,"wind_gusts":37.1,"aqi":95,"pm10":60.3,"pm2_5":39.3,"mosquito_risk":4,"arthritis_risk":5,"migraine_risk":4,"frizz_risk":1,"updated_at":"2026-04-08T12:56:22.675257+05:30"},{"city":"Ranchi","state":"Jharkhand","latitude":23.3441,"longitude":85.3096,"temp":28.9,"humidity":51,"rain":0.0,"pressure":938.6,"uv_index":8.65,"wind_gusts":42.5,"aqi":84,"pm10":47.0,"pm2_5":38.0,"mosquito_risk":4,"arthritis_risk":5,"migraine_risk":7,"frizz_risk":1,"updated_at":"2026-04-08T12:56:22.675264+05:30"},{"city":"Jamshedpur","state":"Jharkhand","latitude":22.8046,"longitude":86.2029,"temp":33.4,"humidity":53,"rain":0.0,"pressure":990.7,"uv_index":8.55,"wind_gusts":34.2,"aqi":124,"pm10":54.1,"pm2_5":44.1,"mosquito_risk":0,"arthritis_risk":5,"migraine_risk":7,"frizz_risk":1,"updated_at":"2026-04-08T12:56:22.675270+05:30"},{"city":"Dhanbad","state":"Jharkhand","latitude":23.7957,"longitude":86.4304,"temp":31.2,"humidity":52,"rain":0.0,"pressure":980.6,"uv_index":7.45,"wind_gusts":29.5,"aqi":153,"pm10":71.7,"pm2_5":60.3,"mosquito_risk":0,"arthritis_risk":5,"migraine_risk":7,"frizz_risk":1,"updated_at":"2026-04-08T12:56:22.675277+05:30"},{"city":"Bokaro","state":"Jharkhand","latitude":23.6693,"longitude":86.1511,"temp":29.1,"humidity":56,"rain":0.0,"pressure":985.2,"uv_index":8.15,"wind_gusts":34.6,"aqi":151,"pm10":59.8,"pm2_5":48.7,"mosquito_risk":4,"arthritis_risk":5,"migraine_risk":7,"frizz_risk":1,"updated_at":"2026-04-08T12:56:22.675284+05:30"},{"city":"Bhubaneswar","state":"Odisha","latitude":20.2961,"longitude":85.8245,"temp":32.5,"humidity":60,"rain":0.0,"pressure":1003.1,"uv_index":8.95,"wind_gusts":39.6,"aqi":70,"pm10":20.4,"pm2_5":16.6,"mosquito_risk":0,"arthritis_risk":5,"migraine_risk":4,"frizz_risk":1,"updated_at":"2026-04-08T12:56:22.675291+05:30"},{"city":"Cuttack","state":"Odisha","latitude":20.4625,"longitude":85.8828,"temp":33.9,"humidity":53,"rain":0.0,"pressure":1004.5,"uv_index":9.0,"wind_gusts":35.6,"aqi":70,"pm10":20.4,"pm2_5":16.6,"mosquito_risk":0,"arthritis_risk":5,"migraine_risk":4,"frizz_risk":1,"updated_at":"2026-04-08T12:56:22.675298+05:30"},{"city":"Rourkela","state":"Odisha","latitude":22.2604,"longitude":84.8536,"temp":33.4,"humidity":52,"rain":0.0,"pressure":985.3,"uv_index":8.55,"wind_gusts":39.2,"aqi":115,"pm10":48.5,"pm2_5":40.5,"mosquito_risk":0,"arthritis_risk":5,"migraine_risk":7,"frizz_risk":1,"updated_at":"2026-04-08T12:56:22.675305+05:30"},{"city":"Raipur","state":"Chhattisgarh","latitude":21.2514,"longitude":81.6296,"temp":36.7,"humidity":23,"rain":0.0,"pressure":974.1,"uv_index":8.45,"wind_gusts":41.8,"aqi":113,"pm10":54.1,"pm2_5":26.9,"mosquito_risk":0,"arthritis_risk":5,"migraine_risk":10,"frizz_risk":0,"updated_at":"2026-04-08T12:56:22.675313+05:30"},{"city":"Bhilai","state":"Chhattisgarh","latitude":21.1938,"longitude":81.3509,"temp":37.3,"humidity":21,"rain":0.0,"pressure":974.6,"uv_index":8.55,"wind_gusts":43.2,"aqi":95,"pm10":69.2,"pm2_5":26.9,"mosquito_risk":0,"arthritis_risk":5,"migraine_risk":10,"frizz_risk":0,"updated_at":"2026-04-08T12:56:22.675320+05:30"},{"city":"Guwahati","state":"Assam","latitude":26.1158,"longitude":91.7086,"temp":27.2,"humidity":66,"rain":0.0,"pressure":1004.6,"uv_index":8.15,"wind_gusts":24.1,"aqi":90,"pm10":36.6,"pm2_5":27.8,"mosquito_risk":7,"arthritis_risk":5,"migraine_risk":4,"frizz_risk":1,"updated_at":"2026-04-08T12:56:22.675326+05:30"},{"city":"Agartala","state":"Tripura","latitude":23.8315,"longitude":91.2868,"temp":31.5,"humidity":49,"rain":0.0,"pressure":1007.9,"uv_index":8.45,"wind_gusts":11.2,"aqi":94,"pm10":32.9,"pm2_5":28.6,"mosquito_risk":0,"arthritis_risk":5,"migraine_risk":4,"frizz_risk":1,"updated_at":"2026-04-08T12:56:22.675333+05:30"},{"city":"Shillong","state":"Meghalaya","latitude":25.5788,"longitude":91.8933,"temp":17.2,"humidity":65,"rain":0.0,"pressure":858.3,"uv_index":5.9,"wind_gusts":40.3,"aqi":88,"pm10":30.4,"pm2_5":19.1,"mosquito_risk":3,"arthritis_risk":5,"migraine_risk":3,"frizz_risk":0,"updated_at":"2026-04-08T12:56:22.675340+05:30"},{"city":"Imphal","state":"Manipur","latitude":24.817,"longitude":93.9368,"temp":22.7,"humidity":60,"rain":0.0,"pressure":925.1,"uv_index":8.75,"wind_gusts":42.8,"aqi":83,"pm10":21.7,"pm2_5":15.0,"mosquito_risk":0,"arthritis_risk":5,"migraine_risk":7,"frizz_risk":0,"updated_at":"2026-04-08T12:56:22.675347+05:30"},{"city":"Aizawl","state":"Mizoram","latitude":23.7271,"longitude":92.7176,"temp":25.9,"humidity":44,"rain":0.0,"pressure":895.5,"uv_index":8.7,"wind_gusts":34.2,"aqi":74,"pm10":22.5,"pm2_5":18.8,"mosquito_risk":4,"arthritis_risk":5,"migraine_risk":7,"frizz_risk":0,"updated_at":"2026-04-08T12:56:22.675353+05:30"},{"city":"Kohima","state":"Nagaland","latitude":25.6701,"longitude":94.1077,"temp":17.2,"humidity":79,"rain":0.0,"pressure":856.8,"uv_index":7.3,"wind_gusts":64.4,"aqi":63,"pm10":21.8,"pm2_5":14.4,"mosquito_risk":3,"arthritis_risk":5,"migraine_risk":7,"frizz_risk":0,"updated_at":"2026-04-08T12:56:22.675360+05:30"},{"city":"Gangtok","state":"Sikkim","latitude":27.3314,"longitude":88.6138,"temp":18.7,"humidity":55,"rain":0.0,"pressure":839.6,"uv_index":7.45,"wind_gusts":19.1,"aqi":91,"pm10":29.9,"pm2_5":19.4,"mosquito_risk":0,"arthritis_risk":5,"migraine_risk":7,"frizz_risk":0,"updated_at":"2026-04-08T12:56:22.675367+05:30"},{"city":"Siliguri","state":"West Bengal","latitude":26.7271,"longitude":88.3953,"temp":24.3,"humidity":64,"rain":0.0,"pressure":996.8,"uv_index":8.05,"wind_gusts":20.5,"aqi":92,"pm10":45.6,"pm2_5":34.9,"mosquito_risk":3,"arthritis_risk":5,"migraine_risk":7,"frizz_risk":1,"updated_at":"2026-04-08T12:56:25.937856+05:30"},{"city":"Durgapur","state":"West Bengal","latitude":23.5204,"longitude":87.3119,"temp":31.9,"humidity":54,"rain":0.0,"pressure":995.7,"uv_index":8.45,"wind_gusts":28.1,"aqi":143,"pm10":67.3,"pm2_5":58.0,"mosquito_risk":0,"arthritis_risk":5,"migraine_risk":7,"frizz_risk":1,"updated_at":"2026-04-08T12:56:25.937884+05:30"},{"city":"Asansol","state":"West Bengal","latitude":23.6739,"longitude":86.9524,"temp":31.9,"humidity":52,"rain":0.0,"pressure":994.3,"uv_index":8.6,"wind_gusts":27.4,"aqi":131,"pm10":71.9,"pm2_5":61.0,"mosquito_risk":0,"arthritis_risk":5,"migraine_risk":7,"frizz_risk":1,"updated_at":"2026-04-08T12:56:25.937893+05:30"},{"city":"Pondicherry","state":"Puducherry","latitude":11.9139,"longitude":79.8145,"temp":35.9,"humidity":52,"rain":0.0,"pressure":1008.1,"uv_index":9.3,"wind_gusts":25.6,"aqi":81,"pm10":32.6,"pm2_5":26.0,"mosquito_risk":0,"arthritis_risk":0,"migraine_risk":7,"frizz_risk":1,"updated_at":"2026-04-08T12:56:25.937901+05:30"},{"city":"Port Blair","state":"Andaman and Nicobar Islands","latitude":11.6234,"longitude":92.7265,"temp":29.5,"humidity":71,"rain":0.0,"pressure":1008.4,"uv_index":9.2,"wind_gusts":10.4,"aqi":29,"pm10":7.4,"pm2_5":5.0,"mosquito_risk":7,"arthritis_risk":0,"migraine_risk":4,"frizz_risk":1,"updated_at":"2026-04-08T12:56:25.937910+05:30"},{"city":"Haridwar","state":"Uttarakhand","latitude":29.9457,"longitude":78.1642,"temp":18.7,"humidity":86,"rain":0.0,"pressure":975.9,"uv_index":6.75,"wind_gusts":25.2,"aqi":73,"pm10":49.4,"pm2_5":16.8,"mosquito_risk":3,"arthritis_risk":10,"migraine_risk":7,"frizz_risk":1,"updated_at":"2026-04-08T12:56:25.937918+05:30"},{"city":"Rishikesh","state":"Uttarakhand","latitude":30.0869,"longitude":78.2676,"temp":18.9,"humidity":87,"rain":0.2,"pressure":968.2,"uv_index":6.65,"wind_gusts":24.5,"aqi":77,"pm10":22.4,"pm2_5":8.4,"mosquito_risk":6,"arthritis_risk":10,"migraine_risk":7,"frizz_risk":1,"updated_at":"2026-04-08T12:56:25.937926+05:30"},{"city":"Nainital","state":"Uttarakhand","latitude":29.3919,"longitude":79.4542,"temp":13.7,"humidity":85,"rain":0.0,"pressure":803.8,"uv_index":5.9,"wind_gusts":55.4,"aqi":78,"pm10":35.9,"pm2_5":14.4,"mosquito_risk":3,"arthritis_risk":10,"migraine_risk":3,"frizz_risk":0,"updated_at":"2026-04-08T12:56:25.937933+05:30"},{"city":"Mussoorie","state":"Uttarakhand","latitude":30.4599,"longitude":78.0664,"temp":11.2,"humidity":88,"rain":0.4,"pressure":799.4,"uv_index":4.4,"wind_gusts":50.0,"aqi":67,"pm10":21.7,"pm2_5":10.0,"mosquito_risk":6,"arthritis_risk":10,"migraine_risk":3,"frizz_risk":0,"updated_at":"2026-04-08T12:56:25.937940+05:30"},{"city":"Dharamshala","state":"Himachal Pradesh","latitude":32.219,"longitude":76.3234,"temp":12.8,"humidity":82,"rain":1.2,"pressure":866.2,"uv_index":5.75,"wind_gusts":32.4,"aqi":81,"pm10":9.3,"pm2_5":4.2,"mosquito_risk":6,"arthritis_risk":10,"migraine_risk":3,"frizz_risk":0,"updated_at":"2026-04-08T12:56:25.937947+05:30"},{"city":"Dalhousie","state":"Himachal Pradesh","latitude":32.5387,"longitude":75.971,"temp":10.6,"humidity":73,"rain":0.5,"pressure":800.1,"uv_index":4.3,"wind_gusts":34.9,"aqi":68,"pm10":47.1,"pm2_5":15.3,"mosquito_risk":6,"arthritis_risk":5,"migraine_risk":3,"frizz_risk":0,"updated_at":"2026-04-08T12:56:25.937955+05:30"},{"city":"Patiala","state":"Punjab","latitude":30.3398,"longitude":76.3869,"temp":21.1,"humidity":73,"rain":0.0,"pressure":979.8,"uv_index":6.0,"wind_gusts":26.6,"aqi":162,"pm10":79.4,"pm2_5":26.1,"mosquito_risk":3,"arthritis_risk":5,"migraine_risk":3,"frizz_risk":1,"updated_at":"2026-04-08T12:56:25.937963+05:30"},{"city":"Bhatinda","state":"Punjab","latitude":30.211,"longitude":74.9455,"temp":23.4,"humidity":50,"rain":0.0,"pressure":985.3,"uv_index":7.45,"wind_gusts":24.8,"aqi":115,"pm10":91.0,"pm2_5":31.3,"mosquito_risk":0,"arthritis_risk":5,"migraine_risk":7,"frizz_risk":0,"updated_at":"2026-04-08T12:56:25.937969+05:30"},{"city":"Rohtak","state":"Haryana","latitude":28.8955,"longitude":76.6066,"temp":24.4,"humidity":51,"rain":0.0,"pressure":983.0,"uv_index":6.9,"wind_gusts":23.8,"aqi":195,"pm10":140.6,"pm2_5":42.7,"mosquito_risk":0,"arthritis_risk":5,"migraine_risk":7,"frizz_risk":0,"updated_at":"2026-04-08T12:56:25.937976+05:30"},{"city":"Panipat","state":"Haryana","latitude":29.3909,"longitude":76.9635,"temp":21.3,"humidity":76,"rain":0.0,"pressure":982.0,"uv_index":6.7,"wind_gusts":26.6,"aqi":174,"pm10":259.8,"pm2_5":47.3,"mosquito_risk":3,"arthritis_risk":5,"migraine_risk":7,"frizz_risk":1,"updated_at":"2026-04-08T12:56:25.937983+05:30"},{"city":"Mathura","state":"Uttar Pradesh","latitude":27.4924,"longitude":77.6737,"temp":27.7,"humidity":43,"rain":0.0,"pressure":987.8,"uv_index":7.25,"wind_gusts":29.2,"aqi":380,"pm10":95.2,"pm2_5":27.4,"mosquito_risk":4,"arthritis_risk":5,"migraine_risk":7,"frizz_risk":0,"updated_at":"2026-04-08T12:56:25.937990+05:30"},{"city":"Vrindavan","state":"Uttar Pradesh","latitude":27.5823,"longitude":77.7027,"temp":26.8,"humidity":46,"rain":0.0,"pressure":988.2,"uv_index":7.2,"wind_gusts":30.2,"aqi":380,"pm10":95.2,"pm2_5":27.4,"mosquito_risk":4,"arthritis_risk":5,"migraine_risk":7,"frizz_risk":0,"updated_at":"2026-04-08T12:56:25.937997+05:30"},{"city":"Ayodhya","state":"Uttar Pradesh","latitude":26.7922,"longitude":82.1998,"temp":24.6,"humidity":65,"rain":0.0,"pressure":998.2,"uv_index":7.55,"wind_gusts":38.9,"aqi":88,"pm10":67.3,"pm2_5":28.1,"mosquito_risk":3,"arthritis_risk":5,"migraine_risk":7,"frizz_risk":1,"updated_at":"2026-04-08T12:56:25.938003+05:30"},{"city":"Ratlam","state":"Madhya Pradesh","latitude":23.3315,"longitude":75.0367,"temp":29.5,"humidity":45,"rain":0.0,"pressure":955.3,"uv_index":8.25,"wind_gusts":45.0,"aqi":66,"pm10":35.6,"pm2_5":14.8,"mosquito_risk":4,"arthritis_risk":5,"migraine_risk":7,"frizz_risk":1,"updated_at":"2026-04-08T12:56:25.938010+05:30"},{"city":"Sagar","state":"Madhya Pradesh","latitude":23.8388,"longitude":78.7378,"temp":30.0,"humidity":39,"rain":0.0,"pressure":951.1,"uv_index":7.75,"wind_gusts":47.2,"aqi":68,"pm10":45.1,"pm2_5":18.3,"mosquito_risk":4,"arthritis_risk":5,"migraine_risk":7,"frizz_risk":0,"updated_at":"2026-04-08T12:56:25.938017+05:30"},{"city":"Satna","state":"Madhya Pradesh","latitude":24.6005,"longitude":80.8322,"temp":31.4,"humidity":39,"rain":0.0,"pressure":971.8,"uv_index":8.35,"wind_gusts":42.5,"aqi":74,"pm10":74.3,"pm2_5":27.1,"mosquito_risk":0,"arthritis_risk":5,"migraine_risk":7,"frizz_risk":0,"updated_at":"2026-04-08T12:56:25.938024+05:30"},{"city":"Akola","state":"Maharashtra","latitude":20.7002,"longitude":77.0082,"temp":35.1,"humidity":32,"rain":0.0,"pressure":976.0,"uv_index":8.7,"wind_gusts":46.8,"aqi":66,"pm10":86.1,"pm2_5":23.9,"mosquito_risk":0,"arthritis_risk":5,"migraine_risk":10,"frizz_risk":0,"updated_at":"2026-04-08T12:56:25.938032+05:30"},{"city":"Amravati","state":"Maharashtra","latitude":20.9374,"longitude":77.7796,"temp":34.6,"humidity":34,"rain":0.0,"pressure":967.9,"uv_index":8.7,"wind_gusts":42.1,"aqi":64,"pm10":86.6,"pm2_5":24.1,"mosquito_risk":0,"arthritis_risk":5,"migraine_risk":7,"frizz_risk":1,"updated_at":"2026-04-08T12:56:25.938039+05:30"},{"city":"Latur","state":"Maharashtra","latitude":18.4088,"longitude":76.5604,"temp":34.6,"humidity":22,"rain":0.0,"pressure":941.4,"uv_index":8.95,"wind_gusts":34.2,"aqi":72,"pm10":100.4,"pm2_5":25.8,"mosquito_risk":0,"arthritis_risk":5,"migraine_risk":7,"frizz_risk":0,"updated_at":"2026-04-08T12:56:25.938046+05:30"},{"city":"Nanded","state":"Maharashtra","latitude":19.1383,"longitude":77.3091,"temp":35.7,"humidity":28,"rain":0.0,"pressure":970.0,"uv_index":8.85,"wind_gusts":31.7,"aqi":77,"pm10":103.1,"pm2_5":25.0,"mosquito_risk":0,"arthritis_risk":5,"migraine_risk":10,"frizz_risk":0,"updated_at":"2026-04-08T12:56:25.938053+05:30"},{"city":"Gulbarga","state":"Karnataka","latitude":17.3297,"longitude":76.8343,"temp":37.5,"humidity":19,"rain":0.0,"pressure":960.0,"uv_index":9.05,"wind_gusts":31.7,"aqi":68,"pm10":78.7,"pm2_5":23.8,"mosquito_risk":0,"arthritis_risk":5,"migraine_risk":10,"frizz_risk":0,"updated_at":"2026-04-08T12:56:25.938060+05:30"},{"city":"Bidar","state":"Karnataka","latitude":17.9104,"longitude":77.5199,"temp":35.5,"humidity":22,"rain":0.0,"pressure":937.2,"uv_index":9.0,"wind_gusts":28.8,"aqi":76,"pm10":81.3,"pm2_5":23.5,"mosquito_risk":0,"arthritis_risk":5,"migraine_risk":10,"frizz_risk":0,"updated_at":"2026-04-08T12:56:25.938067+05:30"},{"city":"Hospet","state":"Karnataka","latitude":15.2689,"longitude":76.3909,"temp":34.9,"humidity":31,"rain":0.0,"pressure":957.3,"uv_index":9.25,"wind_gusts":27.0,"aqi":52,"pm10":44.8,"pm2_5":19.8,"mosquito_risk":0,"arthritis_risk":5,"migraine_risk":7,"frizz_risk":0,"updated_at":"2026-04-08T12:56:25.938074+05:30"},{"city":"Tirupur","state":"Tamil Nadu","latitude":11.1085,"longitude":77.3411,"temp":37.0,"humidity":32,"rain":0.0,"pressure":975.7,"uv_index":9.5,"wind_gusts":40.0,"aqi":60,"pm10":11.4,"pm2_5":10.0,"mosquito_risk":0,"arthritis_risk":5,"migraine_risk":10,"frizz_risk":1,"updated_at":"2026-04-08T12:56:25.938081+05:30"},{"city":"Alappuzha","state":"Kerala","latitude":9.4981,"longitude":76.3388,"temp":29.8,"humidity":67,"rain":0.0,"pressure":1009.6,"uv_index":9.15,"wind_gusts":31.0,"aqi":59,"pm10":25.0,"pm2_5":16.0,"mosquito_risk":7,"arthritis_risk":0,"migraine_risk":4,"frizz_risk":1,"updated_at":"2026-04-08T12:56:25.938087+05:30"},{"city":"Munnar","state":"Kerala","latitude":10.0889,"longitude":77.0595,"temp":29.0,"humidity":55,"rain":0.0,"pressure":860.2,"uv_index":9.25,"wind_gusts":39.2,"aqi":60,"pm10":23.1,"pm2_5":17.3,"mosquito_risk":4,"arthritis_risk":5,"migraine_risk":7,"frizz_risk":1,"updated_at":"2026-04-08T12:56:25.938094+05:30"},{"city":"Silchar","state":"Assam","latitude":24.8333,"longitude":92.7789,"temp":30.5,"humidity":50,"rain":0.0,"pressure":1007.0,"uv_index":8.45,"wind_gusts":23.0,"aqi":102,"pm10":24.9,"pm2_5":21.2,"mosquito_risk":0,"arthritis_risk":5,"migraine_risk":4,"frizz_risk":1,"updated_at":"2026-04-08T12:56:25.938100+05:30"},{"city":"Dibrugarh","state":"Assam","latitude":27.4728,"longitude":94.912,"temp":26.2,"humidity":59,"rain":0.0,"pressure":998.3,"uv_index":8.2,"wind_gusts":17.3,"aqi":70,"pm10":23.6,"pm2_5":16.8,"mosquito_risk":4,"arthritis_risk":5,"migraine_risk":7,"frizz_risk":1,"updated_at":"2026-04-08T12:56:25.938107+05:30"}]