[{"city":"Delhi","state":"Delhi","latitude":28.6139,"longitude":77.209,"temp":28.0,"humidity":56,"rain":0.0,"pressure":986.1,"uv_index":6.6,"wind_gusts":40.0,"aqi":149,"pm10":470.3,"pm2_5":88.5,"mosquito_risk":4,"arthritis_risk":5,"migraine_risk":7,"frizz_risk":1,"updated_at":"2026-04-03T10:37:56.906731+05:30"},{"city":"Mumbai","state":"Maharashtra","latitude":19.076,"longitude":72.8777,"temp":27.7,"humidity":74,"rain":0.0,"pressure":1011.7,"uv_index":7.2,"wind_gusts":25.2,"aqi":73,"pm10":53.3,"pm2_5":30.6,"mosquito_risk":7,"arthritis_risk":0,"migraine_risk":4,"frizz_risk":1,"updated_at":"2026-04-03T10:37:56.906768+05:30"},{"city":"Bangalore","state":"Karnataka","latitude":12.9716,"longitude":77.5946,"temp":27.9,"humidity":58,"rain":0.0,"pressure":915.4,"uv_index":9.6,"wind_gusts":27.7,"aqi":67,"pm10":24.5,"pm2_5":22.8,"mosquito_risk":4,"arthritis_risk":5,"migraine_risk":7,"frizz_risk":1,"updated_at":"2026-04-03T10:37:56.906783+05:30"},{"city":"Hyderabad","state":"Telangana","latitude":17.385,"longitude":78.4867,"temp":32.2,"humidity":42,"rain":0.0,"pressure":957.2,"uv_index":8.9,"wind_gusts":22.7,"aqi":70,"pm10":19.4,"pm2_5":15.0,"mosquito_risk":0,"arthritis_risk":5,"migraine_risk":7,"frizz_risk":1,"updated_at":"2026-04-03T10:37:56.906792+05:30"},{"city":"Chennai","state":"Tamil Nadu","latitude":13.0827,"longitude":80.2707,"temp":32.4,"humidity":55,"rain":0.0,"pressure":1011.1,"uv_index":9.3,"wind_gusts":36.0,"aqi":44,"pm10":16.5,"pm2_5":12.9,"mosquito_risk":0,"arthritis_risk":0,"migraine_risk":4,"frizz_risk":1,"updated_at":"2026-04-03T10:37:56.906800+05:30"},{"city":"Kolkata","state":"West Bengal","latitude":22.5726,"longitude":88.3639,"temp":33.0,"humidity":63,"rain":0.0,"pressure":1008.2,"uv_index":8.65,"wind_gusts":20.9,"aqi":66,"pm10":26.3,"pm2_5":23.1,"mosquito_risk":3,"arthritis_risk":0,"migraine_risk":4,"frizz_risk":1,"updated_at":"2026-04-03T10:37:56.906809+05:30"},{"city":"Pune","state":"Maharashtra","latitude":18.5204,"longitude":73.8567,"temp":30.4,"humidity":56,"rain":0.0,"pressure":951.7,"uv_index":8.35,"wind_gusts":37.1,"aqi":133,"pm10":48.3,"pm2_5":39.3,"mosquito_risk":0,"arthritis_risk":5,"migraine_risk":7,"frizz_risk":1,"updated_at":"2026-04-03T10:37:56.906820+05:30"},{"city":"Ahmedabad","state":"Gujarat","latitude":23.0225,"longitude":72.5714,"temp":29.4,"humidity":44,"rain":0.0,"pressure":1006.1,"uv_index":7.6,"wind_gusts":42.5,"aqi":62,"pm10":71.2,"pm2_5":23.2,"mosquito_risk":4,"arthritis_risk":5,"migraine_risk":4,"frizz_risk":0,"updated_at":"2026-04-03T10:37:56.906828+05:30"},{"city":"Jaipur","state":"Rajasthan","latitude":26.9124,"longitude":75.7873,"temp":29.9,"humidity":37,"rain":0.0,"pressure":962.8,"uv_index":7.5,"wind_gusts":63.0,"aqi":124,"pm10":224.4,"pm2_5":40.9,"mosquito_risk":4,"arthritis_risk":5,"migraine_risk":7,"frizz_risk":0,"updated_at":"2026-04-03T10:37:56.906835+05:30"},{"city":"Lucknow","state":"Uttar Pradesh","latitude":26.8467,"longitude":80.9462,"temp":31.4,"humidity":47,"rain":0.0,"pressure":996.5,"uv_index":6.55,"wind_gusts":32.4,"aqi":81,"pm10":74.5,"pm2_5":28.1,"mosquito_risk":0,"arthritis_risk":5,"migraine_risk":7,"frizz_risk":1,"updated_at":"2026-04-03T10:37:56.906843+05:30"},{"city":"Kanpur","state":"Uttar Pradesh","latitude":26.4499,"longitude":80.3319,"temp":29.1,"humidity":64,"rain":0.0,"pressure":995.0,"uv_index":6.95,"wind_gusts":26.3,"aqi":102,"pm10":206.3,"pm2_5":40.7,"mosquito_risk":7,"arthritis_risk":5,"migraine_risk":7,"frizz_risk":1,"updated_at":"2026-04-03T10:37:56.906849+05:30"},{"city":"Chandigarh","state":"Chandigarh","latitude":30.7333,"longitude":76.7794,"temp":26.9,"humidity":58,"rain":0.0,"pressure":971.5,"uv_index":6.7,"wind_gusts":43.9,"aqi":67,"pm10":179.3,"pm2_5":45.4,"mosquito_risk":4,"arthritis_risk":5,"migraine_risk":7,"frizz_risk":1,"updated_at":"2026-04-03T10:37:56.906856+05:30"},{"city":"Srinagar","state":"Jammu and Kashmir","latitude":34.0837,"longitude":74.7973,"temp":13.8,"humidity":69,"rain":0.0,"pressure":842.6,"uv_index":6.15,"wind_gusts":42.8,"aqi":101,"pm10":31.7,"pm2_5":20.8,"mosquito_risk":3,"arthritis_risk":5,"migraine_risk":7,"frizz_risk":0,"updated_at":"2026-04-03T10:37:56.906863+05:30"},{"city":"Jammu","state":"Jammu and Kashmir","latitude":32.7266,"longitude":74.857,"temp":23.0,"humidity":71,"rain":0.0,"pressure":976.2,"uv_index":5.3,"wind_gusts":40.3,"aqi":67,"pm10":29.7,"pm2_5":18.6,"mosquito_risk":3,"arthritis_risk":5,"migraine_risk":3,"frizz_risk":1,"updated_at":"2026-04-03T10:37:56.906870+05:30"},{"city":"Amritsar","state":"Punjab","latitude":31.634,"longitude":74.8723,"temp":21.7,"humidity":82,"rain":0.0,"pressure":983.1,"uv_index":4.4,"wind_gusts":49.7,"aqi":92,"pm10":61.5,"pm2_5":23.5,"mosquito_risk":3,"arthritis_risk":5,"migraine_risk":3,"frizz_risk":1,"updated_at":"2026-04-03T10:37:56.906877+05:30"},{"city":"Ludhiana","state":"Punjab","latitude":30.901,"longitude":75.8573,"temp":24.9,"humidity":62,"rain":0.0,"pressure":981.5,"uv_index":3.65,"wind_gusts":47.5,"aqi":114,"pm10":137.4,"pm2_5":38.3,"mosquito_risk":3,"arthritis_risk":5,"migraine_risk":3,"frizz_risk":1,"updated_at":"2026-04-03T10:37:56.906884+05:30"},{"city":"Jalandhar","state":"Punjab","latitude":31.326,"longitude":75.5762,"temp":22.2,"humidity":77,"rain":0.0,"pressure":982.5,"uv_index":4.55,"wind_gusts":51.5,"aqi":93,"pm10":73.6,"pm2_5":26.6,"mosquito_risk":3,"arthritis_risk":5,"migraine_risk":3,"frizz_risk":1,"updated_at":"2026-04-03T10:37:56.906892+05:30"},{"city":"Dehradun","state":"Uttarakhand","latitude":30.6284,"longitude":78.0322,"temp":22.1,"humidity":40,"rain":0.0,"pressure":835.2,"uv_index":6.45,"wind_gusts":46.8,"aqi":28,"pm10":16.4,"pm2_5":5.2,"mosquito_risk":0,"arthritis_risk":5,"migraine_risk":7,"frizz_risk":0,"updated_at":"2026-04-03T10:37:56.906899+05:30"},{"city":"Shimla","state":"Himachal Pradesh","latitude":31.1048,"longitude":77.1734,"temp":19.4,"humidity":47,"rain":0.0,"pressure":788.8,"uv_index":7.05,"wind_gusts":59.0,"aqi":53,"pm10":21.7,"pm2_5":7.3,"mosquito_risk":0,"arthritis_risk":5,"migraine_risk":7,"frizz_risk":0,"updated_at":"2026-04-03T10:37:56.906908+05:30"},{"city":"Manali","state":"Himachal Pradesh","latitude":32.2396,"longitude":77.1887,"temp":23.0,"humidity":27,"rain":0.0,"pressure":824.0,"uv_index":7.1,"wind_gusts":50.0,"aqi":49,"pm10":9.5,"pm2_5":3.2,"mosquito_risk":0,"arthritis_risk":5,"migraine_risk":7,"frizz_risk":0,"updated_at":"2026-04-03T10:37:56.906914+05:30"},{"city":"Gurgaon","state":"Haryana","latitude":28.4595,"longitude":77.0266,"temp":29.1,"humidity":53,"rain":0.0,"pressure":984.6,"uv_index":6.75,"wind_gusts":41.4,"aqi":503,"pm10":1747.2,"pm2_5":201.2,"mosquito_risk":4,"arthritis_risk":5,"migraine_risk":7,"frizz_risk":1,"updated_at":"2026-04-03T10:37:56.906921+05:30"},{"city":"Noida","state":"Uttar Pradesh","latitude":28.5355,"longitude":77.391,"temp":28.4,"humidity":55,"rain":0.0,"pressure":987.6,"uv_index":6.6,"wind_gusts":40.0,"aqi":503,"pm10":1747.2,"pm2_5":201.2,"mosquito_risk":4,"arthritis_risk":5,"migraine_risk":7,"frizz_risk":1,"updated_at":"2026-04-03T10:37:56.906928+05:30"},{"city":"Ghaziabad","state":"Uttar Pradesh","latitude":28.6692,"longitude":77.4538,"temp":27.7,"humidity":59,"rain":0.0,"pressure":985.7,"uv_index":6.6,"wind_gusts":33.5,"aqi":129,"pm10":347.4,"pm2_5":81.3,"mosquito_risk":4,"arthritis_risk":5,"migraine_risk":7,"frizz_risk":1,"updated_at":"2026-04-03T10:37:56.906934+05:30"},{"city":"Faridabad","state":"Haryana","latitude":28.4089,"longitude":77.3178,"temp":29.0,"humidity":52,"rain":0.0,"pressure":987.0,"uv_index":6.65,"wind_gusts":37.8,"aqi":503,"pm10":1747.2,"pm2_5":201.2,"mosquito_risk":4,"arthritis_risk":5,"migraine_risk":7,"frizz_risk":1,"updated_at":"2026-04-03T10:37:56.906940+05:30"},{"city":"Meerut","state":"Uttar Pradesh","latitude":28.9845,"longitude":77.7064,"temp":27.6,"humidity":64,"rain":0.0,"pressure":984.5,"uv_index":5.55,"wind_gusts":29.9,"aqi":129,"pm10":347.4,"pm2_5":81.3,"mosquito_risk":7,"arthritis_risk":5,"migraine_risk":3,"frizz_risk":1,"updated_at":"2026-04-03T10:37:56.906946+05:30"},{"city":"Agra","state":"Uttar Pradesh","latitude":27.1767,"longitude":78.0081,"temp":33.6,"humidity":36,"rain":0.0,"pressure":990.9,"uv_index":6.9,"wind_gusts":48.2,"aqi":251,"pm10":1173.5,"pm2_5":121.5,"mosquito_risk":0,"arthritis_risk":5,"migraine_risk":7,"frizz_risk":1,"updated_at":"2026-04-03T10:37:56.906953+05:30"},{"city":"Varanasi","state":"Uttar Pradesh","latitude":25.3176,"longitude":82.9739,"temp":34.5,"humidity":40,"rain":0.0,"pressure":1000.0,"uv_index":7.8,"wind_gusts":37.1,"aqi":91,"pm10":52.2,"pm2_5":22.5,"mosquito_risk":0,"arthritis_risk":5,"migraine_risk":4,"frizz_risk":1,"updated_at":"2026-04-03T10:37:56.906962+05:30"},{"city":"Prayagraj","state":"Uttar Pradesh","latitude":25.4358,"longitude":81.8463,"temp":34.6,"humidity":35,"rain":0.0,"pressure":998.7,"uv_index":7.15,"wind_gusts":36.7,"aqi":90,"pm10":63.3,"pm2_5":24.9,"mosquito_risk":0,"arthritis_risk":5,"migraine_risk":7,"frizz_risk":1,"updated_at":"2026-04-03T10:37:56.906969+05:30"},{"city":"Gorakhpur","state":"Uttar Pradesh","latitude":26.7606,"longitude":83.3732,"temp":34.0,"humidity":33,"rain":0.0,"pressure":999.0,"uv_index":7.35,"wind_gusts":42.8,"aqi":59,"pm10":29.5,"pm2_5":17.8,"mosquito_risk":0,"arthritis_risk":5,"migraine_risk":7,"frizz_risk":0,"updated_at":"2026-04-03T10:37:56.906978+05:30"},{"city":"Bareilly","state":"Uttar Pradesh","latitude":28.367,"longitude":79.4304,"temp":29.1,"humidity":54,"rain":0.0,"pressure":989.8,"uv_index":6.45,"wind_gusts":25.2,"aqi":68,"pm10":35.4,"pm2_5":21.5,"mosquito_risk":4,"arthritis_risk":5,"migraine_risk":7,"frizz_risk":1,"updated_at":"2026-04-03T10:37:56.906984+05:30"},{"city":"Aligarh","state":"Uttar Pradesh","latitude":27.8974,"longitude":78.088,"temp":31.9,"humidity":43,"rain":0.0,"pressure":988.6,"uv_index":6.7,"wind_gusts":36.7,"aqi":121,"pm10":825.2,"pm2_5":114.1,"mosquito_risk":0,"arthritis_risk":5,"migraine_risk":7,"frizz_risk":1,"updated_at":"2026-04-03T10:37:56.906991+05:30"},{"city":"Moradabad","state":"Uttar Pradesh","latitude":28.8386,"longitude":78.7733,"temp":27.0,"humidity":57,"rain":0.0,"pressure":986.7,"uv_index":6.8,"wind_gusts":22.0,"aqi":93,"pm10":41.7,"pm2_5":33.1,"mosquito_risk":4,"arthritis_risk":5,"migraine_risk":7,"frizz_risk":1,"updated_at":"2026-04-03T10:37:56.906996+05:30"},{"city":"Saharanpur","state":"Uttar Pradesh","latitude":29.9637,"longitude":77.546,"temp":27.9,"humidity":47,"rain":0.0,"pressure":978.8,"uv_index":6.55,"wind_gusts":42.5,"aqi":81,"pm10":48.8,"pm2_5":26.4,"mosquito_risk":4,"arthritis_risk":5,"migraine_risk":7,"frizz_risk":0,"updated_at":"2026-04-03T10:37:56.907002+05:30"},{"city":"Jhansi","state":"Uttar Pradesh","latitude":25.4484,"longitude":78.5685,"temp":31.9,"humidity":35,"rain":0.0,"pressure":982.0,"uv_index":7.9,"wind_gusts":33.5,"aqi":62,"pm10":93.1,"pm2_5":21.4,"mosquito_risk":0,"arthritis_risk":5,"migraine_risk":7,"frizz_risk":0,"updated_at":"2026-04-03T10:38:00.204795+05:30"},{"city":"Surat","state":"Gujarat","latitude":21.1702,"longitude":72.8311,"temp":30.0,"humidity":54,"rain":0.0,"pressure":1010.3,"uv_index":7.65,"wind_gusts":29.9,"aqi":97,"pm10":61.0,"pm2_5":43.3,"mosquito_risk":4,"arthritis_risk":0,"migraine_risk":4,"frizz_risk":1,"updated_at":"2026-04-03T10:38:00.204827+05:30"},{"city":"Vadodara","state":"Gujarat","latitude":22.3072,"longitude":73.1812,"temp":31.1,"humidity":56,"rain":0.0,"pressure":1007.8,"uv_index":7.85,"wind_gusts":27.7,"aqi":77,"pm10":49.4,"pm2_5":24.7,"mosquito_risk":0,"arthritis_risk":5,"migraine_risk":4,"frizz_risk":1,"updated_at":"2026-04-03T10:38:00.204837+05:30"},{"city":"Rajkot","state":"Gujarat","latitude":22.3039,"longitude":70.8022,"temp":26.1,"humidity":67,"rain":0.0,"pressure":998.5,"uv_index":7.55,"wind_gusts":39.2,"aqi":66,"pm10":51.7,"pm2_5":17.7,"mosquito_risk":7,"arthritis_risk":5,"migraine_risk":7,"frizz_risk":1,"updated_at":"2026-04-03T10:38:00.204846+05:30"},{"city":"Thane","state":"Maharashtra","latitude":19.2183,"longitude":72.9781,"temp":29.8,"humidity":59,"rain":0.0,"pressure":1011.2,"uv_index":7.15,"wind_gusts":37.8,"aqi":73,"pm10":53.3,"pm2_5":30.6,"mosquito_risk":4,"arthritis_risk":0,"migraine_risk":4,"frizz_risk":1,"updated_at":"2026-04-03T10:38:00.204853+05:30"},{"city":"Nagpur","state":"Maharashtra","latitude":21.1458,"longitude":79.0882,"temp":32.2,"humidity":46,"rain":0.0,"pressure":977.2,"uv_index":8.7,"wind_gusts":23.4,"aqi":85,"pm10":31.3,"pm2_5":26.4,"mosquito_risk":0,"arthritis_risk":5,"migraine_risk":7,"frizz_risk":1,"updated_at":"2026-04-03T10:38:00.204861+05:30"},{"city":"Nashik","state":"Maharashtra","latitude":19.9975,"longitude":73.7898,"temp":28.6,"humidity":50,"rain":0.0,"pressure":949.0,"uv_index":7.55,"wind_gusts":41.4,"aqi":76,"pm10":31.7,"pm2_5":21.0,"mosquito_risk":4,"arthritis_risk":5,"migraine_risk":7,"frizz_risk":1,"updated_at":"2026-04-03T10:38:00.204868+05:30"},{"city":"Aurangabad","state":"Maharashtra","latitude":19.8762,"longitude":75.3433,"temp":29.4,"humidity":54,"rain":0.0,"pressure":947.6,"uv_index":7.45,"wind_gusts":25.6,"aqi":105,"pm10":40.9,"pm2_5":36.2,"mosquito_risk":4,"arthritis_risk":5,"migraine_risk":7,"frizz_risk":1,"updated_at":"2026-04-03T10:38:00.204875+05:30"},{"city":"Solapur","state":"Maharashtra","latitude":17.6599,"longitude":75.9064,"temp":31.8,"humidity":46,"rain":0.0,"pressure":960.4,"uv_index":8.95,"wind_gusts":34.9,"aqi":105,"pm10":41.2,"pm2_5":35.0,"mosquito_risk":0,"arthritis_risk":5,"migraine_risk":7,"frizz_risk":1,"updated_at":"2026-04-03T10:38:00.204883+05:30"},{"city":"Kolhapur","state":"Maharashtra","latitude":16.705,"longitude":74.2433,"temp":28.9,"humidity":65,"rain":0.0,"pressure":951.3,"uv_index":8.9,"wind_gusts":37.1,"aqi":148,"pm10":51.1,"pm2_5":46.3,"mosquito_risk":7,"arthritis_risk":5,"migraine_risk":7,"frizz_risk":1,"updated_at":"2026-04-03T10:38:00.204891+05:30"},{"city":"Goa","state":"Goa","latitude":15.2993,"longitude":74.124,"temp":32.1,"humidity":61,"rain":0.0,"pressure":1000.6,"uv_index":9.0,"wind_gusts":31.3,"aqi":77,"pm10":26.4,"pm2_5":23.4,"mosquito_risk":3,"arthritis_risk":5,"migraine_risk":4,"frizz_risk":1,"updated_at":"2026-04-03T10:38:00.204898+05:30"},{"city":"Jodhpur","state":"Rajasthan","latitude":26.2389,"longitude":73.0243,"temp":26.4,"humidity":48,"rain":0.0,"pressure":986.5,"uv_index":7.4,"wind_gusts":46.8,"aqi":125,"pm10":134.6,"pm2_5":28.7,"mosquito_risk":4,"arthritis_risk":5,"migraine_risk":7,"frizz_risk":0,"updated_at":"2026-04-03T10:38:00.204905+05:30"},{"city":"Udaipur","state":"Rajasthan","latitude":24.5854,"longitude":73.7125,"temp":26.9,"humidity":42,"rain":0.0,"pressure":949.5,"uv_index":8.2,"wind_gusts":56.5,"aqi":42,"pm10":55.5,"pm2_5":14.6,"mosquito_risk":4,"arthritis_risk":5,"migraine_risk":7,"frizz_risk":0,"updated_at":"2026-04-03T10:38:00.204912+05:30"},{"city":"Kota","state":"Rajasthan","latitude":25.2138,"longitude":75.8648,"temp":32.2,"humidity":37,"rain":0.0,"pressure":982.0,"uv_index":7.85,"wind_gusts":47.2,"aqi":56,"pm10":126.2,"pm2_5":28.9,"mosquito_risk":0,"arthritis_risk":5,"migraine_risk":7,"frizz_risk":0,"updated_at":"2026-04-03T10:38:00.204920+05:30"},{"city":"Bikaner","state":"Rajasthan","latitude":28.0229,"longitude":73.3119,"temp":27.1,"humidity":44,"rain":0.0,"pressure":984.3,"uv_index":6.75,"wind_gusts":54.7,"aqi":62,"pm10":60.8,"pm2_5":19.7,"mosquito_risk":4,"arthritis_risk":5,"migraine_risk":7,"frizz_risk":0,"updated_at":"2026-04-03T10:38:00.204927+05:30"},{"city":"Ajmer","state":"Rajasthan","latitude":26.4499,"longitude":74.6399,"temp":28.2,"humidity":45,"rain":0.0,"pressure":957.3,"uv_index":7.6,"wind_gusts":62.6,"aqi":72,"pm10":70.1,"pm2_5":22.5,"mosquito_risk":4,"arthritis_risk":5,"migraine_risk":7,"frizz_risk":0,"updated_at":"2026-04-03T10:38:00.204934+05:30"},{"city":"Gwalior","state":"Madhya Pradesh","latitude":26.2183,"longitude":78.1828,"temp":32.1,"humidity":37,"rain":0.0,"pressure":986.8,"uv_index":7.55,"wind_gusts":34.9,"aqi":62,"pm10":115.7,"pm2_5":28.2,"mosquito_risk":0,"arthritis_risk":5,"migraine_risk":7,"frizz_risk":0,"updated_at":"2026-04-03T10:38:00.204941+05:30"},{"city":"Indore","state":"Madhya Pradesh","latitude":22.7196,"longitude":75.8577,"temp":29.4,"humidity":38,"rain":0.0,"pressure":952.0,"uv_index":8.3,"wind_gusts":38.9,"aqi":81,"pm10":31.9,"pm2_5":24.6,"mosquito_risk":4,"arthritis_risk":5,"migraine_risk":7,"frizz_risk":0,"updated_at":"2026-04-03T10:38:00.204947+05:30"},{"city":"Bhopal","state":"Madhya Pradesh","latitude":23.2599,"longitude":77.4126,"temp":31.1,"humidity":45,"rain":0.0,"pressure":957.7,"uv_index":8.2,"wind_gusts":34.9,"aqi":74,"pm10":22.5,"pm2_5":18.0,"mosquito_risk":0,"arthritis_risk":5,"migraine_risk":7,"frizz_risk":1,"updated_at":"2026-04-03T10:38:00.204954+05:30"},{"city":"Jabalpur","state":"Madhya Pradesh","latitude":23.1815,"longitude":79.9864,"temp":30.9,"humidity":46,"rain":0.0,"pressure":965.8,"uv_index":7.9,"wind_gusts":31.3,"aqi":75,"pm10":23.9,"pm2_5":19.5,"mosquito_risk":0,"arthritis_risk":5,"migraine_risk":7,"frizz_risk":1,"updated_at":"2026-04-03T10:38:00.204960+05:30"},{"city":"Ujjain","state":"Madhya Pradesh","latitude":23.1765,"longitude":75.7885,"temp":28.9,"humidity":44,"rain":0.0,"pressure":957.6,"uv_index":8.2,"wind_gusts":40.3,"aqi":77,"pm10":29.7,"pm2_5":22.6,"mosquito_risk":4,"arthritis_risk":5,"migraine_risk":7,"frizz_risk":0,"updated_at":"2026-04-03T10:38:00.204968+05:30"},{"city":"Visakhapatnam","state":"Andhra Pradesh","latitude":17.6868,"longitude":83.2185,"temp":33.8,"humidity":52,"rain":0.0,"pressure":1006.9,"uv_index":8.8,"wind_gusts":42.1,"aqi":55,"pm10":22.3,"pm2_5":19.3,"mosquito_risk":0,"arthritis_risk":5,"migraine_risk":4,"frizz_risk":1,"updated_at":"2026-04-03T10:38:00.204974+05:30"},{"city":"Vijayawada","state":"Andhra Pradesh","latitude":16.5062,"longitude":80.648,"temp":32.0,"humidity":59,"rain":0.0,"pressure":1006.5,"uv_index":8.65,"wind_gusts":29.9,"aqi":51,"pm10":14.1,"pm2_5":10.7,"mosquito_risk":0,"arthritis_risk":5,"migraine_risk":4,"frizz_risk":1,"updated_at":"2026-04-03T10:38:00.204981+05:30"},{"city":"Guntur","state":"Andhra Pradesh","latitude":16.3067,"longitude":80.4365,"temp":32.3,"humidity":56,"rain":0.0,"pressure":1007.6,"uv_index":8.5,"wind_gusts":30.2,"aqi":46,"pm10":13.9,"pm2_5":10.0,"mosquito_risk":0,"arthritis_risk":5,"migraine_risk":4,"frizz_risk":1,"updated_at":"2026-04-03T10:38:00.204988+05:30"},{"city":"Nellore","state":"Andhra Pradesh","latitude":14.4426,"longitude":79.9865,"temp":32.5,"humidity":55,"rain":0.0,"pressure":1009.6,"uv_index":9.15,"wind_gusts":34.2,"aqi":41,"pm10":13.4,"pm2_5":12.1,"mosquito_risk":0,"arthritis_risk":0,"migraine_risk":4,"frizz_risk":1,"updated_at":"2026-04-03T10:38:00.204995+05:30"},{"city":"Kurnool","state":"Andhra Pradesh","latitude":15.8281,"longitude":78.0373,"temp":33.4,"humidity":42,"rain":0.0,"pressure":980.4,"uv_index":8.85,"wind_gusts":19.8,"aqi":52,"pm10":13.0,"pm2_5":10.4,"mosquito_risk":0,"arthritis_risk":5,"migraine_risk":7,"frizz_risk":1,"updated_at":"2026-04-03T10:38:00.205002+05:30"},{"city":"Kakinada","state":"Andhra Pradesh","latitude":16.9891,"longitude":82.2475,"temp":33.7,"humidity":53,"rain":0.0,"pressure":1010.9,"uv_index":8.85,"wind_gusts":39.6,"aqi":39,"pm10":14.2,"pm2_5":11.5,"mosquito_risk":0,"arthritis_risk":0,"migraine_risk":4,"frizz_risk":1,"updated_at":"2026-04-03T10:38:00.205009+05:30"},{"city":"Tirupati","state":"Andhra Pradesh","latitude":13.6288,"longitude":79.4192,"temp":32.0,"humidity":47,"rain":0.0,"pressure":995.7,"uv_index":9.35,"wind_gusts":31.7,"aqi":54,"pm10":10.1,"pm2_5":9.0,"mosquito_risk":0,"arthritis_risk":5,"migraine_risk":7,"frizz_risk":1,"updated_at":"2026-04-03T10:38:00.205015+05:30"},{"city":"Warangal","state":"Telangana","latitude":17.9689,"longitude":79.5941,"temp":31.8,"humidity":54,"rain":0.0,"pressure":982.7,"uv_index":8.8,"wind_gusts":18.4,"aqi":72,"pm10":15.4,"pm2_5":12.9,"mosquito_risk":0,"arthritis_risk":5,"migraine_risk":7,"frizz_risk":1,"updated_at":"2026-04-03T10:38:00.205021+05:30"},{"city":"Nizamabad","state":"Telangana","latitude":18.6725,"longitude":78.0941,"temp":31.6,"humidity":54,"rain":0.0,"pressure":968.5,"uv_index":8.8,"wind_gusts":25.9,"aqi":117,"pm10":45.8,"pm2_5":38.0,"mosquito_risk":0,"arthritis_risk":5,"migraine_risk":7,"frizz_risk":1,"updated_at":"2026-04-03T10:38:00.205028+05:30"},{"city":"Mysore","state":"Karnataka","latitude":12.2958,"longitude":76.6396,"temp":28.3,"humidity":55,"rain":0.0,"pressure":932.1,"uv_index":9.5,"wind_gusts":42.8,"aqi":82,"pm10":27.4,"pm2_5":23.6,"mosquito_risk":4,"arthritis_risk":5,"migraine_risk":7,"frizz_risk":1,"updated_at":"2026-04-03T10:38:00.205035+05:30"},{"city":"Mangalore","state":"Karnataka","latitude":12.9141,"longitude":74.856,"temp":29.1,"humidity":76,"rain":0.0,"pressure":1009.6,"uv_index":9.2,"wind_gusts":24.8,"aqi":71,"pm10":27.5,"pm2_5":22.6,"mosquito_risk":7,"arthritis_risk":0,"migraine_risk":4,"frizz_risk":1,"updated_at":"2026-04-03T10:38:00.205041+05:30"},{"city":"Hubli-Dharwad","state":"Karnataka","latitude":15.3647,"longitude":75.124,"temp":29.6,"humidity":59,"rain":0.0,"pressure":944.1,"uv_index":9.2,"wind_gusts":40.7,"aqi":78,"pm10":40.9,"pm2_5":36.4,"mosquito_risk":4,"arthritis_risk":5,"migraine_risk":7,"frizz_risk":1,"updated_at":"2026-04-03T10:38:00.205048+05:30"},{"city":"Belgaum","state":"Karnataka","latitude":15.8497,"longitude":74.4977,"temp":28.4,"humidity":63,"rain":0.0,"pressure":929.1,"uv_index":9.25,"wind_gusts":35.3,"aqi":93,"pm10":40.6,"pm2_5":35.5,"mosquito_risk":7,"arthritis_risk":5,"migraine_risk":7,"frizz_risk":1,"updated_at":"2026-04-03T10:38:03.492835+05:30"},{"city":"Coimbatore","state":"Tamil Nadu","latitude":11.0168,"longitude":76.9558,"temp":30.7,"humidity":52,"rain":0.0,"pressure":965.7,"uv_index":9.5,"wind_gusts":45.4,"aqi":67,"pm10":22.9,"pm2_5":20.1,"mosquito_risk":0,"arthritis_risk":5,"migraine_risk":7,"frizz_risk":1,"updated_at":"2026-04-03T10:38:03.492866+05:30"},{"city":"Madurai","state":"Tamil Nadu","latitude":9.9252,"longitude":78.1198,"temp":30.6,"humidity":62,"rain":0.0,"pressure":996.9,"uv_index":8.95,"wind_gusts":31.3,"aqi":50,"pm10":15.0,"pm2_5":13.6,"mosquito_risk":3,"arthritis_risk":5,"migraine_risk":7,"frizz_risk":1,"updated_at":"2026-04-03T10:38:03.492878+05:30"},{"city":"Trichy","state":"Tamil Nadu","latitude":10.7905,"longitude":78.7047,"temp":32.0,"humidity":56,"rain":0.0,"pressure":1003.6,"uv_index":9.35,"wind_gusts":30.6,"aqi":56,"pm10":16.0,"pm2_5":13.4,"mosquito_risk":0,"arthritis_risk":5,"migraine_risk":4,"frizz_risk":1,"updated_at":"2026-04-03T10:38:03.492887+05:30"},{"city":"Salem","state":"Tamil Nadu","latitude":11.6643,"longitude":78.146,"temp":31.5,"humidity":52,"rain":0.0,"pressure":981.2,"uv_index":9.3,"wind_gusts":24.8,"aqi":63,"pm10":13.1,"pm2_5":11.4,"mosquito_risk":0,"arthritis_risk":5,"migraine_risk":7,"frizz_risk":1,"updated_at":"2026-04-03T10:38:03.492896+05:30"},{"city":"Tirunelveli","state":"Tamil Nadu","latitude":8.7139,"longitude":77.7567,"temp":32.8,"humidity":52,"rain":0.0,"pressure":1006.6,"uv_index":9.35,"wind_gusts":29.5,"aqi":57,"pm10":20.2,"pm2_5":17.2,"mosquito_risk":0,"arthritis_risk":5,"migraine_risk":4,"frizz_risk":1,"updated_at":"2026-04-03T10:38:03.492904+05:30"},{"city":"Vellore","state":"Tamil Nadu","latitude":12.9165,"longitude":79.1325,"temp":31.3,"humidity":44,"rain":0.0,"pressure":988.8,"uv_index":9.4,"wind_gusts":30.2,"aqi":63,"pm10":15.6,"pm2_5":14.6,"mosquito_risk":0,"arthritis_risk":5,"migraine_risk":7,"frizz_risk":1,"updated_at":"2026-04-03T10:38:03.492913+05:30"},{"city":"Erode","state":"Tamil Nadu","latitude":11.341,"longitude":77.7172,"temp":32.2,"humidity":55,"rain":0.0,"pressure":992.8,"uv_index":9.4,"wind_gusts":20.2,"aqi":45,"pm10":15.7,"pm2_5":14.0,"mosquito_risk":0,"arthritis_risk":5,"migraine_risk":7,"frizz_risk":1,"updated_at":"2026-04-03T10:38:03.492921+05:30"},{"city":"Kochi","state":"Kerala","latitude":9.9312,"longitude":76.2673,"temp":28.0,"humidity":81,"rain":0.0,"pressure":1012.1,"uv_index":9.25,"wind_gusts":22.3,"aqi":67,"pm10":15.7,"pm2_5":13.7,"mosquito_risk":7,"arthritis_risk":0,"migraine_risk":4,"frizz_risk":1,"updated_at":"2026-04-03T10:38:03.492930+05:30"},{"city":"Thiruvananthapuram","state":"Kerala","latitude":8.5241,"longitude":76.9366,"temp":28.1,"humidity":82,"rain":0.0,"pressure":1011.3,"uv_index":9.2,"wind_gusts":17.6,"aqi":61,"pm10":23.7,"pm2_5":19.8,"mosquito_risk":7,"arthritis_risk":0,"migraine_risk":4,"frizz_risk":1,"updated_at":"2026-04-03T10:38:03.492938+05:30"},{"city":"Kozhikode","state":"Kerala","latitude":11.2588,"longitude":75.7804,"temp":29.5,"humidity":74,"rain":0.0,"pressure":1011.1,"uv_index":9.15,"wind_gusts":25.6,"aqi":57,"pm10":13.7,"pm2_5":12.0,"mosquito_risk":7,"arthritis_risk":0,"migraine_risk":4,"frizz_risk":1,"updated_at":"2026-04-03T10:38:03.492946+05:30"},{"city":"Thrissur","state":"Kerala","latitude":10.5276,"longitude":76.2144,"temp":30.8,"humidity":65,"rain":0.0,"pressure":1010.4,"uv_index":9.2,"wind_gusts":29.2,"aqi":63,"pm10":16.1,"pm2_5":13.9,"mosquito_risk":3,"arthritis_risk":0,"migraine_risk":4,"frizz_risk":1,"updated_at":"2026-04-03T10:38:03.492955+05:30"},{"city":"Kannur","state":"Kerala","latitude":11.8745,"longitude":75.3704,"temp":30.4,"humidity":67,"rain":0.0,"pressure":1010.3,"uv_index":8.75,"wind_gusts":27.4,"aqi":73,"pm10":19.8,"pm2_5":17.2,"mosquito_risk":3,"arthritis_risk":0,"migraine_risk":4,"frizz_risk":1,"updated_at":"2026-04-03T10:38:03.492963+05:30"},{"city":"Patna","state":"Bihar","latitude":25.5941,"longitude":85.1376,"temp":33.5,"humidity":42,"rain":0.0,"pressure":1002.5,"uv_index":8.3,"wind_gusts":36.0,"aqi":77,"pm10":49.7,"pm2_5":23.2,"mosquito_risk":0,"arthritis_risk":5,"migraine_risk":4,"frizz_risk":1,"updated_at":"2026-04-03T10:38:03.492971+05:30"},{"city":"Gaya","state":"Bihar","latitude":24.7914,"longitude":85.0002,"temp":35.6,"humidity":35,"rain":0.0,"pressure":996.2,"uv_index":8.4,"wind_gusts":31.3,"aqi":73,"pm10":30.5,"pm2_5":17.4,"mosquito_risk":0,"arthritis_risk":5,"migraine_risk":10,"frizz_risk":1,"updated_at":"2026-04-03T10:38:03.492979+05:30"},{"city":"Muzaffarpur","state":"Bihar","latitude":26.1209,"longitude":85.3647,"temp":32.8,"humidity":45,"rain":0.0,"pressure":1002.3,"uv_index":8.25,"wind_gusts":36.4,"aqi":73,"pm10":46.1,"pm2_5":23.0,"mosquito_risk":0,"arthritis_risk":5,"migraine_risk":4,"frizz_risk":1,"updated_at":"2026-04-03T10:38:03.492986+05:30"},{"city":"Bhagalpur","state":"Bihar","latitude":25.2425,"longitude":87.0117,"temp":32.7,"humidity":48,"rain":0.0,"pressure":1003.2,"uv_index":8.3,"wind_gusts":25.9,"aqi":66,"pm10":41.4,"pm2_5":26.3,"mosquito_risk":0,"arthritis_risk":5,"migraine_risk":4,"frizz_risk":1,"updated_at":"2026-04-03T10:38:03.492994+05:30"},{"city":"Ranchi","state":"Jharkhand","latitude":23.3441,"longitude":85.3096,"temp":33.0,"humidity":35,"rain":0.0,"pressure":941.8,"uv_index":8.95,"wind_gusts":29.9,"aqi":63,"pm10":23.7,"pm2_5":17.8,"mosquito_risk":0,"arthritis_risk":5,"migraine_risk":7,"frizz_risk":0,"updated_at":"2026-04-03T10:38:03.493001+05:30"},{"city":"Jamshedpur","state":"Jharkhand","latitude":22.8046,"longitude":86.2029,"temp":35.0,"humidity":46,"rain":0.0,"pressure":993.7,"uv_index":8.8,"wind_gusts":24.5,"aqi":104,"pm10":50.2,"pm2_5":42.1,"mosquito_risk":0,"arthritis_risk":5,"migraine_risk":7,"frizz_risk":1,"updated_at":"2026-04-03T10:38:03.493009+05:30"},{"city":"Dhanbad","state":"Jharkhand","latitude":23.7957,"longitude":86.4304,"temp":35.8,"humidity":31,"rain":0.0,"pressure":982.5,"uv_index":8.7,"wind_gusts":22.7,"aqi":145,"pm10":46.4,"pm2_5":38.2,"mosquito_risk":0,"arthritis_risk":5,"migraine_risk":10,"frizz_risk":0,"updated_at":"2026-04-03T10:38:03.493018+05:30"},{"city":"Bokaro","state":"Jharkhand","latitude":23.6693,"longitude":86.1511,"temp":35.2,"humidity":35,"rain":0.0,"pressure":986.6,"uv_index":8.75,"wind_gusts":25.2,"aqi":145,"pm10":43.1,"pm2_5":35.3,"mosquito_risk":0,"arthritis_risk":5,"migraine_risk":10,"frizz_risk":1,"updated_at":"2026-04-03T10:38:03.493026+05:30"},{"city":"Bhubaneswar","state":"Odisha","latitude":20.2961,"longitude":85.8245,"temp":34.3,"humidity":56,"rain":0.0,"pressure":1005.5,"uv_index":8.95,"wind_gusts":27.4,"aqi":52,"pm10":21.0,"pm2_5":16.6,"mosquito_risk":0,"arthritis_risk":5,"migraine_risk":4,"frizz_risk":1,"updated_at":"2026-04-03T10:38:03.493034+05:30"},{"city":"Cuttack","state":"Odisha","latitude":20.4625,"longitude":85.8828,"temp":34.6,"humidity":52,"rain":0.0,"pressure":1007.4,"uv_index":9.0,"wind_gusts":39.6,"aqi":52,"pm10":21.0,"pm2_5":16.6,"mosquito_risk":0,"arthritis_risk":5,"migraine_risk":4,"frizz_risk":1,"updated_at":"2026-04-03T10:38:03.493042+05:30"},{"city":"Rourkela","state":"Odisha","latitude":22.2604,"longitude":84.8536,"temp":35.5,"humidity":43,"rain":0.0,"pressure":988.4,"uv_index":8.7,"wind_gusts":27.0,"aqi":121,"pm10":43.2,"pm2_5":38.0,"mosquito_risk":0,"arthritis_risk":5,"migraine_risk":10,"frizz_risk":1,"updated_at":"2026-04-03T10:38:03.493049+05:30"},{"city":"Raipur","state":"Chhattisgarh","latitude":21.2514,"longitude":81.6296,"temp":34.9,"humidity":38,"rain":0.0,"pressure":978.5,"uv_index":8.8,"wind_gusts":34.9,"aqi":145,"pm10":42.3,"pm2_5":38.0,"mosquito_risk":0,"arthritis_risk":5,"migraine_risk":7,"frizz_risk":1,"updated_at":"2026-04-03T10:38:03.493057+05:30"},{"city":"Bhilai","state":"Chhattisgarh","latitude":21.1938,"longitude":81.3509,"temp":34.7,"humidity":40,"rain":0.0,"pressure":978.9,"uv_index":8.8,"wind_gusts":24.5,"aqi":124,"pm10":36.8,"pm2_5":31.8,"mosquito_risk":0,"arthritis_risk":5,"migraine_risk":7,"frizz_risk":1,"updated_at":"2026-04-03T10:38:03.493064+05:30"},{"city":"Guwahati","state":"Assam","latitude":26.1158,"longitude":91.7086,"temp":27.8,"humidity":78,"rain":0.0,"pressure":1004.4,"uv_index":8.25,"wind_gusts":43.6,"aqi":121,"pm10":56.6,"pm2_5":46.3,"mosquito_risk":7,"arthritis_risk":5,"migraine_risk":4,"frizz_risk":1,"updated_at":"2026-04-03T10:38:03.493072+05:30"},{"city":"Agartala","state":"Tripura","latitude":23.8315,"longitude":91.2868,"temp":31.3,"humidity":69,"rain":0.0,"pressure":1008.7,"uv_index":8.45,"wind_gusts":24.1,"aqi":83,"pm10":19.8,"pm2_5":15.9,"mosquito_risk":3,"arthritis_risk":0,"migraine_risk":4,"frizz_risk":1,"updated_at":"2026-04-03T10:38:03.493080+05:30"},{"city":"Shillong","state":"Meghalaya","latitude":25.5788,"longitude":91.8933,"temp":21.8,"humidity":49,"rain":0.0,"pressure":860.3,"uv_index":8.55,"wind_gusts":55.1,"aqi":111,"pm10":46.8,"pm2_5":35.3,"mosquito_risk":0,"arthritis_risk":5,"migraine_risk":7,"frizz_risk":0,"updated_at":"2026-04-03T10:38:03.493088+05:30"},{"city":"Imphal","state":"Manipur","latitude":24.817,"longitude":93.9368,"temp":23.8,"humidity":71,"rain":0.0,"pressure":926.6,"uv_index":8.8,"wind_gusts":60.8,"aqi":110,"pm10":39.5,"pm2_5":29.2,"mosquito_risk":3,"arthritis_risk":5,"migraine_risk":7,"frizz_risk":1,"updated_at":"2026-04-03T10:38:03.493096+05:30"},{"city":"Aizawl","state":"Mizoram","latitude":23.7271,"longitude":92.7176,"temp":26.6,"humidity":57,"rain":0.0,"pressure":897.2,"uv_index":8.7,"wind_gusts":52.9,"aqi":113,"pm10":43.5,"pm2_5":29.3,"mosquito_risk":4,"arthritis_risk":5,"migraine_risk":7,"frizz_risk":1,"updated_at":"2026-04-03T10:38:03.493104+05:30"},{"city":"Kohima","state":"Nagaland","latitude":25.6701,"longitude":94.1077,"temp":22.0,"humidity":55,"rain":0.0,"pressure":859.1,"uv_index":8.65,"wind_gusts":80.6,"aqi":104,"pm10":40.3,"pm2_5":28.1,"mosquito_risk":0,"arthritis_risk":5,"migraine_risk":7,"frizz_risk":0,"updated_at":"2026-04-03T10:38:03.493111+05:30"},{"city":"Gangtok","state":"Sikkim","latitude":27.3314,"longitude":88.6138,"temp":21.0,"humidity":72,"rain":0.0,"pressure":841.2,"uv_index":8.55,"wind_gusts":19.1,"aqi":92,"pm10":27.1,"pm2_5":20.2,"mosquito_risk":3,"arthritis_risk":5,"migraine_risk":7,"frizz_risk":0,"updated_at":"2026-04-03T10:38:03.493118+05:30"},{"city":"Siliguri","state":"West Bengal","latitude":26.7271,"longitude":88.3953,"temp":26.6,"humidity":65,"rain":0.0,"pressure":996.1,"uv_index":8.25,"wind_gusts":18.7,"aqi":143,"pm10":60.3,"pm2_5":43.3,"mosquito_risk":7,"arthritis_risk":5,"migraine_risk":7,"frizz_risk":1,"updated_at":"2026-04-03T10:38:06.786439+05:30"},{"city":"Durgapur","state":"West Bengal","latitude":23.5204,"longitude":87.3119,"temp":36.0,"humidity":36,"rain":0.0,"pressure":997.3,"uv_index":8.65,"wind_gusts":18.7,"aqi":155,"pm10":51.2,"pm2_5":42.4,"mosquito_risk":0,"arthritis_risk":5,"migraine_risk":10,"frizz_risk":1,"updated_at":"2026-04-03T10:38:06.786466+05:30"},{"city":"Asansol","state":"West Bengal","latitude":23.6739,"longitude":86.9524,"temp":35.5,"humidity":39,"rain":0.0,"pressure":996.0,"uv_index":8.7,"wind_gusts":18.7,"aqi":129,"pm10":43.3,"pm2_5":34.6,"mosquito_risk":0,"arthritis_risk":5,"migraine_risk":10,"frizz_risk":1,"updated_at":"2026-04-03T10:38:06.786475+05:30"},{"city":"Pondicherry","state":"Puducherry","latitude":11.9139,"longitude":79.8145,"temp":30.9,"humidity":64,"rain":0.0,"pressure":1012.5,"uv_index":9.2,"wind_gusts":34.2,"aqi":40,"pm10":18.7,"pm2_5":14.0,"mosquito_risk":3,"arthritis_risk":0,"migraine_risk":4,"frizz_risk":1,"updated_at":"2026-04-03T10:38:06.786483+05:30"},{"city":"Port Blair","state":"Andaman and Nicobar Islands","latitude":11.6234,"longitude":92.7265,"temp":28.8,"humidity":78,"rain":0.0,"pressure":1010.0,"uv_index":9.25,"wind_gusts":23.8,"aqi":36,"pm10":17.1,"pm2_5":8.6,"mosquito_risk":7,"arthritis_risk":0,"migraine_risk":4,"frizz_risk":1,"updated_at":"2026-04-03T10:38:06.786490+05:30"},{"city":"Haridwar","state":"Uttarakhand","latitude":29.9457,"longitude":78.1642,"temp":30.9,"humidity":38,"rain":0.0,"pressure":977.3,"uv_index":5.9,"wind_gusts":40.0,"aqi":57,"pm10":16.4,"pm2_5":10.7,"mosquito_risk":0,"arthritis_risk":5,"migraine_risk":3,"frizz_risk":0,"updated_at":"2026-04-03T10:38:06.786498+05:30"},{"city":"Rishikesh","state":"Uttarakhand","latitude":30.0869,"longitude":78.2676,"temp":30.3,"humidity":34,"rain":0.0,"pressure":970.0,"uv_index":5.65,"wind_gusts":31.7,"aqi":40,"pm10":18.0,"pm2_5":7.0,"mosquito_risk":0,"arthritis_risk":5,"migraine_risk":3,"frizz_risk":0,"updated_at":"2026-04-03T10:38:06.786505+05:30"},{"city":"Nainital","state":"Uttarakhand","latitude":29.3919,"longitude":79.4542,"temp":25.9,"humidity":35,"rain":0.0,"pressure":812.2,"uv_index":5.25,"wind_gusts":36.4,"aqi":51,"pm10":20.1,"pm2_5":8.4,"mosquito_risk":4,"arthritis_risk":5,"migraine_risk":3,"frizz_risk":0,"updated_at":"2026-04-03T10:38:06.786512+05:30"},{"city":"Mussoorie","state":"Uttarakhand","latitude":30.4599,"longitude":78.0664,"temp":23.0,"humidity":37,"rain":0.0,"pressure":808.1,"uv_index":6.25,"wind_gusts":60.5,"aqi":53,"pm10":16.9,"pm2_5":7.7,"mosquito_risk":0,"arthritis_risk":5,"migraine_risk":7,"frizz_risk":0,"updated_at":"2026-04-03T10:38:06.786519+05:30"},{"city":"Dharamshala","state":"Himachal Pradesh","latitude":32.219,"longitude":76.3234,"temp":22.1,"humidity":59,"rain":0.0,"pressure":871.6,"uv_index":5.45,"wind_gusts":56.9,"aqi":42,"pm10":15.5,"pm2_5":5.6,"mosquito_risk":0,"arthritis_risk":5,"migraine_risk":3,"frizz_risk":0,"updated_at":"2026-04-03T10:38:06.786526+05:30"},{"city":"Dalhousie","state":"Himachal Pradesh","latitude":32.5387,"longitude":75.971,"temp":20.1,"humidity":46,"rain":0.0,"pressure":806.3,"uv_index":5.95,"wind_gusts":53.6,"aqi":57,"pm10":20.7,"pm2_5":10.4,"mosquito_risk":0,"arthritis_risk":5,"migraine_risk":3,"frizz_risk":0,"updated_at":"2026-04-03T10:38:06.786534+05:30"},{"city":"Patiala","state":"Punjab","latitude":30.3398,"longitude":76.3869,"temp":25.1,"humidity":63,"rain":0.0,"pressure":980.6,"uv_index":5.85,"wind_gusts":51.1,"aqi":143,"pm10":808.4,"pm2_5":107.3,"mosquito_risk":7,"arthritis_risk":5,"migraine_risk":3,"frizz_risk":1,"updated_at":"2026-04-03T10:38:06.786541+05:30"},{"city":"Bhatinda","state":"Punjab","latitude":30.211,"longitude":74.9455,"temp":23.7,"humidity":75,"rain":0.0,"pressure":986.5,"uv_index":5.1,"wind_gusts":42.8,"aqi":87,"pm10":51.0,"pm2_5":16.4,"mosquito_risk":3,"arthritis_risk":5,"migraine_risk":3,"frizz_risk":1,"updated_at":"2026-04-03T10:38:06.786547+05:30"},{"city":"Rohtak","state":"Haryana","latitude":28.8955,"longitude":76.6066,"temp":29.1,"humidity":53,"rain":0.0,"pressure":984.8,"uv_index":5.9,"wind_gusts":37.1,"aqi":159,"pm10":687.3,"pm2_5":95.0,"mosquito_risk":4,"arthritis_risk":5,"migraine_risk":3,"frizz_risk":1,"updated_at":"2026-04-03T10:38:06.786554+05:30"},{"city":"Panipat","state":"Haryana","latitude":29.3909,"longitude":76.9635,"temp":27.0,"humidity":60,"rain":0.0,"pressure":983.1,"uv_index":6.25,"wind_gusts":43.9,"aqi":181,"pm10":1151.1,"pm2_5":139.2,"mosquito_risk":4,"arthritis_risk":5,"migraine_risk":7,"frizz_risk":1,"updated_at":"2026-04-03T10:38:06.786560+05:30"},{"city":"Mathura","state":"Uttar Pradesh","latitude":27.4924,"longitude":77.6737,"temp":31.8,"humidity":39,"rain":0.0,"pressure":990.2,"uv_index":7.05,"wind_gusts":43.6,"aqi":344,"pm10":1110.1,"pm2_5":125.7,"mosquito_risk":0,"arthritis_risk":5,"migraine_risk":7,"frizz_risk":1,"updated_at":"2026-04-03T10:38:06.786566+05:30"},{"city":"Vrindavan","state":"Uttar Pradesh","latitude":27.5823,"longitude":77.7027,"temp":31.8,"humidity":40,"rain":0.0,"pressure":990.5,"uv_index":6.95,"wind_gusts":36.7,"aqi":344,"pm10":1110.1,"pm2_5":125.7,"mosquito_risk":0,"arthritis_risk":5,"migraine_risk":7,"frizz_risk":1,"updated_at":"2026-04-03T10:38:06.786572+05:30"},{"city":"Ayodhya","state":"Uttar Pradesh","latitude":26.7922,"longitude":82.1998,"temp":32.5,"humidity":40,"rain":0.0,"pressure":997.9,"uv_index":6.15,"wind_gusts":35.3,"aqi":64,"pm10":35.7,"pm2_5":20.5,"mosquito_risk":0,"arthritis_risk":5,"migraine_risk":7,"frizz_risk":1,"updated_at":"2026-04-03T10:38:06.786579+05:30"},{"city":"Ratlam","state":"Madhya Pradesh","latitude":23.3315,"longitude":75.0367,"temp":28.6,"humidity":52,"rain":0.0,"pressure":958.2,"uv_index":8.15,"wind_gusts":45.0,"aqi":72,"pm10":27.6,"pm2_5":19.1,"mosquito_risk":4,"arthritis_risk":5,"migraine_risk":7,"frizz_risk":1,"updated_at":"2026-04-03T10:38:06.786585+05:30"},{"city":"Sagar","state":"Madhya Pradesh","latitude":23.8388,"longitude":78.7378,"temp":30.9,"humidity":41,"rain":0.0,"pressure":954.3,"uv_index":7.55,"wind_gusts":26.6,"aqi":69,"pm10":18.6,"pm2_5":14.5,"mosquito_risk":0,"arthritis_risk":5,"migraine_risk":7,"frizz_risk":1,"updated_at":"2026-04-03T10:38:06.786591+05:30"},{"city":"Satna","state":"Madhya Pradesh","latitude":24.6005,"longitude":80.8322,"temp":31.3,"humidity":44,"rain":0.0,"pressure":975.3,"uv_index":6.85,"wind_gusts":36.0,"aqi":68,"pm10":17.0,"pm2_5":15.9,"mosquito_risk":0,"arthritis_risk":5,"migraine_risk":7,"frizz_risk":1,"updated_at":"2026-04-03T10:38:06.786597+05:30"},{"city":"Akola","state":"Maharashtra","latitude":20.7002,"longitude":77.0082,"temp":31.5,"humidity":51,"rain":0.0,"pressure":978.8,"uv_index":8.5,"wind_gusts":33.8,"aqi":88,"pm10":43.1,"pm2_5":36.4,"mosquito_risk":0,"arthritis_risk":5,"migraine_risk":7,"frizz_risk":1,"updated_at":"2026-04-03T10:38:06.786604+05:30"},{"city":"Amravati","state":"Maharashtra","latitude":20.9374,"longitude":77.7796,"temp":31.1,"humidity":52,"rain":0.0,"pressure":971.3,"uv_index":8.35,"wind_gusts":55.4,"aqi":82,"pm10":42.4,"pm2_5":34.7,"mosquito_risk":0,"arthritis_risk":5,"migraine_risk":7,"frizz_risk":1,"updated_at":"2026-04-03T10:38:06.786611+05:30"},{"city":"Latur","state":"Maharashtra","latitude":18.4088,"longitude":76.5604,"temp":29.9,"humidity":53,"rain":0.0,"pressure":943.2,"uv_index":8.55,"wind_gusts":26.6,"aqi":108,"pm10":40.0,"pm2_5":32.9,"mosquito_risk":4,"arthritis_risk":5,"migraine_risk":7,"frizz_risk":1,"updated_at":"2026-04-03T10:38:06.786618+05:30"},{"city":"Nanded","state":"Maharashtra","latitude":19.1383,"longitude":77.3091,"temp":31.7,"humidity":56,"rain":0.0,"pressure":972.3,"uv_index":8.35,"wind_gusts":19.4,"aqi":105,"pm10":44.6,"pm2_5":37.0,"mosquito_risk":0,"arthritis_risk":5,"migraine_risk":7,"frizz_risk":1,"updated_at":"2026-04-03T10:38:06.786624+05:30"},{"city":"Gulbarga","state":"Karnataka","latitude":17.3297,"longitude":76.8343,"temp":32.7,"humidity":38,"rain":0.0,"pressure":962.1,"uv_index":8.55,"wind_gusts":45.0,"aqi":81,"pm10":30.2,"pm2_5":26.4,"mosquito_risk":0,"arthritis_risk":5,"migraine_risk":7,"frizz_risk":1,"updated_at":"2026-04-03T10:38:06.786630+05:30"},{"city":"Bidar","state":"Karnataka","latitude":17.9104,"longitude":77.5199,"temp":31.6,"humidity":42,"rain":0.0,"pressure":939.2,"uv_index":8.5,"wind_gusts":32.8,"aqi":95,"pm10":28.9,"pm2_5":24.3,"mosquito_risk":0,"arthritis_risk":5,"migraine_risk":7,"frizz_risk":1,"updated_at":"2026-04-03T10:38:06.786636+05:30"},{"city":"Hospet","state":"Karnataka","latitude":15.2689,"longitude":76.3909,"temp":29.9,"humidity":62,"rain":0.0,"pressure":959.2,"uv_index":9.15,"wind_gusts":37.8,"aqi":77,"pm10":24.2,"pm2_5":22.2,"mosquito_risk":7,"arthritis_risk":5,"migraine_risk":7,"frizz_risk":1,"updated_at":"2026-04-03T10:38:06.786642+05:30"},{"city":"Tirupur","state":"Tamil Nadu","latitude":11.1085,"longitude":77.3411,"temp":30.9,"humidity":57,"rain":0.0,"pressure":979.1,"uv_index":9.5,"wind_gusts":39.2,"aqi":63,"pm10":23.3,"pm2_5":20.9,"mosquito_risk":0,"arthritis_risk":5,"migraine_risk":7,"frizz_risk":1,"updated_at":"2026-04-03T10:38:06.786649+05:30"},{"city":"Alappuzha","state":"Kerala","latitude":9.4981,"longitude":76.3388,"temp":28.1,"humidity":80,"rain":0.0,"pressure":1012.2,"uv_index":9.2,"wind_gusts":19.8,"aqi":68,"pm10":17.3,"pm2_5":14.8,"mosquito_risk":7,"arthritis_risk":0,"migraine_risk":4,"frizz_risk":1,"updated_at":"2026-04-03T10:38:06.786655+05:30"},{"city":"Munnar","state":"Kerala","latitude":10.0889,"longitude":77.0595,"temp":26.9,"humidity":60,"rain":0.0,"pressure":861.5,"uv_index":8.85,"wind_gusts":32.0,"aqi":67,"pm10":16.1,"pm2_5":14.8,"mosquito_risk":4,"arthritis_risk":5,"migraine_risk":7,"frizz_risk":1,"updated_at":"2026-04-03T10:38:06.786662+05:30"},{"city":"Silchar","state":"Assam","latitude":24.8333,"longitude":92.7789,"temp":27.6,"humidity":77,"rain":0.0,"pressure":1008.6,"uv_index":8.5,"wind_gusts":29.5,"aqi":147,"pm10":46.3,"pm2_5":33.2,"mosquito_risk":7,"arthritis_risk":0,"migraine_risk":4,"frizz_risk":1,"updated_at":"2026-04-03T10:38:06.786669+05:30"},{"city":"Dibrugarh","state":"Assam","latitude":27.4728,"longitude":94.912,"temp":25.1,"humidity":76,"rain":0.0,"pressure":998.7,"uv_index":8.3,"wind_gusts":12.6,"aqi":97,"pm10":33.5,"pm2_5":27.0,"mosquito_risk":7,"arthritis_risk":5,"migraine_risk":7,"frizz_risk":1,"updated_at":"2026-04-03T10:38:06.786675+05:30"}]