[{"city":"Delhi","state":"Delhi","latitude":28.6139,"longitude":77.209,"temp":26.3,"humidity":96,"rain":0.1,"pressure":976.8,"uv_index":7.65,"wind_gusts":28.8,"aqi":124,"pm10":46.1,"pm2_5":37.3,"no2":18.3,"co":384.0,"o3":86.0,"so2":20.4,"mosquito_risk":10,"arthritis_risk":5,"migraine_risk":7,"frizz_risk":1,"updated_at":"2026-07-03T05:38:42.990862+05:30"},{"city":"Mumbai","state":"Maharashtra","latitude":19.076,"longitude":72.8777,"temp":25.9,"humidity":93,"rain":0.2,"pressure":1004.4,"uv_index":0.75,"wind_gusts":49.3,"aqi":42,"pm10":26.7,"pm2_5":12.2,"no2":4.5,"co":121.0,"o3":52.0,"so2":4.0,"mosquito_risk":10,"arthritis_risk":5,"migraine_risk":0,"frizz_risk":1,"updated_at":"2026-07-03T05:38:42.990915+05:30"},{"city":"Bangalore","state":"Karnataka","latitude":12.9716,"longitude":77.5946,"temp":20.8,"humidity":91,"rain":0.0,"pressure":910.2,"uv_index":7.1,"wind_gusts":59.4,"aqi":18,"pm10":4.6,"pm2_5":3.0,"no2":5.5,"co":175.0,"o3":40.0,"so2":3.4,"mosquito_risk":3,"arthritis_risk":5,"migraine_risk":7,"frizz_risk":1,"updated_at":"2026-07-03T05:38:42.990931+05:30"},{"city":"Hyderabad","state":"Telangana","latitude":17.385,"longitude":78.4867,"temp":24.4,"humidity":84,"rain":0.0,"pressure":948.8,"uv_index":4.75,"wind_gusts":59.8,"aqi":24,"pm10":6.7,"pm2_5":4.3,"no2":6.5,"co":150.0,"o3":39.0,"so2":3.8,"mosquito_risk":3,"arthritis_risk":5,"migraine_risk":3,"frizz_risk":1,"updated_at":"2026-07-03T05:38:42.990940+05:30"},{"city":"Chennai","state":"Tamil Nadu","latitude":13.0827,"longitude":80.2707,"temp":30.1,"humidity":60,"rain":0.0,"pressure":1004.4,"uv_index":7.05,"wind_gusts":45.0,"aqi":46,"pm10":12.0,"pm2_5":10.9,"no2":19.3,"co":246.0,"o3":24.0,"so2":7.9,"mosquito_risk":0,"arthritis_risk":5,"migraine_risk":4,"frizz_risk":1,"updated_at":"2026-07-03T05:38:42.990949+05:30"},{"city":"Kolkata","state":"West Bengal","latitude":22.5726,"longitude":88.3639,"temp":27.3,"humidity":93,"rain":0.0,"pressure":998.4,"uv_index":7.8,"wind_gusts":35.6,"aqi":62,"pm10":19.6,"pm2_5":18.4,"no2":13.4,"co":240.0,"o3":46.0,"so2":10.7,"mosquito_risk":7,"arthritis_risk":5,"migraine_risk":7,"frizz_risk":1,"updated_at":"2026-07-03T05:38:42.990957+05:30"},{"city":"Pune","state":"Maharashtra","latitude":18.5204,"longitude":73.8567,"temp":22.6,"humidity":91,"rain":0.0,"pressure":943.7,"uv_index":1.15,"wind_gusts":51.5,"aqi":17,"pm10":2.3,"pm2_5":1.8,"no2":4.9,"co":115.0,"o3":43.0,"so2":4.1,"mosquito_risk":3,"arthritis_risk":5,"migraine_risk":3,"frizz_risk":1,"updated_at":"2026-07-03T05:38:42.990963+05:30"},{"city":"Ahmedabad","state":"Gujarat","latitude":23.0225,"longitude":72.5714,"temp":27.6,"humidity":88,"rain":0.0,"pressure":996.2,"uv_index":7.1,"wind_gusts":36.4,"aqi":57,"pm10":23.5,"pm2_5":14.4,"no2":12.7,"co":177.0,"o3":30.0,"so2":5.2,"mosquito_risk":7,"arthritis_risk":5,"migraine_risk":7,"frizz_risk":1,"updated_at":"2026-07-03T05:38:42.990970+05:30"},{"city":"Jaipur","state":"Rajasthan","latitude":26.9124,"longitude":75.7873,"temp":26.1,"humidity":99,"rain":0.0,"pressure":953.6,"uv_index":7.25,"wind_gusts":26.3,"aqi":112,"pm10":41.4,"pm2_5":23.6,"no2":8.7,"co":288.0,"o3":60.0,"so2":4.4,"mosquito_risk":7,"arthritis_risk":5,"migraine_risk":7,"frizz_risk":1,"updated_at":"2026-07-03T05:38:42.990977+05:30"},{"city":"Lucknow","state":"Uttar Pradesh","latitude":26.8467,"longitude":80.9462,"temp":26.2,"humidity":98,"rain":0.2,"pressure":987.7,"uv_index":6.1,"wind_gusts":30.2,"aqi":85,"pm10":22.7,"pm2_5":22.6,"no2":12.4,"co":445.0,"o3":80.0,"so2":5.3,"mosquito_risk":10,"arthritis_risk":5,"migraine_risk":7,"frizz_risk":1,"updated_at":"2026-07-03T05:38:42.990986+05:30"},{"city":"Kanpur","state":"Uttar Pradesh","latitude":26.4499,"longitude":80.3319,"temp":26.2,"humidity":97,"rain":0.2,"pressure":986.0,"uv_index":7.65,"wind_gusts":28.8,"aqi":89,"pm10":18.8,"pm2_5":18.7,"no2":9.9,"co":338.0,"o3":91.0,"so2":5.1,"mosquito_risk":10,"arthritis_risk":5,"migraine_risk":7,"frizz_risk":1,"updated_at":"2026-07-03T05:38:42.990993+05:30"},{"city":"Chandigarh","state":"Chandigarh","latitude":30.7333,"longitude":76.7794,"temp":26.0,"humidity":93,"rain":0.0,"pressure":964.0,"uv_index":7.7,"wind_gusts":21.2,"aqi":95,"pm10":29.1,"pm2_5":28.4,"no2":38.1,"co":403.0,"o3":29.0,"so2":6.3,"mosquito_risk":7,"arthritis_risk":5,"migraine_risk":7,"frizz_risk":1,"updated_at":"2026-07-03T05:38:42.991000+05:30"},{"city":"Srinagar","state":"Jammu and Kashmir","latitude":34.0837,"longitude":74.7973,"temp":18.1,"humidity":100,"rain":0.1,"pressure":839.8,"uv_index":9.05,"wind_gusts":25.2,"aqi":86,"pm10":20.3,"pm2_5":19.5,"no2":20.6,"co":332.0,"o3":29.0,"so2":1.8,"mosquito_risk":6,"arthritis_risk":10,"migraine_risk":7,"frizz_risk":1,"updated_at":"2026-07-03T05:38:42.991006+05:30"},{"city":"Jammu","state":"Jammu and Kashmir","latitude":32.7266,"longitude":74.857,"temp":26.3,"humidity":82,"rain":0.0,"pressure":968.4,"uv_index":8.6,"wind_gusts":23.8,"aqi":153,"pm10":68.9,"pm2_5":47.6,"no2":48.3,"co":402.0,"o3":5.0,"so2":3.5,"mosquito_risk":7,"arthritis_risk":5,"migraine_risk":7,"frizz_risk":1,"updated_at":"2026-07-03T05:38:42.991013+05:30"},{"city":"Amritsar","state":"Punjab","latitude":31.634,"longitude":74.8723,"temp":27.2,"humidity":89,"rain":0.0,"pressure":975.8,"uv_index":8.45,"wind_gusts":30.6,"aqi":168,"pm10":85.2,"pm2_5":69.8,"no2":31.0,"co":544.0,"o3":46.0,"so2":11.4,"mosquito_risk":7,"arthritis_risk":5,"migraine_risk":7,"frizz_risk":1,"updated_at":"2026-07-03T05:38:42.991019+05:30"},{"city":"Ludhiana","state":"Punjab","latitude":30.901,"longitude":75.8573,"temp":27.2,"humidity":89,"rain":0.0,"pressure":973.5,"uv_index":7.95,"wind_gusts":28.1,"aqi":140,"pm10":39.7,"pm2_5":39.3,"no2":29.9,"co":495.0,"o3":65.0,"so2":12.2,"mosquito_risk":7,"arthritis_risk":5,"migraine_risk":7,"frizz_risk":1,"updated_at":"2026-07-03T05:38:42.991025+05:30"},{"city":"Jalandhar","state":"Punjab","latitude":31.326,"longitude":75.5762,"temp":27.0,"humidity":92,"rain":0.0,"pressure":974.6,"uv_index":8.2,"wind_gusts":30.6,"aqi":157,"pm10":65.4,"pm2_5":61.2,"no2":39.3,"co":513.0,"o3":49.0,"so2":16.6,"mosquito_risk":7,"arthritis_risk":5,"migraine_risk":7,"frizz_risk":1,"updated_at":"2026-07-03T05:38:42.991030+05:30"},{"city":"Dehradun","state":"Uttarakhand","latitude":30.6284,"longitude":78.0322,"temp":17.9,"humidity":98,"rain":0.3,"pressure":827.6,"uv_index":8.15,"wind_gusts":27.4,"aqi":26,"pm10":5.3,"pm2_5":5.1,"no2":14.3,"co":235.0,"o3":43.0,"so2":0.2,"mosquito_risk":6,"arthritis_risk":10,"migraine_risk":7,"frizz_risk":1,"updated_at":"2026-07-03T05:38:42.991036+05:30"},{"city":"Shimla","state":"Himachal Pradesh","latitude":31.1048,"longitude":77.1734,"temp":14.8,"humidity":88,"rain":0.0,"pressure":781.1,"uv_index":8.2,"wind_gusts":24.8,"aqi":41,"pm10":4.2,"pm2_5":4.1,"no2":9.2,"co":271.0,"o3":72.0,"so2":0.1,"mosquito_risk":3,"arthritis_risk":10,"migraine_risk":7,"frizz_risk":0,"updated_at":"2026-07-03T05:38:42.991042+05:30"},{"city":"Manali","state":"Himachal Pradesh","latitude":32.2396,"longitude":77.1887,"temp":18.6,"humidity":68,"rain":0.0,"pressure":815.9,"uv_index":9.5,"wind_gusts":34.2,"aqi":53,"pm10":3.2,"pm2_5":3.0,"no2":14.2,"co":202.0,"o3":98.0,"so2":0.0,"mosquito_risk":3,"arthritis_risk":5,"migraine_risk":7,"frizz_risk":0,"updated_at":"2026-07-03T05:38:42.991049+05:30"},{"city":"Gurgaon","state":"Haryana","latitude":28.4595,"longitude":77.0266,"temp":26.9,"humidity":97,"rain":0.0,"pressure":975.1,"uv_index":7.75,"wind_gusts":25.2,"aqi":157,"pm10":64.5,"pm2_5":38.1,"no2":17.7,"co":508.0,"o3":80.0,"so2":18.7,"mosquito_risk":7,"arthritis_risk":5,"migraine_risk":7,"frizz_risk":1,"updated_at":"2026-07-03T05:38:42.991056+05:30"},{"city":"Noida","state":"Uttar Pradesh","latitude":28.5355,"longitude":77.391,"temp":26.6,"humidity":96,"rain":0.1,"pressure":978.1,"uv_index":7.05,"wind_gusts":31.3,"aqi":157,"pm10":64.5,"pm2_5":38.1,"no2":17.7,"co":336.0,"o3":80.0,"so2":18.7,"mosquito_risk":10,"arthritis_risk":5,"migraine_risk":7,"frizz_risk":1,"updated_at":"2026-07-03T05:38:42.991062+05:30"},{"city":"Ghaziabad","state":"Uttar Pradesh","latitude":28.6692,"longitude":77.4538,"temp":26.7,"humidity":97,"rain":0.1,"pressure":976.5,"uv_index":7.05,"wind_gusts":28.4,"aqi":94,"pm10":36.3,"pm2_5":34.5,"no2":11.2,"co":350.0,"o3":91.0,"so2":8.7,"mosquito_risk":10,"arthritis_risk":5,"migraine_risk":7,"frizz_risk":1,"updated_at":"2026-07-03T05:38:42.991068+05:30"},{"city":"Faridabad","state":"Haryana","latitude":28.4089,"longitude":77.3178,"temp":27.0,"humidity":92,"rain":0.0,"pressure":977.5,"uv_index":7.05,"wind_gusts":33.1,"aqi":157,"pm10":64.5,"pm2_5":38.1,"no2":17.7,"co":347.0,"o3":80.0,"so2":18.7,"mosquito_risk":7,"arthritis_risk":5,"migraine_risk":7,"frizz_risk":1,"updated_at":"2026-07-03T05:38:42.991075+05:30"},{"city":"Meerut","state":"Uttar Pradesh","latitude":28.9845,"longitude":77.7064,"temp":26.9,"humidity":96,"rain":0.0,"pressure":975.8,"uv_index":7.15,"wind_gusts":29.2,"aqi":94,"pm10":36.3,"pm2_5":34.5,"no2":11.2,"co":369.0,"o3":91.0,"so2":8.7,"mosquito_risk":7,"arthritis_risk":5,"migraine_risk":7,"frizz_risk":1,"updated_at":"2026-07-03T05:38:42.991081+05:30"},{"city":"Agra","state":"Uttar Pradesh","latitude":27.1767,"longitude":78.0081,"temp":28.3,"humidity":87,"rain":0.0,"pressure":981.6,"uv_index":7.1,"wind_gusts":17.6,"aqi":124,"pm10":54.4,"pm2_5":31.2,"no2":16.0,"co":423.0,"o3":74.0,"so2":7.4,"mosquito_risk":7,"arthritis_risk":5,"migraine_risk":7,"frizz_risk":1,"updated_at":"2026-07-03T05:38:42.991087+05:30"},{"city":"Varanasi","state":"Uttar Pradesh","latitude":25.3176,"longitude":82.9739,"temp":27.8,"humidity":94,"rain":0.0,"pressure":991.0,"uv_index":5.55,"wind_gusts":34.6,"aqi":95,"pm10":49.0,"pm2_5":48.9,"no2":24.3,"co":415.0,"o3":44.0,"so2":13.2,"mosquito_risk":7,"arthritis_risk":5,"migraine_risk":3,"frizz_risk":1,"updated_at":"2026-07-03T05:38:42.991099+05:30"},{"city":"Prayagraj","state":"Uttar Pradesh","latitude":25.4358,"longitude":81.8463,"temp":26.0,"humidity":95,"rain":0.1,"pressure":989.4,"uv_index":7.55,"wind_gusts":30.2,"aqi":91,"pm10":39.9,"pm2_5":39.8,"no2":21.4,"co":328.0,"o3":57.0,"so2":9.7,"mosquito_risk":10,"arthritis_risk":5,"migraine_risk":7,"frizz_risk":1,"updated_at":"2026-07-03T05:38:42.991105+05:30"},{"city":"Gorakhpur","state":"Uttar Pradesh","latitude":26.7606,"longitude":83.3732,"temp":28.6,"humidity":86,"rain":0.0,"pressure":991.6,"uv_index":7.85,"wind_gusts":37.1,"aqi":90,"pm10":37.6,"pm2_5":37.5,"no2":19.1,"co":570.0,"o3":53.0,"so2":10.8,"mosquito_risk":7,"arthritis_risk":5,"migraine_risk":7,"frizz_risk":1,"updated_at":"2026-07-03T05:38:42.991111+05:30"},{"city":"Bareilly","state":"Uttar Pradesh","latitude":28.367,"longitude":79.4304,"temp":27.9,"humidity":90,"rain":0.0,"pressure":981.2,"uv_index":7.3,"wind_gusts":31.7,"aqi":103,"pm10":31.1,"pm2_5":30.9,"no2":12.8,"co":447.0,"o3":69.0,"so2":3.7,"mosquito_risk":7,"arthritis_risk":5,"migraine_risk":7,"frizz_risk":1,"updated_at":"2026-07-03T05:38:42.991118+05:30"},{"city":"Aligarh","state":"Uttar Pradesh","latitude":27.8974,"longitude":78.088,"temp":28.0,"humidity":89,"rain":0.0,"pressure":979.6,"uv_index":7.2,"wind_gusts":25.6,"aqi":107,"pm10":28.8,"pm2_5":27.6,"no2":10.6,"co":312.0,"o3":96.0,"so2":6.9,"mosquito_risk":7,"arthritis_risk":5,"migraine_risk":7,"frizz_risk":1,"updated_at":"2026-07-03T05:38:42.991124+05:30"},{"city":"Moradabad","state":"Uttar Pradesh","latitude":28.8386,"longitude":78.7733,"temp":27.7,"humidity":90,"rain":0.0,"pressure":978.4,"uv_index":7.75,"wind_gusts":29.9,"aqi":108,"pm10":37.6,"pm2_5":36.8,"no2":14.3,"co":530.0,"o3":72.0,"so2":6.9,"mosquito_risk":7,"arthritis_risk":5,"migraine_risk":7,"frizz_risk":1,"updated_at":"2026-07-03T05:38:42.991129+05:30"},{"city":"Saharanpur","state":"Uttar Pradesh","latitude":29.9637,"longitude":77.546,"temp":26.4,"humidity":97,"rain":0.1,"pressure":970.8,"uv_index":7.35,"wind_gusts":34.9,"aqi":81,"pm10":41.7,"pm2_5":40.5,"no2":33.1,"co":391.0,"o3":39.0,"so2":8.1,"mosquito_risk":10,"arthritis_risk":5,"migraine_risk":7,"frizz_risk":1,"updated_at":"2026-07-03T05:38:42.991135+05:30"},{"city":"Jhansi","state":"Uttar Pradesh","latitude":25.4484,"longitude":78.5685,"temp":26.1,"humidity":97,"rain":0.1,"pressure":972.0,"uv_index":7.05,"wind_gusts":24.5,"aqi":95,"pm10":41.9,"pm2_5":23.7,"no2":11.9,"co":203.0,"o3":59.0,"so2":4.7,"mosquito_risk":10,"arthritis_risk":5,"migraine_risk":7,"frizz_risk":1,"updated_at":"2026-07-03T05:38:46.289554+05:30"},{"city":"Surat","state":"Gujarat","latitude":21.1702,"longitude":72.8311,"temp":25.9,"humidity":96,"rain":0.2,"pressure":1001.3,"uv_index":0.65,"wind_gusts":27.7,"aqi":60,"pm10":25.3,"pm2_5":19.3,"no2":31.5,"co":306.0,"o3":16.0,"so2":41.6,"mosquito_risk":10,"arthritis_risk":5,"migraine_risk":0,"frizz_risk":1,"updated_at":"2026-07-03T05:38:46.289591+05:30"},{"city":"Vadodara","state":"Gujarat","latitude":22.3072,"longitude":73.1812,"temp":26.8,"humidity":90,"rain":0.1,"pressure":998.9,"uv_index":2.85,"wind_gusts":41.4,"aqi":47,"pm10":14.2,"pm2_5":11.1,"no2":15.8,"co":151.0,"o3":25.0,"so2":6.3,"mosquito_risk":10,"arthritis_risk":5,"migraine_risk":3,"frizz_risk":1,"updated_at":"2026-07-03T05:38:46.289603+05:30"},{"city":"Rajkot","state":"Gujarat","latitude":22.3039,"longitude":70.8022,"temp":27.0,"humidity":88,"rain":0.0,"pressure":988.5,"uv_index":6.6,"wind_gusts":42.1,"aqi":51,"pm10":20.5,"pm2_5":10.7,"no2":6.0,"co":109.0,"o3":40.0,"so2":5.6,"mosquito_risk":7,"arthritis_risk":5,"migraine_risk":7,"frizz_risk":1,"updated_at":"2026-07-03T05:38:46.289613+05:30"},{"city":"Thane","state":"Maharashtra","latitude":19.2183,"longitude":72.9781,"temp":24.9,"humidity":97,"rain":0.2,"pressure":1003.6,"uv_index":0.6,"wind_gusts":33.1,"aqi":42,"pm10":26.7,"pm2_5":12.2,"no2":4.5,"co":131.0,"o3":52.0,"so2":4.0,"mosquito_risk":6,"arthritis_risk":5,"migraine_risk":0,"frizz_risk":1,"updated_at":"2026-07-03T05:38:46.289622+05:30"},{"city":"Nagpur","state":"Maharashtra","latitude":21.1458,"longitude":79.0882,"temp":24.7,"humidity":96,"rain":0.0,"pressure":966.6,"uv_index":1.9,"wind_gusts":37.1,"aqi":50,"pm10":4.4,"pm2_5":4.1,"no2":8.9,"co":206.0,"o3":55.0,"so2":6.7,"mosquito_risk":3,"arthritis_risk":5,"migraine_risk":3,"frizz_risk":1,"updated_at":"2026-07-03T05:38:46.289632+05:30"},{"city":"Nashik","state":"Maharashtra","latitude":19.9975,"longitude":73.7898,"temp":22.6,"humidity":97,"rain":0.1,"pressure":940.3,"uv_index":1.65,"wind_gusts":38.5,"aqi":16,"pm10":2.3,"pm2_5":1.9,"no2":6.9,"co":131.0,"o3":38.0,"so2":3.8,"mosquito_risk":6,"arthritis_risk":5,"migraine_risk":3,"frizz_risk":1,"updated_at":"2026-07-03T05:38:46.289640+05:30"},{"city":"Aurangabad","state":"Maharashtra","latitude":19.8762,"longitude":75.3433,"temp":23.3,"humidity":92,"rain":0.1,"pressure":939.2,"uv_index":0.45,"wind_gusts":49.3,"aqi":18,"pm10":2.6,"pm2_5":2.2,"no2":8.7,"co":138.0,"o3":35.0,"so2":9.4,"mosquito_risk":6,"arthritis_risk":5,"migraine_risk":3,"frizz_risk":1,"updated_at":"2026-07-03T05:38:46.289648+05:30"},{"city":"Solapur","state":"Maharashtra","latitude":17.6599,"longitude":75.9064,"temp":23.7,"humidity":90,"rain":0.0,"pressure":953.8,"uv_index":3.3,"wind_gusts":55.8,"aqi":19,"pm10":3.9,"pm2_5":3.0,"no2":5.1,"co":124.0,"o3":39.0,"so2":2.3,"mosquito_risk":3,"arthritis_risk":5,"migraine_risk":3,"frizz_risk":1,"updated_at":"2026-07-03T05:38:46.289656+05:30"},{"city":"Kolhapur","state":"Maharashtra","latitude":16.705,"longitude":74.2433,"temp":21.8,"humidity":96,"rain":0.1,"pressure":945.1,"uv_index":5.9,"wind_gusts":51.8,"aqi":20,"pm10":2.8,"pm2_5":2.1,"no2":3.0,"co":110.0,"o3":43.0,"so2":1.7,"mosquito_risk":6,"arthritis_risk":5,"migraine_risk":3,"frizz_risk":1,"updated_at":"2026-07-03T05:38:46.289663+05:30"},{"city":"Goa","state":"Goa","latitude":15.2993,"longitude":74.124,"temp":23.0,"humidity":99,"rain":0.2,"pressure":996.9,"uv_index":4.5,"wind_gusts":27.7,"aqi":54,"pm10":34.9,"pm2_5":18.5,"no2":3.3,"co":299.0,"o3":43.0,"so2":1.0,"mosquito_risk":6,"arthritis_risk":5,"migraine_risk":3,"frizz_risk":1,"updated_at":"2026-07-03T05:38:46.289671+05:30"},{"city":"Jodhpur","state":"Rajasthan","latitude":26.2389,"longitude":73.0243,"temp":29.2,"humidity":71,"rain":0.0,"pressure":976.5,"uv_index":8.4,"wind_gusts":40.7,"aqi":109,"pm10":63.8,"pm2_5":23.9,"no2":6.2,"co":122.0,"o3":59.0,"so2":3.2,"mosquito_risk":7,"arthritis_risk":5,"migraine_risk":7,"frizz_risk":1,"updated_at":"2026-07-03T05:38:46.289678+05:30"},{"city":"Udaipur","state":"Rajasthan","latitude":24.5854,"longitude":73.7125,"temp":25.0,"humidity":89,"rain":0.0,"pressure":940.4,"uv_index":6.1,"wind_gusts":36.4,"aqi":67,"pm10":29.2,"pm2_5":17.2,"no2":6.4,"co":130.0,"o3":58.0,"so2":7.7,"mosquito_risk":7,"arthritis_risk":5,"migraine_risk":7,"frizz_risk":1,"updated_at":"2026-07-03T05:38:46.289685+05:30"},{"city":"Kota","state":"Rajasthan","latitude":25.2138,"longitude":75.8648,"temp":27.1,"humidity":87,"rain":0.0,"pressure":972.5,"uv_index":7.45,"wind_gusts":36.4,"aqi":65,"pm10":27.0,"pm2_5":17.1,"no2":6.9,"co":208.0,"o3":70.0,"so2":3.4,"mosquito_risk":7,"arthritis_risk":5,"migraine_risk":7,"frizz_risk":1,"updated_at":"2026-07-03T05:38:46.289692+05:30"},{"city":"Bikaner","state":"Rajasthan","latitude":28.0229,"longitude":73.3119,"temp":30.1,"humidity":63,"rain":0.0,"pressure":974.6,"uv_index":8.4,"wind_gusts":38.2,"aqi":153,"pm10":68.7,"pm2_5":27.2,"no2":3.0,"co":136.0,"o3":59.0,"so2":1.6,"mosquito_risk":3,"arthritis_risk":5,"migraine_risk":7,"frizz_risk":1,"updated_at":"2026-07-03T05:38:46.289699+05:30"},{"city":"Ajmer","state":"Rajasthan","latitude":26.4499,"longitude":74.6399,"temp":26.2,"humidity":79,"rain":0.0,"pressure":948.5,"uv_index":8.15,"wind_gusts":49.7,"aqi":87,"pm10":30.0,"pm2_5":20.4,"no2":8.6,"co":147.0,"o3":53.0,"so2":3.1,"mosquito_risk":7,"arthritis_risk":5,"migraine_risk":7,"frizz_risk":1,"updated_at":"2026-07-03T05:38:46.289707+05:30"},{"city":"Gwalior","state":"Madhya Pradesh","latitude":26.2183,"longitude":78.1828,"temp":27.8,"humidity":87,"rain":0.1,"pressure":976.8,"uv_index":7.55,"wind_gusts":15.5,"aqi":103,"pm10":80.3,"pm2_5":32.8,"no2":11.0,"co":329.0,"o3":70.0,"so2":4.4,"mosquito_risk":10,"arthritis_risk":5,"migraine_risk":7,"frizz_risk":1,"updated_at":"2026-07-03T05:38:46.289714+05:30"},{"city":"Indore","state":"Madhya Pradesh","latitude":22.7196,"longitude":75.8577,"temp":24.1,"humidity":96,"rain":0.0,"pressure":942.5,"uv_index":1.75,"wind_gusts":41.0,"aqi":61,"pm10":14.0,"pm2_5":13.2,"no2":8.6,"co":209.0,"o3":47.0,"so2":5.8,"mosquito_risk":3,"arthritis_risk":5,"migraine_risk":3,"frizz_risk":1,"updated_at":"2026-07-03T05:38:46.289721+05:30"},{"city":"Bhopal","state":"Madhya Pradesh","latitude":23.2599,"longitude":77.4126,"temp":24.3,"humidity":96,"rain":0.1,"pressure":947.3,"uv_index":7.5,"wind_gusts":37.8,"aqi":61,"pm10":26.7,"pm2_5":23.9,"no2":10.3,"co":207.0,"o3":51.0,"so2":3.3,"mosquito_risk":6,"arthritis_risk":5,"migraine_risk":7,"frizz_risk":1,"updated_at":"2026-07-03T05:38:46.289728+05:30"},{"city":"Jabalpur","state":"Madhya Pradesh","latitude":23.1815,"longitude":79.9864,"temp":24.4,"humidity":98,"rain":0.1,"pressure":954.3,"uv_index":7.8,"wind_gusts":29.2,"aqi":55,"pm10":9.6,"pm2_5":8.1,"no2":5.8,"co":206.0,"o3":77.0,"so2":2.0,"mosquito_risk":6,"arthritis_risk":5,"migraine_risk":7,"frizz_risk":1,"updated_at":"2026-07-03T05:38:46.289735+05:30"},{"city":"Ujjain","state":"Madhya Pradesh","latitude":23.1765,"longitude":75.7885,"temp":24.4,"humidity":95,"rain":0.0,"pressure":948.1,"uv_index":2.55,"wind_gusts":38.9,"aqi":59,"pm10":15.4,"pm2_5":14.2,"no2":7.7,"co":227.0,"o3":50.0,"so2":6.8,"mosquito_risk":3,"arthritis_risk":5,"migraine_risk":3,"frizz_risk":1,"updated_at":"2026-07-03T05:38:46.289743+05:30"},{"city":"Visakhapatnam","state":"Andhra Pradesh","latitude":17.6868,"longitude":83.2185,"temp":27.9,"humidity":74,"rain":0.0,"pressure":996.1,"uv_index":1.35,"wind_gusts":50.4,"aqi":48,"pm10":12.9,"pm2_5":11.4,"no2":18.5,"co":279.0,"o3":38.0,"so2":28.8,"mosquito_risk":7,"arthritis_risk":5,"migraine_risk":3,"frizz_risk":1,"updated_at":"2026-07-03T05:38:46.289750+05:30"},{"city":"Vijayawada","state":"Andhra Pradesh","latitude":16.5062,"longitude":80.648,"temp":28.5,"humidity":72,"rain":0.0,"pressure":997.9,"uv_index":2.3,"wind_gusts":50.8,"aqi":46,"pm10":8.6,"pm2_5":6.5,"no2":10.4,"co":146.0,"o3":33.0,"so2":8.7,"mosquito_risk":7,"arthritis_risk":5,"migraine_risk":3,"frizz_risk":1,"updated_at":"2026-07-03T05:38:46.289757+05:30"},{"city":"Guntur","state":"Andhra Pradesh","latitude":16.3067,"longitude":80.4365,"temp":29.4,"humidity":64,"rain":0.0,"pressure":999.2,"uv_index":2.1,"wind_gusts":50.0,"aqi":39,"pm10":9.6,"pm2_5":6.5,"no2":10.0,"co":153.0,"o3":33.0,"so2":8.4,"mosquito_risk":7,"arthritis_risk":5,"migraine_risk":3,"frizz_risk":1,"updated_at":"2026-07-03T05:38:46.289765+05:30"},{"city":"Nellore","state":"Andhra Pradesh","latitude":14.4426,"longitude":79.9865,"temp":29.4,"humidity":62,"rain":0.0,"pressure":1002.7,"uv_index":8.8,"wind_gusts":52.2,"aqi":22,"pm10":15.1,"pm2_5":7.3,"no2":5.6,"co":111.0,"o3":43.0,"so2":4.1,"mosquito_risk":7,"arthritis_risk":5,"migraine_risk":4,"frizz_risk":1,"updated_at":"2026-07-03T05:38:46.289773+05:30"},{"city":"Kurnool","state":"Andhra Pradesh","latitude":15.8281,"longitude":78.0373,"temp":25.7,"humidity":78,"rain":0.0,"pressure":974.4,"uv_index":4.55,"wind_gusts":58.7,"aqi":19,"pm10":7.4,"pm2_5":4.3,"no2":5.2,"co":118.0,"o3":40.0,"so2":2.0,"mosquito_risk":7,"arthritis_risk":5,"migraine_risk":3,"frizz_risk":1,"updated_at":"2026-07-03T05:38:46.289781+05:30"},{"city":"Kakinada","state":"Andhra Pradesh","latitude":16.9891,"longitude":82.2475,"temp":26.6,"humidity":88,"rain":0.1,"pressure":1001.6,"uv_index":2.75,"wind_gusts":46.1,"aqi":42,"pm10":12.0,"pm2_5":10.2,"no2":9.5,"co":244.0,"o3":43.0,"so2":5.7,"mosquito_risk":10,"arthritis_risk":5,"migraine_risk":0,"frizz_risk":1,"updated_at":"2026-07-03T05:38:46.289788+05:30"},{"city":"Tirupati","state":"Andhra Pradesh","latitude":13.6288,"longitude":79.4192,"temp":28.0,"humidity":65,"rain":0.0,"pressure":988.9,"uv_index":7.75,"wind_gusts":49.3,"aqi":30,"pm10":13.0,"pm2_5":7.6,"no2":7.9,"co":109.0,"o3":35.0,"so2":2.0,"mosquito_risk":7,"arthritis_risk":5,"migraine_risk":7,"frizz_risk":1,"updated_at":"2026-07-03T05:38:46.289795+05:30"},{"city":"Warangal","state":"Telangana","latitude":17.9689,"longitude":79.5941,"temp":24.7,"humidity":92,"rain":0.2,"pressure":973.6,"uv_index":1.75,"wind_gusts":45.0,"aqi":30,"pm10":5.6,"pm2_5":5.0,"no2":8.4,"co":147.0,"o3":33.0,"so2":2.9,"mosquito_risk":6,"arthritis_risk":5,"migraine_risk":3,"frizz_risk":1,"updated_at":"2026-07-03T05:38:46.289802+05:30"},{"city":"Nizamabad","state":"Telangana","latitude":18.6725,"longitude":78.0941,"temp":24.1,"humidity":94,"rain":0.1,"pressure":959.7,"uv_index":1.45,"wind_gusts":51.8,"aqi":31,"pm10":4.6,"pm2_5":4.1,"no2":8.0,"co":133.0,"o3":35.0,"so2":4.4,"mosquito_risk":6,"arthritis_risk":5,"migraine_risk":3,"frizz_risk":1,"updated_at":"2026-07-03T05:38:46.289809+05:30"},{"city":"Mysore","state":"Karnataka","latitude":12.2958,"longitude":76.6396,"temp":21.4,"humidity":91,"rain":0.0,"pressure":927.5,"uv_index":7.15,"wind_gusts":57.2,"aqi":19,"pm10":1.7,"pm2_5":1.5,"no2":3.6,"co":109.0,"o3":41.0,"so2":1.6,"mosquito_risk":3,"arthritis_risk":5,"migraine_risk":7,"frizz_risk":1,"updated_at":"2026-07-03T05:38:46.289817+05:30"},{"city":"Mangalore","state":"Karnataka","latitude":12.9141,"longitude":74.856,"temp":24.8,"humidity":94,"rain":0.1,"pressure":1007.2,"uv_index":7.4,"wind_gusts":50.8,"aqi":41,"pm10":21.4,"pm2_5":10.0,"no2":1.9,"co":101.0,"o3":44.0,"so2":1.2,"mosquito_risk":6,"arthritis_risk":5,"migraine_risk":4,"frizz_risk":1,"updated_at":"2026-07-03T05:38:46.289823+05:30"},{"city":"Hubli-Dharwad","state":"Karnataka","latitude":15.3647,"longitude":75.124,"temp":21.7,"humidity":97,"rain":0.0,"pressure":938.6,"uv_index":7.45,"wind_gusts":60.8,"aqi":20,"pm10":4.4,"pm2_5":2.5,"no2":2.1,"co":96.0,"o3":44.0,"so2":1.0,"mosquito_risk":3,"arthritis_risk":5,"migraine_risk":7,"frizz_risk":1,"updated_at":"2026-07-03T05:38:46.289831+05:30"},{"city":"Belgaum","state":"Karnataka","latitude":15.8497,"longitude":74.4977,"temp":20.7,"humidity":97,"rain":0.0,"pressure":923.1,"uv_index":4.8,"wind_gusts":52.6,"aqi":20,"pm10":3.2,"pm2_5":2.2,"no2":3.2,"co":107.0,"o3":43.0,"so2":1.5,"mosquito_risk":3,"arthritis_risk":5,"migraine_risk":3,"frizz_risk":1,"updated_at":"2026-07-03T05:38:49.617876+05:30"},{"city":"Coimbatore","state":"Tamil Nadu","latitude":11.0168,"longitude":76.9558,"temp":22.4,"humidity":96,"rain":0.0,"pressure":960.9,"uv_index":8.2,"wind_gusts":60.8,"aqi":15,"pm10":2.5,"pm2_5":1.9,"no2":3.6,"co":135.0,"o3":38.0,"so2":1.9,"mosquito_risk":3,"arthritis_risk":5,"migraine_risk":7,"frizz_risk":1,"updated_at":"2026-07-03T05:38:49.617908+05:30"},{"city":"Madurai","state":"Tamil Nadu","latitude":9.9252,"longitude":78.1198,"temp":27.9,"humidity":66,"rain":0.0,"pressure":992.2,"uv_index":8.65,"wind_gusts":60.8,"aqi":41,"pm10":13.1,"pm2_5":11.9,"no2":21.7,"co":119.0,"o3":7.0,"so2":4.9,"mosquito_risk":7,"arthritis_risk":5,"migraine_risk":7,"frizz_risk":1,"updated_at":"2026-07-03T05:38:49.617919+05:30"},{"city":"Trichy","state":"Tamil Nadu","latitude":10.7905,"longitude":78.7047,"temp":28.1,"humidity":67,"rain":0.0,"pressure":998.7,"uv_index":8.25,"wind_gusts":68.0,"aqi":21,"pm10":8.5,"pm2_5":5.3,"no2":4.2,"co":102.0,"o3":40.0,"so2":2.3,"mosquito_risk":7,"arthritis_risk":5,"migraine_risk":7,"frizz_risk":1,"updated_at":"2026-07-03T05:38:49.617927+05:30"},{"city":"Salem","state":"Tamil Nadu","latitude":11.6643,"longitude":78.146,"temp":25.4,"humidity":81,"rain":0.0,"pressure":976.5,"uv_index":6.75,"wind_gusts":36.4,"aqi":40,"pm10":14.9,"pm2_5":12.2,"no2":17.7,"co":234.0,"o3":23.0,"so2":7.5,"mosquito_risk":7,"arthritis_risk":5,"migraine_risk":7,"frizz_risk":1,"updated_at":"2026-07-03T05:38:49.617935+05:30"},{"city":"Tirunelveli","state":"Tamil Nadu","latitude":8.7139,"longitude":77.7567,"temp":28.4,"humidity":65,"rain":0.0,"pressure":1003.1,"uv_index":7.65,"wind_gusts":51.8,"aqi":22,"pm10":4.9,"pm2_5":3.7,"no2":5.5,"co":121.0,"o3":30.0,"so2":2.3,"mosquito_risk":7,"arthritis_risk":5,"migraine_risk":4,"frizz_risk":1,"updated_at":"2026-07-03T05:38:49.617943+05:30"},{"city":"Vellore","state":"Tamil Nadu","latitude":12.9165,"longitude":79.1325,"temp":27.4,"humidity":66,"rain":0.0,"pressure":982.4,"uv_index":7.05,"wind_gusts":49.3,"aqi":23,"pm10":12.9,"pm2_5":7.5,"no2":7.6,"co":131.0,"o3":36.0,"so2":3.3,"mosquito_risk":7,"arthritis_risk":5,"migraine_risk":7,"frizz_risk":1,"updated_at":"2026-07-03T05:38:49.617951+05:30"},{"city":"Erode","state":"Tamil Nadu","latitude":11.341,"longitude":77.7172,"temp":24.8,"humidity":83,"rain":0.0,"pressure":988.4,"uv_index":7.45,"wind_gusts":59.0,"aqi":30,"pm10":9.2,"pm2_5":7.7,"no2":11.1,"co":128.0,"o3":30.0,"so2":3.0,"mosquito_risk":3,"arthritis_risk":5,"migraine_risk":7,"frizz_risk":1,"updated_at":"2026-07-03T05:38:49.617959+05:30"},{"city":"Kochi","state":"Kerala","latitude":9.9312,"longitude":76.2673,"temp":25.0,"humidity":94,"rain":0.0,"pressure":1010.0,"uv_index":8.25,"wind_gusts":41.0,"aqi":42,"pm10":10.3,"pm2_5":7.4,"no2":9.4,"co":128.0,"o3":23.0,"so2":3.0,"mosquito_risk":7,"arthritis_risk":0,"migraine_risk":4,"frizz_risk":1,"updated_at":"2026-07-03T05:38:49.617966+05:30"},{"city":"Thiruvananthapuram","state":"Kerala","latitude":8.5241,"longitude":76.9366,"temp":23.7,"humidity":97,"rain":0.1,"pressure":1009.8,"uv_index":7.4,"wind_gusts":46.8,"aqi":37,"pm10":11.1,"pm2_5":6.2,"no2":3.1,"co":141.0,"o3":39.0,"so2":1.5,"mosquito_risk":6,"arthritis_risk":0,"migraine_risk":4,"frizz_risk":1,"updated_at":"2026-07-03T05:38:49.617973+05:30"},{"city":"Kozhikode","state":"Kerala","latitude":11.2588,"longitude":75.7804,"temp":24.3,"humidity":95,"rain":0.1,"pressure":1009.2,"uv_index":3.2,"wind_gusts":43.2,"aqi":24,"pm10":13.5,"pm2_5":6.0,"no2":0.6,"co":118.0,"o3":55.0,"so2":0.4,"mosquito_risk":6,"arthritis_risk":0,"migraine_risk":0,"frizz_risk":1,"updated_at":"2026-07-03T05:38:49.617980+05:30"},{"city":"Thrissur","state":"Kerala","latitude":10.5276,"longitude":76.2144,"temp":24.1,"humidity":99,"rain":0.2,"pressure":1008.4,"uv_index":3.6,"wind_gusts":42.1,"aqi":39,"pm10":10.6,"pm2_5":7.7,"no2":7.2,"co":184.0,"o3":29.0,"so2":2.5,"mosquito_risk":6,"arthritis_risk":0,"migraine_risk":0,"frizz_risk":1,"updated_at":"2026-07-03T05:38:49.617988+05:30"},{"city":"Kannur","state":"Kerala","latitude":11.8745,"longitude":75.3704,"temp":24.6,"humidity":96,"rain":0.4,"pressure":1008.3,"uv_index":1.95,"wind_gusts":49.7,"aqi":28,"pm10":19.2,"pm2_5":8.8,"no2":1.9,"co":95.0,"o3":45.0,"so2":0.8,"mosquito_risk":6,"arthritis_risk":0,"migraine_risk":0,"frizz_risk":1,"updated_at":"2026-07-03T05:38:49.617996+05:30"},{"city":"Patna","state":"Bihar","latitude":25.5941,"longitude":85.1376,"temp":28.1,"humidity":89,"rain":0.0,"pressure":994.1,"uv_index":7.05,"wind_gusts":37.8,"aqi":83,"pm10":27.4,"pm2_5":27.2,"no2":16.7,"co":387.0,"o3":61.0,"so2":14.5,"mosquito_risk":7,"arthritis_risk":5,"migraine_risk":7,"frizz_risk":1,"updated_at":"2026-07-03T05:38:49.618003+05:30"},{"city":"Gaya","state":"Bihar","latitude":24.7914,"longitude":85.0002,"temp":27.2,"humidity":89,"rain":0.0,"pressure":987.2,"uv_index":6.0,"wind_gusts":32.4,"aqi":68,"pm10":21.9,"pm2_5":21.7,"no2":14.2,"co":366.0,"o3":57.0,"so2":16.0,"mosquito_risk":7,"arthritis_risk":5,"migraine_risk":3,"frizz_risk":1,"updated_at":"2026-07-03T05:38:49.618010+05:30"},{"city":"Muzaffarpur","state":"Bihar","latitude":26.1209,"longitude":85.3647,"temp":28.1,"humidity":87,"rain":0.0,"pressure":994.3,"uv_index":7.45,"wind_gusts":36.4,"aqi":84,"pm10":26.0,"pm2_5":25.8,"no2":14.9,"co":389.0,"o3":65.0,"so2":11.0,"mosquito_risk":7,"arthritis_risk":5,"migraine_risk":7,"frizz_risk":1,"updated_at":"2026-07-03T05:38:49.618016+05:30"},{"city":"Bhagalpur","state":"Bihar","latitude":25.2425,"longitude":87.0117,"temp":27.5,"humidity":92,"rain":0.0,"pressure":994.8,"uv_index":6.55,"wind_gusts":33.1,"aqi":78,"pm10":38.1,"pm2_5":37.6,"no2":19.1,"co":370.0,"o3":42.0,"so2":9.9,"mosquito_risk":7,"arthritis_risk":5,"migraine_risk":7,"frizz_risk":1,"updated_at":"2026-07-03T05:38:49.618023+05:30"},{"city":"Ranchi","state":"Jharkhand","latitude":23.3441,"longitude":85.3096,"temp":23.4,"humidity":99,"rain":0.1,"pressure":930.7,"uv_index":7.6,"wind_gusts":40.7,"aqi":75,"pm10":10.7,"pm2_5":10.7,"no2":14.5,"co":245.0,"o3":47.0,"so2":19.7,"mosquito_risk":6,"arthritis_risk":5,"migraine_risk":7,"frizz_risk":1,"updated_at":"2026-07-03T05:38:49.618030+05:30"},{"city":"Jamshedpur","state":"Jharkhand","latitude":22.8046,"longitude":86.2029,"temp":25.8,"humidity":97,"rain":0.0,"pressure":983.4,"uv_index":7.05,"wind_gusts":36.0,"aqi":67,"pm10":21.4,"pm2_5":20.6,"no2":13.7,"co":306.0,"o3":41.0,"so2":10.5,"mosquito_risk":7,"arthritis_risk":5,"migraine_risk":7,"frizz_risk":1,"updated_at":"2026-07-03T05:38:49.618037+05:30"},{"city":"Dhanbad","state":"Jharkhand","latitude":23.7957,"longitude":86.4304,"temp":25.4,"humidity":97,"rain":0.0,"pressure":973.0,"uv_index":5.65,"wind_gusts":33.8,"aqi":99,"pm10":46.0,"pm2_5":45.3,"no2":36.4,"co":277.0,"o3":19.0,"so2":95.2,"mosquito_risk":7,"arthritis_risk":5,"migraine_risk":3,"frizz_risk":1,"updated_at":"2026-07-03T05:38:49.618044+05:30"},{"city":"Bokaro","state":"Jharkhand","latitude":23.6693,"longitude":86.1511,"temp":25.3,"humidity":99,"rain":0.0,"pressure":976.8,"uv_index":6.1,"wind_gusts":37.1,"aqi":109,"pm10":44.1,"pm2_5":43.5,"no2":42.5,"co":367.0,"o3":16.0,"so2":113.5,"mosquito_risk":7,"arthritis_risk":5,"migraine_risk":7,"frizz_risk":1,"updated_at":"2026-07-03T05:38:49.618051+05:30"},{"city":"Bhubaneswar","state":"Odisha","latitude":20.2961,"longitude":85.8245,"temp":25.1,"humidity":98,"rain":0.3,"pressure":994.1,"uv_index":8.5,"wind_gusts":29.2,"aqi":63,"pm10":7.9,"pm2_5":7.8,"no2":8.5,"co":402.0,"o3":72.0,"so2":3.1,"mosquito_risk":10,"arthritis_risk":5,"migraine_risk":7,"frizz_risk":1,"updated_at":"2026-07-03T05:38:49.618058+05:30"},{"city":"Cuttack","state":"Odisha","latitude":20.4625,"longitude":85.8828,"temp":25.6,"humidity":97,"rain":0.0,"pressure":995.8,"uv_index":7.65,"wind_gusts":30.6,"aqi":63,"pm10":7.9,"pm2_5":7.8,"no2":8.5,"co":287.0,"o3":72.0,"so2":3.1,"mosquito_risk":7,"arthritis_risk":5,"migraine_risk":7,"frizz_risk":1,"updated_at":"2026-07-03T05:38:49.618065+05:30"},{"city":"Rourkela","state":"Odisha","latitude":22.2604,"longitude":84.8536,"temp":25.1,"humidity":98,"rain":0.2,"pressure":976.9,"uv_index":6.55,"wind_gusts":34.2,"aqi":106,"pm10":28.9,"pm2_5":28.8,"no2":20.5,"co":443.0,"o3":45.0,"so2":34.9,"mosquito_risk":10,"arthritis_risk":5,"migraine_risk":7,"frizz_risk":1,"updated_at":"2026-07-03T05:38:49.618072+05:30"},{"city":"Raipur","state":"Chhattisgarh","latitude":21.2514,"longitude":81.6296,"temp":24.5,"humidity":97,"rain":0.1,"pressure":967.0,"uv_index":3.45,"wind_gusts":31.7,"aqi":72,"pm10":15.7,"pm2_5":15.2,"no2":24.6,"co":243.0,"o3":46.0,"so2":36.4,"mosquito_risk":6,"arthritis_risk":5,"migraine_risk":3,"frizz_risk":1,"updated_at":"2026-07-03T05:38:49.618078+05:30"},{"city":"Bhilai","state":"Chhattisgarh","latitude":21.1938,"longitude":81.3509,"temp":24.3,"humidity":97,"rain":0.3,"pressure":967.5,"uv_index":5.15,"wind_gusts":38.5,"aqi":64,"pm10":14.1,"pm2_5":13.7,"no2":19.9,"co":509.0,"o3":51.0,"so2":30.0,"mosquito_risk":6,"arthritis_risk":5,"migraine_risk":3,"frizz_risk":1,"updated_at":"2026-07-03T05:38:49.618085+05:30"},{"city":"Guwahati","state":"Assam","latitude":26.1158,"longitude":91.7086,"temp":25.8,"humidity":98,"rain":0.1,"pressure":997.2,"uv_index":7.95,"wind_gusts":23.8,"aqi":38,"pm10":8.4,"pm2_5":8.1,"no2":6.6,"co":196.0,"o3":49.0,"so2":1.4,"mosquito_risk":10,"arthritis_risk":5,"migraine_risk":7,"frizz_risk":1,"updated_at":"2026-07-03T05:38:49.618092+05:30"},{"city":"Agartala","state":"Tripura","latitude":23.8315,"longitude":91.2868,"temp":27.1,"humidity":91,"rain":0.0,"pressure":1001.2,"uv_index":6.6,"wind_gusts":29.5,"aqi":55,"pm10":14.8,"pm2_5":14.0,"no2":12.7,"co":172.0,"o3":32.0,"so2":3.4,"mosquito_risk":7,"arthritis_risk":5,"migraine_risk":4,"frizz_risk":1,"updated_at":"2026-07-03T05:38:49.618099+05:30"},{"city":"Shillong","state":"Meghalaya","latitude":25.5788,"longitude":91.8933,"temp":20.1,"humidity":98,"rain":0.0,"pressure":854.5,"uv_index":8.2,"wind_gusts":27.0,"aqi":35,"pm10":9.5,"pm2_5":9.4,"no2":5.3,"co":230.0,"o3":58.0,"so2":2.5,"mosquito_risk":3,"arthritis_risk":5,"migraine_risk":7,"frizz_risk":1,"updated_at":"2026-07-03T05:38:49.618106+05:30"},{"city":"Imphal","state":"Manipur","latitude":24.817,"longitude":93.9368,"temp":23.0,"humidity":94,"rain":0.0,"pressure":920.0,"uv_index":9.1,"wind_gusts":23.8,"aqi":54,"pm10":14.7,"pm2_5":14.5,"no2":7.5,"co":312.0,"o3":36.0,"so2":2.2,"mosquito_risk":3,"arthritis_risk":5,"migraine_risk":7,"frizz_risk":1,"updated_at":"2026-07-03T05:38:49.618112+05:30"},{"city":"Aizawl","state":"Mizoram","latitude":23.7271,"longitude":92.7176,"temp":20.6,"humidity":99,"rain":0.0,"pressure":888.8,"uv_index":8.4,"wind_gusts":19.8,"aqi":30,"pm10":4.5,"pm2_5":4.4,"no2":5.8,"co":155.0,"o3":28.0,"so2":0.6,"mosquito_risk":3,"arthritis_risk":5,"migraine_risk":7,"frizz_risk":1,"updated_at":"2026-07-03T05:38:49.618119+05:30"},{"city":"Kohima","state":"Nagaland","latitude":25.6701,"longitude":94.1077,"temp":19.9,"humidity":95,"rain":0.0,"pressure":852.6,"uv_index":8.95,"wind_gusts":28.1,"aqi":23,"pm10":4.9,"pm2_5":4.8,"no2":5.7,"co":204.0,"o3":32.0,"so2":0.7,"mosquito_risk":3,"arthritis_risk":10,"migraine_risk":7,"frizz_risk":1,"updated_at":"2026-07-03T05:38:49.618126+05:30"},{"city":"Gangtok","state":"Sikkim","latitude":27.3314,"longitude":88.6138,"temp":18.7,"humidity":95,"rain":0.1,"pressure":834.9,"uv_index":9.05,"wind_gusts":32.8,"aqi":34,"pm10":12.0,"pm2_5":11.7,"no2":10.3,"co":350.0,"o3":36.0,"so2":0.5,"mosquito_risk":6,"arthritis_risk":10,"migraine_risk":7,"frizz_risk":1,"updated_at":"2026-07-03T05:38:49.618133+05:30"},{"city":"Siliguri","state":"West Bengal","latitude":26.7271,"longitude":88.3953,"temp":27.5,"humidity":81,"rain":0.0,"pressure":987.7,"uv_index":8.6,"wind_gusts":24.1,"aqi":74,"pm10":43.7,"pm2_5":43.5,"no2":23.0,"co":301.0,"o3":51.0,"so2":4.9,"mosquito_risk":7,"arthritis_risk":5,"migraine_risk":7,"frizz_risk":1,"updated_at":"2026-07-03T05:38:52.959718+05:30"},{"city":"Durgapur","state":"West Bengal","latitude":23.5204,"longitude":87.3119,"temp":26.4,"humidity":98,"rain":0.0,"pressure":987.9,"uv_index":6.0,"wind_gusts":37.4,"aqi":89,"pm10":41.4,"pm2_5":39.9,"no2":29.6,"co":382.0,"o3":21.0,"so2":31.3,"mosquito_risk":7,"arthritis_risk":5,"migraine_risk":3,"frizz_risk":1,"updated_at":"2026-07-03T05:38:52.959753+05:30"},{"city":"Asansol","state":"West Bengal","latitude":23.6739,"longitude":86.9524,"temp":26.0,"humidity":98,"rain":0.0,"pressure":986.5,"uv_index":6.0,"wind_gusts":35.3,"aqi":86,"pm10":41.0,"pm2_5":40.2,"no2":32.4,"co":372.0,"o3":21.0,"so2":39.0,"mosquito_risk":7,"arthritis_risk":5,"migraine_risk":3,"frizz_risk":1,"updated_at":"2026-07-03T05:38:52.959763+05:30"},{"city":"Pondicherry","state":"Puducherry","latitude":11.9139,"longitude":79.8145,"temp":29.0,"humidity":63,"rain":0.0,"pressure":1006.2,"uv_index":7.65,"wind_gusts":38.9,"aqi":52,"pm10":14.1,"pm2_5":12.3,"no2":15.1,"co":129.0,"o3":36.0,"so2":8.8,"mosquito_risk":7,"arthritis_risk":5,"migraine_risk":4,"frizz_risk":1,"updated_at":"2026-07-03T05:38:52.959772+05:30"},{"city":"Port Blair","state":"Andaman and Nicobar Islands","latitude":11.6234,"longitude":92.7265,"temp":27.5,"humidity":84,"rain":0.0,"pressure":1005.0,"uv_index":6.85,"wind_gusts":49.0,"aqi":41,"pm10":17.3,"pm2_5":8.6,"no2":0.2,"co":96.0,"o3":61.0,"so2":0.5,"mosquito_risk":7,"arthritis_risk":5,"migraine_risk":4,"frizz_risk":1,"updated_at":"2026-07-03T05:38:52.959780+05:30"},{"city":"Haridwar","state":"Uttarakhand","latitude":29.9457,"longitude":78.1642,"temp":26.7,"humidity":88,"rain":0.0,"pressure":969.6,"uv_index":7.1,"wind_gusts":28.1,"aqi":70,"pm10":29.8,"pm2_5":29.1,"no2":28.0,"co":325.0,"o3":31.0,"so2":4.1,"mosquito_risk":7,"arthritis_risk":5,"migraine_risk":7,"frizz_risk":1,"updated_at":"2026-07-03T05:38:52.959788+05:30"},{"city":"Rishikesh","state":"Uttarakhand","latitude":30.0869,"longitude":78.2676,"temp":24.7,"humidity":96,"rain":0.1,"pressure":962.6,"uv_index":6.95,"wind_gusts":22.0,"aqi":53,"pm10":13.4,"pm2_5":12.2,"no2":7.5,"co":303.0,"o3":87.0,"so2":1.1,"mosquito_risk":6,"arthritis_risk":5,"migraine_risk":7,"frizz_risk":1,"updated_at":"2026-07-03T05:38:52.959796+05:30"},{"city":"Nainital","state":"Uttarakhand","latitude":29.3919,"longitude":79.4542,"temp":15.3,"humidity":98,"rain":0.0,"pressure":802.4,"uv_index":7.3,"wind_gusts":26.6,"aqi":86,"pm10":35.3,"pm2_5":33.5,"no2":15.8,"co":356.0,"o3":54.0,"so2":2.6,"mosquito_risk":3,"arthritis_risk":10,"migraine_risk":7,"frizz_risk":0,"updated_at":"2026-07-03T05:38:52.959804+05:30"},{"city":"Mussoorie","state":"Uttarakhand","latitude":30.4599,"longitude":78.0664,"temp":16.4,"humidity":99,"rain":0.2,"pressure":800.3,"uv_index":7.45,"wind_gusts":28.4,"aqi":52,"pm10":16.2,"pm2_5":15.5,"no2":31.9,"co":250.0,"o3":31.0,"so2":4.8,"mosquito_risk":6,"arthritis_risk":10,"migraine_risk":7,"frizz_risk":1,"updated_at":"2026-07-03T05:38:52.959811+05:30"},{"city":"Dharamshala","state":"Himachal Pradesh","latitude":32.219,"longitude":76.3234,"temp":21.9,"humidity":73,"rain":0.0,"pressure":866.0,"uv_index":8.45,"wind_gusts":30.6,"aqi":38,"pm10":6.9,"pm2_5":6.0,"no2":10.9,"co":228.0,"o3":59.0,"so2":0.2,"mosquito_risk":3,"arthritis_risk":5,"migraine_risk":7,"frizz_risk":1,"updated_at":"2026-07-03T05:38:52.959818+05:30"},{"city":"Dalhousie","state":"Himachal Pradesh","latitude":32.5387,"longitude":75.971,"temp":15.9,"humidity":91,"rain":0.0,"pressure":801.2,"uv_index":8.7,"wind_gusts":33.1,"aqi":82,"pm10":26.7,"pm2_5":18.3,"no2":16.0,"co":263.0,"o3":77.0,"so2":2.5,"mosquito_risk":3,"arthritis_risk":10,"migraine_risk":7,"frizz_risk":0,"updated_at":"2026-07-03T05:38:52.959827+05:30"},{"city":"Patiala","state":"Punjab","latitude":30.3398,"longitude":76.3869,"temp":27.3,"humidity":95,"rain":0.0,"pressure":973.2,"uv_index":7.6,"wind_gusts":29.5,"aqi":113,"pm10":32.9,"pm2_5":32.8,"no2":17.8,"co":485.0,"o3":75.0,"so2":8.9,"mosquito_risk":7,"arthritis_risk":5,"migraine_risk":7,"frizz_risk":1,"updated_at":"2026-07-03T05:38:52.959834+05:30"},{"city":"Bhatinda","state":"Punjab","latitude":30.211,"longitude":74.9455,"temp":28.7,"humidity":83,"rain":0.0,"pressure":978.0,"uv_index":8.25,"wind_gusts":36.7,"aqi":154,"pm10":169.0,"pm2_5":46.9,"no2":18.9,"co":448.0,"o3":73.0,"so2":12.7,"mosquito_risk":7,"arthritis_risk":5,"migraine_risk":7,"frizz_risk":1,"updated_at":"2026-07-03T05:38:52.959842+05:30"},{"city":"Rohtak","state":"Haryana","latitude":28.8955,"longitude":76.6066,"temp":25.7,"humidity":94,"rain":0.6,"pressure":975.8,"uv_index":7.0,"wind_gusts":29.2,"aqi":176,"pm10":100.1,"pm2_5":50.6,"no2":23.0,"co":581.0,"o3":71.0,"so2":23.9,"mosquito_risk":10,"arthritis_risk":5,"migraine_risk":7,"frizz_risk":1,"updated_at":"2026-07-03T05:38:52.959849+05:30"},{"city":"Panipat","state":"Haryana","latitude":29.3909,"longitude":76.9635,"temp":26.3,"humidity":95,"rain":0.0,"pressure":974.7,"uv_index":6.9,"wind_gusts":27.7,"aqi":517,"pm10":213.3,"pm2_5":74.3,"no2":17.3,"co":402.0,"o3":71.0,"so2":14.3,"mosquito_risk":7,"arthritis_risk":5,"migraine_risk":7,"frizz_risk":1,"updated_at":"2026-07-03T05:38:52.959856+05:30"},{"city":"Mathura","state":"Uttar Pradesh","latitude":27.4924,"longitude":77.6737,"temp":28.2,"humidity":83,"rain":0.0,"pressure":980.7,"uv_index":6.05,"wind_gusts":22.0,"aqi":152,"pm10":75.4,"pm2_5":45.1,"no2":25.8,"co":413.0,"o3":49.0,"so2":7.7,"mosquito_risk":7,"arthritis_risk":5,"migraine_risk":7,"frizz_risk":1,"updated_at":"2026-07-03T05:38:52.959863+05:30"},{"city":"Vrindavan","state":"Uttar Pradesh","latitude":27.5823,"longitude":77.7027,"temp":28.2,"humidity":85,"rain":0.0,"pressure":981.2,"uv_index":6.15,"wind_gusts":22.0,"aqi":152,"pm10":75.4,"pm2_5":45.1,"no2":25.8,"co":385.0,"o3":49.0,"so2":7.7,"mosquito_risk":7,"arthritis_risk":5,"migraine_risk":7,"frizz_risk":1,"updated_at":"2026-07-03T05:38:52.959870+05:30"},{"city":"Ayodhya","state":"Uttar Pradesh","latitude":26.7922,"longitude":82.1998,"temp":26.0,"humidity":97,"rain":0.1,"pressure":990.2,"uv_index":6.8,"wind_gusts":35.3,"aqi":96,"pm10":45.5,"pm2_5":45.4,"no2":23.6,"co":422.0,"o3":45.0,"so2":7.0,"mosquito_risk":10,"arthritis_risk":5,"migraine_risk":7,"frizz_risk":1,"updated_at":"2026-07-03T05:38:52.959877+05:30"},{"city":"Ratlam","state":"Madhya Pradesh","latitude":23.3315,"longitude":75.0367,"temp":24.4,"humidity":97,"rain":0.0,"pressure":949.2,"uv_index":1.15,"wind_gusts":36.0,"aqi":54,"pm10":15.1,"pm2_5":14.1,"no2":9.5,"co":192.0,"o3":41.0,"so2":7.2,"mosquito_risk":3,"arthritis_risk":5,"migraine_risk":3,"frizz_risk":1,"updated_at":"2026-07-03T05:38:52.959884+05:30"},{"city":"Sagar","state":"Madhya Pradesh","latitude":23.8388,"longitude":78.7378,"temp":23.5,"humidity":97,"rain":0.1,"pressure":943.6,"uv_index":8.3,"wind_gusts":34.6,"aqi":54,"pm10":16.1,"pm2_5":10.6,"no2":5.8,"co":221.0,"o3":78.0,"so2":2.2,"mosquito_risk":6,"arthritis_risk":5,"migraine_risk":7,"frizz_risk":1,"updated_at":"2026-07-03T05:38:52.959892+05:30"},{"city":"Satna","state":"Madhya Pradesh","latitude":24.6005,"longitude":80.8322,"temp":24.5,"humidity":97,"rain":0.0,"pressure":964.5,"uv_index":8.1,"wind_gusts":29.5,"aqi":77,"pm10":11.6,"pm2_5":11.6,"no2":5.7,"co":214.0,"o3":98.0,"so2":3.2,"mosquito_risk":3,"arthritis_risk":5,"migraine_risk":7,"frizz_risk":1,"updated_at":"2026-07-03T05:38:52.959898+05:30"},{"city":"Akola","state":"Maharashtra","latitude":20.7002,"longitude":77.0082,"temp":24.9,"humidity":91,"rain":0.0,"pressure":969.7,"uv_index":6.6,"wind_gusts":42.1,"aqi":21,"pm10":3.1,"pm2_5":2.9,"no2":8.7,"co":135.0,"o3":34.0,"so2":7.6,"mosquito_risk":3,"arthritis_risk":5,"migraine_risk":7,"frizz_risk":1,"updated_at":"2026-07-03T05:38:52.959906+05:30"},{"city":"Amravati","state":"Maharashtra","latitude":20.9374,"longitude":77.7796,"temp":24.1,"humidity":98,"rain":0.1,"pressure":961.5,"uv_index":2.8,"wind_gusts":44.3,"aqi":21,"pm10":2.9,"pm2_5":2.8,"no2":9.0,"co":145.0,"o3":34.0,"so2":8.4,"mosquito_risk":6,"arthritis_risk":5,"migraine_risk":3,"frizz_risk":1,"updated_at":"2026-07-03T05:38:52.959915+05:30"},{"city":"Latur","state":"Maharashtra","latitude":18.4088,"longitude":76.5604,"temp":23.4,"humidity":90,"rain":0.0,"pressure":935.4,"uv_index":1.35,"wind_gusts":55.1,"aqi":19,"pm10":3.0,"pm2_5":2.5,"no2":5.0,"co":129.0,"o3":40.0,"so2":2.1,"mosquito_risk":3,"arthritis_risk":5,"migraine_risk":3,"frizz_risk":1,"updated_at":"2026-07-03T05:38:52.959922+05:30"},{"city":"Nanded","state":"Maharashtra","latitude":19.1383,"longitude":77.3091,"temp":25.4,"humidity":83,"rain":0.0,"pressure":963.8,"uv_index":0.65,"wind_gusts":46.1,"aqi":27,"pm10":3.4,"pm2_5":3.0,"no2":7.0,"co":132.0,"o3":36.0,"so2":3.4,"mosquito_risk":7,"arthritis_risk":5,"migraine_risk":3,"frizz_risk":1,"updated_at":"2026-07-03T05:38:52.959930+05:30"},{"city":"Gulbarga","state":"Karnataka","latitude":17.3297,"longitude":76.8343,"temp":24.0,"humidity":85,"rain":0.0,"pressure":955.4,"uv_index":4.4,"wind_gusts":58.3,"aqi":18,"pm10":4.3,"pm2_5":3.1,"no2":5.6,"co":134.0,"o3":39.0,"so2":2.8,"mosquito_risk":3,"arthritis_risk":5,"migraine_risk":3,"frizz_risk":1,"updated_at":"2026-07-03T05:38:52.959937+05:30"},{"city":"Bidar","state":"Karnataka","latitude":17.9104,"longitude":77.5199,"temp":22.6,"humidity":96,"rain":0.1,"pressure":931.1,"uv_index":1.45,"wind_gusts":58.7,"aqi":21,"pm10":3.9,"pm2_5":3.2,"no2":6.0,"co":120.0,"o3":38.0,"so2":2.1,"mosquito_risk":6,"arthritis_risk":5,"migraine_risk":3,"frizz_risk":1,"updated_at":"2026-07-03T05:38:52.959943+05:30"},{"city":"Hospet","state":"Karnataka","latitude":15.2689,"longitude":76.3909,"temp":23.5,"humidity":89,"rain":0.0,"pressure":953.8,"uv_index":4.45,"wind_gusts":65.5,"aqi":20,"pm10":3.8,"pm2_5":2.3,"no2":2.9,"co":102.0,"o3":44.0,"so2":1.5,"mosquito_risk":3,"arthritis_risk":5,"migraine_risk":3,"frizz_risk":1,"updated_at":"2026-07-03T05:38:52.959951+05:30"},{"city":"Tirupur","state":"Tamil Nadu","latitude":11.1085,"longitude":77.3411,"temp":23.6,"humidity":89,"rain":0.0,"pressure":974.5,"uv_index":7.5,"wind_gusts":61.9,"aqi":33,"pm10":10.6,"pm2_5":9.1,"no2":13.5,"co":116.0,"o3":26.0,"so2":3.6,"mosquito_risk":3,"arthritis_risk":5,"migraine_risk":7,"frizz_risk":1,"updated_at":"2026-07-03T05:38:52.959957+05:30"},{"city":"Alappuzha","state":"Kerala","latitude":9.4981,"longitude":76.3388,"temp":25.1,"humidity":93,"rain":0.3,"pressure":1010.3,"uv_index":8.35,"wind_gusts":41.0,"aqi":39,"pm10":12.1,"pm2_5":7.3,"no2":5.8,"co":83.0,"o3":34.0,"so2":2.2,"mosquito_risk":10,"arthritis_risk":0,"migraine_risk":4,"frizz_risk":1,"updated_at":"2026-07-03T05:38:52.959965+05:30"},{"city":"Munnar","state":"Kerala","latitude":10.0889,"longitude":77.0595,"temp":16.6,"humidity":100,"rain":0.2,"pressure":856.6,"uv_index":0.75,"wind_gusts":49.0,"aqi":16,"pm10":1.6,"pm2_5":1.3,"no2":3.4,"co":87.0,"o3":30.0,"so2":1.3,"mosquito_risk":6,"arthritis_risk":10,"migraine_risk":3,"frizz_risk":1,"updated_at":"2026-07-03T05:38:52.959972+05:30"},{"city":"Silchar","state":"Assam","latitude":24.8333,"longitude":92.7789,"temp":25.7,"humidity":97,"rain":0.2,"pressure":1000.7,"uv_index":8.75,"wind_gusts":22.0,"aqi":73,"pm10":24.4,"pm2_5":24.0,"no2":10.1,"co":202.0,"o3":52.0,"so2":6.4,"mosquito_risk":10,"arthritis_risk":5,"migraine_risk":4,"frizz_risk":1,"updated_at":"2026-07-03T05:38:52.959979+05:30"},{"city":"Dibrugarh","state":"Assam","latitude":27.4728,"longitude":94.912,"temp":26.9,"humidity":96,"rain":0.0,"pressure":991.3,"uv_index":8.85,"wind_gusts":15.5,"aqi":51,"pm10":18.6,"pm2_5":18.0,"no2":13.9,"co":208.0,"o3":35.0,"so2":1.4,"mosquito_risk":7,"arthritis_risk":5,"migraine_risk":7,"frizz_risk":1,"updated_at":"2026-07-03T05:38:52.959986+05:30"}]