[{"city":"Delhi","state":"Delhi","latitude":28.6139,"longitude":77.209,"temp":29.4,"humidity":35,"rain":0.0,"pressure":978.5,"uv_index":7.7,"wind_gusts":47.9,"aqi":566,"pm10":586.7,"pm2_5":159.3,"no2":27.0,"co":435.0,"o3":53.0,"so2":13.8,"mosquito_risk":4,"arthritis_risk":5,"migraine_risk":7,"frizz_risk":0,"updated_at":"2026-05-17T05:26:02.492220+05:30"},{"city":"Mumbai","state":"Maharashtra","latitude":19.076,"longitude":72.8777,"temp":28.6,"humidity":85,"rain":0.0,"pressure":1005.1,"uv_index":7.35,"wind_gusts":45.0,"aqi":58,"pm10":38.5,"pm2_5":15.4,"no2":8.7,"co":186.0,"o3":47.0,"so2":3.1,"mosquito_risk":7,"arthritis_risk":5,"migraine_risk":4,"frizz_risk":1,"updated_at":"2026-05-17T05:26:02.492258+05:30"},{"city":"Bangalore","state":"Karnataka","latitude":12.9716,"longitude":77.5946,"temp":22.2,"humidity":93,"rain":0.0,"pressure":907.9,"uv_index":9.45,"wind_gusts":35.3,"aqi":133,"pm10":59.0,"pm2_5":46.8,"no2":53.4,"co":496.0,"o3":13.0,"so2":13.0,"mosquito_risk":3,"arthritis_risk":5,"migraine_risk":7,"frizz_risk":1,"updated_at":"2026-05-17T05:26:02.492270+05:30"},{"city":"Hyderabad","state":"Telangana","latitude":17.385,"longitude":78.4867,"temp":28.0,"humidity":61,"rain":0.0,"pressure":949.9,"uv_index":9.3,"wind_gusts":28.4,"aqi":107,"pm10":16.6,"pm2_5":11.6,"no2":13.9,"co":201.0,"o3":36.0,"so2":3.7,"mosquito_risk":7,"arthritis_risk":5,"migraine_risk":7,"frizz_risk":1,"updated_at":"2026-05-17T05:26:02.492278+05:30"},{"city":"Chennai","state":"Tamil Nadu","latitude":13.0827,"longitude":80.2707,"temp":28.0,"humidity":85,"rain":0.0,"pressure":1003.0,"uv_index":9.15,"wind_gusts":41.8,"aqi":42,"pm10":26.0,"pm2_5":19.2,"no2":8.9,"co":222.0,"o3":86.0,"so2":9.2,"mosquito_risk":7,"arthritis_risk":5,"migraine_risk":4,"frizz_risk":1,"updated_at":"2026-05-17T05:26:02.492284+05:30"},{"city":"Kolkata","state":"West Bengal","latitude":22.5726,"longitude":88.3639,"temp":28.0,"humidity":90,"rain":0.0,"pressure":1002.0,"uv_index":8.95,"wind_gusts":35.3,"aqi":59,"pm10":20.0,"pm2_5":13.6,"no2":8.3,"co":219.0,"o3":37.0,"so2":5.0,"mosquito_risk":7,"arthritis_risk":5,"migraine_risk":4,"frizz_risk":1,"updated_at":"2026-05-17T05:26:02.492290+05:30"},{"city":"Pune","state":"Maharashtra","latitude":18.5204,"longitude":73.8567,"temp":25.1,"humidity":85,"rain":0.0,"pressure":944.8,"uv_index":8.5,"wind_gusts":42.1,"aqi":65,"pm10":28.8,"pm2_5":20.6,"no2":22.6,"co":237.0,"o3":40.0,"so2":24.0,"mosquito_risk":7,"arthritis_risk":5,"migraine_risk":7,"frizz_risk":1,"updated_at":"2026-05-17T05:26:02.492295+05:30"},{"city":"Ahmedabad","state":"Gujarat","latitude":23.0225,"longitude":72.5714,"temp":30.5,"humidity":59,"rain":0.0,"pressure":998.5,"uv_index":8.15,"wind_gusts":31.0,"aqi":58,"pm10":26.9,"pm2_5":14.6,"no2":4.8,"co":147.0,"o3":46.0,"so2":3.3,"mosquito_risk":0,"arthritis_risk":5,"migraine_risk":7,"frizz_risk":1,"updated_at":"2026-05-17T05:26:02.492300+05:30"},{"city":"Jaipur","state":"Rajasthan","latitude":26.9124,"longitude":75.7873,"temp":29.0,"humidity":33,"rain":0.0,"pressure":956.2,"uv_index":8.25,"wind_gusts":34.9,"aqi":159,"pm10":244.9,"pm2_5":52.6,"no2":11.1,"co":288.0,"o3":54.0,"so2":7.1,"mosquito_risk":4,"arthritis_risk":5,"migraine_risk":7,"frizz_risk":0,"updated_at":"2026-05-17T05:26:02.492309+05:30"},{"city":"Lucknow","state":"Uttar Pradesh","latitude":26.8467,"longitude":80.9462,"temp":28.4,"humidity":48,"rain":0.0,"pressure":988.7,"uv_index":8.2,"wind_gusts":45.0,"aqi":152,"pm10":158.8,"pm2_5":63.8,"no2":45.0,"co":377.0,"o3":18.0,"so2":12.4,"mosquito_risk":4,"arthritis_risk":5,"migraine_risk":7,"frizz_risk":1,"updated_at":"2026-05-17T05:26:02.492314+05:30"},{"city":"Kanpur","state":"Uttar Pradesh","latitude":26.4499,"longitude":80.3319,"temp":29.3,"humidity":41,"rain":0.0,"pressure":987.4,"uv_index":8.2,"wind_gusts":44.3,"aqi":152,"pm10":221.2,"pm2_5":75.7,"no2":46.6,"co":448.0,"o3":11.0,"so2":12.9,"mosquito_risk":4,"arthritis_risk":5,"migraine_risk":7,"frizz_risk":0,"updated_at":"2026-05-17T05:26:02.492319+05:30"},{"city":"Chandigarh","state":"Chandigarh","latitude":30.7333,"longitude":76.7794,"temp":24.5,"humidity":45,"rain":0.0,"pressure":963.7,"uv_index":7.75,"wind_gusts":46.1,"aqi":78,"pm10":36.3,"pm2_5":24.4,"no2":18.7,"co":280.0,"o3":46.0,"so2":5.6,"mosquito_risk":0,"arthritis_risk":5,"migraine_risk":7,"frizz_risk":0,"updated_at":"2026-05-17T05:26:02.492324+05:30"},{"city":"Srinagar","state":"Jammu and Kashmir","latitude":34.0837,"longitude":74.7973,"temp":11.2,"humidity":93,"rain":0.0,"pressure":840.3,"uv_index":8.9,"wind_gusts":16.2,"aqi":84,"pm10":41.4,"pm2_5":37.5,"no2":23.0,"co":369.0,"o3":24.0,"so2":0.4,"mosquito_risk":3,"arthritis_risk":10,"migraine_risk":7,"frizz_risk":0,"updated_at":"2026-05-17T05:26:02.492329+05:30"},{"city":"Jammu","state":"Jammu and Kashmir","latitude":32.7266,"longitude":74.857,"temp":22.2,"humidity":57,"rain":0.0,"pressure":967.6,"uv_index":8.5,"wind_gusts":39.6,"aqi":68,"pm10":24.8,"pm2_5":21.2,"no2":18.5,"co":241.0,"o3":24.0,"so2":1.5,"mosquito_risk":0,"arthritis_risk":5,"migraine_risk":7,"frizz_risk":0,"updated_at":"2026-05-17T05:26:02.492334+05:30"},{"city":"Amritsar","state":"Punjab","latitude":31.634,"longitude":74.8723,"temp":25.1,"humidity":52,"rain":0.0,"pressure":976.2,"uv_index":8.4,"wind_gusts":32.4,"aqi":99,"pm10":63.6,"pm2_5":47.3,"no2":36.0,"co":508.0,"o3":25.0,"so2":7.5,"mosquito_risk":4,"arthritis_risk":5,"migraine_risk":7,"frizz_risk":0,"updated_at":"2026-05-17T05:26:02.492339+05:30"},{"city":"Ludhiana","state":"Punjab","latitude":30.901,"longitude":75.8573,"temp":25.2,"humidity":52,"rain":0.0,"pressure":974.1,"uv_index":8.0,"wind_gusts":37.1,"aqi":101,"pm10":43.9,"pm2_5":34.3,"no2":17.7,"co":518.0,"o3":46.0,"so2":7.2,"mosquito_risk":4,"arthritis_risk":5,"migraine_risk":7,"frizz_risk":0,"updated_at":"2026-05-17T05:26:02.492343+05:30"},{"city":"Jalandhar","state":"Punjab","latitude":31.326,"longitude":75.5762,"temp":23.5,"humidity":63,"rain":0.0,"pressure":975.0,"uv_index":8.15,"wind_gusts":34.9,"aqi":117,"pm10":68.7,"pm2_5":52.4,"no2":32.3,"co":517.0,"o3":22.0,"so2":8.5,"mosquito_risk":3,"arthritis_risk":5,"migraine_risk":7,"frizz_risk":1,"updated_at":"2026-05-17T05:26:02.492348+05:30"},{"city":"Dehradun","state":"Uttarakhand","latitude":30.6284,"longitude":78.0322,"temp":11.0,"humidity":91,"rain":0.0,"pressure":823.5,"uv_index":8.2,"wind_gusts":45.0,"aqi":57,"pm10":21.7,"pm2_5":11.6,"no2":23.5,"co":190.0,"o3":0.0,"so2":0.0,"mosquito_risk":3,"arthritis_risk":10,"migraine_risk":7,"frizz_risk":0,"updated_at":"2026-05-17T05:26:02.492353+05:30"},{"city":"Shimla","state":"Himachal Pradesh","latitude":31.1048,"longitude":77.1734,"temp":11.8,"humidity":55,"rain":0.0,"pressure":779.6,"uv_index":8.25,"wind_gusts":51.8,"aqi":65,"pm10":46.4,"pm2_5":20.6,"no2":22.7,"co":169.0,"o3":46.0,"so2":1.1,"mosquito_risk":0,"arthritis_risk":5,"migraine_risk":7,"frizz_risk":0,"updated_at":"2026-05-17T05:26:02.492359+05:30"},{"city":"Manali","state":"Himachal Pradesh","latitude":32.2396,"longitude":77.1887,"temp":7.6,"humidity":57,"rain":0.0,"pressure":811.1,"uv_index":9.65,"wind_gusts":37.8,"aqi":38,"pm10":9.6,"pm2_5":5.6,"no2":15.0,"co":196.0,"o3":117.0,"so2":0.0,"mosquito_risk":0,"arthritis_risk":5,"migraine_risk":7,"frizz_risk":1,"updated_at":"2026-05-17T05:26:02.492364+05:30"},{"city":"Gurgaon","state":"Haryana","latitude":28.4595,"longitude":77.0266,"temp":26.5,"humidity":46,"rain":0.0,"pressure":977.0,"uv_index":7.8,"wind_gusts":45.7,"aqi":826,"pm10":648.2,"pm2_5":158.3,"no2":33.2,"co":459.0,"o3":41.0,"so2":18.6,"mosquito_risk":4,"arthritis_risk":5,"migraine_risk":7,"frizz_risk":0,"updated_at":"2026-05-17T05:26:02.492369+05:30"},{"city":"Noida","state":"Uttar Pradesh","latitude":28.5355,"longitude":77.391,"temp":27.8,"humidity":43,"rain":0.0,"pressure":979.8,"uv_index":7.75,"wind_gusts":38.2,"aqi":826,"pm10":648.2,"pm2_5":158.3,"no2":33.2,"co":542.0,"o3":41.0,"so2":18.6,"mosquito_risk":4,"arthritis_risk":5,"migraine_risk":7,"frizz_risk":0,"updated_at":"2026-05-17T05:26:02.492373+05:30"},{"city":"Ghaziabad","state":"Uttar Pradesh","latitude":28.6692,"longitude":77.4538,"temp":26.1,"humidity":49,"rain":0.0,"pressure":977.8,"uv_index":7.7,"wind_gusts":43.2,"aqi":401,"pm10":463.8,"pm2_5":136.9,"no2":20.1,"co":446.0,"o3":63.0,"so2":13.5,"mosquito_risk":4,"arthritis_risk":5,"migraine_risk":7,"frizz_risk":0,"updated_at":"2026-05-17T05:26:02.492378+05:30"},{"city":"Faridabad","state":"Haryana","latitude":28.4089,"longitude":77.3178,"temp":29.5,"humidity":34,"rain":0.0,"pressure":979.2,"uv_index":7.8,"wind_gusts":47.9,"aqi":826,"pm10":648.2,"pm2_5":158.3,"no2":33.2,"co":458.0,"o3":41.0,"so2":18.6,"mosquito_risk":4,"arthritis_risk":5,"migraine_risk":7,"frizz_risk":0,"updated_at":"2026-05-17T05:26:02.492382+05:30"},{"city":"Meerut","state":"Uttar Pradesh","latitude":28.9845,"longitude":77.7064,"temp":27.1,"humidity":41,"rain":0.0,"pressure":976.5,"uv_index":7.65,"wind_gusts":45.4,"aqi":401,"pm10":463.8,"pm2_5":136.9,"no2":20.1,"co":346.0,"o3":63.0,"so2":13.5,"mosquito_risk":4,"arthritis_risk":5,"migraine_risk":7,"frizz_risk":0,"updated_at":"2026-05-17T05:26:02.492389+05:30"},{"city":"Agra","state":"Uttar Pradesh","latitude":27.1767,"longitude":78.0081,"temp":27.6,"humidity":42,"rain":0.0,"pressure":983.6,"uv_index":8.05,"wind_gusts":40.3,"aqi":644,"pm10":868.0,"pm2_5":158.3,"no2":22.9,"co":360.0,"o3":38.0,"so2":17.7,"mosquito_risk":4,"arthritis_risk":5,"migraine_risk":7,"frizz_risk":0,"updated_at":"2026-05-17T05:26:02.492393+05:30"},{"city":"Varanasi","state":"Uttar Pradesh","latitude":25.3176,"longitude":82.9739,"temp":29.8,"humidity":46,"rain":0.0,"pressure":992.6,"uv_index":8.7,"wind_gusts":49.0,"aqi":155,"pm10":140.6,"pm2_5":67.3,"no2":49.4,"co":790.0,"o3":20.0,"so2":14.0,"mosquito_risk":4,"arthritis_risk":5,"migraine_risk":7,"frizz_risk":1,"updated_at":"2026-05-17T05:26:02.492398+05:30"},{"city":"Prayagraj","state":"Uttar Pradesh","latitude":25.4358,"longitude":81.8463,"temp":29.0,"humidity":50,"rain":0.0,"pressure":991.5,"uv_index":8.6,"wind_gusts":40.7,"aqi":153,"pm10":153.7,"pm2_5":81.0,"no2":65.6,"co":513.0,"o3":0.0,"so2":15.8,"mosquito_risk":4,"arthritis_risk":5,"migraine_risk":7,"frizz_risk":1,"updated_at":"2026-05-17T05:26:02.492403+05:30"},{"city":"Gorakhpur","state":"Uttar Pradesh","latitude":26.7606,"longitude":83.3732,"temp":24.6,"humidity":86,"rain":0.0,"pressure":992.5,"uv_index":8.6,"wind_gusts":36.4,"aqi":142,"pm10":79.6,"pm2_5":65.0,"no2":30.5,"co":622.0,"o3":34.0,"so2":8.8,"mosquito_risk":3,"arthritis_risk":5,"migraine_risk":7,"frizz_risk":1,"updated_at":"2026-05-17T05:26:02.492409+05:30"},{"city":"Bareilly","state":"Uttar Pradesh","latitude":28.367,"longitude":79.4304,"temp":25.7,"humidity":49,"rain":0.0,"pressure":981.4,"uv_index":8.0,"wind_gusts":38.9,"aqi":118,"pm10":156.0,"pm2_5":61.0,"no2":23.6,"co":417.0,"o3":44.0,"so2":9.5,"mosquito_risk":4,"arthritis_risk":5,"migraine_risk":7,"frizz_risk":0,"updated_at":"2026-05-17T05:26:02.492413+05:30"},{"city":"Aligarh","state":"Uttar Pradesh","latitude":27.8974,"longitude":78.088,"temp":26.9,"humidity":44,"rain":0.0,"pressure":980.8,"uv_index":7.85,"wind_gusts":46.1,"aqi":528,"pm10":644.5,"pm2_5":153.7,"no2":26.5,"co":536.0,"o3":43.0,"so2":19.3,"mosquito_risk":4,"arthritis_risk":5,"migraine_risk":7,"frizz_risk":0,"updated_at":"2026-05-17T05:26:02.492418+05:30"},{"city":"Moradabad","state":"Uttar Pradesh","latitude":28.8386,"longitude":78.7733,"temp":26.0,"humidity":44,"rain":0.0,"pressure":978.4,"uv_index":7.85,"wind_gusts":47.9,"aqi":146,"pm10":156.0,"pm2_5":70.8,"no2":23.3,"co":379.0,"o3":46.0,"so2":8.8,"mosquito_risk":4,"arthritis_risk":5,"migraine_risk":7,"frizz_risk":0,"updated_at":"2026-05-17T05:26:02.492422+05:30"},{"city":"Saharanpur","state":"Uttar Pradesh","latitude":29.9637,"longitude":77.546,"temp":25.3,"humidity":48,"rain":0.0,"pressure":970.6,"uv_index":7.35,"wind_gusts":51.8,"aqi":112,"pm10":77.1,"pm2_5":39.6,"no2":23.9,"co":311.0,"o3":50.0,"so2":8.9,"mosquito_risk":4,"arthritis_risk":5,"migraine_risk":7,"frizz_risk":0,"updated_at":"2026-05-17T05:26:02.492427+05:30"},{"city":"Jhansi","state":"Uttar Pradesh","latitude":25.4484,"longitude":78.5685,"temp":29.5,"humidity":41,"rain":0.0,"pressure":974.3,"uv_index":8.45,"wind_gusts":32.4,"aqi":91,"pm10":231.4,"pm2_5":54.5,"no2":8.9,"co":289.0,"o3":59.0,"so2":6.3,"mosquito_risk":4,"arthritis_risk":5,"migraine_risk":7,"frizz_risk":0,"updated_at":"2026-05-17T05:26:05.828336+05:30"},{"city":"Surat","state":"Gujarat","latitude":21.1702,"longitude":72.8311,"temp":28.6,"humidity":92,"rain":0.0,"pressure":1002.7,"uv_index":7.75,"wind_gusts":38.5,"aqi":84,"pm10":27.6,"pm2_5":20.7,"no2":30.5,"co":287.0,"o3":16.0,"so2":41.0,"mosquito_risk":7,"arthritis_risk":5,"migraine_risk":4,"frizz_risk":1,"updated_at":"2026-05-17T05:26:05.828368+05:30"},{"city":"Vadodara","state":"Gujarat","latitude":22.3072,"longitude":73.1812,"temp":29.9,"humidity":63,"rain":0.0,"pressure":1000.4,"uv_index":8.1,"wind_gusts":29.5,"aqi":70,"pm10":26.9,"pm2_5":19.3,"no2":18.4,"co":205.0,"o3":26.0,"so2":12.7,"mosquito_risk":7,"arthritis_risk":5,"migraine_risk":4,"frizz_risk":1,"updated_at":"2026-05-17T05:26:05.828377+05:30"},{"city":"Rajkot","state":"Gujarat","latitude":22.3039,"longitude":70.8022,"temp":25.9,"humidity":94,"rain":0.0,"pressure":991.8,"uv_index":7.6,"wind_gusts":40.7,"aqi":52,"pm10":26.1,"pm2_5":9.4,"no2":6.5,"co":117.0,"o3":39.0,"so2":4.2,"mosquito_risk":7,"arthritis_risk":5,"migraine_risk":7,"frizz_risk":1,"updated_at":"2026-05-17T05:26:05.828384+05:30"},{"city":"Thane","state":"Maharashtra","latitude":19.2183,"longitude":72.9781,"temp":28.0,"humidity":89,"rain":0.0,"pressure":1004.5,"uv_index":7.5,"wind_gusts":38.5,"aqi":58,"pm10":38.5,"pm2_5":15.4,"no2":8.7,"co":145.0,"o3":47.0,"so2":3.1,"mosquito_risk":7,"arthritis_risk":5,"migraine_risk":4,"frizz_risk":1,"updated_at":"2026-05-17T05:26:05.828390+05:30"},{"city":"Nagpur","state":"Maharashtra","latitude":21.1458,"longitude":79.0882,"temp":31.4,"humidity":49,"rain":0.0,"pressure":969.7,"uv_index":9.0,"wind_gusts":41.8,"aqi":112,"pm10":44.4,"pm2_5":37.4,"no2":14.1,"co":254.0,"o3":73.0,"so2":22.5,"mosquito_risk":0,"arthritis_risk":5,"migraine_risk":7,"frizz_risk":1,"updated_at":"2026-05-17T05:26:05.828395+05:30"},{"city":"Nashik","state":"Maharashtra","latitude":19.9975,"longitude":73.7898,"temp":24.4,"humidity":76,"rain":0.0,"pressure":942.4,"uv_index":8.2,"wind_gusts":41.8,"aqi":58,"pm10":35.6,"pm2_5":18.9,"no2":13.4,"co":173.0,"o3":46.0,"so2":4.0,"mosquito_risk":3,"arthritis_risk":5,"migraine_risk":7,"frizz_risk":1,"updated_at":"2026-05-17T05:26:05.828401+05:30"},{"city":"Aurangabad","state":"Maharashtra","latitude":19.8762,"longitude":75.3433,"temp":30.3,"humidity":29,"rain":0.0,"pressure":940.5,"uv_index":9.05,"wind_gusts":38.2,"aqi":52,"pm10":26.7,"pm2_5":15.5,"no2":9.5,"co":164.0,"o3":86.0,"so2":8.4,"mosquito_risk":0,"arthritis_risk":5,"migraine_risk":7,"frizz_risk":0,"updated_at":"2026-05-17T05:26:05.828407+05:30"},{"city":"Solapur","state":"Maharashtra","latitude":17.6599,"longitude":75.9064,"temp":28.8,"humidity":51,"rain":0.0,"pressure":952.8,"uv_index":9.1,"wind_gusts":35.3,"aqi":73,"pm10":32.8,"pm2_5":28.8,"no2":16.6,"co":394.0,"o3":58.0,"so2":9.6,"mosquito_risk":4,"arthritis_risk":5,"migraine_risk":7,"frizz_risk":1,"updated_at":"2026-05-17T05:26:05.828413+05:30"},{"city":"Kolhapur","state":"Maharashtra","latitude":16.705,"longitude":74.2433,"temp":25.0,"humidity":91,"rain":0.0,"pressure":944.5,"uv_index":8.95,"wind_gusts":45.7,"aqi":64,"pm10":18.3,"pm2_5":12.5,"no2":7.0,"co":154.0,"o3":46.0,"so2":3.0,"mosquito_risk":7,"arthritis_risk":5,"migraine_risk":7,"frizz_risk":1,"updated_at":"2026-05-17T05:26:05.828419+05:30"},{"city":"Goa","state":"Goa","latitude":15.2993,"longitude":74.124,"temp":27.5,"humidity":89,"rain":0.0,"pressure":993.9,"uv_index":8.9,"wind_gusts":37.1,"aqi":60,"pm10":28.9,"pm2_5":16.9,"no2":5.1,"co":296.0,"o3":42.0,"so2":1.7,"mosquito_risk":7,"arthritis_risk":5,"migraine_risk":7,"frizz_risk":1,"updated_at":"2026-05-17T05:26:05.828425+05:30"},{"city":"Jodhpur","state":"Rajasthan","latitude":26.2389,"longitude":73.0243,"temp":31.9,"humidity":29,"rain":0.0,"pressure":979.1,"uv_index":8.4,"wind_gusts":31.3,"aqi":107,"pm10":90.1,"pm2_5":19.0,"no2":6.1,"co":170.0,"o3":58.0,"so2":3.0,"mosquito_risk":0,"arthritis_risk":5,"migraine_risk":7,"frizz_risk":0,"updated_at":"2026-05-17T05:26:05.828431+05:30"},{"city":"Udaipur","state":"Rajasthan","latitude":24.5854,"longitude":73.7125,"temp":29.7,"humidity":35,"rain":0.0,"pressure":943.5,"uv_index":8.85,"wind_gusts":29.5,"aqi":54,"pm10":19.6,"pm2_5":10.5,"no2":5.2,"co":153.0,"o3":40.0,"so2":3.1,"mosquito_risk":4,"arthritis_risk":5,"migraine_risk":7,"frizz_risk":0,"updated_at":"2026-05-17T05:26:05.828437+05:30"},{"city":"Kota","state":"Rajasthan","latitude":25.2138,"longitude":75.8648,"temp":30.1,"humidity":35,"rain":0.0,"pressure":974.9,"uv_index":8.4,"wind_gusts":35.3,"aqi":74,"pm10":70.3,"pm2_5":29.8,"no2":13.1,"co":279.0,"o3":33.0,"so2":3.7,"mosquito_risk":0,"arthritis_risk":5,"migraine_risk":7,"frizz_risk":0,"updated_at":"2026-05-17T05:26:05.828443+05:30"},{"city":"Bikaner","state":"Rajasthan","latitude":28.0229,"longitude":73.3119,"temp":29.2,"humidity":29,"rain":0.0,"pressure":977.6,"uv_index":8.4,"wind_gusts":34.6,"aqi":94,"pm10":93.8,"pm2_5":25.6,"no2":5.5,"co":200.0,"o3":43.0,"so2":1.4,"mosquito_risk":4,"arthritis_risk":5,"migraine_risk":7,"frizz_risk":0,"updated_at":"2026-05-17T05:26:05.828449+05:30"},{"city":"Ajmer","state":"Rajasthan","latitude":26.4499,"longitude":74.6399,"temp":29.9,"humidity":32,"rain":0.0,"pressure":951.4,"uv_index":8.4,"wind_gusts":34.6,"aqi":83,"pm10":77.3,"pm2_5":31.5,"no2":16.4,"co":176.0,"o3":37.0,"so2":4.8,"mosquito_risk":4,"arthritis_risk":5,"migraine_risk":7,"frizz_risk":0,"updated_at":"2026-05-17T05:26:05.828454+05:30"},{"city":"Gwalior","state":"Madhya Pradesh","latitude":26.2183,"longitude":78.1828,"temp":29.9,"humidity":40,"rain":0.0,"pressure":979.3,"uv_index":8.25,"wind_gusts":44.6,"aqi":143,"pm10":760.0,"pm2_5":129.5,"no2":15.2,"co":376.0,"o3":65.0,"so2":12.8,"mosquito_risk":4,"arthritis_risk":5,"migraine_risk":7,"frizz_risk":0,"updated_at":"2026-05-17T05:26:05.828460+05:30"},{"city":"Indore","state":"Madhya Pradesh","latitude":22.7196,"longitude":75.8577,"temp":29.1,"humidity":32,"rain":0.0,"pressure":945.0,"uv_index":8.7,"wind_gusts":38.5,"aqi":48,"pm10":19.0,"pm2_5":12.5,"no2":4.5,"co":249.0,"o3":77.0,"so2":4.1,"mosquito_risk":4,"arthritis_risk":5,"migraine_risk":7,"frizz_risk":0,"updated_at":"2026-05-17T05:26:05.828466+05:30"},{"city":"Bhopal","state":"Madhya Pradesh","latitude":23.2599,"longitude":77.4126,"temp":30.4,"humidity":32,"rain":0.0,"pressure":950.1,"uv_index":8.7,"wind_gusts":33.5,"aqi":50,"pm10":14.8,"pm2_5":11.1,"no2":4.4,"co":239.0,"o3":68.0,"so2":3.5,"mosquito_risk":0,"arthritis_risk":5,"migraine_risk":7,"frizz_risk":0,"updated_at":"2026-05-17T05:26:05.828471+05:30"},{"city":"Jabalpur","state":"Madhya Pradesh","latitude":23.1815,"longitude":79.9864,"temp":30.4,"humidity":48,"rain":0.0,"pressure":957.5,"uv_index":8.9,"wind_gusts":35.6,"aqi":112,"pm10":54.0,"pm2_5":43.1,"no2":20.3,"co":310.0,"o3":57.0,"so2":7.0,"mosquito_risk":0,"arthritis_risk":5,"migraine_risk":7,"frizz_risk":1,"updated_at":"2026-05-17T05:26:05.828476+05:30"},{"city":"Ujjain","state":"Madhya Pradesh","latitude":23.1765,"longitude":75.7885,"temp":28.6,"humidity":33,"rain":0.0,"pressure":950.3,"uv_index":8.65,"wind_gusts":34.6,"aqi":50,"pm10":21.3,"pm2_5":13.7,"no2":4.0,"co":266.0,"o3":75.0,"so2":4.2,"mosquito_risk":4,"arthritis_risk":5,"migraine_risk":7,"frizz_risk":0,"updated_at":"2026-05-17T05:26:05.828482+05:30"},{"city":"Visakhapatnam","state":"Andhra Pradesh","latitude":17.6868,"longitude":83.2185,"temp":27.5,"humidity":92,"rain":0.0,"pressure":1000.3,"uv_index":8.7,"wind_gusts":45.4,"aqi":61,"pm10":19.5,"pm2_5":16.2,"no2":25.0,"co":389.0,"o3":36.0,"so2":40.5,"mosquito_risk":7,"arthritis_risk":5,"migraine_risk":4,"frizz_risk":1,"updated_at":"2026-05-17T05:26:05.828488+05:30"},{"city":"Vijayawada","state":"Andhra Pradesh","latitude":16.5062,"longitude":80.648,"temp":28.5,"humidity":86,"rain":0.0,"pressure":998.5,"uv_index":9.15,"wind_gusts":33.5,"aqi":46,"pm10":16.3,"pm2_5":14.6,"no2":11.4,"co":266.0,"o3":43.0,"so2":5.0,"mosquito_risk":7,"arthritis_risk":5,"migraine_risk":7,"frizz_risk":1,"updated_at":"2026-05-17T05:26:05.828493+05:30"},{"city":"Guntur","state":"Andhra Pradesh","latitude":16.3067,"longitude":80.4365,"temp":28.5,"humidity":87,"rain":0.0,"pressure":999.7,"uv_index":9.2,"wind_gusts":33.8,"aqi":48,"pm10":13.4,"pm2_5":11.7,"no2":9.9,"co":244.0,"o3":46.0,"so2":3.4,"mosquito_risk":7,"arthritis_risk":5,"migraine_risk":7,"frizz_risk":1,"updated_at":"2026-05-17T05:26:05.828498+05:30"},{"city":"Nellore","state":"Andhra Pradesh","latitude":14.4426,"longitude":79.9865,"temp":28.2,"humidity":88,"rain":0.0,"pressure":1001.5,"uv_index":9.15,"wind_gusts":38.2,"aqi":37,"pm10":15.1,"pm2_5":11.5,"no2":8.4,"co":251.0,"o3":65.0,"so2":10.6,"mosquito_risk":7,"arthritis_risk":5,"migraine_risk":4,"frizz_risk":1,"updated_at":"2026-05-17T05:26:05.828504+05:30"},{"city":"Kurnool","state":"Andhra Pradesh","latitude":15.8281,"longitude":78.0373,"temp":30.0,"humidity":68,"rain":0.0,"pressure":973.1,"uv_index":9.2,"wind_gusts":33.5,"aqi":94,"pm10":10.1,"pm2_5":6.7,"no2":6.3,"co":158.0,"o3":43.0,"so2":1.9,"mosquito_risk":7,"arthritis_risk":5,"migraine_risk":7,"frizz_risk":1,"updated_at":"2026-05-17T05:26:05.828509+05:30"},{"city":"Kakinada","state":"Andhra Pradesh","latitude":16.9891,"longitude":82.2475,"temp":28.4,"humidity":88,"rain":0.0,"pressure":1003.9,"uv_index":8.75,"wind_gusts":39.2,"aqi":32,"pm10":12.0,"pm2_5":8.0,"no2":3.1,"co":378.0,"o3":69.0,"so2":2.1,"mosquito_risk":7,"arthritis_risk":5,"migraine_risk":4,"frizz_risk":1,"updated_at":"2026-05-17T05:26:05.828515+05:30"},{"city":"Tirupati","state":"Andhra Pradesh","latitude":13.6288,"longitude":79.4192,"temp":27.0,"humidity":87,"rain":0.0,"pressure":987.1,"uv_index":9.2,"wind_gusts":36.7,"aqi":53,"pm10":29.8,"pm2_5":27.5,"no2":27.9,"co":379.0,"o3":18.0,"so2":10.1,"mosquito_risk":7,"arthritis_risk":5,"migraine_risk":7,"frizz_risk":1,"updated_at":"2026-05-17T05:26:05.828520+05:30"},{"city":"Warangal","state":"Telangana","latitude":17.9689,"longitude":79.5941,"temp":27.9,"humidity":80,"rain":0.0,"pressure":975.2,"uv_index":8.8,"wind_gusts":30.6,"aqi":81,"pm10":15.5,"pm2_5":13.3,"no2":12.4,"co":198.0,"o3":42.0,"so2":8.8,"mosquito_risk":7,"arthritis_risk":5,"migraine_risk":7,"frizz_risk":1,"updated_at":"2026-05-17T05:26:05.828525+05:30"},{"city":"Nizamabad","state":"Telangana","latitude":18.6725,"longitude":78.0941,"temp":28.5,"humidity":57,"rain":0.0,"pressure":960.9,"uv_index":9.15,"wind_gusts":33.1,"aqi":78,"pm10":41.6,"pm2_5":33.9,"no2":13.8,"co":362.0,"o3":61.0,"so2":6.2,"mosquito_risk":4,"arthritis_risk":5,"migraine_risk":7,"frizz_risk":1,"updated_at":"2026-05-17T05:26:05.828530+05:30"},{"city":"Mysore","state":"Karnataka","latitude":12.2958,"longitude":76.6396,"temp":21.4,"humidity":98,"rain":0.0,"pressure":924.3,"uv_index":8.0,"wind_gusts":28.4,"aqi":97,"pm10":27.4,"pm2_5":23.7,"no2":22.1,"co":439.0,"o3":39.0,"so2":3.4,"mosquito_risk":3,"arthritis_risk":5,"migraine_risk":7,"frizz_risk":1,"updated_at":"2026-05-17T05:26:05.828535+05:30"},{"city":"Mangalore","state":"Karnataka","latitude":12.9141,"longitude":74.856,"temp":25.8,"humidity":95,"rain":0.0,"pressure":1002.7,"uv_index":8.7,"wind_gusts":40.3,"aqi":64,"pm10":27.8,"pm2_5":23.6,"no2":17.0,"co":335.0,"o3":22.0,"so2":3.2,"mosquito_risk":7,"arthritis_risk":5,"migraine_risk":4,"frizz_risk":1,"updated_at":"2026-05-17T05:26:05.828540+05:30"},{"city":"Hubli-Dharwad","state":"Karnataka","latitude":15.3647,"longitude":75.124,"temp":24.2,"humidity":92,"rain":0.0,"pressure":937.3,"uv_index":9.15,"wind_gusts":46.4,"aqi":61,"pm10":12.7,"pm2_5":9.1,"no2":8.5,"co":158.0,"o3":29.0,"so2":1.9,"mosquito_risk":3,"arthritis_risk":5,"migraine_risk":7,"frizz_risk":1,"updated_at":"2026-05-17T05:26:05.828545+05:30"},{"city":"Belgaum","state":"Karnataka","latitude":15.8497,"longitude":74.4977,"temp":22.5,"humidity":99,"rain":0.0,"pressure":922.1,"uv_index":9.15,"wind_gusts":42.5,"aqi":62,"pm10":15.9,"pm2_5":11.3,"no2":8.7,"co":162.0,"o3":34.0,"so2":1.6,"mosquito_risk":3,"arthritis_risk":5,"migraine_risk":7,"frizz_risk":1,"updated_at":"2026-05-17T05:26:09.168482+05:30"},{"city":"Coimbatore","state":"Tamil Nadu","latitude":11.0168,"longitude":76.9558,"temp":23.6,"humidity":96,"rain":0.0,"pressure":957.7,"uv_index":8.4,"wind_gusts":54.4,"aqi":76,"pm10":29.0,"pm2_5":19.7,"no2":18.0,"co":300.0,"o3":28.0,"so2":3.5,"mosquito_risk":3,"arthritis_risk":5,"migraine_risk":7,"frizz_risk":1,"updated_at":"2026-05-17T05:26:09.168513+05:30"},{"city":"Madurai","state":"Tamil Nadu","latitude":9.9252,"longitude":78.1198,"temp":28.0,"humidity":81,"rain":0.0,"pressure":988.9,"uv_index":8.8,"wind_gusts":33.8,"aqi":94,"pm10":66.4,"pm2_5":45.4,"no2":48.4,"co":568.0,"o3":4.0,"so2":8.7,"mosquito_risk":7,"arthritis_risk":5,"migraine_risk":7,"frizz_risk":1,"updated_at":"2026-05-17T05:26:09.168522+05:30"},{"city":"Trichy","state":"Tamil Nadu","latitude":10.7905,"longitude":78.7047,"temp":26.6,"humidity":88,"rain":0.0,"pressure":995.7,"uv_index":7.65,"wind_gusts":33.8,"aqi":82,"pm10":43.7,"pm2_5":35.7,"no2":25.5,"co":433.0,"o3":33.0,"so2":5.6,"mosquito_risk":7,"arthritis_risk":5,"migraine_risk":7,"frizz_risk":1,"updated_at":"2026-05-17T05:26:09.168529+05:30"},{"city":"Salem","state":"Tamil Nadu","latitude":11.6643,"longitude":78.146,"temp":26.0,"humidity":83,"rain":0.0,"pressure":973.5,"uv_index":8.5,"wind_gusts":25.2,"aqi":118,"pm10":54.1,"pm2_5":39.8,"no2":22.7,"co":418.0,"o3":39.0,"so2":7.4,"mosquito_risk":7,"arthritis_risk":5,"migraine_risk":7,"frizz_risk":1,"updated_at":"2026-05-17T05:26:09.168536+05:30"},{"city":"Tirunelveli","state":"Tamil Nadu","latitude":8.7139,"longitude":77.7567,"temp":28.1,"humidity":75,"rain":0.0,"pressure":998.9,"uv_index":8.8,"wind_gusts":25.6,"aqi":56,"pm10":12.2,"pm2_5":11.1,"no2":7.7,"co":431.0,"o3":46.0,"so2":1.9,"mosquito_risk":7,"arthritis_risk":5,"migraine_risk":7,"frizz_risk":1,"updated_at":"2026-05-17T05:26:09.168542+05:30"},{"city":"Vellore","state":"Tamil Nadu","latitude":12.9165,"longitude":79.1325,"temp":26.1,"humidity":92,"rain":0.0,"pressure":980.4,"uv_index":9.2,"wind_gusts":26.6,"aqi":87,"pm10":61.9,"pm2_5":58.6,"no2":33.2,"co":352.0,"o3":23.0,"so2":16.7,"mosquito_risk":7,"arthritis_risk":5,"migraine_risk":7,"frizz_risk":1,"updated_at":"2026-05-17T05:26:09.168549+05:30"},{"city":"Erode","state":"Tamil Nadu","latitude":11.341,"longitude":77.7172,"temp":25.5,"humidity":88,"rain":0.0,"pressure":985.3,"uv_index":8.55,"wind_gusts":43.6,"aqi":93,"pm10":28.4,"pm2_5":22.6,"no2":29.0,"co":304.0,"o3":40.0,"so2":4.5,"mosquito_risk":7,"arthritis_risk":5,"migraine_risk":7,"frizz_risk":1,"updated_at":"2026-05-17T05:26:09.168555+05:30"},{"city":"Kochi","state":"Kerala","latitude":9.9312,"longitude":76.2673,"temp":26.7,"humidity":93,"rain":0.0,"pressure":1004.5,"uv_index":8.75,"wind_gusts":31.7,"aqi":59,"pm10":17.6,"pm2_5":15.7,"no2":17.0,"co":203.0,"o3":26.0,"so2":5.0,"mosquito_risk":7,"arthritis_risk":5,"migraine_risk":4,"frizz_risk":1,"updated_at":"2026-05-17T05:26:09.168561+05:30"},{"city":"Thiruvananthapuram","state":"Kerala","latitude":8.5241,"longitude":76.9366,"temp":25.5,"humidity":92,"rain":0.0,"pressure":1004.4,"uv_index":8.15,"wind_gusts":31.3,"aqi":51,"pm10":15.3,"pm2_5":10.5,"no2":4.7,"co":249.0,"o3":75.0,"so2":2.5,"mosquito_risk":7,"arthritis_risk":5,"migraine_risk":4,"frizz_risk":1,"updated_at":"2026-05-17T05:26:09.168566+05:30"},{"city":"Kozhikode","state":"Kerala","latitude":11.2588,"longitude":75.7804,"temp":25.9,"humidity":93,"rain":0.0,"pressure":1003.6,"uv_index":8.9,"wind_gusts":34.6,"aqi":57,"pm10":17.4,"pm2_5":11.8,"no2":3.0,"co":520.0,"o3":72.0,"so2":1.4,"mosquito_risk":7,"arthritis_risk":5,"migraine_risk":4,"frizz_risk":1,"updated_at":"2026-05-17T05:26:09.168572+05:30"},{"city":"Thrissur","state":"Kerala","latitude":10.5276,"longitude":76.2144,"temp":25.2,"humidity":97,"rain":0.0,"pressure":1003.1,"uv_index":8.75,"wind_gusts":30.6,"aqi":64,"pm10":14.5,"pm2_5":13.4,"no2":18.6,"co":319.0,"o3":18.0,"so2":4.2,"mosquito_risk":7,"arthritis_risk":5,"migraine_risk":4,"frizz_risk":1,"updated_at":"2026-05-17T05:26:09.168578+05:30"},{"city":"Kannur","state":"Kerala","latitude":11.8745,"longitude":75.3704,"temp":25.2,"humidity":94,"rain":0.0,"pressure":1002.8,"uv_index":8.95,"wind_gusts":37.1,"aqi":60,"pm10":18.6,"pm2_5":15.9,"no2":15.5,"co":358.0,"o3":24.0,"so2":2.3,"mosquito_risk":7,"arthritis_risk":5,"migraine_risk":4,"frizz_risk":1,"updated_at":"2026-05-17T05:26:09.168584+05:30"},{"city":"Patna","state":"Bihar","latitude":25.5941,"longitude":85.1376,"temp":26.4,"humidity":91,"rain":0.0,"pressure":995.6,"uv_index":8.8,"wind_gusts":33.1,"aqi":152,"pm10":56.6,"pm2_5":53.2,"no2":16.4,"co":480.0,"o3":62.0,"so2":13.1,"mosquito_risk":7,"arthritis_risk":5,"migraine_risk":7,"frizz_risk":1,"updated_at":"2026-05-17T05:26:09.168589+05:30"},{"city":"Gaya","state":"Bihar","latitude":24.7914,"longitude":85.0002,"temp":27.5,"humidity":46,"rain":0.0,"pressure":988.9,"uv_index":8.85,"wind_gusts":43.6,"aqi":153,"pm10":130.9,"pm2_5":68.7,"no2":41.6,"co":450.0,"o3":28.0,"so2":11.3,"mosquito_risk":4,"arthritis_risk":5,"migraine_risk":7,"frizz_risk":0,"updated_at":"2026-05-17T05:26:09.168595+05:30"},{"city":"Muzaffarpur","state":"Bihar","latitude":26.1209,"longitude":85.3647,"temp":25.1,"humidity":87,"rain":0.0,"pressure":995.9,"uv_index":8.8,"wind_gusts":27.4,"aqi":150,"pm10":53.8,"pm2_5":49.6,"no2":14.8,"co":478.0,"o3":68.0,"so2":11.7,"mosquito_risk":7,"arthritis_risk":5,"migraine_risk":7,"frizz_risk":1,"updated_at":"2026-05-17T05:26:09.168600+05:30"},{"city":"Bhagalpur","state":"Bihar","latitude":25.2425,"longitude":87.0117,"temp":24.8,"humidity":91,"rain":0.0,"pressure":996.6,"uv_index":8.8,"wind_gusts":26.6,"aqi":152,"pm10":78.0,"pm2_5":71.7,"no2":17.5,"co":478.0,"o3":56.0,"so2":8.3,"mosquito_risk":3,"arthritis_risk":5,"migraine_risk":7,"frizz_risk":1,"updated_at":"2026-05-17T05:26:09.168606+05:30"},{"city":"Ranchi","state":"Jharkhand","latitude":23.3441,"longitude":85.3096,"temp":25.1,"humidity":70,"rain":0.0,"pressure":934.6,"uv_index":9.3,"wind_gusts":35.3,"aqi":123,"pm10":44.9,"pm2_5":37.7,"no2":9.1,"co":327.0,"o3":93.0,"so2":15.8,"mosquito_risk":7,"arthritis_risk":5,"migraine_risk":7,"frizz_risk":1,"updated_at":"2026-05-17T05:26:09.168611+05:30"},{"city":"Jamshedpur","state":"Jharkhand","latitude":22.8046,"longitude":86.2029,"temp":26.8,"humidity":79,"rain":0.0,"pressure":987.5,"uv_index":9.1,"wind_gusts":35.6,"aqi":111,"pm10":27.1,"pm2_5":19.2,"no2":18.1,"co":306.0,"o3":33.0,"so2":22.4,"mosquito_risk":7,"arthritis_risk":5,"migraine_risk":7,"frizz_risk":1,"updated_at":"2026-05-17T05:26:09.168617+05:30"},{"city":"Dhanbad","state":"Jharkhand","latitude":23.7957,"longitude":86.4304,"temp":26.8,"humidity":65,"rain":0.0,"pressure":975.7,"uv_index":9.05,"wind_gusts":43.9,"aqi":156,"pm10":59.5,"pm2_5":51.0,"no2":39.5,"co":610.0,"o3":44.0,"so2":90.6,"mosquito_risk":7,"arthritis_risk":5,"migraine_risk":7,"frizz_risk":1,"updated_at":"2026-05-17T05:26:09.168623+05:30"},{"city":"Bokaro","state":"Jharkhand","latitude":23.6693,"longitude":86.1511,"temp":27.4,"humidity":67,"rain":0.0,"pressure":979.4,"uv_index":9.05,"wind_gusts":38.9,"aqi":155,"pm10":75.4,"pm2_5":57.6,"no2":37.2,"co":331.0,"o3":44.0,"so2":54.1,"mosquito_risk":7,"arthritis_risk":5,"migraine_risk":7,"frizz_risk":1,"updated_at":"2026-05-17T05:26:09.168629+05:30"},{"city":"Bhubaneswar","state":"Odisha","latitude":20.2961,"longitude":85.8245,"temp":28.2,"humidity":89,"rain":0.0,"pressure":999.2,"uv_index":9.15,"wind_gusts":44.6,"aqi":44,"pm10":12.7,"pm2_5":9.1,"no2":6.3,"co":169.0,"o3":44.0,"so2":2.0,"mosquito_risk":7,"arthritis_risk":5,"migraine_risk":7,"frizz_risk":1,"updated_at":"2026-05-17T05:26:09.168635+05:30"},{"city":"Cuttack","state":"Odisha","latitude":20.4625,"longitude":85.8828,"temp":28.2,"humidity":89,"rain":0.0,"pressure":1001.0,"uv_index":9.2,"wind_gusts":44.6,"aqi":44,"pm10":12.7,"pm2_5":9.1,"no2":6.3,"co":184.0,"o3":44.0,"so2":2.0,"mosquito_risk":7,"arthritis_risk":5,"migraine_risk":4,"frizz_risk":1,"updated_at":"2026-05-17T05:26:09.168640+05:30"},{"city":"Rourkela","state":"Odisha","latitude":22.2604,"longitude":84.8536,"temp":26.8,"humidity":88,"rain":0.0,"pressure":981.8,"uv_index":9.05,"wind_gusts":37.1,"aqi":133,"pm10":38.3,"pm2_5":29.5,"no2":21.1,"co":340.0,"o3":32.0,"so2":14.2,"mosquito_risk":7,"arthritis_risk":5,"migraine_risk":7,"frizz_risk":1,"updated_at":"2026-05-17T05:26:09.168646+05:30"},{"city":"Raipur","state":"Chhattisgarh","latitude":21.2514,"longitude":81.6296,"temp":29.0,"humidity":63,"rain":0.0,"pressure":971.3,"uv_index":8.95,"wind_gusts":34.2,"aqi":153,"pm10":50.1,"pm2_5":41.7,"no2":32.7,"co":617.0,"o3":43.0,"so2":41.0,"mosquito_risk":7,"arthritis_risk":5,"migraine_risk":7,"frizz_risk":1,"updated_at":"2026-05-17T05:26:09.168651+05:30"},{"city":"Bhilai","state":"Chhattisgarh","latitude":21.1938,"longitude":81.3509,"temp":28.7,"humidity":67,"rain":0.0,"pressure":971.8,"uv_index":9.0,"wind_gusts":34.9,"aqi":154,"pm10":51.7,"pm2_5":42.4,"no2":32.6,"co":996.0,"o3":43.0,"so2":46.3,"mosquito_risk":7,"arthritis_risk":5,"migraine_risk":7,"frizz_risk":1,"updated_at":"2026-05-17T05:26:09.168670+05:30"},{"city":"Guwahati","state":"Assam","latitude":26.1158,"longitude":91.7086,"temp":22.3,"humidity":98,"rain":0.3,"pressure":999.5,"uv_index":8.7,"wind_gusts":23.8,"aqi":83,"pm10":13.8,"pm2_5":12.2,"no2":9.9,"co":314.0,"o3":49.0,"so2":3.0,"mosquito_risk":6,"arthritis_risk":5,"migraine_risk":7,"frizz_risk":1,"updated_at":"2026-05-17T05:26:09.168675+05:30"},{"city":"Agartala","state":"Tripura","latitude":23.8315,"longitude":91.2868,"temp":26.0,"humidity":95,"rain":0.0,"pressure":1003.3,"uv_index":8.9,"wind_gusts":33.8,"aqi":68,"pm10":23.2,"pm2_5":16.6,"no2":13.9,"co":173.0,"o3":17.0,"so2":2.3,"mosquito_risk":7,"arthritis_risk":5,"migraine_risk":4,"frizz_risk":1,"updated_at":"2026-05-17T05:26:09.168680+05:30"},{"city":"Shillong","state":"Meghalaya","latitude":25.5788,"longitude":91.8933,"temp":18.7,"humidity":95,"rain":0.0,"pressure":854.5,"uv_index":9.1,"wind_gusts":45.7,"aqi":62,"pm10":6.8,"pm2_5":5.0,"no2":5.3,"co":243.0,"o3":80.0,"so2":3.9,"mosquito_risk":3,"arthritis_risk":10,"migraine_risk":7,"frizz_risk":1,"updated_at":"2026-05-17T05:26:09.168686+05:30"},{"city":"Imphal","state":"Manipur","latitude":24.817,"longitude":93.9368,"temp":20.3,"humidity":100,"rain":0.0,"pressure":921.1,"uv_index":8.1,"wind_gusts":35.6,"aqi":78,"pm10":11.6,"pm2_5":8.8,"no2":8.3,"co":307.0,"o3":43.0,"so2":1.6,"mosquito_risk":3,"arthritis_risk":5,"migraine_risk":7,"frizz_risk":1,"updated_at":"2026-05-17T05:26:09.168691+05:30"},{"city":"Aizawl","state":"Mizoram","latitude":23.7271,"longitude":92.7176,"temp":18.8,"humidity":93,"rain":0.0,"pressure":890.3,"uv_index":9.05,"wind_gusts":34.6,"aqi":50,"pm10":8.9,"pm2_5":5.3,"no2":4.4,"co":138.0,"o3":38.0,"so2":1.7,"mosquito_risk":3,"arthritis_risk":10,"migraine_risk":7,"frizz_risk":1,"updated_at":"2026-05-17T05:26:09.168696+05:30"},{"city":"Kohima","state":"Nagaland","latitude":25.6701,"longitude":94.1077,"temp":16.5,"humidity":96,"rain":0.0,"pressure":851.9,"uv_index":8.65,"wind_gusts":26.3,"aqi":63,"pm10":34.0,"pm2_5":23.1,"no2":8.5,"co":237.0,"o3":33.0,"so2":1.0,"mosquito_risk":3,"arthritis_risk":10,"migraine_risk":7,"frizz_risk":0,"updated_at":"2026-05-17T05:26:09.168701+05:30"},{"city":"Gangtok","state":"Sikkim","latitude":27.3314,"longitude":88.6138,"temp":14.5,"humidity":82,"rain":0.0,"pressure":832.9,"uv_index":9.1,"wind_gusts":39.6,"aqi":51,"pm10":15.5,"pm2_5":12.0,"no2":13.8,"co":602.0,"o3":39.0,"so2":0.9,"mosquito_risk":3,"arthritis_risk":10,"migraine_risk":7,"frizz_risk":0,"updated_at":"2026-05-17T05:26:09.168706+05:30"},{"city":"Siliguri","state":"West Bengal","latitude":26.7271,"longitude":88.3953,"temp":21.8,"humidity":98,"rain":0.0,"pressure":990.2,"uv_index":8.7,"wind_gusts":30.6,"aqi":86,"pm10":33.1,"pm2_5":25.3,"no2":11.4,"co":354.0,"o3":80.0,"so2":2.0,"mosquito_risk":3,"arthritis_risk":5,"migraine_risk":7,"frizz_risk":1,"updated_at":"2026-05-17T05:26:12.500184+05:30"},{"city":"Durgapur","state":"West Bengal","latitude":23.5204,"longitude":87.3119,"temp":27.2,"humidity":85,"rain":0.0,"pressure":990.7,"uv_index":8.95,"wind_gusts":40.7,"aqi":150,"pm10":36.1,"pm2_5":31.9,"no2":30.2,"co":619.0,"o3":31.0,"so2":43.7,"mosquito_risk":7,"arthritis_risk":5,"migraine_risk":7,"frizz_risk":1,"updated_at":"2026-05-17T05:26:12.500214+05:30"},{"city":"Asansol","state":"West Bengal","latitude":23.6739,"longitude":86.9524,"temp":27.4,"humidity":77,"rain":0.0,"pressure":989.2,"uv_index":9.0,"wind_gusts":36.0,"aqi":151,"pm10":47.1,"pm2_5":41.2,"no2":34.2,"co":446.0,"o3":40.0,"so2":58.6,"mosquito_risk":7,"arthritis_risk":5,"migraine_risk":7,"frizz_risk":1,"updated_at":"2026-05-17T05:26:12.500224+05:30"},{"city":"Pondicherry","state":"Puducherry","latitude":11.9139,"longitude":79.8145,"temp":26.7,"humidity":88,"rain":0.0,"pressure":1004.2,"uv_index":8.85,"wind_gusts":42.1,"aqi":69,"pm10":28.7,"pm2_5":21.5,"no2":10.9,"co":359.0,"o3":68.0,"so2":9.2,"mosquito_risk":7,"arthritis_risk":5,"migraine_risk":4,"frizz_risk":1,"updated_at":"2026-05-17T05:26:12.500231+05:30"},{"city":"Port Blair","state":"Andaman and Nicobar Islands","latitude":11.6234,"longitude":92.7265,"temp":25.0,"humidity":97,"rain":0.2,"pressure":1005.4,"uv_index":1.3,"wind_gusts":42.1,"aqi":32,"pm10":10.0,"pm2_5":6.1,"no2":0.3,"co":112.0,"o3":51.0,"so2":0.2,"mosquito_risk":10,"arthritis_risk":5,"migraine_risk":0,"frizz_risk":1,"updated_at":"2026-05-17T05:26:12.500237+05:30"},{"city":"Haridwar","state":"Uttarakhand","latitude":29.9457,"longitude":78.1642,"temp":20.4,"humidity":79,"rain":0.0,"pressure":968.3,"uv_index":7.55,"wind_gusts":39.6,"aqi":81,"pm10":48.0,"pm2_5":42.0,"no2":40.3,"co":271.0,"o3":4.0,"so2":5.0,"mosquito_risk":3,"arthritis_risk":5,"migraine_risk":7,"frizz_risk":1,"updated_at":"2026-05-17T05:26:12.500244+05:30"},{"city":"Rishikesh","state":"Uttarakhand","latitude":30.0869,"longitude":78.2676,"temp":19.0,"humidity":81,"rain":0.0,"pressure":961.0,"uv_index":7.65,"wind_gusts":34.2,"aqi":74,"pm10":37.5,"pm2_5":29.7,"no2":23.6,"co":317.0,"o3":34.0,"so2":4.1,"mosquito_risk":3,"arthritis_risk":10,"migraine_risk":7,"frizz_risk":0,"updated_at":"2026-05-17T05:26:12.500250+05:30"},{"city":"Nainital","state":"Uttarakhand","latitude":29.3919,"longitude":79.4542,"temp":13.0,"humidity":65,"rain":0.0,"pressure":800.1,"uv_index":8.5,"wind_gusts":38.2,"aqi":74,"pm10":32.6,"pm2_5":23.1,"no2":21.7,"co":229.0,"o3":59.0,"so2":4.2,"mosquito_risk":3,"arthritis_risk":5,"migraine_risk":7,"frizz_risk":0,"updated_at":"2026-05-17T05:26:12.500256+05:30"},{"city":"Mussoorie","state":"Uttarakhand","latitude":30.4599,"longitude":78.0664,"temp":12.8,"humidity":65,"rain":0.0,"pressure":797.3,"uv_index":8.05,"wind_gusts":51.8,"aqi":75,"pm10":41.1,"pm2_5":30.5,"no2":40.3,"co":187.0,"o3":2.0,"so2":3.6,"mosquito_risk":3,"arthritis_risk":5,"migraine_risk":7,"frizz_risk":0,"updated_at":"2026-05-17T05:26:12.500262+05:30"},{"city":"Dharamshala","state":"Himachal Pradesh","latitude":32.219,"longitude":76.3234,"temp":19.6,"humidity":42,"rain":0.0,"pressure":865.1,"uv_index":8.4,"wind_gusts":43.9,"aqi":48,"pm10":14.1,"pm2_5":9.8,"no2":10.9,"co":175.0,"o3":48.0,"so2":0.1,"mosquito_risk":0,"arthritis_risk":5,"migraine_risk":7,"frizz_risk":0,"updated_at":"2026-05-17T05:26:12.500267+05:30"},{"city":"Dalhousie","state":"Himachal Pradesh","latitude":32.5387,"longitude":75.971,"temp":9.2,"humidity":78,"rain":0.0,"pressure":797.1,"uv_index":8.65,"wind_gusts":38.9,"aqi":68,"pm10":30.5,"pm2_5":24.6,"no2":32.0,"co":252.0,"o3":6.0,"so2":0.4,"mosquito_risk":3,"arthritis_risk":5,"migraine_risk":7,"frizz_risk":0,"updated_at":"2026-05-17T05:26:12.500273+05:30"},{"city":"Patiala","state":"Punjab","latitude":30.3398,"longitude":76.3869,"temp":25.8,"humidity":48,"rain":0.0,"pressure":973.6,"uv_index":7.65,"wind_gusts":43.9,"aqi":462,"pm10":491.7,"pm2_5":88.0,"no2":13.0,"co":483.0,"o3":60.0,"so2":7.3,"mosquito_risk":4,"arthritis_risk":5,"migraine_risk":7,"frizz_risk":0,"updated_at":"2026-05-17T05:26:12.500279+05:30"},{"city":"Bhatinda","state":"Punjab","latitude":30.211,"longitude":74.9455,"temp":28.1,"humidity":46,"rain":0.0,"pressure":979.2,"uv_index":8.3,"wind_gusts":38.9,"aqi":93,"pm10":61.9,"pm2_5":31.5,"no2":12.2,"co":377.0,"o3":62.0,"so2":8.3,"mosquito_risk":4,"arthritis_risk":5,"migraine_risk":7,"frizz_risk":0,"updated_at":"2026-05-17T05:26:12.500285+05:30"},{"city":"Rohtak","state":"Haryana","latitude":28.8955,"longitude":76.6066,"temp":26.2,"humidity":48,"rain":0.0,"pressure":977.3,"uv_index":7.75,"wind_gusts":44.6,"aqi":699,"pm10":683.6,"pm2_5":159.7,"no2":27.4,"co":423.0,"o3":45.0,"so2":7.6,"mosquito_risk":4,"arthritis_risk":5,"migraine_risk":7,"frizz_risk":0,"updated_at":"2026-05-17T05:26:12.500290+05:30"},{"city":"Panipat","state":"Haryana","latitude":29.3909,"longitude":76.9635,"temp":26.5,"humidity":45,"rain":0.0,"pressure":975.6,"uv_index":7.6,"wind_gusts":50.8,"aqi":1372,"pm10":1061.7,"pm2_5":210.0,"no2":13.0,"co":371.0,"o3":66.0,"so2":6.7,"mosquito_risk":4,"arthritis_risk":5,"migraine_risk":7,"frizz_risk":0,"updated_at":"2026-05-17T05:26:12.500295+05:30"},{"city":"Mathura","state":"Uttar Pradesh","latitude":27.4924,"longitude":77.6737,"temp":27.2,"humidity":43,"rain":0.0,"pressure":982.2,"uv_index":8.0,"wind_gusts":40.0,"aqi":736,"pm10":705.9,"pm2_5":156.5,"no2":24.3,"co":372.0,"o3":36.0,"so2":14.2,"mosquito_risk":4,"arthritis_risk":5,"migraine_risk":7,"frizz_risk":0,"updated_at":"2026-05-17T05:26:12.500300+05:30"},{"city":"Vrindavan","state":"Uttar Pradesh","latitude":27.5823,"longitude":77.7027,"temp":26.1,"humidity":48,"rain":0.0,"pressure":982.6,"uv_index":7.95,"wind_gusts":38.2,"aqi":736,"pm10":705.9,"pm2_5":156.5,"no2":24.3,"co":366.0,"o3":36.0,"so2":14.2,"mosquito_risk":4,"arthritis_risk":5,"migraine_risk":7,"frizz_risk":0,"updated_at":"2026-05-17T05:26:12.500306+05:30"},{"city":"Ayodhya","state":"Uttar Pradesh","latitude":26.7922,"longitude":82.1998,"temp":25.5,"humidity":68,"rain":0.0,"pressure":990.5,"uv_index":8.35,"wind_gusts":38.9,"aqi":153,"pm10":139.7,"pm2_5":65.4,"no2":47.7,"co":460.0,"o3":12.0,"so2":12.1,"mosquito_risk":7,"arthritis_risk":5,"migraine_risk":7,"frizz_risk":1,"updated_at":"2026-05-17T05:26:12.500311+05:30"},{"city":"Ratlam","state":"Madhya Pradesh","latitude":23.3315,"longitude":75.0367,"temp":28.0,"humidity":37,"rain":0.0,"pressure":951.1,"uv_index":8.55,"wind_gusts":31.7,"aqi":53,"pm10":23.5,"pm2_5":14.6,"no2":4.3,"co":191.0,"o3":71.0,"so2":4.6,"mosquito_risk":4,"arthritis_risk":5,"migraine_risk":7,"frizz_risk":0,"updated_at":"2026-05-17T05:26:12.500316+05:30"},{"city":"Sagar","state":"Madhya Pradesh","latitude":23.8388,"longitude":78.7378,"temp":29.4,"humidity":35,"rain":0.0,"pressure":946.1,"uv_index":8.75,"wind_gusts":37.8,"aqi":75,"pm10":62.2,"pm2_5":29.6,"no2":31.9,"co":262.0,"o3":36.0,"so2":5.0,"mosquito_risk":4,"arthritis_risk":5,"migraine_risk":7,"frizz_risk":0,"updated_at":"2026-05-17T05:26:12.500321+05:30"},{"city":"Satna","state":"Madhya Pradesh","latitude":24.6005,"longitude":80.8322,"temp":29.8,"humidity":38,"rain":0.0,"pressure":967.5,"uv_index":8.75,"wind_gusts":45.0,"aqi":113,"pm10":96.9,"pm2_5":43.8,"no2":37.0,"co":376.0,"o3":22.0,"so2":6.2,"mosquito_risk":4,"arthritis_risk":5,"migraine_risk":7,"frizz_risk":0,"updated_at":"2026-05-17T05:26:12.500326+05:30"},{"city":"Akola","state":"Maharashtra","latitude":20.7002,"longitude":77.0082,"temp":31.5,"humidity":31,"rain":0.0,"pressure":971.3,"uv_index":8.9,"wind_gusts":34.6,"aqi":50,"pm10":16.9,"pm2_5":12.2,"no2":12.4,"co":224.0,"o3":61.0,"so2":4.4,"mosquito_risk":0,"arthritis_risk":5,"migraine_risk":7,"frizz_risk":0,"updated_at":"2026-05-17T05:26:12.500332+05:30"},{"city":"Amravati","state":"Maharashtra","latitude":20.9374,"longitude":77.7796,"temp":30.5,"humidity":44,"rain":0.0,"pressure":963.1,"uv_index":8.95,"wind_gusts":31.0,"aqi":50,"pm10":20.8,"pm2_5":16.7,"no2":23.2,"co":324.0,"o3":39.0,"so2":4.0,"mosquito_risk":0,"arthritis_risk":5,"migraine_risk":7,"frizz_risk":1,"updated_at":"2026-05-17T05:26:12.500339+05:30"},{"city":"Latur","state":"Maharashtra","latitude":18.4088,"longitude":76.5604,"temp":28.3,"humidity":57,"rain":0.0,"pressure":936.3,"uv_index":9.1,"wind_gusts":34.2,"aqi":64,"pm10":46.9,"pm2_5":35.7,"no2":21.5,"co":437.0,"o3":53.0,"so2":12.8,"mosquito_risk":4,"arthritis_risk":5,"migraine_risk":7,"frizz_risk":1,"updated_at":"2026-05-17T05:26:12.500344+05:30"},{"city":"Nanded","state":"Maharashtra","latitude":19.1383,"longitude":77.3091,"temp":30.3,"humidity":55,"rain":0.0,"pressure":965.0,"uv_index":9.05,"wind_gusts":34.2,"aqi":66,"pm10":36.4,"pm2_5":30.9,"no2":26.9,"co":463.0,"o3":31.0,"so2":5.7,"mosquito_risk":0,"arthritis_risk":5,"migraine_risk":7,"frizz_risk":1,"updated_at":"2026-05-17T05:26:12.500350+05:30"},{"city":"Gulbarga","state":"Karnataka","latitude":17.3297,"longitude":76.8343,"temp":29.0,"humidity":57,"rain":0.0,"pressure":954.8,"uv_index":9.15,"wind_gusts":35.3,"aqi":80,"pm10":50.8,"pm2_5":38.3,"no2":20.2,"co":353.0,"o3":44.0,"so2":11.9,"mosquito_risk":4,"arthritis_risk":5,"migraine_risk":7,"frizz_risk":1,"updated_at":"2026-05-17T05:26:12.500355+05:30"},{"city":"Bidar","state":"Karnataka","latitude":17.9104,"longitude":77.5199,"temp":27.8,"humidity":59,"rain":0.0,"pressure":932.1,"uv_index":9.15,"wind_gusts":33.8,"aqi":81,"pm10":43.7,"pm2_5":33.4,"no2":14.4,"co":313.0,"o3":54.0,"so2":3.6,"mosquito_risk":4,"arthritis_risk":5,"migraine_risk":7,"frizz_risk":1,"updated_at":"2026-05-17T05:26:12.500360+05:30"},{"city":"Hospet","state":"Karnataka","latitude":15.2689,"longitude":76.3909,"temp":25.6,"humidity":90,"rain":0.0,"pressure":952.1,"uv_index":9.2,"wind_gusts":51.5,"aqi":93,"pm10":15.9,"pm2_5":13.4,"no2":10.7,"co":237.0,"o3":43.0,"so2":2.7,"mosquito_risk":7,"arthritis_risk":5,"migraine_risk":7,"frizz_risk":1,"updated_at":"2026-05-17T05:26:12.500366+05:30"},{"city":"Tirupur","state":"Tamil Nadu","latitude":11.1085,"longitude":77.3411,"temp":24.9,"humidity":88,"rain":0.0,"pressure":971.3,"uv_index":8.25,"wind_gusts":53.6,"aqi":97,"pm10":41.9,"pm2_5":32.5,"no2":39.4,"co":257.0,"o3":20.0,"so2":7.1,"mosquito_risk":3,"arthritis_risk":5,"migraine_risk":7,"frizz_risk":1,"updated_at":"2026-05-17T05:26:12.500371+05:30"},{"city":"Alappuzha","state":"Kerala","latitude":9.4981,"longitude":76.3388,"temp":26.0,"humidity":93,"rain":0.1,"pressure":1005.0,"uv_index":8.8,"wind_gusts":32.8,"aqi":56,"pm10":21.8,"pm2_5":15.8,"no2":10.2,"co":197.0,"o3":51.0,"so2":3.7,"mosquito_risk":10,"arthritis_risk":5,"migraine_risk":4,"frizz_risk":1,"updated_at":"2026-05-17T05:26:12.500377+05:30"},{"city":"Munnar","state":"Kerala","latitude":10.0889,"longitude":77.0595,"temp":17.5,"humidity":96,"rain":0.0,"pressure":852.8,"uv_index":7.05,"wind_gusts":23.0,"aqi":62,"pm10":10.4,"pm2_5":9.8,"no2":10.7,"co":226.0,"o3":34.0,"so2":1.4,"mosquito_risk":3,"arthritis_risk":10,"migraine_risk":7,"frizz_risk":1,"updated_at":"2026-05-17T05:26:12.500382+05:30"},{"city":"Silchar","state":"Assam","latitude":24.8333,"longitude":92.7789,"temp":23.6,"humidity":98,"rain":0.3,"pressure":1003.3,"uv_index":8.7,"wind_gusts":34.9,"aqi":69,"pm10":17.1,"pm2_5":12.8,"no2":6.6,"co":261.0,"o3":68.0,"so2":3.2,"mosquito_risk":6,"arthritis_risk":5,"migraine_risk":4,"frizz_risk":1,"updated_at":"2026-05-17T05:26:12.500388+05:30"},{"city":"Dibrugarh","state":"Assam","latitude":27.4728,"longitude":94.912,"temp":21.5,"humidity":98,"rain":0.4,"pressure":994.3,"uv_index":5.6,"wind_gusts":24.1,"aqi":72,"pm10":34.7,"pm2_5":23.9,"no2":12.2,"co":235.0,"o3":50.0,"so2":1.4,"mosquito_risk":6,"arthritis_risk":5,"migraine_risk":3,"frizz_risk":1,"updated_at":"2026-05-17T05:26:12.500393+05:30"}]