[{"city":"Delhi","state":"Delhi","latitude":28.6139,"longitude":77.209,"temp":29.2,"humidity":56,"rain":0.0,"pressure":983.5,"uv_index":7.65,"wind_gusts":38.2,"aqi":449,"pm10":354.8,"pm2_5":71.9,"no2":19.0,"co":606.0,"o3":115.0,"so2":27.7,"mosquito_risk":4,"arthritis_risk":5,"migraine_risk":7,"frizz_risk":1,"updated_at":"2026-05-30T09:10:34.176166+05:30"},{"city":"Mumbai","state":"Maharashtra","latitude":19.076,"longitude":72.8777,"temp":32.1,"humidity":64,"rain":0.0,"pressure":1009.5,"uv_index":7.5,"wind_gusts":41.8,"aqi":67,"pm10":27.9,"pm2_5":17.5,"no2":5.6,"co":178.0,"o3":57.0,"so2":4.6,"mosquito_risk":3,"arthritis_risk":0,"migraine_risk":4,"frizz_risk":1,"updated_at":"2026-05-30T09:10:34.176202+05:30"},{"city":"Bangalore","state":"Karnataka","latitude":12.9716,"longitude":77.5946,"temp":25.4,"humidity":77,"rain":0.0,"pressure":913.6,"uv_index":8.65,"wind_gusts":30.2,"aqi":58,"pm10":12.1,"pm2_5":9.6,"no2":10.7,"co":411.0,"o3":53.0,"so2":4.7,"mosquito_risk":7,"arthritis_risk":5,"migraine_risk":7,"frizz_risk":1,"updated_at":"2026-05-30T09:10:34.176217+05:30"},{"city":"Hyderabad","state":"Telangana","latitude":17.385,"longitude":78.4867,"temp":31.2,"humidity":50,"rain":0.0,"pressure":954.4,"uv_index":9.05,"wind_gusts":45.0,"aqi":55,"pm10":17.0,"pm2_5":12.0,"no2":5.9,"co":311.0,"o3":65.0,"so2":4.6,"mosquito_risk":0,"arthritis_risk":5,"migraine_risk":7,"frizz_risk":1,"updated_at":"2026-05-30T09:10:34.176227+05:30"},{"city":"Chennai","state":"Tamil Nadu","latitude":13.0827,"longitude":80.2707,"temp":33.8,"humidity":46,"rain":0.0,"pressure":1007.3,"uv_index":8.8,"wind_gusts":35.3,"aqi":75,"pm10":31.4,"pm2_5":25.1,"no2":16.2,"co":411.0,"o3":86.0,"so2":11.7,"mosquito_risk":0,"arthritis_risk":5,"migraine_risk":4,"frizz_risk":1,"updated_at":"2026-05-30T09:10:34.176235+05:30"},{"city":"Kolkata","state":"West Bengal","latitude":22.5726,"longitude":88.3639,"temp":29.2,"humidity":58,"rain":0.0,"pressure":1007.4,"uv_index":8.9,"wind_gusts":26.6,"aqi":151,"pm10":50.6,"pm2_5":34.2,"no2":6.8,"co":460.0,"o3":128.0,"so2":12.8,"mosquito_risk":4,"arthritis_risk":5,"migraine_risk":4,"frizz_risk":1,"updated_at":"2026-05-30T09:10:34.176242+05:30"},{"city":"Pune","state":"Maharashtra","latitude":18.5204,"longitude":73.8567,"temp":29.8,"humidity":60,"rain":0.0,"pressure":949.8,"uv_index":8.35,"wind_gusts":46.4,"aqi":45,"pm10":13.9,"pm2_5":9.0,"no2":4.2,"co":162.0,"o3":60.0,"so2":5.1,"mosquito_risk":4,"arthritis_risk":5,"migraine_risk":7,"frizz_risk":1,"updated_at":"2026-05-30T09:10:34.176249+05:30"},{"city":"Ahmedabad","state":"Gujarat","latitude":23.0225,"longitude":72.5714,"temp":32.3,"humidity":57,"rain":0.0,"pressure":1001.5,"uv_index":8.1,"wind_gusts":63.4,"aqi":72,"pm10":45.9,"pm2_5":20.1,"no2":3.2,"co":146.0,"o3":54.0,"so2":4.1,"mosquito_risk":0,"arthritis_risk":5,"migraine_risk":4,"frizz_risk":1,"updated_at":"2026-05-30T09:10:34.176255+05:30"},{"city":"Jaipur","state":"Rajasthan","latitude":26.9124,"longitude":75.7873,"temp":29.4,"humidity":52,"rain":0.0,"pressure":959.4,"uv_index":8.15,"wind_gusts":39.6,"aqi":114,"pm10":149.9,"pm2_5":37.4,"no2":4.2,"co":281.0,"o3":99.0,"so2":7.6,"mosquito_risk":4,"arthritis_risk":5,"migraine_risk":7,"frizz_risk":1,"updated_at":"2026-05-30T09:10:34.176267+05:30"},{"city":"Lucknow","state":"Uttar Pradesh","latitude":26.8467,"longitude":80.9462,"temp":28.9,"humidity":60,"rain":0.0,"pressure":994.7,"uv_index":8.15,"wind_gusts":33.5,"aqi":85,"pm10":25.0,"pm2_5":19.8,"no2":4.8,"co":373.0,"o3":138.0,"so2":7.2,"mosquito_risk":4,"arthritis_risk":5,"migraine_risk":7,"frizz_risk":1,"updated_at":"2026-05-30T09:10:34.176274+05:30"},{"city":"Kanpur","state":"Uttar Pradesh","latitude":26.4499,"longitude":80.3319,"temp":29.1,"humidity":67,"rain":0.0,"pressure":992.4,"uv_index":8.15,"wind_gusts":41.8,"aqi":116,"pm10":89.9,"pm2_5":25.3,"no2":5.7,"co":372.0,"o3":134.0,"so2":7.8,"mosquito_risk":7,"arthritis_risk":5,"migraine_risk":7,"frizz_risk":1,"updated_at":"2026-05-30T09:10:34.176280+05:30"},{"city":"Chandigarh","state":"Chandigarh","latitude":30.7333,"longitude":76.7794,"temp":27.6,"humidity":64,"rain":0.1,"pressure":970.3,"uv_index":7.7,"wind_gusts":45.0,"aqi":95,"pm10":49.6,"pm2_5":23.9,"no2":5.0,"co":378.0,"o3":159.0,"so2":10.4,"mosquito_risk":10,"arthritis_risk":5,"migraine_risk":7,"frizz_risk":1,"updated_at":"2026-05-30T09:10:34.176287+05:30"},{"city":"Srinagar","state":"Jammu and Kashmir","latitude":34.0837,"longitude":74.7973,"temp":19.3,"humidity":55,"rain":0.0,"pressure":843.8,"uv_index":8.95,"wind_gusts":32.0,"aqi":85,"pm10":53.2,"pm2_5":37.1,"no2":10.0,"co":447.0,"o3":100.0,"so2":2.2,"mosquito_risk":0,"arthritis_risk":5,"migraine_risk":7,"frizz_risk":0,"updated_at":"2026-05-30T09:10:34.176293+05:30"},{"city":"Jammu","state":"Jammu and Kashmir","latitude":32.7266,"longitude":74.857,"temp":23.3,"humidity":74,"rain":0.1,"pressure":975.3,"uv_index":8.5,"wind_gusts":58.0,"aqi":152,"pm10":115.9,"pm2_5":43.3,"no2":9.2,"co":301.0,"o3":138.0,"so2":8.6,"mosquito_risk":6,"arthritis_risk":5,"migraine_risk":7,"frizz_risk":1,"updated_at":"2026-05-30T09:10:34.176300+05:30"},{"city":"Amritsar","state":"Punjab","latitude":31.634,"longitude":74.8723,"temp":22.1,"humidity":88,"rain":0.1,"pressure":981.9,"uv_index":8.35,"wind_gusts":57.6,"aqi":316,"pm10":743.2,"pm2_5":179.3,"no2":4.5,"co":331.0,"o3":124.0,"so2":13.2,"mosquito_risk":6,"arthritis_risk":5,"migraine_risk":7,"frizz_risk":1,"updated_at":"2026-05-30T09:10:34.176306+05:30"},{"city":"Ludhiana","state":"Punjab","latitude":30.901,"longitude":75.8573,"temp":25.5,"humidity":68,"rain":0.1,"pressure":981.0,"uv_index":7.95,"wind_gusts":46.4,"aqi":543,"pm10":416.3,"pm2_5":80.8,"no2":5.7,"co":334.0,"o3":141.0,"so2":14.9,"mosquito_risk":10,"arthritis_risk":5,"migraine_risk":7,"frizz_risk":1,"updated_at":"2026-05-30T09:10:34.176312+05:30"},{"city":"Jalandhar","state":"Punjab","latitude":31.326,"longitude":75.5762,"temp":21.5,"humidity":92,"rain":0.7,"pressure":982.1,"uv_index":8.15,"wind_gusts":49.3,"aqi":372,"pm10":391.2,"pm2_5":92.7,"no2":5.9,"co":310.0,"o3":136.0,"so2":15.1,"mosquito_risk":6,"arthritis_risk":5,"migraine_risk":7,"frizz_risk":1,"updated_at":"2026-05-30T09:10:34.176318+05:30"},{"city":"Dehradun","state":"Uttarakhand","latitude":30.6284,"longitude":78.0322,"temp":19.4,"humidity":58,"rain":0.0,"pressure":833.6,"uv_index":7.65,"wind_gusts":38.9,"aqi":82,"pm10":24.4,"pm2_5":13.4,"no2":2.0,"co":308.0,"o3":152.0,"so2":2.9,"mosquito_risk":0,"arthritis_risk":5,"migraine_risk":7,"frizz_risk":0,"updated_at":"2026-05-30T09:10:34.176325+05:30"},{"city":"Shimla","state":"Himachal Pradesh","latitude":31.1048,"longitude":77.1734,"temp":15.2,"humidity":63,"rain":0.0,"pressure":786.9,"uv_index":6.45,"wind_gusts":29.2,"aqi":89,"pm10":40.3,"pm2_5":20.4,"no2":2.6,"co":283.0,"o3":162.0,"so2":3.8,"mosquito_risk":3,"arthritis_risk":5,"migraine_risk":7,"frizz_risk":0,"updated_at":"2026-05-30T09:10:34.176335+05:30"},{"city":"Manali","state":"Himachal Pradesh","latitude":32.2396,"longitude":77.1887,"temp":17.2,"humidity":62,"rain":0.0,"pressure":821.0,"uv_index":7.65,"wind_gusts":31.7,"aqi":71,"pm10":7.1,"pm2_5":3.8,"no2":11.6,"co":157.0,"o3":132.0,"so2":0.5,"mosquito_risk":3,"arthritis_risk":5,"migraine_risk":7,"frizz_risk":0,"updated_at":"2026-05-30T09:10:34.176362+05:30"},{"city":"Gurgaon","state":"Haryana","latitude":28.4595,"longitude":77.0266,"temp":29.3,"humidity":53,"rain":0.0,"pressure":981.7,"uv_index":7.7,"wind_gusts":41.4,"aqi":1272,"pm10":1452.9,"pm2_5":191.4,"no2":15.7,"co":478.0,"o3":111.0,"so2":21.2,"mosquito_risk":4,"arthritis_risk":5,"migraine_risk":7,"frizz_risk":1,"updated_at":"2026-05-30T09:10:34.176370+05:30"},{"city":"Noida","state":"Uttar Pradesh","latitude":28.5355,"longitude":77.391,"temp":29.4,"humidity":61,"rain":0.0,"pressure":985.0,"uv_index":7.65,"wind_gusts":40.7,"aqi":1272,"pm10":1452.9,"pm2_5":191.4,"no2":15.7,"co":449.0,"o3":111.0,"so2":21.2,"mosquito_risk":7,"arthritis_risk":5,"migraine_risk":7,"frizz_risk":1,"updated_at":"2026-05-30T09:10:34.176376+05:30"},{"city":"Ghaziabad","state":"Uttar Pradesh","latitude":28.6692,"longitude":77.4538,"temp":29.5,"humidity":62,"rain":0.0,"pressure":983.3,"uv_index":7.65,"wind_gusts":41.4,"aqi":186,"pm10":252.4,"pm2_5":51.2,"no2":8.2,"co":337.0,"o3":128.0,"so2":14.7,"mosquito_risk":7,"arthritis_risk":5,"migraine_risk":7,"frizz_risk":1,"updated_at":"2026-05-30T09:10:34.176385+05:30"},{"city":"Faridabad","state":"Haryana","latitude":28.4089,"longitude":77.3178,"temp":29.4,"humidity":56,"rain":0.0,"pressure":984.2,"uv_index":7.7,"wind_gusts":46.1,"aqi":1272,"pm10":1452.9,"pm2_5":191.4,"no2":15.7,"co":430.0,"o3":111.0,"so2":21.2,"mosquito_risk":4,"arthritis_risk":5,"migraine_risk":7,"frizz_risk":1,"updated_at":"2026-05-30T09:10:34.176392+05:30"},{"city":"Meerut","state":"Uttar Pradesh","latitude":28.9845,"longitude":77.7064,"temp":28.5,"humidity":68,"rain":0.0,"pressure":982.5,"uv_index":7.55,"wind_gusts":38.9,"aqi":186,"pm10":252.4,"pm2_5":51.2,"no2":8.2,"co":340.0,"o3":128.0,"so2":14.7,"mosquito_risk":7,"arthritis_risk":5,"migraine_risk":7,"frizz_risk":1,"updated_at":"2026-05-30T09:10:34.176398+05:30"},{"city":"Agra","state":"Uttar Pradesh","latitude":27.1767,"longitude":78.0081,"temp":30.2,"humidity":49,"rain":0.0,"pressure":988.0,"uv_index":7.95,"wind_gusts":64.1,"aqi":269,"pm10":776.7,"pm2_5":102.7,"no2":6.0,"co":357.0,"o3":135.0,"so2":8.8,"mosquito_risk":0,"arthritis_risk":5,"migraine_risk":7,"frizz_risk":1,"updated_at":"2026-05-30T09:10:34.176404+05:30"},{"city":"Varanasi","state":"Uttar Pradesh","latitude":25.3176,"longitude":82.9739,"temp":28.1,"humidity":68,"rain":0.0,"pressure":998.1,"uv_index":8.65,"wind_gusts":30.6,"aqi":95,"pm10":41.8,"pm2_5":30.0,"no2":8.4,"co":450.0,"o3":139.0,"so2":15.8,"mosquito_risk":7,"arthritis_risk":5,"migraine_risk":7,"frizz_risk":1,"updated_at":"2026-05-30T09:10:34.176411+05:30"},{"city":"Prayagraj","state":"Uttar Pradesh","latitude":25.4358,"longitude":81.8463,"temp":28.8,"humidity":68,"rain":0.0,"pressure":996.2,"uv_index":8.55,"wind_gusts":28.1,"aqi":87,"pm10":32.1,"pm2_5":23.3,"no2":6.8,"co":422.0,"o3":138.0,"so2":9.5,"mosquito_risk":7,"arthritis_risk":5,"migraine_risk":7,"frizz_risk":1,"updated_at":"2026-05-30T09:10:34.176418+05:30"},{"city":"Gorakhpur","state":"Uttar Pradesh","latitude":26.7606,"longitude":83.3732,"temp":28.7,"humidity":68,"rain":0.0,"pressure":998.3,"uv_index":8.55,"wind_gusts":41.8,"aqi":83,"pm10":29.0,"pm2_5":22.2,"no2":4.1,"co":452.0,"o3":145.0,"so2":10.1,"mosquito_risk":7,"arthritis_risk":5,"migraine_risk":7,"frizz_risk":1,"updated_at":"2026-05-30T09:10:34.176426+05:30"},{"city":"Bareilly","state":"Uttar Pradesh","latitude":28.367,"longitude":79.4304,"temp":29.2,"humidity":60,"rain":0.0,"pressure":988.0,"uv_index":7.9,"wind_gusts":45.0,"aqi":90,"pm10":124.8,"pm2_5":37.1,"no2":7.7,"co":351.0,"o3":125.0,"so2":10.1,"mosquito_risk":4,"arthritis_risk":5,"migraine_risk":7,"frizz_risk":1,"updated_at":"2026-05-30T09:10:34.176432+05:30"},{"city":"Aligarh","state":"Uttar Pradesh","latitude":27.8974,"longitude":78.088,"temp":29.4,"humidity":63,"rain":0.0,"pressure":986.0,"uv_index":7.8,"wind_gusts":47.5,"aqi":346,"pm10":668.7,"pm2_5":93.8,"no2":7.2,"co":354.0,"o3":124.0,"so2":12.4,"mosquito_risk":7,"arthritis_risk":5,"migraine_risk":7,"frizz_risk":1,"updated_at":"2026-05-30T09:10:34.176438+05:30"},{"city":"Moradabad","state":"Uttar Pradesh","latitude":28.8386,"longitude":78.7733,"temp":29.4,"humidity":59,"rain":0.0,"pressure":984.9,"uv_index":7.75,"wind_gusts":46.4,"aqi":96,"pm10":46.4,"pm2_5":28.2,"no2":8.8,"co":342.0,"o3":123.0,"so2":10.6,"mosquito_risk":4,"arthritis_risk":5,"migraine_risk":7,"frizz_risk":1,"updated_at":"2026-05-30T09:10:34.176444+05:30"},{"city":"Saharanpur","state":"Uttar Pradesh","latitude":29.9637,"longitude":77.546,"temp":28.8,"humidity":62,"rain":0.0,"pressure":977.4,"uv_index":7.4,"wind_gusts":44.3,"aqi":85,"pm10":38.5,"pm2_5":25.9,"no2":6.4,"co":369.0,"o3":146.0,"so2":6.6,"mosquito_risk":7,"arthritis_risk":5,"migraine_risk":7,"frizz_risk":1,"updated_at":"2026-05-30T09:10:34.176450+05:30"},{"city":"Jhansi","state":"Uttar Pradesh","latitude":25.4484,"longitude":78.5685,"temp":31.0,"humidity":49,"rain":0.0,"pressure":978.1,"uv_index":8.35,"wind_gusts":49.3,"aqi":86,"pm10":30.4,"pm2_5":18.3,"no2":4.8,"co":298.0,"o3":134.0,"so2":12.6,"mosquito_risk":0,"arthritis_risk":5,"migraine_risk":7,"frizz_risk":1,"updated_at":"2026-05-30T09:10:37.433120+05:30"},{"city":"Surat","state":"Gujarat","latitude":21.1702,"longitude":72.8311,"temp":32.2,"humidity":64,"rain":0.0,"pressure":1006.8,"uv_index":7.7,"wind_gusts":57.6,"aqi":86,"pm10":52.7,"pm2_5":26.6,"no2":9.6,"co":221.0,"o3":51.0,"so2":23.4,"mosquito_risk":3,"arthritis_risk":5,"migraine_risk":4,"frizz_risk":1,"updated_at":"2026-05-30T09:10:37.433151+05:30"},{"city":"Vadodara","state":"Gujarat","latitude":22.3072,"longitude":73.1812,"temp":32.0,"humidity":62,"rain":0.0,"pressure":1004.1,"uv_index":8.0,"wind_gusts":51.1,"aqi":80,"pm10":51.5,"pm2_5":23.5,"no2":3.2,"co":149.0,"o3":54.0,"so2":3.4,"mosquito_risk":3,"arthritis_risk":5,"migraine_risk":4,"frizz_risk":1,"updated_at":"2026-05-30T09:10:37.433162+05:30"},{"city":"Rajkot","state":"Gujarat","latitude":22.3039,"longitude":70.8022,"temp":31.7,"humidity":60,"rain":0.0,"pressure":993.2,"uv_index":7.7,"wind_gusts":54.4,"aqi":69,"pm10":38.4,"pm2_5":18.0,"no2":1.7,"co":112.0,"o3":56.0,"so2":2.4,"mosquito_risk":0,"arthritis_risk":5,"migraine_risk":7,"frizz_risk":1,"updated_at":"2026-05-30T09:10:37.433170+05:30"},{"city":"Thane","state":"Maharashtra","latitude":19.2183,"longitude":72.9781,"temp":33.2,"humidity":58,"rain":0.0,"pressure":1008.8,"uv_index":7.8,"wind_gusts":39.6,"aqi":67,"pm10":27.9,"pm2_5":17.5,"no2":5.6,"co":166.0,"o3":57.0,"so2":4.6,"mosquito_risk":0,"arthritis_risk":0,"migraine_risk":4,"frizz_risk":1,"updated_at":"2026-05-30T09:10:37.433177+05:30"},{"city":"Nagpur","state":"Maharashtra","latitude":21.1458,"longitude":79.0882,"temp":35.5,"humidity":35,"rain":0.0,"pressure":972.1,"uv_index":8.9,"wind_gusts":46.4,"aqi":68,"pm10":38.9,"pm2_5":24.2,"no2":7.8,"co":196.0,"o3":101.0,"so2":19.4,"mosquito_risk":0,"arthritis_risk":5,"migraine_risk":10,"frizz_risk":1,"updated_at":"2026-05-30T09:10:37.433185+05:30"},{"city":"Nashik","state":"Maharashtra","latitude":19.9975,"longitude":73.7898,"temp":29.0,"humidity":60,"rain":0.0,"pressure":947.1,"uv_index":8.1,"wind_gusts":54.4,"aqi":62,"pm10":24.4,"pm2_5":15.3,"no2":3.9,"co":125.0,"o3":54.0,"so2":3.6,"mosquito_risk":4,"arthritis_risk":5,"migraine_risk":7,"frizz_risk":1,"updated_at":"2026-05-30T09:10:37.433192+05:30"},{"city":"Aurangabad","state":"Maharashtra","latitude":19.8762,"longitude":75.3433,"temp":29.7,"humidity":55,"rain":0.0,"pressure":946.0,"uv_index":8.95,"wind_gusts":53.6,"aqi":62,"pm10":25.8,"pm2_5":15.9,"no2":4.7,"co":153.0,"o3":56.0,"so2":8.9,"mosquito_risk":4,"arthritis_risk":5,"migraine_risk":7,"frizz_risk":1,"updated_at":"2026-05-30T09:10:37.433199+05:30"},{"city":"Solapur","state":"Maharashtra","latitude":17.6599,"longitude":75.9064,"temp":30.1,"humidity":59,"rain":0.0,"pressure":959.0,"uv_index":8.9,"wind_gusts":37.8,"aqi":47,"pm10":14.8,"pm2_5":10.3,"no2":3.0,"co":148.0,"o3":62.0,"so2":2.6,"mosquito_risk":0,"arthritis_risk":5,"migraine_risk":7,"frizz_risk":1,"updated_at":"2026-05-30T09:10:37.433207+05:30"},{"city":"Kolhapur","state":"Maharashtra","latitude":16.705,"longitude":74.2433,"temp":29.0,"humidity":65,"rain":0.0,"pressure":950.1,"uv_index":8.75,"wind_gusts":45.7,"aqi":37,"pm10":9.2,"pm2_5":6.7,"no2":3.0,"co":153.0,"o3":60.0,"so2":1.8,"mosquito_risk":7,"arthritis_risk":5,"migraine_risk":7,"frizz_risk":1,"updated_at":"2026-05-30T09:10:37.433214+05:30"},{"city":"Goa","state":"Goa","latitude":15.2993,"longitude":74.124,"temp":29.9,"humidity":78,"rain":0.0,"pressure":999.8,"uv_index":6.3,"wind_gusts":32.4,"aqi":55,"pm10":16.6,"pm2_5":11.3,"no2":1.7,"co":189.0,"o3":61.0,"so2":1.6,"mosquito_risk":7,"arthritis_risk":5,"migraine_risk":7,"frizz_risk":1,"updated_at":"2026-05-30T09:10:37.433221+05:30"},{"city":"Jodhpur","state":"Rajasthan","latitude":26.2389,"longitude":73.0243,"temp":31.8,"humidity":58,"rain":0.0,"pressure":980.4,"uv_index":8.35,"wind_gusts":72.7,"aqi":183,"pm10":194.2,"pm2_5":43.7,"no2":2.2,"co":127.0,"o3":59.0,"so2":2.5,"mosquito_risk":0,"arthritis_risk":5,"migraine_risk":7,"frizz_risk":1,"updated_at":"2026-05-30T09:10:37.433228+05:30"},{"city":"Udaipur","state":"Rajasthan","latitude":24.5854,"longitude":73.7125,"temp":29.2,"humidity":61,"rain":0.0,"pressure":945.5,"uv_index":8.75,"wind_gusts":70.6,"aqi":69,"pm10":57.9,"pm2_5":24.4,"no2":1.9,"co":122.0,"o3":56.0,"so2":4.1,"mosquito_risk":7,"arthritis_risk":5,"migraine_risk":7,"frizz_risk":1,"updated_at":"2026-05-30T09:10:37.433236+05:30"},{"city":"Kota","state":"Rajasthan","latitude":25.2138,"longitude":75.8648,"temp":33.0,"humidity":47,"rain":0.0,"pressure":977.5,"uv_index":8.3,"wind_gusts":53.3,"aqi":74,"pm10":35.3,"pm2_5":23.1,"no2":5.0,"co":189.0,"o3":70.0,"so2":9.0,"mosquito_risk":0,"arthritis_risk":5,"migraine_risk":7,"frizz_risk":1,"updated_at":"2026-05-30T09:10:37.433242+05:30"},{"city":"Bikaner","state":"Rajasthan","latitude":28.0229,"longitude":73.3119,"temp":34.1,"humidity":42,"rain":0.0,"pressure":978.7,"uv_index":8.35,"wind_gusts":65.2,"aqi":143,"pm10":143.0,"pm2_5":42.5,"no2":2.7,"co":136.0,"o3":77.0,"so2":4.2,"mosquito_risk":0,"arthritis_risk":5,"migraine_risk":7,"frizz_risk":1,"updated_at":"2026-05-30T09:10:37.433249+05:30"},{"city":"Ajmer","state":"Rajasthan","latitude":26.4499,"longitude":74.6399,"temp":31.1,"humidity":42,"rain":0.0,"pressure":953.4,"uv_index":8.3,"wind_gusts":47.9,"aqi":77,"pm10":38.0,"pm2_5":18.9,"no2":3.4,"co":171.0,"o3":83.0,"so2":5.0,"mosquito_risk":0,"arthritis_risk":5,"migraine_risk":7,"frizz_risk":1,"updated_at":"2026-05-30T09:10:37.433256+05:30"},{"city":"Gwalior","state":"Madhya Pradesh","latitude":26.2183,"longitude":78.1828,"temp":31.2,"humidity":46,"rain":0.0,"pressure":983.3,"uv_index":8.15,"wind_gusts":52.6,"aqi":108,"pm10":66.6,"pm2_5":28.9,"no2":3.2,"co":301.0,"o3":135.0,"so2":9.2,"mosquito_risk":0,"arthritis_risk":5,"migraine_risk":7,"frizz_risk":1,"updated_at":"2026-05-30T09:10:37.433263+05:30"},{"city":"Indore","state":"Madhya Pradesh","latitude":22.7196,"longitude":75.8577,"temp":29.0,"humidity":64,"rain":0.0,"pressure":948.1,"uv_index":8.6,"wind_gusts":42.8,"aqi":78,"pm10":45.8,"pm2_5":25.6,"no2":3.9,"co":221.0,"o3":54.0,"so2":7.8,"mosquito_risk":7,"arthritis_risk":5,"migraine_risk":7,"frizz_risk":1,"updated_at":"2026-05-30T09:10:37.433270+05:30"},{"city":"Bhopal","state":"Madhya Pradesh","latitude":23.2599,"longitude":77.4126,"temp":32.7,"humidity":40,"rain":0.0,"pressure":953.0,"uv_index":8.65,"wind_gusts":52.9,"aqi":71,"pm10":39.3,"pm2_5":22.6,"no2":2.8,"co":259.0,"o3":93.0,"so2":5.9,"mosquito_risk":0,"arthritis_risk":5,"migraine_risk":7,"frizz_risk":1,"updated_at":"2026-05-30T09:10:37.433278+05:30"},{"city":"Jabalpur","state":"Madhya Pradesh","latitude":23.1815,"longitude":79.9864,"temp":34.5,"humidity":34,"rain":0.0,"pressure":959.8,"uv_index":8.8,"wind_gusts":36.4,"aqi":65,"pm10":20.4,"pm2_5":15.3,"no2":7.3,"co":270.0,"o3":125.0,"so2":18.6,"mosquito_risk":0,"arthritis_risk":5,"migraine_risk":7,"frizz_risk":1,"updated_at":"2026-05-30T09:10:37.433285+05:30"},{"city":"Ujjain","state":"Madhya Pradesh","latitude":23.1765,"longitude":75.7885,"temp":30.5,"humidity":60,"rain":0.0,"pressure":953.4,"uv_index":8.55,"wind_gusts":46.8,"aqi":77,"pm10":44.6,"pm2_5":24.4,"no2":3.2,"co":169.0,"o3":52.0,"so2":7.8,"mosquito_risk":0,"arthritis_risk":5,"migraine_risk":7,"frizz_risk":1,"updated_at":"2026-05-30T09:10:37.433298+05:30"},{"city":"Visakhapatnam","state":"Andhra Pradesh","latitude":17.6868,"longitude":83.2185,"temp":34.8,"humidity":58,"rain":0.0,"pressure":1002.0,"uv_index":8.5,"wind_gusts":39.6,"aqi":130,"pm10":51.7,"pm2_5":42.4,"no2":41.6,"co":487.0,"o3":105.0,"so2":69.0,"mosquito_risk":0,"arthritis_risk":5,"migraine_risk":4,"frizz_risk":1,"updated_at":"2026-05-30T09:10:37.433306+05:30"},{"city":"Vijayawada","state":"Andhra Pradesh","latitude":16.5062,"longitude":80.648,"temp":33.1,"humidity":54,"rain":0.0,"pressure":1002.3,"uv_index":9.05,"wind_gusts":44.6,"aqi":77,"pm10":29.2,"pm2_5":25.3,"no2":8.4,"co":244.0,"o3":97.0,"so2":7.5,"mosquito_risk":0,"arthritis_risk":5,"migraine_risk":4,"frizz_risk":1,"updated_at":"2026-05-30T09:10:37.433313+05:30"},{"city":"Guntur","state":"Andhra Pradesh","latitude":16.3067,"longitude":80.4365,"temp":32.6,"humidity":55,"rain":0.0,"pressure":1003.8,"uv_index":9.05,"wind_gusts":46.4,"aqi":68,"pm10":28.6,"pm2_5":24.8,"no2":8.9,"co":241.0,"o3":88.0,"so2":8.4,"mosquito_risk":0,"arthritis_risk":5,"migraine_risk":4,"frizz_risk":1,"updated_at":"2026-05-30T09:10:37.433320+05:30"},{"city":"Nellore","state":"Andhra Pradesh","latitude":14.4426,"longitude":79.9865,"temp":32.8,"humidity":58,"rain":0.0,"pressure":1006.3,"uv_index":9.0,"wind_gusts":49.0,"aqi":71,"pm10":16.7,"pm2_5":13.6,"no2":4.8,"co":195.0,"o3":94.0,"so2":5.9,"mosquito_risk":0,"arthritis_risk":5,"migraine_risk":4,"frizz_risk":1,"updated_at":"2026-05-30T09:10:37.433328+05:30"},{"city":"Kurnool","state":"Andhra Pradesh","latitude":15.8281,"longitude":78.0373,"temp":31.3,"humidity":64,"rain":0.0,"pressure":977.8,"uv_index":9.0,"wind_gusts":70.9,"aqi":56,"pm10":12.9,"pm2_5":10.4,"no2":4.7,"co":156.0,"o3":57.0,"so2":5.5,"mosquito_risk":3,"arthritis_risk":5,"migraine_risk":7,"frizz_risk":1,"updated_at":"2026-05-30T09:10:37.433335+05:30"},{"city":"Kakinada","state":"Andhra Pradesh","latitude":16.9891,"longitude":82.2475,"temp":33.8,"humidity":55,"rain":0.0,"pressure":1006.4,"uv_index":7.85,"wind_gusts":43.6,"aqi":108,"pm10":32.1,"pm2_5":24.8,"no2":4.8,"co":303.0,"o3":136.0,"so2":6.3,"mosquito_risk":0,"arthritis_risk":5,"migraine_risk":4,"frizz_risk":1,"updated_at":"2026-05-30T09:10:37.433379+05:30"},{"city":"Tirupati","state":"Andhra Pradesh","latitude":13.6288,"longitude":79.4192,"temp":32.9,"humidity":52,"rain":0.0,"pressure":991.1,"uv_index":8.75,"wind_gusts":31.0,"aqi":75,"pm10":21.9,"pm2_5":16.6,"no2":5.6,"co":198.0,"o3":104.0,"so2":2.4,"mosquito_risk":0,"arthritis_risk":5,"migraine_risk":7,"frizz_risk":1,"updated_at":"2026-05-30T09:10:37.433390+05:30"},{"city":"Warangal","state":"Telangana","latitude":17.9689,"longitude":79.5941,"temp":34.3,"humidity":38,"rain":0.0,"pressure":978.4,"uv_index":9.0,"wind_gusts":45.4,"aqi":74,"pm10":28.9,"pm2_5":22.5,"no2":6.5,"co":288.0,"o3":97.0,"so2":6.9,"mosquito_risk":0,"arthritis_risk":5,"migraine_risk":7,"frizz_risk":1,"updated_at":"2026-05-30T09:10:37.433398+05:30"},{"city":"Nizamabad","state":"Telangana","latitude":18.6725,"longitude":78.0941,"temp":32.2,"humidity":48,"rain":0.0,"pressure":966.1,"uv_index":9.0,"wind_gusts":38.2,"aqi":67,"pm10":44.0,"pm2_5":25.7,"no2":4.3,"co":186.0,"o3":91.0,"so2":10.0,"mosquito_risk":0,"arthritis_risk":5,"migraine_risk":7,"frizz_risk":1,"updated_at":"2026-05-30T09:10:37.433405+05:30"},{"city":"Mysore","state":"Karnataka","latitude":12.2958,"longitude":76.6396,"temp":25.9,"humidity":71,"rain":0.0,"pressure":930.7,"uv_index":8.7,"wind_gusts":42.1,"aqi":36,"pm10":6.4,"pm2_5":5.1,"no2":4.9,"co":151.0,"o3":60.0,"so2":2.1,"mosquito_risk":7,"arthritis_risk":5,"migraine_risk":7,"frizz_risk":1,"updated_at":"2026-05-30T09:10:37.433413+05:30"},{"city":"Mangalore","state":"Karnataka","latitude":12.9141,"longitude":74.856,"temp":28.4,"humidity":82,"rain":0.1,"pressure":1009.0,"uv_index":7.8,"wind_gusts":34.9,"aqi":39,"pm10":10.9,"pm2_5":7.9,"no2":4.6,"co":209.0,"o3":61.0,"so2":2.7,"mosquito_risk":10,"arthritis_risk":0,"migraine_risk":4,"frizz_risk":1,"updated_at":"2026-05-30T09:10:37.433420+05:30"},{"city":"Hubli-Dharwad","state":"Karnataka","latitude":15.3647,"longitude":75.124,"temp":28.5,"humidity":65,"rain":0.0,"pressure":943.1,"uv_index":8.55,"wind_gusts":43.9,"aqi":41,"pm10":7.6,"pm2_5":5.4,"no2":2.7,"co":137.0,"o3":60.0,"so2":1.1,"mosquito_risk":7,"arthritis_risk":5,"migraine_risk":7,"frizz_risk":1,"updated_at":"2026-05-30T09:10:37.433428+05:30"},{"city":"Belgaum","state":"Karnataka","latitude":15.8497,"longitude":74.4977,"temp":27.2,"humidity":71,"rain":0.0,"pressure":927.9,"uv_index":8.55,"wind_gusts":41.4,"aqi":32,"pm10":8.1,"pm2_5":5.7,"no2":2.6,"co":129.0,"o3":59.0,"so2":1.5,"mosquito_risk":7,"arthritis_risk":5,"migraine_risk":7,"frizz_risk":1,"updated_at":"2026-05-30T09:10:40.692928+05:30"},{"city":"Coimbatore","state":"Tamil Nadu","latitude":11.0168,"longitude":76.9558,"temp":28.6,"humidity":68,"rain":0.0,"pressure":963.3,"uv_index":8.85,"wind_gusts":49.0,"aqi":22,"pm10":5.1,"pm2_5":3.7,"no2":3.2,"co":163.0,"o3":62.0,"so2":2.2,"mosquito_risk":7,"arthritis_risk":5,"migraine_risk":7,"frizz_risk":1,"updated_at":"2026-05-30T09:10:40.692961+05:30"},{"city":"Madurai","state":"Tamil Nadu","latitude":9.9252,"longitude":78.1198,"temp":32.5,"humidity":52,"rain":0.0,"pressure":993.9,"uv_index":8.15,"wind_gusts":37.4,"aqi":66,"pm10":17.1,"pm2_5":15.4,"no2":15.1,"co":195.0,"o3":65.0,"so2":7.0,"mosquito_risk":0,"arthritis_risk":5,"migraine_risk":7,"frizz_risk":1,"updated_at":"2026-05-30T09:10:40.692974+05:30"},{"city":"Trichy","state":"Tamil Nadu","latitude":10.7905,"longitude":78.7047,"temp":31.2,"humidity":63,"rain":0.0,"pressure":1000.6,"uv_index":8.85,"wind_gusts":41.4,"aqi":40,"pm10":4.4,"pm2_5":4.0,"no2":4.6,"co":152.0,"o3":50.0,"so2":3.4,"mosquito_risk":3,"arthritis_risk":5,"migraine_risk":4,"frizz_risk":1,"updated_at":"2026-05-30T09:10:40.692985+05:30"},{"city":"Salem","state":"Tamil Nadu","latitude":11.6643,"longitude":78.146,"temp":28.6,"humidity":67,"rain":0.0,"pressure":978.8,"uv_index":8.9,"wind_gusts":30.6,"aqi":58,"pm10":13.3,"pm2_5":10.9,"no2":9.3,"co":237.0,"o3":67.0,"so2":12.1,"mosquito_risk":7,"arthritis_risk":5,"migraine_risk":7,"frizz_risk":1,"updated_at":"2026-05-30T09:10:40.692994+05:30"},{"city":"Tirunelveli","state":"Tamil Nadu","latitude":8.7139,"longitude":77.7567,"temp":32.7,"humidity":52,"rain":0.0,"pressure":1004.7,"uv_index":8.35,"wind_gusts":37.1,"aqi":19,"pm10":3.9,"pm2_5":3.2,"no2":3.3,"co":150.0,"o3":46.0,"so2":1.4,"mosquito_risk":0,"arthritis_risk":5,"migraine_risk":4,"frizz_risk":1,"updated_at":"2026-05-30T09:10:40.693004+05:30"},{"city":"Vellore","state":"Tamil Nadu","latitude":12.9165,"longitude":79.1325,"temp":30.9,"humidity":59,"rain":0.0,"pressure":984.8,"uv_index":9.05,"wind_gusts":38.9,"aqi":68,"pm10":17.2,"pm2_5":15.0,"no2":7.8,"co":220.0,"o3":86.0,"so2":5.7,"mosquito_risk":0,"arthritis_risk":5,"migraine_risk":7,"frizz_risk":1,"updated_at":"2026-05-30T09:10:40.693012+05:30"},{"city":"Erode","state":"Tamil Nadu","latitude":11.341,"longitude":77.7172,"temp":30.0,"humidity":61,"rain":0.0,"pressure":990.4,"uv_index":8.85,"wind_gusts":31.7,"aqi":34,"pm10":6.4,"pm2_5":5.6,"no2":6.3,"co":192.0,"o3":54.0,"so2":3.3,"mosquito_risk":7,"arthritis_risk":5,"migraine_risk":7,"frizz_risk":1,"updated_at":"2026-05-30T09:10:40.693021+05:30"},{"city":"Kochi","state":"Kerala","latitude":9.9312,"longitude":76.2673,"temp":26.5,"humidity":90,"rain":0.0,"pressure":1011.8,"uv_index":7.6,"wind_gusts":33.8,"aqi":38,"pm10":11.2,"pm2_5":9.3,"no2":8.4,"co":219.0,"o3":51.0,"so2":5.1,"mosquito_risk":7,"arthritis_risk":0,"migraine_risk":4,"frizz_risk":1,"updated_at":"2026-05-30T09:10:40.693030+05:30"},{"city":"Thiruvananthapuram","state":"Kerala","latitude":8.5241,"longitude":76.9366,"temp":26.6,"humidity":87,"rain":0.0,"pressure":1011.6,"uv_index":7.85,"wind_gusts":38.5,"aqi":23,"pm10":8.4,"pm2_5":4.7,"no2":2.1,"co":190.0,"o3":55.0,"so2":0.8,"mosquito_risk":7,"arthritis_risk":0,"migraine_risk":4,"frizz_risk":1,"updated_at":"2026-05-30T09:10:40.693039+05:30"},{"city":"Kozhikode","state":"Kerala","latitude":11.2588,"longitude":75.7804,"temp":26.1,"humidity":93,"rain":0.1,"pressure":1010.4,"uv_index":7.7,"wind_gusts":31.0,"aqi":29,"pm10":6.5,"pm2_5":4.1,"no2":1.6,"co":215.0,"o3":64.0,"so2":1.2,"mosquito_risk":10,"arthritis_risk":0,"migraine_risk":4,"frizz_risk":1,"updated_at":"2026-05-30T09:10:40.693049+05:30"},{"city":"Thrissur","state":"Kerala","latitude":10.5276,"longitude":76.2144,"temp":26.2,"humidity":91,"rain":0.0,"pressure":1010.1,"uv_index":7.9,"wind_gusts":34.2,"aqi":39,"pm10":11.1,"pm2_5":9.2,"no2":6.5,"co":250.0,"o3":56.0,"so2":4.8,"mosquito_risk":7,"arthritis_risk":0,"migraine_risk":4,"frizz_risk":1,"updated_at":"2026-05-30T09:10:40.693059+05:30"},{"city":"Kannur","state":"Kerala","latitude":11.8745,"longitude":75.3704,"temp":26.8,"humidity":90,"rain":0.1,"pressure":1009.7,"uv_index":8.1,"wind_gusts":36.0,"aqi":28,"pm10":7.3,"pm2_5":5.3,"no2":3.0,"co":227.0,"o3":65.0,"so2":1.9,"mosquito_risk":10,"arthritis_risk":0,"migraine_risk":4,"frizz_risk":1,"updated_at":"2026-05-30T09:10:40.693068+05:30"},{"city":"Patna","state":"Bihar","latitude":25.5941,"longitude":85.1376,"temp":27.4,"humidity":74,"rain":0.0,"pressure":1001.6,"uv_index":8.75,"wind_gusts":32.4,"aqi":106,"pm10":62.2,"pm2_5":44.7,"no2":6.6,"co":372.0,"o3":137.0,"so2":24.1,"mosquito_risk":7,"arthritis_risk":5,"migraine_risk":4,"frizz_risk":1,"updated_at":"2026-05-30T09:10:40.693077+05:30"},{"city":"Gaya","state":"Bihar","latitude":24.7914,"longitude":85.0002,"temp":29.0,"humidity":62,"rain":0.0,"pressure":994.5,"uv_index":8.8,"wind_gusts":26.6,"aqi":107,"pm10":56.1,"pm2_5":42.6,"no2":6.4,"co":482.0,"o3":125.0,"so2":27.9,"mosquito_risk":7,"arthritis_risk":5,"migraine_risk":7,"frizz_risk":1,"updated_at":"2026-05-30T09:10:40.693086+05:30"},{"city":"Muzaffarpur","state":"Bihar","latitude":26.1209,"longitude":85.3647,"temp":27.4,"humidity":72,"rain":0.0,"pressure":1002.1,"uv_index":8.75,"wind_gusts":42.8,"aqi":106,"pm10":68.9,"pm2_5":50.2,"no2":8.1,"co":357.0,"o3":136.0,"so2":27.2,"mosquito_risk":7,"arthritis_risk":5,"migraine_risk":4,"frizz_risk":1,"updated_at":"2026-05-30T09:10:40.693095+05:30"},{"city":"Bhagalpur","state":"Bihar","latitude":25.2425,"longitude":87.0117,"temp":27.9,"humidity":71,"rain":0.0,"pressure":1003.5,"uv_index":8.55,"wind_gusts":29.9,"aqi":135,"pm10":89.6,"pm2_5":47.4,"no2":10.4,"co":299.0,"o3":148.0,"so2":39.4,"mosquito_risk":7,"arthritis_risk":5,"migraine_risk":4,"frizz_risk":1,"updated_at":"2026-05-30T09:10:40.693103+05:30"},{"city":"Ranchi","state":"Jharkhand","latitude":23.3441,"longitude":85.3096,"temp":27.2,"humidity":72,"rain":0.0,"pressure":938.8,"uv_index":9.0,"wind_gusts":31.7,"aqi":136,"pm10":39.7,"pm2_5":30.2,"no2":4.3,"co":302.0,"o3":106.0,"so2":14.4,"mosquito_risk":7,"arthritis_risk":5,"migraine_risk":7,"frizz_risk":1,"updated_at":"2026-05-30T09:10:40.693111+05:30"},{"city":"Jamshedpur","state":"Jharkhand","latitude":22.8046,"longitude":86.2029,"temp":29.9,"humidity":69,"rain":0.0,"pressure":991.9,"uv_index":9.05,"wind_gusts":37.1,"aqi":120,"pm10":36.9,"pm2_5":27.4,"no2":9.6,"co":514.0,"o3":106.0,"so2":23.6,"mosquito_risk":7,"arthritis_risk":5,"migraine_risk":7,"frizz_risk":1,"updated_at":"2026-05-30T09:10:40.693119+05:30"},{"city":"Dhanbad","state":"Jharkhand","latitude":23.7957,"longitude":86.4304,"temp":27.3,"humidity":80,"rain":0.0,"pressure":981.4,"uv_index":9.05,"wind_gusts":29.2,"aqi":156,"pm10":68.5,"pm2_5":52.2,"no2":30.1,"co":564.0,"o3":99.0,"so2":99.4,"mosquito_risk":7,"arthritis_risk":5,"migraine_risk":7,"frizz_risk":1,"updated_at":"2026-05-30T09:10:40.693129+05:30"},{"city":"Bokaro","state":"Jharkhand","latitude":23.6693,"longitude":86.1511,"temp":27.6,"humidity":77,"rain":0.1,"pressure":985.1,"uv_index":9.05,"wind_gusts":31.3,"aqi":156,"pm10":54.1,"pm2_5":43.4,"no2":31.7,"co":1080.0,"o3":90.0,"so2":109.8,"mosquito_risk":10,"arthritis_risk":5,"migraine_risk":7,"frizz_risk":1,"updated_at":"2026-05-30T09:10:40.693141+05:30"},{"city":"Bhubaneswar","state":"Odisha","latitude":20.2961,"longitude":85.8245,"temp":32.0,"humidity":72,"rain":0.0,"pressure":1002.3,"uv_index":9.0,"wind_gusts":40.3,"aqi":114,"pm10":38.6,"pm2_5":27.5,"no2":3.4,"co":323.0,"o3":123.0,"so2":5.4,"mosquito_risk":3,"arthritis_risk":5,"migraine_risk":4,"frizz_risk":1,"updated_at":"2026-05-30T09:10:40.693152+05:30"},{"city":"Cuttack","state":"Odisha","latitude":20.4625,"longitude":85.8828,"temp":31.8,"humidity":72,"rain":0.0,"pressure":1004.2,"uv_index":9.1,"wind_gusts":38.5,"aqi":114,"pm10":38.6,"pm2_5":27.5,"no2":3.4,"co":274.0,"o3":123.0,"so2":5.4,"mosquito_risk":3,"arthritis_risk":5,"migraine_risk":4,"frizz_risk":1,"updated_at":"2026-05-30T09:10:40.693161+05:30"},{"city":"Rourkela","state":"Odisha","latitude":22.2604,"longitude":84.8536,"temp":31.8,"humidity":60,"rain":0.0,"pressure":985.1,"uv_index":8.95,"wind_gusts":30.6,"aqi":147,"pm10":61.2,"pm2_5":37.4,"no2":9.7,"co":501.0,"o3":102.0,"so2":27.7,"mosquito_risk":0,"arthritis_risk":5,"migraine_risk":7,"frizz_risk":1,"updated_at":"2026-05-30T09:10:40.693170+05:30"},{"city":"Raipur","state":"Chhattisgarh","latitude":21.2514,"longitude":81.6296,"temp":34.0,"humidity":50,"rain":0.0,"pressure":973.3,"uv_index":8.95,"wind_gusts":50.0,"aqi":135,"pm10":65.9,"pm2_5":55.4,"no2":48.4,"co":388.0,"o3":77.0,"so2":72.6,"mosquito_risk":0,"arthritis_risk":5,"migraine_risk":7,"frizz_risk":1,"updated_at":"2026-05-30T09:10:40.693178+05:30"},{"city":"Bhilai","state":"Chhattisgarh","latitude":21.1938,"longitude":81.3509,"temp":33.5,"humidity":50,"rain":0.0,"pressure":973.8,"uv_index":8.95,"wind_gusts":41.0,"aqi":121,"pm10":56.6,"pm2_5":46.1,"no2":40.0,"co":634.0,"o3":84.0,"so2":65.8,"mosquito_risk":0,"arthritis_risk":5,"migraine_risk":7,"frizz_risk":1,"updated_at":"2026-05-30T09:10:40.693186+05:30"},{"city":"Guwahati","state":"Assam","latitude":26.1158,"longitude":91.7086,"temp":31.1,"humidity":63,"rain":0.0,"pressure":1003.1,"uv_index":8.7,"wind_gusts":20.9,"aqi":95,"pm10":56.3,"pm2_5":29.4,"no2":2.1,"co":306.0,"o3":127.0,"so2":4.2,"mosquito_risk":3,"arthritis_risk":5,"migraine_risk":4,"frizz_risk":1,"updated_at":"2026-05-30T09:10:40.693194+05:30"},{"city":"Agartala","state":"Tripura","latitude":23.8315,"longitude":91.2868,"temp":30.8,"humidity":68,"rain":0.0,"pressure":1007.4,"uv_index":8.8,"wind_gusts":19.4,"aqi":153,"pm10":64.5,"pm2_5":51.1,"no2":9.6,"co":319.0,"o3":171.0,"so2":14.8,"mosquito_risk":3,"arthritis_risk":5,"migraine_risk":4,"frizz_risk":1,"updated_at":"2026-05-30T09:10:40.693202+05:30"},{"city":"Shillong","state":"Meghalaya","latitude":25.5788,"longitude":91.8933,"temp":25.8,"humidity":40,"rain":0.0,"pressure":861.6,"uv_index":9.05,"wind_gusts":29.5,"aqi":79,"pm10":92.0,"pm2_5":29.0,"no2":1.2,"co":218.0,"o3":131.0,"so2":4.0,"mosquito_risk":4,"arthritis_risk":5,"migraine_risk":7,"frizz_risk":0,"updated_at":"2026-05-30T09:10:40.693211+05:30"},{"city":"Imphal","state":"Manipur","latitude":24.817,"longitude":93.9368,"temp":26.9,"humidity":62,"rain":0.0,"pressure":926.1,"uv_index":8.85,"wind_gusts":23.4,"aqi":125,"pm10":82.4,"pm2_5":32.4,"no2":1.7,"co":274.0,"o3":97.0,"so2":3.0,"mosquito_risk":7,"arthritis_risk":5,"migraine_risk":7,"frizz_risk":1,"updated_at":"2026-05-30T09:10:40.693219+05:30"},{"city":"Aizawl","state":"Mizoram","latitude":23.7271,"longitude":92.7176,"temp":25.2,"humidity":65,"rain":0.0,"pressure":895.0,"uv_index":8.85,"wind_gusts":21.6,"aqi":75,"pm10":36.0,"pm2_5":19.1,"no2":1.7,"co":258.0,"o3":121.0,"so2":3.7,"mosquito_risk":7,"arthritis_risk":5,"migraine_risk":7,"frizz_risk":1,"updated_at":"2026-05-30T09:10:40.693228+05:30"},{"city":"Kohima","state":"Nagaland","latitude":25.6701,"longitude":94.1077,"temp":25.5,"humidity":57,"rain":0.1,"pressure":859.6,"uv_index":8.25,"wind_gusts":28.1,"aqi":91,"pm10":49.1,"pm2_5":24.7,"no2":1.3,"co":197.0,"o3":114.0,"so2":2.6,"mosquito_risk":7,"arthritis_risk":5,"migraine_risk":7,"frizz_risk":1,"updated_at":"2026-05-30T09:10:40.693236+05:30"},{"city":"Gangtok","state":"Sikkim","latitude":27.3314,"longitude":88.6138,"temp":16.8,"humidity":96,"rain":0.1,"pressure":841.4,"uv_index":9.15,"wind_gusts":31.7,"aqi":64,"pm10":24.1,"pm2_5":12.1,"no2":1.4,"co":253.0,"o3":121.0,"so2":1.3,"mosquito_risk":6,"arthritis_risk":10,"migraine_risk":7,"frizz_risk":1,"updated_at":"2026-05-30T09:10:40.693246+05:30"},{"city":"Siliguri","state":"West Bengal","latitude":26.7271,"longitude":88.3953,"temp":24.2,"humidity":84,"rain":0.0,"pressure":995.9,"uv_index":8.7,"wind_gusts":50.4,"aqi":110,"pm10":44.2,"pm2_5":27.4,"no2":4.2,"co":517.0,"o3":152.0,"so2":4.3,"mosquito_risk":3,"arthritis_risk":5,"migraine_risk":7,"frizz_risk":1,"updated_at":"2026-05-30T09:10:43.955614+05:30"},{"city":"Durgapur","state":"West Bengal","latitude":23.5204,"longitude":87.3119,"temp":27.4,"humidity":73,"rain":0.0,"pressure":996.8,"uv_index":8.9,"wind_gusts":37.1,"aqi":160,"pm10":98.5,"pm2_5":76.4,"no2":23.6,"co":343.0,"o3":109.0,"so2":46.9,"mosquito_risk":7,"arthritis_risk":5,"migraine_risk":7,"frizz_risk":1,"updated_at":"2026-05-30T09:10:43.955646+05:30"},{"city":"Asansol","state":"West Bengal","latitude":23.6739,"longitude":86.9524,"temp":27.9,"humidity":72,"rain":0.0,"pressure":995.4,"uv_index":8.95,"wind_gusts":34.9,"aqi":156,"pm10":81.5,"pm2_5":61.9,"no2":24.2,"co":793.0,"o3":107.0,"so2":50.6,"mosquito_risk":7,"arthritis_risk":5,"migraine_risk":7,"frizz_risk":1,"updated_at":"2026-05-30T09:10:43.955660+05:30"},{"city":"Pondicherry","state":"Puducherry","latitude":11.9139,"longitude":79.8145,"temp":31.7,"humidity":58,"rain":0.0,"pressure":1008.6,"uv_index":8.9,"wind_gusts":40.0,"aqi":65,"pm10":23.7,"pm2_5":20.0,"no2":13.0,"co":315.0,"o3":68.0,"so2":8.3,"mosquito_risk":0,"arthritis_risk":0,"migraine_risk":4,"frizz_risk":1,"updated_at":"2026-05-30T09:10:43.955671+05:30"},{"city":"Port Blair","state":"Andaman and Nicobar Islands","latitude":11.6234,"longitude":92.7265,"temp":28.5,"humidity":79,"rain":0.0,"pressure":1008.9,"uv_index":7.45,"wind_gusts":35.3,"aqi":31,"pm10":11.1,"pm2_5":6.3,"no2":0.4,"co":119.0,"o3":81.0,"so2":0.5,"mosquito_risk":7,"arthritis_risk":0,"migraine_risk":4,"frizz_risk":1,"updated_at":"2026-05-30T09:10:43.955682+05:30"},{"city":"Haridwar","state":"Uttarakhand","latitude":29.9457,"longitude":78.1642,"temp":29.5,"humidity":54,"rain":0.0,"pressure":975.7,"uv_index":7.5,"wind_gusts":50.0,"aqi":81,"pm10":34.3,"pm2_5":22.3,"no2":3.7,"co":298.0,"o3":157.0,"so2":4.5,"mosquito_risk":4,"arthritis_risk":5,"migraine_risk":7,"frizz_risk":1,"updated_at":"2026-05-30T09:10:43.955694+05:30"},{"city":"Rishikesh","state":"Uttarakhand","latitude":30.0869,"longitude":78.2676,"temp":29.5,"humidity":45,"rain":0.0,"pressure":968.4,"uv_index":7.6,"wind_gusts":43.2,"aqi":80,"pm10":30.3,"pm2_5":19.1,"no2":2.2,"co":476.0,"o3":156.0,"so2":2.5,"mosquito_risk":4,"arthritis_risk":5,"migraine_risk":7,"frizz_risk":1,"updated_at":"2026-05-30T09:10:43.955706+05:30"},{"city":"Nainital","state":"Uttarakhand","latitude":29.3919,"longitude":79.4542,"temp":19.8,"humidity":48,"rain":0.0,"pressure":808.8,"uv_index":7.8,"wind_gusts":26.6,"aqi":61,"pm10":32.5,"pm2_5":15.7,"no2":2.1,"co":228.0,"o3":149.0,"so2":2.7,"mosquito_risk":0,"arthritis_risk":5,"migraine_risk":7,"frizz_risk":0,"updated_at":"2026-05-30T09:10:43.955718+05:30"},{"city":"Mussoorie","state":"Uttarakhand","latitude":30.4599,"longitude":78.0664,"temp":17.9,"humidity":58,"rain":0.0,"pressure":805.9,"uv_index":7.85,"wind_gusts":43.6,"aqi":87,"pm10":33.4,"pm2_5":19.4,"no2":3.6,"co":292.0,"o3":160.0,"so2":5.0,"mosquito_risk":0,"arthritis_risk":5,"migraine_risk":7,"frizz_risk":0,"updated_at":"2026-05-30T09:10:43.955725+05:30"},{"city":"Dharamshala","state":"Himachal Pradesh","latitude":32.219,"longitude":76.3234,"temp":18.7,"humidity":69,"rain":0.1,"pressure":871.6,"uv_index":7.9,"wind_gusts":41.0,"aqi":65,"pm10":41.8,"pm2_5":13.8,"no2":1.5,"co":262.0,"o3":145.0,"so2":2.5,"mosquito_risk":6,"arthritis_risk":5,"migraine_risk":7,"frizz_risk":0,"updated_at":"2026-05-30T09:10:43.955731+05:30"},{"city":"Dalhousie","state":"Himachal Pradesh","latitude":32.5387,"longitude":75.971,"temp":13.6,"humidity":86,"rain":0.0,"pressure":806.0,"uv_index":7.9,"wind_gusts":33.8,"aqi":108,"pm10":66.6,"pm2_5":23.6,"no2":4.0,"co":273.0,"o3":153.0,"so2":6.3,"mosquito_risk":3,"arthritis_risk":10,"migraine_risk":7,"frizz_risk":0,"updated_at":"2026-05-30T09:10:43.955750+05:30"},{"city":"Patiala","state":"Punjab","latitude":30.3398,"longitude":76.3869,"temp":29.5,"humidity":54,"rain":0.0,"pressure":979.5,"uv_index":7.55,"wind_gusts":41.0,"aqi":1320,"pm10":1449.1,"pm2_5":173.2,"no2":5.6,"co":308.0,"o3":141.0,"so2":14.0,"mosquito_risk":4,"arthritis_risk":5,"migraine_risk":7,"frizz_risk":1,"updated_at":"2026-05-30T09:10:43.955765+05:30"},{"city":"Bhatinda","state":"Punjab","latitude":30.211,"longitude":74.9455,"temp":31.1,"humidity":42,"rain":0.0,"pressure":983.7,"uv_index":8.2,"wind_gusts":49.0,"aqi":968,"pm10":1411.9,"pm2_5":318.5,"no2":7.1,"co":329.0,"o3":108.0,"so2":16.6,"mosquito_risk":0,"arthritis_risk":5,"migraine_risk":7,"frizz_risk":1,"updated_at":"2026-05-30T09:10:43.955779+05:30"},{"city":"Rohtak","state":"Haryana","latitude":28.8955,"longitude":76.6066,"temp":29.5,"humidity":52,"rain":0.0,"pressure":982.1,"uv_index":7.65,"wind_gusts":38.5,"aqi":779,"pm10":875.4,"pm2_5":131.3,"no2":17.0,"co":393.0,"o3":112.0,"so2":26.1,"mosquito_risk":4,"arthritis_risk":5,"migraine_risk":7,"frizz_risk":1,"updated_at":"2026-05-30T09:10:43.955793+05:30"},{"city":"Panipat","state":"Haryana","latitude":29.3909,"longitude":76.9635,"temp":29.1,"humidity":60,"rain":0.0,"pressure":981.3,"uv_index":7.5,"wind_gusts":37.4,"aqi":1542,"pm10":1922.2,"pm2_5":220.3,"no2":12.7,"co":330.0,"o3":118.0,"so2":23.1,"mosquito_risk":4,"arthritis_risk":5,"migraine_risk":7,"frizz_risk":1,"updated_at":"2026-05-30T09:10:43.955803+05:30"},{"city":"Mathura","state":"Uttar Pradesh","latitude":27.4924,"longitude":77.6737,"temp":30.1,"humidity":50,"rain":0.0,"pressure":987.1,"uv_index":7.9,"wind_gusts":46.4,"aqi":257,"pm10":763.7,"pm2_5":99.7,"no2":6.4,"co":343.0,"o3":128.0,"so2":7.3,"mosquito_risk":0,"arthritis_risk":5,"migraine_risk":7,"frizz_risk":1,"updated_at":"2026-05-30T09:10:43.955809+05:30"},{"city":"Vrindavan","state":"Uttar Pradesh","latitude":27.5823,"longitude":77.7027,"temp":30.2,"humidity":49,"rain":0.0,"pressure":987.6,"uv_index":7.9,"wind_gusts":45.4,"aqi":257,"pm10":763.7,"pm2_5":99.7,"no2":6.4,"co":348.0,"o3":128.0,"so2":7.3,"mosquito_risk":0,"arthritis_risk":5,"migraine_risk":7,"frizz_risk":1,"updated_at":"2026-05-30T09:10:43.955815+05:30"},{"city":"Ayodhya","state":"Uttar Pradesh","latitude":26.7922,"longitude":82.1998,"temp":28.0,"humidity":71,"rain":0.0,"pressure":996.5,"uv_index":8.25,"wind_gusts":36.7,"aqi":84,"pm10":32.9,"pm2_5":25.3,"no2":4.0,"co":387.0,"o3":139.0,"so2":8.1,"mosquito_risk":7,"arthritis_risk":5,"migraine_risk":7,"frizz_risk":1,"updated_at":"2026-05-30T09:10:43.955821+05:30"},{"city":"Ratlam","state":"Madhya Pradesh","latitude":23.3315,"longitude":75.0367,"temp":29.0,"humidity":66,"rain":0.0,"pressure":954.4,"uv_index":8.45,"wind_gusts":58.7,"aqi":76,"pm10":51.1,"pm2_5":25.4,"no2":2.9,"co":122.0,"o3":52.0,"so2":6.7,"mosquito_risk":7,"arthritis_risk":5,"migraine_risk":7,"frizz_risk":1,"updated_at":"2026-05-30T09:10:43.955828+05:30"},{"city":"Sagar","state":"Madhya Pradesh","latitude":23.8388,"longitude":78.7378,"temp":31.6,"humidity":43,"rain":0.0,"pressure":949.9,"uv_index":8.65,"wind_gusts":33.8,"aqi":62,"pm10":23.6,"pm2_5":14.7,"no2":3.0,"co":284.0,"o3":142.0,"so2":7.3,"mosquito_risk":0,"arthritis_risk":5,"migraine_risk":7,"frizz_risk":1,"updated_at":"2026-05-30T09:10:43.955835+05:30"},{"city":"Satna","state":"Madhya Pradesh","latitude":24.6005,"longitude":80.8322,"temp":30.9,"humidity":51,"rain":0.0,"pressure":970.8,"uv_index":8.75,"wind_gusts":34.9,"aqi":73,"pm10":33.6,"pm2_5":20.5,"no2":4.8,"co":326.0,"o3":147.0,"so2":8.8,"mosquito_risk":0,"arthritis_risk":5,"migraine_risk":7,"frizz_risk":1,"updated_at":"2026-05-30T09:10:43.955845+05:30"},{"city":"Akola","state":"Maharashtra","latitude":20.7002,"longitude":77.0082,"temp":32.3,"humidity":49,"rain":0.0,"pressure":976.2,"uv_index":8.8,"wind_gusts":48.2,"aqi":66,"pm10":50.2,"pm2_5":24.3,"no2":3.9,"co":134.0,"o3":59.0,"so2":6.6,"mosquito_risk":0,"arthritis_risk":5,"migraine_risk":7,"frizz_risk":1,"updated_at":"2026-05-30T09:10:43.955853+05:30"},{"city":"Amravati","state":"Maharashtra","latitude":20.9374,"longitude":77.7796,"temp":32.8,"humidity":48,"rain":0.0,"pressure":967.9,"uv_index":8.8,"wind_gusts":49.3,"aqi":64,"pm10":50.8,"pm2_5":25.3,"no2":4.1,"co":142.0,"o3":60.0,"so2":7.2,"mosquito_risk":0,"arthritis_risk":5,"migraine_risk":7,"frizz_risk":1,"updated_at":"2026-05-30T09:10:43.955859+05:30"},{"city":"Latur","state":"Maharashtra","latitude":18.4088,"longitude":76.5604,"temp":30.2,"humidity":57,"rain":0.0,"pressure":941.8,"uv_index":8.95,"wind_gusts":38.9,"aqi":51,"pm10":20.4,"pm2_5":13.2,"no2":3.0,"co":152.0,"o3":59.0,"so2":3.2,"mosquito_risk":0,"arthritis_risk":5,"migraine_risk":7,"frizz_risk":1,"updated_at":"2026-05-30T09:10:43.955866+05:30"},{"city":"Nanded","state":"Maharashtra","latitude":19.1383,"longitude":77.3091,"temp":32.2,"humidity":51,"rain":0.0,"pressure":969.8,"uv_index":8.9,"wind_gusts":39.6,"aqi":66,"pm10":43.2,"pm2_5":25.3,"no2":4.6,"co":168.0,"o3":79.0,"so2":10.1,"mosquito_risk":0,"arthritis_risk":5,"migraine_risk":7,"frizz_risk":1,"updated_at":"2026-05-30T09:10:43.955872+05:30"},{"city":"Gulbarga","state":"Karnataka","latitude":17.3297,"longitude":76.8343,"temp":30.9,"humidity":52,"rain":0.0,"pressure":960.5,"uv_index":8.85,"wind_gusts":40.3,"aqi":49,"pm10":14.6,"pm2_5":9.9,"no2":3.9,"co":164.0,"o3":59.0,"so2":2.8,"mosquito_risk":0,"arthritis_risk":5,"migraine_risk":7,"frizz_risk":1,"updated_at":"2026-05-30T09:10:43.955878+05:30"},{"city":"Bidar","state":"Karnataka","latitude":17.9104,"longitude":77.5199,"temp":29.8,"humidity":59,"rain":0.0,"pressure":937.4,"uv_index":8.8,"wind_gusts":40.0,"aqi":57,"pm10":24.6,"pm2_5":15.8,"no2":4.9,"co":162.0,"o3":65.0,"so2":4.3,"mosquito_risk":4,"arthritis_risk":5,"migraine_risk":7,"frizz_risk":1,"updated_at":"2026-05-30T09:10:43.955884+05:30"},{"city":"Hospet","state":"Karnataka","latitude":15.2689,"longitude":76.3909,"temp":28.4,"humidity":71,"rain":0.0,"pressure":957.8,"uv_index":8.95,"wind_gusts":44.3,"aqi":48,"pm10":9.5,"pm2_5":6.9,"no2":2.9,"co":139.0,"o3":58.0,"so2":1.8,"mosquito_risk":7,"arthritis_risk":5,"migraine_risk":7,"frizz_risk":1,"updated_at":"2026-05-30T09:10:43.955890+05:30"},{"city":"Tirupur","state":"Tamil Nadu","latitude":11.1085,"longitude":77.3411,"temp":30.4,"humidity":61,"rain":0.0,"pressure":976.6,"uv_index":8.7,"wind_gusts":52.6,"aqi":36,"pm10":7.1,"pm2_5":6.1,"no2":6.0,"co":156.0,"o3":59.0,"so2":3.7,"mosquito_risk":3,"arthritis_risk":5,"migraine_risk":7,"frizz_risk":1,"updated_at":"2026-05-30T09:10:43.955896+05:30"},{"city":"Alappuzha","state":"Kerala","latitude":9.4981,"longitude":76.3388,"temp":25.5,"humidity":97,"rain":0.5,"pressure":1012.2,"uv_index":8.0,"wind_gusts":33.5,"aqi":28,"pm10":8.3,"pm2_5":6.0,"no2":4.5,"co":180.0,"o3":61.0,"so2":2.2,"mosquito_risk":10,"arthritis_risk":0,"migraine_risk":4,"frizz_risk":1,"updated_at":"2026-05-30T09:10:43.955902+05:30"},{"city":"Munnar","state":"Kerala","latitude":10.0889,"longitude":77.0595,"temp":18.2,"humidity":98,"rain":0.1,"pressure":858.8,"uv_index":8.2,"wind_gusts":28.4,"aqi":19,"pm10":3.7,"pm2_5":3.1,"no2":2.9,"co":116.0,"o3":55.0,"so2":1.8,"mosquito_risk":6,"arthritis_risk":10,"migraine_risk":7,"frizz_risk":1,"updated_at":"2026-05-30T09:10:43.955909+05:30"},{"city":"Silchar","state":"Assam","latitude":24.8333,"longitude":92.7789,"temp":30.4,"humidity":68,"rain":0.0,"pressure":1006.0,"uv_index":6.6,"wind_gusts":20.9,"aqi":133,"pm10":71.7,"pm2_5":43.1,"no2":3.4,"co":517.0,"o3":161.0,"so2":10.3,"mosquito_risk":3,"arthritis_risk":5,"migraine_risk":4,"frizz_risk":1,"updated_at":"2026-05-30T09:10:43.955915+05:30"},{"city":"Dibrugarh","state":"Assam","latitude":27.4728,"longitude":94.912,"temp":31.1,"humidity":62,"rain":0.0,"pressure":996.8,"uv_index":3.6,"wind_gusts":20.2,"aqi":117,"pm10":44.9,"pm2_5":26.5,"no2":1.9,"co":546.0,"o3":143.0,"so2":3.3,"mosquito_risk":3,"arthritis_risk":5,"migraine_risk":3,"frizz_risk":1,"updated_at":"2026-05-30T09:10:43.955922+05:30"}]