[{"city":"Delhi","state":"Delhi","latitude":28.6139,"longitude":77.209,"temp":33.7,"humidity":36,"rain":0.0,"pressure":975.4,"uv_index":7.6,"wind_gusts":34.2,"aqi":213,"pm10":305.5,"pm2_5":73.8,"no2":22.9,"co":470.0,"o3":171.0,"so2":26.4,"mosquito_risk":0,"arthritis_risk":5,"migraine_risk":7,"frizz_risk":1,"updated_at":"2026-05-02T18:48:46.063399+05:30"},{"city":"Mumbai","state":"Maharashtra","latitude":19.076,"longitude":72.8777,"temp":30.4,"humidity":68,"rain":0.0,"pressure":1005.6,"uv_index":7.9,"wind_gusts":42.1,"aqi":74,"pm10":48.7,"pm2_5":20.2,"no2":8.9,"co":226.0,"o3":75.0,"so2":16.5,"mosquito_risk":3,"arthritis_risk":5,"migraine_risk":4,"frizz_risk":1,"updated_at":"2026-05-02T18:48:46.063443+05:30"},{"city":"Bangalore","state":"Karnataka","latitude":12.9716,"longitude":77.5946,"temp":29.0,"humidity":50,"rain":0.0,"pressure":909.3,"uv_index":9.5,"wind_gusts":34.6,"aqi":140,"pm10":42.7,"pm2_5":30.0,"no2":25.0,"co":596.0,"o3":123.0,"so2":8.0,"mosquito_risk":4,"arthritis_risk":5,"migraine_risk":7,"frizz_risk":1,"updated_at":"2026-05-02T18:48:46.063460+05:30"},{"city":"Hyderabad","state":"Telangana","latitude":17.385,"longitude":78.4867,"temp":37.5,"humidity":16,"rain":0.0,"pressure":949.0,"uv_index":9.25,"wind_gusts":34.6,"aqi":91,"pm10":38.3,"pm2_5":19.4,"no2":18.5,"co":355.0,"o3":98.0,"so2":6.9,"mosquito_risk":0,"arthritis_risk":5,"migraine_risk":10,"frizz_risk":0,"updated_at":"2026-05-02T18:48:46.063475+05:30"},{"city":"Chennai","state":"Tamil Nadu","latitude":13.0827,"longitude":80.2707,"temp":31.2,"humidity":76,"rain":0.0,"pressure":1002.9,"uv_index":9.2,"wind_gusts":55.8,"aqi":102,"pm10":17.2,"pm2_5":12.7,"no2":6.4,"co":231.0,"o3":98.0,"so2":5.1,"mosquito_risk":3,"arthritis_risk":5,"migraine_risk":4,"frizz_risk":1,"updated_at":"2026-05-02T18:48:46.063485+05:30"},{"city":"Kolkata","state":"West Bengal","latitude":22.5726,"longitude":88.3639,"temp":26.6,"humidity":84,"rain":0.0,"pressure":1001.9,"uv_index":8.85,"wind_gusts":49.3,"aqi":77,"pm10":29.2,"pm2_5":24.8,"no2":13.0,"co":555.0,"o3":102.0,"so2":8.0,"mosquito_risk":7,"arthritis_risk":5,"migraine_risk":4,"frizz_risk":1,"updated_at":"2026-05-02T18:48:46.063494+05:30"},{"city":"Pune","state":"Maharashtra","latitude":18.5204,"longitude":73.8567,"temp":29.9,"humidity":52,"rain":0.0,"pressure":945.9,"uv_index":8.5,"wind_gusts":48.6,"aqi":61,"pm10":45.1,"pm2_5":15.3,"no2":4.4,"co":195.0,"o3":94.0,"so2":4.0,"mosquito_risk":4,"arthritis_risk":5,"migraine_risk":7,"frizz_risk":1,"updated_at":"2026-05-02T18:48:46.063502+05:30"},{"city":"Ahmedabad","state":"Gujarat","latitude":23.0225,"longitude":72.5714,"temp":36.0,"humidity":50,"rain":0.0,"pressure":994.9,"uv_index":8.1,"wind_gusts":52.2,"aqi":67,"pm10":129.9,"pm2_5":27.9,"no2":4.1,"co":184.0,"o3":112.0,"so2":3.5,"mosquito_risk":0,"arthritis_risk":5,"migraine_risk":10,"frizz_risk":1,"updated_at":"2026-05-02T18:48:46.063513+05:30"},{"city":"Jaipur","state":"Rajasthan","latitude":26.9124,"longitude":75.7873,"temp":37.5,"humidity":18,"rain":0.0,"pressure":952.9,"uv_index":8.15,"wind_gusts":39.2,"aqi":116,"pm10":160.7,"pm2_5":30.3,"no2":10.9,"co":193.0,"o3":99.0,"so2":3.9,"mosquito_risk":0,"arthritis_risk":5,"migraine_risk":10,"frizz_risk":0,"updated_at":"2026-05-02T18:48:46.063522+05:30"},{"city":"Lucknow","state":"Uttar Pradesh","latitude":26.8467,"longitude":80.9462,"temp":31.8,"humidity":46,"rain":0.0,"pressure":987.8,"uv_index":8.1,"wind_gusts":35.3,"aqi":170,"pm10":88.7,"pm2_5":38.8,"no2":8.7,"co":319.0,"o3":150.0,"so2":9.8,"mosquito_risk":0,"arthritis_risk":5,"migraine_risk":7,"frizz_risk":1,"updated_at":"2026-05-02T18:48:46.063530+05:30"},{"city":"Kanpur","state":"Uttar Pradesh","latitude":26.4499,"longitude":80.3319,"temp":31.6,"humidity":43,"rain":0.0,"pressure":985.8,"uv_index":8.1,"wind_gusts":35.3,"aqi":177,"pm10":245.9,"pm2_5":48.7,"no2":8.5,"co":323.0,"o3":152.0,"so2":9.3,"mosquito_risk":0,"arthritis_risk":5,"migraine_risk":7,"frizz_risk":1,"updated_at":"2026-05-02T18:48:46.063538+05:30"},{"city":"Chandigarh","state":"Chandigarh","latitude":30.7333,"longitude":76.7794,"temp":30.1,"humidity":38,"rain":0.0,"pressure":962.1,"uv_index":7.6,"wind_gusts":33.8,"aqi":166,"pm10":37.0,"pm2_5":22.9,"no2":7.9,"co":446.0,"o3":156.0,"so2":16.7,"mosquito_risk":0,"arthritis_risk":5,"migraine_risk":7,"frizz_risk":0,"updated_at":"2026-05-02T18:48:46.063546+05:30"},{"city":"Srinagar","state":"Jammu and Kashmir","latitude":34.0837,"longitude":74.7973,"temp":16.8,"humidity":74,"rain":0.0,"pressure":838.3,"uv_index":8.8,"wind_gusts":36.4,"aqi":105,"pm10":19.2,"pm2_5":14.4,"no2":10.3,"co":436.0,"o3":111.0,"so2":3.0,"mosquito_risk":3,"arthritis_risk":5,"migraine_risk":7,"frizz_risk":0,"updated_at":"2026-05-02T18:48:46.063555+05:30"},{"city":"Jammu","state":"Jammu and Kashmir","latitude":32.7266,"longitude":74.857,"temp":27.8,"humidity":41,"rain":0.0,"pressure":967.1,"uv_index":8.4,"wind_gusts":31.7,"aqi":139,"pm10":29.6,"pm2_5":19.0,"no2":8.6,"co":326.0,"o3":137.0,"so2":4.1,"mosquito_risk":4,"arthritis_risk":5,"migraine_risk":7,"frizz_risk":0,"updated_at":"2026-05-02T18:48:46.063563+05:30"},{"city":"Amritsar","state":"Punjab","latitude":31.634,"longitude":74.8723,"temp":33.9,"humidity":27,"rain":0.0,"pressure":973.6,"uv_index":8.25,"wind_gusts":32.8,"aqi":169,"pm10":37.3,"pm2_5":19.7,"no2":3.8,"co":343.0,"o3":179.0,"so2":8.1,"mosquito_risk":0,"arthritis_risk":5,"migraine_risk":7,"frizz_risk":0,"updated_at":"2026-05-02T18:48:46.063571+05:30"},{"city":"Ludhiana","state":"Punjab","latitude":30.901,"longitude":75.8573,"temp":33.2,"humidity":28,"rain":0.0,"pressure":971.6,"uv_index":7.85,"wind_gusts":31.7,"aqi":151,"pm10":49.1,"pm2_5":23.3,"no2":8.6,"co":431.0,"o3":131.0,"so2":5.8,"mosquito_risk":0,"arthritis_risk":5,"migraine_risk":7,"frizz_risk":0,"updated_at":"2026-05-02T18:48:46.063579+05:30"},{"city":"Jalandhar","state":"Punjab","latitude":31.326,"longitude":75.5762,"temp":31.5,"humidity":37,"rain":0.0,"pressure":972.4,"uv_index":8.05,"wind_gusts":27.0,"aqi":147,"pm10":48.1,"pm2_5":22.2,"no2":6.7,"co":391.0,"o3":144.0,"so2":5.8,"mosquito_risk":0,"arthritis_risk":5,"migraine_risk":7,"frizz_risk":0,"updated_at":"2026-05-02T18:48:46.063586+05:30"},{"city":"Dehradun","state":"Uttarakhand","latitude":30.6284,"longitude":78.0322,"temp":16.3,"humidity":84,"rain":0.0,"pressure":825.6,"uv_index":8.05,"wind_gusts":38.2,"aqi":146,"pm10":39.8,"pm2_5":22.8,"no2":8.8,"co":275.0,"o3":147.0,"so2":6.4,"mosquito_risk":3,"arthritis_risk":10,"migraine_risk":7,"frizz_risk":0,"updated_at":"2026-05-02T18:48:46.063596+05:30"},{"city":"Shimla","state":"Himachal Pradesh","latitude":31.1048,"longitude":77.1734,"temp":15.0,"humidity":57,"rain":0.0,"pressure":780.3,"uv_index":8.1,"wind_gusts":46.8,"aqi":153,"pm10":33.9,"pm2_5":17.9,"no2":5.3,"co":248.0,"o3":156.0,"so2":9.8,"mosquito_risk":0,"arthritis_risk":5,"migraine_risk":7,"frizz_risk":0,"updated_at":"2026-05-02T18:48:46.063604+05:30"},{"city":"Manali","state":"Himachal Pradesh","latitude":32.2396,"longitude":77.1887,"temp":11.4,"humidity":83,"rain":0.0,"pressure":812.6,"uv_index":10.3,"wind_gusts":42.8,"aqi":151,"pm10":11.9,"pm2_5":7.6,"no2":11.8,"co":191.0,"o3":155.0,"so2":0.6,"mosquito_risk":3,"arthritis_risk":10,"migraine_risk":7,"frizz_risk":0,"updated_at":"2026-05-02T18:48:46.063612+05:30"},{"city":"Gurgaon","state":"Haryana","latitude":28.4595,"longitude":77.0266,"temp":33.8,"humidity":30,"rain":0.0,"pressure":973.6,"uv_index":7.7,"wind_gusts":36.4,"aqi":802,"pm10":489.9,"pm2_5":90.6,"no2":26.2,"co":451.0,"o3":177.0,"so2":25.7,"mosquito_risk":0,"arthritis_risk":5,"migraine_risk":7,"frizz_risk":0,"updated_at":"2026-05-02T18:48:46.063619+05:30"},{"city":"Noida","state":"Uttar Pradesh","latitude":28.5355,"longitude":77.391,"temp":32.9,"humidity":40,"rain":0.0,"pressure":977.0,"uv_index":7.65,"wind_gusts":26.3,"aqi":802,"pm10":489.9,"pm2_5":90.6,"no2":26.2,"co":499.0,"o3":177.0,"so2":25.7,"mosquito_risk":0,"arthritis_risk":5,"migraine_risk":7,"frizz_risk":1,"updated_at":"2026-05-02T18:48:46.063627+05:30"},{"city":"Ghaziabad","state":"Uttar Pradesh","latitude":28.6692,"longitude":77.4538,"temp":32.7,"humidity":39,"rain":0.0,"pressure":975.5,"uv_index":7.6,"wind_gusts":33.1,"aqi":191,"pm10":261.7,"pm2_5":67.8,"no2":10.1,"co":325.0,"o3":184.0,"so2":15.5,"mosquito_risk":0,"arthritis_risk":5,"migraine_risk":7,"frizz_risk":1,"updated_at":"2026-05-02T18:48:46.063634+05:30"},{"city":"Faridabad","state":"Haryana","latitude":28.4089,"longitude":77.3178,"temp":34.8,"humidity":28,"rain":0.0,"pressure":976.2,"uv_index":7.65,"wind_gusts":32.4,"aqi":802,"pm10":489.9,"pm2_5":90.6,"no2":26.2,"co":383.0,"o3":177.0,"so2":25.7,"mosquito_risk":0,"arthritis_risk":5,"migraine_risk":7,"frizz_risk":0,"updated_at":"2026-05-02T18:48:46.063640+05:30"},{"city":"Meerut","state":"Uttar Pradesh","latitude":28.9845,"longitude":77.7064,"temp":31.0,"humidity":55,"rain":0.0,"pressure":974.6,"uv_index":7.5,"wind_gusts":29.5,"aqi":191,"pm10":261.7,"pm2_5":67.8,"no2":10.1,"co":317.0,"o3":184.0,"so2":15.5,"mosquito_risk":0,"arthritis_risk":5,"migraine_risk":7,"frizz_risk":1,"updated_at":"2026-05-02T18:48:46.063647+05:30"},{"city":"Agra","state":"Uttar Pradesh","latitude":27.1767,"longitude":78.0081,"temp":33.5,"humidity":32,"rain":0.0,"pressure":980.7,"uv_index":7.95,"wind_gusts":43.6,"aqi":719,"pm10":597.9,"pm2_5":80.3,"no2":8.3,"co":335.0,"o3":135.0,"so2":9.5,"mosquito_risk":0,"arthritis_risk":5,"migraine_risk":7,"frizz_risk":0,"updated_at":"2026-05-02T18:48:46.063654+05:30"},{"city":"Varanasi","state":"Uttar Pradesh","latitude":25.3176,"longitude":82.9739,"temp":31.5,"humidity":45,"rain":0.0,"pressure":991.9,"uv_index":8.6,"wind_gusts":34.2,"aqi":201,"pm10":66.4,"pm2_5":40.4,"no2":7.7,"co":378.0,"o3":174.0,"so2":14.9,"mosquito_risk":0,"arthritis_risk":5,"migraine_risk":7,"frizz_risk":1,"updated_at":"2026-05-02T18:48:46.063661+05:30"},{"city":"Prayagraj","state":"Uttar Pradesh","latitude":25.4358,"longitude":81.8463,"temp":24.6,"humidity":89,"rain":0.4,"pressure":990.3,"uv_index":8.5,"wind_gusts":51.5,"aqi":200,"pm10":68.0,"pm2_5":39.6,"no2":8.0,"co":333.0,"o3":165.0,"so2":11.6,"mosquito_risk":6,"arthritis_risk":5,"migraine_risk":7,"frizz_risk":1,"updated_at":"2026-05-02T18:48:46.063671+05:30"},{"city":"Gorakhpur","state":"Uttar Pradesh","latitude":26.7606,"longitude":83.3732,"temp":27.5,"humidity":56,"rain":0.0,"pressure":992.3,"uv_index":8.45,"wind_gusts":31.3,"aqi":164,"pm10":73.3,"pm2_5":34.1,"no2":5.5,"co":352.0,"o3":162.0,"so2":6.6,"mosquito_risk":4,"arthritis_risk":5,"migraine_risk":7,"frizz_risk":1,"updated_at":"2026-05-02T18:48:46.063678+05:30"},{"city":"Bareilly","state":"Uttar Pradesh","latitude":28.367,"longitude":79.4304,"temp":31.1,"humidity":42,"rain":0.0,"pressure":980.6,"uv_index":7.9,"wind_gusts":29.2,"aqi":181,"pm10":190.9,"pm2_5":52.7,"no2":6.9,"co":317.0,"o3":161.0,"so2":11.5,"mosquito_risk":0,"arthritis_risk":5,"migraine_risk":7,"frizz_risk":1,"updated_at":"2026-05-02T18:48:46.063687+05:30"},{"city":"Aligarh","state":"Uttar Pradesh","latitude":27.8974,"longitude":78.088,"temp":32.5,"humidity":40,"rain":0.0,"pressure":978.2,"uv_index":7.75,"wind_gusts":28.4,"aqi":420,"pm10":249.6,"pm2_5":60.1,"no2":10.0,"co":309.0,"o3":145.0,"so2":14.4,"mosquito_risk":0,"arthritis_risk":5,"migraine_risk":7,"frizz_risk":1,"updated_at":"2026-05-02T18:48:46.063695+05:30"},{"city":"Moradabad","state":"Uttar Pradesh","latitude":28.8386,"longitude":78.7733,"temp":30.9,"humidity":45,"rain":0.0,"pressure":977.4,"uv_index":7.7,"wind_gusts":31.0,"aqi":189,"pm10":190.5,"pm2_5":59.5,"no2":8.5,"co":439.0,"o3":170.0,"so2":21.0,"mosquito_risk":0,"arthritis_risk":5,"migraine_risk":7,"frizz_risk":1,"updated_at":"2026-05-02T18:48:46.063701+05:30"},{"city":"Saharanpur","state":"Uttar Pradesh","latitude":29.9637,"longitude":77.546,"temp":29.1,"humidity":53,"rain":0.0,"pressure":968.9,"uv_index":7.35,"wind_gusts":31.7,"aqi":171,"pm10":148.1,"pm2_5":47.1,"no2":16.2,"co":364.0,"o3":141.0,"so2":11.4,"mosquito_risk":4,"arthritis_risk":5,"migraine_risk":7,"frizz_risk":1,"updated_at":"2026-05-02T18:48:46.063708+05:30"},{"city":"Jhansi","state":"Uttar Pradesh","latitude":25.4484,"longitude":78.5685,"temp":32.7,"humidity":38,"rain":0.0,"pressure":971.5,"uv_index":8.4,"wind_gusts":49.0,"aqi":84,"pm10":77.5,"pm2_5":23.4,"no2":3.5,"co":190.0,"o3":112.0,"so2":6.6,"mosquito_risk":0,"arthritis_risk":5,"migraine_risk":7,"frizz_risk":1,"updated_at":"2026-05-02T18:48:49.351045+05:30"},{"city":"Surat","state":"Gujarat","latitude":21.1702,"longitude":72.8311,"temp":29.9,"humidity":76,"rain":0.0,"pressure":1001.7,"uv_index":7.7,"wind_gusts":52.2,"aqi":65,"pm10":31.9,"pm2_5":18.0,"no2":15.9,"co":209.0,"o3":61.0,"so2":31.4,"mosquito_risk":7,"arthritis_risk":5,"migraine_risk":4,"frizz_risk":1,"updated_at":"2026-05-02T18:48:49.351076+05:30"},{"city":"Vadodara","state":"Gujarat","latitude":22.3072,"longitude":73.1812,"temp":33.8,"humidity":52,"rain":0.0,"pressure":997.9,"uv_index":8.05,"wind_gusts":50.8,"aqi":67,"pm10":22.5,"pm2_5":15.5,"no2":7.7,"co":228.0,"o3":100.0,"so2":12.9,"mosquito_risk":0,"arthritis_risk":5,"migraine_risk":7,"frizz_risk":1,"updated_at":"2026-05-02T18:48:49.351086+05:30"},{"city":"Rajkot","state":"Gujarat","latitude":22.3039,"longitude":70.8022,"temp":35.7,"humidity":31,"rain":0.0,"pressure":988.2,"uv_index":7.75,"wind_gusts":56.5,"aqi":61,"pm10":56.6,"pm2_5":18.4,"no2":3.0,"co":153.0,"o3":101.0,"so2":5.9,"mosquito_risk":0,"arthritis_risk":5,"migraine_risk":10,"frizz_risk":0,"updated_at":"2026-05-02T18:48:49.351095+05:30"},{"city":"Thane","state":"Maharashtra","latitude":19.2183,"longitude":72.9781,"temp":30.9,"humidity":65,"rain":0.0,"pressure":1005.0,"uv_index":7.9,"wind_gusts":40.0,"aqi":74,"pm10":48.7,"pm2_5":20.2,"no2":8.9,"co":228.0,"o3":75.0,"so2":16.5,"mosquito_risk":3,"arthritis_risk":5,"migraine_risk":4,"frizz_risk":1,"updated_at":"2026-05-02T18:48:49.351103+05:30"},{"city":"Nagpur","state":"Maharashtra","latitude":21.1458,"longitude":79.0882,"temp":39.0,"humidity":14,"rain":0.0,"pressure":967.1,"uv_index":8.95,"wind_gusts":46.4,"aqi":100,"pm10":41.3,"pm2_5":16.9,"no2":8.8,"co":239.0,"o3":102.0,"so2":11.5,"mosquito_risk":0,"arthritis_risk":5,"migraine_risk":10,"frizz_risk":0,"updated_at":"2026-05-02T18:48:49.351111+05:30"},{"city":"Nashik","state":"Maharashtra","latitude":19.9975,"longitude":73.7898,"temp":30.5,"humidity":47,"rain":0.0,"pressure":942.8,"uv_index":8.25,"wind_gusts":45.7,"aqi":65,"pm10":37.5,"pm2_5":15.1,"no2":2.9,"co":168.0,"o3":92.0,"so2":4.0,"mosquito_risk":0,"arthritis_risk":5,"migraine_risk":7,"frizz_risk":1,"updated_at":"2026-05-02T18:48:49.351119+05:30"},{"city":"Aurangabad","state":"Maharashtra","latitude":19.8762,"longitude":75.3433,"temp":36.2,"humidity":19,"rain":0.0,"pressure":940.3,"uv_index":9.05,"wind_gusts":39.2,"aqi":58,"pm10":45.5,"pm2_5":14.7,"no2":2.4,"co":167.0,"o3":99.0,"so2":2.1,"mosquito_risk":0,"arthritis_risk":5,"migraine_risk":10,"frizz_risk":0,"updated_at":"2026-05-02T18:48:49.351127+05:30"},{"city":"Solapur","state":"Maharashtra","latitude":17.6599,"longitude":75.9064,"temp":37.4,"humidity":12,"rain":0.0,"pressure":952.1,"uv_index":9.05,"wind_gusts":43.6,"aqi":59,"pm10":40.6,"pm2_5":13.4,"no2":4.2,"co":205.0,"o3":102.0,"so2":1.9,"mosquito_risk":0,"arthritis_risk":5,"migraine_risk":10,"frizz_risk":0,"updated_at":"2026-05-02T18:48:49.351135+05:30"},{"city":"Kolhapur","state":"Maharashtra","latitude":16.705,"longitude":74.2433,"temp":28.4,"humidity":57,"rain":0.0,"pressure":945.8,"uv_index":8.95,"wind_gusts":49.0,"aqi":66,"pm10":42.1,"pm2_5":16.4,"no2":4.5,"co":169.0,"o3":80.0,"so2":1.9,"mosquito_risk":4,"arthritis_risk":5,"migraine_risk":7,"frizz_risk":1,"updated_at":"2026-05-02T18:48:49.351142+05:30"},{"city":"Goa","state":"Goa","latitude":15.2993,"longitude":74.124,"temp":30.5,"humidity":67,"rain":0.0,"pressure":996.2,"uv_index":8.95,"wind_gusts":38.5,"aqi":71,"pm10":67.1,"pm2_5":17.7,"no2":1.7,"co":154.0,"o3":70.0,"so2":0.9,"mosquito_risk":3,"arthritis_risk":5,"migraine_risk":7,"frizz_risk":1,"updated_at":"2026-05-02T18:48:49.351150+05:30"},{"city":"Jodhpur","state":"Rajasthan","latitude":26.2389,"longitude":73.0243,"temp":39.2,"humidity":15,"rain":0.0,"pressure":974.5,"uv_index":8.3,"wind_gusts":37.8,"aqi":123,"pm10":260.8,"pm2_5":37.3,"no2":2.1,"co":210.0,"o3":114.0,"so2":2.2,"mosquito_risk":0,"arthritis_risk":5,"migraine_risk":10,"frizz_risk":0,"updated_at":"2026-05-02T18:48:49.351157+05:30"},{"city":"Udaipur","state":"Rajasthan","latitude":24.5854,"longitude":73.7125,"temp":35.6,"humidity":18,"rain":0.0,"pressure":940.6,"uv_index":8.8,"wind_gusts":38.2,"aqi":69,"pm10":135.0,"pm2_5":27.2,"no2":1.3,"co":169.0,"o3":127.0,"so2":3.2,"mosquito_risk":0,"arthritis_risk":5,"migraine_risk":10,"frizz_risk":0,"updated_at":"2026-05-02T18:48:49.351165+05:30"},{"city":"Kota","state":"Rajasthan","latitude":25.2138,"longitude":75.8648,"temp":36.7,"humidity":25,"rain":0.0,"pressure":971.9,"uv_index":8.35,"wind_gusts":40.3,"aqi":78,"pm10":63.8,"pm2_5":21.2,"no2":5.1,"co":178.0,"o3":105.0,"so2":3.5,"mosquito_risk":0,"arthritis_risk":5,"migraine_risk":10,"frizz_risk":0,"updated_at":"2026-05-02T18:48:49.351172+05:30"},{"city":"Bikaner","state":"Rajasthan","latitude":28.0229,"longitude":73.3119,"temp":39.0,"humidity":15,"rain":0.0,"pressure":973.0,"uv_index":8.25,"wind_gusts":34.6,"aqi":72,"pm10":93.6,"pm2_5":21.7,"no2":1.9,"co":168.0,"o3":111.0,"so2":5.3,"mosquito_risk":0,"arthritis_risk":5,"migraine_risk":10,"frizz_risk":0,"updated_at":"2026-05-02T18:48:49.351179+05:30"},{"city":"Ajmer","state":"Rajasthan","latitude":26.4499,"longitude":74.6399,"temp":36.2,"humidity":16,"rain":0.0,"pressure":948.3,"uv_index":8.3,"wind_gusts":55.8,"aqi":65,"pm10":80.8,"pm2_5":20.7,"no2":3.7,"co":166.0,"o3":105.0,"so2":3.3,"mosquito_risk":0,"arthritis_risk":5,"migraine_risk":10,"frizz_risk":0,"updated_at":"2026-05-02T18:48:49.351187+05:30"},{"city":"Gwalior","state":"Madhya Pradesh","latitude":26.2183,"longitude":78.1828,"temp":34.2,"humidity":23,"rain":0.0,"pressure":976.4,"uv_index":8.15,"wind_gusts":45.4,"aqi":116,"pm10":116.4,"pm2_5":31.7,"no2":2.5,"co":228.0,"o3":135.0,"so2":4.5,"mosquito_risk":0,"arthritis_risk":5,"migraine_risk":7,"frizz_risk":0,"updated_at":"2026-05-02T18:48:49.351194+05:30"},{"city":"Indore","state":"Madhya Pradesh","latitude":22.7196,"longitude":75.8577,"temp":36.4,"humidity":16,"rain":0.0,"pressure":943.2,"uv_index":8.65,"wind_gusts":53.6,"aqi":59,"pm10":36.7,"pm2_5":13.6,"no2":3.7,"co":213.0,"o3":101.0,"so2":3.0,"mosquito_risk":0,"arthritis_risk":5,"migraine_risk":10,"frizz_risk":0,"updated_at":"2026-05-02T18:48:49.351201+05:30"},{"city":"Bhopal","state":"Madhya Pradesh","latitude":23.2599,"longitude":77.4126,"temp":34.5,"humidity":25,"rain":0.0,"pressure":948.3,"uv_index":8.7,"wind_gusts":60.8,"aqi":64,"pm10":54.0,"pm2_5":18.6,"no2":3.0,"co":260.0,"o3":104.0,"so2":3.0,"mosquito_risk":0,"arthritis_risk":5,"migraine_risk":7,"frizz_risk":0,"updated_at":"2026-05-02T18:48:49.351208+05:30"},{"city":"Jabalpur","state":"Madhya Pradesh","latitude":23.1815,"longitude":79.9864,"temp":26.4,"humidity":70,"rain":0.2,"pressure":956.7,"uv_index":8.85,"wind_gusts":72.0,"aqi":80,"pm10":71.7,"pm2_5":22.8,"no2":6.3,"co":219.0,"o3":100.0,"so2":4.0,"mosquito_risk":10,"arthritis_risk":5,"migraine_risk":7,"frizz_risk":1,"updated_at":"2026-05-02T18:48:49.351215+05:30"},{"city":"Ujjain","state":"Madhya Pradesh","latitude":23.1765,"longitude":75.7885,"temp":36.2,"humidity":18,"rain":0.0,"pressure":948.4,"uv_index":8.6,"wind_gusts":51.5,"aqi":57,"pm10":35.3,"pm2_5":13.2,"no2":2.0,"co":168.0,"o3":101.0,"so2":2.4,"mosquito_risk":0,"arthritis_risk":5,"migraine_risk":10,"frizz_risk":0,"updated_at":"2026-05-02T18:48:49.351223+05:30"},{"city":"Visakhapatnam","state":"Andhra Pradesh","latitude":17.6868,"longitude":83.2185,"temp":29.4,"humidity":82,"rain":0.0,"pressure":999.8,"uv_index":8.85,"wind_gusts":55.4,"aqi":61,"pm10":22.2,"pm2_5":18.2,"no2":15.1,"co":295.0,"o3":85.0,"so2":7.4,"mosquito_risk":7,"arthritis_risk":5,"migraine_risk":7,"frizz_risk":1,"updated_at":"2026-05-02T18:48:49.351230+05:30"},{"city":"Vijayawada","state":"Andhra Pradesh","latitude":16.5062,"longitude":80.648,"temp":34.4,"humidity":48,"rain":0.0,"pressure":997.2,"uv_index":9.2,"wind_gusts":40.0,"aqi":140,"pm10":42.0,"pm2_5":31.0,"no2":5.3,"co":299.0,"o3":150.0,"so2":8.1,"mosquito_risk":0,"arthritis_risk":5,"migraine_risk":7,"frizz_risk":1,"updated_at":"2026-05-02T18:48:49.351238+05:30"},{"city":"Guntur","state":"Andhra Pradesh","latitude":16.3067,"longitude":80.4365,"temp":33.5,"humidity":55,"rain":0.0,"pressure":998.5,"uv_index":9.2,"wind_gusts":41.0,"aqi":132,"pm10":48.3,"pm2_5":31.3,"no2":7.1,"co":290.0,"o3":131.0,"so2":7.2,"mosquito_risk":0,"arthritis_risk":5,"migraine_risk":7,"frizz_risk":1,"updated_at":"2026-05-02T18:48:49.351245+05:30"},{"city":"Nellore","state":"Andhra Pradesh","latitude":14.4426,"longitude":79.9865,"temp":32.2,"humidity":70,"rain":0.0,"pressure":1000.4,"uv_index":9.2,"wind_gusts":50.0,"aqi":153,"pm10":24.9,"pm2_5":16.2,"no2":3.4,"co":247.0,"o3":130.0,"so2":4.2,"mosquito_risk":3,"arthritis_risk":5,"migraine_risk":4,"frizz_risk":1,"updated_at":"2026-05-02T18:48:49.351253+05:30"},{"city":"Kurnool","state":"Andhra Pradesh","latitude":15.8281,"longitude":78.0373,"temp":38.0,"humidity":17,"rain":0.0,"pressure":971.9,"uv_index":9.2,"wind_gusts":32.8,"aqi":113,"pm10":38.9,"pm2_5":18.7,"no2":7.5,"co":218.0,"o3":128.0,"so2":7.1,"mosquito_risk":0,"arthritis_risk":5,"migraine_risk":10,"frizz_risk":0,"updated_at":"2026-05-02T18:48:49.351260+05:30"},{"city":"Kakinada","state":"Andhra Pradesh","latitude":16.9891,"longitude":82.2475,"temp":31.3,"humidity":71,"rain":0.0,"pressure":1003.3,"uv_index":9.15,"wind_gusts":43.6,"aqi":52,"pm10":20.3,"pm2_5":14.8,"no2":3.0,"co":263.0,"o3":99.0,"so2":2.6,"mosquito_risk":3,"arthritis_risk":5,"migraine_risk":4,"frizz_risk":1,"updated_at":"2026-05-02T18:48:49.351268+05:30"},{"city":"Tirupati","state":"Andhra Pradesh","latitude":13.6288,"longitude":79.4192,"temp":35.5,"humidity":34,"rain":0.0,"pressure":986.6,"uv_index":9.3,"wind_gusts":48.2,"aqi":144,"pm10":34.6,"pm2_5":22.8,"no2":9.9,"co":214.0,"o3":135.0,"so2":5.0,"mosquito_risk":0,"arthritis_risk":5,"migraine_risk":10,"frizz_risk":1,"updated_at":"2026-05-02T18:48:49.351298+05:30"},{"city":"Warangal","state":"Telangana","latitude":17.9689,"longitude":79.5941,"temp":36.4,"humidity":23,"rain":0.0,"pressure":973.6,"uv_index":9.15,"wind_gusts":31.0,"aqi":116,"pm10":56.8,"pm2_5":29.4,"no2":11.7,"co":283.0,"o3":106.0,"so2":7.4,"mosquito_risk":0,"arthritis_risk":5,"migraine_risk":10,"frizz_risk":0,"updated_at":"2026-05-02T18:48:49.351306+05:30"},{"city":"Nizamabad","state":"Telangana","latitude":18.6725,"longitude":78.0941,"temp":36.7,"humidity":15,"rain":0.0,"pressure":959.6,"uv_index":9.1,"wind_gusts":31.7,"aqi":82,"pm10":39.0,"pm2_5":18.6,"no2":6.6,"co":182.0,"o3":112.0,"so2":3.1,"mosquito_risk":0,"arthritis_risk":5,"migraine_risk":10,"frizz_risk":0,"updated_at":"2026-05-02T18:48:49.351313+05:30"},{"city":"Mysore","state":"Karnataka","latitude":12.2958,"longitude":76.6396,"temp":28.5,"humidity":57,"rain":0.0,"pressure":926.7,"uv_index":9.4,"wind_gusts":45.7,"aqi":106,"pm10":23.8,"pm2_5":18.0,"no2":8.5,"co":204.0,"o3":116.0,"so2":2.1,"mosquito_risk":4,"arthritis_risk":5,"migraine_risk":7,"frizz_risk":1,"updated_at":"2026-05-02T18:48:49.351321+05:30"},{"city":"Mangalore","state":"Karnataka","latitude":12.9141,"longitude":74.856,"temp":30.0,"humidity":70,"rain":0.0,"pressure":1005.0,"uv_index":9.05,"wind_gusts":44.3,"aqi":65,"pm10":32.5,"pm2_5":14.6,"no2":2.0,"co":148.0,"o3":73.0,"so2":1.1,"mosquito_risk":7,"arthritis_risk":5,"migraine_risk":4,"frizz_risk":1,"updated_at":"2026-05-02T18:48:49.351328+05:30"},{"city":"Hubli-Dharwad","state":"Karnataka","latitude":15.3647,"longitude":75.124,"temp":28.1,"humidity":64,"rain":0.0,"pressure":938.5,"uv_index":9.2,"wind_gusts":51.5,"aqi":62,"pm10":42.1,"pm2_5":17.1,"no2":3.6,"co":176.0,"o3":95.0,"so2":1.6,"mosquito_risk":7,"arthritis_risk":5,"migraine_risk":7,"frizz_risk":1,"updated_at":"2026-05-02T18:48:49.351336+05:30"},{"city":"Belgaum","state":"Karnataka","latitude":15.8497,"longitude":74.4977,"temp":26.6,"humidity":68,"rain":0.0,"pressure":924.1,"uv_index":9.2,"wind_gusts":48.6,"aqi":62,"pm10":46.4,"pm2_5":15.8,"no2":3.6,"co":155.0,"o3":74.0,"so2":1.6,"mosquito_risk":7,"arthritis_risk":5,"migraine_risk":7,"frizz_risk":1,"updated_at":"2026-05-02T18:48:52.636366+05:30"},{"city":"Coimbatore","state":"Tamil Nadu","latitude":11.0168,"longitude":76.9558,"temp":28.2,"humidity":71,"rain":0.0,"pressure":959.6,"uv_index":9.1,"wind_gusts":48.6,"aqi":96,"pm10":22.0,"pm2_5":19.0,"no2":7.0,"co":277.0,"o3":97.0,"so2":2.9,"mosquito_risk":7,"arthritis_risk":5,"migraine_risk":7,"frizz_risk":1,"updated_at":"2026-05-02T18:48:52.636402+05:30"},{"city":"Madurai","state":"Tamil Nadu","latitude":9.9252,"longitude":78.1198,"temp":32.5,"humidity":50,"rain":0.0,"pressure":990.5,"uv_index":9.2,"wind_gusts":40.0,"aqi":149,"pm10":21.5,"pm2_5":19.0,"no2":7.5,"co":414.0,"o3":132.0,"so2":4.7,"mosquito_risk":0,"arthritis_risk":5,"migraine_risk":7,"frizz_risk":1,"updated_at":"2026-05-02T18:48:52.636415+05:30"},{"city":"Trichy","state":"Tamil Nadu","latitude":10.7905,"longitude":78.7047,"temp":32.9,"humidity":50,"rain":0.0,"pressure":996.7,"uv_index":9.2,"wind_gusts":44.3,"aqi":132,"pm10":19.0,"pm2_5":16.8,"no2":5.8,"co":312.0,"o3":129.0,"so2":3.9,"mosquito_risk":0,"arthritis_risk":5,"migraine_risk":7,"frizz_risk":1,"updated_at":"2026-05-02T18:48:52.636426+05:30"},{"city":"Salem","state":"Tamil Nadu","latitude":11.6643,"longitude":78.146,"temp":32.7,"humidity":46,"rain":0.0,"pressure":974.1,"uv_index":9.25,"wind_gusts":44.3,"aqi":176,"pm10":37.3,"pm2_5":28.6,"no2":7.4,"co":306.0,"o3":160.0,"so2":10.4,"mosquito_risk":0,"arthritis_risk":5,"migraine_risk":7,"frizz_risk":1,"updated_at":"2026-05-02T18:48:52.636436+05:30"},{"city":"Tirunelveli","state":"Tamil Nadu","latitude":8.7139,"longitude":77.7567,"temp":32.8,"humidity":51,"rain":0.0,"pressure":1000.6,"uv_index":9.1,"wind_gusts":34.6,"aqi":60,"pm10":15.9,"pm2_5":13.9,"no2":5.3,"co":249.0,"o3":93.0,"so2":1.3,"mosquito_risk":0,"arthritis_risk":5,"migraine_risk":4,"frizz_risk":1,"updated_at":"2026-05-02T18:48:52.636445+05:30"},{"city":"Vellore","state":"Tamil Nadu","latitude":12.9165,"longitude":79.1325,"temp":34.8,"humidity":38,"rain":0.0,"pressure":980.2,"uv_index":9.3,"wind_gusts":46.1,"aqi":146,"pm10":36.3,"pm2_5":28.8,"no2":7.4,"co":244.0,"o3":146.0,"so2":5.3,"mosquito_risk":0,"arthritis_risk":5,"migraine_risk":7,"frizz_risk":1,"updated_at":"2026-05-02T18:48:52.636454+05:30"},{"city":"Erode","state":"Tamil Nadu","latitude":11.341,"longitude":77.7172,"temp":34.6,"humidity":38,"rain":0.0,"pressure":985.9,"uv_index":9.25,"wind_gusts":54.4,"aqi":145,"pm10":26.3,"pm2_5":22.5,"no2":10.1,"co":290.0,"o3":130.0,"so2":2.1,"mosquito_risk":0,"arthritis_risk":5,"migraine_risk":7,"frizz_risk":1,"updated_at":"2026-05-02T18:48:52.636463+05:30"},{"city":"Kochi","state":"Kerala","latitude":9.9312,"longitude":76.2673,"temp":27.9,"humidity":87,"rain":0.0,"pressure":1007.5,"uv_index":8.1,"wind_gusts":31.7,"aqi":74,"pm10":27.9,"pm2_5":20.5,"no2":17.0,"co":227.0,"o3":59.0,"so2":3.3,"mosquito_risk":7,"arthritis_risk":5,"migraine_risk":4,"frizz_risk":1,"updated_at":"2026-05-02T18:48:52.636473+05:30"},{"city":"Thiruvananthapuram","state":"Kerala","latitude":8.5241,"longitude":76.9366,"temp":26.3,"humidity":93,"rain":0.0,"pressure":1007.5,"uv_index":7.1,"wind_gusts":35.3,"aqi":53,"pm10":14.8,"pm2_5":9.8,"no2":2.5,"co":228.0,"o3":87.0,"so2":0.9,"mosquito_risk":7,"arthritis_risk":5,"migraine_risk":4,"frizz_risk":1,"updated_at":"2026-05-02T18:48:52.636481+05:30"},{"city":"Kozhikode","state":"Kerala","latitude":11.2588,"longitude":75.7804,"temp":28.9,"humidity":83,"rain":0.0,"pressure":1006.2,"uv_index":8.7,"wind_gusts":40.0,"aqi":59,"pm10":29.0,"pm2_5":16.6,"no2":1.2,"co":184.0,"o3":70.0,"so2":0.7,"mosquito_risk":7,"arthritis_risk":5,"migraine_risk":4,"frizz_risk":1,"updated_at":"2026-05-02T18:48:52.636490+05:30"},{"city":"Thrissur","state":"Kerala","latitude":10.5276,"longitude":76.2144,"temp":27.9,"humidity":84,"rain":0.0,"pressure":1005.9,"uv_index":7.8,"wind_gusts":38.2,"aqi":69,"pm10":20.7,"pm2_5":15.2,"no2":9.0,"co":324.0,"o3":71.0,"so2":2.2,"mosquito_risk":7,"arthritis_risk":5,"migraine_risk":4,"frizz_risk":1,"updated_at":"2026-05-02T18:48:52.636500+05:30"},{"city":"Kannur","state":"Kerala","latitude":11.8745,"longitude":75.3704,"temp":30.3,"humidity":71,"rain":0.0,"pressure":1005.5,"uv_index":9.0,"wind_gusts":50.0,"aqi":75,"pm10":28.5,"pm2_5":16.0,"no2":3.3,"co":161.0,"o3":69.0,"so2":0.9,"mosquito_risk":3,"arthritis_risk":5,"migraine_risk":4,"frizz_risk":1,"updated_at":"2026-05-02T18:48:52.636508+05:30"},{"city":"Patna","state":"Bihar","latitude":25.5941,"longitude":85.1376,"temp":27.8,"humidity":62,"rain":0.0,"pressure":995.8,"uv_index":8.65,"wind_gusts":30.2,"aqi":182,"pm10":72.9,"pm2_5":45.1,"no2":8.9,"co":367.0,"o3":164.0,"so2":13.3,"mosquito_risk":7,"arthritis_risk":5,"migraine_risk":7,"frizz_risk":1,"updated_at":"2026-05-02T18:48:52.636517+05:30"},{"city":"Gaya","state":"Bihar","latitude":24.7914,"longitude":85.0002,"temp":28.8,"humidity":58,"rain":0.0,"pressure":988.5,"uv_index":8.75,"wind_gusts":29.5,"aqi":185,"pm10":76.8,"pm2_5":40.5,"no2":5.4,"co":404.0,"o3":167.0,"so2":13.6,"mosquito_risk":4,"arthritis_risk":5,"migraine_risk":7,"frizz_risk":1,"updated_at":"2026-05-02T18:48:52.636525+05:30"},{"city":"Muzaffarpur","state":"Bihar","latitude":26.1209,"longitude":85.3647,"temp":26.2,"humidity":66,"rain":0.0,"pressure":995.9,"uv_index":8.65,"wind_gusts":30.6,"aqi":172,"pm10":66.1,"pm2_5":43.9,"no2":9.9,"co":377.0,"o3":151.0,"so2":10.5,"mosquito_risk":7,"arthritis_risk":5,"migraine_risk":7,"frizz_risk":1,"updated_at":"2026-05-02T18:48:52.636534+05:30"},{"city":"Bhagalpur","state":"Bihar","latitude":25.2425,"longitude":87.0117,"temp":26.2,"humidity":65,"rain":0.0,"pressure":997.0,"uv_index":8.65,"wind_gusts":31.0,"aqi":177,"pm10":61.0,"pm2_5":44.6,"no2":9.6,"co":381.0,"o3":160.0,"so2":5.6,"mosquito_risk":7,"arthritis_risk":5,"migraine_risk":7,"frizz_risk":1,"updated_at":"2026-05-02T18:48:52.636542+05:30"},{"city":"Ranchi","state":"Jharkhand","latitude":23.3441,"longitude":85.3096,"temp":25.5,"humidity":54,"rain":0.0,"pressure":932.6,"uv_index":9.2,"wind_gusts":45.4,"aqi":159,"pm10":67.1,"pm2_5":38.1,"no2":8.7,"co":354.0,"o3":136.0,"so2":10.1,"mosquito_risk":4,"arthritis_risk":5,"migraine_risk":7,"frizz_risk":0,"updated_at":"2026-05-02T18:48:52.636552+05:30"},{"city":"Jamshedpur","state":"Jharkhand","latitude":22.8046,"longitude":86.2029,"temp":30.0,"humidity":48,"rain":0.0,"pressure":985.6,"uv_index":9.0,"wind_gusts":60.1,"aqi":202,"pm10":89.6,"pm2_5":68.0,"no2":20.4,"co":408.0,"o3":174.0,"so2":50.1,"mosquito_risk":4,"arthritis_risk":5,"migraine_risk":7,"frizz_risk":1,"updated_at":"2026-05-02T18:48:52.636558+05:30"},{"city":"Dhanbad","state":"Jharkhand","latitude":23.7957,"longitude":86.4304,"temp":26.5,"humidity":75,"rain":0.0,"pressure":975.1,"uv_index":9.0,"wind_gusts":29.9,"aqi":208,"pm10":99.9,"pm2_5":78.2,"no2":30.4,"co":520.0,"o3":199.0,"so2":60.8,"mosquito_risk":7,"arthritis_risk":5,"migraine_risk":7,"frizz_risk":1,"updated_at":"2026-05-02T18:48:52.636566+05:30"},{"city":"Bokaro","state":"Jharkhand","latitude":23.6693,"longitude":86.1511,"temp":27.5,"humidity":68,"rain":0.0,"pressure":978.7,"uv_index":8.85,"wind_gusts":25.6,"aqi":180,"pm10":90.1,"pm2_5":61.7,"no2":30.9,"co":896.0,"o3":177.0,"so2":64.7,"mosquito_risk":7,"arthritis_risk":5,"migraine_risk":7,"frizz_risk":1,"updated_at":"2026-05-02T18:48:52.636573+05:30"},{"city":"Bhubaneswar","state":"Odisha","latitude":20.2961,"longitude":85.8245,"temp":29.5,"humidity":79,"rain":0.0,"pressure":997.8,"uv_index":9.05,"wind_gusts":54.7,"aqi":93,"pm10":16.5,"pm2_5":14.4,"no2":6.4,"co":269.0,"o3":104.0,"so2":4.2,"mosquito_risk":7,"arthritis_risk":5,"migraine_risk":7,"frizz_risk":1,"updated_at":"2026-05-02T18:48:52.636580+05:30"},{"city":"Cuttack","state":"Odisha","latitude":20.4625,"longitude":85.8828,"temp":30.2,"humidity":75,"rain":0.0,"pressure":999.4,"uv_index":9.1,"wind_gusts":52.2,"aqi":93,"pm10":16.5,"pm2_5":14.4,"no2":6.4,"co":337.0,"o3":104.0,"so2":4.2,"mosquito_risk":3,"arthritis_risk":5,"migraine_risk":7,"frizz_risk":1,"updated_at":"2026-05-02T18:48:52.636587+05:30"},{"city":"Rourkela","state":"Odisha","latitude":22.2604,"longitude":84.8536,"temp":29.7,"humidity":49,"rain":0.0,"pressure":979.1,"uv_index":8.95,"wind_gusts":51.1,"aqi":176,"pm10":64.0,"pm2_5":34.9,"no2":9.1,"co":504.0,"o3":146.0,"so2":23.2,"mosquito_risk":4,"arthritis_risk":5,"migraine_risk":7,"frizz_risk":1,"updated_at":"2026-05-02T18:48:52.636595+05:30"},{"city":"Raipur","state":"Chhattisgarh","latitude":21.2514,"longitude":81.6296,"temp":35.2,"humidity":24,"rain":0.0,"pressure":969.1,"uv_index":9.0,"wind_gusts":51.1,"aqi":164,"pm10":44.5,"pm2_5":27.0,"no2":17.1,"co":209.0,"o3":131.0,"so2":6.7,"mosquito_risk":0,"arthritis_risk":5,"migraine_risk":10,"frizz_risk":0,"updated_at":"2026-05-02T18:48:52.636602+05:30"},{"city":"Bhilai","state":"Chhattisgarh","latitude":21.1938,"longitude":81.3509,"temp":36.2,"humidity":19,"rain":0.0,"pressure":969.1,"uv_index":9.0,"wind_gusts":51.5,"aqi":151,"pm10":44.7,"pm2_5":24.6,"no2":11.8,"co":317.0,"o3":134.0,"so2":5.4,"mosquito_risk":0,"arthritis_risk":5,"migraine_risk":10,"frizz_risk":0,"updated_at":"2026-05-02T18:48:52.636609+05:30"},{"city":"Guwahati","state":"Assam","latitude":26.1158,"longitude":91.7086,"temp":20.0,"humidity":99,"rain":0.3,"pressure":1000.1,"uv_index":4.3,"wind_gusts":21.6,"aqi":62,"pm10":25.0,"pm2_5":22.0,"no2":7.9,"co":364.0,"o3":95.0,"so2":2.5,"mosquito_risk":6,"arthritis_risk":5,"migraine_risk":0,"frizz_risk":1,"updated_at":"2026-05-02T18:48:52.636616+05:30"},{"city":"Agartala","state":"Tripura","latitude":23.8315,"longitude":91.2868,"temp":25.0,"humidity":83,"rain":0.0,"pressure":1003.5,"uv_index":8.8,"wind_gusts":36.0,"aqi":45,"pm10":14.5,"pm2_5":13.0,"no2":9.2,"co":239.0,"o3":62.0,"so2":2.1,"mosquito_risk":7,"arthritis_risk":5,"migraine_risk":4,"frizz_risk":1,"updated_at":"2026-05-02T18:48:52.636623+05:30"},{"city":"Shillong","state":"Meghalaya","latitude":25.5788,"longitude":91.8933,"temp":14.6,"humidity":94,"rain":0.1,"pressure":852.9,"uv_index":5.85,"wind_gusts":31.0,"aqi":49,"pm10":10.2,"pm2_5":7.2,"no2":5.6,"co":328.0,"o3":97.0,"so2":1.4,"mosquito_risk":6,"arthritis_risk":10,"migraine_risk":3,"frizz_risk":0,"updated_at":"2026-05-02T18:48:52.636630+05:30"},{"city":"Imphal","state":"Manipur","latitude":24.817,"longitude":93.9368,"temp":17.5,"humidity":96,"rain":0.0,"pressure":921.0,"uv_index":6.3,"wind_gusts":25.2,"aqi":55,"pm10":17.0,"pm2_5":14.0,"no2":9.6,"co":539.0,"o3":63.0,"so2":1.9,"mosquito_risk":3,"arthritis_risk":10,"migraine_risk":7,"frizz_risk":1,"updated_at":"2026-05-02T18:48:52.636637+05:30"},{"city":"Aizawl","state":"Mizoram","latitude":23.7271,"longitude":92.7176,"temp":17.0,"humidity":87,"rain":0.0,"pressure":889.7,"uv_index":9.0,"wind_gusts":46.8,"aqi":38,"pm10":9.8,"pm2_5":7.0,"no2":4.2,"co":197.0,"o3":64.0,"so2":0.4,"mosquito_risk":3,"arthritis_risk":10,"migraine_risk":7,"frizz_risk":0,"updated_at":"2026-05-02T18:48:52.636644+05:30"},{"city":"Kohima","state":"Nagaland","latitude":25.6701,"longitude":94.1077,"temp":15.2,"humidity":96,"rain":0.0,"pressure":852.0,"uv_index":6.0,"wind_gusts":28.4,"aqi":44,"pm10":13.9,"pm2_5":10.7,"no2":7.6,"co":314.0,"o3":70.0,"so2":0.9,"mosquito_risk":3,"arthritis_risk":10,"migraine_risk":3,"frizz_risk":0,"updated_at":"2026-05-02T18:48:52.636652+05:30"},{"city":"Gangtok","state":"Sikkim","latitude":27.3314,"longitude":88.6138,"temp":13.4,"humidity":82,"rain":0.0,"pressure":832.5,"uv_index":4.0,"wind_gusts":25.9,"aqi":67,"pm10":11.2,"pm2_5":9.9,"no2":7.2,"co":402.0,"o3":112.0,"so2":1.1,"mosquito_risk":3,"arthritis_risk":10,"migraine_risk":3,"frizz_risk":0,"updated_at":"2026-05-02T18:48:52.636658+05:30"},{"city":"Siliguri","state":"West Bengal","latitude":26.7271,"longitude":88.3953,"temp":21.2,"humidity":91,"rain":0.0,"pressure":990.5,"uv_index":2.75,"wind_gusts":22.0,"aqi":77,"pm10":14.3,"pm2_5":13.3,"no2":10.2,"co":560.0,"o3":114.0,"so2":2.3,"mosquito_risk":3,"arthritis_risk":5,"migraine_risk":3,"frizz_risk":1,"updated_at":"2026-05-02T18:48:55.932873+05:30"},{"city":"Durgapur","state":"West Bengal","latitude":23.5204,"longitude":87.3119,"temp":25.5,"humidity":83,"rain":0.0,"pressure":990.5,"uv_index":8.9,"wind_gusts":26.3,"aqi":209,"pm10":85.9,"pm2_5":71.5,"no2":23.9,"co":909.0,"o3":183.0,"so2":43.9,"mosquito_risk":7,"arthritis_risk":5,"migraine_risk":7,"frizz_risk":1,"updated_at":"2026-05-02T18:48:55.932904+05:30"},{"city":"Asansol","state":"West Bengal","latitude":23.6739,"longitude":86.9524,"temp":25.6,"humidity":79,"rain":0.0,"pressure":989.0,"uv_index":8.95,"wind_gusts":27.7,"aqi":213,"pm10":91.5,"pm2_5":75.7,"no2":23.0,"co":600.0,"o3":205.0,"so2":49.1,"mosquito_risk":7,"arthritis_risk":5,"migraine_risk":7,"frizz_risk":1,"updated_at":"2026-05-02T18:48:55.932915+05:30"},{"city":"Pondicherry","state":"Puducherry","latitude":11.9139,"longitude":79.8145,"temp":31.0,"humidity":73,"rain":0.0,"pressure":1004.4,"uv_index":9.15,"wind_gusts":52.2,"aqi":106,"pm10":19.6,"pm2_5":14.4,"no2":5.7,"co":242.0,"o3":103.0,"so2":2.7,"mosquito_risk":3,"arthritis_risk":5,"migraine_risk":4,"frizz_risk":1,"updated_at":"2026-05-02T18:48:55.932923+05:30"},{"city":"Port Blair","state":"Andaman and Nicobar Islands","latitude":11.6234,"longitude":92.7265,"temp":30.0,"humidity":67,"rain":0.0,"pressure":1006.2,"uv_index":9.0,"wind_gusts":32.4,"aqi":34,"pm10":12.4,"pm2_5":9.0,"no2":0.6,"co":190.0,"o3":59.0,"so2":0.3,"mosquito_risk":7,"arthritis_risk":5,"migraine_risk":4,"frizz_risk":1,"updated_at":"2026-05-02T18:48:55.932931+05:30"},{"city":"Haridwar","state":"Uttarakhand","latitude":29.9457,"longitude":78.1642,"temp":27.8,"humidity":57,"rain":0.0,"pressure":967.9,"uv_index":7.4,"wind_gusts":27.4,"aqi":167,"pm10":96.6,"pm2_5":36.1,"no2":7.2,"co":317.0,"o3":155.0,"so2":7.2,"mosquito_risk":4,"arthritis_risk":5,"migraine_risk":7,"frizz_risk":1,"updated_at":"2026-05-02T18:48:55.932939+05:30"},{"city":"Rishikesh","state":"Uttarakhand","latitude":30.0869,"longitude":78.2676,"temp":25.3,"humidity":60,"rain":0.0,"pressure":960.7,"uv_index":7.5,"wind_gusts":24.5,"aqi":165,"pm10":79.9,"pm2_5":32.5,"no2":3.6,"co":329.0,"o3":163.0,"so2":5.8,"mosquito_risk":4,"arthritis_risk":5,"migraine_risk":7,"frizz_risk":1,"updated_at":"2026-05-02T18:48:55.932947+05:30"},{"city":"Nainital","state":"Uttarakhand","latitude":29.3919,"longitude":79.4542,"temp":13.6,"humidity":90,"rain":0.0,"pressure":800.4,"uv_index":8.1,"wind_gusts":38.5,"aqi":158,"pm10":104.8,"pm2_5":36.4,"no2":5.3,"co":311.0,"o3":162.0,"so2":7.6,"mosquito_risk":3,"arthritis_risk":10,"migraine_risk":7,"frizz_risk":0,"updated_at":"2026-05-02T18:48:55.932955+05:30"},{"city":"Mussoorie","state":"Uttarakhand","latitude":30.4599,"longitude":78.0664,"temp":14.2,"humidity":86,"rain":0.0,"pressure":797.8,"uv_index":7.9,"wind_gusts":52.6,"aqi":176,"pm10":75.4,"pm2_5":27.2,"no2":7.5,"co":316.0,"o3":167.0,"so2":10.4,"mosquito_risk":3,"arthritis_risk":10,"migraine_risk":7,"frizz_risk":0,"updated_at":"2026-05-02T18:48:55.932962+05:30"},{"city":"Dharamshala","state":"Himachal Pradesh","latitude":32.219,"longitude":76.3234,"temp":21.0,"humidity":52,"rain":0.0,"pressure":864.2,"uv_index":8.25,"wind_gusts":50.0,"aqi":126,"pm10":17.5,"pm2_5":10.9,"no2":3.9,"co":237.0,"o3":139.0,"so2":1.5,"mosquito_risk":0,"arthritis_risk":5,"migraine_risk":7,"frizz_risk":0,"updated_at":"2026-05-02T18:48:55.932970+05:30"},{"city":"Dalhousie","state":"Himachal Pradesh","latitude":32.5387,"longitude":75.971,"temp":15.3,"humidity":63,"rain":0.0,"pressure":800.3,"uv_index":8.5,"wind_gusts":37.4,"aqi":143,"pm10":22.7,"pm2_5":12.6,"no2":12.1,"co":288.0,"o3":142.0,"so2":2.9,"mosquito_risk":3,"arthritis_risk":5,"migraine_risk":7,"frizz_risk":0,"updated_at":"2026-05-02T18:48:55.932977+05:30"},{"city":"Patiala","state":"Punjab","latitude":30.3398,"longitude":76.3869,"temp":32.8,"humidity":31,"rain":0.0,"pressure":970.8,"uv_index":7.5,"wind_gusts":30.6,"aqi":236,"pm10":412.6,"pm2_5":54.6,"no2":4.4,"co":294.0,"o3":143.0,"so2":9.5,"mosquito_risk":0,"arthritis_risk":5,"migraine_risk":7,"frizz_risk":0,"updated_at":"2026-05-02T18:48:55.932984+05:30"},{"city":"Bhatinda","state":"Punjab","latitude":30.211,"longitude":74.9455,"temp":35.7,"humidity":20,"rain":0.0,"pressure":975.6,"uv_index":8.15,"wind_gusts":38.9,"aqi":178,"pm10":71.0,"pm2_5":23.2,"no2":4.9,"co":265.0,"o3":145.0,"so2":10.0,"mosquito_risk":0,"arthritis_risk":5,"migraine_risk":10,"frizz_risk":0,"updated_at":"2026-05-02T18:48:55.932991+05:30"},{"city":"Rohtak","state":"Haryana","latitude":28.8955,"longitude":76.6066,"temp":34.8,"humidity":23,"rain":0.0,"pressure":973.9,"uv_index":7.65,"wind_gusts":28.1,"aqi":379,"pm10":330.6,"pm2_5":73.3,"no2":20.0,"co":361.0,"o3":149.0,"so2":15.3,"mosquito_risk":0,"arthritis_risk":5,"migraine_risk":7,"frizz_risk":0,"updated_at":"2026-05-02T18:48:55.932998+05:30"},{"city":"Panipat","state":"Haryana","latitude":29.3909,"longitude":76.9635,"temp":32.5,"humidity":40,"rain":0.0,"pressure":972.9,"uv_index":7.45,"wind_gusts":25.9,"aqi":475,"pm10":421.9,"pm2_5":80.8,"no2":15.0,"co":363.0,"o3":159.0,"so2":19.6,"mosquito_risk":0,"arthritis_risk":5,"migraine_risk":7,"frizz_risk":1,"updated_at":"2026-05-02T18:48:55.933005+05:30"},{"city":"Mathura","state":"Uttar Pradesh","latitude":27.4924,"longitude":77.6737,"temp":32.8,"humidity":35,"rain":0.0,"pressure":979.5,"uv_index":7.9,"wind_gusts":30.2,"aqi":679,"pm10":353.0,"pm2_5":61.2,"no2":8.0,"co":377.0,"o3":139.0,"so2":6.8,"mosquito_risk":0,"arthritis_risk":5,"migraine_risk":7,"frizz_risk":0,"updated_at":"2026-05-02T18:48:55.933012+05:30"},{"city":"Vrindavan","state":"Uttar Pradesh","latitude":27.5823,"longitude":77.7027,"temp":33.2,"humidity":34,"rain":0.0,"pressure":979.8,"uv_index":7.85,"wind_gusts":29.9,"aqi":679,"pm10":353.0,"pm2_5":61.2,"no2":8.0,"co":345.0,"o3":139.0,"so2":6.8,"mosquito_risk":0,"arthritis_risk":5,"migraine_risk":7,"frizz_risk":0,"updated_at":"2026-05-02T18:48:55.933020+05:30"},{"city":"Ayodhya","state":"Uttar Pradesh","latitude":26.7922,"longitude":82.1998,"temp":29.4,"humidity":53,"rain":0.0,"pressure":990.5,"uv_index":8.25,"wind_gusts":41.0,"aqi":162,"pm10":101.7,"pm2_5":37.5,"no2":8.1,"co":320.0,"o3":150.0,"so2":7.1,"mosquito_risk":4,"arthritis_risk":5,"migraine_risk":7,"frizz_risk":1,"updated_at":"2026-05-02T18:48:55.933027+05:30"},{"city":"Ratlam","state":"Madhya Pradesh","latitude":23.3315,"longitude":75.0367,"temp":35.8,"humidity":21,"rain":0.0,"pressure":949.2,"uv_index":8.55,"wind_gusts":50.0,"aqi":54,"pm10":53.0,"pm2_5":15.1,"no2":1.0,"co":149.0,"o3":110.0,"so2":2.6,"mosquito_risk":0,"arthritis_risk":5,"migraine_risk":10,"frizz_risk":0,"updated_at":"2026-05-02T18:48:55.933034+05:30"},{"city":"Sagar","state":"Madhya Pradesh","latitude":23.8388,"longitude":78.7378,"temp":28.2,"humidity":50,"rain":0.0,"pressure":944.8,"uv_index":8.7,"wind_gusts":73.1,"aqi":76,"pm10":67.3,"pm2_5":19.9,"no2":2.9,"co":160.0,"o3":112.0,"so2":3.6,"mosquito_risk":4,"arthritis_risk":5,"migraine_risk":7,"frizz_risk":1,"updated_at":"2026-05-02T18:48:55.933041+05:30"},{"city":"Satna","state":"Madhya Pradesh","latitude":24.6005,"longitude":80.8322,"temp":29.8,"humidity":46,"rain":0.0,"pressure":966.1,"uv_index":8.7,"wind_gusts":51.5,"aqi":114,"pm10":37.5,"pm2_5":14.6,"no2":4.2,"co":184.0,"o3":125.0,"so2":4.1,"mosquito_risk":4,"arthritis_risk":5,"migraine_risk":7,"frizz_risk":1,"updated_at":"2026-05-02T18:48:55.933048+05:30"},{"city":"Akola","state":"Maharashtra","latitude":20.7002,"longitude":77.0082,"temp":37.5,"humidity":22,"rain":0.0,"pressure":969.5,"uv_index":8.9,"wind_gusts":46.8,"aqi":57,"pm10":65.2,"pm2_5":20.4,"no2":3.3,"co":179.0,"o3":99.0,"so2":7.2,"mosquito_risk":0,"arthritis_risk":5,"migraine_risk":10,"frizz_risk":0,"updated_at":"2026-05-02T18:48:55.933056+05:30"},{"city":"Amravati","state":"Maharashtra","latitude":20.9374,"longitude":77.7796,"temp":37.5,"humidity":18,"rain":0.0,"pressure":961.9,"uv_index":8.9,"wind_gusts":42.8,"aqi":64,"pm10":72.9,"pm2_5":21.2,"no2":4.6,"co":175.0,"o3":96.0,"so2":6.0,"mosquito_risk":0,"arthritis_risk":5,"migraine_risk":10,"frizz_risk":0,"updated_at":"2026-05-02T18:48:55.933065+05:30"},{"city":"Latur","state":"Maharashtra","latitude":18.4088,"longitude":76.5604,"temp":37.0,"humidity":13,"rain":0.0,"pressure":935.4,"uv_index":9.05,"wind_gusts":32.8,"aqi":57,"pm10":40.9,"pm2_5":14.0,"no2":4.3,"co":207.0,"o3":103.0,"so2":4.9,"mosquito_risk":0,"arthritis_risk":5,"migraine_risk":10,"frizz_risk":0,"updated_at":"2026-05-02T18:48:55.933072+05:30"},{"city":"Nanded","state":"Maharashtra","latitude":19.1383,"longitude":77.3091,"temp":38.3,"humidity":13,"rain":0.0,"pressure":963.0,"uv_index":8.95,"wind_gusts":31.3,"aqi":73,"pm10":48.8,"pm2_5":16.9,"no2":5.4,"co":206.0,"o3":104.0,"so2":2.0,"mosquito_risk":0,"arthritis_risk":5,"migraine_risk":10,"frizz_risk":0,"updated_at":"2026-05-02T18:48:55.933079+05:30"},{"city":"Gulbarga","state":"Karnataka","latitude":17.3297,"longitude":76.8343,"temp":38.0,"humidity":13,"rain":0.0,"pressure":953.3,"uv_index":9.1,"wind_gusts":41.8,"aqi":71,"pm10":44.0,"pm2_5":15.5,"no2":13.6,"co":179.0,"o3":97.0,"so2":3.1,"mosquito_risk":0,"arthritis_risk":5,"migraine_risk":10,"frizz_risk":0,"updated_at":"2026-05-02T18:48:55.933086+05:30"},{"city":"Bidar","state":"Karnataka","latitude":17.9104,"longitude":77.5199,"temp":35.0,"humidity":15,"rain":0.0,"pressure":931.2,"uv_index":9.1,"wind_gusts":34.6,"aqi":75,"pm10":41.2,"pm2_5":18.9,"no2":8.6,"co":319.0,"o3":107.0,"so2":4.1,"mosquito_risk":0,"arthritis_risk":5,"migraine_risk":7,"frizz_risk":0,"updated_at":"2026-05-02T18:48:55.933093+05:30"},{"city":"Hospet","state":"Karnataka","latitude":15.2689,"longitude":76.3909,"temp":33.5,"humidity":27,"rain":0.0,"pressure":951.3,"uv_index":9.2,"wind_gusts":41.8,"aqi":80,"pm10":46.3,"pm2_5":20.1,"no2":8.4,"co":188.0,"o3":111.0,"so2":1.9,"mosquito_risk":0,"arthritis_risk":5,"migraine_risk":7,"frizz_risk":0,"updated_at":"2026-05-02T18:48:55.933100+05:30"},{"city":"Tirupur","state":"Tamil Nadu","latitude":11.1085,"longitude":77.3411,"temp":29.9,"humidity":65,"rain":0.0,"pressure":972.3,"uv_index":9.3,"wind_gusts":55.8,"aqi":134,"pm10":25.7,"pm2_5":21.7,"no2":11.0,"co":262.0,"o3":113.0,"so2":3.5,"mosquito_risk":7,"arthritis_risk":5,"migraine_risk":7,"frizz_risk":1,"updated_at":"2026-05-02T18:48:55.933106+05:30"},{"city":"Alappuzha","state":"Kerala","latitude":9.4981,"longitude":76.3388,"temp":27.1,"humidity":90,"rain":0.0,"pressure":1007.9,"uv_index":8.2,"wind_gusts":29.9,"aqi":72,"pm10":28.1,"pm2_5":18.8,"no2":8.9,"co":157.0,"o3":77.0,"so2":3.5,"mosquito_risk":7,"arthritis_risk":5,"migraine_risk":4,"frizz_risk":1,"updated_at":"2026-05-02T18:48:55.933113+05:30"},{"city":"Munnar","state":"Kerala","latitude":10.0889,"longitude":77.0595,"temp":18.4,"humidity":98,"rain":0.0,"pressure":856.1,"uv_index":9.2,"wind_gusts":24.8,"aqi":57,"pm10":16.8,"pm2_5":14.5,"no2":7.1,"co":350.0,"o3":82.0,"so2":1.4,"mosquito_risk":3,"arthritis_risk":10,"migraine_risk":7,"frizz_risk":1,"updated_at":"2026-05-02T18:48:55.933121+05:30"},{"city":"Silchar","state":"Assam","latitude":24.8333,"longitude":92.7789,"temp":22.1,"humidity":94,"rain":0.0,"pressure":1003.3,"uv_index":6.75,"wind_gusts":32.8,"aqi":55,"pm10":18.6,"pm2_5":13.7,"no2":8.1,"co":244.0,"o3":59.0,"so2":4.2,"mosquito_risk":3,"arthritis_risk":5,"migraine_risk":4,"frizz_risk":1,"updated_at":"2026-05-02T18:48:55.933128+05:30"},{"city":"Dibrugarh","state":"Assam","latitude":27.4728,"longitude":94.912,"temp":21.5,"humidity":95,"rain":0.2,"pressure":994.6,"uv_index":7.3,"wind_gusts":22.7,"aqi":75,"pm10":22.5,"pm2_5":18.2,"no2":8.0,"co":312.0,"o3":88.0,"so2":1.7,"mosquito_risk":6,"arthritis_risk":5,"migraine_risk":7,"frizz_risk":1,"updated_at":"2026-05-02T18:48:55.933135+05:30"}]