[{"city":"Delhi","state":"Delhi","latitude":28.6139,"longitude":77.209,"temp":32.4,"humidity":34,"rain":0.0,"pressure":980.0,"uv_index":6.85,"wind_gusts":36.0,"aqi":293,"pm10":258.9,"pm2_5":66.6,"mosquito_risk":0,"arthritis_risk":5,"migraine_risk":7,"frizz_risk":0,"updated_at":"2026-04-29T09:19:39.781076+05:30"},{"city":"Mumbai","state":"Maharashtra","latitude":19.076,"longitude":72.8777,"temp":30.4,"humidity":67,"rain":0.0,"pressure":1008.7,"uv_index":8.05,"wind_gusts":40.0,"aqi":82,"pm10":47.0,"pm2_5":31.9,"mosquito_risk":3,"arthritis_risk":0,"migraine_risk":4,"frizz_risk":1,"updated_at":"2026-04-29T09:19:39.781117+05:30"},{"city":"Bangalore","state":"Karnataka","latitude":12.9716,"longitude":77.5946,"temp":28.7,"humidity":57,"rain":0.0,"pressure":913.4,"uv_index":9.35,"wind_gusts":33.1,"aqi":96,"pm10":39.2,"pm2_5":34.1,"mosquito_risk":4,"arthritis_risk":5,"migraine_risk":7,"frizz_risk":1,"updated_at":"2026-04-29T09:19:39.781132+05:30"},{"city":"Hyderabad","state":"Telangana","latitude":17.385,"longitude":78.4867,"temp":33.9,"humidity":35,"rain":0.0,"pressure":954.0,"uv_index":9.3,"wind_gusts":32.0,"aqi":121,"pm10":51.7,"pm2_5":44.6,"mosquito_risk":0,"arthritis_risk":5,"migraine_risk":7,"frizz_risk":1,"updated_at":"2026-04-29T09:19:39.781142+05:30"},{"city":"Chennai","state":"Tamil Nadu","latitude":13.0827,"longitude":80.2707,"temp":33.8,"humidity":55,"rain":0.0,"pressure":1007.7,"uv_index":8.85,"wind_gusts":55.4,"aqi":55,"pm10":16.4,"pm2_5":13.7,"mosquito_risk":0,"arthritis_risk":5,"migraine_risk":4,"frizz_risk":1,"updated_at":"2026-04-29T09:19:39.781151+05:30"},{"city":"Kolkata","state":"West Bengal","latitude":22.5726,"longitude":88.3639,"temp":31.8,"humidity":72,"rain":0.0,"pressure":1003.9,"uv_index":8.7,"wind_gusts":45.0,"aqi":83,"pm10":28.0,"pm2_5":23.3,"mosquito_risk":3,"arthritis_risk":5,"migraine_risk":4,"frizz_risk":1,"updated_at":"2026-04-29T09:19:39.781161+05:30"},{"city":"Pune","state":"Maharashtra","latitude":18.5204,"longitude":73.8567,"temp":31.8,"humidity":22,"rain":0.0,"pressure":949.3,"uv_index":8.65,"wind_gusts":41.0,"aqi":74,"pm10":43.4,"pm2_5":21.4,"mosquito_risk":0,"arthritis_risk":5,"migraine_risk":7,"frizz_risk":0,"updated_at":"2026-04-29T09:19:39.781172+05:30"},{"city":"Ahmedabad","state":"Gujarat","latitude":23.0225,"longitude":72.5714,"temp":31.6,"humidity":40,"rain":0.0,"pressure":1000.9,"uv_index":8.2,"wind_gusts":50.8,"aqi":47,"pm10":37.4,"pm2_5":15.1,"mosquito_risk":0,"arthritis_risk":5,"migraine_risk":4,"frizz_risk":1,"updated_at":"2026-04-29T09:19:39.781180+05:30"},{"city":"Jaipur","state":"Rajasthan","latitude":26.9124,"longitude":75.7873,"temp":33.8,"humidity":27,"rain":0.0,"pressure":956.8,"uv_index":8.05,"wind_gusts":47.2,"aqi":91,"pm10":137.8,"pm2_5":29.7,"mosquito_risk":0,"arthritis_risk":5,"migraine_risk":7,"frizz_risk":0,"updated_at":"2026-04-29T09:19:39.781187+05:30"},{"city":"Lucknow","state":"Uttar Pradesh","latitude":26.8467,"longitude":80.9462,"temp":34.3,"humidity":45,"rain":0.0,"pressure":990.5,"uv_index":7.4,"wind_gusts":47.9,"aqi":154,"pm10":77.8,"pm2_5":50.4,"mosquito_risk":0,"arthritis_risk":5,"migraine_risk":7,"frizz_risk":1,"updated_at":"2026-04-29T09:19:39.781194+05:30"},{"city":"Kanpur","state":"Uttar Pradesh","latitude":26.4499,"longitude":80.3319,"temp":35.3,"humidity":34,"rain":0.0,"pressure":988.6,"uv_index":7.8,"wind_gusts":41.8,"aqi":243,"pm10":226.8,"pm2_5":62.2,"mosquito_risk":0,"arthritis_risk":5,"migraine_risk":10,"frizz_risk":1,"updated_at":"2026-04-29T09:19:39.781201+05:30"},{"city":"Chandigarh","state":"Chandigarh","latitude":30.7333,"longitude":76.7794,"temp":32.0,"humidity":35,"rain":0.0,"pressure":965.4,"uv_index":7.4,"wind_gusts":38.2,"aqi":74,"pm10":102.7,"pm2_5":25.7,"mosquito_risk":0,"arthritis_risk":5,"migraine_risk":7,"frizz_risk":0,"updated_at":"2026-04-29T09:19:39.781209+05:30"},{"city":"Srinagar","state":"Jammu and Kashmir","latitude":34.0837,"longitude":74.7973,"temp":14.7,"humidity":80,"rain":0.0,"pressure":840.3,"uv_index":2.8,"wind_gusts":26.6,"aqi":93,"pm10":36.9,"pm2_5":32.4,"mosquito_risk":3,"arthritis_risk":5,"migraine_risk":3,"frizz_risk":0,"updated_at":"2026-04-29T09:19:39.781217+05:30"},{"city":"Jammu","state":"Jammu and Kashmir","latitude":32.7266,"longitude":74.857,"temp":25.6,"humidity":50,"rain":0.0,"pressure":970.7,"uv_index":7.85,"wind_gusts":53.6,"aqi":75,"pm10":24.7,"pm2_5":22.4,"mosquito_risk":4,"arthritis_risk":5,"migraine_risk":7,"frizz_risk":0,"updated_at":"2026-04-29T09:19:39.781249+05:30"},{"city":"Amritsar","state":"Punjab","latitude":31.634,"longitude":74.8723,"temp":27.7,"humidity":50,"rain":0.0,"pressure":978.2,"uv_index":8.1,"wind_gusts":40.7,"aqi":89,"pm10":39.2,"pm2_5":31.2,"mosquito_risk":4,"arthritis_risk":5,"migraine_risk":7,"frizz_risk":1,"updated_at":"2026-04-29T09:19:39.781257+05:30"},{"city":"Ludhiana","state":"Punjab","latitude":30.901,"longitude":75.8573,"temp":27.6,"humidity":57,"rain":0.0,"pressure":975.6,"uv_index":7.7,"wind_gusts":47.2,"aqi":91,"pm10":67.8,"pm2_5":32.9,"mosquito_risk":4,"arthritis_risk":5,"migraine_risk":7,"frizz_risk":1,"updated_at":"2026-04-29T09:19:39.781267+05:30"},{"city":"Jalandhar","state":"Punjab","latitude":31.326,"longitude":75.5762,"temp":27.6,"humidity":58,"rain":0.0,"pressure":976.9,"uv_index":7.9,"wind_gusts":34.9,"aqi":83,"pm10":46.9,"pm2_5":28.6,"mosquito_risk":4,"arthritis_risk":5,"migraine_risk":7,"frizz_risk":1,"updated_at":"2026-04-29T09:19:39.781276+05:30"},{"city":"Dehradun","state":"Uttarakhand","latitude":30.6284,"longitude":78.0322,"temp":17.6,"humidity":66,"rain":0.0,"pressure":830.1,"uv_index":7.5,"wind_gusts":31.7,"aqi":60,"pm10":50.3,"pm2_5":11.1,"mosquito_risk":3,"arthritis_risk":5,"migraine_risk":7,"frizz_risk":0,"updated_at":"2026-04-29T09:19:39.781284+05:30"},{"city":"Shimla","state":"Himachal Pradesh","latitude":31.1048,"longitude":77.1734,"temp":19.3,"humidity":35,"rain":0.0,"pressure":784.9,"uv_index":7.85,"wind_gusts":29.9,"aqi":53,"pm10":32.6,"pm2_5":8.9,"mosquito_risk":0,"arthritis_risk":5,"migraine_risk":7,"frizz_risk":0,"updated_at":"2026-04-29T09:19:39.781291+05:30"},{"city":"Manali","state":"Himachal Pradesh","latitude":32.2396,"longitude":77.1887,"temp":16.5,"humidity":49,"rain":0.0,"pressure":817.2,"uv_index":7.4,"wind_gusts":38.9,"aqi":77,"pm10":5.3,"pm2_5":3.2,"mosquito_risk":0,"arthritis_risk":5,"migraine_risk":7,"frizz_risk":0,"updated_at":"2026-04-29T09:19:39.781298+05:30"},{"city":"Gurgaon","state":"Haryana","latitude":28.4595,"longitude":77.0266,"temp":32.7,"humidity":34,"rain":0.0,"pressure":978.2,"uv_index":7.3,"wind_gusts":34.6,"aqi":656,"pm10":737.6,"pm2_5":106.2,"mosquito_risk":0,"arthritis_risk":5,"migraine_risk":7,"frizz_risk":0,"updated_at":"2026-04-29T09:19:39.781305+05:30"},{"city":"Noida","state":"Uttar Pradesh","latitude":28.5355,"longitude":77.391,"temp":32.7,"humidity":35,"rain":0.0,"pressure":981.5,"uv_index":6.15,"wind_gusts":33.8,"aqi":656,"pm10":737.6,"pm2_5":106.2,"mosquito_risk":0,"arthritis_risk":5,"migraine_risk":7,"frizz_risk":0,"updated_at":"2026-04-29T09:19:39.781311+05:30"},{"city":"Ghaziabad","state":"Uttar Pradesh","latitude":28.6692,"longitude":77.4538,"temp":32.3,"humidity":36,"rain":0.0,"pressure":979.9,"uv_index":7.15,"wind_gusts":40.3,"aqi":188,"pm10":205.8,"pm2_5":55.9,"mosquito_risk":0,"arthritis_risk":5,"migraine_risk":7,"frizz_risk":0,"updated_at":"2026-04-29T09:19:39.781318+05:30"},{"city":"Faridabad","state":"Haryana","latitude":28.4089,"longitude":77.3178,"temp":32.4,"humidity":34,"rain":0.0,"pressure":980.7,"uv_index":7.25,"wind_gusts":40.3,"aqi":656,"pm10":737.6,"pm2_5":106.2,"mosquito_risk":0,"arthritis_risk":5,"migraine_risk":7,"frizz_risk":0,"updated_at":"2026-04-29T09:19:39.781324+05:30"},{"city":"Meerut","state":"Uttar Pradesh","latitude":28.9845,"longitude":77.7064,"temp":30.6,"humidity":42,"rain":0.0,"pressure":978.8,"uv_index":7.0,"wind_gusts":56.2,"aqi":188,"pm10":205.8,"pm2_5":55.9,"mosquito_risk":0,"arthritis_risk":5,"migraine_risk":7,"frizz_risk":1,"updated_at":"2026-04-29T09:19:39.781330+05:30"},{"city":"Agra","state":"Uttar Pradesh","latitude":27.1767,"longitude":78.0081,"temp":34.5,"humidity":28,"rain":0.0,"pressure":983.8,"uv_index":7.7,"wind_gusts":48.2,"aqi":619,"pm10":577.4,"pm2_5":98.3,"mosquito_risk":0,"arthritis_risk":5,"migraine_risk":7,"frizz_risk":0,"updated_at":"2026-04-29T09:19:39.781336+05:30"},{"city":"Varanasi","state":"Uttar Pradesh","latitude":25.3176,"longitude":82.9739,"temp":34.4,"humidity":51,"rain":0.0,"pressure":994.4,"uv_index":8.45,"wind_gusts":47.9,"aqi":133,"pm10":68.7,"pm2_5":53.4,"mosquito_risk":0,"arthritis_risk":5,"migraine_risk":7,"frizz_risk":1,"updated_at":"2026-04-29T09:19:39.781345+05:30"},{"city":"Prayagraj","state":"Uttar Pradesh","latitude":25.4358,"longitude":81.8463,"temp":36.2,"humidity":35,"rain":0.0,"pressure":992.3,"uv_index":8.35,"wind_gusts":43.2,"aqi":135,"pm10":69.4,"pm2_5":50.6,"mosquito_risk":0,"arthritis_risk":5,"migraine_risk":10,"frizz_risk":1,"updated_at":"2026-04-29T09:19:39.781354+05:30"},{"city":"Gorakhpur","state":"Uttar Pradesh","latitude":26.7606,"longitude":83.3732,"temp":30.6,"humidity":58,"rain":0.0,"pressure":995.8,"uv_index":8.3,"wind_gusts":41.4,"aqi":118,"pm10":59.5,"pm2_5":40.4,"mosquito_risk":0,"arthritis_risk":5,"migraine_risk":7,"frizz_risk":1,"updated_at":"2026-04-29T09:19:39.781361+05:30"},{"city":"Bareilly","state":"Uttar Pradesh","latitude":28.367,"longitude":79.4304,"temp":32.9,"humidity":38,"rain":0.0,"pressure":984.2,"uv_index":6.1,"wind_gusts":50.4,"aqi":126,"pm10":97.8,"pm2_5":38.5,"mosquito_risk":0,"arthritis_risk":5,"migraine_risk":7,"frizz_risk":1,"updated_at":"2026-04-29T09:19:39.781368+05:30"},{"city":"Aligarh","state":"Uttar Pradesh","latitude":27.8974,"longitude":78.088,"temp":33.9,"humidity":35,"rain":0.0,"pressure":982.4,"uv_index":6.05,"wind_gusts":41.8,"aqi":386,"pm10":332.5,"pm2_5":65.7,"mosquito_risk":0,"arthritis_risk":5,"migraine_risk":7,"frizz_risk":1,"updated_at":"2026-04-29T09:19:39.781374+05:30"},{"city":"Moradabad","state":"Uttar Pradesh","latitude":28.8386,"longitude":78.7733,"temp":32.0,"humidity":32,"rain":0.0,"pressure":981.3,"uv_index":5.0,"wind_gusts":45.4,"aqi":156,"pm10":120.1,"pm2_5":49.8,"mosquito_risk":0,"arthritis_risk":5,"migraine_risk":3,"frizz_risk":0,"updated_at":"2026-04-29T09:19:39.781381+05:30"},{"city":"Saharanpur","state":"Uttar Pradesh","latitude":29.9637,"longitude":77.546,"temp":28.6,"humidity":48,"rain":0.0,"pressure":972.7,"uv_index":7.05,"wind_gusts":53.3,"aqi":109,"pm10":115.7,"pm2_5":48.5,"mosquito_risk":4,"arthritis_risk":5,"migraine_risk":7,"frizz_risk":1,"updated_at":"2026-04-29T09:19:39.781386+05:30"},{"city":"Jhansi","state":"Uttar Pradesh","latitude":25.4484,"longitude":78.5685,"temp":36.4,"humidity":21,"rain":0.0,"pressure":975.0,"uv_index":8.3,"wind_gusts":54.0,"aqi":55,"pm10":23.3,"pm2_5":12.0,"mosquito_risk":0,"arthritis_risk":5,"migraine_risk":10,"frizz_risk":0,"updated_at":"2026-04-29T09:19:43.126605+05:30"},{"city":"Surat","state":"Gujarat","latitude":21.1702,"longitude":72.8311,"temp":32.3,"humidity":58,"rain":0.0,"pressure":1006.2,"uv_index":7.85,"wind_gusts":44.6,"aqi":71,"pm10":45.1,"pm2_5":25.1,"mosquito_risk":0,"arthritis_risk":5,"migraine_risk":4,"frizz_risk":1,"updated_at":"2026-04-29T09:19:43.126639+05:30"},{"city":"Vadodara","state":"Gujarat","latitude":22.3072,"longitude":73.1812,"temp":32.7,"humidity":46,"rain":0.0,"pressure":1003.4,"uv_index":8.15,"wind_gusts":47.9,"aqi":58,"pm10":30.7,"pm2_5":16.8,"mosquito_risk":0,"arthritis_risk":5,"migraine_risk":4,"frizz_risk":1,"updated_at":"2026-04-29T09:19:43.126649+05:30"},{"city":"Rajkot","state":"Gujarat","latitude":22.3039,"longitude":70.8022,"temp":32.3,"humidity":48,"rain":0.0,"pressure":992.7,"uv_index":7.9,"wind_gusts":53.6,"aqi":50,"pm10":33.2,"pm2_5":11.9,"mosquito_risk":0,"arthritis_risk":5,"migraine_risk":7,"frizz_risk":1,"updated_at":"2026-04-29T09:19:43.126657+05:30"},{"city":"Thane","state":"Maharashtra","latitude":19.2183,"longitude":72.9781,"temp":31.5,"humidity":59,"rain":0.0,"pressure":1008.0,"uv_index":8.05,"wind_gusts":39.2,"aqi":82,"pm10":47.0,"pm2_5":31.9,"mosquito_risk":0,"arthritis_risk":0,"migraine_risk":4,"frizz_risk":1,"updated_at":"2026-04-29T09:19:43.126664+05:30"},{"city":"Nagpur","state":"Maharashtra","latitude":21.1458,"longitude":79.0882,"temp":37.2,"humidity":16,"rain":0.0,"pressure":973.1,"uv_index":8.85,"wind_gusts":55.4,"aqi":79,"pm10":28.5,"pm2_5":22.8,"mosquito_risk":0,"arthritis_risk":5,"migraine_risk":10,"frizz_risk":0,"updated_at":"2026-04-29T09:19:43.126671+05:30"},{"city":"Nashik","state":"Maharashtra","latitude":19.9975,"longitude":73.7898,"temp":32.8,"humidity":22,"rain":0.0,"pressure":946.3,"uv_index":8.3,"wind_gusts":43.6,"aqi":63,"pm10":53.6,"pm2_5":15.0,"mosquito_risk":0,"arthritis_risk":5,"migraine_risk":7,"frizz_risk":0,"updated_at":"2026-04-29T09:19:43.126678+05:30"},{"city":"Aurangabad","state":"Maharashtra","latitude":19.8762,"longitude":75.3433,"temp":33.3,"humidity":22,"rain":0.0,"pressure":945.1,"uv_index":9.05,"wind_gusts":54.4,"aqi":56,"pm10":35.5,"pm2_5":12.3,"mosquito_risk":0,"arthritis_risk":5,"migraine_risk":7,"frizz_risk":0,"updated_at":"2026-04-29T09:19:43.126685+05:30"},{"city":"Solapur","state":"Maharashtra","latitude":17.6599,"longitude":75.9064,"temp":34.5,"humidity":31,"rain":0.0,"pressure":958.0,"uv_index":9.1,"wind_gusts":41.4,"aqi":85,"pm10":30.6,"pm2_5":21.8,"mosquito_risk":0,"arthritis_risk":5,"migraine_risk":7,"frizz_risk":0,"updated_at":"2026-04-29T09:19:43.126692+05:30"},{"city":"Kolhapur","state":"Maharashtra","latitude":16.705,"longitude":74.2433,"temp":30.4,"humidity":51,"rain":0.0,"pressure":949.0,"uv_index":9.0,"wind_gusts":46.1,"aqi":72,"pm10":39.1,"pm2_5":23.6,"mosquito_risk":0,"arthritis_risk":5,"migraine_risk":7,"frizz_risk":1,"updated_at":"2026-04-29T09:19:43.126698+05:30"},{"city":"Goa","state":"Goa","latitude":15.2993,"longitude":74.124,"temp":33.3,"humidity":58,"rain":0.0,"pressure":998.2,"uv_index":8.5,"wind_gusts":40.0,"aqi":73,"pm10":47.4,"pm2_5":20.5,"mosquito_risk":0,"arthritis_risk":5,"migraine_risk":7,"frizz_risk":1,"updated_at":"2026-04-29T09:19:43.126705+05:30"},{"city":"Jodhpur","state":"Rajasthan","latitude":26.2389,"longitude":73.0243,"temp":32.7,"humidity":35,"rain":0.0,"pressure":979.6,"uv_index":8.3,"wind_gusts":43.6,"aqi":133,"pm10":240.3,"pm2_5":40.3,"mosquito_risk":0,"arthritis_risk":5,"migraine_risk":7,"frizz_risk":0,"updated_at":"2026-04-29T09:19:43.126712+05:30"},{"city":"Udaipur","state":"Rajasthan","latitude":24.5854,"longitude":73.7125,"temp":30.8,"humidity":31,"rain":0.0,"pressure":944.8,"uv_index":8.75,"wind_gusts":44.6,"aqi":38,"pm10":31.7,"pm2_5":11.7,"mosquito_risk":0,"arthritis_risk":5,"migraine_risk":7,"frizz_risk":0,"updated_at":"2026-04-29T09:19:43.126719+05:30"},{"city":"Kota","state":"Rajasthan","latitude":25.2138,"longitude":75.8648,"temp":34.8,"humidity":23,"rain":0.0,"pressure":976.2,"uv_index":8.25,"wind_gusts":43.9,"aqi":38,"pm10":17.0,"pm2_5":9.7,"mosquito_risk":0,"arthritis_risk":5,"migraine_risk":7,"frizz_risk":0,"updated_at":"2026-04-29T09:19:43.126726+05:30"},{"city":"Bikaner","state":"Rajasthan","latitude":28.0229,"longitude":73.3119,"temp":33.2,"humidity":28,"rain":0.0,"pressure":977.3,"uv_index":8.15,"wind_gusts":42.8,"aqi":70,"pm10":205.4,"pm2_5":52.2,"mosquito_risk":0,"arthritis_risk":5,"migraine_risk":7,"frizz_risk":0,"updated_at":"2026-04-29T09:19:43.126733+05:30"},{"city":"Ajmer","state":"Rajasthan","latitude":26.4499,"longitude":74.6399,"temp":31.8,"humidity":32,"rain":0.0,"pressure":951.9,"uv_index":8.25,"wind_gusts":59.0,"aqi":39,"pm10":103.4,"pm2_5":25.1,"mosquito_risk":0,"arthritis_risk":5,"migraine_risk":7,"frizz_risk":0,"updated_at":"2026-04-29T09:19:43.126739+05:30"},{"city":"Gwalior","state":"Madhya Pradesh","latitude":26.2183,"longitude":78.1828,"temp":35.2,"humidity":21,"rain":0.0,"pressure":979.8,"uv_index":8.05,"wind_gusts":55.8,"aqi":106,"pm10":221.2,"pm2_5":49.5,"mosquito_risk":0,"arthritis_risk":5,"migraine_risk":10,"frizz_risk":0,"updated_at":"2026-04-29T09:19:43.126746+05:30"},{"city":"Indore","state":"Madhya Pradesh","latitude":22.7196,"longitude":75.8577,"temp":32.7,"humidity":25,"rain":0.0,"pressure":948.0,"uv_index":8.65,"wind_gusts":55.1,"aqi":49,"pm10":22.8,"pm2_5":12.7,"mosquito_risk":0,"arthritis_risk":5,"migraine_risk":7,"frizz_risk":0,"updated_at":"2026-04-29T09:19:43.126753+05:30"},{"city":"Bhopal","state":"Madhya Pradesh","latitude":23.2599,"longitude":77.4126,"temp":34.7,"humidity":20,"rain":0.0,"pressure":953.0,"uv_index":8.65,"wind_gusts":52.2,"aqi":46,"pm10":19.7,"pm2_5":12.1,"mosquito_risk":0,"arthritis_risk":5,"migraine_risk":7,"frizz_risk":0,"updated_at":"2026-04-29T09:19:43.126760+05:30"},{"city":"Jabalpur","state":"Madhya Pradesh","latitude":23.1815,"longitude":79.9864,"temp":36.0,"humidity":17,"rain":0.0,"pressure":960.5,"uv_index":8.75,"wind_gusts":41.4,"aqi":52,"pm10":15.8,"pm2_5":10.1,"mosquito_risk":0,"arthritis_risk":5,"migraine_risk":10,"frizz_risk":0,"updated_at":"2026-04-29T09:19:43.126766+05:30"},{"city":"Ujjain","state":"Madhya Pradesh","latitude":23.1765,"longitude":75.7885,"temp":32.1,"humidity":31,"rain":0.0,"pressure":953.4,"uv_index":8.55,"wind_gusts":53.3,"aqi":49,"pm10":22.3,"pm2_5":13.0,"mosquito_risk":0,"arthritis_risk":5,"migraine_risk":7,"frizz_risk":0,"updated_at":"2026-04-29T09:19:43.126773+05:30"},{"city":"Visakhapatnam","state":"Andhra Pradesh","latitude":17.6868,"longitude":83.2185,"temp":32.7,"humidity":60,"rain":0.0,"pressure":1003.5,"uv_index":8.85,"wind_gusts":54.0,"aqi":62,"pm10":21.8,"pm2_5":16.6,"mosquito_risk":0,"arthritis_risk":5,"migraine_risk":4,"frizz_risk":1,"updated_at":"2026-04-29T09:19:43.126780+05:30"},{"city":"Vijayawada","state":"Andhra Pradesh","latitude":16.5062,"longitude":80.648,"temp":33.7,"humidity":59,"rain":0.0,"pressure":1003.0,"uv_index":8.5,"wind_gusts":35.3,"aqi":65,"pm10":21.0,"pm2_5":16.1,"mosquito_risk":0,"arthritis_risk":5,"migraine_risk":4,"frizz_risk":1,"updated_at":"2026-04-29T09:19:43.126786+05:30"},{"city":"Guntur","state":"Andhra Pradesh","latitude":16.3067,"longitude":80.4365,"temp":34.0,"humidity":57,"rain":0.0,"pressure":1004.2,"uv_index":8.6,"wind_gusts":40.3,"aqi":69,"pm10":19.3,"pm2_5":15.7,"mosquito_risk":0,"arthritis_risk":5,"migraine_risk":4,"frizz_risk":1,"updated_at":"2026-04-29T09:19:43.126793+05:30"},{"city":"Nellore","state":"Andhra Pradesh","latitude":14.4426,"longitude":79.9865,"temp":34.5,"humidity":51,"rain":0.0,"pressure":1005.6,"uv_index":9.25,"wind_gusts":41.0,"aqi":64,"pm10":18.5,"pm2_5":17.6,"mosquito_risk":0,"arthritis_risk":5,"migraine_risk":4,"frizz_risk":1,"updated_at":"2026-04-29T09:19:43.126800+05:30"},{"city":"Kurnool","state":"Andhra Pradesh","latitude":15.8281,"longitude":78.0373,"temp":35.7,"humidity":40,"rain":0.0,"pressure":977.3,"uv_index":8.7,"wind_gusts":39.2,"aqi":115,"pm10":35.9,"pm2_5":28.9,"mosquito_risk":0,"arthritis_risk":5,"migraine_risk":10,"frizz_risk":1,"updated_at":"2026-04-29T09:19:43.126808+05:30"},{"city":"Kakinada","state":"Andhra Pradesh","latitude":16.9891,"longitude":82.2475,"temp":33.7,"humidity":58,"rain":0.0,"pressure":1007.6,"uv_index":8.9,"wind_gusts":46.1,"aqi":55,"pm10":16.3,"pm2_5":11.4,"mosquito_risk":0,"arthritis_risk":5,"migraine_risk":4,"frizz_risk":1,"updated_at":"2026-04-29T09:19:43.126814+05:30"},{"city":"Tirupati","state":"Andhra Pradesh","latitude":13.6288,"longitude":79.4192,"temp":33.7,"humidity":49,"rain":0.0,"pressure":991.4,"uv_index":9.3,"wind_gusts":37.1,"aqi":70,"pm10":16.5,"pm2_5":15.7,"mosquito_risk":0,"arthritis_risk":5,"migraine_risk":7,"frizz_risk":1,"updated_at":"2026-04-29T09:19:43.126820+05:30"},{"city":"Warangal","state":"Telangana","latitude":17.9689,"longitude":79.5941,"temp":33.2,"humidity":49,"rain":0.0,"pressure":979.4,"uv_index":8.55,"wind_gusts":36.7,"aqi":105,"pm10":28.1,"pm2_5":25.4,"mosquito_risk":0,"arthritis_risk":5,"migraine_risk":7,"frizz_risk":1,"updated_at":"2026-04-29T09:19:43.126826+05:30"},{"city":"Nizamabad","state":"Telangana","latitude":18.6725,"longitude":78.0941,"temp":35.4,"humidity":24,"rain":0.0,"pressure":965.1,"uv_index":9.1,"wind_gusts":38.9,"aqi":104,"pm10":44.1,"pm2_5":39.5,"mosquito_risk":0,"arthritis_risk":5,"migraine_risk":10,"frizz_risk":0,"updated_at":"2026-04-29T09:19:43.126832+05:30"},{"city":"Mysore","state":"Karnataka","latitude":12.2958,"longitude":76.6396,"temp":28.5,"humidity":62,"rain":0.0,"pressure":929.9,"uv_index":9.3,"wind_gusts":50.4,"aqi":94,"pm10":36.8,"pm2_5":30.9,"mosquito_risk":7,"arthritis_risk":5,"migraine_risk":7,"frizz_risk":1,"updated_at":"2026-04-29T09:19:43.126839+05:30"},{"city":"Mangalore","state":"Karnataka","latitude":12.9141,"longitude":74.856,"temp":32.0,"humidity":61,"rain":0.0,"pressure":1007.3,"uv_index":9.1,"wind_gusts":39.2,"aqi":75,"pm10":59.8,"pm2_5":25.1,"mosquito_risk":3,"arthritis_risk":5,"migraine_risk":4,"frizz_risk":1,"updated_at":"2026-04-29T09:19:43.126845+05:30"},{"city":"Hubli-Dharwad","state":"Karnataka","latitude":15.3647,"longitude":75.124,"temp":30.1,"humidity":62,"rain":0.0,"pressure":942.1,"uv_index":8.7,"wind_gusts":44.3,"aqi":70,"pm10":35.9,"pm2_5":19.5,"mosquito_risk":3,"arthritis_risk":5,"migraine_risk":7,"frizz_risk":1,"updated_at":"2026-04-29T09:19:43.126852+05:30"},{"city":"Belgaum","state":"Karnataka","latitude":15.8497,"longitude":74.4977,"temp":29.5,"humidity":58,"rain":0.0,"pressure":927.3,"uv_index":9.2,"wind_gusts":46.1,"aqi":71,"pm10":39.9,"pm2_5":19.9,"mosquito_risk":4,"arthritis_risk":5,"migraine_risk":7,"frizz_risk":1,"updated_at":"2026-04-29T09:19:46.475314+05:30"},{"city":"Coimbatore","state":"Tamil Nadu","latitude":11.0168,"longitude":76.9558,"temp":29.9,"humidity":64,"rain":0.0,"pressure":962.9,"uv_index":9.2,"wind_gusts":52.6,"aqi":76,"pm10":27.0,"pm2_5":22.6,"mosquito_risk":7,"arthritis_risk":5,"migraine_risk":7,"frizz_risk":1,"updated_at":"2026-04-29T09:19:46.475343+05:30"},{"city":"Madurai","state":"Tamil Nadu","latitude":9.9252,"longitude":78.1198,"temp":33.7,"humidity":49,"rain":0.0,"pressure":993.8,"uv_index":8.45,"wind_gusts":50.0,"aqi":66,"pm10":25.8,"pm2_5":23.9,"mosquito_risk":0,"arthritis_risk":5,"migraine_risk":7,"frizz_risk":1,"updated_at":"2026-04-29T09:19:46.475354+05:30"},{"city":"Trichy","state":"Tamil Nadu","latitude":10.7905,"longitude":78.7047,"temp":33.1,"humidity":53,"rain":0.0,"pressure":1000.5,"uv_index":8.85,"wind_gusts":49.0,"aqi":54,"pm10":19.0,"pm2_5":17.6,"mosquito_risk":0,"arthritis_risk":5,"migraine_risk":4,"frizz_risk":1,"updated_at":"2026-04-29T09:19:46.475362+05:30"},{"city":"Salem","state":"Tamil Nadu","latitude":11.6643,"longitude":78.146,"temp":32.7,"humidity":52,"rain":0.0,"pressure":978.4,"uv_index":8.9,"wind_gusts":36.0,"aqi":68,"pm10":20.1,"pm2_5":18.5,"mosquito_risk":0,"arthritis_risk":5,"migraine_risk":7,"frizz_risk":1,"updated_at":"2026-04-29T09:19:46.475370+05:30"},{"city":"Tirunelveli","state":"Tamil Nadu","latitude":8.7139,"longitude":77.7567,"temp":33.3,"humidity":54,"rain":0.0,"pressure":1003.6,"uv_index":8.2,"wind_gusts":41.4,"aqi":59,"pm10":10.3,"pm2_5":9.5,"mosquito_risk":0,"arthritis_risk":5,"migraine_risk":4,"frizz_risk":1,"updated_at":"2026-04-29T09:19:46.475378+05:30"},{"city":"Vellore","state":"Tamil Nadu","latitude":12.9165,"longitude":79.1325,"temp":33.6,"humidity":49,"rain":0.0,"pressure":985.1,"uv_index":9.3,"wind_gusts":38.5,"aqi":75,"pm10":17.6,"pm2_5":16.8,"mosquito_risk":0,"arthritis_risk":5,"migraine_risk":7,"frizz_risk":1,"updated_at":"2026-04-29T09:19:46.475385+05:30"},{"city":"Erode","state":"Tamil Nadu","latitude":11.341,"longitude":77.7172,"temp":32.8,"humidity":56,"rain":0.0,"pressure":989.9,"uv_index":9.0,"wind_gusts":36.4,"aqi":81,"pm10":30.5,"pm2_5":27.4,"mosquito_risk":0,"arthritis_risk":5,"migraine_risk":7,"frizz_risk":1,"updated_at":"2026-04-29T09:19:46.475393+05:30"},{"city":"Kochi","state":"Kerala","latitude":9.9312,"longitude":76.2673,"temp":28.9,"humidity":81,"rain":0.0,"pressure":1009.4,"uv_index":7.8,"wind_gusts":33.5,"aqi":80,"pm10":19.0,"pm2_5":16.8,"mosquito_risk":7,"arthritis_risk":0,"migraine_risk":4,"frizz_risk":1,"updated_at":"2026-04-29T09:19:46.475400+05:30"},{"city":"Thiruvananthapuram","state":"Kerala","latitude":8.5241,"longitude":76.9366,"temp":29.0,"humidity":77,"rain":0.0,"pressure":1008.8,"uv_index":7.95,"wind_gusts":29.9,"aqi":49,"pm10":8.8,"pm2_5":7.4,"mosquito_risk":7,"arthritis_risk":0,"migraine_risk":4,"frizz_risk":1,"updated_at":"2026-04-29T09:19:46.475408+05:30"},{"city":"Kozhikode","state":"Kerala","latitude":11.2588,"longitude":75.7804,"temp":29.0,"humidity":83,"rain":0.1,"pressure":1008.7,"uv_index":7.8,"wind_gusts":36.4,"aqi":66,"pm10":26.9,"pm2_5":19.4,"mosquito_risk":10,"arthritis_risk":0,"migraine_risk":4,"frizz_risk":1,"updated_at":"2026-04-29T09:19:46.475415+05:30"},{"city":"Thrissur","state":"Kerala","latitude":10.5276,"longitude":76.2144,"temp":29.4,"humidity":78,"rain":0.1,"pressure":1007.8,"uv_index":7.6,"wind_gusts":37.8,"aqi":85,"pm10":23.6,"pm2_5":21.7,"mosquito_risk":10,"arthritis_risk":5,"migraine_risk":4,"frizz_risk":1,"updated_at":"2026-04-29T09:19:46.475424+05:30"},{"city":"Kannur","state":"Kerala","latitude":11.8745,"longitude":75.3704,"temp":31.7,"humidity":64,"rain":0.0,"pressure":1007.8,"uv_index":8.95,"wind_gusts":38.9,"aqi":84,"pm10":43.4,"pm2_5":24.7,"mosquito_risk":3,"arthritis_risk":5,"migraine_risk":4,"frizz_risk":1,"updated_at":"2026-04-29T09:19:46.475431+05:30"},{"city":"Patna","state":"Bihar","latitude":25.5941,"longitude":85.1376,"temp":28.5,"humidity":74,"rain":0.0,"pressure":999.3,"uv_index":8.6,"wind_gusts":46.4,"aqi":117,"pm10":37.3,"pm2_5":29.7,"mosquito_risk":7,"arthritis_risk":5,"migraine_risk":7,"frizz_risk":1,"updated_at":"2026-04-29T09:19:46.475439+05:30"},{"city":"Gaya","state":"Bihar","latitude":24.7914,"longitude":85.0002,"temp":33.5,"humidity":51,"rain":0.0,"pressure":991.4,"uv_index":8.65,"wind_gusts":41.0,"aqi":123,"pm10":49.8,"pm2_5":41.1,"mosquito_risk":0,"arthritis_risk":5,"migraine_risk":7,"frizz_risk":1,"updated_at":"2026-04-29T09:19:46.475447+05:30"},{"city":"Muzaffarpur","state":"Bihar","latitude":26.1209,"longitude":85.3647,"temp":26.5,"humidity":75,"rain":0.0,"pressure":999.9,"uv_index":8.6,"wind_gusts":49.0,"aqi":112,"pm10":35.6,"pm2_5":27.1,"mosquito_risk":7,"arthritis_risk":5,"migraine_risk":7,"frizz_risk":1,"updated_at":"2026-04-29T09:19:46.475454+05:30"},{"city":"Bhagalpur","state":"Bihar","latitude":25.2425,"longitude":87.0117,"temp":26.8,"humidity":74,"rain":0.0,"pressure":1000.6,"uv_index":8.6,"wind_gusts":41.8,"aqi":87,"pm10":17.1,"pm2_5":14.1,"mosquito_risk":7,"arthritis_risk":5,"migraine_risk":4,"frizz_risk":1,"updated_at":"2026-04-29T09:19:46.475461+05:30"},{"city":"Ranchi","state":"Jharkhand","latitude":23.3441,"longitude":85.3096,"temp":32.0,"humidity":41,"rain":0.0,"pressure":937.1,"uv_index":9.1,"wind_gusts":46.1,"aqi":81,"pm10":46.9,"pm2_5":40.7,"mosquito_risk":0,"arthritis_risk":5,"migraine_risk":7,"frizz_risk":1,"updated_at":"2026-04-29T09:19:46.475468+05:30"},{"city":"Jamshedpur","state":"Jharkhand","latitude":22.8046,"longitude":86.2029,"temp":35.8,"humidity":32,"rain":0.0,"pressure":988.9,"uv_index":8.95,"wind_gusts":48.2,"aqi":140,"pm10":47.4,"pm2_5":39.2,"mosquito_risk":0,"arthritis_risk":5,"migraine_risk":10,"frizz_risk":1,"updated_at":"2026-04-29T09:19:46.475476+05:30"},{"city":"Dhanbad","state":"Jharkhand","latitude":23.7957,"longitude":86.4304,"temp":32.7,"humidity":55,"rain":0.0,"pressure":978.2,"uv_index":8.9,"wind_gusts":44.3,"aqi":162,"pm10":71.5,"pm2_5":63.1,"mosquito_risk":0,"arthritis_risk":5,"migraine_risk":7,"frizz_risk":1,"updated_at":"2026-04-29T09:19:46.475483+05:30"},{"city":"Bokaro","state":"Jharkhand","latitude":23.6693,"longitude":86.1511,"temp":35.8,"humidity":35,"rain":0.0,"pressure":981.5,"uv_index":8.9,"wind_gusts":41.4,"aqi":161,"pm10":53.4,"pm2_5":46.9,"mosquito_risk":0,"arthritis_risk":5,"migraine_risk":10,"frizz_risk":1,"updated_at":"2026-04-29T09:19:46.475491+05:30"},{"city":"Bhubaneswar","state":"Odisha","latitude":20.2961,"longitude":85.8245,"temp":32.7,"humidity":67,"rain":0.0,"pressure":1001.7,"uv_index":9.1,"wind_gusts":53.3,"aqi":65,"pm10":20.1,"pm2_5":15.5,"mosquito_risk":3,"arthritis_risk":5,"migraine_risk":4,"frizz_risk":1,"updated_at":"2026-04-29T09:19:46.475498+05:30"},{"city":"Cuttack","state":"Odisha","latitude":20.4625,"longitude":85.8828,"temp":32.5,"humidity":68,"rain":0.0,"pressure":1003.4,"uv_index":9.1,"wind_gusts":45.7,"aqi":65,"pm10":20.1,"pm2_5":15.5,"mosquito_risk":3,"arthritis_risk":5,"migraine_risk":4,"frizz_risk":1,"updated_at":"2026-04-29T09:19:46.475505+05:30"},{"city":"Rourkela","state":"Odisha","latitude":22.2604,"longitude":84.8536,"temp":36.0,"humidity":34,"rain":0.0,"pressure":983.4,"uv_index":8.9,"wind_gusts":48.6,"aqi":92,"pm10":52.3,"pm2_5":43.7,"mosquito_risk":0,"arthritis_risk":5,"migraine_risk":10,"frizz_risk":1,"updated_at":"2026-04-29T09:19:46.475512+05:30"},{"city":"Raipur","state":"Chhattisgarh","latitude":21.2514,"longitude":81.6296,"temp":35.3,"humidity":40,"rain":0.0,"pressure":973.8,"uv_index":8.9,"wind_gusts":51.8,"aqi":106,"pm10":51.8,"pm2_5":46.9,"mosquito_risk":0,"arthritis_risk":5,"migraine_risk":10,"frizz_risk":1,"updated_at":"2026-04-29T09:19:46.475520+05:30"},{"city":"Bhilai","state":"Chhattisgarh","latitude":21.1938,"longitude":81.3509,"temp":34.8,"humidity":42,"rain":0.0,"pressure":974.2,"uv_index":8.9,"wind_gusts":50.0,"aqi":103,"pm10":53.4,"pm2_5":48.3,"mosquito_risk":0,"arthritis_risk":5,"migraine_risk":7,"frizz_risk":1,"updated_at":"2026-04-29T09:19:46.475526+05:30"},{"city":"Guwahati","state":"Assam","latitude":26.1158,"longitude":91.7086,"temp":22.5,"humidity":92,"rain":0.0,"pressure":1003.5,"uv_index":6.6,"wind_gusts":24.1,"aqi":69,"pm10":31.0,"pm2_5":18.3,"mosquito_risk":3,"arthritis_risk":5,"migraine_risk":4,"frizz_risk":1,"updated_at":"2026-04-29T09:19:46.475534+05:30"},{"city":"Agartala","state":"Tripura","latitude":23.8315,"longitude":91.2868,"temp":24.7,"humidity":88,"rain":0.1,"pressure":1008.0,"uv_index":6.3,"wind_gusts":39.6,"aqi":67,"pm10":17.5,"pm2_5":12.8,"mosquito_risk":6,"arthritis_risk":0,"migraine_risk":4,"frizz_risk":1,"updated_at":"2026-04-29T09:19:46.475541+05:30"},{"city":"Shillong","state":"Meghalaya","latitude":25.5788,"longitude":91.8933,"temp":16.9,"humidity":95,"rain":0.1,"pressure":857.1,"uv_index":6.3,"wind_gusts":32.4,"aqi":32,"pm10":24.8,"pm2_5":8.4,"mosquito_risk":6,"arthritis_risk":10,"migraine_risk":7,"frizz_risk":1,"updated_at":"2026-04-29T09:19:46.475549+05:30"},{"city":"Imphal","state":"Manipur","latitude":24.817,"longitude":93.9368,"temp":20.0,"humidity":93,"rain":0.1,"pressure":925.5,"uv_index":7.2,"wind_gusts":26.6,"aqi":86,"pm10":20.5,"pm2_5":13.5,"mosquito_risk":6,"arthritis_risk":5,"migraine_risk":7,"frizz_risk":1,"updated_at":"2026-04-29T09:19:46.475556+05:30"},{"city":"Aizawl","state":"Mizoram","latitude":23.7271,"longitude":92.7176,"temp":23.9,"humidity":57,"rain":0.0,"pressure":894.4,"uv_index":6.6,"wind_gusts":42.1,"aqi":74,"pm10":36.7,"pm2_5":15.7,"mosquito_risk":0,"arthritis_risk":5,"migraine_risk":7,"frizz_risk":0,"updated_at":"2026-04-29T09:19:46.475563+05:30"},{"city":"Kohima","state":"Nagaland","latitude":25.6701,"longitude":94.1077,"temp":19.4,"humidity":84,"rain":0.0,"pressure":857.1,"uv_index":7.55,"wind_gusts":23.0,"aqi":40,"pm10":13.4,"pm2_5":7.8,"mosquito_risk":3,"arthritis_risk":10,"migraine_risk":7,"frizz_risk":1,"updated_at":"2026-04-29T09:19:46.475570+05:30"},{"city":"Gangtok","state":"Sikkim","latitude":27.3314,"longitude":88.6138,"temp":15.4,"humidity":94,"rain":0.0,"pressure":837.9,"uv_index":2.55,"wind_gusts":33.8,"aqi":70,"pm10":7.1,"pm2_5":6.3,"mosquito_risk":3,"arthritis_risk":10,"migraine_risk":3,"frizz_risk":0,"updated_at":"2026-04-29T09:19:46.475578+05:30"},{"city":"Siliguri","state":"West Bengal","latitude":26.7271,"longitude":88.3953,"temp":23.1,"humidity":88,"rain":0.1,"pressure":994.7,"uv_index":3.8,"wind_gusts":31.0,"aqi":88,"pm10":22.8,"pm2_5":18.3,"mosquito_risk":6,"arthritis_risk":5,"migraine_risk":3,"frizz_risk":1,"updated_at":"2026-04-29T09:19:49.823998+05:30"},{"city":"Durgapur","state":"West Bengal","latitude":23.5204,"longitude":87.3119,"temp":31.4,"humidity":71,"rain":0.0,"pressure":993.3,"uv_index":8.85,"wind_gusts":37.8,"aqi":152,"pm10":62.2,"pm2_5":57.9,"mosquito_risk":3,"arthritis_risk":5,"migraine_risk":7,"frizz_risk":1,"updated_at":"2026-04-29T09:19:49.824029+05:30"},{"city":"Asansol","state":"West Bengal","latitude":23.6739,"longitude":86.9524,"temp":32.0,"humidity":62,"rain":0.0,"pressure":991.9,"uv_index":8.85,"wind_gusts":42.1,"aqi":155,"pm10":65.4,"pm2_5":60.1,"mosquito_risk":3,"arthritis_risk":5,"migraine_risk":7,"frizz_risk":1,"updated_at":"2026-04-29T09:19:49.824040+05:30"},{"city":"Pondicherry","state":"Puducherry","latitude":11.9139,"longitude":79.8145,"temp":32.5,"humidity":62,"rain":0.0,"pressure":1009.2,"uv_index":9.15,"wind_gusts":51.8,"aqi":52,"pm10":13.3,"pm2_5":11.0,"mosquito_risk":3,"arthritis_risk":0,"migraine_risk":4,"frizz_risk":1,"updated_at":"2026-04-29T09:19:49.824047+05:30"},{"city":"Port Blair","state":"Andaman and Nicobar Islands","latitude":11.6234,"longitude":92.7265,"temp":33.4,"humidity":50,"rain":0.0,"pressure":1009.3,"uv_index":9.1,"wind_gusts":29.9,"aqi":38,"pm10":9.3,"pm2_5":7.1,"mosquito_risk":0,"arthritis_risk":0,"migraine_risk":4,"frizz_risk":1,"updated_at":"2026-04-29T09:19:49.824055+05:30"},{"city":"Haridwar","state":"Uttarakhand","latitude":29.9457,"longitude":78.1642,"temp":27.0,"humidity":48,"rain":0.0,"pressure":972.4,"uv_index":7.05,"wind_gusts":58.3,"aqi":87,"pm10":94.3,"pm2_5":32.0,"mosquito_risk":4,"arthritis_risk":5,"migraine_risk":7,"frizz_risk":0,"updated_at":"2026-04-29T09:19:49.824064+05:30"},{"city":"Rishikesh","state":"Uttarakhand","latitude":30.0869,"longitude":78.2676,"temp":24.9,"humidity":60,"rain":0.0,"pressure":965.7,"uv_index":7.05,"wind_gusts":52.9,"aqi":82,"pm10":96.9,"pm2_5":27.6,"mosquito_risk":0,"arthritis_risk":5,"migraine_risk":7,"frizz_risk":1,"updated_at":"2026-04-29T09:19:49.824072+05:30"},{"city":"Nainital","state":"Uttarakhand","latitude":29.3919,"longitude":79.4542,"temp":21.1,"humidity":37,"rain":0.0,"pressure":806.9,"uv_index":7.45,"wind_gusts":32.4,"aqi":89,"pm10":80.1,"pm2_5":21.8,"mosquito_risk":0,"arthritis_risk":5,"migraine_risk":7,"frizz_risk":0,"updated_at":"2026-04-29T09:19:49.824079+05:30"},{"city":"Mussoorie","state":"Uttarakhand","latitude":30.4599,"longitude":78.0664,"temp":15.6,"humidity":63,"rain":0.1,"pressure":802.1,"uv_index":7.45,"wind_gusts":44.3,"aqi":76,"pm10":88.0,"pm2_5":23.3,"mosquito_risk":6,"arthritis_risk":5,"migraine_risk":7,"frizz_risk":0,"updated_at":"2026-04-29T09:19:49.824086+05:30"},{"city":"Dharamshala","state":"Himachal Pradesh","latitude":32.219,"longitude":76.3234,"temp":18.2,"humidity":69,"rain":0.2,"pressure":865.4,"uv_index":8.1,"wind_gusts":66.6,"aqi":40,"pm10":13.4,"pm2_5":5.2,"mosquito_risk":6,"arthritis_risk":5,"migraine_risk":7,"frizz_risk":0,"updated_at":"2026-04-29T09:19:49.824094+05:30"},{"city":"Dalhousie","state":"Himachal Pradesh","latitude":32.5387,"longitude":75.971,"temp":11.7,"humidity":96,"rain":0.3,"pressure":800.5,"uv_index":7.4,"wind_gusts":42.5,"aqi":59,"pm10":13.2,"pm2_5":6.9,"mosquito_risk":6,"arthritis_risk":10,"migraine_risk":7,"frizz_risk":0,"updated_at":"2026-04-29T09:19:49.824102+05:30"},{"city":"Patiala","state":"Punjab","latitude":30.3398,"longitude":76.3869,"temp":30.0,"humidity":50,"rain":0.0,"pressure":974.7,"uv_index":7.35,"wind_gusts":50.0,"aqi":154,"pm10":337.1,"pm2_5":66.6,"mosquito_risk":4,"arthritis_risk":5,"migraine_risk":7,"frizz_risk":1,"updated_at":"2026-04-29T09:19:49.824110+05:30"},{"city":"Bhatinda","state":"Punjab","latitude":30.211,"longitude":74.9455,"temp":30.5,"humidity":40,"rain":0.0,"pressure":980.4,"uv_index":8.05,"wind_gusts":48.6,"aqi":91,"pm10":94.3,"pm2_5":36.8,"mosquito_risk":0,"arthritis_risk":5,"migraine_risk":7,"frizz_risk":0,"updated_at":"2026-04-29T09:19:49.824117+05:30"},{"city":"Rohtak","state":"Haryana","latitude":28.8955,"longitude":76.6066,"temp":31.7,"humidity":35,"rain":0.0,"pressure":979.4,"uv_index":7.3,"wind_gusts":47.2,"aqi":518,"pm10":348.3,"pm2_5":77.1,"mosquito_risk":0,"arthritis_risk":5,"migraine_risk":7,"frizz_risk":0,"updated_at":"2026-04-29T09:19:49.824124+05:30"},{"city":"Panipat","state":"Haryana","latitude":29.3909,"longitude":76.9635,"temp":30.8,"humidity":39,"rain":0.0,"pressure":977.2,"uv_index":7.3,"wind_gusts":37.1,"aqi":998,"pm10":363.2,"pm2_5":75.7,"mosquito_risk":0,"arthritis_risk":5,"migraine_risk":7,"frizz_risk":0,"updated_at":"2026-04-29T09:19:49.824132+05:30"},{"city":"Mathura","state":"Uttar Pradesh","latitude":27.4924,"longitude":77.6737,"temp":33.8,"humidity":33,"rain":0.0,"pressure":983.2,"uv_index":7.55,"wind_gusts":41.0,"aqi":561,"pm10":529.0,"pm2_5":89.9,"mosquito_risk":0,"arthritis_risk":5,"migraine_risk":7,"frizz_risk":0,"updated_at":"2026-04-29T09:19:49.824139+05:30"},{"city":"Vrindavan","state":"Uttar Pradesh","latitude":27.5823,"longitude":77.7027,"temp":33.9,"humidity":33,"rain":0.0,"pressure":983.7,"uv_index":7.25,"wind_gusts":34.9,"aqi":561,"pm10":529.0,"pm2_5":89.9,"mosquito_risk":0,"arthritis_risk":5,"migraine_risk":7,"frizz_risk":0,"updated_at":"2026-04-29T09:19:49.824145+05:30"},{"city":"Ayodhya","state":"Uttar Pradesh","latitude":26.7922,"longitude":82.1998,"temp":31.0,"humidity":58,"rain":0.0,"pressure":993.5,"uv_index":8.05,"wind_gusts":37.4,"aqi":150,"pm10":59.3,"pm2_5":44.9,"mosquito_risk":0,"arthritis_risk":5,"migraine_risk":7,"frizz_risk":1,"updated_at":"2026-04-29T09:19:49.824153+05:30"},{"city":"Ratlam","state":"Madhya Pradesh","latitude":23.3315,"longitude":75.0367,"temp":30.8,"humidity":38,"rain":0.0,"pressure":954.2,"uv_index":8.5,"wind_gusts":50.0,"aqi":47,"pm10":23.6,"pm2_5":12.7,"mosquito_risk":0,"arthritis_risk":5,"migraine_risk":7,"frizz_risk":0,"updated_at":"2026-04-29T09:19:49.824160+05:30"},{"city":"Sagar","state":"Madhya Pradesh","latitude":23.8388,"longitude":78.7378,"temp":33.9,"humidity":22,"rain":0.0,"pressure":949.1,"uv_index":8.65,"wind_gusts":46.8,"aqi":38,"pm10":19.3,"pm2_5":10.7,"mosquito_risk":0,"arthritis_risk":5,"migraine_risk":7,"frizz_risk":0,"updated_at":"2026-04-29T09:19:49.824166+05:30"},{"city":"Satna","state":"Madhya Pradesh","latitude":24.6005,"longitude":80.8322,"temp":36.4,"humidity":18,"rain":0.0,"pressure":968.8,"uv_index":8.5,"wind_gusts":49.3,"aqi":64,"pm10":27.2,"pm2_5":14.2,"mosquito_risk":0,"arthritis_risk":5,"migraine_risk":10,"frizz_risk":0,"updated_at":"2026-04-29T09:19:49.824173+05:30"},{"city":"Akola","state":"Maharashtra","latitude":20.7002,"longitude":77.0082,"temp":34.1,"humidity":31,"rain":0.0,"pressure":975.3,"uv_index":8.85,"wind_gusts":53.6,"aqi":65,"pm10":27.5,"pm2_5":14.0,"mosquito_risk":0,"arthritis_risk":5,"migraine_risk":7,"frizz_risk":0,"updated_at":"2026-04-29T09:19:49.824181+05:30"},{"city":"Amravati","state":"Maharashtra","latitude":20.9374,"longitude":77.7796,"temp":34.8,"humidity":22,"rain":0.0,"pressure":967.7,"uv_index":8.85,"wind_gusts":51.8,"aqi":64,"pm10":28.3,"pm2_5":15.2,"mosquito_risk":0,"arthritis_risk":5,"migraine_risk":7,"frizz_risk":0,"updated_at":"2026-04-29T09:19:49.824189+05:30"},{"city":"Latur","state":"Maharashtra","latitude":18.4088,"longitude":76.5604,"temp":35.2,"humidity":20,"rain":0.0,"pressure":941.2,"uv_index":9.1,"wind_gusts":31.0,"aqi":78,"pm10":28.3,"pm2_5":14.3,"mosquito_risk":0,"arthritis_risk":5,"migraine_risk":10,"frizz_risk":0,"updated_at":"2026-04-29T09:19:49.824196+05:30"},{"city":"Nanded","state":"Maharashtra","latitude":19.1383,"longitude":77.3091,"temp":36.5,"humidity":19,"rain":0.0,"pressure":969.3,"uv_index":9.0,"wind_gusts":34.6,"aqi":83,"pm10":27.1,"pm2_5":19.0,"mosquito_risk":0,"arthritis_risk":5,"migraine_risk":10,"frizz_risk":0,"updated_at":"2026-04-29T09:19:49.824202+05:30"},{"city":"Gulbarga","state":"Karnataka","latitude":17.3297,"longitude":76.8343,"temp":34.8,"humidity":32,"rain":0.0,"pressure":959.1,"uv_index":9.15,"wind_gusts":37.1,"aqi":84,"pm10":26.6,"pm2_5":21.7,"mosquito_risk":0,"arthritis_risk":5,"migraine_risk":7,"frizz_risk":0,"updated_at":"2026-04-29T09:19:49.824209+05:30"},{"city":"Bidar","state":"Karnataka","latitude":17.9104,"longitude":77.5199,"temp":36.3,"humidity":20,"rain":0.0,"pressure":936.6,"uv_index":9.15,"wind_gusts":33.5,"aqi":99,"pm10":33.8,"pm2_5":28.1,"mosquito_risk":0,"arthritis_risk":5,"migraine_risk":10,"frizz_risk":0,"updated_at":"2026-04-29T09:19:49.824216+05:30"},{"city":"Hospet","state":"Karnataka","latitude":15.2689,"longitude":76.3909,"temp":30.5,"humidity":64,"rain":0.0,"pressure":956.8,"uv_index":8.85,"wind_gusts":52.2,"aqi":83,"pm10":28.6,"pm2_5":19.3,"mosquito_risk":3,"arthritis_risk":5,"migraine_risk":7,"frizz_risk":1,"updated_at":"2026-04-29T09:19:49.824246+05:30"},{"city":"Tirupur","state":"Tamil Nadu","latitude":11.1085,"longitude":77.3411,"temp":31.8,"humidity":56,"rain":0.0,"pressure":976.1,"uv_index":9.05,"wind_gusts":57.6,"aqi":88,"pm10":29.8,"pm2_5":27.1,"mosquito_risk":0,"arthritis_risk":5,"migraine_risk":7,"frizz_risk":1,"updated_at":"2026-04-29T09:19:49.824254+05:30"},{"city":"Alappuzha","state":"Kerala","latitude":9.4981,"longitude":76.3388,"temp":29.5,"humidity":77,"rain":0.0,"pressure":1009.3,"uv_index":6.9,"wind_gusts":29.2,"aqi":67,"pm10":13.9,"pm2_5":12.1,"mosquito_risk":7,"arthritis_risk":0,"migraine_risk":4,"frizz_risk":1,"updated_at":"2026-04-29T09:19:49.824261+05:30"},{"city":"Munnar","state":"Kerala","latitude":10.0889,"longitude":77.0595,"temp":22.6,"humidity":69,"rain":0.0,"pressure":859.0,"uv_index":8.7,"wind_gusts":26.3,"aqi":82,"pm10":27.3,"pm2_5":23.9,"mosquito_risk":3,"arthritis_risk":5,"migraine_risk":7,"frizz_risk":1,"updated_at":"2026-04-29T09:19:49.824270+05:30"},{"city":"Silchar","state":"Assam","latitude":24.8333,"longitude":92.7789,"temp":23.5,"humidity":94,"rain":0.6,"pressure":1007.4,"uv_index":8.25,"wind_gusts":30.2,"aqi":87,"pm10":27.7,"pm2_5":17.4,"mosquito_risk":6,"arthritis_risk":5,"migraine_risk":4,"frizz_risk":1,"updated_at":"2026-04-29T09:19:49.824277+05:30"},{"city":"Dibrugarh","state":"Assam","latitude":27.4728,"longitude":94.912,"temp":23.5,"humidity":84,"rain":0.1,"pressure":998.6,"uv_index":6.7,"wind_gusts":28.1,"aqi":112,"pm10":44.4,"pm2_5":28.5,"mosquito_risk":6,"arthritis_risk":5,"migraine_risk":7,"frizz_risk":1,"updated_at":"2026-04-29T09:19:49.824284+05:30"}]