[{"city":"Delhi","state":"Delhi","latitude":28.6139,"longitude":77.209,"temp":27.8,"humidity":90,"rain":0.0,"pressure":976.6,"uv_index":7.15,"wind_gusts":28.8,"aqi":129,"pm10":50.5,"pm2_5":41.0,"no2":28.6,"co":487.0,"o3":66.0,"so2":25.7,"mosquito_risk":7,"arthritis_risk":5,"migraine_risk":7,"frizz_risk":1,"updated_at":"2026-07-03T03:39:38.617582+05:30"},{"city":"Mumbai","state":"Maharashtra","latitude":19.076,"longitude":72.8777,"temp":25.8,"humidity":93,"rain":0.3,"pressure":1004.1,"uv_index":0.7,"wind_gusts":49.3,"aqi":39,"pm10":20.7,"pm2_5":10.4,"no2":4.5,"co":110.0,"o3":52.0,"so2":4.0,"mosquito_risk":10,"arthritis_risk":5,"migraine_risk":0,"frizz_risk":1,"updated_at":"2026-07-03T03:39:38.617620+05:30"},{"city":"Bangalore","state":"Karnataka","latitude":12.9716,"longitude":77.5946,"temp":21.4,"humidity":88,"rain":0.0,"pressure":910.1,"uv_index":8.25,"wind_gusts":59.4,"aqi":18,"pm10":2.6,"pm2_5":2.4,"no2":6.8,"co":142.0,"o3":39.0,"so2":3.5,"mosquito_risk":3,"arthritis_risk":5,"migraine_risk":7,"frizz_risk":1,"updated_at":"2026-07-03T03:39:38.617635+05:30"},{"city":"Hyderabad","state":"Telangana","latitude":17.385,"longitude":78.4867,"temp":24.5,"humidity":83,"rain":0.0,"pressure":948.7,"uv_index":8.1,"wind_gusts":59.8,"aqi":24,"pm10":5.2,"pm2_5":3.7,"no2":6.6,"co":136.0,"o3":39.0,"so2":3.7,"mosquito_risk":3,"arthritis_risk":5,"migraine_risk":7,"frizz_risk":1,"updated_at":"2026-07-03T03:39:38.617644+05:30"},{"city":"Chennai","state":"Tamil Nadu","latitude":13.0827,"longitude":80.2707,"temp":29.4,"humidity":66,"rain":0.0,"pressure":1004.0,"uv_index":8.45,"wind_gusts":45.0,"aqi":36,"pm10":6.4,"pm2_5":5.8,"no2":14.1,"co":288.0,"o3":34.0,"so2":8.5,"mosquito_risk":7,"arthritis_risk":5,"migraine_risk":4,"frizz_risk":1,"updated_at":"2026-07-03T03:39:38.617652+05:30"},{"city":"Kolkata","state":"West Bengal","latitude":22.5726,"longitude":88.3639,"temp":27.2,"humidity":94,"rain":0.0,"pressure":998.0,"uv_index":7.1,"wind_gusts":35.6,"aqi":63,"pm10":34.0,"pm2_5":32.2,"no2":17.9,"co":262.0,"o3":43.0,"so2":9.5,"mosquito_risk":7,"arthritis_risk":5,"migraine_risk":7,"frizz_risk":1,"updated_at":"2026-07-03T03:39:38.617659+05:30"},{"city":"Pune","state":"Maharashtra","latitude":18.5204,"longitude":73.8567,"temp":22.4,"humidity":92,"rain":0.0,"pressure":943.6,"uv_index":0.85,"wind_gusts":51.5,"aqi":19,"pm10":2.4,"pm2_5":2.0,"no2":5.8,"co":111.0,"o3":41.0,"so2":4.3,"mosquito_risk":3,"arthritis_risk":5,"migraine_risk":3,"frizz_risk":1,"updated_at":"2026-07-03T03:39:38.617666+05:30"},{"city":"Ahmedabad","state":"Gujarat","latitude":23.0225,"longitude":72.5714,"temp":27.8,"humidity":86,"rain":0.0,"pressure":996.2,"uv_index":3.25,"wind_gusts":36.4,"aqi":58,"pm10":22.5,"pm2_5":12.9,"no2":8.5,"co":165.0,"o3":37.0,"so2":4.5,"mosquito_risk":7,"arthritis_risk":5,"migraine_risk":3,"frizz_risk":1,"updated_at":"2026-07-03T03:39:38.617672+05:30"},{"city":"Jaipur","state":"Rajasthan","latitude":26.9124,"longitude":75.7873,"temp":25.8,"humidity":98,"rain":0.0,"pressure":953.0,"uv_index":7.9,"wind_gusts":26.3,"aqi":131,"pm10":87.5,"pm2_5":41.1,"no2":15.9,"co":237.0,"o3":49.0,"so2":5.9,"mosquito_risk":7,"arthritis_risk":5,"migraine_risk":7,"frizz_risk":1,"updated_at":"2026-07-03T03:39:38.617678+05:30"},{"city":"Lucknow","state":"Uttar Pradesh","latitude":26.8467,"longitude":80.9462,"temp":26.0,"humidity":98,"rain":0.1,"pressure":987.6,"uv_index":6.85,"wind_gusts":30.2,"aqi":89,"pm10":25.0,"pm2_5":24.9,"no2":9.3,"co":409.0,"o3":81.0,"so2":4.2,"mosquito_risk":10,"arthritis_risk":5,"migraine_risk":7,"frizz_risk":1,"updated_at":"2026-07-03T03:39:38.617691+05:30"},{"city":"Kanpur","state":"Uttar Pradesh","latitude":26.4499,"longitude":80.3319,"temp":27.1,"humidity":97,"rain":0.4,"pressure":985.3,"uv_index":7.4,"wind_gusts":28.8,"aqi":86,"pm10":22.1,"pm2_5":22.0,"no2":7.5,"co":309.0,"o3":96.0,"so2":4.1,"mosquito_risk":10,"arthritis_risk":5,"migraine_risk":7,"frizz_risk":1,"updated_at":"2026-07-03T03:39:38.617697+05:30"},{"city":"Chandigarh","state":"Chandigarh","latitude":30.7333,"longitude":76.7794,"temp":26.7,"humidity":91,"rain":0.0,"pressure":963.6,"uv_index":7.7,"wind_gusts":21.2,"aqi":111,"pm10":47.7,"pm2_5":43.7,"no2":39.8,"co":378.0,"o3":30.0,"so2":7.2,"mosquito_risk":7,"arthritis_risk":5,"migraine_risk":7,"frizz_risk":1,"updated_at":"2026-07-03T03:39:38.617704+05:30"},{"city":"Srinagar","state":"Jammu and Kashmir","latitude":34.0837,"longitude":74.7973,"temp":18.2,"humidity":99,"rain":0.0,"pressure":839.2,"uv_index":9.05,"wind_gusts":25.2,"aqi":82,"pm10":20.3,"pm2_5":19.0,"no2":26.5,"co":643.0,"o3":21.0,"so2":1.3,"mosquito_risk":3,"arthritis_risk":10,"migraine_risk":7,"frizz_risk":1,"updated_at":"2026-07-03T03:39:38.617711+05:30"},{"city":"Jammu","state":"Jammu and Kashmir","latitude":32.7266,"longitude":74.857,"temp":26.3,"humidity":83,"rain":0.0,"pressure":967.8,"uv_index":8.6,"wind_gusts":23.8,"aqi":134,"pm10":50.2,"pm2_5":36.8,"no2":52.2,"co":334.0,"o3":12.0,"so2":3.8,"mosquito_risk":7,"arthritis_risk":5,"migraine_risk":7,"frizz_risk":1,"updated_at":"2026-07-03T03:39:38.617717+05:30"},{"city":"Amritsar","state":"Punjab","latitude":31.634,"longitude":74.8723,"temp":27.7,"humidity":87,"rain":0.0,"pressure":975.2,"uv_index":8.45,"wind_gusts":30.6,"aqi":169,"pm10":105.0,"pm2_5":70.1,"no2":22.6,"co":545.0,"o3":62.0,"so2":9.1,"mosquito_risk":7,"arthritis_risk":5,"migraine_risk":7,"frizz_risk":1,"updated_at":"2026-07-03T03:39:38.617722+05:30"},{"city":"Ludhiana","state":"Punjab","latitude":30.901,"longitude":75.8573,"temp":27.7,"humidity":92,"rain":0.0,"pressure":973.0,"uv_index":7.95,"wind_gusts":28.1,"aqi":154,"pm10":153.7,"pm2_5":63.8,"no2":26.3,"co":470.0,"o3":58.0,"so2":11.8,"mosquito_risk":7,"arthritis_risk":5,"migraine_risk":7,"frizz_risk":1,"updated_at":"2026-07-03T03:39:38.617729+05:30"},{"city":"Jalandhar","state":"Punjab","latitude":31.326,"longitude":75.5762,"temp":27.4,"humidity":91,"rain":0.0,"pressure":974.0,"uv_index":8.2,"wind_gusts":30.6,"aqi":162,"pm10":118.5,"pm2_5":71.9,"no2":33.1,"co":512.0,"o3":47.0,"so2":12.5,"mosquito_risk":7,"arthritis_risk":5,"migraine_risk":7,"frizz_risk":1,"updated_at":"2026-07-03T03:39:38.617737+05:30"},{"city":"Dehradun","state":"Uttarakhand","latitude":30.6284,"longitude":78.0322,"temp":17.6,"humidity":100,"rain":0.0,"pressure":827.2,"uv_index":8.0,"wind_gusts":27.4,"aqi":40,"pm10":6.5,"pm2_5":6.4,"no2":15.3,"co":224.0,"o3":56.0,"so2":0.8,"mosquito_risk":3,"arthritis_risk":10,"migraine_risk":7,"frizz_risk":1,"updated_at":"2026-07-03T03:39:38.617744+05:30"},{"city":"Shimla","state":"Himachal Pradesh","latitude":31.1048,"longitude":77.1734,"temp":15.6,"humidity":85,"rain":0.0,"pressure":781.5,"uv_index":8.05,"wind_gusts":24.8,"aqi":54,"pm10":23.4,"pm2_5":16.8,"no2":13.6,"co":273.0,"o3":65.0,"so2":0.1,"mosquito_risk":3,"arthritis_risk":10,"migraine_risk":7,"frizz_risk":0,"updated_at":"2026-07-03T03:39:38.617750+05:30"},{"city":"Manali","state":"Himachal Pradesh","latitude":32.2396,"longitude":77.1887,"temp":19.3,"humidity":74,"rain":0.0,"pressure":817.1,"uv_index":9.5,"wind_gusts":34.2,"aqi":52,"pm10":1.0,"pm2_5":1.0,"no2":16.0,"co":268.0,"o3":104.0,"so2":0.1,"mosquito_risk":3,"arthritis_risk":5,"migraine_risk":7,"frizz_risk":0,"updated_at":"2026-07-03T03:39:38.617758+05:30"},{"city":"Gurgaon","state":"Haryana","latitude":28.4595,"longitude":77.0266,"temp":26.8,"humidity":95,"rain":0.1,"pressure":974.9,"uv_index":7.7,"wind_gusts":25.2,"aqi":152,"pm10":60.5,"pm2_5":45.6,"no2":27.0,"co":518.0,"o3":66.0,"so2":19.4,"mosquito_risk":10,"arthritis_risk":5,"migraine_risk":7,"frizz_risk":1,"updated_at":"2026-07-03T03:39:38.617765+05:30"},{"city":"Noida","state":"Uttar Pradesh","latitude":28.5355,"longitude":77.391,"temp":28.0,"humidity":91,"rain":0.0,"pressure":977.9,"uv_index":7.0,"wind_gusts":31.3,"aqi":152,"pm10":60.5,"pm2_5":45.6,"no2":27.0,"co":485.0,"o3":66.0,"so2":19.4,"mosquito_risk":7,"arthritis_risk":5,"migraine_risk":7,"frizz_risk":1,"updated_at":"2026-07-03T03:39:38.617771+05:30"},{"city":"Ghaziabad","state":"Uttar Pradesh","latitude":28.6692,"longitude":77.4538,"temp":27.8,"humidity":88,"rain":0.0,"pressure":976.3,"uv_index":6.9,"wind_gusts":28.4,"aqi":95,"pm10":43.0,"pm2_5":41.0,"no2":20.3,"co":404.0,"o3":64.0,"so2":7.9,"mosquito_risk":7,"arthritis_risk":5,"migraine_risk":7,"frizz_risk":1,"updated_at":"2026-07-03T03:39:38.617777+05:30"},{"city":"Faridabad","state":"Haryana","latitude":28.4089,"longitude":77.3178,"temp":28.1,"humidity":91,"rain":0.0,"pressure":977.2,"uv_index":6.45,"wind_gusts":33.1,"aqi":152,"pm10":60.5,"pm2_5":45.6,"no2":27.0,"co":480.0,"o3":66.0,"so2":19.4,"mosquito_risk":7,"arthritis_risk":5,"migraine_risk":7,"frizz_risk":1,"updated_at":"2026-07-03T03:39:38.617783+05:30"},{"city":"Meerut","state":"Uttar Pradesh","latitude":28.9845,"longitude":77.7064,"temp":26.6,"humidity":95,"rain":0.1,"pressure":975.4,"uv_index":7.0,"wind_gusts":29.2,"aqi":95,"pm10":43.0,"pm2_5":41.0,"no2":20.3,"co":429.0,"o3":64.0,"so2":7.9,"mosquito_risk":10,"arthritis_risk":5,"migraine_risk":7,"frizz_risk":1,"updated_at":"2026-07-03T03:39:38.617789+05:30"},{"city":"Agra","state":"Uttar Pradesh","latitude":27.1767,"longitude":78.0081,"temp":28.7,"humidity":85,"rain":0.0,"pressure":981.1,"uv_index":5.85,"wind_gusts":17.6,"aqi":93,"pm10":36.2,"pm2_5":26.7,"no2":14.3,"co":533.0,"o3":83.0,"so2":5.8,"mosquito_risk":7,"arthritis_risk":5,"migraine_risk":3,"frizz_risk":1,"updated_at":"2026-07-03T03:39:38.617795+05:30"},{"city":"Varanasi","state":"Uttar Pradesh","latitude":25.3176,"longitude":82.9739,"temp":27.7,"humidity":93,"rain":0.0,"pressure":990.0,"uv_index":5.6,"wind_gusts":34.6,"aqi":101,"pm10":38.6,"pm2_5":38.6,"no2":16.3,"co":359.0,"o3":69.0,"so2":10.9,"mosquito_risk":7,"arthritis_risk":5,"migraine_risk":3,"frizz_risk":1,"updated_at":"2026-07-03T03:39:38.617801+05:30"},{"city":"Prayagraj","state":"Uttar Pradesh","latitude":25.4358,"longitude":81.8463,"temp":25.9,"humidity":98,"rain":0.0,"pressure":989.2,"uv_index":6.65,"wind_gusts":30.2,"aqi":90,"pm10":29.1,"pm2_5":29.0,"no2":11.3,"co":343.0,"o3":89.0,"so2":6.1,"mosquito_risk":7,"arthritis_risk":5,"migraine_risk":7,"frizz_risk":1,"updated_at":"2026-07-03T03:39:38.617808+05:30"},{"city":"Gorakhpur","state":"Uttar Pradesh","latitude":26.7606,"longitude":83.3732,"temp":28.8,"humidity":84,"rain":0.0,"pressure":990.7,"uv_index":7.35,"wind_gusts":37.1,"aqi":99,"pm10":38.3,"pm2_5":38.2,"no2":18.2,"co":505.0,"o3":59.0,"so2":7.8,"mosquito_risk":7,"arthritis_risk":5,"migraine_risk":7,"frizz_risk":1,"updated_at":"2026-07-03T03:39:38.617814+05:30"},{"city":"Bareilly","state":"Uttar Pradesh","latitude":28.367,"longitude":79.4304,"temp":27.9,"humidity":91,"rain":0.0,"pressure":980.8,"uv_index":7.4,"wind_gusts":31.7,"aqi":110,"pm10":58.0,"pm2_5":56.9,"no2":25.4,"co":520.0,"o3":57.0,"so2":9.3,"mosquito_risk":7,"arthritis_risk":5,"migraine_risk":7,"frizz_risk":1,"updated_at":"2026-07-03T03:39:38.617822+05:30"},{"city":"Aligarh","state":"Uttar Pradesh","latitude":27.8974,"longitude":78.088,"temp":28.4,"humidity":87,"rain":0.0,"pressure":979.1,"uv_index":7.1,"wind_gusts":25.6,"aqi":98,"pm10":36.7,"pm2_5":27.0,"no2":16.4,"co":446.0,"o3":75.0,"so2":5.2,"mosquito_risk":7,"arthritis_risk":5,"migraine_risk":7,"frizz_risk":1,"updated_at":"2026-07-03T03:39:38.617828+05:30"},{"city":"Moradabad","state":"Uttar Pradesh","latitude":28.8386,"longitude":78.7733,"temp":28.0,"humidity":88,"rain":0.0,"pressure":978.0,"uv_index":7.25,"wind_gusts":29.9,"aqi":121,"pm10":93.1,"pm2_5":91.0,"no2":42.9,"co":557.0,"o3":44.0,"so2":14.3,"mosquito_risk":7,"arthritis_risk":5,"migraine_risk":7,"frizz_risk":1,"updated_at":"2026-07-03T03:39:38.617834+05:30"},{"city":"Saharanpur","state":"Uttar Pradesh","latitude":29.9637,"longitude":77.546,"temp":26.9,"humidity":90,"rain":0.0,"pressure":970.4,"uv_index":7.25,"wind_gusts":34.9,"aqi":111,"pm10":70.5,"pm2_5":65.9,"no2":38.7,"co":397.0,"o3":42.0,"so2":11.3,"mosquito_risk":7,"arthritis_risk":5,"migraine_risk":7,"frizz_risk":1,"updated_at":"2026-07-03T03:39:38.617840+05:30"},{"city":"Jhansi","state":"Uttar Pradesh","latitude":25.4484,"longitude":78.5685,"temp":26.3,"humidity":97,"rain":0.1,"pressure":971.7,"uv_index":7.15,"wind_gusts":24.5,"aqi":88,"pm10":27.4,"pm2_5":17.5,"no2":6.2,"co":208.0,"o3":79.0,"so2":1.8,"mosquito_risk":10,"arthritis_risk":5,"migraine_risk":7,"frizz_risk":1,"updated_at":"2026-07-03T03:39:41.979120+05:30"},{"city":"Surat","state":"Gujarat","latitude":21.1702,"longitude":72.8311,"temp":26.1,"humidity":96,"rain":0.0,"pressure":1001.0,"uv_index":2.6,"wind_gusts":27.7,"aqi":60,"pm10":19.8,"pm2_5":15.7,"no2":27.5,"co":318.0,"o3":25.0,"so2":38.6,"mosquito_risk":7,"arthritis_risk":5,"migraine_risk":0,"frizz_risk":1,"updated_at":"2026-07-03T03:39:41.979153+05:30"},{"city":"Vadodara","state":"Gujarat","latitude":22.3072,"longitude":73.1812,"temp":27.6,"humidity":87,"rain":0.0,"pressure":998.4,"uv_index":4.8,"wind_gusts":41.4,"aqi":48,"pm10":11.1,"pm2_5":8.4,"no2":9.8,"co":154.0,"o3":43.0,"so2":3.4,"mosquito_risk":7,"arthritis_risk":5,"migraine_risk":3,"frizz_risk":1,"updated_at":"2026-07-03T03:39:41.979163+05:30"},{"city":"Rajkot","state":"Gujarat","latitude":22.3039,"longitude":70.8022,"temp":26.9,"humidity":88,"rain":0.0,"pressure":988.4,"uv_index":6.05,"wind_gusts":42.1,"aqi":50,"pm10":20.0,"pm2_5":10.4,"no2":6.2,"co":102.0,"o3":41.0,"so2":5.6,"mosquito_risk":7,"arthritis_risk":5,"migraine_risk":7,"frizz_risk":1,"updated_at":"2026-07-03T03:39:41.979171+05:30"},{"city":"Thane","state":"Maharashtra","latitude":19.2183,"longitude":72.9781,"temp":25.1,"humidity":97,"rain":0.1,"pressure":1003.5,"uv_index":0.6,"wind_gusts":33.1,"aqi":39,"pm10":20.7,"pm2_5":10.4,"no2":4.5,"co":151.0,"o3":52.0,"so2":4.0,"mosquito_risk":10,"arthritis_risk":5,"migraine_risk":0,"frizz_risk":1,"updated_at":"2026-07-03T03:39:41.979179+05:30"},{"city":"Nagpur","state":"Maharashtra","latitude":21.1458,"longitude":79.0882,"temp":24.9,"humidity":95,"rain":0.1,"pressure":966.4,"uv_index":3.85,"wind_gusts":37.1,"aqi":51,"pm10":8.3,"pm2_5":8.1,"no2":12.7,"co":199.0,"o3":41.0,"so2":9.1,"mosquito_risk":6,"arthritis_risk":5,"migraine_risk":3,"frizz_risk":1,"updated_at":"2026-07-03T03:39:41.979186+05:30"},{"city":"Nashik","state":"Maharashtra","latitude":19.9975,"longitude":73.7898,"temp":22.4,"humidity":97,"rain":0.0,"pressure":940.2,"uv_index":0.3,"wind_gusts":38.5,"aqi":18,"pm10":1.5,"pm2_5":1.4,"no2":9.2,"co":126.0,"o3":36.0,"so2":6.4,"mosquito_risk":3,"arthritis_risk":5,"migraine_risk":3,"frizz_risk":1,"updated_at":"2026-07-03T03:39:41.979194+05:30"},{"city":"Aurangabad","state":"Maharashtra","latitude":19.8762,"longitude":75.3433,"temp":23.5,"humidity":90,"rain":0.0,"pressure":938.8,"uv_index":1.45,"wind_gusts":49.3,"aqi":19,"pm10":2.4,"pm2_5":2.1,"no2":7.7,"co":142.0,"o3":40.0,"so2":8.2,"mosquito_risk":3,"arthritis_risk":5,"migraine_risk":3,"frizz_risk":1,"updated_at":"2026-07-03T03:39:41.979201+05:30"},{"city":"Solapur","state":"Maharashtra","latitude":17.6599,"longitude":75.9064,"temp":24.0,"humidity":88,"rain":0.0,"pressure":953.6,"uv_index":4.7,"wind_gusts":55.8,"aqi":20,"pm10":3.2,"pm2_5":2.7,"no2":5.1,"co":124.0,"o3":39.0,"so2":2.2,"mosquito_risk":3,"arthritis_risk":5,"migraine_risk":3,"frizz_risk":1,"updated_at":"2026-07-03T03:39:41.979208+05:30"},{"city":"Kolhapur","state":"Maharashtra","latitude":16.705,"longitude":74.2433,"temp":21.9,"humidity":96,"rain":0.0,"pressure":945.1,"uv_index":2.1,"wind_gusts":51.8,"aqi":20,"pm10":4.1,"pm2_5":2.7,"no2":2.6,"co":107.0,"o3":46.0,"so2":1.5,"mosquito_risk":3,"arthritis_risk":5,"migraine_risk":3,"frizz_risk":1,"updated_at":"2026-07-03T03:39:41.979216+05:30"},{"city":"Goa","state":"Goa","latitude":15.2993,"longitude":74.124,"temp":23.2,"humidity":99,"rain":0.1,"pressure":996.8,"uv_index":4.2,"wind_gusts":27.7,"aqi":42,"pm10":19.8,"pm2_5":10.9,"no2":2.1,"co":283.0,"o3":48.0,"so2":0.8,"mosquito_risk":6,"arthritis_risk":5,"migraine_risk":3,"frizz_risk":1,"updated_at":"2026-07-03T03:39:41.979223+05:30"},{"city":"Jodhpur","state":"Rajasthan","latitude":26.2389,"longitude":73.0243,"temp":29.6,"humidity":66,"rain":0.0,"pressure":976.5,"uv_index":8.4,"wind_gusts":40.7,"aqi":120,"pm10":116.9,"pm2_5":34.3,"no2":4.8,"co":118.0,"o3":56.0,"so2":1.7,"mosquito_risk":7,"arthritis_risk":5,"migraine_risk":7,"frizz_risk":1,"updated_at":"2026-07-03T03:39:41.979229+05:30"},{"city":"Udaipur","state":"Rajasthan","latitude":24.5854,"longitude":73.7125,"temp":25.2,"humidity":87,"rain":0.0,"pressure":940.2,"uv_index":6.85,"wind_gusts":36.4,"aqi":61,"pm10":22.4,"pm2_5":12.7,"no2":5.8,"co":134.0,"o3":60.0,"so2":4.4,"mosquito_risk":7,"arthritis_risk":5,"migraine_risk":7,"frizz_risk":1,"updated_at":"2026-07-03T03:39:41.979237+05:30"},{"city":"Kota","state":"Rajasthan","latitude":25.2138,"longitude":75.8648,"temp":26.4,"humidity":91,"rain":0.0,"pressure":972.2,"uv_index":7.9,"wind_gusts":36.4,"aqi":70,"pm10":23.1,"pm2_5":17.9,"no2":8.2,"co":220.0,"o3":62.0,"so2":3.7,"mosquito_risk":7,"arthritis_risk":5,"migraine_risk":7,"frizz_risk":1,"updated_at":"2026-07-03T03:39:41.979244+05:30"},{"city":"Bikaner","state":"Rajasthan","latitude":28.0229,"longitude":73.3119,"temp":30.2,"humidity":65,"rain":0.0,"pressure":974.5,"uv_index":8.45,"wind_gusts":38.2,"aqi":156,"pm10":83.4,"pm2_5":40.0,"no2":4.4,"co":133.0,"o3":53.0,"so2":1.6,"mosquito_risk":3,"arthritis_risk":5,"migraine_risk":7,"frizz_risk":1,"updated_at":"2026-07-03T03:39:41.979251+05:30"},{"city":"Ajmer","state":"Rajasthan","latitude":26.4499,"longitude":74.6399,"temp":26.5,"humidity":77,"rain":0.0,"pressure":948.2,"uv_index":6.2,"wind_gusts":49.7,"aqi":95,"pm10":49.9,"pm2_5":28.1,"no2":9.1,"co":134.0,"o3":53.0,"so2":4.1,"mosquito_risk":7,"arthritis_risk":5,"migraine_risk":7,"frizz_risk":1,"updated_at":"2026-07-03T03:39:41.979258+05:30"},{"city":"Gwalior","state":"Madhya Pradesh","latitude":26.2183,"longitude":78.1828,"temp":28.4,"humidity":86,"rain":0.0,"pressure":976.4,"uv_index":8.15,"wind_gusts":15.5,"aqi":97,"pm10":52.9,"pm2_5":26.4,"no2":9.2,"co":468.0,"o3":70.0,"so2":2.9,"mosquito_risk":7,"arthritis_risk":5,"migraine_risk":7,"frizz_risk":1,"updated_at":"2026-07-03T03:39:41.979264+05:30"},{"city":"Indore","state":"Madhya Pradesh","latitude":22.7196,"longitude":75.8577,"temp":24.2,"humidity":96,"rain":0.1,"pressure":942.0,"uv_index":1.6,"wind_gusts":41.0,"aqi":51,"pm10":14.1,"pm2_5":13.9,"no2":9.6,"co":239.0,"o3":49.0,"so2":5.8,"mosquito_risk":6,"arthritis_risk":5,"migraine_risk":3,"frizz_risk":1,"updated_at":"2026-07-03T03:39:41.979271+05:30"},{"city":"Bhopal","state":"Madhya Pradesh","latitude":23.2599,"longitude":77.4126,"temp":24.6,"humidity":96,"rain":0.0,"pressure":947.0,"uv_index":5.2,"wind_gusts":37.8,"aqi":63,"pm10":18.3,"pm2_5":15.5,"no2":7.2,"co":274.0,"o3":68.0,"so2":2.0,"mosquito_risk":3,"arthritis_risk":5,"migraine_risk":3,"frizz_risk":1,"updated_at":"2026-07-03T03:39:41.979278+05:30"},{"city":"Jabalpur","state":"Madhya Pradesh","latitude":23.1815,"longitude":79.9864,"temp":24.3,"humidity":97,"rain":0.1,"pressure":954.3,"uv_index":7.65,"wind_gusts":29.2,"aqi":69,"pm10":20.7,"pm2_5":16.9,"no2":7.0,"co":196.0,"o3":72.0,"so2":2.5,"mosquito_risk":6,"arthritis_risk":5,"migraine_risk":7,"frizz_risk":1,"updated_at":"2026-07-03T03:39:41.979284+05:30"},{"city":"Ujjain","state":"Madhya Pradesh","latitude":23.1765,"longitude":75.7885,"temp":24.5,"humidity":96,"rain":0.0,"pressure":947.9,"uv_index":7.8,"wind_gusts":38.9,"aqi":52,"pm10":18.5,"pm2_5":17.8,"no2":7.2,"co":223.0,"o3":59.0,"so2":6.2,"mosquito_risk":3,"arthritis_risk":5,"migraine_risk":7,"frizz_risk":1,"updated_at":"2026-07-03T03:39:41.979291+05:30"},{"city":"Visakhapatnam","state":"Andhra Pradesh","latitude":17.6868,"longitude":83.2185,"temp":28.9,"humidity":69,"rain":0.0,"pressure":995.9,"uv_index":1.55,"wind_gusts":50.4,"aqi":47,"pm10":12.6,"pm2_5":10.3,"no2":16.4,"co":236.0,"o3":38.0,"so2":26.0,"mosquito_risk":7,"arthritis_risk":5,"migraine_risk":3,"frizz_risk":1,"updated_at":"2026-07-03T03:39:41.979298+05:30"},{"city":"Vijayawada","state":"Andhra Pradesh","latitude":16.5062,"longitude":80.648,"temp":29.6,"humidity":65,"rain":0.0,"pressure":997.7,"uv_index":4.65,"wind_gusts":50.8,"aqi":44,"pm10":9.3,"pm2_5":8.1,"no2":11.3,"co":132.0,"o3":38.0,"so2":7.6,"mosquito_risk":7,"arthritis_risk":5,"migraine_risk":3,"frizz_risk":1,"updated_at":"2026-07-03T03:39:41.979306+05:30"},{"city":"Guntur","state":"Andhra Pradesh","latitude":16.3067,"longitude":80.4365,"temp":29.7,"humidity":63,"rain":0.0,"pressure":999.0,"uv_index":4.65,"wind_gusts":50.0,"aqi":40,"pm10":8.5,"pm2_5":7.5,"no2":12.1,"co":135.0,"o3":33.0,"so2":8.1,"mosquito_risk":7,"arthritis_risk":5,"migraine_risk":3,"frizz_risk":1,"updated_at":"2026-07-03T03:39:41.979313+05:30"},{"city":"Nellore","state":"Andhra Pradesh","latitude":14.4426,"longitude":79.9865,"temp":30.0,"humidity":60,"rain":0.0,"pressure":1002.2,"uv_index":8.65,"wind_gusts":52.2,"aqi":27,"pm10":5.5,"pm2_5":3.3,"no2":5.5,"co":103.0,"o3":43.0,"so2":4.2,"mosquito_risk":4,"arthritis_risk":5,"migraine_risk":4,"frizz_risk":1,"updated_at":"2026-07-03T03:39:41.979320+05:30"},{"city":"Kurnool","state":"Andhra Pradesh","latitude":15.8281,"longitude":78.0373,"temp":26.2,"humidity":76,"rain":0.0,"pressure":974.0,"uv_index":4.55,"wind_gusts":58.7,"aqi":21,"pm10":9.2,"pm2_5":4.9,"no2":7.2,"co":125.0,"o3":37.0,"so2":2.1,"mosquito_risk":7,"arthritis_risk":5,"migraine_risk":3,"frizz_risk":1,"updated_at":"2026-07-03T03:39:41.979328+05:30"},{"city":"Kakinada","state":"Andhra Pradesh","latitude":16.9891,"longitude":82.2475,"temp":26.9,"humidity":86,"rain":0.0,"pressure":1001.4,"uv_index":6.65,"wind_gusts":46.1,"aqi":39,"pm10":15.7,"pm2_5":12.5,"no2":9.5,"co":239.0,"o3":47.0,"so2":6.0,"mosquito_risk":7,"arthritis_risk":5,"migraine_risk":4,"frizz_risk":1,"updated_at":"2026-07-03T03:39:41.979334+05:30"},{"city":"Tirupati","state":"Andhra Pradesh","latitude":13.6288,"longitude":79.4192,"temp":28.5,"humidity":62,"rain":0.0,"pressure":988.2,"uv_index":8.0,"wind_gusts":49.3,"aqi":19,"pm10":6.1,"pm2_5":3.7,"no2":4.7,"co":104.0,"o3":43.0,"so2":1.5,"mosquito_risk":7,"arthritis_risk":5,"migraine_risk":7,"frizz_risk":1,"updated_at":"2026-07-03T03:39:41.979341+05:30"},{"city":"Warangal","state":"Telangana","latitude":17.9689,"longitude":79.5941,"temp":25.0,"humidity":91,"rain":0.1,"pressure":973.6,"uv_index":1.2,"wind_gusts":45.0,"aqi":31,"pm10":7.3,"pm2_5":6.1,"no2":8.7,"co":143.0,"o3":35.0,"so2":2.7,"mosquito_risk":10,"arthritis_risk":5,"migraine_risk":3,"frizz_risk":1,"updated_at":"2026-07-03T03:39:41.979347+05:30"},{"city":"Nizamabad","state":"Telangana","latitude":18.6725,"longitude":78.0941,"temp":24.4,"humidity":89,"rain":0.1,"pressure":959.5,"uv_index":1.05,"wind_gusts":51.8,"aqi":30,"pm10":5.9,"pm2_5":4.6,"no2":7.7,"co":131.0,"o3":38.0,"so2":4.8,"mosquito_risk":6,"arthritis_risk":5,"migraine_risk":3,"frizz_risk":1,"updated_at":"2026-07-03T03:39:41.979353+05:30"},{"city":"Mysore","state":"Karnataka","latitude":12.2958,"longitude":76.6396,"temp":21.5,"humidity":91,"rain":0.0,"pressure":927.3,"uv_index":5.1,"wind_gusts":57.2,"aqi":18,"pm10":1.8,"pm2_5":1.6,"no2":4.1,"co":114.0,"o3":41.0,"so2":1.6,"mosquito_risk":3,"arthritis_risk":5,"migraine_risk":3,"frizz_risk":1,"updated_at":"2026-07-03T03:39:41.979360+05:30"},{"city":"Mangalore","state":"Karnataka","latitude":12.9141,"longitude":74.856,"temp":25.1,"humidity":94,"rain":0.0,"pressure":1006.6,"uv_index":8.5,"wind_gusts":50.8,"aqi":31,"pm10":16.9,"pm2_5":9.2,"no2":3.5,"co":96.0,"o3":39.0,"so2":1.5,"mosquito_risk":7,"arthritis_risk":5,"migraine_risk":4,"frizz_risk":1,"updated_at":"2026-07-03T03:39:41.979366+05:30"},{"city":"Hubli-Dharwad","state":"Karnataka","latitude":15.3647,"longitude":75.124,"temp":21.6,"humidity":99,"rain":0.0,"pressure":938.6,"uv_index":7.1,"wind_gusts":60.8,"aqi":20,"pm10":1.5,"pm2_5":1.0,"no2":2.5,"co":96.0,"o3":44.0,"so2":0.9,"mosquito_risk":3,"arthritis_risk":5,"migraine_risk":7,"frizz_risk":1,"updated_at":"2026-07-03T03:39:41.979373+05:30"},{"city":"Belgaum","state":"Karnataka","latitude":15.8497,"longitude":74.4977,"temp":20.8,"humidity":97,"rain":0.0,"pressure":923.1,"uv_index":2.5,"wind_gusts":52.6,"aqi":21,"pm10":2.3,"pm2_5":1.8,"no2":3.1,"co":104.0,"o3":44.0,"so2":1.4,"mosquito_risk":3,"arthritis_risk":5,"migraine_risk":3,"frizz_risk":1,"updated_at":"2026-07-03T03:39:45.264025+05:30"},{"city":"Coimbatore","state":"Tamil Nadu","latitude":11.0168,"longitude":76.9558,"temp":22.8,"humidity":95,"rain":0.0,"pressure":960.8,"uv_index":8.35,"wind_gusts":60.8,"aqi":17,"pm10":3.5,"pm2_5":2.6,"no2":4.5,"co":143.0,"o3":38.0,"so2":2.2,"mosquito_risk":3,"arthritis_risk":5,"migraine_risk":7,"frizz_risk":1,"updated_at":"2026-07-03T03:39:45.264096+05:30"},{"city":"Madurai","state":"Tamil Nadu","latitude":9.9252,"longitude":78.1198,"temp":28.7,"humidity":62,"rain":0.0,"pressure":991.8,"uv_index":8.7,"wind_gusts":60.8,"aqi":35,"pm10":8.7,"pm2_5":8.1,"no2":14.7,"co":111.0,"o3":18.0,"so2":4.3,"mosquito_risk":7,"arthritis_risk":5,"migraine_risk":7,"frizz_risk":1,"updated_at":"2026-07-03T03:39:45.264108+05:30"},{"city":"Trichy","state":"Tamil Nadu","latitude":10.7905,"longitude":78.7047,"temp":28.0,"humidity":68,"rain":0.0,"pressure":998.2,"uv_index":7.85,"wind_gusts":68.0,"aqi":21,"pm10":5.4,"pm2_5":3.7,"no2":4.5,"co":101.0,"o3":40.0,"so2":2.3,"mosquito_risk":7,"arthritis_risk":5,"migraine_risk":7,"frizz_risk":1,"updated_at":"2026-07-03T03:39:45.264116+05:30"},{"city":"Salem","state":"Tamil Nadu","latitude":11.6643,"longitude":78.146,"temp":25.7,"humidity":80,"rain":0.0,"pressure":976.5,"uv_index":8.75,"wind_gusts":36.4,"aqi":33,"pm10":10.9,"pm2_5":9.8,"no2":17.0,"co":239.0,"o3":24.0,"so2":6.9,"mosquito_risk":7,"arthritis_risk":5,"migraine_risk":7,"frizz_risk":1,"updated_at":"2026-07-03T03:39:45.264124+05:30"},{"city":"Tirunelveli","state":"Tamil Nadu","latitude":8.7139,"longitude":77.7567,"temp":28.7,"humidity":64,"rain":0.0,"pressure":1002.7,"uv_index":8.45,"wind_gusts":51.8,"aqi":23,"pm10":4.9,"pm2_5":4.3,"no2":6.7,"co":132.0,"o3":29.0,"so2":2.2,"mosquito_risk":7,"arthritis_risk":5,"migraine_risk":4,"frizz_risk":1,"updated_at":"2026-07-03T03:39:45.264131+05:30"},{"city":"Vellore","state":"Tamil Nadu","latitude":12.9165,"longitude":79.1325,"temp":28.0,"humidity":63,"rain":0.0,"pressure":982.2,"uv_index":8.3,"wind_gusts":49.3,"aqi":21,"pm10":6.2,"pm2_5":4.7,"no2":9.3,"co":149.0,"o3":37.0,"so2":3.5,"mosquito_risk":7,"arthritis_risk":5,"migraine_risk":7,"frizz_risk":1,"updated_at":"2026-07-03T03:39:45.264139+05:30"},{"city":"Erode","state":"Tamil Nadu","latitude":11.341,"longitude":77.7172,"temp":25.3,"humidity":81,"rain":0.0,"pressure":988.2,"uv_index":8.8,"wind_gusts":59.0,"aqi":28,"pm10":9.6,"pm2_5":8.8,"no2":13.4,"co":128.0,"o3":30.0,"so2":3.4,"mosquito_risk":7,"arthritis_risk":5,"migraine_risk":7,"frizz_risk":1,"updated_at":"2026-07-03T03:39:45.264147+05:30"},{"city":"Kochi","state":"Kerala","latitude":9.9312,"longitude":76.2673,"temp":25.3,"humidity":93,"rain":0.0,"pressure":1009.9,"uv_index":6.75,"wind_gusts":41.0,"aqi":42,"pm10":8.4,"pm2_5":6.1,"no2":8.2,"co":155.0,"o3":28.0,"so2":2.8,"mosquito_risk":7,"arthritis_risk":0,"migraine_risk":4,"frizz_risk":1,"updated_at":"2026-07-03T03:39:45.264154+05:30"},{"city":"Thiruvananthapuram","state":"Kerala","latitude":8.5241,"longitude":76.9366,"temp":23.8,"humidity":97,"rain":0.0,"pressure":1009.4,"uv_index":7.4,"wind_gusts":46.8,"aqi":38,"pm10":8.5,"pm2_5":4.8,"no2":2.2,"co":127.0,"o3":40.0,"so2":1.0,"mosquito_risk":3,"arthritis_risk":0,"migraine_risk":4,"frizz_risk":1,"updated_at":"2026-07-03T03:39:45.264161+05:30"},{"city":"Kozhikode","state":"Kerala","latitude":11.2588,"longitude":75.7804,"temp":24.3,"humidity":98,"rain":0.1,"pressure":1008.8,"uv_index":2.85,"wind_gusts":43.2,"aqi":24,"pm10":9.6,"pm2_5":4.6,"no2":0.7,"co":126.0,"o3":52.0,"so2":0.5,"mosquito_risk":6,"arthritis_risk":0,"migraine_risk":0,"frizz_risk":1,"updated_at":"2026-07-03T03:39:45.264167+05:30"},{"city":"Thrissur","state":"Kerala","latitude":10.5276,"longitude":76.2144,"temp":23.9,"humidity":99,"rain":0.1,"pressure":1008.3,"uv_index":2.75,"wind_gusts":42.1,"aqi":37,"pm10":8.8,"pm2_5":6.8,"no2":6.7,"co":221.0,"o3":30.0,"so2":2.2,"mosquito_risk":6,"arthritis_risk":0,"migraine_risk":0,"frizz_risk":1,"updated_at":"2026-07-03T03:39:45.264175+05:30"},{"city":"Kannur","state":"Kerala","latitude":11.8745,"longitude":75.3704,"temp":25.0,"humidity":96,"rain":0.2,"pressure":1007.6,"uv_index":2.4,"wind_gusts":49.7,"aqi":25,"pm10":7.4,"pm2_5":4.0,"no2":2.5,"co":96.0,"o3":41.0,"so2":0.9,"mosquito_risk":10,"arthritis_risk":5,"migraine_risk":0,"frizz_risk":1,"updated_at":"2026-07-03T03:39:45.264182+05:30"},{"city":"Patna","state":"Bihar","latitude":25.5941,"longitude":85.1376,"temp":28.4,"humidity":88,"rain":0.0,"pressure":993.2,"uv_index":7.1,"wind_gusts":37.8,"aqi":88,"pm10":31.9,"pm2_5":31.5,"no2":16.5,"co":362.0,"o3":64.0,"so2":14.9,"mosquito_risk":7,"arthritis_risk":5,"migraine_risk":7,"frizz_risk":1,"updated_at":"2026-07-03T03:39:45.264188+05:30"},{"city":"Gaya","state":"Bihar","latitude":24.7914,"longitude":85.0002,"temp":27.2,"humidity":88,"rain":0.0,"pressure":986.3,"uv_index":6.4,"wind_gusts":32.4,"aqi":76,"pm10":25.7,"pm2_5":25.6,"no2":15.4,"co":350.0,"o3":61.0,"so2":12.9,"mosquito_risk":7,"arthritis_risk":5,"migraine_risk":7,"frizz_risk":1,"updated_at":"2026-07-03T03:39:45.264194+05:30"},{"city":"Muzaffarpur","state":"Bihar","latitude":26.1209,"longitude":85.3647,"temp":28.4,"humidity":85,"rain":0.0,"pressure":993.5,"uv_index":6.65,"wind_gusts":36.4,"aqi":87,"pm10":33.2,"pm2_5":33.1,"no2":15.9,"co":428.0,"o3":62.0,"so2":10.4,"mosquito_risk":7,"arthritis_risk":5,"migraine_risk":7,"frizz_risk":1,"updated_at":"2026-07-03T03:39:45.264201+05:30"},{"city":"Bhagalpur","state":"Bihar","latitude":25.2425,"longitude":87.0117,"temp":27.6,"humidity":92,"rain":0.0,"pressure":994.3,"uv_index":7.9,"wind_gusts":33.1,"aqi":82,"pm10":36.0,"pm2_5":35.6,"no2":16.9,"co":391.0,"o3":57.0,"so2":9.8,"mosquito_risk":7,"arthritis_risk":5,"migraine_risk":7,"frizz_risk":1,"updated_at":"2026-07-03T03:39:45.264207+05:30"},{"city":"Ranchi","state":"Jharkhand","latitude":23.3441,"longitude":85.3096,"temp":23.5,"humidity":99,"rain":0.1,"pressure":930.0,"uv_index":7.5,"wind_gusts":40.7,"aqi":77,"pm10":7.3,"pm2_5":7.3,"no2":6.5,"co":275.0,"o3":71.0,"so2":6.0,"mosquito_risk":6,"arthritis_risk":5,"migraine_risk":7,"frizz_risk":1,"updated_at":"2026-07-03T03:39:45.264214+05:30"},{"city":"Jamshedpur","state":"Jharkhand","latitude":22.8046,"longitude":86.2029,"temp":25.7,"humidity":97,"rain":0.0,"pressure":982.8,"uv_index":7.0,"wind_gusts":36.0,"aqi":74,"pm10":26.0,"pm2_5":25.4,"no2":14.2,"co":308.0,"o3":48.0,"so2":9.7,"mosquito_risk":7,"arthritis_risk":5,"migraine_risk":7,"frizz_risk":1,"updated_at":"2026-07-03T03:39:45.264220+05:30"},{"city":"Dhanbad","state":"Jharkhand","latitude":23.7957,"longitude":86.4304,"temp":25.2,"humidity":98,"rain":0.0,"pressure":972.6,"uv_index":8.05,"wind_gusts":33.8,"aqi":105,"pm10":47.8,"pm2_5":47.1,"no2":40.6,"co":308.0,"o3":31.0,"so2":105.6,"mosquito_risk":7,"arthritis_risk":5,"migraine_risk":7,"frizz_risk":1,"updated_at":"2026-07-03T03:39:45.264227+05:30"},{"city":"Bokaro","state":"Jharkhand","latitude":23.6693,"longitude":86.1511,"temp":25.2,"humidity":99,"rain":0.0,"pressure":976.3,"uv_index":7.75,"wind_gusts":37.1,"aqi":107,"pm10":46.7,"pm2_5":46.1,"no2":40.8,"co":384.0,"o3":34.0,"so2":111.8,"mosquito_risk":7,"arthritis_risk":5,"migraine_risk":7,"frizz_risk":1,"updated_at":"2026-07-03T03:39:45.264233+05:30"},{"city":"Bhubaneswar","state":"Odisha","latitude":20.2961,"longitude":85.8245,"temp":25.0,"humidity":98,"rain":0.2,"pressure":993.7,"uv_index":7.3,"wind_gusts":29.2,"aqi":64,"pm10":19.4,"pm2_5":19.2,"no2":12.5,"co":381.0,"o3":61.0,"so2":5.0,"mosquito_risk":10,"arthritis_risk":5,"migraine_risk":7,"frizz_risk":1,"updated_at":"2026-07-03T03:39:45.264241+05:30"},{"city":"Cuttack","state":"Odisha","latitude":20.4625,"longitude":85.8828,"temp":25.6,"humidity":97,"rain":0.0,"pressure":995.3,"uv_index":7.3,"wind_gusts":30.6,"aqi":64,"pm10":19.4,"pm2_5":19.2,"no2":12.5,"co":271.0,"o3":61.0,"so2":5.0,"mosquito_risk":7,"arthritis_risk":5,"migraine_risk":7,"frizz_risk":1,"updated_at":"2026-07-03T03:39:45.264250+05:30"},{"city":"Rourkela","state":"Odisha","latitude":22.2604,"longitude":84.8536,"temp":25.4,"humidity":97,"rain":0.0,"pressure":976.5,"uv_index":7.55,"wind_gusts":34.2,"aqi":118,"pm10":44.1,"pm2_5":44.0,"no2":17.7,"co":425.0,"o3":69.0,"so2":24.6,"mosquito_risk":7,"arthritis_risk":5,"migraine_risk":7,"frizz_risk":1,"updated_at":"2026-07-03T03:39:45.264256+05:30"},{"city":"Raipur","state":"Chhattisgarh","latitude":21.2514,"longitude":81.6296,"temp":24.3,"humidity":98,"rain":0.1,"pressure":966.9,"uv_index":2.95,"wind_gusts":31.7,"aqi":73,"pm10":13.4,"pm2_5":12.4,"no2":23.8,"co":251.0,"o3":47.0,"so2":35.9,"mosquito_risk":6,"arthritis_risk":5,"migraine_risk":3,"frizz_risk":1,"updated_at":"2026-07-03T03:39:45.264262+05:30"},{"city":"Bhilai","state":"Chhattisgarh","latitude":21.1938,"longitude":81.3509,"temp":24.2,"humidity":98,"rain":0.3,"pressure":967.5,"uv_index":3.15,"wind_gusts":38.5,"aqi":64,"pm10":11.4,"pm2_5":10.4,"no2":18.9,"co":537.0,"o3":49.0,"so2":28.1,"mosquito_risk":6,"arthritis_risk":5,"migraine_risk":3,"frizz_risk":1,"updated_at":"2026-07-03T03:39:45.264269+05:30"},{"city":"Guwahati","state":"Assam","latitude":26.1158,"longitude":91.7086,"temp":25.6,"humidity":96,"rain":0.1,"pressure":996.3,"uv_index":8.65,"wind_gusts":23.8,"aqi":31,"pm10":6.8,"pm2_5":6.5,"no2":10.4,"co":208.0,"o3":34.0,"so2":1.2,"mosquito_risk":10,"arthritis_risk":5,"migraine_risk":7,"frizz_risk":1,"updated_at":"2026-07-03T03:39:45.264275+05:30"},{"city":"Agartala","state":"Tripura","latitude":23.8315,"longitude":91.2868,"temp":26.8,"humidity":94,"rain":0.0,"pressure":1000.8,"uv_index":6.05,"wind_gusts":29.5,"aqi":51,"pm10":14.1,"pm2_5":13.5,"no2":16.1,"co":182.0,"o3":25.0,"so2":3.7,"mosquito_risk":7,"arthritis_risk":5,"migraine_risk":4,"frizz_risk":1,"updated_at":"2026-07-03T03:39:45.264281+05:30"},{"city":"Shillong","state":"Meghalaya","latitude":25.5788,"longitude":91.8933,"temp":18.8,"humidity":99,"rain":0.0,"pressure":853.5,"uv_index":8.8,"wind_gusts":27.0,"aqi":27,"pm10":5.7,"pm2_5":5.6,"no2":5.6,"co":250.0,"o3":54.0,"so2":2.4,"mosquito_risk":3,"arthritis_risk":10,"migraine_risk":7,"frizz_risk":1,"updated_at":"2026-07-03T03:39:45.264288+05:30"},{"city":"Imphal","state":"Manipur","latitude":24.817,"longitude":93.9368,"temp":22.8,"humidity":97,"rain":0.0,"pressure":919.3,"uv_index":8.8,"wind_gusts":23.8,"aqi":36,"pm10":9.5,"pm2_5":9.3,"no2":6.8,"co":377.0,"o3":43.0,"so2":2.1,"mosquito_risk":3,"arthritis_risk":5,"migraine_risk":7,"frizz_risk":1,"updated_at":"2026-07-03T03:39:45.264294+05:30"},{"city":"Aizawl","state":"Mizoram","latitude":23.7271,"longitude":92.7176,"temp":20.4,"humidity":99,"rain":0.0,"pressure":887.8,"uv_index":8.0,"wind_gusts":19.8,"aqi":29,"pm10":5.7,"pm2_5":5.6,"no2":9.5,"co":166.0,"o3":18.0,"so2":0.7,"mosquito_risk":3,"arthritis_risk":5,"migraine_risk":7,"frizz_risk":1,"updated_at":"2026-07-03T03:39:45.264301+05:30"},{"city":"Kohima","state":"Nagaland","latitude":25.6701,"longitude":94.1077,"temp":18.9,"humidity":96,"rain":0.0,"pressure":851.6,"uv_index":8.55,"wind_gusts":28.1,"aqi":20,"pm10":3.5,"pm2_5":3.4,"no2":6.1,"co":207.0,"o3":34.0,"so2":0.6,"mosquito_risk":3,"arthritis_risk":10,"migraine_risk":7,"frizz_risk":1,"updated_at":"2026-07-03T03:39:45.264307+05:30"},{"city":"Gangtok","state":"Sikkim","latitude":27.3314,"longitude":88.6138,"temp":18.5,"humidity":96,"rain":0.1,"pressure":834.7,"uv_index":8.95,"wind_gusts":32.8,"aqi":38,"pm10":7.5,"pm2_5":7.4,"no2":6.3,"co":336.0,"o3":82.0,"so2":1.6,"mosquito_risk":6,"arthritis_risk":10,"migraine_risk":7,"frizz_risk":1,"updated_at":"2026-07-03T03:39:45.264314+05:30"},{"city":"Siliguri","state":"West Bengal","latitude":26.7271,"longitude":88.3953,"temp":27.1,"humidity":94,"rain":0.0,"pressure":987.2,"uv_index":8.65,"wind_gusts":24.1,"aqi":68,"pm10":29.7,"pm2_5":29.6,"no2":17.5,"co":454.0,"o3":69.0,"so2":5.9,"mosquito_risk":7,"arthritis_risk":5,"migraine_risk":7,"frizz_risk":1,"updated_at":"2026-07-03T03:39:48.903242+05:30"},{"city":"Durgapur","state":"West Bengal","latitude":23.5204,"longitude":87.3119,"temp":26.2,"humidity":98,"rain":0.0,"pressure":987.7,"uv_index":6.35,"wind_gusts":37.4,"aqi":93,"pm10":49.1,"pm2_5":47.5,"no2":34.2,"co":387.0,"o3":27.0,"so2":31.9,"mosquito_risk":7,"arthritis_risk":5,"migraine_risk":7,"frizz_risk":1,"updated_at":"2026-07-03T03:39:48.903272+05:30"},{"city":"Asansol","state":"West Bengal","latitude":23.6739,"longitude":86.9524,"temp":25.9,"humidity":98,"rain":0.0,"pressure":986.3,"uv_index":5.15,"wind_gusts":35.3,"aqi":91,"pm10":37.8,"pm2_5":36.9,"no2":34.9,"co":315.0,"o3":32.0,"so2":40.3,"mosquito_risk":7,"arthritis_risk":5,"migraine_risk":3,"frizz_risk":1,"updated_at":"2026-07-03T03:39:48.903282+05:30"},{"city":"Pondicherry","state":"Puducherry","latitude":11.9139,"longitude":79.8145,"temp":30.2,"humidity":58,"rain":0.0,"pressure":1005.9,"uv_index":7.9,"wind_gusts":38.9,"aqi":54,"pm10":11.7,"pm2_5":10.7,"no2":15.5,"co":98.0,"o3":35.0,"so2":5.5,"mosquito_risk":0,"arthritis_risk":5,"migraine_risk":4,"frizz_risk":1,"updated_at":"2026-07-03T03:39:48.903289+05:30"},{"city":"Port Blair","state":"Andaman and Nicobar Islands","latitude":11.6234,"longitude":92.7265,"temp":26.8,"humidity":90,"rain":0.0,"pressure":1004.4,"uv_index":7.45,"wind_gusts":49.0,"aqi":39,"pm10":16.6,"pm2_5":8.6,"no2":0.2,"co":93.0,"o3":64.0,"so2":0.5,"mosquito_risk":7,"arthritis_risk":5,"migraine_risk":4,"frizz_risk":1,"updated_at":"2026-07-03T03:39:48.903296+05:30"},{"city":"Haridwar","state":"Uttarakhand","latitude":29.9457,"longitude":78.1642,"temp":27.0,"humidity":91,"rain":0.0,"pressure":968.5,"uv_index":7.1,"wind_gusts":28.1,"aqi":90,"pm10":56.8,"pm2_5":53.2,"no2":33.4,"co":271.0,"o3":44.0,"so2":8.7,"mosquito_risk":7,"arthritis_risk":5,"migraine_risk":7,"frizz_risk":1,"updated_at":"2026-07-03T03:39:48.903303+05:30"},{"city":"Rishikesh","state":"Uttarakhand","latitude":30.0869,"longitude":78.2676,"temp":26.4,"humidity":88,"rain":0.0,"pressure":961.4,"uv_index":7.0,"wind_gusts":22.0,"aqi":61,"pm10":24.7,"pm2_5":21.9,"no2":8.7,"co":277.0,"o3":96.0,"so2":4.2,"mosquito_risk":7,"arthritis_risk":5,"migraine_risk":7,"frizz_risk":1,"updated_at":"2026-07-03T03:39:48.903309+05:30"},{"city":"Nainital","state":"Uttarakhand","latitude":29.3919,"longitude":79.4542,"temp":15.4,"humidity":100,"rain":0.0,"pressure":802.1,"uv_index":7.65,"wind_gusts":26.6,"aqi":84,"pm10":37.8,"pm2_5":35.4,"no2":15.8,"co":396.0,"o3":72.0,"so2":2.5,"mosquito_risk":3,"arthritis_risk":10,"migraine_risk":7,"frizz_risk":0,"updated_at":"2026-07-03T03:39:48.903316+05:30"},{"city":"Mussoorie","state":"Uttarakhand","latitude":30.4599,"longitude":78.0664,"temp":16.4,"humidity":99,"rain":0.0,"pressure":800.0,"uv_index":7.95,"wind_gusts":28.4,"aqi":62,"pm10":24.2,"pm2_5":22.1,"no2":19.7,"co":241.0,"o3":71.0,"so2":7.4,"mosquito_risk":3,"arthritis_risk":10,"migraine_risk":7,"frizz_risk":1,"updated_at":"2026-07-03T03:39:48.903323+05:30"},{"city":"Dharamshala","state":"Himachal Pradesh","latitude":32.219,"longitude":76.3234,"temp":22.2,"humidity":78,"rain":0.0,"pressure":866.0,"uv_index":8.45,"wind_gusts":30.6,"aqi":30,"pm10":5.6,"pm2_5":5.1,"no2":7.9,"co":311.0,"o3":89.0,"so2":0.1,"mosquito_risk":3,"arthritis_risk":5,"migraine_risk":7,"frizz_risk":1,"updated_at":"2026-07-03T03:39:48.903329+05:30"},{"city":"Dalhousie","state":"Himachal Pradesh","latitude":32.5387,"longitude":75.971,"temp":16.1,"humidity":97,"rain":0.0,"pressure":801.7,"uv_index":8.15,"wind_gusts":33.1,"aqi":83,"pm10":25.9,"pm2_5":18.9,"no2":19.4,"co":301.0,"o3":59.0,"so2":1.1,"mosquito_risk":3,"arthritis_risk":10,"migraine_risk":7,"frizz_risk":0,"updated_at":"2026-07-03T03:39:48.903336+05:30"},{"city":"Patiala","state":"Punjab","latitude":30.3398,"longitude":76.3869,"temp":27.5,"humidity":95,"rain":0.1,"pressure":972.4,"uv_index":7.6,"wind_gusts":29.5,"aqi":140,"pm10":224.4,"pm2_5":60.5,"no2":20.0,"co":483.0,"o3":66.0,"so2":12.2,"mosquito_risk":10,"arthritis_risk":5,"migraine_risk":7,"frizz_risk":1,"updated_at":"2026-07-03T03:39:48.903343+05:30"},{"city":"Bhatinda","state":"Punjab","latitude":30.211,"longitude":74.9455,"temp":28.9,"humidity":82,"rain":0.0,"pressure":977.6,"uv_index":8.25,"wind_gusts":36.7,"aqi":181,"pm10":420.0,"pm2_5":119.7,"no2":16.5,"co":439.0,"o3":76.0,"so2":6.9,"mosquito_risk":7,"arthritis_risk":5,"migraine_risk":7,"frizz_risk":1,"updated_at":"2026-07-03T03:39:48.903349+05:30"},{"city":"Rohtak","state":"Haryana","latitude":28.8955,"longitude":76.6066,"temp":26.9,"humidity":93,"rain":0.0,"pressure":975.5,"uv_index":6.0,"wind_gusts":29.2,"aqi":160,"pm10":330.6,"pm2_5":83.8,"no2":31.5,"co":781.0,"o3":61.0,"so2":27.9,"mosquito_risk":7,"arthritis_risk":5,"migraine_risk":3,"frizz_risk":1,"updated_at":"2026-07-03T03:39:48.903355+05:30"},{"city":"Panipat","state":"Haryana","latitude":29.3909,"longitude":76.9635,"temp":26.9,"humidity":95,"rain":0.1,"pressure":974.3,"uv_index":6.4,"wind_gusts":27.7,"aqi":364,"pm10":1285.2,"pm2_5":187.7,"no2":21.9,"co":437.0,"o3":63.0,"so2":11.9,"mosquito_risk":10,"arthritis_risk":5,"migraine_risk":7,"frizz_risk":1,"updated_at":"2026-07-03T03:39:48.903361+05:30"},{"city":"Mathura","state":"Uttar Pradesh","latitude":27.4924,"longitude":77.6737,"temp":28.4,"humidity":85,"rain":0.0,"pressure":980.4,"uv_index":6.15,"wind_gusts":22.0,"aqi":115,"pm10":37.1,"pm2_5":25.6,"no2":11.4,"co":494.0,"o3":91.0,"so2":4.7,"mosquito_risk":7,"arthritis_risk":5,"migraine_risk":7,"frizz_risk":1,"updated_at":"2026-07-03T03:39:48.903368+05:30"},{"city":"Vrindavan","state":"Uttar Pradesh","latitude":27.5823,"longitude":77.7027,"temp":28.4,"humidity":84,"rain":0.0,"pressure":980.8,"uv_index":7.6,"wind_gusts":22.0,"aqi":115,"pm10":37.1,"pm2_5":25.6,"no2":11.4,"co":463.0,"o3":91.0,"so2":4.7,"mosquito_risk":7,"arthritis_risk":5,"migraine_risk":7,"frizz_risk":1,"updated_at":"2026-07-03T03:39:48.903374+05:30"},{"city":"Ayodhya","state":"Uttar Pradesh","latitude":26.7922,"longitude":82.1998,"temp":26.5,"humidity":97,"rain":0.1,"pressure":989.3,"uv_index":7.3,"wind_gusts":35.3,"aqi":102,"pm10":29.7,"pm2_5":29.7,"no2":11.6,"co":513.0,"o3":81.0,"so2":4.4,"mosquito_risk":10,"arthritis_risk":5,"migraine_risk":7,"frizz_risk":1,"updated_at":"2026-07-03T03:39:48.903380+05:30"},{"city":"Ratlam","state":"Madhya Pradesh","latitude":23.3315,"longitude":75.0367,"temp":24.5,"humidity":97,"rain":0.0,"pressure":949.0,"uv_index":3.6,"wind_gusts":36.0,"aqi":48,"pm10":19.8,"pm2_5":18.9,"no2":7.7,"co":200.0,"o3":55.0,"so2":7.2,"mosquito_risk":3,"arthritis_risk":5,"migraine_risk":3,"frizz_risk":1,"updated_at":"2026-07-03T03:39:48.903386+05:30"},{"city":"Sagar","state":"Madhya Pradesh","latitude":23.8388,"longitude":78.7378,"temp":25.0,"humidity":91,"rain":0.0,"pressure":943.3,"uv_index":8.4,"wind_gusts":34.6,"aqi":70,"pm10":21.5,"pm2_5":17.1,"no2":6.7,"co":215.0,"o3":78.0,"so2":1.8,"mosquito_risk":7,"arthritis_risk":5,"migraine_risk":7,"frizz_risk":1,"updated_at":"2026-07-03T03:39:48.903391+05:30"},{"city":"Satna","state":"Madhya Pradesh","latitude":24.6005,"longitude":80.8322,"temp":24.7,"humidity":97,"rain":0.1,"pressure":964.2,"uv_index":8.35,"wind_gusts":29.5,"aqi":72,"pm10":22.4,"pm2_5":18.3,"no2":9.2,"co":218.0,"o3":73.0,"so2":3.6,"mosquito_risk":6,"arthritis_risk":5,"migraine_risk":7,"frizz_risk":1,"updated_at":"2026-07-03T03:39:48.903397+05:30"},{"city":"Akola","state":"Maharashtra","latitude":20.7002,"longitude":77.0082,"temp":25.2,"humidity":91,"rain":0.1,"pressure":969.2,"uv_index":4.85,"wind_gusts":42.1,"aqi":22,"pm10":3.7,"pm2_5":3.5,"no2":10.1,"co":135.0,"o3":34.0,"so2":7.8,"mosquito_risk":10,"arthritis_risk":5,"migraine_risk":3,"frizz_risk":1,"updated_at":"2026-07-03T03:39:48.903405+05:30"},{"city":"Amravati","state":"Maharashtra","latitude":20.9374,"longitude":77.7796,"temp":24.1,"humidity":97,"rain":0.0,"pressure":961.2,"uv_index":2.1,"wind_gusts":44.3,"aqi":23,"pm10":4.1,"pm2_5":4.0,"no2":11.1,"co":154.0,"o3":34.0,"so2":8.7,"mosquito_risk":3,"arthritis_risk":5,"migraine_risk":3,"frizz_risk":1,"updated_at":"2026-07-03T03:39:48.903412+05:30"},{"city":"Latur","state":"Maharashtra","latitude":18.4088,"longitude":76.5604,"temp":23.5,"humidity":91,"rain":0.0,"pressure":935.4,"uv_index":1.1,"wind_gusts":55.1,"aqi":21,"pm10":3.2,"pm2_5":2.9,"no2":5.6,"co":135.0,"o3":40.0,"so2":2.4,"mosquito_risk":3,"arthritis_risk":5,"migraine_risk":3,"frizz_risk":1,"updated_at":"2026-07-03T03:39:48.903419+05:30"},{"city":"Nanded","state":"Maharashtra","latitude":19.1383,"longitude":77.3091,"temp":25.3,"humidity":83,"rain":0.0,"pressure":963.4,"uv_index":0.8,"wind_gusts":46.1,"aqi":26,"pm10":3.9,"pm2_5":3.2,"no2":6.3,"co":135.0,"o3":39.0,"so2":3.0,"mosquito_risk":7,"arthritis_risk":5,"migraine_risk":3,"frizz_risk":1,"updated_at":"2026-07-03T03:39:48.903425+05:30"},{"city":"Gulbarga","state":"Karnataka","latitude":17.3297,"longitude":76.8343,"temp":24.2,"humidity":87,"rain":0.0,"pressure":955.3,"uv_index":2.1,"wind_gusts":58.3,"aqi":19,"pm10":4.5,"pm2_5":3.2,"no2":5.2,"co":136.0,"o3":40.0,"so2":2.5,"mosquito_risk":3,"arthritis_risk":5,"migraine_risk":3,"frizz_risk":1,"updated_at":"2026-07-03T03:39:48.903431+05:30"},{"city":"Bidar","state":"Karnataka","latitude":17.9104,"longitude":77.5199,"temp":23.6,"humidity":87,"rain":0.0,"pressure":931.2,"uv_index":3.75,"wind_gusts":58.7,"aqi":21,"pm10":3.6,"pm2_5":3.0,"no2":5.6,"co":119.0,"o3":39.0,"so2":2.0,"mosquito_risk":3,"arthritis_risk":5,"migraine_risk":3,"frizz_risk":1,"updated_at":"2026-07-03T03:39:48.903437+05:30"},{"city":"Hospet","state":"Karnataka","latitude":15.2689,"longitude":76.3909,"temp":23.6,"humidity":87,"rain":0.0,"pressure":953.8,"uv_index":5.5,"wind_gusts":65.5,"aqi":19,"pm10":1.6,"pm2_5":1.3,"no2":3.7,"co":109.0,"o3":43.0,"so2":1.4,"mosquito_risk":3,"arthritis_risk":5,"migraine_risk":3,"frizz_risk":1,"updated_at":"2026-07-03T03:39:48.903443+05:30"},{"city":"Tirupur","state":"Tamil Nadu","latitude":11.1085,"longitude":77.3411,"temp":23.8,"humidity":90,"rain":0.0,"pressure":974.4,"uv_index":8.65,"wind_gusts":61.9,"aqi":33,"pm10":11.9,"pm2_5":11.0,"no2":17.0,"co":118.0,"o3":23.0,"so2":4.2,"mosquito_risk":3,"arthritis_risk":5,"migraine_risk":7,"frizz_risk":1,"updated_at":"2026-07-03T03:39:48.903449+05:30"},{"city":"Alappuzha","state":"Kerala","latitude":9.4981,"longitude":76.3388,"temp":25.4,"humidity":91,"rain":0.2,"pressure":1010.1,"uv_index":8.4,"wind_gusts":41.0,"aqi":38,"pm10":7.1,"pm2_5":4.5,"no2":4.3,"co":80.0,"o3":39.0,"so2":1.7,"mosquito_risk":10,"arthritis_risk":0,"migraine_risk":4,"frizz_risk":1,"updated_at":"2026-07-03T03:39:48.903455+05:30"},{"city":"Munnar","state":"Kerala","latitude":10.0889,"longitude":77.0595,"temp":16.9,"humidity":100,"rain":0.4,"pressure":856.5,"uv_index":1.2,"wind_gusts":49.0,"aqi":18,"pm10":1.0,"pm2_5":0.9,"no2":3.3,"co":84.0,"o3":34.0,"so2":1.6,"mosquito_risk":6,"arthritis_risk":10,"migraine_risk":3,"frizz_risk":1,"updated_at":"2026-07-03T03:39:48.903461+05:30"},{"city":"Silchar","state":"Assam","latitude":24.8333,"longitude":92.7789,"temp":25.7,"humidity":97,"rain":0.3,"pressure":1000.3,"uv_index":8.75,"wind_gusts":22.0,"aqi":67,"pm10":12.9,"pm2_5":12.6,"no2":6.7,"co":192.0,"o3":52.0,"so2":3.6,"mosquito_risk":10,"arthritis_risk":5,"migraine_risk":4,"frizz_risk":1,"updated_at":"2026-07-03T03:39:48.903467+05:30"},{"city":"Dibrugarh","state":"Assam","latitude":27.4728,"longitude":94.912,"temp":26.2,"humidity":97,"rain":0.0,"pressure":990.1,"uv_index":8.85,"wind_gusts":15.5,"aqi":50,"pm10":21.3,"pm2_5":20.7,"no2":18.8,"co":196.0,"o3":21.0,"so2":1.4,"mosquito_risk":7,"arthritis_risk":5,"migraine_risk":7,"frizz_risk":1,"updated_at":"2026-07-03T03:39:48.903473+05:30"}]