[{"city":"Delhi","state":"Delhi","latitude":28.6139,"longitude":77.209,"temp":24.5,"humidity":51,"rain":0.0,"pressure":980.8,"uv_index":6.05,"wind_gusts":21.6,"aqi":136,"pm10":184.9,"pm2_5":84.8,"mosquito_risk":0,"arthritis_risk":5,"migraine_risk":7,"frizz_risk":0,"updated_at":"2026-03-29T00:16:07.887588+05:30"},{"city":"Mumbai","state":"Maharashtra","latitude":19.076,"longitude":72.8777,"temp":27.2,"humidity":81,"rain":0.0,"pressure":1008.3,"uv_index":8.0,"wind_gusts":24.5,"aqi":68,"pm10":73.1,"pm2_5":19.6,"mosquito_risk":7,"arthritis_risk":0,"migraine_risk":4,"frizz_risk":1,"updated_at":"2026-03-29T00:16:07.887632+05:30"},{"city":"Bangalore","state":"Karnataka","latitude":12.9716,"longitude":77.5946,"temp":23.3,"humidity":73,"rain":0.0,"pressure":911.3,"uv_index":9.5,"wind_gusts":42.5,"aqi":112,"pm10":54.2,"pm2_5":49.2,"mosquito_risk":3,"arthritis_risk":5,"migraine_risk":7,"frizz_risk":1,"updated_at":"2026-03-29T00:16:07.887648+05:30"},{"city":"Hyderabad","state":"Telangana","latitude":17.385,"longitude":78.4867,"temp":28.1,"humidity":50,"rain":0.0,"pressure":951.5,"uv_index":9.0,"wind_gusts":24.8,"aqi":107,"pm10":55.3,"pm2_5":50.6,"mosquito_risk":4,"arthritis_risk":5,"migraine_risk":7,"frizz_risk":1,"updated_at":"2026-03-29T00:16:07.887659+05:30"},{"city":"Chennai","state":"Tamil Nadu","latitude":13.0827,"longitude":80.2707,"temp":26.7,"humidity":86,"rain":0.0,"pressure":1006.6,"uv_index":9.25,"wind_gusts":34.6,"aqi":66,"pm10":21.1,"pm2_5":15.0,"mosquito_risk":7,"arthritis_risk":5,"migraine_risk":4,"frizz_risk":1,"updated_at":"2026-03-29T00:16:07.887667+05:30"},{"city":"Kolkata","state":"West Bengal","latitude":22.5726,"longitude":88.3639,"temp":22.9,"humidity":90,"rain":0.0,"pressure":1006.3,"uv_index":8.4,"wind_gusts":31.7,"aqi":139,"pm10":43.7,"pm2_5":39.5,"mosquito_risk":3,"arthritis_risk":5,"migraine_risk":4,"frizz_risk":1,"updated_at":"2026-03-29T00:16:07.887676+05:30"},{"city":"Pune","state":"Maharashtra","latitude":18.5204,"longitude":73.8567,"temp":24.0,"humidity":42,"rain":0.0,"pressure":947.7,"uv_index":8.5,"wind_gusts":49.0,"aqi":85,"pm10":24.0,"pm2_5":21.6,"mosquito_risk":0,"arthritis_risk":5,"migraine_risk":7,"frizz_risk":0,"updated_at":"2026-03-29T00:16:07.887688+05:30"},{"city":"Ahmedabad","state":"Gujarat","latitude":23.0225,"longitude":72.5714,"temp":27.7,"humidity":58,"rain":0.0,"pressure":1000.5,"uv_index":7.95,"wind_gusts":34.2,"aqi":34,"pm10":14.8,"pm2_5":7.2,"mosquito_risk":4,"arthritis_risk":5,"migraine_risk":4,"frizz_risk":1,"updated_at":"2026-03-29T00:16:07.887696+05:30"},{"city":"Jaipur","state":"Rajasthan","latitude":26.9124,"longitude":75.7873,"temp":27.6,"humidity":38,"rain":0.0,"pressure":957.1,"uv_index":7.45,"wind_gusts":32.4,"aqi":86,"pm10":131.8,"pm2_5":31.5,"mosquito_risk":4,"arthritis_risk":5,"migraine_risk":7,"frizz_risk":0,"updated_at":"2026-03-29T00:16:07.887704+05:30"},{"city":"Lucknow","state":"Uttar Pradesh","latitude":26.8467,"longitude":80.9462,"temp":25.0,"humidity":56,"rain":0.0,"pressure":991.7,"uv_index":7.15,"wind_gusts":28.1,"aqi":126,"pm10":212.3,"pm2_5":52.6,"mosquito_risk":4,"arthritis_risk":5,"migraine_risk":7,"frizz_risk":0,"updated_at":"2026-03-29T00:16:07.887712+05:30"},{"city":"Kanpur","state":"Uttar Pradesh","latitude":26.4499,"longitude":80.3319,"temp":24.3,"humidity":62,"rain":0.0,"pressure":989.8,"uv_index":6.95,"wind_gusts":25.2,"aqi":188,"pm10":305.5,"pm2_5":61.9,"mosquito_risk":3,"arthritis_risk":5,"migraine_risk":7,"frizz_risk":1,"updated_at":"2026-03-29T00:16:07.887719+05:30"},{"city":"Chandigarh","state":"Chandigarh","latitude":30.7333,"longitude":76.7794,"temp":22.7,"humidity":72,"rain":0.0,"pressure":966.9,"uv_index":5.4,"wind_gusts":23.4,"aqi":73,"pm10":40.2,"pm2_5":38.8,"mosquito_risk":3,"arthritis_risk":5,"migraine_risk":3,"frizz_risk":1,"updated_at":"2026-03-29T00:16:07.887726+05:30"},{"city":"Srinagar","state":"Jammu and Kashmir","latitude":34.0837,"longitude":74.7973,"temp":11.9,"humidity":82,"rain":0.0,"pressure":836.5,"uv_index":6.0,"wind_gusts":16.2,"aqi":91,"pm10":71.0,"pm2_5":59.6,"mosquito_risk":3,"arthritis_risk":10,"migraine_risk":3,"frizz_risk":0,"updated_at":"2026-03-29T00:16:07.887734+05:30"},{"city":"Jammu","state":"Jammu and Kashmir","latitude":32.7266,"longitude":74.857,"temp":22.3,"humidity":79,"rain":0.0,"pressure":971.1,"uv_index":7.05,"wind_gusts":16.6,"aqi":79,"pm10":48.0,"pm2_5":45.6,"mosquito_risk":3,"arthritis_risk":5,"migraine_risk":7,"frizz_risk":1,"updated_at":"2026-03-29T00:16:07.887741+05:30"},{"city":"Amritsar","state":"Punjab","latitude":31.634,"longitude":74.8723,"temp":22.5,"humidity":72,"rain":0.0,"pressure":978.3,"uv_index":7.0,"wind_gusts":14.8,"aqi":124,"pm10":50.2,"pm2_5":37.7,"mosquito_risk":3,"arthritis_risk":5,"migraine_risk":7,"frizz_risk":1,"updated_at":"2026-03-29T00:16:07.887748+05:30"},{"city":"Ludhiana","state":"Punjab","latitude":30.901,"longitude":75.8573,"temp":23.1,"humidity":69,"rain":0.0,"pressure":976.5,"uv_index":6.05,"wind_gusts":13.7,"aqi":109,"pm10":79.9,"pm2_5":70.5,"mosquito_risk":3,"arthritis_risk":5,"migraine_risk":7,"frizz_risk":1,"updated_at":"2026-03-29T00:16:07.887755+05:30"},{"city":"Jalandhar","state":"Punjab","latitude":31.326,"longitude":75.5762,"temp":22.6,"humidity":71,"rain":0.0,"pressure":977.7,"uv_index":6.25,"wind_gusts":14.4,"aqi":108,"pm10":81.7,"pm2_5":60.3,"mosquito_risk":3,"arthritis_risk":5,"migraine_risk":7,"frizz_risk":1,"updated_at":"2026-03-29T00:16:07.887764+05:30"},{"city":"Dehradun","state":"Uttarakhand","latitude":30.6284,"longitude":78.0322,"temp":13.4,"humidity":86,"rain":0.0,"pressure":827.5,"uv_index":5.85,"wind_gusts":22.3,"aqi":85,"pm10":33.3,"pm2_5":26.1,"mosquito_risk":3,"arthritis_risk":10,"migraine_risk":3,"frizz_risk":0,"updated_at":"2026-03-29T00:16:07.887771+05:30"},{"city":"Shimla","state":"Himachal Pradesh","latitude":31.1048,"longitude":77.1734,"temp":12.5,"humidity":82,"rain":0.0,"pressure":781.7,"uv_index":6.15,"wind_gusts":33.1,"aqi":92,"pm10":36.6,"pm2_5":32.0,"mosquito_risk":3,"arthritis_risk":10,"migraine_risk":7,"frizz_risk":0,"updated_at":"2026-03-29T00:16:07.887778+05:30"},{"city":"Manali","state":"Himachal Pradesh","latitude":32.2396,"longitude":77.1887,"temp":15.6,"humidity":60,"rain":0.0,"pressure":817.1,"uv_index":8.45,"wind_gusts":29.9,"aqi":102,"pm10":32.2,"pm2_5":15.4,"mosquito_risk":0,"arthritis_risk":5,"migraine_risk":7,"frizz_risk":0,"updated_at":"2026-03-29T00:16:07.887785+05:30"},{"city":"Gurgaon","state":"Haryana","latitude":28.4595,"longitude":77.0266,"temp":22.2,"humidity":61,"rain":0.0,"pressure":978.9,"uv_index":6.2,"wind_gusts":17.3,"aqi":311,"pm10":279.4,"pm2_5":95.5,"mosquito_risk":3,"arthritis_risk":5,"migraine_risk":7,"frizz_risk":0,"updated_at":"2026-03-29T00:16:07.887792+05:30"},{"city":"Noida","state":"Uttar Pradesh","latitude":28.5355,"longitude":77.391,"temp":23.7,"humidity":55,"rain":0.0,"pressure":982.3,"uv_index":6.05,"wind_gusts":21.6,"aqi":311,"pm10":279.4,"pm2_5":95.5,"mosquito_risk":0,"arthritis_risk":5,"migraine_risk":7,"frizz_risk":0,"updated_at":"2026-03-29T00:16:07.887798+05:30"},{"city":"Ghaziabad","state":"Uttar Pradesh","latitude":28.6692,"longitude":77.4538,"temp":22.7,"humidity":59,"rain":0.0,"pressure":980.4,"uv_index":5.95,"wind_gusts":20.5,"aqi":130,"pm10":187.2,"pm2_5":84.8,"mosquito_risk":0,"arthritis_risk":5,"migraine_risk":3,"frizz_risk":0,"updated_at":"2026-03-29T00:16:07.887805+05:30"},{"city":"Faridabad","state":"Haryana","latitude":28.4089,"longitude":77.3178,"temp":23.3,"humidity":54,"rain":0.0,"pressure":981.5,"uv_index":6.15,"wind_gusts":19.8,"aqi":311,"pm10":279.4,"pm2_5":95.5,"mosquito_risk":0,"arthritis_risk":5,"migraine_risk":7,"frizz_risk":0,"updated_at":"2026-03-29T00:16:07.887812+05:30"},{"city":"Meerut","state":"Uttar Pradesh","latitude":28.9845,"longitude":77.7064,"temp":21.7,"humidity":67,"rain":0.0,"pressure":979.4,"uv_index":5.9,"wind_gusts":23.0,"aqi":130,"pm10":187.2,"pm2_5":84.8,"mosquito_risk":3,"arthritis_risk":5,"migraine_risk":3,"frizz_risk":0,"updated_at":"2026-03-29T00:16:07.887818+05:30"},{"city":"Agra","state":"Uttar Pradesh","latitude":27.1767,"longitude":78.0081,"temp":23.1,"humidity":59,"rain":0.0,"pressure":985.4,"uv_index":6.45,"wind_gusts":25.6,"aqi":414,"pm10":447.0,"pm2_5":89.4,"mosquito_risk":0,"arthritis_risk":5,"migraine_risk":7,"frizz_risk":0,"updated_at":"2026-03-29T00:16:07.887826+05:30"},{"city":"Varanasi","state":"Uttar Pradesh","latitude":25.3176,"longitude":82.9739,"temp":22.1,"humidity":66,"rain":0.0,"pressure":995.8,"uv_index":7.8,"wind_gusts":37.4,"aqi":88,"pm10":103.6,"pm2_5":57.2,"mosquito_risk":3,"arthritis_risk":5,"migraine_risk":7,"frizz_risk":0,"updated_at":"2026-03-29T00:16:07.887835+05:30"},{"city":"Prayagraj","state":"Uttar Pradesh","latitude":25.4358,"longitude":81.8463,"temp":23.6,"humidity":63,"rain":0.0,"pressure":994.2,"uv_index":7.7,"wind_gusts":30.2,"aqi":91,"pm10":125.3,"pm2_5":64.5,"mosquito_risk":3,"arthritis_risk":5,"migraine_risk":7,"frizz_risk":1,"updated_at":"2026-03-29T00:16:07.887842+05:30"},{"city":"Gorakhpur","state":"Uttar Pradesh","latitude":26.7606,"longitude":83.3732,"temp":22.1,"humidity":82,"rain":0.0,"pressure":996.3,"uv_index":6.1,"wind_gusts":28.1,"aqi":93,"pm10":81.0,"pm2_5":51.2,"mosquito_risk":3,"arthritis_risk":5,"migraine_risk":7,"frizz_risk":1,"updated_at":"2026-03-29T00:16:07.887849+05:30"},{"city":"Bareilly","state":"Uttar Pradesh","latitude":28.367,"longitude":79.4304,"temp":22.2,"humidity":70,"rain":0.0,"pressure":985.0,"uv_index":6.3,"wind_gusts":24.5,"aqi":82,"pm10":97.1,"pm2_5":48.1,"mosquito_risk":3,"arthritis_risk":5,"migraine_risk":7,"frizz_risk":1,"updated_at":"2026-03-29T00:16:07.887858+05:30"},{"city":"Aligarh","state":"Uttar Pradesh","latitude":27.8974,"longitude":78.088,"temp":21.2,"humidity":66,"rain":0.0,"pressure":983.1,"uv_index":6.2,"wind_gusts":23.8,"aqi":273,"pm10":508.5,"pm2_5":104.8,"mosquito_risk":3,"arthritis_risk":5,"migraine_risk":7,"frizz_risk":0,"updated_at":"2026-03-29T00:16:07.887865+05:30"},{"city":"Moradabad","state":"Uttar Pradesh","latitude":28.8386,"longitude":78.7733,"temp":22.6,"humidity":68,"rain":0.0,"pressure":981.8,"uv_index":6.1,"wind_gusts":23.0,"aqi":96,"pm10":98.0,"pm2_5":72.6,"mosquito_risk":3,"arthritis_risk":5,"migraine_risk":7,"frizz_risk":1,"updated_at":"2026-03-29T00:16:07.887872+05:30"},{"city":"Saharanpur","state":"Uttar Pradesh","latitude":29.9637,"longitude":77.546,"temp":21.5,"humidity":75,"rain":0.0,"pressure":973.9,"uv_index":5.15,"wind_gusts":24.8,"aqi":111,"pm10":93.6,"pm2_5":75.4,"mosquito_risk":3,"arthritis_risk":5,"migraine_risk":3,"frizz_risk":1,"updated_at":"2026-03-29T00:16:07.887878+05:30"},{"city":"Jhansi","state":"Uttar Pradesh","latitude":25.4484,"longitude":78.5685,"temp":24.1,"humidity":54,"rain":0.0,"pressure":975.5,"uv_index":7.05,"wind_gusts":25.9,"aqi":88,"pm10":71.7,"pm2_5":24.7,"mosquito_risk":0,"arthritis_risk":5,"migraine_risk":7,"frizz_risk":0,"updated_at":"2026-03-29T00:16:11.232880+05:30"},{"city":"Surat","state":"Gujarat","latitude":21.1702,"longitude":72.8311,"temp":27.2,"humidity":85,"rain":0.0,"pressure":1005.6,"uv_index":7.75,"wind_gusts":30.6,"aqi":79,"pm10":21.6,"pm2_5":16.4,"mosquito_risk":7,"arthritis_risk":5,"migraine_risk":4,"frizz_risk":1,"updated_at":"2026-03-29T00:16:11.232910+05:30"},{"city":"Vadodara","state":"Gujarat","latitude":22.3072,"longitude":73.1812,"temp":27.1,"humidity":75,"rain":0.0,"pressure":1002.9,"uv_index":7.95,"wind_gusts":32.8,"aqi":58,"pm10":31.9,"pm2_5":20.6,"mosquito_risk":7,"arthritis_risk":5,"migraine_risk":4,"frizz_risk":1,"updated_at":"2026-03-29T00:16:11.232921+05:30"},{"city":"Rajkot","state":"Gujarat","latitude":22.3039,"longitude":70.8022,"temp":25.3,"humidity":79,"rain":0.0,"pressure":993.7,"uv_index":7.8,"wind_gusts":43.2,"aqi":35,"pm10":20.7,"pm2_5":8.2,"mosquito_risk":7,"arthritis_risk":5,"migraine_risk":7,"frizz_risk":1,"updated_at":"2026-03-29T00:16:11.232929+05:30"},{"city":"Thane","state":"Maharashtra","latitude":19.2183,"longitude":72.9781,"temp":26.0,"humidity":85,"rain":0.0,"pressure":1007.8,"uv_index":8.0,"wind_gusts":37.8,"aqi":68,"pm10":73.1,"pm2_5":19.6,"mosquito_risk":7,"arthritis_risk":5,"migraine_risk":4,"frizz_risk":1,"updated_at":"2026-03-29T00:16:11.232937+05:30"},{"city":"Nagpur","state":"Maharashtra","latitude":21.1458,"longitude":79.0882,"temp":26.9,"humidity":38,"rain":0.0,"pressure":970.5,"uv_index":8.5,"wind_gusts":31.3,"aqi":63,"pm10":56.2,"pm2_5":45.8,"mosquito_risk":4,"arthritis_risk":5,"migraine_risk":7,"frizz_risk":0,"updated_at":"2026-03-29T00:16:11.232946+05:30"},{"city":"Nashik","state":"Maharashtra","latitude":19.9975,"longitude":73.7898,"temp":22.0,"humidity":62,"rain":0.0,"pressure":944.6,"uv_index":8.2,"wind_gusts":43.6,"aqi":54,"pm10":43.9,"pm2_5":14.8,"mosquito_risk":3,"arthritis_risk":5,"migraine_risk":7,"frizz_risk":0,"updated_at":"2026-03-29T00:16:11.232954+05:30"},{"city":"Aurangabad","state":"Maharashtra","latitude":19.8762,"longitude":75.3433,"temp":26.1,"humidity":32,"rain":0.0,"pressure":942.8,"uv_index":8.7,"wind_gusts":43.6,"aqi":47,"pm10":18.5,"pm2_5":10.0,"mosquito_risk":4,"arthritis_risk":5,"migraine_risk":7,"frizz_risk":0,"updated_at":"2026-03-29T00:16:11.232961+05:30"},{"city":"Solapur","state":"Maharashtra","latitude":17.6599,"longitude":75.9064,"temp":28.4,"humidity":39,"rain":0.0,"pressure":955.9,"uv_index":8.85,"wind_gusts":31.3,"aqi":76,"pm10":23.1,"pm2_5":21.4,"mosquito_risk":4,"arthritis_risk":5,"migraine_risk":7,"frizz_risk":0,"updated_at":"2026-03-29T00:16:11.232969+05:30"},{"city":"Kolhapur","state":"Maharashtra","latitude":16.705,"longitude":74.2433,"temp":21.3,"humidity":78,"rain":0.0,"pressure":947.0,"uv_index":8.95,"wind_gusts":43.6,"aqi":117,"pm10":25.4,"pm2_5":24.6,"mosquito_risk":3,"arthritis_risk":5,"migraine_risk":7,"frizz_risk":1,"updated_at":"2026-03-29T00:16:11.232976+05:30"},{"city":"Goa","state":"Goa","latitude":15.2993,"longitude":74.124,"temp":27.9,"humidity":79,"rain":0.0,"pressure":997.7,"uv_index":8.95,"wind_gusts":28.4,"aqi":99,"pm10":52.2,"pm2_5":46.3,"mosquito_risk":7,"arthritis_risk":5,"migraine_risk":7,"frizz_risk":1,"updated_at":"2026-03-29T00:16:11.232983+05:30"},{"city":"Jodhpur","state":"Rajasthan","latitude":26.2389,"longitude":73.0243,"temp":27.3,"humidity":58,"rain":0.0,"pressure":979.7,"uv_index":7.8,"wind_gusts":31.0,"aqi":84,"pm10":163.4,"pm2_5":24.4,"mosquito_risk":4,"arthritis_risk":5,"migraine_risk":7,"frizz_risk":1,"updated_at":"2026-03-29T00:16:11.232990+05:30"},{"city":"Udaipur","state":"Rajasthan","latitude":24.5854,"longitude":73.7125,"temp":24.0,"humidity":61,"rain":0.0,"pressure":944.7,"uv_index":8.35,"wind_gusts":33.5,"aqi":38,"pm10":19.7,"pm2_5":7.2,"mosquito_risk":3,"arthritis_risk":5,"migraine_risk":7,"frizz_risk":0,"updated_at":"2026-03-29T00:16:11.232997+05:30"},{"city":"Kota","state":"Rajasthan","latitude":25.2138,"longitude":75.8648,"temp":28.9,"humidity":39,"rain":0.0,"pressure":976.2,"uv_index":7.7,"wind_gusts":24.5,"aqi":56,"pm10":77.5,"pm2_5":33.8,"mosquito_risk":4,"arthritis_risk":5,"migraine_risk":7,"frizz_risk":0,"updated_at":"2026-03-29T00:16:11.233038+05:30"},{"city":"Bikaner","state":"Rajasthan","latitude":28.0229,"longitude":73.3119,"temp":28.7,"humidity":37,"rain":0.0,"pressure":977.3,"uv_index":7.5,"wind_gusts":20.9,"aqi":43,"pm10":150.9,"pm2_5":32.1,"mosquito_risk":4,"arthritis_risk":5,"migraine_risk":7,"frizz_risk":0,"updated_at":"2026-03-29T00:16:11.233053+05:30"},{"city":"Ajmer","state":"Rajasthan","latitude":26.4499,"longitude":74.6399,"temp":24.4,"humidity":52,"rain":0.0,"pressure":951.8,"uv_index":7.75,"wind_gusts":30.6,"aqi":43,"pm10":49.4,"pm2_5":14.2,"mosquito_risk":0,"arthritis_risk":5,"migraine_risk":7,"frizz_risk":0,"updated_at":"2026-03-29T00:16:11.233061+05:30"},{"city":"Gwalior","state":"Madhya Pradesh","latitude":26.2183,"longitude":78.1828,"temp":24.7,"humidity":61,"rain":0.0,"pressure":980.7,"uv_index":6.75,"wind_gusts":36.4,"aqi":136,"pm10":238.0,"pm2_5":44.0,"mosquito_risk":3,"arthritis_risk":5,"migraine_risk":7,"frizz_risk":1,"updated_at":"2026-03-29T00:16:11.233068+05:30"},{"city":"Indore","state":"Madhya Pradesh","latitude":22.7196,"longitude":75.8577,"temp":24.3,"humidity":64,"rain":0.0,"pressure":946.5,"uv_index":8.2,"wind_gusts":37.1,"aqi":46,"pm10":20.6,"pm2_5":14.4,"mosquito_risk":3,"arthritis_risk":5,"migraine_risk":7,"frizz_risk":1,"updated_at":"2026-03-29T00:16:11.233075+05:30"},{"city":"Bhopal","state":"Madhya Pradesh","latitude":23.2599,"longitude":77.4126,"temp":25.9,"humidity":46,"rain":0.0,"pressure":951.7,"uv_index":8.15,"wind_gusts":31.3,"aqi":44,"pm10":21.3,"pm2_5":15.9,"mosquito_risk":4,"arthritis_risk":5,"migraine_risk":7,"frizz_risk":0,"updated_at":"2026-03-29T00:16:11.233082+05:30"},{"city":"Jabalpur","state":"Madhya Pradesh","latitude":23.1815,"longitude":79.9864,"temp":26.0,"humidity":53,"rain":0.0,"pressure":958.7,"uv_index":8.25,"wind_gusts":29.9,"aqi":58,"pm10":36.2,"pm2_5":22.9,"mosquito_risk":4,"arthritis_risk":5,"migraine_risk":7,"frizz_risk":0,"updated_at":"2026-03-29T00:16:11.233089+05:30"},{"city":"Ujjain","state":"Madhya Pradesh","latitude":23.1765,"longitude":75.7885,"temp":24.7,"humidity":60,"rain":0.0,"pressure":952.1,"uv_index":8.15,"wind_gusts":34.2,"aqi":44,"pm10":21.8,"pm2_5":13.6,"mosquito_risk":0,"arthritis_risk":5,"migraine_risk":7,"frizz_risk":1,"updated_at":"2026-03-29T00:16:11.233097+05:30"},{"city":"Visakhapatnam","state":"Andhra Pradesh","latitude":17.6868,"longitude":83.2185,"temp":27.1,"humidity":85,"rain":0.0,"pressure":1002.3,"uv_index":9.0,"wind_gusts":41.8,"aqi":91,"pm10":29.3,"pm2_5":20.5,"mosquito_risk":7,"arthritis_risk":5,"migraine_risk":4,"frizz_risk":1,"updated_at":"2026-03-29T00:16:11.233104+05:30"},{"city":"Vijayawada","state":"Andhra Pradesh","latitude":16.5062,"longitude":80.648,"temp":26.4,"humidity":90,"rain":0.0,"pressure":1001.4,"uv_index":9.05,"wind_gusts":29.2,"aqi":85,"pm10":27.5,"pm2_5":21.7,"mosquito_risk":7,"arthritis_risk":5,"migraine_risk":4,"frizz_risk":1,"updated_at":"2026-03-29T00:16:11.233111+05:30"},{"city":"Guntur","state":"Andhra Pradesh","latitude":16.3067,"longitude":80.4365,"temp":26.4,"humidity":91,"rain":0.0,"pressure":1002.6,"uv_index":9.05,"wind_gusts":33.1,"aqi":87,"pm10":31.4,"pm2_5":25.7,"mosquito_risk":7,"arthritis_risk":5,"migraine_risk":4,"frizz_risk":1,"updated_at":"2026-03-29T00:16:11.233118+05:30"},{"city":"Nellore","state":"Andhra Pradesh","latitude":14.4426,"longitude":79.9865,"temp":26.2,"humidity":89,"rain":0.0,"pressure":1004.7,"uv_index":9.2,"wind_gusts":34.6,"aqi":80,"pm10":19.3,"pm2_5":15.0,"mosquito_risk":7,"arthritis_risk":5,"migraine_risk":4,"frizz_risk":1,"updated_at":"2026-03-29T00:16:11.233126+05:30"},{"city":"Kurnool","state":"Andhra Pradesh","latitude":15.8281,"longitude":78.0373,"temp":30.0,"humidity":50,"rain":0.0,"pressure":975.3,"uv_index":9.05,"wind_gusts":33.5,"aqi":118,"pm10":59.0,"pm2_5":51.2,"mosquito_risk":4,"arthritis_risk":5,"migraine_risk":7,"frizz_risk":1,"updated_at":"2026-03-29T00:16:11.233134+05:30"},{"city":"Kakinada","state":"Andhra Pradesh","latitude":16.9891,"longitude":82.2475,"temp":26.1,"humidity":92,"rain":0.0,"pressure":1006.5,"uv_index":9.0,"wind_gusts":35.3,"aqi":71,"pm10":27.0,"pm2_5":16.2,"mosquito_risk":7,"arthritis_risk":5,"migraine_risk":4,"frizz_risk":1,"updated_at":"2026-03-29T00:16:11.233141+05:30"},{"city":"Tirupati","state":"Andhra Pradesh","latitude":13.6288,"longitude":79.4192,"temp":25.8,"humidity":84,"rain":0.0,"pressure":991.3,"uv_index":9.25,"wind_gusts":27.4,"aqi":104,"pm10":47.3,"pm2_5":43.9,"mosquito_risk":7,"arthritis_risk":5,"migraine_risk":7,"frizz_risk":1,"updated_at":"2026-03-29T00:16:11.233148+05:30"},{"city":"Warangal","state":"Telangana","latitude":17.9689,"longitude":79.5941,"temp":28.3,"humidity":66,"rain":0.0,"pressure":976.4,"uv_index":8.85,"wind_gusts":25.6,"aqi":112,"pm10":82.0,"pm2_5":76.4,"mosquito_risk":7,"arthritis_risk":5,"migraine_risk":7,"frizz_risk":1,"updated_at":"2026-03-29T00:16:11.233155+05:30"},{"city":"Nizamabad","state":"Telangana","latitude":18.6725,"longitude":78.0941,"temp":27.0,"humidity":52,"rain":0.0,"pressure":962.0,"uv_index":8.8,"wind_gusts":26.3,"aqi":81,"pm10":33.9,"pm2_5":31.0,"mosquito_risk":4,"arthritis_risk":5,"migraine_risk":7,"frizz_risk":1,"updated_at":"2026-03-29T00:16:11.233162+05:30"},{"city":"Mysore","state":"Karnataka","latitude":12.2958,"longitude":76.6396,"temp":23.6,"humidity":86,"rain":0.0,"pressure":928.5,"uv_index":9.45,"wind_gusts":45.7,"aqi":118,"pm10":43.2,"pm2_5":39.2,"mosquito_risk":3,"arthritis_risk":5,"migraine_risk":7,"frizz_risk":1,"updated_at":"2026-03-29T00:16:11.233168+05:30"},{"city":"Mangalore","state":"Karnataka","latitude":12.9141,"longitude":74.856,"temp":29.2,"humidity":81,"rain":0.0,"pressure":1006.0,"uv_index":9.1,"wind_gusts":23.8,"aqi":95,"pm10":44.0,"pm2_5":38.1,"mosquito_risk":7,"arthritis_risk":5,"migraine_risk":4,"frizz_risk":1,"updated_at":"2026-03-29T00:16:11.233175+05:30"},{"city":"Hubli-Dharwad","state":"Karnataka","latitude":15.3647,"longitude":75.124,"temp":24.1,"humidity":92,"rain":0.0,"pressure":940.2,"uv_index":8.3,"wind_gusts":44.3,"aqi":103,"pm10":37.7,"pm2_5":34.7,"mosquito_risk":3,"arthritis_risk":5,"migraine_risk":7,"frizz_risk":1,"updated_at":"2026-03-29T00:16:11.233182+05:30"},{"city":"Belgaum","state":"Karnataka","latitude":15.8497,"longitude":74.4977,"temp":21.6,"humidity":91,"rain":0.0,"pressure":924.9,"uv_index":8.95,"wind_gusts":36.4,"aqi":116,"pm10":47.5,"pm2_5":43.5,"mosquito_risk":3,"arthritis_risk":5,"migraine_risk":7,"frizz_risk":1,"updated_at":"2026-03-29T00:16:14.577388+05:30"},{"city":"Coimbatore","state":"Tamil Nadu","latitude":11.0168,"longitude":76.9558,"temp":24.8,"humidity":84,"rain":0.0,"pressure":961.8,"uv_index":9.45,"wind_gusts":52.2,"aqi":89,"pm10":36.6,"pm2_5":34.9,"mosquito_risk":3,"arthritis_risk":5,"migraine_risk":7,"frizz_risk":1,"updated_at":"2026-03-29T00:16:14.577418+05:30"},{"city":"Madurai","state":"Tamil Nadu","latitude":9.9252,"longitude":78.1198,"temp":26.7,"humidity":83,"rain":0.0,"pressure":992.6,"uv_index":9.4,"wind_gusts":38.2,"aqi":77,"pm10":22.2,"pm2_5":21.0,"mosquito_risk":7,"arthritis_risk":5,"migraine_risk":7,"frizz_risk":1,"updated_at":"2026-03-29T00:16:14.577429+05:30"},{"city":"Trichy","state":"Tamil Nadu","latitude":10.7905,"longitude":78.7047,"temp":26.4,"humidity":81,"rain":0.0,"pressure":999.4,"uv_index":9.35,"wind_gusts":23.8,"aqi":68,"pm10":15.1,"pm2_5":14.0,"mosquito_risk":7,"arthritis_risk":5,"migraine_risk":7,"frizz_risk":1,"updated_at":"2026-03-29T00:16:14.577438+05:30"},{"city":"Salem","state":"Tamil Nadu","latitude":11.6643,"longitude":78.146,"temp":28.0,"humidity":67,"rain":0.0,"pressure":977.4,"uv_index":9.4,"wind_gusts":25.2,"aqi":108,"pm10":35.0,"pm2_5":30.9,"mosquito_risk":7,"arthritis_risk":5,"migraine_risk":7,"frizz_risk":1,"updated_at":"2026-03-29T00:16:14.577446+05:30"},{"city":"Tirunelveli","state":"Tamil Nadu","latitude":8.7139,"longitude":77.7567,"temp":27.5,"humidity":71,"rain":0.0,"pressure":1002.4,"uv_index":9.35,"wind_gusts":47.5,"aqi":80,"pm10":29.6,"pm2_5":27.3,"mosquito_risk":7,"arthritis_risk":5,"migraine_risk":4,"frizz_risk":1,"updated_at":"2026-03-29T00:16:14.577454+05:30"},{"city":"Vellore","state":"Tamil Nadu","latitude":12.9165,"longitude":79.1325,"temp":26.0,"humidity":84,"rain":0.0,"pressure":984.1,"uv_index":9.35,"wind_gusts":31.0,"aqi":132,"pm10":58.9,"pm2_5":55.4,"mosquito_risk":7,"arthritis_risk":5,"migraine_risk":7,"frizz_risk":1,"updated_at":"2026-03-29T00:16:14.577461+05:30"},{"city":"Erode","state":"Tamil Nadu","latitude":11.341,"longitude":77.7172,"temp":28.0,"humidity":79,"rain":0.0,"pressure":988.8,"uv_index":9.35,"wind_gusts":25.6,"aqi":94,"pm10":42.3,"pm2_5":38.6,"mosquito_risk":7,"arthritis_risk":5,"migraine_risk":7,"frizz_risk":1,"updated_at":"2026-03-29T00:16:14.577468+05:30"},{"city":"Kochi","state":"Kerala","latitude":9.9312,"longitude":76.2673,"temp":28.0,"humidity":81,"rain":0.0,"pressure":1008.8,"uv_index":8.45,"wind_gusts":31.7,"aqi":95,"pm10":44.4,"pm2_5":42.6,"mosquito_risk":7,"arthritis_risk":0,"migraine_risk":4,"frizz_risk":1,"updated_at":"2026-03-29T00:16:14.577475+05:30"},{"city":"Thiruvananthapuram","state":"Kerala","latitude":8.5241,"longitude":76.9366,"temp":28.6,"humidity":81,"rain":0.0,"pressure":1007.6,"uv_index":9.15,"wind_gusts":39.6,"aqi":66,"pm10":27.5,"pm2_5":22.5,"mosquito_risk":7,"arthritis_risk":5,"migraine_risk":4,"frizz_risk":1,"updated_at":"2026-03-29T00:16:14.577482+05:30"},{"city":"Kozhikode","state":"Kerala","latitude":11.2588,"longitude":75.7804,"temp":28.2,"humidity":82,"rain":0.0,"pressure":1007.7,"uv_index":9.1,"wind_gusts":31.0,"aqi":78,"pm10":33.3,"pm2_5":26.9,"mosquito_risk":7,"arthritis_risk":5,"migraine_risk":4,"frizz_risk":1,"updated_at":"2026-03-29T00:16:14.577489+05:30"},{"city":"Thrissur","state":"Kerala","latitude":10.5276,"longitude":76.2144,"temp":26.6,"humidity":90,"rain":0.0,"pressure":1007.4,"uv_index":9.15,"wind_gusts":36.4,"aqi":91,"pm10":53.8,"pm2_5":51.2,"mosquito_risk":7,"arthritis_risk":5,"migraine_risk":4,"frizz_risk":1,"updated_at":"2026-03-29T00:16:14.577497+05:30"},{"city":"Kannur","state":"Kerala","latitude":11.8745,"longitude":75.3704,"temp":28.5,"humidity":82,"rain":0.0,"pressure":1006.7,"uv_index":9.05,"wind_gusts":31.0,"aqi":89,"pm10":45.5,"pm2_5":39.6,"mosquito_risk":7,"arthritis_risk":5,"migraine_risk":4,"frizz_risk":1,"updated_at":"2026-03-29T00:16:14.577504+05:30"},{"city":"Patna","state":"Bihar","latitude":25.5941,"longitude":85.1376,"temp":23.0,"humidity":81,"rain":0.0,"pressure":1000.1,"uv_index":7.9,"wind_gusts":29.5,"aqi":95,"pm10":61.5,"pm2_5":46.1,"mosquito_risk":3,"arthritis_risk":5,"migraine_risk":4,"frizz_risk":1,"updated_at":"2026-03-29T00:16:14.577510+05:30"},{"city":"Gaya","state":"Bihar","latitude":24.7914,"longitude":85.0002,"temp":22.3,"humidity":83,"rain":0.0,"pressure":993.0,"uv_index":7.9,"wind_gusts":24.1,"aqi":82,"pm10":61.0,"pm2_5":37.8,"mosquito_risk":3,"arthritis_risk":5,"migraine_risk":7,"frizz_risk":1,"updated_at":"2026-03-29T00:16:14.577517+05:30"},{"city":"Muzaffarpur","state":"Bihar","latitude":26.1209,"longitude":85.3647,"temp":21.9,"humidity":89,"rain":0.0,"pressure":1000.5,"uv_index":7.85,"wind_gusts":21.2,"aqi":110,"pm10":57.7,"pm2_5":44.4,"mosquito_risk":3,"arthritis_risk":5,"migraine_risk":4,"frizz_risk":1,"updated_at":"2026-03-29T00:16:14.577524+05:30"},{"city":"Bhagalpur","state":"Bihar","latitude":25.2425,"longitude":87.0117,"temp":21.8,"humidity":90,"rain":0.0,"pressure":1001.5,"uv_index":7.75,"wind_gusts":25.2,"aqi":99,"pm10":35.5,"pm2_5":29.5,"mosquito_risk":3,"arthritis_risk":5,"migraine_risk":4,"frizz_risk":1,"updated_at":"2026-03-29T00:16:14.577531+05:30"},{"city":"Ranchi","state":"Jharkhand","latitude":23.3441,"longitude":85.3096,"temp":21.7,"humidity":82,"rain":0.0,"pressure":936.2,"uv_index":8.7,"wind_gusts":31.7,"aqi":91,"pm10":48.9,"pm2_5":32.1,"mosquito_risk":3,"arthritis_risk":5,"migraine_risk":7,"frizz_risk":1,"updated_at":"2026-03-29T00:16:14.577537+05:30"},{"city":"Jamshedpur","state":"Jharkhand","latitude":22.8046,"longitude":86.2029,"temp":24.9,"humidity":81,"rain":0.0,"pressure":989.8,"uv_index":8.5,"wind_gusts":32.4,"aqi":142,"pm10":56.9,"pm2_5":52.6,"mosquito_risk":3,"arthritis_risk":5,"migraine_risk":7,"frizz_risk":1,"updated_at":"2026-03-29T00:16:14.577544+05:30"},{"city":"Dhanbad","state":"Jharkhand","latitude":23.7957,"longitude":86.4304,"temp":23.7,"humidity":76,"rain":0.0,"pressure":979.4,"uv_index":8.4,"wind_gusts":30.2,"aqi":154,"pm10":79.9,"pm2_5":74.7,"mosquito_risk":3,"arthritis_risk":5,"migraine_risk":7,"frizz_risk":1,"updated_at":"2026-03-29T00:16:14.577550+05:30"},{"city":"Bokaro","state":"Jharkhand","latitude":23.6693,"longitude":86.1511,"temp":23.2,"humidity":81,"rain":0.0,"pressure":983.5,"uv_index":8.45,"wind_gusts":31.0,"aqi":149,"pm10":74.5,"pm2_5":69.6,"mosquito_risk":3,"arthritis_risk":5,"migraine_risk":7,"frizz_risk":1,"updated_at":"2026-03-29T00:16:14.577558+05:30"},{"city":"Bhubaneswar","state":"Odisha","latitude":20.2961,"longitude":85.8245,"temp":26.7,"humidity":84,"rain":0.0,"pressure":1000.7,"uv_index":8.8,"wind_gusts":31.7,"aqi":115,"pm10":34.3,"pm2_5":26.7,"mosquito_risk":7,"arthritis_risk":5,"migraine_risk":4,"frizz_risk":1,"updated_at":"2026-03-29T00:16:14.577565+05:30"},{"city":"Cuttack","state":"Odisha","latitude":20.4625,"longitude":85.8828,"temp":26.6,"humidity":85,"rain":0.0,"pressure":1002.8,"uv_index":8.8,"wind_gusts":28.4,"aqi":115,"pm10":34.3,"pm2_5":26.7,"mosquito_risk":7,"arthritis_risk":5,"migraine_risk":4,"frizz_risk":1,"updated_at":"2026-03-29T00:16:14.577572+05:30"},{"city":"Rourkela","state":"Odisha","latitude":22.2604,"longitude":84.8536,"temp":26.6,"humidity":76,"rain":0.0,"pressure":982.6,"uv_index":8.4,"wind_gusts":43.9,"aqi":111,"pm10":51.5,"pm2_5":41.2,"mosquito_risk":7,"arthritis_risk":5,"migraine_risk":7,"frizz_risk":1,"updated_at":"2026-03-29T00:16:14.577578+05:30"},{"city":"Raipur","state":"Chhattisgarh","latitude":21.2514,"longitude":81.6296,"temp":29.3,"humidity":43,"rain":0.0,"pressure":971.8,"uv_index":8.55,"wind_gusts":34.6,"aqi":85,"pm10":33.9,"pm2_5":29.9,"mosquito_risk":4,"arthritis_risk":5,"migraine_risk":7,"frizz_risk":0,"updated_at":"2026-03-29T00:16:14.577585+05:30"},{"city":"Bhilai","state":"Chhattisgarh","latitude":21.1938,"longitude":81.3509,"temp":28.2,"humidity":47,"rain":0.0,"pressure":972.1,"uv_index":8.55,"wind_gusts":33.8,"aqi":74,"pm10":30.3,"pm2_5":26.3,"mosquito_risk":4,"arthritis_risk":5,"migraine_risk":7,"frizz_risk":0,"updated_at":"2026-03-29T00:16:14.577591+05:30"},{"city":"Guwahati","state":"Assam","latitude":26.1158,"longitude":91.7086,"temp":20.7,"humidity":95,"rain":0.0,"pressure":1002.2,"uv_index":4.0,"wind_gusts":28.1,"aqi":125,"pm10":38.0,"pm2_5":34.6,"mosquito_risk":3,"arthritis_risk":5,"migraine_risk":0,"frizz_risk":1,"updated_at":"2026-03-29T00:16:14.577598+05:30"},{"city":"Agartala","state":"Tripura","latitude":23.8315,"longitude":91.2868,"temp":20.7,"humidity":95,"rain":0.0,"pressure":1006.4,"uv_index":6.4,"wind_gusts":38.5,"aqi":136,"pm10":82.4,"pm2_5":76.4,"mosquito_risk":3,"arthritis_risk":5,"migraine_risk":4,"frizz_risk":1,"updated_at":"2026-03-29T00:16:14.577604+05:30"},{"city":"Shillong","state":"Meghalaya","latitude":25.5788,"longitude":91.8933,"temp":10.2,"humidity":89,"rain":0.0,"pressure":852.6,"uv_index":3.7,"wind_gusts":43.9,"aqi":77,"pm10":17.2,"pm2_5":13.0,"mosquito_risk":3,"arthritis_risk":10,"migraine_risk":3,"frizz_risk":0,"updated_at":"2026-03-29T00:16:14.577611+05:30"},{"city":"Imphal","state":"Manipur","latitude":24.817,"longitude":93.9368,"temp":15.3,"humidity":92,"rain":0.0,"pressure":921.9,"uv_index":7.7,"wind_gusts":55.1,"aqi":149,"pm10":52.0,"pm2_5":43.3,"mosquito_risk":3,"arthritis_risk":10,"migraine_risk":7,"frizz_risk":0,"updated_at":"2026-03-29T00:16:14.577618+05:30"},{"city":"Aizawl","state":"Mizoram","latitude":23.7271,"longitude":92.7176,"temp":14.8,"humidity":93,"rain":0.0,"pressure":890.5,"uv_index":7.35,"wind_gusts":38.2,"aqi":117,"pm10":59.8,"pm2_5":47.8,"mosquito_risk":3,"arthritis_risk":10,"migraine_risk":7,"frizz_risk":0,"updated_at":"2026-03-29T00:16:14.577624+05:30"},{"city":"Kohima","state":"Nagaland","latitude":25.6701,"longitude":94.1077,"temp":12.6,"humidity":84,"rain":0.0,"pressure":851.9,"uv_index":4.95,"wind_gusts":71.3,"aqi":105,"pm10":32.7,"pm2_5":24.1,"mosquito_risk":3,"arthritis_risk":10,"migraine_risk":3,"frizz_risk":0,"updated_at":"2026-03-29T00:16:14.577630+05:30"},{"city":"Gangtok","state":"Sikkim","latitude":27.3314,"longitude":88.6138,"temp":10.9,"humidity":85,"rain":0.0,"pressure":833.3,"uv_index":6.7,"wind_gusts":17.3,"aqi":71,"pm10":25.4,"pm2_5":23.5,"mosquito_risk":3,"arthritis_risk":10,"migraine_risk":7,"frizz_risk":0,"updated_at":"2026-03-29T00:16:14.577637+05:30"},{"city":"Siliguri","state":"West Bengal","latitude":26.7271,"longitude":88.3953,"temp":17.2,"humidity":83,"rain":0.0,"pressure":994.4,"uv_index":7.5,"wind_gusts":26.3,"aqi":131,"pm10":39.6,"pm2_5":32.0,"mosquito_risk":3,"arthritis_risk":10,"migraine_risk":7,"frizz_risk":0,"updated_at":"2026-03-29T00:16:17.929817+05:30"},{"city":"Durgapur","state":"West Bengal","latitude":23.5204,"longitude":87.3119,"temp":23.3,"humidity":84,"rain":0.0,"pressure":994.7,"uv_index":8.35,"wind_gusts":28.4,"aqi":143,"pm10":65.7,"pm2_5":59.4,"mosquito_risk":3,"arthritis_risk":5,"migraine_risk":7,"frizz_risk":1,"updated_at":"2026-03-29T00:16:17.929846+05:30"},{"city":"Asansol","state":"West Bengal","latitude":23.6739,"longitude":86.9524,"temp":23.9,"humidity":79,"rain":0.0,"pressure":993.2,"uv_index":8.35,"wind_gusts":31.7,"aqi":149,"pm10":71.0,"pm2_5":65.2,"mosquito_risk":3,"arthritis_risk":5,"migraine_risk":7,"frizz_risk":1,"updated_at":"2026-03-29T00:16:17.929857+05:30"},{"city":"Pondicherry","state":"Puducherry","latitude":11.9139,"longitude":79.8145,"temp":25.5,"humidity":95,"rain":0.0,"pressure":1008.1,"uv_index":9.25,"wind_gusts":32.4,"aqi":59,"pm10":16.9,"pm2_5":11.9,"mosquito_risk":7,"arthritis_risk":0,"migraine_risk":4,"frizz_risk":1,"updated_at":"2026-03-29T00:16:17.929865+05:30"},{"city":"Port Blair","state":"Andaman and Nicobar Islands","latitude":11.6234,"longitude":92.7265,"temp":28.6,"humidity":76,"rain":0.0,"pressure":1005.5,"uv_index":9.15,"wind_gusts":27.0,"aqi":68,"pm10":25.1,"pm2_5":20.3,"mosquito_risk":7,"arthritis_risk":5,"migraine_risk":4,"frizz_risk":1,"updated_at":"2026-03-29T00:16:17.929873+05:30"},{"city":"Haridwar","state":"Uttarakhand","latitude":29.9457,"longitude":78.1642,"temp":21.9,"humidity":77,"rain":0.0,"pressure":972.6,"uv_index":5.7,"wind_gusts":27.0,"aqi":80,"pm10":44.0,"pm2_5":41.3,"mosquito_risk":3,"arthritis_risk":5,"migraine_risk":3,"frizz_risk":1,"updated_at":"2026-03-29T00:16:17.929880+05:30"},{"city":"Rishikesh","state":"Uttarakhand","latitude":30.0869,"longitude":78.2676,"temp":20.8,"humidity":74,"rain":0.0,"pressure":965.5,"uv_index":5.8,"wind_gusts":24.8,"aqi":82,"pm10":34.6,"pm2_5":30.0,"mosquito_risk":3,"arthritis_risk":5,"migraine_risk":3,"frizz_risk":0,"updated_at":"2026-03-29T00:16:17.929887+05:30"},{"city":"Nainital","state":"Uttarakhand","latitude":29.3919,"longitude":79.4542,"temp":16.5,"humidity":68,"rain":0.0,"pressure":803.6,"uv_index":4.8,"wind_gusts":25.9,"aqi":85,"pm10":29.2,"pm2_5":25.1,"mosquito_risk":3,"arthritis_risk":5,"migraine_risk":3,"frizz_risk":0,"updated_at":"2026-03-29T00:16:17.929894+05:30"},{"city":"Mussoorie","state":"Uttarakhand","latitude":30.4599,"longitude":78.0664,"temp":14.8,"humidity":76,"rain":0.0,"pressure":800.2,"uv_index":5.65,"wind_gusts":25.9,"aqi":99,"pm10":49.7,"pm2_5":44.6,"mosquito_risk":3,"arthritis_risk":5,"migraine_risk":3,"frizz_risk":0,"updated_at":"2026-03-29T00:16:17.929901+05:30"},{"city":"Dharamshala","state":"Himachal Pradesh","latitude":32.219,"longitude":76.3234,"temp":18.9,"humidity":63,"rain":0.0,"pressure":867.2,"uv_index":6.9,"wind_gusts":16.6,"aqi":75,"pm10":30.6,"pm2_5":21.0,"mosquito_risk":3,"arthritis_risk":5,"migraine_risk":7,"frizz_risk":0,"updated_at":"2026-03-29T00:16:17.929908+05:30"},{"city":"Dalhousie","state":"Himachal Pradesh","latitude":32.5387,"longitude":75.971,"temp":15.0,"humidity":70,"rain":0.0,"pressure":800.9,"uv_index":6.45,"wind_gusts":17.3,"aqi":70,"pm10":43.4,"pm2_5":38.9,"mosquito_risk":3,"arthritis_risk":5,"migraine_risk":7,"frizz_risk":0,"updated_at":"2026-03-29T00:16:17.929916+05:30"},{"city":"Patiala","state":"Punjab","latitude":30.3398,"longitude":76.3869,"temp":21.5,"humidity":74,"rain":0.0,"pressure":976.0,"uv_index":5.95,"wind_gusts":17.3,"aqi":102,"pm10":177.4,"pm2_5":47.1,"mosquito_risk":3,"arthritis_risk":5,"migraine_risk":3,"frizz_risk":1,"updated_at":"2026-03-29T00:16:17.929923+05:30"},{"city":"Bhatinda","state":"Punjab","latitude":30.211,"longitude":74.9455,"temp":23.0,"humidity":64,"rain":0.0,"pressure":980.4,"uv_index":6.95,"wind_gusts":17.3,"aqi":77,"pm10":41.3,"pm2_5":26.4,"mosquito_risk":3,"arthritis_risk":5,"migraine_risk":7,"frizz_risk":0,"updated_at":"2026-03-29T00:16:17.929930+05:30"},{"city":"Rohtak","state":"Haryana","latitude":28.8955,"longitude":76.6066,"temp":21.3,"humidity":67,"rain":0.0,"pressure":979.2,"uv_index":6.25,"wind_gusts":14.8,"aqi":126,"pm10":173.2,"pm2_5":85.4,"mosquito_risk":3,"arthritis_risk":5,"migraine_risk":7,"frizz_risk":0,"updated_at":"2026-03-29T00:16:17.929937+05:30"},{"city":"Panipat","state":"Haryana","latitude":29.3909,"longitude":76.9635,"temp":21.5,"humidity":66,"rain":0.0,"pressure":978.1,"uv_index":5.65,"wind_gusts":19.4,"aqi":159,"pm10":253.3,"pm2_5":96.6,"mosquito_risk":3,"arthritis_risk":5,"migraine_risk":3,"frizz_risk":0,"updated_at":"2026-03-29T00:16:17.929944+05:30"},{"city":"Mathura","state":"Uttar Pradesh","latitude":27.4924,"longitude":77.6737,"temp":22.5,"humidity":63,"rain":0.0,"pressure":984.5,"uv_index":6.5,"wind_gusts":20.9,"aqi":238,"pm10":410.7,"pm2_5":88.0,"mosquito_risk":3,"arthritis_risk":5,"migraine_risk":7,"frizz_risk":0,"updated_at":"2026-03-29T00:16:17.929951+05:30"},{"city":"Vrindavan","state":"Uttar Pradesh","latitude":27.5823,"longitude":77.7027,"temp":22.2,"humidity":65,"rain":0.0,"pressure":984.9,"uv_index":6.5,"wind_gusts":22.7,"aqi":238,"pm10":410.7,"pm2_5":88.0,"mosquito_risk":3,"arthritis_risk":5,"migraine_risk":7,"frizz_risk":0,"updated_at":"2026-03-29T00:16:17.929957+05:30"},{"city":"Ayodhya","state":"Uttar Pradesh","latitude":26.7922,"longitude":82.1998,"temp":22.3,"humidity":71,"rain":0.0,"pressure":993.7,"uv_index":6.85,"wind_gusts":31.7,"aqi":97,"pm10":112.5,"pm2_5":44.4,"mosquito_risk":3,"arthritis_risk":5,"migraine_risk":7,"frizz_risk":1,"updated_at":"2026-03-29T00:16:17.929964+05:30"},{"city":"Ratlam","state":"Madhya Pradesh","latitude":23.3315,"longitude":75.0367,"temp":25.3,"humidity":57,"rain":0.0,"pressure":953.0,"uv_index":8.1,"wind_gusts":37.1,"aqi":47,"pm10":23.6,"pm2_5":12.7,"mosquito_risk":4,"arthritis_risk":5,"migraine_risk":7,"frizz_risk":1,"updated_at":"2026-03-29T00:16:17.929970+05:30"},{"city":"Sagar","state":"Madhya Pradesh","latitude":23.8388,"longitude":78.7378,"temp":27.7,"humidity":43,"rain":0.0,"pressure":947.6,"uv_index":8.15,"wind_gusts":32.4,"aqi":55,"pm10":43.3,"pm2_5":18.2,"mosquito_risk":4,"arthritis_risk":5,"migraine_risk":7,"frizz_risk":0,"updated_at":"2026-03-29T00:16:17.929977+05:30"},{"city":"Satna","state":"Madhya Pradesh","latitude":24.6005,"longitude":80.8322,"temp":25.0,"humidity":51,"rain":0.0,"pressure":969.5,"uv_index":8.1,"wind_gusts":23.8,"aqi":69,"pm10":58.0,"pm2_5":21.9,"mosquito_risk":4,"arthritis_risk":5,"migraine_risk":7,"frizz_risk":0,"updated_at":"2026-03-29T00:16:17.929984+05:30"},{"city":"Akola","state":"Maharashtra","latitude":20.7002,"longitude":77.0082,"temp":26.3,"humidity":53,"rain":0.0,"pressure":973.3,"uv_index":8.5,"wind_gusts":37.1,"aqi":50,"pm10":22.8,"pm2_5":14.6,"mosquito_risk":4,"arthritis_risk":5,"migraine_risk":7,"frizz_risk":0,"updated_at":"2026-03-29T00:16:17.929992+05:30"},{"city":"Amravati","state":"Maharashtra","latitude":20.9374,"longitude":77.7796,"temp":26.9,"humidity":47,"rain":0.0,"pressure":965.1,"uv_index":8.45,"wind_gusts":33.5,"aqi":48,"pm10":21.5,"pm2_5":14.2,"mosquito_risk":4,"arthritis_risk":5,"migraine_risk":7,"frizz_risk":0,"updated_at":"2026-03-29T00:16:17.930000+05:30"},{"city":"Latur","state":"Maharashtra","latitude":18.4088,"longitude":76.5604,"temp":26.8,"humidity":42,"rain":0.0,"pressure":938.2,"uv_index":8.8,"wind_gusts":32.4,"aqi":71,"pm10":44.0,"pm2_5":41.7,"mosquito_risk":4,"arthritis_risk":5,"migraine_risk":7,"frizz_risk":0,"updated_at":"2026-03-29T00:16:17.930029+05:30"},{"city":"Nanded","state":"Maharashtra","latitude":19.1383,"longitude":77.3091,"temp":27.2,"humidity":42,"rain":0.0,"pressure":966.4,"uv_index":8.7,"wind_gusts":28.8,"aqi":62,"pm10":28.1,"pm2_5":25.8,"mosquito_risk":4,"arthritis_risk":5,"migraine_risk":7,"frizz_risk":0,"updated_at":"2026-03-29T00:16:17.930037+05:30"},{"city":"Gulbarga","state":"Karnataka","latitude":17.3297,"longitude":76.8343,"temp":29.2,"humidity":41,"rain":0.0,"pressure":957.1,"uv_index":8.85,"wind_gusts":31.7,"aqi":86,"pm10":31.8,"pm2_5":28.3,"mosquito_risk":4,"arthritis_risk":5,"migraine_risk":7,"frizz_risk":0,"updated_at":"2026-03-29T00:16:17.930044+05:30"},{"city":"Bidar","state":"Karnataka","latitude":17.9104,"longitude":77.5199,"temp":29.8,"humidity":38,"rain":0.0,"pressure":933.6,"uv_index":8.85,"wind_gusts":28.8,"aqi":83,"pm10":27.5,"pm2_5":25.2,"mosquito_risk":4,"arthritis_risk":5,"migraine_risk":7,"frizz_risk":0,"updated_at":"2026-03-29T00:16:17.930050+05:30"},{"city":"Hospet","state":"Karnataka","latitude":15.2689,"longitude":76.3909,"temp":27.5,"humidity":72,"rain":0.0,"pressure":955.0,"uv_index":9.1,"wind_gusts":30.6,"aqi":115,"pm10":41.7,"pm2_5":37.8,"mosquito_risk":7,"arthritis_risk":5,"migraine_risk":7,"frizz_risk":1,"updated_at":"2026-03-29T00:16:17.930057+05:30"},{"city":"Tirupur","state":"Tamil Nadu","latitude":11.1085,"longitude":77.3411,"temp":26.6,"humidity":79,"rain":0.0,"pressure":975.0,"uv_index":9.45,"wind_gusts":43.6,"aqi":102,"pm10":44.9,"pm2_5":41.6,"mosquito_risk":7,"arthritis_risk":5,"migraine_risk":7,"frizz_risk":1,"updated_at":"2026-03-29T00:16:17.930064+05:30"},{"city":"Alappuzha","state":"Kerala","latitude":9.4981,"longitude":76.3388,"temp":27.7,"humidity":84,"rain":0.0,"pressure":1008.8,"uv_index":9.1,"wind_gusts":31.3,"aqi":87,"pm10":35.7,"pm2_5":31.5,"mosquito_risk":7,"arthritis_risk":0,"migraine_risk":4,"frizz_risk":1,"updated_at":"2026-03-29T00:16:17.930071+05:30"},{"city":"Munnar","state":"Kerala","latitude":10.0889,"longitude":77.0595,"temp":20.2,"humidity":95,"rain":0.0,"pressure":856.3,"uv_index":9.7,"wind_gusts":40.7,"aqi":81,"pm10":44.7,"pm2_5":41.9,"mosquito_risk":3,"arthritis_risk":5,"migraine_risk":7,"frizz_risk":1,"updated_at":"2026-03-29T00:16:17.930078+05:30"},{"city":"Silchar","state":"Assam","latitude":24.8333,"longitude":92.7789,"temp":20.2,"humidity":93,"rain":0.0,"pressure":1005.5,"uv_index":4.85,"wind_gusts":30.2,"aqi":152,"pm10":69.4,"pm2_5":56.8,"mosquito_risk":3,"arthritis_risk":5,"migraine_risk":0,"frizz_risk":1,"updated_at":"2026-03-29T00:16:17.930085+05:30"},{"city":"Dibrugarh","state":"Assam","latitude":27.4728,"longitude":94.912,"temp":19.7,"humidity":86,"rain":0.0,"pressure":996.2,"uv_index":4.5,"wind_gusts":31.0,"aqi":99,"pm10":40.3,"pm2_5":31.7,"mosquito_risk":3,"arthritis_risk":10,"migraine_risk":3,"frizz_risk":1,"updated_at":"2026-03-29T00:16:17.930092+05:30"}]