[{"city":"Delhi","state":"Delhi","latitude":28.6139,"longitude":77.209,"temp":20.7,"humidity":73,"rain":0.0,"pressure":985.7,"uv_index":5.85,"wind_gusts":34.6,"aqi":307,"pm10":414.4,"pm2_5":90.1,"mosquito_risk":3,"arthritis_risk":5,"migraine_risk":3,"frizz_risk":0,"updated_at":"2026-03-05T02:05:53.541402+05:30"},{"city":"Mumbai","state":"Maharashtra","latitude":19.076,"longitude":72.8777,"temp":28.8,"humidity":57,"rain":0.0,"pressure":1009.5,"uv_index":7.4,"wind_gusts":27.0,"aqi":150,"pm10":32.0,"pm2_5":30.5,"mosquito_risk":4,"arthritis_risk":0,"migraine_risk":4,"frizz_risk":1,"updated_at":"2026-03-05T02:05:53.541443+05:30"},{"city":"Bangalore","state":"Karnataka","latitude":12.9716,"longitude":77.5946,"temp":20.5,"humidity":64,"rain":0.0,"pressure":912.5,"uv_index":9.1,"wind_gusts":29.5,"aqi":89,"pm10":23.6,"pm2_5":22.6,"mosquito_risk":3,"arthritis_risk":5,"migraine_risk":7,"frizz_risk":0,"updated_at":"2026-03-05T02:05:53.541459+05:30"},{"city":"Hyderabad","state":"Telangana","latitude":17.385,"longitude":78.4867,"temp":21.9,"humidity":66,"rain":0.0,"pressure":954.7,"uv_index":8.4,"wind_gusts":25.6,"aqi":94,"pm10":46.3,"pm2_5":43.5,"mosquito_risk":3,"arthritis_risk":5,"migraine_risk":7,"frizz_risk":0,"updated_at":"2026-03-05T02:05:53.541470+05:30"},{"city":"Chennai","state":"Tamil Nadu","latitude":13.0827,"longitude":80.2707,"temp":23.8,"humidity":93,"rain":0.0,"pressure":1009.5,"uv_index":8.85,"wind_gusts":32.0,"aqi":87,"pm10":23.6,"pm2_5":20.5,"mosquito_risk":3,"arthritis_risk":0,"migraine_risk":4,"frizz_risk":1,"updated_at":"2026-03-05T02:05:53.541478+05:30"},{"city":"Kolkata","state":"West Bengal","latitude":22.5726,"longitude":88.3639,"temp":21.2,"humidity":66,"rain":0.0,"pressure":1008.2,"uv_index":7.8,"wind_gusts":10.8,"aqi":168,"pm10":131.8,"pm2_5":104.1,"mosquito_risk":3,"arthritis_risk":0,"migraine_risk":4,"frizz_risk":0,"updated_at":"2026-03-05T02:05:53.541487+05:30"},{"city":"Pune","state":"Maharashtra","latitude":18.5204,"longitude":73.8567,"temp":21.3,"humidity":63,"rain":0.0,"pressure":949.6,"uv_index":7.95,"wind_gusts":29.5,"aqi":73,"pm10":30.9,"pm2_5":29.8,"mosquito_risk":3,"arthritis_risk":5,"migraine_risk":7,"frizz_risk":0,"updated_at":"2026-03-05T02:05:53.541500+05:30"},{"city":"Ahmedabad","state":"Gujarat","latitude":23.0225,"longitude":72.5714,"temp":23.6,"humidity":47,"rain":0.0,"pressure":1006.0,"uv_index":7.15,"wind_gusts":27.4,"aqi":73,"pm10":24.8,"pm2_5":23.0,"mosquito_risk":0,"arthritis_risk":5,"migraine_risk":4,"frizz_risk":0,"updated_at":"2026-03-05T02:05:53.541508+05:30"},{"city":"Jaipur","state":"Rajasthan","latitude":26.9124,"longitude":75.7873,"temp":23.9,"humidity":31,"rain":0.0,"pressure":963.0,"uv_index":6.65,"wind_gusts":37.8,"aqi":94,"pm10":115.9,"pm2_5":36.1,"mosquito_risk":0,"arthritis_risk":5,"migraine_risk":7,"frizz_risk":0,"updated_at":"2026-03-05T02:05:53.541515+05:30"},{"city":"Lucknow","state":"Uttar Pradesh","latitude":26.8467,"longitude":80.9462,"temp":21.0,"humidity":76,"rain":0.0,"pressure":996.2,"uv_index":6.4,"wind_gusts":14.0,"aqi":161,"pm10":229.1,"pm2_5":102.2,"mosquito_risk":3,"arthritis_risk":5,"migraine_risk":7,"frizz_risk":1,"updated_at":"2026-03-05T02:05:53.541523+05:30"},{"city":"Kanpur","state":"Uttar Pradesh","latitude":26.4499,"longitude":80.3319,"temp":20.2,"humidity":74,"rain":0.0,"pressure":994.5,"uv_index":6.4,"wind_gusts":28.4,"aqi":175,"pm10":292.4,"pm2_5":88.2,"mosquito_risk":3,"arthritis_risk":5,"migraine_risk":7,"frizz_risk":0,"updated_at":"2026-03-05T02:05:53.541530+05:30"},{"city":"Chandigarh","state":"Chandigarh","latitude":30.7333,"longitude":76.7794,"temp":19.4,"humidity":75,"rain":0.0,"pressure":971.0,"uv_index":5.75,"wind_gusts":33.8,"aqi":86,"pm10":33.2,"pm2_5":29.5,"mosquito_risk":3,"arthritis_risk":5,"migraine_risk":3,"frizz_risk":0,"updated_at":"2026-03-05T02:05:53.541537+05:30"},{"city":"Srinagar","state":"Jammu and Kashmir","latitude":34.0837,"longitude":74.7973,"temp":7.9,"humidity":84,"rain":0.0,"pressure":843.1,"uv_index":6.7,"wind_gusts":16.2,"aqi":151,"pm10":111.5,"pm2_5":84.8,"mosquito_risk":3,"arthritis_risk":10,"migraine_risk":7,"frizz_risk":0,"updated_at":"2026-03-05T02:05:53.541544+05:30"},{"city":"Jammu","state":"Jammu and Kashmir","latitude":32.7266,"longitude":74.857,"temp":17.3,"humidity":77,"rain":0.0,"pressure":975.5,"uv_index":6.4,"wind_gusts":27.7,"aqi":108,"pm10":51.2,"pm2_5":45.1,"mosquito_risk":3,"arthritis_risk":5,"migraine_risk":7,"frizz_risk":0,"updated_at":"2026-03-05T02:05:53.541551+05:30"},{"city":"Amritsar","state":"Punjab","latitude":31.634,"longitude":74.8723,"temp":18.3,"humidity":76,"rain":0.0,"pressure":984.1,"uv_index":6.35,"wind_gusts":22.3,"aqi":152,"pm10":83.6,"pm2_5":67.3,"mosquito_risk":3,"arthritis_risk":5,"migraine_risk":7,"frizz_risk":0,"updated_at":"2026-03-05T02:05:53.541558+05:30"},{"city":"Ludhiana","state":"Punjab","latitude":30.901,"longitude":75.8573,"temp":20.9,"humidity":76,"rain":0.0,"pressure":981.8,"uv_index":6.0,"wind_gusts":25.9,"aqi":155,"pm10":100.1,"pm2_5":83.8,"mosquito_risk":3,"arthritis_risk":5,"migraine_risk":3,"frizz_risk":1,"updated_at":"2026-03-05T02:05:53.541565+05:30"},{"city":"Jalandhar","state":"Punjab","latitude":31.326,"longitude":75.5762,"temp":19.5,"humidity":76,"rain":0.0,"pressure":982.9,"uv_index":6.2,"wind_gusts":24.5,"aqi":156,"pm10":109.0,"pm2_5":93.1,"mosquito_risk":3,"arthritis_risk":5,"migraine_risk":7,"frizz_risk":0,"updated_at":"2026-03-05T02:05:53.541574+05:30"},{"city":"Dehradun","state":"Uttarakhand","latitude":30.6284,"longitude":78.0322,"temp":14.2,"humidity":35,"rain":0.0,"pressure":830.1,"uv_index":6.15,"wind_gusts":35.6,"aqi":55,"pm10":23.2,"pm2_5":16.6,"mosquito_risk":0,"arthritis_risk":5,"migraine_risk":7,"frizz_risk":1,"updated_at":"2026-03-05T02:05:53.541580+05:30"},{"city":"Shimla","state":"Himachal Pradesh","latitude":31.1048,"longitude":77.1734,"temp":14.0,"humidity":44,"rain":0.0,"pressure":785.9,"uv_index":6.2,"wind_gusts":53.3,"aqi":64,"pm10":32.8,"pm2_5":22.2,"mosquito_risk":0,"arthritis_risk":5,"migraine_risk":7,"frizz_risk":0,"updated_at":"2026-03-05T02:05:53.541588+05:30"},{"city":"Manali","state":"Himachal Pradesh","latitude":32.2396,"longitude":77.1887,"temp":17.8,"humidity":26,"rain":0.0,"pressure":823.5,"uv_index":7.4,"wind_gusts":32.4,"aqi":51,"pm10":30.5,"pm2_5":16.4,"mosquito_risk":0,"arthritis_risk":5,"migraine_risk":7,"frizz_risk":1,"updated_at":"2026-03-05T02:05:53.541595+05:30"},{"city":"Gurgaon","state":"Haryana","latitude":28.4595,"longitude":77.0266,"temp":17.9,"humidity":81,"rain":0.0,"pressure":984.2,"uv_index":5.95,"wind_gusts":33.8,"aqi":1204,"pm10":1151.1,"pm2_5":159.7,"mosquito_risk":3,"arthritis_risk":10,"migraine_risk":3,"frizz_risk":0,"updated_at":"2026-03-05T02:05:53.541602+05:30"},{"city":"Noida","state":"Uttar Pradesh","latitude":28.5355,"longitude":77.391,"temp":21.0,"humidity":72,"rain":0.0,"pressure":987.1,"uv_index":5.85,"wind_gusts":34.6,"aqi":1204,"pm10":1151.1,"pm2_5":159.7,"mosquito_risk":3,"arthritis_risk":5,"migraine_risk":3,"frizz_risk":0,"updated_at":"2026-03-05T02:05:53.541609+05:30"},{"city":"Ghaziabad","state":"Uttar Pradesh","latitude":28.6692,"longitude":77.4538,"temp":20.6,"humidity":77,"rain":0.0,"pressure":985.3,"uv_index":5.85,"wind_gusts":32.0,"aqi":197,"pm10":353.0,"pm2_5":86.1,"mosquito_risk":3,"arthritis_risk":5,"migraine_risk":3,"frizz_risk":1,"updated_at":"2026-03-05T02:05:53.541615+05:30"},{"city":"Faridabad","state":"Haryana","latitude":28.4089,"longitude":77.3178,"temp":21.1,"humidity":63,"rain":0.0,"pressure":986.5,"uv_index":5.9,"wind_gusts":33.1,"aqi":1204,"pm10":1151.1,"pm2_5":159.7,"mosquito_risk":3,"arthritis_risk":5,"migraine_risk":3,"frizz_risk":0,"updated_at":"2026-03-05T02:05:53.541622+05:30"},{"city":"Meerut","state":"Uttar Pradesh","latitude":28.9845,"longitude":77.7064,"temp":18.6,"humidity":90,"rain":0.0,"pressure":983.8,"uv_index":5.7,"wind_gusts":33.5,"aqi":197,"pm10":353.0,"pm2_5":86.1,"mosquito_risk":3,"arthritis_risk":10,"migraine_risk":3,"frizz_risk":1,"updated_at":"2026-03-05T02:05:53.541629+05:30"},{"city":"Agra","state":"Uttar Pradesh","latitude":27.1767,"longitude":78.0081,"temp":19.2,"humidity":68,"rain":0.0,"pressure":990.5,"uv_index":6.25,"wind_gusts":35.3,"aqi":430,"pm10":453.6,"pm2_5":80.8,"mosquito_risk":3,"arthritis_risk":5,"migraine_risk":7,"frizz_risk":0,"updated_at":"2026-03-05T02:05:53.541636+05:30"},{"city":"Varanasi","state":"Uttar Pradesh","latitude":25.3176,"longitude":82.9739,"temp":19.5,"humidity":81,"rain":0.0,"pressure":1000.4,"uv_index":7.05,"wind_gusts":16.2,"aqi":154,"pm10":134.1,"pm2_5":86.4,"mosquito_risk":3,"arthritis_risk":10,"migraine_risk":4,"frizz_risk":1,"updated_at":"2026-03-05T02:05:53.541645+05:30"},{"city":"Prayagraj","state":"Uttar Pradesh","latitude":25.4358,"longitude":81.8463,"temp":19.8,"humidity":80,"rain":0.0,"pressure":999.0,"uv_index":6.9,"wind_gusts":19.8,"aqi":154,"pm10":143.9,"pm2_5":79.9,"mosquito_risk":3,"arthritis_risk":5,"migraine_risk":7,"frizz_risk":1,"updated_at":"2026-03-05T02:05:53.541652+05:30"},{"city":"Gorakhpur","state":"Uttar Pradesh","latitude":26.7606,"longitude":83.3732,"temp":20.3,"humidity":74,"rain":0.0,"pressure":999.8,"uv_index":6.75,"wind_gusts":11.5,"aqi":167,"pm10":152.3,"pm2_5":125.7,"mosquito_risk":3,"arthritis_risk":5,"migraine_risk":7,"frizz_risk":0,"updated_at":"2026-03-05T02:05:53.541659+05:30"},{"city":"Bareilly","state":"Uttar Pradesh","latitude":28.367,"longitude":79.4304,"temp":19.0,"humidity":82,"rain":0.0,"pressure":989.2,"uv_index":6.05,"wind_gusts":11.9,"aqi":162,"pm10":97.3,"pm2_5":85.0,"mosquito_risk":3,"arthritis_risk":10,"migraine_risk":7,"frizz_risk":0,"updated_at":"2026-03-05T02:05:53.541669+05:30"},{"city":"Aligarh","state":"Uttar Pradesh","latitude":27.8974,"longitude":78.088,"temp":18.5,"humidity":76,"rain":0.0,"pressure":988.1,"uv_index":5.95,"wind_gusts":33.1,"aqi":618,"pm10":691.0,"pm2_5":132.7,"mosquito_risk":3,"arthritis_risk":5,"migraine_risk":3,"frizz_risk":0,"updated_at":"2026-03-05T02:05:53.541675+05:30"},{"city":"Moradabad","state":"Uttar Pradesh","latitude":28.8386,"longitude":78.7733,"temp":18.9,"humidity":84,"rain":0.0,"pressure":985.9,"uv_index":5.9,"wind_gusts":16.2,"aqi":161,"pm10":363.2,"pm2_5":124.8,"mosquito_risk":3,"arthritis_risk":10,"migraine_risk":3,"frizz_risk":1,"updated_at":"2026-03-05T02:05:53.541681+05:30"},{"city":"Saharanpur","state":"Uttar Pradesh","latitude":29.9637,"longitude":77.546,"temp":17.7,"humidity":85,"rain":0.0,"pressure":977.8,"uv_index":5.5,"wind_gusts":32.0,"aqi":153,"pm10":130.4,"pm2_5":84.8,"mosquito_risk":3,"arthritis_risk":10,"migraine_risk":3,"frizz_risk":0,"updated_at":"2026-03-05T02:05:53.541687+05:30"},{"city":"Jhansi","state":"Uttar Pradesh","latitude":25.4484,"longitude":78.5685,"temp":20.5,"humidity":55,"rain":0.0,"pressure":980.6,"uv_index":6.85,"wind_gusts":34.6,"aqi":62,"pm10":24.4,"pm2_5":18.9,"mosquito_risk":0,"arthritis_risk":5,"migraine_risk":7,"frizz_risk":0,"updated_at":"2026-03-05T02:05:56.769077+05:30"},{"city":"Surat","state":"Gujarat","latitude":21.1702,"longitude":72.8311,"temp":25.0,"humidity":58,"rain":0.0,"pressure":1009.3,"uv_index":7.1,"wind_gusts":30.2,"aqi":133,"pm10":40.0,"pm2_5":37.5,"mosquito_risk":4,"arthritis_risk":0,"migraine_risk":4,"frizz_risk":1,"updated_at":"2026-03-05T02:05:56.769112+05:30"},{"city":"Vadodara","state":"Gujarat","latitude":22.3072,"longitude":73.1812,"temp":23.9,"humidity":46,"rain":0.0,"pressure":1007.8,"uv_index":7.2,"wind_gusts":23.4,"aqi":126,"pm10":29.6,"pm2_5":27.2,"mosquito_risk":0,"arthritis_risk":5,"migraine_risk":4,"frizz_risk":0,"updated_at":"2026-03-05T02:05:56.769124+05:30"},{"city":"Rajkot","state":"Gujarat","latitude":22.3039,"longitude":70.8022,"temp":22.6,"humidity":57,"rain":0.0,"pressure":998.9,"uv_index":7.05,"wind_gusts":36.7,"aqi":69,"pm10":14.6,"pm2_5":13.9,"mosquito_risk":0,"arthritis_risk":5,"migraine_risk":7,"frizz_risk":0,"updated_at":"2026-03-05T02:05:56.769134+05:30"},{"city":"Thane","state":"Maharashtra","latitude":19.2183,"longitude":72.9781,"temp":26.5,"humidity":51,"rain":0.0,"pressure":1009.1,"uv_index":7.4,"wind_gusts":37.4,"aqi":150,"pm10":32.0,"pm2_5":30.5,"mosquito_risk":4,"arthritis_risk":0,"migraine_risk":4,"frizz_risk":0,"updated_at":"2026-03-05T02:05:56.769143+05:30"},{"city":"Nagpur","state":"Maharashtra","latitude":21.1458,"longitude":79.0882,"temp":22.2,"humidity":58,"rain":0.0,"pressure":975.3,"uv_index":7.8,"wind_gusts":24.5,"aqi":67,"pm10":22.1,"pm2_5":18.6,"mosquito_risk":0,"arthritis_risk":5,"migraine_risk":7,"frizz_risk":0,"updated_at":"2026-03-05T02:05:56.769151+05:30"},{"city":"Nashik","state":"Maharashtra","latitude":19.9975,"longitude":73.7898,"temp":23.2,"humidity":56,"rain":0.0,"pressure":947.8,"uv_index":7.6,"wind_gusts":36.7,"aqi":71,"pm10":24.2,"pm2_5":22.7,"mosquito_risk":0,"arthritis_risk":5,"migraine_risk":7,"frizz_risk":0,"updated_at":"2026-03-05T02:05:56.769160+05:30"},{"city":"Aurangabad","state":"Maharashtra","latitude":19.8762,"longitude":75.3433,"temp":22.2,"humidity":57,"rain":0.0,"pressure":945.7,"uv_index":8.1,"wind_gusts":31.0,"aqi":77,"pm10":40.3,"pm2_5":39.6,"mosquito_risk":0,"arthritis_risk":5,"migraine_risk":7,"frizz_risk":0,"updated_at":"2026-03-05T02:05:56.769168+05:30"},{"city":"Solapur","state":"Maharashtra","latitude":17.6599,"longitude":75.9064,"temp":23.2,"humidity":65,"rain":0.0,"pressure":958.0,"uv_index":8.35,"wind_gusts":19.8,"aqi":69,"pm10":24.8,"pm2_5":23.5,"mosquito_risk":3,"arthritis_risk":5,"migraine_risk":7,"frizz_risk":1,"updated_at":"2026-03-05T02:05:56.769177+05:30"},{"city":"Kolhapur","state":"Maharashtra","latitude":16.705,"longitude":74.2433,"temp":19.2,"humidity":91,"rain":0.0,"pressure":948.8,"uv_index":8.5,"wind_gusts":27.7,"aqi":153,"pm10":87.3,"pm2_5":86.8,"mosquito_risk":3,"arthritis_risk":10,"migraine_risk":7,"frizz_risk":1,"updated_at":"2026-03-05T02:05:56.769186+05:30"},{"city":"Goa","state":"Goa","latitude":15.2993,"longitude":74.124,"temp":26.7,"humidity":91,"rain":0.0,"pressure":999.5,"uv_index":8.55,"wind_gusts":30.2,"aqi":121,"pm10":61.5,"pm2_5":59.0,"mosquito_risk":7,"arthritis_risk":5,"migraine_risk":7,"frizz_risk":1,"updated_at":"2026-03-05T02:05:56.769195+05:30"},{"city":"Jodhpur","state":"Rajasthan","latitude":26.2389,"longitude":73.0243,"temp":24.7,"humidity":43,"rain":0.0,"pressure":987.1,"uv_index":6.9,"wind_gusts":23.0,"aqi":83,"pm10":67.3,"pm2_5":28.0,"mosquito_risk":0,"arthritis_risk":5,"migraine_risk":7,"frizz_risk":0,"updated_at":"2026-03-05T02:05:56.769203+05:30"},{"city":"Udaipur","state":"Rajasthan","latitude":24.5854,"longitude":73.7125,"temp":18.4,"humidity":53,"rain":0.0,"pressure":950.1,"uv_index":7.55,"wind_gusts":22.7,"aqi":60,"pm10":30.0,"pm2_5":20.4,"mosquito_risk":0,"arthritis_risk":5,"migraine_risk":7,"frizz_risk":0,"updated_at":"2026-03-05T02:05:56.769211+05:30"},{"city":"Kota","state":"Rajasthan","latitude":25.2138,"longitude":75.8648,"temp":18.6,"humidity":64,"rain":0.0,"pressure":981.9,"uv_index":6.95,"wind_gusts":25.2,"aqi":83,"pm10":47.6,"pm2_5":34.5,"mosquito_risk":3,"arthritis_risk":5,"migraine_risk":7,"frizz_risk":0,"updated_at":"2026-03-05T02:05:56.769219+05:30"},{"city":"Bikaner","state":"Rajasthan","latitude":28.0229,"longitude":73.3119,"temp":22.8,"humidity":45,"rain":0.0,"pressure":985.6,"uv_index":6.6,"wind_gusts":22.7,"aqi":67,"pm10":49.7,"pm2_5":19.8,"mosquito_risk":0,"arthritis_risk":5,"migraine_risk":7,"frizz_risk":0,"updated_at":"2026-03-05T02:05:56.769226+05:30"},{"city":"Ajmer","state":"Rajasthan","latitude":26.4499,"longitude":74.6399,"temp":22.7,"humidity":37,"rain":0.0,"pressure":958.2,"uv_index":6.9,"wind_gusts":24.1,"aqi":71,"pm10":69.4,"pm2_5":24.4,"mosquito_risk":0,"arthritis_risk":5,"migraine_risk":7,"frizz_risk":0,"updated_at":"2026-03-05T02:05:56.769234+05:30"},{"city":"Gwalior","state":"Madhya Pradesh","latitude":26.2183,"longitude":78.1828,"temp":22.3,"humidity":50,"rain":0.0,"pressure":986.0,"uv_index":6.55,"wind_gusts":32.8,"aqi":79,"pm10":33.5,"pm2_5":24.2,"mosquito_risk":0,"arthritis_risk":5,"migraine_risk":7,"frizz_risk":0,"updated_at":"2026-03-05T02:05:56.769242+05:30"},{"city":"Indore","state":"Madhya Pradesh","latitude":22.7196,"longitude":75.8577,"temp":19.4,"humidity":55,"rain":0.0,"pressure":950.6,"uv_index":7.5,"wind_gusts":25.2,"aqi":80,"pm10":39.8,"pm2_5":32.8,"mosquito_risk":0,"arthritis_risk":5,"migraine_risk":7,"frizz_risk":0,"updated_at":"2026-03-05T02:05:56.769249+05:30"},{"city":"Bhopal","state":"Madhya Pradesh","latitude":23.2599,"longitude":77.4126,"temp":21.5,"humidity":35,"rain":0.0,"pressure":956.3,"uv_index":7.35,"wind_gusts":29.9,"aqi":67,"pm10":29.3,"pm2_5":25.3,"mosquito_risk":0,"arthritis_risk":5,"migraine_risk":7,"frizz_risk":0,"updated_at":"2026-03-05T02:05:56.769257+05:30"},{"city":"Jabalpur","state":"Madhya Pradesh","latitude":23.1815,"longitude":79.9864,"temp":21.2,"humidity":48,"rain":0.0,"pressure":963.8,"uv_index":7.5,"wind_gusts":30.2,"aqi":67,"pm10":34.0,"pm2_5":25.1,"mosquito_risk":0,"arthritis_risk":5,"migraine_risk":7,"frizz_risk":0,"updated_at":"2026-03-05T02:05:56.769265+05:30"},{"city":"Ujjain","state":"Madhya Pradesh","latitude":23.1765,"longitude":75.7885,"temp":19.7,"humidity":55,"rain":0.0,"pressure":956.5,"uv_index":7.4,"wind_gusts":23.4,"aqi":110,"pm10":65.7,"pm2_5":58.7,"mosquito_risk":0,"arthritis_risk":5,"migraine_risk":7,"frizz_risk":0,"updated_at":"2026-03-05T02:05:56.769274+05:30"},{"city":"Visakhapatnam","state":"Andhra Pradesh","latitude":17.6868,"longitude":83.2185,"temp":24.2,"humidity":79,"rain":0.0,"pressure":1004.9,"uv_index":8.45,"wind_gusts":34.6,"aqi":124,"pm10":35.7,"pm2_5":34.0,"mosquito_risk":3,"arthritis_risk":5,"migraine_risk":4,"frizz_risk":1,"updated_at":"2026-03-05T02:05:56.769282+05:30"},{"city":"Vijayawada","state":"Andhra Pradesh","latitude":16.5062,"longitude":80.648,"temp":24.2,"humidity":74,"rain":0.0,"pressure":1004.4,"uv_index":8.5,"wind_gusts":16.2,"aqi":118,"pm10":24.7,"pm2_5":23.5,"mosquito_risk":3,"arthritis_risk":5,"migraine_risk":4,"frizz_risk":1,"updated_at":"2026-03-05T02:05:56.769290+05:30"},{"city":"Guntur","state":"Andhra Pradesh","latitude":16.3067,"longitude":80.4365,"temp":23.4,"humidity":88,"rain":0.0,"pressure":1005.6,"uv_index":8.5,"wind_gusts":20.9,"aqi":107,"pm10":23.2,"pm2_5":22.4,"mosquito_risk":3,"arthritis_risk":5,"migraine_risk":4,"frizz_risk":1,"updated_at":"2026-03-05T02:05:56.769318+05:30"},{"city":"Nellore","state":"Andhra Pradesh","latitude":14.4426,"longitude":79.9865,"temp":23.9,"humidity":86,"rain":0.0,"pressure":1007.9,"uv_index":8.7,"wind_gusts":32.0,"aqi":91,"pm10":15.7,"pm2_5":14.6,"mosquito_risk":3,"arthritis_risk":5,"migraine_risk":4,"frizz_risk":1,"updated_at":"2026-03-05T02:05:56.769327+05:30"},{"city":"Kurnool","state":"Andhra Pradesh","latitude":15.8281,"longitude":78.0373,"temp":27.1,"humidity":47,"rain":0.0,"pressure":978.1,"uv_index":8.5,"wind_gusts":24.5,"aqi":84,"pm10":21.0,"pm2_5":20.0,"mosquito_risk":4,"arthritis_risk":5,"migraine_risk":7,"frizz_risk":0,"updated_at":"2026-03-05T02:05:56.769335+05:30"},{"city":"Kakinada","state":"Andhra Pradesh","latitude":16.9891,"longitude":82.2475,"temp":22.0,"humidity":91,"rain":0.0,"pressure":1009.3,"uv_index":8.45,"wind_gusts":30.6,"aqi":95,"pm10":30.5,"pm2_5":27.0,"mosquito_risk":3,"arthritis_risk":0,"migraine_risk":4,"frizz_risk":1,"updated_at":"2026-03-05T02:05:56.769342+05:30"},{"city":"Tirupati","state":"Andhra Pradesh","latitude":13.6288,"longitude":79.4192,"temp":22.3,"humidity":63,"rain":0.0,"pressure":994.0,"uv_index":8.8,"wind_gusts":31.0,"aqi":128,"pm10":50.2,"pm2_5":49.4,"mosquito_risk":3,"arthritis_risk":5,"migraine_risk":7,"frizz_risk":0,"updated_at":"2026-03-05T02:05:56.769349+05:30"},{"city":"Warangal","state":"Telangana","latitude":17.9689,"longitude":79.5941,"temp":23.3,"humidity":61,"rain":0.0,"pressure":979.9,"uv_index":8.25,"wind_gusts":27.4,"aqi":111,"pm10":31.2,"pm2_5":29.2,"mosquito_risk":3,"arthritis_risk":5,"migraine_risk":7,"frizz_risk":0,"updated_at":"2026-03-05T02:05:56.769356+05:30"},{"city":"Nizamabad","state":"Telangana","latitude":18.6725,"longitude":78.0941,"temp":20.4,"humidity":68,"rain":0.0,"pressure":966.1,"uv_index":8.15,"wind_gusts":23.8,"aqi":74,"pm10":24.6,"pm2_5":22.1,"mosquito_risk":3,"arthritis_risk":5,"migraine_risk":7,"frizz_risk":0,"updated_at":"2026-03-05T02:05:56.769363+05:30"},{"city":"Mysore","state":"Karnataka","latitude":12.2958,"longitude":76.6396,"temp":20.8,"humidity":93,"rain":0.0,"pressure":929.5,"uv_index":9.15,"wind_gusts":24.5,"aqi":90,"pm10":26.6,"pm2_5":25.7,"mosquito_risk":3,"arthritis_risk":5,"migraine_risk":7,"frizz_risk":1,"updated_at":"2026-03-05T02:05:56.769372+05:30"},{"city":"Mangalore","state":"Karnataka","latitude":12.9141,"longitude":74.856,"temp":28.4,"humidity":81,"rain":0.0,"pressure":1008.3,"uv_index":8.75,"wind_gusts":28.8,"aqi":96,"pm10":42.3,"pm2_5":38.3,"mosquito_risk":7,"arthritis_risk":0,"migraine_risk":4,"frizz_risk":1,"updated_at":"2026-03-05T02:05:56.769380+05:30"},{"city":"Hubli-Dharwad","state":"Karnataka","latitude":15.3647,"longitude":75.124,"temp":22.0,"humidity":89,"rain":0.0,"pressure":941.8,"uv_index":8.7,"wind_gusts":21.6,"aqi":103,"pm10":27.3,"pm2_5":26.5,"mosquito_risk":3,"arthritis_risk":5,"migraine_risk":7,"frizz_risk":1,"updated_at":"2026-03-05T02:05:56.769387+05:30"},{"city":"Belgaum","state":"Karnataka","latitude":15.8497,"longitude":74.4977,"temp":21.2,"humidity":92,"rain":0.0,"pressure":926.6,"uv_index":8.75,"wind_gusts":35.3,"aqi":114,"pm10":58.4,"pm2_5":56.9,"mosquito_risk":3,"arthritis_risk":5,"migraine_risk":7,"frizz_risk":1,"updated_at":"2026-03-05T02:05:59.994696+05:30"},{"city":"Coimbatore","state":"Tamil Nadu","latitude":11.0168,"longitude":76.9558,"temp":21.3,"humidity":78,"rain":0.0,"pressure":963.3,"uv_index":9.15,"wind_gusts":35.3,"aqi":96,"pm10":48.7,"pm2_5":47.5,"mosquito_risk":3,"arthritis_risk":5,"migraine_risk":7,"frizz_risk":1,"updated_at":"2026-03-05T02:05:59.994725+05:30"},{"city":"Madurai","state":"Tamil Nadu","latitude":9.9252,"longitude":78.1198,"temp":24.8,"humidity":85,"rain":0.0,"pressure":995.2,"uv_index":9.1,"wind_gusts":30.6,"aqi":84,"pm10":29.5,"pm2_5":28.7,"mosquito_risk":3,"arthritis_risk":5,"migraine_risk":7,"frizz_risk":1,"updated_at":"2026-03-05T02:05:59.994735+05:30"},{"city":"Trichy","state":"Tamil Nadu","latitude":10.7905,"longitude":78.7047,"temp":22.6,"humidity":95,"rain":0.0,"pressure":1002.1,"uv_index":9.0,"wind_gusts":32.4,"aqi":88,"pm10":23.6,"pm2_5":21.7,"mosquito_risk":3,"arthritis_risk":5,"migraine_risk":4,"frizz_risk":1,"updated_at":"2026-03-05T02:05:59.994744+05:30"},{"city":"Salem","state":"Tamil Nadu","latitude":11.6643,"longitude":78.146,"temp":22.8,"humidity":72,"rain":0.0,"pressure":979.0,"uv_index":9.05,"wind_gusts":17.3,"aqi":97,"pm10":35.6,"pm2_5":34.9,"mosquito_risk":3,"arthritis_risk":5,"migraine_risk":7,"frizz_risk":1,"updated_at":"2026-03-05T02:05:59.994751+05:30"},{"city":"Tirunelveli","state":"Tamil Nadu","latitude":8.7139,"longitude":77.7567,"temp":24.2,"humidity":85,"rain":0.0,"pressure":1005.3,"uv_index":9.15,"wind_gusts":45.0,"aqi":76,"pm10":25.4,"pm2_5":24.3,"mosquito_risk":3,"arthritis_risk":5,"migraine_risk":4,"frizz_risk":1,"updated_at":"2026-03-05T02:05:59.994758+05:30"},{"city":"Vellore","state":"Tamil Nadu","latitude":12.9165,"longitude":79.1325,"temp":21.4,"humidity":75,"rain":0.0,"pressure":987.0,"uv_index":8.9,"wind_gusts":29.9,"aqi":117,"pm10":47.8,"pm2_5":46.9,"mosquito_risk":3,"arthritis_risk":5,"migraine_risk":7,"frizz_risk":1,"updated_at":"2026-03-05T02:05:59.994765+05:30"},{"city":"Erode","state":"Tamil Nadu","latitude":11.341,"longitude":77.7172,"temp":22.8,"humidity":77,"rain":0.0,"pressure":991.1,"uv_index":9.05,"wind_gusts":18.7,"aqi":92,"pm10":26.7,"pm2_5":26.0,"mosquito_risk":3,"arthritis_risk":5,"migraine_risk":7,"frizz_risk":1,"updated_at":"2026-03-05T02:05:59.994772+05:30"},{"city":"Kochi","state":"Kerala","latitude":9.9312,"longitude":76.2673,"temp":27.1,"humidity":81,"rain":0.0,"pressure":1010.4,"uv_index":8.95,"wind_gusts":34.9,"aqi":99,"pm10":44.0,"pm2_5":43.5,"mosquito_risk":7,"arthritis_risk":0,"migraine_risk":4,"frizz_risk":1,"updated_at":"2026-03-05T02:05:59.994780+05:30"},{"city":"Thiruvananthapuram","state":"Kerala","latitude":8.5241,"longitude":76.9366,"temp":27.0,"humidity":81,"rain":0.0,"pressure":1009.3,"uv_index":9.0,"wind_gusts":28.8,"aqi":88,"pm10":21.2,"pm2_5":19.1,"mosquito_risk":7,"arthritis_risk":0,"migraine_risk":4,"frizz_risk":1,"updated_at":"2026-03-05T02:05:59.994787+05:30"},{"city":"Kozhikode","state":"Kerala","latitude":11.2588,"longitude":75.7804,"temp":27.7,"humidity":81,"rain":0.0,"pressure":1009.5,"uv_index":8.85,"wind_gusts":30.2,"aqi":95,"pm10":39.1,"pm2_5":35.0,"mosquito_risk":7,"arthritis_risk":0,"migraine_risk":4,"frizz_risk":1,"updated_at":"2026-03-05T02:05:59.994793+05:30"},{"city":"Thrissur","state":"Kerala","latitude":10.5276,"longitude":76.2144,"temp":25.3,"humidity":93,"rain":0.0,"pressure":1008.8,"uv_index":8.9,"wind_gusts":38.2,"aqi":106,"pm10":46.1,"pm2_5":44.8,"mosquito_risk":7,"arthritis_risk":0,"migraine_risk":4,"frizz_risk":1,"updated_at":"2026-03-05T02:05:59.994801+05:30"},{"city":"Kannur","state":"Kerala","latitude":11.8745,"longitude":75.3704,"temp":27.2,"humidity":85,"rain":0.0,"pressure":1008.7,"uv_index":8.85,"wind_gusts":35.6,"aqi":93,"pm10":42.0,"pm2_5":38.9,"mosquito_risk":7,"arthritis_risk":0,"migraine_risk":4,"frizz_risk":1,"updated_at":"2026-03-05T02:05:59.994808+05:30"},{"city":"Patna","state":"Bihar","latitude":25.5941,"longitude":85.1376,"temp":22.0,"humidity":69,"rain":0.0,"pressure":1003.3,"uv_index":7.2,"wind_gusts":14.8,"aqi":170,"pm10":156.0,"pm2_5":124.3,"mosquito_risk":3,"arthritis_risk":5,"migraine_risk":4,"frizz_risk":1,"updated_at":"2026-03-05T02:05:59.994816+05:30"},{"city":"Gaya","state":"Bihar","latitude":24.7914,"longitude":85.0002,"temp":19.1,"humidity":73,"rain":0.0,"pressure":996.6,"uv_index":7.3,"wind_gusts":13.0,"aqi":154,"pm10":133.2,"pm2_5":83.6,"mosquito_risk":3,"arthritis_risk":5,"migraine_risk":7,"frizz_risk":0,"updated_at":"2026-03-05T02:05:59.994823+05:30"},{"city":"Muzaffarpur","state":"Bihar","latitude":26.1209,"longitude":85.3647,"temp":19.9,"humidity":76,"rain":0.0,"pressure":1003.3,"uv_index":7.15,"wind_gusts":15.1,"aqi":170,"pm10":162.1,"pm2_5":129.9,"mosquito_risk":3,"arthritis_risk":5,"migraine_risk":4,"frizz_risk":0,"updated_at":"2026-03-05T02:05:59.994830+05:30"},{"city":"Bhagalpur","state":"Bihar","latitude":25.2425,"longitude":87.0117,"temp":19.8,"humidity":73,"rain":0.0,"pressure":1003.9,"uv_index":7.25,"wind_gusts":11.2,"aqi":164,"pm10":137.8,"pm2_5":105.9,"mosquito_risk":3,"arthritis_risk":5,"migraine_risk":4,"frizz_risk":0,"updated_at":"2026-03-05T02:05:59.994837+05:30"},{"city":"Ranchi","state":"Jharkhand","latitude":23.3441,"longitude":85.3096,"temp":19.4,"humidity":50,"rain":0.0,"pressure":939.3,"uv_index":7.95,"wind_gusts":14.8,"aqi":100,"pm10":136.0,"pm2_5":48.3,"mosquito_risk":0,"arthritis_risk":5,"migraine_risk":7,"frizz_risk":0,"updated_at":"2026-03-05T02:05:59.994843+05:30"},{"city":"Jamshedpur","state":"Jharkhand","latitude":22.8046,"longitude":86.2029,"temp":23.3,"humidity":55,"rain":0.0,"pressure":993.1,"uv_index":7.85,"wind_gusts":9.7,"aqi":151,"pm10":141.1,"pm2_5":85.9,"mosquito_risk":0,"arthritis_risk":5,"migraine_risk":7,"frizz_risk":0,"updated_at":"2026-03-05T02:05:59.994850+05:30"},{"city":"Dhanbad","state":"Jharkhand","latitude":23.7957,"longitude":86.4304,"temp":20.1,"humidity":60,"rain":0.0,"pressure":982.1,"uv_index":7.75,"wind_gusts":14.4,"aqi":153,"pm10":109.4,"pm2_5":81.7,"mosquito_risk":0,"arthritis_risk":5,"migraine_risk":7,"frizz_risk":0,"updated_at":"2026-03-05T02:05:59.994857+05:30"},{"city":"Bokaro","state":"Jharkhand","latitude":23.6693,"longitude":86.1511,"temp":21.1,"humidity":51,"rain":0.0,"pressure":986.5,"uv_index":7.75,"wind_gusts":10.4,"aqi":154,"pm10":132.2,"pm2_5":87.3,"mosquito_risk":0,"arthritis_risk":5,"migraine_risk":7,"frizz_risk":0,"updated_at":"2026-03-05T02:05:59.994864+05:30"},{"city":"Bhubaneswar","state":"Odisha","latitude":20.2961,"longitude":85.8245,"temp":22.8,"humidity":96,"rain":0.0,"pressure":1003.6,"uv_index":8.15,"wind_gusts":31.0,"aqi":155,"pm10":77.5,"pm2_5":69.4,"mosquito_risk":3,"arthritis_risk":5,"migraine_risk":4,"frizz_risk":1,"updated_at":"2026-03-05T02:05:59.994871+05:30"},{"city":"Cuttack","state":"Odisha","latitude":20.4625,"longitude":85.8828,"temp":22.3,"humidity":96,"rain":0.0,"pressure":1005.9,"uv_index":8.2,"wind_gusts":25.9,"aqi":155,"pm10":77.5,"pm2_5":69.4,"mosquito_risk":3,"arthritis_risk":5,"migraine_risk":4,"frizz_risk":1,"updated_at":"2026-03-05T02:05:59.994878+05:30"},{"city":"Rourkela","state":"Odisha","latitude":22.2604,"longitude":84.8536,"temp":22.4,"humidity":54,"rain":0.0,"pressure":987.1,"uv_index":7.75,"wind_gusts":19.8,"aqi":98,"pm10":71.2,"pm2_5":42.4,"mosquito_risk":0,"arthritis_risk":5,"migraine_risk":7,"frizz_risk":0,"updated_at":"2026-03-05T02:05:59.994885+05:30"},{"city":"Raipur","state":"Chhattisgarh","latitude":21.2514,"longitude":81.6296,"temp":22.6,"humidity":50,"rain":0.0,"pressure":976.5,"uv_index":7.85,"wind_gusts":24.8,"aqi":128,"pm10":70.8,"pm2_5":61.9,"mosquito_risk":0,"arthritis_risk":5,"migraine_risk":7,"frizz_risk":0,"updated_at":"2026-03-05T02:05:59.994891+05:30"},{"city":"Bhilai","state":"Chhattisgarh","latitude":21.1938,"longitude":81.3509,"temp":22.0,"humidity":51,"rain":0.0,"pressure":976.8,"uv_index":7.85,"wind_gusts":26.3,"aqi":113,"pm10":55.9,"pm2_5":47.7,"mosquito_risk":0,"arthritis_risk":5,"migraine_risk":7,"frizz_risk":0,"updated_at":"2026-03-05T02:05:59.994898+05:30"},{"city":"Guwahati","state":"Assam","latitude":26.1158,"longitude":91.7086,"temp":20.8,"humidity":84,"rain":0.0,"pressure":1003.2,"uv_index":7.15,"wind_gusts":17.3,"aqi":143,"pm10":52.3,"pm2_5":48.1,"mosquito_risk":3,"arthritis_risk":5,"migraine_risk":4,"frizz_risk":1,"updated_at":"2026-03-05T02:05:59.994904+05:30"},{"city":"Agartala","state":"Tripura","latitude":23.8315,"longitude":91.2868,"temp":19.3,"humidity":75,"rain":0.0,"pressure":1007.7,"uv_index":7.55,"wind_gusts":15.8,"aqi":162,"pm10":108.0,"pm2_5":86.8,"mosquito_risk":3,"arthritis_risk":5,"migraine_risk":4,"frizz_risk":0,"updated_at":"2026-03-05T02:05:59.994911+05:30"},{"city":"Shillong","state":"Meghalaya","latitude":25.5788,"longitude":91.8933,"temp":10.5,"humidity":88,"rain":0.0,"pressure":854.9,"uv_index":7.55,"wind_gusts":15.5,"aqi":126,"pm10":42.3,"pm2_5":38.1,"mosquito_risk":3,"arthritis_risk":10,"migraine_risk":7,"frizz_risk":0,"updated_at":"2026-03-05T02:05:59.994918+05:30"},{"city":"Imphal","state":"Manipur","latitude":24.817,"longitude":93.9368,"temp":14.3,"humidity":83,"rain":0.0,"pressure":923.4,"uv_index":7.75,"wind_gusts":23.8,"aqi":141,"pm10":75.7,"pm2_5":70.1,"mosquito_risk":3,"arthritis_risk":10,"migraine_risk":7,"frizz_risk":0,"updated_at":"2026-03-05T02:05:59.994925+05:30"},{"city":"Aizawl","state":"Mizoram","latitude":23.7271,"longitude":92.7176,"temp":14.4,"humidity":73,"rain":0.0,"pressure":891.8,"uv_index":7.75,"wind_gusts":21.2,"aqi":163,"pm10":122.0,"pm2_5":109.7,"mosquito_risk":3,"arthritis_risk":5,"migraine_risk":7,"frizz_risk":0,"updated_at":"2026-03-05T02:05:59.994932+05:30"},{"city":"Kohima","state":"Nagaland","latitude":25.6701,"longitude":94.1077,"temp":12.7,"humidity":73,"rain":0.0,"pressure":854.3,"uv_index":7.6,"wind_gusts":38.2,"aqi":151,"pm10":74.0,"pm2_5":66.8,"mosquito_risk":3,"arthritis_risk":5,"migraine_risk":7,"frizz_risk":0,"updated_at":"2026-03-05T02:05:59.994938+05:30"},{"city":"Gangtok","state":"Sikkim","latitude":27.3314,"longitude":88.6138,"temp":11.4,"humidity":86,"rain":0.0,"pressure":836.6,"uv_index":7.5,"wind_gusts":22.0,"aqi":127,"pm10":50.6,"pm2_5":43.5,"mosquito_risk":3,"arthritis_risk":10,"migraine_risk":7,"frizz_risk":0,"updated_at":"2026-03-05T02:05:59.994945+05:30"},{"city":"Siliguri","state":"West Bengal","latitude":26.7271,"longitude":88.3953,"temp":20.3,"humidity":68,"rain":0.0,"pressure":996.1,"uv_index":7.15,"wind_gusts":23.4,"aqi":155,"pm10":74.0,"pm2_5":68.0,"mosquito_risk":3,"arthritis_risk":5,"migraine_risk":7,"frizz_risk":0,"updated_at":"2026-03-05T02:06:03.223431+05:30"},{"city":"Durgapur","state":"West Bengal","latitude":23.5204,"longitude":87.3119,"temp":22.2,"humidity":54,"rain":0.0,"pressure":997.4,"uv_index":7.7,"wind_gusts":16.6,"aqi":150,"pm10":118.7,"pm2_5":90.3,"mosquito_risk":0,"arthritis_risk":5,"migraine_risk":7,"frizz_risk":0,"updated_at":"2026-03-05T02:06:03.223460+05:30"},{"city":"Asansol","state":"West Bengal","latitude":23.6739,"longitude":86.9524,"temp":22.0,"humidity":57,"rain":0.0,"pressure":995.9,"uv_index":7.7,"wind_gusts":15.1,"aqi":129,"pm10":88.9,"pm2_5":66.4,"mosquito_risk":0,"arthritis_risk":5,"migraine_risk":7,"frizz_risk":0,"updated_at":"2026-03-05T02:06:03.223470+05:30"},{"city":"Pondicherry","state":"Puducherry","latitude":11.9139,"longitude":79.8145,"temp":21.8,"humidity":100,"rain":0.0,"pressure":1010.9,"uv_index":8.85,"wind_gusts":24.5,"aqi":79,"pm10":20.2,"pm2_5":16.5,"mosquito_risk":3,"arthritis_risk":0,"migraine_risk":4,"frizz_risk":1,"updated_at":"2026-03-05T02:06:03.223478+05:30"},{"city":"Port Blair","state":"Andaman and Nicobar Islands","latitude":11.6234,"longitude":92.7265,"temp":26.6,"humidity":80,"rain":0.0,"pressure":1007.2,"uv_index":8.8,"wind_gusts":22.3,"aqi":102,"pm10":38.9,"pm2_5":33.4,"mosquito_risk":7,"arthritis_risk":5,"migraine_risk":4,"frizz_risk":1,"updated_at":"2026-03-05T02:06:03.223485+05:30"},{"city":"Haridwar","state":"Uttarakhand","latitude":29.9457,"longitude":78.1642,"temp":18.2,"humidity":82,"rain":0.0,"pressure":976.5,"uv_index":5.65,"wind_gusts":21.2,"aqi":131,"pm10":80.6,"pm2_5":63.8,"mosquito_risk":3,"arthritis_risk":10,"migraine_risk":3,"frizz_risk":0,"updated_at":"2026-03-05T02:06:03.223493+05:30"},{"city":"Rishikesh","state":"Uttarakhand","latitude":30.0869,"longitude":78.2676,"temp":18.0,"humidity":75,"rain":0.0,"pressure":969.1,"uv_index":5.7,"wind_gusts":22.0,"aqi":105,"pm10":44.7,"pm2_5":40.0,"mosquito_risk":3,"arthritis_risk":5,"migraine_risk":3,"frizz_risk":0,"updated_at":"2026-03-05T02:06:03.223500+05:30"},{"city":"Nainital","state":"Uttarakhand","latitude":29.3919,"longitude":79.4542,"temp":15.6,"humidity":64,"rain":0.0,"pressure":806.1,"uv_index":6.5,"wind_gusts":53.6,"aqi":143,"pm10":77.5,"pm2_5":61.7,"mosquito_risk":3,"arthritis_risk":5,"migraine_risk":7,"frizz_risk":0,"updated_at":"2026-03-05T02:06:03.223507+05:30"},{"city":"Mussoorie","state":"Uttarakhand","latitude":30.4599,"longitude":78.0664,"temp":15.7,"humidity":50,"rain":0.0,"pressure":803.2,"uv_index":6.05,"wind_gusts":40.7,"aqi":96,"pm10":46.4,"pm2_5":39.3,"mosquito_risk":0,"arthritis_risk":5,"migraine_risk":7,"frizz_risk":0,"updated_at":"2026-03-05T02:06:03.223514+05:30"},{"city":"Dharamshala","state":"Himachal Pradesh","latitude":32.219,"longitude":76.3234,"temp":21.7,"humidity":34,"rain":0.0,"pressure":871.9,"uv_index":6.3,"wind_gusts":25.9,"aqi":53,"pm10":22.6,"pm2_5":10.6,"mosquito_risk":0,"arthritis_risk":5,"migraine_risk":7,"frizz_risk":0,"updated_at":"2026-03-05T02:06:03.223521+05:30"},{"city":"Dalhousie","state":"Himachal Pradesh","latitude":32.5387,"longitude":75.971,"temp":18.1,"humidity":28,"rain":0.0,"pressure":806.4,"uv_index":6.5,"wind_gusts":23.8,"aqi":81,"pm10":39.1,"pm2_5":33.8,"mosquito_risk":0,"arthritis_risk":5,"migraine_risk":7,"frizz_risk":1,"updated_at":"2026-03-05T02:06:03.223528+05:30"},{"city":"Patiala","state":"Punjab","latitude":30.3398,"longitude":76.3869,"temp":19.5,"humidity":87,"rain":0.0,"pressure":980.8,"uv_index":5.7,"wind_gusts":30.2,"aqi":186,"pm10":342.7,"pm2_5":83.4,"mosquito_risk":3,"arthritis_risk":10,"migraine_risk":3,"frizz_risk":1,"updated_at":"2026-03-05T02:06:03.223535+05:30"},{"city":"Bhatinda","state":"Punjab","latitude":30.211,"longitude":74.9455,"temp":19.8,"humidity":77,"rain":0.0,"pressure":986.7,"uv_index":6.35,"wind_gusts":29.2,"aqi":149,"pm10":63.3,"pm2_5":42.5,"mosquito_risk":3,"arthritis_risk":5,"migraine_risk":7,"frizz_risk":0,"updated_at":"2026-03-05T02:06:03.223542+05:30"},{"city":"Rohtak","state":"Haryana","latitude":28.8955,"longitude":76.6066,"temp":18.7,"humidity":82,"rain":0.0,"pressure":984.6,"uv_index":5.85,"wind_gusts":35.3,"aqi":432,"pm10":516.0,"pm2_5":94.5,"mosquito_risk":3,"arthritis_risk":10,"migraine_risk":3,"frizz_risk":0,"updated_at":"2026-03-05T02:06:03.223548+05:30"},{"city":"Panipat","state":"Haryana","latitude":29.3909,"longitude":76.9635,"temp":18.9,"humidity":89,"rain":0.0,"pressure":982.9,"uv_index":5.65,"wind_gusts":33.8,"aqi":970,"pm10":1117.6,"pm2_5":151.8,"mosquito_risk":3,"arthritis_risk":10,"migraine_risk":3,"frizz_risk":1,"updated_at":"2026-03-05T02:06:03.223555+05:30"},{"city":"Mathura","state":"Uttar Pradesh","latitude":27.4924,"longitude":77.6737,"temp":23.1,"humidity":48,"rain":0.0,"pressure":989.5,"uv_index":6.15,"wind_gusts":32.4,"aqi":496,"pm10":475.9,"pm2_5":85.9,"mosquito_risk":0,"arthritis_risk":5,"migraine_risk":7,"frizz_risk":0,"updated_at":"2026-03-05T02:06:03.223561+05:30"},{"city":"Vrindavan","state":"Uttar Pradesh","latitude":27.5823,"longitude":77.7027,"temp":19.0,"humidity":69,"rain":0.0,"pressure":989.8,"uv_index":6.1,"wind_gusts":34.2,"aqi":496,"pm10":475.9,"pm2_5":85.9,"mosquito_risk":3,"arthritis_risk":5,"migraine_risk":7,"frizz_risk":0,"updated_at":"2026-03-05T02:06:03.223567+05:30"},{"city":"Ayodhya","state":"Uttar Pradesh","latitude":26.7922,"longitude":82.1998,"temp":19.9,"humidity":79,"rain":0.0,"pressure":998.0,"uv_index":6.55,"wind_gusts":11.2,"aqi":169,"pm10":265.4,"pm2_5":135.5,"mosquito_risk":3,"arthritis_risk":5,"migraine_risk":7,"frizz_risk":1,"updated_at":"2026-03-05T02:06:03.223573+05:30"},{"city":"Ratlam","state":"Madhya Pradesh","latitude":23.3315,"longitude":75.0367,"temp":17.3,"humidity":89,"rain":0.0,"pressure":957.0,"uv_index":7.35,"wind_gusts":23.0,"aqi":102,"pm10":53.4,"pm2_5":45.3,"mosquito_risk":3,"arthritis_risk":10,"migraine_risk":7,"frizz_risk":0,"updated_at":"2026-03-05T02:06:03.223579+05:30"},{"city":"Sagar","state":"Madhya Pradesh","latitude":23.8388,"longitude":78.7378,"temp":21.5,"humidity":44,"rain":0.0,"pressure":952.8,"uv_index":7.3,"wind_gusts":31.3,"aqi":59,"pm10":23.2,"pm2_5":19.0,"mosquito_risk":0,"arthritis_risk":5,"migraine_risk":7,"frizz_risk":0,"updated_at":"2026-03-05T02:06:03.223586+05:30"},{"city":"Satna","state":"Madhya Pradesh","latitude":24.6005,"longitude":80.8322,"temp":20.7,"humidity":54,"rain":0.0,"pressure":973.7,"uv_index":7.3,"wind_gusts":39.6,"aqi":71,"pm10":31.3,"pm2_5":23.6,"mosquito_risk":0,"arthritis_risk":5,"migraine_risk":7,"frizz_risk":0,"updated_at":"2026-03-05T02:06:03.223592+05:30"},{"city":"Akola","state":"Maharashtra","latitude":20.7002,"longitude":77.0082,"temp":21.7,"humidity":56,"rain":0.0,"pressure":977.2,"uv_index":7.8,"wind_gusts":25.2,"aqi":76,"pm10":35.5,"pm2_5":32.0,"mosquito_risk":0,"arthritis_risk":5,"migraine_risk":7,"frizz_risk":0,"updated_at":"2026-03-05T02:06:03.223599+05:30"},{"city":"Amravati","state":"Maharashtra","latitude":20.9374,"longitude":77.7796,"temp":22.7,"humidity":50,"rain":0.0,"pressure":969.1,"uv_index":7.75,"wind_gusts":17.3,"aqi":72,"pm10":40.0,"pm2_5":35.9,"mosquito_risk":0,"arthritis_risk":5,"migraine_risk":7,"frizz_risk":0,"updated_at":"2026-03-05T02:06:03.223606+05:30"},{"city":"Latur","state":"Maharashtra","latitude":18.4088,"longitude":76.5604,"temp":23.5,"humidity":48,"rain":0.0,"pressure":941.1,"uv_index":8.25,"wind_gusts":31.3,"aqi":82,"pm10":51.1,"pm2_5":48.1,"mosquito_risk":0,"arthritis_risk":5,"migraine_risk":7,"frizz_risk":0,"updated_at":"2026-03-05T02:06:03.223612+05:30"},{"city":"Nanded","state":"Maharashtra","latitude":19.1383,"longitude":77.3091,"temp":23.5,"humidity":59,"rain":0.0,"pressure":970.4,"uv_index":8.05,"wind_gusts":24.1,"aqi":75,"pm10":37.1,"pm2_5":34.9,"mosquito_risk":0,"arthritis_risk":5,"migraine_risk":7,"frizz_risk":0,"updated_at":"2026-03-05T02:06:03.223618+05:30"},{"city":"Gulbarga","state":"Karnataka","latitude":17.3297,"longitude":76.8343,"temp":25.3,"humidity":45,"rain":0.0,"pressure":960.1,"uv_index":8.35,"wind_gusts":19.1,"aqi":71,"pm10":22.9,"pm2_5":21.3,"mosquito_risk":4,"arthritis_risk":5,"migraine_risk":7,"frizz_risk":0,"updated_at":"2026-03-05T02:06:03.223625+05:30"},{"city":"Bidar","state":"Karnataka","latitude":17.9104,"longitude":77.5199,"temp":22.2,"humidity":60,"rain":0.0,"pressure":936.6,"uv_index":8.3,"wind_gusts":23.4,"aqi":88,"pm10":44.4,"pm2_5":41.0,"mosquito_risk":0,"arthritis_risk":5,"migraine_risk":7,"frizz_risk":0,"updated_at":"2026-03-05T02:06:03.223631+05:30"},{"city":"Hospet","state":"Karnataka","latitude":15.2689,"longitude":76.3909,"temp":25.9,"humidity":49,"rain":0.0,"pressure":957.0,"uv_index":8.7,"wind_gusts":17.3,"aqi":106,"pm10":32.2,"pm2_5":31.0,"mosquito_risk":4,"arthritis_risk":5,"migraine_risk":7,"frizz_risk":0,"updated_at":"2026-03-05T02:06:03.223637+05:30"},{"city":"Tirupur","state":"Tamil Nadu","latitude":11.1085,"longitude":77.3411,"temp":23.6,"humidity":71,"rain":0.0,"pressure":977.3,"uv_index":9.15,"wind_gusts":27.0,"aqi":107,"pm10":40.0,"pm2_5":39.3,"mosquito_risk":3,"arthritis_risk":5,"migraine_risk":7,"frizz_risk":1,"updated_at":"2026-03-05T02:06:03.223642+05:30"},{"city":"Alappuzha","state":"Kerala","latitude":9.4981,"longitude":76.3388,"temp":27.1,"humidity":80,"rain":0.0,"pressure":1010.4,"uv_index":8.95,"wind_gusts":34.2,"aqi":96,"pm10":43.3,"pm2_5":41.9,"mosquito_risk":7,"arthritis_risk":0,"migraine_risk":4,"frizz_risk":1,"updated_at":"2026-03-05T02:06:03.223649+05:30"},{"city":"Munnar","state":"Kerala","latitude":10.0889,"longitude":77.0595,"temp":17.1,"humidity":75,"rain":0.0,"pressure":856.2,"uv_index":9.45,"wind_gusts":26.3,"aqi":78,"pm10":27.3,"pm2_5":26.9,"mosquito_risk":3,"arthritis_risk":5,"migraine_risk":7,"frizz_risk":0,"updated_at":"2026-03-05T02:06:03.223656+05:30"},{"city":"Silchar","state":"Assam","latitude":24.8333,"longitude":92.7789,"temp":20.4,"humidity":78,"rain":0.0,"pressure":1006.4,"uv_index":7.5,"wind_gusts":13.0,"aqi":151,"pm10":83.8,"pm2_5":73.6,"mosquito_risk":3,"arthritis_risk":5,"migraine_risk":4,"frizz_risk":1,"updated_at":"2026-03-05T02:06:03.223662+05:30"},{"city":"Dibrugarh","state":"Assam","latitude":27.4728,"longitude":94.912,"temp":20.7,"humidity":87,"rain":0.0,"pressure":997.5,"uv_index":7.2,"wind_gusts":9.7,"aqi":126,"pm10":43.7,"pm2_5":39.8,"mosquito_risk":3,"arthritis_risk":5,"migraine_risk":7,"frizz_risk":1,"updated_at":"2026-03-05T02:06:03.223668+05:30"}]