[{"city":"Delhi","state":"Delhi","latitude":28.6139,"longitude":77.209,"temp":33.0,"humidity":31,"rain":0.0,"pressure":982.8,"uv_index":7.55,"wind_gusts":36.7,"aqi":339,"pm10":482.4,"pm2_5":68.0,"no2":8.6,"co":378.0,"o3":194.0,"so2":19.0,"mosquito_risk":0,"arthritis_risk":5,"migraine_risk":7,"frizz_risk":0,"updated_at":"2026-05-08T16:50:25.446295+05:30"},{"city":"Mumbai","state":"Maharashtra","latitude":19.076,"longitude":72.8777,"temp":33.1,"humidity":55,"rain":0.0,"pressure":1004.5,"uv_index":7.85,"wind_gusts":47.2,"aqi":137,"pm10":51.2,"pm2_5":22.8,"no2":8.4,"co":256.0,"o3":108.0,"so2":9.8,"mosquito_risk":0,"arthritis_risk":5,"migraine_risk":4,"frizz_risk":1,"updated_at":"2026-05-08T16:50:25.446336+05:30"},{"city":"Bangalore","state":"Karnataka","latitude":12.9716,"longitude":77.5946,"temp":30.0,"humidity":45,"rain":0.1,"pressure":909.0,"uv_index":9.45,"wind_gusts":45.0,"aqi":52,"pm10":11.1,"pm2_5":8.8,"no2":8.5,"co":318.0,"o3":99.0,"so2":3.9,"mosquito_risk":7,"arthritis_risk":5,"migraine_risk":7,"frizz_risk":1,"updated_at":"2026-05-08T16:50:25.446352+05:30"},{"city":"Hyderabad","state":"Telangana","latitude":17.385,"longitude":78.4867,"temp":34.7,"humidity":33,"rain":0.0,"pressure":951.4,"uv_index":9.25,"wind_gusts":31.3,"aqi":52,"pm10":18.2,"pm2_5":13.5,"no2":3.1,"co":277.0,"o3":135.0,"so2":3.9,"mosquito_risk":0,"arthritis_risk":5,"migraine_risk":7,"frizz_risk":1,"updated_at":"2026-05-08T16:50:25.446363+05:30"},{"city":"Chennai","state":"Tamil Nadu","latitude":13.0827,"longitude":80.2707,"temp":30.4,"humidity":68,"rain":0.0,"pressure":1003.8,"uv_index":7.6,"wind_gusts":36.7,"aqi":23,"pm10":4.3,"pm2_5":2.9,"no2":3.2,"co":151.0,"o3":44.0,"so2":4.7,"mosquito_risk":3,"arthritis_risk":5,"migraine_risk":4,"frizz_risk":1,"updated_at":"2026-05-08T16:50:25.446377+05:30"},{"city":"Kolkata","state":"West Bengal","latitude":22.5726,"longitude":88.3639,"temp":30.4,"humidity":69,"rain":0.0,"pressure":1005.1,"uv_index":8.9,"wind_gusts":41.4,"aqi":133,"pm10":45.5,"pm2_5":40.9,"no2":11.5,"co":720.0,"o3":177.0,"so2":17.7,"mosquito_risk":3,"arthritis_risk":5,"migraine_risk":4,"frizz_risk":1,"updated_at":"2026-05-08T16:50:25.446387+05:30"},{"city":"Pune","state":"Maharashtra","latitude":18.5204,"longitude":73.8567,"temp":37.6,"humidity":17,"rain":0.0,"pressure":945.0,"uv_index":8.45,"wind_gusts":34.6,"aqi":123,"pm10":59.6,"pm2_5":28.5,"no2":1.4,"co":201.0,"o3":160.0,"so2":5.2,"mosquito_risk":0,"arthritis_risk":5,"migraine_risk":10,"frizz_risk":0,"updated_at":"2026-05-08T16:50:25.446395+05:30"},{"city":"Ahmedabad","state":"Gujarat","latitude":23.0225,"longitude":72.5714,"temp":42.2,"humidity":10,"rain":0.0,"pressure":998.0,"uv_index":8.1,"wind_gusts":29.2,"aqi":83,"pm10":38.4,"pm2_5":11.9,"no2":0.0,"co":167.0,"o3":142.0,"so2":3.3,"mosquito_risk":0,"arthritis_risk":5,"migraine_risk":10,"frizz_risk":0,"updated_at":"2026-05-08T16:50:25.446403+05:30"},{"city":"Jaipur","state":"Rajasthan","latitude":26.9124,"longitude":75.7873,"temp":38.0,"humidity":17,"rain":0.0,"pressure":957.1,"uv_index":8.1,"wind_gusts":40.3,"aqi":150,"pm10":328.8,"pm2_5":46.3,"no2":1.4,"co":190.0,"o3":155.0,"so2":4.3,"mosquito_risk":0,"arthritis_risk":5,"migraine_risk":10,"frizz_risk":0,"updated_at":"2026-05-08T16:50:25.446410+05:30"},{"city":"Lucknow","state":"Uttar Pradesh","latitude":26.8467,"longitude":80.9462,"temp":32.2,"humidity":40,"rain":0.0,"pressure":992.4,"uv_index":8.05,"wind_gusts":28.4,"aqi":156,"pm10":63.1,"pm2_5":26.7,"no2":2.7,"co":284.0,"o3":174.0,"so2":7.2,"mosquito_risk":0,"arthritis_risk":5,"migraine_risk":7,"frizz_risk":1,"updated_at":"2026-05-08T16:50:25.446418+05:30"},{"city":"Kanpur","state":"Uttar Pradesh","latitude":26.4499,"longitude":80.3319,"temp":34.2,"humidity":33,"rain":0.0,"pressure":990.1,"uv_index":8.05,"wind_gusts":27.4,"aqi":164,"pm10":160.2,"pm2_5":32.6,"no2":2.5,"co":231.0,"o3":182.0,"so2":7.7,"mosquito_risk":0,"arthritis_risk":5,"migraine_risk":7,"frizz_risk":0,"updated_at":"2026-05-08T16:50:25.446425+05:30"},{"city":"Chandigarh","state":"Chandigarh","latitude":30.7333,"longitude":76.7794,"temp":30.9,"humidity":35,"rain":0.0,"pressure":969.9,"uv_index":7.6,"wind_gusts":38.2,"aqi":168,"pm10":118.7,"pm2_5":30.7,"no2":1.6,"co":255.0,"o3":180.0,"so2":4.8,"mosquito_risk":0,"arthritis_risk":5,"migraine_risk":7,"frizz_risk":0,"updated_at":"2026-05-08T16:50:25.446433+05:30"},{"city":"Srinagar","state":"Jammu and Kashmir","latitude":34.0837,"longitude":74.7973,"temp":25.2,"humidity":35,"rain":0.0,"pressure":841.8,"uv_index":8.8,"wind_gusts":22.0,"aqi":85,"pm10":50.6,"pm2_5":10.0,"no2":0.8,"co":307.0,"o3":142.0,"so2":0.8,"mosquito_risk":4,"arthritis_risk":5,"migraine_risk":7,"frizz_risk":0,"updated_at":"2026-05-08T16:50:25.446441+05:30"},{"city":"Jammu","state":"Jammu and Kashmir","latitude":32.7266,"longitude":74.857,"temp":31.9,"humidity":34,"rain":0.0,"pressure":973.4,"uv_index":8.35,"wind_gusts":34.9,"aqi":167,"pm10":119.7,"pm2_5":34.0,"no2":0.7,"co":261.0,"o3":182.0,"so2":6.6,"mosquito_risk":0,"arthritis_risk":5,"migraine_risk":7,"frizz_risk":0,"updated_at":"2026-05-08T16:50:25.446448+05:30"},{"city":"Amritsar","state":"Punjab","latitude":31.634,"longitude":74.8723,"temp":33.5,"humidity":29,"rain":0.0,"pressure":981.2,"uv_index":8.25,"wind_gusts":31.3,"aqi":152,"pm10":255.2,"pm2_5":49.4,"no2":1.8,"co":281.0,"o3":172.0,"so2":7.4,"mosquito_risk":0,"arthritis_risk":5,"migraine_risk":7,"frizz_risk":0,"updated_at":"2026-05-08T16:50:25.446456+05:30"},{"city":"Ludhiana","state":"Punjab","latitude":30.901,"longitude":75.8573,"temp":32.5,"humidity":33,"rain":0.0,"pressure":979.0,"uv_index":7.8,"wind_gusts":30.2,"aqi":192,"pm10":517.8,"pm2_5":75.7,"no2":2.0,"co":263.0,"o3":180.0,"so2":6.4,"mosquito_risk":0,"arthritis_risk":5,"migraine_risk":7,"frizz_risk":0,"updated_at":"2026-05-08T16:50:25.446463+05:30"},{"city":"Jalandhar","state":"Punjab","latitude":31.326,"longitude":75.5762,"temp":31.7,"humidity":36,"rain":0.0,"pressure":980.2,"uv_index":8.0,"wind_gusts":31.3,"aqi":160,"pm10":405.1,"pm2_5":68.5,"no2":1.7,"co":277.0,"o3":179.0,"so2":6.9,"mosquito_risk":0,"arthritis_risk":5,"migraine_risk":7,"frizz_risk":0,"updated_at":"2026-05-08T16:50:25.446470+05:30"},{"city":"Dehradun","state":"Uttarakhand","latitude":30.6284,"longitude":78.0322,"temp":17.7,"humidity":63,"rain":0.0,"pressure":832.1,"uv_index":5.7,"wind_gusts":22.7,"aqi":124,"pm10":26.5,"pm2_5":9.0,"no2":1.0,"co":198.0,"o3":145.0,"so2":0.7,"mosquito_risk":3,"arthritis_risk":5,"migraine_risk":3,"frizz_risk":0,"updated_at":"2026-05-08T16:50:25.446478+05:30"},{"city":"Shimla","state":"Himachal Pradesh","latitude":31.1048,"longitude":77.1734,"temp":15.7,"humidity":61,"rain":0.0,"pressure":786.2,"uv_index":7.45,"wind_gusts":25.9,"aqi":145,"pm10":54.4,"pm2_5":17.8,"no2":1.6,"co":218.0,"o3":150.0,"so2":0.7,"mosquito_risk":3,"arthritis_risk":5,"migraine_risk":7,"frizz_risk":0,"updated_at":"2026-05-08T16:50:25.446485+05:30"},{"city":"Manali","state":"Himachal Pradesh","latitude":32.2396,"longitude":77.1887,"temp":14.8,"humidity":79,"rain":0.0,"pressure":819.0,"uv_index":9.9,"wind_gusts":34.6,"aqi":117,"pm10":29.7,"pm2_5":6.4,"no2":0.1,"co":176.0,"o3":166.0,"so2":0.3,"mosquito_risk":3,"arthritis_risk":5,"migraine_risk":7,"frizz_risk":0,"updated_at":"2026-05-08T16:50:25.446491+05:30"},{"city":"Gurgaon","state":"Haryana","latitude":28.4595,"longitude":77.0266,"temp":33.5,"humidity":32,"rain":0.0,"pressure":980.9,"uv_index":7.65,"wind_gusts":40.3,"aqi":1849,"pm10":1460.3,"pm2_5":150.4,"no2":7.1,"co":373.0,"o3":188.0,"so2":15.8,"mosquito_risk":0,"arthritis_risk":5,"migraine_risk":7,"frizz_risk":0,"updated_at":"2026-05-08T16:50:25.446498+05:30"},{"city":"Noida","state":"Uttar Pradesh","latitude":28.5355,"longitude":77.391,"temp":32.8,"humidity":35,"rain":0.0,"pressure":984.5,"uv_index":7.6,"wind_gusts":34.9,"aqi":1849,"pm10":1460.3,"pm2_5":150.4,"no2":7.1,"co":380.0,"o3":188.0,"so2":15.8,"mosquito_risk":0,"arthritis_risk":5,"migraine_risk":7,"frizz_risk":0,"updated_at":"2026-05-08T16:50:25.446504+05:30"},{"city":"Ghaziabad","state":"Uttar Pradesh","latitude":28.6692,"longitude":77.4538,"temp":32.3,"humidity":35,"rain":0.0,"pressure":982.7,"uv_index":7.55,"wind_gusts":37.4,"aqi":158,"pm10":292.4,"pm2_5":45.9,"no2":3.7,"co":249.0,"o3":180.0,"so2":9.2,"mosquito_risk":0,"arthritis_risk":5,"migraine_risk":7,"frizz_risk":0,"updated_at":"2026-05-08T16:50:25.446511+05:30"},{"city":"Faridabad","state":"Haryana","latitude":28.4089,"longitude":77.3178,"temp":32.9,"humidity":31,"rain":0.0,"pressure":983.5,"uv_index":7.6,"wind_gusts":37.4,"aqi":1849,"pm10":1460.3,"pm2_5":150.4,"no2":7.1,"co":284.0,"o3":188.0,"so2":15.8,"mosquito_risk":0,"arthritis_risk":5,"migraine_risk":7,"frizz_risk":0,"updated_at":"2026-05-08T16:50:25.446518+05:30"},{"city":"Meerut","state":"Uttar Pradesh","latitude":28.9845,"longitude":77.7064,"temp":30.9,"humidity":42,"rain":0.0,"pressure":982.0,"uv_index":7.5,"wind_gusts":38.2,"aqi":158,"pm10":292.4,"pm2_5":45.9,"no2":3.7,"co":250.0,"o3":180.0,"so2":9.2,"mosquito_risk":0,"arthritis_risk":5,"migraine_risk":7,"frizz_risk":1,"updated_at":"2026-05-08T16:50:25.446526+05:30"},{"city":"Agra","state":"Uttar Pradesh","latitude":27.1767,"longitude":78.0081,"temp":34.2,"humidity":34,"rain":0.0,"pressure":985.4,"uv_index":7.9,"wind_gusts":32.4,"aqi":1093,"pm10":501.1,"pm2_5":59.6,"no2":4.9,"co":275.0,"o3":172.0,"so2":11.5,"mosquito_risk":0,"arthritis_risk":5,"migraine_risk":7,"frizz_risk":1,"updated_at":"2026-05-08T16:50:25.446535+05:30"},{"city":"Varanasi","state":"Uttar Pradesh","latitude":25.3176,"longitude":82.9739,"temp":34.5,"humidity":30,"rain":0.0,"pressure":996.4,"uv_index":8.55,"wind_gusts":28.1,"aqi":193,"pm10":56.7,"pm2_5":29.5,"no2":4.5,"co":352.0,"o3":196.0,"so2":12.3,"mosquito_risk":0,"arthritis_risk":5,"migraine_risk":7,"frizz_risk":0,"updated_at":"2026-05-08T16:50:25.446543+05:30"},{"city":"Prayagraj","state":"Uttar Pradesh","latitude":25.4358,"longitude":81.8463,"temp":34.7,"humidity":30,"rain":0.0,"pressure":994.7,"uv_index":8.45,"wind_gusts":32.0,"aqi":184,"pm10":61.5,"pm2_5":30.0,"no2":3.7,"co":253.0,"o3":197.0,"so2":9.9,"mosquito_risk":0,"arthritis_risk":5,"migraine_risk":7,"frizz_risk":0,"updated_at":"2026-05-08T16:50:25.446551+05:30"},{"city":"Gorakhpur","state":"Uttar Pradesh","latitude":26.7606,"longitude":83.3732,"temp":30.2,"humidity":46,"rain":0.0,"pressure":997.7,"uv_index":8.4,"wind_gusts":28.1,"aqi":162,"pm10":66.4,"pm2_5":28.8,"no2":2.2,"co":347.0,"o3":186.0,"so2":5.8,"mosquito_risk":0,"arthritis_risk":5,"migraine_risk":7,"frizz_risk":1,"updated_at":"2026-05-08T16:50:25.446557+05:30"},{"city":"Bareilly","state":"Uttar Pradesh","latitude":28.367,"longitude":79.4304,"temp":31.5,"humidity":42,"rain":0.0,"pressure":986.6,"uv_index":7.85,"wind_gusts":34.9,"aqi":162,"pm10":166.7,"pm2_5":37.7,"no2":1.7,"co":282.0,"o3":181.0,"so2":8.9,"mosquito_risk":0,"arthritis_risk":5,"migraine_risk":7,"frizz_risk":1,"updated_at":"2026-05-08T16:50:25.446564+05:30"},{"city":"Aligarh","state":"Uttar Pradesh","latitude":27.8974,"longitude":78.088,"temp":33.5,"humidity":34,"rain":0.0,"pressure":984.4,"uv_index":7.75,"wind_gusts":36.4,"aqi":691,"pm10":817.7,"pm2_5":86.8,"no2":2.7,"co":236.0,"o3":172.0,"so2":10.2,"mosquito_risk":0,"arthritis_risk":5,"migraine_risk":7,"frizz_risk":0,"updated_at":"2026-05-08T16:50:25.446570+05:30"},{"city":"Moradabad","state":"Uttar Pradesh","latitude":28.8386,"longitude":78.7733,"temp":31.2,"humidity":42,"rain":0.0,"pressure":983.7,"uv_index":7.65,"wind_gusts":37.1,"aqi":169,"pm10":107.1,"pm2_5":31.4,"no2":4.0,"co":277.0,"o3":180.0,"so2":11.3,"mosquito_risk":0,"arthritis_risk":5,"migraine_risk":7,"frizz_risk":1,"updated_at":"2026-05-08T16:50:25.446576+05:30"},{"city":"Saharanpur","state":"Uttar Pradesh","latitude":29.9637,"longitude":77.546,"temp":29.9,"humidity":42,"rain":0.0,"pressure":976.8,"uv_index":7.25,"wind_gusts":36.0,"aqi":154,"pm10":102.4,"pm2_5":26.0,"no2":4.2,"co":249.0,"o3":161.0,"so2":5.3,"mosquito_risk":4,"arthritis_risk":5,"migraine_risk":7,"frizz_risk":0,"updated_at":"2026-05-08T16:50:25.446582+05:30"},{"city":"Jhansi","state":"Uttar Pradesh","latitude":25.4484,"longitude":78.5685,"temp":36.3,"humidity":23,"rain":0.0,"pressure":975.5,"uv_index":8.35,"wind_gusts":24.1,"aqi":132,"pm10":58.9,"pm2_5":16.1,"no2":1.2,"co":169.0,"o3":144.0,"so2":8.9,"mosquito_risk":0,"arthritis_risk":5,"migraine_risk":10,"frizz_risk":0,"updated_at":"2026-05-08T16:50:28.839451+05:30"},{"city":"Surat","state":"Gujarat","latitude":21.1702,"longitude":72.8311,"temp":37.8,"humidity":23,"rain":0.0,"pressure":1003.3,"uv_index":7.7,"wind_gusts":33.5,"aqi":114,"pm10":70.1,"pm2_5":43.9,"no2":52.0,"co":875.0,"o3":82.0,"so2":90.9,"mosquito_risk":0,"arthritis_risk":5,"migraine_risk":7,"frizz_risk":0,"updated_at":"2026-05-08T16:50:28.839480+05:30"},{"city":"Vadodara","state":"Gujarat","latitude":22.3072,"longitude":73.1812,"temp":41.7,"humidity":13,"rain":0.0,"pressure":1000.2,"uv_index":8.05,"wind_gusts":28.8,"aqi":123,"pm10":51.5,"pm2_5":18.2,"no2":0.6,"co":215.0,"o3":163.0,"so2":6.3,"mosquito_risk":0,"arthritis_risk":5,"migraine_risk":7,"frizz_risk":0,"updated_at":"2026-05-08T16:50:28.839489+05:30"},{"city":"Rajkot","state":"Gujarat","latitude":22.3039,"longitude":70.8022,"temp":41.5,"humidity":11,"rain":0.0,"pressure":990.7,"uv_index":7.7,"wind_gusts":47.5,"aqi":69,"pm10":45.6,"pm2_5":15.4,"no2":0.9,"co":154.0,"o3":149.0,"so2":4.1,"mosquito_risk":0,"arthritis_risk":5,"migraine_risk":10,"frizz_risk":0,"updated_at":"2026-05-08T16:50:28.839497+05:30"},{"city":"Thane","state":"Maharashtra","latitude":19.2183,"longitude":72.9781,"temp":36.5,"humidity":42,"rain":0.0,"pressure":1003.5,"uv_index":7.85,"wind_gusts":43.2,"aqi":137,"pm10":51.2,"pm2_5":22.8,"no2":8.4,"co":206.0,"o3":108.0,"so2":9.8,"mosquito_risk":0,"arthritis_risk":5,"migraine_risk":7,"frizz_risk":1,"updated_at":"2026-05-08T16:50:28.839504+05:30"},{"city":"Nagpur","state":"Maharashtra","latitude":21.1458,"longitude":79.0882,"temp":39.0,"humidity":16,"rain":0.0,"pressure":971.1,"uv_index":8.9,"wind_gusts":32.0,"aqi":178,"pm10":47.1,"pm2_5":29.7,"no2":7.7,"co":214.0,"o3":215.0,"so2":26.2,"mosquito_risk":0,"arthritis_risk":5,"migraine_risk":10,"frizz_risk":0,"updated_at":"2026-05-08T16:50:28.839511+05:30"},{"city":"Nashik","state":"Maharashtra","latitude":19.9975,"longitude":73.7898,"temp":37.2,"humidity":15,"rain":0.0,"pressure":943.4,"uv_index":8.15,"wind_gusts":42.8,"aqi":99,"pm10":60.5,"pm2_5":21.1,"no2":1.5,"co":188.0,"o3":143.0,"so2":3.0,"mosquito_risk":0,"arthritis_risk":5,"migraine_risk":10,"frizz_risk":0,"updated_at":"2026-05-08T16:50:28.839518+05:30"},{"city":"Aurangabad","state":"Maharashtra","latitude":19.8762,"longitude":75.3433,"temp":37.1,"humidity":19,"rain":0.0,"pressure":942.2,"uv_index":9.05,"wind_gusts":31.7,"aqi":134,"pm10":58.6,"pm2_5":26.5,"no2":0.6,"co":197.0,"o3":171.0,"so2":8.2,"mosquito_risk":0,"arthritis_risk":5,"migraine_risk":10,"frizz_risk":0,"updated_at":"2026-05-08T16:50:28.839525+05:30"},{"city":"Solapur","state":"Maharashtra","latitude":17.6599,"longitude":75.9064,"temp":37.3,"humidity":23,"rain":0.0,"pressure":954.0,"uv_index":9.05,"wind_gusts":37.4,"aqi":106,"pm10":36.1,"pm2_5":22.7,"no2":1.2,"co":200.0,"o3":155.0,"so2":3.8,"mosquito_risk":0,"arthritis_risk":5,"migraine_risk":10,"frizz_risk":0,"updated_at":"2026-05-08T16:50:28.839532+05:30"},{"city":"Kolhapur","state":"Maharashtra","latitude":16.705,"longitude":74.2433,"temp":35.8,"humidity":25,"rain":0.0,"pressure":944.7,"uv_index":8.95,"wind_gusts":51.8,"aqi":144,"pm10":62.4,"pm2_5":39.2,"no2":8.6,"co":227.0,"o3":159.0,"so2":4.7,"mosquito_risk":0,"arthritis_risk":5,"migraine_risk":10,"frizz_risk":0,"updated_at":"2026-05-08T16:50:28.839539+05:30"},{"city":"Goa","state":"Goa","latitude":15.2993,"longitude":74.124,"temp":35.2,"humidity":51,"rain":0.0,"pressure":993.5,"uv_index":8.85,"wind_gusts":42.8,"aqi":109,"pm10":58.8,"pm2_5":29.1,"no2":1.5,"co":200.0,"o3":113.0,"so2":2.7,"mosquito_risk":0,"arthritis_risk":5,"migraine_risk":10,"frizz_risk":1,"updated_at":"2026-05-08T16:50:28.839546+05:30"},{"city":"Jodhpur","state":"Rajasthan","latitude":26.2389,"longitude":73.0243,"temp":41.2,"humidity":11,"rain":0.0,"pressure":979.6,"uv_index":8.3,"wind_gusts":38.9,"aqi":122,"pm10":150.9,"pm2_5":22.1,"no2":0.2,"co":150.0,"o3":133.0,"so2":2.0,"mosquito_risk":0,"arthritis_risk":5,"migraine_risk":10,"frizz_risk":0,"updated_at":"2026-05-08T16:50:28.839553+05:30"},{"city":"Udaipur","state":"Rajasthan","latitude":24.5854,"longitude":73.7125,"temp":37.8,"humidity":11,"rain":0.0,"pressure":944.7,"uv_index":8.75,"wind_gusts":32.4,"aqi":89,"pm10":43.0,"pm2_5":10.9,"no2":0.6,"co":144.0,"o3":137.0,"so2":1.9,"mosquito_risk":0,"arthritis_risk":5,"migraine_risk":10,"frizz_risk":0,"updated_at":"2026-05-08T16:50:28.839559+05:30"},{"city":"Kota","state":"Rajasthan","latitude":25.2138,"longitude":75.8648,"temp":40.2,"humidity":13,"rain":0.0,"pressure":975.3,"uv_index":8.35,"wind_gusts":38.9,"aqi":101,"pm10":107.6,"pm2_5":19.1,"no2":0.8,"co":159.0,"o3":139.0,"so2":2.6,"mosquito_risk":0,"arthritis_risk":5,"migraine_risk":10,"frizz_risk":0,"updated_at":"2026-05-08T16:50:28.839566+05:30"},{"city":"Bikaner","state":"Rajasthan","latitude":28.0229,"longitude":73.3119,"temp":40.3,"humidity":13,"rain":0.0,"pressure":978.7,"uv_index":8.25,"wind_gusts":32.4,"aqi":117,"pm10":87.1,"pm2_5":24.2,"no2":0.5,"co":215.0,"o3":161.0,"so2":7.4,"mosquito_risk":0,"arthritis_risk":5,"migraine_risk":10,"frizz_risk":0,"updated_at":"2026-05-08T16:50:28.839572+05:30"},{"city":"Ajmer","state":"Rajasthan","latitude":26.4499,"longitude":74.6399,"temp":33.7,"humidity":25,"rain":0.0,"pressure":953.4,"uv_index":8.25,"wind_gusts":55.8,"aqi":73,"pm10":59.5,"pm2_5":16.5,"no2":0.4,"co":151.0,"o3":137.0,"so2":2.9,"mosquito_risk":0,"arthritis_risk":5,"migraine_risk":7,"frizz_risk":0,"updated_at":"2026-05-08T16:50:28.839579+05:30"},{"city":"Gwalior","state":"Madhya Pradesh","latitude":26.2183,"longitude":78.1828,"temp":35.8,"humidity":27,"rain":0.0,"pressure":980.1,"uv_index":8.15,"wind_gusts":62.3,"aqi":130,"pm10":53.6,"pm2_5":15.4,"no2":1.3,"co":207.0,"o3":147.0,"so2":4.8,"mosquito_risk":0,"arthritis_risk":5,"migraine_risk":10,"frizz_risk":0,"updated_at":"2026-05-08T16:50:28.839585+05:30"},{"city":"Indore","state":"Madhya Pradesh","latitude":22.7196,"longitude":75.8577,"temp":39.5,"humidity":10,"rain":0.0,"pressure":945.8,"uv_index":8.65,"wind_gusts":31.0,"aqi":129,"pm10":48.2,"pm2_5":16.3,"no2":0.5,"co":183.0,"o3":161.0,"so2":3.2,"mosquito_risk":0,"arthritis_risk":5,"migraine_risk":10,"frizz_risk":0,"updated_at":"2026-05-08T16:50:28.839591+05:30"},{"city":"Bhopal","state":"Madhya Pradesh","latitude":23.2599,"longitude":77.4126,"temp":38.1,"humidity":15,"rain":0.0,"pressure":951.6,"uv_index":8.65,"wind_gusts":38.9,"aqi":139,"pm10":46.8,"pm2_5":19.4,"no2":0.2,"co":183.0,"o3":160.0,"so2":4.8,"mosquito_risk":0,"arthritis_risk":5,"migraine_risk":10,"frizz_risk":0,"updated_at":"2026-05-08T16:50:28.839597+05:30"},{"city":"Jabalpur","state":"Madhya Pradesh","latitude":23.1815,"longitude":79.9864,"temp":37.0,"humidity":17,"rain":0.0,"pressure":960.0,"uv_index":8.8,"wind_gusts":35.3,"aqi":155,"pm10":47.6,"pm2_5":16.2,"no2":1.7,"co":183.0,"o3":159.0,"so2":3.4,"mosquito_risk":0,"arthritis_risk":5,"migraine_risk":10,"frizz_risk":0,"updated_at":"2026-05-08T16:50:28.839604+05:30"},{"city":"Ujjain","state":"Madhya Pradesh","latitude":23.1765,"longitude":75.7885,"temp":39.0,"humidity":12,"rain":0.0,"pressure":951.7,"uv_index":8.55,"wind_gusts":26.6,"aqi":105,"pm10":45.9,"pm2_5":15.6,"no2":0.1,"co":181.0,"o3":150.0,"so2":3.4,"mosquito_risk":0,"arthritis_risk":5,"migraine_risk":10,"frizz_risk":0,"updated_at":"2026-05-08T16:50:28.839610+05:30"},{"city":"Visakhapatnam","state":"Andhra Pradesh","latitude":17.6868,"longitude":83.2185,"temp":30.9,"humidity":67,"rain":0.0,"pressure":1002.6,"uv_index":9.15,"wind_gusts":35.6,"aqi":59,"pm10":14.6,"pm2_5":11.7,"no2":18.3,"co":471.0,"o3":39.0,"so2":18.1,"mosquito_risk":3,"arthritis_risk":5,"migraine_risk":4,"frizz_risk":1,"updated_at":"2026-05-08T16:50:28.839616+05:30"},{"city":"Vijayawada","state":"Andhra Pradesh","latitude":16.5062,"longitude":80.648,"temp":33.8,"humidity":50,"rain":0.0,"pressure":1000.1,"uv_index":9.2,"wind_gusts":39.6,"aqi":40,"pm10":10.2,"pm2_5":7.0,"no2":2.2,"co":157.0,"o3":80.0,"so2":3.9,"mosquito_risk":0,"arthritis_risk":5,"migraine_risk":4,"frizz_risk":1,"updated_at":"2026-05-08T16:50:28.839623+05:30"},{"city":"Guntur","state":"Andhra Pradesh","latitude":16.3067,"longitude":80.4365,"temp":33.7,"humidity":48,"rain":0.0,"pressure":1001.3,"uv_index":9.2,"wind_gusts":41.4,"aqi":42,"pm10":11.6,"pm2_5":8.3,"no2":1.8,"co":242.0,"o3":97.0,"so2":3.3,"mosquito_risk":0,"arthritis_risk":5,"migraine_risk":4,"frizz_risk":1,"updated_at":"2026-05-08T16:50:28.839630+05:30"},{"city":"Nellore","state":"Andhra Pradesh","latitude":14.4426,"longitude":79.9865,"temp":31.5,"humidity":63,"rain":0.0,"pressure":1002.9,"uv_index":9.1,"wind_gusts":42.5,"aqi":28,"pm10":5.1,"pm2_5":3.5,"no2":1.3,"co":127.0,"o3":51.0,"so2":1.4,"mosquito_risk":3,"arthritis_risk":5,"migraine_risk":4,"frizz_risk":1,"updated_at":"2026-05-08T16:50:28.839636+05:30"},{"city":"Kurnool","state":"Andhra Pradesh","latitude":15.8281,"longitude":78.0373,"temp":37.1,"humidity":28,"rain":0.0,"pressure":973.3,"uv_index":9.15,"wind_gusts":52.6,"aqi":39,"pm10":11.8,"pm2_5":8.2,"no2":1.0,"co":177.0,"o3":113.0,"so2":1.0,"mosquito_risk":0,"arthritis_risk":5,"migraine_risk":10,"frizz_risk":0,"updated_at":"2026-05-08T16:50:28.839644+05:30"},{"city":"Kakinada","state":"Andhra Pradesh","latitude":16.9891,"longitude":82.2475,"temp":30.2,"humidity":72,"rain":0.0,"pressure":1006.0,"uv_index":9.15,"wind_gusts":40.7,"aqi":24,"pm10":6.5,"pm2_5":4.2,"no2":0.9,"co":137.0,"o3":50.0,"so2":0.5,"mosquito_risk":3,"arthritis_risk":5,"migraine_risk":4,"frizz_risk":1,"updated_at":"2026-05-08T16:50:28.839650+05:30"},{"city":"Tirupati","state":"Andhra Pradesh","latitude":13.6288,"longitude":79.4192,"temp":32.8,"humidity":51,"rain":0.0,"pressure":987.6,"uv_index":8.4,"wind_gusts":49.0,"aqi":28,"pm10":2.8,"pm2_5":2.1,"no2":1.3,"co":135.0,"o3":53.0,"so2":0.4,"mosquito_risk":0,"arthritis_risk":5,"migraine_risk":7,"frizz_risk":1,"updated_at":"2026-05-08T16:50:28.839657+05:30"},{"city":"Warangal","state":"Telangana","latitude":17.9689,"longitude":79.5941,"temp":35.8,"humidity":35,"rain":0.0,"pressure":976.5,"uv_index":9.15,"wind_gusts":27.7,"aqi":62,"pm10":20.4,"pm2_5":14.8,"no2":1.8,"co":205.0,"o3":140.0,"so2":3.7,"mosquito_risk":0,"arthritis_risk":5,"migraine_risk":10,"frizz_risk":1,"updated_at":"2026-05-08T16:50:28.839663+05:30"},{"city":"Nizamabad","state":"Telangana","latitude":18.6725,"longitude":78.0941,"temp":36.1,"humidity":29,"rain":0.0,"pressure":962.7,"uv_index":9.1,"wind_gusts":26.3,"aqi":97,"pm10":28.5,"pm2_5":18.6,"no2":1.0,"co":205.0,"o3":157.0,"so2":3.8,"mosquito_risk":0,"arthritis_risk":5,"migraine_risk":10,"frizz_risk":0,"updated_at":"2026-05-08T16:50:28.839670+05:30"},{"city":"Mysore","state":"Karnataka","latitude":12.2958,"longitude":76.6396,"temp":32.7,"humidity":38,"rain":0.0,"pressure":924.9,"uv_index":8.9,"wind_gusts":32.4,"aqi":75,"pm10":14.1,"pm2_5":11.3,"no2":3.6,"co":192.0,"o3":130.0,"so2":3.7,"mosquito_risk":0,"arthritis_risk":5,"migraine_risk":7,"frizz_risk":1,"updated_at":"2026-05-08T16:50:28.839676+05:30"},{"city":"Mangalore","state":"Karnataka","latitude":12.9141,"longitude":74.856,"temp":31.6,"humidity":70,"rain":0.0,"pressure":1002.0,"uv_index":9.0,"wind_gusts":37.8,"aqi":88,"pm10":48.0,"pm2_5":28.6,"no2":1.9,"co":183.0,"o3":127.0,"so2":2.4,"mosquito_risk":3,"arthritis_risk":5,"migraine_risk":4,"frizz_risk":1,"updated_at":"2026-05-08T16:50:28.839682+05:30"},{"city":"Hubli-Dharwad","state":"Karnataka","latitude":15.3647,"longitude":75.124,"temp":36.3,"humidity":23,"rain":0.0,"pressure":937.6,"uv_index":9.1,"wind_gusts":39.6,"aqi":83,"pm10":20.0,"pm2_5":13.8,"no2":0.7,"co":188.0,"o3":146.0,"so2":2.9,"mosquito_risk":0,"arthritis_risk":5,"migraine_risk":10,"frizz_risk":0,"updated_at":"2026-05-08T16:50:28.839688+05:30"},{"city":"Belgaum","state":"Karnataka","latitude":15.8497,"longitude":74.4977,"temp":33.0,"humidity":31,"rain":0.0,"pressure":923.6,"uv_index":9.15,"wind_gusts":39.6,"aqi":133,"pm10":42.6,"pm2_5":27.8,"no2":3.5,"co":204.0,"o3":154.0,"so2":3.8,"mosquito_risk":0,"arthritis_risk":5,"migraine_risk":7,"frizz_risk":0,"updated_at":"2026-05-08T16:50:32.192329+05:30"},{"city":"Coimbatore","state":"Tamil Nadu","latitude":11.0168,"longitude":76.9558,"temp":31.6,"humidity":53,"rain":0.0,"pressure":957.7,"uv_index":9.15,"wind_gusts":31.0,"aqi":69,"pm10":13.7,"pm2_5":12.6,"no2":3.2,"co":240.0,"o3":120.0,"so2":4.5,"mosquito_risk":0,"arthritis_risk":5,"migraine_risk":7,"frizz_risk":1,"updated_at":"2026-05-08T16:50:32.192363+05:30"},{"city":"Madurai","state":"Tamil Nadu","latitude":9.9252,"longitude":78.1198,"temp":28.4,"humidity":79,"rain":0.2,"pressure":989.7,"uv_index":8.5,"wind_gusts":36.0,"aqi":52,"pm10":13.8,"pm2_5":13.6,"no2":2.9,"co":215.0,"o3":109.0,"so2":8.2,"mosquito_risk":10,"arthritis_risk":5,"migraine_risk":7,"frizz_risk":1,"updated_at":"2026-05-08T16:50:32.192373+05:30"},{"city":"Trichy","state":"Tamil Nadu","latitude":10.7905,"longitude":78.7047,"temp":31.1,"humidity":64,"rain":0.0,"pressure":995.7,"uv_index":8.55,"wind_gusts":43.2,"aqi":46,"pm10":10.3,"pm2_5":10.0,"no2":8.2,"co":164.0,"o3":68.0,"so2":16.7,"mosquito_risk":3,"arthritis_risk":5,"migraine_risk":7,"frizz_risk":1,"updated_at":"2026-05-08T16:50:32.192381+05:30"},{"city":"Salem","state":"Tamil Nadu","latitude":11.6643,"longitude":78.146,"temp":32.8,"humidity":50,"rain":0.0,"pressure":972.8,"uv_index":7.6,"wind_gusts":35.3,"aqi":62,"pm10":7.9,"pm2_5":7.4,"no2":3.2,"co":169.0,"o3":97.0,"so2":7.5,"mosquito_risk":0,"arthritis_risk":5,"migraine_risk":7,"frizz_risk":1,"updated_at":"2026-05-08T16:50:32.192389+05:30"},{"city":"Tirunelveli","state":"Tamil Nadu","latitude":8.7139,"longitude":77.7567,"temp":28.1,"humidity":81,"rain":0.1,"pressure":999.8,"uv_index":8.55,"wind_gusts":37.4,"aqi":54,"pm10":8.0,"pm2_5":7.7,"no2":4.2,"co":192.0,"o3":92.0,"so2":2.7,"mosquito_risk":10,"arthritis_risk":5,"migraine_risk":7,"frizz_risk":1,"updated_at":"2026-05-08T16:50:32.192402+05:30"},{"city":"Vellore","state":"Tamil Nadu","latitude":12.9165,"longitude":79.1325,"temp":31.9,"humidity":56,"rain":0.0,"pressure":980.8,"uv_index":7.05,"wind_gusts":47.2,"aqi":40,"pm10":10.3,"pm2_5":10.0,"no2":3.5,"co":168.0,"o3":102.0,"so2":7.7,"mosquito_risk":0,"arthritis_risk":5,"migraine_risk":7,"frizz_risk":1,"updated_at":"2026-05-08T16:50:32.192410+05:30"},{"city":"Erode","state":"Tamil Nadu","latitude":11.341,"longitude":77.7172,"temp":31.5,"humidity":59,"rain":0.0,"pressure":984.3,"uv_index":9.0,"wind_gusts":33.8,"aqi":66,"pm10":19.0,"pm2_5":18.5,"no2":2.7,"co":204.0,"o3":126.0,"so2":7.1,"mosquito_risk":0,"arthritis_risk":5,"migraine_risk":7,"frizz_risk":1,"updated_at":"2026-05-08T16:50:32.192418+05:30"},{"city":"Kochi","state":"Kerala","latitude":9.9312,"longitude":76.2673,"temp":29.5,"humidity":80,"rain":0.0,"pressure":1004.2,"uv_index":7.4,"wind_gusts":26.6,"aqi":112,"pm10":24.9,"pm2_5":21.8,"no2":6.7,"co":303.0,"o3":146.0,"so2":3.6,"mosquito_risk":7,"arthritis_risk":5,"migraine_risk":4,"frizz_risk":1,"updated_at":"2026-05-08T16:50:32.192425+05:30"},{"city":"Thiruvananthapuram","state":"Kerala","latitude":8.5241,"longitude":76.9366,"temp":29.2,"humidity":78,"rain":0.0,"pressure":1003.8,"uv_index":8.3,"wind_gusts":21.6,"aqi":96,"pm10":13.4,"pm2_5":10.7,"no2":3.2,"co":245.0,"o3":154.0,"so2":3.2,"mosquito_risk":7,"arthritis_risk":5,"migraine_risk":4,"frizz_risk":1,"updated_at":"2026-05-08T16:50:32.192432+05:30"},{"city":"Kozhikode","state":"Kerala","latitude":11.2588,"longitude":75.7804,"temp":30.4,"humidity":76,"rain":0.0,"pressure":1003.3,"uv_index":9.0,"wind_gusts":31.0,"aqi":94,"pm10":31.1,"pm2_5":18.7,"no2":0.9,"co":239.0,"o3":115.0,"so2":1.2,"mosquito_risk":3,"arthritis_risk":5,"migraine_risk":4,"frizz_risk":1,"updated_at":"2026-05-08T16:50:32.192438+05:30"},{"city":"Thrissur","state":"Kerala","latitude":10.5276,"longitude":76.2144,"temp":30.0,"humidity":74,"rain":0.0,"pressure":1002.4,"uv_index":9.0,"wind_gusts":27.4,"aqi":88,"pm10":23.2,"pm2_5":20.4,"no2":3.1,"co":303.0,"o3":135.0,"so2":3.4,"mosquito_risk":7,"arthritis_risk":5,"migraine_risk":4,"frizz_risk":1,"updated_at":"2026-05-08T16:50:32.192446+05:30"},{"city":"Kannur","state":"Kerala","latitude":11.8745,"longitude":75.3704,"temp":30.7,"humidity":74,"rain":0.0,"pressure":1002.7,"uv_index":8.95,"wind_gusts":40.0,"aqi":77,"pm10":37.1,"pm2_5":21.9,"no2":1.7,"co":187.0,"o3":117.0,"so2":1.4,"mosquito_risk":3,"arthritis_risk":5,"migraine_risk":4,"frizz_risk":1,"updated_at":"2026-05-08T16:50:32.192452+05:30"},{"city":"Patna","state":"Bihar","latitude":25.5941,"longitude":85.1376,"temp":29.8,"humidity":55,"rain":0.0,"pressure":1001.0,"uv_index":8.45,"wind_gusts":25.6,"aqi":189,"pm10":85.7,"pm2_5":42.8,"no2":7.1,"co":405.0,"o3":189.0,"so2":12.0,"mosquito_risk":4,"arthritis_risk":5,"migraine_risk":4,"frizz_risk":1,"updated_at":"2026-05-08T16:50:32.192458+05:30"},{"city":"Gaya","state":"Bihar","latitude":24.7914,"longitude":85.0002,"temp":32.0,"humidity":42,"rain":0.0,"pressure":993.6,"uv_index":8.75,"wind_gusts":31.7,"aqi":192,"pm10":73.1,"pm2_5":44.1,"no2":2.6,"co":377.0,"o3":205.0,"so2":16.0,"mosquito_risk":0,"arthritis_risk":5,"migraine_risk":7,"frizz_risk":1,"updated_at":"2026-05-08T16:50:32.192465+05:30"},{"city":"Muzaffarpur","state":"Bihar","latitude":26.1209,"longitude":85.3647,"temp":28.7,"humidity":59,"rain":0.0,"pressure":1001.3,"uv_index":8.45,"wind_gusts":26.3,"aqi":195,"pm10":82.4,"pm2_5":46.1,"no2":6.8,"co":385.0,"o3":195.0,"so2":13.2,"mosquito_risk":4,"arthritis_risk":5,"migraine_risk":4,"frizz_risk":1,"updated_at":"2026-05-08T16:50:32.192471+05:30"},{"city":"Bhagalpur","state":"Bihar","latitude":25.2425,"longitude":87.0117,"temp":30.9,"humidity":51,"rain":0.0,"pressure":1001.5,"uv_index":8.6,"wind_gusts":25.6,"aqi":207,"pm10":68.9,"pm2_5":52.3,"no2":7.7,"co":325.0,"o3":224.0,"so2":14.4,"mosquito_risk":0,"arthritis_risk":5,"migraine_risk":4,"frizz_risk":1,"updated_at":"2026-05-08T16:50:32.192478+05:30"},{"city":"Ranchi","state":"Jharkhand","latitude":23.3441,"longitude":85.3096,"temp":27.7,"humidity":46,"rain":0.0,"pressure":938.2,"uv_index":9.2,"wind_gusts":40.7,"aqi":164,"pm10":49.9,"pm2_5":35.0,"no2":2.5,"co":273.0,"o3":182.0,"so2":15.2,"mosquito_risk":4,"arthritis_risk":5,"migraine_risk":7,"frizz_risk":0,"updated_at":"2026-05-08T16:50:32.192484+05:30"},{"city":"Jamshedpur","state":"Jharkhand","latitude":22.8046,"longitude":86.2029,"temp":27.6,"humidity":64,"rain":0.0,"pressure":991.2,"uv_index":9.0,"wind_gusts":47.5,"aqi":136,"pm10":43.0,"pm2_5":28.5,"no2":3.7,"co":301.0,"o3":179.0,"so2":14.7,"mosquito_risk":7,"arthritis_risk":5,"migraine_risk":7,"frizz_risk":1,"updated_at":"2026-05-08T16:50:32.192490+05:30"},{"city":"Dhanbad","state":"Jharkhand","latitude":23.7957,"longitude":86.4304,"temp":28.0,"humidity":63,"rain":0.0,"pressure":980.4,"uv_index":8.95,"wind_gusts":28.1,"aqi":162,"pm10":71.5,"pm2_5":55.4,"no2":16.6,"co":877.0,"o3":201.0,"so2":44.5,"mosquito_risk":7,"arthritis_risk":5,"migraine_risk":7,"frizz_risk":1,"updated_at":"2026-05-08T16:50:32.192497+05:30"},{"city":"Bokaro","state":"Jharkhand","latitude":23.6693,"longitude":86.1511,"temp":28.5,"humidity":57,"rain":0.0,"pressure":984.3,"uv_index":8.95,"wind_gusts":36.4,"aqi":157,"pm10":78.2,"pm2_5":50.4,"no2":15.8,"co":279.0,"o3":173.0,"so2":37.8,"mosquito_risk":4,"arthritis_risk":5,"migraine_risk":7,"frizz_risk":1,"updated_at":"2026-05-08T16:50:32.192504+05:30"},{"city":"Bhubaneswar","state":"Odisha","latitude":20.2961,"longitude":85.8245,"temp":32.5,"humidity":61,"rain":0.0,"pressure":1001.3,"uv_index":9.1,"wind_gusts":36.0,"aqi":41,"pm10":13.9,"pm2_5":9.8,"no2":4.8,"co":191.0,"o3":97.0,"so2":4.3,"mosquito_risk":3,"arthritis_risk":5,"migraine_risk":4,"frizz_risk":1,"updated_at":"2026-05-08T16:50:32.192511+05:30"},{"city":"Cuttack","state":"Odisha","latitude":20.4625,"longitude":85.8828,"temp":33.8,"humidity":51,"rain":0.0,"pressure":1002.7,"uv_index":9.15,"wind_gusts":33.1,"aqi":41,"pm10":13.9,"pm2_5":9.8,"no2":4.8,"co":217.0,"o3":97.0,"so2":4.3,"mosquito_risk":0,"arthritis_risk":5,"migraine_risk":4,"frizz_risk":1,"updated_at":"2026-05-08T16:50:32.192517+05:30"},{"city":"Rourkela","state":"Odisha","latitude":22.2604,"longitude":84.8536,"temp":33.3,"humidity":40,"rain":0.0,"pressure":984.8,"uv_index":8.9,"wind_gusts":38.5,"aqi":159,"pm10":36.3,"pm2_5":27.0,"no2":2.8,"co":217.0,"o3":192.0,"so2":24.7,"mosquito_risk":0,"arthritis_risk":5,"migraine_risk":7,"frizz_risk":1,"updated_at":"2026-05-08T16:50:32.192523+05:30"},{"city":"Raipur","state":"Chhattisgarh","latitude":21.2514,"longitude":81.6296,"temp":38.2,"humidity":17,"rain":0.0,"pressure":972.7,"uv_index":8.95,"wind_gusts":26.6,"aqi":198,"pm10":35.5,"pm2_5":21.9,"no2":6.7,"co":300.0,"o3":221.0,"so2":5.0,"mosquito_risk":0,"arthritis_risk":5,"migraine_risk":10,"frizz_risk":0,"updated_at":"2026-05-08T16:50:32.192529+05:30"},{"city":"Bhilai","state":"Chhattisgarh","latitude":21.1938,"longitude":81.3509,"temp":38.0,"humidity":16,"rain":0.0,"pressure":973.2,"uv_index":8.95,"wind_gusts":28.1,"aqi":173,"pm10":35.3,"pm2_5":20.6,"no2":8.0,"co":676.0,"o3":195.0,"so2":4.0,"mosquito_risk":0,"arthritis_risk":5,"migraine_risk":10,"frizz_risk":0,"updated_at":"2026-05-08T16:50:32.192536+05:30"},{"city":"Guwahati","state":"Assam","latitude":26.1158,"longitude":91.7086,"temp":28.9,"humidity":68,"rain":0.0,"pressure":1001.2,"uv_index":8.65,"wind_gusts":23.8,"aqi":136,"pm10":47.4,"pm2_5":35.9,"no2":2.6,"co":411.0,"o3":138.0,"so2":2.1,"mosquito_risk":7,"arthritis_risk":5,"migraine_risk":4,"frizz_risk":1,"updated_at":"2026-05-08T16:50:32.192542+05:30"},{"city":"Agartala","state":"Tripura","latitude":23.8315,"longitude":91.2868,"temp":30.0,"humidity":66,"rain":0.0,"pressure":1005.1,"uv_index":8.85,"wind_gusts":19.8,"aqi":204,"pm10":46.7,"pm2_5":39.3,"no2":11.7,"co":387.0,"o3":189.0,"so2":3.9,"mosquito_risk":7,"arthritis_risk":5,"migraine_risk":4,"frizz_risk":1,"updated_at":"2026-05-08T16:50:32.192550+05:30"},{"city":"Shillong","state":"Meghalaya","latitude":25.5788,"longitude":91.8933,"temp":20.2,"humidity":64,"rain":0.0,"pressure":858.0,"uv_index":7.7,"wind_gusts":20.2,"aqi":132,"pm10":32.1,"pm2_5":23.8,"no2":2.2,"co":290.0,"o3":148.0,"so2":2.4,"mosquito_risk":3,"arthritis_risk":5,"migraine_risk":7,"frizz_risk":0,"updated_at":"2026-05-08T16:50:32.192556+05:30"},{"city":"Imphal","state":"Manipur","latitude":24.817,"longitude":93.9368,"temp":26.4,"humidity":53,"rain":0.0,"pressure":922.6,"uv_index":9.2,"wind_gusts":31.7,"aqi":115,"pm10":23.5,"pm2_5":16.8,"no2":5.9,"co":296.0,"o3":128.0,"so2":2.6,"mosquito_risk":4,"arthritis_risk":5,"migraine_risk":7,"frizz_risk":0,"updated_at":"2026-05-08T16:50:32.192563+05:30"},{"city":"Aizawl","state":"Mizoram","latitude":23.7271,"longitude":92.7176,"temp":24.4,"humidity":54,"rain":0.0,"pressure":892.7,"uv_index":8.5,"wind_gusts":23.0,"aqi":79,"pm10":30.5,"pm2_5":22.7,"no2":3.5,"co":236.0,"o3":117.0,"so2":1.7,"mosquito_risk":0,"arthritis_risk":5,"migraine_risk":7,"frizz_risk":0,"updated_at":"2026-05-08T16:50:32.192569+05:30"},{"city":"Kohima","state":"Nagaland","latitude":25.6701,"longitude":94.1077,"temp":20.2,"humidity":76,"rain":0.0,"pressure":856.2,"uv_index":9.15,"wind_gusts":29.5,"aqi":98,"pm10":29.9,"pm2_5":20.5,"no2":4.3,"co":262.0,"o3":115.0,"so2":1.1,"mosquito_risk":3,"arthritis_risk":5,"migraine_risk":7,"frizz_risk":0,"updated_at":"2026-05-08T16:50:32.192575+05:30"},{"city":"Gangtok","state":"Sikkim","latitude":27.3314,"longitude":88.6138,"temp":17.0,"humidity":69,"rain":0.0,"pressure":838.4,"uv_index":8.95,"wind_gusts":35.3,"aqi":97,"pm10":27.2,"pm2_5":17.9,"no2":2.7,"co":277.0,"o3":130.0,"so2":1.1,"mosquito_risk":3,"arthritis_risk":5,"migraine_risk":7,"frizz_risk":0,"updated_at":"2026-05-08T16:50:32.192582+05:30"},{"city":"Siliguri","state":"West Bengal","latitude":26.7271,"longitude":88.3953,"temp":28.0,"humidity":59,"rain":0.0,"pressure":993.5,"uv_index":8.6,"wind_gusts":23.8,"aqi":121,"pm10":42.0,"pm2_5":29.8,"no2":6.4,"co":630.0,"o3":132.0,"so2":2.4,"mosquito_risk":4,"arthritis_risk":5,"migraine_risk":7,"frizz_risk":1,"updated_at":"2026-05-08T16:50:35.562249+05:30"},{"city":"Durgapur","state":"West Bengal","latitude":23.5204,"longitude":87.3119,"temp":27.0,"humidity":76,"rain":0.1,"pressure":995.7,"uv_index":8.85,"wind_gusts":31.7,"aqi":159,"pm10":55.5,"pm2_5":48.2,"no2":19.4,"co":498.0,"o3":171.0,"so2":43.4,"mosquito_risk":10,"arthritis_risk":5,"migraine_risk":7,"frizz_risk":1,"updated_at":"2026-05-08T16:50:35.562284+05:30"},{"city":"Asansol","state":"West Bengal","latitude":23.6739,"longitude":86.9524,"temp":28.0,"humidity":70,"rain":0.0,"pressure":994.3,"uv_index":8.85,"wind_gusts":29.2,"aqi":157,"pm10":58.0,"pm2_5":49.8,"no2":17.9,"co":377.0,"o3":182.0,"so2":42.8,"mosquito_risk":7,"arthritis_risk":5,"migraine_risk":7,"frizz_risk":1,"updated_at":"2026-05-08T16:50:35.562298+05:30"},{"city":"Pondicherry","state":"Puducherry","latitude":11.9139,"longitude":79.8145,"temp":29.1,"humidity":75,"rain":0.0,"pressure":1004.7,"uv_index":7.7,"wind_gusts":38.5,"aqi":23,"pm10":3.5,"pm2_5":2.3,"no2":1.5,"co":138.0,"o3":45.0,"so2":0.2,"mosquito_risk":7,"arthritis_risk":5,"migraine_risk":4,"frizz_risk":1,"updated_at":"2026-05-08T16:50:35.562310+05:30"},{"city":"Port Blair","state":"Andaman and Nicobar Islands","latitude":11.6234,"longitude":92.7265,"temp":27.6,"humidity":83,"rain":0.0,"pressure":1004.8,"uv_index":9.1,"wind_gusts":38.2,"aqi":32,"pm10":6.7,"pm2_5":5.2,"no2":0.6,"co":135.0,"o3":64.0,"so2":0.4,"mosquito_risk":7,"arthritis_risk":5,"migraine_risk":4,"frizz_risk":1,"updated_at":"2026-05-08T16:50:35.562322+05:30"},{"city":"Haridwar","state":"Uttarakhand","latitude":29.9457,"longitude":78.1642,"temp":29.8,"humidity":42,"rain":0.0,"pressure":975.0,"uv_index":7.4,"wind_gusts":29.9,"aqi":158,"pm10":76.8,"pm2_5":20.7,"no2":0.8,"co":259.0,"o3":177.0,"so2":3.6,"mosquito_risk":4,"arthritis_risk":5,"migraine_risk":7,"frizz_risk":0,"updated_at":"2026-05-08T16:50:35.562333+05:30"},{"city":"Rishikesh","state":"Uttarakhand","latitude":30.0869,"longitude":78.2676,"temp":27.6,"humidity":58,"rain":0.0,"pressure":967.8,"uv_index":7.45,"wind_gusts":19.1,"aqi":153,"pm10":60.1,"pm2_5":17.9,"no2":0.7,"co":226.0,"o3":173.0,"so2":2.6,"mosquito_risk":4,"arthritis_risk":5,"migraine_risk":7,"frizz_risk":1,"updated_at":"2026-05-08T16:50:35.562346+05:30"},{"city":"Nainital","state":"Uttarakhand","latitude":29.3919,"longitude":79.4542,"temp":16.4,"humidity":61,"rain":0.0,"pressure":806.8,"uv_index":8.2,"wind_gusts":30.2,"aqi":129,"pm10":43.9,"pm2_5":17.5,"no2":0.3,"co":225.0,"o3":157.0,"so2":2.0,"mosquito_risk":3,"arthritis_risk":5,"migraine_risk":7,"frizz_risk":0,"updated_at":"2026-05-08T16:50:35.562360+05:30"},{"city":"Mussoorie","state":"Uttarakhand","latitude":30.4599,"longitude":78.0664,"temp":15.8,"humidity":69,"rain":0.0,"pressure":804.2,"uv_index":6.15,"wind_gusts":24.8,"aqi":153,"pm10":53.7,"pm2_5":18.7,"no2":0.5,"co":215.0,"o3":167.0,"so2":2.6,"mosquito_risk":3,"arthritis_risk":5,"migraine_risk":7,"frizz_risk":0,"updated_at":"2026-05-08T16:50:35.562375+05:30"},{"city":"Dharamshala","state":"Himachal Pradesh","latitude":32.219,"longitude":76.3234,"temp":20.6,"humidity":64,"rain":0.0,"pressure":870.5,"uv_index":8.2,"wind_gusts":30.2,"aqi":103,"pm10":49.8,"pm2_5":19.7,"no2":0.5,"co":246.0,"o3":146.0,"so2":1.4,"mosquito_risk":3,"arthritis_risk":5,"migraine_risk":7,"frizz_risk":0,"updated_at":"2026-05-08T16:50:35.562389+05:30"},{"city":"Dalhousie","state":"Himachal Pradesh","latitude":32.5387,"longitude":75.971,"temp":16.6,"humidity":67,"rain":0.0,"pressure":806.2,"uv_index":8.45,"wind_gusts":37.8,"aqi":161,"pm10":87.3,"pm2_5":31.7,"no2":1.8,"co":233.0,"o3":174.0,"so2":5.7,"mosquito_risk":3,"arthritis_risk":5,"migraine_risk":7,"frizz_risk":0,"updated_at":"2026-05-08T16:50:35.562404+05:30"},{"city":"Patiala","state":"Punjab","latitude":30.3398,"longitude":76.3869,"temp":30.9,"humidity":38,"rain":0.0,"pressure":978.8,"uv_index":7.5,"wind_gusts":38.5,"aqi":698,"pm10":382.8,"pm2_5":58.8,"no2":2.3,"co":249.0,"o3":180.0,"so2":7.2,"mosquito_risk":0,"arthritis_risk":5,"migraine_risk":7,"frizz_risk":0,"updated_at":"2026-05-08T16:50:35.562419+05:30"},{"city":"Bhatinda","state":"Punjab","latitude":30.211,"longitude":74.9455,"temp":36.0,"humidity":26,"rain":0.0,"pressure":982.8,"uv_index":8.1,"wind_gusts":35.3,"aqi":819,"pm10":668.7,"pm2_5":97.3,"no2":3.0,"co":233.0,"o3":197.0,"so2":16.6,"mosquito_risk":0,"arthritis_risk":5,"migraine_risk":10,"frizz_risk":0,"updated_at":"2026-05-08T16:50:35.562433+05:30"},{"city":"Rohtak","state":"Haryana","latitude":28.8955,"longitude":76.6066,"temp":33.0,"humidity":30,"rain":0.0,"pressure":981.4,"uv_index":7.6,"wind_gusts":37.4,"aqi":794,"pm10":797.2,"pm2_5":100.8,"no2":5.5,"co":314.0,"o3":213.0,"so2":19.7,"mosquito_risk":0,"arthritis_risk":5,"migraine_risk":7,"frizz_risk":0,"updated_at":"2026-05-08T16:50:35.562455+05:30"},{"city":"Panipat","state":"Haryana","latitude":29.3909,"longitude":76.9635,"temp":31.0,"humidity":38,"rain":0.0,"pressure":980.8,"uv_index":7.45,"wind_gusts":38.5,"aqi":1442,"pm10":944.4,"pm2_5":99.9,"no2":4.4,"co":258.0,"o3":195.0,"so2":17.0,"mosquito_risk":0,"arthritis_risk":5,"migraine_risk":7,"frizz_risk":0,"updated_at":"2026-05-08T16:50:35.562466+05:30"},{"city":"Mathura","state":"Uttar Pradesh","latitude":27.4924,"longitude":77.6737,"temp":34.2,"humidity":32,"rain":0.0,"pressure":985.0,"uv_index":7.85,"wind_gusts":35.6,"aqi":1160,"pm10":810.3,"pm2_5":87.5,"no2":4.3,"co":276.0,"o3":173.0,"so2":10.3,"mosquito_risk":0,"arthritis_risk":5,"migraine_risk":7,"frizz_risk":0,"updated_at":"2026-05-08T16:50:35.562476+05:30"},{"city":"Vrindavan","state":"Uttar Pradesh","latitude":27.5823,"longitude":77.7027,"temp":34.3,"humidity":30,"rain":0.0,"pressure":985.6,"uv_index":7.85,"wind_gusts":36.0,"aqi":1160,"pm10":810.3,"pm2_5":87.5,"no2":4.3,"co":246.0,"o3":173.0,"so2":10.3,"mosquito_risk":0,"arthritis_risk":5,"migraine_risk":7,"frizz_risk":0,"updated_at":"2026-05-08T16:50:35.562487+05:30"},{"city":"Ayodhya","state":"Uttar Pradesh","latitude":26.7922,"longitude":82.1998,"temp":32.0,"humidity":38,"rain":0.0,"pressure":995.1,"uv_index":8.2,"wind_gusts":28.8,"aqi":146,"pm10":66.6,"pm2_5":25.7,"no2":1.6,"co":295.0,"o3":171.0,"so2":5.7,"mosquito_risk":0,"arthritis_risk":5,"migraine_risk":7,"frizz_risk":0,"updated_at":"2026-05-08T16:50:35.562497+05:30"},{"city":"Ratlam","state":"Madhya Pradesh","latitude":23.3315,"longitude":75.0367,"temp":38.7,"humidity":13,"rain":0.0,"pressure":952.6,"uv_index":8.5,"wind_gusts":26.3,"aqi":109,"pm10":44.8,"pm2_5":14.7,"no2":0.1,"co":157.0,"o3":150.0,"so2":3.3,"mosquito_risk":0,"arthritis_risk":5,"migraine_risk":10,"frizz_risk":0,"updated_at":"2026-05-08T16:50:35.562509+05:30"},{"city":"Sagar","state":"Madhya Pradesh","latitude":23.8388,"longitude":78.7378,"temp":36.2,"humidity":20,"rain":0.0,"pressure":949.0,"uv_index":8.65,"wind_gusts":36.4,"aqi":127,"pm10":80.1,"pm2_5":20.0,"no2":0.3,"co":161.0,"o3":149.0,"so2":3.5,"mosquito_risk":0,"arthritis_risk":5,"migraine_risk":10,"frizz_risk":0,"updated_at":"2026-05-08T16:50:35.562519+05:30"},{"city":"Satna","state":"Madhya Pradesh","latitude":24.6005,"longitude":80.8322,"temp":35.5,"humidity":21,"rain":0.0,"pressure":970.0,"uv_index":8.7,"wind_gusts":42.8,"aqi":149,"pm10":69.2,"pm2_5":17.6,"no2":0.8,"co":175.0,"o3":158.0,"so2":4.4,"mosquito_risk":0,"arthritis_risk":5,"migraine_risk":10,"frizz_risk":0,"updated_at":"2026-05-08T16:50:35.562529+05:30"},{"city":"Akola","state":"Maharashtra","latitude":20.7002,"longitude":77.0082,"temp":39.3,"humidity":18,"rain":0.0,"pressure":972.2,"uv_index":8.85,"wind_gusts":26.3,"aqi":139,"pm10":39.3,"pm2_5":21.8,"no2":1.8,"co":194.0,"o3":175.0,"so2":8.2,"mosquito_risk":0,"arthritis_risk":5,"migraine_risk":10,"frizz_risk":0,"updated_at":"2026-05-08T16:50:35.562540+05:30"},{"city":"Amravati","state":"Maharashtra","latitude":20.9374,"longitude":77.7796,"temp":38.3,"humidity":20,"rain":0.0,"pressure":965.1,"uv_index":8.85,"wind_gusts":27.0,"aqi":150,"pm10":39.8,"pm2_5":22.4,"no2":2.0,"co":193.0,"o3":183.0,"so2":5.3,"mosquito_risk":0,"arthritis_risk":5,"migraine_risk":10,"frizz_risk":0,"updated_at":"2026-05-08T16:50:35.562551+05:30"},{"city":"Latur","state":"Maharashtra","latitude":18.4088,"longitude":76.5604,"temp":36.5,"humidity":23,"rain":0.0,"pressure":937.9,"uv_index":9.05,"wind_gusts":27.0,"aqi":120,"pm10":36.8,"pm2_5":22.8,"no2":1.1,"co":189.0,"o3":162.0,"so2":4.8,"mosquito_risk":0,"arthritis_risk":5,"migraine_risk":10,"frizz_risk":0,"updated_at":"2026-05-08T16:50:35.562562+05:30"},{"city":"Nanded","state":"Maharashtra","latitude":19.1383,"longitude":77.3091,"temp":38.2,"humidity":22,"rain":0.0,"pressure":966.0,"uv_index":8.95,"wind_gusts":25.9,"aqi":121,"pm10":36.8,"pm2_5":22.0,"no2":0.9,"co":204.0,"o3":159.0,"so2":3.2,"mosquito_risk":0,"arthritis_risk":5,"migraine_risk":10,"frizz_risk":0,"updated_at":"2026-05-08T16:50:35.562577+05:30"},{"city":"Gulbarga","state":"Karnataka","latitude":17.3297,"longitude":76.8343,"temp":37.4,"humidity":25,"rain":0.0,"pressure":955.8,"uv_index":9.05,"wind_gusts":32.8,"aqi":66,"pm10":27.5,"pm2_5":18.0,"no2":1.9,"co":198.0,"o3":147.0,"so2":3.2,"mosquito_risk":0,"arthritis_risk":5,"migraine_risk":10,"frizz_risk":0,"updated_at":"2026-05-08T16:50:35.562592+05:30"},{"city":"Bidar","state":"Karnataka","latitude":17.9104,"longitude":77.5199,"temp":34.8,"humidity":31,"rain":0.0,"pressure":934.0,"uv_index":9.1,"wind_gusts":27.4,"aqi":87,"pm10":28.3,"pm2_5":18.6,"no2":1.5,"co":190.0,"o3":150.0,"so2":3.1,"mosquito_risk":0,"arthritis_risk":5,"migraine_risk":7,"frizz_risk":0,"updated_at":"2026-05-08T16:50:35.562609+05:30"},{"city":"Hospet","state":"Karnataka","latitude":15.2689,"longitude":76.3909,"temp":35.0,"humidity":29,"rain":0.0,"pressure":952.4,"uv_index":9.2,"wind_gusts":36.4,"aqi":63,"pm10":16.6,"pm2_5":11.9,"no2":3.3,"co":180.0,"o3":138.0,"so2":5.4,"mosquito_risk":0,"arthritis_risk":5,"migraine_risk":7,"frizz_risk":0,"updated_at":"2026-05-08T16:50:35.562625+05:30"},{"city":"Tirupur","state":"Tamil Nadu","latitude":11.1085,"longitude":77.3411,"temp":33.7,"humidity":47,"rain":0.0,"pressure":970.9,"uv_index":9.05,"wind_gusts":40.7,"aqi":82,"pm10":18.6,"pm2_5":18.0,"no2":3.1,"co":200.0,"o3":142.0,"so2":7.6,"mosquito_risk":0,"arthritis_risk":5,"migraine_risk":7,"frizz_risk":1,"updated_at":"2026-05-08T16:50:35.562641+05:30"},{"city":"Alappuzha","state":"Kerala","latitude":9.4981,"longitude":76.3388,"temp":30.4,"humidity":74,"rain":0.0,"pressure":1004.1,"uv_index":8.95,"wind_gusts":31.3,"aqi":140,"pm10":25.3,"pm2_5":21.1,"no2":6.7,"co":208.0,"o3":168.0,"so2":5.1,"mosquito_risk":3,"arthritis_risk":5,"migraine_risk":4,"frizz_risk":1,"updated_at":"2026-05-08T16:50:35.562657+05:30"},{"city":"Munnar","state":"Kerala","latitude":10.0889,"longitude":77.0595,"temp":20.0,"humidity":90,"rain":0.0,"pressure":854.5,"uv_index":9.45,"wind_gusts":24.5,"aqi":45,"pm10":9.9,"pm2_5":9.4,"no2":3.5,"co":170.0,"o3":86.0,"so2":1.3,"mosquito_risk":3,"arthritis_risk":5,"migraine_risk":7,"frizz_risk":1,"updated_at":"2026-05-08T16:50:35.562673+05:30"},{"city":"Silchar","state":"Assam","latitude":24.8333,"longitude":92.7789,"temp":30.6,"humidity":60,"rain":0.0,"pressure":1003.5,"uv_index":6.75,"wind_gusts":22.7,"aqi":149,"pm10":38.9,"pm2_5":30.0,"no2":4.5,"co":362.0,"o3":148.0,"so2":5.9,"mosquito_risk":0,"arthritis_risk":5,"migraine_risk":4,"frizz_risk":1,"updated_at":"2026-05-08T16:50:35.562685+05:30"},{"city":"Dibrugarh","state":"Assam","latitude":27.4728,"longitude":94.912,"temp":29.2,"humidity":66,"rain":0.0,"pressure":995.1,"uv_index":8.8,"wind_gusts":50.0,"aqi":90,"pm10":18.9,"pm2_5":13.4,"no2":5.4,"co":332.0,"o3":105.0,"so2":1.3,"mosquito_risk":7,"arthritis_risk":5,"migraine_risk":7,"frizz_risk":1,"updated_at":"2026-05-08T16:50:35.562695+05:30"}]