[{"city":"Delhi","state":"Delhi","latitude":28.6139,"longitude":77.209,"temp":29.5,"humidity":74,"rain":0.0,"pressure":972.6,"uv_index":7.65,"wind_gusts":25.9,"aqi":652,"pm10":685.5,"pm2_5":153.7,"no2":17.3,"co":231.0,"o3":53.0,"so2":10.0,"mosquito_risk":7,"arthritis_risk":5,"migraine_risk":7,"frizz_risk":1,"updated_at":"2026-07-13T02:22:58.352147+05:30"},{"city":"Mumbai","state":"Maharashtra","latitude":19.076,"longitude":72.8777,"temp":27.6,"humidity":83,"rain":0.0,"pressure":1005.0,"uv_index":4.35,"wind_gusts":49.7,"aqi":52,"pm10":31.0,"pm2_5":13.6,"no2":4.0,"co":114.0,"o3":46.0,"so2":3.8,"mosquito_risk":7,"arthritis_risk":5,"migraine_risk":0,"frizz_risk":1,"updated_at":"2026-07-13T02:22:58.352185+05:30"},{"city":"Bangalore","state":"Karnataka","latitude":12.9716,"longitude":77.5946,"temp":20.7,"humidity":89,"rain":0.0,"pressure":909.3,"uv_index":8.9,"wind_gusts":48.6,"aqi":46,"pm10":12.0,"pm2_5":7.3,"no2":8.2,"co":166.0,"o3":38.0,"so2":3.8,"mosquito_risk":3,"arthritis_risk":5,"migraine_risk":7,"frizz_risk":1,"updated_at":"2026-07-13T02:22:58.352208+05:30"},{"city":"Hyderabad","state":"Telangana","latitude":17.385,"longitude":78.4867,"temp":26.9,"humidity":63,"rain":0.0,"pressure":948.9,"uv_index":8.95,"wind_gusts":47.5,"aqi":57,"pm10":19.3,"pm2_5":11.9,"no2":6.9,"co":138.0,"o3":44.0,"so2":4.1,"mosquito_risk":7,"arthritis_risk":5,"migraine_risk":7,"frizz_risk":1,"updated_at":"2026-07-13T02:22:58.352217+05:30"},{"city":"Chennai","state":"Tamil Nadu","latitude":13.0827,"longitude":80.2707,"temp":30.1,"humidity":68,"rain":0.0,"pressure":1001.5,"uv_index":7.5,"wind_gusts":40.7,"aqi":72,"pm10":29.6,"pm2_5":19.8,"no2":13.2,"co":194.0,"o3":58.0,"so2":8.1,"mosquito_risk":3,"arthritis_risk":5,"migraine_risk":4,"frizz_risk":1,"updated_at":"2026-07-13T02:22:58.352225+05:30"},{"city":"Kolkata","state":"West Bengal","latitude":22.5726,"longitude":88.3639,"temp":28.2,"humidity":89,"rain":0.0,"pressure":996.4,"uv_index":5.7,"wind_gusts":22.0,"aqi":145,"pm10":63.1,"pm2_5":51.1,"no2":12.1,"co":418.0,"o3":82.0,"so2":11.6,"mosquito_risk":7,"arthritis_risk":5,"migraine_risk":3,"frizz_risk":1,"updated_at":"2026-07-13T02:22:58.352233+05:30"},{"city":"Pune","state":"Maharashtra","latitude":18.5204,"longitude":73.8567,"temp":23.1,"humidity":86,"rain":0.0,"pressure":943.9,"uv_index":8.4,"wind_gusts":53.3,"aqi":34,"pm10":11.0,"pm2_5":5.4,"no2":5.1,"co":103.0,"o3":36.0,"so2":4.7,"mosquito_risk":3,"arthritis_risk":5,"migraine_risk":7,"frizz_risk":1,"updated_at":"2026-07-13T02:22:58.352239+05:30"},{"city":"Ahmedabad","state":"Gujarat","latitude":23.0225,"longitude":72.5714,"temp":28.1,"humidity":76,"rain":0.0,"pressure":995.3,"uv_index":8.15,"wind_gusts":48.6,"aqi":65,"pm10":33.5,"pm2_5":16.6,"no2":4.9,"co":114.0,"o3":41.0,"so2":3.6,"mosquito_risk":7,"arthritis_risk":5,"migraine_risk":7,"frizz_risk":1,"updated_at":"2026-07-13T02:22:58.352245+05:30"},{"city":"Jaipur","state":"Rajasthan","latitude":26.9124,"longitude":75.7873,"temp":28.7,"humidity":67,"rain":0.0,"pressure":951.2,"uv_index":8.2,"wind_gusts":36.7,"aqi":365,"pm10":411.6,"pm2_5":82.0,"no2":10.6,"co":145.0,"o3":51.0,"so2":4.9,"mosquito_risk":7,"arthritis_risk":5,"migraine_risk":7,"frizz_risk":1,"updated_at":"2026-07-13T02:22:58.352251+05:30"},{"city":"Lucknow","state":"Uttar Pradesh","latitude":26.8467,"longitude":80.9462,"temp":29.1,"humidity":72,"rain":0.0,"pressure":983.0,"uv_index":8.2,"wind_gusts":36.4,"aqi":121,"pm10":76.1,"pm2_5":39.5,"no2":11.4,"co":177.0,"o3":63.0,"so2":7.0,"mosquito_risk":7,"arthritis_risk":5,"migraine_risk":7,"frizz_risk":1,"updated_at":"2026-07-13T02:22:58.352262+05:30"},{"city":"Kanpur","state":"Uttar Pradesh","latitude":26.4499,"longitude":80.3319,"temp":29.7,"humidity":70,"rain":0.0,"pressure":981.7,"uv_index":8.2,"wind_gusts":37.8,"aqi":108,"pm10":83.8,"pm2_5":37.3,"no2":12.7,"co":181.0,"o3":57.0,"so2":7.6,"mosquito_risk":7,"arthritis_risk":5,"migraine_risk":7,"frizz_risk":1,"updated_at":"2026-07-13T02:22:58.352268+05:30"},{"city":"Chandigarh","state":"Chandigarh","latitude":30.7333,"longitude":76.7794,"temp":26.4,"humidity":77,"rain":0.0,"pressure":958.0,"uv_index":7.7,"wind_gusts":24.8,"aqi":161,"pm10":177.9,"pm2_5":97.3,"no2":42.5,"co":538.0,"o3":47.0,"so2":18.2,"mosquito_risk":7,"arthritis_risk":5,"migraine_risk":7,"frizz_risk":1,"updated_at":"2026-07-13T02:22:58.352275+05:30"},{"city":"Srinagar","state":"Jammu and Kashmir","latitude":34.0837,"longitude":74.7973,"temp":16.6,"humidity":97,"rain":0.0,"pressure":836.7,"uv_index":8.9,"wind_gusts":22.0,"aqi":52,"pm10":42.8,"pm2_5":41.1,"no2":38.1,"co":449.0,"o3":22.0,"so2":2.7,"mosquito_risk":3,"arthritis_risk":10,"migraine_risk":7,"frizz_risk":0,"updated_at":"2026-07-13T02:22:58.352282+05:30"},{"city":"Jammu","state":"Jammu and Kashmir","latitude":32.7266,"longitude":74.857,"temp":25.7,"humidity":87,"rain":0.0,"pressure":962.6,"uv_index":8.55,"wind_gusts":24.1,"aqi":142,"pm10":102.2,"pm2_5":69.6,"no2":50.9,"co":669.0,"o3":26.0,"so2":7.8,"mosquito_risk":7,"arthritis_risk":5,"migraine_risk":7,"frizz_risk":1,"updated_at":"2026-07-13T02:22:58.352289+05:30"},{"city":"Amritsar","state":"Punjab","latitude":31.634,"longitude":74.8723,"temp":26.3,"humidity":88,"rain":0.0,"pressure":970.3,"uv_index":8.45,"wind_gusts":18.4,"aqi":160,"pm10":159.7,"pm2_5":97.3,"no2":25.2,"co":864.0,"o3":72.0,"so2":6.9,"mosquito_risk":7,"arthritis_risk":5,"migraine_risk":7,"frizz_risk":1,"updated_at":"2026-07-13T02:22:58.352295+05:30"},{"city":"Ludhiana","state":"Punjab","latitude":30.901,"longitude":75.8573,"temp":26.9,"humidity":91,"rain":0.0,"pressure":968.3,"uv_index":7.9,"wind_gusts":23.0,"aqi":171,"pm10":194.2,"pm2_5":114.3,"no2":55.6,"co":375.0,"o3":17.0,"so2":9.7,"mosquito_risk":7,"arthritis_risk":5,"migraine_risk":7,"frizz_risk":1,"updated_at":"2026-07-13T02:22:58.352301+05:30"},{"city":"Jalandhar","state":"Punjab","latitude":31.326,"longitude":75.5762,"temp":26.4,"humidity":87,"rain":0.0,"pressure":969.2,"uv_index":8.15,"wind_gusts":20.9,"aqi":162,"pm10":198.8,"pm2_5":126.2,"no2":73.4,"co":404.0,"o3":3.0,"so2":9.4,"mosquito_risk":7,"arthritis_risk":5,"migraine_risk":7,"frizz_risk":1,"updated_at":"2026-07-13T02:22:58.352307+05:30"},{"city":"Dehradun","state":"Uttarakhand","latitude":30.6284,"longitude":78.0322,"temp":17.6,"humidity":100,"rain":0.0,"pressure":822.4,"uv_index":8.15,"wind_gusts":28.8,"aqi":84,"pm10":94.1,"pm2_5":48.9,"no2":26.4,"co":249.0,"o3":57.0,"so2":4.7,"mosquito_risk":3,"arthritis_risk":10,"migraine_risk":7,"frizz_risk":1,"updated_at":"2026-07-13T02:22:58.352314+05:30"},{"city":"Shimla","state":"Himachal Pradesh","latitude":31.1048,"longitude":77.1734,"temp":17.2,"humidity":63,"rain":0.0,"pressure":778.5,"uv_index":8.25,"wind_gusts":35.6,"aqi":101,"pm10":87.8,"pm2_5":53.9,"no2":15.1,"co":240.0,"o3":73.0,"so2":4.0,"mosquito_risk":3,"arthritis_risk":5,"migraine_risk":7,"frizz_risk":0,"updated_at":"2026-07-13T02:22:58.352320+05:30"},{"city":"Manali","state":"Himachal Pradesh","latitude":32.2396,"longitude":77.1887,"temp":17.4,"humidity":84,"rain":0.0,"pressure":812.5,"uv_index":9.35,"wind_gusts":32.4,"aqi":80,"pm10":5.5,"pm2_5":5.2,"no2":10.1,"co":260.0,"o3":119.0,"so2":0.0,"mosquito_risk":3,"arthritis_risk":10,"migraine_risk":7,"frizz_risk":0,"updated_at":"2026-07-13T02:22:58.352329+05:30"},{"city":"Gurgaon","state":"Haryana","latitude":28.4595,"longitude":77.0266,"temp":29.8,"humidity":67,"rain":0.0,"pressure":971.0,"uv_index":7.6,"wind_gusts":30.2,"aqi":849,"pm10":886.6,"pm2_5":187.2,"no2":15.5,"co":224.0,"o3":53.0,"so2":7.2,"mosquito_risk":7,"arthritis_risk":5,"migraine_risk":7,"frizz_risk":1,"updated_at":"2026-07-13T02:22:58.352335+05:30"},{"city":"Noida","state":"Uttar Pradesh","latitude":28.5355,"longitude":77.391,"temp":29.9,"humidity":73,"rain":0.0,"pressure":974.0,"uv_index":7.65,"wind_gusts":24.8,"aqi":849,"pm10":886.6,"pm2_5":187.2,"no2":15.5,"co":230.0,"o3":53.0,"so2":7.2,"mosquito_risk":7,"arthritis_risk":5,"migraine_risk":7,"frizz_risk":1,"updated_at":"2026-07-13T02:22:58.352343+05:30"},{"city":"Ghaziabad","state":"Uttar Pradesh","latitude":28.6692,"longitude":77.4538,"temp":29.4,"humidity":81,"rain":0.0,"pressure":972.3,"uv_index":7.6,"wind_gusts":26.6,"aqi":523,"pm10":423.8,"pm2_5":126.2,"no2":25.2,"co":299.0,"o3":44.0,"so2":14.8,"mosquito_risk":7,"arthritis_risk":5,"migraine_risk":7,"frizz_risk":1,"updated_at":"2026-07-13T02:22:58.352349+05:30"},{"city":"Faridabad","state":"Haryana","latitude":28.4089,"longitude":77.3178,"temp":30.0,"humidity":70,"rain":0.0,"pressure":973.4,"uv_index":7.65,"wind_gusts":27.7,"aqi":849,"pm10":886.6,"pm2_5":187.2,"no2":15.5,"co":221.0,"o3":53.0,"so2":7.2,"mosquito_risk":7,"arthritis_risk":5,"migraine_risk":7,"frizz_risk":1,"updated_at":"2026-07-13T02:22:58.352355+05:30"},{"city":"Meerut","state":"Uttar Pradesh","latitude":28.9845,"longitude":77.7064,"temp":28.5,"humidity":83,"rain":0.0,"pressure":971.1,"uv_index":7.25,"wind_gusts":28.1,"aqi":523,"pm10":423.8,"pm2_5":126.2,"no2":25.2,"co":476.0,"o3":44.0,"so2":14.8,"mosquito_risk":7,"arthritis_risk":5,"migraine_risk":7,"frizz_risk":1,"updated_at":"2026-07-13T02:22:58.352361+05:30"},{"city":"Agra","state":"Uttar Pradesh","latitude":27.1767,"longitude":78.0081,"temp":30.0,"humidity":67,"rain":0.0,"pressure":977.9,"uv_index":8.0,"wind_gusts":38.9,"aqi":137,"pm10":140.2,"pm2_5":40.9,"no2":16.2,"co":215.0,"o3":48.0,"so2":5.5,"mosquito_risk":7,"arthritis_risk":5,"migraine_risk":7,"frizz_risk":1,"updated_at":"2026-07-13T02:22:58.352367+05:30"},{"city":"Varanasi","state":"Uttar Pradesh","latitude":25.3176,"longitude":82.9739,"temp":29.4,"humidity":73,"rain":0.0,"pressure":987.6,"uv_index":8.7,"wind_gusts":36.0,"aqi":93,"pm10":42.8,"pm2_5":29.0,"no2":12.7,"co":195.0,"o3":55.0,"so2":7.4,"mosquito_risk":7,"arthritis_risk":5,"migraine_risk":7,"frizz_risk":1,"updated_at":"2026-07-13T02:22:58.352373+05:30"},{"city":"Prayagraj","state":"Uttar Pradesh","latitude":25.4358,"longitude":81.8463,"temp":29.5,"humidity":67,"rain":0.0,"pressure":986.3,"uv_index":8.55,"wind_gusts":40.7,"aqi":90,"pm10":44.6,"pm2_5":28.1,"no2":9.5,"co":165.0,"o3":63.0,"so2":5.9,"mosquito_risk":7,"arthritis_risk":5,"migraine_risk":7,"frizz_risk":1,"updated_at":"2026-07-13T02:22:58.352380+05:30"},{"city":"Gorakhpur","state":"Uttar Pradesh","latitude":26.7606,"longitude":83.3732,"temp":26.7,"humidity":95,"rain":0.1,"pressure":986.8,"uv_index":8.45,"wind_gusts":28.8,"aqi":131,"pm10":89.4,"pm2_5":53.2,"no2":22.2,"co":256.0,"o3":57.0,"so2":5.4,"mosquito_risk":10,"arthritis_risk":5,"migraine_risk":7,"frizz_risk":1,"updated_at":"2026-07-13T02:22:58.352386+05:30"},{"city":"Bareilly","state":"Uttar Pradesh","latitude":28.367,"longitude":79.4304,"temp":29.2,"humidity":82,"rain":0.0,"pressure":976.4,"uv_index":8.0,"wind_gusts":29.2,"aqi":173,"pm10":231.4,"pm2_5":83.6,"no2":17.2,"co":298.0,"o3":52.0,"so2":6.4,"mosquito_risk":7,"arthritis_risk":5,"migraine_risk":7,"frizz_risk":1,"updated_at":"2026-07-13T02:22:58.352394+05:30"},{"city":"Aligarh","state":"Uttar Pradesh","latitude":27.8974,"longitude":78.088,"temp":30.7,"humidity":66,"rain":0.0,"pressure":975.3,"uv_index":7.85,"wind_gusts":32.8,"aqi":622,"pm10":691.0,"pm2_5":160.7,"no2":12.4,"co":201.0,"o3":59.0,"so2":4.9,"mosquito_risk":3,"arthritis_risk":5,"migraine_risk":7,"frizz_risk":1,"updated_at":"2026-07-13T02:22:58.352401+05:30"},{"city":"Moradabad","state":"Uttar Pradesh","latitude":28.8386,"longitude":78.7733,"temp":27.7,"humidity":90,"rain":0.1,"pressure":973.3,"uv_index":7.85,"wind_gusts":38.2,"aqi":315,"pm10":502.9,"pm2_5":149.9,"no2":31.0,"co":392.0,"o3":38.0,"so2":12.1,"mosquito_risk":10,"arthritis_risk":5,"migraine_risk":7,"frizz_risk":1,"updated_at":"2026-07-13T02:22:58.352407+05:30"},{"city":"Saharanpur","state":"Uttar Pradesh","latitude":29.9637,"longitude":77.546,"temp":26.4,"humidity":79,"rain":0.0,"pressure":965.4,"uv_index":7.35,"wind_gusts":28.1,"aqi":177,"pm10":184.4,"pm2_5":130.4,"no2":58.4,"co":353.0,"o3":19.0,"so2":18.8,"mosquito_risk":7,"arthritis_risk":5,"migraine_risk":7,"frizz_risk":1,"updated_at":"2026-07-13T02:22:58.352413+05:30"},{"city":"Jhansi","state":"Uttar Pradesh","latitude":25.4484,"longitude":78.5685,"temp":29.5,"humidity":65,"rain":0.0,"pressure":969.5,"uv_index":8.45,"wind_gusts":43.6,"aqi":84,"pm10":46.9,"pm2_5":27.0,"no2":7.3,"co":142.0,"o3":71.0,"so2":9.2,"mosquito_risk":7,"arthritis_risk":5,"migraine_risk":7,"frizz_risk":1,"updated_at":"2026-07-13T02:23:01.638681+05:30"},{"city":"Surat","state":"Gujarat","latitude":21.1702,"longitude":72.8311,"temp":28.3,"humidity":82,"rain":0.0,"pressure":1001.3,"uv_index":7.05,"wind_gusts":61.2,"aqi":59,"pm10":27.3,"pm2_5":15.3,"no2":11.6,"co":179.0,"o3":37.0,"so2":20.4,"mosquito_risk":7,"arthritis_risk":5,"migraine_risk":4,"frizz_risk":1,"updated_at":"2026-07-13T02:23:01.638713+05:30"},{"city":"Vadodara","state":"Gujarat","latitude":22.3072,"longitude":73.1812,"temp":27.7,"humidity":82,"rain":0.0,"pressure":998.1,"uv_index":7.9,"wind_gusts":56.5,"aqi":59,"pm10":31.2,"pm2_5":16.2,"no2":5.9,"co":101.0,"o3":41.0,"so2":5.6,"mosquito_risk":7,"arthritis_risk":5,"migraine_risk":7,"frizz_risk":1,"updated_at":"2026-07-13T02:23:01.638723+05:30"},{"city":"Rajkot","state":"Gujarat","latitude":22.3039,"longitude":70.8022,"temp":26.9,"humidity":83,"rain":0.0,"pressure":987.5,"uv_index":7.7,"wind_gusts":56.9,"aqi":58,"pm10":26.4,"pm2_5":12.6,"no2":2.8,"co":91.0,"o3":44.0,"so2":2.4,"mosquito_risk":7,"arthritis_risk":5,"migraine_risk":7,"frizz_risk":1,"updated_at":"2026-07-13T02:23:01.638732+05:30"},{"city":"Thane","state":"Maharashtra","latitude":19.2183,"longitude":72.9781,"temp":27.0,"humidity":86,"rain":0.0,"pressure":1004.3,"uv_index":5.1,"wind_gusts":45.4,"aqi":52,"pm10":31.0,"pm2_5":13.6,"no2":4.0,"co":131.0,"o3":46.0,"so2":3.8,"mosquito_risk":7,"arthritis_risk":5,"migraine_risk":0,"frizz_risk":1,"updated_at":"2026-07-13T02:23:01.638740+05:30"},{"city":"Nagpur","state":"Maharashtra","latitude":21.1458,"longitude":79.0882,"temp":27.4,"humidity":77,"rain":0.0,"pressure":967.1,"uv_index":8.7,"wind_gusts":41.4,"aqi":72,"pm10":41.2,"pm2_5":24.4,"no2":11.4,"co":232.0,"o3":46.0,"so2":8.1,"mosquito_risk":7,"arthritis_risk":5,"migraine_risk":7,"frizz_risk":1,"updated_at":"2026-07-13T02:23:01.638747+05:30"},{"city":"Nashik","state":"Maharashtra","latitude":19.9975,"longitude":73.7898,"temp":23.1,"humidity":93,"rain":0.0,"pressure":940.8,"uv_index":8.1,"wind_gusts":57.2,"aqi":37,"pm10":11.1,"pm2_5":6.5,"no2":7.4,"co":114.0,"o3":33.0,"so2":5.9,"mosquito_risk":3,"arthritis_risk":5,"migraine_risk":7,"frizz_risk":1,"updated_at":"2026-07-13T02:23:01.638755+05:30"},{"city":"Aurangabad","state":"Maharashtra","latitude":19.8762,"longitude":75.3433,"temp":23.4,"humidity":88,"rain":0.0,"pressure":939.3,"uv_index":8.95,"wind_gusts":50.0,"aqi":53,"pm10":21.5,"pm2_5":10.2,"no2":8.9,"co":122.0,"o3":34.0,"so2":9.7,"mosquito_risk":3,"arthritis_risk":5,"migraine_risk":7,"frizz_risk":1,"updated_at":"2026-07-13T02:23:01.638762+05:30"},{"city":"Solapur","state":"Maharashtra","latitude":17.6599,"longitude":75.9064,"temp":24.4,"humidity":82,"rain":0.0,"pressure":953.8,"uv_index":8.9,"wind_gusts":44.6,"aqi":45,"pm10":17.2,"pm2_5":9.3,"no2":5.2,"co":120.0,"o3":34.0,"so2":2.4,"mosquito_risk":3,"arthritis_risk":5,"migraine_risk":7,"frizz_risk":1,"updated_at":"2026-07-13T02:23:01.638770+05:30"},{"city":"Kolhapur","state":"Maharashtra","latitude":16.705,"longitude":74.2433,"temp":22.9,"humidity":93,"rain":0.0,"pressure":945.2,"uv_index":8.9,"wind_gusts":50.4,"aqi":32,"pm10":12.1,"pm2_5":6.6,"no2":3.7,"co":109.0,"o3":37.0,"so2":2.2,"mosquito_risk":3,"arthritis_risk":5,"migraine_risk":7,"frizz_risk":1,"updated_at":"2026-07-13T02:23:01.638777+05:30"},{"city":"Goa","state":"Goa","latitude":15.2993,"longitude":74.124,"temp":25.6,"humidity":96,"rain":0.0,"pressure":996.6,"uv_index":6.1,"wind_gusts":39.6,"aqi":54,"pm10":31.0,"pm2_5":17.9,"no2":4.3,"co":270.0,"o3":37.0,"so2":1.4,"mosquito_risk":7,"arthritis_risk":5,"migraine_risk":7,"frizz_risk":1,"updated_at":"2026-07-13T02:23:01.638785+05:30"},{"city":"Jodhpur","state":"Rajasthan","latitude":26.2389,"longitude":73.0243,"temp":29.2,"humidity":68,"rain":0.0,"pressure":974.0,"uv_index":8.45,"wind_gusts":47.2,"aqi":162,"pm10":304.5,"pm2_5":65.2,"no2":2.6,"co":99.0,"o3":56.0,"so2":2.5,"mosquito_risk":7,"arthritis_risk":5,"migraine_risk":7,"frizz_risk":1,"updated_at":"2026-07-13T02:23:01.638793+05:30"},{"city":"Udaipur","state":"Rajasthan","latitude":24.5854,"longitude":73.7125,"temp":25.1,"humidity":83,"rain":0.0,"pressure":938.7,"uv_index":8.45,"wind_gusts":48.6,"aqi":71,"pm10":34.9,"pm2_5":18.4,"no2":4.7,"co":118.0,"o3":49.0,"so2":4.9,"mosquito_risk":7,"arthritis_risk":5,"migraine_risk":7,"frizz_risk":1,"updated_at":"2026-07-13T02:23:01.638801+05:30"},{"city":"Kota","state":"Rajasthan","latitude":25.2138,"longitude":75.8648,"temp":28.5,"humidity":76,"rain":0.0,"pressure":970.7,"uv_index":8.3,"wind_gusts":42.8,"aqi":82,"pm10":36.8,"pm2_5":23.1,"no2":6.6,"co":135.0,"o3":63.0,"so2":7.4,"mosquito_risk":7,"arthritis_risk":5,"migraine_risk":7,"frizz_risk":1,"updated_at":"2026-07-13T02:23:01.638808+05:30"},{"city":"Bikaner","state":"Rajasthan","latitude":28.0229,"longitude":73.3119,"temp":31.5,"humidity":56,"rain":0.0,"pressure":971.3,"uv_index":8.45,"wind_gusts":36.7,"aqi":159,"pm10":269.2,"pm2_5":82.2,"no2":2.4,"co":111.0,"o3":56.0,"so2":3.1,"mosquito_risk":0,"arthritis_risk":5,"migraine_risk":7,"frizz_risk":1,"updated_at":"2026-07-13T02:23:01.638815+05:30"},{"city":"Ajmer","state":"Rajasthan","latitude":26.4499,"longitude":74.6399,"temp":27.6,"humidity":67,"rain":0.0,"pressure":946.4,"uv_index":8.35,"wind_gusts":52.6,"aqi":80,"pm10":39.2,"pm2_5":22.6,"no2":4.9,"co":110.0,"o3":63.0,"so2":3.9,"mosquito_risk":7,"arthritis_risk":5,"migraine_risk":7,"frizz_risk":1,"updated_at":"2026-07-13T02:23:01.638822+05:30"},{"city":"Gwalior","state":"Madhya Pradesh","latitude":26.2183,"longitude":78.1828,"temp":29.1,"humidity":69,"rain":0.0,"pressure":974.3,"uv_index":8.2,"wind_gusts":43.2,"aqi":83,"pm10":42.4,"pm2_5":25.7,"no2":7.6,"co":144.0,"o3":67.0,"so2":7.3,"mosquito_risk":7,"arthritis_risk":5,"migraine_risk":7,"frizz_risk":1,"updated_at":"2026-07-13T02:23:01.638829+05:30"},{"city":"Indore","state":"Madhya Pradesh","latitude":22.7196,"longitude":75.8577,"temp":24.5,"humidity":88,"rain":0.0,"pressure":942.5,"uv_index":8.6,"wind_gusts":55.4,"aqi":66,"pm10":26.5,"pm2_5":13.3,"no2":6.1,"co":142.0,"o3":42.0,"so2":6.9,"mosquito_risk":3,"arthritis_risk":5,"migraine_risk":7,"frizz_risk":1,"updated_at":"2026-07-13T02:23:01.638836+05:30"},{"city":"Bhopal","state":"Madhya Pradesh","latitude":23.2599,"longitude":77.4126,"temp":25.8,"humidity":83,"rain":0.0,"pressure":947.5,"uv_index":7.9,"wind_gusts":44.3,"aqi":72,"pm10":36.6,"pm2_5":22.5,"no2":5.5,"co":166.0,"o3":60.0,"so2":6.1,"mosquito_risk":7,"arthritis_risk":5,"migraine_risk":7,"frizz_risk":1,"updated_at":"2026-07-13T02:23:01.638844+05:30"},{"city":"Jabalpur","state":"Madhya Pradesh","latitude":23.1815,"longitude":79.9864,"temp":26.3,"humidity":81,"rain":0.0,"pressure":954.6,"uv_index":6.7,"wind_gusts":36.4,"aqi":72,"pm10":44.1,"pm2_5":25.0,"no2":5.8,"co":223.0,"o3":64.0,"so2":4.8,"mosquito_risk":7,"arthritis_risk":5,"migraine_risk":7,"frizz_risk":1,"updated_at":"2026-07-13T02:23:01.638851+05:30"},{"city":"Ujjain","state":"Madhya Pradesh","latitude":23.1765,"longitude":75.7885,"temp":25.4,"humidity":86,"rain":0.0,"pressure":947.9,"uv_index":7.95,"wind_gusts":52.9,"aqi":66,"pm10":26.1,"pm2_5":13.3,"no2":6.4,"co":146.0,"o3":40.0,"so2":7.9,"mosquito_risk":7,"arthritis_risk":5,"migraine_risk":7,"frizz_risk":1,"updated_at":"2026-07-13T02:23:01.638858+05:30"},{"city":"Visakhapatnam","state":"Andhra Pradesh","latitude":17.6868,"longitude":83.2185,"temp":29.3,"humidity":64,"rain":0.0,"pressure":995.8,"uv_index":8.2,"wind_gusts":31.7,"aqi":93,"pm10":42.6,"pm2_5":26.8,"no2":20.3,"co":277.0,"o3":45.0,"so2":32.7,"mosquito_risk":7,"arthritis_risk":5,"migraine_risk":7,"frizz_risk":1,"updated_at":"2026-07-13T02:23:01.638865+05:30"},{"city":"Vijayawada","state":"Andhra Pradesh","latitude":16.5062,"longitude":80.648,"temp":30.9,"humidity":57,"rain":0.0,"pressure":996.0,"uv_index":8.7,"wind_gusts":49.7,"aqi":80,"pm10":46.2,"pm2_5":33.3,"no2":18.1,"co":419.0,"o3":39.0,"so2":5.3,"mosquito_risk":0,"arthritis_risk":5,"migraine_risk":7,"frizz_risk":1,"updated_at":"2026-07-13T02:23:01.638872+05:30"},{"city":"Guntur","state":"Andhra Pradesh","latitude":16.3067,"longitude":80.4365,"temp":32.0,"humidity":48,"rain":0.0,"pressure":997.3,"uv_index":8.25,"wind_gusts":47.9,"aqi":75,"pm10":40.6,"pm2_5":28.5,"no2":17.6,"co":338.0,"o3":37.0,"so2":5.5,"mosquito_risk":0,"arthritis_risk":5,"migraine_risk":7,"frizz_risk":1,"updated_at":"2026-07-13T02:23:01.638879+05:30"},{"city":"Nellore","state":"Andhra Pradesh","latitude":14.4426,"longitude":79.9865,"temp":29.0,"humidity":80,"rain":0.0,"pressure":1000.3,"uv_index":8.7,"wind_gusts":49.7,"aqi":67,"pm10":36.6,"pm2_5":25.3,"no2":13.4,"co":220.0,"o3":53.0,"so2":7.9,"mosquito_risk":7,"arthritis_risk":5,"migraine_risk":4,"frizz_risk":1,"updated_at":"2026-07-13T02:23:01.638886+05:30"},{"city":"Kurnool","state":"Andhra Pradesh","latitude":15.8281,"longitude":78.0373,"temp":28.0,"humidity":63,"rain":0.0,"pressure":973.2,"uv_index":8.9,"wind_gusts":49.3,"aqi":53,"pm10":16.7,"pm2_5":9.3,"no2":5.7,"co":126.0,"o3":42.0,"so2":3.4,"mosquito_risk":7,"arthritis_risk":5,"migraine_risk":7,"frizz_risk":1,"updated_at":"2026-07-13T02:23:01.638894+05:30"},{"city":"Kakinada","state":"Andhra Pradesh","latitude":16.9891,"longitude":82.2475,"temp":29.1,"humidity":69,"rain":0.0,"pressure":1000.2,"uv_index":6.45,"wind_gusts":44.6,"aqi":83,"pm10":44.9,"pm2_5":28.4,"no2":8.7,"co":294.0,"o3":66.0,"so2":4.7,"mosquito_risk":7,"arthritis_risk":5,"migraine_risk":4,"frizz_risk":1,"updated_at":"2026-07-13T02:23:01.638901+05:30"},{"city":"Tirupati","state":"Andhra Pradesh","latitude":13.6288,"longitude":79.4192,"temp":28.1,"humidity":67,"rain":0.0,"pressure":985.9,"uv_index":8.3,"wind_gusts":39.6,"aqi":77,"pm10":35.2,"pm2_5":22.4,"no2":19.7,"co":137.0,"o3":32.0,"so2":3.5,"mosquito_risk":7,"arthritis_risk":5,"migraine_risk":7,"frizz_risk":1,"updated_at":"2026-07-13T02:23:01.638908+05:30"},{"city":"Warangal","state":"Telangana","latitude":17.9689,"longitude":79.5941,"temp":28.2,"humidity":71,"rain":0.0,"pressure":972.9,"uv_index":8.75,"wind_gusts":45.0,"aqi":73,"pm10":39.9,"pm2_5":28.5,"no2":16.2,"co":237.0,"o3":31.0,"so2":4.2,"mosquito_risk":7,"arthritis_risk":5,"migraine_risk":7,"frizz_risk":1,"updated_at":"2026-07-13T02:23:01.638914+05:30"},{"city":"Nizamabad","state":"Telangana","latitude":18.6725,"longitude":78.0941,"temp":27.1,"humidity":66,"rain":0.0,"pressure":960.0,"uv_index":8.8,"wind_gusts":46.1,"aqi":62,"pm10":27.1,"pm2_5":16.1,"no2":7.4,"co":127.0,"o3":47.0,"so2":6.6,"mosquito_risk":7,"arthritis_risk":5,"migraine_risk":7,"frizz_risk":1,"updated_at":"2026-07-13T02:23:01.638922+05:30"},{"city":"Mysore","state":"Karnataka","latitude":12.2958,"longitude":76.6396,"temp":21.8,"humidity":89,"rain":0.0,"pressure":927.0,"uv_index":9.0,"wind_gusts":44.6,"aqi":40,"pm10":11.5,"pm2_5":6.9,"no2":7.2,"co":118.0,"o3":32.0,"so2":2.3,"mosquito_risk":3,"arthritis_risk":5,"migraine_risk":7,"frizz_risk":1,"updated_at":"2026-07-13T02:23:01.638929+05:30"},{"city":"Mangalore","state":"Karnataka","latitude":12.9141,"longitude":74.856,"temp":25.6,"humidity":95,"rain":0.0,"pressure":1006.3,"uv_index":8.7,"wind_gusts":47.2,"aqi":42,"pm10":21.3,"pm2_5":11.1,"no2":4.2,"co":116.0,"o3":35.0,"so2":2.1,"mosquito_risk":7,"arthritis_risk":5,"migraine_risk":4,"frizz_risk":1,"updated_at":"2026-07-13T02:23:01.638936+05:30"},{"city":"Hubli-Dharwad","state":"Karnataka","latitude":15.3647,"longitude":75.124,"temp":22.3,"humidity":94,"rain":0.0,"pressure":938.6,"uv_index":8.95,"wind_gusts":50.8,"aqi":29,"pm10":9.9,"pm2_5":5.2,"no2":3.2,"co":103.0,"o3":38.0,"so2":1.6,"mosquito_risk":3,"arthritis_risk":5,"migraine_risk":7,"frizz_risk":1,"updated_at":"2026-07-13T02:23:01.638943+05:30"},{"city":"Belgaum","state":"Karnataka","latitude":15.8497,"longitude":74.4977,"temp":21.0,"humidity":97,"rain":0.0,"pressure":923.1,"uv_index":9.0,"wind_gusts":50.8,"aqi":29,"pm10":10.6,"pm2_5":5.5,"no2":3.4,"co":105.0,"o3":37.0,"so2":1.5,"mosquito_risk":3,"arthritis_risk":5,"migraine_risk":7,"frizz_risk":1,"updated_at":"2026-07-13T02:23:04.932496+05:30"},{"city":"Coimbatore","state":"Tamil Nadu","latitude":11.0168,"longitude":76.9558,"temp":23.2,"humidity":96,"rain":0.0,"pressure":959.7,"uv_index":8.45,"wind_gusts":54.4,"aqi":39,"pm10":10.9,"pm2_5":7.8,"no2":8.1,"co":153.0,"o3":25.0,"so2":3.0,"mosquito_risk":3,"arthritis_risk":5,"migraine_risk":7,"frizz_risk":1,"updated_at":"2026-07-13T02:23:04.932525+05:30"},{"city":"Madurai","state":"Tamil Nadu","latitude":9.9252,"longitude":78.1198,"temp":27.8,"humidity":63,"rain":0.0,"pressure":990.0,"uv_index":8.65,"wind_gusts":43.2,"aqi":59,"pm10":12.4,"pm2_5":10.5,"no2":13.3,"co":117.0,"o3":23.0,"so2":4.2,"mosquito_risk":7,"arthritis_risk":5,"migraine_risk":7,"frizz_risk":1,"updated_at":"2026-07-13T02:23:04.932536+05:30"},{"city":"Trichy","state":"Tamil Nadu","latitude":10.7905,"longitude":78.7047,"temp":27.9,"humidity":64,"rain":0.0,"pressure":996.4,"uv_index":8.25,"wind_gusts":52.6,"aqi":51,"pm10":12.6,"pm2_5":6.7,"no2":4.1,"co":102.0,"o3":41.0,"so2":2.5,"mosquito_risk":7,"arthritis_risk":5,"migraine_risk":7,"frizz_risk":1,"updated_at":"2026-07-13T02:23:04.932544+05:30"},{"city":"Salem","state":"Tamil Nadu","latitude":11.6643,"longitude":78.146,"temp":24.7,"humidity":87,"rain":0.0,"pressure":975.0,"uv_index":8.75,"wind_gusts":34.6,"aqi":60,"pm10":18.3,"pm2_5":11.8,"no2":12.4,"co":192.0,"o3":29.0,"so2":5.5,"mosquito_risk":3,"arthritis_risk":5,"migraine_risk":7,"frizz_risk":1,"updated_at":"2026-07-13T02:23:04.932553+05:30"},{"city":"Tirunelveli","state":"Tamil Nadu","latitude":8.7139,"longitude":77.7567,"temp":28.3,"humidity":65,"rain":0.0,"pressure":1000.3,"uv_index":8.2,"wind_gusts":50.8,"aqi":30,"pm10":9.2,"pm2_5":6.0,"no2":4.7,"co":122.0,"o3":36.0,"so2":2.2,"mosquito_risk":7,"arthritis_risk":5,"migraine_risk":4,"frizz_risk":1,"updated_at":"2026-07-13T02:23:04.932561+05:30"},{"city":"Vellore","state":"Tamil Nadu","latitude":12.9165,"longitude":79.1325,"temp":29.5,"humidity":52,"rain":0.0,"pressure":979.9,"uv_index":8.05,"wind_gusts":47.2,"aqi":61,"pm10":18.3,"pm2_5":11.5,"no2":6.7,"co":134.0,"o3":48.0,"so2":3.6,"mosquito_risk":4,"arthritis_risk":5,"migraine_risk":7,"frizz_risk":1,"updated_at":"2026-07-13T02:23:04.932568+05:30"},{"city":"Erode","state":"Tamil Nadu","latitude":11.341,"longitude":77.7172,"temp":25.8,"humidity":79,"rain":0.0,"pressure":986.9,"uv_index":8.45,"wind_gusts":52.6,"aqi":52,"pm10":20.0,"pm2_5":13.7,"no2":14.4,"co":157.0,"o3":27.0,"so2":3.8,"mosquito_risk":7,"arthritis_risk":5,"migraine_risk":7,"frizz_risk":1,"updated_at":"2026-07-13T02:23:04.932576+05:30"},{"city":"Kochi","state":"Kerala","latitude":9.9312,"longitude":76.2673,"temp":26.9,"humidity":86,"rain":0.0,"pressure":1008.6,"uv_index":8.1,"wind_gusts":46.1,"aqi":45,"pm10":15.1,"pm2_5":10.9,"no2":9.5,"co":95.0,"o3":22.0,"so2":3.2,"mosquito_risk":7,"arthritis_risk":0,"migraine_risk":4,"frizz_risk":1,"updated_at":"2026-07-13T02:23:04.932584+05:30"},{"city":"Thiruvananthapuram","state":"Kerala","latitude":8.5241,"longitude":76.9366,"temp":24.9,"humidity":93,"rain":0.0,"pressure":1007.6,"uv_index":8.0,"wind_gusts":51.5,"aqi":35,"pm10":14.7,"pm2_5":8.1,"no2":3.1,"co":129.0,"o3":42.0,"so2":1.4,"mosquito_risk":3,"arthritis_risk":5,"migraine_risk":4,"frizz_risk":1,"updated_at":"2026-07-13T02:23:04.932591+05:30"},{"city":"Kozhikode","state":"Kerala","latitude":11.2588,"longitude":75.7804,"temp":24.8,"humidity":97,"rain":0.0,"pressure":1007.7,"uv_index":8.35,"wind_gusts":45.4,"aqi":35,"pm10":20.4,"pm2_5":9.6,"no2":1.9,"co":135.0,"o3":45.0,"so2":1.2,"mosquito_risk":3,"arthritis_risk":5,"migraine_risk":4,"frizz_risk":1,"updated_at":"2026-07-13T02:23:04.932598+05:30"},{"city":"Thrissur","state":"Kerala","latitude":10.5276,"longitude":76.2144,"temp":25.8,"humidity":90,"rain":0.0,"pressure":1006.9,"uv_index":7.8,"wind_gusts":46.4,"aqi":42,"pm10":18.3,"pm2_5":12.0,"no2":7.5,"co":145.0,"o3":28.0,"so2":3.0,"mosquito_risk":7,"arthritis_risk":5,"migraine_risk":4,"frizz_risk":1,"updated_at":"2026-07-13T02:23:04.932606+05:30"},{"city":"Kannur","state":"Kerala","latitude":11.8745,"longitude":75.3704,"temp":25.6,"humidity":96,"rain":0.0,"pressure":1006.9,"uv_index":8.75,"wind_gusts":46.4,"aqi":39,"pm10":18.2,"pm2_5":9.0,"no2":4.3,"co":138.0,"o3":34.0,"so2":1.9,"mosquito_risk":7,"arthritis_risk":5,"migraine_risk":4,"frizz_risk":1,"updated_at":"2026-07-13T02:23:04.932614+05:30"},{"city":"Patna","state":"Bihar","latitude":25.5941,"longitude":85.1376,"temp":27.2,"humidity":93,"rain":0.2,"pressure":990.7,"uv_index":8.0,"wind_gusts":21.2,"aqi":143,"pm10":87.1,"pm2_5":60.1,"no2":24.2,"co":227.0,"o3":45.0,"so2":7.8,"mosquito_risk":10,"arthritis_risk":5,"migraine_risk":7,"frizz_risk":1,"updated_at":"2026-07-13T02:23:04.932621+05:30"},{"city":"Gaya","state":"Bihar","latitude":24.7914,"longitude":85.0002,"temp":27.8,"humidity":79,"rain":0.0,"pressure":984.3,"uv_index":4.85,"wind_gusts":28.1,"aqi":121,"pm10":75.2,"pm2_5":51.2,"no2":19.1,"co":309.0,"o3":42.0,"so2":7.5,"mosquito_risk":7,"arthritis_risk":5,"migraine_risk":3,"frizz_risk":1,"updated_at":"2026-07-13T02:23:04.932628+05:30"},{"city":"Muzaffarpur","state":"Bihar","latitude":26.1209,"longitude":85.3647,"temp":27.2,"humidity":98,"rain":0.1,"pressure":990.5,"uv_index":8.2,"wind_gusts":26.3,"aqi":146,"pm10":85.9,"pm2_5":57.6,"no2":17.9,"co":473.0,"o3":66.0,"so2":6.3,"mosquito_risk":10,"arthritis_risk":5,"migraine_risk":7,"frizz_risk":1,"updated_at":"2026-07-13T02:23:04.932635+05:30"},{"city":"Bhagalpur","state":"Bihar","latitude":25.2425,"longitude":87.0117,"temp":28.5,"humidity":91,"rain":0.0,"pressure":991.2,"uv_index":3.8,"wind_gusts":25.6,"aqi":131,"pm10":78.9,"pm2_5":55.9,"no2":23.1,"co":429.0,"o3":45.0,"so2":9.7,"mosquito_risk":7,"arthritis_risk":5,"migraine_risk":3,"frizz_risk":1,"updated_at":"2026-07-13T02:23:04.932642+05:30"},{"city":"Ranchi","state":"Jharkhand","latitude":23.3441,"longitude":85.3096,"temp":25.5,"humidity":80,"rain":0.0,"pressure":929.8,"uv_index":8.0,"wind_gusts":31.0,"aqi":95,"pm10":47.1,"pm2_5":35.6,"no2":13.0,"co":186.0,"o3":58.0,"so2":8.9,"mosquito_risk":7,"arthritis_risk":5,"migraine_risk":7,"frizz_risk":1,"updated_at":"2026-07-13T02:23:04.932649+05:30"},{"city":"Jamshedpur","state":"Jharkhand","latitude":22.8046,"longitude":86.2029,"temp":27.3,"humidity":87,"rain":0.1,"pressure":981.9,"uv_index":7.7,"wind_gusts":27.4,"aqi":111,"pm10":44.1,"pm2_5":34.7,"no2":13.8,"co":213.0,"o3":79.0,"so2":28.1,"mosquito_risk":10,"arthritis_risk":5,"migraine_risk":7,"frizz_risk":1,"updated_at":"2026-07-13T02:23:04.932656+05:30"},{"city":"Dhanbad","state":"Jharkhand","latitude":23.7957,"longitude":86.4304,"temp":26.6,"humidity":95,"rain":0.0,"pressure":970.5,"uv_index":4.55,"wind_gusts":20.9,"aqi":156,"pm10":123.4,"pm2_5":101.3,"no2":72.6,"co":331.0,"o3":6.0,"so2":156.3,"mosquito_risk":7,"arthritis_risk":5,"migraine_risk":3,"frizz_risk":1,"updated_at":"2026-07-13T02:23:04.932662+05:30"},{"city":"Bokaro","state":"Jharkhand","latitude":23.6693,"longitude":86.1511,"temp":28.1,"humidity":82,"rain":0.0,"pressure":974.5,"uv_index":5.1,"wind_gusts":24.8,"aqi":153,"pm10":101.0,"pm2_5":83.4,"no2":44.5,"co":197.0,"o3":21.0,"so2":104.2,"mosquito_risk":7,"arthritis_risk":5,"migraine_risk":3,"frizz_risk":1,"updated_at":"2026-07-13T02:23:04.932670+05:30"},{"city":"Bhubaneswar","state":"Odisha","latitude":20.2961,"longitude":85.8245,"temp":28.4,"humidity":85,"rain":0.0,"pressure":993.5,"uv_index":7.5,"wind_gusts":26.6,"aqi":111,"pm10":41.8,"pm2_5":32.0,"no2":10.9,"co":331.0,"o3":72.0,"so2":6.9,"mosquito_risk":7,"arthritis_risk":5,"migraine_risk":7,"frizz_risk":1,"updated_at":"2026-07-13T02:23:04.932676+05:30"},{"city":"Cuttack","state":"Odisha","latitude":20.4625,"longitude":85.8828,"temp":28.9,"humidity":83,"rain":0.0,"pressure":995.4,"uv_index":7.8,"wind_gusts":27.7,"aqi":111,"pm10":41.8,"pm2_5":32.0,"no2":10.9,"co":335.0,"o3":72.0,"so2":6.9,"mosquito_risk":7,"arthritis_risk":5,"migraine_risk":7,"frizz_risk":1,"updated_at":"2026-07-13T02:23:04.932683+05:30"},{"city":"Rourkela","state":"Odisha","latitude":22.2604,"longitude":84.8536,"temp":28.2,"humidity":78,"rain":0.0,"pressure":976.5,"uv_index":8.9,"wind_gusts":23.4,"aqi":99,"pm10":33.4,"pm2_5":25.6,"no2":13.5,"co":350.0,"o3":63.0,"so2":19.9,"mosquito_risk":7,"arthritis_risk":5,"migraine_risk":7,"frizz_risk":1,"updated_at":"2026-07-13T02:23:04.932690+05:30"},{"city":"Raipur","state":"Chhattisgarh","latitude":21.2514,"longitude":81.6296,"temp":27.1,"humidity":75,"rain":0.0,"pressure":968.0,"uv_index":8.65,"wind_gusts":37.8,"aqi":91,"pm10":49.5,"pm2_5":31.5,"no2":22.1,"co":408.0,"o3":47.0,"so2":39.6,"mosquito_risk":7,"arthritis_risk":5,"migraine_risk":7,"frizz_risk":1,"updated_at":"2026-07-13T02:23:04.932697+05:30"},{"city":"Bhilai","state":"Chhattisgarh","latitude":21.1938,"longitude":81.3509,"temp":26.7,"humidity":77,"rain":0.0,"pressure":968.4,"uv_index":8.8,"wind_gusts":39.2,"aqi":86,"pm10":47.5,"pm2_5":29.1,"no2":17.7,"co":543.0,"o3":50.0,"so2":31.2,"mosquito_risk":7,"arthritis_risk":5,"migraine_risk":7,"frizz_risk":1,"updated_at":"2026-07-13T02:23:04.932704+05:30"},{"city":"Guwahati","state":"Assam","latitude":26.1158,"longitude":91.7086,"temp":25.6,"humidity":100,"rain":0.2,"pressure":992.3,"uv_index":1.75,"wind_gusts":23.8,"aqi":37,"pm10":7.4,"pm2_5":7.2,"no2":6.1,"co":291.0,"o3":72.0,"so2":2.0,"mosquito_risk":10,"arthritis_risk":5,"migraine_risk":3,"frizz_risk":1,"updated_at":"2026-07-13T02:23:04.932710+05:30"},{"city":"Agartala","state":"Tripura","latitude":23.8315,"longitude":91.2868,"temp":25.6,"humidity":98,"rain":0.0,"pressure":997.3,"uv_index":1.75,"wind_gusts":31.0,"aqi":83,"pm10":25.3,"pm2_5":22.6,"no2":10.6,"co":207.0,"o3":78.0,"so2":5.5,"mosquito_risk":7,"arthritis_risk":5,"migraine_risk":3,"frizz_risk":1,"updated_at":"2026-07-13T02:23:04.932717+05:30"},{"city":"Shillong","state":"Meghalaya","latitude":25.5788,"longitude":91.8933,"temp":20.3,"humidity":98,"rain":0.1,"pressure":850.2,"uv_index":0.9,"wind_gusts":26.3,"aqi":36,"pm10":0.8,"pm2_5":0.8,"no2":2.9,"co":252.0,"o3":86.0,"so2":2.7,"mosquito_risk":6,"arthritis_risk":5,"migraine_risk":3,"frizz_risk":1,"updated_at":"2026-07-13T02:23:04.932724+05:30"},{"city":"Imphal","state":"Manipur","latitude":24.817,"longitude":93.9368,"temp":22.9,"humidity":98,"rain":0.1,"pressure":916.4,"uv_index":2.6,"wind_gusts":20.2,"aqi":52,"pm10":13.8,"pm2_5":11.7,"no2":5.9,"co":229.0,"o3":54.0,"so2":2.7,"mosquito_risk":6,"arthritis_risk":5,"migraine_risk":3,"frizz_risk":1,"updated_at":"2026-07-13T02:23:04.932730+05:30"},{"city":"Aizawl","state":"Mizoram","latitude":23.7271,"longitude":92.7176,"temp":19.9,"humidity":95,"rain":0.0,"pressure":885.2,"uv_index":0.95,"wind_gusts":22.0,"aqi":48,"pm10":8.2,"pm2_5":5.5,"no2":2.0,"co":169.0,"o3":63.0,"so2":1.8,"mosquito_risk":3,"arthritis_risk":10,"migraine_risk":3,"frizz_risk":1,"updated_at":"2026-07-13T02:23:04.932738+05:30"},{"city":"Kohima","state":"Nagaland","latitude":25.6701,"longitude":94.1077,"temp":20.8,"humidity":96,"rain":0.0,"pressure":849.7,"uv_index":7.1,"wind_gusts":24.5,"aqi":24,"pm10":2.9,"pm2_5":2.4,"no2":4.2,"co":207.0,"o3":52.0,"so2":1.1,"mosquito_risk":3,"arthritis_risk":5,"migraine_risk":7,"frizz_risk":1,"updated_at":"2026-07-13T02:23:04.932745+05:30"},{"city":"Gangtok","state":"Sikkim","latitude":27.3314,"longitude":88.6138,"temp":19.5,"humidity":94,"rain":0.3,"pressure":830.9,"uv_index":1.8,"wind_gusts":25.2,"aqi":50,"pm10":2.4,"pm2_5":2.4,"no2":2.3,"co":305.0,"o3":115.0,"so2":1.2,"mosquito_risk":6,"arthritis_risk":10,"migraine_risk":3,"frizz_risk":1,"updated_at":"2026-07-13T02:23:04.932752+05:30"},{"city":"Siliguri","state":"West Bengal","latitude":26.7271,"longitude":88.3953,"temp":25.5,"humidity":98,"rain":0.3,"pressure":983.2,"uv_index":0.6,"wind_gusts":31.3,"aqi":46,"pm10":12.2,"pm2_5":11.5,"no2":7.4,"co":357.0,"o3":94.0,"so2":2.9,"mosquito_risk":10,"arthritis_risk":5,"migraine_risk":3,"frizz_risk":1,"updated_at":"2026-07-13T02:23:08.230941+05:30"},{"city":"Durgapur","state":"West Bengal","latitude":23.5204,"longitude":87.3119,"temp":27.3,"humidity":96,"rain":0.0,"pressure":985.4,"uv_index":4.1,"wind_gusts":27.4,"aqi":152,"pm10":68.0,"pm2_5":58.0,"no2":34.6,"co":463.0,"o3":38.0,"so2":46.4,"mosquito_risk":7,"arthritis_risk":5,"migraine_risk":3,"frizz_risk":1,"updated_at":"2026-07-13T02:23:08.230972+05:30"},{"city":"Asansol","state":"West Bengal","latitude":23.6739,"longitude":86.9524,"temp":27.3,"humidity":96,"rain":0.0,"pressure":984.0,"uv_index":2.55,"wind_gusts":24.8,"aqi":141,"pm10":76.4,"pm2_5":61.7,"no2":51.4,"co":516.0,"o3":22.0,"so2":66.6,"mosquito_risk":7,"arthritis_risk":5,"migraine_risk":3,"frizz_risk":1,"updated_at":"2026-07-13T02:23:08.230983+05:30"},{"city":"Pondicherry","state":"Puducherry","latitude":11.9139,"longitude":79.8145,"temp":29.2,"humidity":72,"rain":0.0,"pressure":1003.8,"uv_index":8.0,"wind_gusts":48.2,"aqi":65,"pm10":15.1,"pm2_5":11.0,"no2":11.2,"co":184.0,"o3":49.0,"so2":6.4,"mosquito_risk":7,"arthritis_risk":5,"migraine_risk":4,"frizz_risk":1,"updated_at":"2026-07-13T02:23:08.230992+05:30"},{"city":"Port Blair","state":"Andaman and Nicobar Islands","latitude":11.6234,"longitude":92.7265,"temp":27.0,"humidity":85,"rain":0.1,"pressure":1003.0,"uv_index":8.75,"wind_gusts":58.0,"aqi":49,"pm10":23.0,"pm2_5":10.1,"no2":0.1,"co":84.0,"o3":50.0,"so2":0.3,"mosquito_risk":10,"arthritis_risk":5,"migraine_risk":4,"frizz_risk":1,"updated_at":"2026-07-13T02:23:08.231000+05:30"},{"city":"Haridwar","state":"Uttarakhand","latitude":29.9457,"longitude":78.1642,"temp":26.2,"humidity":97,"rain":0.0,"pressure":963.5,"uv_index":7.5,"wind_gusts":23.8,"aqi":162,"pm10":109.2,"pm2_5":68.2,"no2":13.6,"co":297.0,"o3":80.0,"so2":7.4,"mosquito_risk":7,"arthritis_risk":5,"migraine_risk":7,"frizz_risk":1,"updated_at":"2026-07-13T02:23:08.231030+05:30"},{"city":"Rishikesh","state":"Uttarakhand","latitude":30.0869,"longitude":78.2676,"temp":25.0,"humidity":93,"rain":0.0,"pressure":956.1,"uv_index":7.6,"wind_gusts":27.7,"aqi":148,"pm10":53.7,"pm2_5":33.2,"no2":6.3,"co":244.0,"o3":108.0,"so2":4.7,"mosquito_risk":7,"arthritis_risk":5,"migraine_risk":7,"frizz_risk":1,"updated_at":"2026-07-13T02:23:08.231039+05:30"},{"city":"Nainital","state":"Uttarakhand","latitude":29.3919,"longitude":79.4542,"temp":16.5,"humidity":99,"rain":0.0,"pressure":798.6,"uv_index":8.5,"wind_gusts":35.6,"aqi":155,"pm10":203.0,"pm2_5":64.0,"no2":11.2,"co":287.0,"o3":89.0,"so2":4.2,"mosquito_risk":3,"arthritis_risk":10,"migraine_risk":7,"frizz_risk":1,"updated_at":"2026-07-13T02:23:08.231047+05:30"},{"city":"Mussoorie","state":"Uttarakhand","latitude":30.4599,"longitude":78.0664,"temp":16.3,"humidity":97,"rain":0.0,"pressure":795.3,"uv_index":8.0,"wind_gusts":43.2,"aqi":144,"pm10":99.2,"pm2_5":48.7,"no2":11.7,"co":265.0,"o3":98.0,"so2":7.5,"mosquito_risk":3,"arthritis_risk":10,"migraine_risk":7,"frizz_risk":0,"updated_at":"2026-07-13T02:23:08.231055+05:30"},{"city":"Dharamshala","state":"Himachal Pradesh","latitude":32.219,"longitude":76.3234,"temp":22.9,"humidity":65,"rain":0.0,"pressure":861.7,"uv_index":8.35,"wind_gusts":36.0,"aqi":56,"pm10":23.2,"pm2_5":17.1,"no2":15.6,"co":257.0,"o3":18.0,"so2":0.4,"mosquito_risk":3,"arthritis_risk":5,"migraine_risk":7,"frizz_risk":1,"updated_at":"2026-07-13T02:23:08.231062+05:30"},{"city":"Dalhousie","state":"Himachal Pradesh","latitude":32.5387,"longitude":75.971,"temp":17.2,"humidity":83,"rain":0.0,"pressure":797.5,"uv_index":8.65,"wind_gusts":31.7,"aqi":98,"pm10":60.8,"pm2_5":41.6,"no2":34.1,"co":413.0,"o3":43.0,"so2":2.8,"mosquito_risk":3,"arthritis_risk":10,"migraine_risk":7,"frizz_risk":0,"updated_at":"2026-07-13T02:23:08.231070+05:30"},{"city":"Patiala","state":"Punjab","latitude":30.3398,"longitude":76.3869,"temp":27.6,"humidity":89,"rain":0.0,"pressure":967.8,"uv_index":7.5,"wind_gusts":24.5,"aqi":173,"pm10":184.9,"pm2_5":109.2,"no2":41.1,"co":398.0,"o3":35.0,"so2":10.4,"mosquito_risk":7,"arthritis_risk":5,"migraine_risk":7,"frizz_risk":1,"updated_at":"2026-07-13T02:23:08.231079+05:30"},{"city":"Bhatinda","state":"Punjab","latitude":30.211,"longitude":74.9455,"temp":27.7,"humidity":88,"rain":0.0,"pressure":973.3,"uv_index":8.25,"wind_gusts":22.3,"aqi":344,"pm10":231.9,"pm2_5":122.0,"no2":22.4,"co":327.0,"o3":71.0,"so2":9.5,"mosquito_risk":7,"arthritis_risk":5,"migraine_risk":7,"frizz_risk":1,"updated_at":"2026-07-13T02:23:08.231086+05:30"},{"city":"Rohtak","state":"Haryana","latitude":28.8955,"longitude":76.6066,"temp":29.1,"humidity":71,"rain":0.0,"pressure":971.4,"uv_index":7.6,"wind_gusts":28.1,"aqi":1257,"pm10":1881.3,"pm2_5":281.3,"no2":9.8,"co":170.0,"o3":62.0,"so2":3.4,"mosquito_risk":7,"arthritis_risk":5,"migraine_risk":7,"frizz_risk":1,"updated_at":"2026-07-13T02:23:08.231093+05:30"},{"city":"Panipat","state":"Haryana","latitude":29.3909,"longitude":76.9635,"temp":27.9,"humidity":84,"rain":0.0,"pressure":970.1,"uv_index":7.45,"wind_gusts":25.2,"aqi":1754,"pm10":1385.8,"pm2_5":451.7,"no2":14.6,"co":465.0,"o3":48.0,"so2":3.5,"mosquito_risk":7,"arthritis_risk":5,"migraine_risk":7,"frizz_risk":1,"updated_at":"2026-07-13T02:23:08.231101+05:30"},{"city":"Mathura","state":"Uttar Pradesh","latitude":27.4924,"longitude":77.6737,"temp":30.7,"humidity":64,"rain":0.0,"pressure":976.9,"uv_index":7.9,"wind_gusts":34.2,"aqi":921,"pm10":659.4,"pm2_5":108.5,"no2":16.5,"co":191.0,"o3":49.0,"so2":4.6,"mosquito_risk":3,"arthritis_risk":5,"migraine_risk":7,"frizz_risk":1,"updated_at":"2026-07-13T02:23:08.231108+05:30"},{"city":"Vrindavan","state":"Uttar Pradesh","latitude":27.5823,"longitude":77.7027,"temp":31.1,"humidity":62,"rain":0.0,"pressure":977.2,"uv_index":7.85,"wind_gusts":33.1,"aqi":921,"pm10":659.4,"pm2_5":108.5,"no2":16.5,"co":181.0,"o3":49.0,"so2":4.6,"mosquito_risk":3,"arthritis_risk":5,"migraine_risk":7,"frizz_risk":1,"updated_at":"2026-07-13T02:23:08.231116+05:30"},{"city":"Ayodhya","state":"Uttar Pradesh","latitude":26.7922,"longitude":82.1998,"temp":28.1,"humidity":95,"rain":0.0,"pressure":984.8,"uv_index":8.35,"wind_gusts":33.8,"aqi":138,"pm10":104.5,"pm2_5":69.8,"no2":36.6,"co":546.0,"o3":29.0,"so2":10.3,"mosquito_risk":7,"arthritis_risk":5,"migraine_risk":7,"frizz_risk":1,"updated_at":"2026-07-13T02:23:08.231127+05:30"},{"city":"Ratlam","state":"Madhya Pradesh","latitude":23.3315,"longitude":75.0367,"temp":24.8,"humidity":91,"rain":0.0,"pressure":948.4,"uv_index":8.05,"wind_gusts":52.2,"aqi":64,"pm10":25.3,"pm2_5":12.9,"no2":6.8,"co":132.0,"o3":39.0,"so2":8.5,"mosquito_risk":3,"arthritis_risk":5,"migraine_risk":7,"frizz_risk":1,"updated_at":"2026-07-13T02:23:08.231139+05:30"},{"city":"Sagar","state":"Madhya Pradesh","latitude":23.8388,"longitude":78.7378,"temp":26.3,"humidity":77,"rain":0.0,"pressure":943.1,"uv_index":8.65,"wind_gusts":47.5,"aqi":75,"pm10":46.1,"pm2_5":28.3,"no2":5.4,"co":170.0,"o3":67.0,"so2":4.2,"mosquito_risk":7,"arthritis_risk":5,"migraine_risk":7,"frizz_risk":1,"updated_at":"2026-07-13T02:23:08.231146+05:30"},{"city":"Satna","state":"Madhya Pradesh","latitude":24.6005,"longitude":80.8322,"temp":27.9,"humidity":71,"rain":0.0,"pressure":963.2,"uv_index":8.7,"wind_gusts":41.8,"aqi":77,"pm10":44.4,"pm2_5":25.8,"no2":5.4,"co":167.0,"o3":64.0,"so2":3.8,"mosquito_risk":7,"arthritis_risk":5,"migraine_risk":7,"frizz_risk":1,"updated_at":"2026-07-13T02:23:08.231153+05:30"},{"city":"Akola","state":"Maharashtra","latitude":20.7002,"longitude":77.0082,"temp":27.5,"humidity":70,"rain":0.0,"pressure":970.2,"uv_index":8.75,"wind_gusts":48.2,"aqi":60,"pm10":26.1,"pm2_5":14.1,"no2":6.7,"co":109.0,"o3":44.0,"so2":7.6,"mosquito_risk":7,"arthritis_risk":5,"migraine_risk":7,"frizz_risk":1,"updated_at":"2026-07-13T02:23:08.231161+05:30"},{"city":"Amravati","state":"Maharashtra","latitude":20.9374,"longitude":77.7796,"temp":27.1,"humidity":73,"rain":0.0,"pressure":962.0,"uv_index":8.75,"wind_gusts":54.4,"aqi":61,"pm10":27.4,"pm2_5":15.2,"no2":7.2,"co":124.0,"o3":45.0,"so2":8.3,"mosquito_risk":7,"arthritis_risk":5,"migraine_risk":7,"frizz_risk":1,"updated_at":"2026-07-13T02:23:08.231169+05:30"},{"city":"Latur","state":"Maharashtra","latitude":18.4088,"longitude":76.5604,"temp":23.9,"humidity":78,"rain":0.0,"pressure":935.7,"uv_index":8.9,"wind_gusts":43.6,"aqi":51,"pm10":21.7,"pm2_5":9.7,"no2":4.6,"co":117.0,"o3":38.0,"so2":2.9,"mosquito_risk":3,"arthritis_risk":5,"migraine_risk":7,"frizz_risk":1,"updated_at":"2026-07-13T02:23:08.231176+05:30"},{"city":"Nanded","state":"Maharashtra","latitude":19.1383,"longitude":77.3091,"temp":26.7,"humidity":69,"rain":0.0,"pressure":964.0,"uv_index":8.85,"wind_gusts":41.4,"aqi":57,"pm10":28.1,"pm2_5":15.0,"no2":4.9,"co":123.0,"o3":49.0,"so2":3.6,"mosquito_risk":7,"arthritis_risk":5,"migraine_risk":7,"frizz_risk":1,"updated_at":"2026-07-13T02:23:08.231183+05:30"},{"city":"Gulbarga","state":"Karnataka","latitude":17.3297,"longitude":76.8343,"temp":24.7,"humidity":78,"rain":0.0,"pressure":955.2,"uv_index":8.8,"wind_gusts":49.3,"aqi":49,"pm10":17.9,"pm2_5":9.1,"no2":5.1,"co":110.0,"o3":36.0,"so2":2.8,"mosquito_risk":3,"arthritis_risk":5,"migraine_risk":7,"frizz_risk":1,"updated_at":"2026-07-13T02:23:08.231190+05:30"},{"city":"Bidar","state":"Karnataka","latitude":17.9104,"longitude":77.5199,"temp":24.6,"humidity":73,"rain":0.0,"pressure":931.4,"uv_index":8.95,"wind_gusts":45.4,"aqi":55,"pm10":21.9,"pm2_5":11.1,"no2":4.3,"co":123.0,"o3":45.0,"so2":2.1,"mosquito_risk":3,"arthritis_risk":5,"migraine_risk":7,"frizz_risk":1,"updated_at":"2026-07-13T02:23:08.231196+05:30"},{"city":"Hospet","state":"Karnataka","latitude":15.2689,"longitude":76.3909,"temp":23.3,"humidity":89,"rain":0.0,"pressure":953.5,"uv_index":8.9,"wind_gusts":50.8,"aqi":36,"pm10":11.8,"pm2_5":5.8,"no2":3.8,"co":114.0,"o3":37.0,"so2":1.7,"mosquito_risk":3,"arthritis_risk":5,"migraine_risk":7,"frizz_risk":1,"updated_at":"2026-07-13T02:23:08.231203+05:30"},{"city":"Tirupur","state":"Tamil Nadu","latitude":11.1085,"longitude":77.3411,"temp":24.3,"humidity":89,"rain":0.0,"pressure":973.3,"uv_index":8.35,"wind_gusts":59.4,"aqi":55,"pm10":23.6,"pm2_5":16.8,"no2":18.5,"co":140.0,"o3":20.0,"so2":4.9,"mosquito_risk":3,"arthritis_risk":5,"migraine_risk":7,"frizz_risk":1,"updated_at":"2026-07-13T02:23:08.231210+05:30"},{"city":"Alappuzha","state":"Kerala","latitude":9.4981,"longitude":76.3388,"temp":27.4,"humidity":83,"rain":0.0,"pressure":1008.5,"uv_index":7.95,"wind_gusts":46.1,"aqi":41,"pm10":17.9,"pm2_5":10.1,"no2":5.6,"co":80.0,"o3":36.0,"so2":2.5,"mosquito_risk":7,"arthritis_risk":0,"migraine_risk":4,"frizz_risk":1,"updated_at":"2026-07-13T02:23:08.231217+05:30"},{"city":"Munnar","state":"Kerala","latitude":10.0889,"longitude":77.0595,"temp":15.9,"humidity":100,"rain":0.0,"pressure":855.1,"uv_index":8.7,"wind_gusts":37.1,"aqi":31,"pm10":7.0,"pm2_5":4.9,"no2":5.7,"co":95.0,"o3":25.0,"so2":1.3,"mosquito_risk":3,"arthritis_risk":10,"migraine_risk":7,"frizz_risk":0,"updated_at":"2026-07-13T02:23:08.231225+05:30"},{"city":"Silchar","state":"Assam","latitude":24.8333,"longitude":92.7789,"temp":26.8,"humidity":95,"rain":0.0,"pressure":996.7,"uv_index":0.5,"wind_gusts":17.6,"aqi":72,"pm10":27.0,"pm2_5":18.3,"no2":5.6,"co":234.0,"o3":69.0,"so2":4.1,"mosquito_risk":7,"arthritis_risk":5,"migraine_risk":3,"frizz_risk":1,"updated_at":"2026-07-13T02:23:08.231232+05:30"},{"city":"Dibrugarh","state":"Assam","latitude":27.4728,"longitude":94.912,"temp":26.0,"humidity":98,"rain":0.3,"pressure":987.4,"uv_index":8.9,"wind_gusts":20.2,"aqi":39,"pm10":7.6,"pm2_5":7.5,"no2":15.1,"co":245.0,"o3":38.0,"so2":1.4,"mosquito_risk":10,"arthritis_risk":5,"migraine_risk":7,"frizz_risk":1,"updated_at":"2026-07-13T02:23:08.231239+05:30"}]