[{"city":"Delhi","state":"Delhi","latitude":28.6139,"longitude":77.209,"temp":28.2,"humidity":47,"rain":0.0,"pressure":986.1,"uv_index":6.0,"wind_gusts":28.8,"aqi":395,"pm10":393.0,"pm2_5":91.7,"mosquito_risk":4,"arthritis_risk":5,"migraine_risk":3,"frizz_risk":0,"updated_at":"2026-03-13T11:22:01.463036+05:30"},{"city":"Mumbai","state":"Maharashtra","latitude":19.076,"longitude":72.8777,"temp":28.8,"humidity":68,"rain":0.0,"pressure":1009.2,"uv_index":7.65,"wind_gusts":26.6,"aqi":155,"pm10":65.2,"pm2_5":62.9,"mosquito_risk":7,"arthritis_risk":0,"migraine_risk":4,"frizz_risk":1,"updated_at":"2026-03-13T11:22:01.463087+05:30"},{"city":"Bangalore","state":"Karnataka","latitude":12.9716,"longitude":77.5946,"temp":30.4,"humidity":26,"rain":0.0,"pressure":914.4,"uv_index":9.3,"wind_gusts":28.4,"aqi":78,"pm10":48.3,"pm2_5":36.7,"mosquito_risk":0,"arthritis_risk":5,"migraine_risk":7,"frizz_risk":0,"updated_at":"2026-03-13T11:22:01.463103+05:30"},{"city":"Hyderabad","state":"Telangana","latitude":17.385,"longitude":78.4867,"temp":35.0,"humidity":21,"rain":0.0,"pressure":955.8,"uv_index":8.65,"wind_gusts":18.7,"aqi":99,"pm10":43.7,"pm2_5":34.3,"mosquito_risk":0,"arthritis_risk":5,"migraine_risk":7,"frizz_risk":0,"updated_at":"2026-03-13T11:22:01.463113+05:30"},{"city":"Chennai","state":"Tamil Nadu","latitude":13.0827,"longitude":80.2707,"temp":32.5,"humidity":54,"rain":0.0,"pressure":1009.9,"uv_index":9.05,"wind_gusts":30.6,"aqi":70,"pm10":20.1,"pm2_5":16.2,"mosquito_risk":0,"arthritis_risk":0,"migraine_risk":4,"frizz_risk":1,"updated_at":"2026-03-13T11:22:01.463122+05:30"},{"city":"Kolkata","state":"West Bengal","latitude":22.5726,"longitude":88.3639,"temp":31.8,"humidity":64,"rain":0.0,"pressure":1007.6,"uv_index":8.0,"wind_gusts":28.4,"aqi":150,"pm10":54.2,"pm2_5":42.6,"mosquito_risk":3,"arthritis_risk":5,"migraine_risk":4,"frizz_risk":1,"updated_at":"2026-03-13T11:22:01.463131+05:30"},{"city":"Pune","state":"Maharashtra","latitude":18.5204,"longitude":73.8567,"temp":35.4,"humidity":20,"rain":0.0,"pressure":950.7,"uv_index":8.2,"wind_gusts":26.6,"aqi":150,"pm10":23.4,"pm2_5":21.0,"mosquito_risk":0,"arthritis_risk":5,"migraine_risk":10,"frizz_risk":0,"updated_at":"2026-03-13T11:22:01.463145+05:30"},{"city":"Ahmedabad","state":"Gujarat","latitude":23.0225,"longitude":72.5714,"temp":32.3,"humidity":40,"rain":0.0,"pressure":1004.7,"uv_index":7.5,"wind_gusts":21.6,"aqi":89,"pm10":72.4,"pm2_5":37.7,"mosquito_risk":0,"arthritis_risk":5,"migraine_risk":4,"frizz_risk":1,"updated_at":"2026-03-13T11:22:01.463153+05:30"},{"city":"Jaipur","state":"Rajasthan","latitude":26.9124,"longitude":75.7873,"temp":32.5,"humidity":32,"rain":0.0,"pressure":963.0,"uv_index":6.95,"wind_gusts":24.5,"aqi":119,"pm10":172.8,"pm2_5":46.8,"mosquito_risk":0,"arthritis_risk":5,"migraine_risk":7,"frizz_risk":0,"updated_at":"2026-03-13T11:22:01.463161+05:30"},{"city":"Lucknow","state":"Uttar Pradesh","latitude":26.8467,"longitude":80.9462,"temp":31.0,"humidity":46,"rain":0.0,"pressure":995.6,"uv_index":5.95,"wind_gusts":26.6,"aqi":174,"pm10":332.5,"pm2_5":93.6,"mosquito_risk":0,"arthritis_risk":5,"migraine_risk":3,"frizz_risk":1,"updated_at":"2026-03-13T11:22:01.463169+05:30"},{"city":"Kanpur","state":"Uttar Pradesh","latitude":26.4499,"longitude":80.3319,"temp":30.6,"humidity":52,"rain":0.0,"pressure":994.2,"uv_index":6.35,"wind_gusts":21.2,"aqi":287,"pm10":461.0,"pm2_5":96.9,"mosquito_risk":0,"arthritis_risk":5,"migraine_risk":7,"frizz_risk":1,"updated_at":"2026-03-13T11:22:01.463179+05:30"},{"city":"Chandigarh","state":"Chandigarh","latitude":30.7333,"longitude":76.7794,"temp":26.8,"humidity":49,"rain":0.0,"pressure":971.3,"uv_index":5.15,"wind_gusts":30.6,"aqi":84,"pm10":45.2,"pm2_5":21.7,"mosquito_risk":4,"arthritis_risk":5,"migraine_risk":3,"frizz_risk":0,"updated_at":"2026-03-13T11:22:01.463187+05:30"},{"city":"Srinagar","state":"Jammu and Kashmir","latitude":34.0837,"longitude":74.7973,"temp":12.4,"humidity":71,"rain":0.0,"pressure":845.2,"uv_index":6.85,"wind_gusts":14.0,"aqi":66,"pm10":27.4,"pm2_5":19.4,"mosquito_risk":3,"arthritis_risk":5,"migraine_risk":7,"frizz_risk":0,"updated_at":"2026-03-13T11:22:01.463194+05:30"},{"city":"Jammu","state":"Jammu and Kashmir","latitude":32.7266,"longitude":74.857,"temp":27.3,"humidity":46,"rain":0.0,"pressure":976.2,"uv_index":6.45,"wind_gusts":23.0,"aqi":83,"pm10":22.8,"pm2_5":16.4,"mosquito_risk":4,"arthritis_risk":5,"migraine_risk":7,"frizz_risk":0,"updated_at":"2026-03-13T11:22:01.463202+05:30"},{"city":"Amritsar","state":"Punjab","latitude":31.634,"longitude":74.8723,"temp":25.8,"humidity":59,"rain":0.0,"pressure":984.5,"uv_index":6.05,"wind_gusts":23.8,"aqi":110,"pm10":41.3,"pm2_5":28.0,"mosquito_risk":4,"arthritis_risk":5,"migraine_risk":7,"frizz_risk":1,"updated_at":"2026-03-13T11:22:01.463208+05:30"},{"city":"Ludhiana","state":"Punjab","latitude":30.901,"longitude":75.8573,"temp":26.6,"humidity":49,"rain":0.0,"pressure":982.0,"uv_index":5.75,"wind_gusts":28.8,"aqi":112,"pm10":52.0,"pm2_5":39.1,"mosquito_risk":4,"arthritis_risk":5,"migraine_risk":3,"frizz_risk":0,"updated_at":"2026-03-13T11:22:01.463215+05:30"},{"city":"Jalandhar","state":"Punjab","latitude":31.326,"longitude":75.5762,"temp":26.3,"humidity":56,"rain":0.0,"pressure":983.3,"uv_index":5.65,"wind_gusts":26.6,"aqi":113,"pm10":78.9,"pm2_5":44.5,"mosquito_risk":4,"arthritis_risk":5,"migraine_risk":3,"frizz_risk":1,"updated_at":"2026-03-13T11:22:01.463224+05:30"},{"city":"Dehradun","state":"Uttarakhand","latitude":30.6284,"longitude":78.0322,"temp":20.9,"humidity":27,"rain":0.0,"pressure":832.9,"uv_index":6.0,"wind_gusts":28.1,"aqi":42,"pm10":42.1,"pm2_5":13.7,"mosquito_risk":0,"arthritis_risk":5,"migraine_risk":3,"frizz_risk":0,"updated_at":"2026-03-13T11:22:01.463231+05:30"},{"city":"Shimla","state":"Himachal Pradesh","latitude":31.1048,"longitude":77.1734,"temp":19.2,"humidity":37,"rain":0.0,"pressure":788.0,"uv_index":5.2,"wind_gusts":38.5,"aqi":57,"pm10":31.7,"pm2_5":9.9,"mosquito_risk":0,"arthritis_risk":5,"migraine_risk":3,"frizz_risk":0,"updated_at":"2026-03-13T11:22:01.463238+05:30"},{"city":"Manali","state":"Himachal Pradesh","latitude":32.2396,"longitude":77.1887,"temp":18.9,"humidity":14,"rain":0.0,"pressure":822.8,"uv_index":8.15,"wind_gusts":38.5,"aqi":44,"pm10":16.8,"pm2_5":6.2,"mosquito_risk":0,"arthritis_risk":5,"migraine_risk":7,"frizz_risk":1,"updated_at":"2026-03-13T11:22:01.463245+05:30"},{"city":"Gurgaon","state":"Haryana","latitude":28.4595,"longitude":77.0266,"temp":28.4,"humidity":48,"rain":0.0,"pressure":984.8,"uv_index":6.1,"wind_gusts":26.6,"aqi":1215,"pm10":1259.1,"pm2_5":168.6,"mosquito_risk":4,"arthritis_risk":5,"migraine_risk":7,"frizz_risk":1,"updated_at":"2026-03-13T11:22:01.463253+05:30"},{"city":"Noida","state":"Uttar Pradesh","latitude":28.5355,"longitude":77.391,"temp":28.9,"humidity":45,"rain":0.0,"pressure":987.6,"uv_index":5.95,"wind_gusts":28.4,"aqi":1215,"pm10":1259.1,"pm2_5":168.6,"mosquito_risk":4,"arthritis_risk":5,"migraine_risk":3,"frizz_risk":0,"updated_at":"2026-03-13T11:22:01.463260+05:30"},{"city":"Ghaziabad","state":"Uttar Pradesh","latitude":28.6692,"longitude":77.4538,"temp":27.9,"humidity":53,"rain":0.0,"pressure":985.7,"uv_index":5.85,"wind_gusts":27.7,"aqi":238,"pm10":291.5,"pm2_5":79.4,"mosquito_risk":4,"arthritis_risk":5,"migraine_risk":3,"frizz_risk":1,"updated_at":"2026-03-13T11:22:01.463266+05:30"},{"city":"Faridabad","state":"Haryana","latitude":28.4089,"longitude":77.3178,"temp":28.5,"humidity":48,"rain":0.0,"pressure":986.9,"uv_index":6.0,"wind_gusts":27.0,"aqi":1215,"pm10":1259.1,"pm2_5":168.6,"mosquito_risk":4,"arthritis_risk":5,"migraine_risk":3,"frizz_risk":1,"updated_at":"2026-03-13T11:22:01.463274+05:30"},{"city":"Meerut","state":"Uttar Pradesh","latitude":28.9845,"longitude":77.7064,"temp":28.1,"humidity":52,"rain":0.0,"pressure":984.2,"uv_index":5.3,"wind_gusts":28.8,"aqi":238,"pm10":291.5,"pm2_5":79.4,"mosquito_risk":4,"arthritis_risk":5,"migraine_risk":3,"frizz_risk":1,"updated_at":"2026-03-13T11:22:01.463280+05:30"},{"city":"Agra","state":"Uttar Pradesh","latitude":27.1767,"longitude":78.0081,"temp":31.4,"humidity":45,"rain":0.0,"pressure":991.0,"uv_index":6.2,"wind_gusts":22.0,"aqi":544,"pm10":748.8,"pm2_5":139.7,"mosquito_risk":0,"arthritis_risk":5,"migraine_risk":7,"frizz_risk":1,"updated_at":"2026-03-13T11:22:01.463287+05:30"},{"city":"Varanasi","state":"Uttar Pradesh","latitude":25.3176,"longitude":82.9739,"temp":32.2,"humidity":41,"rain":0.0,"pressure":999.5,"uv_index":7.35,"wind_gusts":26.6,"aqi":127,"pm10":286.8,"pm2_5":63.6,"mosquito_risk":0,"arthritis_risk":5,"migraine_risk":7,"frizz_risk":1,"updated_at":"2026-03-13T11:22:01.463297+05:30"},{"city":"Prayagraj","state":"Uttar Pradesh","latitude":25.4358,"longitude":81.8463,"temp":32.4,"humidity":41,"rain":0.0,"pressure":998.1,"uv_index":7.05,"wind_gusts":22.0,"aqi":150,"pm10":407.9,"pm2_5":79.9,"mosquito_risk":0,"arthritis_risk":5,"migraine_risk":7,"frizz_risk":1,"updated_at":"2026-03-13T11:22:01.463305+05:30"},{"city":"Gorakhpur","state":"Uttar Pradesh","latitude":26.7606,"longitude":83.3732,"temp":30.0,"humidity":65,"rain":0.0,"pressure":998.9,"uv_index":7.0,"wind_gusts":28.1,"aqi":181,"pm10":128.1,"pm2_5":108.3,"mosquito_risk":7,"arthritis_risk":5,"migraine_risk":7,"frizz_risk":1,"updated_at":"2026-03-13T11:22:01.463312+05:30"},{"city":"Bareilly","state":"Uttar Pradesh","latitude":28.367,"longitude":79.4304,"temp":28.9,"humidity":58,"rain":0.0,"pressure":989.0,"uv_index":6.4,"wind_gusts":26.6,"aqi":153,"pm10":105.5,"pm2_5":60.5,"mosquito_risk":4,"arthritis_risk":5,"migraine_risk":7,"frizz_risk":1,"updated_at":"2026-03-13T11:22:01.463321+05:30"},{"city":"Aligarh","state":"Uttar Pradesh","latitude":27.8974,"longitude":78.088,"temp":31.4,"humidity":38,"rain":0.0,"pressure":988.4,"uv_index":6.0,"wind_gusts":29.2,"aqi":642,"pm10":653.8,"pm2_5":124.3,"mosquito_risk":0,"arthritis_risk":5,"migraine_risk":3,"frizz_risk":0,"updated_at":"2026-03-13T11:22:01.463328+05:30"},{"city":"Moradabad","state":"Uttar Pradesh","latitude":28.8386,"longitude":78.7733,"temp":28.6,"humidity":54,"rain":0.0,"pressure":986.0,"uv_index":5.65,"wind_gusts":27.0,"aqi":152,"pm10":78.5,"pm2_5":53.1,"mosquito_risk":4,"arthritis_risk":5,"migraine_risk":3,"frizz_risk":1,"updated_at":"2026-03-13T11:22:01.463335+05:30"},{"city":"Saharanpur","state":"Uttar Pradesh","latitude":29.9637,"longitude":77.546,"temp":27.0,"humidity":53,"rain":0.0,"pressure":978.0,"uv_index":4.85,"wind_gusts":28.1,"aqi":144,"pm10":61.5,"pm2_5":35.3,"mosquito_risk":4,"arthritis_risk":5,"migraine_risk":3,"frizz_risk":1,"updated_at":"2026-03-13T11:22:01.463341+05:30"},{"city":"Jhansi","state":"Uttar Pradesh","latitude":25.4484,"longitude":78.5685,"temp":32.7,"humidity":29,"rain":0.0,"pressure":981.1,"uv_index":6.85,"wind_gusts":18.7,"aqi":54,"pm10":232.8,"pm2_5":51.7,"mosquito_risk":0,"arthritis_risk":5,"migraine_risk":7,"frizz_risk":0,"updated_at":"2026-03-13T11:22:04.689599+05:30"},{"city":"Surat","state":"Gujarat","latitude":21.1702,"longitude":72.8311,"temp":32.0,"humidity":43,"rain":0.0,"pressure":1008.8,"uv_index":7.35,"wind_gusts":23.8,"aqi":148,"pm10":55.5,"pm2_5":50.5,"mosquito_risk":0,"arthritis_risk":0,"migraine_risk":4,"frizz_risk":1,"updated_at":"2026-03-13T11:22:04.689630+05:30"},{"city":"Vadodara","state":"Gujarat","latitude":22.3072,"longitude":73.1812,"temp":34.6,"humidity":28,"rain":0.0,"pressure":1006.7,"uv_index":7.5,"wind_gusts":22.0,"aqi":107,"pm10":38.3,"pm2_5":26.6,"mosquito_risk":0,"arthritis_risk":5,"migraine_risk":4,"frizz_risk":0,"updated_at":"2026-03-13T11:22:04.689640+05:30"},{"city":"Rajkot","state":"Gujarat","latitude":22.3039,"longitude":70.8022,"temp":32.0,"humidity":35,"rain":0.0,"pressure":997.0,"uv_index":7.3,"wind_gusts":30.2,"aqi":82,"pm10":87.1,"pm2_5":33.5,"mosquito_risk":0,"arthritis_risk":5,"migraine_risk":7,"frizz_risk":0,"updated_at":"2026-03-13T11:22:04.689648+05:30"},{"city":"Thane","state":"Maharashtra","latitude":19.2183,"longitude":72.9781,"temp":34.1,"humidity":37,"rain":0.0,"pressure":1008.9,"uv_index":7.65,"wind_gusts":38.9,"aqi":155,"pm10":65.2,"pm2_5":62.9,"mosquito_risk":0,"arthritis_risk":0,"migraine_risk":4,"frizz_risk":1,"updated_at":"2026-03-13T11:22:04.689656+05:30"},{"city":"Nagpur","state":"Maharashtra","latitude":21.1458,"longitude":79.0882,"temp":35.7,"humidity":20,"rain":0.0,"pressure":975.9,"uv_index":8.05,"wind_gusts":18.7,"aqi":91,"pm10":28.2,"pm2_5":20.4,"mosquito_risk":0,"arthritis_risk":5,"migraine_risk":10,"frizz_risk":0,"updated_at":"2026-03-13T11:22:04.689663+05:30"},{"city":"Nashik","state":"Maharashtra","latitude":19.9975,"longitude":73.7898,"temp":33.5,"humidity":21,"rain":0.0,"pressure":948.3,"uv_index":7.85,"wind_gusts":32.4,"aqi":73,"pm10":19.9,"pm2_5":14.9,"mosquito_risk":0,"arthritis_risk":5,"migraine_risk":7,"frizz_risk":0,"updated_at":"2026-03-13T11:22:04.689670+05:30"},{"city":"Aurangabad","state":"Maharashtra","latitude":19.8762,"longitude":75.3433,"temp":34.6,"humidity":18,"rain":0.0,"pressure":946.7,"uv_index":8.35,"wind_gusts":29.5,"aqi":73,"pm10":22.5,"pm2_5":20.5,"mosquito_risk":0,"arthritis_risk":5,"migraine_risk":7,"frizz_risk":0,"updated_at":"2026-03-13T11:22:04.689677+05:30"},{"city":"Solapur","state":"Maharashtra","latitude":17.6599,"longitude":75.9064,"temp":33.4,"humidity":33,"rain":0.0,"pressure":959.4,"uv_index":8.6,"wind_gusts":24.8,"aqi":90,"pm10":40.5,"pm2_5":33.6,"mosquito_risk":0,"arthritis_risk":5,"migraine_risk":7,"frizz_risk":0,"updated_at":"2026-03-13T11:22:04.689684+05:30"},{"city":"Kolhapur","state":"Maharashtra","latitude":16.705,"longitude":74.2433,"temp":32.1,"humidity":36,"rain":0.0,"pressure":950.0,"uv_index":8.7,"wind_gusts":44.6,"aqi":153,"pm10":64.7,"pm2_5":60.3,"mosquito_risk":0,"arthritis_risk":5,"migraine_risk":7,"frizz_risk":0,"updated_at":"2026-03-13T11:22:04.689691+05:30"},{"city":"Goa","state":"Goa","latitude":15.2993,"longitude":74.124,"temp":31.5,"humidity":63,"rain":0.0,"pressure":999.5,"uv_index":8.7,"wind_gusts":32.8,"aqi":141,"pm10":54.0,"pm2_5":46.2,"mosquito_risk":3,"arthritis_risk":5,"migraine_risk":7,"frizz_risk":1,"updated_at":"2026-03-13T11:22:04.689698+05:30"},{"city":"Jodhpur","state":"Rajasthan","latitude":26.2389,"longitude":73.0243,"temp":32.1,"humidity":30,"rain":0.0,"pressure":985.9,"uv_index":6.9,"wind_gusts":19.4,"aqi":72,"pm10":100.1,"pm2_5":29.2,"mosquito_risk":0,"arthritis_risk":5,"migraine_risk":7,"frizz_risk":0,"updated_at":"2026-03-13T11:22:04.689705+05:30"},{"city":"Udaipur","state":"Rajasthan","latitude":24.5854,"longitude":73.7125,"temp":33.1,"humidity":22,"rain":0.0,"pressure":949.7,"uv_index":7.85,"wind_gusts":32.8,"aqi":46,"pm10":78.0,"pm2_5":26.0,"mosquito_risk":0,"arthritis_risk":5,"migraine_risk":7,"frizz_risk":0,"updated_at":"2026-03-13T11:22:04.689711+05:30"},{"city":"Kota","state":"Rajasthan","latitude":25.2138,"longitude":75.8648,"temp":33.5,"humidity":21,"rain":0.0,"pressure":981.9,"uv_index":7.1,"wind_gusts":16.6,"aqi":70,"pm10":42.0,"pm2_5":18.2,"mosquito_risk":0,"arthritis_risk":5,"migraine_risk":7,"frizz_risk":0,"updated_at":"2026-03-13T11:22:04.689718+05:30"},{"city":"Bikaner","state":"Rajasthan","latitude":28.0229,"longitude":73.3119,"temp":29.5,"humidity":45,"rain":0.0,"pressure":985.6,"uv_index":6.6,"wind_gusts":24.8,"aqi":83,"pm10":76.4,"pm2_5":38.0,"mosquito_risk":4,"arthritis_risk":5,"migraine_risk":7,"frizz_risk":1,"updated_at":"2026-03-13T11:22:04.689724+05:30"},{"city":"Ajmer","state":"Rajasthan","latitude":26.4499,"longitude":74.6399,"temp":32.4,"humidity":31,"rain":0.0,"pressure":957.5,"uv_index":7.05,"wind_gusts":19.4,"aqi":61,"pm10":145.8,"pm2_5":43.8,"mosquito_risk":0,"arthritis_risk":5,"migraine_risk":7,"frizz_risk":0,"updated_at":"2026-03-13T11:22:04.689731+05:30"},{"city":"Gwalior","state":"Madhya Pradesh","latitude":26.2183,"longitude":78.1828,"temp":30.1,"humidity":46,"rain":0.0,"pressure":986.6,"uv_index":6.8,"wind_gusts":20.2,"aqi":79,"pm10":333.4,"pm2_5":93.8,"mosquito_risk":0,"arthritis_risk":5,"migraine_risk":7,"frizz_risk":1,"updated_at":"2026-03-13T11:22:04.689738+05:30"},{"city":"Indore","state":"Madhya Pradesh","latitude":22.7196,"longitude":75.8577,"temp":33.6,"humidity":16,"rain":0.0,"pressure":951.3,"uv_index":7.75,"wind_gusts":32.4,"aqi":61,"pm10":9.7,"pm2_5":7.5,"mosquito_risk":0,"arthritis_risk":5,"migraine_risk":7,"frizz_risk":0,"updated_at":"2026-03-13T11:22:04.689744+05:30"},{"city":"Bhopal","state":"Madhya Pradesh","latitude":23.2599,"longitude":77.4126,"temp":33.1,"humidity":22,"rain":0.0,"pressure":957.0,"uv_index":7.55,"wind_gusts":29.9,"aqi":75,"pm10":23.1,"pm2_5":21.6,"mosquito_risk":0,"arthritis_risk":5,"migraine_risk":7,"frizz_risk":0,"updated_at":"2026-03-13T11:22:04.689751+05:30"},{"city":"Jabalpur","state":"Madhya Pradesh","latitude":23.1815,"longitude":79.9864,"temp":33.1,"humidity":29,"rain":0.0,"pressure":964.4,"uv_index":7.75,"wind_gusts":18.7,"aqi":78,"pm10":27.9,"pm2_5":20.1,"mosquito_risk":0,"arthritis_risk":5,"migraine_risk":7,"frizz_risk":0,"updated_at":"2026-03-13T11:22:04.689758+05:30"},{"city":"Ujjain","state":"Madhya Pradesh","latitude":23.1765,"longitude":75.7885,"temp":32.2,"humidity":24,"rain":0.0,"pressure":957.0,"uv_index":7.7,"wind_gusts":25.2,"aqi":58,"pm10":18.2,"pm2_5":10.9,"mosquito_risk":0,"arthritis_risk":5,"migraine_risk":7,"frizz_risk":0,"updated_at":"2026-03-13T11:22:04.689765+05:30"},{"city":"Visakhapatnam","state":"Andhra Pradesh","latitude":17.6868,"longitude":83.2185,"temp":31.8,"humidity":61,"rain":0.0,"pressure":1006.4,"uv_index":8.65,"wind_gusts":39.6,"aqi":93,"pm10":37.3,"pm2_5":32.0,"mosquito_risk":3,"arthritis_risk":5,"migraine_risk":4,"frizz_risk":1,"updated_at":"2026-03-13T11:22:04.689772+05:30"},{"city":"Vijayawada","state":"Andhra Pradesh","latitude":16.5062,"longitude":80.648,"temp":31.8,"humidity":61,"rain":0.0,"pressure":1005.3,"uv_index":8.75,"wind_gusts":29.9,"aqi":92,"pm10":23.7,"pm2_5":20.4,"mosquito_risk":3,"arthritis_risk":5,"migraine_risk":4,"frizz_risk":1,"updated_at":"2026-03-13T11:22:04.689779+05:30"},{"city":"Guntur","state":"Andhra Pradesh","latitude":16.3067,"longitude":80.4365,"temp":32.8,"humidity":51,"rain":0.0,"pressure":1006.3,"uv_index":8.75,"wind_gusts":31.0,"aqi":84,"pm10":24.4,"pm2_5":20.8,"mosquito_risk":0,"arthritis_risk":5,"migraine_risk":4,"frizz_risk":1,"updated_at":"2026-03-13T11:22:04.689786+05:30"},{"city":"Nellore","state":"Andhra Pradesh","latitude":14.4426,"longitude":79.9865,"temp":33.8,"humidity":45,"rain":0.0,"pressure":1008.2,"uv_index":8.9,"wind_gusts":28.8,"aqi":75,"pm10":27.3,"pm2_5":24.7,"mosquito_risk":0,"arthritis_risk":0,"migraine_risk":4,"frizz_risk":1,"updated_at":"2026-03-13T11:22:04.689793+05:30"},{"city":"Kurnool","state":"Andhra Pradesh","latitude":15.8281,"longitude":78.0373,"temp":35.8,"humidity":26,"rain":0.0,"pressure":979.0,"uv_index":8.75,"wind_gusts":23.8,"aqi":90,"pm10":44.4,"pm2_5":36.8,"mosquito_risk":0,"arthritis_risk":5,"migraine_risk":10,"frizz_risk":0,"updated_at":"2026-03-13T11:22:04.689800+05:30"},{"city":"Kakinada","state":"Andhra Pradesh","latitude":16.9891,"longitude":82.2475,"temp":32.7,"humidity":57,"rain":0.0,"pressure":1010.2,"uv_index":8.7,"wind_gusts":31.3,"aqi":80,"pm10":27.1,"pm2_5":22.5,"mosquito_risk":0,"arthritis_risk":0,"migraine_risk":4,"frizz_risk":1,"updated_at":"2026-03-13T11:22:04.689807+05:30"},{"city":"Tirupati","state":"Andhra Pradesh","latitude":13.6288,"longitude":79.4192,"temp":32.7,"humidity":43,"rain":0.0,"pressure":994.2,"uv_index":9.05,"wind_gusts":32.4,"aqi":102,"pm10":27.0,"pm2_5":24.7,"mosquito_risk":0,"arthritis_risk":5,"migraine_risk":7,"frizz_risk":1,"updated_at":"2026-03-13T11:22:04.689813+05:30"},{"city":"Warangal","state":"Telangana","latitude":17.9689,"longitude":79.5941,"temp":33.0,"humidity":48,"rain":0.0,"pressure":980.9,"uv_index":8.5,"wind_gusts":29.5,"aqi":115,"pm10":35.9,"pm2_5":31.2,"mosquito_risk":0,"arthritis_risk":5,"migraine_risk":7,"frizz_risk":1,"updated_at":"2026-03-13T11:22:04.689820+05:30"},{"city":"Nizamabad","state":"Telangana","latitude":18.6725,"longitude":78.0941,"temp":33.4,"humidity":35,"rain":0.0,"pressure":967.3,"uv_index":8.4,"wind_gusts":23.4,"aqi":119,"pm10":47.1,"pm2_5":40.3,"mosquito_risk":0,"arthritis_risk":5,"migraine_risk":7,"frizz_risk":0,"updated_at":"2026-03-13T11:22:04.689827+05:30"},{"city":"Mysore","state":"Karnataka","latitude":12.2958,"longitude":76.6396,"temp":30.3,"humidity":37,"rain":0.0,"pressure":930.8,"uv_index":9.3,"wind_gusts":32.0,"aqi":72,"pm10":35.9,"pm2_5":28.9,"mosquito_risk":0,"arthritis_risk":5,"migraine_risk":7,"frizz_risk":0,"updated_at":"2026-03-13T11:22:04.689834+05:30"},{"city":"Mangalore","state":"Karnataka","latitude":12.9141,"longitude":74.856,"temp":29.0,"humidity":80,"rain":0.0,"pressure":1008.0,"uv_index":8.95,"wind_gusts":24.8,"aqi":116,"pm10":43.2,"pm2_5":38.4,"mosquito_risk":7,"arthritis_risk":0,"migraine_risk":4,"frizz_risk":1,"updated_at":"2026-03-13T11:22:04.689841+05:30"},{"city":"Hubli-Dharwad","state":"Karnataka","latitude":15.3647,"longitude":75.124,"temp":32.1,"humidity":36,"rain":0.0,"pressure":943.2,"uv_index":8.9,"wind_gusts":29.9,"aqi":73,"pm10":31.5,"pm2_5":26.3,"mosquito_risk":0,"arthritis_risk":5,"migraine_risk":7,"frizz_risk":0,"updated_at":"2026-03-13T11:22:04.689847+05:30"},{"city":"Belgaum","state":"Karnataka","latitude":15.8497,"longitude":74.4977,"temp":33.2,"humidity":23,"rain":0.0,"pressure":928.2,"uv_index":8.95,"wind_gusts":43.6,"aqi":114,"pm10":30.5,"pm2_5":25.4,"mosquito_risk":0,"arthritis_risk":5,"migraine_risk":7,"frizz_risk":0,"updated_at":"2026-03-13T11:22:07.907798+05:30"},{"city":"Coimbatore","state":"Tamil Nadu","latitude":11.0168,"longitude":76.9558,"temp":31.1,"humidity":50,"rain":0.0,"pressure":964.2,"uv_index":9.25,"wind_gusts":41.0,"aqi":76,"pm10":34.1,"pm2_5":27.1,"mosquito_risk":0,"arthritis_risk":5,"migraine_risk":7,"frizz_risk":1,"updated_at":"2026-03-13T11:22:07.907828+05:30"},{"city":"Madurai","state":"Tamil Nadu","latitude":9.9252,"longitude":78.1198,"temp":31.7,"humidity":51,"rain":0.0,"pressure":995.4,"uv_index":9.25,"wind_gusts":26.6,"aqi":83,"pm10":21.7,"pm2_5":17.2,"mosquito_risk":0,"arthritis_risk":5,"migraine_risk":7,"frizz_risk":1,"updated_at":"2026-03-13T11:22:07.907838+05:30"},{"city":"Trichy","state":"Tamil Nadu","latitude":10.7905,"longitude":78.7047,"temp":30.8,"humidity":57,"rain":0.0,"pressure":1002.5,"uv_index":9.15,"wind_gusts":23.8,"aqi":90,"pm10":24.0,"pm2_5":20.3,"mosquito_risk":0,"arthritis_risk":5,"migraine_risk":4,"frizz_risk":1,"updated_at":"2026-03-13T11:22:07.907847+05:30"},{"city":"Salem","state":"Tamil Nadu","latitude":11.6643,"longitude":78.146,"temp":30.7,"humidity":56,"rain":0.0,"pressure":980.0,"uv_index":9.2,"wind_gusts":24.1,"aqi":97,"pm10":37.3,"pm2_5":34.2,"mosquito_risk":0,"arthritis_risk":5,"migraine_risk":7,"frizz_risk":1,"updated_at":"2026-03-13T11:22:07.907854+05:30"},{"city":"Tirunelveli","state":"Tamil Nadu","latitude":8.7139,"longitude":77.7567,"temp":32.2,"humidity":51,"rain":0.0,"pressure":1005.4,"uv_index":9.2,"wind_gusts":29.9,"aqi":65,"pm10":15.2,"pm2_5":12.3,"mosquito_risk":0,"arthritis_risk":5,"migraine_risk":4,"frizz_risk":1,"updated_at":"2026-03-13T11:22:07.907861+05:30"},{"city":"Vellore","state":"Tamil Nadu","latitude":12.9165,"longitude":79.1325,"temp":32.4,"humidity":41,"rain":0.0,"pressure":987.3,"uv_index":9.1,"wind_gusts":32.8,"aqi":104,"pm10":31.7,"pm2_5":29.2,"mosquito_risk":0,"arthritis_risk":5,"migraine_risk":7,"frizz_risk":1,"updated_at":"2026-03-13T11:22:07.907869+05:30"},{"city":"Erode","state":"Tamil Nadu","latitude":11.341,"longitude":77.7172,"temp":31.4,"humidity":55,"rain":0.0,"pressure":991.7,"uv_index":9.15,"wind_gusts":22.3,"aqi":84,"pm10":29.4,"pm2_5":26.5,"mosquito_risk":0,"arthritis_risk":5,"migraine_risk":7,"frizz_risk":1,"updated_at":"2026-03-13T11:22:07.907876+05:30"},{"city":"Kochi","state":"Kerala","latitude":9.9312,"longitude":76.2673,"temp":28.2,"humidity":81,"rain":0.0,"pressure":1009.9,"uv_index":9.1,"wind_gusts":33.5,"aqi":98,"pm10":30.7,"pm2_5":29.0,"mosquito_risk":7,"arthritis_risk":0,"migraine_risk":4,"frizz_risk":1,"updated_at":"2026-03-13T11:22:07.907884+05:30"},{"city":"Thiruvananthapuram","state":"Kerala","latitude":8.5241,"longitude":76.9366,"temp":28.1,"humidity":80,"rain":0.0,"pressure":1009.4,"uv_index":9.1,"wind_gusts":24.1,"aqi":59,"pm10":23.3,"pm2_5":19.4,"mosquito_risk":7,"arthritis_risk":0,"migraine_risk":4,"frizz_risk":1,"updated_at":"2026-03-13T11:22:07.907891+05:30"},{"city":"Kozhikode","state":"Kerala","latitude":11.2588,"longitude":75.7804,"temp":29.4,"humidity":77,"rain":0.0,"pressure":1009.3,"uv_index":8.95,"wind_gusts":30.6,"aqi":98,"pm10":35.6,"pm2_5":32.7,"mosquito_risk":7,"arthritis_risk":0,"migraine_risk":4,"frizz_risk":1,"updated_at":"2026-03-13T11:22:07.907897+05:30"},{"city":"Thrissur","state":"Kerala","latitude":10.5276,"longitude":76.2144,"temp":33.9,"humidity":52,"rain":0.0,"pressure":1008.1,"uv_index":9.05,"wind_gusts":37.8,"aqi":96,"pm10":36.1,"pm2_5":33.2,"mosquito_risk":0,"arthritis_risk":0,"migraine_risk":4,"frizz_risk":1,"updated_at":"2026-03-13T11:22:07.907904+05:30"},{"city":"Kannur","state":"Kerala","latitude":11.8745,"longitude":75.3704,"temp":31.0,"humidity":67,"rain":0.0,"pressure":1008.5,"uv_index":9.0,"wind_gusts":29.5,"aqi":106,"pm10":38.6,"pm2_5":34.5,"mosquito_risk":3,"arthritis_risk":0,"migraine_risk":4,"frizz_risk":1,"updated_at":"2026-03-13T11:22:07.907911+05:30"},{"city":"Patna","state":"Bihar","latitude":25.5941,"longitude":85.1376,"temp":30.7,"humidity":60,"rain":0.0,"pressure":1002.1,"uv_index":7.5,"wind_gusts":25.2,"aqi":180,"pm10":125.7,"pm2_5":101.7,"mosquito_risk":0,"arthritis_risk":5,"migraine_risk":4,"frizz_risk":1,"updated_at":"2026-03-13T11:22:07.907918+05:30"},{"city":"Gaya","state":"Bihar","latitude":24.7914,"longitude":85.0002,"temp":32.2,"humidity":39,"rain":0.0,"pressure":995.5,"uv_index":7.6,"wind_gusts":23.0,"aqi":152,"pm10":136.4,"pm2_5":54.1,"mosquito_risk":0,"arthritis_risk":5,"migraine_risk":7,"frizz_risk":1,"updated_at":"2026-03-13T11:22:07.907924+05:30"},{"city":"Muzaffarpur","state":"Bihar","latitude":26.1209,"longitude":85.3647,"temp":29.7,"humidity":64,"rain":0.0,"pressure":1002.3,"uv_index":7.45,"wind_gusts":24.8,"aqi":187,"pm10":105.5,"pm2_5":88.7,"mosquito_risk":7,"arthritis_risk":5,"migraine_risk":4,"frizz_risk":1,"updated_at":"2026-03-13T11:22:07.907931+05:30"},{"city":"Bhagalpur","state":"Bihar","latitude":25.2425,"longitude":87.0117,"temp":31.3,"humidity":62,"rain":0.0,"pressure":1002.4,"uv_index":7.5,"wind_gusts":26.6,"aqi":177,"pm10":102.7,"pm2_5":88.7,"mosquito_risk":3,"arthritis_risk":5,"migraine_risk":4,"frizz_risk":1,"updated_at":"2026-03-13T11:22:07.907937+05:30"},{"city":"Ranchi","state":"Jharkhand","latitude":23.3441,"longitude":85.3096,"temp":31.9,"humidity":19,"rain":0.0,"pressure":940.7,"uv_index":8.2,"wind_gusts":29.9,"aqi":92,"pm10":66.6,"pm2_5":21.2,"mosquito_risk":0,"arthritis_risk":5,"migraine_risk":7,"frizz_risk":0,"updated_at":"2026-03-13T11:22:07.907943+05:30"},{"city":"Jamshedpur","state":"Jharkhand","latitude":22.8046,"longitude":86.2029,"temp":33.5,"humidity":45,"rain":0.0,"pressure":992.7,"uv_index":8.1,"wind_gusts":16.6,"aqi":162,"pm10":120.1,"pm2_5":89.4,"mosquito_risk":0,"arthritis_risk":5,"migraine_risk":7,"frizz_risk":1,"updated_at":"2026-03-13T11:22:07.907950+05:30"},{"city":"Dhanbad","state":"Jharkhand","latitude":23.7957,"longitude":86.4304,"temp":34.1,"humidity":25,"rain":0.0,"pressure":981.6,"uv_index":8.0,"wind_gusts":29.9,"aqi":176,"pm10":142.5,"pm2_5":102.2,"mosquito_risk":0,"arthritis_risk":5,"migraine_risk":7,"frizz_risk":0,"updated_at":"2026-03-13T11:22:07.907957+05:30"},{"city":"Bokaro","state":"Jharkhand","latitude":23.6693,"longitude":86.1511,"temp":34.4,"humidity":22,"rain":0.0,"pressure":985.7,"uv_index":8.0,"wind_gusts":31.0,"aqi":158,"pm10":125.7,"pm2_5":68.7,"mosquito_risk":0,"arthritis_risk":5,"migraine_risk":7,"frizz_risk":0,"updated_at":"2026-03-13T11:22:07.907964+05:30"},{"city":"Bhubaneswar","state":"Odisha","latitude":20.2961,"longitude":85.8245,"temp":31.8,"humidity":61,"rain":0.0,"pressure":1004.9,"uv_index":8.4,"wind_gusts":34.9,"aqi":117,"pm10":40.6,"pm2_5":32.9,"mosquito_risk":3,"arthritis_risk":5,"migraine_risk":4,"frizz_risk":1,"updated_at":"2026-03-13T11:22:07.907970+05:30"},{"city":"Cuttack","state":"Odisha","latitude":20.4625,"longitude":85.8828,"temp":32.8,"humidity":61,"rain":0.0,"pressure":1006.7,"uv_index":8.45,"wind_gusts":30.6,"aqi":117,"pm10":40.6,"pm2_5":32.9,"mosquito_risk":3,"arthritis_risk":5,"migraine_risk":4,"frizz_risk":1,"updated_at":"2026-03-13T11:22:07.907976+05:30"},{"city":"Rourkela","state":"Odisha","latitude":22.2604,"longitude":84.8536,"temp":35.2,"humidity":27,"rain":0.0,"pressure":987.1,"uv_index":8.0,"wind_gusts":26.3,"aqi":108,"pm10":106.9,"pm2_5":44.4,"mosquito_risk":0,"arthritis_risk":5,"migraine_risk":10,"frizz_risk":0,"updated_at":"2026-03-13T11:22:07.907983+05:30"},{"city":"Raipur","state":"Chhattisgarh","latitude":21.2514,"longitude":81.6296,"temp":35.9,"humidity":24,"rain":0.0,"pressure":976.9,"uv_index":8.15,"wind_gusts":17.6,"aqi":141,"pm10":94.8,"pm2_5":67.8,"mosquito_risk":0,"arthritis_risk":5,"migraine_risk":10,"frizz_risk":0,"updated_at":"2026-03-13T11:22:07.907989+05:30"},{"city":"Bhilai","state":"Chhattisgarh","latitude":21.1938,"longitude":81.3509,"temp":36.0,"humidity":23,"rain":0.0,"pressure":977.3,"uv_index":8.15,"wind_gusts":13.3,"aqi":141,"pm10":98.0,"pm2_5":71.7,"mosquito_risk":0,"arthritis_risk":5,"migraine_risk":10,"frizz_risk":0,"updated_at":"2026-03-13T11:22:07.907996+05:30"},{"city":"Guwahati","state":"Assam","latitude":26.1158,"longitude":91.7086,"temp":26.0,"humidity":78,"rain":0.0,"pressure":1003.5,"uv_index":6.9,"wind_gusts":32.8,"aqi":160,"pm10":64.0,"pm2_5":57.6,"mosquito_risk":7,"arthritis_risk":5,"migraine_risk":4,"frizz_risk":1,"updated_at":"2026-03-13T11:22:07.908002+05:30"},{"city":"Agartala","state":"Tripura","latitude":23.8315,"longitude":91.2868,"temp":26.2,"humidity":79,"rain":0.0,"pressure":1009.1,"uv_index":7.6,"wind_gusts":28.1,"aqi":150,"pm10":40.9,"pm2_5":34.5,"mosquito_risk":7,"arthritis_risk":0,"migraine_risk":4,"frizz_risk":1,"updated_at":"2026-03-13T11:22:07.908009+05:30"},{"city":"Shillong","state":"Meghalaya","latitude":25.5788,"longitude":91.8933,"temp":16.4,"humidity":76,"rain":0.0,"pressure":857.4,"uv_index":7.0,"wind_gusts":54.0,"aqi":153,"pm10":35.4,"pm2_5":29.9,"mosquito_risk":3,"arthritis_risk":5,"migraine_risk":7,"frizz_risk":0,"updated_at":"2026-03-13T11:22:07.908015+05:30"},{"city":"Imphal","state":"Manipur","latitude":24.817,"longitude":93.9368,"temp":21.7,"humidity":71,"rain":0.0,"pressure":925.1,"uv_index":7.4,"wind_gusts":62.6,"aqi":156,"pm10":65.7,"pm2_5":54.7,"mosquito_risk":3,"arthritis_risk":5,"migraine_risk":7,"frizz_risk":1,"updated_at":"2026-03-13T11:22:07.908022+05:30"},{"city":"Aizawl","state":"Mizoram","latitude":23.7271,"longitude":92.7176,"temp":24.3,"humidity":47,"rain":0.0,"pressure":895.4,"uv_index":7.15,"wind_gusts":72.4,"aqi":155,"pm10":63.6,"pm2_5":51.3,"mosquito_risk":0,"arthritis_risk":5,"migraine_risk":7,"frizz_risk":0,"updated_at":"2026-03-13T11:22:07.908029+05:30"},{"city":"Kohima","state":"Nagaland","latitude":25.6701,"longitude":94.1077,"temp":18.8,"humidity":74,"rain":0.0,"pressure":856.4,"uv_index":6.25,"wind_gusts":81.4,"aqi":137,"pm10":54.5,"pm2_5":44.7,"mosquito_risk":3,"arthritis_risk":5,"migraine_risk":7,"frizz_risk":0,"updated_at":"2026-03-13T11:22:07.908035+05:30"},{"city":"Gangtok","state":"Sikkim","latitude":27.3314,"longitude":88.6138,"temp":17.0,"humidity":83,"rain":0.0,"pressure":838.9,"uv_index":4.55,"wind_gusts":17.3,"aqi":112,"pm10":35.0,"pm2_5":31.5,"mosquito_risk":3,"arthritis_risk":10,"migraine_risk":3,"frizz_risk":0,"updated_at":"2026-03-13T11:22:07.908042+05:30"},{"city":"Siliguri","state":"West Bengal","latitude":26.7271,"longitude":88.3953,"temp":22.0,"humidity":81,"rain":0.0,"pressure":996.4,"uv_index":7.3,"wind_gusts":30.6,"aqi":159,"pm10":66.4,"pm2_5":59.5,"mosquito_risk":3,"arthritis_risk":5,"migraine_risk":7,"frizz_risk":1,"updated_at":"2026-03-13T11:22:11.126479+05:30"},{"city":"Durgapur","state":"West Bengal","latitude":23.5204,"longitude":87.3119,"temp":33.5,"humidity":47,"rain":0.0,"pressure":996.5,"uv_index":7.95,"wind_gusts":29.2,"aqi":178,"pm10":110.4,"pm2_5":90.1,"mosquito_risk":0,"arthritis_risk":5,"migraine_risk":7,"frizz_risk":1,"updated_at":"2026-03-13T11:22:11.126512+05:30"},{"city":"Asansol","state":"West Bengal","latitude":23.6739,"longitude":86.9524,"temp":33.5,"humidity":44,"rain":0.0,"pressure":995.0,"uv_index":7.95,"wind_gusts":27.0,"aqi":177,"pm10":114.1,"pm2_5":87.5,"mosquito_risk":0,"arthritis_risk":5,"migraine_risk":7,"frizz_risk":1,"updated_at":"2026-03-13T11:22:11.126523+05:30"},{"city":"Pondicherry","state":"Puducherry","latitude":11.9139,"longitude":79.8145,"temp":32.3,"humidity":57,"rain":0.0,"pressure":1011.0,"uv_index":9.0,"wind_gusts":27.7,"aqi":67,"pm10":19.4,"pm2_5":14.1,"mosquito_risk":0,"arthritis_risk":0,"migraine_risk":4,"frizz_risk":1,"updated_at":"2026-03-13T11:22:11.126555+05:30"},{"city":"Port Blair","state":"Andaman and Nicobar Islands","latitude":11.6234,"longitude":92.7265,"temp":29.2,"humidity":68,"rain":0.0,"pressure":1008.5,"uv_index":8.95,"wind_gusts":23.4,"aqi":59,"pm10":13.9,"pm2_5":11.2,"mosquito_risk":7,"arthritis_risk":0,"migraine_risk":4,"frizz_risk":1,"updated_at":"2026-03-13T11:22:11.126564+05:30"},{"city":"Haridwar","state":"Uttarakhand","latitude":29.9457,"longitude":78.1642,"temp":29.0,"humidity":40,"rain":0.0,"pressure":976.3,"uv_index":5.45,"wind_gusts":28.4,"aqi":96,"pm10":36.3,"pm2_5":17.6,"mosquito_risk":4,"arthritis_risk":5,"migraine_risk":3,"frizz_risk":0,"updated_at":"2026-03-13T11:22:11.126573+05:30"},{"city":"Rishikesh","state":"Uttarakhand","latitude":30.0869,"longitude":78.2676,"temp":29.6,"humidity":33,"rain":0.0,"pressure":968.9,"uv_index":5.7,"wind_gusts":28.4,"aqi":71,"pm10":35.5,"pm2_5":14.3,"mosquito_risk":4,"arthritis_risk":5,"migraine_risk":3,"frizz_risk":0,"updated_at":"2026-03-13T11:22:11.126582+05:30"},{"city":"Nainital","state":"Uttarakhand","latitude":29.3919,"longitude":79.4542,"temp":22.9,"humidity":46,"rain":0.0,"pressure":809.6,"uv_index":6.7,"wind_gusts":44.3,"aqi":92,"pm10":37.8,"pm2_5":17.6,"mosquito_risk":0,"arthritis_risk":5,"migraine_risk":7,"frizz_risk":0,"updated_at":"2026-03-13T11:22:11.126590+05:30"},{"city":"Mussoorie","state":"Uttarakhand","latitude":30.4599,"longitude":78.0664,"temp":22.2,"humidity":32,"rain":0.0,"pressure":806.3,"uv_index":5.45,"wind_gusts":30.2,"aqi":73,"pm10":49.0,"pm2_5":16.4,"mosquito_risk":0,"arthritis_risk":5,"migraine_risk":3,"frizz_risk":0,"updated_at":"2026-03-13T11:22:11.126598+05:30"},{"city":"Dharamshala","state":"Himachal Pradesh","latitude":32.219,"longitude":76.3234,"temp":23.9,"humidity":32,"rain":0.0,"pressure":871.8,"uv_index":6.0,"wind_gusts":26.6,"aqi":46,"pm10":24.1,"pm2_5":7.2,"mosquito_risk":0,"arthritis_risk":5,"migraine_risk":3,"frizz_risk":0,"updated_at":"2026-03-13T11:22:11.126606+05:30"},{"city":"Dalhousie","state":"Himachal Pradesh","latitude":32.5387,"longitude":75.971,"temp":21.2,"humidity":24,"rain":0.0,"pressure":807.0,"uv_index":6.45,"wind_gusts":31.0,"aqi":74,"pm10":42.1,"pm2_5":16.5,"mosquito_risk":0,"arthritis_risk":5,"migraine_risk":7,"frizz_risk":1,"updated_at":"2026-03-13T11:22:11.126614+05:30"},{"city":"Patiala","state":"Punjab","latitude":30.3398,"longitude":76.3869,"temp":26.8,"humidity":50,"rain":0.0,"pressure":981.1,"uv_index":5.2,"wind_gusts":29.2,"aqi":204,"pm10":377.2,"pm2_5":66.8,"mosquito_risk":4,"arthritis_risk":5,"migraine_risk":3,"frizz_risk":0,"updated_at":"2026-03-13T11:22:11.126622+05:30"},{"city":"Bhatinda","state":"Punjab","latitude":30.211,"longitude":74.9455,"temp":26.9,"humidity":55,"rain":0.0,"pressure":987.7,"uv_index":6.05,"wind_gusts":27.7,"aqi":138,"pm10":56.5,"pm2_5":35.4,"mosquito_risk":4,"arthritis_risk":5,"migraine_risk":7,"frizz_risk":1,"updated_at":"2026-03-13T11:22:11.126630+05:30"},{"city":"Rohtak","state":"Haryana","latitude":28.8955,"longitude":76.6066,"temp":28.1,"humidity":49,"rain":0.0,"pressure":985.1,"uv_index":5.35,"wind_gusts":24.8,"aqi":537,"pm10":491.7,"pm2_5":98.7,"mosquito_risk":4,"arthritis_risk":5,"migraine_risk":3,"frizz_risk":1,"updated_at":"2026-03-13T11:22:11.126637+05:30"},{"city":"Panipat","state":"Haryana","latitude":29.3909,"longitude":76.9635,"temp":27.7,"humidity":54,"rain":0.0,"pressure":983.3,"uv_index":5.15,"wind_gusts":25.9,"aqi":887,"pm10":765.5,"pm2_5":119.0,"mosquito_risk":4,"arthritis_risk":5,"migraine_risk":3,"frizz_risk":1,"updated_at":"2026-03-13T11:22:11.126645+05:30"},{"city":"Mathura","state":"Uttar Pradesh","latitude":27.4924,"longitude":77.6737,"temp":31.0,"humidity":43,"rain":0.0,"pressure":989.9,"uv_index":5.8,"wind_gusts":26.3,"aqi":605,"pm10":882.9,"pm2_5":149.5,"mosquito_risk":0,"arthritis_risk":5,"migraine_risk":3,"frizz_risk":1,"updated_at":"2026-03-13T11:22:11.126653+05:30"},{"city":"Vrindavan","state":"Uttar Pradesh","latitude":27.5823,"longitude":77.7027,"temp":31.6,"humidity":38,"rain":0.0,"pressure":990.2,"uv_index":5.85,"wind_gusts":29.2,"aqi":605,"pm10":882.9,"pm2_5":149.5,"mosquito_risk":0,"arthritis_risk":5,"migraine_risk":3,"frizz_risk":0,"updated_at":"2026-03-13T11:22:11.126661+05:30"},{"city":"Ayodhya","state":"Uttar Pradesh","latitude":26.7922,"longitude":82.1998,"temp":30.1,"humidity":53,"rain":0.0,"pressure":997.3,"uv_index":6.4,"wind_gusts":28.8,"aqi":158,"pm10":185.3,"pm2_5":120.6,"mosquito_risk":0,"arthritis_risk":5,"migraine_risk":7,"frizz_risk":1,"updated_at":"2026-03-13T11:22:11.126668+05:30"},{"city":"Ratlam","state":"Madhya Pradesh","latitude":23.3315,"longitude":75.0367,"temp":32.6,"humidity":21,"rain":0.0,"pressure":957.7,"uv_index":7.6,"wind_gusts":29.2,"aqi":52,"pm10":25.5,"pm2_5":11.9,"mosquito_risk":0,"arthritis_risk":5,"migraine_risk":7,"frizz_risk":0,"updated_at":"2026-03-13T11:22:11.126676+05:30"},{"city":"Sagar","state":"Madhya Pradesh","latitude":23.8388,"longitude":78.7378,"temp":34.0,"humidity":22,"rain":0.0,"pressure":953.2,"uv_index":7.5,"wind_gusts":28.1,"aqi":57,"pm10":14.1,"pm2_5":11.8,"mosquito_risk":0,"arthritis_risk":5,"migraine_risk":7,"frizz_risk":0,"updated_at":"2026-03-13T11:22:11.126684+05:30"},{"city":"Satna","state":"Madhya Pradesh","latitude":24.6005,"longitude":80.8322,"temp":35.1,"humidity":20,"rain":0.0,"pressure":973.7,"uv_index":7.15,"wind_gusts":29.9,"aqi":64,"pm10":142.5,"pm2_5":27.6,"mosquito_risk":0,"arthritis_risk":5,"migraine_risk":10,"frizz_risk":0,"updated_at":"2026-03-13T11:22:11.126692+05:30"},{"city":"Akola","state":"Maharashtra","latitude":20.7002,"longitude":77.0082,"temp":36.2,"humidity":23,"rain":0.0,"pressure":977.5,"uv_index":8.05,"wind_gusts":20.2,"aqi":82,"pm10":24.6,"pm2_5":19.4,"mosquito_risk":0,"arthritis_risk":5,"migraine_risk":10,"frizz_risk":0,"updated_at":"2026-03-13T11:22:11.126700+05:30"},{"city":"Amravati","state":"Maharashtra","latitude":20.9374,"longitude":77.7796,"temp":36.3,"humidity":20,"rain":0.0,"pressure":970.0,"uv_index":8.0,"wind_gusts":14.0,"aqi":88,"pm10":28.2,"pm2_5":21.1,"mosquito_risk":0,"arthritis_risk":5,"migraine_risk":10,"frizz_risk":0,"updated_at":"2026-03-13T11:22:11.126709+05:30"},{"city":"Latur","state":"Maharashtra","latitude":18.4088,"longitude":76.5604,"temp":32.6,"humidity":34,"rain":0.0,"pressure":942.4,"uv_index":8.5,"wind_gusts":21.2,"aqi":95,"pm10":44.7,"pm2_5":34.8,"mosquito_risk":0,"arthritis_risk":5,"migraine_risk":7,"frizz_risk":0,"updated_at":"2026-03-13T11:22:11.126716+05:30"},{"city":"Nanded","state":"Maharashtra","latitude":19.1383,"longitude":77.3091,"temp":35.4,"humidity":28,"rain":0.0,"pressure":971.2,"uv_index":8.3,"wind_gusts":20.9,"aqi":110,"pm10":29.3,"pm2_5":27.0,"mosquito_risk":0,"arthritis_risk":5,"migraine_risk":10,"frizz_risk":0,"updated_at":"2026-03-13T11:22:11.126724+05:30"},{"city":"Gulbarga","state":"Karnataka","latitude":17.3297,"longitude":76.8343,"temp":34.5,"humidity":28,"rain":0.0,"pressure":961.0,"uv_index":8.6,"wind_gusts":32.0,"aqi":90,"pm10":43.3,"pm2_5":36.8,"mosquito_risk":0,"arthritis_risk":5,"migraine_risk":7,"frizz_risk":0,"updated_at":"2026-03-13T11:22:11.126731+05:30"},{"city":"Bidar","state":"Karnataka","latitude":17.9104,"longitude":77.5199,"temp":33.2,"humidity":29,"rain":0.0,"pressure":938.3,"uv_index":8.55,"wind_gusts":26.6,"aqi":102,"pm10":41.0,"pm2_5":33.1,"mosquito_risk":0,"arthritis_risk":5,"migraine_risk":7,"frizz_risk":0,"updated_at":"2026-03-13T11:22:11.126739+05:30"},{"city":"Hospet","state":"Karnataka","latitude":15.2689,"longitude":76.3909,"temp":31.2,"humidity":43,"rain":0.0,"pressure":958.1,"uv_index":8.9,"wind_gusts":24.1,"aqi":85,"pm10":39.3,"pm2_5":32.9,"mosquito_risk":0,"arthritis_risk":5,"migraine_risk":7,"frizz_risk":1,"updated_at":"2026-03-13T11:22:11.126746+05:30"},{"city":"Tirupur","state":"Tamil Nadu","latitude":11.1085,"longitude":77.3411,"temp":31.3,"humidity":51,"rain":0.0,"pressure":977.9,"uv_index":9.25,"wind_gusts":29.9,"aqi":88,"pm10":31.0,"pm2_5":27.5,"mosquito_risk":0,"arthritis_risk":5,"migraine_risk":7,"frizz_risk":1,"updated_at":"2026-03-13T11:22:11.126752+05:30"},{"city":"Alappuzha","state":"Kerala","latitude":9.4981,"longitude":76.3388,"temp":28.2,"humidity":80,"rain":0.0,"pressure":1010.1,"uv_index":9.1,"wind_gusts":27.7,"aqi":90,"pm10":31.2,"pm2_5":29.5,"mosquito_risk":7,"arthritis_risk":0,"migraine_risk":4,"frizz_risk":1,"updated_at":"2026-03-13T11:22:11.126758+05:30"},{"city":"Munnar","state":"Kerala","latitude":10.0889,"longitude":77.0595,"temp":29.7,"humidity":32,"rain":0.0,"pressure":860.6,"uv_index":9.55,"wind_gusts":24.1,"aqi":72,"pm10":18.3,"pm2_5":15.3,"mosquito_risk":4,"arthritis_risk":5,"migraine_risk":7,"frizz_risk":0,"updated_at":"2026-03-13T11:22:11.126764+05:30"},{"city":"Silchar","state":"Assam","latitude":24.8333,"longitude":92.7789,"temp":27.6,"humidity":71,"rain":0.0,"pressure":1007.5,"uv_index":7.75,"wind_gusts":36.4,"aqi":165,"pm10":94.8,"pm2_5":80.3,"mosquito_risk":7,"arthritis_risk":5,"migraine_risk":4,"frizz_risk":1,"updated_at":"2026-03-13T11:22:11.126770+05:30"},{"city":"Dibrugarh","state":"Assam","latitude":27.4728,"longitude":94.912,"temp":22.9,"humidity":84,"rain":0.0,"pressure":998.0,"uv_index":5.5,"wind_gusts":24.8,"aqi":137,"pm10":52.6,"pm2_5":47.4,"mosquito_risk":3,"arthritis_risk":5,"migraine_risk":3,"frizz_risk":1,"updated_at":"2026-03-13T11:22:11.126777+05:30"}]