[{"city":"Delhi","state":"Delhi","latitude":28.6139,"longitude":77.209,"temp":25.7,"humidity":38,"rain":0.0,"pressure":984.3,"uv_index":7.25,"wind_gusts":31.3,"aqi":314,"pm10":497.3,"pm2_5":92.2,"mosquito_risk":4,"arthritis_risk":5,"migraine_risk":7,"frizz_risk":0,"updated_at":"2026-04-13T23:35:15.901469+05:30"},{"city":"Mumbai","state":"Maharashtra","latitude":19.076,"longitude":72.8777,"temp":28.3,"humidity":85,"rain":0.0,"pressure":1009.5,"uv_index":8.0,"wind_gusts":20.9,"aqi":113,"pm10":74.5,"pm2_5":38.5,"mosquito_risk":7,"arthritis_risk":0,"migraine_risk":4,"frizz_risk":1,"updated_at":"2026-04-13T23:35:15.901523+05:30"},{"city":"Bangalore","state":"Karnataka","latitude":12.9716,"longitude":77.5946,"temp":26.5,"humidity":51,"rain":0.0,"pressure":913.2,"uv_index":9.6,"wind_gusts":30.6,"aqi":86,"pm10":29.1,"pm2_5":24.8,"mosquito_risk":4,"arthritis_risk":5,"migraine_risk":7,"frizz_risk":0,"updated_at":"2026-04-13T23:35:15.901539+05:30"},{"city":"Hyderabad","state":"Telangana","latitude":17.385,"longitude":78.4867,"temp":31.4,"humidity":43,"rain":0.0,"pressure":953.9,"uv_index":9.25,"wind_gusts":32.0,"aqi":100,"pm10":44.1,"pm2_5":37.6,"mosquito_risk":0,"arthritis_risk":5,"migraine_risk":7,"frizz_risk":1,"updated_at":"2026-04-13T23:35:15.901550+05:30"},{"city":"Chennai","state":"Tamil Nadu","latitude":13.0827,"longitude":80.2707,"temp":28.1,"humidity":81,"rain":0.0,"pressure":1008.6,"uv_index":9.3,"wind_gusts":35.6,"aqi":41,"pm10":13.2,"pm2_5":8.2,"mosquito_risk":7,"arthritis_risk":0,"migraine_risk":4,"frizz_risk":1,"updated_at":"2026-04-13T23:35:15.901560+05:30"},{"city":"Kolkata","state":"West Bengal","latitude":22.5726,"longitude":88.3639,"temp":27.3,"humidity":88,"rain":0.0,"pressure":1005.7,"uv_index":8.85,"wind_gusts":28.1,"aqi":75,"pm10":27.5,"pm2_5":21.0,"mosquito_risk":7,"arthritis_risk":5,"migraine_risk":4,"frizz_risk":1,"updated_at":"2026-04-13T23:35:15.901570+05:30"},{"city":"Pune","state":"Maharashtra","latitude":18.5204,"longitude":73.8567,"temp":25.1,"humidity":82,"rain":0.0,"pressure":949.7,"uv_index":8.6,"wind_gusts":40.3,"aqi":85,"pm10":35.7,"pm2_5":25.3,"mosquito_risk":7,"arthritis_risk":5,"migraine_risk":7,"frizz_risk":1,"updated_at":"2026-04-13T23:35:15.901583+05:30"},{"city":"Ahmedabad","state":"Gujarat","latitude":23.0225,"longitude":72.5714,"temp":29.8,"humidity":35,"rain":0.0,"pressure":1002.5,"uv_index":8.1,"wind_gusts":29.5,"aqi":79,"pm10":74.0,"pm2_5":53.6,"mosquito_risk":4,"arthritis_risk":5,"migraine_risk":4,"frizz_risk":0,"updated_at":"2026-04-13T23:35:15.901592+05:30"},{"city":"Jaipur","state":"Rajasthan","latitude":26.9124,"longitude":75.7873,"temp":28.0,"humidity":42,"rain":0.0,"pressure":960.8,"uv_index":7.9,"wind_gusts":25.6,"aqi":147,"pm10":148.1,"pm2_5":44.8,"mosquito_risk":4,"arthritis_risk":5,"migraine_risk":7,"frizz_risk":0,"updated_at":"2026-04-13T23:35:15.901600+05:30"},{"city":"Lucknow","state":"Uttar Pradesh","latitude":26.8467,"longitude":80.9462,"temp":25.5,"humidity":50,"rain":0.0,"pressure":994.1,"uv_index":7.75,"wind_gusts":41.0,"aqi":115,"pm10":392.1,"pm2_5":67.8,"mosquito_risk":4,"arthritis_risk":5,"migraine_risk":7,"frizz_risk":0,"updated_at":"2026-04-13T23:35:15.901609+05:30"},{"city":"Kanpur","state":"Uttar Pradesh","latitude":26.4499,"longitude":80.3319,"temp":24.6,"humidity":54,"rain":0.0,"pressure":992.3,"uv_index":7.75,"wind_gusts":31.0,"aqi":322,"pm10":420.0,"pm2_5":69.4,"mosquito_risk":0,"arthritis_risk":5,"migraine_risk":7,"frizz_risk":0,"updated_at":"2026-04-13T23:35:15.901617+05:30"},{"city":"Chandigarh","state":"Chandigarh","latitude":30.7333,"longitude":76.7794,"temp":22.7,"humidity":58,"rain":0.0,"pressure":970.4,"uv_index":7.2,"wind_gusts":27.0,"aqi":99,"pm10":22.1,"pm2_5":18.3,"mosquito_risk":0,"arthritis_risk":5,"migraine_risk":7,"frizz_risk":0,"updated_at":"2026-04-13T23:35:15.901625+05:30"},{"city":"Srinagar","state":"Jammu and Kashmir","latitude":34.0837,"longitude":74.7973,"temp":10.1,"humidity":76,"rain":0.0,"pressure":840.8,"uv_index":8.1,"wind_gusts":15.1,"aqi":96,"pm10":61.2,"pm2_5":52.6,"mosquito_risk":3,"arthritis_risk":5,"migraine_risk":7,"frizz_risk":0,"updated_at":"2026-04-13T23:35:15.901633+05:30"},{"city":"Jammu","state":"Jammu and Kashmir","latitude":32.7266,"longitude":74.857,"temp":20.3,"humidity":72,"rain":0.0,"pressure":974.6,"uv_index":7.4,"wind_gusts":29.5,"aqi":72,"pm10":39.2,"pm2_5":34.9,"mosquito_risk":3,"arthritis_risk":5,"migraine_risk":7,"frizz_risk":0,"updated_at":"2026-04-13T23:35:15.901640+05:30"},{"city":"Amritsar","state":"Punjab","latitude":31.634,"longitude":74.8723,"temp":22.7,"humidity":60,"rain":0.0,"pressure":982.8,"uv_index":7.8,"wind_gusts":20.9,"aqi":95,"pm10":38.2,"pm2_5":33.9,"mosquito_risk":0,"arthritis_risk":5,"migraine_risk":7,"frizz_risk":0,"updated_at":"2026-04-13T23:35:15.901647+05:30"},{"city":"Ludhiana","state":"Punjab","latitude":30.901,"longitude":75.8573,"temp":23.7,"humidity":50,"rain":0.0,"pressure":980.7,"uv_index":7.45,"wind_gusts":24.8,"aqi":95,"pm10":27.2,"pm2_5":25.7,"mosquito_risk":0,"arthritis_risk":5,"migraine_risk":7,"frizz_risk":0,"updated_at":"2026-04-13T23:35:15.901654+05:30"},{"city":"Jalandhar","state":"Punjab","latitude":31.326,"longitude":75.5762,"temp":22.6,"humidity":55,"rain":0.0,"pressure":981.8,"uv_index":7.6,"wind_gusts":23.0,"aqi":103,"pm10":38.8,"pm2_5":33.2,"mosquito_risk":0,"arthritis_risk":5,"migraine_risk":7,"frizz_risk":0,"updated_at":"2026-04-13T23:35:15.901669+05:30"},{"city":"Dehradun","state":"Uttarakhand","latitude":30.6284,"longitude":78.0322,"temp":14.9,"humidity":73,"rain":0.0,"pressure":830.9,"uv_index":7.5,"wind_gusts":29.2,"aqi":111,"pm10":18.3,"pm2_5":16.1,"mosquito_risk":3,"arthritis_risk":5,"migraine_risk":7,"frizz_risk":0,"updated_at":"2026-04-13T23:35:15.901676+05:30"},{"city":"Shimla","state":"Himachal Pradesh","latitude":31.1048,"longitude":77.1734,"temp":13.4,"humidity":67,"rain":0.0,"pressure":785.5,"uv_index":7.7,"wind_gusts":35.6,"aqi":95,"pm10":22.2,"pm2_5":14.3,"mosquito_risk":3,"arthritis_risk":5,"migraine_risk":7,"frizz_risk":0,"updated_at":"2026-04-13T23:35:15.901683+05:30"},{"city":"Manali","state":"Himachal Pradesh","latitude":32.2396,"longitude":77.1887,"temp":14.0,"humidity":61,"rain":0.0,"pressure":820.7,"uv_index":9.8,"wind_gusts":31.0,"aqi":119,"pm10":19.3,"pm2_5":12.7,"mosquito_risk":3,"arthritis_risk":5,"migraine_risk":7,"frizz_risk":0,"updated_at":"2026-04-13T23:35:15.901691+05:30"},{"city":"Gurgaon","state":"Haryana","latitude":28.4595,"longitude":77.0266,"temp":22.5,"humidity":47,"rain":0.0,"pressure":982.4,"uv_index":7.35,"wind_gusts":25.9,"aqi":955,"pm10":584.9,"pm2_5":94.1,"mosquito_risk":0,"arthritis_risk":5,"migraine_risk":7,"frizz_risk":0,"updated_at":"2026-04-13T23:35:15.901698+05:30"},{"city":"Noida","state":"Uttar Pradesh","latitude":28.5355,"longitude":77.391,"temp":25.3,"humidity":39,"rain":0.0,"pressure":985.8,"uv_index":7.3,"wind_gusts":31.7,"aqi":955,"pm10":584.9,"pm2_5":94.1,"mosquito_risk":4,"arthritis_risk":5,"migraine_risk":7,"frizz_risk":0,"updated_at":"2026-04-13T23:35:15.901705+05:30"},{"city":"Ghaziabad","state":"Uttar Pradesh","latitude":28.6692,"longitude":77.4538,"temp":24.0,"humidity":43,"rain":0.0,"pressure":984.0,"uv_index":7.25,"wind_gusts":31.3,"aqi":188,"pm10":538.3,"pm2_5":93.4,"mosquito_risk":0,"arthritis_risk":5,"migraine_risk":7,"frizz_risk":0,"updated_at":"2026-04-13T23:35:15.901712+05:30"},{"city":"Faridabad","state":"Haryana","latitude":28.4089,"longitude":77.3178,"temp":24.5,"humidity":37,"rain":0.0,"pressure":984.9,"uv_index":7.3,"wind_gusts":29.2,"aqi":955,"pm10":584.9,"pm2_5":94.1,"mosquito_risk":0,"arthritis_risk":5,"migraine_risk":7,"frizz_risk":0,"updated_at":"2026-04-13T23:35:15.901719+05:30"},{"city":"Meerut","state":"Uttar Pradesh","latitude":28.9845,"longitude":77.7064,"temp":22.2,"humidity":49,"rain":0.0,"pressure":982.7,"uv_index":7.15,"wind_gusts":33.1,"aqi":188,"pm10":538.3,"pm2_5":93.4,"mosquito_risk":0,"arthritis_risk":5,"migraine_risk":7,"frizz_risk":0,"updated_at":"2026-04-13T23:35:15.901725+05:30"},{"city":"Agra","state":"Uttar Pradesh","latitude":27.1767,"longitude":78.0081,"temp":25.1,"humidity":57,"rain":0.0,"pressure":988.7,"uv_index":7.65,"wind_gusts":24.8,"aqi":759,"pm10":683.6,"pm2_5":105.5,"mosquito_risk":4,"arthritis_risk":5,"migraine_risk":7,"frizz_risk":0,"updated_at":"2026-04-13T23:35:15.901732+05:30"},{"city":"Varanasi","state":"Uttar Pradesh","latitude":25.3176,"longitude":82.9739,"temp":24.7,"humidity":44,"rain":0.0,"pressure":998.2,"uv_index":8.35,"wind_gusts":35.3,"aqi":100,"pm10":71.5,"pm2_5":31.0,"mosquito_risk":0,"arthritis_risk":5,"migraine_risk":7,"frizz_risk":0,"updated_at":"2026-04-13T23:35:15.901744+05:30"},{"city":"Prayagraj","state":"Uttar Pradesh","latitude":25.4358,"longitude":81.8463,"temp":25.9,"humidity":44,"rain":0.0,"pressure":997.0,"uv_index":8.25,"wind_gusts":35.3,"aqi":93,"pm10":121.1,"pm2_5":36.2,"mosquito_risk":4,"arthritis_risk":5,"migraine_risk":7,"frizz_risk":0,"updated_at":"2026-04-13T23:35:15.901751+05:30"},{"city":"Gorakhpur","state":"Uttar Pradesh","latitude":26.7606,"longitude":83.3732,"temp":23.5,"humidity":34,"rain":0.0,"pressure":997.3,"uv_index":8.15,"wind_gusts":24.1,"aqi":92,"pm10":98.3,"pm2_5":26.8,"mosquito_risk":0,"arthritis_risk":5,"migraine_risk":7,"frizz_risk":0,"updated_at":"2026-04-13T23:35:15.901758+05:30"},{"city":"Bareilly","state":"Uttar Pradesh","latitude":28.367,"longitude":79.4304,"temp":22.3,"humidity":54,"rain":0.0,"pressure":987.6,"uv_index":7.5,"wind_gusts":36.0,"aqi":108,"pm10":116.2,"pm2_5":34.9,"mosquito_risk":0,"arthritis_risk":5,"migraine_risk":7,"frizz_risk":0,"updated_at":"2026-04-13T23:35:15.901765+05:30"},{"city":"Aligarh","state":"Uttar Pradesh","latitude":27.8974,"longitude":78.088,"temp":22.6,"humidity":45,"rain":0.0,"pressure":986.5,"uv_index":7.45,"wind_gusts":32.0,"aqi":637,"pm10":760.0,"pm2_5":117.1,"mosquito_risk":0,"arthritis_risk":5,"migraine_risk":7,"frizz_risk":0,"updated_at":"2026-04-13T23:35:15.901772+05:30"},{"city":"Moradabad","state":"Uttar Pradesh","latitude":28.8386,"longitude":78.7733,"temp":22.4,"humidity":54,"rain":0.0,"pressure":984.6,"uv_index":7.35,"wind_gusts":33.1,"aqi":82,"pm10":198.8,"pm2_5":55.8,"mosquito_risk":0,"arthritis_risk":5,"migraine_risk":7,"frizz_risk":0,"updated_at":"2026-04-13T23:35:15.901778+05:30"},{"city":"Saharanpur","state":"Uttar Pradesh","latitude":29.9637,"longitude":77.546,"temp":22.6,"humidity":59,"rain":0.0,"pressure":977.0,"uv_index":6.95,"wind_gusts":27.0,"aqi":102,"pm10":29.5,"pm2_5":25.5,"mosquito_risk":0,"arthritis_risk":5,"migraine_risk":7,"frizz_risk":0,"updated_at":"2026-04-13T23:35:15.901784+05:30"},{"city":"Jhansi","state":"Uttar Pradesh","latitude":25.4484,"longitude":78.5685,"temp":28.0,"humidity":35,"rain":0.0,"pressure":979.1,"uv_index":8.15,"wind_gusts":26.6,"aqi":173,"pm10":112.2,"pm2_5":31.5,"mosquito_risk":4,"arthritis_risk":5,"migraine_risk":7,"frizz_risk":0,"updated_at":"2026-04-13T23:35:19.253896+05:30"},{"city":"Surat","state":"Gujarat","latitude":21.1702,"longitude":72.8311,"temp":28.0,"humidity":86,"rain":0.0,"pressure":1007.4,"uv_index":7.75,"wind_gusts":26.6,"aqi":124,"pm10":55.3,"pm2_5":36.0,"mosquito_risk":7,"arthritis_risk":5,"migraine_risk":4,"frizz_risk":1,"updated_at":"2026-04-13T23:35:19.253928+05:30"},{"city":"Vadodara","state":"Gujarat","latitude":22.3072,"longitude":73.1812,"temp":28.6,"humidity":65,"rain":0.0,"pressure":1004.8,"uv_index":8.05,"wind_gusts":24.5,"aqi":122,"pm10":66.8,"pm2_5":51.1,"mosquito_risk":7,"arthritis_risk":5,"migraine_risk":4,"frizz_risk":1,"updated_at":"2026-04-13T23:35:19.253939+05:30"},{"city":"Rajkot","state":"Gujarat","latitude":22.3039,"longitude":70.8022,"temp":26.9,"humidity":60,"rain":0.0,"pressure":995.7,"uv_index":7.8,"wind_gusts":35.6,"aqi":70,"pm10":42.1,"pm2_5":18.6,"mosquito_risk":4,"arthritis_risk":5,"migraine_risk":7,"frizz_risk":1,"updated_at":"2026-04-13T23:35:19.253948+05:30"},{"city":"Thane","state":"Maharashtra","latitude":19.2183,"longitude":72.9781,"temp":27.4,"humidity":88,"rain":0.0,"pressure":1009.0,"uv_index":8.0,"wind_gusts":34.2,"aqi":113,"pm10":74.5,"pm2_5":38.5,"mosquito_risk":7,"arthritis_risk":0,"migraine_risk":4,"frizz_risk":1,"updated_at":"2026-04-13T23:35:19.253955+05:30"},{"city":"Nagpur","state":"Maharashtra","latitude":21.1458,"longitude":79.0882,"temp":29.4,"humidity":56,"rain":0.0,"pressure":972.7,"uv_index":8.85,"wind_gusts":25.2,"aqi":124,"pm10":48.8,"pm2_5":34.6,"mosquito_risk":4,"arthritis_risk":5,"migraine_risk":7,"frizz_risk":1,"updated_at":"2026-04-13T23:35:19.253984+05:30"},{"city":"Nashik","state":"Maharashtra","latitude":19.9975,"longitude":73.7898,"temp":25.4,"humidity":74,"rain":0.0,"pressure":946.8,"uv_index":8.25,"wind_gusts":35.3,"aqi":85,"pm10":42.6,"pm2_5":29.3,"mosquito_risk":7,"arthritis_risk":5,"migraine_risk":7,"frizz_risk":1,"updated_at":"2026-04-13T23:35:19.253992+05:30"},{"city":"Aurangabad","state":"Maharashtra","latitude":19.8762,"longitude":75.3433,"temp":30.8,"humidity":33,"rain":0.0,"pressure":944.9,"uv_index":8.95,"wind_gusts":34.6,"aqi":75,"pm10":35.2,"pm2_5":25.1,"mosquito_risk":0,"arthritis_risk":5,"migraine_risk":7,"frizz_risk":0,"updated_at":"2026-04-13T23:35:19.254000+05:30"},{"city":"Solapur","state":"Maharashtra","latitude":17.6599,"longitude":75.9064,"temp":32.4,"humidity":29,"rain":0.0,"pressure":957.1,"uv_index":9.05,"wind_gusts":30.2,"aqi":94,"pm10":39.6,"pm2_5":33.5,"mosquito_risk":0,"arthritis_risk":5,"migraine_risk":7,"frizz_risk":0,"updated_at":"2026-04-13T23:35:19.254008+05:30"},{"city":"Kolhapur","state":"Maharashtra","latitude":16.705,"longitude":74.2433,"temp":23.0,"humidity":86,"rain":0.0,"pressure":948.6,"uv_index":9.05,"wind_gusts":43.2,"aqi":84,"pm10":35.9,"pm2_5":25.1,"mosquito_risk":3,"arthritis_risk":5,"migraine_risk":7,"frizz_risk":1,"updated_at":"2026-04-13T23:35:19.254015+05:30"},{"city":"Goa","state":"Goa","latitude":15.2993,"longitude":74.124,"temp":27.9,"humidity":78,"rain":0.0,"pressure":999.0,"uv_index":9.05,"wind_gusts":29.9,"aqi":88,"pm10":62.9,"pm2_5":30.6,"mosquito_risk":7,"arthritis_risk":5,"migraine_risk":7,"frizz_risk":1,"updated_at":"2026-04-13T23:35:19.254023+05:30"},{"city":"Jodhpur","state":"Rajasthan","latitude":26.2389,"longitude":73.0243,"temp":28.8,"humidity":34,"rain":0.0,"pressure":982.8,"uv_index":8.15,"wind_gusts":26.6,"aqi":73,"pm10":156.9,"pm2_5":36.8,"mosquito_risk":4,"arthritis_risk":5,"migraine_risk":7,"frizz_risk":0,"updated_at":"2026-04-13T23:35:19.254031+05:30"},{"city":"Udaipur","state":"Rajasthan","latitude":24.5854,"longitude":73.7125,"temp":25.9,"humidity":34,"rain":0.0,"pressure":948.0,"uv_index":8.7,"wind_gusts":29.9,"aqi":83,"pm10":39.5,"pm2_5":15.8,"mosquito_risk":4,"arthritis_risk":5,"migraine_risk":7,"frizz_risk":0,"updated_at":"2026-04-13T23:35:19.254038+05:30"},{"city":"Kota","state":"Rajasthan","latitude":25.2138,"longitude":75.8648,"temp":25.5,"humidity":56,"rain":0.0,"pressure":979.7,"uv_index":8.15,"wind_gusts":17.3,"aqi":101,"pm10":104.3,"pm2_5":32.2,"mosquito_risk":4,"arthritis_risk":5,"migraine_risk":7,"frizz_risk":1,"updated_at":"2026-04-13T23:35:19.254045+05:30"},{"city":"Bikaner","state":"Rajasthan","latitude":28.0229,"longitude":73.3119,"temp":30.9,"humidity":27,"rain":0.0,"pressure":981.5,"uv_index":7.95,"wind_gusts":19.4,"aqi":75,"pm10":24.7,"pm2_5":12.1,"mosquito_risk":0,"arthritis_risk":5,"migraine_risk":7,"frizz_risk":0,"updated_at":"2026-04-13T23:35:19.254053+05:30"},{"city":"Ajmer","state":"Rajasthan","latitude":26.4499,"longitude":74.6399,"temp":27.6,"humidity":32,"rain":0.0,"pressure":955.3,"uv_index":8.1,"wind_gusts":29.9,"aqi":66,"pm10":74.5,"pm2_5":30.5,"mosquito_risk":4,"arthritis_risk":5,"migraine_risk":7,"frizz_risk":0,"updated_at":"2026-04-13T23:35:19.254060+05:30"},{"city":"Gwalior","state":"Madhya Pradesh","latitude":26.2183,"longitude":78.1828,"temp":26.5,"humidity":49,"rain":0.0,"pressure":984.2,"uv_index":7.9,"wind_gusts":31.7,"aqi":278,"pm10":119.2,"pm2_5":35.5,"mosquito_risk":4,"arthritis_risk":5,"migraine_risk":7,"frizz_risk":0,"updated_at":"2026-04-13T23:35:19.254067+05:30"},{"city":"Indore","state":"Madhya Pradesh","latitude":22.7196,"longitude":75.8577,"temp":25.4,"humidity":46,"rain":0.0,"pressure":949.0,"uv_index":8.55,"wind_gusts":32.0,"aqi":106,"pm10":57.5,"pm2_5":38.1,"mosquito_risk":4,"arthritis_risk":5,"migraine_risk":7,"frizz_risk":0,"updated_at":"2026-04-13T23:35:19.254075+05:30"},{"city":"Bhopal","state":"Madhya Pradesh","latitude":23.2599,"longitude":77.4126,"temp":28.4,"humidity":39,"rain":0.0,"pressure":954.5,"uv_index":8.5,"wind_gusts":25.2,"aqi":86,"pm10":75.9,"pm2_5":34.2,"mosquito_risk":4,"arthritis_risk":5,"migraine_risk":7,"frizz_risk":0,"updated_at":"2026-04-13T23:35:19.254082+05:30"},{"city":"Jabalpur","state":"Madhya Pradesh","latitude":23.1815,"longitude":79.9864,"temp":26.8,"humidity":53,"rain":0.0,"pressure":961.9,"uv_index":8.65,"wind_gusts":27.4,"aqi":93,"pm10":95.7,"pm2_5":27.7,"mosquito_risk":4,"arthritis_risk":5,"migraine_risk":7,"frizz_risk":1,"updated_at":"2026-04-13T23:35:19.254089+05:30"},{"city":"Ujjain","state":"Madhya Pradesh","latitude":23.1765,"longitude":75.7885,"temp":26.0,"humidity":45,"rain":0.0,"pressure":954.8,"uv_index":8.45,"wind_gusts":31.0,"aqi":107,"pm10":75.4,"pm2_5":60.1,"mosquito_risk":4,"arthritis_risk":5,"migraine_risk":7,"frizz_risk":0,"updated_at":"2026-04-13T23:35:19.254097+05:30"},{"city":"Visakhapatnam","state":"Andhra Pradesh","latitude":17.6868,"longitude":83.2185,"temp":28.2,"humidity":85,"rain":0.0,"pressure":1004.5,"uv_index":9.15,"wind_gusts":40.0,"aqi":68,"pm10":23.3,"pm2_5":14.4,"mosquito_risk":7,"arthritis_risk":5,"migraine_risk":4,"frizz_risk":1,"updated_at":"2026-04-13T23:35:19.254105+05:30"},{"city":"Vijayawada","state":"Andhra Pradesh","latitude":16.5062,"longitude":80.648,"temp":27.1,"humidity":86,"rain":0.0,"pressure":1003.4,"uv_index":9.2,"wind_gusts":27.7,"aqi":60,"pm10":17.6,"pm2_5":12.3,"mosquito_risk":7,"arthritis_risk":5,"migraine_risk":4,"frizz_risk":1,"updated_at":"2026-04-13T23:35:19.254112+05:30"},{"city":"Guntur","state":"Andhra Pradesh","latitude":16.3067,"longitude":80.4365,"temp":27.6,"humidity":85,"rain":0.0,"pressure":1004.6,"uv_index":9.25,"wind_gusts":32.0,"aqi":63,"pm10":18.9,"pm2_5":13.2,"mosquito_risk":7,"arthritis_risk":5,"migraine_risk":4,"frizz_risk":1,"updated_at":"2026-04-13T23:35:19.254119+05:30"},{"city":"Nellore","state":"Andhra Pradesh","latitude":14.4426,"longitude":79.9865,"temp":27.3,"humidity":83,"rain":0.0,"pressure":1006.7,"uv_index":9.3,"wind_gusts":35.6,"aqi":53,"pm10":13.0,"pm2_5":9.0,"mosquito_risk":7,"arthritis_risk":5,"migraine_risk":4,"frizz_risk":1,"updated_at":"2026-04-13T23:35:19.254127+05:30"},{"city":"Kurnool","state":"Andhra Pradesh","latitude":15.8281,"longitude":78.0373,"temp":33.8,"humidity":34,"rain":0.0,"pressure":976.7,"uv_index":9.2,"wind_gusts":26.6,"aqi":95,"pm10":50.1,"pm2_5":40.7,"mosquito_risk":0,"arthritis_risk":5,"migraine_risk":7,"frizz_risk":0,"updated_at":"2026-04-13T23:35:19.254135+05:30"},{"city":"Kakinada","state":"Andhra Pradesh","latitude":16.9891,"longitude":82.2475,"temp":27.3,"humidity":87,"rain":0.0,"pressure":1008.5,"uv_index":9.2,"wind_gusts":32.8,"aqi":55,"pm10":19.8,"pm2_5":10.3,"mosquito_risk":7,"arthritis_risk":0,"migraine_risk":4,"frizz_risk":1,"updated_at":"2026-04-13T23:35:19.254142+05:30"},{"city":"Tirupati","state":"Andhra Pradesh","latitude":13.6288,"longitude":79.4192,"temp":27.3,"humidity":75,"rain":0.0,"pressure":993.3,"uv_index":9.4,"wind_gusts":31.0,"aqi":67,"pm10":23.3,"pm2_5":20.4,"mosquito_risk":7,"arthritis_risk":5,"migraine_risk":7,"frizz_risk":1,"updated_at":"2026-04-13T23:35:19.254149+05:30"},{"city":"Warangal","state":"Telangana","latitude":17.9689,"longitude":79.5941,"temp":30.4,"humidity":59,"rain":0.0,"pressure":978.7,"uv_index":9.1,"wind_gusts":33.8,"aqi":84,"pm10":33.4,"pm2_5":29.3,"mosquito_risk":0,"arthritis_risk":5,"migraine_risk":7,"frizz_risk":1,"updated_at":"2026-04-13T23:35:19.254156+05:30"},{"city":"Nizamabad","state":"Telangana","latitude":18.6725,"longitude":78.0941,"temp":30.8,"humidity":47,"rain":0.0,"pressure":964.2,"uv_index":9.05,"wind_gusts":32.0,"aqi":99,"pm10":51.9,"pm2_5":41.8,"mosquito_risk":0,"arthritis_risk":5,"migraine_risk":7,"frizz_risk":1,"updated_at":"2026-04-13T23:35:19.254163+05:30"},{"city":"Mysore","state":"Karnataka","latitude":12.2958,"longitude":76.6396,"temp":25.5,"humidity":79,"rain":0.0,"pressure":929.9,"uv_index":9.5,"wind_gusts":45.4,"aqi":90,"pm10":41.4,"pm2_5":34.2,"mosquito_risk":7,"arthritis_risk":5,"migraine_risk":7,"frizz_risk":1,"updated_at":"2026-04-13T23:35:19.254170+05:30"},{"city":"Mangalore","state":"Karnataka","latitude":12.9141,"longitude":74.856,"temp":29.5,"humidity":84,"rain":0.0,"pressure":1007.6,"uv_index":9.15,"wind_gusts":24.8,"aqi":96,"pm10":46.7,"pm2_5":33.3,"mosquito_risk":7,"arthritis_risk":5,"migraine_risk":4,"frizz_risk":1,"updated_at":"2026-04-13T23:35:19.254177+05:30"},{"city":"Hubli-Dharwad","state":"Karnataka","latitude":15.3647,"longitude":75.124,"temp":24.4,"humidity":86,"rain":0.0,"pressure":942.0,"uv_index":9.25,"wind_gusts":35.6,"aqi":91,"pm10":28.2,"pm2_5":22.1,"mosquito_risk":3,"arthritis_risk":5,"migraine_risk":7,"frizz_risk":1,"updated_at":"2026-04-13T23:35:19.254184+05:30"},{"city":"Belgaum","state":"Karnataka","latitude":15.8497,"longitude":74.4977,"temp":22.7,"humidity":87,"rain":0.0,"pressure":926.4,"uv_index":9.3,"wind_gusts":40.0,"aqi":84,"pm10":41.9,"pm2_5":25.1,"mosquito_risk":3,"arthritis_risk":5,"migraine_risk":7,"frizz_risk":1,"updated_at":"2026-04-13T23:35:22.601098+05:30"},{"city":"Coimbatore","state":"Tamil Nadu","latitude":11.0168,"longitude":76.9558,"temp":26.3,"humidity":83,"rain":0.0,"pressure":963.4,"uv_index":9.45,"wind_gusts":35.3,"aqi":91,"pm10":50.3,"pm2_5":40.6,"mosquito_risk":7,"arthritis_risk":5,"migraine_risk":7,"frizz_risk":1,"updated_at":"2026-04-13T23:35:22.601128+05:30"},{"city":"Madurai","state":"Tamil Nadu","latitude":9.9252,"longitude":78.1198,"temp":28.4,"humidity":82,"rain":0.0,"pressure":995.1,"uv_index":9.35,"wind_gusts":36.7,"aqi":75,"pm10":22.5,"pm2_5":20.7,"mosquito_risk":7,"arthritis_risk":5,"migraine_risk":7,"frizz_risk":1,"updated_at":"2026-04-13T23:35:22.601138+05:30"},{"city":"Trichy","state":"Tamil Nadu","latitude":10.7905,"longitude":78.7047,"temp":27.9,"humidity":83,"rain":0.0,"pressure":1001.4,"uv_index":9.35,"wind_gusts":27.7,"aqi":57,"pm10":16.0,"pm2_5":14.7,"mosquito_risk":7,"arthritis_risk":5,"migraine_risk":4,"frizz_risk":1,"updated_at":"2026-04-13T23:35:22.601148+05:30"},{"city":"Salem","state":"Tamil Nadu","latitude":11.6643,"longitude":78.146,"temp":28.9,"humidity":68,"rain":0.0,"pressure":978.6,"uv_index":9.45,"wind_gusts":20.9,"aqi":78,"pm10":27.8,"pm2_5":24.6,"mosquito_risk":7,"arthritis_risk":5,"migraine_risk":7,"frizz_risk":1,"updated_at":"2026-04-13T23:35:22.601156+05:30"},{"city":"Tirunelveli","state":"Tamil Nadu","latitude":8.7139,"longitude":77.7567,"temp":28.6,"humidity":79,"rain":0.0,"pressure":1004.9,"uv_index":9.25,"wind_gusts":46.8,"aqi":80,"pm10":32.6,"pm2_5":26.5,"mosquito_risk":7,"arthritis_risk":5,"migraine_risk":4,"frizz_risk":1,"updated_at":"2026-04-13T23:35:22.601164+05:30"},{"city":"Vellore","state":"Tamil Nadu","latitude":12.9165,"longitude":79.1325,"temp":27.0,"humidity":69,"rain":0.0,"pressure":986.2,"uv_index":9.45,"wind_gusts":30.2,"aqi":83,"pm10":37.4,"pm2_5":34.5,"mosquito_risk":7,"arthritis_risk":5,"migraine_risk":7,"frizz_risk":1,"updated_at":"2026-04-13T23:35:22.601172+05:30"},{"city":"Erode","state":"Tamil Nadu","latitude":11.341,"longitude":77.7172,"temp":29.5,"humidity":70,"rain":0.0,"pressure":990.3,"uv_index":9.4,"wind_gusts":29.2,"aqi":67,"pm10":15.8,"pm2_5":14.3,"mosquito_risk":7,"arthritis_risk":5,"migraine_risk":7,"frizz_risk":1,"updated_at":"2026-04-13T23:35:22.601181+05:30"},{"city":"Kochi","state":"Kerala","latitude":9.9312,"longitude":76.2673,"temp":29.5,"humidity":80,"rain":0.0,"pressure":1010.1,"uv_index":9.1,"wind_gusts":32.8,"aqi":92,"pm10":45.2,"pm2_5":39.3,"mosquito_risk":7,"arthritis_risk":0,"migraine_risk":4,"frizz_risk":1,"updated_at":"2026-04-13T23:35:22.601189+05:30"},{"city":"Thiruvananthapuram","state":"Kerala","latitude":8.5241,"longitude":76.9366,"temp":28.7,"humidity":83,"rain":0.0,"pressure":1009.6,"uv_index":8.9,"wind_gusts":27.4,"aqi":81,"pm10":42.7,"pm2_5":24.6,"mosquito_risk":7,"arthritis_risk":0,"migraine_risk":4,"frizz_risk":1,"updated_at":"2026-04-13T23:35:22.601197+05:30"},{"city":"Kozhikode","state":"Kerala","latitude":11.2588,"longitude":75.7804,"temp":29.7,"humidity":82,"rain":0.0,"pressure":1009.1,"uv_index":9.15,"wind_gusts":32.0,"aqi":92,"pm10":48.4,"pm2_5":26.5,"mosquito_risk":7,"arthritis_risk":0,"migraine_risk":4,"frizz_risk":1,"updated_at":"2026-04-13T23:35:22.601205+05:30"},{"city":"Thrissur","state":"Kerala","latitude":10.5276,"longitude":76.2144,"temp":29.1,"humidity":85,"rain":0.0,"pressure":1008.2,"uv_index":9.1,"wind_gusts":39.6,"aqi":90,"pm10":56.5,"pm2_5":42.7,"mosquito_risk":7,"arthritis_risk":0,"migraine_risk":4,"frizz_risk":1,"updated_at":"2026-04-13T23:35:22.601213+05:30"},{"city":"Kannur","state":"Kerala","latitude":11.8745,"longitude":75.3704,"temp":29.2,"humidity":83,"rain":0.0,"pressure":1008.2,"uv_index":9.15,"wind_gusts":33.1,"aqi":106,"pm10":51.3,"pm2_5":34.5,"mosquito_risk":7,"arthritis_risk":0,"migraine_risk":4,"frizz_risk":1,"updated_at":"2026-04-13T23:35:22.601221+05:30"},{"city":"Patna","state":"Bihar","latitude":25.5941,"longitude":85.1376,"temp":26.0,"humidity":43,"rain":0.0,"pressure":1000.7,"uv_index":8.45,"wind_gusts":31.3,"aqi":95,"pm10":73.1,"pm2_5":35.0,"mosquito_risk":4,"arthritis_risk":5,"migraine_risk":4,"frizz_risk":0,"updated_at":"2026-04-13T23:35:22.601228+05:30"},{"city":"Gaya","state":"Bihar","latitude":24.7914,"longitude":85.0002,"temp":25.6,"humidity":46,"rain":0.0,"pressure":994.6,"uv_index":8.55,"wind_gusts":23.8,"aqi":102,"pm10":87.3,"pm2_5":34.5,"mosquito_risk":4,"arthritis_risk":5,"migraine_risk":7,"frizz_risk":0,"updated_at":"2026-04-13T23:35:22.601236+05:30"},{"city":"Muzaffarpur","state":"Bihar","latitude":26.1209,"longitude":85.3647,"temp":24.7,"humidity":64,"rain":0.0,"pressure":1000.6,"uv_index":8.45,"wind_gusts":22.3,"aqi":112,"pm10":103.1,"pm2_5":61.9,"mosquito_risk":3,"arthritis_risk":5,"migraine_risk":4,"frizz_risk":1,"updated_at":"2026-04-13T23:35:22.601243+05:30"},{"city":"Bhagalpur","state":"Bihar","latitude":25.2425,"longitude":87.0117,"temp":25.8,"humidity":73,"rain":0.0,"pressure":1001.4,"uv_index":8.5,"wind_gusts":14.4,"aqi":136,"pm10":109.0,"pm2_5":62.2,"mosquito_risk":7,"arthritis_risk":5,"migraine_risk":4,"frizz_risk":1,"updated_at":"2026-04-13T23:35:22.601251+05:30"},{"city":"Ranchi","state":"Jharkhand","latitude":23.3441,"longitude":85.3096,"temp":24.2,"humidity":44,"rain":0.0,"pressure":938.4,"uv_index":9.1,"wind_gusts":20.5,"aqi":81,"pm10":111.1,"pm2_5":33.4,"mosquito_risk":0,"arthritis_risk":5,"migraine_risk":7,"frizz_risk":0,"updated_at":"2026-04-13T23:35:22.601259+05:30"},{"city":"Jamshedpur","state":"Jharkhand","latitude":22.8046,"longitude":86.2029,"temp":28.1,"humidity":69,"rain":0.0,"pressure":990.4,"uv_index":8.95,"wind_gusts":16.9,"aqi":123,"pm10":77.8,"pm2_5":60.8,"mosquito_risk":7,"arthritis_risk":5,"migraine_risk":7,"frizz_risk":1,"updated_at":"2026-04-13T23:35:22.601267+05:30"},{"city":"Dhanbad","state":"Jharkhand","latitude":23.7957,"longitude":86.4304,"temp":26.7,"humidity":50,"rain":0.0,"pressure":979.9,"uv_index":8.9,"wind_gusts":21.2,"aqi":158,"pm10":144.8,"pm2_5":86.1,"mosquito_risk":4,"arthritis_risk":5,"migraine_risk":7,"frizz_risk":0,"updated_at":"2026-04-13T23:35:22.601274+05:30"},{"city":"Bokaro","state":"Jharkhand","latitude":23.6693,"longitude":86.1511,"temp":26.8,"humidity":52,"rain":0.0,"pressure":984.2,"uv_index":8.9,"wind_gusts":21.2,"aqi":154,"pm10":146.2,"pm2_5":81.0,"mosquito_risk":4,"arthritis_risk":5,"migraine_risk":7,"frizz_risk":1,"updated_at":"2026-04-13T23:35:22.601282+05:30"},{"city":"Bhubaneswar","state":"Odisha","latitude":20.2961,"longitude":85.8245,"temp":27.3,"humidity":86,"rain":0.0,"pressure":1003.1,"uv_index":9.05,"wind_gusts":32.0,"aqi":65,"pm10":21.7,"pm2_5":15.3,"mosquito_risk":7,"arthritis_risk":5,"migraine_risk":4,"frizz_risk":1,"updated_at":"2026-04-13T23:35:22.601290+05:30"},{"city":"Cuttack","state":"Odisha","latitude":20.4625,"longitude":85.8828,"temp":27.3,"humidity":87,"rain":0.0,"pressure":1004.9,"uv_index":9.1,"wind_gusts":29.2,"aqi":65,"pm10":21.7,"pm2_5":15.3,"mosquito_risk":7,"arthritis_risk":5,"migraine_risk":4,"frizz_risk":1,"updated_at":"2026-04-13T23:35:22.601298+05:30"},{"city":"Rourkela","state":"Odisha","latitude":22.2604,"longitude":84.8536,"temp":28.2,"humidity":69,"rain":0.0,"pressure":984.6,"uv_index":8.85,"wind_gusts":24.8,"aqi":161,"pm10":71.2,"pm2_5":51.2,"mosquito_risk":7,"arthritis_risk":5,"migraine_risk":7,"frizz_risk":1,"updated_at":"2026-04-13T23:35:22.601305+05:30"},{"city":"Raipur","state":"Chhattisgarh","latitude":21.2514,"longitude":81.6296,"temp":30.1,"humidity":39,"rain":0.0,"pressure":973.9,"uv_index":8.9,"wind_gusts":34.2,"aqi":126,"pm10":89.2,"pm2_5":77.3,"mosquito_risk":0,"arthritis_risk":5,"migraine_risk":7,"frizz_risk":0,"updated_at":"2026-04-13T23:35:22.601313+05:30"},{"city":"Bhilai","state":"Chhattisgarh","latitude":21.1938,"longitude":81.3509,"temp":28.6,"humidity":48,"rain":0.0,"pressure":974.1,"uv_index":8.9,"wind_gusts":32.8,"aqi":109,"pm10":57.5,"pm2_5":44.0,"mosquito_risk":4,"arthritis_risk":5,"migraine_risk":7,"frizz_risk":1,"updated_at":"2026-04-13T23:35:22.601319+05:30"},{"city":"Guwahati","state":"Assam","latitude":26.1158,"longitude":91.7086,"temp":23.5,"humidity":85,"rain":0.0,"pressure":1003.5,"uv_index":8.4,"wind_gusts":39.6,"aqi":144,"pm10":47.0,"pm2_5":38.5,"mosquito_risk":3,"arthritis_risk":5,"migraine_risk":4,"frizz_risk":1,"updated_at":"2026-04-13T23:35:22.601326+05:30"},{"city":"Agartala","state":"Tripura","latitude":23.8315,"longitude":91.2868,"temp":24.4,"humidity":91,"rain":0.0,"pressure":1007.1,"uv_index":8.65,"wind_gusts":24.8,"aqi":87,"pm10":38.1,"pm2_5":32.8,"mosquito_risk":3,"arthritis_risk":5,"migraine_risk":4,"frizz_risk":1,"updated_at":"2026-04-13T23:35:22.601334+05:30"},{"city":"Shillong","state":"Meghalaya","latitude":25.5788,"longitude":91.8933,"temp":14.1,"humidity":89,"rain":0.0,"pressure":856.5,"uv_index":8.8,"wind_gusts":75.2,"aqi":106,"pm10":37.6,"pm2_5":27.9,"mosquito_risk":3,"arthritis_risk":10,"migraine_risk":7,"frizz_risk":0,"updated_at":"2026-04-13T23:35:22.601341+05:30"},{"city":"Imphal","state":"Manipur","latitude":24.817,"longitude":93.9368,"temp":18.6,"humidity":85,"rain":0.0,"pressure":924.6,"uv_index":9.0,"wind_gusts":66.6,"aqi":120,"pm10":71.9,"pm2_5":49.7,"mosquito_risk":3,"arthritis_risk":10,"migraine_risk":7,"frizz_risk":1,"updated_at":"2026-04-13T23:35:22.601348+05:30"},{"city":"Aizawl","state":"Mizoram","latitude":23.7271,"longitude":92.7176,"temp":19.5,"humidity":74,"rain":0.0,"pressure":893.4,"uv_index":8.9,"wind_gusts":46.8,"aqi":99,"pm10":65.2,"pm2_5":38.0,"mosquito_risk":3,"arthritis_risk":5,"migraine_risk":7,"frizz_risk":0,"updated_at":"2026-04-13T23:35:22.601356+05:30"},{"city":"Kohima","state":"Nagaland","latitude":25.6701,"longitude":94.1077,"temp":15.5,"humidity":77,"rain":0.0,"pressure":856.0,"uv_index":8.95,"wind_gusts":106.6,"aqi":94,"pm10":42.7,"pm2_5":22.8,"mosquito_risk":3,"arthritis_risk":5,"migraine_risk":7,"frizz_risk":0,"updated_at":"2026-04-13T23:35:22.601363+05:30"},{"city":"Gangtok","state":"Sikkim","latitude":27.3314,"longitude":88.6138,"temp":14.4,"humidity":82,"rain":0.0,"pressure":837.8,"uv_index":8.65,"wind_gusts":15.1,"aqi":113,"pm10":79.6,"pm2_5":44.2,"mosquito_risk":3,"arthritis_risk":10,"migraine_risk":7,"frizz_risk":0,"updated_at":"2026-04-13T23:35:22.601369+05:30"},{"city":"Siliguri","state":"West Bengal","latitude":26.7271,"longitude":88.3953,"temp":20.8,"humidity":73,"rain":0.0,"pressure":995.5,"uv_index":8.35,"wind_gusts":26.3,"aqi":151,"pm10":117.3,"pm2_5":67.1,"mosquito_risk":3,"arthritis_risk":5,"migraine_risk":7,"frizz_risk":0,"updated_at":"2026-04-13T23:35:25.951832+05:30"},{"city":"Durgapur","state":"West Bengal","latitude":23.5204,"longitude":87.3119,"temp":27.7,"humidity":81,"rain":0.0,"pressure":994.9,"uv_index":8.8,"wind_gusts":19.4,"aqi":158,"pm10":99.7,"pm2_5":84.8,"mosquito_risk":7,"arthritis_risk":5,"migraine_risk":7,"frizz_risk":1,"updated_at":"2026-04-13T23:35:25.951865+05:30"},{"city":"Asansol","state":"West Bengal","latitude":23.6739,"longitude":86.9524,"temp":29.0,"humidity":62,"rain":0.0,"pressure":993.5,"uv_index":8.85,"wind_gusts":16.6,"aqi":143,"pm10":90.8,"pm2_5":53.6,"mosquito_risk":7,"arthritis_risk":5,"migraine_risk":7,"frizz_risk":1,"updated_at":"2026-04-13T23:35:25.951875+05:30"},{"city":"Pondicherry","state":"Puducherry","latitude":11.9139,"longitude":79.8145,"temp":26.6,"humidity":92,"rain":0.0,"pressure":1010.0,"uv_index":9.25,"wind_gusts":31.7,"aqi":33,"pm10":10.4,"pm2_5":6.4,"mosquito_risk":7,"arthritis_risk":0,"migraine_risk":4,"frizz_risk":1,"updated_at":"2026-04-13T23:35:25.951884+05:30"},{"city":"Port Blair","state":"Andaman and Nicobar Islands","latitude":11.6234,"longitude":92.7265,"temp":28.8,"humidity":80,"rain":0.0,"pressure":1008.3,"uv_index":9.2,"wind_gusts":12.2,"aqi":63,"pm10":26.1,"pm2_5":15.6,"mosquito_risk":7,"arthritis_risk":0,"migraine_risk":4,"frizz_risk":1,"updated_at":"2026-04-13T23:35:25.951892+05:30"},{"city":"Haridwar","state":"Uttarakhand","latitude":29.9457,"longitude":78.1642,"temp":21.2,"humidity":72,"rain":0.0,"pressure":975.6,"uv_index":7.05,"wind_gusts":26.6,"aqi":105,"pm10":34.9,"pm2_5":28.9,"mosquito_risk":3,"arthritis_risk":5,"migraine_risk":7,"frizz_risk":0,"updated_at":"2026-04-13T23:35:25.951900+05:30"},{"city":"Rishikesh","state":"Uttarakhand","latitude":30.0869,"longitude":78.2676,"temp":21.2,"humidity":64,"rain":0.0,"pressure":968.5,"uv_index":7.05,"wind_gusts":29.2,"aqi":126,"pm10":22.9,"pm2_5":17.6,"mosquito_risk":3,"arthritis_risk":5,"migraine_risk":7,"frizz_risk":0,"updated_at":"2026-04-13T23:35:25.951908+05:30"},{"city":"Nainital","state":"Uttarakhand","latitude":29.3919,"longitude":79.4542,"temp":18.8,"humidity":33,"rain":0.0,"pressure":807.3,"uv_index":7.9,"wind_gusts":34.6,"aqi":119,"pm10":26.4,"pm2_5":14.5,"mosquito_risk":0,"arthritis_risk":5,"migraine_risk":7,"frizz_risk":0,"updated_at":"2026-04-13T23:35:25.951915+05:30"},{"city":"Mussoorie","state":"Uttarakhand","latitude":30.4599,"longitude":78.0664,"temp":16.3,"humidity":57,"rain":0.0,"pressure":803.6,"uv_index":7.5,"wind_gusts":33.1,"aqi":119,"pm10":29.9,"pm2_5":28.2,"mosquito_risk":0,"arthritis_risk":5,"migraine_risk":7,"frizz_risk":0,"updated_at":"2026-04-13T23:35:25.951923+05:30"},{"city":"Dharamshala","state":"Himachal Pradesh","latitude":32.219,"longitude":76.3234,"temp":19.2,"humidity":56,"rain":0.0,"pressure":870.9,"uv_index":7.75,"wind_gusts":21.2,"aqi":95,"pm10":22.3,"pm2_5":15.3,"mosquito_risk":0,"arthritis_risk":5,"migraine_risk":7,"frizz_risk":0,"updated_at":"2026-04-13T23:35:25.951931+05:30"},{"city":"Dalhousie","state":"Himachal Pradesh","latitude":32.5387,"longitude":75.971,"temp":15.9,"humidity":57,"rain":0.0,"pressure":804.8,"uv_index":7.45,"wind_gusts":21.2,"aqi":92,"pm10":39.0,"pm2_5":30.9,"mosquito_risk":0,"arthritis_risk":5,"migraine_risk":7,"frizz_risk":0,"updated_at":"2026-04-13T23:35:25.951939+05:30"},{"city":"Patiala","state":"Punjab","latitude":30.3398,"longitude":76.3869,"temp":23.3,"humidity":49,"rain":0.0,"pressure":979.8,"uv_index":7.1,"wind_gusts":26.3,"aqi":278,"pm10":396.7,"pm2_5":56.3,"mosquito_risk":0,"arthritis_risk":5,"migraine_risk":7,"frizz_risk":0,"updated_at":"2026-04-13T23:35:25.951947+05:30"},{"city":"Bhatinda","state":"Punjab","latitude":30.211,"longitude":74.9455,"temp":25.0,"humidity":40,"rain":0.0,"pressure":985.2,"uv_index":7.75,"wind_gusts":23.4,"aqi":93,"pm10":48.3,"pm2_5":21.9,"mosquito_risk":4,"arthritis_risk":5,"migraine_risk":7,"frizz_risk":0,"updated_at":"2026-04-13T23:35:25.951954+05:30"},{"city":"Rohtak","state":"Haryana","latitude":28.8955,"longitude":76.6066,"temp":23.1,"humidity":42,"rain":0.0,"pressure":982.9,"uv_index":7.25,"wind_gusts":30.6,"aqi":478,"pm10":423.8,"pm2_5":80.6,"mosquito_risk":0,"arthritis_risk":5,"migraine_risk":7,"frizz_risk":0,"updated_at":"2026-04-13T23:35:25.951983+05:30"},{"city":"Panipat","state":"Haryana","latitude":29.3909,"longitude":76.9635,"temp":22.9,"humidity":47,"rain":0.0,"pressure":981.8,"uv_index":7.1,"wind_gusts":30.6,"aqi":938,"pm10":564.4,"pm2_5":99.9,"mosquito_risk":0,"arthritis_risk":5,"migraine_risk":7,"frizz_risk":0,"updated_at":"2026-04-13T23:35:25.951991+05:30"},{"city":"Mathura","state":"Uttar Pradesh","latitude":27.4924,"longitude":77.6737,"temp":26.8,"humidity":38,"rain":0.0,"pressure":988.0,"uv_index":7.6,"wind_gusts":25.9,"aqi":739,"pm10":817.7,"pm2_5":112.2,"mosquito_risk":4,"arthritis_risk":5,"migraine_risk":7,"frizz_risk":0,"updated_at":"2026-04-13T23:35:25.951999+05:30"},{"city":"Vrindavan","state":"Uttar Pradesh","latitude":27.5823,"longitude":77.7027,"temp":23.1,"humidity":49,"rain":0.0,"pressure":988.3,"uv_index":7.55,"wind_gusts":27.7,"aqi":739,"pm10":817.7,"pm2_5":112.2,"mosquito_risk":0,"arthritis_risk":5,"migraine_risk":7,"frizz_risk":0,"updated_at":"2026-04-13T23:35:25.952006+05:30"},{"city":"Ayodhya","state":"Uttar Pradesh","latitude":26.7922,"longitude":82.1998,"temp":24.8,"humidity":43,"rain":0.0,"pressure":995.8,"uv_index":7.95,"wind_gusts":36.0,"aqi":88,"pm10":220.7,"pm2_5":40.2,"mosquito_risk":0,"arthritis_risk":5,"migraine_risk":7,"frizz_risk":0,"updated_at":"2026-04-13T23:35:25.952014+05:30"},{"city":"Ratlam","state":"Madhya Pradesh","latitude":23.3315,"longitude":75.0367,"temp":26.7,"humidity":48,"rain":0.0,"pressure":955.3,"uv_index":8.35,"wind_gusts":30.2,"aqi":86,"pm10":40.7,"pm2_5":33.6,"mosquito_risk":4,"arthritis_risk":5,"migraine_risk":7,"frizz_risk":0,"updated_at":"2026-04-13T23:35:25.952021+05:30"},{"city":"Sagar","state":"Madhya Pradesh","latitude":23.8388,"longitude":78.7378,"temp":29.5,"humidity":35,"rain":0.0,"pressure":950.8,"uv_index":8.5,"wind_gusts":25.6,"aqi":104,"pm10":143.4,"pm2_5":30.2,"mosquito_risk":4,"arthritis_risk":5,"migraine_risk":7,"frizz_risk":0,"updated_at":"2026-04-13T23:35:25.952028+05:30"},{"city":"Satna","state":"Madhya Pradesh","latitude":24.6005,"longitude":80.8322,"temp":27.6,"humidity":38,"rain":0.0,"pressure":972.4,"uv_index":8.55,"wind_gusts":25.2,"aqi":131,"pm10":99.4,"pm2_5":23.2,"mosquito_risk":4,"arthritis_risk":5,"migraine_risk":7,"frizz_risk":0,"updated_at":"2026-04-13T23:35:25.952037+05:30"},{"city":"Akola","state":"Maharashtra","latitude":20.7002,"longitude":77.0082,"temp":29.0,"humidity":50,"rain":0.0,"pressure":975.0,"uv_index":8.75,"wind_gusts":31.7,"aqi":84,"pm10":27.7,"pm2_5":20.9,"mosquito_risk":4,"arthritis_risk":5,"migraine_risk":7,"frizz_risk":1,"updated_at":"2026-04-13T23:35:25.952045+05:30"},{"city":"Amravati","state":"Maharashtra","latitude":20.9374,"longitude":77.7796,"temp":27.6,"humidity":45,"rain":0.0,"pressure":966.8,"uv_index":8.8,"wind_gusts":24.5,"aqi":87,"pm10":25.8,"pm2_5":20.0,"mosquito_risk":4,"arthritis_risk":5,"migraine_risk":7,"frizz_risk":0,"updated_at":"2026-04-13T23:35:25.952053+05:30"},{"city":"Latur","state":"Maharashtra","latitude":18.4088,"longitude":76.5604,"temp":30.2,"humidity":45,"rain":0.0,"pressure":939.8,"uv_index":9.05,"wind_gusts":33.1,"aqi":120,"pm10":41.8,"pm2_5":31.1,"mosquito_risk":0,"arthritis_risk":5,"migraine_risk":7,"frizz_risk":1,"updated_at":"2026-04-13T23:35:25.952060+05:30"},{"city":"Nanded","state":"Maharashtra","latitude":19.1383,"longitude":77.3091,"temp":29.0,"humidity":57,"rain":0.0,"pressure":968.0,"uv_index":8.9,"wind_gusts":18.0,"aqi":91,"pm10":49.8,"pm2_5":38.1,"mosquito_risk":4,"arthritis_risk":5,"migraine_risk":7,"frizz_risk":1,"updated_at":"2026-04-13T23:35:25.952067+05:30"},{"city":"Gulbarga","state":"Karnataka","latitude":17.3297,"longitude":76.8343,"temp":32.9,"humidity":46,"rain":0.0,"pressure":958.6,"uv_index":9.1,"wind_gusts":18.0,"aqi":135,"pm10":48.9,"pm2_5":41.8,"mosquito_risk":0,"arthritis_risk":5,"migraine_risk":7,"frizz_risk":1,"updated_at":"2026-04-13T23:35:25.952074+05:30"},{"city":"Bidar","state":"Karnataka","latitude":17.9104,"longitude":77.5199,"temp":31.0,"humidity":51,"rain":0.0,"pressure":935.9,"uv_index":9.15,"wind_gusts":27.7,"aqi":106,"pm10":69.2,"pm2_5":58.1,"mosquito_risk":0,"arthritis_risk":5,"migraine_risk":7,"frizz_risk":1,"updated_at":"2026-04-13T23:35:25.952080+05:30"},{"city":"Hospet","state":"Karnataka","latitude":15.2689,"longitude":76.3909,"temp":30.5,"humidity":64,"rain":0.0,"pressure":956.6,"uv_index":9.3,"wind_gusts":35.6,"aqi":112,"pm10":55.3,"pm2_5":47.3,"mosquito_risk":3,"arthritis_risk":5,"migraine_risk":7,"frizz_risk":1,"updated_at":"2026-04-13T23:35:25.952088+05:30"},{"city":"Tirupur","state":"Tamil Nadu","latitude":11.1085,"longitude":77.3411,"temp":28.6,"humidity":77,"rain":0.0,"pressure":976.8,"uv_index":9.45,"wind_gusts":29.5,"aqi":83,"pm10":31.9,"pm2_5":26.8,"mosquito_risk":7,"arthritis_risk":5,"migraine_risk":7,"frizz_risk":1,"updated_at":"2026-04-13T23:35:25.952096+05:30"},{"city":"Alappuzha","state":"Kerala","latitude":9.4981,"longitude":76.3388,"temp":29.0,"humidity":81,"rain":0.0,"pressure":1010.4,"uv_index":9.05,"wind_gusts":28.1,"aqi":89,"pm10":52.0,"pm2_5":38.8,"mosquito_risk":7,"arthritis_risk":0,"migraine_risk":4,"frizz_risk":1,"updated_at":"2026-04-13T23:35:25.952103+05:30"},{"city":"Munnar","state":"Kerala","latitude":10.0889,"longitude":77.0595,"temp":22.0,"humidity":89,"rain":0.0,"pressure":858.5,"uv_index":9.7,"wind_gusts":32.4,"aqi":85,"pm10":42.1,"pm2_5":36.4,"mosquito_risk":3,"arthritis_risk":5,"migraine_risk":7,"frizz_risk":1,"updated_at":"2026-04-13T23:35:25.952111+05:30"},{"city":"Silchar","state":"Assam","latitude":24.8333,"longitude":92.7789,"temp":24.0,"humidity":84,"rain":0.0,"pressure":1006.2,"uv_index":8.65,"wind_gusts":37.4,"aqi":140,"pm10":56.7,"pm2_5":41.4,"mosquito_risk":3,"arthritis_risk":5,"migraine_risk":4,"frizz_risk":1,"updated_at":"2026-04-13T23:35:25.952118+05:30"},{"city":"Dibrugarh","state":"Assam","latitude":27.4728,"longitude":94.912,"temp":21.4,"humidity":85,"rain":0.0,"pressure":998.9,"uv_index":7.15,"wind_gusts":24.5,"aqi":116,"pm10":51.9,"pm2_5":35.2,"mosquito_risk":3,"arthritis_risk":5,"migraine_risk":7,"frizz_risk":1,"updated_at":"2026-04-13T23:35:25.952125+05:30"}]