[{"city":"Delhi","state":"Delhi","latitude":28.6139,"longitude":77.209,"temp":16.7,"humidity":81,"rain":0.0,"pressure":984.7,"uv_index":6.1,"wind_gusts":43.2,"aqi":181,"pm10":323.2,"pm2_5":54.4,"mosquito_risk":3,"arthritis_risk":10,"migraine_risk":7,"frizz_risk":0,"updated_at":"2026-03-16T05:03:15.972686+05:30"},{"city":"Mumbai","state":"Maharashtra","latitude":19.076,"longitude":72.8777,"temp":27.1,"humidity":80,"rain":0.0,"pressure":1008.8,"uv_index":7.65,"wind_gusts":19.4,"aqi":103,"pm10":71.9,"pm2_5":31.8,"mosquito_risk":7,"arthritis_risk":0,"migraine_risk":4,"frizz_risk":1,"updated_at":"2026-03-16T05:03:15.972724+05:30"},{"city":"Bangalore","state":"Karnataka","latitude":12.9716,"longitude":77.5946,"temp":18.9,"humidity":79,"rain":0.0,"pressure":911.1,"uv_index":9.35,"wind_gusts":18.0,"aqi":82,"pm10":35.4,"pm2_5":34.9,"mosquito_risk":3,"arthritis_risk":5,"migraine_risk":7,"frizz_risk":0,"updated_at":"2026-03-16T05:03:15.972739+05:30"},{"city":"Hyderabad","state":"Telangana","latitude":17.385,"longitude":78.4867,"temp":22.6,"humidity":76,"rain":0.0,"pressure":952.9,"uv_index":8.75,"wind_gusts":27.4,"aqi":96,"pm10":30.6,"pm2_5":23.9,"mosquito_risk":3,"arthritis_risk":5,"migraine_risk":7,"frizz_risk":1,"updated_at":"2026-03-16T05:03:15.972749+05:30"},{"city":"Chennai","state":"Tamil Nadu","latitude":13.0827,"longitude":80.2707,"temp":25.1,"humidity":84,"rain":0.0,"pressure":1008.5,"uv_index":9.05,"wind_gusts":32.4,"aqi":38,"pm10":14.8,"pm2_5":11.7,"mosquito_risk":7,"arthritis_risk":0,"migraine_risk":4,"frizz_risk":1,"updated_at":"2026-03-16T05:03:15.972758+05:30"},{"city":"Kolkata","state":"West Bengal","latitude":22.5726,"longitude":88.3639,"temp":24.3,"humidity":89,"rain":0.0,"pressure":1006.4,"uv_index":8.05,"wind_gusts":33.5,"aqi":64,"pm10":29.9,"pm2_5":24.9,"mosquito_risk":3,"arthritis_risk":5,"migraine_risk":4,"frizz_risk":1,"updated_at":"2026-03-16T05:03:15.972766+05:30"},{"city":"Pune","state":"Maharashtra","latitude":18.5204,"longitude":73.8567,"temp":17.3,"humidity":74,"rain":0.0,"pressure":947.4,"uv_index":8.25,"wind_gusts":40.7,"aqi":91,"pm10":63.1,"pm2_5":43.4,"mosquito_risk":3,"arthritis_risk":5,"migraine_risk":7,"frizz_risk":0,"updated_at":"2026-03-16T05:03:15.972777+05:30"},{"city":"Ahmedabad","state":"Gujarat","latitude":23.0225,"longitude":72.5714,"temp":22.3,"humidity":70,"rain":0.0,"pressure":1002.2,"uv_index":7.45,"wind_gusts":25.6,"aqi":66,"pm10":35.7,"pm2_5":18.6,"mosquito_risk":3,"arthritis_risk":5,"migraine_risk":4,"frizz_risk":1,"updated_at":"2026-03-16T05:03:15.972785+05:30"},{"city":"Jaipur","state":"Rajasthan","latitude":26.9124,"longitude":75.7873,"temp":21.2,"humidity":30,"rain":0.0,"pressure":958.7,"uv_index":6.85,"wind_gusts":36.0,"aqi":135,"pm10":428.4,"pm2_5":82.7,"mosquito_risk":0,"arthritis_risk":5,"migraine_risk":7,"frizz_risk":0,"updated_at":"2026-03-16T05:03:15.972792+05:30"},{"city":"Lucknow","state":"Uttar Pradesh","latitude":26.8467,"longitude":80.9462,"temp":19.2,"humidity":70,"rain":0.0,"pressure":993.1,"uv_index":6.65,"wind_gusts":61.6,"aqi":98,"pm10":41.2,"pm2_5":35.5,"mosquito_risk":3,"arthritis_risk":5,"migraine_risk":7,"frizz_risk":0,"updated_at":"2026-03-16T05:03:15.972800+05:30"},{"city":"Kanpur","state":"Uttar Pradesh","latitude":26.4499,"longitude":80.3319,"temp":19.2,"humidity":72,"rain":0.0,"pressure":991.5,"uv_index":6.7,"wind_gusts":50.4,"aqi":134,"pm10":82.4,"pm2_5":31.7,"mosquito_risk":3,"arthritis_risk":5,"migraine_risk":7,"frizz_risk":0,"updated_at":"2026-03-16T05:03:15.972807+05:30"},{"city":"Chandigarh","state":"Chandigarh","latitude":30.7333,"longitude":76.7794,"temp":13.5,"humidity":82,"rain":0.0,"pressure":969.0,"uv_index":5.55,"wind_gusts":50.8,"aqi":71,"pm10":16.6,"pm2_5":13.0,"mosquito_risk":3,"arthritis_risk":10,"migraine_risk":3,"frizz_risk":0,"updated_at":"2026-03-16T05:03:15.972815+05:30"},{"city":"Srinagar","state":"Jammu and Kashmir","latitude":34.0837,"longitude":74.7973,"temp":4.6,"humidity":93,"rain":0.0,"pressure":836.3,"uv_index":5.25,"wind_gusts":19.8,"aqi":66,"pm10":5.7,"pm2_5":5.6,"mosquito_risk":3,"arthritis_risk":10,"migraine_risk":3,"frizz_risk":0,"updated_at":"2026-03-16T05:03:15.972823+05:30"},{"city":"Jammu","state":"Jammu and Kashmir","latitude":32.7266,"longitude":74.857,"temp":14.1,"humidity":83,"rain":0.0,"pressure":973.0,"uv_index":6.2,"wind_gusts":42.1,"aqi":83,"pm10":19.0,"pm2_5":14.9,"mosquito_risk":3,"arthritis_risk":10,"migraine_risk":7,"frizz_risk":0,"updated_at":"2026-03-16T05:03:15.972830+05:30"},{"city":"Amritsar","state":"Punjab","latitude":31.634,"longitude":74.8723,"temp":13.2,"humidity":91,"rain":0.0,"pressure":980.7,"uv_index":5.65,"wind_gusts":35.6,"aqi":94,"pm10":36.0,"pm2_5":23.1,"mosquito_risk":3,"arthritis_risk":10,"migraine_risk":3,"frizz_risk":0,"updated_at":"2026-03-16T05:03:15.972836+05:30"},{"city":"Ludhiana","state":"Punjab","latitude":30.901,"longitude":75.8573,"temp":13.7,"humidity":90,"rain":0.0,"pressure":978.5,"uv_index":6.15,"wind_gusts":50.8,"aqi":93,"pm10":41.1,"pm2_5":28.9,"mosquito_risk":3,"arthritis_risk":10,"migraine_risk":7,"frizz_risk":0,"updated_at":"2026-03-16T05:03:15.972843+05:30"},{"city":"Jalandhar","state":"Punjab","latitude":31.326,"longitude":75.5762,"temp":13.5,"humidity":88,"rain":0.0,"pressure":979.4,"uv_index":6.05,"wind_gusts":47.5,"aqi":91,"pm10":23.2,"pm2_5":14.6,"mosquito_risk":3,"arthritis_risk":10,"migraine_risk":7,"frizz_risk":0,"updated_at":"2026-03-16T05:03:15.972852+05:30"},{"city":"Dehradun","state":"Uttarakhand","latitude":30.6284,"longitude":78.0322,"temp":7.7,"humidity":74,"rain":0.0,"pressure":826.6,"uv_index":5.95,"wind_gusts":39.2,"aqi":51,"pm10":15.7,"pm2_5":5.7,"mosquito_risk":3,"arthritis_risk":5,"migraine_risk":3,"frizz_risk":0,"updated_at":"2026-03-16T05:03:15.972858+05:30"},{"city":"Shimla","state":"Himachal Pradesh","latitude":31.1048,"longitude":77.1734,"temp":6.0,"humidity":75,"rain":0.0,"pressure":779.1,"uv_index":5.8,"wind_gusts":50.8,"aqi":51,"pm10":9.4,"pm2_5":4.6,"mosquito_risk":3,"arthritis_risk":5,"migraine_risk":3,"frizz_risk":0,"updated_at":"2026-03-16T05:03:15.972867+05:30"},{"city":"Manali","state":"Himachal Pradesh","latitude":32.2396,"longitude":77.1887,"temp":7.7,"humidity":65,"rain":0.0,"pressure":813.8,"uv_index":6.3,"wind_gusts":29.5,"aqi":50,"pm10":7.4,"pm2_5":3.6,"mosquito_risk":3,"arthritis_risk":5,"migraine_risk":7,"frizz_risk":0,"updated_at":"2026-03-16T05:03:15.972873+05:30"},{"city":"Gurgaon","state":"Haryana","latitude":28.4595,"longitude":77.0266,"temp":16.3,"humidity":84,"rain":0.0,"pressure":982.7,"uv_index":6.25,"wind_gusts":46.1,"aqi":1522,"pm10":2145.8,"pm2_5":234.2,"mosquito_risk":3,"arthritis_risk":10,"migraine_risk":7,"frizz_risk":0,"updated_at":"2026-03-16T05:03:15.972880+05:30"},{"city":"Noida","state":"Uttar Pradesh","latitude":28.5355,"longitude":77.391,"temp":16.5,"humidity":83,"rain":0.0,"pressure":986.3,"uv_index":6.15,"wind_gusts":42.8,"aqi":1522,"pm10":2145.8,"pm2_5":234.2,"mosquito_risk":3,"arthritis_risk":10,"migraine_risk":7,"frizz_risk":0,"updated_at":"2026-03-16T05:03:15.972887+05:30"},{"city":"Ghaziabad","state":"Uttar Pradesh","latitude":28.6692,"longitude":77.4538,"temp":15.9,"humidity":84,"rain":0.0,"pressure":984.5,"uv_index":6.1,"wind_gusts":45.7,"aqi":107,"pm10":46.7,"pm2_5":26.1,"mosquito_risk":3,"arthritis_risk":10,"migraine_risk":7,"frizz_risk":0,"updated_at":"2026-03-16T05:03:15.972893+05:30"},{"city":"Faridabad","state":"Haryana","latitude":28.4089,"longitude":77.3178,"temp":16.3,"humidity":85,"rain":0.0,"pressure":985.5,"uv_index":6.15,"wind_gusts":42.1,"aqi":1522,"pm10":2145.8,"pm2_5":234.2,"mosquito_risk":3,"arthritis_risk":10,"migraine_risk":7,"frizz_risk":0,"updated_at":"2026-03-16T05:03:15.972900+05:30"},{"city":"Meerut","state":"Uttar Pradesh","latitude":28.9845,"longitude":77.7064,"temp":15.5,"humidity":85,"rain":0.0,"pressure":983.2,"uv_index":6.0,"wind_gusts":53.6,"aqi":107,"pm10":46.7,"pm2_5":26.1,"mosquito_risk":3,"arthritis_risk":10,"migraine_risk":3,"frizz_risk":0,"updated_at":"2026-03-16T05:03:15.972906+05:30"},{"city":"Agra","state":"Uttar Pradesh","latitude":27.1767,"longitude":78.0081,"temp":17.2,"humidity":87,"rain":0.0,"pressure":989.0,"uv_index":6.45,"wind_gusts":36.7,"aqi":925,"pm10":1072.9,"pm2_5":127.6,"mosquito_risk":3,"arthritis_risk":10,"migraine_risk":7,"frizz_risk":0,"updated_at":"2026-03-16T05:03:15.972912+05:30"},{"city":"Varanasi","state":"Uttar Pradesh","latitude":25.3176,"longitude":82.9739,"temp":20.6,"humidity":76,"rain":0.0,"pressure":997.5,"uv_index":7.35,"wind_gusts":39.2,"aqi":143,"pm10":116.2,"pm2_5":87.5,"mosquito_risk":3,"arthritis_risk":5,"migraine_risk":7,"frizz_risk":1,"updated_at":"2026-03-16T05:03:15.972921+05:30"},{"city":"Prayagraj","state":"Uttar Pradesh","latitude":25.4358,"longitude":81.8463,"temp":20.2,"humidity":77,"rain":0.0,"pressure":995.5,"uv_index":7.2,"wind_gusts":35.3,"aqi":110,"pm10":62.9,"pm2_5":52.4,"mosquito_risk":3,"arthritis_risk":5,"migraine_risk":7,"frizz_risk":0,"updated_at":"2026-03-16T05:03:15.972928+05:30"},{"city":"Gorakhpur","state":"Uttar Pradesh","latitude":26.7606,"longitude":83.3732,"temp":18.8,"humidity":72,"rain":0.0,"pressure":997.1,"uv_index":7.05,"wind_gusts":52.9,"aqi":151,"pm10":91.0,"pm2_5":76.1,"mosquito_risk":3,"arthritis_risk":5,"migraine_risk":7,"frizz_risk":0,"updated_at":"2026-03-16T05:03:15.972934+05:30"},{"city":"Bareilly","state":"Uttar Pradesh","latitude":28.367,"longitude":79.4304,"temp":17.1,"humidity":83,"rain":0.0,"pressure":988.9,"uv_index":6.35,"wind_gusts":60.8,"aqi":112,"pm10":37.0,"pm2_5":26.8,"mosquito_risk":3,"arthritis_risk":10,"migraine_risk":7,"frizz_risk":0,"updated_at":"2026-03-16T05:03:15.972942+05:30"},{"city":"Aligarh","state":"Uttar Pradesh","latitude":27.8974,"longitude":78.088,"temp":17.1,"humidity":86,"rain":0.0,"pressure":987.3,"uv_index":6.2,"wind_gusts":37.4,"aqi":420,"pm10":622.1,"pm2_5":78.5,"mosquito_risk":3,"arthritis_risk":10,"migraine_risk":7,"frizz_risk":0,"updated_at":"2026-03-16T05:03:15.972949+05:30"},{"city":"Moradabad","state":"Uttar Pradesh","latitude":28.8386,"longitude":78.7733,"temp":16.5,"humidity":81,"rain":0.0,"pressure":986.0,"uv_index":6.15,"wind_gusts":69.1,"aqi":119,"pm10":59.5,"pm2_5":36.8,"mosquito_risk":3,"arthritis_risk":10,"migraine_risk":7,"frizz_risk":0,"updated_at":"2026-03-16T05:03:15.972955+05:30"},{"city":"Saharanpur","state":"Uttar Pradesh","latitude":29.9637,"longitude":77.546,"temp":14.2,"humidity":87,"rain":0.0,"pressure":977.0,"uv_index":5.75,"wind_gusts":42.5,"aqi":115,"pm10":30.6,"pm2_5":25.0,"mosquito_risk":3,"arthritis_risk":10,"migraine_risk":3,"frizz_risk":0,"updated_at":"2026-03-16T05:03:15.972961+05:30"},{"city":"Jhansi","state":"Uttar Pradesh","latitude":25.4484,"longitude":78.5685,"temp":21.3,"humidity":70,"rain":0.0,"pressure":976.6,"uv_index":7.15,"wind_gusts":28.8,"aqi":78,"pm10":21.5,"pm2_5":17.9,"mosquito_risk":3,"arthritis_risk":5,"migraine_risk":7,"frizz_risk":0,"updated_at":"2026-03-16T05:03:19.222388+05:30"},{"city":"Surat","state":"Gujarat","latitude":21.1702,"longitude":72.8311,"temp":25.6,"humidity":89,"rain":0.0,"pressure":1007.0,"uv_index":7.4,"wind_gusts":24.1,"aqi":123,"pm10":49.2,"pm2_5":29.3,"mosquito_risk":7,"arthritis_risk":5,"migraine_risk":4,"frizz_risk":1,"updated_at":"2026-03-16T05:03:19.222423+05:30"},{"city":"Vadodara","state":"Gujarat","latitude":22.3072,"longitude":73.1812,"temp":23.8,"humidity":95,"rain":0.0,"pressure":1004.5,"uv_index":7.35,"wind_gusts":25.2,"aqi":84,"pm10":38.0,"pm2_5":24.3,"mosquito_risk":3,"arthritis_risk":5,"migraine_risk":4,"frizz_risk":1,"updated_at":"2026-03-16T05:03:19.222435+05:30"},{"city":"Rajkot","state":"Gujarat","latitude":22.3039,"longitude":70.8022,"temp":22.5,"humidity":88,"rain":0.0,"pressure":994.9,"uv_index":7.3,"wind_gusts":30.2,"aqi":68,"pm10":41.8,"pm2_5":19.6,"mosquito_risk":3,"arthritis_risk":5,"migraine_risk":7,"frizz_risk":1,"updated_at":"2026-03-16T05:03:19.222445+05:30"},{"city":"Thane","state":"Maharashtra","latitude":19.2183,"longitude":72.9781,"temp":25.2,"humidity":90,"rain":0.0,"pressure":1008.4,"uv_index":7.7,"wind_gusts":32.0,"aqi":103,"pm10":71.9,"pm2_5":31.8,"mosquito_risk":7,"arthritis_risk":0,"migraine_risk":4,"frizz_risk":1,"updated_at":"2026-03-16T05:03:19.222454+05:30"},{"city":"Nagpur","state":"Maharashtra","latitude":21.1458,"longitude":79.0882,"temp":24.4,"humidity":73,"rain":0.0,"pressure":972.3,"uv_index":8.0,"wind_gusts":22.0,"aqi":126,"pm10":52.3,"pm2_5":47.4,"mosquito_risk":3,"arthritis_risk":5,"migraine_risk":7,"frizz_risk":1,"updated_at":"2026-03-16T05:03:19.222462+05:30"},{"city":"Nashik","state":"Maharashtra","latitude":19.9975,"longitude":73.7898,"temp":19.0,"humidity":69,"rain":0.0,"pressure":945.1,"uv_index":7.45,"wind_gusts":28.1,"aqi":75,"pm10":73.6,"pm2_5":34.0,"mosquito_risk":3,"arthritis_risk":5,"migraine_risk":7,"frizz_risk":0,"updated_at":"2026-03-16T05:03:19.222470+05:30"},{"city":"Aurangabad","state":"Maharashtra","latitude":19.8762,"longitude":75.3433,"temp":21.5,"humidity":56,"rain":0.0,"pressure":943.4,"uv_index":8.1,"wind_gusts":30.2,"aqi":75,"pm10":49.4,"pm2_5":28.2,"mosquito_risk":0,"arthritis_risk":5,"migraine_risk":7,"frizz_risk":0,"updated_at":"2026-03-16T05:03:19.222479+05:30"},{"city":"Solapur","state":"Maharashtra","latitude":17.6599,"longitude":75.9064,"temp":21.5,"humidity":63,"rain":0.0,"pressure":956.6,"uv_index":8.65,"wind_gusts":25.6,"aqi":108,"pm10":31.0,"pm2_5":28.3,"mosquito_risk":3,"arthritis_risk":5,"migraine_risk":7,"frizz_risk":0,"updated_at":"2026-03-16T05:03:19.222487+05:30"},{"city":"Kolhapur","state":"Maharashtra","latitude":16.705,"longitude":74.2433,"temp":18.1,"humidity":79,"rain":0.0,"pressure":946.9,"uv_index":8.75,"wind_gusts":35.6,"aqi":114,"pm10":48.5,"pm2_5":36.2,"mosquito_risk":3,"arthritis_risk":5,"migraine_risk":7,"frizz_risk":0,"updated_at":"2026-03-16T05:03:19.222495+05:30"},{"city":"Goa","state":"Goa","latitude":15.2993,"longitude":74.124,"temp":26.2,"humidity":85,"rain":0.0,"pressure":997.9,"uv_index":8.8,"wind_gusts":32.0,"aqi":115,"pm10":59.4,"pm2_5":39.2,"mosquito_risk":7,"arthritis_risk":5,"migraine_risk":7,"frizz_risk":1,"updated_at":"2026-03-16T05:03:19.222503+05:30"},{"city":"Jodhpur","state":"Rajasthan","latitude":26.2389,"longitude":73.0243,"temp":23.2,"humidity":27,"rain":0.0,"pressure":981.8,"uv_index":7.2,"wind_gusts":38.9,"aqi":97,"pm10":145.8,"pm2_5":23.7,"mosquito_risk":0,"arthritis_risk":5,"migraine_risk":7,"frizz_risk":0,"updated_at":"2026-03-16T05:03:19.222512+05:30"},{"city":"Udaipur","state":"Rajasthan","latitude":24.5854,"longitude":73.7125,"temp":21.0,"humidity":39,"rain":0.0,"pressure":945.7,"uv_index":7.85,"wind_gusts":33.1,"aqi":56,"pm10":17.2,"pm2_5":9.2,"mosquito_risk":0,"arthritis_risk":5,"migraine_risk":7,"frizz_risk":0,"updated_at":"2026-03-16T05:03:19.222520+05:30"},{"city":"Kota","state":"Rajasthan","latitude":25.2138,"longitude":75.8648,"temp":20.2,"humidity":41,"rain":0.0,"pressure":977.5,"uv_index":7.2,"wind_gusts":25.6,"aqi":61,"pm10":14.2,"pm2_5":9.3,"mosquito_risk":0,"arthritis_risk":5,"migraine_risk":7,"frizz_risk":0,"updated_at":"2026-03-16T05:03:19.222528+05:30"},{"city":"Bikaner","state":"Rajasthan","latitude":28.0229,"longitude":73.3119,"temp":22.6,"humidity":28,"rain":0.0,"pressure":980.3,"uv_index":6.9,"wind_gusts":25.9,"aqi":46,"pm10":27.5,"pm2_5":8.1,"mosquito_risk":0,"arthritis_risk":5,"migraine_risk":7,"frizz_risk":0,"updated_at":"2026-03-16T05:03:19.222536+05:30"},{"city":"Ajmer","state":"Rajasthan","latitude":26.4499,"longitude":74.6399,"temp":20.0,"humidity":46,"rain":0.0,"pressure":953.1,"uv_index":7.15,"wind_gusts":38.9,"aqi":70,"pm10":53.4,"pm2_5":20.0,"mosquito_risk":0,"arthritis_risk":5,"migraine_risk":7,"frizz_risk":0,"updated_at":"2026-03-16T05:03:19.222543+05:30"},{"city":"Gwalior","state":"Madhya Pradesh","latitude":26.2183,"longitude":78.1828,"temp":20.9,"humidity":75,"rain":0.0,"pressure":982.1,"uv_index":6.85,"wind_gusts":27.7,"aqi":96,"pm10":100.1,"pm2_5":33.1,"mosquito_risk":3,"arthritis_risk":5,"migraine_risk":7,"frizz_risk":1,"updated_at":"2026-03-16T05:03:19.222550+05:30"},{"city":"Indore","state":"Madhya Pradesh","latitude":22.7196,"longitude":75.8577,"temp":20.3,"humidity":51,"rain":0.0,"pressure":947.4,"uv_index":7.75,"wind_gusts":31.3,"aqi":62,"pm10":29.3,"pm2_5":16.6,"mosquito_risk":0,"arthritis_risk":5,"migraine_risk":7,"frizz_risk":0,"updated_at":"2026-03-16T05:03:19.222557+05:30"},{"city":"Bhopal","state":"Madhya Pradesh","latitude":23.2599,"longitude":77.4126,"temp":19.6,"humidity":52,"rain":0.0,"pressure":952.7,"uv_index":7.65,"wind_gusts":32.0,"aqi":56,"pm10":20.3,"pm2_5":11.6,"mosquito_risk":0,"arthritis_risk":5,"migraine_risk":7,"frizz_risk":0,"updated_at":"2026-03-16T05:03:19.222564+05:30"},{"city":"Jabalpur","state":"Madhya Pradesh","latitude":23.1815,"longitude":79.9864,"temp":22.1,"humidity":53,"rain":0.0,"pressure":960.2,"uv_index":7.8,"wind_gusts":41.0,"aqi":66,"pm10":30.9,"pm2_5":24.0,"mosquito_risk":0,"arthritis_risk":5,"migraine_risk":7,"frizz_risk":0,"updated_at":"2026-03-16T05:03:19.222571+05:30"},{"city":"Ujjain","state":"Madhya Pradesh","latitude":23.1765,"longitude":75.7885,"temp":20.5,"humidity":50,"rain":0.0,"pressure":953.2,"uv_index":7.65,"wind_gusts":29.9,"aqi":65,"pm10":29.3,"pm2_5":17.3,"mosquito_risk":0,"arthritis_risk":5,"migraine_risk":7,"frizz_risk":0,"updated_at":"2026-03-16T05:03:19.222579+05:30"},{"city":"Visakhapatnam","state":"Andhra Pradesh","latitude":17.6868,"longitude":83.2185,"temp":24.7,"humidity":87,"rain":0.0,"pressure":1005.4,"uv_index":8.7,"wind_gusts":40.0,"aqi":66,"pm10":23.0,"pm2_5":18.7,"mosquito_risk":3,"arthritis_risk":5,"migraine_risk":4,"frizz_risk":1,"updated_at":"2026-03-16T05:03:19.222586+05:30"},{"city":"Vijayawada","state":"Andhra Pradesh","latitude":16.5062,"longitude":80.648,"temp":23.5,"humidity":89,"rain":0.0,"pressure":1004.1,"uv_index":8.8,"wind_gusts":27.0,"aqi":57,"pm10":13.3,"pm2_5":11.1,"mosquito_risk":3,"arthritis_risk":5,"migraine_risk":4,"frizz_risk":1,"updated_at":"2026-03-16T05:03:19.222593+05:30"},{"city":"Guntur","state":"Andhra Pradesh","latitude":16.3067,"longitude":80.4365,"temp":23.9,"humidity":88,"rain":0.0,"pressure":1005.2,"uv_index":8.8,"wind_gusts":28.1,"aqi":54,"pm10":12.3,"pm2_5":10.2,"mosquito_risk":3,"arthritis_risk":5,"migraine_risk":4,"frizz_risk":1,"updated_at":"2026-03-16T05:03:19.222600+05:30"},{"city":"Nellore","state":"Andhra Pradesh","latitude":14.4426,"longitude":79.9865,"temp":23.9,"humidity":92,"rain":0.0,"pressure":1007.0,"uv_index":8.95,"wind_gusts":30.2,"aqi":49,"pm10":9.9,"pm2_5":8.5,"mosquito_risk":3,"arthritis_risk":5,"migraine_risk":4,"frizz_risk":1,"updated_at":"2026-03-16T05:03:19.222607+05:30"},{"city":"Kurnool","state":"Andhra Pradesh","latitude":15.8281,"longitude":78.0373,"temp":25.1,"humidity":66,"rain":0.0,"pressure":977.1,"uv_index":8.8,"wind_gusts":20.5,"aqi":85,"pm10":20.5,"pm2_5":18.6,"mosquito_risk":7,"arthritis_risk":5,"migraine_risk":7,"frizz_risk":1,"updated_at":"2026-03-16T05:03:19.222614+05:30"},{"city":"Kakinada","state":"Andhra Pradesh","latitude":16.9891,"longitude":82.2475,"temp":23.0,"humidity":89,"rain":0.0,"pressure":1009.5,"uv_index":8.7,"wind_gusts":26.6,"aqi":57,"pm10":16.9,"pm2_5":11.9,"mosquito_risk":3,"arthritis_risk":0,"migraine_risk":4,"frizz_risk":1,"updated_at":"2026-03-16T05:03:19.222621+05:30"},{"city":"Tirupati","state":"Andhra Pradesh","latitude":13.6288,"longitude":79.4192,"temp":21.4,"humidity":90,"rain":0.0,"pressure":992.9,"uv_index":9.05,"wind_gusts":25.6,"aqi":64,"pm10":26.4,"pm2_5":25.6,"mosquito_risk":3,"arthritis_risk":5,"migraine_risk":7,"frizz_risk":1,"updated_at":"2026-03-16T05:03:19.222628+05:30"},{"city":"Warangal","state":"Telangana","latitude":17.9689,"longitude":79.5941,"temp":22.9,"humidity":90,"rain":0.0,"pressure":979.2,"uv_index":8.55,"wind_gusts":31.7,"aqi":78,"pm10":14.2,"pm2_5":12.0,"mosquito_risk":3,"arthritis_risk":5,"migraine_risk":7,"frizz_risk":1,"updated_at":"2026-03-16T05:03:19.222635+05:30"},{"city":"Nizamabad","state":"Telangana","latitude":18.6725,"longitude":78.0941,"temp":24.9,"humidity":62,"rain":0.0,"pressure":964.4,"uv_index":8.45,"wind_gusts":26.3,"aqi":135,"pm10":44.0,"pm2_5":39.2,"mosquito_risk":3,"arthritis_risk":5,"migraine_risk":7,"frizz_risk":1,"updated_at":"2026-03-16T05:03:19.222641+05:30"},{"city":"Mysore","state":"Karnataka","latitude":12.2958,"longitude":76.6396,"temp":20.6,"humidity":94,"rain":0.0,"pressure":928.4,"uv_index":9.35,"wind_gusts":29.2,"aqi":96,"pm10":55.4,"pm2_5":51.7,"mosquito_risk":3,"arthritis_risk":5,"migraine_risk":7,"frizz_risk":1,"updated_at":"2026-03-16T05:03:19.222648+05:30"},{"city":"Mangalore","state":"Karnataka","latitude":12.9141,"longitude":74.856,"temp":28.0,"humidity":83,"rain":0.0,"pressure":1006.7,"uv_index":9.0,"wind_gusts":20.9,"aqi":90,"pm10":42.0,"pm2_5":38.1,"mosquito_risk":7,"arthritis_risk":5,"migraine_risk":4,"frizz_risk":1,"updated_at":"2026-03-16T05:03:19.222655+05:30"},{"city":"Hubli-Dharwad","state":"Karnataka","latitude":15.3647,"longitude":75.124,"temp":21.6,"humidity":89,"rain":0.0,"pressure":940.3,"uv_index":8.7,"wind_gusts":29.9,"aqi":110,"pm10":40.2,"pm2_5":36.7,"mosquito_risk":3,"arthritis_risk":5,"migraine_risk":7,"frizz_risk":1,"updated_at":"2026-03-16T05:03:19.222661+05:30"},{"city":"Belgaum","state":"Karnataka","latitude":15.8497,"longitude":74.4977,"temp":20.4,"humidity":100,"rain":0.0,"pressure":924.8,"uv_index":9.0,"wind_gusts":34.2,"aqi":109,"pm10":51.7,"pm2_5":33.2,"mosquito_risk":3,"arthritis_risk":5,"migraine_risk":7,"frizz_risk":1,"updated_at":"2026-03-16T05:03:22.475788+05:30"},{"city":"Coimbatore","state":"Tamil Nadu","latitude":11.0168,"longitude":76.9558,"temp":21.9,"humidity":97,"rain":0.0,"pressure":962.1,"uv_index":9.3,"wind_gusts":33.5,"aqi":76,"pm10":46.3,"pm2_5":42.8,"mosquito_risk":3,"arthritis_risk":5,"migraine_risk":7,"frizz_risk":1,"updated_at":"2026-03-16T05:03:22.475817+05:30"},{"city":"Madurai","state":"Tamil Nadu","latitude":9.9252,"longitude":78.1198,"temp":24.5,"humidity":87,"rain":0.0,"pressure":993.9,"uv_index":9.25,"wind_gusts":20.2,"aqi":52,"pm10":21.5,"pm2_5":20.2,"mosquito_risk":3,"arthritis_risk":5,"migraine_risk":7,"frizz_risk":1,"updated_at":"2026-03-16T05:03:22.475827+05:30"},{"city":"Trichy","state":"Tamil Nadu","latitude":10.7905,"longitude":78.7047,"temp":24.2,"humidity":97,"rain":0.0,"pressure":1001.0,"uv_index":9.2,"wind_gusts":22.0,"aqi":50,"pm10":21.7,"pm2_5":19.4,"mosquito_risk":3,"arthritis_risk":5,"migraine_risk":4,"frizz_risk":1,"updated_at":"2026-03-16T05:03:22.475835+05:30"},{"city":"Salem","state":"Tamil Nadu","latitude":11.6643,"longitude":78.146,"temp":23.2,"humidity":86,"rain":0.0,"pressure":978.1,"uv_index":9.25,"wind_gusts":13.3,"aqi":66,"pm10":26.9,"pm2_5":26.4,"mosquito_risk":3,"arthritis_risk":5,"migraine_risk":7,"frizz_risk":1,"updated_at":"2026-03-16T05:03:22.475843+05:30"},{"city":"Tirunelveli","state":"Tamil Nadu","latitude":8.7139,"longitude":77.7567,"temp":23.5,"humidity":89,"rain":0.0,"pressure":1003.9,"uv_index":9.3,"wind_gusts":40.3,"aqi":51,"pm10":28.6,"pm2_5":27.1,"mosquito_risk":3,"arthritis_risk":5,"migraine_risk":4,"frizz_risk":1,"updated_at":"2026-03-16T05:03:22.475850+05:30"},{"city":"Vellore","state":"Tamil Nadu","latitude":12.9165,"longitude":79.1325,"temp":20.2,"humidity":91,"rain":0.0,"pressure":985.7,"uv_index":9.15,"wind_gusts":32.0,"aqi":83,"pm10":40.4,"pm2_5":39.7,"mosquito_risk":3,"arthritis_risk":5,"migraine_risk":7,"frizz_risk":1,"updated_at":"2026-03-16T05:03:22.475856+05:30"},{"city":"Erode","state":"Tamil Nadu","latitude":11.341,"longitude":77.7172,"temp":24.3,"humidity":92,"rain":0.0,"pressure":990.0,"uv_index":9.2,"wind_gusts":22.0,"aqi":46,"pm10":10.0,"pm2_5":9.1,"mosquito_risk":3,"arthritis_risk":5,"migraine_risk":7,"frizz_risk":1,"updated_at":"2026-03-16T05:03:22.475863+05:30"},{"city":"Kochi","state":"Kerala","latitude":9.9312,"longitude":76.2673,"temp":26.9,"humidity":84,"rain":0.0,"pressure":1009.2,"uv_index":9.1,"wind_gusts":37.1,"aqi":74,"pm10":28.2,"pm2_5":26.8,"mosquito_risk":7,"arthritis_risk":0,"migraine_risk":4,"frizz_risk":1,"updated_at":"2026-03-16T05:03:22.475870+05:30"},{"city":"Thiruvananthapuram","state":"Kerala","latitude":8.5241,"longitude":76.9366,"temp":27.1,"humidity":85,"rain":0.0,"pressure":1008.1,"uv_index":9.15,"wind_gusts":31.0,"aqi":49,"pm10":11.3,"pm2_5":9.1,"mosquito_risk":7,"arthritis_risk":0,"migraine_risk":4,"frizz_risk":1,"updated_at":"2026-03-16T05:03:22.475877+05:30"},{"city":"Kozhikode","state":"Kerala","latitude":11.2588,"longitude":75.7804,"temp":27.5,"humidity":81,"rain":0.0,"pressure":1008.2,"uv_index":9.0,"wind_gusts":31.3,"aqi":67,"pm10":24.5,"pm2_5":20.8,"mosquito_risk":7,"arthritis_risk":0,"migraine_risk":4,"frizz_risk":1,"updated_at":"2026-03-16T05:03:22.475884+05:30"},{"city":"Thrissur","state":"Kerala","latitude":10.5276,"longitude":76.2144,"temp":26.1,"humidity":89,"rain":0.0,"pressure":1007.4,"uv_index":9.05,"wind_gusts":39.2,"aqi":75,"pm10":26.4,"pm2_5":24.0,"mosquito_risk":7,"arthritis_risk":5,"migraine_risk":4,"frizz_risk":1,"updated_at":"2026-03-16T05:03:22.475891+05:30"},{"city":"Kannur","state":"Kerala","latitude":11.8745,"longitude":75.3704,"temp":26.8,"humidity":84,"rain":0.0,"pressure":1007.5,"uv_index":8.9,"wind_gusts":32.0,"aqi":80,"pm10":32.7,"pm2_5":29.3,"mosquito_risk":7,"arthritis_risk":5,"migraine_risk":4,"frizz_risk":1,"updated_at":"2026-03-16T05:03:22.475898+05:30"},{"city":"Patna","state":"Bihar","latitude":25.5941,"longitude":85.1376,"temp":22.4,"humidity":82,"rain":0.0,"pressure":1000.8,"uv_index":7.55,"wind_gusts":53.3,"aqi":158,"pm10":99.2,"pm2_5":81.3,"mosquito_risk":3,"arthritis_risk":5,"migraine_risk":4,"frizz_risk":1,"updated_at":"2026-03-16T05:03:22.475905+05:30"},{"city":"Gaya","state":"Bihar","latitude":24.7914,"longitude":85.0002,"temp":21.1,"humidity":92,"rain":0.0,"pressure":994.4,"uv_index":7.25,"wind_gusts":45.4,"aqi":143,"pm10":90.1,"pm2_5":64.0,"mosquito_risk":3,"arthritis_risk":5,"migraine_risk":7,"frizz_risk":1,"updated_at":"2026-03-16T05:03:22.475911+05:30"},{"city":"Muzaffarpur","state":"Bihar","latitude":26.1209,"longitude":85.3647,"temp":19.8,"humidity":96,"rain":0.0,"pressure":1000.5,"uv_index":7.5,"wind_gusts":50.8,"aqi":160,"pm10":108.0,"pm2_5":93.6,"mosquito_risk":3,"arthritis_risk":10,"migraine_risk":4,"frizz_risk":1,"updated_at":"2026-03-16T05:03:22.475918+05:30"},{"city":"Bhagalpur","state":"Bihar","latitude":25.2425,"longitude":87.0117,"temp":21.5,"humidity":85,"rain":0.0,"pressure":1002.2,"uv_index":7.5,"wind_gusts":53.6,"aqi":152,"pm10":90.8,"pm2_5":85.0,"mosquito_risk":3,"arthritis_risk":5,"migraine_risk":4,"frizz_risk":1,"updated_at":"2026-03-16T05:03:22.475924+05:30"},{"city":"Ranchi","state":"Jharkhand","latitude":23.3441,"longitude":85.3096,"temp":20.4,"humidity":92,"rain":0.0,"pressure":937.2,"uv_index":7.9,"wind_gusts":37.1,"aqi":128,"pm10":80.6,"pm2_5":70.5,"mosquito_risk":3,"arthritis_risk":5,"migraine_risk":7,"frizz_risk":1,"updated_at":"2026-03-16T05:03:22.475931+05:30"},{"city":"Jamshedpur","state":"Jharkhand","latitude":22.8046,"longitude":86.2029,"temp":22.8,"humidity":86,"rain":0.0,"pressure":991.2,"uv_index":7.95,"wind_gusts":41.0,"aqi":151,"pm10":85.0,"pm2_5":75.4,"mosquito_risk":3,"arthritis_risk":5,"migraine_risk":7,"frizz_risk":1,"updated_at":"2026-03-16T05:03:22.475937+05:30"},{"city":"Dhanbad","state":"Jharkhand","latitude":23.7957,"longitude":86.4304,"temp":22.7,"humidity":77,"rain":0.0,"pressure":979.5,"uv_index":7.45,"wind_gusts":44.6,"aqi":168,"pm10":136.9,"pm2_5":130.9,"mosquito_risk":3,"arthritis_risk":5,"migraine_risk":7,"frizz_risk":1,"updated_at":"2026-03-16T05:03:22.475943+05:30"},{"city":"Bokaro","state":"Jharkhand","latitude":23.6693,"longitude":86.1511,"temp":23.2,"humidity":73,"rain":0.0,"pressure":983.5,"uv_index":7.55,"wind_gusts":33.1,"aqi":158,"pm10":110.1,"pm2_5":100.8,"mosquito_risk":3,"arthritis_risk":5,"migraine_risk":7,"frizz_risk":1,"updated_at":"2026-03-16T05:03:22.475949+05:30"},{"city":"Bhubaneswar","state":"Odisha","latitude":20.2961,"longitude":85.8245,"temp":24.6,"humidity":88,"rain":0.0,"pressure":1003.7,"uv_index":8.5,"wind_gusts":39.6,"aqi":65,"pm10":22.1,"pm2_5":17.4,"mosquito_risk":3,"arthritis_risk":5,"migraine_risk":4,"frizz_risk":1,"updated_at":"2026-03-16T05:03:22.475955+05:30"},{"city":"Cuttack","state":"Odisha","latitude":20.4625,"longitude":85.8828,"temp":24.4,"humidity":91,"rain":0.0,"pressure":1005.7,"uv_index":8.5,"wind_gusts":43.6,"aqi":65,"pm10":22.1,"pm2_5":17.4,"mosquito_risk":3,"arthritis_risk":5,"migraine_risk":4,"frizz_risk":1,"updated_at":"2026-03-16T05:03:22.475961+05:30"},{"city":"Rourkela","state":"Odisha","latitude":22.2604,"longitude":84.8536,"temp":23.2,"humidity":90,"rain":0.0,"pressure":985.4,"uv_index":8.05,"wind_gusts":47.2,"aqi":155,"pm10":75.4,"pm2_5":64.7,"mosquito_risk":3,"arthritis_risk":5,"migraine_risk":7,"frizz_risk":1,"updated_at":"2026-03-16T05:03:22.475967+05:30"},{"city":"Raipur","state":"Chhattisgarh","latitude":21.2514,"longitude":81.6296,"temp":24.0,"humidity":66,"rain":0.0,"pressure":974.1,"uv_index":8.2,"wind_gusts":43.9,"aqi":140,"pm10":60.3,"pm2_5":54.1,"mosquito_risk":3,"arthritis_risk":5,"migraine_risk":7,"frizz_risk":1,"updated_at":"2026-03-16T05:03:22.475973+05:30"},{"city":"Bhilai","state":"Chhattisgarh","latitude":21.1938,"longitude":81.3509,"temp":23.8,"humidity":70,"rain":0.0,"pressure":974.4,"uv_index":8.25,"wind_gusts":44.3,"aqi":135,"pm10":56.8,"pm2_5":50.6,"mosquito_risk":3,"arthritis_risk":5,"migraine_risk":7,"frizz_risk":1,"updated_at":"2026-03-16T05:03:22.475979+05:30"},{"city":"Guwahati","state":"Assam","latitude":26.1158,"longitude":91.7086,"temp":20.4,"humidity":92,"rain":0.0,"pressure":1003.8,"uv_index":6.95,"wind_gusts":33.5,"aqi":80,"pm10":33.2,"pm2_5":27.8,"mosquito_risk":3,"arthritis_risk":5,"migraine_risk":4,"frizz_risk":1,"updated_at":"2026-03-16T05:03:22.475985+05:30"},{"city":"Agartala","state":"Tripura","latitude":23.8315,"longitude":91.2868,"temp":22.6,"humidity":94,"rain":0.0,"pressure":1008.2,"uv_index":6.95,"wind_gusts":37.1,"aqi":62,"pm10":12.5,"pm2_5":10.1,"mosquito_risk":3,"arthritis_risk":0,"migraine_risk":4,"frizz_risk":1,"updated_at":"2026-03-16T05:03:22.475991+05:30"},{"city":"Shillong","state":"Meghalaya","latitude":25.5788,"longitude":91.8933,"temp":12.3,"humidity":93,"rain":0.0,"pressure":855.1,"uv_index":7.9,"wind_gusts":74.2,"aqi":51,"pm10":9.5,"pm2_5":7.4,"mosquito_risk":3,"arthritis_risk":10,"migraine_risk":7,"frizz_risk":0,"updated_at":"2026-03-16T05:03:22.475998+05:30"},{"city":"Imphal","state":"Manipur","latitude":24.817,"longitude":93.9368,"temp":15.6,"humidity":86,"rain":0.0,"pressure":924.2,"uv_index":8.2,"wind_gusts":66.2,"aqi":92,"pm10":42.7,"pm2_5":35.3,"mosquito_risk":3,"arthritis_risk":10,"migraine_risk":7,"frizz_risk":0,"updated_at":"2026-03-16T05:03:22.476005+05:30"},{"city":"Aizawl","state":"Mizoram","latitude":23.7271,"longitude":92.7176,"temp":16.6,"humidity":85,"rain":0.0,"pressure":893.6,"uv_index":8.1,"wind_gusts":48.2,"aqi":84,"pm10":43.8,"pm2_5":29.2,"mosquito_risk":3,"arthritis_risk":10,"migraine_risk":7,"frizz_risk":0,"updated_at":"2026-03-16T05:03:22.476011+05:30"},{"city":"Kohima","state":"Nagaland","latitude":25.6701,"longitude":94.1077,"temp":13.7,"humidity":79,"rain":0.0,"pressure":854.2,"uv_index":7.65,"wind_gusts":100.4,"aqi":73,"pm10":31.5,"pm2_5":24.3,"mosquito_risk":3,"arthritis_risk":5,"migraine_risk":7,"frizz_risk":0,"updated_at":"2026-03-16T05:03:22.476017+05:30"},{"city":"Gangtok","state":"Sikkim","latitude":27.3314,"longitude":88.6138,"temp":10.8,"humidity":75,"rain":0.0,"pressure":833.5,"uv_index":7.65,"wind_gusts":23.4,"aqi":110,"pm10":45.4,"pm2_5":30.9,"mosquito_risk":3,"arthritis_risk":5,"migraine_risk":7,"frizz_risk":0,"updated_at":"2026-03-16T05:03:22.476023+05:30"},{"city":"Siliguri","state":"West Bengal","latitude":26.7271,"longitude":88.3953,"temp":18.1,"humidity":83,"rain":0.0,"pressure":994.7,"uv_index":7.45,"wind_gusts":27.4,"aqi":152,"pm10":96.9,"pm2_5":76.6,"mosquito_risk":3,"arthritis_risk":10,"migraine_risk":7,"frizz_risk":0,"updated_at":"2026-03-16T05:03:25.727972+05:30"},{"city":"Durgapur","state":"West Bengal","latitude":23.5204,"longitude":87.3119,"temp":22.4,"humidity":91,"rain":0.0,"pressure":994.8,"uv_index":7.8,"wind_gusts":33.1,"aqi":151,"pm10":70.3,"pm2_5":65.4,"mosquito_risk":3,"arthritis_risk":5,"migraine_risk":7,"frizz_risk":1,"updated_at":"2026-03-16T05:03:25.728003+05:30"},{"city":"Asansol","state":"West Bengal","latitude":23.6739,"longitude":86.9524,"temp":22.7,"humidity":86,"rain":0.0,"pressure":993.5,"uv_index":7.85,"wind_gusts":39.2,"aqi":156,"pm10":97.1,"pm2_5":92.2,"mosquito_risk":3,"arthritis_risk":5,"migraine_risk":7,"frizz_risk":1,"updated_at":"2026-03-16T05:03:25.728012+05:30"},{"city":"Pondicherry","state":"Puducherry","latitude":11.9139,"longitude":79.8145,"temp":23.8,"humidity":97,"rain":0.0,"pressure":1009.6,"uv_index":9.05,"wind_gusts":31.7,"aqi":29,"pm10":11.1,"pm2_5":7.9,"mosquito_risk":3,"arthritis_risk":0,"migraine_risk":4,"frizz_risk":1,"updated_at":"2026-03-16T05:03:25.728020+05:30"},{"city":"Port Blair","state":"Andaman and Nicobar Islands","latitude":11.6234,"longitude":92.7265,"temp":27.7,"humidity":80,"rain":0.0,"pressure":1008.0,"uv_index":9.0,"wind_gusts":22.7,"aqi":85,"pm10":20.8,"pm2_5":16.8,"mosquito_risk":7,"arthritis_risk":0,"migraine_risk":4,"frizz_risk":1,"updated_at":"2026-03-16T05:03:25.728028+05:30"},{"city":"Haridwar","state":"Uttarakhand","latitude":29.9457,"longitude":78.1642,"temp":16.0,"humidity":74,"rain":0.0,"pressure":975.8,"uv_index":5.85,"wind_gusts":51.8,"aqi":75,"pm10":17.1,"pm2_5":13.1,"mosquito_risk":3,"arthritis_risk":5,"migraine_risk":3,"frizz_risk":0,"updated_at":"2026-03-16T05:03:25.728036+05:30"},{"city":"Rishikesh","state":"Uttarakhand","latitude":30.0869,"longitude":78.2676,"temp":15.1,"humidity":72,"rain":0.0,"pressure":968.3,"uv_index":5.95,"wind_gusts":44.6,"aqi":62,"pm10":18.2,"pm2_5":10.2,"mosquito_risk":3,"arthritis_risk":5,"migraine_risk":3,"frizz_risk":0,"updated_at":"2026-03-16T05:03:25.728043+05:30"},{"city":"Nainital","state":"Uttarakhand","latitude":29.3919,"longitude":79.4542,"temp":12.5,"humidity":55,"rain":0.0,"pressure":803.9,"uv_index":6.75,"wind_gusts":68.8,"aqi":68,"pm10":24.3,"pm2_5":11.6,"mosquito_risk":0,"arthritis_risk":5,"migraine_risk":7,"frizz_risk":0,"updated_at":"2026-03-16T05:03:25.728050+05:30"},{"city":"Mussoorie","state":"Uttarakhand","latitude":30.4599,"longitude":78.0664,"temp":9.2,"humidity":66,"rain":0.0,"pressure":799.0,"uv_index":5.95,"wind_gusts":58.3,"aqi":66,"pm10":17.6,"pm2_5":10.4,"mosquito_risk":3,"arthritis_risk":5,"migraine_risk":3,"frizz_risk":0,"updated_at":"2026-03-16T05:03:25.728057+05:30"},{"city":"Dharamshala","state":"Himachal Pradesh","latitude":32.219,"longitude":76.3234,"temp":13.0,"humidity":54,"rain":0.0,"pressure":865.6,"uv_index":4.9,"wind_gusts":34.9,"aqi":47,"pm10":8.6,"pm2_5":3.6,"mosquito_risk":0,"arthritis_risk":5,"migraine_risk":3,"frizz_risk":0,"updated_at":"2026-03-16T05:03:25.728064+05:30"},{"city":"Dalhousie","state":"Himachal Pradesh","latitude":32.5387,"longitude":75.971,"temp":8.5,"humidity":64,"rain":0.0,"pressure":798.4,"uv_index":4.0,"wind_gusts":28.1,"aqi":69,"pm10":13.0,"pm2_5":8.8,"mosquito_risk":3,"arthritis_risk":5,"migraine_risk":3,"frizz_risk":0,"updated_at":"2026-03-16T05:03:25.728072+05:30"},{"city":"Patiala","state":"Punjab","latitude":30.3398,"longitude":76.3869,"temp":13.8,"humidity":89,"rain":0.0,"pressure":978.5,"uv_index":5.85,"wind_gusts":47.9,"aqi":91,"pm10":35.6,"pm2_5":25.4,"mosquito_risk":3,"arthritis_risk":10,"migraine_risk":3,"frizz_risk":0,"updated_at":"2026-03-16T05:03:25.728079+05:30"},{"city":"Bhatinda","state":"Punjab","latitude":30.211,"longitude":74.9455,"temp":15.5,"humidity":90,"rain":0.0,"pressure":982.1,"uv_index":6.55,"wind_gusts":31.7,"aqi":88,"pm10":27.6,"pm2_5":23.1,"mosquito_risk":3,"arthritis_risk":10,"migraine_risk":7,"frizz_risk":0,"updated_at":"2026-03-16T05:03:25.728086+05:30"},{"city":"Rohtak","state":"Haryana","latitude":28.8955,"longitude":76.6066,"temp":15.4,"humidity":85,"rain":0.0,"pressure":982.5,"uv_index":6.15,"wind_gusts":47.5,"aqi":223,"pm10":438.7,"pm2_5":66.6,"mosquito_risk":3,"arthritis_risk":10,"migraine_risk":7,"frizz_risk":0,"updated_at":"2026-03-16T05:03:25.728092+05:30"},{"city":"Panipat","state":"Haryana","latitude":29.3909,"longitude":76.9635,"temp":14.9,"humidity":85,"rain":0.0,"pressure":981.2,"uv_index":5.9,"wind_gusts":49.7,"aqi":119,"pm10":251.5,"pm2_5":40.5,"mosquito_risk":3,"arthritis_risk":10,"migraine_risk":3,"frizz_risk":0,"updated_at":"2026-03-16T05:03:25.728099+05:30"},{"city":"Mathura","state":"Uttar Pradesh","latitude":27.4924,"longitude":77.6737,"temp":16.8,"humidity":88,"rain":0.0,"pressure":988.1,"uv_index":6.35,"wind_gusts":34.6,"aqi":900,"pm10":1125.0,"pm2_5":133.6,"mosquito_risk":3,"arthritis_risk":10,"migraine_risk":7,"frizz_risk":0,"updated_at":"2026-03-16T05:03:25.728105+05:30"},{"city":"Vrindavan","state":"Uttar Pradesh","latitude":27.5823,"longitude":77.7027,"temp":16.5,"humidity":91,"rain":0.0,"pressure":988.6,"uv_index":6.35,"wind_gusts":38.2,"aqi":900,"pm10":1125.0,"pm2_5":133.6,"mosquito_risk":3,"arthritis_risk":10,"migraine_risk":7,"frizz_risk":0,"updated_at":"2026-03-16T05:03:25.728112+05:30"},{"city":"Ayodhya","state":"Uttar Pradesh","latitude":26.7922,"longitude":82.1998,"temp":18.8,"humidity":69,"rain":0.0,"pressure":994.9,"uv_index":6.75,"wind_gusts":57.6,"aqi":122,"pm10":68.5,"pm2_5":59.1,"mosquito_risk":3,"arthritis_risk":5,"migraine_risk":7,"frizz_risk":0,"updated_at":"2026-03-16T05:03:25.728119+05:30"},{"city":"Ratlam","state":"Madhya Pradesh","latitude":23.3315,"longitude":75.0367,"temp":21.7,"humidity":49,"rain":0.0,"pressure":954.2,"uv_index":7.6,"wind_gusts":34.2,"aqi":64,"pm10":30.9,"pm2_5":17.9,"mosquito_risk":0,"arthritis_risk":5,"migraine_risk":7,"frizz_risk":0,"updated_at":"2026-03-16T05:03:25.728126+05:30"},{"city":"Sagar","state":"Madhya Pradesh","latitude":23.8388,"longitude":78.7378,"temp":22.3,"humidity":42,"rain":0.0,"pressure":949.0,"uv_index":7.6,"wind_gusts":30.6,"aqi":52,"pm10":18.7,"pm2_5":12.2,"mosquito_risk":0,"arthritis_risk":5,"migraine_risk":7,"frizz_risk":0,"updated_at":"2026-03-16T05:03:25.728132+05:30"},{"city":"Satna","state":"Madhya Pradesh","latitude":24.6005,"longitude":80.8322,"temp":21.2,"humidity":69,"rain":0.0,"pressure":970.6,"uv_index":7.6,"wind_gusts":43.6,"aqi":75,"pm10":52.7,"pm2_5":37.4,"mosquito_risk":3,"arthritis_risk":5,"migraine_risk":7,"frizz_risk":0,"updated_at":"2026-03-16T05:03:25.728138+05:30"},{"city":"Akola","state":"Maharashtra","latitude":20.7002,"longitude":77.0082,"temp":23.7,"humidity":59,"rain":0.0,"pressure":974.5,"uv_index":8.1,"wind_gusts":24.8,"aqi":77,"pm10":26.5,"pm2_5":18.2,"mosquito_risk":0,"arthritis_risk":5,"migraine_risk":7,"frizz_risk":0,"updated_at":"2026-03-16T05:03:25.728145+05:30"},{"city":"Amravati","state":"Maharashtra","latitude":20.9374,"longitude":77.7796,"temp":22.7,"humidity":62,"rain":0.0,"pressure":966.4,"uv_index":8.1,"wind_gusts":29.9,"aqi":81,"pm10":30.0,"pm2_5":21.3,"mosquito_risk":3,"arthritis_risk":5,"migraine_risk":7,"frizz_risk":0,"updated_at":"2026-03-16T05:03:25.728152+05:30"},{"city":"Latur","state":"Maharashtra","latitude":18.4088,"longitude":76.5604,"temp":20.2,"humidity":68,"rain":0.0,"pressure":939.1,"uv_index":8.55,"wind_gusts":20.9,"aqi":106,"pm10":38.3,"pm2_5":32.4,"mosquito_risk":3,"arthritis_risk":5,"migraine_risk":7,"frizz_risk":0,"updated_at":"2026-03-16T05:03:25.728158+05:30"},{"city":"Nanded","state":"Maharashtra","latitude":19.1383,"longitude":77.3091,"temp":22.6,"humidity":57,"rain":0.0,"pressure":967.9,"uv_index":8.35,"wind_gusts":20.5,"aqi":124,"pm10":62.9,"pm2_5":55.4,"mosquito_risk":0,"arthritis_risk":5,"migraine_risk":7,"frizz_risk":0,"updated_at":"2026-03-16T05:03:25.728165+05:30"},{"city":"Gulbarga","state":"Karnataka","latitude":17.3297,"longitude":76.8343,"temp":24.6,"humidity":65,"rain":0.0,"pressure":958.4,"uv_index":8.65,"wind_gusts":22.0,"aqi":118,"pm10":42.0,"pm2_5":38.0,"mosquito_risk":3,"arthritis_risk":5,"migraine_risk":7,"frizz_risk":1,"updated_at":"2026-03-16T05:03:25.728171+05:30"},{"city":"Bidar","state":"Karnataka","latitude":17.9104,"longitude":77.5199,"temp":23.5,"humidity":66,"rain":0.0,"pressure":934.9,"uv_index":8.6,"wind_gusts":41.0,"aqi":107,"pm10":41.8,"pm2_5":36.4,"mosquito_risk":3,"arthritis_risk":5,"migraine_risk":7,"frizz_risk":1,"updated_at":"2026-03-16T05:03:25.728177+05:30"},{"city":"Hospet","state":"Karnataka","latitude":15.2689,"longitude":76.3909,"temp":25.2,"humidity":78,"rain":0.0,"pressure":955.8,"uv_index":8.9,"wind_gusts":19.1,"aqi":122,"pm10":48.0,"pm2_5":46.3,"mosquito_risk":7,"arthritis_risk":5,"migraine_risk":7,"frizz_risk":1,"updated_at":"2026-03-16T05:03:25.728184+05:30"},{"city":"Tirupur","state":"Tamil Nadu","latitude":11.1085,"longitude":77.3411,"temp":23.9,"humidity":87,"rain":0.0,"pressure":975.9,"uv_index":9.3,"wind_gusts":40.0,"aqi":60,"pm10":27.7,"pm2_5":25.6,"mosquito_risk":3,"arthritis_risk":5,"migraine_risk":7,"frizz_risk":1,"updated_at":"2026-03-16T05:03:25.728191+05:30"},{"city":"Alappuzha","state":"Kerala","latitude":9.4981,"longitude":76.3388,"temp":26.0,"humidity":87,"rain":0.0,"pressure":1009.4,"uv_index":9.1,"wind_gusts":32.4,"aqi":70,"pm10":26.7,"pm2_5":24.7,"mosquito_risk":7,"arthritis_risk":0,"migraine_risk":4,"frizz_risk":1,"updated_at":"2026-03-16T05:03:25.728198+05:30"},{"city":"Munnar","state":"Kerala","latitude":10.0889,"longitude":77.0595,"temp":17.2,"humidity":92,"rain":0.0,"pressure":855.2,"uv_index":9.6,"wind_gusts":30.2,"aqi":64,"pm10":31.4,"pm2_5":30.3,"mosquito_risk":3,"arthritis_risk":10,"migraine_risk":7,"frizz_risk":0,"updated_at":"2026-03-16T05:03:25.728205+05:30"},{"city":"Silchar","state":"Assam","latitude":24.8333,"longitude":92.7789,"temp":20.0,"humidity":95,"rain":0.0,"pressure":1008.5,"uv_index":7.9,"wind_gusts":37.1,"aqi":87,"pm10":25.5,"pm2_5":22.4,"mosquito_risk":3,"arthritis_risk":0,"migraine_risk":4,"frizz_risk":1,"updated_at":"2026-03-16T05:03:25.728212+05:30"},{"city":"Dibrugarh","state":"Assam","latitude":27.4728,"longitude":94.912,"temp":17.8,"humidity":95,"rain":0.7,"pressure":998.4,"uv_index":4.55,"wind_gusts":36.7,"aqi":80,"pm10":35.0,"pm2_5":25.2,"mosquito_risk":6,"arthritis_risk":10,"migraine_risk":3,"frizz_risk":1,"updated_at":"2026-03-16T05:03:25.728219+05:30"}]