[{"city":"Delhi","state":"Delhi","latitude":28.6139,"longitude":77.209,"temp":29.7,"humidity":73,"rain":0.0,"pressure":976.7,"uv_index":7.5,"wind_gusts":33.8,"aqi":637,"pm10":944.4,"pm2_5":258.9,"no2":83.1,"co":255.0,"o3":0.0,"so2":50.1,"mosquito_risk":7,"arthritis_risk":5,"migraine_risk":7,"frizz_risk":1,"updated_at":"2026-07-17T05:36:21.958938+05:30"},{"city":"Mumbai","state":"Maharashtra","latitude":19.076,"longitude":72.8777,"temp":25.1,"humidity":95,"rain":0.1,"pressure":1006.4,"uv_index":6.8,"wind_gusts":40.0,"aqi":71,"pm10":28.9,"pm2_5":13.7,"no2":6.7,"co":137.0,"o3":41.0,"so2":6.4,"mosquito_risk":10,"arthritis_risk":5,"migraine_risk":4,"frizz_risk":1,"updated_at":"2026-07-17T05:36:21.958980+05:30"},{"city":"Bangalore","state":"Karnataka","latitude":12.9716,"longitude":77.5946,"temp":21.4,"humidity":85,"rain":0.0,"pressure":911.3,"uv_index":3.25,"wind_gusts":50.8,"aqi":65,"pm10":8.2,"pm2_5":5.4,"no2":7.9,"co":176.0,"o3":35.0,"so2":4.8,"mosquito_risk":3,"arthritis_risk":5,"migraine_risk":3,"frizz_risk":1,"updated_at":"2026-07-17T05:36:21.958996+05:30"},{"city":"Hyderabad","state":"Telangana","latitude":17.385,"longitude":78.4867,"temp":25.0,"humidity":78,"rain":0.1,"pressure":951.2,"uv_index":3.95,"wind_gusts":42.5,"aqi":68,"pm10":21.3,"pm2_5":14.1,"no2":9.1,"co":160.0,"o3":40.0,"so2":5.3,"mosquito_risk":10,"arthritis_risk":5,"migraine_risk":3,"frizz_risk":1,"updated_at":"2026-07-17T05:36:21.959006+05:30"},{"city":"Chennai","state":"Tamil Nadu","latitude":13.0827,"longitude":80.2707,"temp":29.2,"humidity":58,"rain":0.0,"pressure":1005.3,"uv_index":8.05,"wind_gusts":41.8,"aqi":79,"pm10":26.0,"pm2_5":20.5,"no2":17.6,"co":315.0,"o3":42.0,"so2":11.2,"mosquito_risk":4,"arthritis_risk":5,"migraine_risk":4,"frizz_risk":1,"updated_at":"2026-07-17T05:36:21.959014+05:30"},{"city":"Kolkata","state":"West Bengal","latitude":22.5726,"longitude":88.3639,"temp":27.2,"humidity":92,"rain":0.0,"pressure":998.3,"uv_index":7.2,"wind_gusts":37.8,"aqi":60,"pm10":18.0,"pm2_5":16.0,"no2":11.0,"co":421.0,"o3":70.0,"so2":9.5,"mosquito_risk":7,"arthritis_risk":5,"migraine_risk":7,"frizz_risk":1,"updated_at":"2026-07-17T05:36:21.959022+05:30"},{"city":"Pune","state":"Maharashtra","latitude":18.5204,"longitude":73.8567,"temp":23.3,"humidity":88,"rain":0.0,"pressure":945.8,"uv_index":8.2,"wind_gusts":48.2,"aqi":47,"pm10":4.2,"pm2_5":3.1,"no2":6.7,"co":122.0,"o3":33.0,"so2":6.4,"mosquito_risk":3,"arthritis_risk":5,"migraine_risk":7,"frizz_risk":1,"updated_at":"2026-07-17T05:36:21.959028+05:30"},{"city":"Ahmedabad","state":"Gujarat","latitude":23.0225,"longitude":72.5714,"temp":28.0,"humidity":79,"rain":0.0,"pressure":998.7,"uv_index":7.9,"wind_gusts":37.4,"aqi":77,"pm10":30.0,"pm2_5":18.1,"no2":12.0,"co":171.0,"o3":25.0,"so2":5.2,"mosquito_risk":7,"arthritis_risk":5,"migraine_risk":7,"frizz_risk":1,"updated_at":"2026-07-17T05:36:21.959035+05:30"},{"city":"Jaipur","state":"Rajasthan","latitude":26.9124,"longitude":75.7873,"temp":29.2,"humidity":57,"rain":0.0,"pressure":955.2,"uv_index":7.65,"wind_gusts":40.0,"aqi":285,"pm10":583.0,"pm2_5":102.4,"no2":9.3,"co":152.0,"o3":51.0,"so2":4.5,"mosquito_risk":4,"arthritis_risk":5,"migraine_risk":7,"frizz_risk":1,"updated_at":"2026-07-17T05:36:21.959041+05:30"},{"city":"Lucknow","state":"Uttar Pradesh","latitude":26.8467,"longitude":80.9462,"temp":28.2,"humidity":92,"rain":0.0,"pressure":988.0,"uv_index":6.15,"wind_gusts":28.4,"aqi":161,"pm10":58.4,"pm2_5":47.8,"no2":13.7,"co":376.0,"o3":71.0,"so2":9.1,"mosquito_risk":7,"arthritis_risk":5,"migraine_risk":7,"frizz_risk":1,"updated_at":"2026-07-17T05:36:21.959052+05:30"},{"city":"Kanpur","state":"Uttar Pradesh","latitude":26.4499,"longitude":80.3319,"temp":28.9,"humidity":89,"rain":0.0,"pressure":985.9,"uv_index":6.8,"wind_gusts":20.2,"aqi":172,"pm10":103.1,"pm2_5":67.3,"no2":25.8,"co":221.0,"o3":49.0,"so2":10.3,"mosquito_risk":7,"arthritis_risk":5,"migraine_risk":7,"frizz_risk":1,"updated_at":"2026-07-17T05:36:21.959058+05:30"},{"city":"Chandigarh","state":"Chandigarh","latitude":30.7333,"longitude":76.7794,"temp":26.8,"humidity":83,"rain":0.0,"pressure":962.1,"uv_index":6.25,"wind_gusts":34.6,"aqi":152,"pm10":79.6,"pm2_5":74.7,"no2":42.9,"co":754.0,"o3":15.0,"so2":7.3,"mosquito_risk":7,"arthritis_risk":5,"migraine_risk":7,"frizz_risk":1,"updated_at":"2026-07-17T05:36:21.959065+05:30"},{"city":"Srinagar","state":"Jammu and Kashmir","latitude":34.0837,"longitude":74.7973,"temp":19.9,"humidity":87,"rain":0.0,"pressure":837.3,"uv_index":9.05,"wind_gusts":23.4,"aqi":98,"pm10":56.9,"pm2_5":52.4,"no2":29.0,"co":419.0,"o3":19.0,"so2":2.0,"mosquito_risk":3,"arthritis_risk":10,"migraine_risk":7,"frizz_risk":1,"updated_at":"2026-07-17T05:36:21.959072+05:30"},{"city":"Jammu","state":"Jammu and Kashmir","latitude":32.7266,"longitude":74.857,"temp":26.4,"humidity":91,"rain":0.2,"pressure":966.2,"uv_index":8.5,"wind_gusts":23.8,"aqi":150,"pm10":81.7,"pm2_5":72.4,"no2":43.6,"co":315.0,"o3":14.0,"so2":3.6,"mosquito_risk":10,"arthritis_risk":5,"migraine_risk":7,"frizz_risk":1,"updated_at":"2026-07-17T05:36:21.959078+05:30"},{"city":"Amritsar","state":"Punjab","latitude":31.634,"longitude":74.8723,"temp":28.2,"humidity":85,"rain":0.0,"pressure":974.3,"uv_index":7.1,"wind_gusts":22.3,"aqi":171,"pm10":132.2,"pm2_5":114.1,"no2":52.9,"co":767.0,"o3":14.0,"so2":7.4,"mosquito_risk":7,"arthritis_risk":5,"migraine_risk":7,"frizz_risk":1,"updated_at":"2026-07-17T05:36:21.959084+05:30"},{"city":"Ludhiana","state":"Punjab","latitude":30.901,"longitude":75.8573,"temp":28.3,"humidity":95,"rain":0.0,"pressure":972.0,"uv_index":7.95,"wind_gusts":30.6,"aqi":175,"pm10":206.8,"pm2_5":169.5,"no2":85.1,"co":1536.0,"o3":1.0,"so2":15.0,"mosquito_risk":7,"arthritis_risk":5,"migraine_risk":7,"frizz_risk":1,"updated_at":"2026-07-17T05:36:21.959090+05:30"},{"city":"Jalandhar","state":"Punjab","latitude":31.326,"longitude":75.5762,"temp":27.2,"humidity":93,"rain":0.0,"pressure":973.0,"uv_index":7.55,"wind_gusts":24.8,"aqi":182,"pm10":201.2,"pm2_5":185.3,"no2":81.0,"co":1120.0,"o3":10.0,"so2":14.2,"mosquito_risk":7,"arthritis_risk":5,"migraine_risk":7,"frizz_risk":1,"updated_at":"2026-07-17T05:36:21.959096+05:30"},{"city":"Dehradun","state":"Uttarakhand","latitude":30.6284,"longitude":78.0322,"temp":17.8,"humidity":100,"rain":0.0,"pressure":826.5,"uv_index":7.2,"wind_gusts":27.0,"aqi":86,"pm10":31.7,"pm2_5":29.2,"no2":15.0,"co":337.0,"o3":38.0,"so2":0.5,"mosquito_risk":3,"arthritis_risk":10,"migraine_risk":7,"frizz_risk":1,"updated_at":"2026-07-17T05:36:21.959103+05:30"},{"city":"Shimla","state":"Himachal Pradesh","latitude":31.1048,"longitude":77.1734,"temp":13.4,"humidity":98,"rain":0.0,"pressure":779.4,"uv_index":7.0,"wind_gusts":39.6,"aqi":102,"pm10":56.8,"pm2_5":49.7,"no2":22.3,"co":308.0,"o3":22.0,"so2":0.6,"mosquito_risk":3,"arthritis_risk":10,"migraine_risk":7,"frizz_risk":0,"updated_at":"2026-07-17T05:36:21.959109+05:30"},{"city":"Manali","state":"Himachal Pradesh","latitude":32.2396,"longitude":77.1887,"temp":20.1,"humidity":74,"rain":0.0,"pressure":816.6,"uv_index":5.25,"wind_gusts":32.8,"aqi":48,"pm10":5.5,"pm2_5":3.9,"no2":27.7,"co":273.0,"o3":20.0,"so2":0.1,"mosquito_risk":3,"arthritis_risk":5,"migraine_risk":3,"frizz_risk":0,"updated_at":"2026-07-17T05:36:21.959118+05:30"},{"city":"Gurgaon","state":"Haryana","latitude":28.4595,"longitude":77.0266,"temp":30.3,"humidity":59,"rain":0.0,"pressure":975.4,"uv_index":5.75,"wind_gusts":35.6,"aqi":465,"pm10":532.7,"pm2_5":140.6,"no2":48.8,"co":222.0,"o3":13.0,"so2":25.4,"mosquito_risk":0,"arthritis_risk":5,"migraine_risk":3,"frizz_risk":1,"updated_at":"2026-07-17T05:36:21.959124+05:30"},{"city":"Noida","state":"Uttar Pradesh","latitude":28.5355,"longitude":77.391,"temp":29.5,"humidity":77,"rain":0.0,"pressure":978.0,"uv_index":7.65,"wind_gusts":25.9,"aqi":465,"pm10":532.7,"pm2_5":140.6,"no2":48.8,"co":252.0,"o3":13.0,"so2":25.4,"mosquito_risk":7,"arthritis_risk":5,"migraine_risk":7,"frizz_risk":1,"updated_at":"2026-07-17T05:36:21.959130+05:30"},{"city":"Ghaziabad","state":"Uttar Pradesh","latitude":28.6692,"longitude":77.4538,"temp":29.0,"humidity":81,"rain":0.0,"pressure":976.2,"uv_index":5.65,"wind_gusts":30.2,"aqi":476,"pm10":972.3,"pm2_5":257.0,"no2":95.3,"co":324.0,"o3":2.0,"so2":41.8,"mosquito_risk":7,"arthritis_risk":5,"migraine_risk":3,"frizz_risk":1,"updated_at":"2026-07-17T05:36:21.959138+05:30"},{"city":"Faridabad","state":"Haryana","latitude":28.4089,"longitude":77.3178,"temp":29.9,"humidity":65,"rain":0.0,"pressure":977.4,"uv_index":7.7,"wind_gusts":33.5,"aqi":465,"pm10":532.7,"pm2_5":140.6,"no2":48.8,"co":224.0,"o3":13.0,"so2":25.4,"mosquito_risk":7,"arthritis_risk":5,"migraine_risk":7,"frizz_risk":1,"updated_at":"2026-07-17T05:36:21.959150+05:30"},{"city":"Meerut","state":"Uttar Pradesh","latitude":28.9845,"longitude":77.7064,"temp":28.7,"humidity":82,"rain":0.0,"pressure":975.0,"uv_index":7.0,"wind_gusts":29.9,"aqi":476,"pm10":972.3,"pm2_5":257.0,"no2":95.3,"co":1339.0,"o3":2.0,"so2":41.8,"mosquito_risk":7,"arthritis_risk":5,"migraine_risk":7,"frizz_risk":1,"updated_at":"2026-07-17T05:36:21.959157+05:30"},{"city":"Agra","state":"Uttar Pradesh","latitude":27.1767,"longitude":78.0081,"temp":30.6,"humidity":59,"rain":0.0,"pressure":981.8,"uv_index":6.95,"wind_gusts":34.9,"aqi":150,"pm10":62.9,"pm2_5":35.2,"no2":18.0,"co":210.0,"o3":40.0,"so2":6.3,"mosquito_risk":0,"arthritis_risk":5,"migraine_risk":7,"frizz_risk":1,"updated_at":"2026-07-17T05:36:21.959163+05:30"},{"city":"Varanasi","state":"Uttar Pradesh","latitude":25.3176,"longitude":82.9739,"temp":26.5,"humidity":96,"rain":0.0,"pressure":992.1,"uv_index":5.45,"wind_gusts":18.0,"aqi":172,"pm10":61.7,"pm2_5":48.1,"no2":13.8,"co":420.0,"o3":76.0,"so2":11.9,"mosquito_risk":7,"arthritis_risk":5,"migraine_risk":3,"frizz_risk":1,"updated_at":"2026-07-17T05:36:21.959169+05:30"},{"city":"Prayagraj","state":"Uttar Pradesh","latitude":25.4358,"longitude":81.8463,"temp":26.4,"humidity":95,"rain":0.5,"pressure":990.5,"uv_index":7.6,"wind_gusts":29.9,"aqi":165,"pm10":85.0,"pm2_5":65.0,"no2":17.4,"co":294.0,"o3":67.0,"so2":9.5,"mosquito_risk":10,"arthritis_risk":5,"migraine_risk":7,"frizz_risk":1,"updated_at":"2026-07-17T05:36:21.959175+05:30"},{"city":"Gorakhpur","state":"Uttar Pradesh","latitude":26.7606,"longitude":83.3732,"temp":26.3,"humidity":98,"rain":0.0,"pressure":992.3,"uv_index":6.7,"wind_gusts":28.4,"aqi":97,"pm10":11.6,"pm2_5":11.2,"no2":8.2,"co":704.0,"o3":88.0,"so2":3.1,"mosquito_risk":7,"arthritis_risk":5,"migraine_risk":7,"frizz_risk":1,"updated_at":"2026-07-17T05:36:21.959181+05:30"},{"city":"Bareilly","state":"Uttar Pradesh","latitude":28.367,"longitude":79.4304,"temp":27.4,"humidity":94,"rain":0.0,"pressure":981.0,"uv_index":7.6,"wind_gusts":28.8,"aqi":170,"pm10":76.8,"pm2_5":58.0,"no2":10.9,"co":462.0,"o3":87.0,"so2":8.3,"mosquito_risk":7,"arthritis_risk":5,"migraine_risk":7,"frizz_risk":1,"updated_at":"2026-07-17T05:36:21.959189+05:30"},{"city":"Aligarh","state":"Uttar Pradesh","latitude":27.8974,"longitude":78.088,"temp":29.6,"humidity":67,"rain":0.0,"pressure":979.1,"uv_index":7.8,"wind_gusts":27.4,"aqi":195,"pm10":322.2,"pm2_5":100.1,"no2":27.5,"co":238.0,"o3":24.0,"so2":6.0,"mosquito_risk":7,"arthritis_risk":5,"migraine_risk":7,"frizz_risk":1,"updated_at":"2026-07-17T05:36:21.959195+05:30"},{"city":"Moradabad","state":"Uttar Pradesh","latitude":28.8386,"longitude":78.7733,"temp":27.5,"humidity":94,"rain":0.0,"pressure":977.6,"uv_index":7.4,"wind_gusts":31.0,"aqi":187,"pm10":77.5,"pm2_5":73.1,"no2":20.1,"co":496.0,"o3":66.0,"so2":10.7,"mosquito_risk":7,"arthritis_risk":5,"migraine_risk":7,"frizz_risk":1,"updated_at":"2026-07-17T05:36:21.959201+05:30"},{"city":"Saharanpur","state":"Uttar Pradesh","latitude":29.9637,"longitude":77.546,"temp":27.0,"humidity":91,"rain":0.0,"pressure":969.2,"uv_index":6.55,"wind_gusts":32.8,"aqi":167,"pm10":126.2,"pm2_5":113.6,"no2":61.0,"co":815.0,"o3":10.0,"so2":15.2,"mosquito_risk":7,"arthritis_risk":5,"migraine_risk":7,"frizz_risk":1,"updated_at":"2026-07-17T05:36:21.959207+05:30"},{"city":"Jhansi","state":"Uttar Pradesh","latitude":25.4484,"longitude":78.5685,"temp":29.7,"humidity":63,"rain":0.0,"pressure":972.6,"uv_index":7.2,"wind_gusts":42.8,"aqi":88,"pm10":40.5,"pm2_5":25.3,"no2":10.0,"co":190.0,"o3":55.0,"so2":6.8,"mosquito_risk":7,"arthritis_risk":5,"migraine_risk":7,"frizz_risk":1,"updated_at":"2026-07-17T05:36:25.217233+05:30"},{"city":"Surat","state":"Gujarat","latitude":21.1702,"longitude":72.8311,"temp":25.5,"humidity":97,"rain":0.1,"pressure":1003.9,"uv_index":7.7,"wind_gusts":48.2,"aqi":77,"pm10":31.0,"pm2_5":21.7,"no2":29.4,"co":375.0,"o3":14.0,"so2":43.1,"mosquito_risk":10,"arthritis_risk":5,"migraine_risk":4,"frizz_risk":1,"updated_at":"2026-07-17T05:36:25.217264+05:30"},{"city":"Vadodara","state":"Gujarat","latitude":22.3072,"longitude":73.1812,"temp":27.4,"humidity":86,"rain":0.0,"pressure":1001.1,"uv_index":6.2,"wind_gusts":40.0,"aqi":72,"pm10":24.7,"pm2_5":16.2,"no2":13.3,"co":146.0,"o3":24.0,"so2":7.9,"mosquito_risk":7,"arthritis_risk":5,"migraine_risk":4,"frizz_risk":1,"updated_at":"2026-07-17T05:36:25.217275+05:30"},{"city":"Rajkot","state":"Gujarat","latitude":22.3039,"longitude":70.8022,"temp":25.9,"humidity":91,"rain":0.0,"pressure":990.5,"uv_index":7.25,"wind_gusts":44.3,"aqi":65,"pm10":22.6,"pm2_5":11.5,"no2":6.9,"co":100.0,"o3":30.0,"so2":3.8,"mosquito_risk":7,"arthritis_risk":5,"migraine_risk":7,"frizz_risk":1,"updated_at":"2026-07-17T05:36:25.217284+05:30"},{"city":"Thane","state":"Maharashtra","latitude":19.2183,"longitude":72.9781,"temp":24.8,"humidity":99,"rain":0.1,"pressure":1005.9,"uv_index":7.3,"wind_gusts":37.4,"aqi":71,"pm10":28.9,"pm2_5":13.7,"no2":6.7,"co":148.0,"o3":41.0,"so2":6.4,"mosquito_risk":6,"arthritis_risk":5,"migraine_risk":4,"frizz_risk":1,"updated_at":"2026-07-17T05:36:25.217312+05:30"},{"city":"Nagpur","state":"Maharashtra","latitude":21.1458,"longitude":79.0882,"temp":28.2,"humidity":68,"rain":0.0,"pressure":969.3,"uv_index":2.05,"wind_gusts":35.6,"aqi":88,"pm10":44.8,"pm2_5":28.1,"no2":13.8,"co":178.0,"o3":41.0,"so2":8.8,"mosquito_risk":7,"arthritis_risk":5,"migraine_risk":3,"frizz_risk":1,"updated_at":"2026-07-17T05:36:25.217321+05:30"},{"city":"Nashik","state":"Maharashtra","latitude":19.9975,"longitude":73.7898,"temp":22.9,"humidity":95,"rain":0.0,"pressure":942.9,"uv_index":7.1,"wind_gusts":47.5,"aqi":56,"pm10":11.6,"pm2_5":7.0,"no2":12.0,"co":140.0,"o3":26.0,"so2":12.9,"mosquito_risk":3,"arthritis_risk":5,"migraine_risk":7,"frizz_risk":1,"updated_at":"2026-07-17T05:36:25.217329+05:30"},{"city":"Aurangabad","state":"Maharashtra","latitude":19.8762,"longitude":75.3433,"temp":23.0,"humidity":92,"rain":0.0,"pressure":941.7,"uv_index":8.0,"wind_gusts":51.8,"aqi":61,"pm10":13.8,"pm2_5":8.2,"no2":10.2,"co":172.0,"o3":30.0,"so2":11.6,"mosquito_risk":3,"arthritis_risk":5,"migraine_risk":7,"frizz_risk":1,"updated_at":"2026-07-17T05:36:25.217336+05:30"},{"city":"Solapur","state":"Maharashtra","latitude":17.6599,"longitude":75.9064,"temp":25.8,"humidity":73,"rain":0.0,"pressure":955.8,"uv_index":7.35,"wind_gusts":42.8,"aqi":55,"pm10":13.6,"pm2_5":8.5,"no2":6.7,"co":141.0,"o3":32.0,"so2":2.8,"mosquito_risk":7,"arthritis_risk":5,"migraine_risk":7,"frizz_risk":1,"updated_at":"2026-07-17T05:36:25.217344+05:30"},{"city":"Kolhapur","state":"Maharashtra","latitude":16.705,"longitude":74.2433,"temp":22.8,"humidity":90,"rain":0.0,"pressure":946.5,"uv_index":8.55,"wind_gusts":49.7,"aqi":47,"pm10":5.0,"pm2_5":3.6,"no2":3.9,"co":117.0,"o3":36.0,"so2":2.5,"mosquito_risk":3,"arthritis_risk":5,"migraine_risk":7,"frizz_risk":1,"updated_at":"2026-07-17T05:36:25.217350+05:30"},{"city":"Goa","state":"Goa","latitude":15.2993,"longitude":74.124,"temp":23.6,"humidity":98,"rain":0.0,"pressure":998.1,"uv_index":7.75,"wind_gusts":34.6,"aqi":67,"pm10":32.1,"pm2_5":16.2,"no2":3.4,"co":292.0,"o3":44.0,"so2":1.1,"mosquito_risk":3,"arthritis_risk":5,"migraine_risk":7,"frizz_risk":1,"updated_at":"2026-07-17T05:36:25.217358+05:30"},{"city":"Jodhpur","state":"Rajasthan","latitude":26.2389,"longitude":73.0243,"temp":29.2,"humidity":64,"rain":0.0,"pressure":978.6,"uv_index":8.4,"wind_gusts":42.1,"aqi":137,"pm10":155.1,"pm2_5":41.3,"no2":6.1,"co":125.0,"o3":50.0,"so2":2.3,"mosquito_risk":7,"arthritis_risk":5,"migraine_risk":7,"frizz_risk":1,"updated_at":"2026-07-17T05:36:25.217365+05:30"},{"city":"Udaipur","state":"Rajasthan","latitude":24.5854,"longitude":73.7125,"temp":24.2,"humidity":85,"rain":0.0,"pressure":942.8,"uv_index":8.25,"wind_gusts":39.2,"aqi":84,"pm10":38.6,"pm2_5":21.2,"no2":8.9,"co":131.0,"o3":46.0,"so2":6.5,"mosquito_risk":3,"arthritis_risk":5,"migraine_risk":7,"frizz_risk":1,"updated_at":"2026-07-17T05:36:25.217373+05:30"},{"city":"Kota","state":"Rajasthan","latitude":25.2138,"longitude":75.8648,"temp":29.0,"humidity":63,"rain":0.0,"pressure":974.5,"uv_index":8.25,"wind_gusts":33.1,"aqi":88,"pm10":39.7,"pm2_5":25.3,"no2":8.2,"co":172.0,"o3":69.0,"so2":8.9,"mosquito_risk":7,"arthritis_risk":5,"migraine_risk":7,"frizz_risk":1,"updated_at":"2026-07-17T05:36:25.217380+05:30"},{"city":"Bikaner","state":"Rajasthan","latitude":28.0229,"longitude":73.3119,"temp":30.8,"humidity":53,"rain":0.0,"pressure":976.5,"uv_index":8.4,"wind_gusts":37.8,"aqi":141,"pm10":101.3,"pm2_5":42.5,"no2":3.2,"co":116.0,"o3":50.0,"so2":4.5,"mosquito_risk":0,"arthritis_risk":5,"migraine_risk":7,"frizz_risk":1,"updated_at":"2026-07-17T05:36:25.217388+05:30"},{"city":"Ajmer","state":"Rajasthan","latitude":26.4499,"longitude":74.6399,"temp":27.1,"humidity":67,"rain":0.0,"pressure":950.5,"uv_index":8.3,"wind_gusts":45.4,"aqi":89,"pm10":31.1,"pm2_5":18.3,"no2":7.4,"co":134.0,"o3":55.0,"so2":4.0,"mosquito_risk":7,"arthritis_risk":5,"migraine_risk":7,"frizz_risk":1,"updated_at":"2026-07-17T05:36:25.217395+05:30"},{"city":"Gwalior","state":"Madhya Pradesh","latitude":26.2183,"longitude":78.1828,"temp":29.3,"humidity":67,"rain":0.0,"pressure":977.5,"uv_index":6.8,"wind_gusts":41.8,"aqi":100,"pm10":39.3,"pm2_5":23.5,"no2":11.2,"co":159.0,"o3":48.0,"so2":3.5,"mosquito_risk":7,"arthritis_risk":5,"migraine_risk":7,"frizz_risk":1,"updated_at":"2026-07-17T05:36:25.217402+05:30"},{"city":"Indore","state":"Madhya Pradesh","latitude":22.7196,"longitude":75.8577,"temp":24.3,"humidity":89,"rain":0.0,"pressure":945.1,"uv_index":8.55,"wind_gusts":43.6,"aqi":75,"pm10":24.8,"pm2_5":18.0,"no2":10.9,"co":168.0,"o3":42.0,"so2":15.8,"mosquito_risk":3,"arthritis_risk":5,"migraine_risk":7,"frizz_risk":1,"updated_at":"2026-07-17T05:36:25.217409+05:30"},{"city":"Bhopal","state":"Madhya Pradesh","latitude":23.2599,"longitude":77.4126,"temp":26.2,"humidity":76,"rain":0.0,"pressure":950.0,"uv_index":7.3,"wind_gusts":36.0,"aqi":83,"pm10":33.8,"pm2_5":23.9,"no2":7.3,"co":240.0,"o3":68.0,"so2":5.9,"mosquito_risk":7,"arthritis_risk":5,"migraine_risk":7,"frizz_risk":1,"updated_at":"2026-07-17T05:36:25.217416+05:30"},{"city":"Jabalpur","state":"Madhya Pradesh","latitude":23.1815,"longitude":79.9864,"temp":24.5,"humidity":95,"rain":0.1,"pressure":957.5,"uv_index":7.2,"wind_gusts":34.9,"aqi":88,"pm10":43.1,"pm2_5":23.8,"no2":6.7,"co":267.0,"o3":70.0,"so2":2.9,"mosquito_risk":6,"arthritis_risk":5,"migraine_risk":7,"frizz_risk":1,"updated_at":"2026-07-17T05:36:25.217424+05:30"},{"city":"Ujjain","state":"Madhya Pradesh","latitude":23.1765,"longitude":75.7885,"temp":24.3,"humidity":90,"rain":0.0,"pressure":950.7,"uv_index":8.45,"wind_gusts":38.5,"aqi":77,"pm10":24.9,"pm2_5":17.7,"no2":10.9,"co":205.0,"o3":39.0,"so2":15.4,"mosquito_risk":3,"arthritis_risk":5,"migraine_risk":7,"frizz_risk":1,"updated_at":"2026-07-17T05:36:25.217431+05:30"},{"city":"Visakhapatnam","state":"Andhra Pradesh","latitude":17.6868,"longitude":83.2185,"temp":28.0,"humidity":77,"rain":0.0,"pressure":999.0,"uv_index":7.45,"wind_gusts":52.2,"aqi":96,"pm10":32.7,"pm2_5":23.1,"no2":21.5,"co":306.0,"o3":48.0,"so2":35.5,"mosquito_risk":7,"arthritis_risk":5,"migraine_risk":7,"frizz_risk":1,"updated_at":"2026-07-17T05:36:25.217438+05:30"},{"city":"Vijayawada","state":"Andhra Pradesh","latitude":16.5062,"longitude":80.648,"temp":28.1,"humidity":71,"rain":0.0,"pressure":999.9,"uv_index":3.05,"wind_gusts":42.8,"aqi":77,"pm10":42.0,"pm2_5":28.3,"no2":14.0,"co":199.0,"o3":42.0,"so2":5.1,"mosquito_risk":7,"arthritis_risk":5,"migraine_risk":3,"frizz_risk":1,"updated_at":"2026-07-17T05:36:25.217445+05:30"},{"city":"Guntur","state":"Andhra Pradesh","latitude":16.3067,"longitude":80.4365,"temp":28.2,"humidity":73,"rain":0.0,"pressure":1001.3,"uv_index":5.95,"wind_gusts":42.8,"aqi":74,"pm10":40.2,"pm2_5":26.5,"no2":14.2,"co":191.0,"o3":42.0,"so2":5.1,"mosquito_risk":7,"arthritis_risk":5,"migraine_risk":0,"frizz_risk":1,"updated_at":"2026-07-17T05:36:25.217452+05:30"},{"city":"Nellore","state":"Andhra Pradesh","latitude":14.4426,"longitude":79.9865,"temp":29.5,"humidity":59,"rain":0.0,"pressure":1003.8,"uv_index":8.45,"wind_gusts":49.3,"aqi":72,"pm10":16.4,"pm2_5":8.8,"no2":5.6,"co":115.0,"o3":47.0,"so2":5.5,"mosquito_risk":4,"arthritis_risk":5,"migraine_risk":4,"frizz_risk":1,"updated_at":"2026-07-17T05:36:25.217460+05:30"},{"city":"Kurnool","state":"Andhra Pradesh","latitude":15.8281,"longitude":78.0373,"temp":25.3,"humidity":85,"rain":0.0,"pressure":975.8,"uv_index":1.5,"wind_gusts":47.2,"aqi":64,"pm10":12.0,"pm2_5":7.8,"no2":8.1,"co":126.0,"o3":36.0,"so2":2.9,"mosquito_risk":7,"arthritis_risk":5,"migraine_risk":3,"frizz_risk":1,"updated_at":"2026-07-17T05:36:25.217468+05:30"},{"city":"Kakinada","state":"Andhra Pradesh","latitude":16.9891,"longitude":82.2475,"temp":26.9,"humidity":82,"rain":0.1,"pressure":1004.1,"uv_index":8.0,"wind_gusts":46.8,"aqi":76,"pm10":36.2,"pm2_5":21.0,"no2":7.7,"co":200.0,"o3":71.0,"so2":6.9,"mosquito_risk":10,"arthritis_risk":5,"migraine_risk":4,"frizz_risk":1,"updated_at":"2026-07-17T05:36:25.217475+05:30"},{"city":"Tirupati","state":"Andhra Pradesh","latitude":13.6288,"longitude":79.4192,"temp":28.6,"humidity":57,"rain":0.0,"pressure":989.5,"uv_index":8.2,"wind_gusts":37.8,"aqi":82,"pm10":23.7,"pm2_5":15.3,"no2":8.4,"co":129.0,"o3":40.0,"so2":1.8,"mosquito_risk":4,"arthritis_risk":5,"migraine_risk":7,"frizz_risk":1,"updated_at":"2026-07-17T05:36:25.217482+05:30"},{"city":"Warangal","state":"Telangana","latitude":17.9689,"longitude":79.5941,"temp":27.4,"humidity":72,"rain":0.0,"pressure":975.8,"uv_index":8.0,"wind_gusts":37.8,"aqi":81,"pm10":47.6,"pm2_5":27.9,"no2":13.8,"co":190.0,"o3":35.0,"so2":4.9,"mosquito_risk":7,"arthritis_risk":5,"migraine_risk":7,"frizz_risk":1,"updated_at":"2026-07-17T05:36:25.217489+05:30"},{"city":"Nizamabad","state":"Telangana","latitude":18.6725,"longitude":78.0941,"temp":26.2,"humidity":74,"rain":0.0,"pressure":962.5,"uv_index":5.6,"wind_gusts":40.0,"aqi":74,"pm10":34.5,"pm2_5":22.5,"no2":9.5,"co":167.0,"o3":45.0,"so2":7.5,"mosquito_risk":7,"arthritis_risk":5,"migraine_risk":3,"frizz_risk":1,"updated_at":"2026-07-17T05:36:25.217496+05:30"},{"city":"Mysore","state":"Karnataka","latitude":12.2958,"longitude":76.6396,"temp":21.1,"humidity":91,"rain":0.0,"pressure":928.3,"uv_index":7.4,"wind_gusts":46.4,"aqi":57,"pm10":7.1,"pm2_5":4.2,"no2":4.4,"co":106.0,"o3":38.0,"so2":1.9,"mosquito_risk":3,"arthritis_risk":5,"migraine_risk":7,"frizz_risk":1,"updated_at":"2026-07-17T05:36:25.217503+05:30"},{"city":"Mangalore","state":"Karnataka","latitude":12.9141,"longitude":74.856,"temp":23.6,"humidity":98,"rain":0.0,"pressure":1008.2,"uv_index":0.9,"wind_gusts":37.8,"aqi":60,"pm10":19.4,"pm2_5":9.1,"no2":5.2,"co":124.0,"o3":37.0,"so2":2.3,"mosquito_risk":3,"arthritis_risk":0,"migraine_risk":0,"frizz_risk":1,"updated_at":"2026-07-17T05:36:25.217509+05:30"},{"city":"Hubli-Dharwad","state":"Karnataka","latitude":15.3647,"longitude":75.124,"temp":22.2,"humidity":92,"rain":0.0,"pressure":940.2,"uv_index":8.05,"wind_gusts":52.6,"aqi":44,"pm10":2.6,"pm2_5":1.5,"no2":2.0,"co":100.0,"o3":43.0,"so2":1.2,"mosquito_risk":3,"arthritis_risk":5,"migraine_risk":7,"frizz_risk":1,"updated_at":"2026-07-17T05:36:25.217516+05:30"},{"city":"Belgaum","state":"Karnataka","latitude":15.8497,"longitude":74.4977,"temp":20.9,"humidity":96,"rain":0.0,"pressure":924.5,"uv_index":8.2,"wind_gusts":50.8,"aqi":44,"pm10":4.2,"pm2_5":2.8,"no2":3.7,"co":129.0,"o3":38.0,"so2":2.2,"mosquito_risk":3,"arthritis_risk":5,"migraine_risk":7,"frizz_risk":1,"updated_at":"2026-07-17T05:36:28.507496+05:30"},{"city":"Coimbatore","state":"Tamil Nadu","latitude":11.0168,"longitude":76.9558,"temp":23.2,"humidity":89,"rain":0.0,"pressure":961.6,"uv_index":8.9,"wind_gusts":51.5,"aqi":57,"pm10":15.2,"pm2_5":7.9,"no2":5.1,"co":162.0,"o3":36.0,"so2":2.8,"mosquito_risk":3,"arthritis_risk":5,"migraine_risk":7,"frizz_risk":1,"updated_at":"2026-07-17T05:36:28.507528+05:30"},{"city":"Madurai","state":"Tamil Nadu","latitude":9.9252,"longitude":78.1198,"temp":27.1,"humidity":66,"rain":0.0,"pressure":992.9,"uv_index":8.45,"wind_gusts":43.6,"aqi":79,"pm10":27.3,"pm2_5":23.9,"no2":33.2,"co":139.0,"o3":2.0,"so2":5.7,"mosquito_risk":7,"arthritis_risk":5,"migraine_risk":7,"frizz_risk":1,"updated_at":"2026-07-17T05:36:28.507539+05:30"},{"city":"Trichy","state":"Tamil Nadu","latitude":10.7905,"longitude":78.7047,"temp":27.6,"humidity":66,"rain":0.0,"pressure":999.4,"uv_index":8.8,"wind_gusts":56.9,"aqi":66,"pm10":17.8,"pm2_5":10.4,"no2":8.0,"co":113.0,"o3":33.0,"so2":3.5,"mosquito_risk":7,"arthritis_risk":5,"migraine_risk":7,"frizz_risk":1,"updated_at":"2026-07-17T05:36:28.507548+05:30"},{"city":"Salem","state":"Tamil Nadu","latitude":11.6643,"longitude":78.146,"temp":24.7,"humidity":83,"rain":0.0,"pressure":977.3,"uv_index":8.85,"wind_gusts":31.7,"aqi":75,"pm10":29.6,"pm2_5":21.5,"no2":22.6,"co":135.0,"o3":21.0,"so2":7.3,"mosquito_risk":3,"arthritis_risk":5,"migraine_risk":7,"frizz_risk":1,"updated_at":"2026-07-17T05:36:28.507556+05:30"},{"city":"Tirunelveli","state":"Tamil Nadu","latitude":8.7139,"longitude":77.7567,"temp":26.8,"humidity":73,"rain":0.0,"pressure":1003.6,"uv_index":8.6,"wind_gusts":50.0,"aqi":58,"pm10":11.3,"pm2_5":6.8,"no2":5.7,"co":158.0,"o3":34.0,"so2":2.5,"mosquito_risk":7,"arthritis_risk":5,"migraine_risk":4,"frizz_risk":1,"updated_at":"2026-07-17T05:36:28.507563+05:30"},{"city":"Vellore","state":"Tamil Nadu","latitude":12.9165,"longitude":79.1325,"temp":28.1,"humidity":59,"rain":0.0,"pressure":983.1,"uv_index":8.0,"wind_gusts":41.8,"aqi":81,"pm10":18.0,"pm2_5":12.6,"no2":12.7,"co":152.0,"o3":37.0,"so2":5.0,"mosquito_risk":4,"arthritis_risk":5,"migraine_risk":7,"frizz_risk":1,"updated_at":"2026-07-17T05:36:28.507571+05:30"},{"city":"Erode","state":"Tamil Nadu","latitude":11.341,"longitude":77.7172,"temp":25.7,"humidity":75,"rain":0.0,"pressure":989.1,"uv_index":8.85,"wind_gusts":34.2,"aqi":64,"pm10":18.8,"pm2_5":13.0,"no2":13.1,"co":165.0,"o3":30.0,"so2":3.9,"mosquito_risk":7,"arthritis_risk":5,"migraine_risk":7,"frizz_risk":1,"updated_at":"2026-07-17T05:36:28.507579+05:30"},{"city":"Kochi","state":"Kerala","latitude":9.9312,"longitude":76.2673,"temp":24.9,"humidity":92,"rain":0.2,"pressure":1010.8,"uv_index":4.6,"wind_gusts":37.8,"aqi":67,"pm10":20.3,"pm2_5":11.1,"no2":8.7,"co":119.0,"o3":27.0,"so2":3.6,"mosquito_risk":6,"arthritis_risk":0,"migraine_risk":0,"frizz_risk":1,"updated_at":"2026-07-17T05:36:28.507586+05:30"},{"city":"Thiruvananthapuram","state":"Kerala","latitude":8.5241,"longitude":76.9366,"temp":24.1,"humidity":96,"rain":0.0,"pressure":1009.8,"uv_index":8.45,"wind_gusts":47.9,"aqi":65,"pm10":27.0,"pm2_5":12.5,"no2":3.6,"co":135.0,"o3":46.0,"so2":1.8,"mosquito_risk":3,"arthritis_risk":0,"migraine_risk":4,"frizz_risk":1,"updated_at":"2026-07-17T05:36:28.507593+05:30"},{"city":"Kozhikode","state":"Kerala","latitude":11.2588,"longitude":75.7804,"temp":23.2,"humidity":98,"rain":0.1,"pressure":1009.7,"uv_index":6.65,"wind_gusts":37.8,"aqi":59,"pm10":18.8,"pm2_5":8.6,"no2":1.8,"co":140.0,"o3":48.0,"so2":1.3,"mosquito_risk":6,"arthritis_risk":0,"migraine_risk":4,"frizz_risk":1,"updated_at":"2026-07-17T05:36:28.507599+05:30"},{"city":"Thrissur","state":"Kerala","latitude":10.5276,"longitude":76.2144,"temp":23.5,"humidity":98,"rain":0.0,"pressure":1009.2,"uv_index":7.45,"wind_gusts":38.2,"aqi":62,"pm10":20.9,"pm2_5":12.5,"no2":7.0,"co":166.0,"o3":29.0,"so2":3.1,"mosquito_risk":3,"arthritis_risk":0,"migraine_risk":4,"frizz_risk":1,"updated_at":"2026-07-17T05:36:28.507607+05:30"},{"city":"Kannur","state":"Kerala","latitude":11.8745,"longitude":75.3704,"temp":24.0,"humidity":99,"rain":0.1,"pressure":1008.8,"uv_index":1.9,"wind_gusts":31.7,"aqi":61,"pm10":9.8,"pm2_5":4.6,"no2":4.7,"co":179.0,"o3":36.0,"so2":1.7,"mosquito_risk":6,"arthritis_risk":0,"migraine_risk":0,"frizz_risk":1,"updated_at":"2026-07-17T05:36:28.507614+05:30"},{"city":"Patna","state":"Bihar","latitude":25.5941,"longitude":85.1376,"temp":27.6,"humidity":92,"rain":0.0,"pressure":994.4,"uv_index":8.3,"wind_gusts":30.6,"aqi":95,"pm10":46.7,"pm2_5":42.4,"no2":23.7,"co":283.0,"o3":35.0,"so2":12.8,"mosquito_risk":7,"arthritis_risk":5,"migraine_risk":7,"frizz_risk":1,"updated_at":"2026-07-17T05:36:28.507620+05:30"},{"city":"Gaya","state":"Bihar","latitude":24.7914,"longitude":85.0002,"temp":26.2,"humidity":97,"rain":0.0,"pressure":987.9,"uv_index":7.35,"wind_gusts":27.4,"aqi":95,"pm10":65.2,"pm2_5":62.2,"no2":31.2,"co":406.0,"o3":30.0,"so2":11.3,"mosquito_risk":7,"arthritis_risk":5,"migraine_risk":7,"frizz_risk":1,"updated_at":"2026-07-17T05:36:28.507627+05:30"},{"city":"Muzaffarpur","state":"Bihar","latitude":26.1209,"longitude":85.3647,"temp":27.3,"humidity":91,"rain":0.0,"pressure":994.8,"uv_index":7.0,"wind_gusts":38.2,"aqi":92,"pm10":43.7,"pm2_5":40.5,"no2":19.2,"co":339.0,"o3":48.0,"so2":10.7,"mosquito_risk":7,"arthritis_risk":5,"migraine_risk":7,"frizz_risk":1,"updated_at":"2026-07-17T05:36:28.507633+05:30"},{"city":"Bhagalpur","state":"Bihar","latitude":25.2425,"longitude":87.0117,"temp":26.5,"humidity":96,"rain":0.0,"pressure":995.7,"uv_index":7.5,"wind_gusts":33.1,"aqi":76,"pm10":15.4,"pm2_5":14.1,"no2":12.5,"co":260.0,"o3":62.0,"so2":9.2,"mosquito_risk":7,"arthritis_risk":5,"migraine_risk":7,"frizz_risk":1,"updated_at":"2026-07-17T05:36:28.507640+05:30"},{"city":"Ranchi","state":"Jharkhand","latitude":23.3441,"longitude":85.3096,"temp":23.1,"humidity":98,"rain":0.0,"pressure":931.9,"uv_index":7.65,"wind_gusts":29.9,"aqi":69,"pm10":26.4,"pm2_5":24.8,"no2":13.6,"co":258.0,"o3":51.0,"so2":13.0,"mosquito_risk":3,"arthritis_risk":5,"migraine_risk":7,"frizz_risk":1,"updated_at":"2026-07-17T05:36:28.507647+05:30"},{"city":"Jamshedpur","state":"Jharkhand","latitude":22.8046,"longitude":86.2029,"temp":25.9,"humidity":96,"rain":0.0,"pressure":984.0,"uv_index":8.45,"wind_gusts":23.4,"aqi":81,"pm10":45.4,"pm2_5":41.8,"no2":42.5,"co":236.0,"o3":22.0,"so2":59.3,"mosquito_risk":7,"arthritis_risk":5,"migraine_risk":7,"frizz_risk":1,"updated_at":"2026-07-17T05:36:28.507654+05:30"},{"city":"Dhanbad","state":"Jharkhand","latitude":23.7957,"longitude":86.4304,"temp":25.7,"humidity":97,"rain":0.1,"pressure":973.3,"uv_index":7.25,"wind_gusts":25.6,"aqi":93,"pm10":39.9,"pm2_5":38.1,"no2":33.3,"co":200.0,"o3":36.0,"so2":96.1,"mosquito_risk":10,"arthritis_risk":5,"migraine_risk":7,"frizz_risk":1,"updated_at":"2026-07-17T05:36:28.507660+05:30"},{"city":"Bokaro","state":"Jharkhand","latitude":23.6693,"longitude":86.1511,"temp":26.1,"humidity":96,"rain":0.0,"pressure":977.3,"uv_index":8.15,"wind_gusts":19.4,"aqi":92,"pm10":44.4,"pm2_5":40.7,"no2":30.4,"co":214.0,"o3":39.0,"so2":89.3,"mosquito_risk":7,"arthritis_risk":5,"migraine_risk":7,"frizz_risk":1,"updated_at":"2026-07-17T05:36:28.507667+05:30"},{"city":"Bhubaneswar","state":"Odisha","latitude":20.2961,"longitude":85.8245,"temp":24.9,"humidity":99,"rain":0.3,"pressure":996.9,"uv_index":7.75,"wind_gusts":40.0,"aqi":75,"pm10":46.1,"pm2_5":32.9,"no2":17.9,"co":248.0,"o3":38.0,"so2":5.9,"mosquito_risk":6,"arthritis_risk":5,"migraine_risk":7,"frizz_risk":1,"updated_at":"2026-07-17T05:36:28.507673+05:30"},{"city":"Cuttack","state":"Odisha","latitude":20.4625,"longitude":85.8828,"temp":25.4,"humidity":97,"rain":0.2,"pressure":998.4,"uv_index":6.3,"wind_gusts":37.4,"aqi":75,"pm10":46.1,"pm2_5":32.9,"no2":17.9,"co":236.0,"o3":38.0,"so2":5.9,"mosquito_risk":10,"arthritis_risk":5,"migraine_risk":7,"frizz_risk":1,"updated_at":"2026-07-17T05:36:28.507680+05:30"},{"city":"Rourkela","state":"Odisha","latitude":22.2604,"longitude":84.8536,"temp":24.6,"humidity":99,"rain":0.0,"pressure":979.3,"uv_index":7.9,"wind_gusts":32.8,"aqi":73,"pm10":31.5,"pm2_5":26.1,"no2":12.2,"co":268.0,"o3":56.0,"so2":2.7,"mosquito_risk":3,"arthritis_risk":5,"migraine_risk":7,"frizz_risk":1,"updated_at":"2026-07-17T05:36:28.507686+05:30"},{"city":"Raipur","state":"Chhattisgarh","latitude":21.2514,"longitude":81.6296,"temp":24.4,"humidity":98,"rain":0.1,"pressure":970.5,"uv_index":4.6,"wind_gusts":38.9,"aqi":118,"pm10":42.7,"pm2_5":32.8,"no2":27.9,"co":488.0,"o3":48.0,"so2":41.3,"mosquito_risk":6,"arthritis_risk":5,"migraine_risk":3,"frizz_risk":1,"updated_at":"2026-07-17T05:36:28.507693+05:30"},{"city":"Bhilai","state":"Chhattisgarh","latitude":21.1938,"longitude":81.3509,"temp":24.2,"humidity":99,"rain":0.1,"pressure":971.1,"uv_index":2.7,"wind_gusts":41.0,"aqi":109,"pm10":44.4,"pm2_5":31.9,"no2":21.8,"co":826.0,"o3":51.0,"so2":32.8,"mosquito_risk":6,"arthritis_risk":5,"migraine_risk":3,"frizz_risk":1,"updated_at":"2026-07-17T05:36:28.507699+05:30"},{"city":"Guwahati","state":"Assam","latitude":26.1158,"longitude":91.7086,"temp":25.9,"humidity":98,"rain":0.2,"pressure":997.8,"uv_index":7.35,"wind_gusts":21.6,"aqi":57,"pm10":16.8,"pm2_5":13.4,"no2":8.0,"co":280.0,"o3":42.0,"so2":2.3,"mosquito_risk":10,"arthritis_risk":5,"migraine_risk":7,"frizz_risk":1,"updated_at":"2026-07-17T05:36:28.507705+05:30"},{"city":"Agartala","state":"Tripura","latitude":23.8315,"longitude":91.2868,"temp":26.2,"humidity":88,"rain":0.0,"pressure":1002.5,"uv_index":7.85,"wind_gusts":51.8,"aqi":62,"pm10":9.5,"pm2_5":7.7,"no2":6.1,"co":157.0,"o3":64.0,"so2":2.7,"mosquito_risk":7,"arthritis_risk":5,"migraine_risk":4,"frizz_risk":1,"updated_at":"2026-07-17T05:36:28.507711+05:30"},{"city":"Shillong","state":"Meghalaya","latitude":25.5788,"longitude":91.8933,"temp":20.3,"humidity":97,"rain":0.0,"pressure":854.9,"uv_index":7.9,"wind_gusts":41.4,"aqi":43,"pm10":6.3,"pm2_5":3.9,"no2":3.8,"co":165.0,"o3":60.0,"so2":2.6,"mosquito_risk":3,"arthritis_risk":5,"migraine_risk":7,"frizz_risk":1,"updated_at":"2026-07-17T05:36:28.507718+05:30"},{"city":"Imphal","state":"Manipur","latitude":24.817,"longitude":93.9368,"temp":22.7,"humidity":98,"rain":0.2,"pressure":921.0,"uv_index":3.45,"wind_gusts":32.8,"aqi":56,"pm10":15.7,"pm2_5":10.7,"no2":5.9,"co":543.0,"o3":44.0,"so2":2.4,"mosquito_risk":6,"arthritis_risk":5,"migraine_risk":3,"frizz_risk":1,"updated_at":"2026-07-17T05:36:28.507724+05:30"},{"city":"Aizawl","state":"Mizoram","latitude":23.7271,"longitude":92.7176,"temp":19.7,"humidity":93,"rain":0.0,"pressure":890.1,"uv_index":7.85,"wind_gusts":52.2,"aqi":56,"pm10":17.9,"pm2_5":11.3,"no2":1.9,"co":140.0,"o3":63.0,"so2":1.9,"mosquito_risk":3,"arthritis_risk":10,"migraine_risk":7,"frizz_risk":1,"updated_at":"2026-07-17T05:36:28.507731+05:30"},{"city":"Kohima","state":"Nagaland","latitude":25.6701,"longitude":94.1077,"temp":20.1,"humidity":95,"rain":0.2,"pressure":853.6,"uv_index":6.15,"wind_gusts":23.8,"aqi":38,"pm10":7.7,"pm2_5":5.0,"no2":3.8,"co":225.0,"o3":45.0,"so2":0.9,"mosquito_risk":6,"arthritis_risk":5,"migraine_risk":7,"frizz_risk":1,"updated_at":"2026-07-17T05:36:28.507738+05:30"},{"city":"Gangtok","state":"Sikkim","latitude":27.3314,"longitude":88.6138,"temp":18.0,"humidity":99,"rain":0.0,"pressure":835.1,"uv_index":7.95,"wind_gusts":31.3,"aqi":43,"pm10":11.5,"pm2_5":9.5,"no2":3.5,"co":373.0,"o3":89.0,"so2":2.0,"mosquito_risk":3,"arthritis_risk":10,"migraine_risk":7,"frizz_risk":1,"updated_at":"2026-07-17T05:36:28.507744+05:30"},{"city":"Siliguri","state":"West Bengal","latitude":26.7271,"longitude":88.3953,"temp":26.3,"humidity":90,"rain":0.0,"pressure":989.1,"uv_index":8.2,"wind_gusts":29.5,"aqi":64,"pm10":28.1,"pm2_5":22.9,"no2":6.9,"co":234.0,"o3":88.0,"so2":3.9,"mosquito_risk":7,"arthritis_risk":5,"migraine_risk":7,"frizz_risk":1,"updated_at":"2026-07-17T05:36:31.753431+05:30"},{"city":"Durgapur","state":"West Bengal","latitude":23.5204,"longitude":87.3119,"temp":26.4,"humidity":95,"rain":0.0,"pressure":988.2,"uv_index":8.45,"wind_gusts":32.0,"aqi":80,"pm10":26.7,"pm2_5":23.9,"no2":25.1,"co":275.0,"o3":54.0,"so2":33.0,"mosquito_risk":7,"arthritis_risk":5,"migraine_risk":7,"frizz_risk":1,"updated_at":"2026-07-17T05:36:31.753462+05:30"},{"city":"Asansol","state":"West Bengal","latitude":23.6739,"longitude":86.9524,"temp":26.2,"humidity":97,"rain":0.0,"pressure":986.9,"uv_index":8.35,"wind_gusts":35.3,"aqi":78,"pm10":24.2,"pm2_5":22.3,"no2":28.3,"co":289.0,"o3":47.0,"so2":37.9,"mosquito_risk":7,"arthritis_risk":5,"migraine_risk":7,"frizz_risk":1,"updated_at":"2026-07-17T05:36:31.753472+05:30"},{"city":"Pondicherry","state":"Puducherry","latitude":11.9139,"longitude":79.8145,"temp":27.5,"humidity":79,"rain":0.0,"pressure":1007.4,"uv_index":8.8,"wind_gusts":41.0,"aqi":77,"pm10":18.0,"pm2_5":12.9,"no2":9.4,"co":205.0,"o3":46.0,"so2":7.2,"mosquito_risk":7,"arthritis_risk":5,"migraine_risk":4,"frizz_risk":1,"updated_at":"2026-07-17T05:36:31.753481+05:30"},{"city":"Port Blair","state":"Andaman and Nicobar Islands","latitude":11.6234,"longitude":92.7265,"temp":27.0,"humidity":84,"rain":0.1,"pressure":1008.3,"uv_index":6.4,"wind_gusts":39.2,"aqi":46,"pm10":12.9,"pm2_5":6.5,"no2":0.2,"co":93.0,"o3":45.0,"so2":0.4,"mosquito_risk":10,"arthritis_risk":0,"migraine_risk":4,"frizz_risk":1,"updated_at":"2026-07-17T05:36:31.753489+05:30"},{"city":"Haridwar","state":"Uttarakhand","latitude":29.9457,"longitude":78.1642,"temp":27.2,"humidity":86,"rain":0.0,"pressure":968.1,"uv_index":6.75,"wind_gusts":27.4,"aqi":152,"pm10":99.4,"pm2_5":84.8,"no2":35.4,"co":424.0,"o3":26.0,"so2":9.1,"mosquito_risk":7,"arthritis_risk":5,"migraine_risk":7,"frizz_risk":1,"updated_at":"2026-07-17T05:36:31.753496+05:30"},{"city":"Rishikesh","state":"Uttarakhand","latitude":30.0869,"longitude":78.2676,"temp":25.0,"humidity":93,"rain":0.0,"pressure":960.6,"uv_index":6.7,"wind_gusts":25.9,"aqi":116,"pm10":60.1,"pm2_5":53.2,"no2":9.4,"co":385.0,"o3":110.0,"so2":9.2,"mosquito_risk":7,"arthritis_risk":5,"migraine_risk":7,"frizz_risk":1,"updated_at":"2026-07-17T05:36:31.753504+05:30"},{"city":"Nainital","state":"Uttarakhand","latitude":29.3919,"longitude":79.4542,"temp":16.9,"humidity":99,"rain":0.0,"pressure":802.2,"uv_index":6.8,"wind_gusts":28.4,"aqi":125,"pm10":79.2,"pm2_5":46.3,"no2":5.6,"co":310.0,"o3":125.0,"so2":7.0,"mosquito_risk":3,"arthritis_risk":10,"migraine_risk":7,"frizz_risk":1,"updated_at":"2026-07-17T05:36:31.753511+05:30"},{"city":"Mussoorie","state":"Uttarakhand","latitude":30.4599,"longitude":78.0664,"temp":16.8,"humidity":100,"rain":0.0,"pressure":799.6,"uv_index":6.85,"wind_gusts":39.2,"aqi":117,"pm10":52.3,"pm2_5":51.1,"no2":20.6,"co":343.0,"o3":42.0,"so2":5.8,"mosquito_risk":3,"arthritis_risk":10,"migraine_risk":7,"frizz_risk":1,"updated_at":"2026-07-17T05:36:31.753519+05:30"},{"city":"Dharamshala","state":"Himachal Pradesh","latitude":32.219,"longitude":76.3234,"temp":21.5,"humidity":77,"rain":0.0,"pressure":865.1,"uv_index":8.35,"wind_gusts":23.4,"aqi":80,"pm10":27.2,"pm2_5":24.1,"no2":16.0,"co":334.0,"o3":8.0,"so2":0.3,"mosquito_risk":3,"arthritis_risk":5,"migraine_risk":7,"frizz_risk":1,"updated_at":"2026-07-17T05:36:31.753527+05:30"},{"city":"Dalhousie","state":"Himachal Pradesh","latitude":32.5387,"longitude":75.971,"temp":16.1,"humidity":97,"rain":0.0,"pressure":800.7,"uv_index":7.45,"wind_gusts":24.1,"aqi":122,"pm10":59.6,"pm2_5":51.1,"no2":24.0,"co":468.0,"o3":50.0,"so2":2.3,"mosquito_risk":3,"arthritis_risk":10,"migraine_risk":7,"frizz_risk":0,"updated_at":"2026-07-17T05:36:31.753534+05:30"},{"city":"Patiala","state":"Punjab","latitude":30.3398,"longitude":76.3869,"temp":27.9,"humidity":87,"rain":0.0,"pressure":971.5,"uv_index":6.95,"wind_gusts":29.9,"aqi":186,"pm10":291.5,"pm2_5":173.7,"no2":84.9,"co":1017.0,"o3":3.0,"so2":16.1,"mosquito_risk":7,"arthritis_risk":5,"migraine_risk":7,"frizz_risk":1,"updated_at":"2026-07-17T05:36:31.753541+05:30"},{"city":"Bhatinda","state":"Punjab","latitude":30.211,"longitude":74.9455,"temp":31.1,"humidity":68,"rain":0.0,"pressure":977.0,"uv_index":7.4,"wind_gusts":29.2,"aqi":178,"pm10":259.8,"pm2_5":154.6,"no2":75.4,"co":466.0,"o3":0.0,"so2":10.4,"mosquito_risk":3,"arthritis_risk":5,"migraine_risk":7,"frizz_risk":1,"updated_at":"2026-07-17T05:36:31.753548+05:30"},{"city":"Rohtak","state":"Haryana","latitude":28.8955,"longitude":76.6066,"temp":29.5,"humidity":78,"rain":0.0,"pressure":975.3,"uv_index":6.55,"wind_gusts":30.6,"aqi":805,"pm10":681.7,"pm2_5":191.4,"no2":64.0,"co":194.0,"o3":0.0,"so2":12.4,"mosquito_risk":7,"arthritis_risk":5,"migraine_risk":7,"frizz_risk":1,"updated_at":"2026-07-17T05:36:31.753555+05:30"},{"city":"Panipat","state":"Haryana","latitude":29.3909,"longitude":76.9635,"temp":28.5,"humidity":82,"rain":0.0,"pressure":973.9,"uv_index":6.3,"wind_gusts":29.9,"aqi":1139,"pm10":728.3,"pm2_5":227.2,"no2":65.3,"co":1027.0,"o3":1.0,"so2":11.5,"mosquito_risk":7,"arthritis_risk":5,"migraine_risk":7,"frizz_risk":1,"updated_at":"2026-07-17T05:36:31.753562+05:30"},{"city":"Mathura","state":"Uttar Pradesh","latitude":27.4924,"longitude":77.6737,"temp":29.8,"humidity":60,"rain":0.0,"pressure":980.5,"uv_index":7.05,"wind_gusts":29.5,"aqi":473,"pm10":709.7,"pm2_5":119.0,"no2":21.0,"co":239.0,"o3":33.0,"so2":4.9,"mosquito_risk":4,"arthritis_risk":5,"migraine_risk":7,"frizz_risk":1,"updated_at":"2026-07-17T05:36:31.753569+05:30"},{"city":"Vrindavan","state":"Uttar Pradesh","latitude":27.5823,"longitude":77.7027,"temp":29.9,"humidity":61,"rain":0.0,"pressure":981.0,"uv_index":7.25,"wind_gusts":29.2,"aqi":473,"pm10":709.7,"pm2_5":119.0,"no2":21.0,"co":225.0,"o3":33.0,"so2":4.9,"mosquito_risk":7,"arthritis_risk":5,"migraine_risk":7,"frizz_risk":1,"updated_at":"2026-07-17T05:36:31.753576+05:30"},{"city":"Ayodhya","state":"Uttar Pradesh","latitude":26.7922,"longitude":82.1998,"temp":26.2,"humidity":96,"rain":0.0,"pressure":990.5,"uv_index":8.25,"wind_gusts":24.8,"aqi":157,"pm10":34.6,"pm2_5":34.2,"no2":16.6,"co":329.0,"o3":64.0,"so2":6.5,"mosquito_risk":7,"arthritis_risk":5,"migraine_risk":7,"frizz_risk":1,"updated_at":"2026-07-17T05:36:31.753583+05:30"},{"city":"Ratlam","state":"Madhya Pradesh","latitude":23.3315,"longitude":75.0367,"temp":24.3,"humidity":93,"rain":0.0,"pressure":951.6,"uv_index":8.45,"wind_gusts":38.2,"aqi":75,"pm10":23.8,"pm2_5":16.0,"no2":11.5,"co":191.0,"o3":36.0,"so2":15.1,"mosquito_risk":3,"arthritis_risk":5,"migraine_risk":7,"frizz_risk":1,"updated_at":"2026-07-17T05:36:31.753590+05:30"},{"city":"Sagar","state":"Madhya Pradesh","latitude":23.8388,"longitude":78.7378,"temp":24.9,"humidity":90,"rain":0.0,"pressure":945.8,"uv_index":8.0,"wind_gusts":36.7,"aqi":83,"pm10":44.4,"pm2_5":29.2,"no2":8.4,"co":242.0,"o3":59.0,"so2":5.7,"mosquito_risk":3,"arthritis_risk":5,"migraine_risk":7,"frizz_risk":1,"updated_at":"2026-07-17T05:36:31.753596+05:30"},{"city":"Satna","state":"Madhya Pradesh","latitude":24.6005,"longitude":80.8322,"temp":26.9,"humidity":83,"rain":0.0,"pressure":965.9,"uv_index":8.7,"wind_gusts":36.0,"aqi":141,"pm10":63.6,"pm2_5":37.1,"no2":14.9,"co":189.0,"o3":44.0,"so2":3.8,"mosquito_risk":7,"arthritis_risk":5,"migraine_risk":7,"frizz_risk":1,"updated_at":"2026-07-17T05:36:31.753604+05:30"},{"city":"Akola","state":"Maharashtra","latitude":20.7002,"longitude":77.0082,"temp":27.3,"humidity":74,"rain":0.0,"pressure":972.8,"uv_index":8.5,"wind_gusts":41.4,"aqi":68,"pm10":23.4,"pm2_5":14.5,"no2":8.6,"co":136.0,"o3":36.0,"so2":9.0,"mosquito_risk":7,"arthritis_risk":5,"migraine_risk":7,"frizz_risk":1,"updated_at":"2026-07-17T05:36:31.753612+05:30"},{"city":"Amravati","state":"Maharashtra","latitude":20.9374,"longitude":77.7796,"temp":27.6,"humidity":68,"rain":0.0,"pressure":964.6,"uv_index":8.55,"wind_gusts":45.0,"aqi":69,"pm10":24.5,"pm2_5":15.4,"no2":9.0,"co":153.0,"o3":40.0,"so2":10.4,"mosquito_risk":7,"arthritis_risk":5,"migraine_risk":7,"frizz_risk":1,"updated_at":"2026-07-17T05:36:31.753619+05:30"},{"city":"Latur","state":"Maharashtra","latitude":18.4088,"longitude":76.5604,"temp":24.2,"humidity":83,"rain":0.0,"pressure":937.8,"uv_index":7.55,"wind_gusts":38.9,"aqi":62,"pm10":12.7,"pm2_5":7.9,"no2":6.5,"co":121.0,"o3":32.0,"so2":3.7,"mosquito_risk":3,"arthritis_risk":5,"migraine_risk":7,"frizz_risk":1,"updated_at":"2026-07-17T05:36:31.753627+05:30"},{"city":"Nanded","state":"Maharashtra","latitude":19.1383,"longitude":77.3091,"temp":26.6,"humidity":75,"rain":0.0,"pressure":966.5,"uv_index":6.9,"wind_gusts":37.1,"aqi":71,"pm10":26.3,"pm2_5":18.4,"no2":6.4,"co":140.0,"o3":57.0,"so2":7.1,"mosquito_risk":7,"arthritis_risk":5,"migraine_risk":7,"frizz_risk":1,"updated_at":"2026-07-17T05:36:31.753633+05:30"},{"city":"Gulbarga","state":"Karnataka","latitude":17.3297,"longitude":76.8343,"temp":25.3,"humidity":78,"rain":0.0,"pressure":957.2,"uv_index":1.4,"wind_gusts":45.7,"aqi":56,"pm10":14.2,"pm2_5":8.6,"no2":7.5,"co":124.0,"o3":32.0,"so2":3.4,"mosquito_risk":7,"arthritis_risk":5,"migraine_risk":3,"frizz_risk":1,"updated_at":"2026-07-17T05:36:31.753640+05:30"},{"city":"Bidar","state":"Karnataka","latitude":17.9104,"longitude":77.5199,"temp":24.5,"humidity":81,"rain":0.0,"pressure":933.5,"uv_index":2.15,"wind_gusts":38.2,"aqi":71,"pm10":31.9,"pm2_5":18.9,"no2":7.0,"co":146.0,"o3":40.0,"so2":3.2,"mosquito_risk":3,"arthritis_risk":5,"migraine_risk":3,"frizz_risk":1,"updated_at":"2026-07-17T05:36:31.753647+05:30"},{"city":"Hospet","state":"Karnataka","latitude":15.2689,"longitude":76.3909,"temp":24.2,"humidity":81,"rain":0.0,"pressure":955.2,"uv_index":5.5,"wind_gusts":51.8,"aqi":51,"pm10":4.5,"pm2_5":2.6,"no2":3.1,"co":106.0,"o3":41.0,"so2":1.6,"mosquito_risk":3,"arthritis_risk":5,"migraine_risk":3,"frizz_risk":1,"updated_at":"2026-07-17T05:36:31.753653+05:30"},{"city":"Tirupur","state":"Tamil Nadu","latitude":11.1085,"longitude":77.3411,"temp":24.2,"humidity":85,"rain":0.0,"pressure":975.3,"uv_index":8.85,"wind_gusts":42.5,"aqi":66,"pm10":22.9,"pm2_5":15.5,"no2":16.3,"co":153.0,"o3":25.0,"so2":4.7,"mosquito_risk":3,"arthritis_risk":5,"migraine_risk":7,"frizz_risk":1,"updated_at":"2026-07-17T05:36:31.753660+05:30"},{"city":"Alappuzha","state":"Kerala","latitude":9.4981,"longitude":76.3388,"temp":25.9,"humidity":90,"rain":0.0,"pressure":1010.3,"uv_index":7.65,"wind_gusts":40.0,"aqi":66,"pm10":26.4,"pm2_5":13.2,"no2":6.0,"co":88.0,"o3":38.0,"so2":3.4,"mosquito_risk":7,"arthritis_risk":0,"migraine_risk":4,"frizz_risk":1,"updated_at":"2026-07-17T05:36:31.753666+05:30"},{"city":"Munnar","state":"Kerala","latitude":10.0889,"longitude":77.0595,"temp":15.5,"humidity":95,"rain":0.0,"pressure":856.4,"uv_index":7.95,"wind_gusts":41.4,"aqi":54,"pm10":5.4,"pm2_5":3.5,"no2":5.1,"co":96.0,"o3":30.0,"so2":2.0,"mosquito_risk":3,"arthritis_risk":10,"migraine_risk":7,"frizz_risk":0,"updated_at":"2026-07-17T05:36:31.753673+05:30"},{"city":"Silchar","state":"Assam","latitude":24.8333,"longitude":92.7789,"temp":26.5,"humidity":95,"rain":0.0,"pressure":1002.4,"uv_index":8.35,"wind_gusts":33.5,"aqi":65,"pm10":32.6,"pm2_5":20.8,"no2":8.7,"co":338.0,"o3":56.0,"so2":5.0,"mosquito_risk":7,"arthritis_risk":5,"migraine_risk":4,"frizz_risk":1,"updated_at":"2026-07-17T05:36:31.753680+05:30"},{"city":"Dibrugarh","state":"Assam","latitude":27.4728,"longitude":94.912,"temp":25.7,"humidity":98,"rain":0.3,"pressure":991.7,"uv_index":3.65,"wind_gusts":33.5,"aqi":50,"pm10":8.0,"pm2_5":7.2,"no2":4.7,"co":182.0,"o3":76.0,"so2":1.3,"mosquito_risk":10,"arthritis_risk":5,"migraine_risk":3,"frizz_risk":1,"updated_at":"2026-07-17T05:36:31.753687+05:30"}]