[{"city":"Delhi","state":"Delhi","latitude":28.6139,"longitude":77.209,"temp":31.0,"humidity":43,"rain":0.0,"pressure":978.9,"uv_index":7.55,"wind_gusts":29.9,"aqi":301,"pm10":294.3,"pm2_5":67.8,"no2":24.5,"co":549.0,"o3":119.0,"so2":24.2,"mosquito_risk":0,"arthritis_risk":5,"migraine_risk":7,"frizz_risk":1,"updated_at":"2026-05-01T21:32:49.309060+05:30"},{"city":"Mumbai","state":"Maharashtra","latitude":19.076,"longitude":72.8777,"temp":29.3,"humidity":74,"rain":0.0,"pressure":1008.1,"uv_index":7.9,"wind_gusts":46.4,"aqi":66,"pm10":52.2,"pm2_5":17.8,"no2":9.1,"co":215.0,"o3":64.0,"so2":17.0,"mosquito_risk":7,"arthritis_risk":0,"migraine_risk":4,"frizz_risk":1,"updated_at":"2026-05-01T21:32:49.309110+05:30"},{"city":"Bangalore","state":"Karnataka","latitude":12.9716,"longitude":77.5946,"temp":23.4,"humidity":77,"rain":0.0,"pressure":912.5,"uv_index":9.55,"wind_gusts":35.6,"aqi":137,"pm10":48.1,"pm2_5":41.3,"no2":43.6,"co":698.0,"o3":80.0,"so2":15.8,"mosquito_risk":3,"arthritis_risk":5,"migraine_risk":7,"frizz_risk":1,"updated_at":"2026-05-01T21:32:49.309134+05:30"},{"city":"Hyderabad","state":"Telangana","latitude":17.385,"longitude":78.4867,"temp":33.0,"humidity":27,"rain":0.0,"pressure":951.7,"uv_index":9.25,"wind_gusts":36.7,"aqi":72,"pm10":67.5,"pm2_5":41.9,"no2":47.9,"co":631.0,"o3":44.0,"so2":15.7,"mosquito_risk":0,"arthritis_risk":5,"migraine_risk":7,"frizz_risk":0,"updated_at":"2026-05-01T21:32:49.309146+05:30"},{"city":"Chennai","state":"Tamil Nadu","latitude":13.0827,"longitude":80.2707,"temp":30.8,"humidity":77,"rain":0.0,"pressure":1006.1,"uv_index":9.25,"wind_gusts":49.0,"aqi":150,"pm10":18.0,"pm2_5":13.6,"no2":6.4,"co":195.0,"o3":100.0,"so2":5.6,"mosquito_risk":3,"arthritis_risk":5,"migraine_risk":4,"frizz_risk":1,"updated_at":"2026-05-01T21:32:49.309156+05:30"},{"city":"Kolkata","state":"West Bengal","latitude":22.5726,"longitude":88.3639,"temp":26.2,"humidity":85,"rain":0.0,"pressure":1005.3,"uv_index":7.9,"wind_gusts":25.2,"aqi":72,"pm10":65.4,"pm2_5":59.8,"no2":33.7,"co":1401.0,"o3":47.0,"so2":20.1,"mosquito_risk":7,"arthritis_risk":5,"migraine_risk":4,"frizz_risk":1,"updated_at":"2026-05-01T21:32:49.309165+05:30"},{"city":"Pune","state":"Maharashtra","latitude":18.5204,"longitude":73.8567,"temp":25.5,"humidity":75,"rain":0.0,"pressure":948.0,"uv_index":8.5,"wind_gusts":49.3,"aqi":55,"pm10":31.8,"pm2_5":12.7,"no2":8.3,"co":217.0,"o3":63.0,"so2":6.8,"mosquito_risk":7,"arthritis_risk":5,"migraine_risk":7,"frizz_risk":1,"updated_at":"2026-05-01T21:32:49.309174+05:30"},{"city":"Ahmedabad","state":"Gujarat","latitude":23.0225,"longitude":72.5714,"temp":31.1,"humidity":72,"rain":0.0,"pressure":998.4,"uv_index":8.1,"wind_gusts":42.5,"aqi":54,"pm10":30.6,"pm2_5":14.3,"no2":6.4,"co":238.0,"o3":82.0,"so2":6.1,"mosquito_risk":3,"arthritis_risk":5,"migraine_risk":7,"frizz_risk":1,"updated_at":"2026-05-01T21:32:49.309185+05:30"},{"city":"Jaipur","state":"Rajasthan","latitude":26.9124,"longitude":75.7873,"temp":32.8,"humidity":20,"rain":0.0,"pressure":955.0,"uv_index":8.1,"wind_gusts":42.5,"aqi":164,"pm10":193.7,"pm2_5":43.0,"no2":19.3,"co":399.0,"o3":72.0,"so2":5.3,"mosquito_risk":0,"arthritis_risk":5,"migraine_risk":7,"frizz_risk":0,"updated_at":"2026-05-01T21:32:49.309194+05:30"},{"city":"Lucknow","state":"Uttar Pradesh","latitude":26.8467,"longitude":80.9462,"temp":27.6,"humidity":59,"rain":0.0,"pressure":991.1,"uv_index":8.0,"wind_gusts":29.5,"aqi":130,"pm10":62.4,"pm2_5":37.5,"no2":16.0,"co":403.0,"o3":97.0,"so2":13.1,"mosquito_risk":4,"arthritis_risk":5,"migraine_risk":7,"frizz_risk":1,"updated_at":"2026-05-01T21:32:49.309202+05:30"},{"city":"Kanpur","state":"Uttar Pradesh","latitude":26.4499,"longitude":80.3319,"temp":29.4,"humidity":51,"rain":0.0,"pressure":988.7,"uv_index":8.05,"wind_gusts":31.0,"aqi":139,"pm10":278.5,"pm2_5":54.9,"no2":13.3,"co":350.0,"o3":108.0,"so2":10.4,"mosquito_risk":4,"arthritis_risk":5,"migraine_risk":7,"frizz_risk":1,"updated_at":"2026-05-01T21:32:49.309210+05:30"},{"city":"Chandigarh","state":"Chandigarh","latitude":30.7333,"longitude":76.7794,"temp":26.2,"humidity":48,"rain":0.0,"pressure":964.5,"uv_index":7.55,"wind_gusts":37.4,"aqi":159,"pm10":71.9,"pm2_5":40.3,"no2":21.6,"co":743.0,"o3":109.0,"so2":22.1,"mosquito_risk":4,"arthritis_risk":5,"migraine_risk":7,"frizz_risk":0,"updated_at":"2026-05-01T21:32:49.309219+05:30"},{"city":"Srinagar","state":"Jammu and Kashmir","latitude":34.0837,"longitude":74.7973,"temp":14.0,"humidity":84,"rain":0.0,"pressure":837.9,"uv_index":8.75,"wind_gusts":25.9,"aqi":81,"pm10":43.1,"pm2_5":38.4,"no2":38.6,"co":1245.0,"o3":42.0,"so2":6.2,"mosquito_risk":3,"arthritis_risk":10,"migraine_risk":7,"frizz_risk":0,"updated_at":"2026-05-01T21:32:49.309228+05:30"},{"city":"Jammu","state":"Jammu and Kashmir","latitude":32.7266,"longitude":74.857,"temp":24.5,"humidity":59,"rain":0.0,"pressure":967.8,"uv_index":8.35,"wind_gusts":32.0,"aqi":104,"pm10":23.1,"pm2_5":20.0,"no2":23.3,"co":543.0,"o3":77.0,"so2":4.1,"mosquito_risk":0,"arthritis_risk":5,"migraine_risk":7,"frizz_risk":0,"updated_at":"2026-05-01T21:32:49.309236+05:30"},{"city":"Amritsar","state":"Punjab","latitude":31.634,"longitude":74.8723,"temp":28.6,"humidity":42,"rain":0.0,"pressure":976.1,"uv_index":8.25,"wind_gusts":31.7,"aqi":157,"pm10":40.9,"pm2_5":32.9,"no2":20.7,"co":571.0,"o3":105.0,"so2":9.4,"mosquito_risk":4,"arthritis_risk":5,"migraine_risk":7,"frizz_risk":0,"updated_at":"2026-05-01T21:32:49.309244+05:30"},{"city":"Ludhiana","state":"Punjab","latitude":30.901,"longitude":75.8573,"temp":29.9,"humidity":40,"rain":0.0,"pressure":974.3,"uv_index":7.85,"wind_gusts":33.5,"aqi":159,"pm10":112.9,"pm2_5":62.4,"no2":25.7,"co":488.0,"o3":81.0,"so2":15.9,"mosquito_risk":4,"arthritis_risk":5,"migraine_risk":7,"frizz_risk":0,"updated_at":"2026-05-01T21:32:49.309251+05:30"},{"city":"Jalandhar","state":"Punjab","latitude":31.326,"longitude":75.5762,"temp":27.2,"humidity":46,"rain":0.0,"pressure":975.0,"uv_index":8.0,"wind_gusts":33.8,"aqi":152,"pm10":146.7,"pm2_5":65.2,"no2":27.1,"co":945.0,"o3":90.0,"so2":12.7,"mosquito_risk":4,"arthritis_risk":5,"migraine_risk":7,"frizz_risk":0,"updated_at":"2026-05-01T21:32:49.309259+05:30"},{"city":"Dehradun","state":"Uttarakhand","latitude":30.6284,"longitude":78.0322,"temp":12.7,"humidity":92,"rain":0.0,"pressure":825.7,"uv_index":7.95,"wind_gusts":34.2,"aqi":107,"pm10":64.5,"pm2_5":41.6,"no2":30.9,"co":275.0,"o3":78.0,"so2":2.4,"mosquito_risk":3,"arthritis_risk":10,"migraine_risk":7,"frizz_risk":0,"updated_at":"2026-05-01T21:32:49.309269+05:30"},{"city":"Shimla","state":"Himachal Pradesh","latitude":31.1048,"longitude":77.1734,"temp":12.5,"humidity":69,"rain":0.0,"pressure":780.7,"uv_index":8.1,"wind_gusts":47.2,"aqi":141,"pm10":53.3,"pm2_5":29.7,"no2":17.6,"co":321.0,"o3":119.0,"so2":10.3,"mosquito_risk":3,"arthritis_risk":5,"migraine_risk":7,"frizz_risk":0,"updated_at":"2026-05-01T21:32:49.309277+05:30"},{"city":"Manali","state":"Himachal Pradesh","latitude":32.2396,"longitude":77.1887,"temp":10.0,"humidity":84,"rain":0.0,"pressure":813.3,"uv_index":10.1,"wind_gusts":42.5,"aqi":114,"pm10":11.2,"pm2_5":9.9,"no2":38.8,"co":306.0,"o3":98.0,"so2":0.9,"mosquito_risk":3,"arthritis_risk":10,"migraine_risk":7,"frizz_risk":0,"updated_at":"2026-05-01T21:32:49.309285+05:30"},{"city":"Gurgaon","state":"Haryana","latitude":28.4595,"longitude":77.0266,"temp":30.6,"humidity":40,"rain":0.0,"pressure":977.2,"uv_index":7.7,"wind_gusts":31.7,"aqi":1309,"pm10":1817.9,"pm2_5":217.0,"no2":30.5,"co":993.0,"o3":117.0,"so2":25.6,"mosquito_risk":0,"arthritis_risk":5,"migraine_risk":7,"frizz_risk":0,"updated_at":"2026-05-01T21:32:49.309294+05:30"},{"city":"Noida","state":"Uttar Pradesh","latitude":28.5355,"longitude":77.391,"temp":28.5,"humidity":53,"rain":0.0,"pressure":980.4,"uv_index":7.6,"wind_gusts":29.2,"aqi":1309,"pm10":1817.9,"pm2_5":217.0,"no2":30.5,"co":581.0,"o3":117.0,"so2":25.6,"mosquito_risk":4,"arthritis_risk":5,"migraine_risk":7,"frizz_risk":1,"updated_at":"2026-05-01T21:32:49.309303+05:30"},{"city":"Ghaziabad","state":"Uttar Pradesh","latitude":28.6692,"longitude":77.4538,"temp":28.5,"humidity":52,"rain":0.0,"pressure":978.7,"uv_index":7.55,"wind_gusts":32.8,"aqi":183,"pm10":244.0,"pm2_5":53.4,"no2":9.1,"co":381.0,"o3":118.0,"so2":11.1,"mosquito_risk":4,"arthritis_risk":5,"migraine_risk":7,"frizz_risk":1,"updated_at":"2026-05-01T21:32:49.309311+05:30"},{"city":"Faridabad","state":"Haryana","latitude":28.4089,"longitude":77.3178,"temp":29.8,"humidity":48,"rain":0.0,"pressure":979.6,"uv_index":7.65,"wind_gusts":29.5,"aqi":1309,"pm10":1817.9,"pm2_5":217.0,"no2":30.5,"co":689.0,"o3":117.0,"so2":25.6,"mosquito_risk":4,"arthritis_risk":5,"migraine_risk":7,"frizz_risk":1,"updated_at":"2026-05-01T21:32:49.309318+05:30"},{"city":"Meerut","state":"Uttar Pradesh","latitude":28.9845,"longitude":77.7064,"temp":27.5,"humidity":54,"rain":0.0,"pressure":977.8,"uv_index":7.5,"wind_gusts":34.9,"aqi":183,"pm10":244.0,"pm2_5":53.4,"no2":9.1,"co":423.0,"o3":118.0,"so2":11.1,"mosquito_risk":4,"arthritis_risk":5,"migraine_risk":7,"frizz_risk":1,"updated_at":"2026-05-01T21:32:49.309325+05:30"},{"city":"Agra","state":"Uttar Pradesh","latitude":27.1767,"longitude":78.0081,"temp":31.0,"humidity":41,"rain":0.0,"pressure":983.2,"uv_index":7.9,"wind_gusts":27.7,"aqi":587,"pm10":1244.2,"pm2_5":148.1,"no2":15.3,"co":400.0,"o3":96.0,"so2":14.0,"mosquito_risk":0,"arthritis_risk":5,"migraine_risk":7,"frizz_risk":1,"updated_at":"2026-05-01T21:32:49.309332+05:30"},{"city":"Varanasi","state":"Uttar Pradesh","latitude":25.3176,"longitude":82.9739,"temp":27.5,"humidity":55,"rain":0.0,"pressure":995.8,"uv_index":8.55,"wind_gusts":25.9,"aqi":143,"pm10":65.9,"pm2_5":41.6,"no2":18.2,"co":505.0,"o3":105.0,"so2":16.9,"mosquito_risk":4,"arthritis_risk":5,"migraine_risk":7,"frizz_risk":1,"updated_at":"2026-05-01T21:32:49.309340+05:30"},{"city":"Prayagraj","state":"Uttar Pradesh","latitude":25.4358,"longitude":81.8463,"temp":29.1,"humidity":53,"rain":0.0,"pressure":993.4,"uv_index":8.4,"wind_gusts":25.6,"aqi":151,"pm10":83.6,"pm2_5":51.8,"no2":26.4,"co":557.0,"o3":98.0,"so2":18.1,"mosquito_risk":4,"arthritis_risk":5,"migraine_risk":7,"frizz_risk":1,"updated_at":"2026-05-01T21:32:49.309350+05:30"},{"city":"Gorakhpur","state":"Uttar Pradesh","latitude":26.7606,"longitude":83.3732,"temp":22.0,"humidity":84,"rain":0.0,"pressure":996.7,"uv_index":8.35,"wind_gusts":37.1,"aqi":126,"pm10":36.4,"pm2_5":24.8,"no2":9.0,"co":427.0,"o3":110.0,"so2":6.0,"mosquito_risk":3,"arthritis_risk":5,"migraine_risk":7,"frizz_risk":1,"updated_at":"2026-05-01T21:32:49.309358+05:30"},{"city":"Bareilly","state":"Uttar Pradesh","latitude":28.367,"longitude":79.4304,"temp":26.1,"humidity":62,"rain":0.0,"pressure":984.1,"uv_index":7.85,"wind_gusts":34.6,"aqi":133,"pm10":129.0,"pm2_5":50.1,"no2":19.0,"co":399.0,"o3":89.0,"so2":12.5,"mosquito_risk":7,"arthritis_risk":5,"migraine_risk":7,"frizz_risk":1,"updated_at":"2026-05-01T21:32:49.309365+05:30"},{"city":"Aligarh","state":"Uttar Pradesh","latitude":27.8974,"longitude":78.088,"temp":29.2,"humidity":49,"rain":0.0,"pressure":981.4,"uv_index":7.75,"wind_gusts":28.8,"aqi":668,"pm10":761.8,"pm2_5":103.8,"no2":11.5,"co":402.0,"o3":118.0,"so2":15.0,"mosquito_risk":4,"arthritis_risk":5,"migraine_risk":7,"frizz_risk":1,"updated_at":"2026-05-01T21:32:49.309372+05:30"},{"city":"Moradabad","state":"Uttar Pradesh","latitude":28.8386,"longitude":78.7733,"temp":26.9,"humidity":58,"rain":0.0,"pressure":980.6,"uv_index":7.7,"wind_gusts":35.6,"aqi":141,"pm10":102.9,"pm2_5":55.9,"no2":21.7,"co":550.0,"o3":107.0,"so2":19.4,"mosquito_risk":4,"arthritis_risk":5,"migraine_risk":7,"frizz_risk":1,"updated_at":"2026-05-01T21:32:49.309380+05:30"},{"city":"Saharanpur","state":"Uttar Pradesh","latitude":29.9637,"longitude":77.546,"temp":26.1,"humidity":63,"rain":0.0,"pressure":971.7,"uv_index":7.3,"wind_gusts":36.4,"aqi":119,"pm10":113.9,"pm2_5":65.0,"no2":32.9,"co":706.0,"o3":79.0,"so2":17.4,"mosquito_risk":7,"arthritis_risk":5,"migraine_risk":7,"frizz_risk":1,"updated_at":"2026-05-01T21:32:49.309386+05:30"},{"city":"Jhansi","state":"Uttar Pradesh","latitude":25.4484,"longitude":78.5685,"temp":29.5,"humidity":38,"rain":0.0,"pressure":973.3,"uv_index":8.35,"wind_gusts":28.4,"aqi":81,"pm10":72.4,"pm2_5":30.4,"no2":9.5,"co":315.0,"o3":80.0,"so2":10.3,"mosquito_risk":4,"arthritis_risk":5,"migraine_risk":7,"frizz_risk":0,"updated_at":"2026-05-01T21:32:52.695025+05:30"},{"city":"Surat","state":"Gujarat","latitude":21.1702,"longitude":72.8311,"temp":29.6,"humidity":79,"rain":0.0,"pressure":1004.4,"uv_index":7.7,"wind_gusts":55.4,"aqi":62,"pm10":29.3,"pm2_5":15.9,"no2":16.3,"co":227.0,"o3":59.0,"so2":26.9,"mosquito_risk":7,"arthritis_risk":5,"migraine_risk":4,"frizz_risk":1,"updated_at":"2026-05-01T21:32:52.695071+05:30"},{"city":"Vadodara","state":"Gujarat","latitude":22.3072,"longitude":73.1812,"temp":29.9,"humidity":71,"rain":0.0,"pressure":1001.6,"uv_index":8.05,"wind_gusts":52.6,"aqi":55,"pm10":22.6,"pm2_5":14.6,"no2":15.1,"co":269.0,"o3":62.0,"so2":21.6,"mosquito_risk":7,"arthritis_risk":5,"migraine_risk":4,"frizz_risk":1,"updated_at":"2026-05-01T21:32:52.695083+05:30"},{"city":"Rajkot","state":"Gujarat","latitude":22.3039,"longitude":70.8022,"temp":31.9,"humidity":54,"rain":0.0,"pressure":991.1,"uv_index":7.7,"wind_gusts":54.0,"aqi":48,"pm10":24.2,"pm2_5":11.8,"no2":5.2,"co":171.0,"o3":69.0,"so2":6.5,"mosquito_risk":0,"arthritis_risk":5,"migraine_risk":7,"frizz_risk":1,"updated_at":"2026-05-01T21:32:52.695092+05:30"},{"city":"Thane","state":"Maharashtra","latitude":19.2183,"longitude":72.9781,"temp":29.5,"humidity":72,"rain":0.0,"pressure":1007.4,"uv_index":7.9,"wind_gusts":42.1,"aqi":66,"pm10":52.2,"pm2_5":17.8,"no2":9.1,"co":225.0,"o3":64.0,"so2":17.0,"mosquito_risk":7,"arthritis_risk":5,"migraine_risk":4,"frizz_risk":1,"updated_at":"2026-05-01T21:32:52.695100+05:30"},{"city":"Nagpur","state":"Maharashtra","latitude":21.1458,"longitude":79.0882,"temp":34.9,"humidity":28,"rain":0.0,"pressure":970.2,"uv_index":8.9,"wind_gusts":36.7,"aqi":102,"pm10":71.2,"pm2_5":36.3,"no2":20.0,"co":344.0,"o3":76.0,"so2":15.6,"mosquito_risk":0,"arthritis_risk":5,"migraine_risk":7,"frizz_risk":0,"updated_at":"2026-05-01T21:32:52.695108+05:30"},{"city":"Nashik","state":"Maharashtra","latitude":19.9975,"longitude":73.7898,"temp":25.5,"humidity":75,"rain":0.0,"pressure":944.9,"uv_index":8.2,"wind_gusts":51.1,"aqi":60,"pm10":34.7,"pm2_5":14.2,"no2":7.1,"co":198.0,"o3":70.0,"so2":7.9,"mosquito_risk":7,"arthritis_risk":5,"migraine_risk":7,"frizz_risk":1,"updated_at":"2026-05-01T21:32:52.695115+05:30"},{"city":"Aurangabad","state":"Maharashtra","latitude":19.8762,"longitude":75.3433,"temp":30.6,"humidity":42,"rain":0.0,"pressure":943.1,"uv_index":9.05,"wind_gusts":46.1,"aqi":54,"pm10":23.9,"pm2_5":11.8,"no2":5.5,"co":180.0,"o3":80.0,"so2":6.2,"mosquito_risk":0,"arthritis_risk":5,"migraine_risk":7,"frizz_risk":1,"updated_at":"2026-05-01T21:32:52.695123+05:30"},{"city":"Solapur","state":"Maharashtra","latitude":17.6599,"longitude":75.9064,"temp":33.4,"humidity":30,"rain":0.0,"pressure":955.9,"uv_index":9.05,"wind_gusts":47.5,"aqi":52,"pm10":20.6,"pm2_5":11.9,"no2":6.5,"co":185.0,"o3":84.0,"so2":3.0,"mosquito_risk":0,"arthritis_risk":5,"migraine_risk":7,"frizz_risk":0,"updated_at":"2026-05-01T21:32:52.695131+05:30"},{"city":"Kolhapur","state":"Maharashtra","latitude":16.705,"longitude":74.2433,"temp":25.5,"humidity":69,"rain":0.0,"pressure":948.0,"uv_index":8.95,"wind_gusts":46.8,"aqi":60,"pm10":30.0,"pm2_5":15.5,"no2":10.2,"co":239.0,"o3":57.0,"so2":3.1,"mosquito_risk":7,"arthritis_risk":5,"migraine_risk":7,"frizz_risk":1,"updated_at":"2026-05-01T21:32:52.695139+05:30"},{"city":"Goa","state":"Goa","latitude":15.2993,"longitude":74.124,"temp":28.2,"humidity":78,"rain":0.0,"pressure":998.5,"uv_index":8.9,"wind_gusts":36.4,"aqi":63,"pm10":32.9,"pm2_5":22.5,"no2":10.0,"co":255.0,"o3":63.0,"so2":2.5,"mosquito_risk":7,"arthritis_risk":5,"migraine_risk":7,"frizz_risk":1,"updated_at":"2026-05-01T21:32:52.695146+05:30"},{"city":"Jodhpur","state":"Rajasthan","latitude":26.2389,"longitude":73.0243,"temp":33.5,"humidity":32,"rain":0.0,"pressure":977.6,"uv_index":8.3,"wind_gusts":52.6,"aqi":137,"pm10":267.3,"pm2_5":41.2,"no2":6.5,"co":225.0,"o3":81.0,"so2":2.9,"mosquito_risk":0,"arthritis_risk":5,"migraine_risk":7,"frizz_risk":0,"updated_at":"2026-05-01T21:32:52.695154+05:30"},{"city":"Udaipur","state":"Rajasthan","latitude":24.5854,"longitude":73.7125,"temp":31.2,"humidity":30,"rain":0.0,"pressure":943.2,"uv_index":8.75,"wind_gusts":45.7,"aqi":58,"pm10":31.5,"pm2_5":13.9,"no2":2.8,"co":181.0,"o3":109.0,"so2":4.5,"mosquito_risk":0,"arthritis_risk":5,"migraine_risk":7,"frizz_risk":0,"updated_at":"2026-05-01T21:32:52.695162+05:30"},{"city":"Kota","state":"Rajasthan","latitude":25.2138,"longitude":75.8648,"temp":33.9,"humidity":23,"rain":0.0,"pressure":973.7,"uv_index":8.3,"wind_gusts":38.2,"aqi":66,"pm10":50.4,"pm2_5":26.1,"no2":12.7,"co":240.0,"o3":73.0,"so2":4.7,"mosquito_risk":0,"arthritis_risk":5,"migraine_risk":7,"frizz_risk":0,"updated_at":"2026-05-01T21:32:52.695169+05:30"},{"city":"Bikaner","state":"Rajasthan","latitude":28.0229,"longitude":73.3119,"temp":34.8,"humidity":22,"rain":0.0,"pressure":976.0,"uv_index":8.25,"wind_gusts":39.6,"aqi":78,"pm10":60.8,"pm2_5":19.8,"no2":5.8,"co":411.0,"o3":85.0,"so2":5.6,"mosquito_risk":0,"arthritis_risk":5,"migraine_risk":7,"frizz_risk":0,"updated_at":"2026-05-01T21:32:52.695177+05:30"},{"city":"Ajmer","state":"Rajasthan","latitude":26.4499,"longitude":74.6399,"temp":31.9,"humidity":29,"rain":0.0,"pressure":950.9,"uv_index":8.25,"wind_gusts":51.5,"aqi":69,"pm10":67.8,"pm2_5":20.1,"no2":7.5,"co":191.0,"o3":80.0,"so2":3.6,"mosquito_risk":0,"arthritis_risk":5,"migraine_risk":7,"frizz_risk":0,"updated_at":"2026-05-01T21:32:52.695184+05:30"},{"city":"Gwalior","state":"Madhya Pradesh","latitude":26.2183,"longitude":78.1828,"temp":31.8,"humidity":35,"rain":0.0,"pressure":977.9,"uv_index":8.15,"wind_gusts":33.1,"aqi":82,"pm10":110.1,"pm2_5":34.1,"no2":9.7,"co":332.0,"o3":82.0,"so2":7.2,"mosquito_risk":0,"arthritis_risk":5,"migraine_risk":7,"frizz_risk":0,"updated_at":"2026-05-01T21:32:52.695191+05:30"},{"city":"Indore","state":"Madhya Pradesh","latitude":22.7196,"longitude":75.8577,"temp":32.9,"humidity":25,"rain":0.0,"pressure":945.9,"uv_index":8.65,"wind_gusts":41.0,"aqi":60,"pm10":33.1,"pm2_5":18.0,"no2":7.7,"co":270.0,"o3":92.0,"so2":5.8,"mosquito_risk":0,"arthritis_risk":5,"migraine_risk":7,"frizz_risk":0,"updated_at":"2026-05-01T21:32:52.695198+05:30"},{"city":"Bhopal","state":"Madhya Pradesh","latitude":23.2599,"longitude":77.4126,"temp":32.2,"humidity":22,"rain":0.0,"pressure":949.9,"uv_index":8.65,"wind_gusts":39.2,"aqi":74,"pm10":79.4,"pm2_5":27.2,"no2":7.7,"co":302.0,"o3":75.0,"so2":4.9,"mosquito_risk":0,"arthritis_risk":5,"migraine_risk":7,"frizz_risk":0,"updated_at":"2026-05-01T21:32:52.695205+05:30"},{"city":"Jabalpur","state":"Madhya Pradesh","latitude":23.1815,"longitude":79.9864,"temp":33.3,"humidity":24,"rain":0.0,"pressure":957.9,"uv_index":8.8,"wind_gusts":38.2,"aqi":76,"pm10":66.1,"pm2_5":27.1,"no2":13.3,"co":261.0,"o3":82.0,"so2":5.4,"mosquito_risk":0,"arthritis_risk":5,"migraine_risk":7,"frizz_risk":0,"updated_at":"2026-05-01T21:32:52.695212+05:30"},{"city":"Ujjain","state":"Madhya Pradesh","latitude":23.1765,"longitude":75.7885,"temp":32.6,"humidity":27,"rain":0.0,"pressure":951.0,"uv_index":8.55,"wind_gusts":40.0,"aqi":59,"pm10":33.1,"pm2_5":17.8,"no2":4.0,"co":231.0,"o3":95.0,"so2":4.7,"mosquito_risk":0,"arthritis_risk":5,"migraine_risk":7,"frizz_risk":0,"updated_at":"2026-05-01T21:32:52.695220+05:30"},{"city":"Visakhapatnam","state":"Andhra Pradesh","latitude":17.6868,"longitude":83.2185,"temp":28.2,"humidity":92,"rain":0.0,"pressure":1002.4,"uv_index":9.15,"wind_gusts":51.8,"aqi":54,"pm10":24.7,"pm2_5":19.7,"no2":26.0,"co":309.0,"o3":63.0,"so2":5.7,"mosquito_risk":7,"arthritis_risk":5,"migraine_risk":4,"frizz_risk":1,"updated_at":"2026-05-01T21:32:52.695228+05:30"},{"city":"Vijayawada","state":"Andhra Pradesh","latitude":16.5062,"longitude":80.648,"temp":30.3,"humidity":73,"rain":0.0,"pressure":1000.5,"uv_index":9.2,"wind_gusts":39.6,"aqi":140,"pm10":31.0,"pm2_5":27.9,"no2":5.4,"co":293.0,"o3":139.0,"so2":7.5,"mosquito_risk":3,"arthritis_risk":5,"migraine_risk":4,"frizz_risk":1,"updated_at":"2026-05-01T21:32:52.695236+05:30"},{"city":"Guntur","state":"Andhra Pradesh","latitude":16.3067,"longitude":80.4365,"temp":30.8,"humidity":74,"rain":0.0,"pressure":1001.7,"uv_index":9.2,"wind_gusts":40.0,"aqi":131,"pm10":39.1,"pm2_5":36.0,"no2":10.3,"co":272.0,"o3":132.0,"so2":8.2,"mosquito_risk":3,"arthritis_risk":5,"migraine_risk":4,"frizz_risk":1,"updated_at":"2026-05-01T21:32:52.695243+05:30"},{"city":"Nellore","state":"Andhra Pradesh","latitude":14.4426,"longitude":79.9865,"temp":31.7,"humidity":68,"rain":0.0,"pressure":1003.4,"uv_index":9.25,"wind_gusts":49.0,"aqi":165,"pm10":36.3,"pm2_5":33.4,"no2":6.3,"co":263.0,"o3":151.0,"so2":10.8,"mosquito_risk":3,"arthritis_risk":5,"migraine_risk":4,"frizz_risk":1,"updated_at":"2026-05-01T21:32:52.695251+05:30"},{"city":"Kurnool","state":"Andhra Pradesh","latitude":15.8281,"longitude":78.0373,"temp":32.6,"humidity":25,"rain":0.0,"pressure":974.4,"uv_index":9.2,"wind_gusts":40.0,"aqi":92,"pm10":43.5,"pm2_5":24.3,"no2":17.3,"co":195.0,"o3":79.0,"so2":6.4,"mosquito_risk":0,"arthritis_risk":5,"migraine_risk":7,"frizz_risk":0,"updated_at":"2026-05-01T21:32:52.695259+05:30"},{"city":"Kakinada","state":"Andhra Pradesh","latitude":16.9891,"longitude":82.2475,"temp":29.0,"humidity":86,"rain":0.0,"pressure":1005.8,"uv_index":9.15,"wind_gusts":45.7,"aqi":50,"pm10":20.3,"pm2_5":14.3,"no2":2.6,"co":281.0,"o3":89.0,"so2":1.5,"mosquito_risk":7,"arthritis_risk":5,"migraine_risk":4,"frizz_risk":1,"updated_at":"2026-05-01T21:32:52.695268+05:30"},{"city":"Tirupati","state":"Andhra Pradesh","latitude":13.6288,"longitude":79.4192,"temp":31.1,"humidity":48,"rain":0.0,"pressure":989.9,"uv_index":9.3,"wind_gusts":42.8,"aqi":143,"pm10":48.9,"pm2_5":45.5,"no2":17.6,"co":418.0,"o3":116.0,"so2":9.6,"mosquito_risk":0,"arthritis_risk":5,"migraine_risk":7,"frizz_risk":1,"updated_at":"2026-05-01T21:32:52.695275+05:30"},{"city":"Warangal","state":"Telangana","latitude":17.9689,"longitude":79.5941,"temp":31.0,"humidity":32,"rain":0.0,"pressure":976.1,"uv_index":9.15,"wind_gusts":41.0,"aqi":83,"pm10":82.4,"pm2_5":58.8,"no2":38.3,"co":352.0,"o3":44.0,"so2":10.9,"mosquito_risk":0,"arthritis_risk":5,"migraine_risk":7,"frizz_risk":0,"updated_at":"2026-05-01T21:32:52.695282+05:30"},{"city":"Nizamabad","state":"Telangana","latitude":18.6725,"longitude":78.0941,"temp":33.2,"humidity":26,"rain":0.0,"pressure":962.2,"uv_index":9.1,"wind_gusts":33.5,"aqi":73,"pm10":53.6,"pm2_5":32.1,"no2":18.9,"co":427.0,"o3":68.0,"so2":5.0,"mosquito_risk":0,"arthritis_risk":5,"migraine_risk":7,"frizz_risk":0,"updated_at":"2026-05-01T21:32:52.695289+05:30"},{"city":"Mysore","state":"Karnataka","latitude":12.2958,"longitude":76.6396,"temp":24.5,"humidity":81,"rain":0.0,"pressure":929.5,"uv_index":9.35,"wind_gusts":52.9,"aqi":139,"pm10":25.8,"pm2_5":23.1,"no2":15.1,"co":353.0,"o3":99.0,"so2":3.3,"mosquito_risk":3,"arthritis_risk":5,"migraine_risk":7,"frizz_risk":1,"updated_at":"2026-05-01T21:32:52.695296+05:30"},{"city":"Mangalore","state":"Karnataka","latitude":12.9141,"longitude":74.856,"temp":29.7,"humidity":78,"rain":0.0,"pressure":1007.4,"uv_index":9.0,"wind_gusts":40.7,"aqi":67,"pm10":25.6,"pm2_5":15.4,"no2":5.3,"co":210.0,"o3":60.0,"so2":2.1,"mosquito_risk":7,"arthritis_risk":5,"migraine_risk":4,"frizz_risk":1,"updated_at":"2026-05-01T21:32:52.695304+05:30"},{"city":"Hubli-Dharwad","state":"Karnataka","latitude":15.3647,"longitude":75.124,"temp":25.4,"humidity":71,"rain":0.0,"pressure":940.7,"uv_index":9.2,"wind_gusts":45.0,"aqi":55,"pm10":23.2,"pm2_5":16.4,"no2":9.3,"co":204.0,"o3":63.0,"so2":2.2,"mosquito_risk":7,"arthritis_risk":5,"migraine_risk":7,"frizz_risk":1,"updated_at":"2026-05-01T21:32:52.695311+05:30"},{"city":"Belgaum","state":"Karnataka","latitude":15.8497,"longitude":74.4977,"temp":23.5,"humidity":79,"rain":0.0,"pressure":925.8,"uv_index":9.15,"wind_gusts":44.6,"aqi":54,"pm10":25.2,"pm2_5":15.5,"no2":12.7,"co":198.0,"o3":50.0,"so2":3.0,"mosquito_risk":3,"arthritis_risk":5,"migraine_risk":7,"frizz_risk":1,"updated_at":"2026-05-01T21:32:56.092693+05:30"},{"city":"Coimbatore","state":"Tamil Nadu","latitude":11.0168,"longitude":76.9558,"temp":27.0,"humidity":81,"rain":0.0,"pressure":962.8,"uv_index":9.2,"wind_gusts":41.4,"aqi":88,"pm10":28.4,"pm2_5":26.1,"no2":16.5,"co":278.0,"o3":60.0,"so2":4.5,"mosquito_risk":7,"arthritis_risk":5,"migraine_risk":7,"frizz_risk":1,"updated_at":"2026-05-01T21:32:56.092728+05:30"},{"city":"Madurai","state":"Tamil Nadu","latitude":9.9252,"longitude":78.1198,"temp":28.9,"humidity":68,"rain":0.0,"pressure":993.8,"uv_index":8.9,"wind_gusts":57.6,"aqi":100,"pm10":22.9,"pm2_5":20.6,"no2":16.2,"co":384.0,"o3":92.0,"so2":7.2,"mosquito_risk":7,"arthritis_risk":5,"migraine_risk":7,"frizz_risk":1,"updated_at":"2026-05-01T21:32:56.092740+05:30"},{"city":"Trichy","state":"Tamil Nadu","latitude":10.7905,"longitude":78.7047,"temp":32.0,"humidity":48,"rain":0.0,"pressure":999.9,"uv_index":8.9,"wind_gusts":36.0,"aqi":105,"pm10":13.2,"pm2_5":12.6,"no2":12.2,"co":304.0,"o3":80.0,"so2":4.2,"mosquito_risk":0,"arthritis_risk":5,"migraine_risk":7,"frizz_risk":1,"updated_at":"2026-05-01T21:32:56.092749+05:30"},{"city":"Salem","state":"Tamil Nadu","latitude":11.6643,"longitude":78.146,"temp":28.9,"humidity":60,"rain":0.0,"pressure":978.3,"uv_index":9.25,"wind_gusts":61.9,"aqi":164,"pm10":60.5,"pm2_5":53.4,"no2":33.8,"co":464.0,"o3":101.0,"so2":15.9,"mosquito_risk":4,"arthritis_risk":5,"migraine_risk":7,"frizz_risk":1,"updated_at":"2026-05-01T21:32:56.092758+05:30"},{"city":"Tirunelveli","state":"Tamil Nadu","latitude":8.7139,"longitude":77.7567,"temp":31.4,"humidity":58,"rain":0.0,"pressure":1003.9,"uv_index":8.85,"wind_gusts":36.7,"aqi":53,"pm10":21.2,"pm2_5":19.4,"no2":10.7,"co":337.0,"o3":73.0,"so2":2.5,"mosquito_risk":0,"arthritis_risk":5,"migraine_risk":4,"frizz_risk":1,"updated_at":"2026-05-01T21:32:56.092766+05:30"},{"city":"Vellore","state":"Tamil Nadu","latitude":12.9165,"longitude":79.1325,"temp":30.2,"humidity":54,"rain":0.0,"pressure":983.8,"uv_index":9.3,"wind_gusts":44.3,"aqi":138,"pm10":51.3,"pm2_5":47.6,"no2":16.8,"co":470.0,"o3":104.0,"so2":13.9,"mosquito_risk":0,"arthritis_risk":5,"migraine_risk":7,"frizz_risk":1,"updated_at":"2026-05-01T21:32:56.092774+05:30"},{"city":"Erode","state":"Tamil Nadu","latitude":11.341,"longitude":77.7172,"temp":30.3,"humidity":58,"rain":0.0,"pressure":989.8,"uv_index":9.25,"wind_gusts":54.4,"aqi":124,"pm10":46.6,"pm2_5":40.0,"no2":32.5,"co":387.0,"o3":80.0,"so2":4.8,"mosquito_risk":0,"arthritis_risk":5,"migraine_risk":7,"frizz_risk":1,"updated_at":"2026-05-01T21:32:56.092781+05:30"},{"city":"Kochi","state":"Kerala","latitude":9.9312,"longitude":76.2673,"temp":27.4,"humidity":92,"rain":0.0,"pressure":1009.7,"uv_index":8.8,"wind_gusts":33.8,"aqi":59,"pm10":51.9,"pm2_5":46.8,"no2":64.6,"co":380.0,"o3":5.0,"so2":11.4,"mosquito_risk":7,"arthritis_risk":0,"migraine_risk":4,"frizz_risk":1,"updated_at":"2026-05-01T21:32:56.092789+05:30"},{"city":"Thiruvananthapuram","state":"Kerala","latitude":8.5241,"longitude":76.9366,"temp":25.5,"humidity":93,"rain":0.0,"pressure":1009.4,"uv_index":8.85,"wind_gusts":34.9,"aqi":50,"pm10":16.3,"pm2_5":11.2,"no2":3.2,"co":416.0,"o3":92.0,"so2":1.7,"mosquito_risk":7,"arthritis_risk":0,"migraine_risk":4,"frizz_risk":1,"updated_at":"2026-05-01T21:32:56.092797+05:30"},{"city":"Kozhikode","state":"Kerala","latitude":11.2588,"longitude":75.7804,"temp":27.9,"humidity":89,"rain":0.0,"pressure":1008.8,"uv_index":7.7,"wind_gusts":39.2,"aqi":61,"pm10":31.9,"pm2_5":18.2,"no2":3.3,"co":712.0,"o3":75.0,"so2":1.4,"mosquito_risk":7,"arthritis_risk":0,"migraine_risk":4,"frizz_risk":1,"updated_at":"2026-05-01T21:32:56.092804+05:30"},{"city":"Thrissur","state":"Kerala","latitude":10.5276,"longitude":76.2144,"temp":26.7,"humidity":93,"rain":0.0,"pressure":1008.1,"uv_index":8.7,"wind_gusts":39.2,"aqi":66,"pm10":42.3,"pm2_5":34.3,"no2":24.4,"co":450.0,"o3":42.0,"so2":4.8,"mosquito_risk":7,"arthritis_risk":0,"migraine_risk":4,"frizz_risk":1,"updated_at":"2026-05-01T21:32:56.092813+05:30"},{"city":"Kannur","state":"Kerala","latitude":11.8745,"longitude":75.3704,"temp":28.7,"humidity":87,"rain":0.0,"pressure":1007.8,"uv_index":8.9,"wind_gusts":43.2,"aqi":68,"pm10":29.9,"pm2_5":20.0,"no2":12.2,"co":300.0,"o3":53.0,"so2":2.4,"mosquito_risk":7,"arthritis_risk":5,"migraine_risk":4,"frizz_risk":1,"updated_at":"2026-05-01T21:32:56.092821+05:30"},{"city":"Patna","state":"Bihar","latitude":25.5941,"longitude":85.1376,"temp":22.7,"humidity":84,"rain":0.0,"pressure":999.7,"uv_index":8.4,"wind_gusts":33.5,"aqi":147,"pm10":42.8,"pm2_5":34.7,"no2":14.6,"co":421.0,"o3":110.0,"so2":12.0,"mosquito_risk":3,"arthritis_risk":5,"migraine_risk":7,"frizz_risk":1,"updated_at":"2026-05-01T21:32:56.092830+05:30"},{"city":"Gaya","state":"Bihar","latitude":24.7914,"longitude":85.0002,"temp":24.2,"humidity":74,"rain":0.0,"pressure":992.9,"uv_index":8.7,"wind_gusts":32.8,"aqi":145,"pm10":57.7,"pm2_5":39.7,"no2":12.6,"co":491.0,"o3":114.0,"so2":11.4,"mosquito_risk":3,"arthritis_risk":5,"migraine_risk":7,"frizz_risk":1,"updated_at":"2026-05-01T21:32:56.092838+05:30"},{"city":"Muzaffarpur","state":"Bihar","latitude":26.1209,"longitude":85.3647,"temp":21.3,"humidity":90,"rain":0.0,"pressure":999.9,"uv_index":6.55,"wind_gusts":31.3,"aqi":139,"pm10":38.2,"pm2_5":31.9,"no2":14.4,"co":436.0,"o3":99.0,"so2":10.5,"mosquito_risk":3,"arthritis_risk":5,"migraine_risk":7,"frizz_risk":1,"updated_at":"2026-05-01T21:32:56.092845+05:30"},{"city":"Bhagalpur","state":"Bihar","latitude":25.2425,"longitude":87.0117,"temp":22.0,"humidity":96,"rain":0.0,"pressure":1001.4,"uv_index":8.5,"wind_gusts":49.3,"aqi":143,"pm10":39.6,"pm2_5":33.6,"no2":13.1,"co":359.0,"o3":94.0,"so2":7.1,"mosquito_risk":3,"arthritis_risk":5,"migraine_risk":4,"frizz_risk":1,"updated_at":"2026-05-01T21:32:56.092852+05:30"},{"city":"Ranchi","state":"Jharkhand","latitude":23.3441,"longitude":85.3096,"temp":20.9,"humidity":73,"rain":0.0,"pressure":935.5,"uv_index":9.05,"wind_gusts":48.2,"aqi":131,"pm10":78.2,"pm2_5":38.2,"no2":8.2,"co":461.0,"o3":126.0,"so2":7.1,"mosquito_risk":3,"arthritis_risk":5,"migraine_risk":7,"frizz_risk":0,"updated_at":"2026-05-01T21:32:56.092859+05:30"},{"city":"Jamshedpur","state":"Jharkhand","latitude":22.8046,"longitude":86.2029,"temp":25.0,"humidity":82,"rain":0.0,"pressure":989.8,"uv_index":9.0,"wind_gusts":24.8,"aqi":146,"pm10":83.8,"pm2_5":48.7,"no2":22.0,"co":663.0,"o3":86.0,"so2":18.8,"mosquito_risk":7,"arthritis_risk":5,"migraine_risk":7,"frizz_risk":1,"updated_at":"2026-05-01T21:32:56.092866+05:30"},{"city":"Dhanbad","state":"Jharkhand","latitude":23.7957,"longitude":86.4304,"temp":24.2,"humidity":86,"rain":0.0,"pressure":978.7,"uv_index":8.9,"wind_gusts":22.3,"aqi":154,"pm10":108.0,"pm2_5":78.0,"no2":58.6,"co":1508.0,"o3":66.0,"so2":62.0,"mosquito_risk":3,"arthritis_risk":5,"migraine_risk":7,"frizz_risk":1,"updated_at":"2026-05-01T21:32:56.092874+05:30"},{"city":"Bokaro","state":"Jharkhand","latitude":23.6693,"longitude":86.1511,"temp":24.2,"humidity":77,"rain":0.0,"pressure":982.5,"uv_index":8.95,"wind_gusts":27.4,"aqi":145,"pm10":109.2,"pm2_5":64.3,"no2":47.7,"co":1614.0,"o3":66.0,"so2":42.3,"mosquito_risk":3,"arthritis_risk":5,"migraine_risk":7,"frizz_risk":1,"updated_at":"2026-05-01T21:32:56.092881+05:30"},{"city":"Bhubaneswar","state":"Odisha","latitude":20.2961,"longitude":85.8245,"temp":26.6,"humidity":89,"rain":0.0,"pressure":1001.4,"uv_index":8.4,"wind_gusts":47.2,"aqi":81,"pm10":32.2,"pm2_5":28.3,"no2":9.5,"co":381.0,"o3":92.0,"so2":5.5,"mosquito_risk":7,"arthritis_risk":5,"migraine_risk":4,"frizz_risk":1,"updated_at":"2026-05-01T21:32:56.092888+05:30"},{"city":"Cuttack","state":"Odisha","latitude":20.4625,"longitude":85.8828,"temp":27.2,"humidity":90,"rain":0.0,"pressure":1003.2,"uv_index":8.85,"wind_gusts":36.0,"aqi":81,"pm10":32.2,"pm2_5":28.3,"no2":9.5,"co":543.0,"o3":92.0,"so2":5.5,"mosquito_risk":7,"arthritis_risk":5,"migraine_risk":4,"frizz_risk":1,"updated_at":"2026-05-01T21:32:56.092895+05:30"},{"city":"Rourkela","state":"Odisha","latitude":22.2604,"longitude":84.8536,"temp":24.4,"humidity":87,"rain":0.0,"pressure":983.4,"uv_index":8.9,"wind_gusts":36.7,"aqi":176,"pm10":98.7,"pm2_5":59.8,"no2":19.7,"co":235.0,"o3":111.0,"so2":31.6,"mosquito_risk":3,"arthritis_risk":5,"migraine_risk":7,"frizz_risk":1,"updated_at":"2026-05-01T21:32:56.092902+05:30"},{"city":"Raipur","state":"Chhattisgarh","latitude":21.2514,"longitude":81.6296,"temp":31.8,"humidity":32,"rain":0.0,"pressure":971.5,"uv_index":8.95,"wind_gusts":42.8,"aqi":109,"pm10":94.3,"pm2_5":48.2,"no2":39.6,"co":526.0,"o3":67.0,"so2":9.5,"mosquito_risk":0,"arthritis_risk":5,"migraine_risk":7,"frizz_risk":0,"updated_at":"2026-05-01T21:32:56.092909+05:30"},{"city":"Bhilai","state":"Chhattisgarh","latitude":21.1938,"longitude":81.3509,"temp":32.4,"humidity":31,"rain":0.0,"pressure":972.0,"uv_index":8.95,"wind_gusts":54.7,"aqi":97,"pm10":102.9,"pm2_5":48.4,"no2":32.6,"co":827.0,"o3":85.0,"so2":9.3,"mosquito_risk":0,"arthritis_risk":5,"migraine_risk":7,"frizz_risk":0,"updated_at":"2026-05-01T21:32:56.092917+05:30"},{"city":"Guwahati","state":"Assam","latitude":26.1158,"longitude":91.7086,"temp":21.0,"humidity":96,"rain":0.0,"pressure":1002.4,"uv_index":7.7,"wind_gusts":28.8,"aqi":70,"pm10":49.4,"pm2_5":46.0,"no2":20.7,"co":529.0,"o3":50.0,"so2":5.2,"mosquito_risk":3,"arthritis_risk":5,"migraine_risk":4,"frizz_risk":1,"updated_at":"2026-05-01T21:32:56.092924+05:30"},{"city":"Agartala","state":"Tripura","latitude":23.8315,"longitude":91.2868,"temp":22.6,"humidity":91,"rain":0.0,"pressure":1006.5,"uv_index":5.1,"wind_gusts":38.2,"aqi":75,"pm10":43.1,"pm2_5":40.7,"no2":20.7,"co":245.0,"o3":54.0,"so2":3.2,"mosquito_risk":3,"arthritis_risk":5,"migraine_risk":0,"frizz_risk":1,"updated_at":"2026-05-01T21:32:56.092931+05:30"},{"city":"Shillong","state":"Meghalaya","latitude":25.5788,"longitude":91.8933,"temp":13.3,"humidity":93,"rain":0.0,"pressure":854.4,"uv_index":7.5,"wind_gusts":36.7,"aqi":56,"pm10":20.3,"pm2_5":19.7,"no2":15.7,"co":534.0,"o3":55.0,"so2":2.2,"mosquito_risk":3,"arthritis_risk":10,"migraine_risk":7,"frizz_risk":0,"updated_at":"2026-05-01T21:32:56.092939+05:30"},{"city":"Imphal","state":"Manipur","latitude":24.817,"longitude":93.9368,"temp":18.2,"humidity":97,"rain":0.2,"pressure":923.0,"uv_index":4.0,"wind_gusts":18.7,"aqi":75,"pm10":25.1,"pm2_5":24.0,"no2":19.3,"co":689.0,"o3":36.0,"so2":3.3,"mosquito_risk":6,"arthritis_risk":10,"migraine_risk":3,"frizz_risk":1,"updated_at":"2026-05-01T21:32:56.092947+05:30"},{"city":"Aizawl","state":"Mizoram","latitude":23.7271,"longitude":92.7176,"temp":16.0,"humidity":94,"rain":0.0,"pressure":891.6,"uv_index":4.95,"wind_gusts":50.4,"aqi":50,"pm10":9.8,"pm2_5":8.5,"no2":5.4,"co":206.0,"o3":54.0,"so2":1.0,"mosquito_risk":3,"arthritis_risk":10,"migraine_risk":3,"frizz_risk":0,"updated_at":"2026-05-01T21:32:56.092955+05:30"},{"city":"Kohima","state":"Nagaland","latitude":25.6701,"longitude":94.1077,"temp":15.4,"humidity":100,"rain":1.4,"pressure":854.3,"uv_index":4.45,"wind_gusts":23.0,"aqi":52,"pm10":18.5,"pm2_5":14.7,"no2":14.7,"co":450.0,"o3":56.0,"so2":1.7,"mosquito_risk":6,"arthritis_risk":10,"migraine_risk":3,"frizz_risk":0,"updated_at":"2026-05-01T21:32:56.092962+05:30"},{"city":"Gangtok","state":"Sikkim","latitude":27.3314,"longitude":88.6138,"temp":12.4,"humidity":91,"rain":0.0,"pressure":834.8,"uv_index":8.9,"wind_gusts":42.5,"aqi":74,"pm10":20.8,"pm2_5":14.4,"no2":7.7,"co":568.0,"o3":110.0,"so2":0.8,"mosquito_risk":3,"arthritis_risk":10,"migraine_risk":7,"frizz_risk":0,"updated_at":"2026-05-01T21:32:56.092970+05:30"},{"city":"Siliguri","state":"West Bengal","latitude":26.7271,"longitude":88.3953,"temp":20.5,"humidity":95,"rain":0.0,"pressure":992.8,"uv_index":6.6,"wind_gusts":26.6,"aqi":72,"pm10":39.5,"pm2_5":29.9,"no2":13.8,"co":680.0,"o3":104.0,"so2":4.2,"mosquito_risk":3,"arthritis_risk":5,"migraine_risk":7,"frizz_risk":1,"updated_at":"2026-05-01T21:32:59.504041+05:30"},{"city":"Durgapur","state":"West Bengal","latitude":23.5204,"longitude":87.3119,"temp":24.1,"humidity":84,"rain":0.0,"pressure":993.9,"uv_index":8.85,"wind_gusts":29.2,"aqi":192,"pm10":92.7,"pm2_5":73.8,"no2":29.2,"co":515.0,"o3":119.0,"so2":46.3,"mosquito_risk":3,"arthritis_risk":5,"migraine_risk":7,"frizz_risk":1,"updated_at":"2026-05-01T21:32:59.504078+05:30"},{"city":"Asansol","state":"West Bengal","latitude":23.6739,"longitude":86.9524,"temp":23.0,"humidity":86,"rain":0.0,"pressure":992.7,"uv_index":8.75,"wind_gusts":24.5,"aqi":180,"pm10":85.9,"pm2_5":65.0,"no2":31.9,"co":397.0,"o3":111.0,"so2":51.4,"mosquito_risk":3,"arthritis_risk":5,"migraine_risk":7,"frizz_risk":1,"updated_at":"2026-05-01T21:32:59.504090+05:30"},{"city":"Pondicherry","state":"Puducherry","latitude":11.9139,"longitude":79.8145,"temp":31.3,"humidity":72,"rain":0.0,"pressure":1008.0,"uv_index":8.7,"wind_gusts":43.6,"aqi":121,"pm10":17.2,"pm2_5":12.8,"no2":8.0,"co":249.0,"o3":77.0,"so2":3.2,"mosquito_risk":3,"arthritis_risk":0,"migraine_risk":4,"frizz_risk":1,"updated_at":"2026-05-01T21:32:59.504101+05:30"},{"city":"Port Blair","state":"Andaman and Nicobar Islands","latitude":11.6234,"longitude":92.7265,"temp":26.9,"humidity":90,"rain":0.0,"pressure":1009.7,"uv_index":9.1,"wind_gusts":24.8,"aqi":29,"pm10":6.7,"pm2_5":4.6,"no2":0.5,"co":301.0,"o3":58.0,"so2":2.0,"mosquito_risk":7,"arthritis_risk":0,"migraine_risk":4,"frizz_risk":1,"updated_at":"2026-05-01T21:32:59.504109+05:30"},{"city":"Haridwar","state":"Uttarakhand","latitude":29.9457,"longitude":78.1642,"temp":24.0,"humidity":70,"rain":0.0,"pressure":970.4,"uv_index":7.4,"wind_gusts":28.8,"aqi":128,"pm10":94.8,"pm2_5":45.8,"no2":16.6,"co":368.0,"o3":100.0,"so2":10.4,"mosquito_risk":3,"arthritis_risk":5,"migraine_risk":7,"frizz_risk":1,"updated_at":"2026-05-01T21:32:59.504117+05:30"},{"city":"Rishikesh","state":"Uttarakhand","latitude":30.0869,"longitude":78.2676,"temp":21.4,"humidity":76,"rain":0.0,"pressure":962.9,"uv_index":7.5,"wind_gusts":25.9,"aqi":125,"pm10":96.9,"pm2_5":40.3,"no2":11.3,"co":422.0,"o3":104.0,"so2":6.3,"mosquito_risk":3,"arthritis_risk":5,"migraine_risk":7,"frizz_risk":1,"updated_at":"2026-05-01T21:32:59.504125+05:30"},{"city":"Nainital","state":"Uttarakhand","latitude":29.3919,"longitude":79.4542,"temp":11.6,"humidity":91,"rain":0.0,"pressure":801.7,"uv_index":8.3,"wind_gusts":39.6,"aqi":113,"pm10":102.0,"pm2_5":39.7,"no2":16.1,"co":326.0,"o3":94.0,"so2":7.6,"mosquito_risk":3,"arthritis_risk":10,"migraine_risk":7,"frizz_risk":0,"updated_at":"2026-05-01T21:32:59.504133+05:30"},{"city":"Mussoorie","state":"Uttarakhand","latitude":30.4599,"longitude":78.0664,"temp":11.8,"humidity":90,"rain":0.0,"pressure":798.3,"uv_index":7.9,"wind_gusts":42.1,"aqi":147,"pm10":123.9,"pm2_5":55.8,"no2":24.0,"co":354.0,"o3":108.0,"so2":14.3,"mosquito_risk":3,"arthritis_risk":10,"migraine_risk":7,"frizz_risk":0,"updated_at":"2026-05-01T21:32:59.504141+05:30"},{"city":"Dharamshala","state":"Himachal Pradesh","latitude":32.219,"longitude":76.3234,"temp":18.2,"humidity":60,"rain":0.0,"pressure":865.3,"uv_index":8.2,"wind_gusts":46.8,"aqi":97,"pm10":14.9,"pm2_5":12.7,"no2":12.9,"co":307.0,"o3":86.0,"so2":1.3,"mosquito_risk":0,"arthritis_risk":5,"migraine_risk":7,"frizz_risk":0,"updated_at":"2026-05-01T21:32:59.504148+05:30"},{"city":"Dalhousie","state":"Himachal Pradesh","latitude":32.5387,"longitude":75.971,"temp":11.2,"humidity":79,"rain":0.0,"pressure":798.8,"uv_index":8.5,"wind_gusts":37.8,"aqi":122,"pm10":36.8,"pm2_5":28.0,"no2":35.0,"co":563.0,"o3":82.0,"so2":3.8,"mosquito_risk":3,"arthritis_risk":5,"migraine_risk":7,"frizz_risk":0,"updated_at":"2026-05-01T21:32:59.504156+05:30"},{"city":"Patiala","state":"Punjab","latitude":30.3398,"longitude":76.3869,"temp":28.4,"humidity":44,"rain":0.0,"pressure":973.8,"uv_index":7.5,"wind_gusts":38.5,"aqi":465,"pm10":316.6,"pm2_5":61.9,"no2":11.1,"co":375.0,"o3":115.0,"so2":20.4,"mosquito_risk":4,"arthritis_risk":5,"migraine_risk":7,"frizz_risk":0,"updated_at":"2026-05-01T21:32:59.504164+05:30"},{"city":"Bhatinda","state":"Punjab","latitude":30.211,"longitude":74.9455,"temp":30.4,"humidity":32,"rain":0.0,"pressure":978.8,"uv_index":8.1,"wind_gusts":36.7,"aqi":323,"pm10":54.6,"pm2_5":26.0,"no2":9.5,"co":391.0,"o3":98.0,"so2":7.1,"mosquito_risk":0,"arthritis_risk":5,"migraine_risk":7,"frizz_risk":0,"updated_at":"2026-05-01T21:32:59.504171+05:30"},{"city":"Rohtak","state":"Haryana","latitude":28.8955,"longitude":76.6066,"temp":30.3,"humidity":34,"rain":0.0,"pressure":977.2,"uv_index":7.6,"wind_gusts":29.2,"aqi":592,"pm10":510.4,"pm2_5":94.5,"no2":24.4,"co":791.0,"o3":126.0,"so2":26.9,"mosquito_risk":0,"arthritis_risk":5,"migraine_risk":7,"frizz_risk":0,"updated_at":"2026-05-01T21:32:59.504178+05:30"},{"city":"Panipat","state":"Haryana","latitude":29.3909,"longitude":76.9635,"temp":27.8,"humidity":55,"rain":0.0,"pressure":976.2,"uv_index":7.45,"wind_gusts":33.8,"aqi":1071,"pm10":851.2,"pm2_5":121.1,"no2":17.0,"co":503.0,"o3":123.0,"so2":19.7,"mosquito_risk":4,"arthritis_risk":5,"migraine_risk":7,"frizz_risk":1,"updated_at":"2026-05-01T21:32:59.504185+05:30"},{"city":"Mathura","state":"Uttar Pradesh","latitude":27.4924,"longitude":77.6737,"temp":29.4,"humidity":48,"rain":0.0,"pressure":982.3,"uv_index":7.85,"wind_gusts":28.1,"aqi":613,"pm10":1054.3,"pm2_5":132.7,"no2":17.8,"co":486.0,"o3":102.0,"so2":11.3,"mosquito_risk":4,"arthritis_risk":5,"migraine_risk":7,"frizz_risk":1,"updated_at":"2026-05-01T21:32:59.504192+05:30"},{"city":"Vrindavan","state":"Uttar Pradesh","latitude":27.5823,"longitude":77.7027,"temp":29.1,"humidity":47,"rain":0.0,"pressure":982.8,"uv_index":7.8,"wind_gusts":28.4,"aqi":613,"pm10":1054.3,"pm2_5":132.7,"no2":17.8,"co":558.0,"o3":102.0,"so2":11.3,"mosquito_risk":4,"arthritis_risk":5,"migraine_risk":7,"frizz_risk":1,"updated_at":"2026-05-01T21:32:59.504199+05:30"},{"city":"Ayodhya","state":"Uttar Pradesh","latitude":26.7922,"longitude":82.1998,"temp":25.5,"humidity":64,"rain":0.0,"pressure":994.0,"uv_index":8.15,"wind_gusts":28.4,"aqi":104,"pm10":72.6,"pm2_5":38.1,"no2":19.4,"co":376.0,"o3":86.0,"so2":9.3,"mosquito_risk":7,"arthritis_risk":5,"migraine_risk":7,"frizz_risk":1,"updated_at":"2026-05-01T21:32:59.504206+05:30"},{"city":"Ratlam","state":"Madhya Pradesh","latitude":23.3315,"longitude":75.0367,"temp":31.0,"humidity":33,"rain":0.0,"pressure":951.7,"uv_index":8.45,"wind_gusts":40.7,"aqi":67,"pm10":31.7,"pm2_5":16.1,"no2":2.2,"co":188.0,"o3":107.0,"so2":5.4,"mosquito_risk":0,"arthritis_risk":5,"migraine_risk":7,"frizz_risk":0,"updated_at":"2026-05-01T21:32:59.504212+05:30"},{"city":"Sagar","state":"Madhya Pradesh","latitude":23.8388,"longitude":78.7378,"temp":30.1,"humidity":31,"rain":0.0,"pressure":946.4,"uv_index":8.65,"wind_gusts":40.7,"aqi":72,"pm10":31.8,"pm2_5":15.9,"no2":7.5,"co":205.0,"o3":77.0,"so2":3.7,"mosquito_risk":0,"arthritis_risk":5,"migraine_risk":7,"frizz_risk":0,"updated_at":"2026-05-01T21:32:59.504219+05:30"},{"city":"Satna","state":"Madhya Pradesh","latitude":24.6005,"longitude":80.8322,"temp":28.5,"humidity":42,"rain":0.0,"pressure":968.0,"uv_index":8.65,"wind_gusts":52.6,"aqi":84,"pm10":59.8,"pm2_5":26.5,"no2":8.4,"co":266.0,"o3":110.0,"so2":6.5,"mosquito_risk":4,"arthritis_risk":5,"migraine_risk":7,"frizz_risk":0,"updated_at":"2026-05-01T21:32:59.504226+05:30"},{"city":"Akola","state":"Maharashtra","latitude":20.7002,"longitude":77.0082,"temp":34.7,"humidity":23,"rain":0.0,"pressure":972.1,"uv_index":8.9,"wind_gusts":40.0,"aqi":61,"pm10":26.4,"pm2_5":14.2,"no2":6.6,"co":217.0,"o3":91.0,"so2":12.5,"mosquito_risk":0,"arthritis_risk":5,"migraine_risk":7,"frizz_risk":0,"updated_at":"2026-05-01T21:32:59.504233+05:30"},{"city":"Amravati","state":"Maharashtra","latitude":20.9374,"longitude":77.7796,"temp":33.5,"humidity":25,"rain":0.0,"pressure":964.4,"uv_index":8.85,"wind_gusts":38.9,"aqi":66,"pm10":28.2,"pm2_5":14.9,"no2":7.9,"co":266.0,"o3":86.0,"so2":11.8,"mosquito_risk":0,"arthritis_risk":5,"migraine_risk":7,"frizz_risk":0,"updated_at":"2026-05-01T21:32:59.504241+05:30"},{"city":"Latur","state":"Maharashtra","latitude":18.4088,"longitude":76.5604,"temp":32.5,"humidity":22,"rain":0.0,"pressure":938.0,"uv_index":9.1,"wind_gusts":38.9,"aqi":58,"pm10":38.2,"pm2_5":23.6,"no2":13.2,"co":257.0,"o3":74.0,"so2":6.5,"mosquito_risk":0,"arthritis_risk":5,"migraine_risk":7,"frizz_risk":0,"updated_at":"2026-05-01T21:32:59.504248+05:30"},{"city":"Nanded","state":"Maharashtra","latitude":19.1383,"longitude":77.3091,"temp":32.8,"humidity":26,"rain":0.0,"pressure":965.7,"uv_index":9.0,"wind_gusts":32.8,"aqi":60,"pm10":36.1,"pm2_5":21.0,"no2":13.3,"co":452.0,"o3":70.0,"so2":4.2,"mosquito_risk":0,"arthritis_risk":5,"migraine_risk":7,"frizz_risk":0,"updated_at":"2026-05-01T21:32:59.504254+05:30"},{"city":"Gulbarga","state":"Karnataka","latitude":17.3297,"longitude":76.8343,"temp":33.5,"humidity":21,"rain":0.0,"pressure":956.7,"uv_index":9.1,"wind_gusts":44.6,"aqi":55,"pm10":36.3,"pm2_5":21.9,"no2":22.3,"co":208.0,"o3":54.0,"so2":4.2,"mosquito_risk":0,"arthritis_risk":5,"migraine_risk":7,"frizz_risk":0,"updated_at":"2026-05-01T21:32:59.504261+05:30"},{"city":"Bidar","state":"Karnataka","latitude":17.9104,"longitude":77.5199,"temp":31.1,"humidity":26,"rain":0.0,"pressure":933.5,"uv_index":9.15,"wind_gusts":37.4,"aqi":67,"pm10":44.1,"pm2_5":25.0,"no2":18.4,"co":266.0,"o3":71.0,"so2":5.3,"mosquito_risk":0,"arthritis_risk":5,"migraine_risk":7,"frizz_risk":0,"updated_at":"2026-05-01T21:32:59.504267+05:30"},{"city":"Hospet","state":"Karnataka","latitude":15.2689,"longitude":76.3909,"temp":30.1,"humidity":47,"rain":0.0,"pressure":955.4,"uv_index":9.25,"wind_gusts":38.5,"aqi":67,"pm10":21.8,"pm2_5":14.1,"no2":8.4,"co":208.0,"o3":82.0,"so2":2.3,"mosquito_risk":0,"arthritis_risk":5,"migraine_risk":7,"frizz_risk":1,"updated_at":"2026-05-01T21:32:59.504274+05:30"},{"city":"Tirupur","state":"Tamil Nadu","latitude":11.1085,"longitude":77.3411,"temp":28.7,"humidity":72,"rain":0.0,"pressure":976.0,"uv_index":9.2,"wind_gusts":53.3,"aqi":122,"pm10":34.6,"pm2_5":31.2,"no2":24.2,"co":272.0,"o3":69.0,"so2":5.8,"mosquito_risk":7,"arthritis_risk":5,"migraine_risk":7,"frizz_risk":1,"updated_at":"2026-05-01T21:32:59.504281+05:30"},{"city":"Alappuzha","state":"Kerala","latitude":9.4981,"longitude":76.3388,"temp":27.0,"humidity":92,"rain":0.0,"pressure":1009.9,"uv_index":8.95,"wind_gusts":33.8,"aqi":54,"pm10":38.2,"pm2_5":31.0,"no2":26.2,"co":277.0,"o3":62.0,"so2":5.9,"mosquito_risk":7,"arthritis_risk":0,"migraine_risk":4,"frizz_risk":1,"updated_at":"2026-05-01T21:32:59.504287+05:30"},{"city":"Munnar","state":"Kerala","latitude":10.0889,"longitude":77.0595,"temp":17.8,"humidity":94,"rain":0.0,"pressure":857.3,"uv_index":8.3,"wind_gusts":28.4,"aqi":45,"pm10":21.4,"pm2_5":18.8,"no2":13.1,"co":468.0,"o3":45.0,"so2":2.3,"mosquito_risk":3,"arthritis_risk":10,"migraine_risk":7,"frizz_risk":1,"updated_at":"2026-05-01T21:32:59.504294+05:30"},{"city":"Silchar","state":"Assam","latitude":24.8333,"longitude":92.7789,"temp":21.2,"humidity":97,"rain":0.1,"pressure":1006.6,"uv_index":0.8,"wind_gusts":24.1,"aqi":100,"pm10":49.0,"pm2_5":48.3,"no2":17.6,"co":408.0,"o3":42.0,"so2":7.1,"mosquito_risk":6,"arthritis_risk":5,"migraine_risk":0,"frizz_risk":1,"updated_at":"2026-05-01T21:32:59.504301+05:30"},{"city":"Dibrugarh","state":"Assam","latitude":27.4728,"longitude":94.912,"temp":20.0,"humidity":95,"rain":0.3,"pressure":996.8,"uv_index":5.65,"wind_gusts":33.5,"aqi":66,"pm10":45.5,"pm2_5":37.0,"no2":23.1,"co":374.0,"o3":32.0,"so2":3.2,"mosquito_risk":6,"arthritis_risk":5,"migraine_risk":3,"frizz_risk":1,"updated_at":"2026-05-01T21:32:59.504308+05:30"}]