[{"city":"Delhi","state":"Delhi","latitude":28.6139,"longitude":77.209,"temp":42.2,"humidity":15,"rain":0.0,"pressure":978.8,"uv_index":7.8,"wind_gusts":36.4,"aqi":473,"pm10":321.3,"pm2_5":63.6,"no2":3.8,"co":213.0,"o3":152.0,"so2":9.7,"mosquito_risk":0,"arthritis_risk":5,"migraine_risk":10,"frizz_risk":0,"updated_at":"2026-05-22T15:02:02.297494+05:30"},{"city":"Mumbai","state":"Maharashtra","latitude":19.076,"longitude":72.8777,"temp":33.2,"humidity":63,"rain":0.1,"pressure":1007.7,"uv_index":7.05,"wind_gusts":35.6,"aqi":58,"pm10":34.0,"pm2_5":23.4,"no2":5.6,"co":180.0,"o3":127.0,"so2":7.5,"mosquito_risk":6,"arthritis_risk":5,"migraine_risk":4,"frizz_risk":1,"updated_at":"2026-05-22T15:02:02.297535+05:30"},{"city":"Bangalore","state":"Karnataka","latitude":12.9716,"longitude":77.5946,"temp":32.0,"humidity":45,"rain":0.0,"pressure":911.8,"uv_index":7.4,"wind_gusts":44.3,"aqi":37,"pm10":15.0,"pm2_5":9.3,"no2":3.2,"co":298.0,"o3":126.0,"so2":2.9,"mosquito_risk":0,"arthritis_risk":5,"migraine_risk":7,"frizz_risk":1,"updated_at":"2026-05-22T15:02:02.297547+05:30"},{"city":"Hyderabad","state":"Telangana","latitude":17.385,"longitude":78.4867,"temp":38.3,"humidity":28,"rain":0.0,"pressure":950.9,"uv_index":7.45,"wind_gusts":50.4,"aqi":77,"pm10":37.3,"pm2_5":25.0,"no2":2.2,"co":240.0,"o3":153.0,"so2":7.6,"mosquito_risk":0,"arthritis_risk":5,"migraine_risk":10,"frizz_risk":1,"updated_at":"2026-05-22T15:02:02.297555+05:30"},{"city":"Chennai","state":"Tamil Nadu","latitude":13.0827,"longitude":80.2707,"temp":36.7,"humidity":49,"rain":0.0,"pressure":1002.8,"uv_index":9.0,"wind_gusts":41.8,"aqi":100,"pm10":33.4,"pm2_5":25.1,"no2":3.2,"co":274.0,"o3":203.0,"so2":5.6,"mosquito_risk":0,"arthritis_risk":5,"migraine_risk":7,"frizz_risk":1,"updated_at":"2026-05-22T15:02:02.297561+05:30"},{"city":"Kolkata","state":"West Bengal","latitude":22.5726,"longitude":88.3639,"temp":35.0,"humidity":64,"rain":0.0,"pressure":999.7,"uv_index":8.95,"wind_gusts":36.7,"aqi":127,"pm10":72.6,"pm2_5":43.3,"no2":2.5,"co":318.0,"o3":126.0,"so2":7.7,"mosquito_risk":3,"arthritis_risk":5,"migraine_risk":7,"frizz_risk":1,"updated_at":"2026-05-22T15:02:02.297567+05:30"},{"city":"Pune","state":"Maharashtra","latitude":18.5204,"longitude":73.8567,"temp":28.4,"humidity":71,"rain":0.1,"pressure":948.5,"uv_index":8.45,"wind_gusts":36.0,"aqi":53,"pm10":24.0,"pm2_5":16.8,"no2":2.3,"co":193.0,"o3":128.0,"so2":6.1,"mosquito_risk":10,"arthritis_risk":5,"migraine_risk":7,"frizz_risk":1,"updated_at":"2026-05-22T15:02:02.297573+05:30"},{"city":"Ahmedabad","state":"Gujarat","latitude":23.0225,"longitude":72.5714,"temp":42.0,"humidity":19,"rain":0.0,"pressure":999.2,"uv_index":8.15,"wind_gusts":42.1,"aqi":72,"pm10":45.8,"pm2_5":21.0,"no2":1.4,"co":158.0,"o3":106.0,"so2":2.5,"mosquito_risk":0,"arthritis_risk":5,"migraine_risk":10,"frizz_risk":0,"updated_at":"2026-05-22T15:02:02.297578+05:30"},{"city":"Jaipur","state":"Rajasthan","latitude":26.9124,"longitude":75.7873,"temp":40.3,"humidity":18,"rain":0.0,"pressure":957.9,"uv_index":8.25,"wind_gusts":42.1,"aqi":152,"pm10":151.3,"pm2_5":39.3,"no2":0.9,"co":151.0,"o3":107.0,"so2":2.7,"mosquito_risk":0,"arthritis_risk":5,"migraine_risk":10,"frizz_risk":0,"updated_at":"2026-05-22T15:02:02.297587+05:30"},{"city":"Lucknow","state":"Uttar Pradesh","latitude":26.8467,"longitude":80.9462,"temp":42.2,"humidity":19,"rain":0.0,"pressure":988.1,"uv_index":8.25,"wind_gusts":37.8,"aqi":190,"pm10":282.2,"pm2_5":80.1,"no2":1.9,"co":260.0,"o3":189.0,"so2":11.3,"mosquito_risk":0,"arthritis_risk":5,"migraine_risk":10,"frizz_risk":0,"updated_at":"2026-05-22T15:02:02.297592+05:30"},{"city":"Kanpur","state":"Uttar Pradesh","latitude":26.4499,"longitude":80.3319,"temp":43.2,"humidity":13,"rain":0.0,"pressure":986.7,"uv_index":8.25,"wind_gusts":39.6,"aqi":403,"pm10":581.1,"pm2_5":83.4,"no2":1.3,"co":170.0,"o3":142.0,"so2":5.2,"mosquito_risk":0,"arthritis_risk":5,"migraine_risk":10,"frizz_risk":0,"updated_at":"2026-05-22T15:02:02.297597+05:30"},{"city":"Chandigarh","state":"Chandigarh","latitude":30.7333,"longitude":76.7794,"temp":39.1,"humidity":16,"rain":0.0,"pressure":966.0,"uv_index":7.75,"wind_gusts":68.8,"aqi":101,"pm10":66.6,"pm2_5":22.9,"no2":1.4,"co":218.0,"o3":133.0,"so2":4.9,"mosquito_risk":0,"arthritis_risk":5,"migraine_risk":10,"frizz_risk":0,"updated_at":"2026-05-22T15:02:02.297602+05:30"},{"city":"Srinagar","state":"Jammu and Kashmir","latitude":34.0837,"longitude":74.7973,"temp":21.0,"humidity":57,"rain":0.0,"pressure":844.7,"uv_index":8.95,"wind_gusts":37.8,"aqi":66,"pm10":48.2,"pm2_5":14.3,"no2":2.2,"co":222.0,"o3":111.0,"so2":1.8,"mosquito_risk":0,"arthritis_risk":5,"migraine_risk":7,"frizz_risk":0,"updated_at":"2026-05-22T15:02:02.297621+05:30"},{"city":"Jammu","state":"Jammu and Kashmir","latitude":32.7266,"longitude":74.857,"temp":37.5,"humidity":19,"rain":0.0,"pressure":970.8,"uv_index":8.55,"wind_gusts":41.8,"aqi":77,"pm10":66.4,"pm2_5":18.5,"no2":1.2,"co":188.0,"o3":120.0,"so2":1.3,"mosquito_risk":0,"arthritis_risk":5,"migraine_risk":10,"frizz_risk":0,"updated_at":"2026-05-22T15:02:02.297627+05:30"},{"city":"Amritsar","state":"Punjab","latitude":31.634,"longitude":74.8723,"temp":38.3,"humidity":23,"rain":0.0,"pressure":978.3,"uv_index":8.45,"wind_gusts":56.2,"aqi":79,"pm10":83.8,"pm2_5":26.2,"no2":1.2,"co":179.0,"o3":138.0,"so2":3.4,"mosquito_risk":0,"arthritis_risk":5,"migraine_risk":10,"frizz_risk":0,"updated_at":"2026-05-22T15:02:02.297632+05:30"},{"city":"Ludhiana","state":"Punjab","latitude":30.901,"longitude":75.8573,"temp":39.1,"humidity":20,"rain":0.0,"pressure":975.9,"uv_index":8.05,"wind_gusts":42.8,"aqi":85,"pm10":86.4,"pm2_5":25.5,"no2":1.1,"co":183.0,"o3":127.0,"so2":2.8,"mosquito_risk":0,"arthritis_risk":5,"migraine_risk":10,"frizz_risk":0,"updated_at":"2026-05-22T15:02:02.297637+05:30"},{"city":"Jalandhar","state":"Punjab","latitude":31.326,"longitude":75.5762,"temp":39.2,"humidity":20,"rain":0.0,"pressure":976.9,"uv_index":8.2,"wind_gusts":47.5,"aqi":91,"pm10":94.5,"pm2_5":27.0,"no2":1.1,"co":177.0,"o3":133.0,"so2":2.6,"mosquito_risk":0,"arthritis_risk":5,"migraine_risk":10,"frizz_risk":0,"updated_at":"2026-05-22T15:02:02.297642+05:30"},{"city":"Dehradun","state":"Uttarakhand","latitude":30.6284,"longitude":78.0322,"temp":25.3,"humidity":37,"rain":0.0,"pressure":833.6,"uv_index":8.2,"wind_gusts":34.9,"aqi":89,"pm10":51.0,"pm2_5":21.7,"no2":1.2,"co":202.0,"o3":141.0,"so2":3.5,"mosquito_risk":4,"arthritis_risk":5,"migraine_risk":7,"frizz_risk":0,"updated_at":"2026-05-22T15:02:02.297647+05:30"},{"city":"Shimla","state":"Himachal Pradesh","latitude":31.1048,"longitude":77.1734,"temp":22.4,"humidity":31,"rain":0.0,"pressure":788.6,"uv_index":7.6,"wind_gusts":38.9,"aqi":79,"pm10":53.3,"pm2_5":20.8,"no2":1.1,"co":161.0,"o3":131.0,"so2":2.9,"mosquito_risk":0,"arthritis_risk":5,"migraine_risk":7,"frizz_risk":0,"updated_at":"2026-05-22T15:02:02.297654+05:30"},{"city":"Manali","state":"Himachal Pradesh","latitude":32.2396,"longitude":77.1887,"temp":22.0,"humidity":56,"rain":0.1,"pressure":822.1,"uv_index":8.05,"wind_gusts":51.8,"aqi":69,"pm10":18.4,"pm2_5":7.4,"no2":1.3,"co":138.0,"o3":136.0,"so2":0.8,"mosquito_risk":3,"arthritis_risk":5,"migraine_risk":7,"frizz_risk":0,"updated_at":"2026-05-22T15:02:02.297659+05:30"},{"city":"Gurgaon","state":"Haryana","latitude":28.4595,"longitude":77.0266,"temp":40.8,"humidity":19,"rain":0.0,"pressure":977.8,"uv_index":7.85,"wind_gusts":37.1,"aqi":1461,"pm10":323.2,"pm2_5":67.3,"no2":3.2,"co":182.0,"o3":142.0,"so2":6.7,"mosquito_risk":0,"arthritis_risk":5,"migraine_risk":10,"frizz_risk":0,"updated_at":"2026-05-22T15:02:02.297663+05:30"},{"city":"Noida","state":"Uttar Pradesh","latitude":28.5355,"longitude":77.391,"temp":42.4,"humidity":15,"rain":0.0,"pressure":979.8,"uv_index":7.8,"wind_gusts":37.1,"aqi":1461,"pm10":323.2,"pm2_5":67.3,"no2":3.2,"co":213.0,"o3":142.0,"so2":6.7,"mosquito_risk":0,"arthritis_risk":5,"migraine_risk":10,"frizz_risk":0,"updated_at":"2026-05-22T15:02:02.297670+05:30"},{"city":"Ghaziabad","state":"Uttar Pradesh","latitude":28.6692,"longitude":77.4538,"temp":40.8,"humidity":20,"rain":0.0,"pressure":978.5,"uv_index":7.8,"wind_gusts":38.5,"aqi":417,"pm10":248.7,"pm2_5":59.3,"no2":2.9,"co":181.0,"o3":172.0,"so2":12.8,"mosquito_risk":0,"arthritis_risk":5,"migraine_risk":10,"frizz_risk":0,"updated_at":"2026-05-22T15:02:02.297676+05:30"},{"city":"Faridabad","state":"Haryana","latitude":28.4089,"longitude":77.3178,"temp":42.2,"humidity":15,"rain":0.0,"pressure":979.3,"uv_index":7.85,"wind_gusts":37.4,"aqi":1461,"pm10":323.2,"pm2_5":67.3,"no2":3.2,"co":189.0,"o3":142.0,"so2":6.7,"mosquito_risk":0,"arthritis_risk":5,"migraine_risk":10,"frizz_risk":0,"updated_at":"2026-05-22T15:02:02.297680+05:30"},{"city":"Meerut","state":"Uttar Pradesh","latitude":28.9845,"longitude":77.7064,"temp":40.6,"humidity":21,"rain":0.0,"pressure":977.5,"uv_index":7.7,"wind_gusts":37.8,"aqi":417,"pm10":248.7,"pm2_5":59.3,"no2":2.9,"co":204.0,"o3":172.0,"so2":12.8,"mosquito_risk":0,"arthritis_risk":5,"migraine_risk":10,"frizz_risk":0,"updated_at":"2026-05-22T15:02:02.297685+05:30"},{"city":"Agra","state":"Uttar Pradesh","latitude":27.1767,"longitude":78.0081,"temp":42.5,"humidity":15,"rain":0.0,"pressure":983.5,"uv_index":8.1,"wind_gusts":44.6,"aqi":836,"pm10":681.7,"pm2_5":91.0,"no2":1.4,"co":158.0,"o3":126.0,"so2":2.7,"mosquito_risk":0,"arthritis_risk":5,"migraine_risk":10,"frizz_risk":0,"updated_at":"2026-05-22T15:02:02.297690+05:30"},{"city":"Varanasi","state":"Uttar Pradesh","latitude":25.3176,"longitude":82.9739,"temp":43.3,"humidity":16,"rain":0.0,"pressure":991.3,"uv_index":8.75,"wind_gusts":35.3,"aqi":120,"pm10":163.0,"pm2_5":39.8,"no2":1.7,"co":196.0,"o3":170.0,"so2":7.4,"mosquito_risk":0,"arthritis_risk":5,"migraine_risk":10,"frizz_risk":0,"updated_at":"2026-05-22T15:02:02.297695+05:30"},{"city":"Prayagraj","state":"Uttar Pradesh","latitude":25.4358,"longitude":81.8463,"temp":43.5,"humidity":14,"rain":0.0,"pressure":990.0,"uv_index":8.65,"wind_gusts":38.2,"aqi":110,"pm10":156.0,"pm2_5":41.7,"no2":1.6,"co":167.0,"o3":167.0,"so2":8.1,"mosquito_risk":0,"arthritis_risk":5,"migraine_risk":10,"frizz_risk":0,"updated_at":"2026-05-22T15:02:02.297700+05:30"},{"city":"Gorakhpur","state":"Uttar Pradesh","latitude":26.7606,"longitude":83.3732,"temp":38.7,"humidity":39,"rain":0.0,"pressure":991.6,"uv_index":8.65,"wind_gusts":31.3,"aqi":154,"pm10":116.9,"pm2_5":63.1,"no2":1.9,"co":369.0,"o3":202.0,"so2":15.0,"mosquito_risk":0,"arthritis_risk":5,"migraine_risk":10,"frizz_risk":1,"updated_at":"2026-05-22T15:02:02.297710+05:30"},{"city":"Bareilly","state":"Uttar Pradesh","latitude":28.367,"longitude":79.4304,"temp":40.2,"humidity":21,"rain":0.0,"pressure":982.1,"uv_index":8.05,"wind_gusts":31.3,"aqi":186,"pm10":193.7,"pm2_5":73.6,"no2":1.7,"co":358.0,"o3":201.0,"so2":10.4,"mosquito_risk":0,"arthritis_risk":5,"migraine_risk":10,"frizz_risk":0,"updated_at":"2026-05-22T15:02:02.297714+05:30"},{"city":"Aligarh","state":"Uttar Pradesh","latitude":27.8974,"longitude":78.088,"temp":41.2,"humidity":16,"rain":0.0,"pressure":981.4,"uv_index":7.95,"wind_gusts":37.8,"aqi":846,"pm10":851.2,"pm2_5":117.6,"no2":1.5,"co":161.0,"o3":133.0,"so2":4.6,"mosquito_risk":0,"arthritis_risk":5,"migraine_risk":10,"frizz_risk":0,"updated_at":"2026-05-22T15:02:02.297719+05:30"},{"city":"Moradabad","state":"Uttar Pradesh","latitude":28.8386,"longitude":78.7733,"temp":40.0,"humidity":26,"rain":0.0,"pressure":979.3,"uv_index":7.9,"wind_gusts":37.8,"aqi":217,"pm10":246.8,"pm2_5":90.3,"no2":3.1,"co":327.0,"o3":241.0,"so2":20.3,"mosquito_risk":0,"arthritis_risk":5,"migraine_risk":10,"frizz_risk":1,"updated_at":"2026-05-22T15:02:02.297724+05:30"},{"city":"Saharanpur","state":"Uttar Pradesh","latitude":29.9637,"longitude":77.546,"temp":38.9,"humidity":23,"rain":0.0,"pressure":972.4,"uv_index":7.5,"wind_gusts":46.8,"aqi":161,"pm10":94.5,"pm2_5":39.1,"no2":2.8,"co":229.0,"o3":191.0,"so2":16.6,"mosquito_risk":0,"arthritis_risk":5,"migraine_risk":10,"frizz_risk":0,"updated_at":"2026-05-22T15:02:02.297729+05:30"},{"city":"Jhansi","state":"Uttar Pradesh","latitude":25.4484,"longitude":78.5685,"temp":42.2,"humidity":14,"rain":0.0,"pressure":974.5,"uv_index":8.5,"wind_gusts":42.1,"aqi":54,"pm10":94.5,"pm2_5":22.6,"no2":0.9,"co":126.0,"o3":116.0,"so2":2.9,"mosquito_risk":0,"arthritis_risk":5,"migraine_risk":10,"frizz_risk":0,"updated_at":"2026-05-22T15:02:05.661299+05:30"},{"city":"Surat","state":"Gujarat","latitude":21.1702,"longitude":72.8311,"temp":35.6,"humidity":50,"rain":0.0,"pressure":1005.2,"uv_index":7.75,"wind_gusts":42.5,"aqi":75,"pm10":41.0,"pm2_5":27.4,"no2":15.9,"co":346.0,"o3":61.0,"so2":49.6,"mosquito_risk":0,"arthritis_risk":5,"migraine_risk":7,"frizz_risk":1,"updated_at":"2026-05-22T15:02:05.661331+05:30"},{"city":"Vadodara","state":"Gujarat","latitude":22.3072,"longitude":73.1812,"temp":41.2,"humidity":28,"rain":0.0,"pressure":1001.4,"uv_index":8.15,"wind_gusts":45.7,"aqi":77,"pm10":65.4,"pm2_5":32.7,"no2":1.8,"co":182.0,"o3":140.0,"so2":8.6,"mosquito_risk":0,"arthritis_risk":5,"migraine_risk":7,"frizz_risk":1,"updated_at":"2026-05-22T15:02:05.661340+05:30"},{"city":"Rajkot","state":"Gujarat","latitude":22.3039,"longitude":70.8022,"temp":41.5,"humidity":20,"rain":0.0,"pressure":991.9,"uv_index":7.8,"wind_gusts":45.4,"aqi":76,"pm10":56.0,"pm2_5":24.7,"no2":1.0,"co":139.0,"o3":118.0,"so2":4.8,"mosquito_risk":0,"arthritis_risk":5,"migraine_risk":10,"frizz_risk":0,"updated_at":"2026-05-22T15:02:05.661347+05:30"},{"city":"Thane","state":"Maharashtra","latitude":19.2183,"longitude":72.9781,"temp":34.2,"humidity":57,"rain":0.0,"pressure":1006.8,"uv_index":7.1,"wind_gusts":32.4,"aqi":58,"pm10":34.0,"pm2_5":23.4,"no2":5.6,"co":174.0,"o3":127.0,"so2":7.5,"mosquito_risk":0,"arthritis_risk":5,"migraine_risk":4,"frizz_risk":1,"updated_at":"2026-05-22T15:02:05.661354+05:30"},{"city":"Nagpur","state":"Maharashtra","latitude":21.1458,"longitude":79.0882,"temp":44.2,"humidity":12,"rain":0.0,"pressure":968.9,"uv_index":8.75,"wind_gusts":42.8,"aqi":77,"pm10":27.6,"pm2_5":16.4,"no2":4.6,"co":162.0,"o3":152.0,"so2":15.1,"mosquito_risk":0,"arthritis_risk":5,"migraine_risk":10,"frizz_risk":0,"updated_at":"2026-05-22T15:02:05.661360+05:30"},{"city":"Nashik","state":"Maharashtra","latitude":19.9975,"longitude":73.7898,"temp":32.7,"humidity":50,"rain":0.0,"pressure":945.3,"uv_index":8.15,"wind_gusts":46.4,"aqi":52,"pm10":24.5,"pm2_5":14.4,"no2":1.1,"co":150.0,"o3":96.0,"so2":1.5,"mosquito_risk":0,"arthritis_risk":5,"migraine_risk":7,"frizz_risk":1,"updated_at":"2026-05-22T15:02:05.661366+05:30"},{"city":"Aurangabad","state":"Maharashtra","latitude":19.8762,"longitude":75.3433,"temp":39.2,"humidity":24,"rain":0.0,"pressure":943.1,"uv_index":7.1,"wind_gusts":48.2,"aqi":62,"pm10":34.6,"pm2_5":18.1,"no2":1.0,"co":163.0,"o3":121.0,"so2":4.0,"mosquito_risk":0,"arthritis_risk":5,"migraine_risk":10,"frizz_risk":0,"updated_at":"2026-05-22T15:02:05.661371+05:30"},{"city":"Solapur","state":"Maharashtra","latitude":17.6599,"longitude":75.9064,"temp":35.6,"humidity":41,"rain":0.0,"pressure":956.0,"uv_index":8.95,"wind_gusts":38.9,"aqi":62,"pm10":33.9,"pm2_5":21.6,"no2":1.3,"co":160.0,"o3":137.0,"so2":5.8,"mosquito_risk":0,"arthritis_risk":5,"migraine_risk":10,"frizz_risk":1,"updated_at":"2026-05-22T15:02:05.661378+05:30"},{"city":"Kolhapur","state":"Maharashtra","latitude":16.705,"longitude":74.2433,"temp":34.5,"humidity":40,"rain":0.0,"pressure":947.5,"uv_index":8.65,"wind_gusts":45.4,"aqi":42,"pm10":13.4,"pm2_5":9.0,"no2":1.5,"co":150.0,"o3":105.0,"so2":1.7,"mosquito_risk":0,"arthritis_risk":5,"migraine_risk":7,"frizz_risk":1,"updated_at":"2026-05-22T15:02:05.661384+05:30"},{"city":"Goa","state":"Goa","latitude":15.2993,"longitude":74.124,"temp":32.7,"humidity":61,"rain":0.1,"pressure":997.5,"uv_index":5.85,"wind_gusts":27.4,"aqi":30,"pm10":9.7,"pm2_5":6.4,"no2":0.6,"co":128.0,"o3":65.0,"so2":0.7,"mosquito_risk":6,"arthritis_risk":5,"migraine_risk":3,"frizz_risk":1,"updated_at":"2026-05-22T15:02:05.661390+05:30"},{"city":"Jodhpur","state":"Rajasthan","latitude":26.2389,"longitude":73.0243,"temp":40.4,"humidity":16,"rain":0.0,"pressure":980.9,"uv_index":8.45,"wind_gusts":35.6,"aqi":159,"pm10":329.7,"pm2_5":64.0,"no2":0.7,"co":131.0,"o3":112.0,"so2":3.2,"mosquito_risk":0,"arthritis_risk":5,"migraine_risk":10,"frizz_risk":0,"updated_at":"2026-05-22T15:02:05.661396+05:30"},{"city":"Udaipur","state":"Rajasthan","latitude":24.5854,"longitude":73.7125,"temp":38.8,"humidity":12,"rain":0.0,"pressure":945.9,"uv_index":8.85,"wind_gusts":40.7,"aqi":58,"pm10":97.8,"pm2_5":27.7,"no2":0.5,"co":125.0,"o3":102.0,"so2":1.8,"mosquito_risk":0,"arthritis_risk":5,"migraine_risk":10,"frizz_risk":0,"updated_at":"2026-05-22T15:02:05.661401+05:30"},{"city":"Kota","state":"Rajasthan","latitude":25.2138,"longitude":75.8648,"temp":42.3,"humidity":12,"rain":0.0,"pressure":976.2,"uv_index":8.4,"wind_gusts":40.3,"aqi":62,"pm10":34.7,"pm2_5":14.2,"no2":0.9,"co":128.0,"o3":118.0,"so2":2.8,"mosquito_risk":0,"arthritis_risk":5,"migraine_risk":10,"frizz_risk":0,"updated_at":"2026-05-22T15:02:05.661407+05:30"},{"city":"Bikaner","state":"Rajasthan","latitude":28.0229,"longitude":73.3119,"temp":41.7,"humidity":18,"rain":0.0,"pressure":978.6,"uv_index":8.4,"wind_gusts":25.9,"aqi":164,"pm10":122.5,"pm2_5":43.5,"no2":0.3,"co":145.0,"o3":99.0,"so2":2.7,"mosquito_risk":0,"arthritis_risk":5,"migraine_risk":10,"frizz_risk":0,"updated_at":"2026-05-22T15:02:05.661412+05:30"},{"city":"Ajmer","state":"Rajasthan","latitude":26.4499,"longitude":74.6399,"temp":38.4,"humidity":16,"rain":0.0,"pressure":953.6,"uv_index":8.4,"wind_gusts":43.2,"aqi":74,"pm10":81.3,"pm2_5":24.9,"no2":0.6,"co":131.0,"o3":102.0,"so2":1.9,"mosquito_risk":0,"arthritis_risk":5,"migraine_risk":10,"frizz_risk":0,"updated_at":"2026-05-22T15:02:05.661417+05:30"},{"city":"Gwalior","state":"Madhya Pradesh","latitude":26.2183,"longitude":78.1828,"temp":42.4,"humidity":13,"rain":0.0,"pressure":979.5,"uv_index":8.3,"wind_gusts":45.4,"aqi":66,"pm10":199.8,"pm2_5":44.2,"no2":0.5,"co":139.0,"o3":112.0,"so2":2.0,"mosquito_risk":0,"arthritis_risk":5,"migraine_risk":10,"frizz_risk":0,"updated_at":"2026-05-22T15:02:05.661423+05:30"},{"city":"Indore","state":"Madhya Pradesh","latitude":22.7196,"longitude":75.8577,"temp":40.0,"humidity":18,"rain":0.0,"pressure":946.9,"uv_index":8.7,"wind_gusts":42.1,"aqi":66,"pm10":31.5,"pm2_5":17.7,"no2":1.0,"co":175.0,"o3":123.0,"so2":3.7,"mosquito_risk":0,"arthritis_risk":5,"migraine_risk":10,"frizz_risk":0,"updated_at":"2026-05-22T15:02:05.661428+05:30"},{"city":"Bhopal","state":"Madhya Pradesh","latitude":23.2599,"longitude":77.4126,"temp":41.7,"humidity":12,"rain":0.0,"pressure":951.7,"uv_index":8.75,"wind_gusts":40.7,"aqi":61,"pm10":29.1,"pm2_5":13.4,"no2":0.7,"co":161.0,"o3":121.0,"so2":3.4,"mosquito_risk":0,"arthritis_risk":5,"migraine_risk":10,"frizz_risk":0,"updated_at":"2026-05-22T15:02:05.661433+05:30"},{"city":"Jabalpur","state":"Madhya Pradesh","latitude":23.1815,"longitude":79.9864,"temp":42.5,"humidity":10,"rain":0.0,"pressure":958.4,"uv_index":8.9,"wind_gusts":39.6,"aqi":56,"pm10":15.2,"pm2_5":8.8,"no2":0.8,"co":135.0,"o3":127.0,"so2":2.5,"mosquito_risk":0,"arthritis_risk":5,"migraine_risk":10,"frizz_risk":0,"updated_at":"2026-05-22T15:02:05.661438+05:30"},{"city":"Ujjain","state":"Madhya Pradesh","latitude":23.1765,"longitude":75.7885,"temp":40.5,"humidity":18,"rain":0.0,"pressure":952.3,"uv_index":8.65,"wind_gusts":40.3,"aqi":65,"pm10":36.2,"pm2_5":19.0,"no2":0.6,"co":150.0,"o3":116.0,"so2":3.1,"mosquito_risk":0,"arthritis_risk":5,"migraine_risk":10,"frizz_risk":0,"updated_at":"2026-05-22T15:02:05.661444+05:30"},{"city":"Visakhapatnam","state":"Andhra Pradesh","latitude":17.6868,"longitude":83.2185,"temp":37.0,"humidity":56,"rain":0.0,"pressure":997.6,"uv_index":9.0,"wind_gusts":45.0,"aqi":131,"pm10":56.1,"pm2_5":47.3,"no2":13.1,"co":404.0,"o3":209.0,"so2":53.8,"mosquito_risk":0,"arthritis_risk":5,"migraine_risk":10,"frizz_risk":1,"updated_at":"2026-05-22T15:02:05.661449+05:30"},{"city":"Vijayawada","state":"Andhra Pradesh","latitude":16.5062,"longitude":80.648,"temp":42.7,"humidity":29,"rain":0.0,"pressure":996.2,"uv_index":9.1,"wind_gusts":52.9,"aqi":102,"pm10":34.9,"pm2_5":26.8,"no2":2.0,"co":210.0,"o3":170.0,"so2":8.2,"mosquito_risk":0,"arthritis_risk":5,"migraine_risk":10,"frizz_risk":1,"updated_at":"2026-05-22T15:02:05.661454+05:30"},{"city":"Guntur","state":"Andhra Pradesh","latitude":16.3067,"longitude":80.4365,"temp":41.2,"humidity":30,"rain":0.0,"pressure":998.1,"uv_index":9.1,"wind_gusts":52.2,"aqi":101,"pm10":34.2,"pm2_5":25.9,"no2":1.6,"co":208.0,"o3":165.0,"so2":7.8,"mosquito_risk":0,"arthritis_risk":5,"migraine_risk":10,"frizz_risk":1,"updated_at":"2026-05-22T15:02:05.661460+05:30"},{"city":"Nellore","state":"Andhra Pradesh","latitude":14.4426,"longitude":79.9865,"temp":38.2,"humidity":35,"rain":0.0,"pressure":1001.6,"uv_index":8.2,"wind_gusts":50.0,"aqi":71,"pm10":39.9,"pm2_5":26.4,"no2":2.2,"co":164.0,"o3":149.0,"so2":6.6,"mosquito_risk":0,"arthritis_risk":5,"migraine_risk":7,"frizz_risk":1,"updated_at":"2026-05-22T15:02:05.661466+05:30"},{"city":"Kurnool","state":"Andhra Pradesh","latitude":15.8281,"longitude":78.0373,"temp":39.0,"humidity":30,"rain":0.0,"pressure":974.3,"uv_index":9.05,"wind_gusts":46.8,"aqi":65,"pm10":23.2,"pm2_5":17.5,"no2":1.5,"co":169.0,"o3":146.0,"so2":7.4,"mosquito_risk":0,"arthritis_risk":5,"migraine_risk":10,"frizz_risk":1,"updated_at":"2026-05-22T15:02:05.661472+05:30"},{"city":"Kakinada","state":"Andhra Pradesh","latitude":16.9891,"longitude":82.2475,"temp":41.6,"humidity":34,"rain":0.0,"pressure":1001.0,"uv_index":9.1,"wind_gusts":42.5,"aqi":152,"pm10":40.6,"pm2_5":34.7,"no2":3.6,"co":285.0,"o3":206.0,"so2":6.8,"mosquito_risk":0,"arthritis_risk":5,"migraine_risk":7,"frizz_risk":1,"updated_at":"2026-05-22T15:02:05.661477+05:30"},{"city":"Tirupati","state":"Andhra Pradesh","latitude":13.6288,"longitude":79.4192,"temp":37.6,"humidity":35,"rain":0.1,"pressure":987.6,"uv_index":8.25,"wind_gusts":33.1,"aqi":71,"pm10":28.7,"pm2_5":17.8,"no2":1.4,"co":170.0,"o3":131.0,"so2":3.0,"mosquito_risk":3,"arthritis_risk":5,"migraine_risk":10,"frizz_risk":1,"updated_at":"2026-05-22T15:02:05.661482+05:30"},{"city":"Warangal","state":"Telangana","latitude":17.9689,"longitude":79.5941,"temp":42.5,"humidity":16,"rain":0.0,"pressure":973.9,"uv_index":9.1,"wind_gusts":45.0,"aqi":124,"pm10":39.3,"pm2_5":28.1,"no2":2.0,"co":187.0,"o3":175.0,"so2":12.9,"mosquito_risk":0,"arthritis_risk":5,"migraine_risk":10,"frizz_risk":0,"updated_at":"2026-05-22T15:02:05.661487+05:30"},{"city":"Nizamabad","state":"Telangana","latitude":18.6725,"longitude":78.0941,"temp":41.7,"humidity":17,"rain":0.0,"pressure":961.9,"uv_index":9.1,"wind_gusts":41.8,"aqi":88,"pm10":44.6,"pm2_5":28.2,"no2":1.5,"co":233.0,"o3":149.0,"so2":6.0,"mosquito_risk":0,"arthritis_risk":5,"migraine_risk":10,"frizz_risk":0,"updated_at":"2026-05-22T15:02:05.661493+05:30"},{"city":"Mysore","state":"Karnataka","latitude":12.2958,"longitude":76.6396,"temp":33.6,"humidity":42,"rain":0.0,"pressure":928.4,"uv_index":8.8,"wind_gusts":52.9,"aqi":33,"pm10":11.2,"pm2_5":7.4,"no2":1.7,"co":136.0,"o3":98.0,"so2":1.3,"mosquito_risk":0,"arthritis_risk":5,"migraine_risk":7,"frizz_risk":1,"updated_at":"2026-05-22T15:02:05.661498+05:30"},{"city":"Mangalore","state":"Karnataka","latitude":12.9141,"longitude":74.856,"temp":27.9,"humidity":85,"rain":0.1,"pressure":1007.7,"uv_index":8.35,"wind_gusts":41.8,"aqi":39,"pm10":6.9,"pm2_5":4.7,"no2":0.9,"co":139.0,"o3":69.0,"so2":1.1,"mosquito_risk":10,"arthritis_risk":5,"migraine_risk":4,"frizz_risk":1,"updated_at":"2026-05-22T15:02:05.661504+05:30"},{"city":"Hubli-Dharwad","state":"Karnataka","latitude":15.3647,"longitude":75.124,"temp":31.0,"humidity":54,"rain":0.0,"pressure":940.8,"uv_index":8.65,"wind_gusts":41.0,"aqi":30,"pm10":7.5,"pm2_5":5.1,"no2":1.3,"co":133.0,"o3":86.0,"so2":0.8,"mosquito_risk":0,"arthritis_risk":5,"migraine_risk":7,"frizz_risk":1,"updated_at":"2026-05-22T15:02:05.661509+05:30"},{"city":"Belgaum","state":"Karnataka","latitude":15.8497,"longitude":74.4977,"temp":28.8,"humidity":62,"rain":0.1,"pressure":926.2,"uv_index":8.55,"wind_gusts":40.7,"aqi":32,"pm10":9.3,"pm2_5":6.2,"no2":1.3,"co":136.0,"o3":89.0,"so2":1.7,"mosquito_risk":10,"arthritis_risk":5,"migraine_risk":7,"frizz_risk":1,"updated_at":"2026-05-22T15:02:09.022737+05:30"},{"city":"Coimbatore","state":"Tamil Nadu","latitude":11.0168,"longitude":76.9558,"temp":33.3,"humidity":50,"rain":0.0,"pressure":960.8,"uv_index":8.4,"wind_gusts":55.8,"aqi":33,"pm10":12.7,"pm2_5":8.0,"no2":1.4,"co":162.0,"o3":93.0,"so2":1.9,"mosquito_risk":0,"arthritis_risk":5,"migraine_risk":7,"frizz_risk":1,"updated_at":"2026-05-22T15:02:09.022768+05:30"},{"city":"Madurai","state":"Tamil Nadu","latitude":9.9252,"longitude":78.1198,"temp":39.8,"humidity":28,"rain":0.0,"pressure":989.5,"uv_index":8.55,"wind_gusts":51.5,"aqi":63,"pm10":18.5,"pm2_5":11.7,"no2":2.1,"co":142.0,"o3":128.0,"so2":2.4,"mosquito_risk":0,"arthritis_risk":5,"migraine_risk":10,"frizz_risk":1,"updated_at":"2026-05-22T15:02:09.022777+05:30"},{"city":"Trichy","state":"Tamil Nadu","latitude":10.7905,"longitude":78.7047,"temp":38.1,"humidity":36,"rain":0.0,"pressure":995.7,"uv_index":8.9,"wind_gusts":55.1,"aqi":39,"pm10":11.9,"pm2_5":8.5,"no2":1.8,"co":147.0,"o3":114.0,"so2":2.4,"mosquito_risk":0,"arthritis_risk":5,"migraine_risk":10,"frizz_risk":1,"updated_at":"2026-05-22T15:02:09.022784+05:30"},{"city":"Salem","state":"Tamil Nadu","latitude":11.6643,"longitude":78.146,"temp":38.4,"humidity":32,"rain":0.0,"pressure":974.6,"uv_index":8.9,"wind_gusts":43.6,"aqi":49,"pm10":17.6,"pm2_5":11.3,"no2":2.4,"co":168.0,"o3":137.0,"so2":6.7,"mosquito_risk":0,"arthritis_risk":5,"migraine_risk":10,"frizz_risk":1,"updated_at":"2026-05-22T15:02:09.022790+05:30"},{"city":"Tirunelveli","state":"Tamil Nadu","latitude":8.7139,"longitude":77.7567,"temp":36.8,"humidity":39,"rain":0.1,"pressure":1000.8,"uv_index":8.45,"wind_gusts":51.1,"aqi":30,"pm10":8.2,"pm2_5":5.4,"no2":1.2,"co":119.0,"o3":84.0,"so2":0.9,"mosquito_risk":3,"arthritis_risk":5,"migraine_risk":7,"frizz_risk":1,"updated_at":"2026-05-22T15:02:09.022796+05:30"},{"city":"Vellore","state":"Tamil Nadu","latitude":12.9165,"longitude":79.1325,"temp":39.9,"humidity":24,"rain":0.0,"pressure":980.5,"uv_index":7.95,"wind_gusts":53.3,"aqi":65,"pm10":37.8,"pm2_5":17.8,"no2":1.4,"co":173.0,"o3":133.0,"so2":2.8,"mosquito_risk":0,"arthritis_risk":5,"migraine_risk":10,"frizz_risk":0,"updated_at":"2026-05-22T15:02:09.022802+05:30"},{"city":"Erode","state":"Tamil Nadu","latitude":11.341,"longitude":77.7172,"temp":38.1,"humidity":35,"rain":0.0,"pressure":985.9,"uv_index":8.7,"wind_gusts":49.0,"aqi":37,"pm10":15.1,"pm2_5":9.3,"no2":2.0,"co":180.0,"o3":116.0,"so2":1.9,"mosquito_risk":0,"arthritis_risk":5,"migraine_risk":10,"frizz_risk":1,"updated_at":"2026-05-22T15:02:09.022808+05:30"},{"city":"Kochi","state":"Kerala","latitude":9.9312,"longitude":76.2673,"temp":29.6,"humidity":75,"rain":0.0,"pressure":1009.2,"uv_index":8.05,"wind_gusts":33.5,"aqi":51,"pm10":11.0,"pm2_5":7.3,"no2":2.6,"co":122.0,"o3":77.0,"so2":2.3,"mosquito_risk":7,"arthritis_risk":0,"migraine_risk":4,"frizz_risk":1,"updated_at":"2026-05-22T15:02:09.022814+05:30"},{"city":"Thiruvananthapuram","state":"Kerala","latitude":8.5241,"longitude":76.9366,"temp":28.7,"humidity":78,"rain":0.0,"pressure":1008.7,"uv_index":7.8,"wind_gusts":40.0,"aqi":29,"pm10":9.7,"pm2_5":5.6,"no2":0.9,"co":99.0,"o3":71.0,"so2":0.5,"mosquito_risk":7,"arthritis_risk":0,"migraine_risk":4,"frizz_risk":1,"updated_at":"2026-05-22T15:02:09.022820+05:30"},{"city":"Kozhikode","state":"Kerala","latitude":11.2588,"longitude":75.7804,"temp":29.9,"humidity":72,"rain":0.0,"pressure":1008.3,"uv_index":7.55,"wind_gusts":43.2,"aqi":30,"pm10":6.6,"pm2_5":4.1,"no2":0.4,"co":134.0,"o3":65.0,"so2":0.4,"mosquito_risk":7,"arthritis_risk":0,"migraine_risk":4,"frizz_risk":1,"updated_at":"2026-05-22T15:02:09.022825+05:30"},{"city":"Thrissur","state":"Kerala","latitude":10.5276,"longitude":76.2144,"temp":30.1,"humidity":72,"rain":0.0,"pressure":1007.4,"uv_index":8.35,"wind_gusts":37.4,"aqi":50,"pm10":8.8,"pm2_5":6.5,"no2":1.7,"co":127.0,"o3":76.0,"so2":1.7,"mosquito_risk":3,"arthritis_risk":5,"migraine_risk":4,"frizz_risk":1,"updated_at":"2026-05-22T15:02:09.022832+05:30"},{"city":"Kannur","state":"Kerala","latitude":11.8745,"longitude":75.3704,"temp":29.4,"humidity":77,"rain":0.0,"pressure":1007.9,"uv_index":8.05,"wind_gusts":41.8,"aqi":37,"pm10":7.3,"pm2_5":5.2,"no2":0.9,"co":131.0,"o3":73.0,"so2":1.0,"mosquito_risk":7,"arthritis_risk":5,"migraine_risk":4,"frizz_risk":1,"updated_at":"2026-05-22T15:02:09.022838+05:30"},{"city":"Patna","state":"Bihar","latitude":25.5941,"longitude":85.1376,"temp":38.3,"humidity":49,"rain":0.0,"pressure":994.2,"uv_index":8.85,"wind_gusts":28.4,"aqi":155,"pm10":95.2,"pm2_5":71.9,"no2":3.1,"co":438.0,"o3":235.0,"so2":20.5,"mosquito_risk":0,"arthritis_risk":5,"migraine_risk":10,"frizz_risk":1,"updated_at":"2026-05-22T15:02:09.022843+05:30"},{"city":"Gaya","state":"Bihar","latitude":24.7914,"longitude":85.0002,"temp":41.2,"humidity":21,"rain":0.0,"pressure":987.5,"uv_index":8.9,"wind_gusts":29.5,"aqi":154,"pm10":238.4,"pm2_5":66.6,"no2":1.5,"co":229.0,"o3":171.0,"so2":12.5,"mosquito_risk":0,"arthritis_risk":5,"migraine_risk":10,"frizz_risk":0,"updated_at":"2026-05-22T15:02:09.022848+05:30"},{"city":"Muzaffarpur","state":"Bihar","latitude":26.1209,"longitude":85.3647,"temp":36.1,"humidity":56,"rain":0.0,"pressure":994.5,"uv_index":8.85,"wind_gusts":31.3,"aqi":146,"pm10":89.2,"pm2_5":68.7,"no2":3.2,"co":378.0,"o3":220.0,"so2":19.7,"mosquito_risk":0,"arthritis_risk":5,"migraine_risk":10,"frizz_risk":1,"updated_at":"2026-05-22T15:02:09.022853+05:30"},{"city":"Bhagalpur","state":"Bihar","latitude":25.2425,"longitude":87.0117,"temp":36.2,"humidity":56,"rain":0.0,"pressure":994.6,"uv_index":8.85,"wind_gusts":33.8,"aqi":134,"pm10":69.2,"pm2_5":54.4,"no2":5.1,"co":422.0,"o3":210.0,"so2":23.9,"mosquito_risk":0,"arthritis_risk":5,"migraine_risk":10,"frizz_risk":1,"updated_at":"2026-05-22T15:02:09.022858+05:30"},{"city":"Ranchi","state":"Jharkhand","latitude":23.3441,"longitude":85.3096,"temp":37.2,"humidity":24,"rain":0.0,"pressure":934.0,"uv_index":9.3,"wind_gusts":29.2,"aqi":153,"pm10":53.1,"pm2_5":24.2,"no2":1.2,"co":164.0,"o3":152.0,"so2":7.0,"mosquito_risk":0,"arthritis_risk":5,"migraine_risk":10,"frizz_risk":0,"updated_at":"2026-05-22T15:02:09.022863+05:30"},{"city":"Jamshedpur","state":"Jharkhand","latitude":22.8046,"longitude":86.2029,"temp":38.3,"humidity":39,"rain":0.0,"pressure":984.5,"uv_index":9.1,"wind_gusts":33.5,"aqi":152,"pm10":120.6,"pm2_5":76.1,"no2":3.0,"co":230.0,"o3":226.0,"so2":26.2,"mosquito_risk":0,"arthritis_risk":5,"migraine_risk":10,"frizz_risk":1,"updated_at":"2026-05-22T15:02:09.022868+05:30"},{"city":"Dhanbad","state":"Jharkhand","latitude":23.7957,"longitude":86.4304,"temp":39.8,"humidity":27,"rain":0.0,"pressure":974.0,"uv_index":9.1,"wind_gusts":33.5,"aqi":163,"pm10":119.2,"pm2_5":75.0,"no2":9.1,"co":306.0,"o3":220.0,"so2":50.2,"mosquito_risk":0,"arthritis_risk":5,"migraine_risk":10,"frizz_risk":1,"updated_at":"2026-05-22T15:02:09.022874+05:30"},{"city":"Bokaro","state":"Jharkhand","latitude":23.6693,"longitude":86.1511,"temp":37.8,"humidity":35,"rain":0.0,"pressure":977.5,"uv_index":9.1,"wind_gusts":28.8,"aqi":160,"pm10":102.4,"pm2_5":53.6,"no2":8.3,"co":273.0,"o3":201.0,"so2":41.5,"mosquito_risk":0,"arthritis_risk":5,"migraine_risk":10,"frizz_risk":1,"updated_at":"2026-05-22T15:02:09.022879+05:30"},{"city":"Bhubaneswar","state":"Odisha","latitude":20.2961,"longitude":85.8245,"temp":37.2,"humidity":52,"rain":0.0,"pressure":996.3,"uv_index":9.15,"wind_gusts":42.8,"aqi":124,"pm10":53.2,"pm2_5":38.8,"no2":2.2,"co":284.0,"o3":137.0,"so2":9.1,"mosquito_risk":0,"arthritis_risk":5,"migraine_risk":10,"frizz_risk":1,"updated_at":"2026-05-22T15:02:09.022885+05:30"},{"city":"Cuttack","state":"Odisha","latitude":20.4625,"longitude":85.8828,"temp":37.3,"humidity":54,"rain":0.0,"pressure":997.7,"uv_index":9.2,"wind_gusts":36.4,"aqi":124,"pm10":53.2,"pm2_5":38.8,"no2":2.2,"co":289.0,"o3":137.0,"so2":9.1,"mosquito_risk":0,"arthritis_risk":5,"migraine_risk":10,"frizz_risk":1,"updated_at":"2026-05-22T15:02:09.022890+05:30"},{"city":"Rourkela","state":"Odisha","latitude":22.2604,"longitude":84.8536,"temp":37.0,"humidity":44,"rain":0.0,"pressure":979.5,"uv_index":9.0,"wind_gusts":44.3,"aqi":169,"pm10":88.9,"pm2_5":51.5,"no2":1.7,"co":203.0,"o3":185.0,"so2":12.7,"mosquito_risk":0,"arthritis_risk":5,"migraine_risk":10,"frizz_risk":1,"updated_at":"2026-05-22T15:02:09.022895+05:30"},{"city":"Raipur","state":"Chhattisgarh","latitude":21.2514,"longitude":81.6296,"temp":43.5,"humidity":13,"rain":0.0,"pressure":969.9,"uv_index":9.0,"wind_gusts":41.4,"aqi":152,"pm10":20.4,"pm2_5":14.4,"no2":4.4,"co":149.0,"o3":153.0,"so2":15.9,"mosquito_risk":0,"arthritis_risk":5,"migraine_risk":10,"frizz_risk":0,"updated_at":"2026-05-22T15:02:09.022900+05:30"},{"city":"Bhilai","state":"Chhattisgarh","latitude":21.1938,"longitude":81.3509,"temp":43.2,"humidity":13,"rain":0.0,"pressure":970.1,"uv_index":8.8,"wind_gusts":38.2,"aqi":106,"pm10":23.5,"pm2_5":16.6,"no2":6.1,"co":152.0,"o3":155.0,"so2":22.7,"mosquito_risk":0,"arthritis_risk":5,"migraine_risk":10,"frizz_risk":0,"updated_at":"2026-05-22T15:02:09.022905+05:30"},{"city":"Guwahati","state":"Assam","latitude":26.1158,"longitude":91.7086,"temp":30.4,"humidity":74,"rain":0.2,"pressure":996.1,"uv_index":8.8,"wind_gusts":23.0,"aqi":90,"pm10":24.0,"pm2_5":17.7,"no2":1.4,"co":327.0,"o3":125.0,"so2":2.1,"mosquito_risk":6,"arthritis_risk":5,"migraine_risk":7,"frizz_risk":1,"updated_at":"2026-05-22T15:02:09.022910+05:30"},{"city":"Agartala","state":"Tripura","latitude":23.8315,"longitude":91.2868,"temp":32.4,"humidity":72,"rain":0.0,"pressure":1001.0,"uv_index":8.85,"wind_gusts":29.5,"aqi":88,"pm10":60.3,"pm2_5":32.4,"no2":4.2,"co":210.0,"o3":155.0,"so2":3.2,"mosquito_risk":3,"arthritis_risk":5,"migraine_risk":4,"frizz_risk":1,"updated_at":"2026-05-22T15:02:09.022915+05:30"},{"city":"Shillong","state":"Meghalaya","latitude":25.5788,"longitude":91.8933,"temp":23.6,"humidity":75,"rain":0.1,"pressure":855.2,"uv_index":8.6,"wind_gusts":24.5,"aqi":69,"pm10":17.1,"pm2_5":10.6,"no2":1.4,"co":242.0,"o3":111.0,"so2":2.0,"mosquito_risk":6,"arthritis_risk":5,"migraine_risk":7,"frizz_risk":1,"updated_at":"2026-05-22T15:02:09.022919+05:30"},{"city":"Imphal","state":"Manipur","latitude":24.817,"longitude":93.9368,"temp":29.2,"humidity":63,"rain":0.0,"pressure":920.0,"uv_index":9.3,"wind_gusts":35.6,"aqi":95,"pm10":26.0,"pm2_5":16.2,"no2":1.2,"co":228.0,"o3":110.0,"so2":2.3,"mosquito_risk":7,"arthritis_risk":5,"migraine_risk":7,"frizz_risk":1,"updated_at":"2026-05-22T15:02:09.022924+05:30"},{"city":"Aizawl","state":"Mizoram","latitude":23.7271,"longitude":92.7176,"temp":24.1,"humidity":81,"rain":0.0,"pressure":890.1,"uv_index":8.35,"wind_gusts":28.4,"aqi":75,"pm10":31.5,"pm2_5":15.7,"no2":0.7,"co":208.0,"o3":90.0,"so2":1.6,"mosquito_risk":3,"arthritis_risk":5,"migraine_risk":7,"frizz_risk":1,"updated_at":"2026-05-22T15:02:09.022931+05:30"},{"city":"Kohima","state":"Nagaland","latitude":25.6701,"longitude":94.1077,"temp":22.6,"humidity":92,"rain":0.0,"pressure":853.3,"uv_index":9.2,"wind_gusts":25.9,"aqi":93,"pm10":26.2,"pm2_5":17.8,"no2":1.0,"co":200.0,"o3":112.0,"so2":1.6,"mosquito_risk":3,"arthritis_risk":5,"migraine_risk":7,"frizz_risk":1,"updated_at":"2026-05-22T15:02:09.022936+05:30"},{"city":"Gangtok","state":"Sikkim","latitude":27.3314,"longitude":88.6138,"temp":20.8,"humidity":86,"rain":0.1,"pressure":835.8,"uv_index":9.15,"wind_gusts":34.6,"aqi":76,"pm10":11.5,"pm2_5":8.0,"no2":1.1,"co":278.0,"o3":135.0,"so2":2.2,"mosquito_risk":6,"arthritis_risk":5,"migraine_risk":7,"frizz_risk":1,"updated_at":"2026-05-22T15:02:09.022954+05:30"},{"city":"Siliguri","state":"West Bengal","latitude":26.7271,"longitude":88.3953,"temp":33.2,"humidity":55,"rain":0.1,"pressure":987.1,"uv_index":7.9,"wind_gusts":21.2,"aqi":106,"pm10":43.9,"pm2_5":28.6,"no2":2.1,"co":359.0,"o3":150.0,"so2":4.2,"mosquito_risk":3,"arthritis_risk":5,"migraine_risk":7,"frizz_risk":1,"updated_at":"2026-05-22T15:02:12.390606+05:30"},{"city":"Durgapur","state":"West Bengal","latitude":23.5204,"longitude":87.3119,"temp":38.2,"humidity":52,"rain":0.0,"pressure":988.0,"uv_index":9.0,"wind_gusts":38.2,"aqi":160,"pm10":108.0,"pm2_5":76.1,"no2":8.8,"co":651.0,"o3":209.0,"so2":45.9,"mosquito_risk":0,"arthritis_risk":5,"migraine_risk":10,"frizz_risk":1,"updated_at":"2026-05-22T15:02:12.390637+05:30"},{"city":"Asansol","state":"West Bengal","latitude":23.6739,"longitude":86.9524,"temp":36.7,"humidity":55,"rain":0.0,"pressure":987.0,"uv_index":9.05,"wind_gusts":39.6,"aqi":158,"pm10":112.2,"pm2_5":76.6,"no2":8.0,"co":304.0,"o3":209.0,"so2":43.6,"mosquito_risk":0,"arthritis_risk":5,"migraine_risk":10,"frizz_risk":1,"updated_at":"2026-05-22T15:02:12.390647+05:30"},{"city":"Pondicherry","state":"Puducherry","latitude":11.9139,"longitude":79.8145,"temp":33.2,"humidity":70,"rain":0.0,"pressure":1004.2,"uv_index":8.95,"wind_gusts":45.7,"aqi":60,"pm10":31.3,"pm2_5":26.3,"no2":6.0,"co":223.0,"o3":187.0,"so2":12.4,"mosquito_risk":3,"arthritis_risk":5,"migraine_risk":4,"frizz_risk":1,"updated_at":"2026-05-22T15:02:12.390654+05:30"},{"city":"Port Blair","state":"Andaman and Nicobar Islands","latitude":11.6234,"longitude":92.7265,"temp":27.5,"humidity":87,"rain":0.1,"pressure":1005.3,"uv_index":1.4,"wind_gusts":34.2,"aqi":31,"pm10":4.9,"pm2_5":3.4,"no2":0.5,"co":119.0,"o3":65.0,"so2":0.3,"mosquito_risk":10,"arthritis_risk":5,"migraine_risk":0,"frizz_risk":1,"updated_at":"2026-05-22T15:02:12.390662+05:30"},{"city":"Haridwar","state":"Uttarakhand","latitude":29.9457,"longitude":78.1642,"temp":38.6,"humidity":23,"rain":0.0,"pressure":970.7,"uv_index":7.6,"wind_gusts":27.7,"aqi":153,"pm10":66.4,"pm2_5":31.5,"no2":1.5,"co":294.0,"o3":176.0,"so2":10.8,"mosquito_risk":0,"arthritis_risk":5,"migraine_risk":10,"frizz_risk":0,"updated_at":"2026-05-22T15:02:12.390668+05:30"},{"city":"Rishikesh","state":"Uttarakhand","latitude":30.0869,"longitude":78.2676,"temp":37.7,"humidity":21,"rain":0.0,"pressure":963.8,"uv_index":7.7,"wind_gusts":30.2,"aqi":131,"pm10":89.9,"pm2_5":32.9,"no2":0.8,"co":254.0,"o3":158.0,"so2":6.4,"mosquito_risk":0,"arthritis_risk":5,"migraine_risk":10,"frizz_risk":0,"updated_at":"2026-05-22T15:02:12.390674+05:30"},{"city":"Nainital","state":"Uttarakhand","latitude":29.3919,"longitude":79.4542,"temp":24.6,"humidity":37,"rain":0.1,"pressure":808.6,"uv_index":8.55,"wind_gusts":50.4,"aqi":160,"pm10":171.4,"pm2_5":55.9,"no2":1.4,"co":222.0,"o3":174.0,"so2":9.6,"mosquito_risk":3,"arthritis_risk":5,"migraine_risk":7,"frizz_risk":0,"updated_at":"2026-05-22T15:02:12.390680+05:30"},{"city":"Mussoorie","state":"Uttarakhand","latitude":30.4599,"longitude":78.0664,"temp":24.6,"humidity":29,"rain":0.0,"pressure":806.8,"uv_index":8.1,"wind_gusts":45.7,"aqi":125,"pm10":52.5,"pm2_5":26.9,"no2":1.6,"co":199.0,"o3":172.0,"so2":8.1,"mosquito_risk":0,"arthritis_risk":5,"migraine_risk":7,"frizz_risk":0,"updated_at":"2026-05-22T15:02:12.390687+05:30"},{"city":"Dharamshala","state":"Himachal Pradesh","latitude":32.219,"longitude":76.3234,"temp":26.6,"humidity":36,"rain":0.0,"pressure":870.5,"uv_index":7.55,"wind_gusts":42.1,"aqi":51,"pm10":46.9,"pm2_5":13.0,"no2":0.4,"co":139.0,"o3":117.0,"so2":1.2,"mosquito_risk":4,"arthritis_risk":5,"migraine_risk":7,"frizz_risk":0,"updated_at":"2026-05-22T15:02:12.390693+05:30"},{"city":"Dalhousie","state":"Himachal Pradesh","latitude":32.5387,"longitude":75.971,"temp":23.7,"humidity":38,"rain":0.0,"pressure":807.8,"uv_index":7.8,"wind_gusts":45.0,"aqi":69,"pm10":59.5,"pm2_5":16.6,"no2":0.9,"co":142.0,"o3":122.0,"so2":1.3,"mosquito_risk":0,"arthritis_risk":5,"migraine_risk":7,"frizz_risk":0,"updated_at":"2026-05-22T15:02:12.390700+05:30"},{"city":"Patiala","state":"Punjab","latitude":30.3398,"longitude":76.3869,"temp":39.8,"humidity":17,"rain":0.0,"pressure":975.1,"uv_index":7.65,"wind_gusts":53.3,"aqi":343,"pm10":92.9,"pm2_5":28.6,"no2":1.2,"co":185.0,"o3":138.0,"so2":5.8,"mosquito_risk":0,"arthritis_risk":5,"migraine_risk":10,"frizz_risk":0,"updated_at":"2026-05-22T15:02:12.390706+05:30"},{"city":"Bhatinda","state":"Punjab","latitude":30.211,"longitude":74.9455,"temp":40.3,"humidity":19,"rain":0.0,"pressure":980.9,"uv_index":8.3,"wind_gusts":40.0,"aqi":96,"pm10":121.5,"pm2_5":35.3,"no2":1.7,"co":208.0,"o3":143.0,"so2":7.4,"mosquito_risk":0,"arthritis_risk":5,"migraine_risk":10,"frizz_risk":0,"updated_at":"2026-05-22T15:02:12.390711+05:30"},{"city":"Rohtak","state":"Haryana","latitude":28.8955,"longitude":76.6066,"temp":40.9,"humidity":17,"rain":0.0,"pressure":978.2,"uv_index":7.8,"wind_gusts":34.9,"aqi":652,"pm10":421.0,"pm2_5":71.0,"no2":1.7,"co":180.0,"o3":141.0,"so2":5.0,"mosquito_risk":0,"arthritis_risk":5,"migraine_risk":10,"frizz_risk":0,"updated_at":"2026-05-22T15:02:12.390716+05:30"},{"city":"Panipat","state":"Haryana","latitude":29.3909,"longitude":76.9635,"temp":40.7,"humidity":16,"rain":0.0,"pressure":976.8,"uv_index":7.65,"wind_gusts":42.8,"aqi":1411,"pm10":944.4,"pm2_5":124.8,"no2":2.5,"co":200.0,"o3":150.0,"so2":11.0,"mosquito_risk":0,"arthritis_risk":5,"migraine_risk":10,"frizz_risk":0,"updated_at":"2026-05-22T15:02:12.390722+05:30"},{"city":"Mathura","state":"Uttar Pradesh","latitude":27.4924,"longitude":77.6737,"temp":42.2,"humidity":16,"rain":0.0,"pressure":982.5,"uv_index":8.05,"wind_gusts":41.8,"aqi":699,"pm10":771.1,"pm2_5":109.0,"no2":1.3,"co":155.0,"o3":123.0,"so2":2.3,"mosquito_risk":0,"arthritis_risk":5,"migraine_risk":10,"frizz_risk":0,"updated_at":"2026-05-22T15:02:12.390727+05:30"},{"city":"Vrindavan","state":"Uttar Pradesh","latitude":27.5823,"longitude":77.7027,"temp":41.9,"humidity":17,"rain":0.0,"pressure":983.0,"uv_index":8.0,"wind_gusts":40.0,"aqi":699,"pm10":771.1,"pm2_5":109.0,"no2":1.3,"co":154.0,"o3":123.0,"so2":2.3,"mosquito_risk":0,"arthritis_risk":5,"migraine_risk":10,"frizz_risk":0,"updated_at":"2026-05-22T15:02:12.390733+05:30"},{"city":"Ayodhya","state":"Uttar Pradesh","latitude":26.7922,"longitude":82.1998,"temp":39.2,"humidity":41,"rain":0.0,"pressure":989.7,"uv_index":8.4,"wind_gusts":29.5,"aqi":151,"pm10":140.2,"pm2_5":59.5,"no2":1.6,"co":388.0,"o3":198.0,"so2":12.1,"mosquito_risk":0,"arthritis_risk":5,"migraine_risk":10,"frizz_risk":1,"updated_at":"2026-05-22T15:02:12.390738+05:30"},{"city":"Ratlam","state":"Madhya Pradesh","latitude":23.3315,"longitude":75.0367,"temp":39.5,"humidity":21,"rain":0.0,"pressure":953.8,"uv_index":8.6,"wind_gusts":38.5,"aqi":67,"pm10":40.0,"pm2_5":20.1,"no2":0.5,"co":141.0,"o3":114.0,"so2":2.9,"mosquito_risk":0,"arthritis_risk":5,"migraine_risk":10,"frizz_risk":0,"updated_at":"2026-05-22T15:02:12.390744+05:30"},{"city":"Sagar","state":"Madhya Pradesh","latitude":23.8388,"longitude":78.7378,"temp":41.1,"humidity":12,"rain":0.0,"pressure":948.4,"uv_index":8.75,"wind_gusts":39.6,"aqi":48,"pm10":47.7,"pm2_5":14.5,"no2":0.6,"co":137.0,"o3":122.0,"so2":2.1,"mosquito_risk":0,"arthritis_risk":5,"migraine_risk":10,"frizz_risk":0,"updated_at":"2026-05-22T15:02:12.390749+05:30"},{"city":"Satna","state":"Madhya Pradesh","latitude":24.6005,"longitude":80.8322,"temp":41.8,"humidity":12,"rain":0.0,"pressure":967.8,"uv_index":8.8,"wind_gusts":39.2,"aqi":50,"pm10":65.0,"pm2_5":15.8,"no2":0.6,"co":140.0,"o3":122.0,"so2":1.7,"mosquito_risk":0,"arthritis_risk":5,"migraine_risk":10,"frizz_risk":0,"updated_at":"2026-05-22T15:02:12.390755+05:30"},{"city":"Akola","state":"Maharashtra","latitude":20.7002,"longitude":77.0082,"temp":41.8,"humidity":18,"rain":0.0,"pressure":972.2,"uv_index":8.9,"wind_gusts":49.7,"aqi":73,"pm10":35.2,"pm2_5":20.0,"no2":1.5,"co":155.0,"o3":131.0,"so2":7.4,"mosquito_risk":0,"arthritis_risk":5,"migraine_risk":10,"frizz_risk":0,"updated_at":"2026-05-22T15:02:12.390760+05:30"},{"city":"Amravati","state":"Maharashtra","latitude":20.9374,"longitude":77.7796,"temp":42.2,"humidity":16,"rain":0.0,"pressure":964.2,"uv_index":8.9,"wind_gusts":45.4,"aqi":71,"pm10":31.4,"pm2_5":17.8,"no2":1.7,"co":163.0,"o3":136.0,"so2":7.6,"mosquito_risk":0,"arthritis_risk":5,"migraine_risk":10,"frizz_risk":0,"updated_at":"2026-05-22T15:02:12.390766+05:30"},{"city":"Latur","state":"Maharashtra","latitude":18.4088,"longitude":76.5604,"temp":38.0,"humidity":28,"rain":0.0,"pressure":938.8,"uv_index":9.05,"wind_gusts":41.0,"aqi":74,"pm10":40.0,"pm2_5":23.2,"no2":1.0,"co":163.0,"o3":137.0,"so2":6.5,"mosquito_risk":0,"arthritis_risk":5,"migraine_risk":10,"frizz_risk":1,"updated_at":"2026-05-22T15:02:12.390772+05:30"},{"city":"Nanded","state":"Maharashtra","latitude":19.1383,"longitude":77.3091,"temp":41.3,"humidity":20,"rain":0.0,"pressure":966.0,"uv_index":8.95,"wind_gusts":39.6,"aqi":85,"pm10":43.9,"pm2_5":26.3,"no2":1.1,"co":162.0,"o3":145.0,"so2":7.3,"mosquito_risk":0,"arthritis_risk":5,"migraine_risk":10,"frizz_risk":0,"updated_at":"2026-05-22T15:02:12.390778+05:30"},{"city":"Gulbarga","state":"Karnataka","latitude":17.3297,"longitude":76.8343,"temp":38.0,"humidity":35,"rain":0.0,"pressure":957.0,"uv_index":8.95,"wind_gusts":51.5,"aqi":63,"pm10":31.8,"pm2_5":20.8,"no2":1.6,"co":170.0,"o3":142.0,"so2":5.8,"mosquito_risk":0,"arthritis_risk":5,"migraine_risk":10,"frizz_risk":1,"updated_at":"2026-05-22T15:02:12.390782+05:30"},{"city":"Bidar","state":"Karnataka","latitude":17.9104,"longitude":77.5199,"temp":36.8,"humidity":31,"rain":0.0,"pressure":934.5,"uv_index":8.95,"wind_gusts":56.9,"aqi":78,"pm10":42.6,"pm2_5":25.8,"no2":1.3,"co":173.0,"o3":145.0,"so2":7.0,"mosquito_risk":0,"arthritis_risk":5,"migraine_risk":10,"frizz_risk":1,"updated_at":"2026-05-22T15:02:12.390787+05:30"},{"city":"Hospet","state":"Karnataka","latitude":15.2689,"longitude":76.3909,"temp":33.5,"humidity":48,"rain":0.0,"pressure":955.1,"uv_index":9.1,"wind_gusts":46.4,"aqi":33,"pm10":15.9,"pm2_5":10.2,"no2":1.6,"co":151.0,"o3":107.0,"so2":2.5,"mosquito_risk":0,"arthritis_risk":5,"migraine_risk":7,"frizz_risk":1,"updated_at":"2026-05-22T15:02:12.390792+05:30"},{"city":"Tirupur","state":"Tamil Nadu","latitude":11.1085,"longitude":77.3411,"temp":36.0,"humidity":40,"rain":0.0,"pressure":973.3,"uv_index":8.05,"wind_gusts":61.9,"aqi":39,"pm10":14.0,"pm2_5":8.8,"no2":1.9,"co":156.0,"o3":110.0,"so2":2.3,"mosquito_risk":0,"arthritis_risk":5,"migraine_risk":10,"frizz_risk":1,"updated_at":"2026-05-22T15:02:12.390797+05:30"},{"city":"Alappuzha","state":"Kerala","latitude":9.4981,"longitude":76.3388,"temp":29.3,"humidity":76,"rain":0.0,"pressure":1009.4,"uv_index":8.0,"wind_gusts":36.4,"aqi":39,"pm10":8.0,"pm2_5":5.2,"no2":1.8,"co":98.0,"o3":68.0,"so2":1.1,"mosquito_risk":7,"arthritis_risk":0,"migraine_risk":4,"frizz_risk":1,"updated_at":"2026-05-22T15:02:12.390802+05:30"},{"city":"Munnar","state":"Kerala","latitude":10.0889,"longitude":77.0595,"temp":21.6,"humidity":88,"rain":0.1,"pressure":858.7,"uv_index":4.25,"wind_gusts":32.0,"aqi":29,"pm10":9.4,"pm2_5":6.1,"no2":1.8,"co":125.0,"o3":81.0,"so2":1.1,"mosquito_risk":6,"arthritis_risk":5,"migraine_risk":3,"frizz_risk":1,"updated_at":"2026-05-22T15:02:12.390808+05:30"},{"city":"Silchar","state":"Assam","latitude":24.8333,"longitude":92.7789,"temp":29.8,"humidity":81,"rain":0.1,"pressure":1000.1,"uv_index":8.95,"wind_gusts":24.8,"aqi":95,"pm10":29.9,"pm2_5":16.9,"no2":1.3,"co":235.0,"o3":115.0,"so2":4.1,"mosquito_risk":10,"arthritis_risk":5,"migraine_risk":4,"frizz_risk":1,"updated_at":"2026-05-22T15:02:12.390813+05:30"},{"city":"Dibrugarh","state":"Assam","latitude":27.4728,"longitude":94.912,"temp":31.5,"humidity":69,"rain":0.1,"pressure":989.5,"uv_index":8.95,"wind_gusts":27.4,"aqi":93,"pm10":36.3,"pm2_5":26.7,"no2":1.6,"co":280.0,"o3":142.0,"so2":1.7,"mosquito_risk":6,"arthritis_risk":5,"migraine_risk":7,"frizz_risk":1,"updated_at":"2026-05-22T15:02:12.390818+05:30"}]