[{"city":"Delhi","state":"Delhi","latitude":28.6139,"longitude":77.209,"temp":35.0,"humidity":41,"rain":0.0,"pressure":979.9,"uv_index":7.75,"wind_gusts":25.6,"aqi":212,"pm10":332.5,"pm2_5":118.3,"no2":40.1,"co":600.0,"o3":125.0,"so2":44.7,"mosquito_risk":0,"arthritis_risk":5,"migraine_risk":7,"frizz_risk":1,"updated_at":"2026-06-25T09:22:11.228784+05:30"},{"city":"Mumbai","state":"Maharashtra","latitude":19.076,"longitude":72.8777,"temp":27.4,"humidity":82,"rain":0.0,"pressure":1007.6,"uv_index":4.5,"wind_gusts":38.5,"aqi":53,"pm10":30.9,"pm2_5":14.5,"no2":11.9,"co":242.0,"o3":48.0,"so2":13.2,"mosquito_risk":7,"arthritis_risk":5,"migraine_risk":0,"frizz_risk":1,"updated_at":"2026-06-25T09:22:11.228830+05:30"},{"city":"Bangalore","state":"Karnataka","latitude":12.9716,"longitude":77.5946,"temp":24.9,"humidity":67,"rain":0.1,"pressure":912.7,"uv_index":8.5,"wind_gusts":57.2,"aqi":27,"pm10":7.2,"pm2_5":5.1,"no2":8.1,"co":341.0,"o3":39.0,"so2":4.0,"mosquito_risk":6,"arthritis_risk":5,"migraine_risk":7,"frizz_risk":1,"updated_at":"2026-06-25T09:22:11.228846+05:30"},{"city":"Hyderabad","state":"Telangana","latitude":17.385,"longitude":78.4867,"temp":27.5,"humidity":66,"rain":0.0,"pressure":952.2,"uv_index":7.4,"wind_gusts":46.1,"aqi":22,"pm10":17.6,"pm2_5":8.5,"no2":5.8,"co":305.0,"o3":52.0,"so2":4.6,"mosquito_risk":7,"arthritis_risk":5,"migraine_risk":7,"frizz_risk":1,"updated_at":"2026-06-25T09:22:11.228855+05:30"},{"city":"Chennai","state":"Tamil Nadu","latitude":13.0827,"longitude":80.2707,"temp":32.1,"humidity":53,"rain":0.0,"pressure":1006.6,"uv_index":8.2,"wind_gusts":43.9,"aqi":60,"pm10":16.9,"pm2_5":13.5,"no2":13.9,"co":444.0,"o3":49.0,"so2":12.5,"mosquito_risk":0,"arthritis_risk":5,"migraine_risk":4,"frizz_risk":1,"updated_at":"2026-06-25T09:22:11.228863+05:30"},{"city":"Kolkata","state":"West Bengal","latitude":22.5726,"longitude":88.3639,"temp":31.9,"humidity":78,"rain":0.0,"pressure":1003.0,"uv_index":8.6,"wind_gusts":35.3,"aqi":139,"pm10":34.9,"pm2_5":34.0,"no2":7.8,"co":698.0,"o3":133.0,"so2":16.7,"mosquito_risk":3,"arthritis_risk":5,"migraine_risk":4,"frizz_risk":1,"updated_at":"2026-06-25T09:22:11.228870+05:30"},{"city":"Pune","state":"Maharashtra","latitude":18.5204,"longitude":73.8567,"temp":26.1,"humidity":74,"rain":0.0,"pressure":947.3,"uv_index":1.4,"wind_gusts":41.4,"aqi":33,"pm10":5.8,"pm2_5":4.1,"no2":6.8,"co":169.0,"o3":47.0,"so2":6.1,"mosquito_risk":7,"arthritis_risk":5,"migraine_risk":3,"frizz_risk":1,"updated_at":"2026-06-25T09:22:11.228877+05:30"},{"city":"Ahmedabad","state":"Gujarat","latitude":23.0225,"longitude":72.5714,"temp":32.4,"humidity":53,"rain":0.0,"pressure":999.8,"uv_index":8.0,"wind_gusts":38.9,"aqi":70,"pm10":53.1,"pm2_5":21.1,"no2":4.1,"co":145.0,"o3":49.0,"so2":4.9,"mosquito_risk":0,"arthritis_risk":5,"migraine_risk":7,"frizz_risk":1,"updated_at":"2026-06-25T09:22:11.228884+05:30"},{"city":"Jaipur","state":"Rajasthan","latitude":26.9124,"longitude":75.7873,"temp":31.7,"humidity":50,"rain":0.0,"pressure":957.3,"uv_index":8.2,"wind_gusts":28.8,"aqi":133,"pm10":133.6,"pm2_5":43.0,"no2":10.1,"co":212.0,"o3":64.0,"so2":8.5,"mosquito_risk":0,"arthritis_risk":5,"migraine_risk":7,"frizz_risk":1,"updated_at":"2026-06-25T09:22:11.228890+05:30"},{"city":"Lucknow","state":"Uttar Pradesh","latitude":26.8467,"longitude":80.9462,"temp":35.4,"humidity":45,"rain":0.0,"pressure":990.2,"uv_index":8.3,"wind_gusts":34.2,"aqi":158,"pm10":299.0,"pm2_5":75.4,"no2":12.5,"co":342.0,"o3":125.0,"so2":14.0,"mosquito_risk":0,"arthritis_risk":5,"migraine_risk":10,"frizz_risk":1,"updated_at":"2026-06-25T09:22:11.228901+05:30"},{"city":"Kanpur","state":"Uttar Pradesh","latitude":26.4499,"longitude":80.3319,"temp":34.2,"humidity":45,"rain":0.0,"pressure":988.4,"uv_index":8.3,"wind_gusts":45.0,"aqi":152,"pm10":257.0,"pm2_5":63.3,"no2":11.5,"co":251.0,"o3":107.0,"so2":10.6,"mosquito_risk":0,"arthritis_risk":5,"migraine_risk":7,"frizz_risk":1,"updated_at":"2026-06-25T09:22:11.228908+05:30"},{"city":"Chandigarh","state":"Chandigarh","latitude":30.7333,"longitude":76.7794,"temp":33.1,"humidity":46,"rain":0.0,"pressure":966.5,"uv_index":7.8,"wind_gusts":22.0,"aqi":153,"pm10":141.6,"pm2_5":57.5,"no2":8.9,"co":573.0,"o3":183.0,"so2":22.9,"mosquito_risk":0,"arthritis_risk":5,"migraine_risk":7,"frizz_risk":1,"updated_at":"2026-06-25T09:22:11.228915+05:30"},{"city":"Srinagar","state":"Jammu and Kashmir","latitude":34.0837,"longitude":74.7973,"temp":23.1,"humidity":61,"rain":0.0,"pressure":842.5,"uv_index":9.1,"wind_gusts":23.8,"aqi":71,"pm10":26.8,"pm2_5":24.0,"no2":7.4,"co":487.0,"o3":104.0,"so2":4.4,"mosquito_risk":3,"arthritis_risk":5,"migraine_risk":7,"frizz_risk":0,"updated_at":"2026-06-25T09:22:11.228921+05:30"},{"city":"Jammu","state":"Jammu and Kashmir","latitude":32.7266,"longitude":74.857,"temp":31.1,"humidity":53,"rain":0.0,"pressure":970.5,"uv_index":8.65,"wind_gusts":23.4,"aqi":92,"pm10":28.5,"pm2_5":22.1,"no2":9.9,"co":312.0,"o3":133.0,"so2":4.5,"mosquito_risk":0,"arthritis_risk":5,"migraine_risk":7,"frizz_risk":1,"updated_at":"2026-06-25T09:22:11.228928+05:30"},{"city":"Amritsar","state":"Punjab","latitude":31.634,"longitude":74.8723,"temp":28.5,"humidity":76,"rain":0.0,"pressure":978.4,"uv_index":8.45,"wind_gusts":52.9,"aqi":134,"pm10":90.6,"pm2_5":53.4,"no2":15.4,"co":380.0,"o3":102.0,"so2":10.8,"mosquito_risk":7,"arthritis_risk":5,"migraine_risk":7,"frizz_risk":1,"updated_at":"2026-06-25T09:22:11.228934+05:30"},{"city":"Ludhiana","state":"Punjab","latitude":30.901,"longitude":75.8573,"temp":32.2,"humidity":53,"rain":0.0,"pressure":976.2,"uv_index":8.05,"wind_gusts":24.5,"aqi":165,"pm10":274.7,"pm2_5":100.8,"no2":19.6,"co":419.0,"o3":128.0,"so2":16.1,"mosquito_risk":0,"arthritis_risk":5,"migraine_risk":7,"frizz_risk":1,"updated_at":"2026-06-25T09:22:11.228940+05:30"},{"city":"Jalandhar","state":"Punjab","latitude":31.326,"longitude":75.5762,"temp":28.1,"humidity":81,"rain":0.2,"pressure":977.3,"uv_index":8.25,"wind_gusts":45.0,"aqi":146,"pm10":165.3,"pm2_5":77.5,"no2":16.0,"co":424.0,"o3":127.0,"so2":14.3,"mosquito_risk":10,"arthritis_risk":5,"migraine_risk":7,"frizz_risk":1,"updated_at":"2026-06-25T09:22:11.228946+05:30"},{"city":"Dehradun","state":"Uttarakhand","latitude":30.6284,"longitude":78.0322,"temp":23.2,"humidity":64,"rain":0.0,"pressure":832.1,"uv_index":7.3,"wind_gusts":24.5,"aqi":76,"pm10":16.9,"pm2_5":16.4,"no2":2.4,"co":213.0,"o3":144.0,"so2":2.1,"mosquito_risk":3,"arthritis_risk":5,"migraine_risk":7,"frizz_risk":1,"updated_at":"2026-06-25T09:22:11.228953+05:30"},{"city":"Shimla","state":"Himachal Pradesh","latitude":31.1048,"longitude":77.1734,"temp":20.7,"humidity":53,"rain":0.0,"pressure":786.9,"uv_index":6.5,"wind_gusts":28.1,"aqi":92,"pm10":18.6,"pm2_5":18.3,"no2":2.2,"co":249.0,"o3":145.0,"so2":1.6,"mosquito_risk":0,"arthritis_risk":5,"migraine_risk":7,"frizz_risk":0,"updated_at":"2026-06-25T09:22:11.228959+05:30"},{"city":"Manali","state":"Himachal Pradesh","latitude":32.2396,"longitude":77.1887,"temp":22.6,"humidity":59,"rain":0.0,"pressure":820.7,"uv_index":8.5,"wind_gusts":31.0,"aqi":39,"pm10":2.3,"pm2_5":2.1,"no2":14.5,"co":181.0,"o3":73.0,"so2":0.1,"mosquito_risk":0,"arthritis_risk":5,"migraine_risk":7,"frizz_risk":0,"updated_at":"2026-06-25T09:22:11.228967+05:30"},{"city":"Gurgaon","state":"Haryana","latitude":28.4595,"longitude":77.0266,"temp":33.9,"humidity":47,"rain":0.0,"pressure":978.4,"uv_index":7.8,"wind_gusts":19.4,"aqi":535,"pm10":251.5,"pm2_5":94.8,"no2":42.7,"co":522.0,"o3":67.0,"so2":31.2,"mosquito_risk":0,"arthritis_risk":5,"migraine_risk":7,"frizz_risk":1,"updated_at":"2026-06-25T09:22:11.228973+05:30"},{"city":"Noida","state":"Uttar Pradesh","latitude":28.5355,"longitude":77.391,"temp":33.3,"humidity":56,"rain":0.0,"pressure":981.2,"uv_index":7.8,"wind_gusts":22.3,"aqi":535,"pm10":251.5,"pm2_5":94.8,"no2":42.7,"co":770.0,"o3":67.0,"so2":31.2,"mosquito_risk":0,"arthritis_risk":5,"migraine_risk":7,"frizz_risk":1,"updated_at":"2026-06-25T09:22:11.228981+05:30"},{"city":"Ghaziabad","state":"Uttar Pradesh","latitude":28.6692,"longitude":77.4538,"temp":33.1,"humidity":59,"rain":0.0,"pressure":979.6,"uv_index":7.75,"wind_gusts":16.9,"aqi":224,"pm10":379.0,"pm2_5":122.0,"no2":19.3,"co":806.0,"o3":156.0,"so2":14.3,"mosquito_risk":0,"arthritis_risk":5,"migraine_risk":7,"frizz_risk":1,"updated_at":"2026-06-25T09:22:11.228987+05:30"},{"city":"Faridabad","state":"Haryana","latitude":28.4089,"longitude":77.3178,"temp":33.3,"humidity":54,"rain":0.0,"pressure":980.6,"uv_index":7.8,"wind_gusts":19.4,"aqi":535,"pm10":251.5,"pm2_5":94.8,"no2":42.7,"co":479.0,"o3":67.0,"so2":31.2,"mosquito_risk":0,"arthritis_risk":5,"migraine_risk":7,"frizz_risk":1,"updated_at":"2026-06-25T09:22:11.228993+05:30"},{"city":"Meerut","state":"Uttar Pradesh","latitude":28.9845,"longitude":77.7064,"temp":33.6,"humidity":52,"rain":0.0,"pressure":978.6,"uv_index":7.1,"wind_gusts":22.3,"aqi":224,"pm10":379.0,"pm2_5":122.0,"no2":19.3,"co":539.0,"o3":156.0,"so2":14.3,"mosquito_risk":0,"arthritis_risk":5,"migraine_risk":7,"frizz_risk":1,"updated_at":"2026-06-25T09:22:11.229002+05:30"},{"city":"Agra","state":"Uttar Pradesh","latitude":27.1767,"longitude":78.0081,"temp":34.0,"humidity":45,"rain":0.0,"pressure":984.2,"uv_index":6.5,"wind_gusts":29.2,"aqi":217,"pm10":235.2,"pm2_5":61.9,"no2":13.8,"co":245.0,"o3":85.0,"so2":8.6,"mosquito_risk":0,"arthritis_risk":5,"migraine_risk":7,"frizz_risk":1,"updated_at":"2026-06-25T09:22:11.229008+05:30"},{"city":"Varanasi","state":"Uttar Pradesh","latitude":25.3176,"longitude":82.9739,"temp":34.2,"humidity":52,"rain":0.0,"pressure":994.2,"uv_index":8.2,"wind_gusts":37.4,"aqi":114,"pm10":45.2,"pm2_5":27.1,"no2":6.8,"co":263.0,"o3":101.0,"so2":9.4,"mosquito_risk":0,"arthritis_risk":5,"migraine_risk":7,"frizz_risk":1,"updated_at":"2026-06-25T09:22:11.229015+05:30"},{"city":"Prayagraj","state":"Uttar Pradesh","latitude":25.4358,"longitude":81.8463,"temp":33.5,"humidity":52,"rain":0.0,"pressure":992.9,"uv_index":8.3,"wind_gusts":34.6,"aqi":126,"pm10":40.4,"pm2_5":25.9,"no2":6.3,"co":215.0,"o3":99.0,"so2":8.0,"mosquito_risk":0,"arthritis_risk":5,"migraine_risk":7,"frizz_risk":1,"updated_at":"2026-06-25T09:22:11.229021+05:30"},{"city":"Gorakhpur","state":"Uttar Pradesh","latitude":26.7606,"longitude":83.3732,"temp":34.3,"humidity":53,"rain":0.0,"pressure":993.9,"uv_index":8.65,"wind_gusts":25.9,"aqi":159,"pm10":132.2,"pm2_5":84.1,"no2":13.7,"co":612.0,"o3":155.0,"so2":17.0,"mosquito_risk":0,"arthritis_risk":5,"migraine_risk":7,"frizz_risk":1,"updated_at":"2026-06-25T09:22:11.229027+05:30"},{"city":"Bareilly","state":"Uttar Pradesh","latitude":28.367,"longitude":79.4304,"temp":35.3,"humidity":44,"rain":0.0,"pressure":983.6,"uv_index":8.1,"wind_gusts":22.3,"aqi":170,"pm10":195.6,"pm2_5":85.9,"no2":13.3,"co":380.0,"o3":168.0,"so2":22.0,"mosquito_risk":0,"arthritis_risk":5,"migraine_risk":10,"frizz_risk":1,"updated_at":"2026-06-25T09:22:11.229035+05:30"},{"city":"Aligarh","state":"Uttar Pradesh","latitude":27.8974,"longitude":78.088,"temp":33.9,"humidity":45,"rain":0.0,"pressure":982.2,"uv_index":7.95,"wind_gusts":19.4,"aqi":421,"pm10":305.5,"pm2_5":99.0,"no2":24.2,"co":411.0,"o3":79.0,"so2":12.4,"mosquito_risk":0,"arthritis_risk":5,"migraine_risk":7,"frizz_risk":1,"updated_at":"2026-06-25T09:22:11.229041+05:30"},{"city":"Moradabad","state":"Uttar Pradesh","latitude":28.8386,"longitude":78.7733,"temp":35.1,"humidity":44,"rain":0.0,"pressure":980.5,"uv_index":7.8,"wind_gusts":24.8,"aqi":184,"pm10":171.8,"pm2_5":81.0,"no2":14.4,"co":434.0,"o3":177.0,"so2":21.2,"mosquito_risk":0,"arthritis_risk":5,"migraine_risk":10,"frizz_risk":1,"updated_at":"2026-06-25T09:22:11.229047+05:30"},{"city":"Saharanpur","state":"Uttar Pradesh","latitude":29.9637,"longitude":77.546,"temp":32.9,"humidity":52,"rain":0.0,"pressure":973.1,"uv_index":7.2,"wind_gusts":22.7,"aqi":156,"pm10":83.1,"pm2_5":50.3,"no2":10.6,"co":426.0,"o3":178.0,"so2":15.3,"mosquito_risk":0,"arthritis_risk":5,"migraine_risk":7,"frizz_risk":1,"updated_at":"2026-06-25T09:22:11.229053+05:30"},{"city":"Jhansi","state":"Uttar Pradesh","latitude":25.4484,"longitude":78.5685,"temp":31.9,"humidity":55,"rain":0.0,"pressure":975.3,"uv_index":8.2,"wind_gusts":39.2,"aqi":78,"pm10":44.6,"pm2_5":26.5,"no2":4.7,"co":180.0,"o3":80.0,"so2":7.6,"mosquito_risk":0,"arthritis_risk":5,"migraine_risk":7,"frizz_risk":1,"updated_at":"2026-06-25T09:22:14.520027+05:30"},{"city":"Surat","state":"Gujarat","latitude":21.1702,"longitude":72.8311,"temp":30.3,"humidity":70,"rain":0.1,"pressure":1005.0,"uv_index":7.6,"wind_gusts":43.6,"aqi":75,"pm10":47.5,"pm2_5":26.3,"no2":20.9,"co":389.0,"o3":28.0,"so2":56.8,"mosquito_risk":6,"arthritis_risk":5,"migraine_risk":4,"frizz_risk":1,"updated_at":"2026-06-25T09:22:14.520061+05:30"},{"city":"Vadodara","state":"Gujarat","latitude":22.3072,"longitude":73.1812,"temp":32.6,"humidity":53,"rain":0.0,"pressure":1002.2,"uv_index":8.0,"wind_gusts":45.0,"aqi":74,"pm10":46.3,"pm2_5":20.7,"no2":5.5,"co":160.0,"o3":45.0,"so2":5.6,"mosquito_risk":0,"arthritis_risk":5,"migraine_risk":4,"frizz_risk":1,"updated_at":"2026-06-25T09:22:14.520073+05:30"},{"city":"Rajkot","state":"Gujarat","latitude":22.3039,"longitude":70.8022,"temp":31.9,"humidity":57,"rain":0.0,"pressure":991.9,"uv_index":7.55,"wind_gusts":45.0,"aqi":68,"pm10":46.0,"pm2_5":17.8,"no2":3.2,"co":110.0,"o3":50.0,"so2":4.7,"mosquito_risk":0,"arthritis_risk":5,"migraine_risk":7,"frizz_risk":1,"updated_at":"2026-06-25T09:22:14.520082+05:30"},{"city":"Thane","state":"Maharashtra","latitude":19.2183,"longitude":72.9781,"temp":28.0,"humidity":80,"rain":0.0,"pressure":1007.0,"uv_index":5.15,"wind_gusts":33.1,"aqi":53,"pm10":30.9,"pm2_5":14.5,"no2":11.9,"co":237.0,"o3":48.0,"so2":13.2,"mosquito_risk":7,"arthritis_risk":5,"migraine_risk":0,"frizz_risk":1,"updated_at":"2026-06-25T09:22:14.520091+05:30"},{"city":"Nagpur","state":"Maharashtra","latitude":21.1458,"longitude":79.0882,"temp":28.6,"humidity":72,"rain":0.0,"pressure":971.3,"uv_index":8.5,"wind_gusts":30.2,"aqi":55,"pm10":22.2,"pm2_5":14.6,"no2":11.7,"co":242.0,"o3":76.0,"so2":12.0,"mosquito_risk":7,"arthritis_risk":5,"migraine_risk":7,"frizz_risk":1,"updated_at":"2026-06-25T09:22:14.520099+05:30"},{"city":"Nashik","state":"Maharashtra","latitude":19.9975,"longitude":73.7898,"temp":25.6,"humidity":78,"rain":0.0,"pressure":944.4,"uv_index":7.65,"wind_gusts":41.4,"aqi":51,"pm10":10.4,"pm2_5":6.0,"no2":8.5,"co":174.0,"o3":42.0,"so2":11.2,"mosquito_risk":7,"arthritis_risk":5,"migraine_risk":7,"frizz_risk":1,"updated_at":"2026-06-25T09:22:14.520107+05:30"},{"city":"Aurangabad","state":"Maharashtra","latitude":19.8762,"longitude":75.3433,"temp":24.8,"humidity":82,"rain":0.0,"pressure":943.0,"uv_index":1.25,"wind_gusts":45.0,"aqi":62,"pm10":18.6,"pm2_5":9.1,"no2":6.8,"co":148.0,"o3":41.0,"so2":10.4,"mosquito_risk":3,"arthritis_risk":5,"migraine_risk":3,"frizz_risk":1,"updated_at":"2026-06-25T09:22:14.520115+05:30"},{"city":"Solapur","state":"Maharashtra","latitude":17.6599,"longitude":75.9064,"temp":28.5,"humidity":62,"rain":0.0,"pressure":956.9,"uv_index":1.0,"wind_gusts":40.7,"aqi":20,"pm10":10.7,"pm2_5":5.7,"no2":3.6,"co":127.0,"o3":54.0,"so2":2.5,"mosquito_risk":7,"arthritis_risk":5,"migraine_risk":3,"frizz_risk":1,"updated_at":"2026-06-25T09:22:14.520124+05:30"},{"city":"Kolhapur","state":"Maharashtra","latitude":16.705,"longitude":74.2433,"temp":25.1,"humidity":78,"rain":0.0,"pressure":948.1,"uv_index":7.9,"wind_gusts":47.9,"aqi":19,"pm10":7.3,"pm2_5":6.1,"no2":6.4,"co":141.0,"o3":44.0,"so2":2.1,"mosquito_risk":7,"arthritis_risk":5,"migraine_risk":7,"frizz_risk":1,"updated_at":"2026-06-25T09:22:14.520132+05:30"},{"city":"Goa","state":"Goa","latitude":15.2993,"longitude":74.124,"temp":25.8,"humidity":93,"rain":0.1,"pressure":999.4,"uv_index":4.15,"wind_gusts":32.8,"aqi":48,"pm10":11.8,"pm2_5":7.0,"no2":2.3,"co":178.0,"o3":51.0,"so2":1.0,"mosquito_risk":10,"arthritis_risk":5,"migraine_risk":3,"frizz_risk":1,"updated_at":"2026-06-25T09:22:14.520140+05:30"},{"city":"Jodhpur","state":"Rajasthan","latitude":26.2389,"longitude":73.0243,"temp":31.5,"humidity":62,"rain":0.0,"pressure":979.8,"uv_index":8.35,"wind_gusts":37.1,"aqi":148,"pm10":311.1,"pm2_5":68.0,"no2":2.0,"co":113.0,"o3":50.0,"so2":3.5,"mosquito_risk":3,"arthritis_risk":5,"migraine_risk":7,"frizz_risk":1,"updated_at":"2026-06-25T09:22:14.520148+05:30"},{"city":"Udaipur","state":"Rajasthan","latitude":24.5854,"longitude":73.7125,"temp":29.8,"humidity":60,"rain":0.0,"pressure":944.4,"uv_index":8.8,"wind_gusts":32.8,"aqi":74,"pm10":34.0,"pm2_5":17.3,"no2":1.9,"co":123.0,"o3":52.0,"so2":2.6,"mosquito_risk":4,"arthritis_risk":5,"migraine_risk":7,"frizz_risk":1,"updated_at":"2026-06-25T09:22:14.520156+05:30"},{"city":"Kota","state":"Rajasthan","latitude":25.2138,"longitude":75.8648,"temp":31.9,"humidity":58,"rain":0.0,"pressure":976.0,"uv_index":8.3,"wind_gusts":36.7,"aqi":87,"pm10":39.5,"pm2_5":25.8,"no2":6.6,"co":182.0,"o3":65.0,"so2":10.7,"mosquito_risk":0,"arthritis_risk":5,"migraine_risk":7,"frizz_risk":1,"updated_at":"2026-06-25T09:22:14.520164+05:30"},{"city":"Bikaner","state":"Rajasthan","latitude":28.0229,"longitude":73.3119,"temp":33.7,"humidity":48,"rain":0.0,"pressure":977.9,"uv_index":8.45,"wind_gusts":32.0,"aqi":151,"pm10":434.9,"pm2_5":115.5,"no2":1.7,"co":134.0,"o3":66.0,"so2":3.4,"mosquito_risk":0,"arthritis_risk":5,"migraine_risk":7,"frizz_risk":1,"updated_at":"2026-06-25T09:22:14.520171+05:30"},{"city":"Ajmer","state":"Rajasthan","latitude":26.4499,"longitude":74.6399,"temp":28.9,"humidity":62,"rain":0.0,"pressure":952.4,"uv_index":8.3,"wind_gusts":40.7,"aqi":95,"pm10":129.5,"pm2_5":39.2,"no2":3.3,"co":139.0,"o3":57.0,"so2":3.8,"mosquito_risk":7,"arthritis_risk":5,"migraine_risk":7,"frizz_risk":1,"updated_at":"2026-06-25T09:22:14.520179+05:30"},{"city":"Gwalior","state":"Madhya Pradesh","latitude":26.2183,"longitude":78.1828,"temp":34.2,"humidity":46,"rain":0.0,"pressure":980.0,"uv_index":8.25,"wind_gusts":38.5,"aqi":84,"pm10":73.1,"pm2_5":30.9,"no2":4.6,"co":182.0,"o3":83.0,"so2":5.9,"mosquito_risk":0,"arthritis_risk":5,"migraine_risk":7,"frizz_risk":1,"updated_at":"2026-06-25T09:22:14.520187+05:30"},{"city":"Indore","state":"Madhya Pradesh","latitude":22.7196,"longitude":75.8577,"temp":28.1,"humidity":69,"rain":0.0,"pressure":946.4,"uv_index":2.45,"wind_gusts":36.0,"aqi":75,"pm10":33.3,"pm2_5":19.8,"no2":6.8,"co":248.0,"o3":45.0,"so2":10.9,"mosquito_risk":7,"arthritis_risk":5,"migraine_risk":3,"frizz_risk":1,"updated_at":"2026-06-25T09:22:14.520195+05:30"},{"city":"Bhopal","state":"Madhya Pradesh","latitude":23.2599,"longitude":77.4126,"temp":28.2,"humidity":72,"rain":0.0,"pressure":951.8,"uv_index":8.55,"wind_gusts":26.6,"aqi":71,"pm10":41.3,"pm2_5":25.8,"no2":6.6,"co":308.0,"o3":75.0,"so2":7.3,"mosquito_risk":7,"arthritis_risk":5,"migraine_risk":7,"frizz_risk":1,"updated_at":"2026-06-25T09:22:14.520203+05:30"},{"city":"Jabalpur","state":"Madhya Pradesh","latitude":23.1815,"longitude":79.9864,"temp":29.4,"humidity":67,"rain":0.0,"pressure":960.0,"uv_index":8.85,"wind_gusts":25.9,"aqi":60,"pm10":36.1,"pm2_5":21.4,"no2":3.9,"co":224.0,"o3":97.0,"so2":4.1,"mosquito_risk":7,"arthritis_risk":5,"migraine_risk":7,"frizz_risk":1,"updated_at":"2026-06-25T09:22:14.520210+05:30"},{"city":"Ujjain","state":"Madhya Pradesh","latitude":23.1765,"longitude":75.7885,"temp":29.1,"humidity":66,"rain":0.0,"pressure":952.0,"uv_index":3.65,"wind_gusts":37.1,"aqi":78,"pm10":37.0,"pm2_5":20.8,"no2":5.0,"co":163.0,"o3":50.0,"so2":11.1,"mosquito_risk":7,"arthritis_risk":5,"migraine_risk":3,"frizz_risk":1,"updated_at":"2026-06-25T09:22:14.520218+05:30"},{"city":"Visakhapatnam","state":"Andhra Pradesh","latitude":17.6868,"longitude":83.2185,"temp":33.2,"humidity":53,"rain":0.0,"pressure":1000.5,"uv_index":8.75,"wind_gusts":30.2,"aqi":68,"pm10":25.0,"pm2_5":21.6,"no2":20.3,"co":364.0,"o3":63.0,"so2":49.5,"mosquito_risk":0,"arthritis_risk":5,"migraine_risk":4,"frizz_risk":1,"updated_at":"2026-06-25T09:22:14.520225+05:30"},{"city":"Vijayawada","state":"Andhra Pradesh","latitude":16.5062,"longitude":80.648,"temp":31.5,"humidity":59,"rain":0.0,"pressure":1001.2,"uv_index":8.55,"wind_gusts":40.0,"aqi":55,"pm10":13.5,"pm2_5":11.9,"no2":8.2,"co":181.0,"o3":56.0,"so2":9.4,"mosquito_risk":0,"arthritis_risk":5,"migraine_risk":4,"frizz_risk":1,"updated_at":"2026-06-25T09:22:14.520233+05:30"},{"city":"Guntur","state":"Andhra Pradesh","latitude":16.3067,"longitude":80.4365,"temp":31.8,"humidity":56,"rain":0.0,"pressure":1002.4,"uv_index":8.4,"wind_gusts":37.1,"aqi":50,"pm10":11.2,"pm2_5":9.3,"no2":7.4,"co":174.0,"o3":52.0,"so2":9.1,"mosquito_risk":0,"arthritis_risk":5,"migraine_risk":4,"frizz_risk":1,"updated_at":"2026-06-25T09:22:14.520240+05:30"},{"city":"Nellore","state":"Andhra Pradesh","latitude":14.4426,"longitude":79.9865,"temp":32.7,"humidity":52,"rain":0.0,"pressure":1004.8,"uv_index":8.05,"wind_gusts":46.8,"aqi":31,"pm10":9.4,"pm2_5":5.9,"no2":4.2,"co":122.0,"o3":46.0,"so2":5.6,"mosquito_risk":0,"arthritis_risk":5,"migraine_risk":4,"frizz_risk":1,"updated_at":"2026-06-25T09:22:14.520249+05:30"},{"city":"Kurnool","state":"Andhra Pradesh","latitude":15.8281,"longitude":78.0373,"temp":29.4,"humidity":62,"rain":0.0,"pressure":976.5,"uv_index":6.0,"wind_gusts":47.5,"aqi":25,"pm10":7.9,"pm2_5":4.7,"no2":3.2,"co":115.0,"o3":49.0,"so2":3.0,"mosquito_risk":7,"arthritis_risk":5,"migraine_risk":3,"frizz_risk":1,"updated_at":"2026-06-25T09:22:14.520258+05:30"},{"city":"Kakinada","state":"Andhra Pradesh","latitude":16.9891,"longitude":82.2475,"temp":31.5,"humidity":60,"rain":0.0,"pressure":1005.1,"uv_index":8.15,"wind_gusts":39.6,"aqi":56,"pm10":24.3,"pm2_5":18.3,"no2":6.3,"co":255.0,"o3":89.0,"so2":7.0,"mosquito_risk":0,"arthritis_risk":5,"migraine_risk":4,"frizz_risk":1,"updated_at":"2026-06-25T09:22:14.520266+05:30"},{"city":"Tirupati","state":"Andhra Pradesh","latitude":13.6288,"longitude":79.4192,"temp":31.6,"humidity":53,"rain":0.0,"pressure":990.7,"uv_index":8.25,"wind_gusts":42.1,"aqi":40,"pm10":10.7,"pm2_5":6.5,"no2":3.3,"co":127.0,"o3":57.0,"so2":2.1,"mosquito_risk":0,"arthritis_risk":5,"migraine_risk":7,"frizz_risk":1,"updated_at":"2026-06-25T09:22:14.520273+05:30"},{"city":"Warangal","state":"Telangana","latitude":17.9689,"longitude":79.5941,"temp":30.0,"humidity":58,"rain":0.0,"pressure":977.3,"uv_index":5.5,"wind_gusts":35.6,"aqi":46,"pm10":29.9,"pm2_5":18.7,"no2":6.7,"co":205.0,"o3":61.0,"so2":5.4,"mosquito_risk":4,"arthritis_risk":5,"migraine_risk":3,"frizz_risk":1,"updated_at":"2026-06-25T09:22:14.520281+05:30"},{"city":"Nizamabad","state":"Telangana","latitude":18.6725,"longitude":78.0941,"temp":29.2,"humidity":59,"rain":0.0,"pressure":963.5,"uv_index":6.4,"wind_gusts":39.2,"aqi":52,"pm10":24.8,"pm2_5":15.8,"no2":10.4,"co":264.0,"o3":48.0,"so2":6.1,"mosquito_risk":4,"arthritis_risk":5,"migraine_risk":7,"frizz_risk":1,"updated_at":"2026-06-25T09:22:14.520287+05:30"},{"city":"Mysore","state":"Karnataka","latitude":12.2958,"longitude":76.6396,"temp":25.8,"humidity":70,"rain":0.0,"pressure":929.8,"uv_index":8.5,"wind_gusts":47.9,"aqi":20,"pm10":5.5,"pm2_5":3.6,"no2":4.3,"co":138.0,"o3":44.0,"so2":2.0,"mosquito_risk":7,"arthritis_risk":5,"migraine_risk":7,"frizz_risk":1,"updated_at":"2026-06-25T09:22:14.520293+05:30"},{"city":"Mangalore","state":"Karnataka","latitude":12.9141,"longitude":74.856,"temp":26.3,"humidity":86,"rain":0.1,"pressure":1009.0,"uv_index":8.65,"wind_gusts":32.4,"aqi":44,"pm10":12.8,"pm2_5":8.5,"no2":5.8,"co":191.0,"o3":42.0,"so2":2.8,"mosquito_risk":10,"arthritis_risk":0,"migraine_risk":4,"frizz_risk":1,"updated_at":"2026-06-25T09:22:14.520299+05:30"},{"city":"Hubli-Dharwad","state":"Karnataka","latitude":15.3647,"longitude":75.124,"temp":24.1,"humidity":82,"rain":0.0,"pressure":941.4,"uv_index":6.4,"wind_gusts":51.8,"aqi":21,"pm10":2.6,"pm2_5":2.1,"no2":4.5,"co":114.0,"o3":44.0,"so2":1.2,"mosquito_risk":3,"arthritis_risk":5,"migraine_risk":7,"frizz_risk":1,"updated_at":"2026-06-25T09:22:14.520306+05:30"},{"city":"Belgaum","state":"Karnataka","latitude":15.8497,"longitude":74.4977,"temp":24.4,"humidity":78,"rain":0.0,"pressure":926.3,"uv_index":2.35,"wind_gusts":47.9,"aqi":18,"pm10":2.2,"pm2_5":2.1,"no2":5.9,"co":148.0,"o3":40.0,"so2":1.8,"mosquito_risk":3,"arthritis_risk":5,"migraine_risk":3,"frizz_risk":1,"updated_at":"2026-06-25T09:22:17.799813+05:30"},{"city":"Coimbatore","state":"Tamil Nadu","latitude":11.0168,"longitude":76.9558,"temp":28.7,"humidity":63,"rain":0.0,"pressure":962.9,"uv_index":7.6,"wind_gusts":51.8,"aqi":25,"pm10":6.8,"pm2_5":5.2,"no2":5.0,"co":198.0,"o3":48.0,"so2":3.3,"mosquito_risk":7,"arthritis_risk":5,"migraine_risk":7,"frizz_risk":1,"updated_at":"2026-06-25T09:22:17.799843+05:30"},{"city":"Madurai","state":"Tamil Nadu","latitude":9.9252,"longitude":78.1198,"temp":32.8,"humidity":46,"rain":0.0,"pressure":993.6,"uv_index":8.65,"wind_gusts":33.8,"aqi":69,"pm10":15.9,"pm2_5":14.3,"no2":15.3,"co":157.0,"o3":54.0,"so2":8.8,"mosquito_risk":0,"arthritis_risk":5,"migraine_risk":7,"frizz_risk":1,"updated_at":"2026-06-25T09:22:17.799854+05:30"},{"city":"Trichy","state":"Tamil Nadu","latitude":10.7905,"longitude":78.7047,"temp":31.6,"humidity":54,"rain":0.0,"pressure":999.9,"uv_index":8.45,"wind_gusts":53.6,"aqi":40,"pm10":5.1,"pm2_5":4.3,"no2":3.7,"co":137.0,"o3":51.0,"so2":3.2,"mosquito_risk":0,"arthritis_risk":5,"migraine_risk":7,"frizz_risk":1,"updated_at":"2026-06-25T09:22:17.799862+05:30"},{"city":"Salem","state":"Tamil Nadu","latitude":11.6643,"longitude":78.146,"temp":28.4,"humidity":69,"rain":0.0,"pressure":978.5,"uv_index":8.85,"wind_gusts":37.4,"aqi":56,"pm10":13.7,"pm2_5":12.2,"no2":13.6,"co":219.0,"o3":41.0,"so2":13.7,"mosquito_risk":7,"arthritis_risk":5,"migraine_risk":7,"frizz_risk":1,"updated_at":"2026-06-25T09:22:17.799871+05:30"},{"city":"Tirunelveli","state":"Tamil Nadu","latitude":8.7139,"longitude":77.7567,"temp":32.8,"humidity":51,"rain":0.0,"pressure":1004.1,"uv_index":8.2,"wind_gusts":45.4,"aqi":19,"pm10":4.3,"pm2_5":3.6,"no2":4.0,"co":130.0,"o3":45.0,"so2":2.1,"mosquito_risk":0,"arthritis_risk":5,"migraine_risk":4,"frizz_risk":1,"updated_at":"2026-06-25T09:22:17.799879+05:30"},{"city":"Vellore","state":"Tamil Nadu","latitude":12.9165,"longitude":79.1325,"temp":30.3,"humidity":57,"rain":0.0,"pressure":984.5,"uv_index":8.4,"wind_gusts":43.6,"aqi":46,"pm10":9.2,"pm2_5":6.7,"no2":4.6,"co":149.0,"o3":54.0,"so2":4.0,"mosquito_risk":0,"arthritis_risk":5,"migraine_risk":7,"frizz_risk":1,"updated_at":"2026-06-25T09:22:17.799887+05:30"},{"city":"Erode","state":"Tamil Nadu","latitude":11.341,"longitude":77.7172,"temp":30.7,"humidity":56,"rain":0.0,"pressure":990.1,"uv_index":8.7,"wind_gusts":38.9,"aqi":45,"pm10":8.8,"pm2_5":7.9,"no2":8.8,"co":190.0,"o3":41.0,"so2":4.3,"mosquito_risk":0,"arthritis_risk":5,"migraine_risk":7,"frizz_risk":1,"updated_at":"2026-06-25T09:22:17.799894+05:30"},{"city":"Kochi","state":"Kerala","latitude":9.9312,"longitude":76.2673,"temp":28.6,"humidity":80,"rain":0.0,"pressure":1010.6,"uv_index":8.55,"wind_gusts":38.5,"aqi":38,"pm10":11.6,"pm2_5":9.9,"no2":10.8,"co":144.0,"o3":33.0,"so2":4.3,"mosquito_risk":7,"arthritis_risk":0,"migraine_risk":4,"frizz_risk":1,"updated_at":"2026-06-25T09:22:17.799901+05:30"},{"city":"Thiruvananthapuram","state":"Kerala","latitude":8.5241,"longitude":76.9366,"temp":28.0,"humidity":81,"rain":0.0,"pressure":1010.1,"uv_index":8.25,"wind_gusts":55.4,"aqi":28,"pm10":10.1,"pm2_5":6.9,"no2":3.8,"co":160.0,"o3":48.0,"so2":2.3,"mosquito_risk":7,"arthritis_risk":0,"migraine_risk":4,"frizz_risk":1,"updated_at":"2026-06-25T09:22:17.799907+05:30"},{"city":"Kozhikode","state":"Kerala","latitude":11.2588,"longitude":75.7804,"temp":25.6,"humidity":85,"rain":0.0,"pressure":1010.4,"uv_index":8.0,"wind_gusts":31.3,"aqi":24,"pm10":6.2,"pm2_5":3.8,"no2":1.6,"co":159.0,"o3":51.0,"so2":1.2,"mosquito_risk":7,"arthritis_risk":0,"migraine_risk":4,"frizz_risk":1,"updated_at":"2026-06-25T09:22:17.799913+05:30"},{"city":"Thrissur","state":"Kerala","latitude":10.5276,"longitude":76.2144,"temp":27.2,"humidity":85,"rain":0.1,"pressure":1009.3,"uv_index":8.2,"wind_gusts":35.6,"aqi":39,"pm10":13.3,"pm2_5":11.6,"no2":9.9,"co":189.0,"o3":33.0,"so2":3.9,"mosquito_risk":10,"arthritis_risk":0,"migraine_risk":4,"frizz_risk":1,"updated_at":"2026-06-25T09:22:17.799921+05:30"},{"city":"Kannur","state":"Kerala","latitude":11.8745,"longitude":75.3704,"temp":26.5,"humidity":87,"rain":0.0,"pressure":1009.5,"uv_index":8.45,"wind_gusts":35.3,"aqi":27,"pm10":9.2,"pm2_5":6.3,"no2":5.1,"co":164.0,"o3":46.0,"so2":2.4,"mosquito_risk":7,"arthritis_risk":0,"migraine_risk":4,"frizz_risk":1,"updated_at":"2026-06-25T09:22:17.799927+05:30"},{"city":"Patna","state":"Bihar","latitude":25.5941,"longitude":85.1376,"temp":34.4,"humidity":54,"rain":0.0,"pressure":997.1,"uv_index":8.85,"wind_gusts":22.0,"aqi":151,"pm10":38.0,"pm2_5":30.5,"no2":15.4,"co":353.0,"o3":92.0,"so2":24.2,"mosquito_risk":0,"arthritis_risk":5,"migraine_risk":7,"frizz_risk":1,"updated_at":"2026-06-25T09:22:17.799934+05:30"},{"city":"Gaya","state":"Bihar","latitude":24.7914,"longitude":85.0002,"temp":33.8,"humidity":54,"rain":0.0,"pressure":990.8,"uv_index":8.65,"wind_gusts":21.6,"aqi":92,"pm10":19.9,"pm2_5":17.9,"no2":6.8,"co":236.0,"o3":110.0,"so2":14.2,"mosquito_risk":0,"arthritis_risk":5,"migraine_risk":7,"frizz_risk":1,"updated_at":"2026-06-25T09:22:17.799941+05:30"},{"city":"Muzaffarpur","state":"Bihar","latitude":26.1209,"longitude":85.3647,"temp":32.0,"humidity":70,"rain":0.0,"pressure":997.3,"uv_index":8.85,"wind_gusts":29.2,"aqi":158,"pm10":71.5,"pm2_5":57.3,"no2":13.6,"co":623.0,"o3":127.0,"so2":21.4,"mosquito_risk":3,"arthritis_risk":5,"migraine_risk":7,"frizz_risk":1,"updated_at":"2026-06-25T09:22:17.799950+05:30"},{"city":"Bhagalpur","state":"Bihar","latitude":25.2425,"longitude":87.0117,"temp":34.2,"humidity":58,"rain":0.0,"pressure":998.1,"uv_index":8.85,"wind_gusts":25.9,"aqi":154,"pm10":77.3,"pm2_5":61.5,"no2":10.4,"co":541.0,"o3":144.0,"so2":21.6,"mosquito_risk":0,"arthritis_risk":5,"migraine_risk":7,"frizz_risk":1,"updated_at":"2026-06-25T09:22:17.799958+05:30"},{"city":"Ranchi","state":"Jharkhand","latitude":23.3441,"longitude":85.3096,"temp":29.8,"humidity":60,"rain":0.0,"pressure":936.4,"uv_index":9.25,"wind_gusts":22.7,"aqi":78,"pm10":23.2,"pm2_5":23.1,"no2":5.1,"co":211.0,"o3":114.0,"so2":20.6,"mosquito_risk":4,"arthritis_risk":5,"migraine_risk":7,"frizz_risk":1,"updated_at":"2026-06-25T09:22:17.799965+05:30"},{"city":"Jamshedpur","state":"Jharkhand","latitude":22.8046,"longitude":86.2029,"temp":32.4,"humidity":66,"rain":0.0,"pressure":988.2,"uv_index":9.05,"wind_gusts":37.1,"aqi":98,"pm10":27.5,"pm2_5":27.3,"no2":11.5,"co":414.0,"o3":108.0,"so2":40.7,"mosquito_risk":3,"arthritis_risk":5,"migraine_risk":7,"frizz_risk":1,"updated_at":"2026-06-25T09:22:17.799971+05:30"},{"city":"Dhanbad","state":"Jharkhand","latitude":23.7957,"longitude":86.4304,"temp":33.9,"humidity":54,"rain":0.0,"pressure":977.2,"uv_index":9.05,"wind_gusts":23.0,"aqi":144,"pm10":42.4,"pm2_5":42.3,"no2":31.6,"co":324.0,"o3":97.0,"so2":86.8,"mosquito_risk":0,"arthritis_risk":5,"migraine_risk":7,"frizz_risk":1,"updated_at":"2026-06-25T09:22:17.799977+05:30"},{"city":"Bokaro","state":"Jharkhand","latitude":23.6693,"longitude":86.1511,"temp":34.1,"humidity":52,"rain":0.0,"pressure":981.0,"uv_index":9.1,"wind_gusts":26.6,"aqi":118,"pm10":32.7,"pm2_5":32.5,"no2":19.0,"co":288.0,"o3":111.0,"so2":55.9,"mosquito_risk":0,"arthritis_risk":5,"migraine_risk":7,"frizz_risk":1,"updated_at":"2026-06-25T09:22:17.799983+05:30"},{"city":"Bhubaneswar","state":"Odisha","latitude":20.2961,"longitude":85.8245,"temp":28.6,"humidity":87,"rain":0.2,"pressure":999.8,"uv_index":9.05,"wind_gusts":35.3,"aqi":82,"pm10":22.0,"pm2_5":21.2,"no2":7.4,"co":335.0,"o3":118.0,"so2":15.7,"mosquito_risk":10,"arthritis_risk":5,"migraine_risk":7,"frizz_risk":1,"updated_at":"2026-06-25T09:22:17.799989+05:30"},{"city":"Cuttack","state":"Odisha","latitude":20.4625,"longitude":85.8828,"temp":29.0,"humidity":82,"rain":0.0,"pressure":1002.0,"uv_index":9.15,"wind_gusts":35.6,"aqi":82,"pm10":22.0,"pm2_5":21.2,"no2":7.4,"co":352.0,"o3":118.0,"so2":15.7,"mosquito_risk":7,"arthritis_risk":5,"migraine_risk":4,"frizz_risk":1,"updated_at":"2026-06-25T09:22:17.799996+05:30"},{"city":"Rourkela","state":"Odisha","latitude":22.2604,"longitude":84.8536,"temp":32.6,"humidity":59,"rain":0.0,"pressure":982.5,"uv_index":9.0,"wind_gusts":32.8,"aqi":90,"pm10":20.1,"pm2_5":20.0,"no2":11.0,"co":327.0,"o3":85.0,"so2":27.5,"mosquito_risk":0,"arthritis_risk":5,"migraine_risk":7,"frizz_risk":1,"updated_at":"2026-06-25T09:22:17.800002+05:30"},{"city":"Raipur","state":"Chhattisgarh","latitude":21.2514,"longitude":81.6296,"temp":32.7,"humidity":51,"rain":0.0,"pressure":972.5,"uv_index":8.9,"wind_gusts":31.0,"aqi":68,"pm10":23.1,"pm2_5":23.0,"no2":26.2,"co":528.0,"o3":66.0,"so2":61.2,"mosquito_risk":0,"arthritis_risk":5,"migraine_risk":7,"frizz_risk":1,"updated_at":"2026-06-25T09:22:17.800009+05:30"},{"city":"Bhilai","state":"Chhattisgarh","latitude":21.1938,"longitude":81.3509,"temp":31.7,"humidity":54,"rain":0.0,"pressure":973.0,"uv_index":8.9,"wind_gusts":34.2,"aqi":63,"pm10":21.0,"pm2_5":21.0,"no2":22.3,"co":813.0,"o3":71.0,"so2":57.1,"mosquito_risk":0,"arthritis_risk":5,"migraine_risk":7,"frizz_risk":1,"updated_at":"2026-06-25T09:22:17.800015+05:30"},{"city":"Guwahati","state":"Assam","latitude":26.1158,"longitude":91.7086,"temp":29.4,"humidity":76,"rain":0.0,"pressure":999.7,"uv_index":8.8,"wind_gusts":21.6,"aqi":65,"pm10":18.0,"pm2_5":12.8,"no2":2.7,"co":322.0,"o3":124.0,"so2":5.1,"mosquito_risk":7,"arthritis_risk":5,"migraine_risk":7,"frizz_risk":1,"updated_at":"2026-06-25T09:22:17.800022+05:30"},{"city":"Agartala","state":"Tripura","latitude":23.8315,"longitude":91.2868,"temp":28.1,"humidity":82,"rain":0.0,"pressure":1004.5,"uv_index":8.8,"wind_gusts":27.0,"aqi":76,"pm10":29.0,"pm2_5":21.5,"no2":6.7,"co":216.0,"o3":99.0,"so2":4.3,"mosquito_risk":7,"arthritis_risk":5,"migraine_risk":4,"frizz_risk":1,"updated_at":"2026-06-25T09:22:17.800028+05:30"},{"city":"Shillong","state":"Meghalaya","latitude":25.5788,"longitude":91.8933,"temp":25.6,"humidity":57,"rain":0.0,"pressure":858.0,"uv_index":7.05,"wind_gusts":17.6,"aqi":42,"pm10":13.6,"pm2_5":8.8,"no2":2.9,"co":279.0,"o3":120.0,"so2":5.9,"mosquito_risk":4,"arthritis_risk":5,"migraine_risk":7,"frizz_risk":1,"updated_at":"2026-06-25T09:22:17.800034+05:30"},{"city":"Imphal","state":"Manipur","latitude":24.817,"longitude":93.9368,"temp":27.0,"humidity":79,"rain":0.0,"pressure":922.0,"uv_index":8.9,"wind_gusts":22.7,"aqi":50,"pm10":13.2,"pm2_5":7.6,"no2":2.1,"co":233.0,"o3":104.0,"so2":3.1,"mosquito_risk":7,"arthritis_risk":5,"migraine_risk":7,"frizz_risk":1,"updated_at":"2026-06-25T09:22:17.800041+05:30"},{"city":"Aizawl","state":"Mizoram","latitude":23.7271,"longitude":92.7176,"temp":22.1,"humidity":90,"rain":0.0,"pressure":891.8,"uv_index":8.65,"wind_gusts":20.5,"aqi":36,"pm10":43.8,"pm2_5":16.8,"no2":1.4,"co":175.0,"o3":99.0,"so2":2.6,"mosquito_risk":3,"arthritis_risk":5,"migraine_risk":7,"frizz_risk":1,"updated_at":"2026-06-25T09:22:17.800047+05:30"},{"city":"Kohima","state":"Nagaland","latitude":25.6701,"longitude":94.1077,"temp":24.0,"humidity":72,"rain":0.0,"pressure":855.8,"uv_index":7.65,"wind_gusts":23.0,"aqi":32,"pm10":10.9,"pm2_5":6.0,"no2":1.0,"co":197.0,"o3":114.0,"so2":2.1,"mosquito_risk":3,"arthritis_risk":5,"migraine_risk":7,"frizz_risk":1,"updated_at":"2026-06-25T09:22:17.800053+05:30"},{"city":"Gangtok","state":"Sikkim","latitude":27.3314,"longitude":88.6138,"temp":23.3,"humidity":67,"rain":0.0,"pressure":838.9,"uv_index":8.5,"wind_gusts":37.4,"aqi":38,"pm10":11.3,"pm2_5":7.3,"no2":2.0,"co":316.0,"o3":133.0,"so2":3.1,"mosquito_risk":3,"arthritis_risk":5,"migraine_risk":7,"frizz_risk":1,"updated_at":"2026-06-25T09:22:17.800060+05:30"},{"city":"Siliguri","state":"West Bengal","latitude":26.7271,"longitude":88.3953,"temp":28.4,"humidity":77,"rain":0.0,"pressure":991.5,"uv_index":8.7,"wind_gusts":27.0,"aqi":92,"pm10":41.1,"pm2_5":29.6,"no2":4.9,"co":476.0,"o3":167.0,"so2":6.3,"mosquito_risk":7,"arthritis_risk":5,"migraine_risk":7,"frizz_risk":1,"updated_at":"2026-06-25T09:22:21.081550+05:30"},{"city":"Durgapur","state":"West Bengal","latitude":23.5204,"longitude":87.3119,"temp":33.1,"humidity":71,"rain":0.0,"pressure":991.9,"uv_index":8.8,"wind_gusts":50.8,"aqi":157,"pm10":53.1,"pm2_5":53.0,"no2":39.3,"co":824.0,"o3":86.0,"so2":97.5,"mosquito_risk":3,"arthritis_risk":5,"migraine_risk":7,"frizz_risk":1,"updated_at":"2026-06-25T09:22:21.081585+05:30"},{"city":"Asansol","state":"West Bengal","latitude":23.6739,"longitude":86.9524,"temp":33.7,"humidity":64,"rain":0.0,"pressure":990.5,"uv_index":8.85,"wind_gusts":34.9,"aqi":150,"pm10":45.6,"pm2_5":45.5,"no2":33.5,"co":727.0,"o3":91.0,"so2":86.1,"mosquito_risk":3,"arthritis_risk":5,"migraine_risk":7,"frizz_risk":1,"updated_at":"2026-06-25T09:22:21.081598+05:30"},{"city":"Pondicherry","state":"Puducherry","latitude":11.9139,"longitude":79.8145,"temp":31.9,"humidity":54,"rain":0.0,"pressure":1008.2,"uv_index":7.85,"wind_gusts":40.7,"aqi":63,"pm10":20.4,"pm2_5":17.6,"no2":12.5,"co":285.0,"o3":57.0,"so2":8.3,"mosquito_risk":0,"arthritis_risk":0,"migraine_risk":4,"frizz_risk":1,"updated_at":"2026-06-25T09:22:21.081607+05:30"},{"city":"Port Blair","state":"Andaman and Nicobar Islands","latitude":11.6234,"longitude":92.7265,"temp":29.1,"humidity":78,"rain":0.0,"pressure":1007.3,"uv_index":6.85,"wind_gusts":45.0,"aqi":30,"pm10":10.0,"pm2_5":6.1,"no2":0.4,"co":94.0,"o3":55.0,"so2":0.4,"mosquito_risk":7,"arthritis_risk":5,"migraine_risk":4,"frizz_risk":1,"updated_at":"2026-06-25T09:22:21.081615+05:30"},{"city":"Haridwar","state":"Uttarakhand","latitude":29.9457,"longitude":78.1642,"temp":32.6,"humidity":53,"rain":0.0,"pressure":971.5,"uv_index":7.05,"wind_gusts":25.2,"aqi":136,"pm10":58.8,"pm2_5":39.7,"no2":4.9,"co":301.0,"o3":180.0,"so2":11.6,"mosquito_risk":0,"arthritis_risk":5,"migraine_risk":7,"frizz_risk":1,"updated_at":"2026-06-25T09:22:21.081623+05:30"},{"city":"Rishikesh","state":"Uttarakhand","latitude":30.0869,"longitude":78.2676,"temp":31.6,"humidity":53,"rain":0.0,"pressure":964.5,"uv_index":7.15,"wind_gusts":19.4,"aqi":99,"pm10":45.2,"pm2_5":30.9,"no2":2.4,"co":289.0,"o3":173.0,"so2":8.2,"mosquito_risk":0,"arthritis_risk":5,"migraine_risk":7,"frizz_risk":1,"updated_at":"2026-06-25T09:22:21.081630+05:30"},{"city":"Nainital","state":"Uttarakhand","latitude":29.3919,"longitude":79.4542,"temp":22.1,"humidity":57,"rain":0.0,"pressure":808.0,"uv_index":6.2,"wind_gusts":29.2,"aqi":112,"pm10":90.8,"pm2_5":34.1,"no2":2.1,"co":251.0,"o3":162.0,"so2":5.1,"mosquito_risk":0,"arthritis_risk":5,"migraine_risk":7,"frizz_risk":0,"updated_at":"2026-06-25T09:22:21.081637+05:30"},{"city":"Mussoorie","state":"Uttarakhand","latitude":30.4599,"longitude":78.0664,"temp":21.1,"humidity":65,"rain":0.0,"pressure":805.0,"uv_index":6.35,"wind_gusts":30.6,"aqi":97,"pm10":31.1,"pm2_5":26.7,"no2":3.8,"co":272.0,"o3":169.0,"so2":6.9,"mosquito_risk":3,"arthritis_risk":5,"migraine_risk":7,"frizz_risk":0,"updated_at":"2026-06-25T09:22:21.081644+05:30"},{"city":"Dharamshala","state":"Himachal Pradesh","latitude":32.219,"longitude":76.3234,"temp":25.1,"humidity":61,"rain":0.0,"pressure":869.5,"uv_index":8.35,"wind_gusts":39.2,"aqi":45,"pm10":9.7,"pm2_5":7.2,"no2":2.1,"co":283.0,"o3":117.0,"so2":0.9,"mosquito_risk":7,"arthritis_risk":5,"migraine_risk":7,"frizz_risk":1,"updated_at":"2026-06-25T09:22:21.081651+05:30"},{"city":"Dalhousie","state":"Himachal Pradesh","latitude":32.5387,"longitude":75.971,"temp":22.5,"humidity":58,"rain":0.0,"pressure":806.6,"uv_index":8.4,"wind_gusts":30.2,"aqi":79,"pm10":25.2,"pm2_5":17.8,"no2":4.0,"co":289.0,"o3":145.0,"so2":2.3,"mosquito_risk":0,"arthritis_risk":5,"migraine_risk":7,"frizz_risk":0,"updated_at":"2026-06-25T09:22:21.081659+05:30"},{"city":"Patiala","state":"Punjab","latitude":30.3398,"longitude":76.3869,"temp":32.9,"humidity":55,"rain":0.0,"pressure":975.6,"uv_index":7.7,"wind_gusts":20.2,"aqi":255,"pm10":267.3,"pm2_5":87.5,"no2":11.6,"co":468.0,"o3":137.0,"so2":12.6,"mosquito_risk":0,"arthritis_risk":5,"migraine_risk":7,"frizz_risk":1,"updated_at":"2026-06-25T09:22:21.081666+05:30"},{"city":"Bhatinda","state":"Punjab","latitude":30.211,"longitude":74.9455,"temp":33.9,"humidity":47,"rain":0.0,"pressure":980.9,"uv_index":8.25,"wind_gusts":26.6,"aqi":156,"pm10":257.0,"pm2_5":75.4,"no2":15.4,"co":317.0,"o3":99.0,"so2":5.7,"mosquito_risk":0,"arthritis_risk":5,"migraine_risk":7,"frizz_risk":1,"updated_at":"2026-06-25T09:22:21.081672+05:30"},{"city":"Rohtak","state":"Haryana","latitude":28.8955,"longitude":76.6066,"temp":33.1,"humidity":52,"rain":0.0,"pressure":978.9,"uv_index":7.75,"wind_gusts":18.7,"aqi":226,"pm10":314.8,"pm2_5":100.4,"no2":33.3,"co":365.0,"o3":86.0,"so2":17.7,"mosquito_risk":0,"arthritis_risk":5,"migraine_risk":7,"frizz_risk":1,"updated_at":"2026-06-25T09:22:21.081679+05:30"},{"city":"Panipat","state":"Haryana","latitude":29.3909,"longitude":76.9635,"temp":32.8,"humidity":52,"rain":0.0,"pressure":977.6,"uv_index":6.25,"wind_gusts":19.8,"aqi":519,"pm10":543.9,"pm2_5":133.6,"no2":23.5,"co":605.0,"o3":123.0,"so2":20.3,"mosquito_risk":0,"arthritis_risk":5,"migraine_risk":7,"frizz_risk":1,"updated_at":"2026-06-25T09:22:21.081685+05:30"},{"city":"Mathura","state":"Uttar Pradesh","latitude":27.4924,"longitude":77.6737,"temp":33.1,"humidity":51,"rain":0.0,"pressure":983.4,"uv_index":8.0,"wind_gusts":17.6,"aqi":387,"pm10":234.7,"pm2_5":64.7,"no2":14.2,"co":315.0,"o3":66.0,"so2":5.8,"mosquito_risk":0,"arthritis_risk":5,"migraine_risk":7,"frizz_risk":1,"updated_at":"2026-06-25T09:22:21.081692+05:30"},{"city":"Vrindavan","state":"Uttar Pradesh","latitude":27.5823,"longitude":77.7027,"temp":33.0,"humidity":51,"rain":0.0,"pressure":983.8,"uv_index":8.0,"wind_gusts":16.9,"aqi":387,"pm10":234.7,"pm2_5":64.7,"no2":14.2,"co":317.0,"o3":66.0,"so2":5.8,"mosquito_risk":0,"arthritis_risk":5,"migraine_risk":7,"frizz_risk":1,"updated_at":"2026-06-25T09:22:21.081699+05:30"},{"city":"Ayodhya","state":"Uttar Pradesh","latitude":26.7922,"longitude":82.1998,"temp":35.3,"humidity":43,"rain":0.0,"pressure":991.8,"uv_index":8.4,"wind_gusts":26.6,"aqi":164,"pm10":218.4,"pm2_5":81.5,"no2":11.9,"co":449.0,"o3":127.0,"so2":13.8,"mosquito_risk":0,"arthritis_risk":5,"migraine_risk":10,"frizz_risk":1,"updated_at":"2026-06-25T09:22:21.081706+05:30"},{"city":"Ratlam","state":"Madhya Pradesh","latitude":23.3315,"longitude":75.0367,"temp":29.5,"humidity":64,"rain":0.0,"pressure":953.0,"uv_index":1.8,"wind_gusts":39.6,"aqi":74,"pm10":41.3,"pm2_5":21.7,"no2":5.0,"co":136.0,"o3":51.0,"so2":10.3,"mosquito_risk":7,"arthritis_risk":5,"migraine_risk":3,"frizz_risk":1,"updated_at":"2026-06-25T09:22:21.081713+05:30"},{"city":"Sagar","state":"Madhya Pradesh","latitude":23.8388,"longitude":78.7378,"temp":28.4,"humidity":67,"rain":0.0,"pressure":948.4,"uv_index":8.25,"wind_gusts":37.8,"aqi":72,"pm10":41.4,"pm2_5":23.0,"no2":3.7,"co":217.0,"o3":87.0,"so2":3.4,"mosquito_risk":7,"arthritis_risk":5,"migraine_risk":7,"frizz_risk":1,"updated_at":"2026-06-25T09:22:21.081719+05:30"},{"city":"Satna","state":"Madhya Pradesh","latitude":24.6005,"longitude":80.8322,"temp":31.7,"humidity":59,"rain":0.0,"pressure":969.3,"uv_index":8.35,"wind_gusts":26.3,"aqi":82,"pm10":39.2,"pm2_5":22.4,"no2":3.4,"co":207.0,"o3":98.0,"so2":4.9,"mosquito_risk":0,"arthritis_risk":5,"migraine_risk":7,"frizz_risk":1,"updated_at":"2026-06-25T09:22:21.081726+05:30"},{"city":"Akola","state":"Maharashtra","latitude":20.7002,"longitude":77.0082,"temp":28.0,"humidity":76,"rain":0.0,"pressure":973.7,"uv_index":2.75,"wind_gusts":38.5,"aqi":58,"pm10":30.7,"pm2_5":15.0,"no2":6.6,"co":156.0,"o3":68.0,"so2":7.6,"mosquito_risk":7,"arthritis_risk":5,"migraine_risk":3,"frizz_risk":1,"updated_at":"2026-06-25T09:22:21.081733+05:30"},{"city":"Amravati","state":"Maharashtra","latitude":20.9374,"longitude":77.7796,"temp":28.4,"humidity":67,"rain":0.0,"pressure":965.8,"uv_index":8.2,"wind_gusts":35.3,"aqi":56,"pm10":31.0,"pm2_5":16.2,"no2":7.8,"co":176.0,"o3":72.0,"so2":9.2,"mosquito_risk":7,"arthritis_risk":5,"migraine_risk":7,"frizz_risk":1,"updated_at":"2026-06-25T09:22:21.081741+05:30"},{"city":"Latur","state":"Maharashtra","latitude":18.4088,"longitude":76.5604,"temp":27.8,"humidity":63,"rain":0.0,"pressure":939.1,"uv_index":4.7,"wind_gusts":46.8,"aqi":37,"pm10":25.9,"pm2_5":9.6,"no2":4.6,"co":145.0,"o3":50.0,"so2":4.0,"mosquito_risk":7,"arthritis_risk":5,"migraine_risk":3,"frizz_risk":1,"updated_at":"2026-06-25T09:22:21.081748+05:30"},{"city":"Nanded","state":"Maharashtra","latitude":19.1383,"longitude":77.3091,"temp":27.8,"humidity":69,"rain":0.0,"pressure":967.4,"uv_index":8.3,"wind_gusts":41.0,"aqi":53,"pm10":34.1,"pm2_5":18.7,"no2":7.0,"co":171.0,"o3":62.0,"so2":9.7,"mosquito_risk":7,"arthritis_risk":5,"migraine_risk":7,"frizz_risk":1,"updated_at":"2026-06-25T09:22:21.081755+05:30"},{"city":"Gulbarga","state":"Karnataka","latitude":17.3297,"longitude":76.8343,"temp":28.0,"humidity":65,"rain":0.0,"pressure":958.2,"uv_index":5.7,"wind_gusts":43.6,"aqi":18,"pm10":9.1,"pm2_5":4.7,"no2":4.9,"co":137.0,"o3":47.0,"so2":3.0,"mosquito_risk":7,"arthritis_risk":5,"migraine_risk":3,"frizz_risk":1,"updated_at":"2026-06-25T09:22:21.081762+05:30"},{"city":"Bidar","state":"Karnataka","latitude":17.9104,"longitude":77.5199,"temp":27.7,"humidity":62,"rain":0.0,"pressure":934.6,"uv_index":7.3,"wind_gusts":42.8,"aqi":32,"pm10":20.2,"pm2_5":8.8,"no2":6.7,"co":162.0,"o3":47.0,"so2":4.1,"mosquito_risk":7,"arthritis_risk":5,"migraine_risk":7,"frizz_risk":1,"updated_at":"2026-06-25T09:22:21.081768+05:30"},{"city":"Hospet","state":"Karnataka","latitude":15.2689,"longitude":76.3909,"temp":26.8,"humidity":70,"rain":0.0,"pressure":956.4,"uv_index":8.1,"wind_gusts":48.2,"aqi":20,"pm10":3.9,"pm2_5":2.4,"no2":2.5,"co":116.0,"o3":49.0,"so2":1.6,"mosquito_risk":7,"arthritis_risk":5,"migraine_risk":7,"frizz_risk":1,"updated_at":"2026-06-25T09:22:21.081774+05:30"},{"city":"Tirupur","state":"Tamil Nadu","latitude":11.1085,"longitude":77.3411,"temp":30.2,"humidity":57,"rain":0.0,"pressure":976.3,"uv_index":8.65,"wind_gusts":50.8,"aqi":51,"pm10":11.2,"pm2_5":9.9,"no2":9.5,"co":158.0,"o3":43.0,"so2":5.4,"mosquito_risk":0,"arthritis_risk":5,"migraine_risk":7,"frizz_risk":1,"updated_at":"2026-06-25T09:22:21.081780+05:30"},{"city":"Alappuzha","state":"Kerala","latitude":9.4981,"longitude":76.3388,"temp":28.3,"humidity":79,"rain":0.0,"pressure":1010.7,"uv_index":8.5,"wind_gusts":47.9,"aqi":33,"pm10":11.4,"pm2_5":8.6,"no2":6.9,"co":87.0,"o3":47.0,"so2":3.3,"mosquito_risk":7,"arthritis_risk":0,"migraine_risk":4,"frizz_risk":1,"updated_at":"2026-06-25T09:22:21.081787+05:30"},{"city":"Munnar","state":"Kerala","latitude":10.0889,"longitude":77.0595,"temp":19.3,"humidity":84,"rain":0.0,"pressure":858.7,"uv_index":8.45,"wind_gusts":40.3,"aqi":16,"pm10":3.2,"pm2_5":2.8,"no2":2.8,"co":96.0,"o3":49.0,"so2":1.3,"mosquito_risk":3,"arthritis_risk":10,"migraine_risk":7,"frizz_risk":1,"updated_at":"2026-06-25T09:22:21.081794+05:30"},{"city":"Silchar","state":"Assam","latitude":24.8333,"longitude":92.7789,"temp":29.5,"humidity":76,"rain":0.1,"pressure":1003.3,"uv_index":8.75,"wind_gusts":20.2,"aqi":61,"pm10":37.4,"pm2_5":19.1,"no2":2.5,"co":269.0,"o3":108.0,"so2":4.3,"mosquito_risk":10,"arthritis_risk":5,"migraine_risk":4,"frizz_risk":1,"updated_at":"2026-06-25T09:22:21.081801+05:30"},{"city":"Dibrugarh","state":"Assam","latitude":27.4728,"longitude":94.912,"temp":30.8,"humidity":75,"rain":0.0,"pressure":993.0,"uv_index":8.7,"wind_gusts":20.9,"aqi":53,"pm10":10.4,"pm2_5":8.4,"no2":2.0,"co":263.0,"o3":123.0,"so2":1.6,"mosquito_risk":3,"arthritis_risk":5,"migraine_risk":7,"frizz_risk":1,"updated_at":"2026-06-25T09:22:21.081807+05:30"}]