[{"city":"Delhi","state":"Delhi","latitude":28.6139,"longitude":77.209,"temp":20.2,"humidity":69,"rain":0.0,"pressure":983.8,"uv_index":5.55,"wind_gusts":33.5,"aqi":394,"pm10":542.0,"pm2_5":102.2,"mosquito_risk":3,"arthritis_risk":5,"migraine_risk":3,"frizz_risk":0,"updated_at":"2026-03-14T01:03:11.836136+05:30"},{"city":"Mumbai","state":"Maharashtra","latitude":19.076,"longitude":72.8777,"temp":29.1,"humidity":69,"rain":0.0,"pressure":1008.0,"uv_index":7.7,"wind_gusts":20.5,"aqi":139,"pm10":39.1,"pm2_5":29.5,"mosquito_risk":7,"arthritis_risk":0,"migraine_risk":4,"frizz_risk":1,"updated_at":"2026-03-14T01:03:11.836201+05:30"},{"city":"Bangalore","state":"Karnataka","latitude":12.9716,"longitude":77.5946,"temp":22.2,"humidity":67,"rain":0.0,"pressure":912.2,"uv_index":9.3,"wind_gusts":24.1,"aqi":97,"pm10":39.6,"pm2_5":35.7,"mosquito_risk":3,"arthritis_risk":5,"migraine_risk":7,"frizz_risk":0,"updated_at":"2026-03-14T01:03:11.836219+05:30"},{"city":"Hyderabad","state":"Telangana","latitude":17.385,"longitude":78.4867,"temp":23.9,"humidity":63,"rain":0.0,"pressure":953.8,"uv_index":8.7,"wind_gusts":32.8,"aqi":99,"pm10":32.9,"pm2_5":27.9,"mosquito_risk":3,"arthritis_risk":5,"migraine_risk":7,"frizz_risk":1,"updated_at":"2026-03-14T01:03:11.836229+05:30"},{"city":"Chennai","state":"Tamil Nadu","latitude":13.0827,"longitude":80.2707,"temp":25.8,"humidity":85,"rain":0.0,"pressure":1008.8,"uv_index":9.05,"wind_gusts":30.2,"aqi":60,"pm10":20.7,"pm2_5":16.4,"mosquito_risk":7,"arthritis_risk":0,"migraine_risk":4,"frizz_risk":1,"updated_at":"2026-03-14T01:03:11.836239+05:30"},{"city":"Kolkata","state":"West Bengal","latitude":22.5726,"longitude":88.3639,"temp":25.6,"humidity":89,"rain":0.0,"pressure":1006.3,"uv_index":8.05,"wind_gusts":33.1,"aqi":109,"pm10":23.7,"pm2_5":19.5,"mosquito_risk":7,"arthritis_risk":5,"migraine_risk":4,"frizz_risk":1,"updated_at":"2026-03-14T01:03:11.836248+05:30"},{"city":"Pune","state":"Maharashtra","latitude":18.5204,"longitude":73.8567,"temp":23.1,"humidity":65,"rain":0.0,"pressure":948.1,"uv_index":8.25,"wind_gusts":43.9,"aqi":147,"pm10":54.0,"pm2_5":52.0,"mosquito_risk":3,"arthritis_risk":5,"migraine_risk":7,"frizz_risk":1,"updated_at":"2026-03-14T01:03:11.836261+05:30"},{"city":"Ahmedabad","state":"Gujarat","latitude":23.0225,"longitude":72.5714,"temp":25.1,"humidity":50,"rain":0.0,"pressure":1002.5,"uv_index":7.5,"wind_gusts":22.3,"aqi":109,"pm10":50.1,"pm2_5":36.1,"mosquito_risk":4,"arthritis_risk":5,"migraine_risk":4,"frizz_risk":0,"updated_at":"2026-03-14T01:03:11.836269+05:30"},{"city":"Jaipur","state":"Rajasthan","latitude":26.9124,"longitude":75.7873,"temp":23.7,"humidity":35,"rain":0.0,"pressure":960.3,"uv_index":6.75,"wind_gusts":26.6,"aqi":122,"pm10":289.6,"pm2_5":54.6,"mosquito_risk":0,"arthritis_risk":5,"migraine_risk":7,"frizz_risk":0,"updated_at":"2026-03-14T01:03:11.836277+05:30"},{"city":"Lucknow","state":"Uttar Pradesh","latitude":26.8467,"longitude":80.9462,"temp":22.8,"humidity":64,"rain":0.0,"pressure":993.4,"uv_index":6.7,"wind_gusts":27.0,"aqi":156,"pm10":289.6,"pm2_5":72.9,"mosquito_risk":3,"arthritis_risk":5,"migraine_risk":7,"frizz_risk":0,"updated_at":"2026-03-14T01:03:11.836286+05:30"},{"city":"Kanpur","state":"Uttar Pradesh","latitude":26.4499,"longitude":80.3319,"temp":22.2,"humidity":72,"rain":0.0,"pressure":991.9,"uv_index":6.7,"wind_gusts":21.2,"aqi":214,"pm10":516.0,"pm2_5":95.5,"mosquito_risk":3,"arthritis_risk":5,"migraine_risk":7,"frizz_risk":1,"updated_at":"2026-03-14T01:03:11.836293+05:30"},{"city":"Chandigarh","state":"Chandigarh","latitude":30.7333,"longitude":76.7794,"temp":18.4,"humidity":76,"rain":0.0,"pressure":969.1,"uv_index":4.8,"wind_gusts":21.2,"aqi":75,"pm10":28.2,"pm2_5":25.6,"mosquito_risk":3,"arthritis_risk":5,"migraine_risk":3,"frizz_risk":0,"updated_at":"2026-03-14T01:03:11.836301+05:30"},{"city":"Srinagar","state":"Jammu and Kashmir","latitude":34.0837,"longitude":74.7973,"temp":6.5,"humidity":81,"rain":0.0,"pressure":839.4,"uv_index":6.6,"wind_gusts":12.6,"aqi":84,"pm10":68.9,"pm2_5":53.9,"mosquito_risk":3,"arthritis_risk":10,"migraine_risk":7,"frizz_risk":0,"updated_at":"2026-03-14T01:03:11.836309+05:30"},{"city":"Jammu","state":"Jammu and Kashmir","latitude":32.7266,"longitude":74.857,"temp":17.8,"humidity":68,"rain":0.0,"pressure":973.5,"uv_index":6.35,"wind_gusts":16.2,"aqi":69,"pm10":40.3,"pm2_5":37.4,"mosquito_risk":3,"arthritis_risk":5,"migraine_risk":7,"frizz_risk":0,"updated_at":"2026-03-14T01:03:11.836316+05:30"},{"city":"Amritsar","state":"Punjab","latitude":31.634,"longitude":74.8723,"temp":18.3,"humidity":69,"rain":0.0,"pressure":982.0,"uv_index":6.15,"wind_gusts":17.6,"aqi":84,"pm10":38.9,"pm2_5":31.9,"mosquito_risk":3,"arthritis_risk":5,"migraine_risk":7,"frizz_risk":0,"updated_at":"2026-03-14T01:03:11.836324+05:30"},{"city":"Ludhiana","state":"Punjab","latitude":30.901,"longitude":75.8573,"temp":18.8,"humidity":67,"rain":0.0,"pressure":980.0,"uv_index":5.85,"wind_gusts":21.6,"aqi":95,"pm10":34.0,"pm2_5":28.9,"mosquito_risk":3,"arthritis_risk":5,"migraine_risk":3,"frizz_risk":0,"updated_at":"2026-03-14T01:03:11.836330+05:30"},{"city":"Jalandhar","state":"Punjab","latitude":31.326,"longitude":75.5762,"temp":18.7,"humidity":65,"rain":0.0,"pressure":981.1,"uv_index":6.15,"wind_gusts":17.6,"aqi":94,"pm10":47.1,"pm2_5":34.1,"mosquito_risk":3,"arthritis_risk":5,"migraine_risk":7,"frizz_risk":0,"updated_at":"2026-03-14T01:03:11.836344+05:30"},{"city":"Dehradun","state":"Uttarakhand","latitude":30.6284,"longitude":78.0322,"temp":13.3,"humidity":64,"rain":0.0,"pressure":828.9,"uv_index":5.75,"wind_gusts":24.1,"aqi":49,"pm10":38.4,"pm2_5":22.7,"mosquito_risk":3,"arthritis_risk":5,"migraine_risk":3,"frizz_risk":0,"updated_at":"2026-03-14T01:03:11.836351+05:30"},{"city":"Shimla","state":"Himachal Pradesh","latitude":31.1048,"longitude":77.1734,"temp":10.7,"humidity":66,"rain":0.0,"pressure":782.2,"uv_index":5.55,"wind_gusts":27.7,"aqi":53,"pm10":34.3,"pm2_5":24.2,"mosquito_risk":3,"arthritis_risk":5,"migraine_risk":3,"frizz_risk":0,"updated_at":"2026-03-14T01:03:11.836358+05:30"},{"city":"Manali","state":"Himachal Pradesh","latitude":32.2396,"longitude":77.1887,"temp":12.5,"humidity":29,"rain":0.0,"pressure":818.9,"uv_index":6.5,"wind_gusts":37.4,"aqi":44,"pm10":33.4,"pm2_5":17.3,"mosquito_risk":0,"arthritis_risk":5,"migraine_risk":7,"frizz_risk":1,"updated_at":"2026-03-14T01:03:11.836365+05:30"},{"city":"Gurgaon","state":"Haryana","latitude":28.4595,"longitude":77.0266,"temp":17.6,"humidity":80,"rain":0.0,"pressure":982.2,"uv_index":6.0,"wind_gusts":31.3,"aqi":1249,"pm10":1266.6,"pm2_5":173.2,"mosquito_risk":3,"arthritis_risk":5,"migraine_risk":3,"frizz_risk":0,"updated_at":"2026-03-14T01:03:11.836372+05:30"},{"city":"Noida","state":"Uttar Pradesh","latitude":28.5355,"longitude":77.391,"temp":20.2,"humidity":70,"rain":0.0,"pressure":985.2,"uv_index":5.95,"wind_gusts":34.2,"aqi":1249,"pm10":1266.6,"pm2_5":173.2,"mosquito_risk":3,"arthritis_risk":5,"migraine_risk":3,"frizz_risk":0,"updated_at":"2026-03-14T01:03:11.836379+05:30"},{"city":"Ghaziabad","state":"Uttar Pradesh","latitude":28.6692,"longitude":77.4538,"temp":19.3,"humidity":73,"rain":0.0,"pressure":983.3,"uv_index":5.85,"wind_gusts":28.8,"aqi":197,"pm10":468.5,"pm2_5":92.0,"mosquito_risk":3,"arthritis_risk":5,"migraine_risk":3,"frizz_risk":0,"updated_at":"2026-03-14T01:03:11.836386+05:30"},{"city":"Faridabad","state":"Haryana","latitude":28.4089,"longitude":77.3178,"temp":19.1,"humidity":70,"rain":0.0,"pressure":984.4,"uv_index":6.2,"wind_gusts":33.8,"aqi":1249,"pm10":1266.6,"pm2_5":173.2,"mosquito_risk":3,"arthritis_risk":5,"migraine_risk":7,"frizz_risk":0,"updated_at":"2026-03-14T01:03:11.836395+05:30"},{"city":"Meerut","state":"Uttar Pradesh","latitude":28.9845,"longitude":77.7064,"temp":17.9,"humidity":78,"rain":0.0,"pressure":981.9,"uv_index":5.65,"wind_gusts":29.2,"aqi":197,"pm10":468.5,"pm2_5":92.0,"mosquito_risk":3,"arthritis_risk":5,"migraine_risk":3,"frizz_risk":0,"updated_at":"2026-03-14T01:03:11.836402+05:30"},{"city":"Agra","state":"Uttar Pradesh","latitude":27.1767,"longitude":78.0081,"temp":20.5,"humidity":56,"rain":0.0,"pressure":988.4,"uv_index":6.2,"wind_gusts":24.1,"aqi":624,"pm10":1229.3,"pm2_5":164.8,"mosquito_risk":0,"arthritis_risk":5,"migraine_risk":7,"frizz_risk":0,"updated_at":"2026-03-14T01:03:11.836410+05:30"},{"city":"Varanasi","state":"Uttar Pradesh","latitude":25.3176,"longitude":82.9739,"temp":20.8,"humidity":72,"rain":0.0,"pressure":997.4,"uv_index":7.1,"wind_gusts":24.1,"aqi":132,"pm10":141.6,"pm2_5":62.4,"mosquito_risk":3,"arthritis_risk":5,"migraine_risk":7,"frizz_risk":0,"updated_at":"2026-03-14T01:03:11.836422+05:30"},{"city":"Prayagraj","state":"Uttar Pradesh","latitude":25.4358,"longitude":81.8463,"temp":22.6,"humidity":64,"rain":0.0,"pressure":996.0,"uv_index":7.2,"wind_gusts":16.2,"aqi":150,"pm10":144.8,"pm2_5":61.2,"mosquito_risk":3,"arthritis_risk":5,"migraine_risk":7,"frizz_risk":0,"updated_at":"2026-03-14T01:03:11.836429+05:30"},{"city":"Gorakhpur","state":"Uttar Pradesh","latitude":26.7606,"longitude":83.3732,"temp":21.3,"humidity":68,"rain":0.0,"pressure":996.3,"uv_index":6.45,"wind_gusts":23.0,"aqi":176,"pm10":67.3,"pm2_5":41.7,"mosquito_risk":3,"arthritis_risk":5,"migraine_risk":7,"frizz_risk":0,"updated_at":"2026-03-14T01:03:11.836436+05:30"},{"city":"Bareilly","state":"Uttar Pradesh","latitude":28.367,"longitude":79.4304,"temp":19.1,"humidity":73,"rain":0.0,"pressure":986.8,"uv_index":6.1,"wind_gusts":24.8,"aqi":135,"pm10":140.6,"pm2_5":48.0,"mosquito_risk":3,"arthritis_risk":5,"migraine_risk":7,"frizz_risk":0,"updated_at":"2026-03-14T01:03:11.836442+05:30"},{"city":"Aligarh","state":"Uttar Pradesh","latitude":27.8974,"longitude":78.088,"temp":17.3,"humidity":71,"rain":0.0,"pressure":986.0,"uv_index":6.25,"wind_gusts":38.2,"aqi":620,"pm10":1009.6,"pm2_5":156.0,"mosquito_risk":3,"arthritis_risk":5,"migraine_risk":7,"frizz_risk":0,"updated_at":"2026-03-14T01:03:11.836450+05:30"},{"city":"Moradabad","state":"Uttar Pradesh","latitude":28.8386,"longitude":78.7733,"temp":19.0,"humidity":70,"rain":0.0,"pressure":983.7,"uv_index":6.0,"wind_gusts":26.6,"aqi":140,"pm10":206.3,"pm2_5":62.2,"mosquito_risk":3,"arthritis_risk":5,"migraine_risk":3,"frizz_risk":0,"updated_at":"2026-03-14T01:03:11.836456+05:30"},{"city":"Saharanpur","state":"Uttar Pradesh","latitude":29.9637,"longitude":77.546,"temp":18.0,"humidity":79,"rain":0.0,"pressure":976.0,"uv_index":5.15,"wind_gusts":23.0,"aqi":125,"pm10":99.9,"pm2_5":52.5,"mosquito_risk":3,"arthritis_risk":5,"migraine_risk":3,"frizz_risk":0,"updated_at":"2026-03-14T01:03:11.836462+05:30"},{"city":"Jhansi","state":"Uttar Pradesh","latitude":25.4484,"longitude":78.5685,"temp":22.8,"humidity":63,"rain":0.0,"pressure":978.2,"uv_index":7.15,"wind_gusts":20.2,"aqi":77,"pm10":102.9,"pm2_5":42.7,"mosquito_risk":3,"arthritis_risk":5,"migraine_risk":7,"frizz_risk":0,"updated_at":"2026-03-14T01:03:15.178219+05:30"},{"city":"Surat","state":"Gujarat","latitude":21.1702,"longitude":72.8311,"temp":25.1,"humidity":79,"rain":0.0,"pressure":1006.6,"uv_index":7.35,"wind_gusts":21.2,"aqi":143,"pm10":44.7,"pm2_5":37.4,"mosquito_risk":7,"arthritis_risk":5,"migraine_risk":4,"frizz_risk":1,"updated_at":"2026-03-14T01:03:15.178254+05:30"},{"city":"Vadodara","state":"Gujarat","latitude":22.3072,"longitude":73.1812,"temp":26.1,"humidity":53,"rain":0.0,"pressure":1004.3,"uv_index":7.55,"wind_gusts":26.3,"aqi":114,"pm10":59.8,"pm2_5":52.2,"mosquito_risk":4,"arthritis_risk":5,"migraine_risk":4,"frizz_risk":0,"updated_at":"2026-03-14T01:03:15.178265+05:30"},{"city":"Rajkot","state":"Gujarat","latitude":22.3039,"longitude":70.8022,"temp":23.9,"humidity":51,"rain":0.0,"pressure":995.4,"uv_index":7.35,"wind_gusts":30.2,"aqi":84,"pm10":127.1,"pm2_5":36.3,"mosquito_risk":0,"arthritis_risk":5,"migraine_risk":7,"frizz_risk":0,"updated_at":"2026-03-14T01:03:15.178273+05:30"},{"city":"Thane","state":"Maharashtra","latitude":19.2183,"longitude":72.9781,"temp":27.2,"humidity":65,"rain":0.0,"pressure":1007.5,"uv_index":7.65,"wind_gusts":33.1,"aqi":139,"pm10":39.1,"pm2_5":29.5,"mosquito_risk":7,"arthritis_risk":5,"migraine_risk":4,"frizz_risk":1,"updated_at":"2026-03-14T01:03:15.178281+05:30"},{"city":"Nagpur","state":"Maharashtra","latitude":21.1458,"longitude":79.0882,"temp":25.2,"humidity":52,"rain":0.0,"pressure":972.7,"uv_index":8.1,"wind_gusts":21.6,"aqi":88,"pm10":47.4,"pm2_5":44.6,"mosquito_risk":4,"arthritis_risk":5,"migraine_risk":7,"frizz_risk":0,"updated_at":"2026-03-14T01:03:15.178288+05:30"},{"city":"Nashik","state":"Maharashtra","latitude":19.9975,"longitude":73.7898,"temp":24.1,"humidity":51,"rain":0.0,"pressure":945.6,"uv_index":7.85,"wind_gusts":37.1,"aqi":114,"pm10":35.0,"pm2_5":31.7,"mosquito_risk":0,"arthritis_risk":5,"migraine_risk":7,"frizz_risk":0,"updated_at":"2026-03-14T01:03:15.178296+05:30"},{"city":"Aurangabad","state":"Maharashtra","latitude":19.8762,"longitude":75.3433,"temp":24.2,"humidity":47,"rain":0.0,"pressure":943.5,"uv_index":8.4,"wind_gusts":24.8,"aqi":90,"pm10":39.0,"pm2_5":37.3,"mosquito_risk":0,"arthritis_risk":5,"migraine_risk":7,"frizz_risk":0,"updated_at":"2026-03-14T01:03:15.178303+05:30"},{"city":"Solapur","state":"Maharashtra","latitude":17.6599,"longitude":75.9064,"temp":25.9,"humidity":55,"rain":0.0,"pressure":956.4,"uv_index":8.6,"wind_gusts":18.4,"aqi":96,"pm10":41.8,"pm2_5":38.0,"mosquito_risk":4,"arthritis_risk":5,"migraine_risk":7,"frizz_risk":1,"updated_at":"2026-03-14T01:03:15.178311+05:30"},{"city":"Kolhapur","state":"Maharashtra","latitude":16.705,"longitude":74.2433,"temp":21.8,"humidity":95,"rain":0.0,"pressure":947.9,"uv_index":8.7,"wind_gusts":39.6,"aqi":147,"pm10":62.4,"pm2_5":61.0,"mosquito_risk":3,"arthritis_risk":5,"migraine_risk":7,"frizz_risk":1,"updated_at":"2026-03-14T01:03:15.178318+05:30"},{"city":"Goa","state":"Goa","latitude":15.2993,"longitude":74.124,"temp":27.5,"humidity":84,"rain":0.0,"pressure":998.6,"uv_index":8.75,"wind_gusts":33.5,"aqi":131,"pm10":61.5,"pm2_5":56.8,"mosquito_risk":7,"arthritis_risk":5,"migraine_risk":7,"frizz_risk":1,"updated_at":"2026-03-14T01:03:15.178326+05:30"},{"city":"Jodhpur","state":"Rajasthan","latitude":26.2389,"longitude":73.0243,"temp":26.7,"humidity":41,"rain":0.0,"pressure":982.8,"uv_index":7.15,"wind_gusts":34.9,"aqi":90,"pm10":131.8,"pm2_5":35.6,"mosquito_risk":4,"arthritis_risk":5,"migraine_risk":7,"frizz_risk":0,"updated_at":"2026-03-14T01:03:15.178333+05:30"},{"city":"Udaipur","state":"Rajasthan","latitude":24.5854,"longitude":73.7125,"temp":22.5,"humidity":34,"rain":0.0,"pressure":946.8,"uv_index":7.85,"wind_gusts":32.8,"aqi":71,"pm10":46.1,"pm2_5":22.3,"mosquito_risk":0,"arthritis_risk":5,"migraine_risk":7,"frizz_risk":0,"updated_at":"2026-03-14T01:03:15.178340+05:30"},{"city":"Kota","state":"Rajasthan","latitude":25.2138,"longitude":75.8648,"temp":23.0,"humidity":53,"rain":0.0,"pressure":978.3,"uv_index":6.75,"wind_gusts":22.0,"aqi":64,"pm10":41.6,"pm2_5":21.2,"mosquito_risk":0,"arthritis_risk":5,"migraine_risk":7,"frizz_risk":0,"updated_at":"2026-03-14T01:03:15.178348+05:30"},{"city":"Bikaner","state":"Rajasthan","latitude":28.0229,"longitude":73.3119,"temp":24.8,"humidity":37,"rain":0.0,"pressure":982.4,"uv_index":6.5,"wind_gusts":22.3,"aqi":74,"pm10":21.9,"pm2_5":15.1,"mosquito_risk":0,"arthritis_risk":5,"migraine_risk":7,"frizz_risk":0,"updated_at":"2026-03-14T01:03:15.178355+05:30"},{"city":"Ajmer","state":"Rajasthan","latitude":26.4499,"longitude":74.6399,"temp":23.9,"humidity":31,"rain":0.0,"pressure":954.9,"uv_index":7.25,"wind_gusts":33.8,"aqi":78,"pm10":62.9,"pm2_5":28.6,"mosquito_risk":0,"arthritis_risk":5,"migraine_risk":7,"frizz_risk":0,"updated_at":"2026-03-14T01:03:15.178362+05:30"},{"city":"Gwalior","state":"Madhya Pradesh","latitude":26.2183,"longitude":78.1828,"temp":25.0,"humidity":62,"rain":0.0,"pressure":983.8,"uv_index":6.5,"wind_gusts":18.7,"aqi":110,"pm10":303.6,"pm2_5":65.0,"mosquito_risk":7,"arthritis_risk":5,"migraine_risk":7,"frizz_risk":1,"updated_at":"2026-03-14T01:03:15.178369+05:30"},{"city":"Indore","state":"Madhya Pradesh","latitude":22.7196,"longitude":75.8577,"temp":21.4,"humidity":44,"rain":0.0,"pressure":947.7,"uv_index":7.8,"wind_gusts":31.0,"aqi":63,"pm10":42.3,"pm2_5":38.8,"mosquito_risk":0,"arthritis_risk":5,"migraine_risk":7,"frizz_risk":0,"updated_at":"2026-03-14T01:03:15.178376+05:30"},{"city":"Bhopal","state":"Madhya Pradesh","latitude":23.2599,"longitude":77.4126,"temp":20.9,"humidity":36,"rain":0.0,"pressure":953.4,"uv_index":7.65,"wind_gusts":29.5,"aqi":69,"pm10":26.6,"pm2_5":25.8,"mosquito_risk":0,"arthritis_risk":5,"migraine_risk":7,"frizz_risk":0,"updated_at":"2026-03-14T01:03:15.178383+05:30"},{"city":"Jabalpur","state":"Madhya Pradesh","latitude":23.1815,"longitude":79.9864,"temp":23.3,"humidity":49,"rain":0.0,"pressure":960.9,"uv_index":7.8,"wind_gusts":24.1,"aqi":80,"pm10":26.3,"pm2_5":25.9,"mosquito_risk":0,"arthritis_risk":5,"migraine_risk":7,"frizz_risk":0,"updated_at":"2026-03-14T01:03:15.178391+05:30"},{"city":"Ujjain","state":"Madhya Pradesh","latitude":23.1765,"longitude":75.7885,"temp":21.6,"humidity":47,"rain":0.0,"pressure":953.5,"uv_index":7.7,"wind_gusts":31.0,"aqi":63,"pm10":32.9,"pm2_5":30.2,"mosquito_risk":0,"arthritis_risk":5,"migraine_risk":7,"frizz_risk":0,"updated_at":"2026-03-14T01:03:15.178399+05:30"},{"city":"Visakhapatnam","state":"Andhra Pradesh","latitude":17.6868,"longitude":83.2185,"temp":25.5,"humidity":87,"rain":0.0,"pressure":1005.2,"uv_index":8.65,"wind_gusts":42.8,"aqi":79,"pm10":19.6,"pm2_5":16.4,"mosquito_risk":7,"arthritis_risk":5,"migraine_risk":4,"frizz_risk":1,"updated_at":"2026-03-14T01:03:15.178406+05:30"},{"city":"Vijayawada","state":"Andhra Pradesh","latitude":16.5062,"longitude":80.648,"temp":24.7,"humidity":92,"rain":0.0,"pressure":1004.1,"uv_index":8.75,"wind_gusts":29.2,"aqi":83,"pm10":15.4,"pm2_5":13.1,"mosquito_risk":3,"arthritis_risk":5,"migraine_risk":4,"frizz_risk":1,"updated_at":"2026-03-14T01:03:15.178413+05:30"},{"city":"Guntur","state":"Andhra Pradesh","latitude":16.3067,"longitude":80.4365,"temp":24.9,"humidity":93,"rain":0.0,"pressure":1005.2,"uv_index":8.75,"wind_gusts":31.7,"aqi":77,"pm10":14.0,"pm2_5":11.8,"mosquito_risk":3,"arthritis_risk":5,"migraine_risk":4,"frizz_risk":1,"updated_at":"2026-03-14T01:03:15.178420+05:30"},{"city":"Nellore","state":"Andhra Pradesh","latitude":14.4426,"longitude":79.9865,"temp":24.8,"humidity":95,"rain":0.0,"pressure":1007.4,"uv_index":8.9,"wind_gusts":31.3,"aqi":69,"pm10":15.0,"pm2_5":12.3,"mosquito_risk":3,"arthritis_risk":5,"migraine_risk":4,"frizz_risk":1,"updated_at":"2026-03-14T01:03:15.178427+05:30"},{"city":"Kurnool","state":"Andhra Pradesh","latitude":15.8281,"longitude":78.0373,"temp":27.6,"humidity":49,"rain":0.0,"pressure":977.0,"uv_index":8.75,"wind_gusts":22.3,"aqi":109,"pm10":30.4,"pm2_5":27.1,"mosquito_risk":4,"arthritis_risk":5,"migraine_risk":7,"frizz_risk":0,"updated_at":"2026-03-14T01:03:15.178435+05:30"},{"city":"Kakinada","state":"Andhra Pradesh","latitude":16.9891,"longitude":82.2475,"temp":24.5,"humidity":92,"rain":0.0,"pressure":1009.2,"uv_index":8.7,"wind_gusts":32.0,"aqi":69,"pm10":17.5,"pm2_5":13.1,"mosquito_risk":3,"arthritis_risk":0,"migraine_risk":4,"frizz_risk":1,"updated_at":"2026-03-14T01:03:15.178442+05:30"},{"city":"Tirupati","state":"Andhra Pradesh","latitude":13.6288,"longitude":79.4192,"temp":23.7,"humidity":86,"rain":0.0,"pressure":993.5,"uv_index":9.05,"wind_gusts":29.5,"aqi":88,"pm10":29.8,"pm2_5":27.0,"mosquito_risk":3,"arthritis_risk":5,"migraine_risk":7,"frizz_risk":1,"updated_at":"2026-03-14T01:03:15.178449+05:30"},{"city":"Warangal","state":"Telangana","latitude":17.9689,"longitude":79.5941,"temp":24.2,"humidity":83,"rain":0.0,"pressure":978.9,"uv_index":8.55,"wind_gusts":29.5,"aqi":115,"pm10":26.8,"pm2_5":24.9,"mosquito_risk":3,"arthritis_risk":5,"migraine_risk":7,"frizz_risk":1,"updated_at":"2026-03-14T01:03:15.178457+05:30"},{"city":"Nizamabad","state":"Telangana","latitude":18.6725,"longitude":78.0941,"temp":26.9,"humidity":45,"rain":0.0,"pressure":964.4,"uv_index":8.45,"wind_gusts":30.6,"aqi":122,"pm10":59.8,"pm2_5":52.3,"mosquito_risk":4,"arthritis_risk":5,"migraine_risk":7,"frizz_risk":0,"updated_at":"2026-03-14T01:03:15.178464+05:30"},{"city":"Mysore","state":"Karnataka","latitude":12.2958,"longitude":76.6396,"temp":22.1,"humidity":95,"rain":0.0,"pressure":929.0,"uv_index":9.3,"wind_gusts":31.3,"aqi":93,"pm10":44.0,"pm2_5":39.2,"mosquito_risk":3,"arthritis_risk":5,"migraine_risk":7,"frizz_risk":1,"updated_at":"2026-03-14T01:03:15.178471+05:30"},{"city":"Mangalore","state":"Karnataka","latitude":12.9141,"longitude":74.856,"temp":28.7,"humidity":82,"rain":0.0,"pressure":1007.4,"uv_index":8.95,"wind_gusts":24.8,"aqi":115,"pm10":51.6,"pm2_5":44.9,"mosquito_risk":7,"arthritis_risk":5,"migraine_risk":4,"frizz_risk":1,"updated_at":"2026-03-14T01:03:15.178478+05:30"},{"city":"Hubli-Dharwad","state":"Karnataka","latitude":15.3647,"longitude":75.124,"temp":23.0,"humidity":89,"rain":0.0,"pressure":941.2,"uv_index":8.95,"wind_gusts":41.8,"aqi":86,"pm10":40.2,"pm2_5":38.4,"mosquito_risk":3,"arthritis_risk":5,"migraine_risk":7,"frizz_risk":1,"updated_at":"2026-03-14T01:03:15.178485+05:30"},{"city":"Belgaum","state":"Karnataka","latitude":15.8497,"longitude":74.4977,"temp":22.5,"humidity":94,"rain":0.0,"pressure":925.8,"uv_index":9.0,"wind_gusts":40.3,"aqi":118,"pm10":51.3,"pm2_5":47.8,"mosquito_risk":3,"arthritis_risk":5,"migraine_risk":7,"frizz_risk":1,"updated_at":"2026-03-14T01:03:18.514790+05:30"},{"city":"Coimbatore","state":"Tamil Nadu","latitude":11.0168,"longitude":76.9558,"temp":23.3,"humidity":82,"rain":0.0,"pressure":962.7,"uv_index":9.3,"wind_gusts":34.2,"aqi":86,"pm10":36.1,"pm2_5":32.1,"mosquito_risk":3,"arthritis_risk":5,"migraine_risk":7,"frizz_risk":1,"updated_at":"2026-03-14T01:03:18.514820+05:30"},{"city":"Madurai","state":"Tamil Nadu","latitude":9.9252,"longitude":78.1198,"temp":25.1,"humidity":79,"rain":0.0,"pressure":994.5,"uv_index":9.3,"wind_gusts":29.5,"aqi":76,"pm10":29.5,"pm2_5":27.1,"mosquito_risk":7,"arthritis_risk":5,"migraine_risk":7,"frizz_risk":1,"updated_at":"2026-03-14T01:03:18.514831+05:30"},{"city":"Trichy","state":"Tamil Nadu","latitude":10.7905,"longitude":78.7047,"temp":24.1,"humidity":91,"rain":0.0,"pressure":1001.2,"uv_index":9.2,"wind_gusts":19.4,"aqi":79,"pm10":24.4,"pm2_5":22.0,"mosquito_risk":3,"arthritis_risk":5,"migraine_risk":4,"frizz_risk":1,"updated_at":"2026-03-14T01:03:18.514840+05:30"},{"city":"Salem","state":"Tamil Nadu","latitude":11.6643,"longitude":78.146,"temp":23.9,"humidity":85,"rain":0.0,"pressure":978.2,"uv_index":9.2,"wind_gusts":15.1,"aqi":109,"pm10":45.6,"pm2_5":41.3,"mosquito_risk":3,"arthritis_risk":5,"migraine_risk":7,"frizz_risk":1,"updated_at":"2026-03-14T01:03:18.514848+05:30"},{"city":"Tirunelveli","state":"Tamil Nadu","latitude":8.7139,"longitude":77.7567,"temp":24.2,"humidity":86,"rain":0.0,"pressure":1004.6,"uv_index":9.25,"wind_gusts":40.7,"aqi":60,"pm10":24.0,"pm2_5":21.9,"mosquito_risk":3,"arthritis_risk":5,"migraine_risk":4,"frizz_risk":1,"updated_at":"2026-03-14T01:03:18.514856+05:30"},{"city":"Vellore","state":"Tamil Nadu","latitude":12.9165,"longitude":79.1325,"temp":22.7,"humidity":89,"rain":0.0,"pressure":986.3,"uv_index":9.1,"wind_gusts":32.0,"aqi":103,"pm10":45.8,"pm2_5":43.3,"mosquito_risk":3,"arthritis_risk":5,"migraine_risk":7,"frizz_risk":1,"updated_at":"2026-03-14T01:03:18.514864+05:30"},{"city":"Erode","state":"Tamil Nadu","latitude":11.341,"longitude":77.7172,"temp":25.2,"humidity":80,"rain":0.0,"pressure":990.3,"uv_index":9.2,"wind_gusts":19.4,"aqi":84,"pm10":21.0,"pm2_5":19.0,"mosquito_risk":7,"arthritis_risk":5,"migraine_risk":7,"frizz_risk":1,"updated_at":"2026-03-14T01:03:18.514871+05:30"},{"city":"Kochi","state":"Kerala","latitude":9.9312,"longitude":76.2673,"temp":27.0,"humidity":86,"rain":0.0,"pressure":1009.8,"uv_index":9.1,"wind_gusts":33.5,"aqi":81,"pm10":29.0,"pm2_5":28.2,"mosquito_risk":7,"arthritis_risk":0,"migraine_risk":4,"frizz_risk":1,"updated_at":"2026-03-14T01:03:18.514879+05:30"},{"city":"Thiruvananthapuram","state":"Kerala","latitude":8.5241,"longitude":76.9366,"temp":27.5,"humidity":83,"rain":0.0,"pressure":1008.8,"uv_index":9.1,"wind_gusts":26.3,"aqi":73,"pm10":20.3,"pm2_5":15.6,"mosquito_risk":7,"arthritis_risk":0,"migraine_risk":4,"frizz_risk":1,"updated_at":"2026-03-14T01:03:18.514887+05:30"},{"city":"Kozhikode","state":"Kerala","latitude":11.2588,"longitude":75.7804,"temp":27.2,"humidity":85,"rain":0.0,"pressure":1009.1,"uv_index":9.05,"wind_gusts":28.8,"aqi":90,"pm10":32.0,"pm2_5":27.9,"mosquito_risk":7,"arthritis_risk":0,"migraine_risk":4,"frizz_risk":1,"updated_at":"2026-03-14T01:03:18.514894+05:30"},{"city":"Thrissur","state":"Kerala","latitude":10.5276,"longitude":76.2144,"temp":26.1,"humidity":89,"rain":0.0,"pressure":1008.1,"uv_index":9.1,"wind_gusts":36.4,"aqi":98,"pm10":26.2,"pm2_5":25.0,"mosquito_risk":7,"arthritis_risk":0,"migraine_risk":4,"frizz_risk":1,"updated_at":"2026-03-14T01:03:18.514902+05:30"},{"city":"Kannur","state":"Kerala","latitude":11.8745,"longitude":75.3704,"temp":27.6,"humidity":85,"rain":0.0,"pressure":1008.0,"uv_index":9.0,"wind_gusts":32.0,"aqi":104,"pm10":40.5,"pm2_5":36.9,"mosquito_risk":7,"arthritis_risk":0,"migraine_risk":4,"frizz_risk":1,"updated_at":"2026-03-14T01:03:18.514911+05:30"},{"city":"Patna","state":"Bihar","latitude":25.5941,"longitude":85.1376,"temp":24.3,"humidity":66,"rain":0.0,"pressure":999.8,"uv_index":7.5,"wind_gusts":19.1,"aqi":171,"pm10":146.2,"pm2_5":63.6,"mosquito_risk":3,"arthritis_risk":5,"migraine_risk":7,"frizz_risk":1,"updated_at":"2026-03-14T01:03:18.514919+05:30"},{"city":"Gaya","state":"Bihar","latitude":24.7914,"longitude":85.0002,"temp":25.3,"humidity":49,"rain":0.0,"pressure":993.6,"uv_index":7.6,"wind_gusts":12.2,"aqi":148,"pm10":172.3,"pm2_5":64.0,"mosquito_risk":4,"arthritis_risk":5,"migraine_risk":7,"frizz_risk":0,"updated_at":"2026-03-14T01:03:18.514926+05:30"},{"city":"Muzaffarpur","state":"Bihar","latitude":26.1209,"longitude":85.3647,"temp":22.4,"humidity":88,"rain":0.0,"pressure":999.6,"uv_index":7.15,"wind_gusts":20.9,"aqi":173,"pm10":169.5,"pm2_5":110.4,"mosquito_risk":3,"arthritis_risk":5,"migraine_risk":7,"frizz_risk":1,"updated_at":"2026-03-14T01:03:18.514933+05:30"},{"city":"Bhagalpur","state":"Bihar","latitude":25.2425,"longitude":87.0117,"temp":23.4,"humidity":94,"rain":0.0,"pressure":1000.7,"uv_index":7.45,"wind_gusts":18.4,"aqi":164,"pm10":116.4,"pm2_5":81.0,"mosquito_risk":3,"arthritis_risk":5,"migraine_risk":4,"frizz_risk":1,"updated_at":"2026-03-14T01:03:18.514941+05:30"},{"city":"Ranchi","state":"Jharkhand","latitude":23.3441,"longitude":85.3096,"temp":22.3,"humidity":41,"rain":0.0,"pressure":937.9,"uv_index":8.25,"wind_gusts":26.6,"aqi":73,"pm10":69.4,"pm2_5":29.6,"mosquito_risk":0,"arthritis_risk":5,"migraine_risk":7,"frizz_risk":0,"updated_at":"2026-03-14T01:03:18.514949+05:30"},{"city":"Jamshedpur","state":"Jharkhand","latitude":22.8046,"longitude":86.2029,"temp":26.2,"humidity":59,"rain":0.0,"pressure":990.9,"uv_index":8.1,"wind_gusts":32.0,"aqi":147,"pm10":80.1,"pm2_5":61.9,"mosquito_risk":4,"arthritis_risk":5,"migraine_risk":7,"frizz_risk":1,"updated_at":"2026-03-14T01:03:18.514957+05:30"},{"city":"Dhanbad","state":"Jharkhand","latitude":23.7957,"longitude":86.4304,"temp":23.9,"humidity":53,"rain":0.0,"pressure":979.6,"uv_index":7.65,"wind_gusts":19.1,"aqi":161,"pm10":135.0,"pm2_5":66.8,"mosquito_risk":0,"arthritis_risk":5,"migraine_risk":7,"frizz_risk":0,"updated_at":"2026-03-14T01:03:18.514965+05:30"},{"city":"Bokaro","state":"Jharkhand","latitude":23.6693,"longitude":86.1511,"temp":22.6,"humidity":52,"rain":0.0,"pressure":984.0,"uv_index":7.7,"wind_gusts":19.8,"aqi":146,"pm10":126.7,"pm2_5":66.1,"mosquito_risk":0,"arthritis_risk":5,"migraine_risk":7,"frizz_risk":0,"updated_at":"2026-03-14T01:03:18.514973+05:30"},{"city":"Bhubaneswar","state":"Odisha","latitude":20.2961,"longitude":85.8245,"temp":25.5,"humidity":85,"rain":0.0,"pressure":1003.2,"uv_index":8.4,"wind_gusts":40.0,"aqi":90,"pm10":19.9,"pm2_5":17.1,"mosquito_risk":7,"arthritis_risk":5,"migraine_risk":4,"frizz_risk":1,"updated_at":"2026-03-14T01:03:18.514981+05:30"},{"city":"Cuttack","state":"Odisha","latitude":20.4625,"longitude":85.8828,"temp":25.5,"humidity":86,"rain":0.0,"pressure":1005.0,"uv_index":8.45,"wind_gusts":38.9,"aqi":90,"pm10":19.9,"pm2_5":17.1,"mosquito_risk":7,"arthritis_risk":5,"migraine_risk":4,"frizz_risk":1,"updated_at":"2026-03-14T01:03:18.514989+05:30"},{"city":"Rourkela","state":"Odisha","latitude":22.2604,"longitude":84.8536,"temp":22.8,"humidity":68,"rain":0.0,"pressure":984.6,"uv_index":8.05,"wind_gusts":28.1,"aqi":90,"pm10":62.4,"pm2_5":44.8,"mosquito_risk":3,"arthritis_risk":5,"migraine_risk":7,"frizz_risk":1,"updated_at":"2026-03-14T01:03:18.514995+05:30"},{"city":"Raipur","state":"Chhattisgarh","latitude":21.2514,"longitude":81.6296,"temp":24.6,"humidity":43,"rain":0.0,"pressure":973.9,"uv_index":8.15,"wind_gusts":37.1,"aqi":129,"pm10":51.0,"pm2_5":45.4,"mosquito_risk":0,"arthritis_risk":5,"migraine_risk":7,"frizz_risk":0,"updated_at":"2026-03-14T01:03:18.515002+05:30"},{"city":"Bhilai","state":"Chhattisgarh","latitude":21.1938,"longitude":81.3509,"temp":21.6,"humidity":47,"rain":0.0,"pressure":974.2,"uv_index":8.15,"wind_gusts":36.0,"aqi":122,"pm10":58.0,"pm2_5":51.9,"mosquito_risk":0,"arthritis_risk":5,"migraine_risk":7,"frizz_risk":0,"updated_at":"2026-03-14T01:03:18.515009+05:30"},{"city":"Guwahati","state":"Assam","latitude":26.1158,"longitude":91.7086,"temp":21.8,"humidity":95,"rain":0.0,"pressure":1002.0,"uv_index":7.45,"wind_gusts":33.8,"aqi":126,"pm10":28.3,"pm2_5":22.0,"mosquito_risk":3,"arthritis_risk":5,"migraine_risk":4,"frizz_risk":1,"updated_at":"2026-03-14T01:03:18.515016+05:30"},{"city":"Agartala","state":"Tripura","latitude":23.8315,"longitude":91.2868,"temp":22.0,"humidity":94,"rain":0.0,"pressure":1006.9,"uv_index":7.85,"wind_gusts":37.4,"aqi":102,"pm10":19.4,"pm2_5":16.9,"mosquito_risk":3,"arthritis_risk":5,"migraine_risk":4,"frizz_risk":1,"updated_at":"2026-03-14T01:03:18.515023+05:30"},{"city":"Shillong","state":"Meghalaya","latitude":25.5788,"longitude":91.8933,"temp":13.1,"humidity":90,"rain":0.0,"pressure":854.7,"uv_index":7.8,"wind_gusts":65.5,"aqi":93,"pm10":15.9,"pm2_5":11.2,"mosquito_risk":3,"arthritis_risk":10,"migraine_risk":7,"frizz_risk":0,"updated_at":"2026-03-14T01:03:18.515031+05:30"},{"city":"Imphal","state":"Manipur","latitude":24.817,"longitude":93.9368,"temp":16.0,"humidity":94,"rain":0.1,"pressure":923.8,"uv_index":7.6,"wind_gusts":81.0,"aqi":156,"pm10":58.4,"pm2_5":51.5,"mosquito_risk":6,"arthritis_risk":10,"migraine_risk":7,"frizz_risk":0,"updated_at":"2026-03-14T01:03:18.515038+05:30"},{"city":"Aizawl","state":"Mizoram","latitude":23.7271,"longitude":92.7176,"temp":17.4,"humidity":87,"rain":0.0,"pressure":893.6,"uv_index":8.0,"wind_gusts":69.1,"aqi":135,"pm10":33.1,"pm2_5":28.8,"mosquito_risk":3,"arthritis_risk":10,"migraine_risk":7,"frizz_risk":0,"updated_at":"2026-03-14T01:03:18.515045+05:30"},{"city":"Kohima","state":"Nagaland","latitude":25.6701,"longitude":94.1077,"temp":14.3,"humidity":85,"rain":0.0,"pressure":853.6,"uv_index":6.95,"wind_gusts":93.2,"aqi":117,"pm10":17.6,"pm2_5":15.8,"mosquito_risk":3,"arthritis_risk":10,"migraine_risk":7,"frizz_risk":0,"updated_at":"2026-03-14T01:03:18.515052+05:30"},{"city":"Gangtok","state":"Sikkim","latitude":27.3314,"longitude":88.6138,"temp":13.2,"humidity":93,"rain":0.0,"pressure":834.5,"uv_index":7.55,"wind_gusts":20.9,"aqi":87,"pm10":19.0,"pm2_5":18.2,"mosquito_risk":3,"arthritis_risk":10,"migraine_risk":7,"frizz_risk":0,"updated_at":"2026-03-14T01:03:18.515059+05:30"},{"city":"Siliguri","state":"West Bengal","latitude":26.7271,"longitude":88.3953,"temp":18.5,"humidity":94,"rain":0.0,"pressure":994.0,"uv_index":7.35,"wind_gusts":24.1,"aqi":135,"pm10":53.6,"pm2_5":45.4,"mosquito_risk":3,"arthritis_risk":10,"migraine_risk":7,"frizz_risk":1,"updated_at":"2026-03-14T01:03:21.860909+05:30"},{"city":"Durgapur","state":"West Bengal","latitude":23.5204,"longitude":87.3119,"temp":24.6,"humidity":91,"rain":0.0,"pressure":994.8,"uv_index":7.95,"wind_gusts":30.6,"aqi":158,"pm10":112.7,"pm2_5":81.5,"mosquito_risk":3,"arthritis_risk":5,"migraine_risk":7,"frizz_risk":1,"updated_at":"2026-03-14T01:03:21.860940+05:30"},{"city":"Asansol","state":"West Bengal","latitude":23.6739,"longitude":86.9524,"temp":25.4,"humidity":64,"rain":0.0,"pressure":993.4,"uv_index":7.75,"wind_gusts":23.0,"aqi":155,"pm10":115.5,"pm2_5":58.9,"mosquito_risk":7,"arthritis_risk":5,"migraine_risk":7,"frizz_risk":1,"updated_at":"2026-03-14T01:03:21.860950+05:30"},{"city":"Pondicherry","state":"Puducherry","latitude":11.9139,"longitude":79.8145,"temp":24.1,"humidity":91,"rain":0.0,"pressure":1009.9,"uv_index":9.05,"wind_gusts":29.9,"aqi":57,"pm10":18.9,"pm2_5":14.6,"mosquito_risk":3,"arthritis_risk":0,"migraine_risk":4,"frizz_risk":1,"updated_at":"2026-03-14T01:03:21.860959+05:30"},{"city":"Port Blair","state":"Andaman and Nicobar Islands","latitude":11.6234,"longitude":92.7265,"temp":27.7,"humidity":80,"rain":0.0,"pressure":1007.9,"uv_index":8.95,"wind_gusts":27.4,"aqi":66,"pm10":13.2,"pm2_5":10.2,"mosquito_risk":7,"arthritis_risk":5,"migraine_risk":4,"frizz_risk":1,"updated_at":"2026-03-14T01:03:21.860967+05:30"},{"city":"Haridwar","state":"Uttarakhand","latitude":29.9457,"longitude":78.1642,"temp":17.8,"humidity":84,"rain":0.0,"pressure":974.4,"uv_index":5.55,"wind_gusts":25.9,"aqi":84,"pm10":65.4,"pm2_5":51.1,"mosquito_risk":3,"arthritis_risk":10,"migraine_risk":3,"frizz_risk":0,"updated_at":"2026-03-14T01:03:21.860974+05:30"},{"city":"Rishikesh","state":"Uttarakhand","latitude":30.0869,"longitude":78.2676,"temp":18.8,"humidity":69,"rain":0.0,"pressure":967.0,"uv_index":5.35,"wind_gusts":23.0,"aqi":62,"pm10":41.1,"pm2_5":30.0,"mosquito_risk":3,"arthritis_risk":5,"migraine_risk":3,"frizz_risk":0,"updated_at":"2026-03-14T01:03:21.860982+05:30"},{"city":"Nainital","state":"Uttarakhand","latitude":29.3919,"longitude":79.4542,"temp":17.9,"humidity":32,"rain":0.0,"pressure":805.1,"uv_index":6.1,"wind_gusts":36.0,"aqi":79,"pm10":34.8,"pm2_5":27.3,"mosquito_risk":0,"arthritis_risk":5,"migraine_risk":7,"frizz_risk":0,"updated_at":"2026-03-14T01:03:21.860990+05:30"},{"city":"Mussoorie","state":"Uttarakhand","latitude":30.4599,"longitude":78.0664,"temp":15.6,"humidity":53,"rain":0.0,"pressure":801.9,"uv_index":5.55,"wind_gusts":28.1,"aqi":71,"pm10":52.2,"pm2_5":43.5,"mosquito_risk":0,"arthritis_risk":5,"migraine_risk":3,"frizz_risk":0,"updated_at":"2026-03-14T01:03:21.860997+05:30"},{"city":"Dharamshala","state":"Himachal Pradesh","latitude":32.219,"longitude":76.3234,"temp":18.5,"humidity":27,"rain":0.0,"pressure":868.9,"uv_index":4.6,"wind_gusts":22.3,"aqi":47,"pm10":21.7,"pm2_5":13.4,"mosquito_risk":0,"arthritis_risk":5,"migraine_risk":3,"frizz_risk":1,"updated_at":"2026-03-14T01:03:21.861004+05:30"},{"city":"Dalhousie","state":"Himachal Pradesh","latitude":32.5387,"longitude":75.971,"temp":14.8,"humidity":30,"rain":0.0,"pressure":802.7,"uv_index":5.5,"wind_gusts":20.2,"aqi":64,"pm10":38.2,"pm2_5":32.8,"mosquito_risk":0,"arthritis_risk":5,"migraine_risk":3,"frizz_risk":1,"updated_at":"2026-03-14T01:03:21.861013+05:30"},{"city":"Patiala","state":"Punjab","latitude":30.3398,"longitude":76.3869,"temp":17.9,"humidity":80,"rain":0.0,"pressure":979.1,"uv_index":5.5,"wind_gusts":18.7,"aqi":371,"pm10":434.9,"pm2_5":61.5,"mosquito_risk":3,"arthritis_risk":5,"migraine_risk":3,"frizz_risk":0,"updated_at":"2026-03-14T01:03:21.861020+05:30"},{"city":"Bhatinda","state":"Punjab","latitude":30.211,"longitude":74.9455,"temp":19.8,"humidity":73,"rain":0.0,"pressure":985.2,"uv_index":5.95,"wind_gusts":17.6,"aqi":106,"pm10":47.6,"pm2_5":38.0,"mosquito_risk":3,"arthritis_risk":5,"migraine_risk":3,"frizz_risk":0,"updated_at":"2026-03-14T01:03:21.861027+05:30"},{"city":"Rohtak","state":"Haryana","latitude":28.8955,"longitude":76.6066,"temp":17.9,"humidity":80,"rain":0.0,"pressure":982.8,"uv_index":5.55,"wind_gusts":25.9,"aqi":553,"pm10":581.1,"pm2_5":102.9,"mosquito_risk":3,"arthritis_risk":5,"migraine_risk":3,"frizz_risk":0,"updated_at":"2026-03-14T01:03:21.861035+05:30"},{"city":"Panipat","state":"Haryana","latitude":29.3909,"longitude":76.9635,"temp":17.5,"humidity":80,"rain":0.0,"pressure":981.1,"uv_index":5.35,"wind_gusts":21.2,"aqi":1027,"pm10":1050.5,"pm2_5":138.8,"mosquito_risk":3,"arthritis_risk":5,"migraine_risk":3,"frizz_risk":0,"updated_at":"2026-03-14T01:03:21.861042+05:30"},{"city":"Mathura","state":"Uttar Pradesh","latitude":27.4924,"longitude":77.6737,"temp":19.7,"humidity":59,"rain":0.0,"pressure":987.6,"uv_index":6.15,"wind_gusts":34.6,"aqi":751,"pm10":1378.4,"pm2_5":190.9,"mosquito_risk":0,"arthritis_risk":5,"migraine_risk":7,"frizz_risk":0,"updated_at":"2026-03-14T01:03:21.861049+05:30"},{"city":"Vrindavan","state":"Uttar Pradesh","latitude":27.5823,"longitude":77.7027,"temp":18.6,"humidity":64,"rain":0.0,"pressure":988.0,"uv_index":6.3,"wind_gusts":38.2,"aqi":751,"pm10":1378.4,"pm2_5":190.9,"mosquito_risk":3,"arthritis_risk":5,"migraine_risk":7,"frizz_risk":0,"updated_at":"2026-03-14T01:03:21.861056+05:30"},{"city":"Ayodhya","state":"Uttar Pradesh","latitude":26.7922,"longitude":82.1998,"temp":21.3,"humidity":69,"rain":0.0,"pressure":994.7,"uv_index":6.75,"wind_gusts":23.8,"aqi":155,"pm10":143.9,"pm2_5":52.0,"mosquito_risk":3,"arthritis_risk":5,"migraine_risk":7,"frizz_risk":0,"updated_at":"2026-03-14T01:03:21.861063+05:30"},{"city":"Ratlam","state":"Madhya Pradesh","latitude":23.3315,"longitude":75.0367,"temp":25.5,"humidity":38,"rain":0.0,"pressure":954.6,"uv_index":7.65,"wind_gusts":35.6,"aqi":83,"pm10":26.1,"pm2_5":22.8,"mosquito_risk":4,"arthritis_risk":5,"migraine_risk":7,"frizz_risk":0,"updated_at":"2026-03-14T01:03:21.861070+05:30"},{"city":"Sagar","state":"Madhya Pradesh","latitude":23.8388,"longitude":78.7378,"temp":23.4,"humidity":34,"rain":0.0,"pressure":950.0,"uv_index":7.65,"wind_gusts":29.2,"aqi":64,"pm10":15.7,"pm2_5":15.2,"mosquito_risk":0,"arthritis_risk":5,"migraine_risk":7,"frizz_risk":0,"updated_at":"2026-03-14T01:03:21.861077+05:30"},{"city":"Satna","state":"Madhya Pradesh","latitude":24.6005,"longitude":80.8322,"temp":23.2,"humidity":38,"rain":0.0,"pressure":971.4,"uv_index":7.6,"wind_gusts":29.2,"aqi":58,"pm10":47.5,"pm2_5":20.8,"mosquito_risk":0,"arthritis_risk":5,"migraine_risk":7,"frizz_risk":0,"updated_at":"2026-03-14T01:03:21.861083+05:30"},{"city":"Akola","state":"Maharashtra","latitude":20.7002,"longitude":77.0082,"temp":26.6,"humidity":40,"rain":0.0,"pressure":974.4,"uv_index":8.1,"wind_gusts":21.2,"aqi":89,"pm10":53.1,"pm2_5":49.4,"mosquito_risk":4,"arthritis_risk":5,"migraine_risk":7,"frizz_risk":0,"updated_at":"2026-03-14T01:03:21.861091+05:30"},{"city":"Amravati","state":"Maharashtra","latitude":20.9374,"longitude":77.7796,"temp":24.7,"humidity":49,"rain":0.0,"pressure":966.5,"uv_index":8.1,"wind_gusts":17.6,"aqi":92,"pm10":55.2,"pm2_5":50.2,"mosquito_risk":0,"arthritis_risk":5,"migraine_risk":7,"frizz_risk":0,"updated_at":"2026-03-14T01:03:21.861098+05:30"},{"city":"Latur","state":"Maharashtra","latitude":18.4088,"longitude":76.5604,"temp":25.6,"humidity":47,"rain":0.0,"pressure":939.3,"uv_index":8.5,"wind_gusts":26.3,"aqi":106,"pm10":43.0,"pm2_5":37.4,"mosquito_risk":4,"arthritis_risk":5,"migraine_risk":7,"frizz_risk":0,"updated_at":"2026-03-14T01:03:21.861106+05:30"},{"city":"Nanded","state":"Maharashtra","latitude":19.1383,"longitude":77.3091,"temp":28.1,"humidity":41,"rain":0.0,"pressure":968.1,"uv_index":8.3,"wind_gusts":24.5,"aqi":121,"pm10":51.8,"pm2_5":44.2,"mosquito_risk":4,"arthritis_risk":5,"migraine_risk":7,"frizz_risk":0,"updated_at":"2026-03-14T01:03:21.861112+05:30"},{"city":"Gulbarga","state":"Karnataka","latitude":17.3297,"longitude":76.8343,"temp":27.6,"humidity":46,"rain":0.0,"pressure":958.7,"uv_index":8.6,"wind_gusts":33.5,"aqi":102,"pm10":43.4,"pm2_5":37.0,"mosquito_risk":4,"arthritis_risk":5,"migraine_risk":7,"frizz_risk":0,"updated_at":"2026-03-14T01:03:21.861119+05:30"},{"city":"Bidar","state":"Karnataka","latitude":17.9104,"longitude":77.5199,"temp":25.3,"humidity":46,"rain":0.0,"pressure":935.6,"uv_index":8.55,"wind_gusts":38.9,"aqi":98,"pm10":42.0,"pm2_5":35.6,"mosquito_risk":4,"arthritis_risk":5,"migraine_risk":7,"frizz_risk":0,"updated_at":"2026-03-14T01:03:21.861126+05:30"},{"city":"Hospet","state":"Karnataka","latitude":15.2689,"longitude":76.3909,"temp":27.9,"humidity":54,"rain":0.0,"pressure":956.2,"uv_index":8.9,"wind_gusts":29.2,"aqi":105,"pm10":54.0,"pm2_5":44.8,"mosquito_risk":4,"arthritis_risk":5,"migraine_risk":7,"frizz_risk":1,"updated_at":"2026-03-14T01:03:21.861133+05:30"},{"city":"Tirupur","state":"Tamil Nadu","latitude":11.1085,"longitude":77.3411,"temp":25.9,"humidity":68,"rain":0.0,"pressure":976.6,"uv_index":9.3,"wind_gusts":28.1,"aqi":93,"pm10":25.7,"pm2_5":22.6,"mosquito_risk":7,"arthritis_risk":5,"migraine_risk":7,"frizz_risk":1,"updated_at":"2026-03-14T01:03:21.861139+05:30"},{"city":"Alappuzha","state":"Kerala","latitude":9.4981,"longitude":76.3388,"temp":26.8,"humidity":86,"rain":0.0,"pressure":1009.9,"uv_index":9.1,"wind_gusts":27.7,"aqi":82,"pm10":28.6,"pm2_5":25.8,"mosquito_risk":7,"arthritis_risk":0,"migraine_risk":4,"frizz_risk":1,"updated_at":"2026-03-14T01:03:21.861146+05:30"},{"city":"Munnar","state":"Kerala","latitude":10.0889,"longitude":77.0595,"temp":19.3,"humidity":88,"rain":0.0,"pressure":856.5,"uv_index":9.6,"wind_gusts":31.7,"aqi":72,"pm10":28.9,"pm2_5":26.4,"mosquito_risk":3,"arthritis_risk":10,"migraine_risk":7,"frizz_risk":1,"updated_at":"2026-03-14T01:03:21.861154+05:30"},{"city":"Silchar","state":"Assam","latitude":24.8333,"longitude":92.7789,"temp":20.9,"humidity":95,"rain":0.0,"pressure":1007.6,"uv_index":7.75,"wind_gusts":36.4,"aqi":156,"pm10":47.3,"pm2_5":40.9,"mosquito_risk":3,"arthritis_risk":5,"migraine_risk":4,"frizz_risk":1,"updated_at":"2026-03-14T01:03:21.861161+05:30"},{"city":"Dibrugarh","state":"Assam","latitude":27.4728,"longitude":94.912,"temp":20.6,"humidity":87,"rain":0.1,"pressure":996.5,"uv_index":1.2,"wind_gusts":19.4,"aqi":132,"pm10":39.6,"pm2_5":35.7,"mosquito_risk":6,"arthritis_risk":5,"migraine_risk":3,"frizz_risk":1,"updated_at":"2026-03-14T01:03:21.861168+05:30"}]