[{"city":"Delhi","state":"Delhi","latitude":28.6139,"longitude":77.209,"temp":33.5,"humidity":59,"rain":0.0,"pressure":976.7,"uv_index":6.1,"wind_gusts":33.1,"aqi":636,"pm10":618.4,"pm2_5":153.2,"no2":37.7,"co":1186.0,"o3":57.0,"so2":16.1,"mosquito_risk":0,"arthritis_risk":5,"migraine_risk":7,"frizz_risk":1,"updated_at":"2026-07-17T20:45:43.827362+05:30"},{"city":"Mumbai","state":"Maharashtra","latitude":19.076,"longitude":72.8777,"temp":27.4,"humidity":81,"rain":0.0,"pressure":1007.3,"uv_index":7.65,"wind_gusts":41.4,"aqi":68,"pm10":32.7,"pm2_5":16.8,"no2":14.6,"co":335.0,"o3":41.0,"so2":10.3,"mosquito_risk":7,"arthritis_risk":5,"migraine_risk":4,"frizz_risk":1,"updated_at":"2026-07-17T20:45:43.827394+05:30"},{"city":"Bangalore","state":"Karnataka","latitude":12.9716,"longitude":77.5946,"temp":22.4,"humidity":83,"rain":0.0,"pressure":912.5,"uv_index":3.75,"wind_gusts":49.7,"aqi":47,"pm10":14.6,"pm2_5":10.4,"no2":23.2,"co":405.0,"o3":33.0,"so2":5.3,"mosquito_risk":3,"arthritis_risk":5,"migraine_risk":3,"frizz_risk":1,"updated_at":"2026-07-17T20:45:43.827404+05:30"},{"city":"Hyderabad","state":"Telangana","latitude":17.385,"longitude":78.4867,"temp":25.0,"humidity":93,"rain":0.1,"pressure":952.1,"uv_index":6.4,"wind_gusts":35.3,"aqi":68,"pm10":29.5,"pm2_5":18.0,"no2":16.1,"co":589.0,"o3":50.0,"so2":6.8,"mosquito_risk":10,"arthritis_risk":5,"migraine_risk":7,"frizz_risk":1,"updated_at":"2026-07-17T20:45:43.827411+05:30"},{"city":"Chennai","state":"Tamil Nadu","latitude":13.0827,"longitude":80.2707,"temp":29.2,"humidity":67,"rain":0.0,"pressure":1007.0,"uv_index":7.85,"wind_gusts":42.1,"aqi":78,"pm10":30.0,"pm2_5":19.7,"no2":16.4,"co":306.0,"o3":73.0,"so2":10.6,"mosquito_risk":7,"arthritis_risk":5,"migraine_risk":4,"frizz_risk":1,"updated_at":"2026-07-17T20:45:43.827416+05:30"},{"city":"Kolkata","state":"West Bengal","latitude":22.5726,"longitude":88.3639,"temp":28.1,"humidity":85,"rain":0.0,"pressure":1000.9,"uv_index":7.45,"wind_gusts":31.3,"aqi":69,"pm10":26.4,"pm2_5":19.6,"no2":6.8,"co":304.0,"o3":88.0,"so2":6.2,"mosquito_risk":7,"arthritis_risk":5,"migraine_risk":4,"frizz_risk":1,"updated_at":"2026-07-17T20:45:43.827422+05:30"},{"city":"Pune","state":"Maharashtra","latitude":18.5204,"longitude":73.8567,"temp":23.5,"humidity":87,"rain":0.0,"pressure":947.1,"uv_index":6.95,"wind_gusts":48.2,"aqi":41,"pm10":17.5,"pm2_5":10.9,"no2":12.9,"co":189.0,"o3":37.0,"so2":7.7,"mosquito_risk":3,"arthritis_risk":5,"migraine_risk":7,"frizz_risk":1,"updated_at":"2026-07-17T20:45:43.827428+05:30"},{"city":"Ahmedabad","state":"Gujarat","latitude":23.0225,"longitude":72.5714,"temp":30.8,"humidity":66,"rain":0.0,"pressure":998.0,"uv_index":7.9,"wind_gusts":42.5,"aqi":70,"pm10":38.4,"pm2_5":21.5,"no2":14.1,"co":194.0,"o3":55.0,"so2":5.6,"mosquito_risk":3,"arthritis_risk":5,"migraine_risk":7,"frizz_risk":1,"updated_at":"2026-07-17T20:45:43.827432+05:30"},{"city":"Jaipur","state":"Rajasthan","latitude":26.9124,"longitude":75.7873,"temp":33.3,"humidity":50,"rain":0.0,"pressure":955.4,"uv_index":8.05,"wind_gusts":40.0,"aqi":316,"pm10":248.7,"pm2_5":60.8,"no2":18.9,"co":257.0,"o3":59.0,"so2":6.4,"mosquito_risk":0,"arthritis_risk":5,"migraine_risk":7,"frizz_risk":1,"updated_at":"2026-07-17T20:45:43.827436+05:30"},{"city":"Lucknow","state":"Uttar Pradesh","latitude":26.8467,"longitude":80.9462,"temp":28.8,"humidity":91,"rain":0.0,"pressure":988.2,"uv_index":7.55,"wind_gusts":28.4,"aqi":162,"pm10":227.7,"pm2_5":98.7,"no2":26.4,"co":700.0,"o3":84.0,"so2":14.1,"mosquito_risk":7,"arthritis_risk":5,"migraine_risk":7,"frizz_risk":1,"updated_at":"2026-07-17T20:45:43.827442+05:30"},{"city":"Kanpur","state":"Uttar Pradesh","latitude":26.4499,"longitude":80.3319,"temp":30.6,"humidity":80,"rain":0.0,"pressure":986.7,"uv_index":8.1,"wind_gusts":25.6,"aqi":169,"pm10":187.7,"pm2_5":81.7,"no2":26.3,"co":519.0,"o3":65.0,"so2":10.2,"mosquito_risk":3,"arthritis_risk":5,"migraine_risk":7,"frizz_risk":1,"updated_at":"2026-07-17T20:45:43.827446+05:30"},{"city":"Chandigarh","state":"Chandigarh","latitude":30.7333,"longitude":76.7794,"temp":30.4,"humidity":70,"rain":0.0,"pressure":962.1,"uv_index":7.35,"wind_gusts":34.9,"aqi":183,"pm10":67.5,"pm2_5":54.8,"no2":23.8,"co":763.0,"o3":126.0,"so2":14.4,"mosquito_risk":3,"arthritis_risk":5,"migraine_risk":7,"frizz_risk":1,"updated_at":"2026-07-17T20:45:43.827451+05:30"},{"city":"Srinagar","state":"Jammu and Kashmir","latitude":34.0837,"longitude":74.7973,"temp":28.6,"humidity":55,"rain":0.0,"pressure":837.2,"uv_index":9.05,"wind_gusts":18.4,"aqi":110,"pm10":34.2,"pm2_5":29.2,"no2":35.1,"co":622.0,"o3":83.0,"so2":5.1,"mosquito_risk":4,"arthritis_risk":5,"migraine_risk":7,"frizz_risk":1,"updated_at":"2026-07-17T20:45:43.827455+05:30"},{"city":"Jammu","state":"Jammu and Kashmir","latitude":32.7266,"longitude":74.857,"temp":30.1,"humidity":79,"rain":0.0,"pressure":965.1,"uv_index":7.7,"wind_gusts":34.6,"aqi":156,"pm10":78.0,"pm2_5":54.1,"no2":25.1,"co":449.0,"o3":84.0,"so2":6.6,"mosquito_risk":3,"arthritis_risk":5,"migraine_risk":7,"frizz_risk":1,"updated_at":"2026-07-17T20:45:43.827460+05:30"},{"city":"Amritsar","state":"Punjab","latitude":31.634,"longitude":74.8723,"temp":31.8,"humidity":68,"rain":0.0,"pressure":973.0,"uv_index":8.4,"wind_gusts":20.9,"aqi":170,"pm10":123.4,"pm2_5":82.2,"no2":49.5,"co":433.0,"o3":63.0,"so2":11.5,"mosquito_risk":3,"arthritis_risk":5,"migraine_risk":7,"frizz_risk":1,"updated_at":"2026-07-17T20:45:43.827463+05:30"},{"city":"Ludhiana","state":"Punjab","latitude":30.901,"longitude":75.8573,"temp":32.8,"humidity":63,"rain":0.0,"pressure":971.4,"uv_index":7.2,"wind_gusts":34.6,"aqi":180,"pm10":95.9,"pm2_5":74.0,"no2":39.3,"co":797.0,"o3":68.0,"so2":8.5,"mosquito_risk":3,"arthritis_risk":5,"migraine_risk":7,"frizz_risk":1,"updated_at":"2026-07-17T20:45:43.827467+05:30"},{"city":"Jalandhar","state":"Punjab","latitude":31.326,"longitude":75.5762,"temp":31.2,"humidity":79,"rain":0.0,"pressure":972.3,"uv_index":8.15,"wind_gusts":24.1,"aqi":183,"pm10":115.7,"pm2_5":85.9,"no2":49.9,"co":1405.0,"o3":58.0,"so2":8.6,"mosquito_risk":3,"arthritis_risk":5,"migraine_risk":7,"frizz_risk":1,"updated_at":"2026-07-17T20:45:43.827471+05:30"},{"city":"Dehradun","state":"Uttarakhand","latitude":30.6284,"longitude":78.0322,"temp":19.7,"humidity":98,"rain":0.0,"pressure":827.7,"uv_index":6.8,"wind_gusts":27.0,"aqi":133,"pm10":50.9,"pm2_5":43.7,"no2":15.9,"co":353.0,"o3":111.0,"so2":6.7,"mosquito_risk":3,"arthritis_risk":10,"migraine_risk":7,"frizz_risk":1,"updated_at":"2026-07-17T20:45:43.827475+05:30"},{"city":"Shimla","state":"Himachal Pradesh","latitude":31.1048,"longitude":77.1734,"temp":17.2,"humidity":95,"rain":0.0,"pressure":782.3,"uv_index":6.85,"wind_gusts":41.8,"aqi":126,"pm10":46.9,"pm2_5":35.6,"no2":15.7,"co":375.0,"o3":107.0,"so2":6.7,"mosquito_risk":3,"arthritis_risk":10,"migraine_risk":7,"frizz_risk":1,"updated_at":"2026-07-17T20:45:43.827479+05:30"},{"city":"Manali","state":"Himachal Pradesh","latitude":32.2396,"longitude":77.1887,"temp":20.3,"humidity":95,"rain":0.0,"pressure":817.0,"uv_index":7.05,"wind_gusts":33.1,"aqi":96,"pm10":18.9,"pm2_5":14.9,"no2":34.1,"co":259.0,"o3":66.0,"so2":1.3,"mosquito_risk":3,"arthritis_risk":5,"migraine_risk":7,"frizz_risk":1,"updated_at":"2026-07-17T20:45:43.827484+05:30"},{"city":"Gurgaon","state":"Haryana","latitude":28.4595,"longitude":77.0266,"temp":33.0,"humidity":55,"rain":0.0,"pressure":975.2,"uv_index":5.85,"wind_gusts":39.2,"aqi":504,"pm10":588.6,"pm2_5":150.4,"no2":42.5,"co":723.0,"o3":46.0,"so2":13.2,"mosquito_risk":0,"arthritis_risk":5,"migraine_risk":3,"frizz_risk":1,"updated_at":"2026-07-17T20:45:43.827489+05:30"},{"city":"Noida","state":"Uttar Pradesh","latitude":28.5355,"longitude":77.391,"temp":33.3,"humidity":59,"rain":0.0,"pressure":978.1,"uv_index":7.7,"wind_gusts":26.3,"aqi":504,"pm10":588.6,"pm2_5":150.4,"no2":42.5,"co":1127.0,"o3":46.0,"so2":13.2,"mosquito_risk":0,"arthritis_risk":5,"migraine_risk":7,"frizz_risk":1,"updated_at":"2026-07-17T20:45:43.827493+05:30"},{"city":"Ghaziabad","state":"Uttar Pradesh","latitude":28.6692,"longitude":77.4538,"temp":32.0,"humidity":71,"rain":0.0,"pressure":976.3,"uv_index":7.7,"wind_gusts":29.2,"aqi":521,"pm10":558.8,"pm2_5":149.9,"no2":34.5,"co":622.0,"o3":62.0,"so2":18.0,"mosquito_risk":3,"arthritis_risk":5,"migraine_risk":7,"frizz_risk":1,"updated_at":"2026-07-17T20:45:43.827497+05:30"},{"city":"Faridabad","state":"Haryana","latitude":28.4089,"longitude":77.3178,"temp":33.4,"humidity":58,"rain":0.0,"pressure":977.5,"uv_index":6.0,"wind_gusts":33.8,"aqi":504,"pm10":588.6,"pm2_5":150.4,"no2":42.5,"co":634.0,"o3":46.0,"so2":13.2,"mosquito_risk":0,"arthritis_risk":5,"migraine_risk":3,"frizz_risk":1,"updated_at":"2026-07-17T20:45:43.827500+05:30"},{"city":"Meerut","state":"Uttar Pradesh","latitude":28.9845,"longitude":77.7064,"temp":31.6,"humidity":76,"rain":0.0,"pressure":975.0,"uv_index":7.0,"wind_gusts":33.1,"aqi":521,"pm10":558.8,"pm2_5":149.9,"no2":34.5,"co":627.0,"o3":62.0,"so2":18.0,"mosquito_risk":3,"arthritis_risk":5,"migraine_risk":7,"frizz_risk":1,"updated_at":"2026-07-17T20:45:43.827504+05:30"},{"city":"Agra","state":"Uttar Pradesh","latitude":27.1767,"longitude":78.0081,"temp":33.1,"humidity":62,"rain":0.0,"pressure":982.2,"uv_index":6.8,"wind_gusts":36.7,"aqi":155,"pm10":173.7,"pm2_5":72.6,"no2":27.2,"co":381.0,"o3":56.0,"so2":9.0,"mosquito_risk":3,"arthritis_risk":5,"migraine_risk":7,"frizz_risk":1,"updated_at":"2026-07-17T20:45:43.827508+05:30"},{"city":"Varanasi","state":"Uttar Pradesh","latitude":25.3176,"longitude":82.9739,"temp":28.2,"humidity":99,"rain":0.1,"pressure":992.8,"uv_index":5.65,"wind_gusts":28.8,"aqi":142,"pm10":48.3,"pm2_5":39.7,"no2":14.3,"co":619.0,"o3":101.0,"so2":8.6,"mosquito_risk":10,"arthritis_risk":5,"migraine_risk":3,"frizz_risk":1,"updated_at":"2026-07-17T20:45:43.827512+05:30"},{"city":"Prayagraj","state":"Uttar Pradesh","latitude":25.4358,"longitude":81.8463,"temp":29.1,"humidity":90,"rain":0.1,"pressure":991.4,"uv_index":7.8,"wind_gusts":28.1,"aqi":157,"pm10":89.9,"pm2_5":65.7,"no2":23.1,"co":326.0,"o3":66.0,"so2":11.7,"mosquito_risk":10,"arthritis_risk":5,"migraine_risk":7,"frizz_risk":1,"updated_at":"2026-07-17T20:45:43.827516+05:30"},{"city":"Gorakhpur","state":"Uttar Pradesh","latitude":26.7606,"longitude":83.3732,"temp":28.5,"humidity":96,"rain":0.0,"pressure":992.2,"uv_index":6.8,"wind_gusts":22.0,"aqi":114,"pm10":46.6,"pm2_5":46.1,"no2":25.8,"co":606.0,"o3":65.0,"so2":8.5,"mosquito_risk":7,"arthritis_risk":5,"migraine_risk":7,"frizz_risk":1,"updated_at":"2026-07-17T20:45:43.827520+05:30"},{"city":"Bareilly","state":"Uttar Pradesh","latitude":28.367,"longitude":79.4304,"temp":27.7,"humidity":96,"rain":0.0,"pressure":981.4,"uv_index":7.2,"wind_gusts":34.2,"aqi":165,"pm10":129.0,"pm2_5":76.4,"no2":19.6,"co":480.0,"o3":99.0,"so2":11.0,"mosquito_risk":7,"arthritis_risk":5,"migraine_risk":7,"frizz_risk":1,"updated_at":"2026-07-17T20:45:43.827525+05:30"},{"city":"Aligarh","state":"Uttar Pradesh","latitude":27.8974,"longitude":78.088,"temp":31.5,"humidity":69,"rain":0.0,"pressure":979.4,"uv_index":7.6,"wind_gusts":26.6,"aqi":348,"pm10":463.8,"pm2_5":138.8,"no2":28.7,"co":377.0,"o3":49.0,"so2":7.9,"mosquito_risk":3,"arthritis_risk":5,"migraine_risk":7,"frizz_risk":1,"updated_at":"2026-07-17T20:45:43.827528+05:30"},{"city":"Moradabad","state":"Uttar Pradesh","latitude":28.8386,"longitude":78.7733,"temp":31.2,"humidity":79,"rain":0.0,"pressure":977.6,"uv_index":7.6,"wind_gusts":32.8,"aqi":185,"pm10":190.9,"pm2_5":112.0,"no2":31.4,"co":655.0,"o3":89.0,"so2":15.7,"mosquito_risk":3,"arthritis_risk":5,"migraine_risk":7,"frizz_risk":1,"updated_at":"2026-07-17T20:45:43.827532+05:30"},{"city":"Saharanpur","state":"Uttar Pradesh","latitude":29.9637,"longitude":77.546,"temp":30.9,"humidity":69,"rain":0.0,"pressure":968.9,"uv_index":6.8,"wind_gusts":37.8,"aqi":169,"pm10":239.3,"pm2_5":92.9,"no2":25.8,"co":380.0,"o3":98.0,"so2":14.3,"mosquito_risk":3,"arthritis_risk":5,"migraine_risk":7,"frizz_risk":1,"updated_at":"2026-07-17T20:45:43.827536+05:30"},{"city":"Jhansi","state":"Uttar Pradesh","latitude":25.4484,"longitude":78.5685,"temp":29.4,"humidity":78,"rain":0.0,"pressure":973.6,"uv_index":7.45,"wind_gusts":33.5,"aqi":94,"pm10":70.3,"pm2_5":36.6,"no2":9.8,"co":203.0,"o3":64.0,"so2":3.6,"mosquito_risk":7,"arthritis_risk":5,"migraine_risk":7,"frizz_risk":1,"updated_at":"2026-07-17T20:45:47.133054+05:30"},{"city":"Surat","state":"Gujarat","latitude":21.1702,"longitude":72.8311,"temp":28.6,"humidity":82,"rain":0.0,"pressure":1004.0,"uv_index":7.7,"wind_gusts":43.9,"aqi":74,"pm10":26.7,"pm2_5":19.3,"no2":23.8,"co":265.0,"o3":28.0,"so2":35.8,"mosquito_risk":7,"arthritis_risk":5,"migraine_risk":4,"frizz_risk":1,"updated_at":"2026-07-17T20:45:47.133073+05:30"},{"city":"Vadodara","state":"Gujarat","latitude":22.3072,"longitude":73.1812,"temp":29.2,"humidity":78,"rain":0.0,"pressure":1001.0,"uv_index":5.55,"wind_gusts":44.6,"aqi":70,"pm10":25.8,"pm2_5":19.4,"no2":20.8,"co":218.0,"o3":48.0,"so2":20.9,"mosquito_risk":7,"arthritis_risk":5,"migraine_risk":0,"frizz_risk":1,"updated_at":"2026-07-17T20:45:47.133078+05:30"},{"city":"Rajkot","state":"Gujarat","latitude":22.3039,"longitude":70.8022,"temp":29.2,"humidity":69,"rain":0.0,"pressure":990.6,"uv_index":7.65,"wind_gusts":41.8,"aqi":62,"pm10":26.6,"pm2_5":15.2,"no2":6.3,"co":147.0,"o3":49.0,"so2":5.7,"mosquito_risk":7,"arthritis_risk":5,"migraine_risk":7,"frizz_risk":1,"updated_at":"2026-07-17T20:45:47.133082+05:30"},{"city":"Thane","state":"Maharashtra","latitude":19.2183,"longitude":72.9781,"temp":26.3,"humidity":96,"rain":0.0,"pressure":1006.5,"uv_index":7.05,"wind_gusts":34.6,"aqi":68,"pm10":32.7,"pm2_5":16.8,"no2":14.6,"co":406.0,"o3":41.0,"so2":10.3,"mosquito_risk":7,"arthritis_risk":5,"migraine_risk":4,"frizz_risk":1,"updated_at":"2026-07-17T20:45:47.133086+05:30"},{"city":"Nagpur","state":"Maharashtra","latitude":21.1458,"longitude":79.0882,"temp":25.8,"humidity":89,"rain":0.3,"pressure":971.4,"uv_index":1.7,"wind_gusts":23.8,"aqi":92,"pm10":33.2,"pm2_5":23.6,"no2":20.1,"co":401.0,"o3":39.0,"so2":13.5,"mosquito_risk":10,"arthritis_risk":5,"migraine_risk":3,"frizz_risk":1,"updated_at":"2026-07-17T20:45:47.133123+05:30"},{"city":"Nashik","state":"Maharashtra","latitude":19.9975,"longitude":73.7898,"temp":23.5,"humidity":92,"rain":0.0,"pressure":944.0,"uv_index":7.95,"wind_gusts":42.8,"aqi":46,"pm10":11.3,"pm2_5":7.0,"no2":9.1,"co":161.0,"o3":52.0,"so2":7.1,"mosquito_risk":3,"arthritis_risk":5,"migraine_risk":7,"frizz_risk":1,"updated_at":"2026-07-17T20:45:47.133131+05:30"},{"city":"Aurangabad","state":"Maharashtra","latitude":19.8762,"longitude":75.3433,"temp":24.8,"humidity":85,"rain":0.0,"pressure":942.6,"uv_index":7.95,"wind_gusts":45.4,"aqi":57,"pm10":12.0,"pm2_5":9.2,"no2":8.9,"co":182.0,"o3":54.0,"so2":6.4,"mosquito_risk":3,"arthritis_risk":5,"migraine_risk":7,"frizz_risk":1,"updated_at":"2026-07-17T20:45:47.133136+05:30"},{"city":"Solapur","state":"Maharashtra","latitude":17.6599,"longitude":75.9064,"temp":23.2,"humidity":96,"rain":0.3,"pressure":957.0,"uv_index":6.0,"wind_gusts":45.0,"aqi":53,"pm10":22.2,"pm2_5":11.5,"no2":5.3,"co":152.0,"o3":54.0,"so2":2.6,"mosquito_risk":6,"arthritis_risk":5,"migraine_risk":3,"frizz_risk":1,"updated_at":"2026-07-17T20:45:47.133143+05:30"},{"city":"Kolhapur","state":"Maharashtra","latitude":16.705,"longitude":74.2433,"temp":22.8,"humidity":91,"rain":0.0,"pressure":948.0,"uv_index":8.3,"wind_gusts":46.4,"aqi":38,"pm10":9.0,"pm2_5":6.7,"no2":7.9,"co":164.0,"o3":40.0,"so2":2.7,"mosquito_risk":3,"arthritis_risk":5,"migraine_risk":7,"frizz_risk":1,"updated_at":"2026-07-17T20:45:47.133147+05:30"},{"city":"Goa","state":"Goa","latitude":15.2993,"longitude":74.124,"temp":23.9,"humidity":98,"rain":0.1,"pressure":999.4,"uv_index":7.6,"wind_gusts":28.8,"aqi":61,"pm10":30.6,"pm2_5":15.8,"no2":4.9,"co":266.0,"o3":47.0,"so2":1.6,"mosquito_risk":6,"arthritis_risk":5,"migraine_risk":7,"frizz_risk":1,"updated_at":"2026-07-17T20:45:47.133151+05:30"},{"city":"Jodhpur","state":"Rajasthan","latitude":26.2389,"longitude":73.0243,"temp":33.5,"humidity":45,"rain":0.0,"pressure":977.6,"uv_index":8.4,"wind_gusts":43.6,"aqi":124,"pm10":266.4,"pm2_5":56.0,"no2":6.2,"co":150.0,"o3":61.0,"so2":2.0,"mosquito_risk":0,"arthritis_risk":5,"migraine_risk":7,"frizz_risk":1,"updated_at":"2026-07-17T20:45:47.133155+05:30"},{"city":"Udaipur","state":"Rajasthan","latitude":24.5854,"longitude":73.7125,"temp":28.1,"humidity":65,"rain":0.0,"pressure":942.8,"uv_index":8.6,"wind_gusts":34.2,"aqi":74,"pm10":41.1,"pm2_5":20.8,"no2":4.8,"co":152.0,"o3":75.0,"so2":3.5,"mosquito_risk":7,"arthritis_risk":5,"migraine_risk":7,"frizz_risk":1,"updated_at":"2026-07-17T20:45:47.133159+05:30"},{"city":"Kota","state":"Rajasthan","latitude":25.2138,"longitude":75.8648,"temp":33.3,"humidity":50,"rain":0.0,"pressure":974.3,"uv_index":7.35,"wind_gusts":32.4,"aqi":87,"pm10":42.7,"pm2_5":25.7,"no2":12.2,"co":207.0,"o3":71.0,"so2":6.5,"mosquito_risk":0,"arthritis_risk":5,"migraine_risk":7,"frizz_risk":1,"updated_at":"2026-07-17T20:45:47.133163+05:30"},{"city":"Bikaner","state":"Rajasthan","latitude":28.0229,"longitude":73.3119,"temp":35.8,"humidity":38,"rain":0.0,"pressure":975.2,"uv_index":8.4,"wind_gusts":39.2,"aqi":121,"pm10":118.7,"pm2_5":41.6,"no2":2.2,"co":130.0,"o3":73.0,"so2":2.9,"mosquito_risk":0,"arthritis_risk":5,"migraine_risk":10,"frizz_risk":1,"updated_at":"2026-07-17T20:45:47.133167+05:30"},{"city":"Ajmer","state":"Rajasthan","latitude":26.4499,"longitude":74.6399,"temp":30.2,"humidity":58,"rain":0.0,"pressure":950.3,"uv_index":8.25,"wind_gusts":45.7,"aqi":79,"pm10":37.8,"pm2_5":22.2,"no2":10.9,"co":161.0,"o3":60.0,"so2":3.6,"mosquito_risk":0,"arthritis_risk":5,"migraine_risk":7,"frizz_risk":1,"updated_at":"2026-07-17T20:45:47.133171+05:30"},{"city":"Gwalior","state":"Madhya Pradesh","latitude":26.2183,"longitude":78.1828,"temp":31.2,"humidity":71,"rain":0.0,"pressure":978.3,"uv_index":6.85,"wind_gusts":44.6,"aqi":108,"pm10":105.9,"pm2_5":47.8,"no2":12.0,"co":207.0,"o3":60.0,"so2":4.1,"mosquito_risk":3,"arthritis_risk":5,"migraine_risk":7,"frizz_risk":1,"updated_at":"2026-07-17T20:45:47.133175+05:30"},{"city":"Indore","state":"Madhya Pradesh","latitude":22.7196,"longitude":75.8577,"temp":28.7,"humidity":65,"rain":0.0,"pressure":945.4,"uv_index":8.55,"wind_gusts":39.2,"aqi":74,"pm10":38.2,"pm2_5":25.3,"no2":12.7,"co":331.0,"o3":68.0,"so2":6.9,"mosquito_risk":7,"arthritis_risk":5,"migraine_risk":7,"frizz_risk":1,"updated_at":"2026-07-17T20:45:47.133179+05:30"},{"city":"Bhopal","state":"Madhya Pradesh","latitude":23.2599,"longitude":77.4126,"temp":28.9,"humidity":71,"rain":0.0,"pressure":950.5,"uv_index":8.4,"wind_gusts":33.5,"aqi":84,"pm10":34.5,"pm2_5":22.1,"no2":8.8,"co":277.0,"o3":69.0,"so2":5.0,"mosquito_risk":7,"arthritis_risk":5,"migraine_risk":7,"frizz_risk":1,"updated_at":"2026-07-17T20:45:47.133183+05:30"},{"city":"Jabalpur","state":"Madhya Pradesh","latitude":23.1815,"longitude":79.9864,"temp":25.8,"humidity":97,"rain":0.3,"pressure":958.2,"uv_index":3.6,"wind_gusts":38.9,"aqi":81,"pm10":37.7,"pm2_5":28.6,"no2":8.5,"co":280.0,"o3":74.0,"so2":6.2,"mosquito_risk":10,"arthritis_risk":5,"migraine_risk":3,"frizz_risk":1,"updated_at":"2026-07-17T20:45:47.133186+05:30"},{"city":"Ujjain","state":"Madhya Pradesh","latitude":23.1765,"longitude":75.7885,"temp":28.3,"humidity":70,"rain":0.0,"pressure":950.6,"uv_index":8.1,"wind_gusts":38.9,"aqi":74,"pm10":38.0,"pm2_5":24.7,"no2":7.5,"co":472.0,"o3":74.0,"so2":5.1,"mosquito_risk":7,"arthritis_risk":5,"migraine_risk":7,"frizz_risk":1,"updated_at":"2026-07-17T20:45:47.133190+05:30"},{"city":"Visakhapatnam","state":"Andhra Pradesh","latitude":17.6868,"longitude":83.2185,"temp":29.3,"humidity":75,"rain":0.0,"pressure":999.7,"uv_index":7.6,"wind_gusts":43.2,"aqi":89,"pm10":38.4,"pm2_5":29.7,"no2":24.8,"co":315.0,"o3":70.0,"so2":39.3,"mosquito_risk":7,"arthritis_risk":5,"migraine_risk":7,"frizz_risk":1,"updated_at":"2026-07-17T20:45:47.133194+05:30"},{"city":"Vijayawada","state":"Andhra Pradesh","latitude":16.5062,"longitude":80.648,"temp":28.7,"humidity":78,"rain":0.0,"pressure":1001.0,"uv_index":2.6,"wind_gusts":40.7,"aqi":87,"pm10":39.8,"pm2_5":28.9,"no2":12.4,"co":293.0,"o3":64.0,"so2":9.2,"mosquito_risk":7,"arthritis_risk":5,"migraine_risk":0,"frizz_risk":1,"updated_at":"2026-07-17T20:45:47.133197+05:30"},{"city":"Guntur","state":"Andhra Pradesh","latitude":16.3067,"longitude":80.4365,"temp":29.4,"humidity":73,"rain":0.0,"pressure":1002.4,"uv_index":3.65,"wind_gusts":43.9,"aqi":82,"pm10":40.4,"pm2_5":27.7,"no2":11.7,"co":293.0,"o3":65.0,"so2":9.0,"mosquito_risk":7,"arthritis_risk":5,"migraine_risk":0,"frizz_risk":1,"updated_at":"2026-07-17T20:45:47.133201+05:30"},{"city":"Nellore","state":"Andhra Pradesh","latitude":14.4426,"longitude":79.9865,"temp":26.6,"humidity":93,"rain":0.2,"pressure":1005.8,"uv_index":5.0,"wind_gusts":45.4,"aqi":60,"pm10":11.3,"pm2_5":7.2,"no2":6.3,"co":142.0,"o3":56.0,"so2":2.8,"mosquito_risk":10,"arthritis_risk":5,"migraine_risk":0,"frizz_risk":1,"updated_at":"2026-07-17T20:45:47.133206+05:30"},{"city":"Kurnool","state":"Andhra Pradesh","latitude":15.8281,"longitude":78.0373,"temp":24.1,"humidity":92,"rain":0.2,"pressure":977.2,"uv_index":5.55,"wind_gusts":41.4,"aqi":61,"pm10":18.7,"pm2_5":10.6,"no2":7.6,"co":151.0,"o3":61.0,"so2":3.4,"mosquito_risk":6,"arthritis_risk":5,"migraine_risk":3,"frizz_risk":1,"updated_at":"2026-07-17T20:45:47.133210+05:30"},{"city":"Kakinada","state":"Andhra Pradesh","latitude":16.9891,"longitude":82.2475,"temp":29.5,"humidity":74,"rain":0.0,"pressure":1004.6,"uv_index":7.75,"wind_gusts":49.3,"aqi":83,"pm10":45.3,"pm2_5":31.2,"no2":7.7,"co":247.0,"o3":96.0,"so2":7.5,"mosquito_risk":7,"arthritis_risk":5,"migraine_risk":4,"frizz_risk":1,"updated_at":"2026-07-17T20:45:47.133214+05:30"},{"city":"Tirupati","state":"Andhra Pradesh","latitude":13.6288,"longitude":79.4192,"temp":24.8,"humidity":95,"rain":0.1,"pressure":991.6,"uv_index":6.0,"wind_gusts":40.3,"aqi":77,"pm10":18.5,"pm2_5":16.1,"no2":28.7,"co":186.0,"o3":22.0,"so2":3.4,"mosquito_risk":6,"arthritis_risk":5,"migraine_risk":3,"frizz_risk":1,"updated_at":"2026-07-17T20:45:47.133218+05:30"},{"city":"Warangal","state":"Telangana","latitude":17.9689,"longitude":79.5941,"temp":26.2,"humidity":91,"rain":0.0,"pressure":977.4,"uv_index":5.95,"wind_gusts":38.2,"aqi":89,"pm10":31.4,"pm2_5":24.0,"no2":12.3,"co":312.0,"o3":49.0,"so2":6.6,"mosquito_risk":7,"arthritis_risk":5,"migraine_risk":3,"frizz_risk":1,"updated_at":"2026-07-17T20:45:47.133221+05:30"},{"city":"Nizamabad","state":"Telangana","latitude":18.6725,"longitude":78.0941,"temp":26.1,"humidity":86,"rain":0.0,"pressure":963.6,"uv_index":1.6,"wind_gusts":31.7,"aqi":79,"pm10":39.5,"pm2_5":26.2,"no2":13.4,"co":245.0,"o3":54.0,"so2":7.3,"mosquito_risk":7,"arthritis_risk":5,"migraine_risk":3,"frizz_risk":1,"updated_at":"2026-07-17T20:45:47.133225+05:30"},{"city":"Mysore","state":"Karnataka","latitude":12.2958,"longitude":76.6396,"temp":22.0,"humidity":88,"rain":0.0,"pressure":929.8,"uv_index":2.95,"wind_gusts":42.1,"aqi":31,"pm10":11.8,"pm2_5":7.6,"no2":11.0,"co":171.0,"o3":42.0,"so2":2.3,"mosquito_risk":3,"arthritis_risk":5,"migraine_risk":3,"frizz_risk":1,"updated_at":"2026-07-17T20:45:47.133228+05:30"},{"city":"Mangalore","state":"Karnataka","latitude":12.9141,"longitude":74.856,"temp":24.0,"humidity":98,"rain":0.0,"pressure":1009.2,"uv_index":1.25,"wind_gusts":28.4,"aqi":55,"pm10":28.3,"pm2_5":14.4,"no2":7.4,"co":296.0,"o3":45.0,"so2":2.9,"mosquito_risk":3,"arthritis_risk":0,"migraine_risk":0,"frizz_risk":1,"updated_at":"2026-07-17T20:45:47.133232+05:30"},{"city":"Hubli-Dharwad","state":"Karnataka","latitude":15.3647,"longitude":75.124,"temp":21.8,"humidity":96,"rain":0.0,"pressure":941.3,"uv_index":8.65,"wind_gusts":46.1,"aqi":26,"pm10":6.2,"pm2_5":4.0,"no2":5.1,"co":150.0,"o3":45.0,"so2":1.4,"mosquito_risk":3,"arthritis_risk":5,"migraine_risk":7,"frizz_risk":1,"updated_at":"2026-07-17T20:45:47.133236+05:30"},{"city":"Belgaum","state":"Karnataka","latitude":15.8497,"longitude":74.4977,"temp":21.1,"humidity":96,"rain":0.0,"pressure":925.9,"uv_index":8.9,"wind_gusts":49.0,"aqi":26,"pm10":6.0,"pm2_5":4.4,"no2":6.8,"co":129.0,"o3":40.0,"so2":2.1,"mosquito_risk":3,"arthritis_risk":5,"migraine_risk":7,"frizz_risk":1,"updated_at":"2026-07-17T20:45:50.452362+05:30"},{"city":"Coimbatore","state":"Tamil Nadu","latitude":11.0168,"longitude":76.9558,"temp":23.4,"humidity":92,"rain":0.0,"pressure":962.7,"uv_index":8.45,"wind_gusts":49.3,"aqi":47,"pm10":13.9,"pm2_5":9.5,"no2":10.2,"co":247.0,"o3":40.0,"so2":3.6,"mosquito_risk":3,"arthritis_risk":5,"migraine_risk":7,"frizz_risk":1,"updated_at":"2026-07-17T20:45:50.452383+05:30"},{"city":"Madurai","state":"Tamil Nadu","latitude":9.9252,"longitude":78.1198,"temp":30.1,"humidity":52,"rain":0.0,"pressure":993.5,"uv_index":8.65,"wind_gusts":47.5,"aqi":74,"pm10":25.8,"pm2_5":15.0,"no2":13.7,"co":206.0,"o3":56.0,"so2":4.1,"mosquito_risk":0,"arthritis_risk":5,"migraine_risk":7,"frizz_risk":1,"updated_at":"2026-07-17T20:45:50.452389+05:30"},{"city":"Trichy","state":"Tamil Nadu","latitude":10.7905,"longitude":78.7047,"temp":30.5,"humidity":50,"rain":0.0,"pressure":1000.3,"uv_index":8.75,"wind_gusts":62.6,"aqi":58,"pm10":15.7,"pm2_5":11.5,"no2":12.7,"co":146.0,"o3":50.0,"so2":4.2,"mosquito_risk":0,"arthritis_risk":5,"migraine_risk":4,"frizz_risk":1,"updated_at":"2026-07-17T20:45:50.452393+05:30"},{"city":"Salem","state":"Tamil Nadu","latitude":11.6643,"longitude":78.146,"temp":26.8,"humidity":84,"rain":0.0,"pressure":978.1,"uv_index":7.25,"wind_gusts":42.1,"aqi":69,"pm10":25.1,"pm2_5":19.3,"no2":25.2,"co":330.0,"o3":39.0,"so2":8.9,"mosquito_risk":7,"arthritis_risk":5,"migraine_risk":7,"frizz_risk":1,"updated_at":"2026-07-17T20:45:50.452398+05:30"},{"city":"Tirunelveli","state":"Tamil Nadu","latitude":8.7139,"longitude":77.7567,"temp":29.8,"humidity":57,"rain":0.0,"pressure":1004.6,"uv_index":8.25,"wind_gusts":46.4,"aqi":51,"pm10":11.6,"pm2_5":8.2,"no2":6.5,"co":133.0,"o3":52.0,"so2":1.8,"mosquito_risk":4,"arthritis_risk":5,"migraine_risk":4,"frizz_risk":1,"updated_at":"2026-07-17T20:45:50.452402+05:30"},{"city":"Vellore","state":"Tamil Nadu","latitude":12.9165,"longitude":79.1325,"temp":29.5,"humidity":58,"rain":0.0,"pressure":984.6,"uv_index":8.15,"wind_gusts":46.4,"aqi":63,"pm10":7.5,"pm2_5":6.6,"no2":10.7,"co":226.0,"o3":51.0,"so2":3.8,"mosquito_risk":4,"arthritis_risk":5,"migraine_risk":7,"frizz_risk":1,"updated_at":"2026-07-17T20:45:50.452406+05:30"},{"city":"Erode","state":"Tamil Nadu","latitude":11.341,"longitude":77.7172,"temp":26.7,"humidity":75,"rain":0.0,"pressure":990.0,"uv_index":8.8,"wind_gusts":42.8,"aqi":57,"pm10":17.5,"pm2_5":12.6,"no2":17.0,"co":233.0,"o3":42.0,"so2":3.8,"mosquito_risk":7,"arthritis_risk":5,"migraine_risk":7,"frizz_risk":1,"updated_at":"2026-07-17T20:45:50.452409+05:30"},{"city":"Kochi","state":"Kerala","latitude":9.9312,"longitude":76.2673,"temp":26.6,"humidity":85,"rain":0.0,"pressure":1011.4,"uv_index":7.2,"wind_gusts":29.9,"aqi":59,"pm10":22.6,"pm2_5":16.7,"no2":22.2,"co":207.0,"o3":25.0,"so2":5.8,"mosquito_risk":7,"arthritis_risk":0,"migraine_risk":4,"frizz_risk":1,"updated_at":"2026-07-17T20:45:50.452413+05:30"},{"city":"Thiruvananthapuram","state":"Kerala","latitude":8.5241,"longitude":76.9366,"temp":26.0,"humidity":87,"rain":0.0,"pressure":1010.8,"uv_index":8.35,"wind_gusts":46.1,"aqi":60,"pm10":18.8,"pm2_5":10.7,"no2":4.3,"co":150.0,"o3":54.0,"so2":1.5,"mosquito_risk":7,"arthritis_risk":0,"migraine_risk":4,"frizz_risk":1,"updated_at":"2026-07-17T20:45:50.452417+05:30"},{"city":"Kozhikode","state":"Kerala","latitude":11.2588,"longitude":75.7804,"temp":25.0,"humidity":93,"rain":0.0,"pressure":1010.6,"uv_index":1.8,"wind_gusts":28.4,"aqi":53,"pm10":22.1,"pm2_5":10.3,"no2":1.6,"co":393.0,"o3":58.0,"so2":1.2,"mosquito_risk":7,"arthritis_risk":0,"migraine_risk":0,"frizz_risk":1,"updated_at":"2026-07-17T20:45:50.452420+05:30"},{"city":"Thrissur","state":"Kerala","latitude":10.5276,"longitude":76.2144,"temp":24.7,"humidity":96,"rain":0.0,"pressure":1009.9,"uv_index":4.7,"wind_gusts":27.7,"aqi":54,"pm10":24.2,"pm2_5":17.5,"no2":15.0,"co":349.0,"o3":32.0,"so2":4.0,"mosquito_risk":3,"arthritis_risk":0,"migraine_risk":0,"frizz_risk":1,"updated_at":"2026-07-17T20:45:50.452425+05:30"},{"city":"Kannur","state":"Kerala","latitude":11.8745,"longitude":75.3704,"temp":24.3,"humidity":94,"rain":0.1,"pressure":1010.3,"uv_index":2.05,"wind_gusts":33.5,"aqi":52,"pm10":23.1,"pm2_5":14.1,"no2":15.3,"co":387.0,"o3":29.0,"so2":2.8,"mosquito_risk":6,"arthritis_risk":0,"migraine_risk":0,"frizz_risk":1,"updated_at":"2026-07-17T20:45:50.452429+05:30"},{"city":"Patna","state":"Bihar","latitude":25.5941,"longitude":85.1376,"temp":29.4,"humidity":88,"rain":0.0,"pressure":995.2,"uv_index":8.4,"wind_gusts":27.4,"aqi":100,"pm10":31.0,"pm2_5":30.5,"no2":18.6,"co":368.0,"o3":77.0,"so2":7.8,"mosquito_risk":7,"arthritis_risk":5,"migraine_risk":7,"frizz_risk":1,"updated_at":"2026-07-17T20:45:50.452433+05:30"},{"city":"Gaya","state":"Bihar","latitude":24.7914,"longitude":85.0002,"temp":27.7,"humidity":96,"rain":0.0,"pressure":988.5,"uv_index":7.4,"wind_gusts":28.1,"aqi":102,"pm10":20.8,"pm2_5":20.6,"no2":10.2,"co":423.0,"o3":87.0,"so2":5.3,"mosquito_risk":7,"arthritis_risk":5,"migraine_risk":7,"frizz_risk":1,"updated_at":"2026-07-17T20:45:50.452436+05:30"},{"city":"Muzaffarpur","state":"Bihar","latitude":26.1209,"longitude":85.3647,"temp":27.7,"humidity":93,"rain":0.1,"pressure":995.4,"uv_index":7.4,"wind_gusts":30.6,"aqi":95,"pm10":28.1,"pm2_5":27.6,"no2":17.9,"co":362.0,"o3":71.0,"so2":6.3,"mosquito_risk":10,"arthritis_risk":5,"migraine_risk":7,"frizz_risk":1,"updated_at":"2026-07-17T20:45:50.452440+05:30"},{"city":"Bhagalpur","state":"Bihar","latitude":25.2425,"longitude":87.0117,"temp":29.6,"humidity":82,"rain":0.0,"pressure":995.7,"uv_index":7.7,"wind_gusts":30.6,"aqi":71,"pm10":26.0,"pm2_5":25.6,"no2":19.1,"co":273.0,"o3":62.0,"so2":9.7,"mosquito_risk":7,"arthritis_risk":5,"migraine_risk":7,"frizz_risk":1,"updated_at":"2026-07-17T20:45:50.452443+05:30"},{"city":"Ranchi","state":"Jharkhand","latitude":23.3441,"longitude":85.3096,"temp":23.9,"humidity":96,"rain":0.0,"pressure":932.8,"uv_index":8.85,"wind_gusts":27.4,"aqi":72,"pm10":26.0,"pm2_5":25.2,"no2":16.5,"co":265.0,"o3":64.0,"so2":6.2,"mosquito_risk":3,"arthritis_risk":5,"migraine_risk":7,"frizz_risk":1,"updated_at":"2026-07-17T20:45:50.452447+05:30"},{"city":"Jamshedpur","state":"Jharkhand","latitude":22.8046,"longitude":86.2029,"temp":27.1,"humidity":95,"rain":0.1,"pressure":985.5,"uv_index":8.85,"wind_gusts":23.4,"aqi":94,"pm10":36.0,"pm2_5":35.5,"no2":20.3,"co":390.0,"o3":81.0,"so2":24.5,"mosquito_risk":10,"arthritis_risk":5,"migraine_risk":7,"frizz_risk":1,"updated_at":"2026-07-17T20:45:50.452451+05:30"},{"city":"Dhanbad","state":"Jharkhand","latitude":23.7957,"longitude":86.4304,"temp":27.2,"humidity":94,"rain":0.0,"pressure":974.5,"uv_index":7.15,"wind_gusts":20.2,"aqi":100,"pm10":63.6,"pm2_5":63.3,"no2":65.3,"co":321.0,"o3":39.0,"so2":126.5,"mosquito_risk":7,"arthritis_risk":5,"migraine_risk":7,"frizz_risk":1,"updated_at":"2026-07-17T20:45:50.452454+05:30"},{"city":"Bokaro","state":"Jharkhand","latitude":23.6693,"longitude":86.1511,"temp":27.5,"humidity":95,"rain":0.0,"pressure":978.2,"uv_index":6.85,"wind_gusts":22.0,"aqi":97,"pm10":43.8,"pm2_5":43.5,"no2":43.0,"co":373.0,"o3":54.0,"so2":95.3,"mosquito_risk":7,"arthritis_risk":5,"migraine_risk":7,"frizz_risk":1,"updated_at":"2026-07-17T20:45:50.452458+05:30"},{"city":"Bhubaneswar","state":"Odisha","latitude":20.2961,"longitude":85.8245,"temp":26.9,"humidity":92,"rain":0.0,"pressure":997.9,"uv_index":6.6,"wind_gusts":35.6,"aqi":73,"pm10":16.4,"pm2_5":14.1,"no2":7.9,"co":339.0,"o3":90.0,"so2":4.7,"mosquito_risk":7,"arthritis_risk":5,"migraine_risk":7,"frizz_risk":1,"updated_at":"2026-07-17T20:45:50.452461+05:30"},{"city":"Cuttack","state":"Odisha","latitude":20.4625,"longitude":85.8828,"temp":27.0,"humidity":91,"rain":0.0,"pressure":999.6,"uv_index":6.55,"wind_gusts":34.2,"aqi":73,"pm10":16.4,"pm2_5":14.1,"no2":7.9,"co":369.0,"o3":90.0,"so2":4.7,"mosquito_risk":7,"arthritis_risk":5,"migraine_risk":7,"frizz_risk":1,"updated_at":"2026-07-17T20:45:50.452465+05:30"},{"city":"Rourkela","state":"Odisha","latitude":22.2604,"longitude":84.8536,"temp":26.2,"humidity":98,"rain":0.1,"pressure":980.2,"uv_index":6.85,"wind_gusts":28.4,"aqi":73,"pm10":21.5,"pm2_5":19.3,"no2":12.1,"co":450.0,"o3":76.0,"so2":2.7,"mosquito_risk":10,"arthritis_risk":5,"migraine_risk":7,"frizz_risk":1,"updated_at":"2026-07-17T20:45:50.452468+05:30"},{"city":"Raipur","state":"Chhattisgarh","latitude":21.2514,"longitude":81.6296,"temp":26.1,"humidity":81,"rain":0.0,"pressure":971.7,"uv_index":2.8,"wind_gusts":36.7,"aqi":97,"pm10":38.4,"pm2_5":27.1,"no2":27.1,"co":224.0,"o3":58.0,"so2":40.5,"mosquito_risk":7,"arthritis_risk":5,"migraine_risk":3,"frizz_risk":1,"updated_at":"2026-07-17T20:45:50.452472+05:30"},{"city":"Bhilai","state":"Chhattisgarh","latitude":21.1938,"longitude":81.3509,"temp":24.9,"humidity":85,"rain":0.1,"pressure":972.2,"uv_index":4.65,"wind_gusts":34.2,"aqi":91,"pm10":35.7,"pm2_5":25.5,"no2":21.8,"co":574.0,"o3":60.0,"so2":33.0,"mosquito_risk":6,"arthritis_risk":5,"migraine_risk":3,"frizz_risk":1,"updated_at":"2026-07-17T20:45:50.452476+05:30"},{"city":"Guwahati","state":"Assam","latitude":26.1158,"longitude":91.7086,"temp":26.8,"humidity":96,"rain":0.1,"pressure":998.3,"uv_index":7.35,"wind_gusts":24.5,"aqi":55,"pm10":13.9,"pm2_5":12.8,"no2":9.0,"co":413.0,"o3":53.0,"so2":2.2,"mosquito_risk":10,"arthritis_risk":5,"migraine_risk":7,"frizz_risk":1,"updated_at":"2026-07-17T20:45:50.452479+05:30"},{"city":"Agartala","state":"Tripura","latitude":23.8315,"longitude":91.2868,"temp":27.1,"humidity":86,"rain":0.0,"pressure":1003.9,"uv_index":7.55,"wind_gusts":53.3,"aqi":57,"pm10":17.8,"pm2_5":14.4,"no2":6.5,"co":165.0,"o3":66.0,"so2":2.4,"mosquito_risk":7,"arthritis_risk":5,"migraine_risk":4,"frizz_risk":1,"updated_at":"2026-07-17T20:45:50.452483+05:30"},{"city":"Shillong","state":"Meghalaya","latitude":25.5788,"longitude":91.8933,"temp":20.4,"humidity":97,"rain":0.1,"pressure":855.8,"uv_index":4.65,"wind_gusts":44.6,"aqi":38,"pm10":3.2,"pm2_5":2.9,"no2":7.0,"co":205.0,"o3":59.0,"so2":1.9,"mosquito_risk":6,"arthritis_risk":5,"migraine_risk":3,"frizz_risk":1,"updated_at":"2026-07-17T20:45:50.452487+05:30"},{"city":"Imphal","state":"Manipur","latitude":24.817,"longitude":93.9368,"temp":23.4,"humidity":95,"rain":0.0,"pressure":922.5,"uv_index":4.55,"wind_gusts":12.6,"aqi":62,"pm10":28.9,"pm2_5":23.1,"no2":18.5,"co":767.0,"o3":40.0,"so2":4.1,"mosquito_risk":3,"arthritis_risk":5,"migraine_risk":3,"frizz_risk":1,"updated_at":"2026-07-17T20:45:50.452491+05:30"},{"city":"Aizawl","state":"Mizoram","latitude":23.7271,"longitude":92.7176,"temp":20.7,"humidity":87,"rain":0.0,"pressure":891.9,"uv_index":6.45,"wind_gusts":42.5,"aqi":59,"pm10":11.7,"pm2_5":7.8,"no2":2.4,"co":133.0,"o3":59.0,"so2":1.2,"mosquito_risk":3,"arthritis_risk":5,"migraine_risk":7,"frizz_risk":1,"updated_at":"2026-07-17T20:45:50.452495+05:30"},{"city":"Kohima","state":"Nagaland","latitude":25.6701,"longitude":94.1077,"temp":21.2,"humidity":87,"rain":0.0,"pressure":854.8,"uv_index":2.85,"wind_gusts":19.4,"aqi":52,"pm10":16.0,"pm2_5":11.6,"no2":7.2,"co":386.0,"o3":54.0,"so2":1.6,"mosquito_risk":3,"arthritis_risk":5,"migraine_risk":3,"frizz_risk":1,"updated_at":"2026-07-17T20:45:50.452499+05:30"},{"city":"Gangtok","state":"Sikkim","latitude":27.3314,"longitude":88.6138,"temp":19.6,"humidity":99,"rain":0.2,"pressure":836.9,"uv_index":6.15,"wind_gusts":33.1,"aqi":47,"pm10":5.3,"pm2_5":4.4,"no2":5.1,"co":237.0,"o3":98.0,"so2":1.8,"mosquito_risk":6,"arthritis_risk":10,"migraine_risk":7,"frizz_risk":1,"updated_at":"2026-07-17T20:45:50.452503+05:30"},{"city":"Siliguri","state":"West Bengal","latitude":26.7271,"longitude":88.3953,"temp":26.4,"humidity":95,"rain":0.0,"pressure":989.7,"uv_index":7.9,"wind_gusts":29.2,"aqi":68,"pm10":24.9,"pm2_5":20.0,"no2":8.5,"co":392.0,"o3":98.0,"so2":3.8,"mosquito_risk":7,"arthritis_risk":5,"migraine_risk":7,"frizz_risk":1,"updated_at":"2026-07-17T20:45:53.775263+05:30"},{"city":"Durgapur","state":"West Bengal","latitude":23.5204,"longitude":87.3119,"temp":27.6,"humidity":93,"rain":0.0,"pressure":989.5,"uv_index":8.1,"wind_gusts":30.2,"aqi":85,"pm10":40.6,"pm2_5":40.5,"no2":37.4,"co":736.0,"o3":60.0,"so2":46.9,"mosquito_risk":7,"arthritis_risk":5,"migraine_risk":7,"frizz_risk":1,"updated_at":"2026-07-17T20:45:53.775287+05:30"},{"city":"Asansol","state":"West Bengal","latitude":23.6739,"longitude":86.9524,"temp":27.8,"humidity":93,"rain":0.0,"pressure":988.1,"uv_index":8.05,"wind_gusts":28.4,"aqi":82,"pm10":40.7,"pm2_5":40.6,"no2":42.7,"co":837.0,"o3":57.0,"so2":53.8,"mosquito_risk":7,"arthritis_risk":5,"migraine_risk":7,"frizz_risk":1,"updated_at":"2026-07-17T20:45:53.775292+05:30"},{"city":"Pondicherry","state":"Puducherry","latitude":11.9139,"longitude":79.8145,"temp":28.3,"humidity":78,"rain":0.0,"pressure":1008.2,"uv_index":8.7,"wind_gusts":38.5,"aqi":79,"pm10":33.8,"pm2_5":22.2,"no2":15.9,"co":260.0,"o3":76.0,"so2":14.1,"mosquito_risk":7,"arthritis_risk":0,"migraine_risk":4,"frizz_risk":1,"updated_at":"2026-07-17T20:45:53.775297+05:30"},{"city":"Port Blair","state":"Andaman and Nicobar Islands","latitude":11.6234,"longitude":92.7265,"temp":27.0,"humidity":85,"rain":0.0,"pressure":1009.0,"uv_index":7.0,"wind_gusts":37.8,"aqi":43,"pm10":12.3,"pm2_5":6.4,"no2":0.3,"co":99.0,"o3":42.0,"so2":0.5,"mosquito_risk":7,"arthritis_risk":0,"migraine_risk":4,"frizz_risk":1,"updated_at":"2026-07-17T20:45:53.775302+05:30"},{"city":"Haridwar","state":"Uttarakhand","latitude":29.9457,"longitude":78.1642,"temp":29.6,"humidity":87,"rain":0.1,"pressure":967.8,"uv_index":7.2,"wind_gusts":25.2,"aqi":174,"pm10":98.5,"pm2_5":78.2,"no2":27.5,"co":466.0,"o3":107.0,"so2":16.1,"mosquito_risk":10,"arthritis_risk":5,"migraine_risk":7,"frizz_risk":1,"updated_at":"2026-07-17T20:45:53.775307+05:30"},{"city":"Rishikesh","state":"Uttarakhand","latitude":30.0869,"longitude":78.2676,"temp":28.7,"humidity":81,"rain":0.1,"pressure":960.8,"uv_index":7.35,"wind_gusts":27.0,"aqi":169,"pm10":68.9,"pm2_5":54.4,"no2":6.8,"co":400.0,"o3":162.0,"so2":12.2,"mosquito_risk":10,"arthritis_risk":5,"migraine_risk":7,"frizz_risk":1,"updated_at":"2026-07-17T20:45:53.775311+05:30"},{"city":"Nainital","state":"Uttarakhand","latitude":29.3919,"longitude":79.4542,"temp":18.4,"humidity":99,"rain":0.1,"pressure":803.6,"uv_index":6.15,"wind_gusts":28.8,"aqi":144,"pm10":93.8,"pm2_5":59.3,"no2":12.0,"co":412.0,"o3":123.0,"so2":11.0,"mosquito_risk":6,"arthritis_risk":10,"migraine_risk":7,"frizz_risk":1,"updated_at":"2026-07-17T20:45:53.775316+05:30"},{"city":"Mussoorie","state":"Uttarakhand","latitude":30.4599,"longitude":78.0664,"temp":18.3,"humidity":98,"rain":0.0,"pressure":800.9,"uv_index":6.65,"wind_gusts":40.3,"aqi":159,"pm10":65.7,"pm2_5":59.1,"no2":23.5,"co":471.0,"o3":98.0,"so2":11.4,"mosquito_risk":3,"arthritis_risk":10,"migraine_risk":7,"frizz_risk":1,"updated_at":"2026-07-17T20:45:53.775321+05:30"},{"city":"Dharamshala","state":"Himachal Pradesh","latitude":32.219,"longitude":76.3234,"temp":22.8,"humidity":99,"rain":0.1,"pressure":865.4,"uv_index":7.75,"wind_gusts":31.0,"aqi":104,"pm10":11.3,"pm2_5":9.6,"no2":13.0,"co":423.0,"o3":90.0,"so2":1.3,"mosquito_risk":6,"arthritis_risk":5,"migraine_risk":7,"frizz_risk":1,"updated_at":"2026-07-17T20:45:53.775325+05:30"},{"city":"Dalhousie","state":"Himachal Pradesh","latitude":32.5387,"longitude":75.971,"temp":19.6,"humidity":99,"rain":0.1,"pressure":802.5,"uv_index":7.8,"wind_gusts":24.1,"aqi":135,"pm10":69.8,"pm2_5":46.3,"no2":20.9,"co":560.0,"o3":120.0,"so2":4.5,"mosquito_risk":6,"arthritis_risk":10,"migraine_risk":7,"frizz_risk":1,"updated_at":"2026-07-17T20:45:53.775329+05:30"},{"city":"Patiala","state":"Punjab","latitude":30.3398,"longitude":76.3869,"temp":31.4,"humidity":64,"rain":0.0,"pressure":971.1,"uv_index":7.35,"wind_gusts":34.9,"aqi":193,"pm10":397.7,"pm2_5":113.2,"no2":29.2,"co":501.0,"o3":76.0,"so2":8.7,"mosquito_risk":3,"arthritis_risk":5,"migraine_risk":7,"frizz_risk":1,"updated_at":"2026-07-17T20:45:53.775333+05:30"},{"city":"Bhatinda","state":"Punjab","latitude":30.211,"longitude":74.9455,"temp":36.0,"humidity":40,"rain":0.0,"pressure":976.3,"uv_index":8.25,"wind_gusts":33.8,"aqi":174,"pm10":180.7,"pm2_5":90.3,"no2":48.1,"co":291.0,"o3":51.0,"so2":8.7,"mosquito_risk":0,"arthritis_risk":5,"migraine_risk":10,"frizz_risk":1,"updated_at":"2026-07-17T20:45:53.775337+05:30"},{"city":"Rohtak","state":"Haryana","latitude":28.8955,"longitude":76.6066,"temp":32.3,"humidity":72,"rain":0.0,"pressure":975.1,"uv_index":6.55,"wind_gusts":33.8,"aqi":793,"pm10":523.4,"pm2_5":140.2,"no2":48.9,"co":1026.0,"o3":37.0,"so2":8.7,"mosquito_risk":3,"arthritis_risk":5,"migraine_risk":7,"frizz_risk":1,"updated_at":"2026-07-17T20:45:53.775341+05:30"},{"city":"Panipat","state":"Haryana","latitude":29.3909,"longitude":76.9635,"temp":31.7,"humidity":76,"rain":0.0,"pressure":973.6,"uv_index":7.5,"wind_gusts":32.4,"aqi":1134,"pm10":1113.9,"pm2_5":215.1,"no2":37.4,"co":600.0,"o3":49.0,"so2":8.3,"mosquito_risk":3,"arthritis_risk":5,"migraine_risk":7,"frizz_risk":1,"updated_at":"2026-07-17T20:45:53.775345+05:30"},{"city":"Mathura","state":"Uttar Pradesh","latitude":27.4924,"longitude":77.6737,"temp":32.3,"humidity":64,"rain":0.0,"pressure":981.0,"uv_index":7.25,"wind_gusts":32.0,"aqi":626,"pm10":456.3,"pm2_5":104.8,"no2":35.7,"co":406.0,"o3":38.0,"so2":6.1,"mosquito_risk":3,"arthritis_risk":5,"migraine_risk":7,"frizz_risk":1,"updated_at":"2026-07-17T20:45:53.775350+05:30"},{"city":"Vrindavan","state":"Uttar Pradesh","latitude":27.5823,"longitude":77.7027,"temp":32.2,"humidity":65,"rain":0.0,"pressure":981.3,"uv_index":7.05,"wind_gusts":31.7,"aqi":626,"pm10":456.3,"pm2_5":104.8,"no2":35.7,"co":352.0,"o3":38.0,"so2":6.1,"mosquito_risk":3,"arthritis_risk":5,"migraine_risk":7,"frizz_risk":1,"updated_at":"2026-07-17T20:45:53.775353+05:30"},{"city":"Ayodhya","state":"Uttar Pradesh","latitude":26.7922,"longitude":82.1998,"temp":28.3,"humidity":92,"rain":0.1,"pressure":990.5,"uv_index":7.75,"wind_gusts":26.3,"aqi":121,"pm10":63.3,"pm2_5":54.2,"no2":23.1,"co":570.0,"o3":75.0,"so2":7.8,"mosquito_risk":10,"arthritis_risk":5,"migraine_risk":7,"frizz_risk":1,"updated_at":"2026-07-17T20:45:53.775357+05:30"},{"city":"Ratlam","state":"Madhya Pradesh","latitude":23.3315,"longitude":75.0367,"temp":28.1,"humidity":71,"rain":0.0,"pressure":951.5,"uv_index":8.45,"wind_gusts":33.8,"aqi":72,"pm10":36.1,"pm2_5":22.8,"no2":5.6,"co":176.0,"o3":82.0,"so2":5.3,"mosquito_risk":7,"arthritis_risk":5,"migraine_risk":7,"frizz_risk":1,"updated_at":"2026-07-17T20:45:53.775361+05:30"},{"city":"Sagar","state":"Madhya Pradesh","latitude":23.8388,"longitude":78.7378,"temp":26.1,"humidity":94,"rain":0.0,"pressure":947.0,"uv_index":7.0,"wind_gusts":39.2,"aqi":88,"pm10":46.2,"pm2_5":28.7,"no2":6.9,"co":229.0,"o3":79.0,"so2":5.8,"mosquito_risk":7,"arthritis_risk":5,"migraine_risk":7,"frizz_risk":1,"updated_at":"2026-07-17T20:45:53.775364+05:30"},{"city":"Satna","state":"Madhya Pradesh","latitude":24.6005,"longitude":80.8322,"temp":26.5,"humidity":90,"rain":0.0,"pressure":967.2,"uv_index":8.05,"wind_gusts":37.4,"aqi":115,"pm10":61.7,"pm2_5":34.7,"no2":7.9,"co":218.0,"o3":85.0,"so2":4.2,"mosquito_risk":7,"arthritis_risk":5,"migraine_risk":7,"frizz_risk":1,"updated_at":"2026-07-17T20:45:53.775368+05:30"},{"city":"Akola","state":"Maharashtra","latitude":20.7002,"longitude":77.0082,"temp":29.4,"humidity":66,"rain":0.0,"pressure":973.4,"uv_index":8.55,"wind_gusts":42.1,"aqi":67,"pm10":27.9,"pm2_5":17.1,"no2":9.4,"co":174.0,"o3":62.0,"so2":6.9,"mosquito_risk":7,"arthritis_risk":5,"migraine_risk":7,"frizz_risk":1,"updated_at":"2026-07-17T20:45:53.775373+05:30"},{"city":"Amravati","state":"Maharashtra","latitude":20.9374,"longitude":77.7796,"temp":28.6,"humidity":66,"rain":0.0,"pressure":965.7,"uv_index":7.9,"wind_gusts":39.6,"aqi":70,"pm10":31.2,"pm2_5":19.3,"no2":10.8,"co":233.0,"o3":60.0,"so2":7.6,"mosquito_risk":7,"arthritis_risk":5,"migraine_risk":7,"frizz_risk":1,"updated_at":"2026-07-17T20:45:53.775378+05:30"},{"city":"Latur","state":"Maharashtra","latitude":18.4088,"longitude":76.5604,"temp":23.1,"humidity":94,"rain":0.1,"pressure":938.9,"uv_index":7.35,"wind_gusts":35.3,"aqi":58,"pm10":26.2,"pm2_5":15.3,"no2":5.5,"co":206.0,"o3":60.0,"so2":2.7,"mosquito_risk":6,"arthritis_risk":5,"migraine_risk":7,"frizz_risk":1,"updated_at":"2026-07-17T20:45:53.775382+05:30"},{"city":"Nanded","state":"Maharashtra","latitude":19.1383,"longitude":77.3091,"temp":25.4,"humidity":91,"rain":0.1,"pressure":967.9,"uv_index":8.3,"wind_gusts":33.8,"aqi":73,"pm10":29.5,"pm2_5":18.6,"no2":9.4,"co":284.0,"o3":61.0,"so2":4.4,"mosquito_risk":10,"arthritis_risk":5,"migraine_risk":7,"frizz_risk":1,"updated_at":"2026-07-17T20:45:53.775387+05:30"},{"city":"Gulbarga","state":"Karnataka","latitude":17.3297,"longitude":76.8343,"temp":24.5,"humidity":88,"rain":0.1,"pressure":958.3,"uv_index":6.95,"wind_gusts":40.0,"aqi":55,"pm10":13.9,"pm2_5":9.8,"no2":13.6,"co":176.0,"o3":42.0,"so2":2.8,"mosquito_risk":6,"arthritis_risk":5,"migraine_risk":7,"frizz_risk":1,"updated_at":"2026-07-17T20:45:53.775390+05:30"},{"city":"Bidar","state":"Karnataka","latitude":17.9104,"longitude":77.5199,"temp":23.8,"humidity":95,"rain":0.1,"pressure":934.3,"uv_index":7.5,"wind_gusts":31.0,"aqi":72,"pm10":39.6,"pm2_5":22.7,"no2":17.7,"co":214.0,"o3":37.0,"so2":3.5,"mosquito_risk":6,"arthritis_risk":5,"migraine_risk":7,"frizz_risk":1,"updated_at":"2026-07-17T20:45:53.775394+05:30"},{"city":"Hospet","state":"Karnataka","latitude":15.2689,"longitude":76.3909,"temp":23.6,"humidity":87,"rain":0.0,"pressure":956.3,"uv_index":6.3,"wind_gusts":45.4,"aqi":33,"pm10":11.8,"pm2_5":7.3,"no2":5.8,"co":162.0,"o3":48.0,"so2":1.8,"mosquito_risk":3,"arthritis_risk":5,"migraine_risk":7,"frizz_risk":1,"updated_at":"2026-07-17T20:45:53.775398+05:30"},{"city":"Tirupur","state":"Tamil Nadu","latitude":11.1085,"longitude":77.3411,"temp":25.2,"humidity":80,"rain":0.0,"pressure":976.1,"uv_index":8.65,"wind_gusts":54.0,"aqi":59,"pm10":19.4,"pm2_5":14.5,"no2":18.7,"co":216.0,"o3":41.0,"so2":5.3,"mosquito_risk":7,"arthritis_risk":5,"migraine_risk":7,"frizz_risk":1,"updated_at":"2026-07-17T20:45:53.775402+05:30"},{"city":"Alappuzha","state":"Kerala","latitude":9.4981,"longitude":76.3388,"temp":26.7,"humidity":84,"rain":0.0,"pressure":1011.4,"uv_index":8.45,"wind_gusts":37.8,"aqi":60,"pm10":26.1,"pm2_5":16.6,"no2":14.5,"co":91.0,"o3":43.0,"so2":3.8,"mosquito_risk":7,"arthritis_risk":0,"migraine_risk":4,"frizz_risk":1,"updated_at":"2026-07-17T20:45:53.775405+05:30"},{"city":"Munnar","state":"Kerala","latitude":10.0889,"longitude":77.0595,"temp":15.2,"humidity":96,"rain":0.0,"pressure":857.5,"uv_index":8.6,"wind_gusts":34.9,"aqi":36,"pm10":8.2,"pm2_5":6.4,"no2":10.2,"co":125.0,"o3":36.0,"so2":1.9,"mosquito_risk":3,"arthritis_risk":10,"migraine_risk":7,"frizz_risk":0,"updated_at":"2026-07-17T20:45:53.775410+05:30"},{"city":"Silchar","state":"Assam","latitude":24.8333,"longitude":92.7789,"temp":27.5,"humidity":93,"rain":0.1,"pressure":1003.6,"uv_index":8.7,"wind_gusts":28.8,"aqi":70,"pm10":25.6,"pm2_5":19.6,"no2":7.2,"co":305.0,"o3":73.0,"so2":4.6,"mosquito_risk":10,"arthritis_risk":5,"migraine_risk":4,"frizz_risk":1,"updated_at":"2026-07-17T20:45:53.775414+05:30"},{"city":"Dibrugarh","state":"Assam","latitude":27.4728,"longitude":94.912,"temp":26.5,"humidity":97,"rain":0.0,"pressure":992.8,"uv_index":4.75,"wind_gusts":36.0,"aqi":53,"pm10":20.5,"pm2_5":17.9,"no2":10.2,"co":201.0,"o3":56.0,"so2":2.4,"mosquito_risk":7,"arthritis_risk":5,"migraine_risk":3,"frizz_risk":1,"updated_at":"2026-07-17T20:45:53.775418+05:30"}]