[{"city":"Delhi","state":"Delhi","latitude":28.6139,"longitude":77.209,"temp":28.7,"humidity":80,"rain":0.0,"pressure":978.5,"uv_index":6.7,"wind_gusts":37.8,"aqi":80,"pm10":30.9,"pm2_5":29.9,"no2":15.6,"co":547.0,"o3":98.0,"so2":19.8,"mosquito_risk":7,"arthritis_risk":5,"migraine_risk":7,"frizz_risk":1,"updated_at":"2026-07-22T09:48:01.094134+05:30"},{"city":"Mumbai","state":"Maharashtra","latitude":19.076,"longitude":72.8777,"temp":26.4,"humidity":91,"rain":0.3,"pressure":1006.0,"uv_index":1.45,"wind_gusts":56.2,"aqi":60,"pm10":38.0,"pm2_5":15.7,"no2":7.9,"co":262.0,"o3":45.0,"so2":4.9,"mosquito_risk":10,"arthritis_risk":5,"migraine_risk":0,"frizz_risk":1,"updated_at":"2026-07-22T09:48:01.094187+05:30"},{"city":"Bangalore","state":"Karnataka","latitude":12.9716,"longitude":77.5946,"temp":24.2,"humidity":71,"rain":0.0,"pressure":913.3,"uv_index":7.65,"wind_gusts":54.4,"aqi":46,"pm10":6.7,"pm2_5":5.2,"no2":9.5,"co":400.0,"o3":33.0,"so2":4.7,"mosquito_risk":3,"arthritis_risk":5,"migraine_risk":7,"frizz_risk":1,"updated_at":"2026-07-22T09:48:01.094203+05:30"},{"city":"Hyderabad","state":"Telangana","latitude":17.385,"longitude":78.4867,"temp":24.5,"humidity":86,"rain":0.0,"pressure":951.7,"uv_index":4.75,"wind_gusts":55.8,"aqi":48,"pm10":8.5,"pm2_5":5.7,"no2":5.5,"co":285.0,"o3":40.0,"so2":4.5,"mosquito_risk":3,"arthritis_risk":5,"migraine_risk":3,"frizz_risk":1,"updated_at":"2026-07-22T09:48:01.094215+05:30"},{"city":"Chennai","state":"Tamil Nadu","latitude":13.0827,"longitude":80.2707,"temp":31.1,"humidity":58,"rain":0.0,"pressure":1007.5,"uv_index":8.8,"wind_gusts":42.1,"aqi":80,"pm10":32.0,"pm2_5":24.8,"no2":17.4,"co":427.0,"o3":66.0,"so2":17.0,"mosquito_risk":0,"arthritis_risk":5,"migraine_risk":4,"frizz_risk":1,"updated_at":"2026-07-22T09:48:01.094224+05:30"},{"city":"Kolkata","state":"West Bengal","latitude":22.5726,"longitude":88.3639,"temp":25.6,"humidity":96,"rain":0.3,"pressure":1003.2,"uv_index":4.1,"wind_gusts":29.5,"aqi":60,"pm10":14.9,"pm2_5":14.4,"no2":8.1,"co":319.0,"o3":91.0,"so2":8.7,"mosquito_risk":10,"arthritis_risk":5,"migraine_risk":0,"frizz_risk":1,"updated_at":"2026-07-22T09:48:01.094232+05:30"},{"city":"Pune","state":"Maharashtra","latitude":18.5204,"longitude":73.8567,"temp":22.3,"humidity":95,"rain":0.2,"pressure":945.2,"uv_index":1.6,"wind_gusts":56.2,"aqi":21,"pm10":3.3,"pm2_5":3.0,"no2":6.7,"co":174.0,"o3":37.0,"so2":3.5,"mosquito_risk":6,"arthritis_risk":5,"migraine_risk":3,"frizz_risk":1,"updated_at":"2026-07-22T09:48:01.094241+05:30"},{"city":"Ahmedabad","state":"Gujarat","latitude":23.0225,"longitude":72.5714,"temp":29.1,"humidity":75,"rain":0.0,"pressure":996.3,"uv_index":2.45,"wind_gusts":32.4,"aqi":61,"pm10":23.1,"pm2_5":11.8,"no2":10.1,"co":260.0,"o3":36.0,"so2":5.3,"mosquito_risk":7,"arthritis_risk":5,"migraine_risk":3,"frizz_risk":1,"updated_at":"2026-07-22T09:48:01.094249+05:30"},{"city":"Jaipur","state":"Rajasthan","latitude":26.9124,"longitude":75.7873,"temp":28.0,"humidity":81,"rain":0.0,"pressure":954.3,"uv_index":7.3,"wind_gusts":31.3,"aqi":60,"pm10":23.1,"pm2_5":17.3,"no2":8.0,"co":263.0,"o3":95.0,"so2":7.4,"mosquito_risk":7,"arthritis_risk":5,"migraine_risk":7,"frizz_risk":1,"updated_at":"2026-07-22T09:48:01.094256+05:30"},{"city":"Lucknow","state":"Uttar Pradesh","latitude":26.8467,"longitude":80.9462,"temp":29.9,"humidity":72,"rain":0.1,"pressure":989.2,"uv_index":6.1,"wind_gusts":47.5,"aqi":84,"pm10":20.6,"pm2_5":20.4,"no2":4.9,"co":299.0,"o3":102.0,"so2":8.6,"mosquito_risk":10,"arthritis_risk":5,"migraine_risk":7,"frizz_risk":1,"updated_at":"2026-07-22T09:48:01.094268+05:30"},{"city":"Kanpur","state":"Uttar Pradesh","latitude":26.4499,"longitude":80.3319,"temp":29.9,"humidity":75,"rain":0.0,"pressure":987.1,"uv_index":6.55,"wind_gusts":45.4,"aqi":78,"pm10":19.2,"pm2_5":19.0,"no2":4.9,"co":281.0,"o3":103.0,"so2":8.5,"mosquito_risk":7,"arthritis_risk":5,"migraine_risk":7,"frizz_risk":1,"updated_at":"2026-07-22T09:48:01.094276+05:30"},{"city":"Chandigarh","state":"Chandigarh","latitude":30.7333,"longitude":76.7794,"temp":28.2,"humidity":78,"rain":0.0,"pressure":965.8,"uv_index":7.55,"wind_gusts":41.4,"aqi":83,"pm10":18.9,"pm2_5":18.5,"no2":8.1,"co":350.0,"o3":100.0,"so2":7.3,"mosquito_risk":7,"arthritis_risk":5,"migraine_risk":7,"frizz_risk":1,"updated_at":"2026-07-22T09:48:01.094285+05:30"},{"city":"Srinagar","state":"Jammu and Kashmir","latitude":34.0837,"longitude":74.7973,"temp":19.5,"humidity":92,"rain":0.1,"pressure":840.4,"uv_index":8.95,"wind_gusts":19.1,"aqi":62,"pm10":12.5,"pm2_5":12.1,"no2":21.9,"co":557.0,"o3":43.0,"so2":3.5,"mosquito_risk":6,"arthritis_risk":10,"migraine_risk":7,"frizz_risk":1,"updated_at":"2026-07-22T09:48:01.094294+05:30"},{"city":"Jammu","state":"Jammu and Kashmir","latitude":32.7266,"longitude":74.857,"temp":25.7,"humidity":88,"rain":0.3,"pressure":970.4,"uv_index":5.9,"wind_gusts":24.8,"aqi":65,"pm10":14.9,"pm2_5":14.4,"no2":17.8,"co":313.0,"o3":67.0,"so2":2.4,"mosquito_risk":10,"arthritis_risk":5,"migraine_risk":3,"frizz_risk":1,"updated_at":"2026-07-22T09:48:01.094302+05:30"},{"city":"Amritsar","state":"Punjab","latitude":31.634,"longitude":74.8723,"temp":27.2,"humidity":88,"rain":0.0,"pressure":977.6,"uv_index":7.25,"wind_gusts":39.2,"aqi":80,"pm10":23.3,"pm2_5":23.3,"no2":10.3,"co":428.0,"o3":84.0,"so2":8.2,"mosquito_risk":7,"arthritis_risk":5,"migraine_risk":7,"frizz_risk":1,"updated_at":"2026-07-22T09:48:01.094312+05:30"},{"city":"Ludhiana","state":"Punjab","latitude":30.901,"longitude":75.8573,"temp":26.7,"humidity":90,"rain":0.0,"pressure":975.3,"uv_index":7.0,"wind_gusts":36.4,"aqi":91,"pm10":27.3,"pm2_5":27.0,"no2":12.2,"co":404.0,"o3":71.0,"so2":10.2,"mosquito_risk":7,"arthritis_risk":5,"migraine_risk":7,"frizz_risk":1,"updated_at":"2026-07-22T09:48:01.094319+05:30"},{"city":"Jalandhar","state":"Punjab","latitude":31.326,"longitude":75.5762,"temp":27.0,"humidity":89,"rain":0.0,"pressure":976.6,"uv_index":7.15,"wind_gusts":32.8,"aqi":91,"pm10":27.8,"pm2_5":27.5,"no2":12.4,"co":369.0,"o3":83.0,"so2":10.6,"mosquito_risk":7,"arthritis_risk":5,"migraine_risk":7,"frizz_risk":1,"updated_at":"2026-07-22T09:48:01.094326+05:30"},{"city":"Dehradun","state":"Uttarakhand","latitude":30.6284,"longitude":78.0322,"temp":22.5,"humidity":73,"rain":0.0,"pressure":831.1,"uv_index":4.75,"wind_gusts":23.8,"aqi":40,"pm10":2.8,"pm2_5":2.8,"no2":3.9,"co":221.0,"o3":93.0,"so2":0.8,"mosquito_risk":3,"arthritis_risk":5,"migraine_risk":3,"frizz_risk":1,"updated_at":"2026-07-22T09:48:01.094334+05:30"},{"city":"Shimla","state":"Himachal Pradesh","latitude":31.1048,"longitude":77.1734,"temp":17.3,"humidity":87,"rain":0.0,"pressure":784.3,"uv_index":4.65,"wind_gusts":21.6,"aqi":42,"pm10":5.5,"pm2_5":5.2,"no2":4.4,"co":263.0,"o3":99.0,"so2":1.1,"mosquito_risk":3,"arthritis_risk":10,"migraine_risk":3,"frizz_risk":0,"updated_at":"2026-07-22T09:48:01.094342+05:30"},{"city":"Manali","state":"Himachal Pradesh","latitude":32.2396,"longitude":77.1887,"temp":20.2,"humidity":98,"rain":0.3,"pressure":818.7,"uv_index":4.25,"wind_gusts":24.1,"aqi":21,"pm10":4.0,"pm2_5":3.5,"no2":7.8,"co":253.0,"o3":70.0,"so2":0.9,"mosquito_risk":6,"arthritis_risk":5,"migraine_risk":3,"frizz_risk":1,"updated_at":"2026-07-22T09:48:01.094351+05:30"},{"city":"Gurgaon","state":"Haryana","latitude":28.4595,"longitude":77.0266,"temp":28.5,"humidity":80,"rain":0.1,"pressure":976.7,"uv_index":6.55,"wind_gusts":40.3,"aqi":77,"pm10":27.9,"pm2_5":27.0,"no2":13.5,"co":479.0,"o3":98.0,"so2":15.6,"mosquito_risk":10,"arthritis_risk":5,"migraine_risk":7,"frizz_risk":1,"updated_at":"2026-07-22T09:48:01.094359+05:30"},{"city":"Noida","state":"Uttar Pradesh","latitude":28.5355,"longitude":77.391,"temp":29.0,"humidity":80,"rain":0.0,"pressure":980.0,"uv_index":6.7,"wind_gusts":37.4,"aqi":77,"pm10":27.9,"pm2_5":27.0,"no2":13.5,"co":402.0,"o3":98.0,"so2":15.6,"mosquito_risk":7,"arthritis_risk":5,"migraine_risk":7,"frizz_risk":1,"updated_at":"2026-07-22T09:48:01.094366+05:30"},{"city":"Ghaziabad","state":"Uttar Pradesh","latitude":28.6692,"longitude":77.4538,"temp":28.9,"humidity":81,"rain":0.1,"pressure":978.5,"uv_index":6.6,"wind_gusts":37.4,"aqi":75,"pm10":30.3,"pm2_5":29.3,"no2":7.0,"co":326.0,"o3":105.0,"so2":10.7,"mosquito_risk":10,"arthritis_risk":5,"migraine_risk":7,"frizz_risk":1,"updated_at":"2026-07-22T09:48:01.094373+05:30"},{"city":"Faridabad","state":"Haryana","latitude":28.4089,"longitude":77.3178,"temp":28.6,"humidity":81,"rain":0.0,"pressure":979.2,"uv_index":6.5,"wind_gusts":41.4,"aqi":77,"pm10":27.9,"pm2_5":27.0,"no2":13.5,"co":394.0,"o3":98.0,"so2":15.6,"mosquito_risk":7,"arthritis_risk":5,"migraine_risk":7,"frizz_risk":1,"updated_at":"2026-07-22T09:48:01.094380+05:30"},{"city":"Meerut","state":"Uttar Pradesh","latitude":28.9845,"longitude":77.7064,"temp":28.6,"humidity":80,"rain":0.0,"pressure":977.7,"uv_index":6.85,"wind_gusts":43.2,"aqi":75,"pm10":30.3,"pm2_5":29.3,"no2":7.0,"co":325.0,"o3":105.0,"so2":10.7,"mosquito_risk":7,"arthritis_risk":5,"migraine_risk":7,"frizz_risk":1,"updated_at":"2026-07-22T09:48:01.094386+05:30"},{"city":"Agra","state":"Uttar Pradesh","latitude":27.1767,"longitude":78.0081,"temp":29.1,"humidity":79,"rain":0.1,"pressure":982.8,"uv_index":6.9,"wind_gusts":36.4,"aqi":69,"pm10":22.4,"pm2_5":21.8,"no2":5.9,"co":324.0,"o3":110.0,"so2":10.0,"mosquito_risk":10,"arthritis_risk":5,"migraine_risk":7,"frizz_risk":1,"updated_at":"2026-07-22T09:48:01.094393+05:30"},{"city":"Varanasi","state":"Uttar Pradesh","latitude":25.3176,"longitude":82.9739,"temp":30.1,"humidity":74,"rain":0.0,"pressure":992.7,"uv_index":7.9,"wind_gusts":45.4,"aqi":74,"pm10":8.8,"pm2_5":8.8,"no2":5.9,"co":374.0,"o3":82.0,"so2":14.6,"mosquito_risk":3,"arthritis_risk":5,"migraine_risk":7,"frizz_risk":1,"updated_at":"2026-07-22T09:48:01.094401+05:30"},{"city":"Prayagraj","state":"Uttar Pradesh","latitude":25.4358,"longitude":81.8463,"temp":29.6,"humidity":75,"rain":0.0,"pressure":990.8,"uv_index":7.75,"wind_gusts":41.0,"aqi":78,"pm10":11.6,"pm2_5":11.6,"no2":5.1,"co":400.0,"o3":93.0,"so2":10.7,"mosquito_risk":7,"arthritis_risk":5,"migraine_risk":7,"frizz_risk":1,"updated_at":"2026-07-22T09:48:01.094408+05:30"},{"city":"Gorakhpur","state":"Uttar Pradesh","latitude":26.7606,"longitude":83.3732,"temp":30.6,"humidity":69,"rain":0.0,"pressure":993.8,"uv_index":7.0,"wind_gusts":50.8,"aqi":80,"pm10":17.2,"pm2_5":16.9,"no2":4.4,"co":299.0,"o3":98.0,"so2":7.5,"mosquito_risk":3,"arthritis_risk":5,"migraine_risk":7,"frizz_risk":1,"updated_at":"2026-07-22T09:48:01.094416+05:30"},{"city":"Bareilly","state":"Uttar Pradesh","latitude":28.367,"longitude":79.4304,"temp":29.5,"humidity":77,"rain":0.0,"pressure":983.4,"uv_index":7.0,"wind_gusts":40.7,"aqi":71,"pm10":22.9,"pm2_5":22.2,"no2":3.7,"co":287.0,"o3":106.0,"so2":6.8,"mosquito_risk":7,"arthritis_risk":5,"migraine_risk":7,"frizz_risk":1,"updated_at":"2026-07-22T09:48:01.094425+05:30"},{"city":"Aligarh","state":"Uttar Pradesh","latitude":27.8974,"longitude":78.088,"temp":29.3,"humidity":76,"rain":0.1,"pressure":981.2,"uv_index":7.0,"wind_gusts":40.7,"aqi":75,"pm10":29.1,"pm2_5":28.3,"no2":6.2,"co":315.0,"o3":109.0,"so2":10.8,"mosquito_risk":10,"arthritis_risk":5,"migraine_risk":7,"frizz_risk":1,"updated_at":"2026-07-22T09:48:01.094432+05:30"},{"city":"Moradabad","state":"Uttar Pradesh","latitude":28.8386,"longitude":78.7733,"temp":29.6,"humidity":74,"rain":0.1,"pressure":980.3,"uv_index":7.25,"wind_gusts":44.6,"aqi":69,"pm10":23.9,"pm2_5":23.0,"no2":4.2,"co":293.0,"o3":110.0,"so2":8.0,"mosquito_risk":10,"arthritis_risk":5,"migraine_risk":7,"frizz_risk":1,"updated_at":"2026-07-22T09:48:01.094439+05:30"},{"city":"Saharanpur","state":"Uttar Pradesh","latitude":29.9637,"longitude":77.546,"temp":29.0,"humidity":78,"rain":0.0,"pressure":972.7,"uv_index":7.3,"wind_gusts":41.0,"aqi":73,"pm10":20.4,"pm2_5":19.8,"no2":3.8,"co":307.0,"o3":111.0,"so2":5.5,"mosquito_risk":7,"arthritis_risk":5,"migraine_risk":7,"frizz_risk":1,"updated_at":"2026-07-22T09:48:01.094467+05:30"},{"city":"Jhansi","state":"Uttar Pradesh","latitude":25.4484,"longitude":78.5685,"temp":28.8,"humidity":78,"rain":0.0,"pressure":972.1,"uv_index":7.6,"wind_gusts":33.5,"aqi":64,"pm10":11.2,"pm2_5":10.1,"no2":4.8,"co":195.0,"o3":95.0,"so2":9.8,"mosquito_risk":7,"arthritis_risk":5,"migraine_risk":7,"frizz_risk":1,"updated_at":"2026-07-22T09:48:04.422186+05:30"},{"city":"Surat","state":"Gujarat","latitude":21.1702,"longitude":72.8311,"temp":26.3,"humidity":95,"rain":0.2,"pressure":1001.8,"uv_index":0.85,"wind_gusts":42.5,"aqi":68,"pm10":30.3,"pm2_5":22.5,"no2":24.3,"co":431.0,"o3":16.0,"so2":51.8,"mosquito_risk":10,"arthritis_risk":5,"migraine_risk":0,"frizz_risk":1,"updated_at":"2026-07-22T09:48:04.422220+05:30"},{"city":"Vadodara","state":"Gujarat","latitude":22.3072,"longitude":73.1812,"temp":27.8,"humidity":84,"rain":0.0,"pressure":998.6,"uv_index":1.5,"wind_gusts":36.0,"aqi":59,"pm10":17.3,"pm2_5":10.9,"no2":11.9,"co":225.0,"o3":30.0,"so2":5.6,"mosquito_risk":7,"arthritis_risk":5,"migraine_risk":3,"frizz_risk":1,"updated_at":"2026-07-22T09:48:04.422231+05:30"},{"city":"Rajkot","state":"Gujarat","latitude":22.3039,"longitude":70.8022,"temp":29.4,"humidity":72,"rain":0.0,"pressure":988.5,"uv_index":3.95,"wind_gusts":46.8,"aqi":57,"pm10":29.1,"pm2_5":12.6,"no2":3.8,"co":109.0,"o3":47.0,"so2":4.2,"mosquito_risk":7,"arthritis_risk":5,"migraine_risk":3,"frizz_risk":1,"updated_at":"2026-07-22T09:48:04.422240+05:30"},{"city":"Thane","state":"Maharashtra","latitude":19.2183,"longitude":72.9781,"temp":25.7,"humidity":94,"rain":0.4,"pressure":1005.3,"uv_index":1.0,"wind_gusts":42.8,"aqi":60,"pm10":38.0,"pm2_5":15.7,"no2":7.9,"co":258.0,"o3":45.0,"so2":4.9,"mosquito_risk":10,"arthritis_risk":5,"migraine_risk":0,"frizz_risk":1,"updated_at":"2026-07-22T09:48:04.422249+05:30"},{"city":"Nagpur","state":"Maharashtra","latitude":21.1458,"longitude":79.0882,"temp":24.9,"humidity":93,"rain":0.1,"pressure":968.2,"uv_index":1.0,"wind_gusts":49.0,"aqi":39,"pm10":5.3,"pm2_5":5.1,"no2":11.1,"co":189.0,"o3":29.0,"so2":10.4,"mosquito_risk":6,"arthritis_risk":5,"migraine_risk":3,"frizz_risk":1,"updated_at":"2026-07-22T09:48:04.422258+05:30"},{"city":"Nashik","state":"Maharashtra","latitude":19.9975,"longitude":73.7898,"temp":24.0,"humidity":93,"rain":0.0,"pressure":941.1,"uv_index":1.95,"wind_gusts":64.1,"aqi":19,"pm10":3.0,"pm2_5":1.9,"no2":4.8,"co":138.0,"o3":41.0,"so2":1.5,"mosquito_risk":3,"arthritis_risk":5,"migraine_risk":3,"frizz_risk":1,"updated_at":"2026-07-22T09:48:04.422266+05:30"},{"city":"Aurangabad","state":"Maharashtra","latitude":19.8762,"longitude":75.3433,"temp":23.1,"humidity":95,"rain":0.5,"pressure":939.9,"uv_index":1.3,"wind_gusts":58.7,"aqi":26,"pm10":2.8,"pm2_5":2.6,"no2":7.4,"co":167.0,"o3":33.0,"so2":4.2,"mosquito_risk":6,"arthritis_risk":5,"migraine_risk":3,"frizz_risk":1,"updated_at":"2026-07-22T09:48:04.422274+05:30"},{"city":"Solapur","state":"Maharashtra","latitude":17.6599,"longitude":75.9064,"temp":25.5,"humidity":80,"rain":0.0,"pressure":955.8,"uv_index":3.9,"wind_gusts":61.2,"aqi":28,"pm10":5.6,"pm2_5":4.1,"no2":4.5,"co":114.0,"o3":35.0,"so2":2.1,"mosquito_risk":7,"arthritis_risk":5,"migraine_risk":3,"frizz_risk":1,"updated_at":"2026-07-22T09:48:04.422281+05:30"},{"city":"Kolhapur","state":"Maharashtra","latitude":16.705,"longitude":74.2433,"temp":22.6,"humidity":91,"rain":0.0,"pressure":947.4,"uv_index":7.35,"wind_gusts":58.7,"aqi":26,"pm10":10.2,"pm2_5":6.8,"no2":4.9,"co":151.0,"o3":34.0,"so2":1.9,"mosquito_risk":3,"arthritis_risk":5,"migraine_risk":7,"frizz_risk":1,"updated_at":"2026-07-22T09:48:04.422289+05:30"},{"city":"Goa","state":"Goa","latitude":15.2993,"longitude":74.124,"temp":25.5,"humidity":94,"rain":0.1,"pressure":999.5,"uv_index":6.85,"wind_gusts":38.2,"aqi":55,"pm10":21.8,"pm2_5":10.8,"no2":2.3,"co":240.0,"o3":43.0,"so2":1.1,"mosquito_risk":10,"arthritis_risk":5,"migraine_risk":7,"frizz_risk":1,"updated_at":"2026-07-22T09:48:04.422297+05:30"},{"city":"Jodhpur","state":"Rajasthan","latitude":26.2389,"longitude":73.0243,"temp":30.8,"humidity":67,"rain":0.0,"pressure":976.7,"uv_index":4.75,"wind_gusts":28.4,"aqi":76,"pm10":164.4,"pm2_5":39.1,"no2":6.5,"co":147.0,"o3":53.0,"so2":3.0,"mosquito_risk":3,"arthritis_risk":5,"migraine_risk":3,"frizz_risk":1,"updated_at":"2026-07-22T09:48:04.422305+05:30"},{"city":"Udaipur","state":"Rajasthan","latitude":24.5854,"longitude":73.7125,"temp":24.6,"humidity":94,"rain":0.3,"pressure":940.3,"uv_index":2.25,"wind_gusts":31.0,"aqi":54,"pm10":8.4,"pm2_5":5.3,"no2":5.3,"co":177.0,"o3":50.0,"so2":2.8,"mosquito_risk":6,"arthritis_risk":5,"migraine_risk":3,"frizz_risk":1,"updated_at":"2026-07-22T09:48:04.422313+05:30"},{"city":"Kota","state":"Rajasthan","latitude":25.2138,"longitude":75.8648,"temp":28.7,"humidity":76,"rain":0.0,"pressure":972.6,"uv_index":7.95,"wind_gusts":25.2,"aqi":51,"pm10":12.0,"pm2_5":9.2,"no2":7.6,"co":212.0,"o3":84.0,"so2":11.6,"mosquito_risk":7,"arthritis_risk":5,"migraine_risk":7,"frizz_risk":1,"updated_at":"2026-07-22T09:48:04.422320+05:30"},{"city":"Bikaner","state":"Rajasthan","latitude":28.0229,"longitude":73.3119,"temp":31.2,"humidity":66,"rain":0.0,"pressure":975.9,"uv_index":7.45,"wind_gusts":29.9,"aqi":72,"pm10":63.3,"pm2_5":19.4,"no2":1.9,"co":167.0,"o3":89.0,"so2":2.9,"mosquito_risk":3,"arthritis_risk":5,"migraine_risk":7,"frizz_risk":1,"updated_at":"2026-07-22T09:48:04.422328+05:30"},{"city":"Ajmer","state":"Rajasthan","latitude":26.4499,"longitude":74.6399,"temp":26.5,"humidity":81,"rain":0.1,"pressure":949.2,"uv_index":7.3,"wind_gusts":26.6,"aqi":61,"pm10":17.2,"pm2_5":9.4,"no2":5.2,"co":179.0,"o3":89.0,"so2":2.5,"mosquito_risk":10,"arthritis_risk":5,"migraine_risk":7,"frizz_risk":1,"updated_at":"2026-07-22T09:48:04.422335+05:30"},{"city":"Gwalior","state":"Madhya Pradesh","latitude":26.2183,"longitude":78.1828,"temp":28.8,"humidity":79,"rain":0.0,"pressure":977.7,"uv_index":6.6,"wind_gusts":34.2,"aqi":63,"pm10":13.2,"pm2_5":12.7,"no2":3.6,"co":218.0,"o3":100.0,"so2":7.0,"mosquito_risk":7,"arthritis_risk":5,"migraine_risk":7,"frizz_risk":1,"updated_at":"2026-07-22T09:48:04.422343+05:30"},{"city":"Indore","state":"Madhya Pradesh","latitude":22.7196,"longitude":75.8577,"temp":25.5,"humidity":87,"rain":0.1,"pressure":942.0,"uv_index":6.1,"wind_gusts":38.5,"aqi":52,"pm10":10.9,"pm2_5":8.6,"no2":10.8,"co":296.0,"o3":36.0,"so2":7.0,"mosquito_risk":10,"arthritis_risk":5,"migraine_risk":7,"frizz_risk":1,"updated_at":"2026-07-22T09:48:04.422352+05:30"},{"city":"Bhopal","state":"Madhya Pradesh","latitude":23.2599,"longitude":77.4126,"temp":25.9,"humidity":86,"rain":0.1,"pressure":947.2,"uv_index":8.15,"wind_gusts":30.2,"aqi":46,"pm10":6.1,"pm2_5":5.5,"no2":5.8,"co":321.0,"o3":55.0,"so2":5.1,"mosquito_risk":10,"arthritis_risk":5,"migraine_risk":7,"frizz_risk":1,"updated_at":"2026-07-22T09:48:04.422360+05:30"},{"city":"Jabalpur","state":"Madhya Pradesh","latitude":23.1815,"longitude":79.9864,"temp":24.5,"humidity":94,"rain":0.0,"pressure":955.2,"uv_index":6.65,"wind_gusts":24.5,"aqi":40,"pm10":3.6,"pm2_5":3.4,"no2":3.5,"co":196.0,"o3":69.0,"so2":3.5,"mosquito_risk":3,"arthritis_risk":5,"migraine_risk":7,"frizz_risk":1,"updated_at":"2026-07-22T09:48:04.422369+05:30"},{"city":"Ujjain","state":"Madhya Pradesh","latitude":23.1765,"longitude":75.7885,"temp":25.8,"humidity":88,"rain":0.1,"pressure":947.3,"uv_index":6.05,"wind_gusts":31.7,"aqi":52,"pm10":11.7,"pm2_5":8.6,"no2":7.2,"co":227.0,"o3":42.0,"so2":5.5,"mosquito_risk":10,"arthritis_risk":5,"migraine_risk":7,"frizz_risk":1,"updated_at":"2026-07-22T09:48:04.422377+05:30"},{"city":"Visakhapatnam","state":"Andhra Pradesh","latitude":17.6868,"longitude":83.2185,"temp":26.9,"humidity":80,"rain":0.1,"pressure":1002.2,"uv_index":7.45,"wind_gusts":52.9,"aqi":61,"pm10":21.0,"pm2_5":16.4,"no2":15.5,"co":358.0,"o3":48.0,"so2":34.3,"mosquito_risk":10,"arthritis_risk":5,"migraine_risk":4,"frizz_risk":1,"updated_at":"2026-07-22T09:48:04.422384+05:30"},{"city":"Vijayawada","state":"Andhra Pradesh","latitude":16.5062,"longitude":80.648,"temp":29.5,"humidity":66,"rain":0.0,"pressure":1002.1,"uv_index":7.45,"wind_gusts":45.7,"aqi":65,"pm10":15.3,"pm2_5":9.7,"no2":5.1,"co":170.0,"o3":55.0,"so2":6.1,"mosquito_risk":7,"arthritis_risk":5,"migraine_risk":4,"frizz_risk":1,"updated_at":"2026-07-22T09:48:04.422392+05:30"},{"city":"Guntur","state":"Andhra Pradesh","latitude":16.3067,"longitude":80.4365,"temp":31.0,"humidity":56,"rain":0.0,"pressure":1003.3,"uv_index":5.7,"wind_gusts":47.5,"aqi":62,"pm10":13.8,"pm2_5":8.4,"no2":4.7,"co":148.0,"o3":51.0,"so2":5.5,"mosquito_risk":0,"arthritis_risk":5,"migraine_risk":0,"frizz_risk":1,"updated_at":"2026-07-22T09:48:04.422400+05:30"},{"city":"Nellore","state":"Andhra Pradesh","latitude":14.4426,"longitude":79.9865,"temp":32.6,"humidity":49,"rain":0.0,"pressure":1006.1,"uv_index":8.2,"wind_gusts":38.5,"aqi":68,"pm10":25.6,"pm2_5":15.8,"no2":7.4,"co":118.0,"o3":53.0,"so2":6.7,"mosquito_risk":0,"arthritis_risk":5,"migraine_risk":4,"frizz_risk":1,"updated_at":"2026-07-22T09:48:04.422409+05:30"},{"city":"Kurnool","state":"Andhra Pradesh","latitude":15.8281,"longitude":78.0373,"temp":29.2,"humidity":64,"rain":0.0,"pressure":977.2,"uv_index":3.4,"wind_gusts":56.5,"aqi":44,"pm10":7.0,"pm2_5":4.4,"no2":2.4,"co":111.0,"o3":47.0,"so2":3.3,"mosquito_risk":7,"arthritis_risk":5,"migraine_risk":3,"frizz_risk":1,"updated_at":"2026-07-22T09:48:04.422417+05:30"},{"city":"Kakinada","state":"Andhra Pradesh","latitude":16.9891,"longitude":82.2475,"temp":30.9,"humidity":60,"rain":0.0,"pressure":1006.5,"uv_index":8.85,"wind_gusts":58.0,"aqi":60,"pm10":22.6,"pm2_5":14.2,"no2":7.0,"co":257.0,"o3":60.0,"so2":7.5,"mosquito_risk":0,"arthritis_risk":5,"migraine_risk":4,"frizz_risk":1,"updated_at":"2026-07-22T09:48:04.422425+05:30"},{"city":"Tirupati","state":"Andhra Pradesh","latitude":13.6288,"longitude":79.4192,"temp":30.1,"humidity":57,"rain":0.0,"pressure":991.6,"uv_index":8.85,"wind_gusts":45.4,"aqi":77,"pm10":20.9,"pm2_5":14.0,"no2":9.7,"co":164.0,"o3":62.0,"so2":4.4,"mosquito_risk":0,"arthritis_risk":5,"migraine_risk":7,"frizz_risk":1,"updated_at":"2026-07-22T09:48:04.422432+05:30"},{"city":"Warangal","state":"Telangana","latitude":17.9689,"longitude":79.5941,"temp":26.1,"humidity":86,"rain":0.0,"pressure":977.3,"uv_index":2.45,"wind_gusts":55.8,"aqi":51,"pm10":10.9,"pm2_5":7.4,"no2":4.7,"co":187.0,"o3":43.0,"so2":3.7,"mosquito_risk":7,"arthritis_risk":5,"migraine_risk":3,"frizz_risk":1,"updated_at":"2026-07-22T09:48:04.422440+05:30"},{"city":"Nizamabad","state":"Telangana","latitude":18.6725,"longitude":78.0941,"temp":25.1,"humidity":86,"rain":0.0,"pressure":962.1,"uv_index":2.35,"wind_gusts":47.9,"aqi":43,"pm10":6.7,"pm2_5":5.4,"no2":4.9,"co":158.0,"o3":35.0,"so2":2.3,"mosquito_risk":7,"arthritis_risk":5,"migraine_risk":3,"frizz_risk":1,"updated_at":"2026-07-22T09:48:04.422472+05:30"},{"city":"Mysore","state":"Karnataka","latitude":12.2958,"longitude":76.6396,"temp":25.9,"humidity":68,"rain":0.1,"pressure":930.6,"uv_index":8.25,"wind_gusts":52.9,"aqi":35,"pm10":4.1,"pm2_5":2.8,"no2":4.0,"co":136.0,"o3":39.0,"so2":1.9,"mosquito_risk":10,"arthritis_risk":5,"migraine_risk":7,"frizz_risk":1,"updated_at":"2026-07-22T09:48:04.422483+05:30"},{"city":"Mangalore","state":"Karnataka","latitude":12.9141,"longitude":74.856,"temp":25.3,"humidity":93,"rain":0.3,"pressure":1009.8,"uv_index":8.05,"wind_gusts":32.0,"aqi":53,"pm10":12.3,"pm2_5":7.2,"no2":3.6,"co":139.0,"o3":41.0,"so2":2.1,"mosquito_risk":10,"arthritis_risk":0,"migraine_risk":4,"frizz_risk":1,"updated_at":"2026-07-22T09:48:04.422491+05:30"},{"city":"Hubli-Dharwad","state":"Karnataka","latitude":15.3647,"longitude":75.124,"temp":23.7,"humidity":85,"rain":0.0,"pressure":941.4,"uv_index":2.2,"wind_gusts":61.6,"aqi":19,"pm10":3.2,"pm2_5":2.1,"no2":4.2,"co":117.0,"o3":37.0,"so2":1.2,"mosquito_risk":3,"arthritis_risk":5,"migraine_risk":3,"frizz_risk":1,"updated_at":"2026-07-22T09:48:04.422499+05:30"},{"city":"Belgaum","state":"Karnataka","latitude":15.8497,"longitude":74.4977,"temp":22.9,"humidity":85,"rain":0.0,"pressure":925.9,"uv_index":7.2,"wind_gusts":60.8,"aqi":18,"pm10":5.4,"pm2_5":3.3,"no2":3.3,"co":120.0,"o3":40.0,"so2":1.7,"mosquito_risk":3,"arthritis_risk":5,"migraine_risk":7,"frizz_risk":1,"updated_at":"2026-07-22T09:48:07.726813+05:30"},{"city":"Coimbatore","state":"Tamil Nadu","latitude":11.0168,"longitude":76.9558,"temp":28.9,"humidity":63,"rain":0.0,"pressure":963.8,"uv_index":8.35,"wind_gusts":53.3,"aqi":45,"pm10":5.9,"pm2_5":4.2,"no2":2.9,"co":190.0,"o3":49.0,"so2":2.6,"mosquito_risk":7,"arthritis_risk":5,"migraine_risk":7,"frizz_risk":1,"updated_at":"2026-07-22T09:48:07.726851+05:30"},{"city":"Madurai","state":"Tamil Nadu","latitude":9.9252,"longitude":78.1198,"temp":33.4,"humidity":43,"rain":0.0,"pressure":994.2,"uv_index":7.8,"wind_gusts":43.9,"aqi":68,"pm10":27.9,"pm2_5":18.6,"no2":11.2,"co":161.0,"o3":74.0,"so2":7.4,"mosquito_risk":0,"arthritis_risk":5,"migraine_risk":7,"frizz_risk":1,"updated_at":"2026-07-22T09:48:07.726863+05:30"},{"city":"Trichy","state":"Tamil Nadu","latitude":10.7905,"longitude":78.7047,"temp":32.6,"humidity":51,"rain":0.0,"pressure":1000.7,"uv_index":8.6,"wind_gusts":48.2,"aqi":57,"pm10":14.2,"pm2_5":9.1,"no2":3.6,"co":139.0,"o3":51.0,"so2":3.8,"mosquito_risk":0,"arthritis_risk":5,"migraine_risk":4,"frizz_risk":1,"updated_at":"2026-07-22T09:48:07.726873+05:30"},{"city":"Salem","state":"Tamil Nadu","latitude":11.6643,"longitude":78.146,"temp":28.6,"humidity":70,"rain":0.0,"pressure":979.2,"uv_index":8.65,"wind_gusts":29.9,"aqi":67,"pm10":24.4,"pm2_5":17.0,"no2":10.0,"co":249.0,"o3":66.0,"so2":14.0,"mosquito_risk":7,"arthritis_risk":5,"migraine_risk":7,"frizz_risk":1,"updated_at":"2026-07-22T09:48:07.726883+05:30"},{"city":"Tirunelveli","state":"Tamil Nadu","latitude":8.7139,"longitude":77.7567,"temp":34.5,"humidity":44,"rain":0.0,"pressure":1004.4,"uv_index":8.6,"wind_gusts":51.5,"aqi":48,"pm10":7.7,"pm2_5":5.0,"no2":2.8,"co":129.0,"o3":50.0,"so2":1.9,"mosquito_risk":0,"arthritis_risk":5,"migraine_risk":4,"frizz_risk":1,"updated_at":"2026-07-22T09:48:07.726892+05:30"},{"city":"Vellore","state":"Tamil Nadu","latitude":12.9165,"longitude":79.1325,"temp":31.2,"humidity":53,"rain":0.0,"pressure":985.3,"uv_index":8.9,"wind_gusts":45.4,"aqi":80,"pm10":13.4,"pm2_5":9.3,"no2":5.1,"co":173.0,"o3":60.0,"so2":4.8,"mosquito_risk":0,"arthritis_risk":5,"migraine_risk":7,"frizz_risk":1,"updated_at":"2026-07-22T09:48:07.726901+05:30"},{"city":"Erode","state":"Tamil Nadu","latitude":11.341,"longitude":77.7172,"temp":31.3,"humidity":52,"rain":0.0,"pressure":990.8,"uv_index":8.5,"wind_gusts":43.2,"aqi":57,"pm10":12.5,"pm2_5":8.9,"no2":6.2,"co":206.0,"o3":52.0,"so2":4.0,"mosquito_risk":0,"arthritis_risk":5,"migraine_risk":7,"frizz_risk":1,"updated_at":"2026-07-22T09:48:07.726909+05:30"},{"city":"Kochi","state":"Kerala","latitude":9.9312,"longitude":76.2673,"temp":28.0,"humidity":83,"rain":0.0,"pressure":1011.5,"uv_index":8.2,"wind_gusts":33.1,"aqi":62,"pm10":15.8,"pm2_5":10.9,"no2":7.8,"co":201.0,"o3":53.0,"so2":6.0,"mosquito_risk":7,"arthritis_risk":0,"migraine_risk":4,"frizz_risk":1,"updated_at":"2026-07-22T09:48:07.726918+05:30"},{"city":"Thiruvananthapuram","state":"Kerala","latitude":8.5241,"longitude":76.9366,"temp":28.6,"humidity":76,"rain":0.0,"pressure":1010.6,"uv_index":8.0,"wind_gusts":40.7,"aqi":53,"pm10":12.0,"pm2_5":7.5,"no2":3.3,"co":202.0,"o3":49.0,"so2":2.2,"mosquito_risk":7,"arthritis_risk":0,"migraine_risk":4,"frizz_risk":1,"updated_at":"2026-07-22T09:48:07.726926+05:30"},{"city":"Kozhikode","state":"Kerala","latitude":11.2588,"longitude":75.7804,"temp":25.0,"humidity":95,"rain":0.1,"pressure":1011.5,"uv_index":8.05,"wind_gusts":37.4,"aqi":39,"pm10":10.4,"pm2_5":5.8,"no2":1.5,"co":154.0,"o3":46.0,"so2":1.8,"mosquito_risk":10,"arthritis_risk":0,"migraine_risk":4,"frizz_risk":1,"updated_at":"2026-07-22T09:48:07.726935+05:30"},{"city":"Thrissur","state":"Kerala","latitude":10.5276,"longitude":76.2144,"temp":28.0,"humidity":83,"rain":0.0,"pressure":1009.9,"uv_index":7.85,"wind_gusts":35.6,"aqi":59,"pm10":11.8,"pm2_5":8.6,"no2":5.8,"co":185.0,"o3":47.0,"so2":3.2,"mosquito_risk":7,"arthritis_risk":0,"migraine_risk":4,"frizz_risk":1,"updated_at":"2026-07-22T09:48:07.726944+05:30"},{"city":"Kannur","state":"Kerala","latitude":11.8745,"longitude":75.3704,"temp":26.0,"humidity":89,"rain":0.0,"pressure":1010.3,"uv_index":7.65,"wind_gusts":33.1,"aqi":48,"pm10":11.2,"pm2_5":7.1,"no2":5.6,"co":179.0,"o3":37.0,"so2":2.3,"mosquito_risk":7,"arthritis_risk":0,"migraine_risk":4,"frizz_risk":1,"updated_at":"2026-07-22T09:48:07.726951+05:30"},{"city":"Patna","state":"Bihar","latitude":25.5941,"longitude":85.1376,"temp":30.0,"humidity":74,"rain":0.0,"pressure":996.9,"uv_index":7.45,"wind_gusts":49.0,"aqi":68,"pm10":14.2,"pm2_5":14.1,"no2":6.6,"co":224.0,"o3":83.0,"so2":12.0,"mosquito_risk":7,"arthritis_risk":5,"migraine_risk":7,"frizz_risk":1,"updated_at":"2026-07-22T09:48:07.726959+05:30"},{"city":"Gaya","state":"Bihar","latitude":24.7914,"longitude":85.0002,"temp":29.9,"humidity":73,"rain":0.0,"pressure":989.7,"uv_index":8.3,"wind_gusts":42.8,"aqi":54,"pm10":7.7,"pm2_5":7.7,"no2":5.0,"co":335.0,"o3":75.0,"so2":11.6,"mosquito_risk":7,"arthritis_risk":5,"migraine_risk":7,"frizz_risk":1,"updated_at":"2026-07-22T09:48:07.726968+05:30"},{"city":"Muzaffarpur","state":"Bihar","latitude":26.1209,"longitude":85.3647,"temp":30.0,"humidity":74,"rain":0.1,"pressure":997.2,"uv_index":7.9,"wind_gusts":54.7,"aqi":73,"pm10":16.1,"pm2_5":16.0,"no2":5.6,"co":275.0,"o3":91.0,"so2":8.8,"mosquito_risk":10,"arthritis_risk":5,"migraine_risk":7,"frizz_risk":1,"updated_at":"2026-07-22T09:48:07.726977+05:30"},{"city":"Bhagalpur","state":"Bihar","latitude":25.2425,"longitude":87.0117,"temp":30.0,"humidity":75,"rain":0.0,"pressure":998.2,"uv_index":7.95,"wind_gusts":47.2,"aqi":62,"pm10":11.0,"pm2_5":10.9,"no2":10.3,"co":221.0,"o3":53.0,"so2":8.7,"mosquito_risk":7,"arthritis_risk":5,"migraine_risk":7,"frizz_risk":1,"updated_at":"2026-07-22T09:48:07.726984+05:30"},{"city":"Ranchi","state":"Jharkhand","latitude":23.3441,"longitude":85.3096,"temp":23.6,"humidity":93,"rain":0.2,"pressure":933.6,"uv_index":4.8,"wind_gusts":43.6,"aqi":50,"pm10":4.1,"pm2_5":4.1,"no2":11.6,"co":239.0,"o3":61.0,"so2":16.6,"mosquito_risk":6,"arthritis_risk":5,"migraine_risk":3,"frizz_risk":1,"updated_at":"2026-07-22T09:48:07.726992+05:30"},{"city":"Jamshedpur","state":"Jharkhand","latitude":22.8046,"longitude":86.2029,"temp":26.3,"humidity":88,"rain":0.0,"pressure":987.2,"uv_index":6.95,"wind_gusts":30.6,"aqi":56,"pm10":10.8,"pm2_5":10.5,"no2":14.7,"co":456.0,"o3":62.0,"so2":20.6,"mosquito_risk":7,"arthritis_risk":5,"migraine_risk":7,"frizz_risk":1,"updated_at":"2026-07-22T09:48:07.727000+05:30"},{"city":"Dhanbad","state":"Jharkhand","latitude":23.7957,"longitude":86.4304,"temp":27.0,"humidity":83,"rain":0.1,"pressure":976.5,"uv_index":7.1,"wind_gusts":38.9,"aqi":79,"pm10":16.2,"pm2_5":15.8,"no2":22.4,"co":405.0,"o3":51.0,"so2":59.6,"mosquito_risk":10,"arthritis_risk":5,"migraine_risk":7,"frizz_risk":1,"updated_at":"2026-07-22T09:48:07.727008+05:30"},{"city":"Bokaro","state":"Jharkhand","latitude":23.6693,"longitude":86.1511,"temp":27.3,"humidity":83,"rain":0.0,"pressure":980.1,"uv_index":4.65,"wind_gusts":34.6,"aqi":82,"pm10":17.2,"pm2_5":16.9,"no2":27.3,"co":1894.0,"o3":48.0,"so2":73.1,"mosquito_risk":7,"arthritis_risk":5,"migraine_risk":3,"frizz_risk":1,"updated_at":"2026-07-22T09:48:07.727017+05:30"},{"city":"Bhubaneswar","state":"Odisha","latitude":20.2961,"longitude":85.8245,"temp":26.7,"humidity":94,"rain":0.1,"pressure":999.9,"uv_index":7.05,"wind_gusts":42.5,"aqi":61,"pm10":9.8,"pm2_5":8.6,"no2":8.5,"co":254.0,"o3":53.0,"so2":4.0,"mosquito_risk":10,"arthritis_risk":5,"migraine_risk":7,"frizz_risk":1,"updated_at":"2026-07-22T09:48:07.727024+05:30"},{"city":"Cuttack","state":"Odisha","latitude":20.4625,"longitude":85.8828,"temp":26.8,"humidity":89,"rain":0.2,"pressure":1001.6,"uv_index":5.25,"wind_gusts":39.2,"aqi":61,"pm10":9.8,"pm2_5":8.6,"no2":8.5,"co":248.0,"o3":53.0,"so2":4.0,"mosquito_risk":10,"arthritis_risk":5,"migraine_risk":0,"frizz_risk":1,"updated_at":"2026-07-22T09:48:07.727031+05:30"},{"city":"Rourkela","state":"Odisha","latitude":22.2604,"longitude":84.8536,"temp":26.0,"humidity":93,"rain":0.0,"pressure":980.9,"uv_index":2.0,"wind_gusts":30.6,"aqi":58,"pm10":4.8,"pm2_5":4.6,"no2":8.4,"co":294.0,"o3":40.0,"so2":3.6,"mosquito_risk":7,"arthritis_risk":5,"migraine_risk":3,"frizz_risk":1,"updated_at":"2026-07-22T09:48:07.727040+05:30"},{"city":"Raipur","state":"Chhattisgarh","latitude":21.2514,"longitude":81.6296,"temp":25.6,"humidity":91,"rain":0.1,"pressure":970.1,"uv_index":0.85,"wind_gusts":46.8,"aqi":61,"pm10":13.9,"pm2_5":12.8,"no2":19.4,"co":321.0,"o3":24.0,"so2":36.7,"mosquito_risk":10,"arthritis_risk":5,"migraine_risk":3,"frizz_risk":1,"updated_at":"2026-07-22T09:48:07.727048+05:30"},{"city":"Bhilai","state":"Chhattisgarh","latitude":21.1938,"longitude":81.3509,"temp":24.8,"humidity":91,"rain":0.0,"pressure":970.5,"uv_index":0.7,"wind_gusts":51.1,"aqi":57,"pm10":11.8,"pm2_5":11.1,"no2":17.7,"co":493.0,"o3":25.0,"so2":32.9,"mosquito_risk":3,"arthritis_risk":5,"migraine_risk":3,"frizz_risk":1,"updated_at":"2026-07-22T09:48:07.727055+05:30"},{"city":"Guwahati","state":"Assam","latitude":26.1158,"longitude":91.7086,"temp":28.1,"humidity":83,"rain":0.1,"pressure":1001.1,"uv_index":8.1,"wind_gusts":21.6,"aqi":51,"pm10":8.0,"pm2_5":7.7,"no2":2.0,"co":206.0,"o3":79.0,"so2":1.9,"mosquito_risk":10,"arthritis_risk":5,"migraine_risk":4,"frizz_risk":1,"updated_at":"2026-07-22T09:48:07.727063+05:30"},{"city":"Agartala","state":"Tripura","latitude":23.8315,"longitude":91.2868,"temp":29.2,"humidity":79,"rain":0.1,"pressure":1005.0,"uv_index":8.4,"wind_gusts":38.2,"aqi":40,"pm10":5.2,"pm2_5":4.7,"no2":3.5,"co":138.0,"o3":64.0,"so2":1.5,"mosquito_risk":10,"arthritis_risk":5,"migraine_risk":4,"frizz_risk":1,"updated_at":"2026-07-22T09:48:07.727071+05:30"},{"city":"Shillong","state":"Meghalaya","latitude":25.5788,"longitude":91.8933,"temp":20.3,"humidity":98,"rain":0.4,"pressure":857.8,"uv_index":8.5,"wind_gusts":23.4,"aqi":34,"pm10":3.0,"pm2_5":2.7,"no2":2.1,"co":145.0,"o3":65.0,"so2":1.3,"mosquito_risk":6,"arthritis_risk":5,"migraine_risk":7,"frizz_risk":1,"updated_at":"2026-07-22T09:48:07.727079+05:30"},{"city":"Imphal","state":"Manipur","latitude":24.817,"longitude":93.9368,"temp":26.8,"humidity":80,"rain":0.0,"pressure":923.7,"uv_index":8.15,"wind_gusts":26.3,"aqi":51,"pm10":4.5,"pm2_5":4.4,"no2":2.1,"co":203.0,"o3":76.0,"so2":1.5,"mosquito_risk":7,"arthritis_risk":5,"migraine_risk":7,"frizz_risk":1,"updated_at":"2026-07-22T09:48:07.727086+05:30"},{"city":"Aizawl","state":"Mizoram","latitude":23.7271,"longitude":92.7176,"temp":25.2,"humidity":70,"rain":0.0,"pressure":893.3,"uv_index":8.85,"wind_gusts":32.0,"aqi":23,"pm10":5.9,"pm2_5":4.1,"no2":0.9,"co":119.0,"o3":71.0,"so2":0.7,"mosquito_risk":7,"arthritis_risk":5,"migraine_risk":7,"frizz_risk":1,"updated_at":"2026-07-22T09:48:07.727094+05:30"},{"city":"Kohima","state":"Nagaland","latitude":25.6701,"longitude":94.1077,"temp":22.1,"humidity":85,"rain":0.2,"pressure":856.4,"uv_index":8.65,"wind_gusts":20.9,"aqi":32,"pm10":4.3,"pm2_5":3.9,"no2":1.0,"co":150.0,"o3":76.0,"so2":0.6,"mosquito_risk":6,"arthritis_risk":5,"migraine_risk":7,"frizz_risk":1,"updated_at":"2026-07-22T09:48:07.727102+05:30"},{"city":"Gangtok","state":"Sikkim","latitude":27.3314,"longitude":88.6138,"temp":20.3,"humidity":85,"rain":0.0,"pressure":838.9,"uv_index":7.75,"wind_gusts":29.2,"aqi":36,"pm10":6.0,"pm2_5":5.9,"no2":1.5,"co":190.0,"o3":79.0,"so2":0.9,"mosquito_risk":3,"arthritis_risk":5,"migraine_risk":7,"frizz_risk":1,"updated_at":"2026-07-22T09:48:07.727109+05:30"},{"city":"Siliguri","state":"West Bengal","latitude":26.7271,"longitude":88.3953,"temp":30.3,"humidity":73,"rain":0.0,"pressure":992.0,"uv_index":8.7,"wind_gusts":37.4,"aqi":60,"pm10":7.3,"pm2_5":7.0,"no2":2.1,"co":286.0,"o3":94.0,"so2":2.3,"mosquito_risk":3,"arthritis_risk":5,"migraine_risk":7,"frizz_risk":1,"updated_at":"2026-07-22T09:48:11.011058+05:30"},{"city":"Durgapur","state":"West Bengal","latitude":23.5204,"longitude":87.3119,"temp":27.8,"humidity":80,"rain":0.1,"pressure":991.8,"uv_index":7.6,"wind_gusts":35.3,"aqi":72,"pm10":12.4,"pm2_5":12.3,"no2":16.8,"co":279.0,"o3":52.0,"so2":31.5,"mosquito_risk":10,"arthritis_risk":5,"migraine_risk":7,"frizz_risk":1,"updated_at":"2026-07-22T09:48:11.011093+05:30"},{"city":"Asansol","state":"West Bengal","latitude":23.6739,"longitude":86.9524,"temp":26.8,"humidity":86,"rain":0.1,"pressure":990.3,"uv_index":6.35,"wind_gusts":34.9,"aqi":67,"pm10":13.0,"pm2_5":12.9,"no2":18.6,"co":290.0,"o3":51.0,"so2":37.8,"mosquito_risk":10,"arthritis_risk":5,"migraine_risk":7,"frizz_risk":1,"updated_at":"2026-07-22T09:48:11.011106+05:30"},{"city":"Pondicherry","state":"Puducherry","latitude":11.9139,"longitude":79.8145,"temp":31.8,"humidity":57,"rain":0.0,"pressure":1009.0,"uv_index":8.0,"wind_gusts":40.7,"aqi":71,"pm10":21.2,"pm2_5":15.9,"no2":9.7,"co":231.0,"o3":58.0,"so2":10.6,"mosquito_risk":0,"arthritis_risk":0,"migraine_risk":4,"frizz_risk":1,"updated_at":"2026-07-22T09:48:11.011115+05:30"},{"city":"Port Blair","state":"Andaman and Nicobar Islands","latitude":11.6234,"longitude":92.7265,"temp":30.3,"humidity":73,"rain":0.0,"pressure":1009.7,"uv_index":8.5,"wind_gusts":41.8,"aqi":45,"pm10":12.0,"pm2_5":7.0,"no2":0.4,"co":95.0,"o3":55.0,"so2":0.6,"mosquito_risk":3,"arthritis_risk":0,"migraine_risk":4,"frizz_risk":1,"updated_at":"2026-07-22T09:48:11.011125+05:30"},{"city":"Haridwar","state":"Uttarakhand","latitude":29.9457,"longitude":78.1642,"temp":29.8,"humidity":73,"rain":0.0,"pressure":971.2,"uv_index":7.3,"wind_gusts":34.2,"aqi":67,"pm10":16.2,"pm2_5":15.5,"no2":1.7,"co":236.0,"o3":111.0,"so2":4.5,"mosquito_risk":7,"arthritis_risk":5,"migraine_risk":7,"frizz_risk":1,"updated_at":"2026-07-22T09:48:11.011134+05:30"},{"city":"Rishikesh","state":"Uttarakhand","latitude":30.0869,"longitude":78.2676,"temp":28.3,"humidity":78,"rain":0.0,"pressure":964.0,"uv_index":7.2,"wind_gusts":23.4,"aqi":53,"pm10":9.3,"pm2_5":9.0,"no2":1.4,"co":243.0,"o3":106.0,"so2":2.4,"mosquito_risk":7,"arthritis_risk":5,"migraine_risk":7,"frizz_risk":1,"updated_at":"2026-07-22T09:48:11.011142+05:30"},{"city":"Nainital","state":"Uttarakhand","latitude":29.3919,"longitude":79.4542,"temp":22.0,"humidity":61,"rain":0.1,"pressure":806.6,"uv_index":7.25,"wind_gusts":49.3,"aqi":50,"pm10":12.0,"pm2_5":11.4,"no2":1.0,"co":157.0,"o3":94.0,"so2":1.4,"mosquito_risk":6,"arthritis_risk":5,"migraine_risk":7,"frizz_risk":0,"updated_at":"2026-07-22T09:48:11.011152+05:30"},{"city":"Mussoorie","state":"Uttarakhand","latitude":30.4599,"longitude":78.0664,"temp":19.8,"humidity":83,"rain":0.0,"pressure":803.3,"uv_index":6.65,"wind_gusts":29.2,"aqi":49,"pm10":4.4,"pm2_5":4.3,"no2":3.7,"co":226.0,"o3":88.0,"so2":1.5,"mosquito_risk":3,"arthritis_risk":10,"migraine_risk":7,"frizz_risk":1,"updated_at":"2026-07-22T09:48:11.011161+05:30"},{"city":"Dharamshala","state":"Himachal Pradesh","latitude":32.219,"longitude":76.3234,"temp":21.0,"humidity":94,"rain":0.6,"pressure":868.1,"uv_index":4.6,"wind_gusts":22.0,"aqi":36,"pm10":5.3,"pm2_5":5.2,"no2":3.2,"co":348.0,"o3":99.0,"so2":1.0,"mosquito_risk":6,"arthritis_risk":5,"migraine_risk":3,"frizz_risk":1,"updated_at":"2026-07-22T09:48:11.011170+05:30"},{"city":"Dalhousie","state":"Himachal Pradesh","latitude":32.5387,"longitude":75.971,"temp":17.6,"humidity":93,"rain":0.2,"pressure":804.1,"uv_index":1.0,"wind_gusts":23.8,"aqi":63,"pm10":21.9,"pm2_5":20.8,"no2":13.6,"co":330.0,"o3":100.0,"so2":3.6,"mosquito_risk":6,"arthritis_risk":10,"migraine_risk":3,"frizz_risk":1,"updated_at":"2026-07-22T09:48:11.011178+05:30"},{"city":"Patiala","state":"Punjab","latitude":30.3398,"longitude":76.3869,"temp":27.8,"humidity":87,"rain":0.0,"pressure":974.7,"uv_index":7.15,"wind_gusts":37.4,"aqi":84,"pm10":25.4,"pm2_5":24.8,"no2":10.3,"co":318.0,"o3":80.0,"so2":9.5,"mosquito_risk":7,"arthritis_risk":5,"migraine_risk":7,"frizz_risk":1,"updated_at":"2026-07-22T09:48:11.011186+05:30"},{"city":"Bhatinda","state":"Punjab","latitude":30.211,"longitude":74.9455,"temp":27.0,"humidity":93,"rain":0.0,"pressure":979.2,"uv_index":6.5,"wind_gusts":34.2,"aqi":85,"pm10":19.9,"pm2_5":19.8,"no2":9.8,"co":404.0,"o3":87.0,"so2":10.8,"mosquito_risk":7,"arthritis_risk":5,"migraine_risk":7,"frizz_risk":1,"updated_at":"2026-07-22T09:48:11.011194+05:30"},{"city":"Rohtak","state":"Haryana","latitude":28.8955,"longitude":76.6066,"temp":29.5,"humidity":77,"rain":0.0,"pressure":977.5,"uv_index":5.5,"wind_gusts":37.8,"aqi":80,"pm10":27.1,"pm2_5":26.3,"no2":14.3,"co":424.0,"o3":100.0,"so2":19.6,"mosquito_risk":7,"arthritis_risk":5,"migraine_risk":3,"frizz_risk":1,"updated_at":"2026-07-22T09:48:11.011201+05:30"},{"city":"Panipat","state":"Haryana","latitude":29.3909,"longitude":76.9635,"temp":28.6,"humidity":81,"rain":0.0,"pressure":976.6,"uv_index":7.4,"wind_gusts":36.7,"aqi":78,"pm10":27.8,"pm2_5":27.1,"no2":9.6,"co":327.0,"o3":98.0,"so2":14.3,"mosquito_risk":7,"arthritis_risk":5,"migraine_risk":7,"frizz_risk":1,"updated_at":"2026-07-22T09:48:11.011209+05:30"},{"city":"Mathura","state":"Uttar Pradesh","latitude":27.4924,"longitude":77.6737,"temp":29.4,"humidity":79,"rain":0.0,"pressure":982.0,"uv_index":6.95,"wind_gusts":37.8,"aqi":65,"pm10":23.7,"pm2_5":22.9,"no2":6.2,"co":321.0,"o3":105.0,"so2":8.6,"mosquito_risk":7,"arthritis_risk":5,"migraine_risk":7,"frizz_risk":1,"updated_at":"2026-07-22T09:48:11.011217+05:30"},{"city":"Vrindavan","state":"Uttar Pradesh","latitude":27.5823,"longitude":77.7027,"temp":29.5,"humidity":78,"rain":0.0,"pressure":982.4,"uv_index":6.45,"wind_gusts":37.8,"aqi":65,"pm10":23.7,"pm2_5":22.9,"no2":6.2,"co":327.0,"o3":105.0,"so2":8.6,"mosquito_risk":7,"arthritis_risk":5,"migraine_risk":7,"frizz_risk":1,"updated_at":"2026-07-22T09:48:11.011225+05:30"},{"city":"Ayodhya","state":"Uttar Pradesh","latitude":26.7922,"longitude":82.1998,"temp":30.3,"humidity":71,"rain":0.0,"pressure":991.4,"uv_index":7.75,"wind_gusts":47.2,"aqi":84,"pm10":19.1,"pm2_5":18.9,"no2":4.4,"co":325.0,"o3":101.0,"so2":8.1,"mosquito_risk":3,"arthritis_risk":5,"migraine_risk":7,"frizz_risk":1,"updated_at":"2026-07-22T09:48:11.011232+05:30"},{"city":"Ratlam","state":"Madhya Pradesh","latitude":23.3315,"longitude":75.0367,"temp":24.6,"humidity":94,"rain":0.1,"pressure":948.6,"uv_index":0.2,"wind_gusts":35.6,"aqi":52,"pm10":12.7,"pm2_5":8.3,"no2":6.8,"co":135.0,"o3":41.0,"so2":5.3,"mosquito_risk":6,"arthritis_risk":5,"migraine_risk":3,"frizz_risk":1,"updated_at":"2026-07-22T09:48:11.011240+05:30"},{"city":"Sagar","state":"Madhya Pradesh","latitude":23.8388,"longitude":78.7378,"temp":26.5,"humidity":84,"rain":0.1,"pressure":943.5,"uv_index":8.25,"wind_gusts":27.0,"aqi":38,"pm10":4.6,"pm2_5":4.2,"no2":2.4,"co":179.0,"o3":84.0,"so2":2.2,"mosquito_risk":10,"arthritis_risk":5,"migraine_risk":7,"frizz_risk":1,"updated_at":"2026-07-22T09:48:11.011248+05:30"},{"city":"Satna","state":"Madhya Pradesh","latitude":24.6005,"longitude":80.8322,"temp":28.5,"humidity":77,"rain":0.0,"pressure":965.6,"uv_index":8.2,"wind_gusts":33.8,"aqi":61,"pm10":8.0,"pm2_5":7.9,"no2":5.9,"co":212.0,"o3":75.0,"so2":18.7,"mosquito_risk":7,"arthritis_risk":5,"migraine_risk":7,"frizz_risk":1,"updated_at":"2026-07-22T09:48:11.011256+05:30"},{"city":"Akola","state":"Maharashtra","latitude":20.7002,"longitude":77.0082,"temp":25.8,"humidity":90,"rain":0.0,"pressure":970.2,"uv_index":2.6,"wind_gusts":45.4,"aqi":26,"pm10":3.0,"pm2_5":2.8,"no2":8.9,"co":159.0,"o3":28.0,"so2":3.4,"mosquito_risk":7,"arthritis_risk":5,"migraine_risk":3,"frizz_risk":1,"updated_at":"2026-07-22T09:48:11.011264+05:30"},{"city":"Amravati","state":"Maharashtra","latitude":20.9374,"longitude":77.7796,"temp":25.3,"humidity":91,"rain":0.1,"pressure":962.3,"uv_index":1.45,"wind_gusts":53.6,"aqi":26,"pm10":2.8,"pm2_5":2.7,"no2":8.7,"co":147.0,"o3":28.0,"so2":3.4,"mosquito_risk":10,"arthritis_risk":5,"migraine_risk":3,"frizz_risk":1,"updated_at":"2026-07-22T09:48:11.011272+05:30"},{"city":"Latur","state":"Maharashtra","latitude":18.4088,"longitude":76.5604,"temp":25.3,"humidity":79,"rain":0.0,"pressure":937.5,"uv_index":1.6,"wind_gusts":58.0,"aqi":31,"pm10":3.8,"pm2_5":3.2,"no2":3.5,"co":136.0,"o3":36.0,"so2":1.4,"mosquito_risk":7,"arthritis_risk":5,"migraine_risk":3,"frizz_risk":1,"updated_at":"2026-07-22T09:48:11.011280+05:30"},{"city":"Nanded","state":"Maharashtra","latitude":19.1383,"longitude":77.3091,"temp":24.6,"humidity":92,"rain":0.4,"pressure":965.3,"uv_index":1.8,"wind_gusts":44.6,"aqi":41,"pm10":4.0,"pm2_5":3.7,"no2":5.7,"co":157.0,"o3":36.0,"so2":2.7,"mosquito_risk":6,"arthritis_risk":5,"migraine_risk":3,"frizz_risk":1,"updated_at":"2026-07-22T09:48:11.011287+05:30"},{"city":"Gulbarga","state":"Karnataka","latitude":17.3297,"longitude":76.8343,"temp":26.2,"humidity":73,"rain":0.1,"pressure":957.7,"uv_index":2.6,"wind_gusts":61.6,"aqi":36,"pm10":7.0,"pm2_5":4.2,"no2":4.4,"co":122.0,"o3":39.0,"so2":2.6,"mosquito_risk":10,"arthritis_risk":5,"migraine_risk":3,"frizz_risk":1,"updated_at":"2026-07-22T09:48:11.011295+05:30"},{"city":"Bidar","state":"Karnataka","latitude":17.9104,"longitude":77.5199,"temp":24.3,"humidity":81,"rain":0.0,"pressure":933.5,"uv_index":3.25,"wind_gusts":57.6,"aqi":35,"pm10":6.5,"pm2_5":4.7,"no2":5.1,"co":138.0,"o3":37.0,"so2":2.2,"mosquito_risk":3,"arthritis_risk":5,"migraine_risk":3,"frizz_risk":1,"updated_at":"2026-07-22T09:48:11.011303+05:30"},{"city":"Hospet","state":"Karnataka","latitude":15.2689,"longitude":76.3909,"temp":27.1,"humidity":70,"rain":0.0,"pressure":956.4,"uv_index":8.4,"wind_gusts":62.3,"aqi":25,"pm10":3.0,"pm2_5":2.0,"no2":2.3,"co":110.0,"o3":43.0,"so2":1.6,"mosquito_risk":7,"arthritis_risk":5,"migraine_risk":7,"frizz_risk":1,"updated_at":"2026-07-22T09:48:11.011310+05:30"},{"city":"Tirupur","state":"Tamil Nadu","latitude":11.1085,"longitude":77.3411,"temp":30.4,"humidity":57,"rain":0.0,"pressure":977.1,"uv_index":8.6,"wind_gusts":55.1,"aqi":60,"pm10":12.6,"pm2_5":9.1,"no2":6.3,"co":171.0,"o3":54.0,"so2":4.6,"mosquito_risk":0,"arthritis_risk":5,"migraine_risk":7,"frizz_risk":1,"updated_at":"2026-07-22T09:48:11.011317+05:30"},{"city":"Alappuzha","state":"Kerala","latitude":9.4981,"longitude":76.3388,"temp":28.1,"humidity":82,"rain":0.0,"pressure":1011.5,"uv_index":7.8,"wind_gusts":35.3,"aqi":58,"pm10":16.1,"pm2_5":10.2,"no2":6.0,"co":132.0,"o3":53.0,"so2":4.9,"mosquito_risk":7,"arthritis_risk":0,"migraine_risk":4,"frizz_risk":1,"updated_at":"2026-07-22T09:48:11.011325+05:30"},{"city":"Munnar","state":"Kerala","latitude":10.0889,"longitude":77.0595,"temp":20.8,"humidity":73,"rain":0.0,"pressure":859.8,"uv_index":8.8,"wind_gusts":34.9,"aqi":45,"pm10":9.5,"pm2_5":5.5,"no2":1.9,"co":98.0,"o3":54.0,"so2":1.9,"mosquito_risk":3,"arthritis_risk":5,"migraine_risk":7,"frizz_risk":0,"updated_at":"2026-07-22T09:48:11.011333+05:30"},{"city":"Silchar","state":"Assam","latitude":24.8333,"longitude":92.7789,"temp":29.5,"humidity":76,"rain":0.0,"pressure":1004.6,"uv_index":8.6,"wind_gusts":26.3,"aqi":54,"pm10":8.9,"pm2_5":8.1,"no2":1.6,"co":160.0,"o3":84.0,"so2":2.8,"mosquito_risk":7,"arthritis_risk":5,"migraine_risk":4,"frizz_risk":1,"updated_at":"2026-07-22T09:48:11.011340+05:30"},{"city":"Dibrugarh","state":"Assam","latitude":27.4728,"longitude":94.912,"temp":30.1,"humidity":74,"rain":0.0,"pressure":995.0,"uv_index":6.45,"wind_gusts":22.0,"aqi":62,"pm10":7.1,"pm2_5":6.7,"no2":1.3,"co":188.0,"o3":117.0,"so2":1.2,"mosquito_risk":3,"arthritis_risk":5,"migraine_risk":7,"frizz_risk":1,"updated_at":"2026-07-22T09:48:11.011347+05:30"}]