[{"city":"Delhi","state":"Delhi","latitude":28.6139,"longitude":77.209,"temp":26.5,"humidity":70,"rain":0.0,"pressure":979.4,"uv_index":7.7,"wind_gusts":52.9,"aqi":625,"pm10":529.0,"pm2_5":99.7,"no2":14.9,"co":374.0,"o3":100.0,"so2":21.4,"mosquito_risk":7,"arthritis_risk":5,"migraine_risk":7,"frizz_risk":1,"updated_at":"2026-05-29T04:53:52.263800+05:30"},{"city":"Mumbai","state":"Maharashtra","latitude":19.076,"longitude":72.8777,"temp":29.9,"humidity":73,"rain":0.0,"pressure":1008.8,"uv_index":7.8,"wind_gusts":41.8,"aqi":60,"pm10":36.0,"pm2_5":17.3,"no2":4.2,"co":125.0,"o3":50.0,"so2":3.9,"mosquito_risk":7,"arthritis_risk":0,"migraine_risk":4,"frizz_risk":1,"updated_at":"2026-05-29T04:53:52.263839+05:30"},{"city":"Bangalore","state":"Karnataka","latitude":12.9716,"longitude":77.5946,"temp":21.3,"humidity":98,"rain":0.0,"pressure":911.6,"uv_index":7.8,"wind_gusts":39.6,"aqi":57,"pm10":13.8,"pm2_5":12.8,"no2":15.4,"co":270.0,"o3":37.0,"so2":6.0,"mosquito_risk":3,"arthritis_risk":5,"migraine_risk":7,"frizz_risk":1,"updated_at":"2026-05-29T04:53:52.263851+05:30"},{"city":"Hyderabad","state":"Telangana","latitude":17.385,"longitude":78.4867,"temp":28.4,"humidity":59,"rain":0.0,"pressure":951.9,"uv_index":9.15,"wind_gusts":41.8,"aqi":61,"pm10":17.4,"pm2_5":15.1,"no2":15.6,"co":245.0,"o3":54.0,"so2":8.1,"mosquito_risk":4,"arthritis_risk":5,"migraine_risk":7,"frizz_risk":1,"updated_at":"2026-05-29T04:53:52.263858+05:30"},{"city":"Chennai","state":"Tamil Nadu","latitude":13.0827,"longitude":80.2707,"temp":29.6,"humidity":74,"rain":0.0,"pressure":1004.6,"uv_index":9.0,"wind_gusts":36.7,"aqi":74,"pm10":24.8,"pm2_5":19.7,"no2":15.0,"co":299.0,"o3":69.0,"so2":9.4,"mosquito_risk":7,"arthritis_risk":5,"migraine_risk":4,"frizz_risk":1,"updated_at":"2026-05-29T04:53:52.263865+05:30"},{"city":"Kolkata","state":"West Bengal","latitude":22.5726,"longitude":88.3639,"temp":26.8,"humidity":97,"rain":0.1,"pressure":1004.8,"uv_index":8.95,"wind_gusts":27.4,"aqi":107,"pm10":49.7,"pm2_5":41.0,"no2":18.9,"co":500.0,"o3":50.0,"so2":8.4,"mosquito_risk":10,"arthritis_risk":5,"migraine_risk":4,"frizz_risk":1,"updated_at":"2026-05-29T04:53:52.263875+05:30"},{"city":"Pune","state":"Maharashtra","latitude":18.5204,"longitude":73.8567,"temp":24.4,"humidity":84,"rain":0.0,"pressure":948.6,"uv_index":8.4,"wind_gusts":47.2,"aqi":39,"pm10":11.4,"pm2_5":9.0,"no2":10.0,"co":125.0,"o3":32.0,"so2":5.7,"mosquito_risk":3,"arthritis_risk":5,"migraine_risk":7,"frizz_risk":1,"updated_at":"2026-05-29T04:53:52.263881+05:30"},{"city":"Ahmedabad","state":"Gujarat","latitude":23.0225,"longitude":72.5714,"temp":29.3,"humidity":70,"rain":0.0,"pressure":1000.5,"uv_index":8.15,"wind_gusts":48.6,"aqi":73,"pm10":46.6,"pm2_5":25.3,"no2":5.5,"co":125.0,"o3":38.0,"so2":5.2,"mosquito_risk":7,"arthritis_risk":5,"migraine_risk":4,"frizz_risk":1,"updated_at":"2026-05-29T04:53:52.263886+05:30"},{"city":"Jaipur","state":"Rajasthan","latitude":26.9124,"longitude":75.7873,"temp":29.7,"humidity":47,"rain":0.0,"pressure":955.4,"uv_index":8.2,"wind_gusts":70.9,"aqi":144,"pm10":140.2,"pm2_5":34.8,"no2":7.1,"co":190.0,"o3":58.0,"so2":3.8,"mosquito_risk":4,"arthritis_risk":5,"migraine_risk":7,"frizz_risk":1,"updated_at":"2026-05-29T04:53:52.263894+05:30"},{"city":"Lucknow","state":"Uttar Pradesh","latitude":26.8467,"longitude":80.9462,"temp":28.8,"humidity":64,"rain":0.0,"pressure":991.4,"uv_index":7.1,"wind_gusts":49.7,"aqi":94,"pm10":47.4,"pm2_5":33.8,"no2":7.1,"co":326.0,"o3":118.0,"so2":12.8,"mosquito_risk":7,"arthritis_risk":5,"migraine_risk":7,"frizz_risk":1,"updated_at":"2026-05-29T04:53:52.263899+05:30"},{"city":"Kanpur","state":"Uttar Pradesh","latitude":26.4499,"longitude":80.3319,"temp":30.8,"humidity":57,"rain":0.0,"pressure":989.3,"uv_index":5.7,"wind_gusts":46.8,"aqi":188,"pm10":440.5,"pm2_5":75.7,"no2":6.7,"co":293.0,"o3":129.0,"so2":15.7,"mosquito_risk":0,"arthritis_risk":5,"migraine_risk":3,"frizz_risk":1,"updated_at":"2026-05-29T04:53:52.263904+05:30"},{"city":"Chandigarh","state":"Chandigarh","latitude":30.7333,"longitude":76.7794,"temp":26.9,"humidity":52,"rain":0.0,"pressure":965.3,"uv_index":7.7,"wind_gusts":65.5,"aqi":125,"pm10":80.6,"pm2_5":42.7,"no2":11.4,"co":485.0,"o3":123.0,"so2":11.5,"mosquito_risk":4,"arthritis_risk":5,"migraine_risk":7,"frizz_risk":1,"updated_at":"2026-05-29T04:53:52.263910+05:30"},{"city":"Srinagar","state":"Jammu and Kashmir","latitude":34.0837,"longitude":74.7973,"temp":11.4,"humidity":81,"rain":0.0,"pressure":838.5,"uv_index":8.9,"wind_gusts":31.0,"aqi":72,"pm10":32.8,"pm2_5":27.4,"no2":21.6,"co":252.0,"o3":22.0,"so2":0.4,"mosquito_risk":3,"arthritis_risk":10,"migraine_risk":7,"frizz_risk":0,"updated_at":"2026-05-29T04:53:52.263916+05:30"},{"city":"Jammu","state":"Jammu and Kashmir","latitude":32.7266,"longitude":74.857,"temp":25.4,"humidity":32,"rain":0.0,"pressure":967.0,"uv_index":8.55,"wind_gusts":47.2,"aqi":93,"pm10":34.7,"pm2_5":29.7,"no2":25.6,"co":282.0,"o3":30.0,"so2":2.6,"mosquito_risk":4,"arthritis_risk":5,"migraine_risk":7,"frizz_risk":0,"updated_at":"2026-05-29T04:53:52.263922+05:30"},{"city":"Amritsar","state":"Punjab","latitude":31.634,"longitude":74.8723,"temp":27.2,"humidity":35,"rain":0.0,"pressure":975.0,"uv_index":8.4,"wind_gusts":43.2,"aqi":105,"pm10":333.4,"pm2_5":109.2,"no2":14.3,"co":417.0,"o3":84.0,"so2":9.9,"mosquito_risk":4,"arthritis_risk":5,"migraine_risk":7,"frizz_risk":0,"updated_at":"2026-05-29T04:53:52.263927+05:30"},{"city":"Ludhiana","state":"Punjab","latitude":30.901,"longitude":75.8573,"temp":26.8,"humidity":57,"rain":0.0,"pressure":974.0,"uv_index":7.95,"wind_gusts":56.2,"aqi":258,"pm10":586.7,"pm2_5":127.1,"no2":6.2,"co":403.0,"o3":127.0,"so2":15.8,"mosquito_risk":4,"arthritis_risk":5,"migraine_risk":7,"frizz_risk":1,"updated_at":"2026-05-29T04:53:52.263932+05:30"},{"city":"Jalandhar","state":"Punjab","latitude":31.326,"longitude":75.5762,"temp":26.6,"humidity":61,"rain":0.0,"pressure":975.1,"uv_index":8.15,"wind_gusts":53.3,"aqi":158,"pm10":605.4,"pm2_5":182.1,"no2":9.2,"co":392.0,"o3":109.0,"so2":15.9,"mosquito_risk":7,"arthritis_risk":5,"migraine_risk":7,"frizz_risk":1,"updated_at":"2026-05-29T04:53:52.263937+05:30"},{"city":"Dehradun","state":"Uttarakhand","latitude":30.6284,"longitude":78.0322,"temp":12.7,"humidity":88,"rain":0.0,"pressure":826.7,"uv_index":8.15,"wind_gusts":28.8,"aqi":93,"pm10":55.8,"pm2_5":36.2,"no2":22.6,"co":350.0,"o3":38.0,"so2":1.2,"mosquito_risk":3,"arthritis_risk":10,"migraine_risk":7,"frizz_risk":0,"updated_at":"2026-05-29T04:53:52.263942+05:30"},{"city":"Shimla","state":"Himachal Pradesh","latitude":31.1048,"longitude":77.1734,"temp":11.3,"humidity":71,"rain":0.0,"pressure":779.9,"uv_index":8.05,"wind_gusts":29.9,"aqi":77,"pm10":45.6,"pm2_5":34.1,"no2":27.4,"co":316.0,"o3":48.0,"so2":4.0,"mosquito_risk":3,"arthritis_risk":5,"migraine_risk":7,"frizz_risk":0,"updated_at":"2026-05-29T04:53:52.263949+05:30"},{"city":"Manali","state":"Himachal Pradesh","latitude":32.2396,"longitude":77.1887,"temp":11.9,"humidity":61,"rain":0.0,"pressure":815.4,"uv_index":9.65,"wind_gusts":47.5,"aqi":58,"pm10":4.1,"pm2_5":2.5,"no2":8.1,"co":205.0,"o3":138.0,"so2":0.0,"mosquito_risk":3,"arthritis_risk":5,"migraine_risk":7,"frizz_risk":0,"updated_at":"2026-05-29T04:53:52.263954+05:30"},{"city":"Gurgaon","state":"Haryana","latitude":28.4595,"longitude":77.0266,"temp":26.0,"humidity":73,"rain":0.0,"pressure":977.8,"uv_index":7.8,"wind_gusts":56.5,"aqi":1272,"pm10":2063.8,"pm2_5":312.0,"no2":15.0,"co":307.0,"o3":89.0,"so2":20.4,"mosquito_risk":7,"arthritis_risk":5,"migraine_risk":7,"frizz_risk":1,"updated_at":"2026-05-29T04:53:52.263959+05:30"},{"city":"Noida","state":"Uttar Pradesh","latitude":28.5355,"longitude":77.391,"temp":26.8,"humidity":69,"rain":0.0,"pressure":981.0,"uv_index":7.7,"wind_gusts":58.3,"aqi":1272,"pm10":2063.8,"pm2_5":312.0,"no2":15.0,"co":389.0,"o3":89.0,"so2":20.4,"mosquito_risk":7,"arthritis_risk":5,"migraine_risk":7,"frizz_risk":1,"updated_at":"2026-05-29T04:53:52.263964+05:30"},{"city":"Ghaziabad","state":"Uttar Pradesh","latitude":28.6692,"longitude":77.4538,"temp":27.4,"humidity":66,"rain":0.0,"pressure":979.3,"uv_index":7.7,"wind_gusts":63.4,"aqi":501,"pm10":393.9,"pm2_5":65.4,"no2":8.0,"co":353.0,"o3":111.0,"so2":10.8,"mosquito_risk":7,"arthritis_risk":5,"migraine_risk":7,"frizz_risk":1,"updated_at":"2026-05-29T04:53:52.263971+05:30"},{"city":"Faridabad","state":"Haryana","latitude":28.4089,"longitude":77.3178,"temp":26.5,"humidity":70,"rain":0.0,"pressure":980.3,"uv_index":7.75,"wind_gusts":63.7,"aqi":1272,"pm10":2063.8,"pm2_5":312.0,"no2":15.0,"co":352.0,"o3":89.0,"so2":20.4,"mosquito_risk":7,"arthritis_risk":5,"migraine_risk":7,"frizz_risk":1,"updated_at":"2026-05-29T04:53:52.263976+05:30"},{"city":"Meerut","state":"Uttar Pradesh","latitude":28.9845,"longitude":77.7064,"temp":26.2,"humidity":72,"rain":0.0,"pressure":979.2,"uv_index":7.6,"wind_gusts":67.3,"aqi":501,"pm10":393.9,"pm2_5":65.4,"no2":8.0,"co":400.0,"o3":111.0,"so2":10.8,"mosquito_risk":7,"arthritis_risk":5,"migraine_risk":7,"frizz_risk":1,"updated_at":"2026-05-29T04:53:52.263981+05:30"},{"city":"Agra","state":"Uttar Pradesh","latitude":27.1767,"longitude":78.0081,"temp":29.2,"humidity":65,"rain":0.5,"pressure":985.3,"uv_index":8.05,"wind_gusts":75.2,"aqi":706,"pm10":929.5,"pm2_5":170.0,"no2":13.5,"co":256.0,"o3":81.0,"so2":14.1,"mosquito_risk":10,"arthritis_risk":5,"migraine_risk":7,"frizz_risk":1,"updated_at":"2026-05-29T04:53:52.263986+05:30"},{"city":"Varanasi","state":"Uttar Pradesh","latitude":25.3176,"longitude":82.9739,"temp":29.1,"humidity":65,"rain":0.0,"pressure":994.6,"uv_index":8.7,"wind_gusts":48.6,"aqi":113,"pm10":50.3,"pm2_5":43.8,"no2":11.3,"co":332.0,"o3":96.0,"so2":20.0,"mosquito_risk":7,"arthritis_risk":5,"migraine_risk":7,"frizz_risk":1,"updated_at":"2026-05-29T04:53:52.263991+05:30"},{"city":"Prayagraj","state":"Uttar Pradesh","latitude":25.4358,"longitude":81.8463,"temp":30.3,"humidity":59,"rain":0.0,"pressure":992.0,"uv_index":8.2,"wind_gusts":59.8,"aqi":102,"pm10":47.0,"pm2_5":39.8,"no2":10.3,"co":338.0,"o3":104.0,"so2":17.3,"mosquito_risk":0,"arthritis_risk":5,"migraine_risk":7,"frizz_risk":1,"updated_at":"2026-05-29T04:53:52.263996+05:30"},{"city":"Gorakhpur","state":"Uttar Pradesh","latitude":26.7606,"longitude":83.3732,"temp":25.3,"humidity":78,"rain":0.0,"pressure":997.5,"uv_index":8.1,"wind_gusts":43.9,"aqi":97,"pm10":39.2,"pm2_5":30.7,"no2":8.1,"co":327.0,"o3":104.0,"so2":6.6,"mosquito_risk":7,"arthritis_risk":5,"migraine_risk":7,"frizz_risk":1,"updated_at":"2026-05-29T04:53:52.264003+05:30"},{"city":"Bareilly","state":"Uttar Pradesh","latitude":28.367,"longitude":79.4304,"temp":26.2,"humidity":68,"rain":0.0,"pressure":985.1,"uv_index":7.65,"wind_gusts":46.1,"aqi":128,"pm10":44.9,"pm2_5":27.8,"no2":7.8,"co":306.0,"o3":107.0,"so2":5.0,"mosquito_risk":7,"arthritis_risk":5,"migraine_risk":7,"frizz_risk":1,"updated_at":"2026-05-29T04:53:52.264008+05:30"},{"city":"Aligarh","state":"Uttar Pradesh","latitude":27.8974,"longitude":78.088,"temp":26.0,"humidity":79,"rain":0.0,"pressure":982.8,"uv_index":7.85,"wind_gusts":74.5,"aqi":974,"pm10":1411.9,"pm2_5":196.5,"no2":8.7,"co":322.0,"o3":105.0,"so2":15.1,"mosquito_risk":7,"arthritis_risk":5,"migraine_risk":7,"frizz_risk":1,"updated_at":"2026-05-29T04:53:52.264013+05:30"},{"city":"Moradabad","state":"Uttar Pradesh","latitude":28.8386,"longitude":78.7733,"temp":25.5,"humidity":72,"rain":0.0,"pressure":982.2,"uv_index":7.8,"wind_gusts":49.0,"aqi":110,"pm10":48.8,"pm2_5":27.6,"no2":7.1,"co":287.0,"o3":121.0,"so2":5.9,"mosquito_risk":7,"arthritis_risk":5,"migraine_risk":7,"frizz_risk":1,"updated_at":"2026-05-29T04:53:52.264018+05:30"},{"city":"Saharanpur","state":"Uttar Pradesh","latitude":29.9637,"longitude":77.546,"temp":26.5,"humidity":63,"rain":0.0,"pressure":973.0,"uv_index":7.45,"wind_gusts":59.0,"aqi":99,"pm10":92.4,"pm2_5":37.7,"no2":9.0,"co":376.0,"o3":117.0,"so2":6.7,"mosquito_risk":7,"arthritis_risk":5,"migraine_risk":7,"frizz_risk":1,"updated_at":"2026-05-29T04:53:52.264023+05:30"},{"city":"Jhansi","state":"Uttar Pradesh","latitude":25.4484,"longitude":78.5685,"temp":30.9,"humidity":56,"rain":0.0,"pressure":972.8,"uv_index":8.45,"wind_gusts":78.8,"aqi":74,"pm10":31.4,"pm2_5":19.9,"no2":5.9,"co":216.0,"o3":72.0,"so2":5.9,"mosquito_risk":0,"arthritis_risk":5,"migraine_risk":7,"frizz_risk":1,"updated_at":"2026-05-29T04:53:55.594871+05:30"},{"city":"Surat","state":"Gujarat","latitude":21.1702,"longitude":72.8311,"temp":29.2,"humidity":77,"rain":0.0,"pressure":1005.7,"uv_index":7.7,"wind_gusts":59.8,"aqi":85,"pm10":50.4,"pm2_5":26.7,"no2":15.8,"co":232.0,"o3":35.0,"so2":27.4,"mosquito_risk":7,"arthritis_risk":5,"migraine_risk":4,"frizz_risk":1,"updated_at":"2026-05-29T04:53:55.594901+05:30"},{"city":"Vadodara","state":"Gujarat","latitude":22.3072,"longitude":73.1812,"temp":28.3,"humidity":79,"rain":0.0,"pressure":1003.0,"uv_index":8.05,"wind_gusts":55.4,"aqi":78,"pm10":42.7,"pm2_5":24.6,"no2":7.0,"co":117.0,"o3":39.0,"so2":7.0,"mosquito_risk":7,"arthritis_risk":5,"migraine_risk":4,"frizz_risk":1,"updated_at":"2026-05-29T04:53:55.594909+05:30"},{"city":"Rajkot","state":"Gujarat","latitude":22.3039,"longitude":70.8022,"temp":27.5,"humidity":81,"rain":0.0,"pressure":992.7,"uv_index":7.7,"wind_gusts":56.9,"aqi":75,"pm10":34.8,"pm2_5":17.5,"no2":3.0,"co":104.0,"o3":42.0,"so2":2.8,"mosquito_risk":7,"arthritis_risk":5,"migraine_risk":7,"frizz_risk":1,"updated_at":"2026-05-29T04:53:55.594917+05:30"},{"city":"Thane","state":"Maharashtra","latitude":19.2183,"longitude":72.9781,"temp":29.5,"humidity":75,"rain":0.0,"pressure":1008.1,"uv_index":7.8,"wind_gusts":40.3,"aqi":60,"pm10":36.0,"pm2_5":17.3,"no2":4.2,"co":141.0,"o3":50.0,"so2":3.9,"mosquito_risk":7,"arthritis_risk":0,"migraine_risk":4,"frizz_risk":1,"updated_at":"2026-05-29T04:53:55.594923+05:30"},{"city":"Nagpur","state":"Maharashtra","latitude":21.1458,"longitude":79.0882,"temp":34.3,"humidity":30,"rain":0.0,"pressure":969.7,"uv_index":8.85,"wind_gusts":46.4,"aqi":69,"pm10":18.5,"pm2_5":14.1,"no2":10.6,"co":323.0,"o3":73.0,"so2":10.4,"mosquito_risk":0,"arthritis_risk":5,"migraine_risk":7,"frizz_risk":0,"updated_at":"2026-05-29T04:53:55.594929+05:30"},{"city":"Nashik","state":"Maharashtra","latitude":19.9975,"longitude":73.7898,"temp":24.1,"humidity":88,"rain":0.0,"pressure":945.3,"uv_index":8.1,"wind_gusts":50.0,"aqi":55,"pm10":26.7,"pm2_5":14.6,"no2":11.2,"co":140.0,"o3":33.0,"so2":10.2,"mosquito_risk":3,"arthritis_risk":5,"migraine_risk":7,"frizz_risk":1,"updated_at":"2026-05-29T04:53:55.594935+05:30"},{"city":"Aurangabad","state":"Maharashtra","latitude":19.8762,"longitude":75.3433,"temp":25.1,"humidity":80,"rain":0.0,"pressure":943.7,"uv_index":8.95,"wind_gusts":49.7,"aqi":53,"pm10":27.2,"pm2_5":15.9,"no2":12.6,"co":167.0,"o3":39.0,"so2":12.7,"mosquito_risk":7,"arthritis_risk":5,"migraine_risk":7,"frizz_risk":1,"updated_at":"2026-05-29T04:53:55.594941+05:30"},{"city":"Solapur","state":"Maharashtra","latitude":17.6599,"longitude":75.9064,"temp":26.8,"humidity":66,"rain":0.0,"pressure":957.2,"uv_index":8.95,"wind_gusts":37.1,"aqi":44,"pm10":7.0,"pm2_5":5.8,"no2":7.1,"co":157.0,"o3":41.0,"so2":2.3,"mosquito_risk":7,"arthritis_risk":5,"migraine_risk":7,"frizz_risk":1,"updated_at":"2026-05-29T04:53:55.594947+05:30"},{"city":"Kolhapur","state":"Maharashtra","latitude":16.705,"longitude":74.2433,"temp":23.8,"humidity":90,"rain":0.0,"pressure":948.5,"uv_index":8.8,"wind_gusts":46.8,"aqi":25,"pm10":6.6,"pm2_5":5.6,"no2":5.5,"co":143.0,"o3":40.0,"so2":2.5,"mosquito_risk":3,"arthritis_risk":5,"migraine_risk":7,"frizz_risk":1,"updated_at":"2026-05-29T04:53:55.594953+05:30"},{"city":"Goa","state":"Goa","latitude":15.2993,"longitude":74.124,"temp":26.4,"humidity":97,"rain":0.0,"pressure":998.8,"uv_index":5.45,"wind_gusts":31.0,"aqi":42,"pm10":23.3,"pm2_5":18.6,"no2":8.1,"co":328.0,"o3":42.0,"so2":2.4,"mosquito_risk":7,"arthritis_risk":5,"migraine_risk":3,"frizz_risk":1,"updated_at":"2026-05-29T04:53:55.594959+05:30"},{"city":"Jodhpur","state":"Rajasthan","latitude":26.2389,"longitude":73.0243,"temp":30.2,"humidity":58,"rain":0.0,"pressure":977.2,"uv_index":8.4,"wind_gusts":51.8,"aqi":286,"pm10":421.0,"pm2_5":93.8,"no2":2.1,"co":111.0,"o3":60.0,"so2":2.9,"mosquito_risk":0,"arthritis_risk":5,"migraine_risk":7,"frizz_risk":1,"updated_at":"2026-05-29T04:53:55.594965+05:30"},{"city":"Udaipur","state":"Rajasthan","latitude":24.5854,"longitude":73.7125,"temp":26.0,"humidity":67,"rain":0.0,"pressure":943.0,"uv_index":8.8,"wind_gusts":52.2,"aqi":64,"pm10":46.8,"pm2_5":24.0,"no2":2.9,"co":123.0,"o3":54.0,"so2":2.6,"mosquito_risk":7,"arthritis_risk":5,"migraine_risk":7,"frizz_risk":1,"updated_at":"2026-05-29T04:53:55.594971+05:30"},{"city":"Kota","state":"Rajasthan","latitude":25.2138,"longitude":75.8648,"temp":33.2,"humidity":34,"rain":0.0,"pressure":973.9,"uv_index":8.4,"wind_gusts":77.0,"aqi":62,"pm10":61.0,"pm2_5":23.4,"no2":4.6,"co":171.0,"o3":81.0,"so2":4.3,"mosquito_risk":0,"arthritis_risk":5,"migraine_risk":7,"frizz_risk":0,"updated_at":"2026-05-29T04:53:55.594977+05:30"},{"city":"Bikaner","state":"Rajasthan","latitude":28.0229,"longitude":73.3119,"temp":34.0,"humidity":39,"rain":0.0,"pressure":974.2,"uv_index":8.35,"wind_gusts":65.9,"aqi":160,"pm10":100.1,"pm2_5":43.0,"no2":3.3,"co":291.0,"o3":69.0,"so2":3.5,"mosquito_risk":0,"arthritis_risk":5,"migraine_risk":7,"frizz_risk":1,"updated_at":"2026-05-29T04:53:55.594983+05:30"},{"city":"Ajmer","state":"Rajasthan","latitude":26.4499,"longitude":74.6399,"temp":30.6,"humidity":49,"rain":0.0,"pressure":950.3,"uv_index":8.35,"wind_gusts":68.4,"aqi":78,"pm10":61.0,"pm2_5":25.7,"no2":4.0,"co":119.0,"o3":71.0,"so2":1.8,"mosquito_risk":0,"arthritis_risk":5,"migraine_risk":7,"frizz_risk":1,"updated_at":"2026-05-29T04:53:55.594988+05:30"},{"city":"Gwalior","state":"Madhya Pradesh","latitude":26.2183,"longitude":78.1828,"temp":31.9,"humidity":52,"rain":0.0,"pressure":978.6,"uv_index":8.25,"wind_gusts":82.1,"aqi":122,"pm10":191.9,"pm2_5":66.6,"no2":11.7,"co":366.0,"o3":61.0,"so2":7.6,"mosquito_risk":0,"arthritis_risk":5,"migraine_risk":7,"frizz_risk":1,"updated_at":"2026-05-29T04:53:55.594993+05:30"},{"city":"Indore","state":"Madhya Pradesh","latitude":22.7196,"longitude":75.8577,"temp":27.1,"humidity":69,"rain":0.0,"pressure":946.4,"uv_index":8.6,"wind_gusts":50.4,"aqi":67,"pm10":40.4,"pm2_5":23.7,"no2":6.8,"co":154.0,"o3":58.0,"so2":11.4,"mosquito_risk":7,"arthritis_risk":5,"migraine_risk":7,"frizz_risk":1,"updated_at":"2026-05-29T04:53:55.594999+05:30"},{"city":"Bhopal","state":"Madhya Pradesh","latitude":23.2599,"longitude":77.4126,"temp":31.4,"humidity":41,"rain":0.0,"pressure":951.0,"uv_index":8.65,"wind_gusts":60.8,"aqi":64,"pm10":23.7,"pm2_5":16.9,"no2":4.3,"co":191.0,"o3":86.0,"so2":6.5,"mosquito_risk":0,"arthritis_risk":5,"migraine_risk":7,"frizz_risk":1,"updated_at":"2026-05-29T04:53:55.595004+05:30"},{"city":"Jabalpur","state":"Madhya Pradesh","latitude":23.1815,"longitude":79.9864,"temp":33.0,"humidity":29,"rain":0.0,"pressure":957.7,"uv_index":8.8,"wind_gusts":50.4,"aqi":72,"pm10":34.5,"pm2_5":18.4,"no2":11.6,"co":191.0,"o3":63.0,"so2":5.2,"mosquito_risk":0,"arthritis_risk":5,"migraine_risk":7,"frizz_risk":0,"updated_at":"2026-05-29T04:53:55.595010+05:30"},{"city":"Ujjain","state":"Madhya Pradesh","latitude":23.1765,"longitude":75.7885,"temp":27.4,"humidity":70,"rain":0.0,"pressure":951.8,"uv_index":8.55,"wind_gusts":52.2,"aqi":67,"pm10":39.5,"pm2_5":24.0,"no2":7.1,"co":157.0,"o3":50.0,"so2":12.2,"mosquito_risk":7,"arthritis_risk":5,"migraine_risk":7,"frizz_risk":1,"updated_at":"2026-05-29T04:53:55.595016+05:30"},{"city":"Visakhapatnam","state":"Andhra Pradesh","latitude":17.6868,"longitude":83.2185,"temp":29.0,"humidity":83,"rain":0.0,"pressure":1000.1,"uv_index":9.05,"wind_gusts":37.1,"aqi":119,"pm10":44.9,"pm2_5":39.8,"no2":20.9,"co":587.0,"o3":81.0,"so2":26.5,"mosquito_risk":7,"arthritis_risk":5,"migraine_risk":4,"frizz_risk":1,"updated_at":"2026-05-29T04:53:55.595022+05:30"},{"city":"Vijayawada","state":"Andhra Pradesh","latitude":16.5062,"longitude":80.648,"temp":31.3,"humidity":60,"rain":0.0,"pressure":999.1,"uv_index":9.0,"wind_gusts":46.4,"aqi":89,"pm10":38.5,"pm2_5":34.9,"no2":16.5,"co":297.0,"o3":70.0,"so2":6.2,"mosquito_risk":0,"arthritis_risk":5,"migraine_risk":7,"frizz_risk":1,"updated_at":"2026-05-29T04:53:55.595027+05:30"},{"city":"Guntur","state":"Andhra Pradesh","latitude":16.3067,"longitude":80.4365,"temp":30.8,"humidity":60,"rain":0.0,"pressure":1000.3,"uv_index":8.95,"wind_gusts":46.1,"aqi":81,"pm10":45.4,"pm2_5":40.9,"no2":31.9,"co":248.0,"o3":34.0,"so2":6.4,"mosquito_risk":0,"arthritis_risk":5,"migraine_risk":4,"frizz_risk":1,"updated_at":"2026-05-29T04:53:55.595033+05:30"},{"city":"Nellore","state":"Andhra Pradesh","latitude":14.4426,"longitude":79.9865,"temp":29.7,"humidity":69,"rain":0.0,"pressure":1002.9,"uv_index":9.0,"wind_gusts":42.5,"aqi":77,"pm10":32.2,"pm2_5":29.0,"no2":13.6,"co":181.0,"o3":67.0,"so2":9.8,"mosquito_risk":7,"arthritis_risk":5,"migraine_risk":4,"frizz_risk":1,"updated_at":"2026-05-29T04:53:55.595039+05:30"},{"city":"Kurnool","state":"Andhra Pradesh","latitude":15.8281,"longitude":78.0373,"temp":28.0,"humidity":73,"rain":0.0,"pressure":976.5,"uv_index":8.75,"wind_gusts":42.1,"aqi":59,"pm10":9.1,"pm2_5":8.3,"no2":9.1,"co":157.0,"o3":41.0,"so2":3.5,"mosquito_risk":7,"arthritis_risk":5,"migraine_risk":7,"frizz_risk":1,"updated_at":"2026-05-29T04:53:55.595045+05:30"},{"city":"Kakinada","state":"Andhra Pradesh","latitude":16.9891,"longitude":82.2475,"temp":29.5,"humidity":81,"rain":0.0,"pressure":1003.7,"uv_index":9.0,"wind_gusts":38.5,"aqi":91,"pm10":35.6,"pm2_5":29.9,"no2":5.3,"co":300.0,"o3":125.0,"so2":6.1,"mosquito_risk":7,"arthritis_risk":5,"migraine_risk":4,"frizz_risk":1,"updated_at":"2026-05-29T04:53:55.595051+05:30"},{"city":"Tirupati","state":"Andhra Pradesh","latitude":13.6288,"longitude":79.4192,"temp":28.3,"humidity":62,"rain":0.0,"pressure":988.9,"uv_index":9.0,"wind_gusts":32.0,"aqi":79,"pm10":22.5,"pm2_5":19.6,"no2":20.8,"co":188.0,"o3":40.0,"so2":4.5,"mosquito_risk":7,"arthritis_risk":5,"migraine_risk":7,"frizz_risk":1,"updated_at":"2026-05-29T04:53:55.595056+05:30"},{"city":"Warangal","state":"Telangana","latitude":17.9689,"longitude":79.5941,"temp":30.1,"humidity":56,"rain":0.0,"pressure":975.6,"uv_index":9.05,"wind_gusts":41.0,"aqi":73,"pm10":20.6,"pm2_5":17.1,"no2":14.4,"co":385.0,"o3":64.0,"so2":6.6,"mosquito_risk":0,"arthritis_risk":5,"migraine_risk":7,"frizz_risk":1,"updated_at":"2026-05-29T04:53:55.595061+05:30"},{"city":"Nizamabad","state":"Telangana","latitude":18.6725,"longitude":78.0941,"temp":29.2,"humidity":48,"rain":0.0,"pressure":962.7,"uv_index":9.0,"wind_gusts":37.8,"aqi":67,"pm10":20.3,"pm2_5":17.6,"no2":15.2,"co":284.0,"o3":57.0,"so2":6.5,"mosquito_risk":4,"arthritis_risk":5,"migraine_risk":7,"frizz_risk":1,"updated_at":"2026-05-29T04:53:55.595067+05:30"},{"city":"Mysore","state":"Karnataka","latitude":12.2958,"longitude":76.6396,"temp":21.3,"humidity":95,"rain":0.0,"pressure":928.9,"uv_index":6.55,"wind_gusts":40.0,"aqi":39,"pm10":8.1,"pm2_5":7.2,"no2":7.4,"co":157.0,"o3":42.0,"so2":1.9,"mosquito_risk":3,"arthritis_risk":5,"migraine_risk":7,"frizz_risk":1,"updated_at":"2026-05-29T04:53:55.595072+05:30"},{"city":"Mangalore","state":"Karnataka","latitude":12.9141,"longitude":74.856,"temp":25.6,"humidity":94,"rain":0.0,"pressure":1007.8,"uv_index":7.35,"wind_gusts":31.7,"aqi":41,"pm10":14.1,"pm2_5":12.3,"no2":10.7,"co":329.0,"o3":34.0,"so2":2.9,"mosquito_risk":7,"arthritis_risk":5,"migraine_risk":4,"frizz_risk":1,"updated_at":"2026-05-29T04:53:55.595077+05:30"},{"city":"Hubli-Dharwad","state":"Karnataka","latitude":15.3647,"longitude":75.124,"temp":23.2,"humidity":95,"rain":0.0,"pressure":941.3,"uv_index":6.6,"wind_gusts":42.1,"aqi":29,"pm10":7.6,"pm2_5":6.1,"no2":4.6,"co":122.0,"o3":39.0,"so2":1.4,"mosquito_risk":3,"arthritis_risk":5,"migraine_risk":7,"frizz_risk":1,"updated_at":"2026-05-29T04:53:55.595083+05:30"},{"city":"Belgaum","state":"Karnataka","latitude":15.8497,"longitude":74.4977,"temp":22.1,"humidity":96,"rain":0.0,"pressure":926.1,"uv_index":8.95,"wind_gusts":43.2,"aqi":24,"pm10":8.3,"pm2_5":6.5,"no2":4.9,"co":113.0,"o3":36.0,"so2":1.4,"mosquito_risk":3,"arthritis_risk":5,"migraine_risk":7,"frizz_risk":1,"updated_at":"2026-05-29T04:53:58.915721+05:30"},{"city":"Coimbatore","state":"Tamil Nadu","latitude":11.0168,"longitude":76.9558,"temp":24.8,"humidity":84,"rain":0.0,"pressure":962.4,"uv_index":8.85,"wind_gusts":52.2,"aqi":23,"pm10":5.6,"pm2_5":4.5,"no2":5.1,"co":133.0,"o3":43.0,"so2":2.6,"mosquito_risk":3,"arthritis_risk":5,"migraine_risk":7,"frizz_risk":1,"updated_at":"2026-05-29T04:53:58.915751+05:30"},{"city":"Madurai","state":"Tamil Nadu","latitude":9.9252,"longitude":78.1198,"temp":27.0,"humidity":72,"rain":0.0,"pressure":993.7,"uv_index":8.8,"wind_gusts":40.7,"aqi":75,"pm10":30.5,"pm2_5":30.0,"no2":40.8,"co":169.0,"o3":0.0,"so2":5.9,"mosquito_risk":7,"arthritis_risk":5,"migraine_risk":7,"frizz_risk":1,"updated_at":"2026-05-29T04:53:58.915760+05:30"},{"city":"Trichy","state":"Tamil Nadu","latitude":10.7905,"longitude":78.7047,"temp":28.1,"humidity":69,"rain":0.0,"pressure":999.4,"uv_index":8.8,"wind_gusts":38.9,"aqi":51,"pm10":7.1,"pm2_5":6.3,"no2":9.5,"co":129.0,"o3":34.0,"so2":3.8,"mosquito_risk":7,"arthritis_risk":5,"migraine_risk":7,"frizz_risk":1,"updated_at":"2026-05-29T04:53:58.915791+05:30"},{"city":"Salem","state":"Tamil Nadu","latitude":11.6643,"longitude":78.146,"temp":26.9,"humidity":74,"rain":0.0,"pressure":977.5,"uv_index":8.95,"wind_gusts":40.0,"aqi":62,"pm10":20.7,"pm2_5":18.5,"no2":25.8,"co":191.0,"o3":16.0,"so2":6.2,"mosquito_risk":7,"arthritis_risk":5,"migraine_risk":7,"frizz_risk":1,"updated_at":"2026-05-29T04:53:58.915799+05:30"},{"city":"Tirunelveli","state":"Tamil Nadu","latitude":8.7139,"longitude":77.7567,"temp":27.8,"humidity":74,"rain":0.0,"pressure":1004.0,"uv_index":7.95,"wind_gusts":36.0,"aqi":23,"pm10":3.7,"pm2_5":3.0,"no2":5.5,"co":172.0,"o3":32.0,"so2":2.0,"mosquito_risk":7,"arthritis_risk":5,"migraine_risk":4,"frizz_risk":1,"updated_at":"2026-05-29T04:53:58.915805+05:30"},{"city":"Vellore","state":"Tamil Nadu","latitude":12.9165,"longitude":79.1325,"temp":27.4,"humidity":69,"rain":0.0,"pressure":982.8,"uv_index":8.7,"wind_gusts":40.0,"aqi":78,"pm10":18.5,"pm2_5":16.6,"no2":15.9,"co":330.0,"o3":47.0,"so2":5.4,"mosquito_risk":7,"arthritis_risk":5,"migraine_risk":7,"frizz_risk":1,"updated_at":"2026-05-29T04:53:58.915811+05:30"},{"city":"Erode","state":"Tamil Nadu","latitude":11.341,"longitude":77.7172,"temp":26.6,"humidity":76,"rain":0.0,"pressure":989.3,"uv_index":8.8,"wind_gusts":49.7,"aqi":42,"pm10":10.8,"pm2_5":9.7,"no2":13.6,"co":167.0,"o3":28.0,"so2":4.0,"mosquito_risk":7,"arthritis_risk":5,"migraine_risk":7,"frizz_risk":1,"updated_at":"2026-05-29T04:53:58.915817+05:30"},{"city":"Kochi","state":"Kerala","latitude":9.9312,"longitude":76.2673,"temp":25.6,"humidity":96,"rain":0.0,"pressure":1010.5,"uv_index":8.05,"wind_gusts":40.3,"aqi":48,"pm10":9.5,"pm2_5":8.2,"no2":12.3,"co":214.0,"o3":23.0,"so2":3.6,"mosquito_risk":7,"arthritis_risk":0,"migraine_risk":4,"frizz_risk":1,"updated_at":"2026-05-29T04:53:58.915824+05:30"},{"city":"Thiruvananthapuram","state":"Kerala","latitude":8.5241,"longitude":76.9366,"temp":24.0,"humidity":99,"rain":0.4,"pressure":1010.2,"uv_index":7.15,"wind_gusts":48.6,"aqi":28,"pm10":9.2,"pm2_5":4.9,"no2":1.7,"co":172.0,"o3":41.0,"so2":0.6,"mosquito_risk":6,"arthritis_risk":0,"migraine_risk":4,"frizz_risk":1,"updated_at":"2026-05-29T04:53:58.915830+05:30"},{"city":"Kozhikode","state":"Kerala","latitude":11.2588,"longitude":75.7804,"temp":24.4,"humidity":99,"rain":0.1,"pressure":1009.9,"uv_index":7.7,"wind_gusts":40.7,"aqi":28,"pm10":6.7,"pm2_5":4.0,"no2":1.9,"co":387.0,"o3":60.0,"so2":1.2,"mosquito_risk":6,"arthritis_risk":0,"migraine_risk":4,"frizz_risk":1,"updated_at":"2026-05-29T04:53:58.915835+05:30"},{"city":"Thrissur","state":"Kerala","latitude":10.5276,"longitude":76.2144,"temp":23.0,"humidity":99,"rain":0.0,"pressure":1008.7,"uv_index":7.4,"wind_gusts":36.4,"aqi":47,"pm10":9.4,"pm2_5":8.0,"no2":11.9,"co":277.0,"o3":26.0,"so2":4.0,"mosquito_risk":3,"arthritis_risk":0,"migraine_risk":4,"frizz_risk":1,"updated_at":"2026-05-29T04:53:58.915844+05:30"},{"city":"Kannur","state":"Kerala","latitude":11.8745,"longitude":75.3704,"temp":25.6,"humidity":91,"rain":0.0,"pressure":1008.6,"uv_index":8.25,"wind_gusts":37.1,"aqi":32,"pm10":8.0,"pm2_5":6.5,"no2":5.7,"co":259.0,"o3":38.0,"so2":2.1,"mosquito_risk":7,"arthritis_risk":0,"migraine_risk":4,"frizz_risk":1,"updated_at":"2026-05-29T04:53:58.915850+05:30"},{"city":"Patna","state":"Bihar","latitude":25.5941,"longitude":85.1376,"temp":26.0,"humidity":80,"rain":0.0,"pressure":1000.0,"uv_index":8.75,"wind_gusts":43.6,"aqi":111,"pm10":37.4,"pm2_5":29.7,"no2":9.6,"co":280.0,"o3":97.0,"so2":9.2,"mosquito_risk":7,"arthritis_risk":5,"migraine_risk":4,"frizz_risk":1,"updated_at":"2026-05-29T04:53:58.915856+05:30"},{"city":"Gaya","state":"Bihar","latitude":24.7914,"longitude":85.0002,"temp":27.5,"humidity":76,"rain":0.0,"pressure":992.3,"uv_index":8.8,"wind_gusts":51.1,"aqi":133,"pm10":63.1,"pm2_5":52.9,"no2":12.0,"co":341.0,"o3":81.0,"so2":23.5,"mosquito_risk":7,"arthritis_risk":5,"migraine_risk":7,"frizz_risk":1,"updated_at":"2026-05-29T04:53:58.915861+05:30"},{"city":"Muzaffarpur","state":"Bihar","latitude":26.1209,"longitude":85.3647,"temp":25.1,"humidity":83,"rain":0.2,"pressure":1000.9,"uv_index":8.75,"wind_gusts":43.9,"aqi":102,"pm10":37.4,"pm2_5":28.5,"no2":7.8,"co":291.0,"o3":104.0,"so2":5.8,"mosquito_risk":10,"arthritis_risk":5,"migraine_risk":4,"frizz_risk":1,"updated_at":"2026-05-29T04:53:58.915866+05:30"},{"city":"Bhagalpur","state":"Bihar","latitude":25.2425,"longitude":87.0117,"temp":22.9,"humidity":97,"rain":0.1,"pressure":1002.4,"uv_index":8.7,"wind_gusts":40.3,"aqi":104,"pm10":51.1,"pm2_5":32.4,"no2":8.8,"co":241.0,"o3":109.0,"so2":7.2,"mosquito_risk":6,"arthritis_risk":5,"migraine_risk":4,"frizz_risk":1,"updated_at":"2026-05-29T04:53:58.915872+05:30"},{"city":"Ranchi","state":"Jharkhand","latitude":23.3441,"longitude":85.3096,"temp":23.3,"humidity":99,"rain":0.0,"pressure":935.5,"uv_index":9.25,"wind_gusts":35.3,"aqi":123,"pm10":33.1,"pm2_5":29.6,"no2":13.9,"co":375.0,"o3":65.0,"so2":15.1,"mosquito_risk":3,"arthritis_risk":5,"migraine_risk":7,"frizz_risk":1,"updated_at":"2026-05-29T04:53:58.915879+05:30"},{"city":"Jamshedpur","state":"Jharkhand","latitude":22.8046,"longitude":86.2029,"temp":26.0,"humidity":95,"rain":0.0,"pressure":989.3,"uv_index":9.05,"wind_gusts":35.6,"aqi":116,"pm10":35.7,"pm2_5":28.5,"no2":11.9,"co":298.0,"o3":67.0,"so2":14.3,"mosquito_risk":7,"arthritis_risk":5,"migraine_risk":7,"frizz_risk":1,"updated_at":"2026-05-29T04:53:58.915884+05:30"},{"city":"Dhanbad","state":"Jharkhand","latitude":23.7957,"longitude":86.4304,"temp":26.0,"humidity":87,"rain":0.0,"pressure":978.8,"uv_index":9.0,"wind_gusts":46.1,"aqi":153,"pm10":59.1,"pm2_5":52.2,"no2":37.0,"co":463.0,"o3":42.0,"so2":74.2,"mosquito_risk":7,"arthritis_risk":5,"migraine_risk":7,"frizz_risk":1,"updated_at":"2026-05-29T04:53:58.915890+05:30"},{"city":"Bokaro","state":"Jharkhand","latitude":23.6693,"longitude":86.1511,"temp":26.5,"humidity":85,"rain":0.0,"pressure":982.6,"uv_index":9.05,"wind_gusts":45.0,"aqi":156,"pm10":54.0,"pm2_5":48.3,"no2":44.3,"co":605.0,"o3":34.0,"so2":97.5,"mosquito_risk":7,"arthritis_risk":5,"migraine_risk":7,"frizz_risk":1,"updated_at":"2026-05-29T04:53:58.915896+05:30"},{"city":"Bhubaneswar","state":"Odisha","latitude":20.2961,"longitude":85.8245,"temp":28.1,"humidity":94,"rain":0.0,"pressure":999.6,"uv_index":9.05,"wind_gusts":45.7,"aqi":99,"pm10":38.1,"pm2_5":31.8,"no2":5.6,"co":274.0,"o3":106.0,"so2":4.6,"mosquito_risk":7,"arthritis_risk":5,"migraine_risk":7,"frizz_risk":1,"updated_at":"2026-05-29T04:53:58.915901+05:30"},{"city":"Cuttack","state":"Odisha","latitude":20.4625,"longitude":85.8828,"temp":28.0,"humidity":95,"rain":0.0,"pressure":1001.6,"uv_index":9.1,"wind_gusts":42.5,"aqi":99,"pm10":38.1,"pm2_5":31.8,"no2":5.6,"co":284.0,"o3":106.0,"so2":4.6,"mosquito_risk":7,"arthritis_risk":5,"migraine_risk":4,"frizz_risk":1,"updated_at":"2026-05-29T04:53:58.915906+05:30"},{"city":"Rourkela","state":"Odisha","latitude":22.2604,"longitude":84.8536,"temp":27.0,"humidity":85,"rain":0.0,"pressure":982.3,"uv_index":8.95,"wind_gusts":44.3,"aqi":127,"pm10":52.0,"pm2_5":46.0,"no2":30.6,"co":476.0,"o3":43.0,"so2":26.9,"mosquito_risk":7,"arthritis_risk":5,"migraine_risk":7,"frizz_risk":1,"updated_at":"2026-05-29T04:53:58.915912+05:30"},{"city":"Raipur","state":"Chhattisgarh","latitude":21.2514,"longitude":81.6296,"temp":32.5,"humidity":37,"rain":0.0,"pressure":970.4,"uv_index":8.9,"wind_gusts":50.0,"aqi":97,"pm10":32.4,"pm2_5":26.3,"no2":21.9,"co":479.0,"o3":78.0,"so2":38.8,"mosquito_risk":0,"arthritis_risk":5,"migraine_risk":7,"frizz_risk":0,"updated_at":"2026-05-29T04:53:58.915918+05:30"},{"city":"Bhilai","state":"Chhattisgarh","latitude":21.1938,"longitude":81.3509,"temp":31.5,"humidity":41,"rain":0.0,"pressure":970.9,"uv_index":8.9,"wind_gusts":54.7,"aqi":89,"pm10":28.1,"pm2_5":23.2,"no2":18.2,"co":542.0,"o3":79.0,"so2":32.3,"mosquito_risk":0,"arthritis_risk":5,"migraine_risk":7,"frizz_risk":1,"updated_at":"2026-05-29T04:53:58.915924+05:30"},{"city":"Guwahati","state":"Assam","latitude":26.1158,"longitude":91.7086,"temp":21.8,"humidity":94,"rain":0.0,"pressure":1002.3,"uv_index":8.7,"wind_gusts":24.5,"aqi":98,"pm10":88.5,"pm2_5":72.4,"no2":22.9,"co":404.0,"o3":15.0,"so2":1.6,"mosquito_risk":3,"arthritis_risk":5,"migraine_risk":4,"frizz_risk":1,"updated_at":"2026-05-29T04:53:58.915929+05:30"},{"city":"Agartala","state":"Tripura","latitude":23.8315,"longitude":91.2868,"temp":22.1,"humidity":99,"rain":0.3,"pressure":1007.8,"uv_index":8.65,"wind_gusts":37.1,"aqi":96,"pm10":52.0,"pm2_5":42.1,"no2":16.0,"co":288.0,"o3":57.0,"so2":3.3,"mosquito_risk":6,"arthritis_risk":5,"migraine_risk":4,"frizz_risk":1,"updated_at":"2026-05-29T04:53:58.915935+05:30"},{"city":"Shillong","state":"Meghalaya","latitude":25.5788,"longitude":91.8933,"temp":16.5,"humidity":80,"rain":0.0,"pressure":856.7,"uv_index":9.1,"wind_gusts":21.2,"aqi":72,"pm10":41.4,"pm2_5":25.1,"no2":10.0,"co":228.0,"o3":29.0,"so2":1.7,"mosquito_risk":3,"arthritis_risk":5,"migraine_risk":7,"frizz_risk":0,"updated_at":"2026-05-29T04:53:58.915940+05:30"},{"city":"Imphal","state":"Manipur","latitude":24.817,"longitude":93.9368,"temp":20.5,"humidity":81,"rain":0.0,"pressure":923.3,"uv_index":9.25,"wind_gusts":17.6,"aqi":116,"pm10":104.5,"pm2_5":74.3,"no2":28.9,"co":430.0,"o3":19.0,"so2":5.0,"mosquito_risk":3,"arthritis_risk":5,"migraine_risk":7,"frizz_risk":1,"updated_at":"2026-05-29T04:53:58.915945+05:30"},{"city":"Aizawl","state":"Mizoram","latitude":23.7271,"longitude":92.7176,"temp":15.4,"humidity":100,"rain":0.0,"pressure":890.5,"uv_index":9.05,"wind_gusts":35.6,"aqi":71,"pm10":44.2,"pm2_5":31.7,"no2":20.6,"co":304.0,"o3":15.0,"so2":1.4,"mosquito_risk":3,"arthritis_risk":10,"migraine_risk":7,"frizz_risk":0,"updated_at":"2026-05-29T04:53:58.915950+05:30"},{"city":"Kohima","state":"Nagaland","latitude":25.6701,"longitude":94.1077,"temp":16.8,"humidity":86,"rain":0.0,"pressure":855.1,"uv_index":8.65,"wind_gusts":27.4,"aqi":91,"pm10":67.3,"pm2_5":48.7,"no2":14.0,"co":246.0,"o3":25.0,"so2":0.8,"mosquito_risk":3,"arthritis_risk":10,"migraine_risk":7,"frizz_risk":0,"updated_at":"2026-05-29T04:53:58.915955+05:30"},{"city":"Gangtok","state":"Sikkim","latitude":27.3314,"longitude":88.6138,"temp":13.9,"humidity":87,"rain":0.0,"pressure":837.6,"uv_index":9.1,"wind_gusts":35.6,"aqi":62,"pm10":19.7,"pm2_5":15.5,"no2":11.8,"co":555.0,"o3":47.0,"so2":0.7,"mosquito_risk":3,"arthritis_risk":10,"migraine_risk":7,"frizz_risk":0,"updated_at":"2026-05-29T04:53:58.915960+05:30"},{"city":"Siliguri","state":"West Bengal","latitude":26.7271,"longitude":88.3953,"temp":24.2,"humidity":76,"rain":0.0,"pressure":994.2,"uv_index":8.7,"wind_gusts":24.8,"aqi":121,"pm10":90.8,"pm2_5":67.1,"no2":26.4,"co":500.0,"o3":63.0,"so2":5.9,"mosquito_risk":3,"arthritis_risk":5,"migraine_risk":7,"frizz_risk":1,"updated_at":"2026-05-29T04:54:02.262149+05:30"},{"city":"Durgapur","state":"West Bengal","latitude":23.5204,"longitude":87.3119,"temp":24.7,"humidity":92,"rain":0.0,"pressure":994.3,"uv_index":8.95,"wind_gusts":38.2,"aqi":152,"pm10":56.9,"pm2_5":47.0,"no2":25.6,"co":455.0,"o3":64.0,"so2":28.6,"mosquito_risk":3,"arthritis_risk":5,"migraine_risk":7,"frizz_risk":1,"updated_at":"2026-05-29T04:54:02.262181+05:30"},{"city":"Asansol","state":"West Bengal","latitude":23.6739,"longitude":86.9524,"temp":25.1,"humidity":88,"rain":0.0,"pressure":992.7,"uv_index":8.95,"wind_gusts":41.4,"aqi":148,"pm10":60.1,"pm2_5":51.9,"no2":28.4,"co":535.0,"o3":52.0,"so2":33.4,"mosquito_risk":7,"arthritis_risk":5,"migraine_risk":7,"frizz_risk":1,"updated_at":"2026-05-29T04:54:02.262191+05:30"},{"city":"Pondicherry","state":"Puducherry","latitude":11.9139,"longitude":79.8145,"temp":28.5,"humidity":69,"rain":0.0,"pressure":1006.5,"uv_index":8.9,"wind_gusts":43.2,"aqi":70,"pm10":20.7,"pm2_5":18.0,"no2":19.7,"co":317.0,"o3":38.0,"so2":7.3,"mosquito_risk":7,"arthritis_risk":5,"migraine_risk":4,"frizz_risk":1,"updated_at":"2026-05-29T04:54:02.262198+05:30"},{"city":"Port Blair","state":"Andaman and Nicobar Islands","latitude":11.6234,"longitude":92.7265,"temp":24.9,"humidity":97,"rain":0.2,"pressure":1007.0,"uv_index":8.85,"wind_gusts":41.4,"aqi":40,"pm10":17.3,"pm2_5":8.1,"no2":0.3,"co":130.0,"o3":89.0,"so2":0.6,"mosquito_risk":6,"arthritis_risk":5,"migraine_risk":4,"frizz_risk":1,"updated_at":"2026-05-29T04:54:02.262205+05:30"},{"city":"Haridwar","state":"Uttarakhand","latitude":29.9457,"longitude":78.1642,"temp":22.7,"humidity":77,"rain":0.0,"pressure":971.8,"uv_index":7.5,"wind_gusts":43.2,"aqi":97,"pm10":51.0,"pm2_5":32.5,"no2":10.5,"co":371.0,"o3":103.0,"so2":4.2,"mosquito_risk":3,"arthritis_risk":5,"migraine_risk":7,"frizz_risk":1,"updated_at":"2026-05-29T04:54:02.262211+05:30"},{"city":"Rishikesh","state":"Uttarakhand","latitude":30.0869,"longitude":78.2676,"temp":20.4,"humidity":82,"rain":0.0,"pressure":964.2,"uv_index":7.6,"wind_gusts":35.6,"aqi":110,"pm10":60.5,"pm2_5":36.9,"no2":7.1,"co":495.0,"o3":138.0,"so2":4.0,"mosquito_risk":3,"arthritis_risk":5,"migraine_risk":7,"frizz_risk":1,"updated_at":"2026-05-29T04:54:02.262218+05:30"},{"city":"Nainital","state":"Uttarakhand","latitude":29.3919,"longitude":79.4542,"temp":10.9,"humidity":100,"rain":0.0,"pressure":801.9,"uv_index":7.75,"wind_gusts":29.5,"aqi":83,"pm10":45.8,"pm2_5":23.1,"no2":8.5,"co":363.0,"o3":114.0,"so2":3.4,"mosquito_risk":3,"arthritis_risk":10,"migraine_risk":7,"frizz_risk":0,"updated_at":"2026-05-29T04:54:02.262225+05:30"},{"city":"Mussoorie","state":"Uttarakhand","latitude":30.4599,"longitude":78.0664,"temp":12.9,"humidity":78,"rain":0.0,"pressure":799.2,"uv_index":8.0,"wind_gusts":32.8,"aqi":107,"pm10":44.0,"pm2_5":31.9,"no2":13.0,"co":239.0,"o3":93.0,"so2":4.0,"mosquito_risk":3,"arthritis_risk":5,"migraine_risk":7,"frizz_risk":0,"updated_at":"2026-05-29T04:54:02.262232+05:30"},{"city":"Dharamshala","state":"Himachal Pradesh","latitude":32.219,"longitude":76.3234,"temp":20.6,"humidity":42,"rain":0.0,"pressure":866.6,"uv_index":8.4,"wind_gusts":29.9,"aqi":40,"pm10":13.2,"pm2_5":6.1,"no2":8.0,"co":195.0,"o3":85.0,"so2":0.0,"mosquito_risk":0,"arthritis_risk":5,"migraine_risk":7,"frizz_risk":0,"updated_at":"2026-05-29T04:54:02.262237+05:30"},{"city":"Dalhousie","state":"Himachal Pradesh","latitude":32.5387,"longitude":75.971,"temp":13.5,"humidity":45,"rain":0.0,"pressure":800.5,"uv_index":8.65,"wind_gusts":29.5,"aqi":60,"pm10":23.9,"pm2_5":14.6,"no2":15.4,"co":241.0,"o3":56.0,"so2":0.7,"mosquito_risk":0,"arthritis_risk":5,"migraine_risk":7,"frizz_risk":0,"updated_at":"2026-05-29T04:54:02.262244+05:30"},{"city":"Patiala","state":"Punjab","latitude":30.3398,"longitude":76.3869,"temp":26.8,"humidity":63,"rain":0.0,"pressure":974.4,"uv_index":7.6,"wind_gusts":56.9,"aqi":1002,"pm10":2421.4,"pm2_5":315.7,"no2":4.8,"co":371.0,"o3":135.0,"so2":12.8,"mosquito_risk":7,"arthritis_risk":5,"migraine_risk":7,"frizz_risk":1,"updated_at":"2026-05-29T04:54:02.262250+05:30"},{"city":"Bhatinda","state":"Punjab","latitude":30.211,"longitude":74.9455,"temp":28.5,"humidity":53,"rain":0.0,"pressure":978.4,"uv_index":8.25,"wind_gusts":53.3,"aqi":199,"pm10":605.4,"pm2_5":169.0,"no2":8.3,"co":351.0,"o3":111.0,"so2":10.8,"mosquito_risk":4,"arthritis_risk":5,"migraine_risk":7,"frizz_risk":1,"updated_at":"2026-05-29T04:54:02.262256+05:30"},{"city":"Rohtak","state":"Haryana","latitude":28.8955,"longitude":76.6066,"temp":26.8,"humidity":68,"rain":0.0,"pressure":977.2,"uv_index":7.7,"wind_gusts":46.8,"aqi":782,"pm10":1438.0,"pm2_5":219.8,"no2":19.6,"co":366.0,"o3":84.0,"so2":23.8,"mosquito_risk":7,"arthritis_risk":5,"migraine_risk":7,"frizz_risk":1,"updated_at":"2026-05-29T04:54:02.262261+05:30"},{"city":"Panipat","state":"Haryana","latitude":29.3909,"longitude":76.9635,"temp":26.9,"humidity":68,"rain":0.0,"pressure":977.3,"uv_index":7.55,"wind_gusts":62.3,"aqi":1622,"pm10":1646.6,"pm2_5":420.0,"no2":12.9,"co":396.0,"o3":97.0,"so2":17.5,"mosquito_risk":7,"arthritis_risk":5,"migraine_risk":7,"frizz_risk":1,"updated_at":"2026-05-29T04:54:02.262267+05:30"},{"city":"Mathura","state":"Uttar Pradesh","latitude":27.4924,"longitude":77.6737,"temp":26.0,"humidity":86,"rain":0.3,"pressure":984.2,"uv_index":8.0,"wind_gusts":71.3,"aqi":419,"pm10":413.5,"pm2_5":99.2,"no2":14.3,"co":208.0,"o3":72.0,"so2":10.7,"mosquito_risk":10,"arthritis_risk":5,"migraine_risk":7,"frizz_risk":1,"updated_at":"2026-05-29T04:54:02.262273+05:30"},{"city":"Vrindavan","state":"Uttar Pradesh","latitude":27.5823,"longitude":77.7027,"temp":26.0,"humidity":82,"rain":0.1,"pressure":984.6,"uv_index":7.95,"wind_gusts":72.7,"aqi":419,"pm10":413.5,"pm2_5":99.2,"no2":14.3,"co":219.0,"o3":72.0,"so2":10.7,"mosquito_risk":10,"arthritis_risk":5,"migraine_risk":7,"frizz_risk":1,"updated_at":"2026-05-29T04:54:02.262278+05:30"},{"city":"Ayodhya","state":"Uttar Pradesh","latitude":26.7922,"longitude":82.1998,"temp":27.0,"humidity":70,"rain":0.0,"pressure":994.1,"uv_index":8.3,"wind_gusts":45.7,"aqi":95,"pm10":38.4,"pm2_5":30.6,"no2":7.0,"co":391.0,"o3":110.0,"so2":8.6,"mosquito_risk":7,"arthritis_risk":5,"migraine_risk":7,"frizz_risk":1,"updated_at":"2026-05-29T04:54:02.262284+05:30"},{"city":"Ratlam","state":"Madhya Pradesh","latitude":23.3315,"longitude":75.0367,"temp":26.2,"humidity":81,"rain":0.0,"pressure":952.4,"uv_index":8.5,"wind_gusts":55.1,"aqi":68,"pm10":37.7,"pm2_5":23.4,"no2":7.9,"co":139.0,"o3":42.0,"so2":12.6,"mosquito_risk":7,"arthritis_risk":5,"migraine_risk":7,"frizz_risk":1,"updated_at":"2026-05-29T04:54:02.262290+05:30"},{"city":"Sagar","state":"Madhya Pradesh","latitude":23.8388,"longitude":78.7378,"temp":31.5,"humidity":37,"rain":0.0,"pressure":946.5,"uv_index":8.7,"wind_gusts":76.7,"aqi":66,"pm10":29.2,"pm2_5":17.2,"no2":8.6,"co":191.0,"o3":71.0,"so2":5.1,"mosquito_risk":0,"arthritis_risk":5,"migraine_risk":7,"frizz_risk":0,"updated_at":"2026-05-29T04:54:02.262295+05:30"},{"city":"Satna","state":"Madhya Pradesh","latitude":24.6005,"longitude":80.8322,"temp":30.0,"humidity":54,"rain":0.0,"pressure":967.2,"uv_index":8.4,"wind_gusts":67.3,"aqi":99,"pm10":28.4,"pm2_5":19.2,"no2":12.0,"co":423.0,"o3":100.0,"so2":14.0,"mosquito_risk":4,"arthritis_risk":5,"migraine_risk":7,"frizz_risk":1,"updated_at":"2026-05-29T04:54:02.262301+05:30"},{"city":"Akola","state":"Maharashtra","latitude":20.7002,"longitude":77.0082,"temp":30.0,"humidity":46,"rain":0.0,"pressure":973.2,"uv_index":8.8,"wind_gusts":48.6,"aqi":61,"pm10":30.3,"pm2_5":17.3,"no2":7.9,"co":153.0,"o3":66.0,"so2":9.1,"mosquito_risk":4,"arthritis_risk":5,"migraine_risk":7,"frizz_risk":1,"updated_at":"2026-05-29T04:54:02.262308+05:30"},{"city":"Amravati","state":"Maharashtra","latitude":20.9374,"longitude":77.7796,"temp":31.5,"humidity":35,"rain":0.0,"pressure":964.9,"uv_index":8.8,"wind_gusts":50.0,"aqi":63,"pm10":28.0,"pm2_5":17.1,"no2":7.5,"co":163.0,"o3":77.0,"so2":10.2,"mosquito_risk":0,"arthritis_risk":5,"migraine_risk":7,"frizz_risk":0,"updated_at":"2026-05-29T04:54:02.262315+05:30"},{"city":"Latur","state":"Maharashtra","latitude":18.4088,"longitude":76.5604,"temp":26.4,"humidity":67,"rain":0.0,"pressure":939.2,"uv_index":9.0,"wind_gusts":40.0,"aqi":55,"pm10":15.8,"pm2_5":13.5,"no2":8.1,"co":190.0,"o3":71.0,"so2":9.9,"mosquito_risk":7,"arthritis_risk":5,"migraine_risk":7,"frizz_risk":1,"updated_at":"2026-05-29T04:54:02.262321+05:30"},{"city":"Nanded","state":"Maharashtra","latitude":19.1383,"longitude":77.3091,"temp":31.0,"humidity":49,"rain":0.0,"pressure":967.0,"uv_index":8.9,"wind_gusts":40.3,"aqi":60,"pm10":19.3,"pm2_5":15.7,"no2":11.2,"co":183.0,"o3":62.0,"so2":6.3,"mosquito_risk":0,"arthritis_risk":5,"migraine_risk":7,"frizz_risk":1,"updated_at":"2026-05-29T04:54:02.262328+05:30"},{"city":"Gulbarga","state":"Karnataka","latitude":17.3297,"longitude":76.8343,"temp":27.1,"humidity":61,"rain":0.0,"pressure":958.3,"uv_index":9.0,"wind_gusts":40.7,"aqi":43,"pm10":5.9,"pm2_5":5.0,"no2":7.9,"co":142.0,"o3":45.0,"so2":3.1,"mosquito_risk":7,"arthritis_risk":5,"migraine_risk":7,"frizz_risk":1,"updated_at":"2026-05-29T04:54:02.262334+05:30"},{"city":"Bidar","state":"Karnataka","latitude":17.9104,"longitude":77.5199,"temp":27.5,"humidity":61,"rain":0.0,"pressure":934.8,"uv_index":9.0,"wind_gusts":40.7,"aqi":60,"pm10":13.5,"pm2_5":12.0,"no2":12.0,"co":215.0,"o3":64.0,"so2":5.7,"mosquito_risk":7,"arthritis_risk":5,"migraine_risk":7,"frizz_risk":1,"updated_at":"2026-05-29T04:54:02.262340+05:30"},{"city":"Hospet","state":"Karnataka","latitude":15.2689,"longitude":76.3909,"temp":24.7,"humidity":87,"rain":0.0,"pressure":956.4,"uv_index":8.15,"wind_gusts":41.4,"aqi":43,"pm10":7.5,"pm2_5":6.3,"no2":5.0,"co":139.0,"o3":41.0,"so2":1.5,"mosquito_risk":3,"arthritis_risk":5,"migraine_risk":7,"frizz_risk":1,"updated_at":"2026-05-29T04:54:02.262346+05:30"},{"city":"Tirupur","state":"Tamil Nadu","latitude":11.1085,"longitude":77.3411,"temp":25.2,"humidity":85,"rain":0.0,"pressure":975.6,"uv_index":9.0,"wind_gusts":58.0,"aqi":43,"pm10":11.6,"pm2_5":10.3,"no2":14.1,"co":131.0,"o3":27.0,"so2":4.1,"mosquito_risk":7,"arthritis_risk":5,"migraine_risk":7,"frizz_risk":1,"updated_at":"2026-05-29T04:54:02.262352+05:30"},{"city":"Alappuzha","state":"Kerala","latitude":9.4981,"longitude":76.3388,"temp":25.5,"humidity":98,"rain":0.0,"pressure":1010.5,"uv_index":7.75,"wind_gusts":46.1,"aqi":38,"pm10":6.3,"pm2_5":4.4,"no2":6.6,"co":160.0,"o3":41.0,"so2":1.5,"mosquito_risk":7,"arthritis_risk":0,"migraine_risk":4,"frizz_risk":1,"updated_at":"2026-05-29T04:54:02.262357+05:30"},{"city":"Munnar","state":"Kerala","latitude":10.0889,"longitude":77.0595,"temp":16.9,"humidity":98,"rain":0.1,"pressure":858.0,"uv_index":8.4,"wind_gusts":29.5,"aqi":27,"pm10":6.1,"pm2_5":5.6,"no2":7.4,"co":122.0,"o3":24.0,"so2":1.5,"mosquito_risk":6,"arthritis_risk":10,"migraine_risk":7,"frizz_risk":1,"updated_at":"2026-05-29T04:54:02.262364+05:30"},{"city":"Silchar","state":"Assam","latitude":24.8333,"longitude":92.7789,"temp":22.5,"humidity":98,"rain":0.0,"pressure":1004.9,"uv_index":8.9,"wind_gusts":17.6,"aqi":135,"pm10":105.0,"pm2_5":75.2,"no2":27.7,"co":752.0,"o3":23.0,"so2":4.8,"mosquito_risk":3,"arthritis_risk":5,"migraine_risk":4,"frizz_risk":1,"updated_at":"2026-05-29T04:54:02.262369+05:30"},{"city":"Dibrugarh","state":"Assam","latitude":27.4728,"longitude":94.912,"temp":23.1,"humidity":94,"rain":0.0,"pressure":996.7,"uv_index":8.85,"wind_gusts":13.7,"aqi":112,"pm10":99.2,"pm2_5":65.7,"no2":33.5,"co":619.0,"o3":31.0,"so2":4.4,"mosquito_risk":3,"arthritis_risk":5,"migraine_risk":7,"frizz_risk":1,"updated_at":"2026-05-29T04:54:02.262375+05:30"}]