[{"city":"Delhi","state":"Delhi","latitude":28.6139,"longitude":77.209,"temp":33.5,"humidity":30,"rain":0.0,"pressure":989.0,"uv_index":6.15,"wind_gusts":23.8,"aqi":177,"pm10":228.2,"pm2_5":62.2,"mosquito_risk":0,"arthritis_risk":5,"migraine_risk":7,"frizz_risk":0,"updated_at":"2026-03-11T12:28:48.543538+05:30"},{"city":"Mumbai","state":"Maharashtra","latitude":19.076,"longitude":72.8777,"temp":28.1,"humidity":81,"rain":0.0,"pressure":1012.9,"uv_index":7.6,"wind_gusts":19.4,"aqi":153,"pm10":85.4,"pm2_5":78.5,"mosquito_risk":7,"arthritis_risk":0,"migraine_risk":4,"frizz_risk":1,"updated_at":"2026-03-11T12:28:48.543589+05:30"},{"city":"Bangalore","state":"Karnataka","latitude":12.9716,"longitude":77.5946,"temp":29.3,"humidity":31,"rain":0.0,"pressure":916.3,"uv_index":9.25,"wind_gusts":27.7,"aqi":68,"pm10":14.6,"pm2_5":12.5,"mosquito_risk":4,"arthritis_risk":5,"migraine_risk":7,"frizz_risk":0,"updated_at":"2026-03-11T12:28:48.543605+05:30"},{"city":"Hyderabad","state":"Telangana","latitude":17.385,"longitude":78.4867,"temp":33.8,"humidity":17,"rain":0.0,"pressure":959.1,"uv_index":8.6,"wind_gusts":22.0,"aqi":97,"pm10":21.5,"pm2_5":15.3,"mosquito_risk":0,"arthritis_risk":5,"migraine_risk":7,"frizz_risk":0,"updated_at":"2026-03-11T12:28:48.543615+05:30"},{"city":"Chennai","state":"Tamil Nadu","latitude":13.0827,"longitude":80.2707,"temp":32.4,"humidity":49,"rain":0.0,"pressure":1012.2,"uv_index":9.0,"wind_gusts":30.6,"aqi":67,"pm10":21.4,"pm2_5":17.3,"mosquito_risk":0,"arthritis_risk":0,"migraine_risk":4,"frizz_risk":1,"updated_at":"2026-03-11T12:28:48.543624+05:30"},{"city":"Kolkata","state":"West Bengal","latitude":22.5726,"longitude":88.3639,"temp":30.1,"humidity":60,"rain":0.0,"pressure":1010.1,"uv_index":6.85,"wind_gusts":21.6,"aqi":144,"pm10":69.4,"pm2_5":57.2,"mosquito_risk":0,"arthritis_risk":0,"migraine_risk":4,"frizz_risk":1,"updated_at":"2026-03-11T12:28:48.543633+05:30"},{"city":"Pune","state":"Maharashtra","latitude":18.5204,"longitude":73.8567,"temp":36.7,"humidity":23,"rain":0.0,"pressure":953.6,"uv_index":8.15,"wind_gusts":30.2,"aqi":120,"pm10":44.5,"pm2_5":36.0,"mosquito_risk":0,"arthritis_risk":5,"migraine_risk":10,"frizz_risk":0,"updated_at":"2026-03-11T12:28:48.543646+05:30"},{"city":"Ahmedabad","state":"Gujarat","latitude":23.0225,"longitude":72.5714,"temp":38.3,"humidity":18,"rain":0.0,"pressure":1007.9,"uv_index":7.4,"wind_gusts":26.3,"aqi":69,"pm10":25.8,"pm2_5":21.8,"mosquito_risk":0,"arthritis_risk":5,"migraine_risk":7,"frizz_risk":0,"updated_at":"2026-03-11T12:28:48.543655+05:30"},{"city":"Jaipur","state":"Rajasthan","latitude":26.9124,"longitude":75.7873,"temp":36.4,"humidity":12,"rain":0.0,"pressure":966.3,"uv_index":6.8,"wind_gusts":38.5,"aqi":98,"pm10":225.4,"pm2_5":39.1,"mosquito_risk":0,"arthritis_risk":5,"migraine_risk":10,"frizz_risk":0,"updated_at":"2026-03-11T12:28:48.543663+05:30"},{"city":"Lucknow","state":"Uttar Pradesh","latitude":26.8467,"longitude":80.9462,"temp":32.2,"humidity":46,"rain":0.0,"pressure":999.0,"uv_index":6.6,"wind_gusts":31.0,"aqi":193,"pm10":151.8,"pm2_5":79.4,"mosquito_risk":0,"arthritis_risk":5,"migraine_risk":7,"frizz_risk":1,"updated_at":"2026-03-11T12:28:48.543671+05:30"},{"city":"Kanpur","state":"Uttar Pradesh","latitude":26.4499,"longitude":80.3319,"temp":32.3,"humidity":48,"rain":0.0,"pressure":997.6,"uv_index":6.65,"wind_gusts":24.1,"aqi":178,"pm10":213.3,"pm2_5":73.8,"mosquito_risk":0,"arthritis_risk":5,"migraine_risk":7,"frizz_risk":1,"updated_at":"2026-03-11T12:28:48.543678+05:30"},{"city":"Chandigarh","state":"Chandigarh","latitude":30.7333,"longitude":76.7794,"temp":30.9,"humidity":46,"rain":0.0,"pressure":975.1,"uv_index":5.35,"wind_gusts":24.5,"aqi":153,"pm10":51.6,"pm2_5":34.0,"mosquito_risk":0,"arthritis_risk":5,"migraine_risk":3,"frizz_risk":1,"updated_at":"2026-03-11T12:28:48.543685+05:30"},{"city":"Srinagar","state":"Jammu and Kashmir","latitude":34.0837,"longitude":74.7973,"temp":9.5,"humidity":95,"rain":1.1,"pressure":847.7,"uv_index":4.1,"wind_gusts":28.1,"aqi":127,"pm10":41.8,"pm2_5":28.6,"mosquito_risk":6,"arthritis_risk":10,"migraine_risk":3,"frizz_risk":0,"updated_at":"2026-03-11T12:28:48.543693+05:30"},{"city":"Jammu","state":"Jammu and Kashmir","latitude":32.7266,"longitude":74.857,"temp":26.5,"humidity":55,"rain":0.0,"pressure":979.6,"uv_index":5.6,"wind_gusts":43.6,"aqi":115,"pm10":44.0,"pm2_5":27.3,"mosquito_risk":4,"arthritis_risk":5,"migraine_risk":3,"frizz_risk":1,"updated_at":"2026-03-11T12:28:48.543701+05:30"},{"city":"Amritsar","state":"Punjab","latitude":31.634,"longitude":74.8723,"temp":28.4,"humidity":63,"rain":0.0,"pressure":987.0,"uv_index":6.45,"wind_gusts":28.1,"aqi":158,"pm10":102.7,"pm2_5":61.7,"mosquito_risk":7,"arthritis_risk":5,"migraine_risk":7,"frizz_risk":1,"updated_at":"2026-03-11T12:28:48.543708+05:30"},{"city":"Ludhiana","state":"Punjab","latitude":30.901,"longitude":75.8573,"temp":30.8,"humidity":47,"rain":0.0,"pressure":985.3,"uv_index":6.3,"wind_gusts":15.5,"aqi":177,"pm10":119.7,"pm2_5":85.0,"mosquito_risk":0,"arthritis_risk":5,"migraine_risk":7,"frizz_risk":1,"updated_at":"2026-03-11T12:28:48.543715+05:30"},{"city":"Jalandhar","state":"Punjab","latitude":31.326,"longitude":75.5762,"temp":30.5,"humidity":49,"rain":0.0,"pressure":986.2,"uv_index":6.5,"wind_gusts":18.4,"aqi":169,"pm10":119.2,"pm2_5":70.5,"mosquito_risk":0,"arthritis_risk":5,"migraine_risk":7,"frizz_risk":1,"updated_at":"2026-03-11T12:28:48.543724+05:30"},{"city":"Dehradun","state":"Uttarakhand","latitude":30.6284,"longitude":78.0322,"temp":23.0,"humidity":45,"rain":0.0,"pressure":837.3,"uv_index":5.9,"wind_gusts":28.8,"aqi":85,"pm10":25.6,"pm2_5":14.5,"mosquito_risk":0,"arthritis_risk":5,"migraine_risk":3,"frizz_risk":0,"updated_at":"2026-03-11T12:28:48.543731+05:30"},{"city":"Shimla","state":"Himachal Pradesh","latitude":31.1048,"longitude":77.1734,"temp":20.8,"humidity":43,"rain":0.0,"pressure":792.5,"uv_index":5.85,"wind_gusts":45.0,"aqi":113,"pm10":24.5,"pm2_5":15.0,"mosquito_risk":0,"arthritis_risk":5,"migraine_risk":3,"frizz_risk":0,"updated_at":"2026-03-11T12:28:48.543738+05:30"},{"city":"Manali","state":"Himachal Pradesh","latitude":32.2396,"longitude":77.1887,"temp":20.9,"humidity":26,"rain":0.0,"pressure":827.6,"uv_index":6.7,"wind_gusts":42.5,"aqi":55,"pm10":24.8,"pm2_5":9.2,"mosquito_risk":0,"arthritis_risk":5,"migraine_risk":7,"frizz_risk":0,"updated_at":"2026-03-11T12:28:48.543746+05:30"},{"city":"Gurgaon","state":"Haryana","latitude":28.4595,"longitude":77.0266,"temp":33.3,"humidity":36,"rain":0.0,"pressure":987.5,"uv_index":6.15,"wind_gusts":23.4,"aqi":321,"pm10":705.9,"pm2_5":93.1,"mosquito_risk":0,"arthritis_risk":5,"migraine_risk":7,"frizz_risk":1,"updated_at":"2026-03-11T12:28:48.543752+05:30"},{"city":"Noida","state":"Uttar Pradesh","latitude":28.5355,"longitude":77.391,"temp":34.1,"humidity":30,"rain":0.0,"pressure":990.5,"uv_index":6.15,"wind_gusts":23.8,"aqi":321,"pm10":705.9,"pm2_5":93.1,"mosquito_risk":0,"arthritis_risk":5,"migraine_risk":7,"frizz_risk":0,"updated_at":"2026-03-11T12:28:48.543759+05:30"},{"city":"Ghaziabad","state":"Uttar Pradesh","latitude":28.6692,"longitude":77.4538,"temp":32.7,"humidity":39,"rain":0.0,"pressure":988.7,"uv_index":6.1,"wind_gusts":23.0,"aqi":172,"pm10":183.9,"pm2_5":70.1,"mosquito_risk":0,"arthritis_risk":5,"migraine_risk":7,"frizz_risk":1,"updated_at":"2026-03-11T12:28:48.543766+05:30"},{"city":"Faridabad","state":"Haryana","latitude":28.4089,"longitude":77.3178,"temp":33.5,"humidity":35,"rain":0.0,"pressure":989.8,"uv_index":6.15,"wind_gusts":22.0,"aqi":321,"pm10":705.9,"pm2_5":93.1,"mosquito_risk":0,"arthritis_risk":5,"migraine_risk":7,"frizz_risk":0,"updated_at":"2026-03-11T12:28:48.543773+05:30"},{"city":"Meerut","state":"Uttar Pradesh","latitude":28.9845,"longitude":77.7064,"temp":32.3,"humidity":41,"rain":0.0,"pressure":987.5,"uv_index":5.5,"wind_gusts":28.4,"aqi":172,"pm10":183.9,"pm2_5":70.1,"mosquito_risk":0,"arthritis_risk":5,"migraine_risk":3,"frizz_risk":1,"updated_at":"2026-03-11T12:28:48.543780+05:30"},{"city":"Agra","state":"Uttar Pradesh","latitude":27.1767,"longitude":78.0081,"temp":35.8,"humidity":29,"rain":0.0,"pressure":993.6,"uv_index":6.5,"wind_gusts":19.4,"aqi":237,"pm10":433.1,"pm2_5":78.7,"mosquito_risk":0,"arthritis_risk":5,"migraine_risk":10,"frizz_risk":0,"updated_at":"2026-03-11T12:28:48.543786+05:30"},{"city":"Varanasi","state":"Uttar Pradesh","latitude":25.3176,"longitude":82.9739,"temp":31.9,"humidity":50,"rain":0.0,"pressure":1002.9,"uv_index":7.3,"wind_gusts":23.0,"aqi":192,"pm10":165.8,"pm2_5":117.6,"mosquito_risk":0,"arthritis_risk":5,"migraine_risk":4,"frizz_risk":1,"updated_at":"2026-03-11T12:28:48.543795+05:30"},{"city":"Prayagraj","state":"Uttar Pradesh","latitude":25.4358,"longitude":81.8463,"temp":32.2,"humidity":47,"rain":0.0,"pressure":1001.6,"uv_index":7.15,"wind_gusts":23.0,"aqi":191,"pm10":161.1,"pm2_5":107.8,"mosquito_risk":0,"arthritis_risk":5,"migraine_risk":4,"frizz_risk":1,"updated_at":"2026-03-11T12:28:48.543802+05:30"},{"city":"Gorakhpur","state":"Uttar Pradesh","latitude":26.7606,"longitude":83.3732,"temp":29.3,"humidity":68,"rain":0.0,"pressure":1002.7,"uv_index":7.0,"wind_gusts":25.9,"aqi":208,"pm10":156.9,"pm2_5":133.6,"mosquito_risk":7,"arthritis_risk":5,"migraine_risk":4,"frizz_risk":1,"updated_at":"2026-03-11T12:28:48.543811+05:30"},{"city":"Bareilly","state":"Uttar Pradesh","latitude":28.367,"longitude":79.4304,"temp":31.5,"humidity":51,"rain":0.0,"pressure":992.3,"uv_index":6.35,"wind_gusts":32.4,"aqi":209,"pm10":176.0,"pm2_5":124.8,"mosquito_risk":0,"arthritis_risk":5,"migraine_risk":7,"frizz_risk":1,"updated_at":"2026-03-11T12:28:48.543817+05:30"},{"city":"Aligarh","state":"Uttar Pradesh","latitude":27.8974,"longitude":78.088,"temp":34.3,"humidity":33,"rain":0.0,"pressure":991.5,"uv_index":6.25,"wind_gusts":23.8,"aqi":176,"pm10":326.0,"pm2_5":83.8,"mosquito_risk":0,"arthritis_risk":5,"migraine_risk":7,"frizz_risk":0,"updated_at":"2026-03-11T12:28:48.543824+05:30"},{"city":"Moradabad","state":"Uttar Pradesh","latitude":28.8386,"longitude":78.7733,"temp":31.7,"humidity":45,"rain":0.0,"pressure":989.3,"uv_index":6.15,"wind_gusts":34.9,"aqi":198,"pm10":167.2,"pm2_5":126.7,"mosquito_risk":0,"arthritis_risk":5,"migraine_risk":7,"frizz_risk":1,"updated_at":"2026-03-11T12:28:48.543830+05:30"},{"city":"Saharanpur","state":"Uttar Pradesh","latitude":29.9637,"longitude":77.546,"temp":31.0,"humidity":48,"rain":0.0,"pressure":981.5,"uv_index":5.4,"wind_gusts":37.1,"aqi":172,"pm10":98.5,"pm2_5":71.9,"mosquito_risk":0,"arthritis_risk":5,"migraine_risk":3,"frizz_risk":1,"updated_at":"2026-03-11T12:28:48.543837+05:30"},{"city":"Jhansi","state":"Uttar Pradesh","latitude":25.4484,"longitude":78.5685,"temp":36.0,"humidity":24,"rain":0.0,"pressure":983.9,"uv_index":7.1,"wind_gusts":27.4,"aqi":100,"pm10":110.1,"pm2_5":31.3,"mosquito_risk":0,"arthritis_risk":5,"migraine_risk":10,"frizz_risk":0,"updated_at":"2026-03-11T12:28:51.825858+05:30"},{"city":"Surat","state":"Gujarat","latitude":21.1702,"longitude":72.8311,"temp":36.9,"humidity":22,"rain":0.0,"pressure":1011.3,"uv_index":7.3,"wind_gusts":25.9,"aqi":114,"pm10":44.5,"pm2_5":41.1,"mosquito_risk":0,"arthritis_risk":0,"migraine_risk":7,"frizz_risk":0,"updated_at":"2026-03-11T12:28:51.825888+05:30"},{"city":"Vadodara","state":"Gujarat","latitude":22.3072,"longitude":73.1812,"temp":39.5,"humidity":18,"rain":0.0,"pressure":1009.5,"uv_index":7.45,"wind_gusts":20.2,"aqi":71,"pm10":28.0,"pm2_5":18.6,"mosquito_risk":0,"arthritis_risk":0,"migraine_risk":7,"frizz_risk":0,"updated_at":"2026-03-11T12:28:51.825898+05:30"},{"city":"Rajkot","state":"Gujarat","latitude":22.3039,"longitude":70.8022,"temp":35.5,"humidity":22,"rain":0.0,"pressure":1000.8,"uv_index":7.25,"wind_gusts":29.9,"aqi":70,"pm10":21.7,"pm2_5":19.9,"mosquito_risk":0,"arthritis_risk":5,"migraine_risk":7,"frizz_risk":0,"updated_at":"2026-03-11T12:28:51.825905+05:30"},{"city":"Thane","state":"Maharashtra","latitude":19.2183,"longitude":72.9781,"temp":34.1,"humidity":45,"rain":0.0,"pressure":1012.3,"uv_index":7.6,"wind_gusts":36.7,"aqi":153,"pm10":85.4,"pm2_5":78.5,"mosquito_risk":0,"arthritis_risk":0,"migraine_risk":4,"frizz_risk":1,"updated_at":"2026-03-11T12:28:51.825913+05:30"},{"city":"Nagpur","state":"Maharashtra","latitude":21.1458,"longitude":79.0882,"temp":35.6,"humidity":24,"rain":0.0,"pressure":978.8,"uv_index":8.0,"wind_gusts":11.9,"aqi":83,"pm10":56.0,"pm2_5":26.3,"mosquito_risk":0,"arthritis_risk":5,"migraine_risk":10,"frizz_risk":0,"updated_at":"2026-03-11T12:28:51.825920+05:30"},{"city":"Nashik","state":"Maharashtra","latitude":19.9975,"longitude":73.7898,"temp":35.1,"humidity":20,"rain":0.0,"pressure":951.3,"uv_index":7.75,"wind_gusts":25.6,"aqi":73,"pm10":33.3,"pm2_5":26.6,"mosquito_risk":0,"arthritis_risk":5,"migraine_risk":10,"frizz_risk":0,"updated_at":"2026-03-11T12:28:51.825927+05:30"},{"city":"Aurangabad","state":"Maharashtra","latitude":19.8762,"longitude":75.3433,"temp":34.2,"humidity":27,"rain":0.0,"pressure":950.1,"uv_index":8.3,"wind_gusts":18.4,"aqi":89,"pm10":43.9,"pm2_5":34.9,"mosquito_risk":0,"arthritis_risk":5,"migraine_risk":7,"frizz_risk":0,"updated_at":"2026-03-11T12:28:51.825934+05:30"},{"city":"Solapur","state":"Maharashtra","latitude":17.6599,"longitude":75.9064,"temp":33.0,"humidity":32,"rain":0.0,"pressure":962.9,"uv_index":8.5,"wind_gusts":20.5,"aqi":124,"pm10":31.5,"pm2_5":25.4,"mosquito_risk":0,"arthritis_risk":5,"migraine_risk":7,"frizz_risk":0,"updated_at":"2026-03-11T12:28:51.825942+05:30"},{"city":"Kolhapur","state":"Maharashtra","latitude":16.705,"longitude":74.2433,"temp":32.8,"humidity":31,"rain":0.0,"pressure":953.3,"uv_index":8.65,"wind_gusts":30.2,"aqi":153,"pm10":40.7,"pm2_5":33.9,"mosquito_risk":0,"arthritis_risk":5,"migraine_risk":7,"frizz_risk":0,"updated_at":"2026-03-11T12:28:51.825948+05:30"},{"city":"Goa","state":"Goa","latitude":15.2993,"longitude":74.124,"temp":33.6,"humidity":52,"rain":0.0,"pressure":1002.1,"uv_index":8.7,"wind_gusts":37.8,"aqi":153,"pm10":53.8,"pm2_5":46.8,"mosquito_risk":0,"arthritis_risk":5,"migraine_risk":4,"frizz_risk":1,"updated_at":"2026-03-11T12:28:51.825955+05:30"},{"city":"Jodhpur","state":"Rajasthan","latitude":26.2389,"longitude":73.0243,"temp":35.5,"humidity":18,"rain":0.0,"pressure":990.1,"uv_index":7.2,"wind_gusts":32.8,"aqi":85,"pm10":90.8,"pm2_5":30.4,"mosquito_risk":0,"arthritis_risk":5,"migraine_risk":10,"frizz_risk":0,"updated_at":"2026-03-11T12:28:51.825961+05:30"},{"city":"Udaipur","state":"Rajasthan","latitude":24.5854,"longitude":73.7125,"temp":34.9,"humidity":16,"rain":0.0,"pressure":953.8,"uv_index":7.8,"wind_gusts":26.3,"aqi":52,"pm10":23.3,"pm2_5":10.7,"mosquito_risk":0,"arthritis_risk":5,"migraine_risk":7,"frizz_risk":0,"updated_at":"2026-03-11T12:28:51.825968+05:30"},{"city":"Kota","state":"Rajasthan","latitude":25.2138,"longitude":75.8648,"temp":36.2,"humidity":17,"rain":0.0,"pressure":985.6,"uv_index":7.2,"wind_gusts":19.1,"aqi":75,"pm10":64.0,"pm2_5":22.1,"mosquito_risk":0,"arthritis_risk":5,"migraine_risk":10,"frizz_risk":0,"updated_at":"2026-03-11T12:28:51.825975+05:30"},{"city":"Bikaner","state":"Rajasthan","latitude":28.0229,"longitude":73.3119,"temp":33.5,"humidity":20,"rain":0.0,"pressure":988.5,"uv_index":6.2,"wind_gusts":29.9,"aqi":69,"pm10":26.4,"pm2_5":18.2,"mosquito_risk":0,"arthritis_risk":5,"migraine_risk":7,"frizz_risk":0,"updated_at":"2026-03-11T12:28:51.825982+05:30"},{"city":"Ajmer","state":"Rajasthan","latitude":26.4499,"longitude":74.6399,"temp":33.9,"humidity":20,"rain":0.0,"pressure":962.0,"uv_index":7.15,"wind_gusts":31.3,"aqi":84,"pm10":119.2,"pm2_5":28.3,"mosquito_risk":0,"arthritis_risk":5,"migraine_risk":7,"frizz_risk":0,"updated_at":"2026-03-11T12:28:51.825988+05:30"},{"city":"Gwalior","state":"Madhya Pradesh","latitude":26.2183,"longitude":78.1828,"temp":35.2,"humidity":28,"rain":0.0,"pressure":989.1,"uv_index":6.8,"wind_gusts":30.2,"aqi":117,"pm10":105.9,"pm2_5":28.5,"mosquito_risk":0,"arthritis_risk":5,"migraine_risk":10,"frizz_risk":0,"updated_at":"2026-03-11T12:28:51.825995+05:30"},{"city":"Indore","state":"Madhya Pradesh","latitude":22.7196,"longitude":75.8577,"temp":35.7,"humidity":13,"rain":0.0,"pressure":954.7,"uv_index":7.7,"wind_gusts":22.0,"aqi":65,"pm10":34.2,"pm2_5":15.3,"mosquito_risk":0,"arthritis_risk":5,"migraine_risk":10,"frizz_risk":0,"updated_at":"2026-03-11T12:28:51.826001+05:30"},{"city":"Bhopal","state":"Madhya Pradesh","latitude":23.2599,"longitude":77.4126,"temp":35.5,"humidity":22,"rain":0.0,"pressure":960.2,"uv_index":7.55,"wind_gusts":24.8,"aqi":60,"pm10":54.7,"pm2_5":18.3,"mosquito_risk":0,"arthritis_risk":5,"migraine_risk":10,"frizz_risk":0,"updated_at":"2026-03-11T12:28:51.826007+05:30"},{"city":"Jabalpur","state":"Madhya Pradesh","latitude":23.1815,"longitude":79.9864,"temp":34.0,"humidity":26,"rain":0.0,"pressure":967.7,"uv_index":7.7,"wind_gusts":24.8,"aqi":83,"pm10":95.2,"pm2_5":28.8,"mosquito_risk":0,"arthritis_risk":5,"migraine_risk":7,"frizz_risk":0,"updated_at":"2026-03-11T12:28:51.826014+05:30"},{"city":"Ujjain","state":"Madhya Pradesh","latitude":23.1765,"longitude":75.7885,"temp":34.5,"humidity":20,"rain":0.0,"pressure":960.5,"uv_index":7.65,"wind_gusts":15.1,"aqi":75,"pm10":34.1,"pm2_5":15.6,"mosquito_risk":0,"arthritis_risk":5,"migraine_risk":7,"frizz_risk":0,"updated_at":"2026-03-11T12:28:51.826021+05:30"},{"city":"Visakhapatnam","state":"Andhra Pradesh","latitude":17.6868,"longitude":83.2185,"temp":33.8,"humidity":39,"rain":0.0,"pressure":1008.1,"uv_index":8.6,"wind_gusts":38.5,"aqi":104,"pm10":34.2,"pm2_5":29.4,"mosquito_risk":0,"arthritis_risk":0,"migraine_risk":4,"frizz_risk":1,"updated_at":"2026-03-11T12:28:51.826028+05:30"},{"city":"Vijayawada","state":"Andhra Pradesh","latitude":16.5062,"longitude":80.648,"temp":32.7,"humidity":40,"rain":0.0,"pressure":1008.2,"uv_index":8.7,"wind_gusts":16.6,"aqi":95,"pm10":20.5,"pm2_5":17.7,"mosquito_risk":0,"arthritis_risk":0,"migraine_risk":4,"frizz_risk":1,"updated_at":"2026-03-11T12:28:51.826035+05:30"},{"city":"Guntur","state":"Andhra Pradesh","latitude":16.3067,"longitude":80.4365,"temp":32.7,"humidity":41,"rain":0.0,"pressure":1009.4,"uv_index":8.7,"wind_gusts":18.7,"aqi":82,"pm10":18.0,"pm2_5":15.3,"mosquito_risk":0,"arthritis_risk":0,"migraine_risk":4,"frizz_risk":1,"updated_at":"2026-03-11T12:28:51.826042+05:30"},{"city":"Nellore","state":"Andhra Pradesh","latitude":14.4426,"longitude":79.9865,"temp":33.2,"humidity":46,"rain":0.0,"pressure":1010.9,"uv_index":8.9,"wind_gusts":27.4,"aqi":70,"pm10":18.8,"pm2_5":15.8,"mosquito_risk":0,"arthritis_risk":0,"migraine_risk":4,"frizz_risk":1,"updated_at":"2026-03-11T12:28:51.826048+05:30"},{"city":"Kurnool","state":"Andhra Pradesh","latitude":15.8281,"longitude":78.0373,"temp":34.4,"humidity":21,"rain":0.0,"pressure":982.4,"uv_index":8.7,"wind_gusts":23.4,"aqi":72,"pm10":15.1,"pm2_5":13.1,"mosquito_risk":0,"arthritis_risk":5,"migraine_risk":7,"frizz_risk":0,"updated_at":"2026-03-11T12:28:51.826055+05:30"},{"city":"Kakinada","state":"Andhra Pradesh","latitude":16.9891,"longitude":82.2475,"temp":34.2,"humidity":36,"rain":0.0,"pressure":1012.1,"uv_index":8.65,"wind_gusts":20.5,"aqi":93,"pm10":30.2,"pm2_5":26.7,"mosquito_risk":0,"arthritis_risk":0,"migraine_risk":4,"frizz_risk":1,"updated_at":"2026-03-11T12:28:51.826062+05:30"},{"city":"Tirupati","state":"Andhra Pradesh","latitude":13.6288,"longitude":79.4192,"temp":32.6,"humidity":36,"rain":0.0,"pressure":996.4,"uv_index":9.0,"wind_gusts":32.8,"aqi":84,"pm10":18.8,"pm2_5":16.3,"mosquito_risk":0,"arthritis_risk":5,"migraine_risk":7,"frizz_risk":0,"updated_at":"2026-03-11T12:28:51.826069+05:30"},{"city":"Warangal","state":"Telangana","latitude":17.9689,"longitude":79.5941,"temp":33.0,"humidity":30,"rain":0.0,"pressure":984.4,"uv_index":8.45,"wind_gusts":23.4,"aqi":103,"pm10":15.1,"pm2_5":12.7,"mosquito_risk":0,"arthritis_risk":5,"migraine_risk":7,"frizz_risk":0,"updated_at":"2026-03-11T12:28:51.826075+05:30"},{"city":"Nizamabad","state":"Telangana","latitude":18.6725,"longitude":78.0941,"temp":34.5,"humidity":27,"rain":0.0,"pressure":970.5,"uv_index":8.35,"wind_gusts":24.5,"aqi":126,"pm10":44.6,"pm2_5":36.3,"mosquito_risk":0,"arthritis_risk":5,"migraine_risk":7,"frizz_risk":0,"updated_at":"2026-03-11T12:28:51.826081+05:30"},{"city":"Mysore","state":"Karnataka","latitude":12.2958,"longitude":76.6396,"temp":29.8,"humidity":35,"rain":0.0,"pressure":932.7,"uv_index":9.25,"wind_gusts":28.8,"aqi":68,"pm10":16.6,"pm2_5":13.9,"mosquito_risk":4,"arthritis_risk":5,"migraine_risk":7,"frizz_risk":0,"updated_at":"2026-03-11T12:28:51.826088+05:30"},{"city":"Mangalore","state":"Karnataka","latitude":12.9141,"longitude":74.856,"temp":28.2,"humidity":88,"rain":0.0,"pressure":1010.1,"uv_index":8.9,"wind_gusts":27.7,"aqi":117,"pm10":33.5,"pm2_5":29.9,"mosquito_risk":7,"arthritis_risk":0,"migraine_risk":4,"frizz_risk":1,"updated_at":"2026-03-11T12:28:51.826111+05:30"},{"city":"Hubli-Dharwad","state":"Karnataka","latitude":15.3647,"longitude":75.124,"temp":32.8,"humidity":25,"rain":0.0,"pressure":945.9,"uv_index":8.85,"wind_gusts":35.6,"aqi":104,"pm10":27.4,"pm2_5":21.8,"mosquito_risk":0,"arthritis_risk":5,"migraine_risk":7,"frizz_risk":0,"updated_at":"2026-03-11T12:28:51.826118+05:30"},{"city":"Belgaum","state":"Karnataka","latitude":15.8497,"longitude":74.4977,"temp":32.8,"humidity":22,"rain":0.0,"pressure":931.2,"uv_index":8.9,"wind_gusts":40.3,"aqi":124,"pm10":35.7,"pm2_5":28.2,"mosquito_risk":0,"arthritis_risk":5,"migraine_risk":7,"frizz_risk":0,"updated_at":"2026-03-11T12:28:55.079012+05:30"},{"city":"Coimbatore","state":"Tamil Nadu","latitude":11.0168,"longitude":76.9558,"temp":31.1,"humidity":40,"rain":0.0,"pressure":965.8,"uv_index":9.25,"wind_gusts":38.9,"aqi":75,"pm10":18.0,"pm2_5":15.5,"mosquito_risk":0,"arthritis_risk":5,"migraine_risk":7,"frizz_risk":0,"updated_at":"2026-03-11T12:28:55.079042+05:30"},{"city":"Madurai","state":"Tamil Nadu","latitude":9.9252,"longitude":78.1198,"temp":31.9,"humidity":47,"rain":0.0,"pressure":996.7,"uv_index":8.3,"wind_gusts":29.5,"aqi":69,"pm10":18.7,"pm2_5":16.1,"mosquito_risk":0,"arthritis_risk":5,"migraine_risk":7,"frizz_risk":1,"updated_at":"2026-03-11T12:28:55.079052+05:30"},{"city":"Trichy","state":"Tamil Nadu","latitude":10.7905,"longitude":78.7047,"temp":32.0,"humidity":49,"rain":0.0,"pressure":1003.8,"uv_index":9.15,"wind_gusts":28.1,"aqi":68,"pm10":19.5,"pm2_5":17.2,"mosquito_risk":0,"arthritis_risk":5,"migraine_risk":4,"frizz_risk":1,"updated_at":"2026-03-11T12:28:55.079060+05:30"},{"city":"Salem","state":"Tamil Nadu","latitude":11.6643,"longitude":78.146,"temp":31.7,"humidity":41,"rain":0.0,"pressure":981.7,"uv_index":9.15,"wind_gusts":25.2,"aqi":75,"pm10":22.4,"pm2_5":19.3,"mosquito_risk":0,"arthritis_risk":5,"migraine_risk":7,"frizz_risk":1,"updated_at":"2026-03-11T12:28:55.079067+05:30"},{"city":"Tirunelveli","state":"Tamil Nadu","latitude":8.7139,"longitude":77.7567,"temp":31.5,"humidity":52,"rain":0.0,"pressure":1006.9,"uv_index":6.2,"wind_gusts":25.9,"aqi":58,"pm10":13.1,"pm2_5":11.7,"mosquito_risk":0,"arthritis_risk":5,"migraine_risk":4,"frizz_risk":1,"updated_at":"2026-03-11T12:28:55.079074+05:30"},{"city":"Vellore","state":"Tamil Nadu","latitude":12.9165,"longitude":79.1325,"temp":31.5,"humidity":44,"rain":0.0,"pressure":989.5,"uv_index":9.1,"wind_gusts":33.1,"aqi":93,"pm10":19.4,"pm2_5":16.9,"mosquito_risk":0,"arthritis_risk":5,"migraine_risk":7,"frizz_risk":1,"updated_at":"2026-03-11T12:28:55.079081+05:30"},{"city":"Erode","state":"Tamil Nadu","latitude":11.341,"longitude":77.7172,"temp":32.5,"humidity":40,"rain":0.0,"pressure":993.3,"uv_index":9.15,"wind_gusts":20.5,"aqi":79,"pm10":24.3,"pm2_5":21.2,"mosquito_risk":0,"arthritis_risk":5,"migraine_risk":7,"frizz_risk":1,"updated_at":"2026-03-11T12:28:55.079088+05:30"},{"city":"Kochi","state":"Kerala","latitude":9.9312,"longitude":76.2673,"temp":28.1,"humidity":75,"rain":0.0,"pressure":1011.4,"uv_index":8.25,"wind_gusts":40.0,"aqi":124,"pm10":44.2,"pm2_5":37.1,"mosquito_risk":7,"arthritis_risk":0,"migraine_risk":4,"frizz_risk":1,"updated_at":"2026-03-11T12:28:55.079138+05:30"},{"city":"Thiruvananthapuram","state":"Kerala","latitude":8.5241,"longitude":76.9366,"temp":28.7,"humidity":72,"rain":0.0,"pressure":1010.2,"uv_index":7.3,"wind_gusts":29.2,"aqi":72,"pm10":16.2,"pm2_5":14.7,"mosquito_risk":7,"arthritis_risk":0,"migraine_risk":4,"frizz_risk":1,"updated_at":"2026-03-11T12:28:55.079147+05:30"},{"city":"Kozhikode","state":"Kerala","latitude":11.2588,"longitude":75.7804,"temp":29.3,"humidity":71,"rain":0.0,"pressure":1011.1,"uv_index":8.95,"wind_gusts":30.6,"aqi":126,"pm10":51.6,"pm2_5":43.2,"mosquito_risk":7,"arthritis_risk":0,"migraine_risk":4,"frizz_risk":1,"updated_at":"2026-03-11T12:28:55.079154+05:30"},{"city":"Thrissur","state":"Kerala","latitude":10.5276,"longitude":76.2144,"temp":36.3,"humidity":34,"rain":0.0,"pressure":1009.2,"uv_index":9.05,"wind_gusts":38.2,"aqi":94,"pm10":16.4,"pm2_5":14.7,"mosquito_risk":0,"arthritis_risk":0,"migraine_risk":7,"frizz_risk":1,"updated_at":"2026-03-11T12:28:55.079162+05:30"},{"city":"Kannur","state":"Kerala","latitude":11.8745,"longitude":75.3704,"temp":29.9,"humidity":71,"rain":0.0,"pressure":1010.7,"uv_index":8.95,"wind_gusts":36.7,"aqi":138,"pm10":44.7,"pm2_5":38.2,"mosquito_risk":7,"arthritis_risk":0,"migraine_risk":4,"frizz_risk":1,"updated_at":"2026-03-11T12:28:55.079169+05:30"},{"city":"Patna","state":"Bihar","latitude":25.5941,"longitude":85.1376,"temp":30.0,"humidity":60,"rain":0.0,"pressure":1005.5,"uv_index":6.85,"wind_gusts":24.1,"aqi":194,"pm10":150.9,"pm2_5":132.7,"mosquito_risk":4,"arthritis_risk":5,"migraine_risk":4,"frizz_risk":1,"updated_at":"2026-03-11T12:28:55.079175+05:30"},{"city":"Gaya","state":"Bihar","latitude":24.7914,"longitude":85.0002,"temp":30.0,"humidity":64,"rain":0.0,"pressure":998.6,"uv_index":7.5,"wind_gusts":21.2,"aqi":170,"pm10":105.0,"pm2_5":92.9,"mosquito_risk":7,"arthritis_risk":5,"migraine_risk":7,"frizz_risk":1,"updated_at":"2026-03-11T12:28:55.079182+05:30"},{"city":"Muzaffarpur","state":"Bihar","latitude":26.1209,"longitude":85.3647,"temp":30.3,"humidity":60,"rain":0.0,"pressure":1005.4,"uv_index":7.4,"wind_gusts":30.6,"aqi":207,"pm10":168.1,"pm2_5":145.8,"mosquito_risk":0,"arthritis_risk":5,"migraine_risk":4,"frizz_risk":1,"updated_at":"2026-03-11T12:28:55.079189+05:30"},{"city":"Bhagalpur","state":"Bihar","latitude":25.2425,"longitude":87.0117,"temp":28.9,"humidity":66,"rain":0.0,"pressure":1006.0,"uv_index":7.15,"wind_gusts":25.9,"aqi":172,"pm10":92.7,"pm2_5":80.6,"mosquito_risk":7,"arthritis_risk":5,"migraine_risk":4,"frizz_risk":1,"updated_at":"2026-03-11T12:28:55.079195+05:30"},{"city":"Ranchi","state":"Jharkhand","latitude":23.3441,"longitude":85.3096,"temp":30.5,"humidity":42,"rain":0.0,"pressure":942.0,"uv_index":8.15,"wind_gusts":29.9,"aqi":170,"pm10":109.0,"pm2_5":86.8,"mosquito_risk":0,"arthritis_risk":5,"migraine_risk":7,"frizz_risk":1,"updated_at":"2026-03-11T12:28:55.079202+05:30"},{"city":"Jamshedpur","state":"Jharkhand","latitude":22.8046,"longitude":86.2029,"temp":31.5,"humidity":58,"rain":0.0,"pressure":994.4,"uv_index":8.05,"wind_gusts":29.5,"aqi":157,"pm10":93.6,"pm2_5":78.2,"mosquito_risk":0,"arthritis_risk":5,"migraine_risk":7,"frizz_risk":1,"updated_at":"2026-03-11T12:28:55.079208+05:30"},{"city":"Dhanbad","state":"Jharkhand","latitude":23.7957,"longitude":86.4304,"temp":30.6,"humidity":58,"rain":0.0,"pressure":983.7,"uv_index":7.6,"wind_gusts":27.7,"aqi":189,"pm10":100.1,"pm2_5":88.5,"mosquito_risk":0,"arthritis_risk":5,"migraine_risk":7,"frizz_risk":1,"updated_at":"2026-03-11T12:28:55.079215+05:30"},{"city":"Bokaro","state":"Jharkhand","latitude":23.6693,"longitude":86.1511,"temp":30.6,"humidity":54,"rain":0.0,"pressure":987.9,"uv_index":7.75,"wind_gusts":40.7,"aqi":190,"pm10":123.4,"pm2_5":108.7,"mosquito_risk":0,"arthritis_risk":5,"migraine_risk":7,"frizz_risk":1,"updated_at":"2026-03-11T12:28:55.079222+05:30"},{"city":"Bhubaneswar","state":"Odisha","latitude":20.2961,"longitude":85.8245,"temp":32.4,"humidity":59,"rain":0.0,"pressure":1006.5,"uv_index":8.35,"wind_gusts":26.6,"aqi":124,"pm10":35.0,"pm2_5":29.3,"mosquito_risk":0,"arthritis_risk":5,"migraine_risk":4,"frizz_risk":1,"updated_at":"2026-03-11T12:28:55.079229+05:30"},{"city":"Cuttack","state":"Odisha","latitude":20.4625,"longitude":85.8828,"temp":33.6,"humidity":54,"rain":0.0,"pressure":1008.1,"uv_index":8.4,"wind_gusts":29.5,"aqi":124,"pm10":35.0,"pm2_5":29.3,"mosquito_risk":0,"arthritis_risk":0,"migraine_risk":4,"frizz_risk":1,"updated_at":"2026-03-11T12:28:55.079236+05:30"},{"city":"Rourkela","state":"Odisha","latitude":22.2604,"longitude":84.8536,"temp":33.7,"humidity":42,"rain":0.0,"pressure":988.8,"uv_index":7.95,"wind_gusts":27.4,"aqi":163,"pm10":110.1,"pm2_5":85.9,"mosquito_risk":0,"arthritis_risk":5,"migraine_risk":7,"frizz_risk":1,"updated_at":"2026-03-11T12:28:55.079242+05:30"},{"city":"Raipur","state":"Chhattisgarh","latitude":21.2514,"longitude":81.6296,"temp":35.3,"humidity":29,"rain":0.0,"pressure":979.6,"uv_index":8.05,"wind_gusts":24.8,"aqi":153,"pm10":114.1,"pm2_5":85.7,"mosquito_risk":0,"arthritis_risk":5,"migraine_risk":10,"frizz_risk":0,"updated_at":"2026-03-11T12:28:55.079248+05:30"},{"city":"Bhilai","state":"Chhattisgarh","latitude":21.1938,"longitude":81.3509,"temp":35.7,"humidity":28,"rain":0.0,"pressure":980.0,"uv_index":8.05,"wind_gusts":19.8,"aqi":150,"pm10":113.6,"pm2_5":80.6,"mosquito_risk":0,"arthritis_risk":5,"migraine_risk":10,"frizz_risk":0,"updated_at":"2026-03-11T12:28:55.079255+05:30"},{"city":"Guwahati","state":"Assam","latitude":26.1158,"longitude":91.7086,"temp":31.0,"humidity":54,"rain":0.0,"pressure":1005.1,"uv_index":7.35,"wind_gusts":23.8,"aqi":155,"pm10":71.2,"pm2_5":61.7,"mosquito_risk":0,"arthritis_risk":5,"migraine_risk":4,"frizz_risk":1,"updated_at":"2026-03-11T12:28:55.079261+05:30"},{"city":"Agartala","state":"Tripura","latitude":23.8315,"longitude":91.2868,"temp":31.1,"humidity":54,"rain":0.0,"pressure":1009.9,"uv_index":7.75,"wind_gusts":19.8,"aqi":169,"pm10":86.8,"pm2_5":75.2,"mosquito_risk":0,"arthritis_risk":0,"migraine_risk":4,"frizz_risk":1,"updated_at":"2026-03-11T12:28:55.079268+05:30"},{"city":"Shillong","state":"Meghalaya","latitude":25.5788,"longitude":91.8933,"temp":20.8,"humidity":47,"rain":0.0,"pressure":860.8,"uv_index":6.65,"wind_gusts":18.4,"aqi":139,"pm10":45.5,"pm2_5":40.6,"mosquito_risk":0,"arthritis_risk":5,"migraine_risk":7,"frizz_risk":0,"updated_at":"2026-03-11T12:28:55.079274+05:30"},{"city":"Imphal","state":"Manipur","latitude":24.817,"longitude":93.9368,"temp":24.8,"humidity":49,"rain":0.0,"pressure":926.9,"uv_index":7.95,"wind_gusts":36.4,"aqi":154,"pm10":56.8,"pm2_5":48.7,"mosquito_risk":0,"arthritis_risk":5,"migraine_risk":7,"frizz_risk":0,"updated_at":"2026-03-11T12:28:55.079280+05:30"},{"city":"Aizawl","state":"Mizoram","latitude":23.7271,"longitude":92.7176,"temp":25.1,"humidity":50,"rain":0.0,"pressure":897.0,"uv_index":7.9,"wind_gusts":28.8,"aqi":177,"pm10":83.4,"pm2_5":72.2,"mosquito_risk":4,"arthritis_risk":5,"migraine_risk":7,"frizz_risk":0,"updated_at":"2026-03-11T12:28:55.079287+05:30"},{"city":"Kohima","state":"Nagaland","latitude":25.6701,"longitude":94.1077,"temp":18.6,"humidity":72,"rain":0.0,"pressure":858.8,"uv_index":7.05,"wind_gusts":34.2,"aqi":140,"pm10":56.0,"pm2_5":49.6,"mosquito_risk":3,"arthritis_risk":5,"migraine_risk":7,"frizz_risk":0,"updated_at":"2026-03-11T12:28:55.079293+05:30"},{"city":"Gangtok","state":"Sikkim","latitude":27.3314,"longitude":88.6138,"temp":21.5,"humidity":57,"rain":0.0,"pressure":842.5,"uv_index":6.3,"wind_gusts":20.9,"aqi":133,"pm10":56.0,"pm2_5":48.3,"mosquito_risk":0,"arthritis_risk":5,"migraine_risk":7,"frizz_risk":0,"updated_at":"2026-03-11T12:28:55.079299+05:30"},{"city":"Siliguri","state":"West Bengal","latitude":26.7271,"longitude":88.3953,"temp":26.4,"humidity":65,"rain":0.0,"pressure":998.4,"uv_index":5.75,"wind_gusts":21.2,"aqi":164,"pm10":100.1,"pm2_5":85.7,"mosquito_risk":7,"arthritis_risk":5,"migraine_risk":3,"frizz_risk":1,"updated_at":"2026-03-11T12:28:58.338737+05:30"},{"city":"Durgapur","state":"West Bengal","latitude":23.5204,"longitude":87.3119,"temp":29.7,"humidity":64,"rain":0.0,"pressure":999.4,"uv_index":7.6,"wind_gusts":30.2,"aqi":161,"pm10":80.6,"pm2_5":69.4,"mosquito_risk":7,"arthritis_risk":5,"migraine_risk":7,"frizz_risk":1,"updated_at":"2026-03-11T12:28:58.338766+05:30"},{"city":"Asansol","state":"West Bengal","latitude":23.6739,"longitude":86.9524,"temp":29.8,"humidity":62,"rain":0.0,"pressure":997.7,"uv_index":7.85,"wind_gusts":22.3,"aqi":168,"pm10":77.1,"pm2_5":66.4,"mosquito_risk":7,"arthritis_risk":5,"migraine_risk":7,"frizz_risk":1,"updated_at":"2026-03-11T12:28:58.338776+05:30"},{"city":"Pondicherry","state":"Puducherry","latitude":11.9139,"longitude":79.8145,"temp":32.0,"humidity":53,"rain":0.0,"pressure":1012.8,"uv_index":9.0,"wind_gusts":31.7,"aqi":59,"pm10":21.9,"pm2_5":17.0,"mosquito_risk":0,"arthritis_risk":0,"migraine_risk":4,"frizz_risk":1,"updated_at":"2026-03-11T12:28:58.338783+05:30"},{"city":"Port Blair","state":"Andaman and Nicobar Islands","latitude":11.6234,"longitude":92.7265,"temp":28.2,"humidity":78,"rain":0.0,"pressure":1009.7,"uv_index":8.95,"wind_gusts":20.2,"aqi":62,"pm10":21.9,"pm2_5":18.1,"mosquito_risk":7,"arthritis_risk":0,"migraine_risk":4,"frizz_risk":1,"updated_at":"2026-03-11T12:28:58.338791+05:30"},{"city":"Haridwar","state":"Uttarakhand","latitude":29.9457,"longitude":78.1642,"temp":30.4,"humidity":59,"rain":0.0,"pressure":980.1,"uv_index":5.9,"wind_gusts":38.5,"aqi":160,"pm10":88.0,"pm2_5":59.8,"mosquito_risk":0,"arthritis_risk":5,"migraine_risk":3,"frizz_risk":1,"updated_at":"2026-03-11T12:28:58.338798+05:30"},{"city":"Rishikesh","state":"Uttarakhand","latitude":30.0869,"longitude":78.2676,"temp":30.3,"humidity":54,"rain":0.0,"pressure":972.9,"uv_index":5.9,"wind_gusts":34.2,"aqi":156,"pm10":65.9,"pm2_5":41.7,"mosquito_risk":0,"arthritis_risk":5,"migraine_risk":3,"frizz_risk":1,"updated_at":"2026-03-11T12:28:58.338806+05:30"},{"city":"Nainital","state":"Uttarakhand","latitude":29.3919,"longitude":79.4542,"temp":23.0,"humidity":69,"rain":0.0,"pressure":812.6,"uv_index":6.8,"wind_gusts":67.3,"aqi":175,"pm10":106.9,"pm2_5":74.3,"mosquito_risk":3,"arthritis_risk":5,"migraine_risk":7,"frizz_risk":1,"updated_at":"2026-03-11T12:28:58.338813+05:30"},{"city":"Mussoorie","state":"Uttarakhand","latitude":30.4599,"longitude":78.0664,"temp":22.5,"humidity":54,"rain":0.0,"pressure":809.9,"uv_index":5.6,"wind_gusts":40.7,"aqi":153,"pm10":47.8,"pm2_5":31.5,"mosquito_risk":0,"arthritis_risk":5,"migraine_risk":3,"frizz_risk":0,"updated_at":"2026-03-11T12:28:58.338820+05:30"},{"city":"Dharamshala","state":"Himachal Pradesh","latitude":32.219,"longitude":76.3234,"temp":24.8,"humidity":38,"rain":0.0,"pressure":876.1,"uv_index":5.5,"wind_gusts":25.9,"aqi":61,"pm10":36.2,"pm2_5":17.8,"mosquito_risk":0,"arthritis_risk":5,"migraine_risk":3,"frizz_risk":0,"updated_at":"2026-03-11T12:28:58.338827+05:30"},{"city":"Dalhousie","state":"Himachal Pradesh","latitude":32.5387,"longitude":75.971,"temp":23.0,"humidity":26,"rain":0.0,"pressure":811.2,"uv_index":4.75,"wind_gusts":19.8,"aqi":96,"pm10":32.5,"pm2_5":23.3,"mosquito_risk":0,"arthritis_risk":5,"migraine_risk":3,"frizz_risk":0,"updated_at":"2026-03-11T12:28:58.338835+05:30"},{"city":"Patiala","state":"Punjab","latitude":30.3398,"longitude":76.3869,"temp":31.3,"humidity":48,"rain":0.0,"pressure":984.6,"uv_index":5.3,"wind_gusts":17.6,"aqi":171,"pm10":88.0,"pm2_5":64.7,"mosquito_risk":0,"arthritis_risk":5,"migraine_risk":3,"frizz_risk":1,"updated_at":"2026-03-11T12:28:58.338842+05:30"},{"city":"Bhatinda","state":"Punjab","latitude":30.211,"longitude":74.9455,"temp":31.1,"humidity":47,"rain":0.0,"pressure":990.1,"uv_index":6.6,"wind_gusts":21.6,"aqi":153,"pm10":108.5,"pm2_5":46.7,"mosquito_risk":0,"arthritis_risk":5,"migraine_risk":7,"frizz_risk":1,"updated_at":"2026-03-11T12:28:58.338850+05:30"},{"city":"Rohtak","state":"Haryana","latitude":28.8955,"longitude":76.6066,"temp":32.9,"humidity":38,"rain":0.0,"pressure":987.9,"uv_index":6.1,"wind_gusts":25.6,"aqi":176,"pm10":237.5,"pm2_5":51.5,"mosquito_risk":0,"arthritis_risk":5,"migraine_risk":7,"frizz_risk":1,"updated_at":"2026-03-11T12:28:58.338857+05:30"},{"city":"Panipat","state":"Haryana","latitude":29.3909,"longitude":76.9635,"temp":32.2,"humidity":43,"rain":0.0,"pressure":986.6,"uv_index":5.35,"wind_gusts":22.7,"aqi":191,"pm10":167.6,"pm2_5":47.7,"mosquito_risk":0,"arthritis_risk":5,"migraine_risk":3,"frizz_risk":1,"updated_at":"2026-03-11T12:28:58.338864+05:30"},{"city":"Mathura","state":"Uttar Pradesh","latitude":27.4924,"longitude":77.6737,"temp":35.7,"humidity":30,"rain":0.0,"pressure":992.6,"uv_index":6.4,"wind_gusts":23.4,"aqi":203,"pm10":350.2,"pm2_5":69.6,"mosquito_risk":0,"arthritis_risk":5,"migraine_risk":10,"frizz_risk":0,"updated_at":"2026-03-11T12:28:58.338871+05:30"},{"city":"Vrindavan","state":"Uttar Pradesh","latitude":27.5823,"longitude":77.7027,"temp":35.1,"humidity":33,"rain":0.0,"pressure":993.1,"uv_index":6.4,"wind_gusts":24.1,"aqi":203,"pm10":350.2,"pm2_5":69.6,"mosquito_risk":0,"arthritis_risk":5,"migraine_risk":10,"frizz_risk":1,"updated_at":"2026-03-11T12:28:58.338877+05:30"},{"city":"Ayodhya","state":"Uttar Pradesh","latitude":26.7922,"longitude":82.1998,"temp":31.7,"humidity":52,"rain":0.0,"pressure":1000.4,"uv_index":6.8,"wind_gusts":28.4,"aqi":197,"pm10":166.2,"pm2_5":131.3,"mosquito_risk":0,"arthritis_risk":5,"migraine_risk":4,"frizz_risk":1,"updated_at":"2026-03-11T12:28:58.338883+05:30"},{"city":"Ratlam","state":"Madhya Pradesh","latitude":23.3315,"longitude":75.0367,"temp":35.2,"humidity":19,"rain":0.0,"pressure":961.3,"uv_index":7.6,"wind_gusts":19.8,"aqi":68,"pm10":26.6,"pm2_5":11.8,"mosquito_risk":0,"arthritis_risk":5,"migraine_risk":10,"frizz_risk":0,"updated_at":"2026-03-11T12:28:58.338889+05:30"},{"city":"Sagar","state":"Madhya Pradesh","latitude":23.8388,"longitude":78.7378,"temp":35.3,"humidity":19,"rain":0.0,"pressure":956.6,"uv_index":7.55,"wind_gusts":25.2,"aqi":68,"pm10":82.4,"pm2_5":22.0,"mosquito_risk":0,"arthritis_risk":5,"migraine_risk":10,"frizz_risk":0,"updated_at":"2026-03-11T12:28:58.338895+05:30"},{"city":"Satna","state":"Madhya Pradesh","latitude":24.6005,"longitude":80.8322,"temp":34.4,"humidity":28,"rain":0.0,"pressure":977.2,"uv_index":7.55,"wind_gusts":34.2,"aqi":152,"pm10":89.6,"pm2_5":35.2,"mosquito_risk":0,"arthritis_risk":5,"migraine_risk":7,"frizz_risk":0,"updated_at":"2026-03-11T12:28:58.338902+05:30"},{"city":"Akola","state":"Maharashtra","latitude":20.7002,"longitude":77.0082,"temp":37.4,"humidity":21,"rain":0.0,"pressure":980.5,"uv_index":8.0,"wind_gusts":16.2,"aqi":68,"pm10":32.1,"pm2_5":18.8,"mosquito_risk":0,"arthritis_risk":5,"migraine_risk":10,"frizz_risk":0,"updated_at":"2026-03-11T12:28:58.338908+05:30"},{"city":"Amravati","state":"Maharashtra","latitude":20.9374,"longitude":77.7796,"temp":37.4,"humidity":21,"rain":0.0,"pressure":972.7,"uv_index":8.0,"wind_gusts":9.7,"aqi":70,"pm10":36.8,"pm2_5":19.0,"mosquito_risk":0,"arthritis_risk":5,"migraine_risk":10,"frizz_risk":0,"updated_at":"2026-03-11T12:28:58.338915+05:30"},{"city":"Latur","state":"Maharashtra","latitude":18.4088,"longitude":76.5604,"temp":33.1,"humidity":31,"rain":0.0,"pressure":945.9,"uv_index":8.45,"wind_gusts":24.1,"aqi":112,"pm10":36.0,"pm2_5":28.9,"mosquito_risk":0,"arthritis_risk":5,"migraine_risk":7,"frizz_risk":0,"updated_at":"2026-03-11T12:28:58.338922+05:30"},{"city":"Nanded","state":"Maharashtra","latitude":19.1383,"longitude":77.3091,"temp":35.6,"humidity":30,"rain":0.0,"pressure":974.4,"uv_index":8.25,"wind_gusts":18.0,"aqi":125,"pm10":54.0,"pm2_5":45.3,"mosquito_risk":0,"arthritis_risk":5,"migraine_risk":10,"frizz_risk":0,"updated_at":"2026-03-11T12:28:58.338928+05:30"},{"city":"Gulbarga","state":"Karnataka","latitude":17.3297,"longitude":76.8343,"temp":34.0,"humidity":24,"rain":0.0,"pressure":964.7,"uv_index":8.5,"wind_gusts":21.6,"aqi":110,"pm10":30.0,"pm2_5":24.1,"mosquito_risk":0,"arthritis_risk":5,"migraine_risk":7,"frizz_risk":0,"updated_at":"2026-03-11T12:28:58.338935+05:30"},{"city":"Bidar","state":"Karnataka","latitude":17.9104,"longitude":77.5199,"temp":33.2,"humidity":23,"rain":0.0,"pressure":941.6,"uv_index":8.5,"wind_gusts":22.7,"aqi":112,"pm10":39.8,"pm2_5":31.1,"mosquito_risk":0,"arthritis_risk":5,"migraine_risk":7,"frizz_risk":0,"updated_at":"2026-03-11T12:28:58.338941+05:30"},{"city":"Hospet","state":"Karnataka","latitude":15.2689,"longitude":76.3909,"temp":31.7,"humidity":31,"rain":0.0,"pressure":960.9,"uv_index":8.8,"wind_gusts":25.6,"aqi":87,"pm10":18.0,"pm2_5":15.3,"mosquito_risk":0,"arthritis_risk":5,"migraine_risk":7,"frizz_risk":0,"updated_at":"2026-03-11T12:28:58.338947+05:30"},{"city":"Tirupur","state":"Tamil Nadu","latitude":11.1085,"longitude":77.3411,"temp":32.0,"humidity":40,"rain":0.0,"pressure":979.5,"uv_index":9.3,"wind_gusts":31.0,"aqi":88,"pm10":25.3,"pm2_5":22.4,"mosquito_risk":0,"arthritis_risk":5,"migraine_risk":7,"frizz_risk":1,"updated_at":"2026-03-11T12:28:58.338953+05:30"},{"city":"Alappuzha","state":"Kerala","latitude":9.4981,"longitude":76.3388,"temp":28.2,"humidity":77,"rain":0.0,"pressure":1011.5,"uv_index":8.6,"wind_gusts":37.4,"aqi":124,"pm10":44.9,"pm2_5":38.3,"mosquito_risk":7,"arthritis_risk":0,"migraine_risk":4,"frizz_risk":1,"updated_at":"2026-03-11T12:28:58.338959+05:30"},{"city":"Munnar","state":"Kerala","latitude":10.0889,"longitude":77.0595,"temp":29.3,"humidity":40,"rain":0.0,"pressure":861.5,"uv_index":8.0,"wind_gusts":27.4,"aqi":64,"pm10":14.1,"pm2_5":12.0,"mosquito_risk":4,"arthritis_risk":5,"migraine_risk":7,"frizz_risk":0,"updated_at":"2026-03-11T12:28:58.338966+05:30"},{"city":"Silchar","state":"Assam","latitude":24.8333,"longitude":92.7789,"temp":30.2,"humidity":59,"rain":0.0,"pressure":1008.9,"uv_index":7.65,"wind_gusts":16.6,"aqi":168,"pm10":85.2,"pm2_5":73.3,"mosquito_risk":0,"arthritis_risk":0,"migraine_risk":4,"frizz_risk":1,"updated_at":"2026-03-11T12:28:58.338972+05:30"},{"city":"Dibrugarh","state":"Assam","latitude":27.4728,"longitude":94.912,"temp":28.1,"humidity":64,"rain":0.0,"pressure":999.0,"uv_index":7.45,"wind_gusts":21.6,"aqi":162,"pm10":91.5,"pm2_5":81.3,"mosquito_risk":7,"arthritis_risk":5,"migraine_risk":7,"frizz_risk":1,"updated_at":"2026-03-11T12:28:58.338979+05:30"}]