[{"city":"Delhi","state":"Delhi","latitude":28.6139,"longitude":77.209,"temp":30.2,"humidity":42,"rain":0.0,"pressure":984.4,"uv_index":5.9,"wind_gusts":32.8,"aqi":154,"pm10":432.1,"pm2_5":58.0,"mosquito_risk":0,"arthritis_risk":5,"migraine_risk":3,"frizz_risk":0,"updated_at":"2026-04-03T15:28:34.653436+05:30"},{"city":"Mumbai","state":"Maharashtra","latitude":19.076,"longitude":72.8777,"temp":28.2,"humidity":75,"rain":0.0,"pressure":1009.0,"uv_index":7.6,"wind_gusts":25.2,"aqi":75,"pm10":55.3,"pm2_5":24.8,"mosquito_risk":7,"arthritis_risk":0,"migraine_risk":4,"frizz_risk":1,"updated_at":"2026-04-03T15:28:34.653477+05:30"},{"city":"Bangalore","state":"Karnataka","latitude":12.9716,"longitude":77.5946,"temp":33.1,"humidity":32,"rain":0.0,"pressure":911.2,"uv_index":9.6,"wind_gusts":26.6,"aqi":101,"pm10":19.7,"pm2_5":17.0,"mosquito_risk":0,"arthritis_risk":5,"migraine_risk":7,"frizz_risk":0,"updated_at":"2026-04-03T15:28:34.653493+05:30"},{"city":"Hyderabad","state":"Telangana","latitude":17.385,"longitude":78.4867,"temp":36.5,"humidity":26,"rain":0.0,"pressure":952.6,"uv_index":8.85,"wind_gusts":19.8,"aqi":71,"pm10":25.9,"pm2_5":18.3,"mosquito_risk":0,"arthritis_risk":5,"migraine_risk":10,"frizz_risk":0,"updated_at":"2026-04-03T15:28:34.653502+05:30"},{"city":"Chennai","state":"Tamil Nadu","latitude":13.0827,"longitude":80.2707,"temp":33.6,"humidity":45,"rain":0.0,"pressure":1006.4,"uv_index":9.3,"wind_gusts":36.7,"aqi":45,"pm10":14.4,"pm2_5":11.6,"mosquito_risk":0,"arthritis_risk":5,"migraine_risk":4,"frizz_risk":1,"updated_at":"2026-04-03T15:28:34.653511+05:30"},{"city":"Kolkata","state":"West Bengal","latitude":22.5726,"longitude":88.3639,"temp":36.2,"humidity":43,"rain":0.0,"pressure":1003.6,"uv_index":8.7,"wind_gusts":20.2,"aqi":90,"pm10":42.4,"pm2_5":34.6,"mosquito_risk":0,"arthritis_risk":5,"migraine_risk":7,"frizz_risk":1,"updated_at":"2026-04-03T15:28:34.653521+05:30"},{"city":"Pune","state":"Maharashtra","latitude":18.5204,"longitude":73.8567,"temp":33.8,"humidity":35,"rain":0.0,"pressure":948.5,"uv_index":8.5,"wind_gusts":36.4,"aqi":132,"pm10":43.3,"pm2_5":34.7,"mosquito_risk":0,"arthritis_risk":5,"migraine_risk":7,"frizz_risk":1,"updated_at":"2026-04-03T15:28:34.653532+05:30"},{"city":"Ahmedabad","state":"Gujarat","latitude":23.0225,"longitude":72.5714,"temp":33.4,"humidity":29,"rain":0.0,"pressure":1002.2,"uv_index":7.25,"wind_gusts":42.1,"aqi":63,"pm10":62.6,"pm2_5":17.5,"mosquito_risk":0,"arthritis_risk":5,"migraine_risk":4,"frizz_risk":0,"updated_at":"2026-04-03T15:28:34.653540+05:30"},{"city":"Jaipur","state":"Rajasthan","latitude":26.9124,"longitude":75.7873,"temp":25.3,"humidity":64,"rain":0.0,"pressure":961.2,"uv_index":7.5,"wind_gusts":55.8,"aqi":129,"pm10":241.2,"pm2_5":34.6,"mosquito_risk":7,"arthritis_risk":5,"migraine_risk":7,"frizz_risk":1,"updated_at":"2026-04-03T15:28:34.653548+05:30"},{"city":"Lucknow","state":"Uttar Pradesh","latitude":26.8467,"longitude":80.9462,"temp":33.7,"humidity":38,"rain":0.0,"pressure":993.2,"uv_index":6.85,"wind_gusts":28.8,"aqi":82,"pm10":71.0,"pm2_5":22.6,"mosquito_risk":0,"arthritis_risk":5,"migraine_risk":7,"frizz_risk":1,"updated_at":"2026-04-03T15:28:34.653556+05:30"},{"city":"Kanpur","state":"Uttar Pradesh","latitude":26.4499,"longitude":80.3319,"temp":33.8,"humidity":43,"rain":0.0,"pressure":991.6,"uv_index":5.2,"wind_gusts":26.3,"aqi":107,"pm10":304.5,"pm2_5":40.4,"mosquito_risk":0,"arthritis_risk":5,"migraine_risk":3,"frizz_risk":1,"updated_at":"2026-04-03T15:28:34.653563+05:30"},{"city":"Chandigarh","state":"Chandigarh","latitude":30.7333,"longitude":76.7794,"temp":27.4,"humidity":53,"rain":0.0,"pressure":969.6,"uv_index":5.85,"wind_gusts":49.3,"aqi":78,"pm10":130.9,"pm2_5":40.5,"mosquito_risk":4,"arthritis_risk":5,"migraine_risk":3,"frizz_risk":1,"updated_at":"2026-04-03T15:28:34.653570+05:30"},{"city":"Srinagar","state":"Jammu and Kashmir","latitude":34.0837,"longitude":74.7973,"temp":15.4,"humidity":65,"rain":0.0,"pressure":841.0,"uv_index":6.45,"wind_gusts":35.3,"aqi":100,"pm10":23.9,"pm2_5":13.9,"mosquito_risk":3,"arthritis_risk":5,"migraine_risk":7,"frizz_risk":0,"updated_at":"2026-04-03T15:28:34.653577+05:30"},{"city":"Jammu","state":"Jammu and Kashmir","latitude":32.7266,"longitude":74.857,"temp":23.4,"humidity":70,"rain":0.0,"pressure":973.9,"uv_index":6.05,"wind_gusts":35.3,"aqi":69,"pm10":41.6,"pm2_5":19.1,"mosquito_risk":3,"arthritis_risk":5,"migraine_risk":7,"frizz_risk":1,"updated_at":"2026-04-03T15:28:34.653584+05:30"},{"city":"Amritsar","state":"Punjab","latitude":31.634,"longitude":74.8723,"temp":23.0,"humidity":75,"rain":0.0,"pressure":982.5,"uv_index":4.15,"wind_gusts":57.6,"aqi":93,"pm10":45.4,"pm2_5":17.7,"mosquito_risk":3,"arthritis_risk":5,"migraine_risk":3,"frizz_risk":1,"updated_at":"2026-04-03T15:28:34.653590+05:30"},{"city":"Ludhiana","state":"Punjab","latitude":30.901,"longitude":75.8573,"temp":27.1,"humidity":50,"rain":0.0,"pressure":980.0,"uv_index":4.9,"wind_gusts":45.4,"aqi":116,"pm10":64.0,"pm2_5":22.6,"mosquito_risk":4,"arthritis_risk":5,"migraine_risk":3,"frizz_risk":0,"updated_at":"2026-04-03T15:28:34.653597+05:30"},{"city":"Jalandhar","state":"Punjab","latitude":31.326,"longitude":75.5762,"temp":25.5,"humidity":62,"rain":0.0,"pressure":981.0,"uv_index":5.2,"wind_gusts":41.8,"aqi":94,"pm10":70.8,"pm2_5":21.3,"mosquito_risk":7,"arthritis_risk":5,"migraine_risk":3,"frizz_risk":1,"updated_at":"2026-04-03T15:28:34.653606+05:30"},{"city":"Dehradun","state":"Uttarakhand","latitude":30.6284,"longitude":78.0322,"temp":21.0,"humidity":52,"rain":0.0,"pressure":833.0,"uv_index":5.4,"wind_gusts":34.2,"aqi":40,"pm10":20.8,"pm2_5":7.0,"mosquito_risk":0,"arthritis_risk":5,"migraine_risk":3,"frizz_risk":0,"updated_at":"2026-04-03T15:28:34.653612+05:30"},{"city":"Shimla","state":"Himachal Pradesh","latitude":31.1048,"longitude":77.1734,"temp":18.4,"humidity":59,"rain":0.0,"pressure":786.6,"uv_index":6.15,"wind_gusts":51.5,"aqi":53,"pm10":25.5,"pm2_5":10.3,"mosquito_risk":0,"arthritis_risk":5,"migraine_risk":7,"frizz_risk":0,"updated_at":"2026-04-03T15:28:34.653619+05:30"},{"city":"Manali","state":"Himachal Pradesh","latitude":32.2396,"longitude":77.1887,"temp":18.1,"humidity":68,"rain":0.0,"pressure":821.5,"uv_index":7.1,"wind_gusts":46.1,"aqi":63,"pm10":13.9,"pm2_5":6.2,"mosquito_risk":3,"arthritis_risk":5,"migraine_risk":7,"frizz_risk":0,"updated_at":"2026-04-03T15:28:34.653627+05:30"},{"city":"Gurgaon","state":"Haryana","latitude":28.4595,"longitude":77.0266,"temp":30.6,"humidity":38,"rain":0.0,"pressure":982.7,"uv_index":6.3,"wind_gusts":32.0,"aqi":688,"pm10":1039.4,"pm2_5":103.6,"mosquito_risk":0,"arthritis_risk":5,"migraine_risk":7,"frizz_risk":0,"updated_at":"2026-04-03T15:28:34.653634+05:30"},{"city":"Noida","state":"Uttar Pradesh","latitude":28.5355,"longitude":77.391,"temp":30.9,"humidity":40,"rain":0.0,"pressure":985.7,"uv_index":6.0,"wind_gusts":29.5,"aqi":688,"pm10":1039.4,"pm2_5":103.6,"mosquito_risk":0,"arthritis_risk":5,"migraine_risk":3,"frizz_risk":0,"updated_at":"2026-04-03T15:28:34.653641+05:30"},{"city":"Ghaziabad","state":"Uttar Pradesh","latitude":28.6692,"longitude":77.4538,"temp":30.3,"humidity":45,"rain":0.0,"pressure":984.0,"uv_index":5.85,"wind_gusts":30.6,"aqi":150,"pm10":382.8,"pm2_5":64.3,"mosquito_risk":0,"arthritis_risk":5,"migraine_risk":3,"frizz_risk":1,"updated_at":"2026-04-03T15:28:34.653647+05:30"},{"city":"Faridabad","state":"Haryana","latitude":28.4089,"longitude":77.3178,"temp":31.6,"humidity":35,"rain":0.0,"pressure":984.7,"uv_index":6.25,"wind_gusts":30.2,"aqi":688,"pm10":1039.4,"pm2_5":103.6,"mosquito_risk":0,"arthritis_risk":5,"migraine_risk":7,"frizz_risk":0,"updated_at":"2026-04-03T15:28:34.653653+05:30"},{"city":"Meerut","state":"Uttar Pradesh","latitude":28.9845,"longitude":77.7064,"temp":30.3,"humidity":51,"rain":0.0,"pressure":982.4,"uv_index":6.3,"wind_gusts":26.3,"aqi":150,"pm10":382.8,"pm2_5":64.3,"mosquito_risk":0,"arthritis_risk":5,"migraine_risk":7,"frizz_risk":1,"updated_at":"2026-04-03T15:28:34.653660+05:30"},{"city":"Agra","state":"Uttar Pradesh","latitude":27.1767,"longitude":78.0081,"temp":35.8,"humidity":25,"rain":0.0,"pressure":987.4,"uv_index":7.35,"wind_gusts":35.6,"aqi":377,"pm10":746.9,"pm2_5":72.4,"mosquito_risk":0,"arthritis_risk":5,"migraine_risk":10,"frizz_risk":0,"updated_at":"2026-04-03T15:28:34.653666+05:30"},{"city":"Varanasi","state":"Uttar Pradesh","latitude":25.3176,"longitude":82.9739,"temp":35.5,"humidity":34,"rain":0.0,"pressure":996.6,"uv_index":7.7,"wind_gusts":32.0,"aqi":91,"pm10":34.2,"pm2_5":22.1,"mosquito_risk":0,"arthritis_risk":5,"migraine_risk":10,"frizz_risk":1,"updated_at":"2026-04-03T15:28:34.653677+05:30"},{"city":"Prayagraj","state":"Uttar Pradesh","latitude":25.4358,"longitude":81.8463,"temp":35.5,"humidity":34,"rain":0.0,"pressure":995.4,"uv_index":7.25,"wind_gusts":36.7,"aqi":92,"pm10":28.3,"pm2_5":21.0,"mosquito_risk":0,"arthritis_risk":5,"migraine_risk":10,"frizz_risk":1,"updated_at":"2026-04-03T15:28:34.653684+05:30"},{"city":"Gorakhpur","state":"Uttar Pradesh","latitude":26.7606,"longitude":83.3732,"temp":36.7,"humidity":23,"rain":0.0,"pressure":995.6,"uv_index":7.1,"wind_gusts":39.6,"aqi":78,"pm10":24.0,"pm2_5":14.5,"mosquito_risk":0,"arthritis_risk":5,"migraine_risk":10,"frizz_risk":0,"updated_at":"2026-04-03T15:28:34.653690+05:30"},{"city":"Bareilly","state":"Uttar Pradesh","latitude":28.367,"longitude":79.4304,"temp":33.4,"humidity":34,"rain":0.0,"pressure":987.4,"uv_index":6.1,"wind_gusts":19.1,"aqi":69,"pm10":32.0,"pm2_5":14.8,"mosquito_risk":0,"arthritis_risk":5,"migraine_risk":7,"frizz_risk":0,"updated_at":"2026-04-03T15:28:34.653697+05:30"},{"city":"Aligarh","state":"Uttar Pradesh","latitude":27.8974,"longitude":78.088,"temp":32.6,"humidity":36,"rain":0.0,"pressure":986.1,"uv_index":7.0,"wind_gusts":28.1,"aqi":165,"pm10":923.9,"pm2_5":106.2,"mosquito_risk":0,"arthritis_risk":5,"migraine_risk":7,"frizz_risk":0,"updated_at":"2026-04-03T15:28:34.653703+05:30"},{"city":"Moradabad","state":"Uttar Pradesh","latitude":28.8386,"longitude":78.7733,"temp":31.7,"humidity":40,"rain":0.0,"pressure":984.4,"uv_index":6.25,"wind_gusts":20.5,"aqi":97,"pm10":81.0,"pm2_5":30.4,"mosquito_risk":0,"arthritis_risk":5,"migraine_risk":7,"frizz_risk":1,"updated_at":"2026-04-03T15:28:34.653711+05:30"},{"city":"Saharanpur","state":"Uttar Pradesh","latitude":29.9637,"longitude":77.546,"temp":28.4,"humidity":54,"rain":0.0,"pressure":976.7,"uv_index":6.55,"wind_gusts":29.9,"aqi":91,"pm10":258.0,"pm2_5":61.0,"mosquito_risk":4,"arthritis_risk":5,"migraine_risk":7,"frizz_risk":1,"updated_at":"2026-04-03T15:28:34.653718+05:30"},{"city":"Jhansi","state":"Uttar Pradesh","latitude":25.4484,"longitude":78.5685,"temp":35.6,"humidity":27,"rain":0.0,"pressure":977.3,"uv_index":7.8,"wind_gusts":40.3,"aqi":61,"pm10":44.8,"pm2_5":16.4,"mosquito_risk":0,"arthritis_risk":5,"migraine_risk":10,"frizz_risk":0,"updated_at":"2026-04-03T15:28:38.015014+05:30"},{"city":"Surat","state":"Gujarat","latitude":21.1702,"longitude":72.8311,"temp":30.7,"humidity":56,"rain":0.0,"pressure":1007.5,"uv_index":7.65,"wind_gusts":30.6,"aqi":98,"pm10":57.6,"pm2_5":36.6,"mosquito_risk":0,"arthritis_risk":5,"migraine_risk":4,"frizz_risk":1,"updated_at":"2026-04-03T15:28:38.015045+05:30"},{"city":"Vadodara","state":"Gujarat","latitude":22.3072,"longitude":73.1812,"temp":34.1,"humidity":31,"rain":0.0,"pressure":1004.5,"uv_index":7.85,"wind_gusts":33.1,"aqi":78,"pm10":46.8,"pm2_5":21.5,"mosquito_risk":0,"arthritis_risk":5,"migraine_risk":4,"frizz_risk":0,"updated_at":"2026-04-03T15:28:38.015059+05:30"},{"city":"Rajkot","state":"Gujarat","latitude":22.3039,"longitude":70.8022,"temp":28.1,"humidity":59,"rain":0.0,"pressure":996.0,"uv_index":7.25,"wind_gusts":45.4,"aqi":66,"pm10":52.9,"pm2_5":13.6,"mosquito_risk":4,"arthritis_risk":5,"migraine_risk":7,"frizz_risk":1,"updated_at":"2026-04-03T15:28:38.015067+05:30"},{"city":"Thane","state":"Maharashtra","latitude":19.2183,"longitude":72.9781,"temp":30.7,"humidity":59,"rain":0.0,"pressure":1008.6,"uv_index":7.7,"wind_gusts":37.1,"aqi":75,"pm10":55.3,"pm2_5":24.8,"mosquito_risk":0,"arthritis_risk":0,"migraine_risk":4,"frizz_risk":1,"updated_at":"2026-04-03T15:28:38.015074+05:30"},{"city":"Nagpur","state":"Maharashtra","latitude":21.1458,"longitude":79.0882,"temp":35.6,"humidity":36,"rain":0.0,"pressure":972.5,"uv_index":8.7,"wind_gusts":23.4,"aqi":91,"pm10":33.5,"pm2_5":27.9,"mosquito_risk":0,"arthritis_risk":5,"migraine_risk":10,"frizz_risk":1,"updated_at":"2026-04-03T15:28:38.015082+05:30"},{"city":"Nashik","state":"Maharashtra","latitude":19.9975,"longitude":73.7898,"temp":32.0,"humidity":33,"rain":0.0,"pressure":946.0,"uv_index":8.15,"wind_gusts":40.0,"aqi":71,"pm10":22.2,"pm2_5":10.6,"mosquito_risk":0,"arthritis_risk":5,"migraine_risk":7,"frizz_risk":0,"updated_at":"2026-04-03T15:28:38.015089+05:30"},{"city":"Aurangabad","state":"Maharashtra","latitude":19.8762,"longitude":75.3433,"temp":34.0,"humidity":32,"rain":0.0,"pressure":944.1,"uv_index":8.75,"wind_gusts":29.5,"aqi":105,"pm10":41.7,"pm2_5":32.8,"mosquito_risk":0,"arthritis_risk":5,"migraine_risk":7,"frizz_risk":0,"updated_at":"2026-04-03T15:28:38.015096+05:30"},{"city":"Solapur","state":"Maharashtra","latitude":17.6599,"longitude":75.9064,"temp":37.0,"humidity":25,"rain":0.0,"pressure":956.0,"uv_index":8.95,"wind_gusts":50.8,"aqi":102,"pm10":27.4,"pm2_5":21.8,"mosquito_risk":0,"arthritis_risk":5,"migraine_risk":10,"frizz_risk":0,"updated_at":"2026-04-03T15:28:38.015103+05:30"},{"city":"Kolhapur","state":"Maharashtra","latitude":16.705,"longitude":74.2433,"temp":31.3,"humidity":52,"rain":0.0,"pressure":948.1,"uv_index":8.95,"wind_gusts":34.6,"aqi":143,"pm10":35.4,"pm2_5":29.9,"mosquito_risk":0,"arthritis_risk":5,"migraine_risk":7,"frizz_risk":1,"updated_at":"2026-04-03T15:28:38.015109+05:30"},{"city":"Goa","state":"Goa","latitude":15.2993,"longitude":74.124,"temp":31.9,"humidity":64,"rain":0.0,"pressure":997.6,"uv_index":9.0,"wind_gusts":31.7,"aqi":76,"pm10":25.1,"pm2_5":21.3,"mosquito_risk":3,"arthritis_risk":5,"migraine_risk":7,"frizz_risk":1,"updated_at":"2026-04-03T15:28:38.015116+05:30"},{"city":"Jodhpur","state":"Rajasthan","latitude":26.2389,"longitude":73.0243,"temp":29.4,"humidity":33,"rain":0.0,"pressure":983.2,"uv_index":7.45,"wind_gusts":44.6,"aqi":134,"pm10":211.9,"pm2_5":28.1,"mosquito_risk":4,"arthritis_risk":5,"migraine_risk":7,"frizz_risk":0,"updated_at":"2026-04-03T15:28:38.015123+05:30"},{"city":"Udaipur","state":"Rajasthan","latitude":24.5854,"longitude":73.7125,"temp":28.2,"humidity":35,"rain":0.0,"pressure":946.9,"uv_index":7.95,"wind_gusts":54.7,"aqi":46,"pm10":50.2,"pm2_5":14.4,"mosquito_risk":4,"arthritis_risk":5,"migraine_risk":7,"frizz_risk":0,"updated_at":"2026-04-03T15:28:38.015129+05:30"},{"city":"Kota","state":"Rajasthan","latitude":25.2138,"longitude":75.8648,"temp":36.3,"humidity":20,"rain":0.0,"pressure":977.5,"uv_index":7.85,"wind_gusts":48.2,"aqi":59,"pm10":35.3,"pm2_5":15.8,"mosquito_risk":0,"arthritis_risk":5,"migraine_risk":10,"frizz_risk":0,"updated_at":"2026-04-03T15:28:38.015136+05:30"},{"city":"Bikaner","state":"Rajasthan","latitude":28.0229,"longitude":73.3119,"temp":24.5,"humidity":57,"rain":0.0,"pressure":983.6,"uv_index":7.25,"wind_gusts":54.7,"aqi":64,"pm10":51.6,"pm2_5":16.9,"mosquito_risk":0,"arthritis_risk":5,"migraine_risk":7,"frizz_risk":0,"updated_at":"2026-04-03T15:28:38.015143+05:30"},{"city":"Ajmer","state":"Rajasthan","latitude":26.4499,"longitude":74.6399,"temp":29.6,"humidity":36,"rain":0.0,"pressure":954.6,"uv_index":7.55,"wind_gusts":59.8,"aqi":75,"pm10":53.7,"pm2_5":16.1,"mosquito_risk":4,"arthritis_risk":5,"migraine_risk":7,"frizz_risk":0,"updated_at":"2026-04-03T15:28:38.015149+05:30"},{"city":"Gwalior","state":"Madhya Pradesh","latitude":26.2183,"longitude":78.1828,"temp":34.1,"humidity":32,"rain":0.0,"pressure":983.0,"uv_index":7.65,"wind_gusts":42.1,"aqi":63,"pm10":62.6,"pm2_5":19.0,"mosquito_risk":0,"arthritis_risk":5,"migraine_risk":7,"frizz_risk":0,"updated_at":"2026-04-03T15:28:38.015156+05:30"},{"city":"Indore","state":"Madhya Pradesh","latitude":22.7196,"longitude":75.8577,"temp":34.3,"humidity":22,"rain":0.0,"pressure":948.0,"uv_index":8.3,"wind_gusts":37.1,"aqi":86,"pm10":29.2,"pm2_5":22.5,"mosquito_risk":0,"arthritis_risk":5,"migraine_risk":7,"frizz_risk":0,"updated_at":"2026-04-03T15:28:38.015162+05:30"},{"city":"Bhopal","state":"Madhya Pradesh","latitude":23.2599,"longitude":77.4126,"temp":32.9,"humidity":39,"rain":0.0,"pressure":954.0,"uv_index":8.1,"wind_gusts":31.7,"aqi":75,"pm10":24.9,"pm2_5":20.4,"mosquito_risk":0,"arthritis_risk":5,"migraine_risk":7,"frizz_risk":1,"updated_at":"2026-04-03T15:28:38.015168+05:30"},{"city":"Jabalpur","state":"Madhya Pradesh","latitude":23.1815,"longitude":79.9864,"temp":35.5,"humidity":29,"rain":0.0,"pressure":961.2,"uv_index":7.65,"wind_gusts":22.3,"aqi":71,"pm10":24.8,"pm2_5":19.1,"mosquito_risk":0,"arthritis_risk":5,"migraine_risk":10,"frizz_risk":0,"updated_at":"2026-04-03T15:28:38.015174+05:30"},{"city":"Ujjain","state":"Madhya Pradesh","latitude":23.1765,"longitude":75.7885,"temp":34.0,"humidity":27,"rain":0.0,"pressure":953.6,"uv_index":8.2,"wind_gusts":36.0,"aqi":76,"pm10":27.0,"pm2_5":19.7,"mosquito_risk":0,"arthritis_risk":5,"migraine_risk":7,"frizz_risk":0,"updated_at":"2026-04-03T15:28:38.015181+05:30"},{"city":"Visakhapatnam","state":"Andhra Pradesh","latitude":17.6868,"longitude":83.2185,"temp":32.9,"humidity":56,"rain":0.0,"pressure":1002.3,"uv_index":8.95,"wind_gusts":41.8,"aqi":59,"pm10":25.3,"pm2_5":21.8,"mosquito_risk":0,"arthritis_risk":5,"migraine_risk":4,"frizz_risk":1,"updated_at":"2026-04-03T15:28:38.015187+05:30"},{"city":"Vijayawada","state":"Andhra Pradesh","latitude":16.5062,"longitude":80.648,"temp":36.8,"humidity":38,"rain":0.0,"pressure":1000.9,"uv_index":8.5,"wind_gusts":31.0,"aqi":52,"pm10":16.6,"pm2_5":12.6,"mosquito_risk":0,"arthritis_risk":5,"migraine_risk":7,"frizz_risk":1,"updated_at":"2026-04-03T15:28:38.015193+05:30"},{"city":"Guntur","state":"Andhra Pradesh","latitude":16.3067,"longitude":80.4365,"temp":37.0,"humidity":36,"rain":0.0,"pressure":1002.1,"uv_index":8.45,"wind_gusts":32.8,"aqi":48,"pm10":15.6,"pm2_5":11.2,"mosquito_risk":0,"arthritis_risk":5,"migraine_risk":7,"frizz_risk":1,"updated_at":"2026-04-03T15:28:38.015199+05:30"},{"city":"Nellore","state":"Andhra Pradesh","latitude":14.4426,"longitude":79.9865,"temp":35.6,"humidity":46,"rain":0.0,"pressure":1004.5,"uv_index":9.25,"wind_gusts":34.2,"aqi":42,"pm10":15.4,"pm2_5":13.7,"mosquito_risk":0,"arthritis_risk":5,"migraine_risk":7,"frizz_risk":1,"updated_at":"2026-04-03T15:28:38.015206+05:30"},{"city":"Kurnool","state":"Andhra Pradesh","latitude":15.8281,"longitude":78.0373,"temp":38.5,"humidity":23,"rain":0.0,"pressure":975.1,"uv_index":8.75,"wind_gusts":20.5,"aqi":53,"pm10":22.0,"pm2_5":15.8,"mosquito_risk":0,"arthritis_risk":5,"migraine_risk":10,"frizz_risk":0,"updated_at":"2026-04-03T15:28:38.015213+05:30"},{"city":"Kakinada","state":"Andhra Pradesh","latitude":16.9891,"longitude":82.2475,"temp":37.0,"humidity":42,"rain":0.0,"pressure":1005.5,"uv_index":8.85,"wind_gusts":39.6,"aqi":41,"pm10":10.3,"pm2_5":7.5,"mosquito_risk":0,"arthritis_risk":5,"migraine_risk":7,"frizz_risk":1,"updated_at":"2026-04-03T15:28:38.015220+05:30"},{"city":"Tirupati","state":"Andhra Pradesh","latitude":13.6288,"longitude":79.4192,"temp":36.4,"humidity":32,"rain":0.0,"pressure":989.6,"uv_index":9.35,"wind_gusts":31.7,"aqi":54,"pm10":13.4,"pm2_5":10.5,"mosquito_risk":0,"arthritis_risk":5,"migraine_risk":10,"frizz_risk":1,"updated_at":"2026-04-03T15:28:38.015226+05:30"},{"city":"Warangal","state":"Telangana","latitude":17.9689,"longitude":79.5941,"temp":36.5,"humidity":35,"rain":0.0,"pressure":977.6,"uv_index":8.75,"wind_gusts":17.6,"aqi":75,"pm10":29.5,"pm2_5":22.3,"mosquito_risk":0,"arthritis_risk":5,"migraine_risk":10,"frizz_risk":1,"updated_at":"2026-04-03T15:28:38.015232+05:30"},{"city":"Nizamabad","state":"Telangana","latitude":18.6725,"longitude":78.0941,"temp":35.7,"humidity":32,"rain":0.0,"pressure":963.9,"uv_index":8.55,"wind_gusts":25.9,"aqi":115,"pm10":34.9,"pm2_5":27.0,"mosquito_risk":0,"arthritis_risk":5,"migraine_risk":10,"frizz_risk":1,"updated_at":"2026-04-03T15:28:38.015238+05:30"},{"city":"Mysore","state":"Karnataka","latitude":12.2958,"longitude":76.6396,"temp":34.2,"humidity":30,"rain":0.0,"pressure":927.6,"uv_index":9.5,"wind_gusts":45.7,"aqi":99,"pm10":21.0,"pm2_5":17.7,"mosquito_risk":0,"arthritis_risk":5,"migraine_risk":7,"frizz_risk":0,"updated_at":"2026-04-03T15:28:38.015244+05:30"},{"city":"Mangalore","state":"Karnataka","latitude":12.9141,"longitude":74.856,"temp":29.4,"humidity":81,"rain":0.0,"pressure":1005.6,"uv_index":9.15,"wind_gusts":24.5,"aqi":72,"pm10":27.0,"pm2_5":21.7,"mosquito_risk":7,"arthritis_risk":5,"migraine_risk":4,"frizz_risk":1,"updated_at":"2026-04-03T15:28:38.015251+05:30"},{"city":"Hubli-Dharwad","state":"Karnataka","latitude":15.3647,"longitude":75.124,"temp":33.7,"humidity":37,"rain":0.0,"pressure":940.4,"uv_index":9.2,"wind_gusts":38.9,"aqi":104,"pm10":27.3,"pm2_5":22.1,"mosquito_risk":0,"arthritis_risk":5,"migraine_risk":7,"frizz_risk":1,"updated_at":"2026-04-03T15:28:38.015257+05:30"},{"city":"Belgaum","state":"Karnataka","latitude":15.8497,"longitude":74.4977,"temp":29.3,"humidity":61,"rain":0.0,"pressure":926.2,"uv_index":9.25,"wind_gusts":33.1,"aqi":111,"pm10":31.5,"pm2_5":26.1,"mosquito_risk":7,"arthritis_risk":5,"migraine_risk":7,"frizz_risk":1,"updated_at":"2026-04-03T15:28:41.333653+05:30"},{"city":"Coimbatore","state":"Tamil Nadu","latitude":11.0168,"longitude":76.9558,"temp":32.9,"humidity":48,"rain":0.0,"pressure":961.0,"uv_index":9.45,"wind_gusts":45.0,"aqi":91,"pm10":22.6,"pm2_5":19.7,"mosquito_risk":0,"arthritis_risk":5,"migraine_risk":7,"frizz_risk":1,"updated_at":"2026-04-03T15:28:41.333682+05:30"},{"city":"Madurai","state":"Tamil Nadu","latitude":9.9252,"longitude":78.1198,"temp":35.8,"humidity":39,"rain":0.0,"pressure":991.3,"uv_index":9.1,"wind_gusts":34.6,"aqi":52,"pm10":15.0,"pm2_5":13.7,"mosquito_risk":0,"arthritis_risk":5,"migraine_risk":10,"frizz_risk":1,"updated_at":"2026-04-03T15:28:41.333691+05:30"},{"city":"Trichy","state":"Tamil Nadu","latitude":10.7905,"longitude":78.7047,"temp":36.9,"humidity":37,"rain":0.0,"pressure":997.7,"uv_index":9.4,"wind_gusts":34.6,"aqi":57,"pm10":14.6,"pm2_5":13.2,"mosquito_risk":0,"arthritis_risk":5,"migraine_risk":10,"frizz_risk":1,"updated_at":"2026-04-03T15:28:41.333700+05:30"},{"city":"Salem","state":"Tamil Nadu","latitude":11.6643,"longitude":78.146,"temp":37.5,"humidity":30,"rain":0.0,"pressure":975.4,"uv_index":9.45,"wind_gusts":33.1,"aqi":63,"pm10":17.0,"pm2_5":15.0,"mosquito_risk":0,"arthritis_risk":5,"migraine_risk":10,"frizz_risk":1,"updated_at":"2026-04-03T15:28:41.333707+05:30"},{"city":"Tirunelveli","state":"Tamil Nadu","latitude":8.7139,"longitude":77.7567,"temp":32.6,"humidity":60,"rain":0.0,"pressure":1002.5,"uv_index":9.35,"wind_gusts":37.1,"aqi":61,"pm10":15.9,"pm2_5":14.0,"mosquito_risk":0,"arthritis_risk":5,"migraine_risk":4,"frizz_risk":1,"updated_at":"2026-04-03T15:28:41.333715+05:30"},{"city":"Vellore","state":"Tamil Nadu","latitude":12.9165,"longitude":79.1325,"temp":36.6,"humidity":30,"rain":0.0,"pressure":982.8,"uv_index":9.4,"wind_gusts":37.1,"aqi":66,"pm10":21.4,"pm2_5":17.9,"mosquito_risk":0,"arthritis_risk":5,"migraine_risk":10,"frizz_risk":1,"updated_at":"2026-04-03T15:28:41.333721+05:30"},{"city":"Erode","state":"Tamil Nadu","latitude":11.341,"longitude":77.7172,"temp":38.5,"humidity":27,"rain":0.0,"pressure":986.5,"uv_index":9.4,"wind_gusts":29.2,"aqi":49,"pm10":16.9,"pm2_5":15.0,"mosquito_risk":0,"arthritis_risk":5,"migraine_risk":10,"frizz_risk":1,"updated_at":"2026-04-03T15:28:41.333728+05:30"},{"city":"Kochi","state":"Kerala","latitude":9.9312,"longitude":76.2673,"temp":29.4,"humidity":77,"rain":0.0,"pressure":1007.5,"uv_index":9.2,"wind_gusts":24.1,"aqi":66,"pm10":16.7,"pm2_5":14.5,"mosquito_risk":7,"arthritis_risk":5,"migraine_risk":4,"frizz_risk":1,"updated_at":"2026-04-03T15:28:41.333734+05:30"},{"city":"Thiruvananthapuram","state":"Kerala","latitude":8.5241,"longitude":76.9366,"temp":29.5,"humidity":77,"rain":0.0,"pressure":1007.2,"uv_index":8.95,"wind_gusts":23.8,"aqi":70,"pm10":21.8,"pm2_5":18.3,"mosquito_risk":7,"arthritis_risk":5,"migraine_risk":4,"frizz_risk":1,"updated_at":"2026-04-03T15:28:41.333740+05:30"},{"city":"Kozhikode","state":"Kerala","latitude":11.2588,"longitude":75.7804,"temp":30.5,"humidity":75,"rain":0.0,"pressure":1006.7,"uv_index":9.15,"wind_gusts":25.2,"aqi":66,"pm10":14.1,"pm2_5":11.6,"mosquito_risk":3,"arthritis_risk":5,"migraine_risk":4,"frizz_risk":1,"updated_at":"2026-04-03T15:28:41.333747+05:30"},{"city":"Thrissur","state":"Kerala","latitude":10.5276,"longitude":76.2144,"temp":33.2,"humidity":60,"rain":0.0,"pressure":1006.0,"uv_index":9.2,"wind_gusts":30.2,"aqi":63,"pm10":18.1,"pm2_5":15.7,"mosquito_risk":0,"arthritis_risk":5,"migraine_risk":4,"frizz_risk":1,"updated_at":"2026-04-03T15:28:41.333754+05:30"},{"city":"Kannur","state":"Kerala","latitude":11.8745,"longitude":75.3704,"temp":31.6,"humidity":67,"rain":0.0,"pressure":1006.2,"uv_index":9.15,"wind_gusts":27.4,"aqi":72,"pm10":16.0,"pm2_5":13.2,"mosquito_risk":3,"arthritis_risk":5,"migraine_risk":4,"frizz_risk":1,"updated_at":"2026-04-03T15:28:41.333761+05:30"},{"city":"Patna","state":"Bihar","latitude":25.5941,"longitude":85.1376,"temp":38.4,"humidity":24,"rain":0.0,"pressure":997.9,"uv_index":8.3,"wind_gusts":36.4,"aqi":85,"pm10":32.0,"pm2_5":19.6,"mosquito_risk":0,"arthritis_risk":5,"migraine_risk":10,"frizz_risk":0,"updated_at":"2026-04-03T15:28:41.333767+05:30"},{"city":"Gaya","state":"Bihar","latitude":24.7914,"longitude":85.0002,"temp":37.8,"humidity":28,"rain":0.0,"pressure":991.7,"uv_index":8.4,"wind_gusts":27.0,"aqi":92,"pm10":29.5,"pm2_5":19.2,"mosquito_risk":0,"arthritis_risk":5,"migraine_risk":10,"frizz_risk":1,"updated_at":"2026-04-03T15:28:41.333774+05:30"},{"city":"Muzaffarpur","state":"Bihar","latitude":26.1209,"longitude":85.3647,"temp":38.9,"humidity":19,"rain":0.0,"pressure":997.4,"uv_index":8.25,"wind_gusts":39.2,"aqi":78,"pm10":28.1,"pm2_5":19.0,"mosquito_risk":0,"arthritis_risk":5,"migraine_risk":10,"frizz_risk":0,"updated_at":"2026-04-03T15:28:41.333780+05:30"},{"city":"Bhagalpur","state":"Bihar","latitude":25.2425,"longitude":87.0117,"temp":36.5,"humidity":31,"rain":0.0,"pressure":998.5,"uv_index":8.3,"wind_gusts":23.8,"aqi":102,"pm10":32.9,"pm2_5":19.3,"mosquito_risk":0,"arthritis_risk":5,"migraine_risk":10,"frizz_risk":1,"updated_at":"2026-04-03T15:28:41.333786+05:30"},{"city":"Ranchi","state":"Jharkhand","latitude":23.3441,"longitude":85.3096,"temp":35.2,"humidity":23,"rain":0.0,"pressure":937.5,"uv_index":8.95,"wind_gusts":26.6,"aqi":118,"pm10":27.2,"pm2_5":20.2,"mosquito_risk":0,"arthritis_risk":5,"migraine_risk":10,"frizz_risk":0,"updated_at":"2026-04-03T15:28:41.333792+05:30"},{"city":"Jamshedpur","state":"Jharkhand","latitude":22.8046,"longitude":86.2029,"temp":38.0,"humidity":30,"rain":0.0,"pressure":988.5,"uv_index":8.8,"wind_gusts":23.4,"aqi":145,"pm10":32.9,"pm2_5":26.5,"mosquito_risk":0,"arthritis_risk":5,"migraine_risk":10,"frizz_risk":1,"updated_at":"2026-04-03T15:28:41.333799+05:30"},{"city":"Dhanbad","state":"Jharkhand","latitude":23.7957,"longitude":86.4304,"temp":39.2,"humidity":20,"rain":0.0,"pressure":977.3,"uv_index":8.7,"wind_gusts":21.6,"aqi":147,"pm10":38.2,"pm2_5":30.9,"mosquito_risk":0,"arthritis_risk":5,"migraine_risk":10,"frizz_risk":0,"updated_at":"2026-04-03T15:28:41.333805+05:30"},{"city":"Bokaro","state":"Jharkhand","latitude":23.6693,"longitude":86.1511,"temp":38.5,"humidity":20,"rain":0.0,"pressure":981.4,"uv_index":8.7,"wind_gusts":19.8,"aqi":147,"pm10":34.8,"pm2_5":28.1,"mosquito_risk":0,"arthritis_risk":5,"migraine_risk":10,"frizz_risk":0,"updated_at":"2026-04-03T15:28:41.333811+05:30"},{"city":"Bhubaneswar","state":"Odisha","latitude":20.2961,"longitude":85.8245,"temp":34.1,"humidity":56,"rain":0.0,"pressure":1000.9,"uv_index":8.95,"wind_gusts":30.2,"aqi":54,"pm10":33.2,"pm2_5":24.6,"mosquito_risk":0,"arthritis_risk":5,"migraine_risk":4,"frizz_risk":1,"updated_at":"2026-04-03T15:28:41.333817+05:30"},{"city":"Cuttack","state":"Odisha","latitude":20.4625,"longitude":85.8828,"temp":39.1,"humidity":30,"rain":0.0,"pressure":1001.8,"uv_index":9.0,"wind_gusts":37.8,"aqi":54,"pm10":33.2,"pm2_5":24.6,"mosquito_risk":0,"arthritis_risk":5,"migraine_risk":7,"frizz_risk":1,"updated_at":"2026-04-03T15:28:41.333824+05:30"},{"city":"Rourkela","state":"Odisha","latitude":22.2604,"longitude":84.8536,"temp":38.6,"humidity":25,"rain":0.0,"pressure":983.2,"uv_index":8.7,"wind_gusts":26.6,"aqi":154,"pm10":40.2,"pm2_5":33.3,"mosquito_risk":0,"arthritis_risk":5,"migraine_risk":10,"frizz_risk":0,"updated_at":"2026-04-03T15:28:41.333830+05:30"},{"city":"Raipur","state":"Chhattisgarh","latitude":21.2514,"longitude":81.6296,"temp":37.2,"humidity":31,"rain":0.0,"pressure":973.6,"uv_index":8.8,"wind_gusts":26.3,"aqi":146,"pm10":34.6,"pm2_5":28.9,"mosquito_risk":0,"arthritis_risk":5,"migraine_risk":10,"frizz_risk":1,"updated_at":"2026-04-03T15:28:41.333836+05:30"},{"city":"Bhilai","state":"Chhattisgarh","latitude":21.1938,"longitude":81.3509,"temp":37.2,"humidity":31,"rain":0.0,"pressure":973.8,"uv_index":8.8,"wind_gusts":27.7,"aqi":123,"pm10":31.0,"pm2_5":25.1,"mosquito_risk":0,"arthritis_risk":5,"migraine_risk":10,"frizz_risk":1,"updated_at":"2026-04-03T15:28:41.333842+05:30"},{"city":"Guwahati","state":"Assam","latitude":26.1158,"longitude":91.7086,"temp":29.7,"humidity":68,"rain":0.0,"pressure":999.7,"uv_index":8.25,"wind_gusts":43.6,"aqi":125,"pm10":47.5,"pm2_5":38.6,"mosquito_risk":7,"arthritis_risk":5,"migraine_risk":7,"frizz_risk":1,"updated_at":"2026-04-03T15:28:41.333848+05:30"},{"city":"Agartala","state":"Tripura","latitude":23.8315,"longitude":91.2868,"temp":33.6,"humidity":59,"rain":0.0,"pressure":1004.0,"uv_index":8.45,"wind_gusts":23.8,"aqi":77,"pm10":36.2,"pm2_5":28.9,"mosquito_risk":0,"arthritis_risk":5,"migraine_risk":4,"frizz_risk":1,"updated_at":"2026-04-03T15:28:41.333855+05:30"},{"city":"Shillong","state":"Meghalaya","latitude":25.5788,"longitude":91.8933,"temp":20.9,"humidity":56,"rain":0.0,"pressure":856.9,"uv_index":8.55,"wind_gusts":55.1,"aqi":116,"pm10":36.3,"pm2_5":28.2,"mosquito_risk":0,"arthritis_risk":5,"migraine_risk":7,"frizz_risk":0,"updated_at":"2026-04-03T15:28:41.333861+05:30"},{"city":"Imphal","state":"Manipur","latitude":24.817,"longitude":93.9368,"temp":23.2,"humidity":67,"rain":0.0,"pressure":922.8,"uv_index":8.85,"wind_gusts":60.8,"aqi":107,"pm10":33.8,"pm2_5":24.7,"mosquito_risk":3,"arthritis_risk":5,"migraine_risk":7,"frizz_risk":1,"updated_at":"2026-04-03T15:28:41.333890+05:30"},{"city":"Aizawl","state":"Mizoram","latitude":23.7271,"longitude":92.7176,"temp":27.1,"humidity":54,"rain":0.0,"pressure":893.5,"uv_index":8.7,"wind_gusts":52.9,"aqi":111,"pm10":36.7,"pm2_5":25.6,"mosquito_risk":4,"arthritis_risk":5,"migraine_risk":7,"frizz_risk":1,"updated_at":"2026-04-03T15:28:41.333898+05:30"},{"city":"Kohima","state":"Nagaland","latitude":25.6701,"longitude":94.1077,"temp":20.4,"humidity":68,"rain":0.0,"pressure":855.4,"uv_index":8.75,"wind_gusts":80.3,"aqi":103,"pm10":37.5,"pm2_5":27.4,"mosquito_risk":3,"arthritis_risk":5,"migraine_risk":7,"frizz_risk":0,"updated_at":"2026-04-03T15:28:41.333904+05:30"},{"city":"Gangtok","state":"Sikkim","latitude":27.3314,"longitude":88.6138,"temp":20.9,"humidity":71,"rain":0.0,"pressure":838.1,"uv_index":7.55,"wind_gusts":19.1,"aqi":102,"pm10":41.0,"pm2_5":32.9,"mosquito_risk":3,"arthritis_risk":5,"migraine_risk":7,"frizz_risk":0,"updated_at":"2026-04-03T15:28:41.333910+05:30"},{"city":"Siliguri","state":"West Bengal","latitude":26.7271,"longitude":88.3953,"temp":27.7,"humidity":59,"rain":0.0,"pressure":991.9,"uv_index":8.25,"wind_gusts":18.7,"aqi":144,"pm10":55.3,"pm2_5":43.1,"mosquito_risk":4,"arthritis_risk":5,"migraine_risk":7,"frizz_risk":1,"updated_at":"2026-04-03T15:28:44.659703+05:30"},{"city":"Durgapur","state":"West Bengal","latitude":23.5204,"longitude":87.3119,"temp":39.0,"humidity":24,"rain":0.0,"pressure":992.2,"uv_index":8.65,"wind_gusts":17.3,"aqi":154,"pm10":40.6,"pm2_5":32.7,"mosquito_risk":0,"arthritis_risk":5,"migraine_risk":10,"frizz_risk":0,"updated_at":"2026-04-03T15:28:44.659733+05:30"},{"city":"Asansol","state":"West Bengal","latitude":23.6739,"longitude":86.9524,"temp":38.5,"humidity":26,"rain":0.0,"pressure":990.9,"uv_index":8.65,"wind_gusts":16.9,"aqi":127,"pm10":39.6,"pm2_5":31.8,"mosquito_risk":0,"arthritis_risk":5,"migraine_risk":10,"frizz_risk":0,"updated_at":"2026-04-03T15:28:44.659744+05:30"},{"city":"Pondicherry","state":"Puducherry","latitude":11.9139,"longitude":79.8145,"temp":35.2,"humidity":48,"rain":0.0,"pressure":1006.7,"uv_index":9.3,"wind_gusts":34.6,"aqi":43,"pm10":19.8,"pm2_5":16.2,"mosquito_risk":0,"arthritis_risk":5,"migraine_risk":7,"frizz_risk":1,"updated_at":"2026-04-03T15:28:44.659752+05:30"},{"city":"Port Blair","state":"Andaman and Nicobar Islands","latitude":11.6234,"longitude":92.7265,"temp":28.6,"humidity":77,"rain":0.0,"pressure":1006.2,"uv_index":9.2,"wind_gusts":22.7,"aqi":41,"pm10":17.3,"pm2_5":9.0,"mosquito_risk":7,"arthritis_risk":5,"migraine_risk":4,"frizz_risk":1,"updated_at":"2026-04-03T15:28:44.659760+05:30"},{"city":"Haridwar","state":"Uttarakhand","latitude":29.9457,"longitude":78.1642,"temp":30.3,"humidity":39,"rain":0.0,"pressure":975.3,"uv_index":6.4,"wind_gusts":22.0,"aqi":58,"pm10":52.9,"pm2_5":19.9,"mosquito_risk":0,"arthritis_risk":5,"migraine_risk":7,"frizz_risk":0,"updated_at":"2026-04-03T15:28:44.659767+05:30"},{"city":"Rishikesh","state":"Uttarakhand","latitude":30.0869,"longitude":78.2676,"temp":30.8,"humidity":36,"rain":0.0,"pressure":968.1,"uv_index":5.85,"wind_gusts":23.8,"aqi":43,"pm10":24.2,"pm2_5":9.0,"mosquito_risk":0,"arthritis_risk":5,"migraine_risk":3,"frizz_risk":0,"updated_at":"2026-04-03T15:28:44.659775+05:30"},{"city":"Nainital","state":"Uttarakhand","latitude":29.3919,"longitude":79.4542,"temp":24.0,"humidity":44,"rain":0.0,"pressure":809.6,"uv_index":4.8,"wind_gusts":36.4,"aqi":50,"pm10":19.2,"pm2_5":7.7,"mosquito_risk":0,"arthritis_risk":5,"migraine_risk":3,"frizz_risk":0,"updated_at":"2026-04-03T15:28:44.659782+05:30"},{"city":"Mussoorie","state":"Uttarakhand","latitude":30.4599,"longitude":78.0664,"temp":21.7,"humidity":51,"rain":0.0,"pressure":805.9,"uv_index":5.3,"wind_gusts":45.4,"aqi":53,"pm10":31.0,"pm2_5":11.0,"mosquito_risk":0,"arthritis_risk":5,"migraine_risk":3,"frizz_risk":0,"updated_at":"2026-04-03T15:28:44.659789+05:30"},{"city":"Dharamshala","state":"Himachal Pradesh","latitude":32.219,"longitude":76.3234,"temp":21.6,"humidity":71,"rain":0.0,"pressure":869.7,"uv_index":5.1,"wind_gusts":51.5,"aqi":49,"pm10":21.1,"pm2_5":12.6,"mosquito_risk":3,"arthritis_risk":5,"migraine_risk":3,"frizz_risk":1,"updated_at":"2026-04-03T15:28:44.659795+05:30"},{"city":"Dalhousie","state":"Himachal Pradesh","latitude":32.5387,"longitude":75.971,"temp":19.8,"humidity":51,"rain":0.0,"pressure":804.8,"uv_index":5.85,"wind_gusts":50.4,"aqi":57,"pm10":41.9,"pm2_5":17.8,"mosquito_risk":0,"arthritis_risk":5,"migraine_risk":3,"frizz_risk":0,"updated_at":"2026-04-03T15:28:44.659803+05:30"},{"city":"Patiala","state":"Punjab","latitude":30.3398,"longitude":76.3869,"temp":27.6,"humidity":50,"rain":0.0,"pressure":979.1,"uv_index":6.25,"wind_gusts":42.8,"aqi":188,"pm10":525.3,"pm2_5":65.7,"mosquito_risk":4,"arthritis_risk":5,"migraine_risk":7,"frizz_risk":1,"updated_at":"2026-04-03T15:28:44.659809+05:30"},{"city":"Bhatinda","state":"Punjab","latitude":30.211,"longitude":74.9455,"temp":22.2,"humidity":78,"rain":0.0,"pressure":985.5,"uv_index":5.45,"wind_gusts":44.6,"aqi":83,"pm10":71.2,"pm2_5":22.6,"mosquito_risk":3,"arthritis_risk":5,"migraine_risk":3,"frizz_risk":1,"updated_at":"2026-04-03T15:28:44.659815+05:30"},{"city":"Rohtak","state":"Haryana","latitude":28.8955,"longitude":76.6066,"temp":28.2,"humidity":48,"rain":0.0,"pressure":983.5,"uv_index":5.9,"wind_gusts":31.7,"aqi":195,"pm10":445.2,"pm2_5":48.1,"mosquito_risk":4,"arthritis_risk":5,"migraine_risk":3,"frizz_risk":1,"updated_at":"2026-04-03T15:28:44.659821+05:30"},{"city":"Panipat","state":"Haryana","latitude":29.3909,"longitude":76.9635,"temp":29.2,"humidity":47,"rain":0.0,"pressure":981.6,"uv_index":5.9,"wind_gusts":43.9,"aqi":349,"pm10":810.3,"pm2_5":80.3,"mosquito_risk":4,"arthritis_risk":5,"migraine_risk":3,"frizz_risk":1,"updated_at":"2026-04-03T15:28:44.659828+05:30"},{"city":"Mathura","state":"Uttar Pradesh","latitude":27.4924,"longitude":77.6737,"temp":34.2,"humidity":27,"rain":0.0,"pressure":987.1,"uv_index":7.25,"wind_gusts":31.7,"aqi":458,"pm10":659.4,"pm2_5":70.3,"mosquito_risk":0,"arthritis_risk":5,"migraine_risk":7,"frizz_risk":0,"updated_at":"2026-04-03T15:28:44.659834+05:30"},{"city":"Vrindavan","state":"Uttar Pradesh","latitude":27.5823,"longitude":77.7027,"temp":34.1,"humidity":28,"rain":0.0,"pressure":987.5,"uv_index":7.2,"wind_gusts":34.9,"aqi":458,"pm10":659.4,"pm2_5":70.3,"mosquito_risk":0,"arthritis_risk":5,"migraine_risk":7,"frizz_risk":0,"updated_at":"2026-04-03T15:28:44.659840+05:30"},{"city":"Ayodhya","state":"Uttar Pradesh","latitude":26.7922,"longitude":82.1998,"temp":34.9,"humidity":31,"rain":0.0,"pressure":994.7,"uv_index":6.85,"wind_gusts":36.0,"aqi":65,"pm10":30.0,"pm2_5":15.9,"mosquito_risk":0,"arthritis_risk":5,"migraine_risk":7,"frizz_risk":0,"updated_at":"2026-04-03T15:28:44.659847+05:30"},{"city":"Ratlam","state":"Madhya Pradesh","latitude":23.3315,"longitude":75.0367,"temp":32.2,"humidity":35,"rain":0.0,"pressure":954.8,"uv_index":8.15,"wind_gusts":42.8,"aqi":71,"pm10":23.7,"pm2_5":15.5,"mosquito_risk":0,"arthritis_risk":5,"migraine_risk":7,"frizz_risk":0,"updated_at":"2026-04-03T15:28:44.659854+05:30"},{"city":"Sagar","state":"Madhya Pradesh","latitude":23.8388,"longitude":78.7378,"temp":35.0,"humidity":29,"rain":0.0,"pressure":950.2,"uv_index":7.35,"wind_gusts":26.6,"aqi":74,"pm10":19.6,"pm2_5":15.3,"mosquito_risk":0,"arthritis_risk":5,"migraine_risk":7,"frizz_risk":0,"updated_at":"2026-04-03T15:28:44.659860+05:30"},{"city":"Satna","state":"Madhya Pradesh","latitude":24.6005,"longitude":80.8322,"temp":34.8,"humidity":31,"rain":0.0,"pressure":971.7,"uv_index":7.2,"wind_gusts":36.0,"aqi":66,"pm10":21.1,"pm2_5":16.8,"mosquito_risk":0,"arthritis_risk":5,"migraine_risk":7,"frizz_risk":0,"updated_at":"2026-04-03T15:28:44.659890+05:30"},{"city":"Akola","state":"Maharashtra","latitude":20.7002,"longitude":77.0082,"temp":36.8,"humidity":29,"rain":0.0,"pressure":974.3,"uv_index":8.6,"wind_gusts":31.3,"aqi":88,"pm10":43.0,"pm2_5":35.6,"mosquito_risk":0,"arthritis_risk":5,"migraine_risk":10,"frizz_risk":0,"updated_at":"2026-04-03T15:28:44.659899+05:30"},{"city":"Amravati","state":"Maharashtra","latitude":20.9374,"longitude":77.7796,"temp":36.5,"humidity":32,"rain":0.0,"pressure":966.7,"uv_index":8.65,"wind_gusts":43.6,"aqi":82,"pm10":40.4,"pm2_5":32.5,"mosquito_risk":0,"arthritis_risk":5,"migraine_risk":10,"frizz_risk":1,"updated_at":"2026-04-03T15:28:44.659906+05:30"},{"city":"Latur","state":"Maharashtra","latitude":18.4088,"longitude":76.5604,"temp":34.3,"humidity":29,"rain":0.0,"pressure":939.3,"uv_index":8.8,"wind_gusts":33.5,"aqi":103,"pm10":26.8,"pm2_5":20.7,"mosquito_risk":0,"arthritis_risk":5,"migraine_risk":7,"frizz_risk":0,"updated_at":"2026-04-03T15:28:44.659913+05:30"},{"city":"Nanded","state":"Maharashtra","latitude":19.1383,"longitude":77.3091,"temp":36.8,"humidity":30,"rain":0.0,"pressure":967.7,"uv_index":8.3,"wind_gusts":29.5,"aqi":101,"pm10":31.2,"pm2_5":24.1,"mosquito_risk":0,"arthritis_risk":5,"migraine_risk":10,"frizz_risk":1,"updated_at":"2026-04-03T15:28:44.659920+05:30"},{"city":"Gulbarga","state":"Karnataka","latitude":17.3297,"longitude":76.8343,"temp":37.8,"humidity":19,"rain":0.0,"pressure":957.5,"uv_index":8.6,"wind_gusts":36.7,"aqi":82,"pm10":21.9,"pm2_5":17.3,"mosquito_risk":0,"arthritis_risk":5,"migraine_risk":10,"frizz_risk":0,"updated_at":"2026-04-03T15:28:44.659926+05:30"},{"city":"Bidar","state":"Karnataka","latitude":17.9104,"longitude":77.5199,"temp":35.6,"humidity":23,"rain":0.0,"pressure":935.1,"uv_index":8.45,"wind_gusts":33.5,"aqi":93,"pm10":24.2,"pm2_5":17.7,"mosquito_risk":0,"arthritis_risk":5,"migraine_risk":10,"frizz_risk":0,"updated_at":"2026-04-03T15:28:44.659932+05:30"},{"city":"Hospet","state":"Karnataka","latitude":15.2689,"longitude":76.3909,"temp":36.2,"humidity":21,"rain":0.0,"pressure":954.8,"uv_index":9.2,"wind_gusts":36.4,"aqi":82,"pm10":19.4,"pm2_5":15.8,"mosquito_risk":0,"arthritis_risk":5,"migraine_risk":10,"frizz_risk":0,"updated_at":"2026-04-03T15:28:44.659938+05:30"},{"city":"Tirupur","state":"Tamil Nadu","latitude":11.1085,"longitude":77.3411,"temp":37.3,"humidity":28,"rain":0.0,"pressure":973.3,"uv_index":9.5,"wind_gusts":43.6,"aqi":70,"pm10":21.9,"pm2_5":19.5,"mosquito_risk":0,"arthritis_risk":5,"migraine_risk":10,"frizz_risk":0,"updated_at":"2026-04-03T15:28:44.659944+05:30"},{"city":"Alappuzha","state":"Kerala","latitude":9.4981,"longitude":76.3388,"temp":29.3,"humidity":78,"rain":0.0,"pressure":1007.7,"uv_index":9.2,"wind_gusts":23.0,"aqi":65,"pm10":20.0,"pm2_5":17.3,"mosquito_risk":7,"arthritis_risk":5,"migraine_risk":4,"frizz_risk":1,"updated_at":"2026-04-03T15:28:44.659950+05:30"},{"city":"Munnar","state":"Kerala","latitude":10.0889,"longitude":77.0595,"temp":26.2,"humidity":72,"rain":0.0,"pressure":858.0,"uv_index":8.0,"wind_gusts":29.2,"aqi":68,"pm10":13.8,"pm2_5":12.7,"mosquito_risk":7,"arthritis_risk":5,"migraine_risk":7,"frizz_risk":1,"updated_at":"2026-04-03T15:28:44.659957+05:30"},{"city":"Silchar","state":"Assam","latitude":24.8333,"longitude":92.7789,"temp":31.0,"humidity":63,"rain":0.0,"pressure":1003.4,"uv_index":8.5,"wind_gusts":29.2,"aqi":142,"pm10":48.2,"pm2_5":36.6,"mosquito_risk":3,"arthritis_risk":5,"migraine_risk":4,"frizz_risk":1,"updated_at":"2026-04-03T15:28:44.659964+05:30"},{"city":"Dibrugarh","state":"Assam","latitude":27.4728,"longitude":94.912,"temp":26.9,"humidity":70,"rain":0.0,"pressure":994.5,"uv_index":8.3,"wind_gusts":12.6,"aqi":96,"pm10":27.3,"pm2_5":22.3,"mosquito_risk":7,"arthritis_risk":5,"migraine_risk":7,"frizz_risk":1,"updated_at":"2026-04-03T15:28:44.659970+05:30"}]