[{"city":"Delhi","state":"Delhi","latitude":28.6139,"longitude":77.209,"temp":31.2,"humidity":56,"rain":0.0,"pressure":977.3,"uv_index":7.8,"wind_gusts":45.7,"aqi":169,"pm10":489.9,"pm2_5":122.0,"no2":54.4,"co":464.0,"o3":31.0,"so2":20.9,"mosquito_risk":0,"arthritis_risk":5,"migraine_risk":7,"frizz_risk":1,"updated_at":"2026-06-23T23:29:12.793280+05:30"},{"city":"Mumbai","state":"Maharashtra","latitude":19.076,"longitude":72.8777,"temp":25.9,"humidity":94,"rain":0.2,"pressure":1005.6,"uv_index":6.35,"wind_gusts":29.9,"aqi":34,"pm10":21.2,"pm2_5":10.7,"no2":11.2,"co":780.0,"o3":44.0,"so2":6.3,"mosquito_risk":10,"arthritis_risk":5,"migraine_risk":4,"frizz_risk":1,"updated_at":"2026-06-23T23:29:12.793327+05:30"},{"city":"Bangalore","state":"Karnataka","latitude":12.9716,"longitude":77.5946,"temp":21.1,"humidity":91,"rain":0.0,"pressure":912.3,"uv_index":8.15,"wind_gusts":52.2,"aqi":27,"pm10":6.0,"pm2_5":5.5,"no2":15.0,"co":391.0,"o3":36.0,"so2":4.4,"mosquito_risk":3,"arthritis_risk":5,"migraine_risk":7,"frizz_risk":1,"updated_at":"2026-06-23T23:29:12.793343+05:30"},{"city":"Hyderabad","state":"Telangana","latitude":17.385,"longitude":78.4867,"temp":27.5,"humidity":61,"rain":0.0,"pressure":951.6,"uv_index":8.75,"wind_gusts":42.8,"aqi":32,"pm10":6.9,"pm2_5":6.4,"no2":12.0,"co":304.0,"o3":42.0,"so2":4.9,"mosquito_risk":7,"arthritis_risk":5,"migraine_risk":7,"frizz_risk":1,"updated_at":"2026-06-23T23:29:12.793354+05:30"},{"city":"Chennai","state":"Tamil Nadu","latitude":13.0827,"longitude":80.2707,"temp":27.9,"humidity":84,"rain":0.0,"pressure":1006.5,"uv_index":8.35,"wind_gusts":37.1,"aqi":69,"pm10":16.4,"pm2_5":13.8,"no2":13.3,"co":319.0,"o3":86.0,"so2":8.2,"mosquito_risk":7,"arthritis_risk":5,"migraine_risk":4,"frizz_risk":1,"updated_at":"2026-06-23T23:29:12.793363+05:30"},{"city":"Kolkata","state":"West Bengal","latitude":22.5726,"longitude":88.3639,"temp":27.9,"humidity":94,"rain":0.0,"pressure":1000.9,"uv_index":8.8,"wind_gusts":32.0,"aqi":134,"pm10":70.3,"pm2_5":66.8,"no2":22.7,"co":852.0,"o3":74.0,"so2":15.5,"mosquito_risk":7,"arthritis_risk":5,"migraine_risk":4,"frizz_risk":1,"updated_at":"2026-06-23T23:29:12.793371+05:30"},{"city":"Pune","state":"Maharashtra","latitude":18.5204,"longitude":73.8567,"temp":22.8,"humidity":96,"rain":0.2,"pressure":944.9,"uv_index":7.1,"wind_gusts":45.0,"aqi":22,"pm10":7.7,"pm2_5":7.6,"no2":15.6,"co":232.0,"o3":29.0,"so2":7.9,"mosquito_risk":6,"arthritis_risk":5,"migraine_risk":7,"frizz_risk":1,"updated_at":"2026-06-23T23:29:12.793378+05:30"},{"city":"Ahmedabad","state":"Gujarat","latitude":23.0225,"longitude":72.5714,"temp":30.4,"humidity":74,"rain":0.0,"pressure":997.0,"uv_index":8.0,"wind_gusts":44.6,"aqi":71,"pm10":55.3,"pm2_5":26.4,"no2":10.5,"co":195.0,"o3":56.0,"so2":5.2,"mosquito_risk":3,"arthritis_risk":5,"migraine_risk":7,"frizz_risk":1,"updated_at":"2026-06-23T23:29:12.793385+05:30"},{"city":"Jaipur","state":"Rajasthan","latitude":26.9124,"longitude":75.7873,"temp":30.9,"humidity":50,"rain":0.0,"pressure":954.8,"uv_index":8.2,"wind_gusts":38.5,"aqi":146,"pm10":135.0,"pm2_5":64.3,"no2":49.0,"co":801.0,"o3":22.0,"so2":21.3,"mosquito_risk":0,"arthritis_risk":5,"migraine_risk":7,"frizz_risk":1,"updated_at":"2026-06-23T23:29:12.793392+05:30"},{"city":"Lucknow","state":"Uttar Pradesh","latitude":26.8467,"longitude":80.9462,"temp":34.2,"humidity":39,"rain":0.0,"pressure":987.6,"uv_index":8.25,"wind_gusts":39.2,"aqi":147,"pm10":210.9,"pm2_5":59.0,"no2":19.1,"co":364.0,"o3":77.0,"so2":9.3,"mosquito_risk":0,"arthritis_risk":5,"migraine_risk":7,"frizz_risk":1,"updated_at":"2026-06-23T23:29:12.793403+05:30"},{"city":"Kanpur","state":"Uttar Pradesh","latitude":26.4499,"longitude":80.3319,"temp":34.5,"humidity":37,"rain":0.0,"pressure":985.9,"uv_index":8.25,"wind_gusts":39.2,"aqi":182,"pm10":315.7,"pm2_5":73.3,"no2":26.8,"co":267.0,"o3":61.0,"so2":9.9,"mosquito_risk":0,"arthritis_risk":5,"migraine_risk":7,"frizz_risk":1,"updated_at":"2026-06-23T23:29:12.793410+05:30"},{"city":"Chandigarh","state":"Chandigarh","latitude":30.7333,"longitude":76.7794,"temp":27.6,"humidity":61,"rain":0.0,"pressure":962.8,"uv_index":7.8,"wind_gusts":34.6,"aqi":116,"pm10":68.5,"pm2_5":40.7,"no2":30.6,"co":1317.0,"o3":89.0,"so2":12.8,"mosquito_risk":7,"arthritis_risk":5,"migraine_risk":7,"frizz_risk":1,"updated_at":"2026-06-23T23:29:12.793418+05:30"},{"city":"Srinagar","state":"Jammu and Kashmir","latitude":34.0837,"longitude":74.7973,"temp":17.2,"humidity":90,"rain":0.0,"pressure":835.8,"uv_index":9.1,"wind_gusts":19.4,"aqi":79,"pm10":48.5,"pm2_5":46.7,"no2":40.9,"co":982.0,"o3":13.0,"so2":2.0,"mosquito_risk":3,"arthritis_risk":10,"migraine_risk":7,"frizz_risk":0,"updated_at":"2026-06-23T23:29:12.793426+05:30"},{"city":"Jammu","state":"Jammu and Kashmir","latitude":32.7266,"longitude":74.857,"temp":32.0,"humidity":39,"rain":0.0,"pressure":966.0,"uv_index":8.65,"wind_gusts":36.7,"aqi":76,"pm10":40.2,"pm2_5":38.5,"no2":53.7,"co":652.0,"o3":29.0,"so2":5.9,"mosquito_risk":0,"arthritis_risk":5,"migraine_risk":7,"frizz_risk":1,"updated_at":"2026-06-23T23:29:12.793432+05:30"},{"city":"Amritsar","state":"Punjab","latitude":31.634,"longitude":74.8723,"temp":29.8,"humidity":60,"rain":0.0,"pressure":973.6,"uv_index":8.5,"wind_gusts":27.0,"aqi":134,"pm10":74.5,"pm2_5":54.0,"no2":35.4,"co":378.0,"o3":66.0,"so2":12.0,"mosquito_risk":4,"arthritis_risk":5,"migraine_risk":7,"frizz_risk":1,"updated_at":"2026-06-23T23:29:12.793439+05:30"},{"city":"Ludhiana","state":"Punjab","latitude":30.901,"longitude":75.8573,"temp":31.1,"humidity":56,"rain":0.0,"pressure":972.1,"uv_index":8.05,"wind_gusts":34.2,"aqi":116,"pm10":102.2,"pm2_5":53.2,"no2":25.8,"co":768.0,"o3":72.0,"so2":9.6,"mosquito_risk":0,"arthritis_risk":5,"migraine_risk":7,"frizz_risk":1,"updated_at":"2026-06-23T23:29:12.793445+05:30"},{"city":"Jalandhar","state":"Punjab","latitude":31.326,"longitude":75.5762,"temp":30.7,"humidity":56,"rain":0.0,"pressure":972.9,"uv_index":8.25,"wind_gusts":35.3,"aqi":123,"pm10":82.9,"pm2_5":50.3,"no2":22.8,"co":685.0,"o3":79.0,"so2":7.2,"mosquito_risk":0,"arthritis_risk":5,"migraine_risk":7,"frizz_risk":1,"updated_at":"2026-06-23T23:29:12.793452+05:30"},{"city":"Dehradun","state":"Uttarakhand","latitude":30.6284,"longitude":78.0322,"temp":15.7,"humidity":100,"rain":0.0,"pressure":826.4,"uv_index":7.7,"wind_gusts":35.3,"aqi":86,"pm10":21.5,"pm2_5":17.1,"no2":22.8,"co":242.0,"o3":77.0,"so2":1.0,"mosquito_risk":3,"arthritis_risk":10,"migraine_risk":7,"frizz_risk":0,"updated_at":"2026-06-23T23:29:12.793458+05:30"},{"city":"Shimla","state":"Himachal Pradesh","latitude":31.1048,"longitude":77.1734,"temp":13.7,"humidity":81,"rain":0.0,"pressure":780.4,"uv_index":8.35,"wind_gusts":40.7,"aqi":91,"pm10":23.2,"pm2_5":20.2,"no2":24.2,"co":408.0,"o3":84.0,"so2":4.5,"mosquito_risk":3,"arthritis_risk":10,"migraine_risk":7,"frizz_risk":0,"updated_at":"2026-06-23T23:29:12.793468+05:30"},{"city":"Manali","state":"Himachal Pradesh","latitude":32.2396,"longitude":77.1887,"temp":14.3,"humidity":87,"rain":0.0,"pressure":814.3,"uv_index":9.75,"wind_gusts":34.6,"aqi":47,"pm10":9.4,"pm2_5":9.1,"no2":95.6,"co":345.0,"o3":17.0,"so2":0.1,"mosquito_risk":3,"arthritis_risk":10,"migraine_risk":7,"frizz_risk":0,"updated_at":"2026-06-23T23:29:12.793476+05:30"},{"city":"Gurgaon","state":"Haryana","latitude":28.4595,"longitude":77.0266,"temp":29.2,"humidity":61,"rain":0.0,"pressure":975.7,"uv_index":7.85,"wind_gusts":46.8,"aqi":388,"pm10":1173.5,"pm2_5":206.8,"no2":43.0,"co":476.0,"o3":37.0,"so2":14.6,"mosquito_risk":7,"arthritis_risk":5,"migraine_risk":7,"frizz_risk":1,"updated_at":"2026-06-23T23:29:12.793485+05:30"},{"city":"Noida","state":"Uttar Pradesh","latitude":28.5355,"longitude":77.391,"temp":30.6,"humidity":55,"rain":0.0,"pressure":978.8,"uv_index":7.8,"wind_gusts":37.8,"aqi":388,"pm10":1173.5,"pm2_5":206.8,"no2":43.0,"co":645.0,"o3":37.0,"so2":14.6,"mosquito_risk":0,"arthritis_risk":5,"migraine_risk":7,"frizz_risk":1,"updated_at":"2026-06-23T23:29:12.793492+05:30"},{"city":"Ghaziabad","state":"Uttar Pradesh","latitude":28.6692,"longitude":77.4538,"temp":30.2,"humidity":57,"rain":0.0,"pressure":977.0,"uv_index":7.8,"wind_gusts":46.8,"aqi":159,"pm10":425.6,"pm2_5":106.9,"no2":42.4,"co":821.0,"o3":51.0,"so2":20.8,"mosquito_risk":0,"arthritis_risk":5,"migraine_risk":7,"frizz_risk":1,"updated_at":"2026-06-23T23:29:12.793498+05:30"},{"city":"Faridabad","state":"Haryana","latitude":28.4089,"longitude":77.3178,"temp":31.1,"humidity":49,"rain":0.0,"pressure":978.1,"uv_index":7.85,"wind_gusts":42.8,"aqi":388,"pm10":1173.5,"pm2_5":206.8,"no2":43.0,"co":506.0,"o3":37.0,"so2":14.6,"mosquito_risk":0,"arthritis_risk":5,"migraine_risk":7,"frizz_risk":1,"updated_at":"2026-06-23T23:29:12.793504+05:30"},{"city":"Meerut","state":"Uttar Pradesh","latitude":28.9845,"longitude":77.7064,"temp":29.8,"humidity":59,"rain":0.0,"pressure":975.8,"uv_index":7.7,"wind_gusts":49.7,"aqi":159,"pm10":425.6,"pm2_5":106.9,"no2":42.4,"co":443.0,"o3":51.0,"so2":20.8,"mosquito_risk":4,"arthritis_risk":5,"migraine_risk":7,"frizz_risk":1,"updated_at":"2026-06-23T23:29:12.793510+05:30"},{"city":"Agra","state":"Uttar Pradesh","latitude":27.1767,"longitude":78.0081,"temp":32.8,"humidity":46,"rain":0.0,"pressure":982.2,"uv_index":8.1,"wind_gusts":40.0,"aqi":231,"pm10":778.6,"pm2_5":128.1,"no2":24.1,"co":342.0,"o3":48.0,"so2":7.9,"mosquito_risk":0,"arthritis_risk":5,"migraine_risk":7,"frizz_risk":1,"updated_at":"2026-06-23T23:29:12.793516+05:30"},{"city":"Varanasi","state":"Uttar Pradesh","latitude":25.3176,"longitude":82.9739,"temp":33.3,"humidity":44,"rain":0.0,"pressure":992.0,"uv_index":8.75,"wind_gusts":41.0,"aqi":122,"pm10":93.6,"pm2_5":54.4,"no2":25.5,"co":269.0,"o3":53.0,"so2":11.8,"mosquito_risk":0,"arthritis_risk":5,"migraine_risk":7,"frizz_risk":1,"updated_at":"2026-06-23T23:29:12.793523+05:30"},{"city":"Prayagraj","state":"Uttar Pradesh","latitude":25.4358,"longitude":81.8463,"temp":33.6,"humidity":48,"rain":0.0,"pressure":990.4,"uv_index":8.45,"wind_gusts":40.3,"aqi":128,"pm10":88.2,"pm2_5":49.0,"no2":27.4,"co":213.0,"o3":49.0,"so2":10.8,"mosquito_risk":0,"arthritis_risk":5,"migraine_risk":7,"frizz_risk":1,"updated_at":"2026-06-23T23:29:12.793529+05:30"},{"city":"Gorakhpur","state":"Uttar Pradesh","latitude":26.7606,"longitude":83.3732,"temp":29.5,"humidity":73,"rain":0.0,"pressure":991.1,"uv_index":8.65,"wind_gusts":37.8,"aqi":156,"pm10":151.3,"pm2_5":76.8,"no2":38.7,"co":627.0,"o3":58.0,"so2":16.6,"mosquito_risk":7,"arthritis_risk":5,"migraine_risk":7,"frizz_risk":1,"updated_at":"2026-06-23T23:29:12.793535+05:30"},{"city":"Bareilly","state":"Uttar Pradesh","latitude":28.367,"longitude":79.4304,"temp":31.7,"humidity":49,"rain":0.0,"pressure":981.2,"uv_index":8.1,"wind_gusts":34.2,"aqi":153,"pm10":92.0,"pm2_5":52.7,"no2":23.2,"co":276.0,"o3":95.0,"so2":14.6,"mosquito_risk":0,"arthritis_risk":5,"migraine_risk":7,"frizz_risk":1,"updated_at":"2026-06-23T23:29:12.793543+05:30"},{"city":"Aligarh","state":"Uttar Pradesh","latitude":27.8974,"longitude":78.088,"temp":30.4,"humidity":53,"rain":0.0,"pressure":980.2,"uv_index":7.95,"wind_gusts":38.2,"aqi":285,"pm10":599.8,"pm2_5":129.0,"no2":31.9,"co":458.0,"o3":41.0,"so2":7.6,"mosquito_risk":0,"arthritis_risk":5,"migraine_risk":7,"frizz_risk":1,"updated_at":"2026-06-23T23:29:12.793550+05:30"},{"city":"Moradabad","state":"Uttar Pradesh","latitude":28.8386,"longitude":78.7733,"temp":31.5,"humidity":49,"rain":0.0,"pressure":978.1,"uv_index":7.95,"wind_gusts":40.3,"aqi":159,"pm10":239.3,"pm2_5":90.6,"no2":38.6,"co":325.0,"o3":66.0,"so2":15.6,"mosquito_risk":0,"arthritis_risk":5,"migraine_risk":7,"frizz_risk":1,"updated_at":"2026-06-23T23:29:12.793556+05:30"},{"city":"Saharanpur","state":"Uttar Pradesh","latitude":29.9637,"longitude":77.546,"temp":28.8,"humidity":64,"rain":0.0,"pressure":970.1,"uv_index":7.45,"wind_gusts":35.3,"aqi":155,"pm10":280.3,"pm2_5":78.5,"no2":26.3,"co":481.0,"o3":79.0,"so2":12.5,"mosquito_risk":7,"arthritis_risk":5,"migraine_risk":7,"frizz_risk":1,"updated_at":"2026-06-23T23:29:12.793563+05:30"},{"city":"Jhansi","state":"Uttar Pradesh","latitude":25.4484,"longitude":78.5685,"temp":30.7,"humidity":57,"rain":0.0,"pressure":973.2,"uv_index":8.4,"wind_gusts":37.4,"aqi":91,"pm10":47.4,"pm2_5":27.1,"no2":13.6,"co":234.0,"o3":48.0,"so2":3.7,"mosquito_risk":0,"arthritis_risk":5,"migraine_risk":7,"frizz_risk":1,"updated_at":"2026-06-23T23:29:16.060463+05:30"},{"city":"Surat","state":"Gujarat","latitude":21.1702,"longitude":72.8311,"temp":28.9,"humidity":81,"rain":0.0,"pressure":1002.6,"uv_index":6.8,"wind_gusts":42.1,"aqi":67,"pm10":50.5,"pm2_5":27.0,"no2":26.0,"co":260.0,"o3":28.0,"so2":39.8,"mosquito_risk":7,"arthritis_risk":5,"migraine_risk":4,"frizz_risk":1,"updated_at":"2026-06-23T23:29:16.060495+05:30"},{"city":"Vadodara","state":"Gujarat","latitude":22.3072,"longitude":73.1812,"temp":29.0,"humidity":78,"rain":0.0,"pressure":1000.1,"uv_index":6.45,"wind_gusts":43.9,"aqi":67,"pm10":24.6,"pm2_5":17.7,"no2":22.4,"co":201.0,"o3":36.0,"so2":22.5,"mosquito_risk":7,"arthritis_risk":5,"migraine_risk":4,"frizz_risk":1,"updated_at":"2026-06-23T23:29:16.060506+05:30"},{"city":"Rajkot","state":"Gujarat","latitude":22.3039,"longitude":70.8022,"temp":29.1,"humidity":76,"rain":0.0,"pressure":990.0,"uv_index":7.55,"wind_gusts":45.4,"aqi":70,"pm10":35.6,"pm2_5":16.9,"no2":6.0,"co":133.0,"o3":47.0,"so2":6.2,"mosquito_risk":7,"arthritis_risk":5,"migraine_risk":7,"frizz_risk":1,"updated_at":"2026-06-23T23:29:16.060515+05:30"},{"city":"Thane","state":"Maharashtra","latitude":19.2183,"longitude":72.9781,"temp":25.6,"humidity":98,"rain":0.1,"pressure":1005.0,"uv_index":6.5,"wind_gusts":25.9,"aqi":34,"pm10":21.2,"pm2_5":10.7,"no2":11.2,"co":545.0,"o3":44.0,"so2":6.3,"mosquito_risk":10,"arthritis_risk":5,"migraine_risk":4,"frizz_risk":1,"updated_at":"2026-06-23T23:29:16.060523+05:30"},{"city":"Nagpur","state":"Maharashtra","latitude":21.1458,"longitude":79.0882,"temp":25.8,"humidity":91,"rain":0.1,"pressure":971.0,"uv_index":8.15,"wind_gusts":33.5,"aqi":54,"pm10":18.5,"pm2_5":18.4,"no2":19.0,"co":309.0,"o3":57.0,"so2":12.4,"mosquito_risk":10,"arthritis_risk":5,"migraine_risk":7,"frizz_risk":1,"updated_at":"2026-06-23T23:29:16.060531+05:30"},{"city":"Nashik","state":"Maharashtra","latitude":19.9975,"longitude":73.7898,"temp":23.0,"humidity":96,"rain":0.0,"pressure":942.3,"uv_index":7.65,"wind_gusts":33.1,"aqi":30,"pm10":8.1,"pm2_5":5.8,"no2":10.6,"co":210.0,"o3":49.0,"so2":5.2,"mosquito_risk":3,"arthritis_risk":5,"migraine_risk":7,"frizz_risk":1,"updated_at":"2026-06-23T23:29:16.060539+05:30"},{"city":"Aurangabad","state":"Maharashtra","latitude":19.8762,"longitude":75.3433,"temp":25.0,"humidity":84,"rain":0.0,"pressure":941.2,"uv_index":8.1,"wind_gusts":46.8,"aqi":31,"pm10":7.0,"pm2_5":6.8,"no2":10.2,"co":213.0,"o3":54.0,"so2":5.6,"mosquito_risk":7,"arthritis_risk":5,"migraine_risk":7,"frizz_risk":1,"updated_at":"2026-06-23T23:29:16.060547+05:30"},{"city":"Solapur","state":"Maharashtra","latitude":17.6599,"longitude":75.9064,"temp":25.0,"humidity":83,"rain":0.2,"pressure":955.3,"uv_index":7.5,"wind_gusts":61.6,"aqi":26,"pm10":4.7,"pm2_5":4.3,"no2":6.2,"co":134.0,"o3":39.0,"so2":2.1,"mosquito_risk":10,"arthritis_risk":5,"migraine_risk":7,"frizz_risk":1,"updated_at":"2026-06-23T23:29:16.060554+05:30"},{"city":"Kolhapur","state":"Maharashtra","latitude":16.705,"longitude":74.2433,"temp":22.7,"humidity":96,"rain":0.4,"pressure":946.0,"uv_index":8.2,"wind_gusts":63.4,"aqi":22,"pm10":5.1,"pm2_5":4.9,"no2":7.0,"co":151.0,"o3":39.0,"so2":2.2,"mosquito_risk":6,"arthritis_risk":5,"migraine_risk":7,"frizz_risk":1,"updated_at":"2026-06-23T23:29:16.060562+05:30"},{"city":"Goa","state":"Goa","latitude":15.2993,"longitude":74.124,"temp":23.5,"humidity":99,"rain":0.4,"pressure":998.7,"uv_index":7.0,"wind_gusts":38.2,"aqi":31,"pm10":13.7,"pm2_5":8.0,"no2":2.4,"co":227.0,"o3":49.0,"so2":0.5,"mosquito_risk":6,"arthritis_risk":5,"migraine_risk":7,"frizz_risk":1,"updated_at":"2026-06-23T23:29:16.060569+05:30"},{"city":"Jodhpur","state":"Rajasthan","latitude":26.2389,"longitude":73.0243,"temp":33.0,"humidity":43,"rain":0.0,"pressure":977.0,"uv_index":8.4,"wind_gusts":39.2,"aqi":134,"pm10":232.4,"pm2_5":56.0,"no2":8.1,"co":174.0,"o3":52.0,"so2":2.5,"mosquito_risk":0,"arthritis_risk":5,"migraine_risk":7,"frizz_risk":1,"updated_at":"2026-06-23T23:29:16.060576+05:30"},{"city":"Udaipur","state":"Rajasthan","latitude":24.5854,"longitude":73.7125,"temp":29.3,"humidity":51,"rain":0.0,"pressure":942.4,"uv_index":8.8,"wind_gusts":38.9,"aqi":69,"pm10":74.0,"pm2_5":26.5,"no2":5.7,"co":176.0,"o3":62.0,"so2":2.4,"mosquito_risk":4,"arthritis_risk":5,"migraine_risk":7,"frizz_risk":1,"updated_at":"2026-06-23T23:29:16.060584+05:30"},{"city":"Kota","state":"Rajasthan","latitude":25.2138,"longitude":75.8648,"temp":29.9,"humidity":61,"rain":0.0,"pressure":974.0,"uv_index":8.3,"wind_gusts":45.0,"aqi":83,"pm10":51.6,"pm2_5":30.6,"no2":12.9,"co":289.0,"o3":62.0,"so2":5.3,"mosquito_risk":7,"arthritis_risk":5,"migraine_risk":7,"frizz_risk":1,"updated_at":"2026-06-23T23:29:16.060592+05:30"},{"city":"Bikaner","state":"Rajasthan","latitude":28.0229,"longitude":73.3119,"temp":30.9,"humidity":49,"rain":0.0,"pressure":974.7,"uv_index":8.5,"wind_gusts":59.0,"aqi":134,"pm10":166.7,"pm2_5":49.6,"no2":4.2,"co":250.0,"o3":62.0,"so2":2.4,"mosquito_risk":0,"arthritis_risk":5,"migraine_risk":7,"frizz_risk":1,"updated_at":"2026-06-23T23:29:16.060599+05:30"},{"city":"Ajmer","state":"Rajasthan","latitude":26.4499,"longitude":74.6399,"temp":29.6,"humidity":54,"rain":0.0,"pressure":949.6,"uv_index":8.35,"wind_gusts":42.8,"aqi":89,"pm10":53.8,"pm2_5":27.3,"no2":11.1,"co":342.0,"o3":58.0,"so2":4.2,"mosquito_risk":4,"arthritis_risk":5,"migraine_risk":7,"frizz_risk":1,"updated_at":"2026-06-23T23:29:16.060606+05:30"},{"city":"Gwalior","state":"Madhya Pradesh","latitude":26.2183,"longitude":78.1828,"temp":32.2,"humidity":46,"rain":0.0,"pressure":978.0,"uv_index":8.25,"wind_gusts":42.1,"aqi":110,"pm10":105.2,"pm2_5":40.7,"no2":16.8,"co":228.0,"o3":41.0,"so2":4.8,"mosquito_risk":0,"arthritis_risk":5,"migraine_risk":7,"frizz_risk":1,"updated_at":"2026-06-23T23:29:16.060613+05:30"},{"city":"Indore","state":"Madhya Pradesh","latitude":22.7196,"longitude":75.8577,"temp":24.1,"humidity":94,"rain":0.0,"pressure":944.6,"uv_index":6.7,"wind_gusts":49.3,"aqi":62,"pm10":44.7,"pm2_5":38.6,"no2":26.3,"co":463.0,"o3":39.0,"so2":8.8,"mosquito_risk":3,"arthritis_risk":5,"migraine_risk":7,"frizz_risk":1,"updated_at":"2026-06-23T23:29:16.060621+05:30"},{"city":"Bhopal","state":"Madhya Pradesh","latitude":23.2599,"longitude":77.4126,"temp":24.8,"humidity":88,"rain":0.0,"pressure":950.3,"uv_index":5.85,"wind_gusts":36.4,"aqi":58,"pm10":19.0,"pm2_5":15.7,"no2":8.1,"co":449.0,"o3":63.0,"so2":3.1,"mosquito_risk":3,"arthritis_risk":5,"migraine_risk":3,"frizz_risk":1,"updated_at":"2026-06-23T23:29:16.060628+05:30"},{"city":"Jabalpur","state":"Madhya Pradesh","latitude":23.1815,"longitude":79.9864,"temp":26.2,"humidity":86,"rain":0.0,"pressure":958.3,"uv_index":7.1,"wind_gusts":36.4,"aqi":69,"pm10":27.2,"pm2_5":19.3,"no2":9.0,"co":242.0,"o3":71.0,"so2":3.1,"mosquito_risk":7,"arthritis_risk":5,"migraine_risk":7,"frizz_risk":1,"updated_at":"2026-06-23T23:29:16.060636+05:30"},{"city":"Ujjain","state":"Madhya Pradesh","latitude":23.1765,"longitude":75.7885,"temp":25.1,"humidity":86,"rain":0.0,"pressure":950.1,"uv_index":7.8,"wind_gusts":41.8,"aqi":67,"pm10":39.9,"pm2_5":31.1,"no2":11.9,"co":392.0,"o3":56.0,"so2":4.9,"mosquito_risk":7,"arthritis_risk":5,"migraine_risk":7,"frizz_risk":1,"updated_at":"2026-06-23T23:29:16.060644+05:30"},{"city":"Visakhapatnam","state":"Andhra Pradesh","latitude":17.6868,"longitude":83.2185,"temp":28.9,"humidity":75,"rain":0.0,"pressure":1000.5,"uv_index":8.6,"wind_gusts":32.0,"aqi":76,"pm10":23.6,"pm2_5":22.2,"no2":34.0,"co":415.0,"o3":43.0,"so2":43.9,"mosquito_risk":7,"arthritis_risk":5,"migraine_risk":4,"frizz_risk":1,"updated_at":"2026-06-23T23:29:16.060652+05:30"},{"city":"Vijayawada","state":"Andhra Pradesh","latitude":16.5062,"longitude":80.648,"temp":29.4,"humidity":70,"rain":0.0,"pressure":1000.5,"uv_index":8.65,"wind_gusts":35.6,"aqi":69,"pm10":23.7,"pm2_5":22.5,"no2":15.4,"co":345.0,"o3":44.0,"so2":5.5,"mosquito_risk":7,"arthritis_risk":5,"migraine_risk":4,"frizz_risk":1,"updated_at":"2026-06-23T23:29:16.060659+05:30"},{"city":"Guntur","state":"Andhra Pradesh","latitude":16.3067,"longitude":80.4365,"temp":29.4,"humidity":65,"rain":0.0,"pressure":1001.8,"uv_index":8.4,"wind_gusts":36.0,"aqi":61,"pm10":11.0,"pm2_5":10.4,"no2":12.7,"co":324.0,"o3":43.0,"so2":4.3,"mosquito_risk":7,"arthritis_risk":5,"migraine_risk":4,"frizz_risk":1,"updated_at":"2026-06-23T23:29:16.060667+05:30"},{"city":"Nellore","state":"Andhra Pradesh","latitude":14.4426,"longitude":79.9865,"temp":29.0,"humidity":75,"rain":0.0,"pressure":1004.7,"uv_index":8.9,"wind_gusts":39.2,"aqi":45,"pm10":9.6,"pm2_5":9.1,"no2":7.6,"co":142.0,"o3":72.0,"so2":4.0,"mosquito_risk":7,"arthritis_risk":5,"migraine_risk":4,"frizz_risk":1,"updated_at":"2026-06-23T23:29:16.060675+05:30"},{"city":"Kurnool","state":"Andhra Pradesh","latitude":15.8281,"longitude":78.0373,"temp":28.2,"humidity":58,"rain":0.0,"pressure":976.3,"uv_index":8.45,"wind_gusts":51.8,"aqi":29,"pm10":9.3,"pm2_5":8.4,"no2":12.0,"co":143.0,"o3":36.0,"so2":4.9,"mosquito_risk":4,"arthritis_risk":5,"migraine_risk":7,"frizz_risk":1,"updated_at":"2026-06-23T23:29:16.060683+05:30"},{"city":"Kakinada","state":"Andhra Pradesh","latitude":16.9891,"longitude":82.2475,"temp":29.0,"humidity":76,"rain":0.0,"pressure":1005.0,"uv_index":8.35,"wind_gusts":37.4,"aqi":62,"pm10":27.0,"pm2_5":22.4,"no2":6.4,"co":507.0,"o3":98.0,"so2":6.7,"mosquito_risk":7,"arthritis_risk":5,"migraine_risk":4,"frizz_risk":1,"updated_at":"2026-06-23T23:29:16.060691+05:30"},{"city":"Tirupati","state":"Andhra Pradesh","latitude":13.6288,"longitude":79.4192,"temp":27.9,"humidity":83,"rain":0.0,"pressure":990.8,"uv_index":8.35,"wind_gusts":35.3,"aqi":30,"pm10":13.9,"pm2_5":13.2,"no2":20.8,"co":176.0,"o3":27.0,"so2":2.5,"mosquito_risk":7,"arthritis_risk":5,"migraine_risk":7,"frizz_risk":1,"updated_at":"2026-06-23T23:29:16.060698+05:30"},{"city":"Warangal","state":"Telangana","latitude":17.9689,"longitude":79.5941,"temp":26.6,"humidity":85,"rain":0.0,"pressure":976.6,"uv_index":8.3,"wind_gusts":33.5,"aqi":46,"pm10":9.7,"pm2_5":9.5,"no2":11.1,"co":232.0,"o3":52.0,"so2":3.8,"mosquito_risk":7,"arthritis_risk":5,"migraine_risk":7,"frizz_risk":1,"updated_at":"2026-06-23T23:29:16.060706+05:30"},{"city":"Nizamabad","state":"Telangana","latitude":18.6725,"longitude":78.0941,"temp":27.8,"humidity":68,"rain":0.0,"pressure":962.6,"uv_index":7.6,"wind_gusts":39.2,"aqi":34,"pm10":7.3,"pm2_5":7.0,"no2":8.1,"co":180.0,"o3":47.0,"so2":1.9,"mosquito_risk":7,"arthritis_risk":5,"migraine_risk":7,"frizz_risk":1,"updated_at":"2026-06-23T23:29:16.060713+05:30"},{"city":"Mysore","state":"Karnataka","latitude":12.2958,"longitude":76.6396,"temp":21.8,"humidity":94,"rain":0.1,"pressure":929.7,"uv_index":8.35,"wind_gusts":46.8,"aqi":26,"pm10":3.8,"pm2_5":3.5,"no2":8.7,"co":154.0,"o3":39.0,"so2":2.1,"mosquito_risk":6,"arthritis_risk":5,"migraine_risk":7,"frizz_risk":1,"updated_at":"2026-06-23T23:29:16.060720+05:30"},{"city":"Mangalore","state":"Karnataka","latitude":12.9141,"longitude":74.856,"temp":24.5,"humidity":97,"rain":0.1,"pressure":1008.9,"uv_index":8.4,"wind_gusts":41.0,"aqi":30,"pm10":16.1,"pm2_5":10.1,"no2":5.4,"co":204.0,"o3":39.0,"so2":1.8,"mosquito_risk":6,"arthritis_risk":0,"migraine_risk":4,"frizz_risk":1,"updated_at":"2026-06-23T23:29:16.060727+05:30"},{"city":"Hubli-Dharwad","state":"Karnataka","latitude":15.3647,"longitude":75.124,"temp":21.4,"humidity":98,"rain":0.1,"pressure":940.2,"uv_index":7.4,"wind_gusts":51.5,"aqi":22,"pm10":1.8,"pm2_5":1.7,"no2":5.1,"co":124.0,"o3":40.0,"so2":1.0,"mosquito_risk":6,"arthritis_risk":5,"migraine_risk":7,"frizz_risk":1,"updated_at":"2026-06-23T23:29:16.060734+05:30"},{"city":"Belgaum","state":"Karnataka","latitude":15.8497,"longitude":74.4977,"temp":20.8,"humidity":97,"rain":0.1,"pressure":924.5,"uv_index":8.05,"wind_gusts":53.3,"aqi":21,"pm10":2.2,"pm2_5":2.2,"no2":5.7,"co":110.0,"o3":40.0,"so2":1.3,"mosquito_risk":6,"arthritis_risk":5,"migraine_risk":7,"frizz_risk":1,"updated_at":"2026-06-23T23:29:19.328333+05:30"},{"city":"Coimbatore","state":"Tamil Nadu","latitude":11.0168,"longitude":76.9558,"temp":23.3,"humidity":94,"rain":0.0,"pressure":962.9,"uv_index":7.8,"wind_gusts":48.6,"aqi":25,"pm10":6.5,"pm2_5":5.8,"no2":9.1,"co":205.0,"o3":35.0,"so2":3.2,"mosquito_risk":3,"arthritis_risk":5,"migraine_risk":7,"frizz_risk":1,"updated_at":"2026-06-23T23:29:19.328366+05:30"},{"city":"Madurai","state":"Tamil Nadu","latitude":9.9252,"longitude":78.1198,"temp":29.6,"humidity":58,"rain":0.0,"pressure":993.3,"uv_index":8.2,"wind_gusts":25.6,"aqi":66,"pm10":39.7,"pm2_5":37.1,"no2":46.2,"co":161.0,"o3":4.0,"so2":11.3,"mosquito_risk":4,"arthritis_risk":5,"migraine_risk":7,"frizz_risk":1,"updated_at":"2026-06-23T23:29:19.328378+05:30"},{"city":"Trichy","state":"Tamil Nadu","latitude":10.7905,"longitude":78.7047,"temp":28.9,"humidity":64,"rain":0.0,"pressure":1000.1,"uv_index":7.85,"wind_gusts":50.8,"aqi":31,"pm10":10.4,"pm2_5":8.2,"no2":9.9,"co":131.0,"o3":41.0,"so2":3.7,"mosquito_risk":7,"arthritis_risk":5,"migraine_risk":4,"frizz_risk":1,"updated_at":"2026-06-23T23:29:19.328387+05:30"},{"city":"Salem","state":"Tamil Nadu","latitude":11.6643,"longitude":78.146,"temp":26.8,"humidity":77,"rain":0.0,"pressure":978.2,"uv_index":8.5,"wind_gusts":31.7,"aqi":43,"pm10":18.9,"pm2_5":16.6,"no2":22.2,"co":384.0,"o3":41.0,"so2":6.3,"mosquito_risk":7,"arthritis_risk":5,"migraine_risk":7,"frizz_risk":1,"updated_at":"2026-06-23T23:29:19.328395+05:30"},{"city":"Tirunelveli","state":"Tamil Nadu","latitude":8.7139,"longitude":77.7567,"temp":28.4,"humidity":70,"rain":0.0,"pressure":1004.7,"uv_index":5.9,"wind_gusts":32.8,"aqi":31,"pm10":11.2,"pm2_5":8.1,"no2":6.1,"co":213.0,"o3":47.0,"so2":2.1,"mosquito_risk":7,"arthritis_risk":5,"migraine_risk":0,"frizz_risk":1,"updated_at":"2026-06-23T23:29:19.328403+05:30"},{"city":"Vellore","state":"Tamil Nadu","latitude":12.9165,"longitude":79.1325,"temp":27.4,"humidity":65,"rain":0.0,"pressure":984.7,"uv_index":8.35,"wind_gusts":45.7,"aqi":35,"pm10":19.0,"pm2_5":17.9,"no2":25.2,"co":387.0,"o3":28.0,"so2":4.9,"mosquito_risk":7,"arthritis_risk":5,"migraine_risk":7,"frizz_risk":1,"updated_at":"2026-06-23T23:29:19.328410+05:30"},{"city":"Erode","state":"Tamil Nadu","latitude":11.341,"longitude":77.7172,"temp":26.8,"humidity":75,"rain":0.0,"pressure":990.1,"uv_index":7.9,"wind_gusts":36.7,"aqi":32,"pm10":14.4,"pm2_5":12.5,"no2":16.6,"co":199.0,"o3":36.0,"so2":4.1,"mosquito_risk":7,"arthritis_risk":5,"migraine_risk":7,"frizz_risk":1,"updated_at":"2026-06-23T23:29:19.328418+05:30"},{"city":"Kochi","state":"Kerala","latitude":9.9312,"longitude":76.2673,"temp":24.9,"humidity":98,"rain":0.1,"pressure":1011.6,"uv_index":8.2,"wind_gusts":35.3,"aqi":44,"pm10":18.7,"pm2_5":16.5,"no2":16.5,"co":241.0,"o3":24.0,"so2":4.3,"mosquito_risk":6,"arthritis_risk":0,"migraine_risk":4,"frizz_risk":1,"updated_at":"2026-06-23T23:29:19.328425+05:30"},{"city":"Thiruvananthapuram","state":"Kerala","latitude":8.5241,"longitude":76.9366,"temp":24.9,"humidity":93,"rain":0.0,"pressure":1010.9,"uv_index":8.1,"wind_gusts":41.8,"aqi":30,"pm10":15.1,"pm2_5":9.2,"no2":3.8,"co":200.0,"o3":47.0,"so2":1.6,"mosquito_risk":3,"arthritis_risk":0,"migraine_risk":4,"frizz_risk":1,"updated_at":"2026-06-23T23:29:19.328432+05:30"},{"city":"Kozhikode","state":"Kerala","latitude":11.2588,"longitude":75.7804,"temp":24.5,"humidity":97,"rain":0.0,"pressure":1010.4,"uv_index":7.25,"wind_gusts":40.0,"aqi":26,"pm10":14.1,"pm2_5":7.5,"no2":1.4,"co":330.0,"o3":54.0,"so2":0.7,"mosquito_risk":3,"arthritis_risk":0,"migraine_risk":4,"frizz_risk":1,"updated_at":"2026-06-23T23:29:19.328439+05:30"},{"city":"Thrissur","state":"Kerala","latitude":10.5276,"longitude":76.2144,"temp":24.4,"humidity":100,"rain":0.0,"pressure":1010.0,"uv_index":7.55,"wind_gusts":33.5,"aqi":41,"pm10":21.5,"pm2_5":19.7,"no2":13.1,"co":454.0,"o3":28.0,"so2":3.7,"mosquito_risk":3,"arthritis_risk":0,"migraine_risk":4,"frizz_risk":1,"updated_at":"2026-06-23T23:29:19.328447+05:30"},{"city":"Kannur","state":"Kerala","latitude":11.8745,"longitude":75.3704,"temp":23.8,"humidity":98,"rain":0.1,"pressure":1009.7,"uv_index":3.8,"wind_gusts":40.7,"aqi":24,"pm10":15.6,"pm2_5":9.9,"no2":8.1,"co":259.0,"o3":35.0,"so2":1.6,"mosquito_risk":6,"arthritis_risk":0,"migraine_risk":0,"frizz_risk":1,"updated_at":"2026-06-23T23:29:19.328453+05:30"},{"city":"Patna","state":"Bihar","latitude":25.5941,"longitude":85.1376,"temp":31.9,"humidity":73,"rain":0.0,"pressure":994.2,"uv_index":8.6,"wind_gusts":36.0,"aqi":153,"pm10":131.8,"pm2_5":93.1,"no2":59.6,"co":518.0,"o3":32.0,"so2":22.6,"mosquito_risk":3,"arthritis_risk":5,"migraine_risk":7,"frizz_risk":1,"updated_at":"2026-06-23T23:29:19.328460+05:30"},{"city":"Gaya","state":"Bihar","latitude":24.7914,"longitude":85.0002,"temp":31.2,"humidity":54,"rain":0.0,"pressure":988.3,"uv_index":8.9,"wind_gusts":40.3,"aqi":117,"pm10":115.7,"pm2_5":60.1,"no2":23.1,"co":416.0,"o3":56.0,"so2":9.2,"mosquito_risk":0,"arthritis_risk":5,"migraine_risk":7,"frizz_risk":1,"updated_at":"2026-06-23T23:29:19.328467+05:30"},{"city":"Muzaffarpur","state":"Bihar","latitude":26.1209,"longitude":85.3647,"temp":29.9,"humidity":85,"rain":0.0,"pressure":994.1,"uv_index":8.85,"wind_gusts":24.8,"aqi":159,"pm10":129.0,"pm2_5":94.8,"no2":44.5,"co":997.0,"o3":57.0,"so2":20.8,"mosquito_risk":7,"arthritis_risk":5,"migraine_risk":7,"frizz_risk":1,"updated_at":"2026-06-23T23:29:19.328474+05:30"},{"city":"Bhagalpur","state":"Bihar","latitude":25.2425,"longitude":87.0117,"temp":28.7,"humidity":78,"rain":0.0,"pressure":995.3,"uv_index":8.85,"wind_gusts":38.9,"aqi":143,"pm10":82.0,"pm2_5":62.4,"no2":16.0,"co":465.0,"o3":110.0,"so2":23.2,"mosquito_risk":7,"arthritis_risk":5,"migraine_risk":7,"frizz_risk":1,"updated_at":"2026-06-23T23:29:19.328480+05:30"},{"city":"Ranchi","state":"Jharkhand","latitude":23.3441,"longitude":85.3096,"temp":25.7,"humidity":76,"rain":0.0,"pressure":933.6,"uv_index":8.95,"wind_gusts":37.4,"aqi":88,"pm10":47.6,"pm2_5":33.6,"no2":7.2,"co":204.0,"o3":99.0,"so2":5.1,"mosquito_risk":7,"arthritis_risk":5,"migraine_risk":7,"frizz_risk":1,"updated_at":"2026-06-23T23:29:19.328487+05:30"},{"city":"Jamshedpur","state":"Jharkhand","latitude":22.8046,"longitude":86.2029,"temp":28.2,"humidity":81,"rain":0.0,"pressure":986.2,"uv_index":9.05,"wind_gusts":39.2,"aqi":113,"pm10":62.6,"pm2_5":53.0,"no2":18.8,"co":467.0,"o3":107.0,"so2":30.3,"mosquito_risk":7,"arthritis_risk":5,"migraine_risk":7,"frizz_risk":1,"updated_at":"2026-06-23T23:29:19.328494+05:30"},{"city":"Dhanbad","state":"Jharkhand","latitude":23.7957,"longitude":86.4304,"temp":28.8,"humidity":76,"rain":0.0,"pressure":974.7,"uv_index":9.0,"wind_gusts":40.7,"aqi":152,"pm10":67.5,"pm2_5":54.0,"no2":40.9,"co":409.0,"o3":68.0,"so2":91.0,"mosquito_risk":7,"arthritis_risk":5,"migraine_risk":7,"frizz_risk":1,"updated_at":"2026-06-23T23:29:19.328500+05:30"},{"city":"Bokaro","state":"Jharkhand","latitude":23.6693,"longitude":86.1511,"temp":28.9,"humidity":72,"rain":0.0,"pressure":978.4,"uv_index":8.85,"wind_gusts":39.2,"aqi":132,"pm10":63.6,"pm2_5":43.4,"no2":23.7,"co":233.0,"o3":83.0,"so2":57.0,"mosquito_risk":7,"arthritis_risk":5,"migraine_risk":7,"frizz_risk":1,"updated_at":"2026-06-23T23:29:19.328507+05:30"},{"city":"Bhubaneswar","state":"Odisha","latitude":20.2961,"longitude":85.8245,"temp":28.0,"humidity":86,"rain":0.0,"pressure":998.3,"uv_index":6.3,"wind_gusts":42.8,"aqi":73,"pm10":27.8,"pm2_5":26.7,"no2":11.3,"co":342.0,"o3":82.0,"so2":6.1,"mosquito_risk":7,"arthritis_risk":5,"migraine_risk":7,"frizz_risk":1,"updated_at":"2026-06-23T23:29:19.328514+05:30"},{"city":"Cuttack","state":"Odisha","latitude":20.4625,"longitude":85.8828,"temp":28.3,"humidity":85,"rain":0.0,"pressure":1000.0,"uv_index":7.25,"wind_gusts":43.6,"aqi":73,"pm10":27.8,"pm2_5":26.7,"no2":11.3,"co":405.0,"o3":82.0,"so2":6.1,"mosquito_risk":7,"arthritis_risk":5,"migraine_risk":4,"frizz_risk":1,"updated_at":"2026-06-23T23:29:19.328520+05:30"},{"city":"Rourkela","state":"Odisha","latitude":22.2604,"longitude":84.8536,"temp":27.5,"humidity":90,"rain":0.0,"pressure":980.8,"uv_index":8.95,"wind_gusts":39.6,"aqi":136,"pm10":47.4,"pm2_5":37.5,"no2":11.0,"co":429.0,"o3":97.0,"so2":7.3,"mosquito_risk":7,"arthritis_risk":5,"migraine_risk":7,"frizz_risk":1,"updated_at":"2026-06-23T23:29:19.328527+05:30"},{"city":"Raipur","state":"Chhattisgarh","latitude":21.2514,"longitude":81.6296,"temp":28.7,"humidity":79,"rain":0.0,"pressure":971.2,"uv_index":8.9,"wind_gusts":39.2,"aqi":81,"pm10":39.5,"pm2_5":39.1,"no2":48.3,"co":277.0,"o3":38.0,"so2":59.1,"mosquito_risk":7,"arthritis_risk":5,"migraine_risk":7,"frizz_risk":1,"updated_at":"2026-06-23T23:29:19.328534+05:30"},{"city":"Bhilai","state":"Chhattisgarh","latitude":21.1938,"longitude":81.3509,"temp":28.5,"humidity":73,"rain":0.0,"pressure":971.6,"uv_index":8.9,"wind_gusts":40.3,"aqi":74,"pm10":30.0,"pm2_5":29.6,"no2":38.4,"co":582.0,"o3":62.0,"so2":55.5,"mosquito_risk":7,"arthritis_risk":5,"migraine_risk":7,"frizz_risk":1,"updated_at":"2026-06-23T23:29:19.328540+05:30"},{"city":"Guwahati","state":"Assam","latitude":26.1158,"longitude":91.7086,"temp":25.2,"humidity":100,"rain":0.1,"pressure":997.1,"uv_index":8.75,"wind_gusts":27.7,"aqi":66,"pm10":27.5,"pm2_5":24.6,"no2":11.2,"co":527.0,"o3":61.0,"so2":3.5,"mosquito_risk":10,"arthritis_risk":5,"migraine_risk":7,"frizz_risk":1,"updated_at":"2026-06-23T23:29:19.328547+05:30"},{"city":"Agartala","state":"Tripura","latitude":23.8315,"longitude":91.2868,"temp":25.9,"humidity":92,"rain":0.0,"pressure":1002.1,"uv_index":8.05,"wind_gusts":32.8,"aqi":70,"pm10":19.7,"pm2_5":18.7,"no2":13.7,"co":238.0,"o3":55.0,"so2":2.9,"mosquito_risk":7,"arthritis_risk":5,"migraine_risk":4,"frizz_risk":1,"updated_at":"2026-06-23T23:29:19.328553+05:30"},{"city":"Shillong","state":"Meghalaya","latitude":25.5788,"longitude":91.8933,"temp":20.1,"humidity":93,"rain":0.0,"pressure":854.1,"uv_index":7.9,"wind_gusts":29.5,"aqi":46,"pm10":11.0,"pm2_5":8.6,"no2":6.2,"co":252.0,"o3":89.0,"so2":2.7,"mosquito_risk":3,"arthritis_risk":5,"migraine_risk":7,"frizz_risk":1,"updated_at":"2026-06-23T23:29:19.328560+05:30"},{"city":"Imphal","state":"Manipur","latitude":24.817,"longitude":93.9368,"temp":22.8,"humidity":95,"rain":0.0,"pressure":919.8,"uv_index":8.65,"wind_gusts":27.0,"aqi":57,"pm10":18.5,"pm2_5":17.7,"no2":16.0,"co":713.0,"o3":39.0,"so2":3.5,"mosquito_risk":3,"arthritis_risk":5,"migraine_risk":7,"frizz_risk":1,"updated_at":"2026-06-23T23:29:19.328567+05:30"},{"city":"Aizawl","state":"Mizoram","latitude":23.7271,"longitude":92.7176,"temp":19.8,"humidity":96,"rain":0.0,"pressure":888.8,"uv_index":8.3,"wind_gusts":39.6,"aqi":35,"pm10":6.3,"pm2_5":6.1,"no2":6.3,"co":197.0,"o3":53.0,"so2":0.8,"mosquito_risk":3,"arthritis_risk":10,"migraine_risk":7,"frizz_risk":1,"updated_at":"2026-06-23T23:29:19.328573+05:30"},{"city":"Kohima","state":"Nagaland","latitude":25.6701,"longitude":94.1077,"temp":19.3,"humidity":91,"rain":0.0,"pressure":851.9,"uv_index":8.3,"wind_gusts":22.7,"aqi":44,"pm10":10.5,"pm2_5":9.0,"no2":9.9,"co":407.0,"o3":45.0,"so2":1.1,"mosquito_risk":3,"arthritis_risk":10,"migraine_risk":7,"frizz_risk":1,"updated_at":"2026-06-23T23:29:19.328580+05:30"},{"city":"Gangtok","state":"Sikkim","latitude":27.3314,"longitude":88.6138,"temp":17.7,"humidity":98,"rain":0.4,"pressure":834.1,"uv_index":9.1,"wind_gusts":29.5,"aqi":76,"pm10":10.3,"pm2_5":8.4,"no2":9.0,"co":390.0,"o3":111.0,"so2":3.7,"mosquito_risk":6,"arthritis_risk":10,"migraine_risk":7,"frizz_risk":1,"updated_at":"2026-06-23T23:29:19.328587+05:30"},{"city":"Siliguri","state":"West Bengal","latitude":26.7271,"longitude":88.3953,"temp":23.5,"humidity":97,"rain":0.1,"pressure":988.3,"uv_index":8.75,"wind_gusts":23.8,"aqi":85,"pm10":28.6,"pm2_5":19.3,"no2":11.4,"co":451.0,"o3":115.0,"so2":6.1,"mosquito_risk":6,"arthritis_risk":5,"migraine_risk":7,"frizz_risk":1,"updated_at":"2026-06-23T23:29:22.599462+05:30"},{"city":"Durgapur","state":"West Bengal","latitude":23.5204,"longitude":87.3119,"temp":27.1,"humidity":85,"rain":0.0,"pressure":989.7,"uv_index":9.0,"wind_gusts":36.4,"aqi":160,"pm10":70.8,"pm2_5":63.6,"no2":30.7,"co":891.0,"o3":79.0,"so2":45.3,"mosquito_risk":7,"arthritis_risk":5,"migraine_risk":7,"frizz_risk":1,"updated_at":"2026-06-23T23:29:22.599494+05:30"},{"city":"Asansol","state":"West Bengal","latitude":23.6739,"longitude":86.9524,"temp":27.6,"humidity":83,"rain":0.0,"pressure":988.2,"uv_index":9.05,"wind_gusts":49.0,"aqi":154,"pm10":64.7,"pm2_5":57.7,"no2":37.3,"co":395.0,"o3":70.0,"so2":60.8,"mosquito_risk":7,"arthritis_risk":5,"migraine_risk":7,"frizz_risk":1,"updated_at":"2026-06-23T23:29:22.599506+05:30"},{"city":"Pondicherry","state":"Puducherry","latitude":11.9139,"longitude":79.8145,"temp":28.5,"humidity":84,"rain":0.1,"pressure":1008.4,"uv_index":7.15,"wind_gusts":33.8,"aqi":61,"pm10":12.9,"pm2_5":11.7,"no2":11.8,"co":316.0,"o3":74.0,"so2":6.5,"mosquito_risk":10,"arthritis_risk":0,"migraine_risk":4,"frizz_risk":1,"updated_at":"2026-06-23T23:29:22.599514+05:30"},{"city":"Port Blair","state":"Andaman and Nicobar Islands","latitude":11.6234,"longitude":92.7265,"temp":26.9,"humidity":85,"rain":0.0,"pressure":1007.3,"uv_index":8.75,"wind_gusts":40.7,"aqi":25,"pm10":10.7,"pm2_5":6.3,"no2":0.2,"co":88.0,"o3":45.0,"so2":0.3,"mosquito_risk":7,"arthritis_risk":5,"migraine_risk":4,"frizz_risk":1,"updated_at":"2026-06-23T23:29:22.599522+05:30"},{"city":"Haridwar","state":"Uttarakhand","latitude":29.9457,"longitude":78.1642,"temp":26.3,"humidity":81,"rain":0.0,"pressure":968.5,"uv_index":7.6,"wind_gusts":25.2,"aqi":129,"pm10":125.3,"pm2_5":58.1,"no2":31.0,"co":483.0,"o3":83.0,"so2":15.1,"mosquito_risk":7,"arthritis_risk":5,"migraine_risk":7,"frizz_risk":1,"updated_at":"2026-06-23T23:29:22.599530+05:30"},{"city":"Rishikesh","state":"Uttarakhand","latitude":30.0869,"longitude":78.2676,"temp":24.4,"humidity":85,"rain":0.0,"pressure":961.4,"uv_index":7.7,"wind_gusts":22.3,"aqi":132,"pm10":46.1,"pm2_5":31.0,"no2":16.4,"co":444.0,"o3":115.0,"so2":9.1,"mosquito_risk":3,"arthritis_risk":5,"migraine_risk":7,"frizz_risk":1,"updated_at":"2026-06-23T23:29:22.599537+05:30"},{"city":"Nainital","state":"Uttarakhand","latitude":29.3919,"longitude":79.4542,"temp":15.0,"humidity":92,"rain":0.0,"pressure":802.0,"uv_index":7.35,"wind_gusts":29.2,"aqi":105,"pm10":52.9,"pm2_5":31.8,"no2":16.6,"co":422.0,"o3":103.0,"so2":8.1,"mosquito_risk":3,"arthritis_risk":10,"migraine_risk":7,"frizz_risk":0,"updated_at":"2026-06-23T23:29:22.599545+05:30"},{"city":"Mussoorie","state":"Uttarakhand","latitude":30.4599,"longitude":78.0664,"temp":15.7,"humidity":87,"rain":0.0,"pressure":799.8,"uv_index":8.1,"wind_gusts":43.2,"aqi":124,"pm10":32.5,"pm2_5":29.5,"no2":28.9,"co":371.0,"o3":90.0,"so2":8.8,"mosquito_risk":3,"arthritis_risk":10,"migraine_risk":7,"frizz_risk":0,"updated_at":"2026-06-23T23:29:22.599553+05:30"},{"city":"Dharamshala","state":"Himachal Pradesh","latitude":32.219,"longitude":76.3234,"temp":21.2,"humidity":63,"rain":0.0,"pressure":865.3,"uv_index":8.55,"wind_gusts":37.8,"aqi":51,"pm10":18.9,"pm2_5":17.5,"no2":18.0,"co":307.0,"o3":43.0,"so2":0.3,"mosquito_risk":3,"arthritis_risk":5,"migraine_risk":7,"frizz_risk":0,"updated_at":"2026-06-23T23:29:22.599560+05:30"},{"city":"Dalhousie","state":"Himachal Pradesh","latitude":32.5387,"longitude":75.971,"temp":14.8,"humidity":82,"rain":0.0,"pressure":800.3,"uv_index":8.8,"wind_gusts":37.1,"aqi":98,"pm10":39.2,"pm2_5":35.7,"no2":45.7,"co":515.0,"o3":54.0,"so2":3.1,"mosquito_risk":3,"arthritis_risk":10,"migraine_risk":7,"frizz_risk":0,"updated_at":"2026-06-23T23:29:22.599568+05:30"},{"city":"Patiala","state":"Punjab","latitude":30.3398,"longitude":76.3869,"temp":30.3,"humidity":58,"rain":0.0,"pressure":972.0,"uv_index":7.65,"wind_gusts":40.0,"aqi":156,"pm10":114.6,"pm2_5":55.9,"no2":19.5,"co":480.0,"o3":80.0,"so2":10.7,"mosquito_risk":0,"arthritis_risk":5,"migraine_risk":7,"frizz_risk":1,"updated_at":"2026-06-23T23:29:22.599576+05:30"},{"city":"Bhatinda","state":"Punjab","latitude":30.211,"longitude":74.9455,"temp":30.3,"humidity":58,"rain":0.0,"pressure":977.0,"uv_index":8.3,"wind_gusts":51.5,"aqi":132,"pm10":143.9,"pm2_5":78.2,"no2":60.6,"co":475.0,"o3":39.0,"so2":13.4,"mosquito_risk":0,"arthritis_risk":5,"migraine_risk":7,"frizz_risk":1,"updated_at":"2026-06-23T23:29:22.599583+05:30"},{"city":"Rohtak","state":"Haryana","latitude":28.8955,"longitude":76.6066,"temp":29.1,"humidity":66,"rain":0.0,"pressure":975.7,"uv_index":7.8,"wind_gusts":37.4,"aqi":193,"pm10":558.8,"pm2_5":133.6,"no2":60.2,"co":545.0,"o3":19.0,"so2":11.0,"mosquito_risk":7,"arthritis_risk":5,"migraine_risk":7,"frizz_risk":1,"updated_at":"2026-06-23T23:29:22.599590+05:30"},{"city":"Panipat","state":"Haryana","latitude":29.3909,"longitude":76.9635,"temp":29.3,"humidity":62,"rain":0.0,"pressure":974.4,"uv_index":7.65,"wind_gusts":47.5,"aqi":745,"pm10":720.8,"pm2_5":151.3,"no2":40.1,"co":468.0,"o3":43.0,"so2":9.7,"mosquito_risk":7,"arthritis_risk":5,"migraine_risk":7,"frizz_risk":1,"updated_at":"2026-06-23T23:29:22.599597+05:30"},{"city":"Mathura","state":"Uttar Pradesh","latitude":27.4924,"longitude":77.6737,"temp":30.7,"humidity":57,"rain":0.0,"pressure":981.3,"uv_index":8.05,"wind_gusts":40.7,"aqi":191,"pm10":860.5,"pm2_5":140.6,"no2":24.1,"co":484.0,"o3":45.0,"so2":4.8,"mosquito_risk":0,"arthritis_risk":5,"migraine_risk":7,"frizz_risk":1,"updated_at":"2026-06-23T23:29:22.599604+05:30"},{"city":"Vrindavan","state":"Uttar Pradesh","latitude":27.5823,"longitude":77.7027,"temp":29.6,"humidity":65,"rain":0.0,"pressure":981.7,"uv_index":8.05,"wind_gusts":38.2,"aqi":191,"pm10":860.5,"pm2_5":140.6,"no2":24.1,"co":574.0,"o3":45.0,"so2":4.8,"mosquito_risk":7,"arthritis_risk":5,"migraine_risk":7,"frizz_risk":1,"updated_at":"2026-06-23T23:29:22.599611+05:30"},{"city":"Ayodhya","state":"Uttar Pradesh","latitude":26.7922,"longitude":82.1998,"temp":31.2,"humidity":56,"rain":0.0,"pressure":989.1,"uv_index":8.4,"wind_gusts":36.0,"aqi":150,"pm10":157.9,"pm2_5":65.0,"no2":25.1,"co":649.0,"o3":69.0,"so2":10.0,"mosquito_risk":0,"arthritis_risk":5,"migraine_risk":7,"frizz_risk":1,"updated_at":"2026-06-23T23:29:22.599618+05:30"},{"city":"Ratlam","state":"Madhya Pradesh","latitude":23.3315,"longitude":75.0367,"temp":24.9,"humidity":88,"rain":0.0,"pressure":951.1,"uv_index":7.65,"wind_gusts":42.5,"aqi":69,"pm10":46.2,"pm2_5":32.0,"no2":7.4,"co":231.0,"o3":65.0,"so2":4.1,"mosquito_risk":3,"arthritis_risk":5,"migraine_risk":7,"frizz_risk":1,"updated_at":"2026-06-23T23:29:22.599626+05:30"},{"city":"Sagar","state":"Madhya Pradesh","latitude":23.8388,"longitude":78.7378,"temp":25.5,"humidity":84,"rain":0.0,"pressure":946.5,"uv_index":6.3,"wind_gusts":44.3,"aqi":67,"pm10":28.8,"pm2_5":19.8,"no2":7.7,"co":187.0,"o3":70.0,"so2":2.9,"mosquito_risk":7,"arthritis_risk":5,"migraine_risk":7,"frizz_risk":1,"updated_at":"2026-06-23T23:29:22.599633+05:30"},{"city":"Satna","state":"Madhya Pradesh","latitude":24.6005,"longitude":80.8322,"temp":30.2,"humidity":60,"rain":0.0,"pressure":967.2,"uv_index":8.8,"wind_gusts":41.8,"aqi":95,"pm10":48.3,"pm2_5":31.8,"no2":12.6,"co":198.0,"o3":64.0,"so2":5.0,"mosquito_risk":0,"arthritis_risk":5,"migraine_risk":7,"frizz_risk":1,"updated_at":"2026-06-23T23:29:22.599640+05:30"},{"city":"Akola","state":"Maharashtra","latitude":20.7002,"longitude":77.0082,"temp":26.4,"humidity":89,"rain":0.0,"pressure":972.6,"uv_index":8.8,"wind_gusts":31.7,"aqi":42,"pm10":8.6,"pm2_5":8.1,"no2":8.5,"co":184.0,"o3":69.0,"so2":3.5,"mosquito_risk":7,"arthritis_risk":5,"migraine_risk":7,"frizz_risk":1,"updated_at":"2026-06-23T23:29:22.599647+05:30"},{"city":"Amravati","state":"Maharashtra","latitude":20.9374,"longitude":77.7796,"temp":25.3,"humidity":93,"rain":0.1,"pressure":965.0,"uv_index":8.7,"wind_gusts":38.5,"aqi":40,"pm10":9.1,"pm2_5":8.8,"no2":9.9,"co":224.0,"o3":63.0,"so2":3.9,"mosquito_risk":10,"arthritis_risk":5,"migraine_risk":7,"frizz_risk":1,"updated_at":"2026-06-23T23:29:22.599655+05:30"},{"city":"Latur","state":"Maharashtra","latitude":18.4088,"longitude":76.5604,"temp":26.1,"humidity":69,"rain":0.0,"pressure":937.7,"uv_index":5.5,"wind_gusts":45.7,"aqi":27,"pm10":4.1,"pm2_5":3.9,"no2":5.2,"co":149.0,"o3":45.0,"so2":1.4,"mosquito_risk":7,"arthritis_risk":5,"migraine_risk":3,"frizz_risk":1,"updated_at":"2026-06-23T23:29:22.599663+05:30"},{"city":"Nanded","state":"Maharashtra","latitude":19.1383,"longitude":77.3091,"temp":25.5,"humidity":91,"rain":0.0,"pressure":966.5,"uv_index":7.5,"wind_gusts":50.8,"aqi":32,"pm10":7.8,"pm2_5":7.5,"no2":9.8,"co":193.0,"o3":41.0,"so2":4.0,"mosquito_risk":7,"arthritis_risk":5,"migraine_risk":7,"frizz_risk":1,"updated_at":"2026-06-23T23:29:22.599670+05:30"},{"city":"Gulbarga","state":"Karnataka","latitude":17.3297,"longitude":76.8343,"temp":26.8,"humidity":67,"rain":0.0,"pressure":957.3,"uv_index":6.1,"wind_gusts":53.3,"aqi":27,"pm10":4.0,"pm2_5":3.2,"no2":6.7,"co":138.0,"o3":45.0,"so2":2.7,"mosquito_risk":7,"arthritis_risk":5,"migraine_risk":7,"frizz_risk":1,"updated_at":"2026-06-23T23:29:22.599677+05:30"},{"city":"Bidar","state":"Karnataka","latitude":17.9104,"longitude":77.5199,"temp":26.7,"humidity":63,"rain":0.0,"pressure":933.7,"uv_index":7.7,"wind_gusts":54.7,"aqi":32,"pm10":6.3,"pm2_5":5.9,"no2":11.4,"co":156.0,"o3":42.0,"so2":2.8,"mosquito_risk":7,"arthritis_risk":5,"migraine_risk":7,"frizz_risk":1,"updated_at":"2026-06-23T23:29:22.599684+05:30"},{"city":"Hospet","state":"Karnataka","latitude":15.2689,"longitude":76.3909,"temp":24.4,"humidity":81,"rain":0.0,"pressure":955.3,"uv_index":7.7,"wind_gusts":57.6,"aqi":26,"pm10":2.5,"pm2_5":2.2,"no2":5.1,"co":128.0,"o3":42.0,"so2":1.5,"mosquito_risk":3,"arthritis_risk":5,"migraine_risk":7,"frizz_risk":1,"updated_at":"2026-06-23T23:29:22.599691+05:30"},{"city":"Tirupur","state":"Tamil Nadu","latitude":11.1085,"longitude":77.3411,"temp":24.5,"humidity":88,"rain":0.0,"pressure":976.3,"uv_index":7.9,"wind_gusts":51.5,"aqi":34,"pm10":16.5,"pm2_5":14.8,"no2":19.9,"co":162.0,"o3":32.0,"so2":5.6,"mosquito_risk":3,"arthritis_risk":5,"migraine_risk":7,"frizz_risk":1,"updated_at":"2026-06-23T23:29:22.599697+05:30"},{"city":"Alappuzha","state":"Kerala","latitude":9.4981,"longitude":76.3388,"temp":25.0,"humidity":98,"rain":0.1,"pressure":1011.7,"uv_index":6.1,"wind_gusts":37.4,"aqi":38,"pm10":16.1,"pm2_5":12.2,"no2":11.0,"co":192.0,"o3":37.0,"so2":3.0,"mosquito_risk":10,"arthritis_risk":0,"migraine_risk":4,"frizz_risk":1,"updated_at":"2026-06-23T23:29:22.599704+05:30"},{"city":"Munnar","state":"Kerala","latitude":10.0889,"longitude":77.0595,"temp":16.6,"humidity":97,"rain":0.0,"pressure":858.2,"uv_index":8.8,"wind_gusts":42.1,"aqi":25,"pm10":7.7,"pm2_5":6.4,"no2":7.0,"co":101.0,"o3":38.0,"so2":1.9,"mosquito_risk":3,"arthritis_risk":10,"migraine_risk":7,"frizz_risk":1,"updated_at":"2026-06-23T23:29:22.599711+05:30"},{"city":"Silchar","state":"Assam","latitude":24.8333,"longitude":92.7789,"temp":25.6,"humidity":97,"rain":0.0,"pressure":1001.4,"uv_index":8.8,"wind_gusts":24.5,"aqi":70,"pm10":29.5,"pm2_5":25.0,"no2":10.4,"co":271.0,"o3":60.0,"so2":5.3,"mosquito_risk":7,"arthritis_risk":5,"migraine_risk":4,"frizz_risk":1,"updated_at":"2026-06-23T23:29:22.599719+05:30"},{"city":"Dibrugarh","state":"Assam","latitude":27.4728,"longitude":94.912,"temp":25.3,"humidity":97,"rain":0.2,"pressure":991.2,"uv_index":7.7,"wind_gusts":26.3,"aqi":68,"pm10":24.9,"pm2_5":21.6,"no2":13.5,"co":247.0,"o3":73.0,"so2":2.2,"mosquito_risk":10,"arthritis_risk":5,"migraine_risk":7,"frizz_risk":1,"updated_at":"2026-06-23T23:29:22.599726+05:30"}]