[{"city":"Delhi","state":"Delhi","latitude":28.6139,"longitude":77.209,"temp":17.9,"humidity":92,"rain":0.0,"pressure":981.6,"uv_index":6.9,"wind_gusts":28.1,"aqi":280,"pm10":149.0,"pm2_5":45.1,"mosquito_risk":3,"arthritis_risk":10,"migraine_risk":7,"frizz_risk":1,"updated_at":"2026-04-08T05:09:58.275643+05:30"},{"city":"Mumbai","state":"Maharashtra","latitude":19.076,"longitude":72.8777,"temp":28.4,"humidity":74,"rain":0.0,"pressure":1008.8,"uv_index":7.95,"wind_gusts":20.5,"aqi":74,"pm10":85.7,"pm2_5":25.1,"mosquito_risk":7,"arthritis_risk":0,"migraine_risk":4,"frizz_risk":1,"updated_at":"2026-04-08T05:09:58.275694+05:30"},{"city":"Bangalore","state":"Karnataka","latitude":12.9716,"longitude":77.5946,"temp":21.2,"humidity":79,"rain":0.0,"pressure":911.0,"uv_index":9.6,"wind_gusts":23.0,"aqi":46,"pm10":19.0,"pm2_5":18.3,"mosquito_risk":3,"arthritis_risk":5,"migraine_risk":7,"frizz_risk":1,"updated_at":"2026-04-08T05:09:58.275709+05:30"},{"city":"Hyderabad","state":"Telangana","latitude":17.385,"longitude":78.4867,"temp":26.6,"humidity":48,"rain":0.0,"pressure":952.7,"uv_index":9.15,"wind_gusts":25.9,"aqi":85,"pm10":54.5,"pm2_5":37.3,"mosquito_risk":4,"arthritis_risk":5,"migraine_risk":7,"frizz_risk":0,"updated_at":"2026-04-08T05:09:58.275719+05:30"},{"city":"Chennai","state":"Tamil Nadu","latitude":13.0827,"longitude":80.2707,"temp":28.0,"humidity":84,"rain":0.0,"pressure":1006.6,"uv_index":9.35,"wind_gusts":36.7,"aqi":84,"pm10":32.4,"pm2_5":26.0,"mosquito_risk":7,"arthritis_risk":5,"migraine_risk":4,"frizz_risk":1,"updated_at":"2026-04-08T05:09:58.275728+05:30"},{"city":"Kolkata","state":"West Bengal","latitude":22.5726,"longitude":88.3639,"temp":22.1,"humidity":98,"rain":0.0,"pressure":1006.6,"uv_index":8.7,"wind_gusts":24.8,"aqi":110,"pm10":27.1,"pm2_5":24.4,"mosquito_risk":3,"arthritis_risk":5,"migraine_risk":4,"frizz_risk":1,"updated_at":"2026-04-08T05:09:58.275737+05:30"},{"city":"Pune","state":"Maharashtra","latitude":18.5204,"longitude":73.8567,"temp":20.3,"humidity":79,"rain":0.0,"pressure":948.5,"uv_index":8.5,"wind_gusts":40.3,"aqi":76,"pm10":54.8,"pm2_5":23.4,"mosquito_risk":3,"arthritis_risk":5,"migraine_risk":7,"frizz_risk":1,"updated_at":"2026-04-08T05:09:58.275748+05:30"},{"city":"Ahmedabad","state":"Gujarat","latitude":23.0225,"longitude":72.5714,"temp":25.1,"humidity":81,"rain":0.0,"pressure":1000.5,"uv_index":8.0,"wind_gusts":33.1,"aqi":59,"pm10":20.1,"pm2_5":10.1,"mosquito_risk":7,"arthritis_risk":5,"migraine_risk":4,"frizz_risk":1,"updated_at":"2026-04-08T05:09:58.275756+05:30"},{"city":"Jaipur","state":"Rajasthan","latitude":26.9124,"longitude":75.7873,"temp":18.6,"humidity":89,"rain":0.0,"pressure":957.2,"uv_index":7.65,"wind_gusts":36.7,"aqi":133,"pm10":105.7,"pm2_5":33.2,"mosquito_risk":3,"arthritis_risk":10,"migraine_risk":7,"frizz_risk":1,"updated_at":"2026-04-08T05:09:58.275764+05:30"},{"city":"Lucknow","state":"Uttar Pradesh","latitude":26.8467,"longitude":80.9462,"temp":19.9,"humidity":84,"rain":0.3,"pressure":993.4,"uv_index":7.45,"wind_gusts":36.7,"aqi":93,"pm10":73.8,"pm2_5":35.4,"mosquito_risk":6,"arthritis_risk":10,"migraine_risk":7,"frizz_risk":1,"updated_at":"2026-04-08T05:09:58.275772+05:30"},{"city":"Kanpur","state":"Uttar Pradesh","latitude":26.4499,"longitude":80.3319,"temp":19.7,"humidity":87,"rain":0.1,"pressure":990.9,"uv_index":7.5,"wind_gusts":29.5,"aqi":116,"pm10":94.3,"pm2_5":33.4,"mosquito_risk":6,"arthritis_risk":10,"migraine_risk":7,"frizz_risk":1,"updated_at":"2026-04-08T05:09:58.275779+05:30"},{"city":"Chandigarh","state":"Chandigarh","latitude":30.7333,"longitude":76.7794,"temp":16.1,"humidity":94,"rain":0.0,"pressure":967.6,"uv_index":5.5,"wind_gusts":30.6,"aqi":76,"pm10":51.2,"pm2_5":22.3,"mosquito_risk":3,"arthritis_risk":10,"migraine_risk":3,"frizz_risk":0,"updated_at":"2026-04-08T05:09:58.275787+05:30"},{"city":"Srinagar","state":"Jammu and Kashmir","latitude":34.0837,"longitude":74.7973,"temp":8.4,"humidity":91,"rain":0.0,"pressure":834.7,"uv_index":5.5,"wind_gusts":25.6,"aqi":56,"pm10":13.1,"pm2_5":12.7,"mosquito_risk":3,"arthritis_risk":10,"migraine_risk":3,"frizz_risk":0,"updated_at":"2026-04-08T05:09:58.275794+05:30"},{"city":"Jammu","state":"Jammu and Kashmir","latitude":32.7266,"longitude":74.857,"temp":16.0,"humidity":92,"rain":0.0,"pressure":972.7,"uv_index":7.2,"wind_gusts":21.2,"aqi":65,"pm10":43.8,"pm2_5":16.3,"mosquito_risk":3,"arthritis_risk":10,"migraine_risk":7,"frizz_risk":0,"updated_at":"2026-04-08T05:09:58.275802+05:30"},{"city":"Amritsar","state":"Punjab","latitude":31.634,"longitude":74.8723,"temp":15.6,"humidity":96,"rain":0.0,"pressure":980.5,"uv_index":7.2,"wind_gusts":20.9,"aqi":101,"pm10":65.4,"pm2_5":33.5,"mosquito_risk":3,"arthritis_risk":10,"migraine_risk":7,"frizz_risk":0,"updated_at":"2026-04-08T05:09:58.275809+05:30"},{"city":"Ludhiana","state":"Punjab","latitude":30.901,"longitude":75.8573,"temp":16.4,"humidity":90,"rain":0.0,"pressure":978.1,"uv_index":5.05,"wind_gusts":21.2,"aqi":144,"pm10":67.8,"pm2_5":28.6,"mosquito_risk":3,"arthritis_risk":10,"migraine_risk":3,"frizz_risk":0,"updated_at":"2026-04-08T05:09:58.275817+05:30"},{"city":"Jalandhar","state":"Punjab","latitude":31.326,"longitude":75.5762,"temp":15.9,"humidity":95,"rain":0.0,"pressure":979.4,"uv_index":5.6,"wind_gusts":24.1,"aqi":127,"pm10":68.2,"pm2_5":27.8,"mosquito_risk":3,"arthritis_risk":10,"migraine_risk":3,"frizz_risk":0,"updated_at":"2026-04-08T05:09:58.275825+05:30"},{"city":"Dehradun","state":"Uttarakhand","latitude":30.6284,"longitude":78.0322,"temp":9.4,"humidity":83,"rain":0.0,"pressure":824.7,"uv_index":2.25,"wind_gusts":42.5,"aqi":48,"pm10":43.4,"pm2_5":17.5,"mosquito_risk":3,"arthritis_risk":10,"migraine_risk":3,"frizz_risk":0,"updated_at":"2026-04-08T05:09:58.275833+05:30"},{"city":"Shimla","state":"Himachal Pradesh","latitude":31.1048,"longitude":77.1734,"temp":7.9,"humidity":81,"rain":0.0,"pressure":777.7,"uv_index":5.75,"wind_gusts":38.2,"aqi":59,"pm10":37.4,"pm2_5":15.7,"mosquito_risk":3,"arthritis_risk":10,"migraine_risk":3,"frizz_risk":0,"updated_at":"2026-04-08T05:09:58.275840+05:30"},{"city":"Manali","state":"Himachal Pradesh","latitude":32.2396,"longitude":77.1887,"temp":9.8,"humidity":99,"rain":0.2,"pressure":811.9,"uv_index":5.45,"wind_gusts":29.9,"aqi":48,"pm10":12.3,"pm2_5":10.5,"mosquito_risk":6,"arthritis_risk":10,"migraine_risk":3,"frizz_risk":0,"updated_at":"2026-04-08T05:09:58.275848+05:30"},{"city":"Gurgaon","state":"Haryana","latitude":28.4595,"longitude":77.0266,"temp":17.6,"humidity":94,"rain":0.0,"pressure":980.3,"uv_index":7.05,"wind_gusts":23.4,"aqi":1103,"pm10":353.0,"pm2_5":72.2,"mosquito_risk":3,"arthritis_risk":10,"migraine_risk":7,"frizz_risk":1,"updated_at":"2026-04-08T05:09:58.275855+05:30"},{"city":"Noida","state":"Uttar Pradesh","latitude":28.5355,"longitude":77.391,"temp":18.1,"humidity":93,"rain":0.0,"pressure":983.1,"uv_index":6.95,"wind_gusts":27.7,"aqi":1103,"pm10":353.0,"pm2_5":72.2,"mosquito_risk":3,"arthritis_risk":10,"migraine_risk":7,"frizz_risk":1,"updated_at":"2026-04-08T05:09:58.275862+05:30"},{"city":"Ghaziabad","state":"Uttar Pradesh","latitude":28.6692,"longitude":77.4538,"temp":17.2,"humidity":96,"rain":0.0,"pressure":981.4,"uv_index":6.9,"wind_gusts":27.7,"aqi":150,"pm10":143.4,"pm2_5":44.4,"mosquito_risk":3,"arthritis_risk":10,"migraine_risk":7,"frizz_risk":1,"updated_at":"2026-04-08T05:09:58.275869+05:30"},{"city":"Faridabad","state":"Haryana","latitude":28.4089,"longitude":77.3178,"temp":17.7,"humidity":95,"rain":0.0,"pressure":982.3,"uv_index":7.0,"wind_gusts":25.9,"aqi":1103,"pm10":353.0,"pm2_5":72.2,"mosquito_risk":3,"arthritis_risk":10,"migraine_risk":7,"frizz_risk":1,"updated_at":"2026-04-08T05:09:58.275875+05:30"},{"city":"Meerut","state":"Uttar Pradesh","latitude":28.9845,"longitude":77.7064,"temp":16.8,"humidity":94,"rain":0.0,"pressure":980.1,"uv_index":6.75,"wind_gusts":25.6,"aqi":150,"pm10":143.4,"pm2_5":44.4,"mosquito_risk":3,"arthritis_risk":10,"migraine_risk":7,"frizz_risk":0,"updated_at":"2026-04-08T05:09:58.275882+05:30"},{"city":"Agra","state":"Uttar Pradesh","latitude":27.1767,"longitude":78.0081,"temp":19.5,"humidity":93,"rain":0.0,"pressure":986.2,"uv_index":7.35,"wind_gusts":29.9,"aqi":527,"pm10":274.7,"pm2_5":56.3,"mosquito_risk":3,"arthritis_risk":10,"migraine_risk":7,"frizz_risk":1,"updated_at":"2026-04-08T05:09:58.275888+05:30"},{"city":"Varanasi","state":"Uttar Pradesh","latitude":25.3176,"longitude":82.9739,"temp":21.8,"humidity":72,"rain":0.0,"pressure":997.6,"uv_index":7.55,"wind_gusts":35.6,"aqi":85,"pm10":59.6,"pm2_5":29.3,"mosquito_risk":3,"arthritis_risk":5,"migraine_risk":7,"frizz_risk":1,"updated_at":"2026-04-08T05:09:58.275898+05:30"},{"city":"Prayagraj","state":"Uttar Pradesh","latitude":25.4358,"longitude":81.8463,"temp":21.5,"humidity":77,"rain":0.0,"pressure":996.3,"uv_index":7.95,"wind_gusts":36.0,"aqi":84,"pm10":63.6,"pm2_5":29.7,"mosquito_risk":3,"arthritis_risk":5,"migraine_risk":7,"frizz_risk":1,"updated_at":"2026-04-08T05:09:58.275907+05:30"},{"city":"Gorakhpur","state":"Uttar Pradesh","latitude":26.7606,"longitude":83.3732,"temp":22.3,"humidity":67,"rain":0.0,"pressure":997.4,"uv_index":7.0,"wind_gusts":38.5,"aqi":78,"pm10":69.6,"pm2_5":42.3,"mosquito_risk":3,"arthritis_risk":5,"migraine_risk":7,"frizz_risk":0,"updated_at":"2026-04-08T05:09:58.275914+05:30"},{"city":"Bareilly","state":"Uttar Pradesh","latitude":28.367,"longitude":79.4304,"temp":18.5,"humidity":94,"rain":0.2,"pressure":985.8,"uv_index":7.05,"wind_gusts":29.9,"aqi":78,"pm10":110.6,"pm2_5":41.1,"mosquito_risk":6,"arthritis_risk":10,"migraine_risk":7,"frizz_risk":1,"updated_at":"2026-04-08T05:09:58.275921+05:30"},{"city":"Aligarh","state":"Uttar Pradesh","latitude":27.8974,"longitude":78.088,"temp":18.3,"humidity":96,"rain":0.0,"pressure":983.7,"uv_index":7.1,"wind_gusts":28.4,"aqi":356,"pm10":363.2,"pm2_5":75.9,"mosquito_risk":3,"arthritis_risk":10,"migraine_risk":7,"frizz_risk":1,"updated_at":"2026-04-08T05:09:58.275928+05:30"},{"city":"Moradabad","state":"Uttar Pradesh","latitude":28.8386,"longitude":78.7733,"temp":17.6,"humidity":94,"rain":0.0,"pressure":982.5,"uv_index":4.6,"wind_gusts":27.4,"aqi":90,"pm10":87.3,"pm2_5":41.1,"mosquito_risk":3,"arthritis_risk":10,"migraine_risk":3,"frizz_risk":1,"updated_at":"2026-04-08T05:09:58.275934+05:30"},{"city":"Saharanpur","state":"Uttar Pradesh","latitude":29.9637,"longitude":77.546,"temp":16.5,"humidity":93,"rain":0.0,"pressure":974.6,"uv_index":5.45,"wind_gusts":24.8,"aqi":84,"pm10":60.8,"pm2_5":29.3,"mosquito_risk":3,"arthritis_risk":10,"migraine_risk":3,"frizz_risk":0,"updated_at":"2026-04-08T05:09:58.275942+05:30"},{"city":"Jhansi","state":"Uttar Pradesh","latitude":25.4484,"longitude":78.5685,"temp":19.8,"humidity":85,"rain":0.0,"pressure":976.6,"uv_index":7.95,"wind_gusts":42.8,"aqi":77,"pm10":46.2,"pm2_5":23.9,"mosquito_risk":3,"arthritis_risk":10,"migraine_risk":7,"frizz_risk":1,"updated_at":"2026-04-08T05:10:13.641736+05:30"},{"city":"Surat","state":"Gujarat","latitude":21.1702,"longitude":72.8311,"temp":26.6,"humidity":81,"rain":0.0,"pressure":1006.3,"uv_index":7.7,"wind_gusts":42.8,"aqi":68,"pm10":39.5,"pm2_5":21.2,"mosquito_risk":7,"arthritis_risk":5,"migraine_risk":4,"frizz_risk":1,"updated_at":"2026-04-08T05:10:13.641772+05:30"},{"city":"Vadodara","state":"Gujarat","latitude":22.3072,"longitude":73.1812,"temp":25.9,"humidity":84,"rain":0.0,"pressure":1003.2,"uv_index":7.95,"wind_gusts":41.4,"aqi":65,"pm10":23.4,"pm2_5":12.5,"mosquito_risk":7,"arthritis_risk":5,"migraine_risk":4,"frizz_risk":1,"updated_at":"2026-04-08T05:10:13.641785+05:30"},{"city":"Rajkot","state":"Gujarat","latitude":22.3039,"longitude":70.8022,"temp":24.7,"humidity":89,"rain":0.0,"pressure":992.8,"uv_index":7.7,"wind_gusts":36.0,"aqi":55,"pm10":17.3,"pm2_5":8.5,"mosquito_risk":3,"arthritis_risk":5,"migraine_risk":7,"frizz_risk":1,"updated_at":"2026-04-08T05:10:13.641795+05:30"},{"city":"Thane","state":"Maharashtra","latitude":19.2183,"longitude":72.9781,"temp":26.3,"humidity":84,"rain":0.0,"pressure":1008.3,"uv_index":7.95,"wind_gusts":36.7,"aqi":74,"pm10":85.7,"pm2_5":25.1,"mosquito_risk":7,"arthritis_risk":0,"migraine_risk":4,"frizz_risk":1,"updated_at":"2026-04-08T05:10:13.641805+05:30"},{"city":"Nagpur","state":"Maharashtra","latitude":21.1458,"longitude":79.0882,"temp":22.1,"humidity":66,"rain":0.0,"pressure":972.1,"uv_index":8.25,"wind_gusts":35.6,"aqi":72,"pm10":41.9,"pm2_5":23.1,"mosquito_risk":3,"arthritis_risk":5,"migraine_risk":7,"frizz_risk":0,"updated_at":"2026-04-08T05:10:13.641814+05:30"},{"city":"Nashik","state":"Maharashtra","latitude":19.9975,"longitude":73.7898,"temp":21.6,"humidity":90,"rain":0.0,"pressure":945.2,"uv_index":8.2,"wind_gusts":43.9,"aqi":60,"pm10":49.6,"pm2_5":21.0,"mosquito_risk":3,"arthritis_risk":5,"migraine_risk":7,"frizz_risk":1,"updated_at":"2026-04-08T05:10:13.641823+05:30"},{"city":"Aurangabad","state":"Maharashtra","latitude":19.8762,"longitude":75.3433,"temp":21.6,"humidity":77,"rain":0.0,"pressure":943.8,"uv_index":8.85,"wind_gusts":47.9,"aqi":59,"pm10":47.6,"pm2_5":16.0,"mosquito_risk":3,"arthritis_risk":5,"migraine_risk":7,"frizz_risk":1,"updated_at":"2026-04-08T05:10:13.641832+05:30"},{"city":"Solapur","state":"Maharashtra","latitude":17.6599,"longitude":75.9064,"temp":23.7,"humidity":56,"rain":0.0,"pressure":957.1,"uv_index":8.95,"wind_gusts":31.0,"aqi":63,"pm10":46.7,"pm2_5":25.3,"mosquito_risk":0,"arthritis_risk":5,"migraine_risk":7,"frizz_risk":0,"updated_at":"2026-04-08T05:10:13.641841+05:30"},{"city":"Kolhapur","state":"Maharashtra","latitude":16.705,"longitude":74.2433,"temp":18.3,"humidity":91,"rain":0.0,"pressure":947.7,"uv_index":9.0,"wind_gusts":42.8,"aqi":59,"pm10":42.8,"pm2_5":21.9,"mosquito_risk":3,"arthritis_risk":10,"migraine_risk":7,"frizz_risk":1,"updated_at":"2026-04-08T05:10:13.641850+05:30"},{"city":"Goa","state":"Goa","latitude":15.2993,"longitude":74.124,"temp":25.3,"humidity":80,"rain":0.0,"pressure":998.5,"uv_index":9.0,"wind_gusts":38.5,"aqi":54,"pm10":42.6,"pm2_5":19.6,"mosquito_risk":7,"arthritis_risk":5,"migraine_risk":7,"frizz_risk":1,"updated_at":"2026-04-08T05:10:13.641859+05:30"},{"city":"Jodhpur","state":"Rajasthan","latitude":26.2389,"longitude":73.0243,"temp":21.0,"humidity":88,"rain":0.0,"pressure":981.3,"uv_index":7.9,"wind_gusts":24.8,"aqi":108,"pm10":118.7,"pm2_5":29.8,"mosquito_risk":3,"arthritis_risk":5,"migraine_risk":7,"frizz_risk":1,"updated_at":"2026-04-08T05:10:13.641868+05:30"},{"city":"Udaipur","state":"Rajasthan","latitude":24.5854,"longitude":73.7125,"temp":21.0,"humidity":55,"rain":0.0,"pressure":943.7,"uv_index":8.5,"wind_gusts":33.1,"aqi":66,"pm10":20.8,"pm2_5":10.3,"mosquito_risk":0,"arthritis_risk":5,"migraine_risk":7,"frizz_risk":0,"updated_at":"2026-04-08T05:10:13.641875+05:30"},{"city":"Kota","state":"Rajasthan","latitude":25.2138,"longitude":75.8648,"temp":20.5,"humidity":84,"rain":0.0,"pressure":976.4,"uv_index":7.95,"wind_gusts":34.2,"aqi":73,"pm10":37.1,"pm2_5":22.0,"mosquito_risk":3,"arthritis_risk":5,"migraine_risk":7,"frizz_risk":1,"updated_at":"2026-04-08T05:10:13.641884+05:30"},{"city":"Bikaner","state":"Rajasthan","latitude":28.0229,"longitude":73.3119,"temp":18.5,"humidity":83,"rain":0.0,"pressure":980.0,"uv_index":7.7,"wind_gusts":25.6,"aqi":63,"pm10":36.0,"pm2_5":12.9,"mosquito_risk":3,"arthritis_risk":10,"migraine_risk":7,"frizz_risk":0,"updated_at":"2026-04-08T05:10:13.641892+05:30"},{"city":"Ajmer","state":"Rajasthan","latitude":26.4499,"longitude":74.6399,"temp":19.1,"humidity":92,"rain":0.0,"pressure":951.9,"uv_index":7.85,"wind_gusts":30.2,"aqi":68,"pm10":121.1,"pm2_5":25.4,"mosquito_risk":3,"arthritis_risk":10,"migraine_risk":7,"frizz_risk":1,"updated_at":"2026-04-08T05:10:13.641901+05:30"},{"city":"Gwalior","state":"Madhya Pradesh","latitude":26.2183,"longitude":78.1828,"temp":19.9,"humidity":88,"rain":0.0,"pressure":981.2,"uv_index":7.65,"wind_gusts":34.9,"aqi":80,"pm10":39.6,"pm2_5":20.8,"mosquito_risk":3,"arthritis_risk":10,"migraine_risk":7,"frizz_risk":1,"updated_at":"2026-04-08T05:10:13.641909+05:30"},{"city":"Indore","state":"Madhya Pradesh","latitude":22.7196,"longitude":75.8577,"temp":22.4,"humidity":86,"rain":0.0,"pressure":946.3,"uv_index":8.4,"wind_gusts":49.7,"aqi":70,"pm10":44.2,"pm2_5":20.0,"mosquito_risk":3,"arthritis_risk":5,"migraine_risk":7,"frizz_risk":1,"updated_at":"2026-04-08T05:10:13.641917+05:30"},{"city":"Bhopal","state":"Madhya Pradesh","latitude":23.2599,"longitude":77.4126,"temp":22.8,"humidity":77,"rain":0.0,"pressure":951.6,"uv_index":8.15,"wind_gusts":51.1,"aqi":66,"pm10":64.5,"pm2_5":26.4,"mosquito_risk":3,"arthritis_risk":5,"migraine_risk":7,"frizz_risk":1,"updated_at":"2026-04-08T05:10:13.641925+05:30"},{"city":"Jabalpur","state":"Madhya Pradesh","latitude":23.1815,"longitude":79.9864,"temp":23.7,"humidity":56,"rain":0.0,"pressure":959.9,"uv_index":8.45,"wind_gusts":49.0,"aqi":89,"pm10":55.4,"pm2_5":35.0,"mosquito_risk":0,"arthritis_risk":5,"migraine_risk":7,"frizz_risk":0,"updated_at":"2026-04-08T05:10:13.641934+05:30"},{"city":"Ujjain","state":"Madhya Pradesh","latitude":23.1765,"longitude":75.7885,"temp":22.7,"humidity":87,"rain":0.0,"pressure":951.8,"uv_index":8.3,"wind_gusts":47.9,"aqi":69,"pm10":44.0,"pm2_5":20.1,"mosquito_risk":3,"arthritis_risk":5,"migraine_risk":7,"frizz_risk":1,"updated_at":"2026-04-08T05:10:13.641943+05:30"},{"city":"Visakhapatnam","state":"Andhra Pradesh","latitude":17.6868,"longitude":83.2185,"temp":26.6,"humidity":90,"rain":0.0,"pressure":1003.4,"uv_index":9.1,"wind_gusts":45.4,"aqi":72,"pm10":29.2,"pm2_5":24.2,"mosquito_risk":7,"arthritis_risk":5,"migraine_risk":4,"frizz_risk":1,"updated_at":"2026-04-08T05:10:13.641952+05:30"},{"city":"Vijayawada","state":"Andhra Pradesh","latitude":16.5062,"longitude":80.648,"temp":27.4,"humidity":90,"rain":0.0,"pressure":1002.4,"uv_index":9.15,"wind_gusts":28.4,"aqi":101,"pm10":31.9,"pm2_5":29.1,"mosquito_risk":7,"arthritis_risk":5,"migraine_risk":4,"frizz_risk":1,"updated_at":"2026-04-08T05:10:13.641961+05:30"},{"city":"Guntur","state":"Andhra Pradesh","latitude":16.3067,"longitude":80.4365,"temp":27.8,"humidity":90,"rain":0.0,"pressure":1003.2,"uv_index":9.15,"wind_gusts":31.3,"aqi":98,"pm10":29.2,"pm2_5":26.4,"mosquito_risk":7,"arthritis_risk":5,"migraine_risk":4,"frizz_risk":1,"updated_at":"2026-04-08T05:10:13.641969+05:30"},{"city":"Nellore","state":"Andhra Pradesh","latitude":14.4426,"longitude":79.9865,"temp":27.6,"humidity":92,"rain":0.0,"pressure":1004.8,"uv_index":9.3,"wind_gusts":38.5,"aqi":81,"pm10":29.9,"pm2_5":27.5,"mosquito_risk":7,"arthritis_risk":5,"migraine_risk":4,"frizz_risk":1,"updated_at":"2026-04-08T05:10:13.641979+05:30"},{"city":"Kurnool","state":"Andhra Pradesh","latitude":15.8281,"longitude":78.0373,"temp":26.7,"humidity":52,"rain":0.0,"pressure":976.3,"uv_index":9.15,"wind_gusts":25.9,"aqi":67,"pm10":30.3,"pm2_5":29.5,"mosquito_risk":4,"arthritis_risk":5,"migraine_risk":7,"frizz_risk":0,"updated_at":"2026-04-08T05:10:13.641989+05:30"},{"city":"Kakinada","state":"Andhra Pradesh","latitude":16.9891,"longitude":82.2475,"temp":26.7,"humidity":95,"rain":0.0,"pressure":1007.1,"uv_index":9.1,"wind_gusts":29.9,"aqi":64,"pm10":31.9,"pm2_5":25.4,"mosquito_risk":7,"arthritis_risk":5,"migraine_risk":4,"frizz_risk":1,"updated_at":"2026-04-08T05:10:13.641997+05:30"},{"city":"Tirupati","state":"Andhra Pradesh","latitude":13.6288,"longitude":79.4192,"temp":26.4,"humidity":91,"rain":0.0,"pressure":991.4,"uv_index":9.05,"wind_gusts":30.6,"aqi":90,"pm10":45.9,"pm2_5":43.0,"mosquito_risk":7,"arthritis_risk":5,"migraine_risk":7,"frizz_risk":1,"updated_at":"2026-04-08T05:10:13.642006+05:30"},{"city":"Warangal","state":"Telangana","latitude":17.9689,"longitude":79.5941,"temp":26.3,"humidity":85,"rain":0.0,"pressure":978.1,"uv_index":9.0,"wind_gusts":21.2,"aqi":106,"pm10":48.9,"pm2_5":40.9,"mosquito_risk":7,"arthritis_risk":5,"migraine_risk":7,"frizz_risk":1,"updated_at":"2026-04-08T05:10:13.642013+05:30"},{"city":"Nizamabad","state":"Telangana","latitude":18.6725,"longitude":78.0941,"temp":25.1,"humidity":54,"rain":0.0,"pressure":964.6,"uv_index":8.95,"wind_gusts":27.4,"aqi":74,"pm10":50.5,"pm2_5":32.2,"mosquito_risk":4,"arthritis_risk":5,"migraine_risk":7,"frizz_risk":0,"updated_at":"2026-04-08T05:10:13.642019+05:30"},{"city":"Mysore","state":"Karnataka","latitude":12.2958,"longitude":76.6396,"temp":20.0,"humidity":92,"rain":0.0,"pressure":927.8,"uv_index":9.45,"wind_gusts":44.3,"aqi":42,"pm10":16.5,"pm2_5":15.4,"mosquito_risk":3,"arthritis_risk":5,"migraine_risk":7,"frizz_risk":1,"updated_at":"2026-04-08T05:10:13.642026+05:30"},{"city":"Mangalore","state":"Karnataka","latitude":12.9141,"longitude":74.856,"temp":28.3,"humidity":75,"rain":0.0,"pressure":1006.9,"uv_index":9.15,"wind_gusts":31.0,"aqi":55,"pm10":20.0,"pm2_5":15.3,"mosquito_risk":7,"arthritis_risk":5,"migraine_risk":4,"frizz_risk":1,"updated_at":"2026-04-08T05:10:13.642032+05:30"},{"city":"Hubli-Dharwad","state":"Karnataka","latitude":15.3647,"longitude":75.124,"temp":20.0,"humidity":95,"rain":0.0,"pressure":940.8,"uv_index":9.2,"wind_gusts":43.2,"aqi":36,"pm10":20.7,"pm2_5":13.6,"mosquito_risk":3,"arthritis_risk":5,"migraine_risk":7,"frizz_risk":1,"updated_at":"2026-04-08T05:10:13.642039+05:30"},{"city":"Belgaum","state":"Karnataka","latitude":15.8497,"longitude":74.4977,"temp":18.1,"humidity":97,"rain":0.0,"pressure":925.0,"uv_index":9.2,"wind_gusts":42.8,"aqi":50,"pm10":45.3,"pm2_5":21.4,"mosquito_risk":3,"arthritis_risk":10,"migraine_risk":7,"frizz_risk":1,"updated_at":"2026-04-08T05:10:16.981090+05:30"},{"city":"Coimbatore","state":"Tamil Nadu","latitude":11.0168,"longitude":76.9558,"temp":23.4,"humidity":82,"rain":0.0,"pressure":961.6,"uv_index":9.5,"wind_gusts":54.0,"aqi":52,"pm10":17.6,"pm2_5":15.5,"mosquito_risk":3,"arthritis_risk":5,"migraine_risk":7,"frizz_risk":1,"updated_at":"2026-04-08T05:10:16.981125+05:30"},{"city":"Madurai","state":"Tamil Nadu","latitude":9.9252,"longitude":78.1198,"temp":27.0,"humidity":84,"rain":0.0,"pressure":992.2,"uv_index":9.05,"wind_gusts":24.5,"aqi":97,"pm10":45.5,"pm2_5":42.8,"mosquito_risk":7,"arthritis_risk":5,"migraine_risk":7,"frizz_risk":1,"updated_at":"2026-04-08T05:10:16.981137+05:30"},{"city":"Trichy","state":"Tamil Nadu","latitude":10.7905,"longitude":78.7047,"temp":26.0,"humidity":86,"rain":0.0,"pressure":999.5,"uv_index":8.9,"wind_gusts":23.0,"aqi":83,"pm10":39.6,"pm2_5":35.3,"mosquito_risk":7,"arthritis_risk":5,"migraine_risk":7,"frizz_risk":1,"updated_at":"2026-04-08T05:10:16.981147+05:30"},{"city":"Salem","state":"Tamil Nadu","latitude":11.6643,"longitude":78.146,"temp":26.5,"humidity":70,"rain":0.0,"pressure":977.1,"uv_index":9.45,"wind_gusts":34.6,"aqi":60,"pm10":18.4,"pm2_5":16.4,"mosquito_risk":7,"arthritis_risk":5,"migraine_risk":7,"frizz_risk":1,"updated_at":"2026-04-08T05:10:16.981156+05:30"},{"city":"Tirunelveli","state":"Tamil Nadu","latitude":8.7139,"longitude":77.7567,"temp":27.0,"humidity":64,"rain":0.0,"pressure":1002.1,"uv_index":9.1,"wind_gusts":35.3,"aqi":64,"pm10":20.5,"pm2_5":15.8,"mosquito_risk":7,"arthritis_risk":5,"migraine_risk":4,"frizz_risk":1,"updated_at":"2026-04-08T05:10:16.981165+05:30"},{"city":"Vellore","state":"Tamil Nadu","latitude":12.9165,"longitude":79.1325,"temp":25.6,"humidity":90,"rain":0.0,"pressure":984.4,"uv_index":9.3,"wind_gusts":32.8,"aqi":99,"pm10":48.9,"pm2_5":45.4,"mosquito_risk":7,"arthritis_risk":5,"migraine_risk":7,"frizz_risk":1,"updated_at":"2026-04-08T05:10:16.981174+05:30"},{"city":"Erode","state":"Tamil Nadu","latitude":11.341,"longitude":77.7172,"temp":27.1,"humidity":73,"rain":0.0,"pressure":988.8,"uv_index":9.4,"wind_gusts":34.2,"aqi":60,"pm10":19.0,"pm2_5":16.4,"mosquito_risk":7,"arthritis_risk":5,"migraine_risk":7,"frizz_risk":1,"updated_at":"2026-04-08T05:10:16.981183+05:30"},{"city":"Kochi","state":"Kerala","latitude":9.9312,"longitude":76.2673,"temp":28.6,"humidity":72,"rain":0.0,"pressure":1008.7,"uv_index":9.2,"wind_gusts":33.8,"aqi":60,"pm10":21.0,"pm2_5":17.1,"mosquito_risk":7,"arthritis_risk":0,"migraine_risk":4,"frizz_risk":1,"updated_at":"2026-04-08T05:10:16.981192+05:30"},{"city":"Thiruvananthapuram","state":"Kerala","latitude":8.5241,"longitude":76.9366,"temp":28.2,"humidity":81,"rain":0.0,"pressure":1007.6,"uv_index":9.15,"wind_gusts":43.2,"aqi":58,"pm10":21.1,"pm2_5":13.2,"mosquito_risk":7,"arthritis_risk":5,"migraine_risk":4,"frizz_risk":1,"updated_at":"2026-04-08T05:10:16.981200+05:30"},{"city":"Kozhikode","state":"Kerala","latitude":11.2588,"longitude":75.7804,"temp":27.3,"humidity":80,"rain":0.0,"pressure":1008.0,"uv_index":9.15,"wind_gusts":29.2,"aqi":54,"pm10":20.5,"pm2_5":12.5,"mosquito_risk":7,"arthritis_risk":0,"migraine_risk":4,"frizz_risk":1,"updated_at":"2026-04-08T05:10:16.981208+05:30"},{"city":"Thrissur","state":"Kerala","latitude":10.5276,"longitude":76.2144,"temp":26.4,"humidity":82,"rain":0.0,"pressure":1007.0,"uv_index":9.2,"wind_gusts":35.3,"aqi":61,"pm10":28.6,"pm2_5":22.6,"mosquito_risk":7,"arthritis_risk":5,"migraine_risk":4,"frizz_risk":1,"updated_at":"2026-04-08T05:10:16.981217+05:30"},{"city":"Kannur","state":"Kerala","latitude":11.8745,"longitude":75.3704,"temp":26.2,"humidity":76,"rain":0.0,"pressure":1007.4,"uv_index":9.15,"wind_gusts":33.8,"aqi":53,"pm10":16.9,"pm2_5":12.4,"mosquito_risk":7,"arthritis_risk":5,"migraine_risk":4,"frizz_risk":1,"updated_at":"2026-04-08T05:10:16.981225+05:30"},{"city":"Patna","state":"Bihar","latitude":25.5941,"longitude":85.1376,"temp":23.3,"humidity":62,"rain":0.0,"pressure":1000.6,"uv_index":7.25,"wind_gusts":36.4,"aqi":98,"pm10":71.2,"pm2_5":45.6,"mosquito_risk":3,"arthritis_risk":5,"migraine_risk":4,"frizz_risk":0,"updated_at":"2026-04-08T05:10:16.981234+05:30"},{"city":"Gaya","state":"Bihar","latitude":24.7914,"longitude":85.0002,"temp":22.9,"humidity":61,"rain":0.0,"pressure":993.0,"uv_index":8.35,"wind_gusts":37.1,"aqi":66,"pm10":31.4,"pm2_5":20.4,"mosquito_risk":3,"arthritis_risk":5,"migraine_risk":7,"frizz_risk":0,"updated_at":"2026-04-08T05:10:16.981242+05:30"},{"city":"Muzaffarpur","state":"Bihar","latitude":26.1209,"longitude":85.3647,"temp":21.7,"humidity":64,"rain":0.0,"pressure":1000.9,"uv_index":6.0,"wind_gusts":31.7,"aqi":114,"pm10":76.6,"pm2_5":56.3,"mosquito_risk":3,"arthritis_risk":5,"migraine_risk":0,"frizz_risk":0,"updated_at":"2026-04-08T05:10:16.981250+05:30"},{"city":"Bhagalpur","state":"Bihar","latitude":25.2425,"longitude":87.0117,"temp":22.0,"humidity":85,"rain":0.0,"pressure":1001.4,"uv_index":8.3,"wind_gusts":25.6,"aqi":74,"pm10":45.9,"pm2_5":41.1,"mosquito_risk":3,"arthritis_risk":5,"migraine_risk":4,"frizz_risk":1,"updated_at":"2026-04-08T05:10:16.981259+05:30"},{"city":"Ranchi","state":"Jharkhand","latitude":23.3441,"longitude":85.3096,"temp":19.9,"humidity":87,"rain":0.0,"pressure":936.3,"uv_index":8.65,"wind_gusts":43.6,"aqi":64,"pm10":39.5,"pm2_5":30.9,"mosquito_risk":3,"arthritis_risk":10,"migraine_risk":7,"frizz_risk":1,"updated_at":"2026-04-08T05:10:16.981267+05:30"},{"city":"Jamshedpur","state":"Jharkhand","latitude":22.8046,"longitude":86.2029,"temp":21.1,"humidity":96,"rain":0.0,"pressure":991.1,"uv_index":8.55,"wind_gusts":31.3,"aqi":103,"pm10":66.6,"pm2_5":58.4,"mosquito_risk":3,"arthritis_risk":5,"migraine_risk":7,"frizz_risk":1,"updated_at":"2026-04-08T05:10:16.981275+05:30"},{"city":"Dhanbad","state":"Jharkhand","latitude":23.7957,"longitude":86.4304,"temp":20.8,"humidity":89,"rain":0.0,"pressure":979.9,"uv_index":7.45,"wind_gusts":35.3,"aqi":126,"pm10":106.4,"pm2_5":99.7,"mosquito_risk":3,"arthritis_risk":5,"migraine_risk":7,"frizz_risk":1,"updated_at":"2026-04-08T05:10:16.981282+05:30"},{"city":"Bokaro","state":"Jharkhand","latitude":23.6693,"longitude":86.1511,"temp":21.1,"humidity":88,"rain":0.0,"pressure":984.0,"uv_index":8.15,"wind_gusts":33.5,"aqi":113,"pm10":113.2,"pm2_5":106.4,"mosquito_risk":3,"arthritis_risk":5,"migraine_risk":7,"frizz_risk":1,"updated_at":"2026-04-08T05:10:16.981290+05:30"},{"city":"Bhubaneswar","state":"Odisha","latitude":20.2961,"longitude":85.8245,"temp":23.3,"humidity":93,"rain":0.0,"pressure":1003.1,"uv_index":8.95,"wind_gusts":37.1,"aqi":76,"pm10":18.3,"pm2_5":15.8,"mosquito_risk":3,"arthritis_risk":5,"migraine_risk":4,"frizz_risk":1,"updated_at":"2026-04-08T05:10:16.981324+05:30"},{"city":"Cuttack","state":"Odisha","latitude":20.4625,"longitude":85.8828,"temp":23.2,"humidity":95,"rain":0.0,"pressure":1005.0,"uv_index":9.0,"wind_gusts":36.0,"aqi":76,"pm10":18.3,"pm2_5":15.8,"mosquito_risk":3,"arthritis_risk":5,"migraine_risk":4,"frizz_risk":1,"updated_at":"2026-04-08T05:10:16.981333+05:30"},{"city":"Rourkela","state":"Odisha","latitude":22.2604,"longitude":84.8536,"temp":22.7,"humidity":86,"rain":0.0,"pressure":984.9,"uv_index":8.55,"wind_gusts":26.6,"aqi":98,"pm10":56.7,"pm2_5":48.9,"mosquito_risk":3,"arthritis_risk":5,"migraine_risk":7,"frizz_risk":1,"updated_at":"2026-04-08T05:10:16.981339+05:30"},{"city":"Raipur","state":"Chhattisgarh","latitude":21.2514,"longitude":81.6296,"temp":24.6,"humidity":54,"rain":0.0,"pressure":973.1,"uv_index":8.45,"wind_gusts":40.7,"aqi":131,"pm10":43.1,"pm2_5":37.6,"mosquito_risk":0,"arthritis_risk":5,"migraine_risk":7,"frizz_risk":0,"updated_at":"2026-04-08T05:10:16.981346+05:30"},{"city":"Bhilai","state":"Chhattisgarh","latitude":21.1938,"longitude":81.3509,"temp":24.5,"humidity":55,"rain":0.0,"pressure":973.6,"uv_index":8.55,"wind_gusts":41.8,"aqi":120,"pm10":39.3,"pm2_5":34.1,"mosquito_risk":0,"arthritis_risk":5,"migraine_risk":7,"frizz_risk":0,"updated_at":"2026-04-08T05:10:16.981353+05:30"},{"city":"Guwahati","state":"Assam","latitude":26.1158,"longitude":91.7086,"temp":20.7,"humidity":91,"rain":0.0,"pressure":1004.6,"uv_index":8.15,"wind_gusts":24.5,"aqi":97,"pm10":37.5,"pm2_5":34.0,"mosquito_risk":3,"arthritis_risk":5,"migraine_risk":4,"frizz_risk":1,"updated_at":"2026-04-08T05:10:16.981359+05:30"},{"city":"Agartala","state":"Tripura","latitude":23.8315,"longitude":91.2868,"temp":21.7,"humidity":95,"rain":0.0,"pressure":1007.4,"uv_index":8.45,"wind_gusts":17.3,"aqi":108,"pm10":44.6,"pm2_5":44.1,"mosquito_risk":3,"arthritis_risk":5,"migraine_risk":4,"frizz_risk":1,"updated_at":"2026-04-08T05:10:16.981366+05:30"},{"city":"Shillong","state":"Meghalaya","latitude":25.5788,"longitude":91.8933,"temp":11.1,"humidity":94,"rain":0.0,"pressure":854.7,"uv_index":5.9,"wind_gusts":40.3,"aqi":82,"pm10":28.1,"pm2_5":21.4,"mosquito_risk":3,"arthritis_risk":10,"migraine_risk":3,"frizz_risk":0,"updated_at":"2026-04-08T05:10:16.981373+05:30"},{"city":"Imphal","state":"Manipur","latitude":24.817,"longitude":93.9368,"temp":15.9,"humidity":85,"rain":0.0,"pressure":923.8,"uv_index":8.75,"wind_gusts":42.1,"aqi":94,"pm10":43.8,"pm2_5":39.5,"mosquito_risk":3,"arthritis_risk":10,"migraine_risk":7,"frizz_risk":0,"updated_at":"2026-04-08T05:10:16.981380+05:30"},{"city":"Aizawl","state":"Mizoram","latitude":23.7271,"longitude":92.7176,"temp":16.0,"humidity":89,"rain":0.0,"pressure":892.4,"uv_index":8.7,"wind_gusts":36.0,"aqi":85,"pm10":31.1,"pm2_5":29.6,"mosquito_risk":3,"arthritis_risk":10,"migraine_risk":7,"frizz_risk":0,"updated_at":"2026-04-08T05:10:16.981386+05:30"},{"city":"Kohima","state":"Nagaland","latitude":25.6701,"longitude":94.1077,"temp":13.1,"humidity":83,"rain":0.0,"pressure":854.3,"uv_index":7.3,"wind_gusts":63.0,"aqi":71,"pm10":23.9,"pm2_5":18.5,"mosquito_risk":3,"arthritis_risk":10,"migraine_risk":7,"frizz_risk":0,"updated_at":"2026-04-08T05:10:16.981393+05:30"},{"city":"Gangtok","state":"Sikkim","latitude":27.3314,"longitude":88.6138,"temp":11.7,"humidity":70,"rain":0.0,"pressure":835.7,"uv_index":7.45,"wind_gusts":22.7,"aqi":78,"pm10":32.8,"pm2_5":20.5,"mosquito_risk":3,"arthritis_risk":5,"migraine_risk":7,"frizz_risk":0,"updated_at":"2026-04-08T05:10:16.981400+05:30"}]