[{"city":"Delhi","state":"Delhi","latitude":28.6139,"longitude":77.209,"temp":36.3,"humidity":26,"rain":0.0,"pressure":974.4,"uv_index":7.8,"wind_gusts":43.6,"aqi":521,"pm10":855.0,"pm2_5":183.5,"no2":77.9,"co":1394.0,"o3":20.0,"so2":30.5,"mosquito_risk":0,"arthritis_risk":5,"migraine_risk":10,"frizz_risk":0,"updated_at":"2026-06-09T23:45:41.369067+05:30"},{"city":"Mumbai","state":"Maharashtra","latitude":19.076,"longitude":72.8777,"temp":30.0,"humidity":74,"rain":0.0,"pressure":1006.8,"uv_index":7.6,"wind_gusts":47.9,"aqi":78,"pm10":58.0,"pm2_5":23.1,"no2":5.2,"co":309.0,"o3":50.0,"so2":3.8,"mosquito_risk":7,"arthritis_risk":5,"migraine_risk":4,"frizz_risk":1,"updated_at":"2026-06-09T23:45:41.369107+05:30"},{"city":"Bangalore","state":"Karnataka","latitude":12.9716,"longitude":77.5946,"temp":22.0,"humidity":84,"rain":0.0,"pressure":911.9,"uv_index":8.5,"wind_gusts":52.6,"aqi":26,"pm10":5.8,"pm2_5":4.4,"no2":11.3,"co":245.0,"o3":41.0,"so2":3.8,"mosquito_risk":3,"arthritis_risk":5,"migraine_risk":7,"frizz_risk":1,"updated_at":"2026-06-09T23:45:41.369122+05:30"},{"city":"Hyderabad","state":"Telangana","latitude":17.385,"longitude":78.4867,"temp":25.8,"humidity":79,"rain":0.0,"pressure":951.1,"uv_index":8.6,"wind_gusts":39.6,"aqi":62,"pm10":14.1,"pm2_5":11.0,"no2":8.1,"co":263.0,"o3":78.0,"so2":4.4,"mosquito_risk":7,"arthritis_risk":5,"migraine_risk":7,"frizz_risk":1,"updated_at":"2026-06-09T23:45:41.369132+05:30"},{"city":"Chennai","state":"Tamil Nadu","latitude":13.0827,"longitude":80.2707,"temp":32.5,"humidity":51,"rain":0.0,"pressure":1004.9,"uv_index":8.3,"wind_gusts":60.5,"aqi":42,"pm10":9.5,"pm2_5":8.4,"no2":15.7,"co":418.0,"o3":51.0,"so2":9.1,"mosquito_risk":0,"arthritis_risk":5,"migraine_risk":4,"frizz_risk":1,"updated_at":"2026-06-09T23:45:41.369140+05:30"},{"city":"Kolkata","state":"West Bengal","latitude":22.5726,"longitude":88.3639,"temp":29.2,"humidity":91,"rain":0.0,"pressure":1000.2,"uv_index":8.95,"wind_gusts":32.8,"aqi":138,"pm10":39.1,"pm2_5":34.3,"no2":11.5,"co":409.0,"o3":87.0,"so2":9.0,"mosquito_risk":7,"arthritis_risk":5,"migraine_risk":4,"frizz_risk":1,"updated_at":"2026-06-09T23:45:41.369148+05:30"},{"city":"Pune","state":"Maharashtra","latitude":18.5204,"longitude":73.8567,"temp":24.9,"humidity":86,"rain":0.0,"pressure":947.0,"uv_index":6.65,"wind_gusts":50.0,"aqi":50,"pm10":14.4,"pm2_5":8.3,"no2":8.6,"co":172.0,"o3":44.0,"so2":6.4,"mosquito_risk":3,"arthritis_risk":5,"migraine_risk":7,"frizz_risk":1,"updated_at":"2026-06-09T23:45:41.369155+05:30"},{"city":"Ahmedabad","state":"Gujarat","latitude":23.0225,"longitude":72.5714,"temp":32.8,"humidity":61,"rain":0.0,"pressure":997.5,"uv_index":8.05,"wind_gusts":41.8,"aqi":86,"pm10":37.6,"pm2_5":19.2,"no2":5.3,"co":188.0,"o3":67.0,"so2":4.9,"mosquito_risk":3,"arthritis_risk":5,"migraine_risk":7,"frizz_risk":1,"updated_at":"2026-06-09T23:45:41.369162+05:30"},{"city":"Jaipur","state":"Rajasthan","latitude":26.9124,"longitude":75.7873,"temp":33.1,"humidity":37,"rain":0.0,"pressure":953.5,"uv_index":8.25,"wind_gusts":44.3,"aqi":141,"pm10":269.2,"pm2_5":59.8,"no2":8.1,"co":257.0,"o3":71.0,"so2":4.9,"mosquito_risk":0,"arthritis_risk":5,"migraine_risk":7,"frizz_risk":1,"updated_at":"2026-06-09T23:45:41.369173+05:30"},{"city":"Lucknow","state":"Uttar Pradesh","latitude":26.8467,"longitude":80.9462,"temp":33.9,"humidity":46,"rain":0.0,"pressure":985.5,"uv_index":8.3,"wind_gusts":43.9,"aqi":178,"pm10":527.1,"pm2_5":144.4,"no2":43.1,"co":469.0,"o3":34.0,"so2":16.3,"mosquito_risk":0,"arthritis_risk":5,"migraine_risk":7,"frizz_risk":1,"updated_at":"2026-06-09T23:45:41.369181+05:30"},{"city":"Kanpur","state":"Uttar Pradesh","latitude":26.4499,"longitude":80.3319,"temp":35.0,"humidity":38,"rain":0.0,"pressure":983.8,"uv_index":8.35,"wind_gusts":49.7,"aqi":342,"pm10":504.8,"pm2_5":121.1,"no2":20.6,"co":272.0,"o3":55.0,"so2":8.6,"mosquito_risk":0,"arthritis_risk":5,"migraine_risk":7,"frizz_risk":1,"updated_at":"2026-06-09T23:45:41.369188+05:30"},{"city":"Chandigarh","state":"Chandigarh","latitude":30.7333,"longitude":76.7794,"temp":28.4,"humidity":47,"rain":0.0,"pressure":959.3,"uv_index":7.8,"wind_gusts":33.8,"aqi":101,"pm10":42.5,"pm2_5":36.8,"no2":39.2,"co":1082.0,"o3":55.0,"so2":10.3,"mosquito_risk":4,"arthritis_risk":5,"migraine_risk":7,"frizz_risk":0,"updated_at":"2026-06-09T23:45:41.369196+05:30"},{"city":"Srinagar","state":"Jammu and Kashmir","latitude":34.0837,"longitude":74.7973,"temp":15.7,"humidity":92,"rain":0.0,"pressure":836.1,"uv_index":9.0,"wind_gusts":20.5,"aqi":73,"pm10":36.2,"pm2_5":32.5,"no2":42.6,"co":837.0,"o3":36.0,"so2":4.7,"mosquito_risk":3,"arthritis_risk":10,"migraine_risk":7,"frizz_risk":0,"updated_at":"2026-06-09T23:45:41.369204+05:30"},{"city":"Jammu","state":"Jammu and Kashmir","latitude":32.7266,"longitude":74.857,"temp":29.8,"humidity":39,"rain":0.0,"pressure":963.0,"uv_index":8.6,"wind_gusts":35.6,"aqi":98,"pm10":35.0,"pm2_5":33.1,"no2":37.1,"co":538.0,"o3":46.0,"so2":5.6,"mosquito_risk":4,"arthritis_risk":5,"migraine_risk":7,"frizz_risk":0,"updated_at":"2026-06-09T23:45:41.369210+05:30"},{"city":"Amritsar","state":"Punjab","latitude":31.634,"longitude":74.8723,"temp":34.4,"humidity":32,"rain":0.0,"pressure":970.9,"uv_index":8.45,"wind_gusts":23.8,"aqi":125,"pm10":86.1,"pm2_5":61.2,"no2":51.6,"co":599.0,"o3":42.0,"so2":14.2,"mosquito_risk":0,"arthritis_risk":5,"migraine_risk":7,"frizz_risk":0,"updated_at":"2026-06-09T23:45:41.369217+05:30"},{"city":"Ludhiana","state":"Punjab","latitude":30.901,"longitude":75.8573,"temp":33.7,"humidity":32,"rain":0.0,"pressure":968.8,"uv_index":8.0,"wind_gusts":40.3,"aqi":114,"pm10":101.3,"pm2_5":53.4,"no2":29.8,"co":1450.0,"o3":59.0,"so2":8.2,"mosquito_risk":0,"arthritis_risk":5,"migraine_risk":7,"frizz_risk":0,"updated_at":"2026-06-09T23:45:41.369223+05:30"},{"city":"Jalandhar","state":"Punjab","latitude":31.326,"longitude":75.5762,"temp":33.1,"humidity":31,"rain":0.0,"pressure":969.9,"uv_index":8.25,"wind_gusts":32.0,"aqi":111,"pm10":74.0,"pm2_5":51.9,"no2":35.8,"co":1155.0,"o3":65.0,"so2":9.4,"mosquito_risk":0,"arthritis_risk":5,"migraine_risk":7,"frizz_risk":0,"updated_at":"2026-06-09T23:45:41.369232+05:30"},{"city":"Dehradun","state":"Uttarakhand","latitude":30.6284,"longitude":78.0322,"temp":18.3,"humidity":55,"rain":0.0,"pressure":824.6,"uv_index":8.25,"wind_gusts":39.6,"aqi":97,"pm10":25.9,"pm2_5":22.8,"no2":32.2,"co":239.0,"o3":54.0,"so2":2.2,"mosquito_risk":0,"arthritis_risk":5,"migraine_risk":7,"frizz_risk":0,"updated_at":"2026-06-09T23:45:41.369239+05:30"},{"city":"Shimla","state":"Himachal Pradesh","latitude":31.1048,"longitude":77.1734,"temp":15.8,"humidity":50,"rain":0.0,"pressure":779.6,"uv_index":8.35,"wind_gusts":51.8,"aqi":100,"pm10":30.5,"pm2_5":23.3,"no2":21.8,"co":264.0,"o3":84.0,"so2":2.2,"mosquito_risk":0,"arthritis_risk":5,"migraine_risk":7,"frizz_risk":0,"updated_at":"2026-06-09T23:45:41.369249+05:30"},{"city":"Manali","state":"Himachal Pradesh","latitude":32.2396,"longitude":77.1887,"temp":12.4,"humidity":70,"rain":0.0,"pressure":812.0,"uv_index":9.95,"wind_gusts":34.2,"aqi":47,"pm10":9.9,"pm2_5":8.9,"no2":67.4,"co":384.0,"o3":44.0,"so2":0.2,"mosquito_risk":3,"arthritis_risk":5,"migraine_risk":7,"frizz_risk":0,"updated_at":"2026-06-09T23:45:41.369256+05:30"},{"city":"Gurgaon","state":"Haryana","latitude":28.4595,"longitude":77.0266,"temp":33.8,"humidity":33,"rain":0.0,"pressure":972.8,"uv_index":7.9,"wind_gusts":40.7,"aqi":1382,"pm10":456.3,"pm2_5":125.3,"no2":76.3,"co":897.0,"o3":6.0,"so2":26.2,"mosquito_risk":0,"arthritis_risk":5,"migraine_risk":7,"frizz_risk":0,"updated_at":"2026-06-09T23:45:41.369263+05:30"},{"city":"Noida","state":"Uttar Pradesh","latitude":28.5355,"longitude":77.391,"temp":32.2,"humidity":47,"rain":0.0,"pressure":975.5,"uv_index":7.85,"wind_gusts":32.8,"aqi":1382,"pm10":456.3,"pm2_5":125.3,"no2":76.3,"co":1679.0,"o3":6.0,"so2":26.2,"mosquito_risk":0,"arthritis_risk":5,"migraine_risk":7,"frizz_risk":1,"updated_at":"2026-06-09T23:45:41.369270+05:30"},{"city":"Ghaziabad","state":"Uttar Pradesh","latitude":28.6692,"longitude":77.4538,"temp":31.8,"humidity":42,"rain":0.0,"pressure":973.9,"uv_index":7.8,"wind_gusts":38.5,"aqi":402,"pm10":791.6,"pm2_5":175.1,"no2":72.8,"co":741.0,"o3":37.0,"so2":29.3,"mosquito_risk":0,"arthritis_risk":5,"migraine_risk":7,"frizz_risk":1,"updated_at":"2026-06-09T23:45:41.369276+05:30"},{"city":"Faridabad","state":"Haryana","latitude":28.4089,"longitude":77.3178,"temp":35.1,"humidity":28,"rain":0.0,"pressure":975.0,"uv_index":7.85,"wind_gusts":46.8,"aqi":1382,"pm10":456.3,"pm2_5":125.3,"no2":76.3,"co":1654.0,"o3":6.0,"so2":26.2,"mosquito_risk":0,"arthritis_risk":5,"migraine_risk":10,"frizz_risk":0,"updated_at":"2026-06-09T23:45:41.369282+05:30"},{"city":"Meerut","state":"Uttar Pradesh","latitude":28.9845,"longitude":77.7064,"temp":32.0,"humidity":42,"rain":0.0,"pressure":972.5,"uv_index":7.75,"wind_gusts":34.9,"aqi":402,"pm10":791.6,"pm2_5":175.1,"no2":72.8,"co":505.0,"o3":37.0,"so2":29.3,"mosquito_risk":0,"arthritis_risk":5,"migraine_risk":7,"frizz_risk":1,"updated_at":"2026-06-09T23:45:41.369288+05:30"},{"city":"Agra","state":"Uttar Pradesh","latitude":27.1767,"longitude":78.0081,"temp":34.3,"humidity":31,"rain":0.0,"pressure":979.6,"uv_index":8.15,"wind_gusts":58.7,"aqi":973,"pm10":400.5,"pm2_5":82.7,"no2":34.9,"co":907.0,"o3":32.0,"so2":9.4,"mosquito_risk":0,"arthritis_risk":5,"migraine_risk":7,"frizz_risk":0,"updated_at":"2026-06-09T23:45:41.369295+05:30"},{"city":"Varanasi","state":"Uttar Pradesh","latitude":25.3176,"longitude":82.9739,"temp":32.8,"humidity":43,"rain":0.1,"pressure":990.3,"uv_index":8.8,"wind_gusts":34.2,"aqi":113,"pm10":89.4,"pm2_5":43.8,"no2":21.5,"co":281.0,"o3":65.0,"so2":11.9,"mosquito_risk":3,"arthritis_risk":5,"migraine_risk":7,"frizz_risk":1,"updated_at":"2026-06-09T23:45:41.369302+05:30"},{"city":"Prayagraj","state":"Uttar Pradesh","latitude":25.4358,"longitude":81.8463,"temp":33.6,"humidity":46,"rain":0.0,"pressure":988.6,"uv_index":8.7,"wind_gusts":43.6,"aqi":107,"pm10":93.8,"pm2_5":44.0,"no2":19.0,"co":232.0,"o3":57.0,"so2":8.6,"mosquito_risk":0,"arthritis_risk":5,"migraine_risk":7,"frizz_risk":1,"updated_at":"2026-06-09T23:45:41.369308+05:30"},{"city":"Gorakhpur","state":"Uttar Pradesh","latitude":26.7606,"longitude":83.3732,"temp":30.0,"humidity":70,"rain":0.0,"pressure":990.1,"uv_index":8.65,"wind_gusts":22.7,"aqi":160,"pm10":119.0,"pm2_5":80.1,"no2":25.0,"co":584.0,"o3":88.0,"so2":14.5,"mosquito_risk":7,"arthritis_risk":5,"migraine_risk":7,"frizz_risk":1,"updated_at":"2026-06-09T23:45:41.369317+05:30"},{"city":"Bareilly","state":"Uttar Pradesh","latitude":28.367,"longitude":79.4304,"temp":29.5,"humidity":57,"rain":0.0,"pressure":977.9,"uv_index":8.15,"wind_gusts":25.2,"aqi":156,"pm10":118.7,"pm2_5":81.7,"no2":56.5,"co":656.0,"o3":70.0,"so2":23.3,"mosquito_risk":4,"arthritis_risk":5,"migraine_risk":7,"frizz_risk":1,"updated_at":"2026-06-09T23:45:41.369323+05:30"},{"city":"Aligarh","state":"Uttar Pradesh","latitude":27.8974,"longitude":78.088,"temp":31.4,"humidity":45,"rain":0.0,"pressure":976.8,"uv_index":8.0,"wind_gusts":42.5,"aqi":822,"pm10":737.6,"pm2_5":183.9,"no2":65.0,"co":661.0,"o3":15.0,"so2":16.0,"mosquito_risk":0,"arthritis_risk":5,"migraine_risk":7,"frizz_risk":1,"updated_at":"2026-06-09T23:45:41.369329+05:30"},{"city":"Moradabad","state":"Uttar Pradesh","latitude":28.8386,"longitude":78.7733,"temp":32.2,"humidity":43,"rain":0.0,"pressure":974.6,"uv_index":7.95,"wind_gusts":41.0,"aqi":167,"pm10":157.9,"pm2_5":116.2,"no2":84.5,"co":828.0,"o3":23.0,"so2":23.8,"mosquito_risk":0,"arthritis_risk":5,"migraine_risk":7,"frizz_risk":1,"updated_at":"2026-06-09T23:45:41.369336+05:30"},{"city":"Saharanpur","state":"Uttar Pradesh","latitude":29.9637,"longitude":77.546,"temp":29.9,"humidity":40,"rain":0.0,"pressure":966.4,"uv_index":7.5,"wind_gusts":34.2,"aqi":130,"pm10":284.1,"pm2_5":80.3,"no2":29.3,"co":514.0,"o3":77.0,"so2":11.4,"mosquito_risk":4,"arthritis_risk":5,"migraine_risk":7,"frizz_risk":0,"updated_at":"2026-06-09T23:45:41.369342+05:30"},{"city":"Jhansi","state":"Uttar Pradesh","latitude":25.4484,"longitude":78.5685,"temp":33.8,"humidity":30,"rain":0.0,"pressure":971.0,"uv_index":8.5,"wind_gusts":51.5,"aqi":79,"pm10":43.0,"pm2_5":24.7,"no2":6.7,"co":158.0,"o3":80.0,"so2":4.9,"mosquito_risk":0,"arthritis_risk":5,"migraine_risk":7,"frizz_risk":0,"updated_at":"2026-06-09T23:45:44.687039+05:30"},{"city":"Surat","state":"Gujarat","latitude":21.1702,"longitude":72.8311,"temp":30.3,"humidity":79,"rain":0.0,"pressure":1003.8,"uv_index":7.6,"wind_gusts":53.6,"aqi":85,"pm10":44.6,"pm2_5":24.7,"no2":14.0,"co":198.0,"o3":44.0,"so2":23.8,"mosquito_risk":3,"arthritis_risk":5,"migraine_risk":4,"frizz_risk":1,"updated_at":"2026-06-09T23:45:44.687072+05:30"},{"city":"Vadodara","state":"Gujarat","latitude":22.3072,"longitude":73.1812,"temp":30.9,"humidity":75,"rain":0.0,"pressure":1000.0,"uv_index":7.75,"wind_gusts":49.7,"aqi":86,"pm10":39.5,"pm2_5":26.3,"no2":19.8,"co":222.0,"o3":33.0,"so2":21.6,"mosquito_risk":3,"arthritis_risk":5,"migraine_risk":4,"frizz_risk":1,"updated_at":"2026-06-09T23:45:44.687082+05:30"},{"city":"Rajkot","state":"Gujarat","latitude":22.3039,"longitude":70.8022,"temp":30.5,"humidity":65,"rain":0.0,"pressure":990.5,"uv_index":7.55,"wind_gusts":51.1,"aqi":77,"pm10":42.7,"pm2_5":21.7,"no2":3.9,"co":112.0,"o3":56.0,"so2":4.3,"mosquito_risk":3,"arthritis_risk":5,"migraine_risk":7,"frizz_risk":1,"updated_at":"2026-06-09T23:45:44.687091+05:30"},{"city":"Thane","state":"Maharashtra","latitude":19.2183,"longitude":72.9781,"temp":28.6,"humidity":86,"rain":0.0,"pressure":1006.3,"uv_index":7.45,"wind_gusts":43.2,"aqi":78,"pm10":58.0,"pm2_5":23.1,"no2":5.2,"co":272.0,"o3":50.0,"so2":3.8,"mosquito_risk":7,"arthritis_risk":5,"migraine_risk":4,"frizz_risk":1,"updated_at":"2026-06-09T23:45:44.687100+05:30"},{"city":"Nagpur","state":"Maharashtra","latitude":21.1458,"longitude":79.0882,"temp":34.8,"humidity":38,"rain":0.0,"pressure":968.7,"uv_index":8.9,"wind_gusts":40.0,"aqi":90,"pm10":56.7,"pm2_5":38.2,"no2":26.5,"co":265.0,"o3":46.0,"so2":12.7,"mosquito_risk":0,"arthritis_risk":5,"migraine_risk":7,"frizz_risk":1,"updated_at":"2026-06-09T23:45:44.687108+05:30"},{"city":"Nashik","state":"Maharashtra","latitude":19.9975,"longitude":73.7898,"temp":25.1,"humidity":85,"rain":0.0,"pressure":943.9,"uv_index":7.95,"wind_gusts":51.1,"aqi":69,"pm10":44.0,"pm2_5":19.8,"no2":4.5,"co":128.0,"o3":49.0,"so2":2.2,"mosquito_risk":7,"arthritis_risk":5,"migraine_risk":7,"frizz_risk":1,"updated_at":"2026-06-09T23:45:44.687116+05:30"},{"city":"Aurangabad","state":"Maharashtra","latitude":19.8762,"longitude":75.3433,"temp":28.0,"humidity":64,"rain":0.0,"pressure":942.2,"uv_index":8.95,"wind_gusts":49.0,"aqi":68,"pm10":44.0,"pm2_5":22.0,"no2":5.9,"co":127.0,"o3":61.0,"so2":6.5,"mosquito_risk":7,"arthritis_risk":5,"migraine_risk":7,"frizz_risk":1,"updated_at":"2026-06-09T23:45:44.687123+05:30"},{"city":"Solapur","state":"Maharashtra","latitude":17.6599,"longitude":75.9064,"temp":28.4,"humidity":66,"rain":0.0,"pressure":956.2,"uv_index":7.7,"wind_gusts":36.4,"aqi":48,"pm10":11.6,"pm2_5":9.2,"no2":11.4,"co":216.0,"o3":39.0,"so2":3.2,"mosquito_risk":7,"arthritis_risk":5,"migraine_risk":7,"frizz_risk":1,"updated_at":"2026-06-09T23:45:44.687132+05:30"},{"city":"Kolhapur","state":"Maharashtra","latitude":16.705,"longitude":74.2433,"temp":23.7,"humidity":89,"rain":0.0,"pressure":947.7,"uv_index":7.4,"wind_gusts":40.0,"aqi":27,"pm10":6.6,"pm2_5":5.2,"no2":5.1,"co":155.0,"o3":45.0,"so2":1.7,"mosquito_risk":3,"arthritis_risk":5,"migraine_risk":7,"frizz_risk":1,"updated_at":"2026-06-09T23:45:44.687140+05:30"},{"city":"Goa","state":"Goa","latitude":15.2993,"longitude":74.124,"temp":25.0,"humidity":94,"rain":0.0,"pressure":998.7,"uv_index":4.9,"wind_gusts":28.8,"aqi":29,"pm10":19.7,"pm2_5":12.6,"no2":6.2,"co":255.0,"o3":48.0,"so2":1.3,"mosquito_risk":7,"arthritis_risk":5,"migraine_risk":3,"frizz_risk":1,"updated_at":"2026-06-09T23:45:44.687148+05:30"},{"city":"Jodhpur","state":"Rajasthan","latitude":26.2389,"longitude":73.0243,"temp":33.4,"humidity":48,"rain":0.0,"pressure":975.8,"uv_index":8.45,"wind_gusts":48.2,"aqi":162,"pm10":184.4,"pm2_5":47.4,"no2":5.6,"co":154.0,"o3":64.0,"so2":2.2,"mosquito_risk":0,"arthritis_risk":5,"migraine_risk":7,"frizz_risk":1,"updated_at":"2026-06-09T23:45:44.687156+05:30"},{"city":"Udaipur","state":"Rajasthan","latitude":24.5854,"longitude":73.7125,"temp":30.0,"humidity":55,"rain":0.0,"pressure":942.0,"uv_index":8.85,"wind_gusts":44.6,"aqi":85,"pm10":48.8,"pm2_5":25.4,"no2":5.7,"co":173.0,"o3":71.0,"so2":3.5,"mosquito_risk":4,"arthritis_risk":5,"migraine_risk":7,"frizz_risk":1,"updated_at":"2026-06-09T23:45:44.687164+05:30"},{"city":"Kota","state":"Rajasthan","latitude":25.2138,"longitude":75.8648,"temp":33.0,"humidity":50,"rain":0.0,"pressure":972.9,"uv_index":8.4,"wind_gusts":38.5,"aqi":75,"pm10":44.4,"pm2_5":28.5,"no2":6.0,"co":178.0,"o3":86.0,"so2":7.5,"mosquito_risk":0,"arthritis_risk":5,"migraine_risk":7,"frizz_risk":1,"updated_at":"2026-06-09T23:45:44.687171+05:30"},{"city":"Bikaner","state":"Rajasthan","latitude":28.0229,"longitude":73.3119,"temp":35.1,"humidity":40,"rain":0.0,"pressure":973.6,"uv_index":8.45,"wind_gusts":41.4,"aqi":136,"pm10":157.9,"pm2_5":52.6,"no2":2.1,"co":126.0,"o3":83.0,"so2":4.3,"mosquito_risk":0,"arthritis_risk":5,"migraine_risk":10,"frizz_risk":1,"updated_at":"2026-06-09T23:45:44.687179+05:30"},{"city":"Ajmer","state":"Rajasthan","latitude":26.4499,"longitude":74.6399,"temp":30.3,"humidity":54,"rain":0.0,"pressure":948.7,"uv_index":8.4,"wind_gusts":50.4,"aqi":76,"pm10":57.9,"pm2_5":26.5,"no2":5.9,"co":171.0,"o3":74.0,"so2":4.5,"mosquito_risk":0,"arthritis_risk":5,"migraine_risk":7,"frizz_risk":1,"updated_at":"2026-06-09T23:45:44.687187+05:30"},{"city":"Gwalior","state":"Madhya Pradesh","latitude":26.2183,"longitude":78.1828,"temp":34.4,"humidity":30,"rain":0.0,"pressure":975.7,"uv_index":8.3,"wind_gusts":55.8,"aqi":85,"pm10":38.2,"pm2_5":22.4,"no2":7.7,"co":171.0,"o3":66.0,"so2":3.6,"mosquito_risk":0,"arthritis_risk":5,"migraine_risk":7,"frizz_risk":0,"updated_at":"2026-06-09T23:45:44.687194+05:30"},{"city":"Indore","state":"Madhya Pradesh","latitude":22.7196,"longitude":75.8577,"temp":30.0,"humidity":55,"rain":0.0,"pressure":944.8,"uv_index":8.65,"wind_gusts":50.8,"aqi":82,"pm10":49.9,"pm2_5":31.9,"no2":6.7,"co":240.0,"o3":98.0,"so2":8.8,"mosquito_risk":4,"arthritis_risk":5,"migraine_risk":7,"frizz_risk":1,"updated_at":"2026-06-09T23:45:44.687201+05:30"},{"city":"Bhopal","state":"Madhya Pradesh","latitude":23.2599,"longitude":77.4126,"temp":31.0,"humidity":47,"rain":0.0,"pressure":949.2,"uv_index":8.7,"wind_gusts":39.6,"aqi":83,"pm10":40.4,"pm2_5":29.9,"no2":13.4,"co":375.0,"o3":52.0,"so2":5.4,"mosquito_risk":0,"arthritis_risk":5,"migraine_risk":7,"frizz_risk":1,"updated_at":"2026-06-09T23:45:44.687209+05:30"},{"city":"Jabalpur","state":"Madhya Pradesh","latitude":23.1815,"longitude":79.9864,"temp":31.5,"humidity":49,"rain":0.0,"pressure":956.8,"uv_index":8.85,"wind_gusts":40.3,"aqi":78,"pm10":46.9,"pm2_5":29.8,"no2":11.2,"co":248.0,"o3":68.0,"so2":5.1,"mosquito_risk":0,"arthritis_risk":5,"migraine_risk":7,"frizz_risk":1,"updated_at":"2026-06-09T23:45:44.687216+05:30"},{"city":"Ujjain","state":"Madhya Pradesh","latitude":23.1765,"longitude":75.7885,"temp":29.9,"humidity":57,"rain":0.0,"pressure":950.1,"uv_index":8.6,"wind_gusts":49.3,"aqi":81,"pm10":51.6,"pm2_5":32.4,"no2":4.4,"co":191.0,"o3":92.0,"so2":6.3,"mosquito_risk":4,"arthritis_risk":5,"migraine_risk":7,"frizz_risk":1,"updated_at":"2026-06-09T23:45:44.687224+05:30"},{"city":"Visakhapatnam","state":"Andhra Pradesh","latitude":17.6868,"longitude":83.2185,"temp":30.2,"humidity":74,"rain":0.0,"pressure":998.5,"uv_index":8.5,"wind_gusts":36.7,"aqi":104,"pm10":36.7,"pm2_5":30.7,"no2":30.8,"co":633.0,"o3":73.0,"so2":39.5,"mosquito_risk":3,"arthritis_risk":5,"migraine_risk":7,"frizz_risk":1,"updated_at":"2026-06-09T23:45:44.687231+05:30"},{"city":"Vijayawada","state":"Andhra Pradesh","latitude":16.5062,"longitude":80.648,"temp":32.1,"humidity":55,"rain":0.0,"pressure":998.9,"uv_index":8.7,"wind_gusts":42.8,"aqi":68,"pm10":26.7,"pm2_5":23.1,"no2":14.0,"co":228.0,"o3":58.0,"so2":4.3,"mosquito_risk":0,"arthritis_risk":5,"migraine_risk":7,"frizz_risk":1,"updated_at":"2026-06-09T23:45:44.687239+05:30"},{"city":"Guntur","state":"Andhra Pradesh","latitude":16.3067,"longitude":80.4365,"temp":31.3,"humidity":59,"rain":0.0,"pressure":1000.2,"uv_index":8.3,"wind_gusts":43.9,"aqi":64,"pm10":26.7,"pm2_5":22.4,"no2":14.8,"co":274.0,"o3":56.0,"so2":4.7,"mosquito_risk":0,"arthritis_risk":5,"migraine_risk":4,"frizz_risk":1,"updated_at":"2026-06-09T23:45:44.687246+05:30"},{"city":"Nellore","state":"Andhra Pradesh","latitude":14.4426,"longitude":79.9865,"temp":31.5,"humidity":55,"rain":0.0,"pressure":1003.3,"uv_index":7.7,"wind_gusts":50.0,"aqi":42,"pm10":20.5,"pm2_5":15.5,"no2":9.7,"co":205.0,"o3":62.0,"so2":4.2,"mosquito_risk":0,"arthritis_risk":5,"migraine_risk":4,"frizz_risk":1,"updated_at":"2026-06-09T23:45:44.687255+05:30"},{"city":"Kurnool","state":"Andhra Pradesh","latitude":15.8281,"longitude":78.0373,"temp":27.9,"humidity":67,"rain":0.0,"pressure":975.8,"uv_index":8.35,"wind_gusts":44.3,"aqi":41,"pm10":7.7,"pm2_5":6.3,"no2":10.8,"co":177.0,"o3":47.0,"so2":4.6,"mosquito_risk":7,"arthritis_risk":5,"migraine_risk":7,"frizz_risk":1,"updated_at":"2026-06-09T23:45:44.687263+05:30"},{"city":"Kakinada","state":"Andhra Pradesh","latitude":16.9891,"longitude":82.2475,"temp":31.3,"humidity":63,"rain":0.0,"pressure":1002.8,"uv_index":8.5,"wind_gusts":46.1,"aqi":69,"pm10":26.5,"pm2_5":20.3,"no2":6.5,"co":444.0,"o3":96.0,"so2":5.6,"mosquito_risk":3,"arthritis_risk":5,"migraine_risk":4,"frizz_risk":1,"updated_at":"2026-06-09T23:45:44.687270+05:30"},{"city":"Tirupati","state":"Andhra Pradesh","latitude":13.6288,"longitude":79.4192,"temp":30.2,"humidity":56,"rain":0.0,"pressure":989.5,"uv_index":8.05,"wind_gusts":46.4,"aqi":33,"pm10":12.8,"pm2_5":9.8,"no2":12.3,"co":162.0,"o3":47.0,"so2":2.7,"mosquito_risk":0,"arthritis_risk":5,"migraine_risk":7,"frizz_risk":1,"updated_at":"2026-06-09T23:45:44.687277+05:30"},{"city":"Warangal","state":"Telangana","latitude":17.9689,"longitude":79.5941,"temp":29.5,"humidity":65,"rain":0.0,"pressure":975.3,"uv_index":8.7,"wind_gusts":37.8,"aqi":88,"pm10":43.5,"pm2_5":33.2,"no2":16.1,"co":208.0,"o3":59.0,"so2":6.1,"mosquito_risk":7,"arthritis_risk":5,"migraine_risk":7,"frizz_risk":1,"updated_at":"2026-06-09T23:45:44.687284+05:30"},{"city":"Nizamabad","state":"Telangana","latitude":18.6725,"longitude":78.0941,"temp":28.2,"humidity":66,"rain":0.0,"pressure":962.0,"uv_index":8.45,"wind_gusts":38.9,"aqi":86,"pm10":38.2,"pm2_5":26.4,"no2":11.9,"co":189.0,"o3":69.0,"so2":4.4,"mosquito_risk":7,"arthritis_risk":5,"migraine_risk":7,"frizz_risk":1,"updated_at":"2026-06-09T23:45:44.687291+05:30"},{"city":"Mysore","state":"Karnataka","latitude":12.2958,"longitude":76.6396,"temp":21.9,"humidity":90,"rain":0.0,"pressure":929.2,"uv_index":8.15,"wind_gusts":47.5,"aqi":25,"pm10":2.9,"pm2_5":2.7,"no2":7.1,"co":148.0,"o3":44.0,"so2":2.0,"mosquito_risk":3,"arthritis_risk":5,"migraine_risk":7,"frizz_risk":1,"updated_at":"2026-06-09T23:45:44.687298+05:30"},{"city":"Mangalore","state":"Karnataka","latitude":12.9141,"longitude":74.856,"temp":23.7,"humidity":99,"rain":0.4,"pressure":1008.7,"uv_index":4.1,"wind_gusts":38.9,"aqi":28,"pm10":14.8,"pm2_5":10.6,"no2":8.6,"co":313.0,"o3":37.0,"so2":2.3,"mosquito_risk":6,"arthritis_risk":0,"migraine_risk":0,"frizz_risk":1,"updated_at":"2026-06-09T23:45:44.687306+05:30"},{"city":"Hubli-Dharwad","state":"Karnataka","latitude":15.3647,"longitude":75.124,"temp":21.6,"humidity":95,"rain":0.0,"pressure":940.8,"uv_index":6.15,"wind_gusts":37.8,"aqi":22,"pm10":2.6,"pm2_5":2.5,"no2":7.5,"co":138.0,"o3":38.0,"so2":1.1,"mosquito_risk":3,"arthritis_risk":5,"migraine_risk":7,"frizz_risk":1,"updated_at":"2026-06-09T23:45:44.687313+05:30"},{"city":"Belgaum","state":"Karnataka","latitude":15.8497,"longitude":74.4977,"temp":21.5,"humidity":96,"rain":0.0,"pressure":925.4,"uv_index":1.55,"wind_gusts":38.9,"aqi":24,"pm10":3.0,"pm2_5":2.7,"no2":5.9,"co":121.0,"o3":44.0,"so2":2.0,"mosquito_risk":3,"arthritis_risk":5,"migraine_risk":3,"frizz_risk":1,"updated_at":"2026-06-09T23:45:47.964509+05:30"},{"city":"Coimbatore","state":"Tamil Nadu","latitude":11.0168,"longitude":76.9558,"temp":23.2,"humidity":95,"rain":0.0,"pressure":962.5,"uv_index":4.65,"wind_gusts":55.8,"aqi":22,"pm10":3.3,"pm2_5":3.2,"no2":7.1,"co":224.0,"o3":40.0,"so2":2.6,"mosquito_risk":3,"arthritis_risk":5,"migraine_risk":3,"frizz_risk":1,"updated_at":"2026-06-09T23:45:47.964539+05:30"},{"city":"Madurai","state":"Tamil Nadu","latitude":9.9252,"longitude":78.1198,"temp":29.4,"humidity":62,"rain":0.0,"pressure":993.7,"uv_index":8.45,"wind_gusts":60.1,"aqi":30,"pm10":4.8,"pm2_5":4.3,"no2":7.5,"co":124.0,"o3":40.0,"so2":2.9,"mosquito_risk":7,"arthritis_risk":5,"migraine_risk":7,"frizz_risk":1,"updated_at":"2026-06-09T23:45:47.964550+05:30"},{"city":"Trichy","state":"Tamil Nadu","latitude":10.7905,"longitude":78.7047,"temp":28.3,"humidity":68,"rain":0.0,"pressure":1000.0,"uv_index":8.3,"wind_gusts":71.3,"aqi":26,"pm10":4.4,"pm2_5":4.2,"no2":8.7,"co":116.0,"o3":38.0,"so2":3.1,"mosquito_risk":7,"arthritis_risk":5,"migraine_risk":4,"frizz_risk":1,"updated_at":"2026-06-09T23:45:47.964559+05:30"},{"city":"Salem","state":"Tamil Nadu","latitude":11.6643,"longitude":78.146,"temp":26.8,"humidity":73,"rain":0.0,"pressure":978.0,"uv_index":6.5,"wind_gusts":44.6,"aqi":28,"pm10":8.4,"pm2_5":7.9,"no2":16.2,"co":278.0,"o3":37.0,"so2":9.9,"mosquito_risk":7,"arthritis_risk":5,"migraine_risk":7,"frizz_risk":1,"updated_at":"2026-06-09T23:45:47.964573+05:30"},{"city":"Tirunelveli","state":"Tamil Nadu","latitude":8.7139,"longitude":77.7567,"temp":28.0,"humidity":73,"rain":0.0,"pressure":1005.2,"uv_index":7.95,"wind_gusts":52.9,"aqi":22,"pm10":5.3,"pm2_5":4.1,"no2":5.8,"co":172.0,"o3":36.0,"so2":1.6,"mosquito_risk":7,"arthritis_risk":5,"migraine_risk":4,"frizz_risk":1,"updated_at":"2026-06-09T23:45:47.964581+05:30"},{"city":"Vellore","state":"Tamil Nadu","latitude":12.9165,"longitude":79.1325,"temp":29.8,"humidity":56,"rain":0.0,"pressure":983.3,"uv_index":7.45,"wind_gusts":58.3,"aqi":34,"pm10":8.3,"pm2_5":5.7,"no2":7.9,"co":167.0,"o3":52.0,"so2":3.3,"mosquito_risk":4,"arthritis_risk":5,"migraine_risk":7,"frizz_risk":1,"updated_at":"2026-06-09T23:45:47.964589+05:30"},{"city":"Erode","state":"Tamil Nadu","latitude":11.341,"longitude":77.7172,"temp":25.2,"humidity":82,"rain":0.0,"pressure":989.9,"uv_index":5.6,"wind_gusts":52.6,"aqi":23,"pm10":8.5,"pm2_5":8.1,"no2":15.8,"co":198.0,"o3":32.0,"so2":4.2,"mosquito_risk":7,"arthritis_risk":5,"migraine_risk":3,"frizz_risk":1,"updated_at":"2026-06-09T23:45:47.964597+05:30"},{"city":"Kochi","state":"Kerala","latitude":9.9312,"longitude":76.2673,"temp":26.3,"humidity":94,"rain":0.1,"pressure":1011.1,"uv_index":5.9,"wind_gusts":43.9,"aqi":33,"pm10":13.5,"pm2_5":10.3,"no2":12.4,"co":119.0,"o3":32.0,"so2":3.2,"mosquito_risk":10,"arthritis_risk":0,"migraine_risk":0,"frizz_risk":1,"updated_at":"2026-06-09T23:45:47.964605+05:30"},{"city":"Thiruvananthapuram","state":"Kerala","latitude":8.5241,"longitude":76.9366,"temp":25.3,"humidity":96,"rain":0.0,"pressure":1010.9,"uv_index":7.65,"wind_gusts":53.6,"aqi":31,"pm10":12.4,"pm2_5":6.6,"no2":1.6,"co":100.0,"o3":45.0,"so2":0.6,"mosquito_risk":7,"arthritis_risk":0,"migraine_risk":4,"frizz_risk":1,"updated_at":"2026-06-09T23:45:47.964613+05:30"},{"city":"Kozhikode","state":"Kerala","latitude":11.2588,"longitude":75.7804,"temp":23.8,"humidity":99,"rain":0.0,"pressure":1010.2,"uv_index":7.95,"wind_gusts":32.0,"aqi":27,"pm10":11.7,"pm2_5":5.7,"no2":1.8,"co":405.0,"o3":58.0,"so2":0.9,"mosquito_risk":3,"arthritis_risk":0,"migraine_risk":4,"frizz_risk":1,"updated_at":"2026-06-09T23:45:47.964620+05:30"},{"city":"Thrissur","state":"Kerala","latitude":10.5276,"longitude":76.2144,"temp":24.3,"humidity":100,"rain":0.2,"pressure":1009.6,"uv_index":7.85,"wind_gusts":31.0,"aqi":32,"pm10":12.3,"pm2_5":9.7,"no2":9.8,"co":279.0,"o3":36.0,"so2":2.9,"mosquito_risk":6,"arthritis_risk":0,"migraine_risk":4,"frizz_risk":1,"updated_at":"2026-06-09T23:45:47.964629+05:30"},{"city":"Kannur","state":"Kerala","latitude":11.8745,"longitude":75.3704,"temp":24.3,"humidity":98,"rain":0.1,"pressure":1009.3,"uv_index":7.35,"wind_gusts":28.1,"aqi":24,"pm10":11.9,"pm2_5":7.5,"no2":9.9,"co":403.0,"o3":37.0,"so2":1.6,"mosquito_risk":6,"arthritis_risk":0,"migraine_risk":4,"frizz_risk":1,"updated_at":"2026-06-09T23:45:47.964636+05:30"},{"city":"Patna","state":"Bihar","latitude":25.5941,"longitude":85.1376,"temp":29.5,"humidity":79,"rain":0.0,"pressure":993.6,"uv_index":8.85,"wind_gusts":24.8,"aqi":172,"pm10":125.7,"pm2_5":81.0,"no2":35.7,"co":747.0,"o3":65.0,"so2":18.6,"mosquito_risk":7,"arthritis_risk":5,"migraine_risk":7,"frizz_risk":1,"updated_at":"2026-06-09T23:45:47.964643+05:30"},{"city":"Gaya","state":"Bihar","latitude":24.7914,"longitude":85.0002,"temp":30.4,"humidity":52,"rain":0.0,"pressure":987.0,"uv_index":7.7,"wind_gusts":36.7,"aqi":154,"pm10":135.0,"pm2_5":54.1,"no2":15.4,"co":333.0,"o3":86.0,"so2":10.1,"mosquito_risk":0,"arthritis_risk":5,"migraine_risk":7,"frizz_risk":1,"updated_at":"2026-06-09T23:45:47.964651+05:30"},{"city":"Muzaffarpur","state":"Bihar","latitude":26.1209,"longitude":85.3647,"temp":29.2,"humidity":74,"rain":0.0,"pressure":994.0,"uv_index":8.8,"wind_gusts":30.6,"aqi":171,"pm10":81.0,"pm2_5":73.6,"no2":14.4,"co":604.0,"o3":126.0,"so2":17.3,"mosquito_risk":7,"arthritis_risk":5,"migraine_risk":7,"frizz_risk":1,"updated_at":"2026-06-09T23:45:47.964659+05:30"},{"city":"Bhagalpur","state":"Bihar","latitude":25.2425,"longitude":87.0117,"temp":29.9,"humidity":83,"rain":0.0,"pressure":995.3,"uv_index":8.85,"wind_gusts":25.9,"aqi":155,"pm10":75.9,"pm2_5":66.6,"no2":11.8,"co":535.0,"o3":119.0,"so2":15.5,"mosquito_risk":7,"arthritis_risk":5,"migraine_risk":7,"frizz_risk":1,"updated_at":"2026-06-09T23:45:47.964666+05:30"},{"city":"Ranchi","state":"Jharkhand","latitude":23.3441,"longitude":85.3096,"temp":26.4,"humidity":66,"rain":0.0,"pressure":933.1,"uv_index":8.75,"wind_gusts":35.6,"aqi":136,"pm10":193.2,"pm2_5":76.1,"no2":33.0,"co":283.0,"o3":56.0,"so2":9.1,"mosquito_risk":7,"arthritis_risk":5,"migraine_risk":7,"frizz_risk":1,"updated_at":"2026-06-09T23:45:47.964673+05:30"},{"city":"Jamshedpur","state":"Jharkhand","latitude":22.8046,"longitude":86.2029,"temp":28.8,"humidity":76,"rain":0.0,"pressure":985.2,"uv_index":9.1,"wind_gusts":31.0,"aqi":152,"pm10":81.0,"pm2_5":60.1,"no2":28.9,"co":626.0,"o3":74.0,"so2":29.9,"mosquito_risk":7,"arthritis_risk":5,"migraine_risk":7,"frizz_risk":1,"updated_at":"2026-06-09T23:45:47.964680+05:30"},{"city":"Dhanbad","state":"Jharkhand","latitude":23.7957,"longitude":86.4304,"temp":28.8,"humidity":71,"rain":0.0,"pressure":974.3,"uv_index":8.9,"wind_gusts":52.2,"aqi":163,"pm10":177.0,"pm2_5":118.3,"no2":73.4,"co":881.0,"o3":33.0,"so2":188.9,"mosquito_risk":7,"arthritis_risk":5,"migraine_risk":7,"frizz_risk":1,"updated_at":"2026-06-09T23:45:47.964687+05:30"},{"city":"Bokaro","state":"Jharkhand","latitude":23.6693,"longitude":86.1511,"temp":30.0,"humidity":53,"rain":0.0,"pressure":977.9,"uv_index":8.1,"wind_gusts":54.4,"aqi":166,"pm10":197.9,"pm2_5":121.1,"no2":69.5,"co":312.0,"o3":15.0,"so2":141.5,"mosquito_risk":4,"arthritis_risk":5,"migraine_risk":7,"frizz_risk":1,"updated_at":"2026-06-09T23:45:47.964695+05:30"},{"city":"Bhubaneswar","state":"Odisha","latitude":20.2961,"longitude":85.8245,"temp":30.0,"humidity":83,"rain":0.0,"pressure":996.9,"uv_index":8.6,"wind_gusts":33.8,"aqi":110,"pm10":44.7,"pm2_5":39.6,"no2":8.8,"co":386.0,"o3":128.0,"so2":9.3,"mosquito_risk":7,"arthritis_risk":5,"migraine_risk":7,"frizz_risk":1,"updated_at":"2026-06-09T23:45:47.964703+05:30"},{"city":"Cuttack","state":"Odisha","latitude":20.4625,"longitude":85.8828,"temp":30.1,"humidity":81,"rain":0.0,"pressure":998.7,"uv_index":8.2,"wind_gusts":31.0,"aqi":110,"pm10":44.7,"pm2_5":39.6,"no2":8.8,"co":453.0,"o3":128.0,"so2":9.3,"mosquito_risk":3,"arthritis_risk":5,"migraine_risk":7,"frizz_risk":1,"updated_at":"2026-06-09T23:45:47.964710+05:30"},{"city":"Rourkela","state":"Odisha","latitude":22.2604,"longitude":84.8536,"temp":30.1,"humidity":66,"rain":0.0,"pressure":979.5,"uv_index":8.9,"wind_gusts":33.8,"aqi":128,"pm10":102.0,"pm2_5":63.6,"no2":36.9,"co":595.0,"o3":47.0,"so2":19.3,"mosquito_risk":3,"arthritis_risk":5,"migraine_risk":7,"frizz_risk":1,"updated_at":"2026-06-09T23:45:47.964717+05:30"},{"city":"Raipur","state":"Chhattisgarh","latitude":21.2514,"longitude":81.6296,"temp":33.5,"humidity":44,"rain":0.0,"pressure":969.8,"uv_index":8.65,"wind_gusts":39.2,"aqi":117,"pm10":63.8,"pm2_5":45.9,"no2":31.1,"co":462.0,"o3":65.0,"so2":45.5,"mosquito_risk":0,"arthritis_risk":5,"migraine_risk":7,"frizz_risk":1,"updated_at":"2026-06-09T23:45:47.964724+05:30"},{"city":"Bhilai","state":"Chhattisgarh","latitude":21.1938,"longitude":81.3509,"temp":32.8,"humidity":47,"rain":0.0,"pressure":970.4,"uv_index":8.55,"wind_gusts":40.7,"aqi":109,"pm10":55.3,"pm2_5":41.3,"no2":27.6,"co":590.0,"o3":70.0,"so2":41.1,"mosquito_risk":0,"arthritis_risk":5,"migraine_risk":7,"frizz_risk":1,"updated_at":"2026-06-09T23:45:47.964732+05:30"},{"city":"Guwahati","state":"Assam","latitude":26.1158,"longitude":91.7086,"temp":25.3,"humidity":98,"rain":0.0,"pressure":997.1,"uv_index":8.8,"wind_gusts":41.0,"aqi":87,"pm10":40.2,"pm2_5":33.5,"no2":11.0,"co":652.0,"o3":73.0,"so2":5.6,"mosquito_risk":7,"arthritis_risk":5,"migraine_risk":7,"frizz_risk":1,"updated_at":"2026-06-09T23:45:47.964738+05:30"},{"city":"Agartala","state":"Tripura","latitude":23.8315,"longitude":91.2868,"temp":26.6,"humidity":97,"rain":0.1,"pressure":1001.9,"uv_index":8.85,"wind_gusts":36.0,"aqi":72,"pm10":27.6,"pm2_5":23.9,"no2":13.2,"co":224.0,"o3":58.0,"so2":3.4,"mosquito_risk":10,"arthritis_risk":5,"migraine_risk":4,"frizz_risk":1,"updated_at":"2026-06-09T23:45:47.964746+05:30"},{"city":"Shillong","state":"Meghalaya","latitude":25.5788,"longitude":91.8933,"temp":19.5,"humidity":92,"rain":0.0,"pressure":854.2,"uv_index":7.3,"wind_gusts":31.0,"aqi":55,"pm10":12.8,"pm2_5":9.7,"no2":4.7,"co":240.0,"o3":94.0,"so2":3.6,"mosquito_risk":3,"arthritis_risk":10,"migraine_risk":7,"frizz_risk":1,"updated_at":"2026-06-09T23:45:47.964753+05:30"},{"city":"Imphal","state":"Manipur","latitude":24.817,"longitude":93.9368,"temp":22.7,"humidity":95,"rain":0.0,"pressure":920.1,"uv_index":8.4,"wind_gusts":32.8,"aqi":72,"pm10":52.4,"pm2_5":46.0,"no2":32.5,"co":1041.0,"o3":23.0,"so2":5.4,"mosquito_risk":3,"arthritis_risk":5,"migraine_risk":7,"frizz_risk":1,"updated_at":"2026-06-09T23:45:47.964761+05:30"},{"city":"Aizawl","state":"Mizoram","latitude":23.7271,"longitude":92.7176,"temp":20.1,"humidity":89,"rain":0.0,"pressure":888.9,"uv_index":8.85,"wind_gusts":34.9,"aqi":58,"pm10":24.3,"pm2_5":17.3,"no2":6.7,"co":208.0,"o3":60.0,"so2":2.1,"mosquito_risk":3,"arthritis_risk":5,"migraine_risk":7,"frizz_risk":1,"updated_at":"2026-06-09T23:45:47.964768+05:30"},{"city":"Kohima","state":"Nagaland","latitude":25.6701,"longitude":94.1077,"temp":18.7,"humidity":90,"rain":0.0,"pressure":851.8,"uv_index":6.7,"wind_gusts":24.8,"aqi":47,"pm10":16.5,"pm2_5":13.0,"no2":8.2,"co":404.0,"o3":57.0,"so2":1.4,"mosquito_risk":3,"arthritis_risk":10,"migraine_risk":7,"frizz_risk":1,"updated_at":"2026-06-09T23:45:47.964776+05:30"},{"city":"Gangtok","state":"Sikkim","latitude":27.3314,"longitude":88.6138,"temp":16.4,"humidity":94,"rain":0.2,"pressure":834.4,"uv_index":8.95,"wind_gusts":34.6,"aqi":87,"pm10":27.0,"pm2_5":19.6,"no2":9.9,"co":482.0,"o3":116.0,"so2":4.3,"mosquito_risk":6,"arthritis_risk":10,"migraine_risk":7,"frizz_risk":0,"updated_at":"2026-06-09T23:45:47.964783+05:30"},{"city":"Siliguri","state":"West Bengal","latitude":26.7271,"longitude":88.3953,"temp":23.2,"humidity":98,"rain":0.1,"pressure":989.0,"uv_index":8.75,"wind_gusts":23.0,"aqi":99,"pm10":42.5,"pm2_5":32.0,"no2":11.5,"co":626.0,"o3":107.0,"so2":4.4,"mosquito_risk":6,"arthritis_risk":5,"migraine_risk":7,"frizz_risk":1,"updated_at":"2026-06-09T23:45:51.252779+05:30"},{"city":"Durgapur","state":"West Bengal","latitude":23.5204,"longitude":87.3119,"temp":28.6,"humidity":87,"rain":0.0,"pressure":989.3,"uv_index":8.85,"wind_gusts":33.8,"aqi":165,"pm10":104.5,"pm2_5":89.4,"no2":33.4,"co":1003.0,"o3":89.0,"so2":52.2,"mosquito_risk":7,"arthritis_risk":5,"migraine_risk":7,"frizz_risk":1,"updated_at":"2026-06-09T23:45:51.252812+05:30"},{"city":"Asansol","state":"West Bengal","latitude":23.6739,"longitude":86.9524,"temp":28.7,"humidity":76,"rain":0.0,"pressure":987.8,"uv_index":8.8,"wind_gusts":43.2,"aqi":159,"pm10":105.9,"pm2_5":79.9,"no2":38.1,"co":601.0,"o3":73.0,"so2":54.6,"mosquito_risk":7,"arthritis_risk":5,"migraine_risk":7,"frizz_risk":1,"updated_at":"2026-06-09T23:45:51.252823+05:30"},{"city":"Pondicherry","state":"Puducherry","latitude":11.9139,"longitude":79.8145,"temp":31.6,"humidity":49,"rain":0.0,"pressure":1007.1,"uv_index":8.1,"wind_gusts":49.7,"aqi":40,"pm10":10.6,"pm2_5":9.7,"no2":15.8,"co":177.0,"o3":51.0,"so2":12.6,"mosquito_risk":0,"arthritis_risk":5,"migraine_risk":4,"frizz_risk":1,"updated_at":"2026-06-09T23:45:51.252831+05:30"},{"city":"Port Blair","state":"Andaman and Nicobar Islands","latitude":11.6234,"longitude":92.7265,"temp":24.8,"humidity":97,"rain":0.1,"pressure":1007.0,"uv_index":8.75,"wind_gusts":47.5,"aqi":27,"pm10":9.3,"pm2_5":5.2,"no2":0.3,"co":90.0,"o3":63.0,"so2":0.4,"mosquito_risk":6,"arthritis_risk":5,"migraine_risk":4,"frizz_risk":1,"updated_at":"2026-06-09T23:45:51.252840+05:30"},{"city":"Haridwar","state":"Uttarakhand","latitude":29.9457,"longitude":78.1642,"temp":26.5,"humidity":59,"rain":0.0,"pressure":964.7,"uv_index":7.65,"wind_gusts":33.5,"aqi":140,"pm10":133.6,"pm2_5":54.2,"no2":25.5,"co":449.0,"o3":101.0,"so2":15.3,"mosquito_risk":4,"arthritis_risk":5,"migraine_risk":7,"frizz_risk":1,"updated_at":"2026-06-09T23:45:51.252847+05:30"},{"city":"Rishikesh","state":"Uttarakhand","latitude":30.0869,"longitude":78.2676,"temp":23.3,"humidity":71,"rain":0.0,"pressure":957.5,"uv_index":7.75,"wind_gusts":23.8,"aqi":167,"pm10":49.6,"pm2_5":35.3,"no2":17.4,"co":406.0,"o3":128.0,"so2":11.7,"mosquito_risk":3,"arthritis_risk":5,"migraine_risk":7,"frizz_risk":1,"updated_at":"2026-06-09T23:45:51.252856+05:30"},{"city":"Nainital","state":"Uttarakhand","latitude":29.3919,"longitude":79.4542,"temp":18.1,"humidity":59,"rain":0.0,"pressure":801.9,"uv_index":8.6,"wind_gusts":42.1,"aqi":125,"pm10":39.1,"pm2_5":33.4,"no2":25.6,"co":328.0,"o3":62.0,"so2":5.3,"mosquito_risk":0,"arthritis_risk":5,"migraine_risk":7,"frizz_risk":0,"updated_at":"2026-06-09T23:45:51.252865+05:30"},{"city":"Mussoorie","state":"Uttarakhand","latitude":30.4599,"longitude":78.0664,"temp":20.1,"humidity":45,"rain":0.0,"pressure":799.7,"uv_index":8.15,"wind_gusts":53.6,"aqi":150,"pm10":43.5,"pm2_5":35.3,"no2":32.7,"co":288.0,"o3":93.0,"so2":12.6,"mosquito_risk":0,"arthritis_risk":5,"migraine_risk":7,"frizz_risk":0,"updated_at":"2026-06-09T23:45:51.252873+05:30"},{"city":"Dharamshala","state":"Himachal Pradesh","latitude":32.219,"longitude":76.3234,"temp":24.1,"humidity":33,"rain":0.0,"pressure":863.6,"uv_index":8.5,"wind_gusts":46.4,"aqi":59,"pm10":16.9,"pm2_5":15.3,"no2":17.3,"co":207.0,"o3":38.0,"so2":0.3,"mosquito_risk":0,"arthritis_risk":5,"migraine_risk":7,"frizz_risk":0,"updated_at":"2026-06-09T23:45:51.252882+05:30"},{"city":"Dalhousie","state":"Himachal Pradesh","latitude":32.5387,"longitude":75.971,"temp":14.4,"humidity":63,"rain":0.0,"pressure":797.8,"uv_index":8.75,"wind_gusts":38.2,"aqi":78,"pm10":35.4,"pm2_5":32.8,"no2":51.7,"co":431.0,"o3":22.0,"so2":2.3,"mosquito_risk":3,"arthritis_risk":5,"migraine_risk":7,"frizz_risk":0,"updated_at":"2026-06-09T23:45:51.252890+05:30"},{"city":"Patiala","state":"Punjab","latitude":30.3398,"longitude":76.3869,"temp":33.3,"humidity":34,"rain":0.0,"pressure":968.4,"uv_index":7.65,"wind_gusts":41.0,"aqi":331,"pm10":240.3,"pm2_5":80.8,"no2":22.3,"co":424.0,"o3":71.0,"so2":9.7,"mosquito_risk":0,"arthritis_risk":5,"migraine_risk":7,"frizz_risk":0,"updated_at":"2026-06-09T23:45:51.252898+05:30"},{"city":"Bhatinda","state":"Punjab","latitude":30.211,"longitude":74.9455,"temp":34.6,"humidity":35,"rain":0.0,"pressure":973.8,"uv_index":8.35,"wind_gusts":36.4,"aqi":124,"pm10":123.9,"pm2_5":74.5,"no2":59.5,"co":336.0,"o3":19.0,"so2":10.5,"mosquito_risk":0,"arthritis_risk":5,"migraine_risk":7,"frizz_risk":1,"updated_at":"2026-06-09T23:45:51.252905+05:30"},{"city":"Rohtak","state":"Haryana","latitude":28.8955,"longitude":76.6066,"temp":31.5,"humidity":45,"rain":0.0,"pressure":972.7,"uv_index":7.85,"wind_gusts":34.2,"aqi":591,"pm10":588.6,"pm2_5":144.4,"no2":77.9,"co":685.0,"o3":6.0,"so2":16.2,"mosquito_risk":0,"arthritis_risk":5,"migraine_risk":7,"frizz_risk":1,"updated_at":"2026-06-09T23:45:51.252912+05:30"},{"city":"Panipat","state":"Haryana","latitude":29.3909,"longitude":76.9635,"temp":31.1,"humidity":46,"rain":0.0,"pressure":971.0,"uv_index":7.7,"wind_gusts":32.8,"aqi":890,"pm10":800.9,"pm2_5":171.4,"no2":49.6,"co":604.0,"o3":45.0,"so2":12.0,"mosquito_risk":0,"arthritis_risk":5,"migraine_risk":7,"frizz_risk":1,"updated_at":"2026-06-09T23:45:51.252920+05:30"},{"city":"Mathura","state":"Uttar Pradesh","latitude":27.4924,"longitude":77.6737,"temp":30.6,"humidity":50,"rain":0.0,"pressure":978.3,"uv_index":8.1,"wind_gusts":49.7,"aqi":671,"pm10":431.2,"pm2_5":90.8,"no2":43.2,"co":652.0,"o3":24.0,"so2":6.5,"mosquito_risk":0,"arthritis_risk":5,"migraine_risk":7,"frizz_risk":1,"updated_at":"2026-06-09T23:45:51.252927+05:30"},{"city":"Vrindavan","state":"Uttar Pradesh","latitude":27.5823,"longitude":77.7027,"temp":31.0,"humidity":48,"rain":0.0,"pressure":978.7,"uv_index":8.05,"wind_gusts":49.3,"aqi":671,"pm10":431.2,"pm2_5":90.8,"no2":43.2,"co":861.0,"o3":24.0,"so2":6.5,"mosquito_risk":0,"arthritis_risk":5,"migraine_risk":7,"frizz_risk":1,"updated_at":"2026-06-09T23:45:51.252934+05:30"},{"city":"Ayodhya","state":"Uttar Pradesh","latitude":26.7922,"longitude":82.1998,"temp":30.3,"humidity":66,"rain":0.0,"pressure":987.7,"uv_index":8.45,"wind_gusts":25.6,"aqi":158,"pm10":156.0,"pm2_5":80.8,"no2":46.4,"co":501.0,"o3":38.0,"so2":13.4,"mosquito_risk":3,"arthritis_risk":5,"migraine_risk":7,"frizz_risk":1,"updated_at":"2026-06-09T23:45:51.252942+05:30"},{"city":"Ratlam","state":"Madhya Pradesh","latitude":23.3315,"longitude":75.0367,"temp":29.5,"humidity":62,"rain":0.0,"pressure":950.9,"uv_index":8.55,"wind_gusts":44.6,"aqi":82,"pm10":51.9,"pm2_5":32.1,"no2":3.9,"co":158.0,"o3":96.0,"so2":7.4,"mosquito_risk":7,"arthritis_risk":5,"migraine_risk":7,"frizz_risk":1,"updated_at":"2026-06-09T23:45:51.252950+05:30"},{"city":"Sagar","state":"Madhya Pradesh","latitude":23.8388,"longitude":78.7378,"temp":30.8,"humidity":48,"rain":0.0,"pressure":945.3,"uv_index":8.05,"wind_gusts":41.4,"aqi":78,"pm10":44.9,"pm2_5":26.3,"no2":10.3,"co":197.0,"o3":69.0,"so2":4.2,"mosquito_risk":0,"arthritis_risk":5,"migraine_risk":7,"frizz_risk":1,"updated_at":"2026-06-09T23:45:51.252957+05:30"},{"city":"Satna","state":"Madhya Pradesh","latitude":24.6005,"longitude":80.8322,"temp":32.4,"humidity":45,"rain":0.0,"pressure":965.2,"uv_index":8.8,"wind_gusts":43.9,"aqi":77,"pm10":65.4,"pm2_5":31.9,"no2":17.5,"co":186.0,"o3":53.0,"so2":4.0,"mosquito_risk":0,"arthritis_risk":5,"migraine_risk":7,"frizz_risk":1,"updated_at":"2026-06-09T23:45:51.252965+05:30"},{"city":"Akola","state":"Maharashtra","latitude":20.7002,"longitude":77.0082,"temp":34.2,"humidity":34,"rain":0.0,"pressure":971.0,"uv_index":8.8,"wind_gusts":42.8,"aqi":78,"pm10":41.6,"pm2_5":24.1,"no2":10.1,"co":221.0,"o3":81.0,"so2":7.2,"mosquito_risk":0,"arthritis_risk":5,"migraine_risk":7,"frizz_risk":0,"updated_at":"2026-06-09T23:45:51.252973+05:30"},{"city":"Amravati","state":"Maharashtra","latitude":20.9374,"longitude":77.7796,"temp":33.5,"humidity":38,"rain":0.0,"pressure":963.3,"uv_index":8.85,"wind_gusts":43.9,"aqi":79,"pm10":39.9,"pm2_5":23.3,"no2":11.1,"co":229.0,"o3":78.0,"so2":7.1,"mosquito_risk":0,"arthritis_risk":5,"migraine_risk":7,"frizz_risk":1,"updated_at":"2026-06-09T23:45:51.252982+05:30"},{"city":"Latur","state":"Maharashtra","latitude":18.4088,"longitude":76.5604,"temp":26.4,"humidity":70,"rain":0.0,"pressure":937.7,"uv_index":7.8,"wind_gusts":36.0,"aqi":68,"pm10":18.5,"pm2_5":12.6,"no2":6.5,"co":172.0,"o3":63.0,"so2":2.6,"mosquito_risk":7,"arthritis_risk":5,"migraine_risk":7,"frizz_risk":1,"updated_at":"2026-06-09T23:45:51.252989+05:30"},{"city":"Nanded","state":"Maharashtra","latitude":19.1383,"longitude":77.3091,"temp":30.4,"humidity":58,"rain":0.0,"pressure":965.5,"uv_index":8.9,"wind_gusts":36.4,"aqi":84,"pm10":46.7,"pm2_5":28.1,"no2":12.5,"co":176.0,"o3":69.0,"so2":7.8,"mosquito_risk":0,"arthritis_risk":5,"migraine_risk":7,"frizz_risk":1,"updated_at":"2026-06-09T23:45:51.252997+05:30"},{"city":"Gulbarga","state":"Karnataka","latitude":17.3297,"longitude":76.8343,"temp":26.8,"humidity":76,"rain":0.0,"pressure":957.2,"uv_index":5.05,"wind_gusts":41.0,"aqi":49,"pm10":8.6,"pm2_5":7.0,"no2":10.7,"co":222.0,"o3":55.0,"so2":2.6,"mosquito_risk":7,"arthritis_risk":5,"migraine_risk":3,"frizz_risk":1,"updated_at":"2026-06-09T23:45:51.253005+05:30"},{"city":"Bidar","state":"Karnataka","latitude":17.9104,"longitude":77.5199,"temp":25.0,"humidity":83,"rain":0.0,"pressure":933.2,"uv_index":5.35,"wind_gusts":38.5,"aqi":70,"pm10":13.7,"pm2_5":10.3,"no2":8.2,"co":185.0,"o3":76.0,"so2":2.2,"mosquito_risk":7,"arthritis_risk":5,"migraine_risk":3,"frizz_risk":1,"updated_at":"2026-06-09T23:45:51.253012+05:30"},{"city":"Hospet","state":"Karnataka","latitude":15.2689,"longitude":76.3909,"temp":23.7,"humidity":88,"rain":0.0,"pressure":955.9,"uv_index":8.1,"wind_gusts":43.6,"aqi":27,"pm10":3.7,"pm2_5":3.4,"no2":7.7,"co":137.0,"o3":40.0,"so2":1.7,"mosquito_risk":3,"arthritis_risk":5,"migraine_risk":7,"frizz_risk":1,"updated_at":"2026-06-09T23:45:51.253018+05:30"},{"city":"Tirupur","state":"Tamil Nadu","latitude":11.1085,"longitude":77.3411,"temp":24.1,"humidity":90,"rain":0.0,"pressure":976.0,"uv_index":5.2,"wind_gusts":59.4,"aqi":22,"pm10":10.6,"pm2_5":10.3,"no2":19.0,"co":175.0,"o3":28.0,"so2":5.1,"mosquito_risk":3,"arthritis_risk":5,"migraine_risk":3,"frizz_risk":1,"updated_at":"2026-06-09T23:45:51.253025+05:30"},{"city":"Alappuzha","state":"Kerala","latitude":9.4981,"longitude":76.3388,"temp":26.2,"humidity":93,"rain":0.1,"pressure":1011.3,"uv_index":8.35,"wind_gusts":44.3,"aqi":32,"pm10":12.9,"pm2_5":8.3,"no2":6.5,"co":84.0,"o3":44.0,"so2":1.6,"mosquito_risk":10,"arthritis_risk":0,"migraine_risk":4,"frizz_risk":1,"updated_at":"2026-06-09T23:45:51.253032+05:30"},{"city":"Munnar","state":"Kerala","latitude":10.0889,"longitude":77.0595,"temp":17.1,"humidity":100,"rain":0.2,"pressure":857.8,"uv_index":2.15,"wind_gusts":52.9,"aqi":18,"pm10":2.9,"pm2_5":2.8,"no2":8.6,"co":97.0,"o3":26.0,"so2":1.9,"mosquito_risk":6,"arthritis_risk":10,"migraine_risk":3,"frizz_risk":1,"updated_at":"2026-06-09T23:45:51.253040+05:30"},{"city":"Silchar","state":"Assam","latitude":24.8333,"longitude":92.7789,"temp":25.3,"humidity":93,"rain":0.0,"pressure":1000.9,"uv_index":8.7,"wind_gusts":19.1,"aqi":74,"pm10":38.0,"pm2_5":27.2,"no2":7.9,"co":509.0,"o3":88.0,"so2":5.8,"mosquito_risk":7,"arthritis_risk":5,"migraine_risk":4,"frizz_risk":1,"updated_at":"2026-06-09T23:45:51.253047+05:30"},{"city":"Dibrugarh","state":"Assam","latitude":27.4728,"longitude":94.912,"temp":24.5,"humidity":97,"rain":0.3,"pressure":991.1,"uv_index":7.6,"wind_gusts":28.8,"aqi":77,"pm10":13.7,"pm2_5":11.5,"no2":7.5,"co":257.0,"o3":90.0,"so2":1.2,"mosquito_risk":6,"arthritis_risk":5,"migraine_risk":7,"frizz_risk":1,"updated_at":"2026-06-09T23:45:51.253054+05:30"}]