[{"city":"Delhi","state":"Delhi","latitude":28.6139,"longitude":77.209,"temp":30.1,"humidity":79,"rain":0.0,"pressure":978.2,"uv_index":6.85,"wind_gusts":30.2,"aqi":318,"pm10":568.1,"pm2_5":153.2,"no2":56.2,"co":648.0,"o3":40.0,"so2":28.2,"mosquito_risk":3,"arthritis_risk":5,"migraine_risk":7,"frizz_risk":1,"updated_at":"2026-07-19T21:32:36.485151+05:30"},{"city":"Mumbai","state":"Maharashtra","latitude":19.076,"longitude":72.8777,"temp":25.8,"humidity":94,"rain":0.1,"pressure":1007.2,"uv_index":5.1,"wind_gusts":43.2,"aqi":60,"pm10":21.9,"pm2_5":10.5,"no2":7.7,"co":241.0,"o3":45.0,"so2":6.0,"mosquito_risk":10,"arthritis_risk":5,"migraine_risk":0,"frizz_risk":1,"updated_at":"2026-07-19T21:32:36.485194+05:30"},{"city":"Bangalore","state":"Karnataka","latitude":12.9716,"longitude":77.5946,"temp":21.7,"humidity":90,"rain":0.0,"pressure":912.3,"uv_index":7.25,"wind_gusts":43.6,"aqi":50,"pm10":14.9,"pm2_5":10.7,"no2":16.9,"co":424.0,"o3":39.0,"so2":5.6,"mosquito_risk":3,"arthritis_risk":5,"migraine_risk":7,"frizz_risk":1,"updated_at":"2026-07-19T21:32:36.485209+05:30"},{"city":"Hyderabad","state":"Telangana","latitude":17.385,"longitude":78.4867,"temp":23.8,"humidity":91,"rain":0.2,"pressure":952.5,"uv_index":3.5,"wind_gusts":42.1,"aqi":37,"pm10":17.9,"pm2_5":11.0,"no2":7.4,"co":218.0,"o3":57.0,"so2":4.0,"mosquito_risk":6,"arthritis_risk":5,"migraine_risk":3,"frizz_risk":1,"updated_at":"2026-07-19T21:32:36.485219+05:30"},{"city":"Chennai","state":"Tamil Nadu","latitude":13.0827,"longitude":80.2707,"temp":29.0,"humidity":78,"rain":0.0,"pressure":1006.6,"uv_index":7.5,"wind_gusts":42.8,"aqi":76,"pm10":31.5,"pm2_5":23.1,"no2":15.3,"co":210.0,"o3":77.0,"so2":9.9,"mosquito_risk":7,"arthritis_risk":5,"migraine_risk":4,"frizz_risk":1,"updated_at":"2026-07-19T21:32:36.485228+05:30"},{"city":"Kolkata","state":"West Bengal","latitude":22.5726,"longitude":88.3639,"temp":28.0,"humidity":88,"rain":0.0,"pressure":1003.2,"uv_index":7.05,"wind_gusts":32.4,"aqi":61,"pm10":20.4,"pm2_5":16.1,"no2":7.5,"co":281.0,"o3":72.0,"so2":6.5,"mosquito_risk":7,"arthritis_risk":5,"migraine_risk":4,"frizz_risk":1,"updated_at":"2026-07-19T21:32:36.485236+05:30"},{"city":"Pune","state":"Maharashtra","latitude":18.5204,"longitude":73.8567,"temp":23.7,"humidity":87,"rain":0.0,"pressure":946.9,"uv_index":3.5,"wind_gusts":46.8,"aqi":21,"pm10":3.7,"pm2_5":3.3,"no2":8.4,"co":176.0,"o3":34.0,"so2":5.5,"mosquito_risk":3,"arthritis_risk":5,"migraine_risk":3,"frizz_risk":1,"updated_at":"2026-07-19T21:32:36.485243+05:30"},{"city":"Ahmedabad","state":"Gujarat","latitude":23.0225,"longitude":72.5714,"temp":29.1,"humidity":80,"rain":0.0,"pressure":997.7,"uv_index":6.65,"wind_gusts":32.4,"aqi":64,"pm10":33.8,"pm2_5":18.2,"no2":11.4,"co":168.0,"o3":53.0,"so2":7.0,"mosquito_risk":7,"arthritis_risk":5,"migraine_risk":7,"frizz_risk":1,"updated_at":"2026-07-19T21:32:36.485250+05:30"},{"city":"Jaipur","state":"Rajasthan","latitude":26.9124,"longitude":75.7873,"temp":28.2,"humidity":78,"rain":0.0,"pressure":955.7,"uv_index":7.95,"wind_gusts":34.6,"aqi":122,"pm10":65.9,"pm2_5":28.2,"no2":15.8,"co":339.0,"o3":57.0,"so2":6.4,"mosquito_risk":7,"arthritis_risk":5,"migraine_risk":7,"frizz_risk":1,"updated_at":"2026-07-19T21:32:36.485256+05:30"},{"city":"Lucknow","state":"Uttar Pradesh","latitude":26.8467,"longitude":80.9462,"temp":27.7,"humidity":95,"rain":0.2,"pressure":989.8,"uv_index":5.6,"wind_gusts":24.5,"aqi":146,"pm10":80.8,"pm2_5":53.6,"no2":25.2,"co":412.0,"o3":53.0,"so2":11.2,"mosquito_risk":10,"arthritis_risk":5,"migraine_risk":3,"frizz_risk":1,"updated_at":"2026-07-19T21:32:36.485269+05:30"},{"city":"Kanpur","state":"Uttar Pradesh","latitude":26.4499,"longitude":80.3319,"temp":27.5,"humidity":97,"rain":0.3,"pressure":988.3,"uv_index":6.25,"wind_gusts":24.1,"aqi":148,"pm10":61.7,"pm2_5":36.2,"no2":21.3,"co":383.0,"o3":45.0,"so2":7.4,"mosquito_risk":10,"arthritis_risk":5,"migraine_risk":7,"frizz_risk":1,"updated_at":"2026-07-19T21:32:36.485276+05:30"},{"city":"Chandigarh","state":"Chandigarh","latitude":30.7333,"longitude":76.7794,"temp":27.5,"humidity":92,"rain":0.0,"pressure":963.8,"uv_index":5.85,"wind_gusts":27.7,"aqi":154,"pm10":112.2,"pm2_5":66.1,"no2":51.8,"co":534.0,"o3":34.0,"so2":13.5,"mosquito_risk":7,"arthritis_risk":5,"migraine_risk":3,"frizz_risk":1,"updated_at":"2026-07-19T21:32:36.485283+05:30"},{"city":"Srinagar","state":"Jammu and Kashmir","latitude":34.0837,"longitude":74.7973,"temp":25.3,"humidity":81,"rain":0.0,"pressure":838.6,"uv_index":9.05,"wind_gusts":31.0,"aqi":79,"pm10":21.8,"pm2_5":20.5,"no2":22.0,"co":1017.0,"o3":56.0,"so2":4.0,"mosquito_risk":7,"arthritis_risk":5,"migraine_risk":7,"frizz_risk":1,"updated_at":"2026-07-19T21:32:36.485290+05:30"},{"city":"Jammu","state":"Jammu and Kashmir","latitude":32.7266,"longitude":74.857,"temp":29.6,"humidity":81,"rain":0.0,"pressure":966.7,"uv_index":6.55,"wind_gusts":28.4,"aqi":142,"pm10":125.3,"pm2_5":58.3,"no2":20.0,"co":360.0,"o3":75.0,"so2":7.0,"mosquito_risk":7,"arthritis_risk":5,"migraine_risk":7,"frizz_risk":1,"updated_at":"2026-07-19T21:32:36.485297+05:30"},{"city":"Amritsar","state":"Punjab","latitude":31.634,"longitude":74.8723,"temp":31.1,"humidity":83,"rain":0.0,"pressure":974.1,"uv_index":7.8,"wind_gusts":32.0,"aqi":173,"pm10":137.8,"pm2_5":82.0,"no2":16.4,"co":680.0,"o3":86.0,"so2":10.8,"mosquito_risk":3,"arthritis_risk":5,"migraine_risk":7,"frizz_risk":1,"updated_at":"2026-07-19T21:32:36.485303+05:30"},{"city":"Ludhiana","state":"Punjab","latitude":30.901,"longitude":75.8573,"temp":31.8,"humidity":78,"rain":0.0,"pressure":972.5,"uv_index":7.4,"wind_gusts":27.7,"aqi":182,"pm10":125.3,"pm2_5":80.6,"no2":31.4,"co":979.0,"o3":50.0,"so2":18.1,"mosquito_risk":3,"arthritis_risk":5,"migraine_risk":7,"frizz_risk":1,"updated_at":"2026-07-19T21:32:36.485309+05:30"},{"city":"Jalandhar","state":"Punjab","latitude":31.326,"longitude":75.5762,"temp":31.1,"humidity":78,"rain":0.0,"pressure":973.4,"uv_index":3.85,"wind_gusts":29.5,"aqi":172,"pm10":123.9,"pm2_5":71.2,"no2":25.2,"co":689.0,"o3":60.0,"so2":18.9,"mosquito_risk":3,"arthritis_risk":5,"migraine_risk":3,"frizz_risk":1,"updated_at":"2026-07-19T21:32:36.485315+05:30"},{"city":"Dehradun","state":"Uttarakhand","latitude":30.6284,"longitude":78.0322,"temp":19.5,"humidity":100,"rain":0.0,"pressure":828.3,"uv_index":5.1,"wind_gusts":26.6,"aqi":63,"pm10":44.7,"pm2_5":20.7,"no2":14.6,"co":245.0,"o3":71.0,"so2":2.8,"mosquito_risk":3,"arthritis_risk":10,"migraine_risk":3,"frizz_risk":1,"updated_at":"2026-07-19T21:32:36.485321+05:30"},{"city":"Shimla","state":"Himachal Pradesh","latitude":31.1048,"longitude":77.1734,"temp":17.0,"humidity":97,"rain":0.0,"pressure":782.9,"uv_index":3.8,"wind_gusts":42.1,"aqi":73,"pm10":31.2,"pm2_5":17.8,"no2":16.7,"co":287.0,"o3":55.0,"so2":2.3,"mosquito_risk":3,"arthritis_risk":10,"migraine_risk":3,"frizz_risk":1,"updated_at":"2026-07-19T21:32:36.485327+05:30"},{"city":"Manali","state":"Himachal Pradesh","latitude":32.2396,"longitude":77.1887,"temp":20.9,"humidity":93,"rain":0.1,"pressure":817.5,"uv_index":5.15,"wind_gusts":32.0,"aqi":50,"pm10":7.5,"pm2_5":6.7,"no2":25.5,"co":234.0,"o3":52.0,"so2":1.0,"mosquito_risk":6,"arthritis_risk":5,"migraine_risk":3,"frizz_risk":1,"updated_at":"2026-07-19T21:32:36.485336+05:30"},{"city":"Gurgaon","state":"Haryana","latitude":28.4595,"longitude":77.0266,"temp":29.8,"humidity":82,"rain":0.0,"pressure":976.5,"uv_index":7.0,"wind_gusts":28.4,"aqi":250,"pm10":288.7,"pm2_5":94.8,"no2":48.8,"co":1347.0,"o3":25.0,"so2":16.8,"mosquito_risk":7,"arthritis_risk":5,"migraine_risk":7,"frizz_risk":1,"updated_at":"2026-07-19T21:32:36.485343+05:30"},{"city":"Noida","state":"Uttar Pradesh","latitude":28.5355,"longitude":77.391,"temp":29.6,"humidity":84,"rain":0.0,"pressure":979.7,"uv_index":5.3,"wind_gusts":25.6,"aqi":250,"pm10":288.7,"pm2_5":94.8,"no2":48.8,"co":628.0,"o3":25.0,"so2":16.8,"mosquito_risk":7,"arthritis_risk":5,"migraine_risk":3,"frizz_risk":1,"updated_at":"2026-07-19T21:32:36.485349+05:30"},{"city":"Ghaziabad","state":"Uttar Pradesh","latitude":28.6692,"longitude":77.4538,"temp":29.1,"humidity":92,"rain":0.0,"pressure":977.9,"uv_index":6.35,"wind_gusts":25.2,"aqi":199,"pm10":201.6,"pm2_5":96.4,"no2":30.5,"co":478.0,"o3":76.0,"so2":17.1,"mosquito_risk":7,"arthritis_risk":5,"migraine_risk":7,"frizz_risk":1,"updated_at":"2026-07-19T21:32:36.485357+05:30"},{"city":"Faridabad","state":"Haryana","latitude":28.4089,"longitude":77.3178,"temp":29.8,"humidity":82,"rain":0.0,"pressure":978.9,"uv_index":6.05,"wind_gusts":30.2,"aqi":250,"pm10":288.7,"pm2_5":94.8,"no2":48.8,"co":564.0,"o3":25.0,"so2":16.8,"mosquito_risk":7,"arthritis_risk":5,"migraine_risk":7,"frizz_risk":1,"updated_at":"2026-07-19T21:32:36.485363+05:30"},{"city":"Meerut","state":"Uttar Pradesh","latitude":28.9845,"longitude":77.7064,"temp":28.5,"humidity":94,"rain":0.0,"pressure":976.8,"uv_index":6.5,"wind_gusts":41.4,"aqi":199,"pm10":201.6,"pm2_5":96.4,"no2":30.5,"co":464.0,"o3":76.0,"so2":17.1,"mosquito_risk":7,"arthritis_risk":5,"migraine_risk":7,"frizz_risk":1,"updated_at":"2026-07-19T21:32:36.485368+05:30"},{"city":"Agra","state":"Uttar Pradesh","latitude":27.1767,"longitude":78.0081,"temp":28.8,"humidity":89,"rain":0.0,"pressure":983.4,"uv_index":3.55,"wind_gusts":36.0,"aqi":164,"pm10":86.4,"pm2_5":56.5,"no2":38.8,"co":268.0,"o3":31.0,"so2":11.9,"mosquito_risk":7,"arthritis_risk":5,"migraine_risk":3,"frizz_risk":1,"updated_at":"2026-07-19T21:32:36.485374+05:30"},{"city":"Varanasi","state":"Uttar Pradesh","latitude":25.3176,"longitude":82.9739,"temp":28.2,"humidity":92,"rain":0.0,"pressure":993.1,"uv_index":6.85,"wind_gusts":20.9,"aqi":109,"pm10":56.0,"pm2_5":48.3,"no2":22.2,"co":867.0,"o3":64.0,"so2":11.9,"mosquito_risk":7,"arthritis_risk":5,"migraine_risk":7,"frizz_risk":1,"updated_at":"2026-07-19T21:32:36.485381+05:30"},{"city":"Prayagraj","state":"Uttar Pradesh","latitude":25.4358,"longitude":81.8463,"temp":28.2,"humidity":90,"rain":0.0,"pressure":992.1,"uv_index":5.8,"wind_gusts":19.8,"aqi":125,"pm10":73.8,"pm2_5":56.8,"no2":27.1,"co":318.0,"o3":43.0,"so2":12.7,"mosquito_risk":7,"arthritis_risk":5,"migraine_risk":3,"frizz_risk":1,"updated_at":"2026-07-19T21:32:36.485387+05:30"},{"city":"Gorakhpur","state":"Uttar Pradesh","latitude":26.7606,"longitude":83.3732,"temp":26.0,"humidity":95,"rain":0.2,"pressure":993.6,"uv_index":7.1,"wind_gusts":25.9,"aqi":70,"pm10":20.5,"pm2_5":20.5,"no2":14.9,"co":472.0,"o3":80.0,"so2":7.3,"mosquito_risk":10,"arthritis_risk":5,"migraine_risk":7,"frizz_risk":1,"updated_at":"2026-07-19T21:32:36.485393+05:30"},{"city":"Bareilly","state":"Uttar Pradesh","latitude":28.367,"longitude":79.4304,"temp":26.6,"humidity":97,"rain":0.3,"pressure":982.7,"uv_index":5.25,"wind_gusts":31.7,"aqi":140,"pm10":47.4,"pm2_5":37.3,"no2":16.5,"co":458.0,"o3":66.0,"so2":9.0,"mosquito_risk":10,"arthritis_risk":5,"migraine_risk":3,"frizz_risk":1,"updated_at":"2026-07-19T21:32:36.485401+05:30"},{"city":"Aligarh","state":"Uttar Pradesh","latitude":27.8974,"longitude":78.088,"temp":28.6,"humidity":86,"rain":0.0,"pressure":981.0,"uv_index":6.4,"wind_gusts":28.4,"aqi":185,"pm10":267.3,"pm2_5":93.4,"no2":32.0,"co":322.0,"o3":50.0,"so2":11.4,"mosquito_risk":7,"arthritis_risk":5,"migraine_risk":7,"frizz_risk":1,"updated_at":"2026-07-19T21:32:36.485408+05:30"},{"city":"Moradabad","state":"Uttar Pradesh","latitude":28.8386,"longitude":78.7733,"temp":27.0,"humidity":95,"rain":0.0,"pressure":979.4,"uv_index":2.35,"wind_gusts":34.6,"aqi":155,"pm10":56.3,"pm2_5":38.9,"no2":13.6,"co":462.0,"o3":81.0,"so2":10.2,"mosquito_risk":7,"arthritis_risk":5,"migraine_risk":3,"frizz_risk":1,"updated_at":"2026-07-19T21:32:36.485414+05:30"},{"city":"Saharanpur","state":"Uttar Pradesh","latitude":29.9637,"longitude":77.546,"temp":27.0,"humidity":96,"rain":0.0,"pressure":971.1,"uv_index":6.5,"wind_gusts":33.1,"aqi":175,"pm10":116.6,"pm2_5":63.3,"no2":11.3,"co":416.0,"o3":105.0,"so2":11.7,"mosquito_risk":7,"arthritis_risk":5,"migraine_risk":7,"frizz_risk":1,"updated_at":"2026-07-19T21:32:36.485420+05:30"},{"city":"Jhansi","state":"Uttar Pradesh","latitude":25.4484,"longitude":78.5685,"temp":27.3,"humidity":97,"rain":0.2,"pressure":974.5,"uv_index":6.9,"wind_gusts":31.0,"aqi":86,"pm10":31.9,"pm2_5":23.4,"no2":11.7,"co":289.0,"o3":61.0,"so2":8.9,"mosquito_risk":10,"arthritis_risk":5,"migraine_risk":7,"frizz_risk":1,"updated_at":"2026-07-19T21:32:39.824581+05:30"},{"city":"Surat","state":"Gujarat","latitude":21.1702,"longitude":72.8311,"temp":28.4,"humidity":81,"rain":0.0,"pressure":1003.4,"uv_index":7.45,"wind_gusts":43.2,"aqi":69,"pm10":19.7,"pm2_5":14.0,"no2":19.5,"co":241.0,"o3":29.0,"so2":30.1,"mosquito_risk":7,"arthritis_risk":5,"migraine_risk":4,"frizz_risk":1,"updated_at":"2026-07-19T21:32:39.824611+05:30"},{"city":"Vadodara","state":"Gujarat","latitude":22.3072,"longitude":73.1812,"temp":27.7,"humidity":87,"rain":0.1,"pressure":1000.5,"uv_index":6.1,"wind_gusts":31.3,"aqi":64,"pm10":17.5,"pm2_5":12.9,"no2":16.6,"co":148.0,"o3":36.0,"so2":18.4,"mosquito_risk":10,"arthritis_risk":5,"migraine_risk":4,"frizz_risk":1,"updated_at":"2026-07-19T21:32:39.824645+05:30"},{"city":"Rajkot","state":"Gujarat","latitude":22.3039,"longitude":70.8022,"temp":28.6,"humidity":74,"rain":0.0,"pressure":989.8,"uv_index":6.0,"wind_gusts":45.4,"aqi":60,"pm10":25.0,"pm2_5":13.5,"no2":6.8,"co":114.0,"o3":38.0,"so2":5.1,"mosquito_risk":7,"arthritis_risk":5,"migraine_risk":3,"frizz_risk":1,"updated_at":"2026-07-19T21:32:39.824654+05:30"},{"city":"Thane","state":"Maharashtra","latitude":19.2183,"longitude":72.9781,"temp":24.9,"humidity":98,"rain":0.1,"pressure":1006.6,"uv_index":5.5,"wind_gusts":38.9,"aqi":60,"pm10":21.9,"pm2_5":10.5,"no2":7.7,"co":271.0,"o3":45.0,"so2":6.0,"mosquito_risk":6,"arthritis_risk":5,"migraine_risk":0,"frizz_risk":1,"updated_at":"2026-07-19T21:32:39.824663+05:30"},{"city":"Nagpur","state":"Maharashtra","latitude":21.1458,"longitude":79.0882,"temp":26.4,"humidity":95,"rain":0.0,"pressure":970.4,"uv_index":5.35,"wind_gusts":31.3,"aqi":62,"pm10":32.1,"pm2_5":25.3,"no2":23.5,"co":468.0,"o3":34.0,"so2":14.0,"mosquito_risk":7,"arthritis_risk":5,"migraine_risk":3,"frizz_risk":1,"updated_at":"2026-07-19T21:32:39.824671+05:30"},{"city":"Nashik","state":"Maharashtra","latitude":19.9975,"longitude":73.7898,"temp":22.8,"humidity":96,"rain":0.0,"pressure":943.6,"uv_index":4.65,"wind_gusts":36.7,"aqi":24,"pm10":3.3,"pm2_5":2.6,"no2":9.3,"co":152.0,"o3":36.0,"so2":5.0,"mosquito_risk":3,"arthritis_risk":5,"migraine_risk":3,"frizz_risk":1,"updated_at":"2026-07-19T21:32:39.824679+05:30"},{"city":"Aurangabad","state":"Maharashtra","latitude":19.8762,"longitude":75.3433,"temp":23.4,"humidity":95,"rain":0.0,"pressure":942.5,"uv_index":6.5,"wind_gusts":40.7,"aqi":34,"pm10":6.4,"pm2_5":5.7,"no2":9.0,"co":177.0,"o3":43.0,"so2":9.1,"mosquito_risk":3,"arthritis_risk":5,"migraine_risk":7,"frizz_risk":1,"updated_at":"2026-07-19T21:32:39.824686+05:30"},{"city":"Solapur","state":"Maharashtra","latitude":17.6599,"longitude":75.9064,"temp":25.1,"humidity":91,"rain":0.0,"pressure":956.7,"uv_index":3.05,"wind_gusts":48.6,"aqi":39,"pm10":8.8,"pm2_5":6.7,"no2":6.0,"co":162.0,"o3":39.0,"so2":2.3,"mosquito_risk":7,"arthritis_risk":5,"migraine_risk":3,"frizz_risk":1,"updated_at":"2026-07-19T21:32:39.824693+05:30"},{"city":"Kolhapur","state":"Maharashtra","latitude":16.705,"longitude":74.2433,"temp":22.3,"humidity":92,"rain":0.0,"pressure":948.0,"uv_index":8.0,"wind_gusts":48.2,"aqi":28,"pm10":5.4,"pm2_5":4.5,"no2":5.8,"co":157.0,"o3":36.0,"so2":2.5,"mosquito_risk":3,"arthritis_risk":5,"migraine_risk":7,"frizz_risk":1,"updated_at":"2026-07-19T21:32:39.824701+05:30"},{"city":"Goa","state":"Goa","latitude":15.2993,"longitude":74.124,"temp":24.4,"humidity":98,"rain":0.0,"pressure":999.5,"uv_index":6.5,"wind_gusts":25.6,"aqi":63,"pm10":27.9,"pm2_5":15.5,"no2":4.6,"co":340.0,"o3":41.0,"so2":1.4,"mosquito_risk":3,"arthritis_risk":5,"migraine_risk":7,"frizz_risk":1,"updated_at":"2026-07-19T21:32:39.824708+05:30"},{"city":"Jodhpur","state":"Rajasthan","latitude":26.2389,"longitude":73.0243,"temp":32.5,"humidity":50,"rain":0.0,"pressure":977.5,"uv_index":7.65,"wind_gusts":42.1,"aqi":98,"pm10":111.5,"pm2_5":28.9,"no2":7.3,"co":131.0,"o3":56.0,"so2":2.2,"mosquito_risk":0,"arthritis_risk":5,"migraine_risk":7,"frizz_risk":1,"updated_at":"2026-07-19T21:32:39.824715+05:30"},{"city":"Udaipur","state":"Rajasthan","latitude":24.5854,"longitude":73.7125,"temp":27.6,"humidity":67,"rain":0.0,"pressure":942.4,"uv_index":6.25,"wind_gusts":29.9,"aqi":64,"pm10":28.6,"pm2_5":17.8,"no2":5.9,"co":184.0,"o3":79.0,"so2":6.7,"mosquito_risk":7,"arthritis_risk":5,"migraine_risk":7,"frizz_risk":1,"updated_at":"2026-07-19T21:32:39.824722+05:30"},{"city":"Kota","state":"Rajasthan","latitude":25.2138,"longitude":75.8648,"temp":30.5,"humidity":62,"rain":0.0,"pressure":974.9,"uv_index":7.65,"wind_gusts":28.1,"aqi":76,"pm10":30.5,"pm2_5":22.1,"no2":13.8,"co":187.0,"o3":66.0,"so2":8.0,"mosquito_risk":3,"arthritis_risk":5,"migraine_risk":7,"frizz_risk":1,"updated_at":"2026-07-19T21:32:39.824729+05:30"},{"city":"Bikaner","state":"Rajasthan","latitude":28.0229,"longitude":73.3119,"temp":35.2,"humidity":41,"rain":0.0,"pressure":975.4,"uv_index":8.05,"wind_gusts":35.3,"aqi":119,"pm10":129.9,"pm2_5":36.4,"no2":2.1,"co":120.0,"o3":69.0,"so2":2.0,"mosquito_risk":0,"arthritis_risk":5,"migraine_risk":10,"frizz_risk":1,"updated_at":"2026-07-19T21:32:39.824737+05:30"},{"city":"Ajmer","state":"Rajasthan","latitude":26.4499,"longitude":74.6399,"temp":30.6,"humidity":63,"rain":0.0,"pressure":950.3,"uv_index":8.15,"wind_gusts":43.6,"aqi":71,"pm10":24.9,"pm2_5":17.1,"no2":11.5,"co":256.0,"o3":58.0,"so2":4.0,"mosquito_risk":3,"arthritis_risk":5,"migraine_risk":7,"frizz_risk":1,"updated_at":"2026-07-19T21:32:39.824744+05:30"},{"city":"Gwalior","state":"Madhya Pradesh","latitude":26.2183,"longitude":78.1828,"temp":28.1,"humidity":90,"rain":0.0,"pressure":979.6,"uv_index":6.7,"wind_gusts":32.0,"aqi":98,"pm10":32.0,"pm2_5":24.1,"no2":11.7,"co":204.0,"o3":57.0,"so2":5.8,"mosquito_risk":7,"arthritis_risk":5,"migraine_risk":7,"frizz_risk":1,"updated_at":"2026-07-19T21:32:39.824752+05:30"},{"city":"Indore","state":"Madhya Pradesh","latitude":22.7196,"longitude":75.8577,"temp":26.3,"humidity":87,"rain":0.0,"pressure":945.0,"uv_index":7.95,"wind_gusts":43.6,"aqi":61,"pm10":26.3,"pm2_5":19.1,"no2":12.0,"co":362.0,"o3":56.0,"so2":5.8,"mosquito_risk":7,"arthritis_risk":5,"migraine_risk":7,"frizz_risk":1,"updated_at":"2026-07-19T21:32:39.824759+05:30"},{"city":"Bhopal","state":"Madhya Pradesh","latitude":23.2599,"longitude":77.4126,"temp":27.0,"humidity":86,"rain":0.0,"pressure":950.5,"uv_index":7.9,"wind_gusts":29.2,"aqi":69,"pm10":20.7,"pm2_5":17.3,"no2":11.5,"co":350.0,"o3":51.0,"so2":4.3,"mosquito_risk":7,"arthritis_risk":5,"migraine_risk":7,"frizz_risk":1,"updated_at":"2026-07-19T21:32:39.824767+05:30"},{"city":"Jabalpur","state":"Madhya Pradesh","latitude":23.1815,"longitude":79.9864,"temp":25.8,"humidity":98,"rain":0.0,"pressure":958.4,"uv_index":7.95,"wind_gusts":31.3,"aqi":83,"pm10":37.4,"pm2_5":26.6,"no2":10.9,"co":313.0,"o3":62.0,"so2":4.3,"mosquito_risk":7,"arthritis_risk":5,"migraine_risk":7,"frizz_risk":1,"updated_at":"2026-07-19T21:32:39.824774+05:30"},{"city":"Ujjain","state":"Madhya Pradesh","latitude":23.1765,"longitude":75.7885,"temp":26.5,"humidity":87,"rain":0.0,"pressure":950.4,"uv_index":7.5,"wind_gusts":31.7,"aqi":61,"pm10":25.7,"pm2_5":18.3,"no2":8.0,"co":373.0,"o3":61.0,"so2":3.6,"mosquito_risk":7,"arthritis_risk":5,"migraine_risk":7,"frizz_risk":1,"updated_at":"2026-07-19T21:32:39.824782+05:30"},{"city":"Visakhapatnam","state":"Andhra Pradesh","latitude":17.6868,"longitude":83.2185,"temp":28.6,"humidity":88,"rain":0.0,"pressure":1000.6,"uv_index":8.4,"wind_gusts":35.3,"aqi":92,"pm10":23.7,"pm2_5":20.5,"no2":23.4,"co":391.0,"o3":62.0,"so2":33.9,"mosquito_risk":7,"arthritis_risk":5,"migraine_risk":4,"frizz_risk":1,"updated_at":"2026-07-19T21:32:39.824789+05:30"},{"city":"Vijayawada","state":"Andhra Pradesh","latitude":16.5062,"longitude":80.648,"temp":29.3,"humidity":79,"rain":0.0,"pressure":1000.5,"uv_index":8.35,"wind_gusts":37.8,"aqi":62,"pm10":34.6,"pm2_5":31.7,"no2":19.6,"co":312.0,"o3":38.0,"so2":6.9,"mosquito_risk":7,"arthritis_risk":5,"migraine_risk":4,"frizz_risk":1,"updated_at":"2026-07-19T21:32:39.824796+05:30"},{"city":"Guntur","state":"Andhra Pradesh","latitude":16.3067,"longitude":80.4365,"temp":29.7,"humidity":67,"rain":0.0,"pressure":1001.9,"uv_index":7.8,"wind_gusts":40.3,"aqi":56,"pm10":31.9,"pm2_5":29.3,"no2":19.6,"co":251.0,"o3":34.0,"so2":6.4,"mosquito_risk":7,"arthritis_risk":5,"migraine_risk":4,"frizz_risk":1,"updated_at":"2026-07-19T21:32:39.824804+05:30"},{"city":"Nellore","state":"Andhra Pradesh","latitude":14.4426,"longitude":79.9865,"temp":28.8,"humidity":76,"rain":0.0,"pressure":1004.7,"uv_index":7.55,"wind_gusts":38.2,"aqi":60,"pm10":30.0,"pm2_5":20.9,"no2":9.5,"co":281.0,"o3":62.0,"so2":4.7,"mosquito_risk":7,"arthritis_risk":5,"migraine_risk":4,"frizz_risk":1,"updated_at":"2026-07-19T21:32:39.824812+05:30"},{"city":"Kurnool","state":"Andhra Pradesh","latitude":15.8281,"longitude":78.0373,"temp":25.0,"humidity":91,"rain":0.2,"pressure":976.9,"uv_index":8.1,"wind_gusts":43.9,"aqi":44,"pm10":29.3,"pm2_5":16.8,"no2":6.9,"co":153.0,"o3":54.0,"so2":4.6,"mosquito_risk":10,"arthritis_risk":5,"migraine_risk":7,"frizz_risk":1,"updated_at":"2026-07-19T21:32:39.824820+05:30"},{"city":"Kakinada","state":"Andhra Pradesh","latitude":16.9891,"longitude":82.2475,"temp":29.6,"humidity":75,"rain":0.0,"pressure":1004.8,"uv_index":8.85,"wind_gusts":45.0,"aqi":63,"pm10":19.7,"pm2_5":16.1,"no2":6.5,"co":312.0,"o3":84.0,"so2":4.3,"mosquito_risk":7,"arthritis_risk":5,"migraine_risk":4,"frizz_risk":1,"updated_at":"2026-07-19T21:32:39.824827+05:30"},{"city":"Tirupati","state":"Andhra Pradesh","latitude":13.6288,"longitude":79.4192,"temp":27.5,"humidity":81,"rain":0.0,"pressure":990.8,"uv_index":7.85,"wind_gusts":32.0,"aqi":63,"pm10":34.1,"pm2_5":24.0,"no2":23.7,"co":148.0,"o3":20.0,"so2":3.4,"mosquito_risk":7,"arthritis_risk":5,"migraine_risk":7,"frizz_risk":1,"updated_at":"2026-07-19T21:32:39.824834+05:30"},{"city":"Warangal","state":"Telangana","latitude":17.9689,"longitude":79.5941,"temp":26.0,"humidity":93,"rain":0.0,"pressure":976.9,"uv_index":7.15,"wind_gusts":38.9,"aqi":53,"pm10":28.0,"pm2_5":22.2,"no2":11.5,"co":263.0,"o3":46.0,"so2":4.4,"mosquito_risk":7,"arthritis_risk":5,"migraine_risk":7,"frizz_risk":1,"updated_at":"2026-07-19T21:32:39.824841+05:30"},{"city":"Nizamabad","state":"Telangana","latitude":18.6725,"longitude":78.0941,"temp":24.1,"humidity":96,"rain":0.1,"pressure":963.6,"uv_index":0.9,"wind_gusts":37.8,"aqi":53,"pm10":14.1,"pm2_5":10.2,"no2":6.4,"co":207.0,"o3":61.0,"so2":5.1,"mosquito_risk":6,"arthritis_risk":5,"migraine_risk":3,"frizz_risk":1,"updated_at":"2026-07-19T21:32:39.824848+05:30"},{"city":"Mysore","state":"Karnataka","latitude":12.2958,"longitude":76.6396,"temp":21.9,"humidity":90,"rain":0.0,"pressure":929.7,"uv_index":6.8,"wind_gusts":45.7,"aqi":39,"pm10":11.6,"pm2_5":7.6,"no2":6.4,"co":146.0,"o3":43.0,"so2":2.3,"mosquito_risk":3,"arthritis_risk":5,"migraine_risk":7,"frizz_risk":1,"updated_at":"2026-07-19T21:32:39.824855+05:30"},{"city":"Mangalore","state":"Karnataka","latitude":12.9141,"longitude":74.856,"temp":24.8,"humidity":96,"rain":0.1,"pressure":1009.2,"uv_index":8.25,"wind_gusts":31.0,"aqi":56,"pm10":19.9,"pm2_5":10.9,"no2":5.6,"co":210.0,"o3":37.0,"so2":2.0,"mosquito_risk":6,"arthritis_risk":0,"migraine_risk":4,"frizz_risk":1,"updated_at":"2026-07-19T21:32:39.824862+05:30"},{"city":"Hubli-Dharwad","state":"Karnataka","latitude":15.3647,"longitude":75.124,"temp":22.9,"humidity":91,"rain":0.0,"pressure":941.6,"uv_index":7.5,"wind_gusts":54.0,"aqi":25,"pm10":4.1,"pm2_5":2.8,"no2":5.7,"co":117.0,"o3":35.0,"so2":1.5,"mosquito_risk":3,"arthritis_risk":5,"migraine_risk":7,"frizz_risk":1,"updated_at":"2026-07-19T21:32:39.824869+05:30"},{"city":"Belgaum","state":"Karnataka","latitude":15.8497,"longitude":74.4977,"temp":21.4,"humidity":95,"rain":0.0,"pressure":926.2,"uv_index":7.75,"wind_gusts":53.6,"aqi":22,"pm10":2.6,"pm2_5":2.3,"no2":5.1,"co":133.0,"o3":37.0,"so2":1.6,"mosquito_risk":3,"arthritis_risk":5,"migraine_risk":7,"frizz_risk":1,"updated_at":"2026-07-19T21:32:43.161683+05:30"},{"city":"Coimbatore","state":"Tamil Nadu","latitude":11.0168,"longitude":76.9558,"temp":23.9,"humidity":91,"rain":0.0,"pressure":962.7,"uv_index":7.9,"wind_gusts":45.7,"aqi":43,"pm10":7.5,"pm2_5":5.9,"no2":5.9,"co":188.0,"o3":40.0,"so2":3.1,"mosquito_risk":3,"arthritis_risk":5,"migraine_risk":7,"frizz_risk":1,"updated_at":"2026-07-19T21:32:43.161715+05:30"},{"city":"Madurai","state":"Tamil Nadu","latitude":9.9252,"longitude":78.1198,"temp":30.0,"humidity":65,"rain":0.0,"pressure":993.6,"uv_index":7.95,"wind_gusts":38.9,"aqi":71,"pm10":35.3,"pm2_5":24.0,"no2":18.9,"co":301.0,"o3":53.0,"so2":6.4,"mosquito_risk":7,"arthritis_risk":5,"migraine_risk":7,"frizz_risk":1,"updated_at":"2026-07-19T21:32:43.161731+05:30"},{"city":"Trichy","state":"Tamil Nadu","latitude":10.7905,"longitude":78.7047,"temp":29.1,"humidity":68,"rain":0.0,"pressure":1000.7,"uv_index":8.4,"wind_gusts":42.8,"aqi":53,"pm10":22.2,"pm2_5":15.9,"no2":9.7,"co":193.0,"o3":65.0,"so2":4.4,"mosquito_risk":7,"arthritis_risk":5,"migraine_risk":4,"frizz_risk":1,"updated_at":"2026-07-19T21:32:43.161740+05:30"},{"city":"Salem","state":"Tamil Nadu","latitude":11.6643,"longitude":78.146,"temp":26.3,"humidity":92,"rain":0.0,"pressure":978.1,"uv_index":6.3,"wind_gusts":38.2,"aqi":62,"pm10":25.1,"pm2_5":17.8,"no2":15.9,"co":381.0,"o3":42.0,"so2":5.4,"mosquito_risk":7,"arthritis_risk":5,"migraine_risk":7,"frizz_risk":1,"updated_at":"2026-07-19T21:32:43.161747+05:30"},{"city":"Tirunelveli","state":"Tamil Nadu","latitude":8.7139,"longitude":77.7567,"temp":30.0,"humidity":59,"rain":0.0,"pressure":1004.5,"uv_index":8.5,"wind_gusts":49.0,"aqi":35,"pm10":7.7,"pm2_5":5.8,"no2":4.9,"co":132.0,"o3":43.0,"so2":2.0,"mosquito_risk":4,"arthritis_risk":5,"migraine_risk":4,"frizz_risk":1,"updated_at":"2026-07-19T21:32:43.161755+05:30"},{"city":"Vellore","state":"Tamil Nadu","latitude":12.9165,"longitude":79.1325,"temp":29.2,"humidity":64,"rain":0.0,"pressure":984.1,"uv_index":7.15,"wind_gusts":36.7,"aqi":67,"pm10":30.6,"pm2_5":20.5,"no2":20.6,"co":192.0,"o3":34.0,"so2":4.6,"mosquito_risk":7,"arthritis_risk":5,"migraine_risk":7,"frizz_risk":1,"updated_at":"2026-07-19T21:32:43.161762+05:30"},{"city":"Erode","state":"Tamil Nadu","latitude":11.341,"longitude":77.7172,"temp":27.0,"humidity":76,"rain":0.0,"pressure":989.9,"uv_index":7.35,"wind_gusts":37.8,"aqi":54,"pm10":16.4,"pm2_5":12.2,"no2":14.3,"co":170.0,"o3":34.0,"so2":3.8,"mosquito_risk":7,"arthritis_risk":5,"migraine_risk":7,"frizz_risk":1,"updated_at":"2026-07-19T21:32:43.161769+05:30"},{"city":"Kochi","state":"Kerala","latitude":9.9312,"longitude":76.2673,"temp":25.3,"humidity":97,"rain":0.1,"pressure":1011.4,"uv_index":8.4,"wind_gusts":32.0,"aqi":55,"pm10":21.1,"pm2_5":16.1,"no2":15.5,"co":151.0,"o3":25.0,"so2":5.2,"mosquito_risk":10,"arthritis_risk":0,"migraine_risk":4,"frizz_risk":1,"updated_at":"2026-07-19T21:32:43.161777+05:30"},{"city":"Thiruvananthapuram","state":"Kerala","latitude":8.5241,"longitude":76.9366,"temp":24.4,"humidity":96,"rain":0.1,"pressure":1011.1,"uv_index":7.95,"wind_gusts":42.1,"aqi":50,"pm10":15.5,"pm2_5":8.0,"no2":3.0,"co":112.0,"o3":51.0,"so2":1.2,"mosquito_risk":6,"arthritis_risk":0,"migraine_risk":4,"frizz_risk":1,"updated_at":"2026-07-19T21:32:43.161784+05:30"},{"city":"Kozhikode","state":"Kerala","latitude":11.2588,"longitude":75.7804,"temp":25.1,"humidity":94,"rain":0.1,"pressure":1010.5,"uv_index":8.0,"wind_gusts":33.1,"aqi":41,"pm10":14.6,"pm2_5":6.7,"no2":1.2,"co":207.0,"o3":50.0,"so2":0.9,"mosquito_risk":10,"arthritis_risk":0,"migraine_risk":4,"frizz_risk":1,"updated_at":"2026-07-19T21:32:43.161791+05:30"},{"city":"Thrissur","state":"Kerala","latitude":10.5276,"longitude":76.2144,"temp":24.6,"humidity":98,"rain":0.1,"pressure":1009.7,"uv_index":8.15,"wind_gusts":32.8,"aqi":53,"pm10":15.0,"pm2_5":11.6,"no2":9.3,"co":211.0,"o3":30.0,"so2":3.2,"mosquito_risk":6,"arthritis_risk":0,"migraine_risk":4,"frizz_risk":1,"updated_at":"2026-07-19T21:32:43.161800+05:30"},{"city":"Kannur","state":"Kerala","latitude":11.8745,"longitude":75.3704,"temp":24.8,"humidity":97,"rain":0.1,"pressure":1009.9,"uv_index":8.0,"wind_gusts":31.0,"aqi":50,"pm10":17.2,"pm2_5":10.1,"no2":8.0,"co":169.0,"o3":31.0,"so2":2.2,"mosquito_risk":6,"arthritis_risk":0,"migraine_risk":4,"frizz_risk":1,"updated_at":"2026-07-19T21:32:43.161807+05:30"},{"city":"Patna","state":"Bihar","latitude":25.5941,"longitude":85.1376,"temp":26.3,"humidity":97,"rain":0.0,"pressure":997.3,"uv_index":7.35,"wind_gusts":28.8,"aqi":81,"pm10":36.9,"pm2_5":36.7,"no2":21.1,"co":433.0,"o3":69.0,"so2":13.0,"mosquito_risk":7,"arthritis_risk":5,"migraine_risk":7,"frizz_risk":1,"updated_at":"2026-07-19T21:32:43.161814+05:30"},{"city":"Gaya","state":"Bihar","latitude":24.7914,"longitude":85.0002,"temp":28.1,"humidity":92,"rain":0.0,"pressure":990.0,"uv_index":8.45,"wind_gusts":24.8,"aqi":73,"pm10":25.1,"pm2_5":24.6,"no2":14.7,"co":417.0,"o3":67.0,"so2":8.8,"mosquito_risk":7,"arthritis_risk":5,"migraine_risk":7,"frizz_risk":1,"updated_at":"2026-07-19T21:32:43.161821+05:30"},{"city":"Muzaffarpur","state":"Bihar","latitude":26.1209,"longitude":85.3647,"temp":26.6,"humidity":97,"rain":0.1,"pressure":997.3,"uv_index":7.0,"wind_gusts":28.4,"aqi":71,"pm10":34.8,"pm2_5":34.6,"no2":18.9,"co":414.0,"o3":74.0,"so2":11.9,"mosquito_risk":10,"arthritis_risk":5,"migraine_risk":7,"frizz_risk":1,"updated_at":"2026-07-19T21:32:43.161827+05:30"},{"city":"Bhagalpur","state":"Bihar","latitude":25.2425,"longitude":87.0117,"temp":27.1,"humidity":94,"rain":0.1,"pressure":998.6,"uv_index":7.55,"wind_gusts":27.0,"aqi":77,"pm10":28.1,"pm2_5":27.5,"no2":13.9,"co":273.0,"o3":80.0,"so2":10.8,"mosquito_risk":10,"arthritis_risk":5,"migraine_risk":7,"frizz_risk":1,"updated_at":"2026-07-19T21:32:43.161834+05:30"},{"city":"Ranchi","state":"Jharkhand","latitude":23.3441,"longitude":85.3096,"temp":23.6,"humidity":97,"rain":0.0,"pressure":934.7,"uv_index":8.1,"wind_gusts":24.8,"aqi":75,"pm10":27.2,"pm2_5":25.1,"no2":9.8,"co":323.0,"o3":89.0,"so2":12.4,"mosquito_risk":3,"arthritis_risk":5,"migraine_risk":7,"frizz_risk":1,"updated_at":"2026-07-19T21:32:43.161841+05:30"},{"city":"Jamshedpur","state":"Jharkhand","latitude":22.8046,"longitude":86.2029,"temp":26.3,"humidity":98,"rain":0.0,"pressure":987.8,"uv_index":8.2,"wind_gusts":29.9,"aqi":96,"pm10":22.7,"pm2_5":22.1,"no2":16.1,"co":672.0,"o3":63.0,"so2":18.5,"mosquito_risk":7,"arthritis_risk":5,"migraine_risk":7,"frizz_risk":1,"updated_at":"2026-07-19T21:32:43.161849+05:30"},{"city":"Dhanbad","state":"Jharkhand","latitude":23.7957,"longitude":86.4304,"temp":26.0,"humidity":95,"rain":0.0,"pressure":977.0,"uv_index":7.8,"wind_gusts":27.7,"aqi":149,"pm10":50.8,"pm2_5":50.3,"no2":52.8,"co":710.0,"o3":35.0,"so2":114.9,"mosquito_risk":7,"arthritis_risk":5,"migraine_risk":7,"frizz_risk":1,"updated_at":"2026-07-19T21:32:43.161856+05:30"},{"city":"Bokaro","state":"Jharkhand","latitude":23.6693,"longitude":86.1511,"temp":26.6,"humidity":97,"rain":0.0,"pressure":980.7,"uv_index":8.3,"wind_gusts":28.1,"aqi":151,"pm10":49.6,"pm2_5":49.1,"no2":48.2,"co":2224.0,"o3":44.0,"so2":115.8,"mosquito_risk":7,"arthritis_risk":5,"migraine_risk":7,"frizz_risk":1,"updated_at":"2026-07-19T21:32:43.161864+05:30"},{"city":"Bhubaneswar","state":"Odisha","latitude":20.2961,"longitude":85.8245,"temp":27.1,"humidity":96,"rain":0.0,"pressure":999.8,"uv_index":8.3,"wind_gusts":31.0,"aqi":80,"pm10":50.2,"pm2_5":42.1,"no2":12.6,"co":429.0,"o3":104.0,"so2":8.8,"mosquito_risk":7,"arthritis_risk":5,"migraine_risk":7,"frizz_risk":1,"updated_at":"2026-07-19T21:32:43.161871+05:30"},{"city":"Cuttack","state":"Odisha","latitude":20.4625,"longitude":85.8828,"temp":27.0,"humidity":98,"rain":0.0,"pressure":1001.7,"uv_index":8.65,"wind_gusts":34.9,"aqi":80,"pm10":50.2,"pm2_5":42.1,"no2":12.6,"co":503.0,"o3":104.0,"so2":8.8,"mosquito_risk":7,"arthritis_risk":5,"migraine_risk":4,"frizz_risk":1,"updated_at":"2026-07-19T21:32:43.161878+05:30"},{"city":"Rourkela","state":"Odisha","latitude":22.2604,"longitude":84.8536,"temp":26.4,"humidity":96,"rain":0.1,"pressure":982.1,"uv_index":7.4,"wind_gusts":29.2,"aqi":96,"pm10":33.9,"pm2_5":29.4,"no2":11.5,"co":449.0,"o3":94.0,"so2":16.6,"mosquito_risk":10,"arthritis_risk":5,"migraine_risk":7,"frizz_risk":1,"updated_at":"2026-07-19T21:32:43.161886+05:30"},{"city":"Raipur","state":"Chhattisgarh","latitude":21.2514,"longitude":81.6296,"temp":26.0,"humidity":97,"rain":0.0,"pressure":971.9,"uv_index":7.85,"wind_gusts":29.5,"aqi":91,"pm10":48.3,"pm2_5":41.0,"no2":40.4,"co":756.0,"o3":43.0,"so2":54.1,"mosquito_risk":7,"arthritis_risk":5,"migraine_risk":7,"frizz_risk":1,"updated_at":"2026-07-19T21:32:43.161893+05:30"},{"city":"Bhilai","state":"Chhattisgarh","latitude":21.1938,"longitude":81.3509,"temp":25.7,"humidity":98,"rain":0.0,"pressure":972.3,"uv_index":5.4,"wind_gusts":36.4,"aqi":83,"pm10":41.2,"pm2_5":33.8,"no2":31.4,"co":1046.0,"o3":54.0,"so2":43.2,"mosquito_risk":7,"arthritis_risk":5,"migraine_risk":3,"frizz_risk":1,"updated_at":"2026-07-19T21:32:43.161900+05:30"},{"city":"Guwahati","state":"Assam","latitude":26.1158,"longitude":91.7086,"temp":25.1,"humidity":99,"rain":0.2,"pressure":1000.7,"uv_index":2.65,"wind_gusts":28.8,"aqi":59,"pm10":16.9,"pm2_5":16.4,"no2":9.7,"co":265.0,"o3":41.0,"so2":2.8,"mosquito_risk":10,"arthritis_risk":5,"migraine_risk":0,"frizz_risk":1,"updated_at":"2026-07-19T21:32:43.161907+05:30"},{"city":"Agartala","state":"Tripura","latitude":23.8315,"longitude":91.2868,"temp":25.2,"humidity":97,"rain":0.1,"pressure":1005.6,"uv_index":7.95,"wind_gusts":45.0,"aqi":55,"pm10":12.4,"pm2_5":10.9,"no2":9.4,"co":186.0,"o3":44.0,"so2":2.9,"mosquito_risk":10,"arthritis_risk":5,"migraine_risk":4,"frizz_risk":1,"updated_at":"2026-07-19T21:32:43.161914+05:30"},{"city":"Shillong","state":"Meghalaya","latitude":25.5788,"longitude":91.8933,"temp":19.7,"humidity":97,"rain":0.1,"pressure":856.8,"uv_index":2.1,"wind_gusts":33.5,"aqi":29,"pm10":1.7,"pm2_5":1.7,"no2":6.4,"co":195.0,"o3":50.0,"so2":2.1,"mosquito_risk":6,"arthritis_risk":10,"migraine_risk":3,"frizz_risk":1,"updated_at":"2026-07-19T21:32:43.161921+05:30"},{"city":"Imphal","state":"Manipur","latitude":24.817,"longitude":93.9368,"temp":22.4,"humidity":99,"rain":0.2,"pressure":923.1,"uv_index":1.15,"wind_gusts":22.3,"aqi":52,"pm10":12.9,"pm2_5":11.4,"no2":10.8,"co":524.0,"o3":27.0,"so2":2.2,"mosquito_risk":6,"arthritis_risk":5,"migraine_risk":3,"frizz_risk":1,"updated_at":"2026-07-19T21:32:43.161928+05:30"},{"city":"Aizawl","state":"Mizoram","latitude":23.7271,"longitude":92.7176,"temp":19.8,"humidity":91,"rain":0.1,"pressure":892.4,"uv_index":3.15,"wind_gusts":41.0,"aqi":40,"pm10":19.1,"pm2_5":11.9,"no2":4.7,"co":127.0,"o3":30.0,"so2":0.8,"mosquito_risk":6,"arthritis_risk":10,"migraine_risk":3,"frizz_risk":1,"updated_at":"2026-07-19T21:32:43.161936+05:30"},{"city":"Kohima","state":"Nagaland","latitude":25.6701,"longitude":94.1077,"temp":20.4,"humidity":93,"rain":0.4,"pressure":855.4,"uv_index":1.9,"wind_gusts":18.4,"aqi":27,"pm10":3.9,"pm2_5":3.8,"no2":6.3,"co":232.0,"o3":37.0,"so2":0.4,"mosquito_risk":6,"arthritis_risk":5,"migraine_risk":3,"frizz_risk":1,"updated_at":"2026-07-19T21:32:43.161943+05:30"},{"city":"Gangtok","state":"Sikkim","latitude":27.3314,"longitude":88.6138,"temp":19.1,"humidity":99,"rain":0.0,"pressure":838.0,"uv_index":3.4,"wind_gusts":27.4,"aqi":33,"pm10":4.1,"pm2_5":4.0,"no2":4.7,"co":232.0,"o3":81.0,"so2":1.1,"mosquito_risk":3,"arthritis_risk":10,"migraine_risk":3,"frizz_risk":1,"updated_at":"2026-07-19T21:32:43.161950+05:30"},{"city":"Siliguri","state":"West Bengal","latitude":26.7271,"longitude":88.3953,"temp":25.0,"humidity":96,"rain":0.3,"pressure":991.7,"uv_index":3.4,"wind_gusts":24.5,"aqi":53,"pm10":13.1,"pm2_5":12.8,"no2":10.3,"co":369.0,"o3":68.0,"so2":3.3,"mosquito_risk":10,"arthritis_risk":5,"migraine_risk":3,"frizz_risk":1,"updated_at":"2026-07-19T21:32:46.493748+05:30"},{"city":"Durgapur","state":"West Bengal","latitude":23.5204,"longitude":87.3119,"temp":27.0,"humidity":93,"rain":0.0,"pressure":992.3,"uv_index":7.3,"wind_gusts":31.0,"aqi":113,"pm10":35.5,"pm2_5":34.5,"no2":26.3,"co":326.0,"o3":52.0,"so2":30.0,"mosquito_risk":7,"arthritis_risk":5,"migraine_risk":7,"frizz_risk":1,"updated_at":"2026-07-19T21:32:46.493781+05:30"},{"city":"Asansol","state":"West Bengal","latitude":23.6739,"longitude":86.9524,"temp":26.7,"humidity":97,"rain":0.0,"pressure":990.8,"uv_index":6.9,"wind_gusts":29.5,"aqi":113,"pm10":34.3,"pm2_5":33.6,"no2":31.7,"co":745.0,"o3":50.0,"so2":35.8,"mosquito_risk":7,"arthritis_risk":5,"migraine_risk":7,"frizz_risk":1,"updated_at":"2026-07-19T21:32:46.493793+05:30"},{"city":"Pondicherry","state":"Puducherry","latitude":11.9139,"longitude":79.8145,"temp":29.8,"humidity":71,"rain":0.0,"pressure":1008.1,"uv_index":8.1,"wind_gusts":39.2,"aqi":72,"pm10":29.8,"pm2_5":19.0,"no2":10.3,"co":189.0,"o3":73.0,"so2":7.8,"mosquito_risk":7,"arthritis_risk":0,"migraine_risk":4,"frizz_risk":1,"updated_at":"2026-07-19T21:32:46.493801+05:30"},{"city":"Port Blair","state":"Andaman and Nicobar Islands","latitude":11.6234,"longitude":92.7265,"temp":26.3,"humidity":88,"rain":0.0,"pressure":1009.6,"uv_index":8.75,"wind_gusts":37.4,"aqi":54,"pm10":22.0,"pm2_5":11.6,"no2":0.2,"co":89.0,"o3":42.0,"so2":0.4,"mosquito_risk":7,"arthritis_risk":0,"migraine_risk":4,"frizz_risk":1,"updated_at":"2026-07-19T21:32:46.493810+05:30"},{"city":"Haridwar","state":"Uttarakhand","latitude":29.9457,"longitude":78.1642,"temp":26.1,"humidity":96,"rain":0.0,"pressure":969.5,"uv_index":7.1,"wind_gusts":30.2,"aqi":162,"pm10":128.1,"pm2_5":57.5,"no2":6.9,"co":339.0,"o3":105.0,"so2":9.8,"mosquito_risk":7,"arthritis_risk":5,"migraine_risk":7,"frizz_risk":1,"updated_at":"2026-07-19T21:32:46.493817+05:30"},{"city":"Rishikesh","state":"Uttarakhand","latitude":30.0869,"longitude":78.2676,"temp":26.0,"humidity":98,"rain":0.0,"pressure":962.3,"uv_index":5.7,"wind_gusts":25.9,"aqi":152,"pm10":131.3,"pm2_5":45.3,"no2":5.3,"co":299.0,"o3":96.0,"so2":7.3,"mosquito_risk":7,"arthritis_risk":5,"migraine_risk":3,"frizz_risk":1,"updated_at":"2026-07-19T21:32:46.493826+05:30"},{"city":"Nainital","state":"Uttarakhand","latitude":29.3919,"longitude":79.4542,"temp":17.7,"humidity":99,"rain":0.1,"pressure":804.3,"uv_index":3.9,"wind_gusts":25.6,"aqi":67,"pm10":19.1,"pm2_5":12.1,"no2":8.3,"co":271.0,"o3":89.0,"so2":2.8,"mosquito_risk":6,"arthritis_risk":10,"migraine_risk":3,"frizz_risk":1,"updated_at":"2026-07-19T21:32:46.493834+05:30"},{"city":"Mussoorie","state":"Uttarakhand","latitude":30.4599,"longitude":78.0664,"temp":18.1,"humidity":100,"rain":0.0,"pressure":801.3,"uv_index":2.75,"wind_gusts":30.2,"aqi":117,"pm10":140.6,"pm2_5":57.6,"no2":17.5,"co":328.0,"o3":89.0,"so2":11.8,"mosquito_risk":3,"arthritis_risk":10,"migraine_risk":3,"frizz_risk":1,"updated_at":"2026-07-19T21:32:46.493843+05:30"},{"city":"Dharamshala","state":"Himachal Pradesh","latitude":32.219,"longitude":76.3234,"temp":22.6,"humidity":100,"rain":0.0,"pressure":866.3,"uv_index":3.95,"wind_gusts":26.3,"aqi":41,"pm10":15.4,"pm2_5":9.2,"no2":9.3,"co":326.0,"o3":67.0,"so2":1.1,"mosquito_risk":3,"arthritis_risk":5,"migraine_risk":3,"frizz_risk":1,"updated_at":"2026-07-19T21:32:46.493851+05:30"},{"city":"Dalhousie","state":"Himachal Pradesh","latitude":32.5387,"longitude":75.971,"temp":19.5,"humidity":99,"rain":0.1,"pressure":803.5,"uv_index":6.45,"wind_gusts":21.6,"aqi":89,"pm10":94.3,"pm2_5":35.9,"no2":13.5,"co":504.0,"o3":77.0,"so2":3.4,"mosquito_risk":6,"arthritis_risk":10,"migraine_risk":7,"frizz_risk":1,"updated_at":"2026-07-19T21:32:46.493859+05:30"},{"city":"Patiala","state":"Punjab","latitude":30.3398,"longitude":76.3869,"temp":29.3,"humidity":91,"rain":0.0,"pressure":972.6,"uv_index":6.45,"wind_gusts":27.4,"aqi":206,"pm10":181.1,"pm2_5":102.4,"no2":35.4,"co":633.0,"o3":54.0,"so2":12.9,"mosquito_risk":7,"arthritis_risk":5,"migraine_risk":7,"frizz_risk":1,"updated_at":"2026-07-19T21:32:46.493867+05:30"},{"city":"Bhatinda","state":"Punjab","latitude":30.211,"longitude":74.9455,"temp":34.8,"humidity":53,"rain":0.0,"pressure":976.8,"uv_index":7.1,"wind_gusts":28.8,"aqi":184,"pm10":216.5,"pm2_5":100.1,"no2":37.1,"co":347.0,"o3":44.0,"so2":10.0,"mosquito_risk":0,"arthritis_risk":5,"migraine_risk":7,"frizz_risk":1,"updated_at":"2026-07-19T21:32:46.493874+05:30"},{"city":"Rohtak","state":"Haryana","latitude":28.8955,"longitude":76.6066,"temp":30.9,"humidity":77,"rain":0.0,"pressure":976.6,"uv_index":6.5,"wind_gusts":30.6,"aqi":506,"pm10":475.0,"pm2_5":136.4,"no2":65.6,"co":679.0,"o3":15.0,"so2":13.6,"mosquito_risk":3,"arthritis_risk":5,"migraine_risk":7,"frizz_risk":1,"updated_at":"2026-07-19T21:32:46.493881+05:30"},{"city":"Panipat","state":"Haryana","latitude":29.3909,"longitude":76.9635,"temp":28.7,"humidity":92,"rain":0.0,"pressure":975.3,"uv_index":6.8,"wind_gusts":33.5,"aqi":772,"pm10":1102.7,"pm2_5":210.0,"no2":42.8,"co":529.0,"o3":43.0,"so2":12.2,"mosquito_risk":7,"arthritis_risk":5,"migraine_risk":7,"frizz_risk":1,"updated_at":"2026-07-19T21:32:46.493889+05:30"},{"city":"Mathura","state":"Uttar Pradesh","latitude":27.4924,"longitude":77.6737,"temp":29.5,"humidity":79,"rain":0.0,"pressure":982.2,"uv_index":2.65,"wind_gusts":33.8,"aqi":200,"pm10":194.2,"pm2_5":64.3,"no2":39.5,"co":298.0,"o3":30.0,"so2":6.5,"mosquito_risk":7,"arthritis_risk":5,"migraine_risk":3,"frizz_risk":1,"updated_at":"2026-07-19T21:32:46.493897+05:30"},{"city":"Vrindavan","state":"Uttar Pradesh","latitude":27.5823,"longitude":77.7027,"temp":29.5,"humidity":78,"rain":0.0,"pressure":982.6,"uv_index":5.05,"wind_gusts":29.9,"aqi":200,"pm10":194.2,"pm2_5":64.3,"no2":39.5,"co":307.0,"o3":30.0,"so2":6.5,"mosquito_risk":7,"arthritis_risk":5,"migraine_risk":3,"frizz_risk":1,"updated_at":"2026-07-19T21:32:46.493904+05:30"},{"city":"Ayodhya","state":"Uttar Pradesh","latitude":26.7922,"longitude":82.1998,"temp":27.9,"humidity":92,"rain":0.0,"pressure":991.5,"uv_index":7.8,"wind_gusts":21.6,"aqi":75,"pm10":26.5,"pm2_5":25.8,"no2":20.3,"co":463.0,"o3":62.0,"so2":6.0,"mosquito_risk":7,"arthritis_risk":5,"migraine_risk":7,"frizz_risk":1,"updated_at":"2026-07-19T21:32:46.493911+05:30"},{"city":"Ratlam","state":"Madhya Pradesh","latitude":23.3315,"longitude":75.0367,"temp":26.7,"humidity":84,"rain":0.0,"pressure":951.3,"uv_index":6.95,"wind_gusts":33.1,"aqi":60,"pm10":25.7,"pm2_5":17.9,"no2":7.0,"co":273.0,"o3":64.0,"so2":4.2,"mosquito_risk":7,"arthritis_risk":5,"migraine_risk":7,"frizz_risk":1,"updated_at":"2026-07-19T21:32:46.493919+05:30"},{"city":"Sagar","state":"Madhya Pradesh","latitude":23.8388,"longitude":78.7378,"temp":26.5,"humidity":86,"rain":0.0,"pressure":947.0,"uv_index":7.95,"wind_gusts":27.0,"aqi":78,"pm10":27.0,"pm2_5":20.5,"no2":8.7,"co":262.0,"o3":61.0,"so2":3.0,"mosquito_risk":7,"arthritis_risk":5,"migraine_risk":7,"frizz_risk":1,"updated_at":"2026-07-19T21:32:46.493926+05:30"},{"city":"Satna","state":"Madhya Pradesh","latitude":24.6005,"longitude":80.8322,"temp":26.8,"humidity":91,"rain":0.0,"pressure":967.8,"uv_index":6.85,"wind_gusts":28.4,"aqi":88,"pm10":47.4,"pm2_5":28.6,"no2":14.1,"co":305.0,"o3":48.0,"so2":3.4,"mosquito_risk":7,"arthritis_risk":5,"migraine_risk":7,"frizz_risk":1,"updated_at":"2026-07-19T21:32:46.493933+05:30"},{"city":"Akola","state":"Maharashtra","latitude":20.7002,"longitude":77.0082,"temp":27.0,"humidity":84,"rain":0.0,"pressure":973.0,"uv_index":7.5,"wind_gusts":37.8,"aqi":50,"pm10":8.5,"pm2_5":7.4,"no2":8.2,"co":153.0,"o3":51.0,"so2":5.5,"mosquito_risk":7,"arthritis_risk":5,"migraine_risk":7,"frizz_risk":1,"updated_at":"2026-07-19T21:32:46.493941+05:30"},{"city":"Amravati","state":"Maharashtra","latitude":20.9374,"longitude":77.7796,"temp":26.9,"humidity":84,"rain":0.0,"pressure":965.0,"uv_index":7.0,"wind_gusts":40.7,"aqi":52,"pm10":9.7,"pm2_5":7.9,"no2":7.9,"co":175.0,"o3":55.0,"so2":6.6,"mosquito_risk":7,"arthritis_risk":5,"migraine_risk":7,"frizz_risk":1,"updated_at":"2026-07-19T21:32:46.493949+05:30"},{"city":"Latur","state":"Maharashtra","latitude":18.4088,"longitude":76.5604,"temp":23.6,"humidity":94,"rain":0.3,"pressure":938.9,"uv_index":7.9,"wind_gusts":39.6,"aqi":37,"pm10":10.4,"pm2_5":7.6,"no2":4.7,"co":148.0,"o3":49.0,"so2":1.8,"mosquito_risk":6,"arthritis_risk":5,"migraine_risk":7,"frizz_risk":1,"updated_at":"2026-07-19T21:32:46.493957+05:30"},{"city":"Nanded","state":"Maharashtra","latitude":19.1383,"longitude":77.3091,"temp":24.9,"humidity":91,"rain":0.1,"pressure":967.4,"uv_index":6.9,"wind_gusts":37.8,"aqi":52,"pm10":17.2,"pm2_5":12.2,"no2":8.5,"co":166.0,"o3":47.0,"so2":3.0,"mosquito_risk":6,"arthritis_risk":5,"migraine_risk":7,"frizz_risk":1,"updated_at":"2026-07-19T21:32:46.493963+05:30"},{"city":"Gulbarga","state":"Karnataka","latitude":17.3297,"longitude":76.8343,"temp":23.5,"humidity":96,"rain":0.2,"pressure":958.3,"uv_index":8.2,"wind_gusts":40.7,"aqi":34,"pm10":14.6,"pm2_5":9.3,"no2":7.2,"co":156.0,"o3":44.0,"so2":2.6,"mosquito_risk":6,"arthritis_risk":5,"migraine_risk":7,"frizz_risk":1,"updated_at":"2026-07-19T21:32:46.493971+05:30"},{"city":"Bidar","state":"Karnataka","latitude":17.9104,"longitude":77.5199,"temp":22.9,"humidity":94,"rain":0.0,"pressure":934.8,"uv_index":2.85,"wind_gusts":41.4,"aqi":47,"pm10":14.6,"pm2_5":9.4,"no2":7.1,"co":152.0,"o3":52.0,"so2":1.6,"mosquito_risk":3,"arthritis_risk":5,"migraine_risk":3,"frizz_risk":1,"updated_at":"2026-07-19T21:32:46.493978+05:30"},{"city":"Hospet","state":"Karnataka","latitude":15.2689,"longitude":76.3909,"temp":24.6,"humidity":81,"rain":0.0,"pressure":956.4,"uv_index":7.0,"wind_gusts":46.1,"aqi":36,"pm10":5.8,"pm2_5":4.3,"no2":4.7,"co":123.0,"o3":39.0,"so2":1.7,"mosquito_risk":3,"arthritis_risk":5,"migraine_risk":7,"frizz_risk":1,"updated_at":"2026-07-19T21:32:46.493985+05:30"},{"city":"Tirupur","state":"Tamil Nadu","latitude":11.1085,"longitude":77.3411,"temp":24.8,"humidity":89,"rain":0.1,"pressure":976.1,"uv_index":7.9,"wind_gusts":47.5,"aqi":57,"pm10":17.8,"pm2_5":13.9,"no2":16.5,"co":160.0,"o3":31.0,"so2":4.9,"mosquito_risk":6,"arthritis_risk":5,"migraine_risk":7,"frizz_risk":1,"updated_at":"2026-07-19T21:32:46.493992+05:30"},{"city":"Alappuzha","state":"Kerala","latitude":9.4981,"longitude":76.3388,"temp":25.5,"humidity":96,"rain":0.2,"pressure":1011.6,"uv_index":8.1,"wind_gusts":36.7,"aqi":51,"pm10":20.1,"pm2_5":12.4,"no2":8.3,"co":88.0,"o3":40.0,"so2":2.8,"mosquito_risk":10,"arthritis_risk":0,"migraine_risk":4,"frizz_risk":1,"updated_at":"2026-07-19T21:32:46.494000+05:30"},{"city":"Munnar","state":"Kerala","latitude":10.0889,"longitude":77.0595,"temp":16.6,"humidity":100,"rain":0.0,"pressure":858.0,"uv_index":6.35,"wind_gusts":36.0,"aqi":30,"pm10":7.7,"pm2_5":5.8,"no2":5.0,"co":100.0,"o3":38.0,"so2":1.9,"mosquito_risk":3,"arthritis_risk":10,"migraine_risk":7,"frizz_risk":1,"updated_at":"2026-07-19T21:32:46.494007+05:30"},{"city":"Silchar","state":"Assam","latitude":24.8333,"longitude":92.7789,"temp":26.0,"humidity":96,"rain":0.1,"pressure":1004.9,"uv_index":2.95,"wind_gusts":27.7,"aqi":61,"pm10":19.3,"pm2_5":15.0,"no2":6.7,"co":290.0,"o3":49.0,"so2":4.4,"mosquito_risk":10,"arthritis_risk":5,"migraine_risk":0,"frizz_risk":1,"updated_at":"2026-07-19T21:32:46.494014+05:30"},{"city":"Dibrugarh","state":"Assam","latitude":27.4728,"longitude":94.912,"temp":25.6,"humidity":97,"rain":0.1,"pressure":994.6,"uv_index":1.8,"wind_gusts":35.6,"aqi":52,"pm10":14.5,"pm2_5":14.1,"no2":12.6,"co":259.0,"o3":38.0,"so2":2.2,"mosquito_risk":10,"arthritis_risk":5,"migraine_risk":3,"frizz_risk":1,"updated_at":"2026-07-19T21:32:46.494022+05:30"}]