[{"city":"Delhi","state":"Delhi","latitude":28.6139,"longitude":77.209,"temp":31.0,"humidity":42,"rain":0.0,"pressure":983.3,"uv_index":7.6,"wind_gusts":32.0,"aqi":207,"pm10":221.2,"pm2_5":67.3,"no2":24.8,"co":540.0,"o3":135.0,"so2":25.2,"mosquito_risk":0,"arthritis_risk":5,"migraine_risk":7,"frizz_risk":1,"updated_at":"2026-05-10T21:28:26.898273+05:30"},{"city":"Mumbai","state":"Maharashtra","latitude":19.076,"longitude":72.8777,"temp":31.6,"humidity":60,"rain":0.0,"pressure":1004.4,"uv_index":7.9,"wind_gusts":46.8,"aqi":128,"pm10":49.5,"pm2_5":28.4,"no2":21.1,"co":403.0,"o3":100.0,"so2":15.1,"mosquito_risk":0,"arthritis_risk":5,"migraine_risk":4,"frizz_risk":1,"updated_at":"2026-05-10T21:28:26.898315+05:30"},{"city":"Bangalore","state":"Karnataka","latitude":12.9716,"longitude":77.5946,"temp":25.8,"humidity":62,"rain":0.0,"pressure":911.4,"uv_index":9.5,"wind_gusts":43.9,"aqi":72,"pm10":33.1,"pm2_5":26.7,"no2":48.3,"co":310.0,"o3":48.0,"so2":12.0,"mosquito_risk":7,"arthritis_risk":5,"migraine_risk":7,"frizz_risk":1,"updated_at":"2026-05-10T21:28:26.898332+05:30"},{"city":"Hyderabad","state":"Telangana","latitude":17.385,"longitude":78.4867,"temp":32.7,"humidity":36,"rain":0.0,"pressure":952.8,"uv_index":9.25,"wind_gusts":38.9,"aqi":114,"pm10":44.2,"pm2_5":26.7,"no2":15.2,"co":331.0,"o3":97.0,"so2":8.3,"mosquito_risk":0,"arthritis_risk":5,"migraine_risk":7,"frizz_risk":0,"updated_at":"2026-05-10T21:28:26.898343+05:30"},{"city":"Chennai","state":"Tamil Nadu","latitude":13.0827,"longitude":80.2707,"temp":29.1,"humidity":72,"rain":0.0,"pressure":1006.9,"uv_index":9.0,"wind_gusts":40.0,"aqi":23,"pm10":5.8,"pm2_5":4.2,"no2":6.5,"co":157.0,"o3":42.0,"so2":3.1,"mosquito_risk":7,"arthritis_risk":5,"migraine_risk":4,"frizz_risk":1,"updated_at":"2026-05-10T21:28:26.898357+05:30"},{"city":"Kolkata","state":"West Bengal","latitude":22.5726,"longitude":88.3639,"temp":25.7,"humidity":87,"rain":0.0,"pressure":1009.1,"uv_index":8.5,"wind_gusts":19.1,"aqi":173,"pm10":58.9,"pm2_5":54.5,"no2":21.6,"co":723.0,"o3":73.0,"so2":15.8,"mosquito_risk":7,"arthritis_risk":0,"migraine_risk":4,"frizz_risk":1,"updated_at":"2026-05-10T21:28:26.898369+05:30"},{"city":"Pune","state":"Maharashtra","latitude":18.5204,"longitude":73.8567,"temp":32.9,"humidity":32,"rain":0.0,"pressure":946.2,"uv_index":8.5,"wind_gusts":36.4,"aqi":115,"pm10":27.5,"pm2_5":18.6,"no2":15.8,"co":478.0,"o3":112.0,"so2":9.7,"mosquito_risk":0,"arthritis_risk":5,"migraine_risk":7,"frizz_risk":0,"updated_at":"2026-05-10T21:28:26.898378+05:30"},{"city":"Ahmedabad","state":"Gujarat","latitude":23.0225,"longitude":72.5714,"temp":40.2,"humidity":14,"rain":0.0,"pressure":998.1,"uv_index":8.1,"wind_gusts":34.2,"aqi":78,"pm10":87.3,"pm2_5":32.5,"no2":29.2,"co":260.0,"o3":68.0,"so2":9.2,"mosquito_risk":0,"arthritis_risk":5,"migraine_risk":10,"frizz_risk":0,"updated_at":"2026-05-10T21:28:26.898388+05:30"},{"city":"Jaipur","state":"Rajasthan","latitude":26.9124,"longitude":75.7873,"temp":31.6,"humidity":37,"rain":0.0,"pressure":959.2,"uv_index":8.15,"wind_gusts":28.4,"aqi":176,"pm10":229.1,"pm2_5":64.0,"no2":31.2,"co":473.0,"o3":93.0,"so2":11.8,"mosquito_risk":0,"arthritis_risk":5,"migraine_risk":7,"frizz_risk":0,"updated_at":"2026-05-10T21:28:26.898397+05:30"},{"city":"Lucknow","state":"Uttar Pradesh","latitude":26.8467,"longitude":80.9462,"temp":29.9,"humidity":48,"rain":0.0,"pressure":994.7,"uv_index":8.05,"wind_gusts":35.3,"aqi":166,"pm10":58.3,"pm2_5":43.3,"no2":16.4,"co":513.0,"o3":111.0,"so2":13.4,"mosquito_risk":4,"arthritis_risk":5,"migraine_risk":7,"frizz_risk":1,"updated_at":"2026-05-10T21:28:26.898404+05:30"},{"city":"Kanpur","state":"Uttar Pradesh","latitude":26.4499,"longitude":80.3319,"temp":30.5,"humidity":44,"rain":0.0,"pressure":992.6,"uv_index":8.1,"wind_gusts":33.8,"aqi":179,"pm10":148.5,"pm2_5":46.9,"no2":13.1,"co":401.0,"o3":116.0,"so2":10.6,"mosquito_risk":0,"arthritis_risk":5,"migraine_risk":7,"frizz_risk":1,"updated_at":"2026-05-10T21:28:26.898413+05:30"},{"city":"Chandigarh","state":"Chandigarh","latitude":30.7333,"longitude":76.7794,"temp":26.8,"humidity":59,"rain":0.0,"pressure":968.6,"uv_index":7.7,"wind_gusts":39.2,"aqi":180,"pm10":156.9,"pm2_5":68.9,"no2":29.5,"co":1004.0,"o3":128.0,"so2":15.4,"mosquito_risk":4,"arthritis_risk":5,"migraine_risk":7,"frizz_risk":1,"updated_at":"2026-05-10T21:28:26.898420+05:30"},{"city":"Srinagar","state":"Jammu and Kashmir","latitude":34.0837,"longitude":74.7973,"temp":19.2,"humidity":61,"rain":0.0,"pressure":841.8,"uv_index":8.25,"wind_gusts":18.0,"aqi":122,"pm10":88.2,"pm2_5":46.1,"no2":36.4,"co":1134.0,"o3":91.0,"so2":9.4,"mosquito_risk":3,"arthritis_risk":5,"migraine_risk":7,"frizz_risk":0,"updated_at":"2026-05-10T21:28:26.898429+05:30"},{"city":"Jammu","state":"Jammu and Kashmir","latitude":32.7266,"longitude":74.857,"temp":30.5,"humidity":46,"rain":0.0,"pressure":972.0,"uv_index":8.2,"wind_gusts":33.8,"aqi":161,"pm10":217.0,"pm2_5":77.1,"no2":29.8,"co":643.0,"o3":99.0,"so2":12.0,"mosquito_risk":0,"arthritis_risk":5,"migraine_risk":7,"frizz_risk":1,"updated_at":"2026-05-10T21:28:26.898437+05:30"},{"city":"Amritsar","state":"Punjab","latitude":31.634,"longitude":74.8723,"temp":30.8,"humidity":48,"rain":0.0,"pressure":979.8,"uv_index":8.35,"wind_gusts":29.9,"aqi":179,"pm10":224.0,"pm2_5":77.8,"no2":8.2,"co":634.0,"o3":133.0,"so2":12.0,"mosquito_risk":0,"arthritis_risk":5,"migraine_risk":7,"frizz_risk":1,"updated_at":"2026-05-10T21:28:26.898445+05:30"},{"city":"Ludhiana","state":"Punjab","latitude":30.901,"longitude":75.8573,"temp":29.9,"humidity":52,"rain":0.0,"pressure":978.1,"uv_index":7.95,"wind_gusts":34.9,"aqi":174,"pm10":183.9,"pm2_5":72.9,"no2":16.2,"co":673.0,"o3":120.0,"so2":13.0,"mosquito_risk":4,"arthritis_risk":5,"migraine_risk":7,"frizz_risk":1,"updated_at":"2026-05-10T21:28:26.898452+05:30"},{"city":"Jalandhar","state":"Punjab","latitude":31.326,"longitude":75.5762,"temp":28.9,"humidity":59,"rain":0.0,"pressure":978.9,"uv_index":8.15,"wind_gusts":33.5,"aqi":168,"pm10":281.3,"pm2_5":87.3,"no2":22.2,"co":705.0,"o3":110.0,"so2":12.7,"mosquito_risk":4,"arthritis_risk":5,"migraine_risk":7,"frizz_risk":1,"updated_at":"2026-05-10T21:28:26.898460+05:30"},{"city":"Dehradun","state":"Uttarakhand","latitude":30.6284,"longitude":78.0322,"temp":15.0,"humidity":89,"rain":0.0,"pressure":830.8,"uv_index":8.05,"wind_gusts":26.6,"aqi":142,"pm10":83.4,"pm2_5":45.3,"no2":15.7,"co":311.0,"o3":131.0,"so2":4.4,"mosquito_risk":3,"arthritis_risk":10,"migraine_risk":7,"frizz_risk":0,"updated_at":"2026-05-10T21:28:26.898469+05:30"},{"city":"Shimla","state":"Himachal Pradesh","latitude":31.1048,"longitude":77.1734,"temp":13.2,"humidity":83,"rain":0.0,"pressure":784.6,"uv_index":8.05,"wind_gusts":39.2,"aqi":172,"pm10":146.7,"pm2_5":71.5,"no2":17.4,"co":419.0,"o3":143.0,"so2":14.7,"mosquito_risk":3,"arthritis_risk":10,"migraine_risk":7,"frizz_risk":0,"updated_at":"2026-05-10T21:28:26.898477+05:30"},{"city":"Manali","state":"Himachal Pradesh","latitude":32.2396,"longitude":77.1887,"temp":13.0,"humidity":98,"rain":0.0,"pressure":818.1,"uv_index":9.75,"wind_gusts":46.8,"aqi":168,"pm10":50.5,"pm2_5":23.0,"no2":40.8,"co":454.0,"o3":133.0,"so2":2.0,"mosquito_risk":3,"arthritis_risk":10,"migraine_risk":7,"frizz_risk":0,"updated_at":"2026-05-10T21:28:26.898485+05:30"},{"city":"Gurgaon","state":"Haryana","latitude":28.4595,"longitude":77.0266,"temp":30.0,"humidity":44,"rain":0.0,"pressure":981.4,"uv_index":7.7,"wind_gusts":32.0,"aqi":658,"pm10":804.7,"pm2_5":121.5,"no2":30.4,"co":558.0,"o3":125.0,"so2":22.9,"mosquito_risk":4,"arthritis_risk":5,"migraine_risk":7,"frizz_risk":1,"updated_at":"2026-05-10T21:28:26.898492+05:30"},{"city":"Noida","state":"Uttar Pradesh","latitude":28.5355,"longitude":77.391,"temp":27.4,"humidity":54,"rain":0.0,"pressure":984.6,"uv_index":7.65,"wind_gusts":31.3,"aqi":658,"pm10":804.7,"pm2_5":121.5,"no2":30.4,"co":521.0,"o3":125.0,"so2":22.9,"mosquito_risk":4,"arthritis_risk":5,"migraine_risk":7,"frizz_risk":1,"updated_at":"2026-05-10T21:28:26.898498+05:30"},{"city":"Ghaziabad","state":"Uttar Pradesh","latitude":28.6692,"longitude":77.4538,"temp":28.2,"humidity":54,"rain":0.0,"pressure":982.8,"uv_index":7.6,"wind_gusts":34.2,"aqi":169,"pm10":152.3,"pm2_5":56.9,"no2":11.7,"co":506.0,"o3":126.0,"so2":11.6,"mosquito_risk":4,"arthritis_risk":5,"migraine_risk":7,"frizz_risk":1,"updated_at":"2026-05-10T21:28:26.898505+05:30"},{"city":"Faridabad","state":"Haryana","latitude":28.4089,"longitude":77.3178,"temp":29.1,"humidity":49,"rain":0.0,"pressure":984.0,"uv_index":7.65,"wind_gusts":33.8,"aqi":658,"pm10":804.7,"pm2_5":121.5,"no2":30.4,"co":577.0,"o3":125.0,"so2":22.9,"mosquito_risk":4,"arthritis_risk":5,"migraine_risk":7,"frizz_risk":1,"updated_at":"2026-05-10T21:28:26.898511+05:30"},{"city":"Meerut","state":"Uttar Pradesh","latitude":28.9845,"longitude":77.7064,"temp":26.1,"humidity":67,"rain":0.0,"pressure":981.7,"uv_index":7.55,"wind_gusts":34.6,"aqi":169,"pm10":152.3,"pm2_5":56.9,"no2":11.7,"co":504.0,"o3":126.0,"so2":11.6,"mosquito_risk":7,"arthritis_risk":5,"migraine_risk":7,"frizz_risk":1,"updated_at":"2026-05-10T21:28:26.898518+05:30"},{"city":"Agra","state":"Uttar Pradesh","latitude":27.1767,"longitude":78.0081,"temp":30.1,"humidity":50,"rain":0.0,"pressure":987.6,"uv_index":7.95,"wind_gusts":24.1,"aqi":499,"pm10":504.8,"pm2_5":89.4,"no2":19.5,"co":557.0,"o3":104.0,"so2":17.2,"mosquito_risk":0,"arthritis_risk":5,"migraine_risk":7,"frizz_risk":1,"updated_at":"2026-05-10T21:28:26.898525+05:30"},{"city":"Varanasi","state":"Uttar Pradesh","latitude":25.3176,"longitude":82.9739,"temp":29.3,"humidity":44,"rain":0.0,"pressure":998.7,"uv_index":8.55,"wind_gusts":29.9,"aqi":187,"pm10":58.1,"pm2_5":45.6,"no2":16.8,"co":439.0,"o3":131.0,"so2":17.5,"mosquito_risk":4,"arthritis_risk":5,"migraine_risk":7,"frizz_risk":0,"updated_at":"2026-05-10T21:28:26.898533+05:30"},{"city":"Prayagraj","state":"Uttar Pradesh","latitude":25.4358,"longitude":81.8463,"temp":30.0,"humidity":40,"rain":0.0,"pressure":996.5,"uv_index":8.45,"wind_gusts":32.8,"aqi":179,"pm10":54.6,"pm2_5":41.7,"no2":17.6,"co":547.0,"o3":111.0,"so2":12.7,"mosquito_risk":4,"arthritis_risk":5,"migraine_risk":7,"frizz_risk":0,"updated_at":"2026-05-10T21:28:26.898542+05:30"},{"city":"Gorakhpur","state":"Uttar Pradesh","latitude":26.7606,"longitude":83.3732,"temp":27.0,"humidity":61,"rain":0.0,"pressure":999.5,"uv_index":8.4,"wind_gusts":33.8,"aqi":136,"pm10":45.1,"pm2_5":38.9,"no2":20.1,"co":404.0,"o3":87.0,"so2":9.5,"mosquito_risk":7,"arthritis_risk":5,"migraine_risk":7,"frizz_risk":1,"updated_at":"2026-05-10T21:28:26.898549+05:30"},{"city":"Bareilly","state":"Uttar Pradesh","latitude":28.367,"longitude":79.4304,"temp":26.4,"humidity":61,"rain":0.0,"pressure":987.7,"uv_index":7.9,"wind_gusts":29.5,"aqi":158,"pm10":78.0,"pm2_5":50.1,"no2":22.6,"co":543.0,"o3":89.0,"so2":8.6,"mosquito_risk":7,"arthritis_risk":5,"migraine_risk":7,"frizz_risk":1,"updated_at":"2026-05-10T21:28:26.898556+05:30"},{"city":"Aligarh","state":"Uttar Pradesh","latitude":27.8974,"longitude":78.088,"temp":28.4,"humidity":51,"rain":0.0,"pressure":985.8,"uv_index":7.75,"wind_gusts":31.7,"aqi":235,"pm10":231.9,"pm2_5":68.0,"no2":17.5,"co":430.0,"o3":105.0,"so2":15.8,"mosquito_risk":4,"arthritis_risk":5,"migraine_risk":7,"frizz_risk":1,"updated_at":"2026-05-10T21:28:26.898563+05:30"},{"city":"Moradabad","state":"Uttar Pradesh","latitude":28.8386,"longitude":78.7733,"temp":27.1,"humidity":59,"rain":0.0,"pressure":984.3,"uv_index":7.75,"wind_gusts":32.4,"aqi":174,"pm10":76.6,"pm2_5":61.9,"no2":26.9,"co":613.0,"o3":108.0,"so2":17.5,"mosquito_risk":4,"arthritis_risk":5,"migraine_risk":7,"frizz_risk":1,"updated_at":"2026-05-10T21:28:26.898569+05:30"},{"city":"Saharanpur","state":"Uttar Pradesh","latitude":29.9637,"longitude":77.546,"temp":26.1,"humidity":64,"rain":0.0,"pressure":975.8,"uv_index":7.35,"wind_gusts":31.7,"aqi":151,"pm10":116.6,"pm2_5":74.5,"no2":33.3,"co":843.0,"o3":82.0,"so2":16.5,"mosquito_risk":7,"arthritis_risk":5,"migraine_risk":7,"frizz_risk":1,"updated_at":"2026-05-10T21:28:26.898575+05:30"},{"city":"Jhansi","state":"Uttar Pradesh","latitude":25.4484,"longitude":78.5685,"temp":29.8,"humidity":46,"rain":0.0,"pressure":977.5,"uv_index":8.4,"wind_gusts":27.0,"aqi":170,"pm10":115.9,"pm2_5":41.1,"no2":6.8,"co":379.0,"o3":114.0,"so2":10.5,"mosquito_risk":4,"arthritis_risk":5,"migraine_risk":7,"frizz_risk":1,"updated_at":"2026-05-10T21:28:30.237977+05:30"},{"city":"Surat","state":"Gujarat","latitude":21.1702,"longitude":72.8311,"temp":32.5,"humidity":54,"rain":0.0,"pressure":1003.1,"uv_index":7.75,"wind_gusts":34.9,"aqi":93,"pm10":71.9,"pm2_5":60.1,"no2":70.4,"co":425.0,"o3":53.0,"so2":89.5,"mosquito_risk":0,"arthritis_risk":5,"migraine_risk":4,"frizz_risk":1,"updated_at":"2026-05-10T21:28:30.238016+05:30"},{"city":"Vadodara","state":"Gujarat","latitude":22.3072,"longitude":73.1812,"temp":37.8,"humidity":20,"rain":0.0,"pressure":1000.3,"uv_index":8.1,"wind_gusts":29.5,"aqi":128,"pm10":56.2,"pm2_5":33.3,"no2":31.6,"co":554.0,"o3":107.0,"so2":17.1,"mosquito_risk":0,"arthritis_risk":5,"migraine_risk":7,"frizz_risk":0,"updated_at":"2026-05-10T21:28:30.238026+05:30"},{"city":"Rajkot","state":"Gujarat","latitude":22.3039,"longitude":70.8022,"temp":31.6,"humidity":39,"rain":0.0,"pressure":992.5,"uv_index":7.7,"wind_gusts":38.9,"aqi":72,"pm10":40.4,"pm2_5":14.1,"no2":5.9,"co":179.0,"o3":81.0,"so2":7.5,"mosquito_risk":0,"arthritis_risk":5,"migraine_risk":7,"frizz_risk":0,"updated_at":"2026-05-10T21:28:30.238034+05:30"},{"city":"Thane","state":"Maharashtra","latitude":19.2183,"longitude":72.9781,"temp":32.8,"humidity":41,"rain":0.0,"pressure":1003.7,"uv_index":7.9,"wind_gusts":45.4,"aqi":128,"pm10":49.5,"pm2_5":28.4,"no2":21.1,"co":296.0,"o3":100.0,"so2":15.1,"mosquito_risk":0,"arthritis_risk":5,"migraine_risk":4,"frizz_risk":1,"updated_at":"2026-05-10T21:28:30.238042+05:30"},{"city":"Nagpur","state":"Maharashtra","latitude":21.1458,"longitude":79.0882,"temp":34.0,"humidity":27,"rain":0.0,"pressure":971.1,"uv_index":8.9,"wind_gusts":29.2,"aqi":168,"pm10":60.8,"pm2_5":38.0,"no2":21.4,"co":479.0,"o3":117.0,"so2":22.0,"mosquito_risk":0,"arthritis_risk":5,"migraine_risk":7,"frizz_risk":0,"updated_at":"2026-05-10T21:28:30.238050+05:30"},{"city":"Nashik","state":"Maharashtra","latitude":19.9975,"longitude":73.7898,"temp":32.1,"humidity":30,"rain":0.0,"pressure":943.7,"uv_index":8.2,"wind_gusts":45.7,"aqi":130,"pm10":31.1,"pm2_5":22.5,"no2":7.2,"co":217.0,"o3":151.0,"so2":17.9,"mosquito_risk":0,"arthritis_risk":5,"migraine_risk":7,"frizz_risk":0,"updated_at":"2026-05-10T21:28:30.238057+05:30"},{"city":"Aurangabad","state":"Maharashtra","latitude":19.8762,"longitude":75.3433,"temp":33.0,"humidity":20,"rain":0.0,"pressure":941.8,"uv_index":9.05,"wind_gusts":45.0,"aqi":103,"pm10":36.9,"pm2_5":17.7,"no2":10.4,"co":408.0,"o3":104.0,"so2":5.0,"mosquito_risk":0,"arthritis_risk":5,"migraine_risk":7,"frizz_risk":0,"updated_at":"2026-05-10T21:28:30.238064+05:30"},{"city":"Solapur","state":"Maharashtra","latitude":17.6599,"longitude":75.9064,"temp":34.8,"humidity":22,"rain":0.0,"pressure":954.8,"uv_index":9.05,"wind_gusts":38.5,"aqi":128,"pm10":32.5,"pm2_5":21.5,"no2":11.9,"co":397.0,"o3":108.0,"so2":9.0,"mosquito_risk":0,"arthritis_risk":5,"migraine_risk":7,"frizz_risk":0,"updated_at":"2026-05-10T21:28:30.238072+05:30"},{"city":"Kolhapur","state":"Maharashtra","latitude":16.705,"longitude":74.2433,"temp":28.2,"humidity":67,"rain":0.0,"pressure":946.1,"uv_index":8.95,"wind_gusts":44.3,"aqi":140,"pm10":47.3,"pm2_5":36.7,"no2":18.5,"co":246.0,"o3":112.0,"so2":9.6,"mosquito_risk":7,"arthritis_risk":5,"migraine_risk":7,"frizz_risk":1,"updated_at":"2026-05-10T21:28:30.238079+05:30"},{"city":"Goa","state":"Goa","latitude":15.2993,"longitude":74.124,"temp":30.0,"humidity":79,"rain":0.0,"pressure":996.6,"uv_index":6.85,"wind_gusts":48.6,"aqi":93,"pm10":40.0,"pm2_5":23.3,"no2":5.6,"co":254.0,"o3":89.0,"so2":4.1,"mosquito_risk":7,"arthritis_risk":5,"migraine_risk":7,"frizz_risk":1,"updated_at":"2026-05-10T21:28:30.238086+05:30"},{"city":"Jodhpur","state":"Rajasthan","latitude":26.2389,"longitude":73.0243,"temp":37.5,"humidity":13,"rain":0.0,"pressure":980.1,"uv_index":8.4,"wind_gusts":35.3,"aqi":90,"pm10":59.1,"pm2_5":22.1,"no2":23.2,"co":242.0,"o3":89.0,"so2":5.5,"mosquito_risk":0,"arthritis_risk":5,"migraine_risk":10,"frizz_risk":0,"updated_at":"2026-05-10T21:28:30.238093+05:30"},{"city":"Udaipur","state":"Rajasthan","latitude":24.5854,"longitude":73.7125,"temp":33.3,"humidity":18,"rain":0.0,"pressure":944.8,"uv_index":8.8,"wind_gusts":38.5,"aqi":85,"pm10":27.5,"pm2_5":11.5,"no2":6.3,"co":257.0,"o3":93.0,"so2":3.2,"mosquito_risk":0,"arthritis_risk":5,"migraine_risk":7,"frizz_risk":0,"updated_at":"2026-05-10T21:28:30.238100+05:30"},{"city":"Kota","state":"Rajasthan","latitude":25.2138,"longitude":75.8648,"temp":33.0,"humidity":31,"rain":0.0,"pressure":977.0,"uv_index":8.35,"wind_gusts":35.6,"aqi":146,"pm10":119.7,"pm2_5":44.8,"no2":13.2,"co":368.0,"o3":103.0,"so2":11.0,"mosquito_risk":0,"arthritis_risk":5,"migraine_risk":7,"frizz_risk":0,"updated_at":"2026-05-10T21:28:30.238106+05:30"},{"city":"Bikaner","state":"Rajasthan","latitude":28.0229,"longitude":73.3119,"temp":36.3,"humidity":24,"rain":0.0,"pressure":979.1,"uv_index":8.3,"wind_gusts":32.0,"aqi":124,"pm10":74.5,"pm2_5":26.0,"no2":7.1,"co":363.0,"o3":108.0,"so2":10.9,"mosquito_risk":0,"arthritis_risk":5,"migraine_risk":10,"frizz_risk":0,"updated_at":"2026-05-10T21:28:30.238113+05:30"},{"city":"Ajmer","state":"Rajasthan","latitude":26.4499,"longitude":74.6399,"temp":32.8,"humidity":28,"rain":0.0,"pressure":953.6,"uv_index":8.3,"wind_gusts":32.4,"aqi":126,"pm10":103.1,"pm2_5":38.5,"no2":14.1,"co":522.0,"o3":94.0,"so2":7.7,"mosquito_risk":0,"arthritis_risk":5,"migraine_risk":7,"frizz_risk":0,"updated_at":"2026-05-10T21:28:30.238119+05:30"},{"city":"Gwalior","state":"Madhya Pradesh","latitude":26.2183,"longitude":78.1828,"temp":31.0,"humidity":42,"rain":0.0,"pressure":982.9,"uv_index":8.15,"wind_gusts":24.1,"aqi":157,"pm10":156.5,"pm2_5":46.7,"no2":8.4,"co":555.0,"o3":112.0,"so2":8.6,"mosquito_risk":0,"arthritis_risk":5,"migraine_risk":7,"frizz_risk":1,"updated_at":"2026-05-10T21:28:30.238126+05:30"},{"city":"Indore","state":"Madhya Pradesh","latitude":22.7196,"longitude":75.8577,"temp":34.8,"humidity":16,"rain":0.0,"pressure":946.5,"uv_index":8.65,"wind_gusts":47.5,"aqi":127,"pm10":54.7,"pm2_5":27.6,"no2":10.6,"co":342.0,"o3":113.0,"so2":7.4,"mosquito_risk":0,"arthritis_risk":5,"migraine_risk":7,"frizz_risk":0,"updated_at":"2026-05-10T21:28:30.238132+05:30"},{"city":"Bhopal","state":"Madhya Pradesh","latitude":23.2599,"longitude":77.4126,"temp":32.8,"humidity":17,"rain":0.0,"pressure":952.5,"uv_index":8.65,"wind_gusts":46.1,"aqi":116,"pm10":66.6,"pm2_5":26.6,"no2":5.3,"co":370.0,"o3":107.0,"so2":3.9,"mosquito_risk":0,"arthritis_risk":5,"migraine_risk":7,"frizz_risk":0,"updated_at":"2026-05-10T21:28:30.238139+05:30"},{"city":"Jabalpur","state":"Madhya Pradesh","latitude":23.1815,"longitude":79.9864,"temp":31.5,"humidity":32,"rain":0.0,"pressure":960.4,"uv_index":8.8,"wind_gusts":32.8,"aqi":135,"pm10":78.0,"pm2_5":31.1,"no2":12.5,"co":266.0,"o3":108.0,"so2":5.6,"mosquito_risk":0,"arthritis_risk":5,"migraine_risk":7,"frizz_risk":0,"updated_at":"2026-05-10T21:28:30.238145+05:30"},{"city":"Ujjain","state":"Madhya Pradesh","latitude":23.1765,"longitude":75.7885,"temp":33.5,"humidity":17,"rain":0.0,"pressure":952.2,"uv_index":8.6,"wind_gusts":40.7,"aqi":123,"pm10":59.4,"pm2_5":33.1,"no2":11.3,"co":258.0,"o3":99.0,"so2":7.2,"mosquito_risk":0,"arthritis_risk":5,"migraine_risk":7,"frizz_risk":0,"updated_at":"2026-05-10T21:28:30.238152+05:30"},{"city":"Visakhapatnam","state":"Andhra Pradesh","latitude":17.6868,"longitude":83.2185,"temp":28.5,"humidity":73,"rain":0.0,"pressure":1005.2,"uv_index":9.1,"wind_gusts":36.4,"aqi":68,"pm10":25.8,"pm2_5":22.8,"no2":24.8,"co":471.0,"o3":31.0,"so2":12.7,"mosquito_risk":7,"arthritis_risk":5,"migraine_risk":4,"frizz_risk":1,"updated_at":"2026-05-10T21:28:30.238158+05:30"},{"city":"Vijayawada","state":"Andhra Pradesh","latitude":16.5062,"longitude":80.648,"temp":29.7,"humidity":69,"rain":0.0,"pressure":1002.8,"uv_index":9.1,"wind_gusts":37.8,"aqi":47,"pm10":7.3,"pm2_5":6.2,"no2":6.1,"co":152.0,"o3":46.0,"so2":6.5,"mosquito_risk":7,"arthritis_risk":5,"migraine_risk":4,"frizz_risk":1,"updated_at":"2026-05-10T21:28:30.238165+05:30"},{"city":"Guntur","state":"Andhra Pradesh","latitude":16.3067,"longitude":80.4365,"temp":29.8,"humidity":68,"rain":0.0,"pressure":1004.0,"uv_index":8.9,"wind_gusts":45.4,"aqi":49,"pm10":8.6,"pm2_5":6.9,"no2":6.1,"co":157.0,"o3":52.0,"so2":7.2,"mosquito_risk":7,"arthritis_risk":5,"migraine_risk":4,"frizz_risk":1,"updated_at":"2026-05-10T21:28:30.238171+05:30"},{"city":"Nellore","state":"Andhra Pradesh","latitude":14.4426,"longitude":79.9865,"temp":28.8,"humidity":75,"rain":0.0,"pressure":1006.0,"uv_index":9.15,"wind_gusts":39.2,"aqi":27,"pm10":6.1,"pm2_5":4.3,"no2":3.0,"co":140.0,"o3":44.0,"so2":2.1,"mosquito_risk":7,"arthritis_risk":5,"migraine_risk":4,"frizz_risk":1,"updated_at":"2026-05-10T21:28:30.238178+05:30"},{"city":"Kurnool","state":"Andhra Pradesh","latitude":15.8281,"longitude":78.0373,"temp":33.2,"humidity":35,"rain":0.0,"pressure":975.9,"uv_index":9.1,"wind_gusts":49.7,"aqi":74,"pm10":38.2,"pm2_5":23.0,"no2":5.9,"co":208.0,"o3":97.0,"so2":3.0,"mosquito_risk":0,"arthritis_risk":5,"migraine_risk":7,"frizz_risk":0,"updated_at":"2026-05-10T21:28:30.238185+05:30"},{"city":"Kakinada","state":"Andhra Pradesh","latitude":16.9891,"longitude":82.2475,"temp":28.5,"humidity":76,"rain":0.0,"pressure":1008.3,"uv_index":9.05,"wind_gusts":37.8,"aqi":30,"pm10":8.1,"pm2_5":5.5,"no2":1.0,"co":156.0,"o3":59.0,"so2":0.4,"mosquito_risk":7,"arthritis_risk":0,"migraine_risk":4,"frizz_risk":1,"updated_at":"2026-05-10T21:28:30.238192+05:30"},{"city":"Tirupati","state":"Andhra Pradesh","latitude":13.6288,"longitude":79.4192,"temp":27.1,"humidity":74,"rain":0.0,"pressure":991.4,"uv_index":9.25,"wind_gusts":42.8,"aqi":57,"pm10":6.9,"pm2_5":5.9,"no2":8.7,"co":195.0,"o3":34.0,"so2":2.7,"mosquito_risk":7,"arthritis_risk":5,"migraine_risk":7,"frizz_risk":1,"updated_at":"2026-05-10T21:28:30.238199+05:30"},{"city":"Warangal","state":"Telangana","latitude":17.9689,"longitude":79.5941,"temp":31.8,"humidity":47,"rain":0.0,"pressure":977.7,"uv_index":9.15,"wind_gusts":40.0,"aqi":100,"pm10":48.2,"pm2_5":32.1,"no2":10.5,"co":355.0,"o3":108.0,"so2":8.9,"mosquito_risk":0,"arthritis_risk":5,"migraine_risk":7,"frizz_risk":1,"updated_at":"2026-05-10T21:28:30.238205+05:30"},{"city":"Nizamabad","state":"Telangana","latitude":18.6725,"longitude":78.0941,"temp":31.3,"humidity":38,"rain":0.0,"pressure":962.8,"uv_index":9.1,"wind_gusts":29.9,"aqi":118,"pm10":64.3,"pm2_5":42.6,"no2":25.6,"co":353.0,"o3":82.0,"so2":7.9,"mosquito_risk":0,"arthritis_risk":5,"migraine_risk":7,"frizz_risk":0,"updated_at":"2026-05-10T21:28:30.238211+05:30"},{"city":"Mysore","state":"Karnataka","latitude":12.2958,"longitude":76.6396,"temp":26.5,"humidity":54,"rain":0.0,"pressure":927.4,"uv_index":9.3,"wind_gusts":34.6,"aqi":101,"pm10":38.2,"pm2_5":28.2,"no2":37.1,"co":512.0,"o3":74.0,"so2":8.3,"mosquito_risk":4,"arthritis_risk":5,"migraine_risk":7,"frizz_risk":1,"updated_at":"2026-05-10T21:28:30.238218+05:30"},{"city":"Mangalore","state":"Karnataka","latitude":12.9141,"longitude":74.856,"temp":28.9,"humidity":89,"rain":0.0,"pressure":1005.3,"uv_index":8.85,"wind_gusts":37.1,"aqi":69,"pm10":29.3,"pm2_5":21.8,"no2":8.6,"co":456.0,"o3":85.0,"so2":3.9,"mosquito_risk":7,"arthritis_risk":5,"migraine_risk":4,"frizz_risk":1,"updated_at":"2026-05-10T21:28:30.238224+05:30"},{"city":"Hubli-Dharwad","state":"Karnataka","latitude":15.3647,"longitude":75.124,"temp":28.4,"humidity":56,"rain":0.0,"pressure":940.1,"uv_index":8.1,"wind_gusts":40.0,"aqi":116,"pm10":42.7,"pm2_5":25.3,"no2":15.3,"co":275.0,"o3":102.0,"so2":4.6,"mosquito_risk":4,"arthritis_risk":5,"migraine_risk":7,"frizz_risk":1,"updated_at":"2026-05-10T21:28:30.238230+05:30"},{"city":"Belgaum","state":"Karnataka","latitude":15.8497,"longitude":74.4977,"temp":26.8,"humidity":62,"rain":0.0,"pressure":925.1,"uv_index":8.35,"wind_gusts":41.8,"aqi":135,"pm10":44.6,"pm2_5":34.3,"no2":26.5,"co":236.0,"o3":76.0,"so2":8.1,"mosquito_risk":7,"arthritis_risk":5,"migraine_risk":7,"frizz_risk":1,"updated_at":"2026-05-10T21:28:33.580405+05:30"},{"city":"Coimbatore","state":"Tamil Nadu","latitude":11.0168,"longitude":76.9558,"temp":26.5,"humidity":77,"rain":0.0,"pressure":960.9,"uv_index":9.1,"wind_gusts":30.6,"aqi":79,"pm10":35.6,"pm2_5":31.8,"no2":35.7,"co":408.0,"o3":53.0,"so2":10.7,"mosquito_risk":7,"arthritis_risk":5,"migraine_risk":7,"frizz_risk":1,"updated_at":"2026-05-10T21:28:33.580436+05:30"},{"city":"Madurai","state":"Tamil Nadu","latitude":9.9252,"longitude":78.1198,"temp":27.1,"humidity":80,"rain":0.0,"pressure":992.4,"uv_index":5.15,"wind_gusts":29.5,"aqi":56,"pm10":19.4,"pm2_5":18.4,"no2":15.6,"co":377.0,"o3":74.0,"so2":6.7,"mosquito_risk":7,"arthritis_risk":5,"migraine_risk":3,"frizz_risk":1,"updated_at":"2026-05-10T21:28:33.580447+05:30"},{"city":"Trichy","state":"Tamil Nadu","latitude":10.7905,"longitude":78.7047,"temp":26.0,"humidity":89,"rain":0.0,"pressure":999.1,"uv_index":2.45,"wind_gusts":37.1,"aqi":49,"pm10":18.8,"pm2_5":18.2,"no2":21.8,"co":367.0,"o3":44.0,"so2":11.1,"mosquito_risk":7,"arthritis_risk":5,"migraine_risk":3,"frizz_risk":1,"updated_at":"2026-05-10T21:28:33.580457+05:30"},{"city":"Salem","state":"Tamil Nadu","latitude":11.6643,"longitude":78.146,"temp":26.5,"humidity":77,"rain":0.0,"pressure":976.7,"uv_index":8.95,"wind_gusts":24.5,"aqi":68,"pm10":19.4,"pm2_5":17.3,"no2":13.2,"co":250.0,"o3":81.0,"so2":8.4,"mosquito_risk":7,"arthritis_risk":5,"migraine_risk":7,"frizz_risk":1,"updated_at":"2026-05-10T21:28:33.580465+05:30"},{"city":"Tirunelveli","state":"Tamil Nadu","latitude":8.7139,"longitude":77.7567,"temp":26.6,"humidity":94,"rain":0.2,"pressure":1002.8,"uv_index":4.3,"wind_gusts":26.6,"aqi":54,"pm10":12.5,"pm2_5":12.3,"no2":11.1,"co":273.0,"o3":66.0,"so2":3.5,"mosquito_risk":10,"arthritis_risk":5,"migraine_risk":0,"frizz_risk":1,"updated_at":"2026-05-10T21:28:33.580473+05:30"},{"city":"Vellore","state":"Tamil Nadu","latitude":12.9165,"longitude":79.1325,"temp":26.9,"humidity":76,"rain":0.0,"pressure":984.4,"uv_index":9.25,"wind_gusts":36.0,"aqi":67,"pm10":12.5,"pm2_5":11.8,"no2":13.5,"co":203.0,"o3":54.0,"so2":7.6,"mosquito_risk":7,"arthritis_risk":5,"migraine_risk":7,"frizz_risk":1,"updated_at":"2026-05-10T21:28:33.580481+05:30"},{"city":"Erode","state":"Tamil Nadu","latitude":11.341,"longitude":77.7172,"temp":26.7,"humidity":79,"rain":0.0,"pressure":988.4,"uv_index":8.65,"wind_gusts":29.2,"aqi":78,"pm10":24.9,"pm2_5":22.2,"no2":18.3,"co":300.0,"o3":81.0,"so2":7.8,"mosquito_risk":7,"arthritis_risk":5,"migraine_risk":7,"frizz_risk":1,"updated_at":"2026-05-10T21:28:33.580488+05:30"},{"city":"Kochi","state":"Kerala","latitude":9.9312,"longitude":76.2673,"temp":27.6,"humidity":91,"rain":0.0,"pressure":1007.7,"uv_index":8.75,"wind_gusts":25.9,"aqi":78,"pm10":17.8,"pm2_5":17.1,"no2":19.8,"co":373.0,"o3":65.0,"so2":5.6,"mosquito_risk":7,"arthritis_risk":5,"migraine_risk":4,"frizz_risk":1,"updated_at":"2026-05-10T21:28:33.580496+05:30"},{"city":"Thiruvananthapuram","state":"Kerala","latitude":8.5241,"longitude":76.9366,"temp":25.5,"humidity":96,"rain":0.0,"pressure":1007.3,"uv_index":5.4,"wind_gusts":21.2,"aqi":69,"pm10":8.0,"pm2_5":6.7,"no2":5.1,"co":746.0,"o3":98.0,"so2":2.1,"mosquito_risk":7,"arthritis_risk":5,"migraine_risk":0,"frizz_risk":1,"updated_at":"2026-05-10T21:28:33.580502+05:30"},{"city":"Kozhikode","state":"Kerala","latitude":11.2588,"longitude":75.7804,"temp":26.8,"humidity":93,"rain":0.0,"pressure":1006.8,"uv_index":8.7,"wind_gusts":33.5,"aqi":62,"pm10":16.4,"pm2_5":9.9,"no2":1.7,"co":282.0,"o3":107.0,"so2":1.0,"mosquito_risk":7,"arthritis_risk":5,"migraine_risk":4,"frizz_risk":1,"updated_at":"2026-05-10T21:28:33.580509+05:30"},{"city":"Thrissur","state":"Kerala","latitude":10.5276,"longitude":76.2144,"temp":26.8,"humidity":92,"rain":0.0,"pressure":1006.1,"uv_index":9.0,"wind_gusts":30.2,"aqi":69,"pm10":23.2,"pm2_5":21.7,"no2":18.0,"co":378.0,"o3":65.0,"so2":3.8,"mosquito_risk":7,"arthritis_risk":5,"migraine_risk":4,"frizz_risk":1,"updated_at":"2026-05-10T21:28:33.580516+05:30"},{"city":"Kannur","state":"Kerala","latitude":11.8745,"longitude":75.3704,"temp":27.5,"humidity":90,"rain":0.0,"pressure":1005.7,"uv_index":8.1,"wind_gusts":39.6,"aqi":76,"pm10":24.4,"pm2_5":18.4,"no2":13.8,"co":432.0,"o3":79.0,"so2":3.1,"mosquito_risk":7,"arthritis_risk":5,"migraine_risk":4,"frizz_risk":1,"updated_at":"2026-05-10T21:28:33.580523+05:30"},{"city":"Patna","state":"Bihar","latitude":25.5941,"longitude":85.1376,"temp":26.5,"humidity":66,"rain":0.0,"pressure":1003.0,"uv_index":8.65,"wind_gusts":29.5,"aqi":179,"pm10":57.3,"pm2_5":47.7,"no2":17.9,"co":452.0,"o3":119.0,"so2":15.7,"mosquito_risk":7,"arthritis_risk":5,"migraine_risk":4,"frizz_risk":1,"updated_at":"2026-05-10T21:28:33.580530+05:30"},{"city":"Gaya","state":"Bihar","latitude":24.7914,"longitude":85.0002,"temp":27.1,"humidity":53,"rain":0.0,"pressure":995.7,"uv_index":8.7,"wind_gusts":21.6,"aqi":186,"pm10":62.2,"pm2_5":50.3,"no2":8.7,"co":315.0,"o3":154.0,"so2":17.0,"mosquito_risk":4,"arthritis_risk":5,"migraine_risk":7,"frizz_risk":1,"updated_at":"2026-05-10T21:28:33.580537+05:30"},{"city":"Muzaffarpur","state":"Bihar","latitude":26.1209,"longitude":85.3647,"temp":25.2,"humidity":70,"rain":0.0,"pressure":1003.3,"uv_index":8.65,"wind_gusts":34.2,"aqi":157,"pm10":61.0,"pm2_5":50.5,"no2":21.5,"co":477.0,"o3":102.0,"so2":13.8,"mosquito_risk":7,"arthritis_risk":5,"migraine_risk":4,"frizz_risk":1,"updated_at":"2026-05-10T21:28:33.580544+05:30"},{"city":"Bhagalpur","state":"Bihar","latitude":25.2425,"longitude":87.0117,"temp":26.3,"humidity":65,"rain":0.0,"pressure":1004.4,"uv_index":8.6,"wind_gusts":24.5,"aqi":175,"pm10":54.9,"pm2_5":48.0,"no2":13.8,"co":439.0,"o3":129.0,"so2":13.3,"mosquito_risk":7,"arthritis_risk":5,"migraine_risk":4,"frizz_risk":1,"updated_at":"2026-05-10T21:28:33.580550+05:30"},{"city":"Ranchi","state":"Jharkhand","latitude":23.3441,"longitude":85.3096,"temp":22.0,"humidity":76,"rain":0.0,"pressure":939.4,"uv_index":9.15,"wind_gusts":38.2,"aqi":157,"pm10":49.2,"pm2_5":35.2,"no2":8.1,"co":309.0,"o3":137.0,"so2":11.5,"mosquito_risk":3,"arthritis_risk":5,"migraine_risk":7,"frizz_risk":1,"updated_at":"2026-05-10T21:28:33.580557+05:30"},{"city":"Jamshedpur","state":"Jharkhand","latitude":22.8046,"longitude":86.2029,"temp":24.5,"humidity":81,"rain":0.0,"pressure":993.6,"uv_index":8.95,"wind_gusts":49.3,"aqi":179,"pm10":49.8,"pm2_5":41.3,"no2":12.1,"co":256.0,"o3":130.0,"so2":20.1,"mosquito_risk":3,"arthritis_risk":5,"migraine_risk":7,"frizz_risk":1,"updated_at":"2026-05-10T21:28:33.580563+05:30"},{"city":"Dhanbad","state":"Jharkhand","latitude":23.7957,"longitude":86.4304,"temp":25.5,"humidity":74,"rain":0.0,"pressure":982.7,"uv_index":8.9,"wind_gusts":30.2,"aqi":211,"pm10":88.5,"pm2_5":78.9,"no2":46.5,"co":497.0,"o3":115.0,"so2":84.2,"mosquito_risk":7,"arthritis_risk":5,"migraine_risk":7,"frizz_risk":1,"updated_at":"2026-05-10T21:28:33.580570+05:30"},{"city":"Bokaro","state":"Jharkhand","latitude":23.6693,"longitude":86.1511,"temp":25.2,"humidity":75,"rain":0.0,"pressure":986.5,"uv_index":8.9,"wind_gusts":50.4,"aqi":205,"pm10":84.8,"pm2_5":70.5,"no2":41.0,"co":1437.0,"o3":126.0,"so2":74.9,"mosquito_risk":7,"arthritis_risk":5,"migraine_risk":7,"frizz_risk":1,"updated_at":"2026-05-10T21:28:33.580577+05:30"},{"city":"Bhubaneswar","state":"Odisha","latitude":20.2961,"longitude":85.8245,"temp":26.1,"humidity":87,"rain":0.0,"pressure":1005.4,"uv_index":9.05,"wind_gusts":35.6,"aqi":61,"pm10":33.8,"pm2_5":28.3,"no2":21.7,"co":310.0,"o3":52.0,"so2":9.1,"mosquito_risk":7,"arthritis_risk":5,"migraine_risk":4,"frizz_risk":1,"updated_at":"2026-05-10T21:28:33.580583+05:30"},{"city":"Cuttack","state":"Odisha","latitude":20.4625,"longitude":85.8828,"temp":25.8,"humidity":88,"rain":0.0,"pressure":1007.3,"uv_index":9.1,"wind_gusts":47.2,"aqi":61,"pm10":33.8,"pm2_5":28.3,"no2":21.7,"co":440.0,"o3":52.0,"so2":9.1,"mosquito_risk":7,"arthritis_risk":5,"migraine_risk":4,"frizz_risk":1,"updated_at":"2026-05-10T21:28:33.580589+05:30"},{"city":"Rourkela","state":"Odisha","latitude":22.2604,"longitude":84.8536,"temp":27.1,"humidity":62,"rain":0.0,"pressure":986.8,"uv_index":8.9,"wind_gusts":25.9,"aqi":166,"pm10":61.0,"pm2_5":42.6,"no2":11.7,"co":340.0,"o3":136.0,"so2":39.8,"mosquito_risk":7,"arthritis_risk":5,"migraine_risk":7,"frizz_risk":1,"updated_at":"2026-05-10T21:28:33.580596+05:30"},{"city":"Raipur","state":"Chhattisgarh","latitude":21.2514,"longitude":81.6296,"temp":31.6,"humidity":39,"rain":0.0,"pressure":973.8,"uv_index":8.9,"wind_gusts":27.0,"aqi":204,"pm10":71.0,"pm2_5":46.3,"no2":24.7,"co":387.0,"o3":122.0,"so2":9.6,"mosquito_risk":0,"arthritis_risk":5,"migraine_risk":7,"frizz_risk":0,"updated_at":"2026-05-10T21:28:33.580602+05:30"},{"city":"Bhilai","state":"Chhattisgarh","latitude":21.1938,"longitude":81.3509,"temp":31.1,"humidity":46,"rain":0.0,"pressure":973.9,"uv_index":8.95,"wind_gusts":23.8,"aqi":180,"pm10":76.1,"pm2_5":51.3,"no2":39.5,"co":475.0,"o3":107.0,"so2":10.7,"mosquito_risk":0,"arthritis_risk":5,"migraine_risk":7,"frizz_risk":1,"updated_at":"2026-05-10T21:28:33.580609+05:30"},{"city":"Guwahati","state":"Assam","latitude":26.1158,"longitude":91.7086,"temp":24.1,"humidity":86,"rain":0.0,"pressure":1005.3,"uv_index":8.65,"wind_gusts":27.7,"aqi":94,"pm10":65.2,"pm2_5":54.5,"no2":21.2,"co":555.0,"o3":48.0,"so2":4.7,"mosquito_risk":3,"arthritis_risk":5,"migraine_risk":4,"frizz_risk":1,"updated_at":"2026-05-10T21:28:33.580615+05:30"},{"city":"Agartala","state":"Tripura","latitude":23.8315,"longitude":91.2868,"temp":24.5,"humidity":92,"rain":0.0,"pressure":1009.5,"uv_index":8.25,"wind_gusts":40.3,"aqi":169,"pm10":57.9,"pm2_5":53.1,"no2":18.2,"co":497.0,"o3":104.0,"so2":8.1,"mosquito_risk":3,"arthritis_risk":0,"migraine_risk":4,"frizz_risk":1,"updated_at":"2026-05-10T21:28:33.580621+05:30"},{"city":"Shillong","state":"Meghalaya","latitude":25.5788,"longitude":91.8933,"temp":15.4,"humidity":85,"rain":0.0,"pressure":858.3,"uv_index":8.45,"wind_gusts":24.5,"aqi":99,"pm10":47.4,"pm2_5":36.9,"no2":15.4,"co":464.0,"o3":79.0,"so2":4.6,"mosquito_risk":3,"arthritis_risk":10,"migraine_risk":7,"frizz_risk":0,"updated_at":"2026-05-10T21:28:33.580627+05:30"},{"city":"Imphal","state":"Manipur","latitude":24.817,"longitude":93.9368,"temp":20.5,"humidity":88,"rain":0.0,"pressure":926.1,"uv_index":7.85,"wind_gusts":23.4,"aqi":98,"pm10":53.2,"pm2_5":45.2,"no2":39.5,"co":1023.0,"o3":31.0,"so2":6.9,"mosquito_risk":3,"arthritis_risk":5,"migraine_risk":7,"frizz_risk":1,"updated_at":"2026-05-10T21:28:33.580634+05:30"},{"city":"Aizawl","state":"Mizoram","latitude":23.7271,"longitude":92.7176,"temp":17.0,"humidity":98,"rain":0.0,"pressure":894.5,"uv_index":6.35,"wind_gusts":14.8,"aqi":104,"pm10":42.5,"pm2_5":36.6,"no2":9.8,"co":356.0,"o3":49.0,"so2":2.4,"mosquito_risk":3,"arthritis_risk":10,"migraine_risk":7,"frizz_risk":1,"updated_at":"2026-05-10T21:28:33.580640+05:30"},{"city":"Kohima","state":"Nagaland","latitude":25.6701,"longitude":94.1077,"temp":16.0,"humidity":98,"rain":0.1,"pressure":857.2,"uv_index":8.35,"wind_gusts":26.3,"aqi":71,"pm10":33.1,"pm2_5":24.9,"no2":15.5,"co":395.0,"o3":40.0,"so2":2.0,"mosquito_risk":6,"arthritis_risk":10,"migraine_risk":7,"frizz_risk":0,"updated_at":"2026-05-10T21:28:33.580647+05:30"},{"city":"Gangtok","state":"Sikkim","latitude":27.3314,"longitude":88.6138,"temp":13.7,"humidity":84,"rain":0.0,"pressure":840.0,"uv_index":7.7,"wind_gusts":32.4,"aqi":69,"pm10":21.7,"pm2_5":16.4,"no2":13.6,"co":374.0,"o3":88.0,"so2":1.6,"mosquito_risk":3,"arthritis_risk":10,"migraine_risk":7,"frizz_risk":0,"updated_at":"2026-05-10T21:28:33.580654+05:30"},{"city":"Siliguri","state":"West Bengal","latitude":26.7271,"longitude":88.3953,"temp":23.2,"humidity":72,"rain":0.0,"pressure":996.7,"uv_index":8.05,"wind_gusts":26.6,"aqi":104,"pm10":58.3,"pm2_5":41.2,"no2":24.5,"co":487.0,"o3":101.0,"so2":6.7,"mosquito_risk":3,"arthritis_risk":5,"migraine_risk":7,"frizz_risk":1,"updated_at":"2026-05-10T21:28:36.933259+05:30"},{"city":"Durgapur","state":"West Bengal","latitude":23.5204,"longitude":87.3119,"temp":24.8,"humidity":84,"rain":0.0,"pressure":997.9,"uv_index":8.9,"wind_gusts":23.4,"aqi":207,"pm10":154.1,"pm2_5":139.2,"no2":55.0,"co":886.0,"o3":110.0,"so2":86.5,"mosquito_risk":3,"arthritis_risk":5,"migraine_risk":7,"frizz_risk":1,"updated_at":"2026-05-10T21:28:36.933292+05:30"},{"city":"Asansol","state":"West Bengal","latitude":23.6739,"longitude":86.9524,"temp":25.4,"humidity":80,"rain":0.0,"pressure":996.4,"uv_index":8.9,"wind_gusts":29.2,"aqi":205,"pm10":107.8,"pm2_5":97.3,"no2":45.4,"co":841.0,"o3":110.0,"so2":86.9,"mosquito_risk":7,"arthritis_risk":5,"migraine_risk":7,"frizz_risk":1,"updated_at":"2026-05-10T21:28:36.933303+05:30"},{"city":"Pondicherry","state":"Puducherry","latitude":11.9139,"longitude":79.8145,"temp":27.8,"humidity":86,"rain":0.0,"pressure":1007.7,"uv_index":8.85,"wind_gusts":41.8,"aqi":26,"pm10":5.8,"pm2_5":4.0,"no2":2.9,"co":293.0,"o3":48.0,"so2":0.4,"mosquito_risk":7,"arthritis_risk":5,"migraine_risk":4,"frizz_risk":1,"updated_at":"2026-05-10T21:28:36.933311+05:30"},{"city":"Port Blair","state":"Andaman and Nicobar Islands","latitude":11.6234,"longitude":92.7265,"temp":27.0,"humidity":88,"rain":0.0,"pressure":1007.9,"uv_index":8.1,"wind_gusts":27.0,"aqi":26,"pm10":3.7,"pm2_5":2.5,"no2":0.3,"co":162.0,"o3":57.0,"so2":0.1,"mosquito_risk":7,"arthritis_risk":5,"migraine_risk":4,"frizz_risk":1,"updated_at":"2026-05-10T21:28:36.933320+05:30"},{"city":"Haridwar","state":"Uttarakhand","latitude":29.9457,"longitude":78.1642,"temp":24.4,"humidity":71,"rain":0.0,"pressure":974.6,"uv_index":7.5,"wind_gusts":26.3,"aqi":153,"pm10":114.6,"pm2_5":67.3,"no2":24.2,"co":451.0,"o3":114.0,"so2":10.9,"mosquito_risk":3,"arthritis_risk":5,"migraine_risk":7,"frizz_risk":1,"updated_at":"2026-05-10T21:28:36.933328+05:30"},{"city":"Rishikesh","state":"Uttarakhand","latitude":30.0869,"longitude":78.2676,"temp":23.0,"humidity":73,"rain":0.0,"pressure":967.2,"uv_index":7.55,"wind_gusts":25.2,"aqi":155,"pm10":83.8,"pm2_5":46.4,"no2":9.1,"co":441.0,"o3":141.0,"so2":5.3,"mosquito_risk":3,"arthritis_risk":5,"migraine_risk":7,"frizz_risk":1,"updated_at":"2026-05-10T21:28:36.933334+05:30"},{"city":"Nainital","state":"Uttarakhand","latitude":29.3919,"longitude":79.4542,"temp":12.9,"humidity":90,"rain":0.0,"pressure":805.9,"uv_index":7.4,"wind_gusts":28.8,"aqi":151,"pm10":58.3,"pm2_5":42.5,"no2":14.9,"co":359.0,"o3":127.0,"so2":7.0,"mosquito_risk":3,"arthritis_risk":10,"migraine_risk":7,"frizz_risk":0,"updated_at":"2026-05-10T21:28:36.933342+05:30"},{"city":"Mussoorie","state":"Uttarakhand","latitude":30.4599,"longitude":78.0664,"temp":13.6,"humidity":93,"rain":0.0,"pressure":803.2,"uv_index":7.95,"wind_gusts":37.8,"aqi":151,"pm10":93.6,"pm2_5":52.2,"no2":19.1,"co":415.0,"o3":131.0,"so2":12.5,"mosquito_risk":3,"arthritis_risk":10,"migraine_risk":7,"frizz_risk":0,"updated_at":"2026-05-10T21:28:36.933350+05:30"},{"city":"Dharamshala","state":"Himachal Pradesh","latitude":32.219,"longitude":76.3234,"temp":20.7,"humidity":69,"rain":0.0,"pressure":870.0,"uv_index":7.7,"wind_gusts":35.6,"aqi":136,"pm10":126.7,"pm2_5":53.1,"no2":12.5,"co":398.0,"o3":118.0,"so2":4.9,"mosquito_risk":3,"arthritis_risk":5,"migraine_risk":7,"frizz_risk":0,"updated_at":"2026-05-10T21:28:36.933358+05:30"},{"city":"Dalhousie","state":"Himachal Pradesh","latitude":32.5387,"longitude":75.971,"temp":14.0,"humidity":91,"rain":0.0,"pressure":804.5,"uv_index":7.95,"wind_gusts":37.1,"aqi":154,"pm10":205.4,"pm2_5":72.4,"no2":34.0,"co":674.0,"o3":104.0,"so2":7.7,"mosquito_risk":3,"arthritis_risk":10,"migraine_risk":7,"frizz_risk":0,"updated_at":"2026-05-10T21:28:36.933366+05:30"},{"city":"Patiala","state":"Punjab","latitude":30.3398,"longitude":76.3869,"temp":28.4,"humidity":55,"rain":0.0,"pressure":978.0,"uv_index":7.55,"wind_gusts":34.9,"aqi":382,"pm10":540.2,"pm2_5":95.0,"no2":11.0,"co":527.0,"o3":128.0,"so2":8.8,"mosquito_risk":4,"arthritis_risk":5,"migraine_risk":7,"frizz_risk":1,"updated_at":"2026-05-10T21:28:36.933374+05:30"},{"city":"Bhatinda","state":"Punjab","latitude":30.211,"longitude":74.9455,"temp":33.2,"humidity":35,"rain":0.0,"pressure":982.5,"uv_index":8.25,"wind_gusts":30.2,"aqi":406,"pm10":486.2,"pm2_5":104.3,"no2":10.8,"co":511.0,"o3":131.0,"so2":14.9,"mosquito_risk":0,"arthritis_risk":5,"migraine_risk":7,"frizz_risk":0,"updated_at":"2026-05-10T21:28:36.933380+05:30"},{"city":"Rohtak","state":"Haryana","latitude":28.8955,"longitude":76.6066,"temp":29.2,"humidity":49,"rain":0.0,"pressure":981.7,"uv_index":7.65,"wind_gusts":30.6,"aqi":336,"pm10":532.7,"pm2_5":96.6,"no2":24.8,"co":427.0,"o3":146.0,"so2":27.7,"mosquito_risk":4,"arthritis_risk":5,"migraine_risk":7,"frizz_risk":1,"updated_at":"2026-05-10T21:28:36.933388+05:30"},{"city":"Panipat","state":"Haryana","latitude":29.3909,"longitude":76.9635,"temp":27.4,"humidity":61,"rain":0.0,"pressure":980.4,"uv_index":7.5,"wind_gusts":32.8,"aqi":594,"pm10":1110.1,"pm2_5":139.2,"no2":12.8,"co":517.0,"o3":133.0,"so2":11.7,"mosquito_risk":7,"arthritis_risk":5,"migraine_risk":7,"frizz_risk":1,"updated_at":"2026-05-10T21:28:36.933394+05:30"},{"city":"Mathura","state":"Uttar Pradesh","latitude":27.4924,"longitude":77.6737,"temp":28.8,"humidity":54,"rain":0.0,"pressure":986.6,"uv_index":7.9,"wind_gusts":27.4,"aqi":458,"pm10":364.1,"pm2_5":74.3,"no2":23.1,"co":525.0,"o3":103.0,"so2":11.5,"mosquito_risk":4,"arthritis_risk":5,"migraine_risk":7,"frizz_risk":1,"updated_at":"2026-05-10T21:28:36.933402+05:30"},{"city":"Vrindavan","state":"Uttar Pradesh","latitude":27.5823,"longitude":77.7027,"temp":29.0,"humidity":52,"rain":0.0,"pressure":987.2,"uv_index":7.9,"wind_gusts":27.7,"aqi":458,"pm10":364.1,"pm2_5":74.3,"no2":23.1,"co":587.0,"o3":103.0,"so2":11.5,"mosquito_risk":4,"arthritis_risk":5,"migraine_risk":7,"frizz_risk":1,"updated_at":"2026-05-10T21:28:36.933409+05:30"},{"city":"Ayodhya","state":"Uttar Pradesh","latitude":26.7922,"longitude":82.1998,"temp":27.6,"humidity":53,"rain":0.0,"pressure":997.0,"uv_index":8.2,"wind_gusts":37.1,"aqi":145,"pm10":58.4,"pm2_5":48.3,"no2":28.4,"co":374.0,"o3":94.0,"so2":11.5,"mosquito_risk":4,"arthritis_risk":5,"migraine_risk":7,"frizz_risk":1,"updated_at":"2026-05-10T21:28:36.933416+05:30"},{"city":"Ratlam","state":"Madhya Pradesh","latitude":23.3315,"longitude":75.0367,"temp":33.4,"humidity":19,"rain":0.0,"pressure":952.6,"uv_index":8.5,"wind_gusts":38.2,"aqi":130,"pm10":44.1,"pm2_5":23.9,"no2":5.1,"co":276.0,"o3":113.0,"so2":7.2,"mosquito_risk":0,"arthritis_risk":5,"migraine_risk":7,"frizz_risk":0,"updated_at":"2026-05-10T21:28:36.933423+05:30"},{"city":"Sagar","state":"Madhya Pradesh","latitude":23.8388,"longitude":78.7378,"temp":30.1,"humidity":37,"rain":0.0,"pressure":949.7,"uv_index":8.65,"wind_gusts":37.1,"aqi":129,"pm10":73.8,"pm2_5":29.2,"no2":3.8,"co":315.0,"o3":132.0,"so2":5.5,"mosquito_risk":0,"arthritis_risk":5,"migraine_risk":7,"frizz_risk":0,"updated_at":"2026-05-10T21:28:36.933430+05:30"},{"city":"Satna","state":"Madhya Pradesh","latitude":24.6005,"longitude":80.8322,"temp":29.5,"humidity":39,"rain":0.0,"pressure":971.4,"uv_index":8.65,"wind_gusts":37.1,"aqi":186,"pm10":44.0,"pm2_5":31.2,"no2":5.9,"co":324.0,"o3":167.0,"so2":10.2,"mosquito_risk":4,"arthritis_risk":5,"migraine_risk":7,"frizz_risk":0,"updated_at":"2026-05-10T21:28:36.933436+05:30"},{"city":"Akola","state":"Maharashtra","latitude":20.7002,"longitude":77.0082,"temp":33.8,"humidity":20,"rain":0.0,"pressure":971.7,"uv_index":8.85,"wind_gusts":42.1,"aqi":132,"pm10":63.8,"pm2_5":36.8,"no2":34.2,"co":272.0,"o3":82.0,"so2":12.0,"mosquito_risk":0,"arthritis_risk":5,"migraine_risk":7,"frizz_risk":0,"updated_at":"2026-05-10T21:28:36.933444+05:30"},{"city":"Amravati","state":"Maharashtra","latitude":20.9374,"longitude":77.7796,"temp":33.0,"humidity":23,"rain":0.0,"pressure":964.8,"uv_index":8.85,"wind_gusts":40.3,"aqi":139,"pm10":63.1,"pm2_5":35.2,"no2":33.6,"co":252.0,"o3":80.0,"so2":8.2,"mosquito_risk":0,"arthritis_risk":5,"migraine_risk":7,"frizz_risk":0,"updated_at":"2026-05-10T21:28:36.933451+05:30"},{"city":"Latur","state":"Maharashtra","latitude":18.4088,"longitude":76.5604,"temp":31.9,"humidity":26,"rain":0.0,"pressure":937.9,"uv_index":9.05,"wind_gusts":41.0,"aqi":132,"pm10":46.0,"pm2_5":31.5,"no2":22.0,"co":269.0,"o3":97.0,"so2":12.2,"mosquito_risk":0,"arthritis_risk":5,"migraine_risk":7,"frizz_risk":0,"updated_at":"2026-05-10T21:28:36.933458+05:30"},{"city":"Nanded","state":"Maharashtra","latitude":19.1383,"longitude":77.3091,"temp":32.2,"humidity":29,"rain":0.0,"pressure":966.3,"uv_index":9.0,"wind_gusts":36.7,"aqi":139,"pm10":54.2,"pm2_5":34.0,"no2":21.8,"co":298.0,"o3":85.0,"so2":7.3,"mosquito_risk":0,"arthritis_risk":5,"migraine_risk":7,"frizz_risk":0,"updated_at":"2026-05-10T21:28:36.933465+05:30"},{"city":"Gulbarga","state":"Karnataka","latitude":17.3297,"longitude":76.8343,"temp":33.1,"humidity":31,"rain":0.0,"pressure":956.8,"uv_index":9.1,"wind_gusts":31.7,"aqi":125,"pm10":35.3,"pm2_5":22.8,"no2":15.3,"co":249.0,"o3":102.0,"so2":6.4,"mosquito_risk":0,"arthritis_risk":5,"migraine_risk":7,"frizz_risk":0,"updated_at":"2026-05-10T21:28:36.933471+05:30"},{"city":"Bidar","state":"Karnataka","latitude":17.9104,"longitude":77.5199,"temp":29.9,"humidity":38,"rain":0.0,"pressure":934.0,"uv_index":9.1,"wind_gusts":32.4,"aqi":115,"pm10":50.4,"pm2_5":32.1,"no2":20.8,"co":301.0,"o3":98.0,"so2":6.0,"mosquito_risk":4,"arthritis_risk":5,"migraine_risk":7,"frizz_risk":0,"updated_at":"2026-05-10T21:28:36.933477+05:30"},{"city":"Hospet","state":"Karnataka","latitude":15.2689,"longitude":76.3909,"temp":30.3,"humidity":42,"rain":0.0,"pressure":954.6,"uv_index":8.85,"wind_gusts":35.3,"aqi":110,"pm10":49.0,"pm2_5":28.4,"no2":16.6,"co":462.0,"o3":104.0,"so2":10.5,"mosquito_risk":0,"arthritis_risk":5,"migraine_risk":7,"frizz_risk":0,"updated_at":"2026-05-10T21:28:36.933484+05:30"},{"city":"Tirupur","state":"Tamil Nadu","latitude":11.1085,"longitude":77.3411,"temp":27.0,"humidity":74,"rain":0.0,"pressure":974.4,"uv_index":9.15,"wind_gusts":24.8,"aqi":94,"pm10":38.6,"pm2_5":35.6,"no2":40.3,"co":257.0,"o3":69.0,"so2":12.9,"mosquito_risk":7,"arthritis_risk":5,"migraine_risk":7,"frizz_risk":1,"updated_at":"2026-05-10T21:28:36.933490+05:30"},{"city":"Alappuzha","state":"Kerala","latitude":9.4981,"longitude":76.3388,"temp":26.9,"humidity":93,"rain":0.0,"pressure":1007.8,"uv_index":7.8,"wind_gusts":23.8,"aqi":58,"pm10":17.1,"pm2_5":15.4,"no2":18.1,"co":246.0,"o3":69.0,"so2":5.2,"mosquito_risk":7,"arthritis_risk":5,"migraine_risk":4,"frizz_risk":1,"updated_at":"2026-05-10T21:28:36.933497+05:30"},{"city":"Munnar","state":"Kerala","latitude":10.0889,"longitude":77.0595,"temp":18.4,"humidity":87,"rain":0.0,"pressure":856.2,"uv_index":9.2,"wind_gusts":23.4,"aqi":42,"pm10":18.6,"pm2_5":17.9,"no2":15.3,"co":298.0,"o3":51.0,"so2":3.5,"mosquito_risk":3,"arthritis_risk":10,"migraine_risk":7,"frizz_risk":1,"updated_at":"2026-05-10T21:28:36.933504+05:30"},{"city":"Silchar","state":"Assam","latitude":24.8333,"longitude":92.7789,"temp":25.7,"humidity":82,"rain":0.0,"pressure":1008.1,"uv_index":7.95,"wind_gusts":19.1,"aqi":147,"pm10":91.5,"pm2_5":79.6,"no2":22.9,"co":607.0,"o3":73.0,"so2":15.2,"mosquito_risk":7,"arthritis_risk":0,"migraine_risk":4,"frizz_risk":1,"updated_at":"2026-05-10T21:28:36.933512+05:30"},{"city":"Dibrugarh","state":"Assam","latitude":27.4728,"longitude":94.912,"temp":23.0,"humidity":89,"rain":0.0,"pressure":998.7,"uv_index":8.8,"wind_gusts":38.2,"aqi":91,"pm10":35.5,"pm2_5":31.3,"no2":15.7,"co":542.0,"o3":74.0,"so2":3.4,"mosquito_risk":3,"arthritis_risk":5,"migraine_risk":7,"frizz_risk":1,"updated_at":"2026-05-10T21:28:36.933518+05:30"}]