[{"city":"Delhi","state":"Delhi","latitude":28.6139,"longitude":77.209,"temp":36.8,"humidity":29,"rain":0.0,"pressure":977.5,"uv_index":7.75,"wind_gusts":32.4,"aqi":165,"pm10":360.4,"pm2_5":84.3,"no2":37.1,"co":449.0,"o3":91.0,"so2":17.5,"mosquito_risk":0,"arthritis_risk":5,"migraine_risk":10,"frizz_risk":0,"updated_at":"2026-06-06T20:13:03.297986+05:30"},{"city":"Mumbai","state":"Maharashtra","latitude":19.076,"longitude":72.8777,"temp":31.3,"humidity":69,"rain":0.0,"pressure":1006.1,"uv_index":7.2,"wind_gusts":39.6,"aqi":75,"pm10":42.6,"pm2_5":19.5,"no2":8.7,"co":187.0,"o3":51.0,"so2":5.8,"mosquito_risk":3,"arthritis_risk":5,"migraine_risk":4,"frizz_risk":1,"updated_at":"2026-06-06T20:13:03.298035+05:30"},{"city":"Bangalore","state":"Karnataka","latitude":12.9716,"longitude":77.5946,"temp":23.1,"humidity":81,"rain":0.0,"pressure":911.2,"uv_index":8.4,"wind_gusts":51.5,"aqi":32,"pm10":7.5,"pm2_5":7.1,"no2":21.6,"co":477.0,"o3":42.0,"so2":4.6,"mosquito_risk":3,"arthritis_risk":5,"migraine_risk":7,"frizz_risk":1,"updated_at":"2026-06-06T20:13:03.298051+05:30"},{"city":"Hyderabad","state":"Telangana","latitude":17.385,"longitude":78.4867,"temp":32.5,"humidity":43,"rain":0.0,"pressure":950.5,"uv_index":9.05,"wind_gusts":37.8,"aqi":92,"pm10":67.8,"pm2_5":43.1,"no2":31.8,"co":418.0,"o3":69.0,"so2":10.1,"mosquito_risk":0,"arthritis_risk":5,"migraine_risk":7,"frizz_risk":1,"updated_at":"2026-06-06T20:13:03.298062+05:30"},{"city":"Chennai","state":"Tamil Nadu","latitude":13.0827,"longitude":80.2707,"temp":34.6,"humidity":54,"rain":0.0,"pressure":1003.6,"uv_index":8.5,"wind_gusts":42.1,"aqi":76,"pm10":21.8,"pm2_5":15.7,"no2":9.0,"co":362.0,"o3":93.0,"so2":6.5,"mosquito_risk":0,"arthritis_risk":5,"migraine_risk":4,"frizz_risk":1,"updated_at":"2026-06-06T20:13:03.298072+05:30"},{"city":"Kolkata","state":"West Bengal","latitude":22.5726,"longitude":88.3639,"temp":29.5,"humidity":92,"rain":0.0,"pressure":1001.2,"uv_index":9.0,"wind_gusts":29.5,"aqi":127,"pm10":42.6,"pm2_5":37.7,"no2":13.3,"co":856.0,"o3":69.0,"so2":9.2,"mosquito_risk":7,"arthritis_risk":5,"migraine_risk":4,"frizz_risk":1,"updated_at":"2026-06-06T20:13:03.298082+05:30"},{"city":"Pune","state":"Maharashtra","latitude":18.5204,"longitude":73.8567,"temp":27.0,"humidity":73,"rain":0.0,"pressure":946.5,"uv_index":8.35,"wind_gusts":46.8,"aqi":51,"pm10":18.4,"pm2_5":11.2,"no2":9.8,"co":163.0,"o3":61.0,"so2":6.0,"mosquito_risk":7,"arthritis_risk":5,"migraine_risk":7,"frizz_risk":1,"updated_at":"2026-06-06T20:13:03.298090+05:30"},{"city":"Ahmedabad","state":"Gujarat","latitude":23.0225,"longitude":72.5714,"temp":35.9,"humidity":48,"rain":0.0,"pressure":996.7,"uv_index":8.1,"wind_gusts":34.2,"aqi":92,"pm10":70.3,"pm2_5":31.5,"no2":16.0,"co":172.0,"o3":65.0,"so2":6.4,"mosquito_risk":0,"arthritis_risk":5,"migraine_risk":10,"frizz_risk":1,"updated_at":"2026-06-06T20:13:03.298098+05:30"},{"city":"Jaipur","state":"Rajasthan","latitude":26.9124,"longitude":75.7873,"temp":30.5,"humidity":52,"rain":0.0,"pressure":955.4,"uv_index":8.25,"wind_gusts":32.8,"aqi":111,"pm10":138.8,"pm2_5":52.6,"no2":35.3,"co":292.0,"o3":45.0,"so2":11.0,"mosquito_risk":0,"arthritis_risk":5,"migraine_risk":7,"frizz_risk":1,"updated_at":"2026-06-06T20:13:03.298111+05:30"},{"city":"Lucknow","state":"Uttar Pradesh","latitude":26.8467,"longitude":80.9462,"temp":34.9,"humidity":39,"rain":0.0,"pressure":987.9,"uv_index":8.3,"wind_gusts":27.7,"aqi":161,"pm10":78.5,"pm2_5":56.1,"no2":24.0,"co":394.0,"o3":111.0,"so2":13.5,"mosquito_risk":0,"arthritis_risk":5,"migraine_risk":7,"frizz_risk":1,"updated_at":"2026-06-06T20:13:03.298119+05:30"},{"city":"Kanpur","state":"Uttar Pradesh","latitude":26.4499,"longitude":80.3319,"temp":35.7,"humidity":34,"rain":0.0,"pressure":986.0,"uv_index":8.3,"wind_gusts":36.0,"aqi":206,"pm10":304.5,"pm2_5":77.8,"no2":23.3,"co":307.0,"o3":107.0,"so2":13.0,"mosquito_risk":0,"arthritis_risk":5,"migraine_risk":10,"frizz_risk":1,"updated_at":"2026-06-06T20:13:03.298126+05:30"},{"city":"Chandigarh","state":"Chandigarh","latitude":30.7333,"longitude":76.7794,"temp":29.3,"humidity":47,"rain":0.0,"pressure":963.0,"uv_index":7.8,"wind_gusts":31.3,"aqi":173,"pm10":32.9,"pm2_5":27.1,"no2":15.0,"co":771.0,"o3":135.0,"so2":11.2,"mosquito_risk":4,"arthritis_risk":5,"migraine_risk":7,"frizz_risk":1,"updated_at":"2026-06-06T20:13:03.298134+05:30"},{"city":"Srinagar","state":"Jammu and Kashmir","latitude":34.0837,"longitude":74.7973,"temp":20.6,"humidity":62,"rain":0.0,"pressure":840.8,"uv_index":9.0,"wind_gusts":25.9,"aqi":100,"pm10":14.2,"pm2_5":12.2,"no2":16.9,"co":1067.0,"o3":88.0,"so2":2.4,"mosquito_risk":3,"arthritis_risk":5,"migraine_risk":7,"frizz_risk":0,"updated_at":"2026-06-06T20:13:03.298142+05:30"},{"city":"Jammu","state":"Jammu and Kashmir","latitude":32.7266,"longitude":74.857,"temp":32.0,"humidity":33,"rain":0.0,"pressure":967.1,"uv_index":8.6,"wind_gusts":29.5,"aqi":132,"pm10":40.4,"pm2_5":28.6,"no2":30.2,"co":328.0,"o3":107.0,"so2":5.3,"mosquito_risk":0,"arthritis_risk":5,"migraine_risk":7,"frizz_risk":0,"updated_at":"2026-06-06T20:13:03.298150+05:30"},{"city":"Amritsar","state":"Punjab","latitude":31.634,"longitude":74.8723,"temp":35.3,"humidity":30,"rain":0.0,"pressure":974.8,"uv_index":8.45,"wind_gusts":22.0,"aqi":179,"pm10":51.2,"pm2_5":42.5,"no2":33.2,"co":586.0,"o3":108.0,"so2":10.8,"mosquito_risk":0,"arthritis_risk":5,"migraine_risk":10,"frizz_risk":0,"updated_at":"2026-06-06T20:13:03.298157+05:30"},{"city":"Ludhiana","state":"Punjab","latitude":30.901,"longitude":75.8573,"temp":34.3,"humidity":32,"rain":0.0,"pressure":972.8,"uv_index":8.05,"wind_gusts":30.6,"aqi":155,"pm10":58.9,"pm2_5":35.9,"no2":19.1,"co":306.0,"o3":109.0,"so2":6.5,"mosquito_risk":0,"arthritis_risk":5,"migraine_risk":7,"frizz_risk":0,"updated_at":"2026-06-06T20:13:03.298164+05:30"},{"city":"Jalandhar","state":"Punjab","latitude":31.326,"longitude":75.5762,"temp":34.2,"humidity":29,"rain":0.0,"pressure":973.9,"uv_index":8.25,"wind_gusts":24.5,"aqi":162,"pm10":53.0,"pm2_5":35.7,"no2":22.7,"co":549.0,"o3":121.0,"so2":8.0,"mosquito_risk":0,"arthritis_risk":5,"migraine_risk":7,"frizz_risk":0,"updated_at":"2026-06-06T20:13:03.298171+05:30"},{"city":"Dehradun","state":"Uttarakhand","latitude":30.6284,"longitude":78.0322,"temp":18.8,"humidity":56,"rain":0.0,"pressure":827.5,"uv_index":8.25,"wind_gusts":33.1,"aqi":131,"pm10":23.6,"pm2_5":17.0,"no2":16.7,"co":270.0,"o3":122.0,"so2":5.1,"mosquito_risk":0,"arthritis_risk":5,"migraine_risk":7,"frizz_risk":0,"updated_at":"2026-06-06T20:13:03.298178+05:30"},{"city":"Shimla","state":"Himachal Pradesh","latitude":31.1048,"longitude":77.1734,"temp":16.4,"humidity":46,"rain":0.0,"pressure":782.4,"uv_index":8.35,"wind_gusts":41.8,"aqi":113,"pm10":19.5,"pm2_5":11.2,"no2":8.2,"co":262.0,"o3":126.0,"so2":3.5,"mosquito_risk":0,"arthritis_risk":5,"migraine_risk":7,"frizz_risk":0,"updated_at":"2026-06-06T20:13:03.298194+05:30"},{"city":"Manali","state":"Himachal Pradesh","latitude":32.2396,"longitude":77.1887,"temp":17.1,"humidity":55,"rain":0.0,"pressure":816.6,"uv_index":9.9,"wind_gusts":37.1,"aqi":145,"pm10":10.2,"pm2_5":8.6,"no2":51.3,"co":191.0,"o3":104.0,"so2":0.4,"mosquito_risk":0,"arthritis_risk":5,"migraine_risk":7,"frizz_risk":0,"updated_at":"2026-06-06T20:13:03.298201+05:30"},{"city":"Gurgaon","state":"Haryana","latitude":28.4595,"longitude":77.0266,"temp":33.5,"humidity":45,"rain":0.0,"pressure":975.9,"uv_index":7.85,"wind_gusts":32.8,"aqi":258,"pm10":439.6,"pm2_5":97.1,"no2":39.1,"co":862.0,"o3":84.0,"so2":15.0,"mosquito_risk":0,"arthritis_risk":5,"migraine_risk":7,"frizz_risk":1,"updated_at":"2026-06-06T20:13:03.298208+05:30"},{"city":"Noida","state":"Uttar Pradesh","latitude":28.5355,"longitude":77.391,"temp":32.5,"humidity":48,"rain":0.0,"pressure":978.8,"uv_index":7.8,"wind_gusts":19.8,"aqi":258,"pm10":439.6,"pm2_5":97.1,"no2":39.1,"co":1489.0,"o3":84.0,"so2":15.0,"mosquito_risk":0,"arthritis_risk":5,"migraine_risk":7,"frizz_risk":1,"updated_at":"2026-06-06T20:13:03.298217+05:30"},{"city":"Ghaziabad","state":"Uttar Pradesh","latitude":28.6692,"longitude":77.4538,"temp":31.5,"humidity":58,"rain":0.0,"pressure":977.0,"uv_index":7.8,"wind_gusts":28.8,"aqi":182,"pm10":232.8,"pm2_5":74.3,"no2":30.5,"co":586.0,"o3":113.0,"so2":20.6,"mosquito_risk":0,"arthritis_risk":5,"migraine_risk":7,"frizz_risk":1,"updated_at":"2026-06-06T20:13:03.298224+05:30"},{"city":"Faridabad","state":"Haryana","latitude":28.4089,"longitude":77.3178,"temp":34.7,"humidity":34,"rain":0.0,"pressure":978.2,"uv_index":7.85,"wind_gusts":23.8,"aqi":258,"pm10":439.6,"pm2_5":97.1,"no2":39.1,"co":889.0,"o3":84.0,"so2":15.0,"mosquito_risk":0,"arthritis_risk":5,"migraine_risk":7,"frizz_risk":1,"updated_at":"2026-06-06T20:13:03.298231+05:30"},{"city":"Meerut","state":"Uttar Pradesh","latitude":28.9845,"longitude":77.7064,"temp":32.2,"humidity":51,"rain":0.0,"pressure":975.7,"uv_index":7.7,"wind_gusts":25.9,"aqi":182,"pm10":232.8,"pm2_5":74.3,"no2":30.5,"co":418.0,"o3":113.0,"so2":20.6,"mosquito_risk":0,"arthritis_risk":5,"migraine_risk":7,"frizz_risk":1,"updated_at":"2026-06-06T20:13:03.298238+05:30"},{"city":"Agra","state":"Uttar Pradesh","latitude":27.1767,"longitude":78.0081,"temp":33.9,"humidity":38,"rain":0.0,"pressure":982.1,"uv_index":8.1,"wind_gusts":31.0,"aqi":451,"pm10":294.3,"pm2_5":72.6,"no2":30.6,"co":277.0,"o3":73.0,"so2":10.9,"mosquito_risk":0,"arthritis_risk":5,"migraine_risk":7,"frizz_risk":1,"updated_at":"2026-06-06T20:13:03.298244+05:30"},{"city":"Varanasi","state":"Uttar Pradesh","latitude":25.3176,"longitude":82.9739,"temp":34.2,"humidity":44,"rain":0.0,"pressure":992.0,"uv_index":8.8,"wind_gusts":32.0,"aqi":159,"pm10":96.4,"pm2_5":61.5,"no2":23.5,"co":608.0,"o3":101.0,"so2":13.7,"mosquito_risk":0,"arthritis_risk":5,"migraine_risk":7,"frizz_risk":1,"updated_at":"2026-06-06T20:13:03.298251+05:30"},{"city":"Prayagraj","state":"Uttar Pradesh","latitude":25.4358,"longitude":81.8463,"temp":34.3,"humidity":43,"rain":0.0,"pressure":990.4,"uv_index":8.7,"wind_gusts":40.3,"aqi":152,"pm10":183.0,"pm2_5":78.0,"no2":26.7,"co":487.0,"o3":100.0,"so2":17.6,"mosquito_risk":0,"arthritis_risk":5,"migraine_risk":7,"frizz_risk":1,"updated_at":"2026-06-06T20:13:03.298259+05:30"},{"city":"Gorakhpur","state":"Uttar Pradesh","latitude":26.7606,"longitude":83.3732,"temp":30.3,"humidity":69,"rain":0.0,"pressure":991.8,"uv_index":8.7,"wind_gusts":36.7,"aqi":164,"pm10":100.1,"pm2_5":61.2,"no2":23.5,"co":484.0,"o3":87.0,"so2":9.6,"mosquito_risk":3,"arthritis_risk":5,"migraine_risk":7,"frizz_risk":1,"updated_at":"2026-06-06T20:13:03.298268+05:30"},{"city":"Bareilly","state":"Uttar Pradesh","latitude":28.367,"longitude":79.4304,"temp":31.1,"humidity":54,"rain":0.0,"pressure":980.9,"uv_index":8.1,"wind_gusts":25.9,"aqi":156,"pm10":95.7,"pm2_5":48.3,"no2":17.4,"co":376.0,"o3":120.0,"so2":12.4,"mosquito_risk":0,"arthritis_risk":5,"migraine_risk":7,"frizz_risk":1,"updated_at":"2026-06-06T20:13:03.298275+05:30"},{"city":"Aligarh","state":"Uttar Pradesh","latitude":27.8974,"longitude":78.088,"temp":32.3,"humidity":49,"rain":0.0,"pressure":979.9,"uv_index":7.95,"wind_gusts":26.3,"aqi":198,"pm10":314.8,"pm2_5":89.6,"no2":32.2,"co":451.0,"o3":119.0,"so2":17.9,"mosquito_risk":0,"arthritis_risk":5,"migraine_risk":7,"frizz_risk":1,"updated_at":"2026-06-06T20:13:03.298282+05:30"},{"city":"Moradabad","state":"Uttar Pradesh","latitude":28.8386,"longitude":78.7733,"temp":32.5,"humidity":49,"rain":0.0,"pressure":977.9,"uv_index":7.9,"wind_gusts":28.8,"aqi":163,"pm10":177.9,"pm2_5":75.9,"no2":38.7,"co":486.0,"o3":93.0,"so2":16.9,"mosquito_risk":0,"arthritis_risk":5,"migraine_risk":7,"frizz_risk":1,"updated_at":"2026-06-06T20:13:03.298289+05:30"},{"city":"Saharanpur","state":"Uttar Pradesh","latitude":29.9637,"longitude":77.546,"temp":30.7,"humidity":42,"rain":0.0,"pressure":969.7,"uv_index":7.5,"wind_gusts":28.1,"aqi":166,"pm10":122.5,"pm2_5":47.1,"no2":20.6,"co":540.0,"o3":121.0,"so2":14.6,"mosquito_risk":0,"arthritis_risk":5,"migraine_risk":7,"frizz_risk":1,"updated_at":"2026-06-06T20:13:03.298295+05:30"},{"city":"Jhansi","state":"Uttar Pradesh","latitude":25.4484,"longitude":78.5685,"temp":33.1,"humidity":49,"rain":0.0,"pressure":972.9,"uv_index":8.45,"wind_gusts":35.3,"aqi":73,"pm10":62.6,"pm2_5":28.5,"no2":10.6,"co":262.0,"o3":89.0,"so2":7.1,"mosquito_risk":0,"arthritis_risk":5,"migraine_risk":7,"frizz_risk":1,"updated_at":"2026-06-06T20:13:06.569988+05:30"},{"city":"Surat","state":"Gujarat","latitude":21.1702,"longitude":72.8311,"temp":30.8,"humidity":74,"rain":0.0,"pressure":1003.1,"uv_index":7.6,"wind_gusts":44.6,"aqi":90,"pm10":47.5,"pm2_5":24.9,"no2":17.7,"co":219.0,"o3":37.0,"so2":32.3,"mosquito_risk":3,"arthritis_risk":5,"migraine_risk":4,"frizz_risk":1,"updated_at":"2026-06-06T20:13:06.570021+05:30"},{"city":"Vadodara","state":"Gujarat","latitude":22.3072,"longitude":73.1812,"temp":33.6,"humidity":54,"rain":0.0,"pressure":999.7,"uv_index":8.0,"wind_gusts":40.7,"aqi":86,"pm10":72.9,"pm2_5":37.1,"no2":9.6,"co":149.0,"o3":81.0,"so2":13.1,"mosquito_risk":0,"arthritis_risk":5,"migraine_risk":7,"frizz_risk":1,"updated_at":"2026-06-06T20:13:06.570032+05:30"},{"city":"Rajkot","state":"Gujarat","latitude":22.3039,"longitude":70.8022,"temp":33.4,"humidity":57,"rain":0.0,"pressure":990.0,"uv_index":7.55,"wind_gusts":46.1,"aqi":83,"pm10":45.6,"pm2_5":20.4,"no2":2.9,"co":116.0,"o3":76.0,"so2":4.3,"mosquito_risk":0,"arthritis_risk":5,"migraine_risk":7,"frizz_risk":1,"updated_at":"2026-06-06T20:13:06.570041+05:30"},{"city":"Thane","state":"Maharashtra","latitude":19.2183,"longitude":72.9781,"temp":31.7,"humidity":66,"rain":0.0,"pressure":1005.4,"uv_index":7.6,"wind_gusts":40.3,"aqi":75,"pm10":42.6,"pm2_5":19.5,"no2":8.7,"co":172.0,"o3":51.0,"so2":5.8,"mosquito_risk":3,"arthritis_risk":5,"migraine_risk":4,"frizz_risk":1,"updated_at":"2026-06-06T20:13:06.570050+05:30"},{"city":"Nagpur","state":"Maharashtra","latitude":21.1458,"longitude":79.0882,"temp":36.8,"humidity":28,"rain":0.0,"pressure":968.7,"uv_index":8.35,"wind_gusts":42.8,"aqi":87,"pm10":28.5,"pm2_5":16.0,"no2":9.2,"co":215.0,"o3":101.0,"so2":11.5,"mosquito_risk":0,"arthritis_risk":5,"migraine_risk":10,"frizz_risk":0,"updated_at":"2026-06-06T20:13:06.570059+05:30"},{"city":"Nashik","state":"Maharashtra","latitude":19.9975,"longitude":73.7898,"temp":28.7,"humidity":59,"rain":0.0,"pressure":943.6,"uv_index":8.05,"wind_gusts":41.0,"aqi":62,"pm10":43.8,"pm2_5":19.8,"no2":2.9,"co":138.0,"o3":65.0,"so2":1.2,"mosquito_risk":4,"arthritis_risk":5,"migraine_risk":7,"frizz_risk":1,"updated_at":"2026-06-06T20:13:06.570068+05:30"},{"city":"Aurangabad","state":"Maharashtra","latitude":19.8762,"longitude":75.3433,"temp":34.7,"humidity":27,"rain":0.0,"pressure":941.1,"uv_index":8.95,"wind_gusts":41.0,"aqi":64,"pm10":43.0,"pm2_5":20.8,"no2":5.0,"co":152.0,"o3":90.0,"so2":2.4,"mosquito_risk":0,"arthritis_risk":5,"migraine_risk":7,"frizz_risk":0,"updated_at":"2026-06-06T20:13:06.570076+05:30"},{"city":"Solapur","state":"Maharashtra","latitude":17.6599,"longitude":75.9064,"temp":31.0,"humidity":49,"rain":0.0,"pressure":954.6,"uv_index":8.95,"wind_gusts":47.2,"aqi":68,"pm10":46.4,"pm2_5":27.3,"no2":10.1,"co":249.0,"o3":87.0,"so2":4.0,"mosquito_risk":0,"arthritis_risk":5,"migraine_risk":7,"frizz_risk":1,"updated_at":"2026-06-06T20:13:06.570084+05:30"},{"city":"Kolhapur","state":"Maharashtra","latitude":16.705,"longitude":74.2433,"temp":24.9,"humidity":86,"rain":0.0,"pressure":947.2,"uv_index":7.95,"wind_gusts":47.2,"aqi":41,"pm10":11.9,"pm2_5":9.0,"no2":7.8,"co":146.0,"o3":59.0,"so2":2.5,"mosquito_risk":3,"arthritis_risk":5,"migraine_risk":7,"frizz_risk":1,"updated_at":"2026-06-06T20:13:06.570092+05:30"},{"city":"Goa","state":"Goa","latitude":15.2993,"longitude":74.124,"temp":26.5,"humidity":98,"rain":0.0,"pressure":997.4,"uv_index":7.0,"wind_gusts":29.5,"aqi":32,"pm10":13.2,"pm2_5":9.3,"no2":5.4,"co":202.0,"o3":50.0,"so2":1.1,"mosquito_risk":7,"arthritis_risk":5,"migraine_risk":7,"frizz_risk":1,"updated_at":"2026-06-06T20:13:06.570101+05:30"},{"city":"Jodhpur","state":"Rajasthan","latitude":26.2389,"longitude":73.0243,"temp":34.3,"humidity":47,"rain":0.0,"pressure":978.0,"uv_index":8.45,"wind_gusts":33.8,"aqi":124,"pm10":172.3,"pm2_5":42.6,"no2":5.2,"co":154.0,"o3":82.0,"so2":2.4,"mosquito_risk":0,"arthritis_risk":5,"migraine_risk":7,"frizz_risk":1,"updated_at":"2026-06-06T20:13:06.570109+05:30"},{"city":"Udaipur","state":"Rajasthan","latitude":24.5854,"longitude":73.7125,"temp":32.2,"humidity":46,"rain":0.0,"pressure":942.8,"uv_index":8.85,"wind_gusts":32.4,"aqi":95,"pm10":61.0,"pm2_5":30.7,"no2":3.3,"co":155.0,"o3":96.0,"so2":4.8,"mosquito_risk":0,"arthritis_risk":5,"migraine_risk":7,"frizz_risk":1,"updated_at":"2026-06-06T20:13:06.570118+05:30"},{"city":"Kota","state":"Rajasthan","latitude":25.2138,"longitude":75.8648,"temp":31.2,"humidity":53,"rain":0.0,"pressure":974.1,"uv_index":8.4,"wind_gusts":42.5,"aqi":81,"pm10":84.8,"pm2_5":37.1,"no2":11.9,"co":250.0,"o3":84.0,"so2":5.0,"mosquito_risk":0,"arthritis_risk":5,"migraine_risk":7,"frizz_risk":1,"updated_at":"2026-06-06T20:13:06.570126+05:30"},{"city":"Bikaner","state":"Rajasthan","latitude":28.0229,"longitude":73.3119,"temp":38.1,"humidity":23,"rain":0.0,"pressure":975.5,"uv_index":8.5,"wind_gusts":28.4,"aqi":105,"pm10":121.1,"pm2_5":44.0,"no2":2.9,"co":203.0,"o3":86.0,"so2":3.1,"mosquito_risk":0,"arthritis_risk":5,"migraine_risk":10,"frizz_risk":0,"updated_at":"2026-06-06T20:13:06.570135+05:30"},{"city":"Ajmer","state":"Rajasthan","latitude":26.4499,"longitude":74.6399,"temp":32.4,"humidity":49,"rain":0.0,"pressure":950.0,"uv_index":8.35,"wind_gusts":36.0,"aqi":100,"pm10":153.2,"pm2_5":49.6,"no2":9.3,"co":166.0,"o3":74.0,"so2":3.9,"mosquito_risk":0,"arthritis_risk":5,"migraine_risk":7,"frizz_risk":1,"updated_at":"2026-06-06T20:13:06.570143+05:30"},{"city":"Gwalior","state":"Madhya Pradesh","latitude":26.2183,"longitude":78.1828,"temp":34.1,"humidity":41,"rain":0.0,"pressure":977.9,"uv_index":8.25,"wind_gusts":32.4,"aqi":158,"pm10":77.5,"pm2_5":32.2,"no2":9.1,"co":196.0,"o3":85.0,"so2":4.8,"mosquito_risk":0,"arthritis_risk":5,"migraine_risk":7,"frizz_risk":1,"updated_at":"2026-06-06T20:13:06.570152+05:30"},{"city":"Indore","state":"Madhya Pradesh","latitude":22.7196,"longitude":75.8577,"temp":32.1,"humidity":49,"rain":0.0,"pressure":944.5,"uv_index":8.6,"wind_gusts":33.8,"aqi":90,"pm10":53.3,"pm2_5":31.1,"no2":11.7,"co":419.0,"o3":82.0,"so2":6.1,"mosquito_risk":0,"arthritis_risk":5,"migraine_risk":7,"frizz_risk":1,"updated_at":"2026-06-06T20:13:06.570159+05:30"},{"city":"Bhopal","state":"Madhya Pradesh","latitude":23.2599,"longitude":77.4126,"temp":27.1,"humidity":74,"rain":0.1,"pressure":950.2,"uv_index":8.7,"wind_gusts":38.9,"aqi":89,"pm10":43.3,"pm2_5":28.7,"no2":10.3,"co":341.0,"o3":70.0,"so2":4.4,"mosquito_risk":10,"arthritis_risk":5,"migraine_risk":7,"frizz_risk":1,"updated_at":"2026-06-06T20:13:06.570168+05:30"},{"city":"Jabalpur","state":"Madhya Pradesh","latitude":23.1815,"longitude":79.9864,"temp":31.7,"humidity":48,"rain":0.0,"pressure":957.0,"uv_index":8.35,"wind_gusts":39.6,"aqi":92,"pm10":107.6,"pm2_5":38.2,"no2":10.8,"co":228.0,"o3":100.0,"so2":5.4,"mosquito_risk":0,"arthritis_risk":5,"migraine_risk":7,"frizz_risk":1,"updated_at":"2026-06-06T20:13:06.570176+05:30"},{"city":"Ujjain","state":"Madhya Pradesh","latitude":23.1765,"longitude":75.7885,"temp":32.0,"humidity":48,"rain":0.0,"pressure":950.0,"uv_index":8.6,"wind_gusts":33.5,"aqi":89,"pm10":58.9,"pm2_5":31.2,"no2":3.7,"co":283.0,"o3":94.0,"so2":4.9,"mosquito_risk":0,"arthritis_risk":5,"migraine_risk":7,"frizz_risk":1,"updated_at":"2026-06-06T20:13:06.570184+05:30"},{"city":"Visakhapatnam","state":"Andhra Pradesh","latitude":17.6868,"longitude":83.2185,"temp":32.2,"humidity":66,"rain":0.0,"pressure":999.0,"uv_index":8.6,"wind_gusts":35.6,"aqi":161,"pm10":52.4,"pm2_5":41.3,"no2":30.0,"co":326.0,"o3":95.0,"so2":40.6,"mosquito_risk":3,"arthritis_risk":5,"migraine_risk":7,"frizz_risk":1,"updated_at":"2026-06-06T20:13:06.570192+05:30"},{"city":"Vijayawada","state":"Andhra Pradesh","latitude":16.5062,"longitude":80.648,"temp":32.9,"humidity":58,"rain":0.0,"pressure":998.3,"uv_index":8.8,"wind_gusts":33.1,"aqi":105,"pm10":60.8,"pm2_5":46.0,"no2":10.0,"co":238.0,"o3":102.0,"so2":6.9,"mosquito_risk":0,"arthritis_risk":5,"migraine_risk":7,"frizz_risk":1,"updated_at":"2026-06-06T20:13:06.570200+05:30"},{"city":"Guntur","state":"Andhra Pradesh","latitude":16.3067,"longitude":80.4365,"temp":33.6,"humidity":56,"rain":0.0,"pressure":999.6,"uv_index":9.0,"wind_gusts":32.8,"aqi":97,"pm10":65.7,"pm2_5":47.4,"no2":10.1,"co":249.0,"o3":100.0,"so2":6.1,"mosquito_risk":0,"arthritis_risk":5,"migraine_risk":7,"frizz_risk":1,"updated_at":"2026-06-06T20:13:06.570208+05:30"},{"city":"Nellore","state":"Andhra Pradesh","latitude":14.4426,"longitude":79.9865,"temp":28.1,"humidity":89,"rain":0.3,"pressure":1003.5,"uv_index":8.45,"wind_gusts":37.8,"aqi":80,"pm10":26.7,"pm2_5":21.7,"no2":5.1,"co":191.0,"o3":104.0,"so2":3.4,"mosquito_risk":10,"arthritis_risk":5,"migraine_risk":4,"frizz_risk":1,"updated_at":"2026-06-06T20:13:06.570217+05:30"},{"city":"Kurnool","state":"Andhra Pradesh","latitude":15.8281,"longitude":78.0373,"temp":26.5,"humidity":89,"rain":0.0,"pressure":974.9,"uv_index":5.95,"wind_gusts":44.6,"aqi":108,"pm10":33.9,"pm2_5":24.7,"no2":10.1,"co":210.0,"o3":107.0,"so2":12.0,"mosquito_risk":7,"arthritis_risk":5,"migraine_risk":3,"frizz_risk":1,"updated_at":"2026-06-06T20:13:06.570225+05:30"},{"city":"Kakinada","state":"Andhra Pradesh","latitude":16.9891,"longitude":82.2475,"temp":32.1,"humidity":70,"rain":0.0,"pressure":1002.7,"uv_index":8.7,"wind_gusts":38.5,"aqi":119,"pm10":29.9,"pm2_5":21.8,"no2":3.6,"co":280.0,"o3":113.0,"so2":3.9,"mosquito_risk":3,"arthritis_risk":5,"migraine_risk":4,"frizz_risk":1,"updated_at":"2026-06-06T20:13:06.570233+05:30"},{"city":"Tirupati","state":"Andhra Pradesh","latitude":13.6288,"longitude":79.4192,"temp":27.6,"humidity":77,"rain":0.0,"pressure":988.8,"uv_index":8.6,"wind_gusts":35.3,"aqi":46,"pm10":8.1,"pm2_5":7.3,"no2":8.7,"co":261.0,"o3":67.0,"so2":1.6,"mosquito_risk":7,"arthritis_risk":5,"migraine_risk":7,"frizz_risk":1,"updated_at":"2026-06-06T20:13:06.570241+05:30"},{"city":"Warangal","state":"Telangana","latitude":17.9689,"longitude":79.5941,"temp":32.7,"humidity":54,"rain":0.0,"pressure":974.5,"uv_index":9.05,"wind_gusts":44.6,"aqi":95,"pm10":58.8,"pm2_5":39.9,"no2":21.3,"co":475.0,"o3":75.0,"so2":8.0,"mosquito_risk":0,"arthritis_risk":5,"migraine_risk":7,"frizz_risk":1,"updated_at":"2026-06-06T20:13:06.570248+05:30"},{"city":"Nizamabad","state":"Telangana","latitude":18.6725,"longitude":78.0941,"temp":32.0,"humidity":47,"rain":0.0,"pressure":960.8,"uv_index":9.05,"wind_gusts":42.5,"aqi":90,"pm10":46.6,"pm2_5":27.4,"no2":13.8,"co":259.0,"o3":83.0,"so2":4.5,"mosquito_risk":0,"arthritis_risk":5,"migraine_risk":7,"frizz_risk":1,"updated_at":"2026-06-06T20:13:06.570256+05:30"},{"city":"Mysore","state":"Karnataka","latitude":12.2958,"longitude":76.6396,"temp":22.3,"humidity":95,"rain":0.1,"pressure":927.9,"uv_index":6.45,"wind_gusts":55.1,"aqi":31,"pm10":4.1,"pm2_5":4.1,"no2":12.4,"co":213.0,"o3":41.0,"so2":1.9,"mosquito_risk":6,"arthritis_risk":5,"migraine_risk":7,"frizz_risk":1,"updated_at":"2026-06-06T20:13:06.570264+05:30"},{"city":"Mangalore","state":"Karnataka","latitude":12.9141,"longitude":74.856,"temp":24.9,"humidity":99,"rain":0.3,"pressure":1006.5,"uv_index":1.45,"wind_gusts":27.4,"aqi":25,"pm10":10.5,"pm2_5":9.3,"no2":12.4,"co":282.0,"o3":40.0,"so2":2.4,"mosquito_risk":6,"arthritis_risk":5,"migraine_risk":0,"frizz_risk":1,"updated_at":"2026-06-06T20:13:06.570272+05:30"},{"city":"Hubli-Dharwad","state":"Karnataka","latitude":15.3647,"longitude":75.124,"temp":24.7,"humidity":85,"rain":0.0,"pressure":939.9,"uv_index":8.4,"wind_gusts":37.8,"aqi":36,"pm10":3.5,"pm2_5":3.3,"no2":8.2,"co":156.0,"o3":55.0,"so2":1.1,"mosquito_risk":3,"arthritis_risk":5,"migraine_risk":7,"frizz_risk":1,"updated_at":"2026-06-06T20:13:06.570280+05:30"},{"city":"Belgaum","state":"Karnataka","latitude":15.8497,"longitude":74.4977,"temp":23.1,"humidity":96,"rain":0.1,"pressure":924.7,"uv_index":8.95,"wind_gusts":42.5,"aqi":36,"pm10":6.0,"pm2_5":4.9,"no2":7.3,"co":136.0,"o3":57.0,"so2":2.1,"mosquito_risk":6,"arthritis_risk":5,"migraine_risk":7,"frizz_risk":1,"updated_at":"2026-06-06T20:13:09.827299+05:30"},{"city":"Coimbatore","state":"Tamil Nadu","latitude":11.0168,"longitude":76.9558,"temp":23.5,"humidity":92,"rain":0.0,"pressure":961.4,"uv_index":8.9,"wind_gusts":47.5,"aqi":24,"pm10":3.2,"pm2_5":3.0,"no2":7.3,"co":220.0,"o3":37.0,"so2":2.1,"mosquito_risk":3,"arthritis_risk":5,"migraine_risk":7,"frizz_risk":1,"updated_at":"2026-06-06T20:13:09.827331+05:30"},{"city":"Madurai","state":"Tamil Nadu","latitude":9.9252,"longitude":78.1198,"temp":30.5,"humidity":54,"rain":0.0,"pressure":992.3,"uv_index":8.75,"wind_gusts":67.7,"aqi":35,"pm10":9.0,"pm2_5":4.9,"no2":5.3,"co":133.0,"o3":57.0,"so2":1.9,"mosquito_risk":0,"arthritis_risk":5,"migraine_risk":7,"frizz_risk":1,"updated_at":"2026-06-06T20:13:09.827343+05:30"},{"city":"Trichy","state":"Tamil Nadu","latitude":10.7905,"longitude":78.7047,"temp":30.4,"humidity":54,"rain":0.0,"pressure":998.4,"uv_index":8.85,"wind_gusts":60.5,"aqi":37,"pm10":9.1,"pm2_5":6.0,"no2":8.1,"co":156.0,"o3":45.0,"so2":2.7,"mosquito_risk":0,"arthritis_risk":5,"migraine_risk":7,"frizz_risk":1,"updated_at":"2026-06-06T20:13:09.827352+05:30"},{"city":"Salem","state":"Tamil Nadu","latitude":11.6643,"longitude":78.146,"temp":29.1,"humidity":56,"rain":0.0,"pressure":976.9,"uv_index":8.65,"wind_gusts":54.0,"aqi":40,"pm10":6.7,"pm2_5":5.8,"no2":11.1,"co":260.0,"o3":59.0,"so2":6.6,"mosquito_risk":4,"arthritis_risk":5,"migraine_risk":7,"frizz_risk":1,"updated_at":"2026-06-06T20:13:09.827360+05:30"},{"city":"Tirunelveli","state":"Tamil Nadu","latitude":8.7139,"longitude":77.7567,"temp":30.0,"humidity":61,"rain":0.0,"pressure":1003.1,"uv_index":8.7,"wind_gusts":46.8,"aqi":26,"pm10":6.5,"pm2_5":4.5,"no2":5.2,"co":143.0,"o3":43.0,"so2":1.1,"mosquito_risk":7,"arthritis_risk":5,"migraine_risk":4,"frizz_risk":1,"updated_at":"2026-06-06T20:13:09.827369+05:30"},{"city":"Vellore","state":"Tamil Nadu","latitude":12.9165,"longitude":79.1325,"temp":32.4,"humidity":47,"rain":0.0,"pressure":982.1,"uv_index":8.95,"wind_gusts":39.6,"aqi":40,"pm10":9.2,"pm2_5":9.1,"no2":11.6,"co":199.0,"o3":59.0,"so2":3.2,"mosquito_risk":0,"arthritis_risk":5,"migraine_risk":7,"frizz_risk":1,"updated_at":"2026-06-06T20:13:09.827377+05:30"},{"city":"Erode","state":"Tamil Nadu","latitude":11.341,"longitude":77.7172,"temp":27.5,"humidity":70,"rain":0.0,"pressure":988.6,"uv_index":8.8,"wind_gusts":60.5,"aqi":33,"pm10":4.0,"pm2_5":3.7,"no2":8.8,"co":176.0,"o3":44.0,"so2":2.4,"mosquito_risk":7,"arthritis_risk":5,"migraine_risk":7,"frizz_risk":1,"updated_at":"2026-06-06T20:13:09.827385+05:30"},{"city":"Kochi","state":"Kerala","latitude":9.9312,"longitude":76.2673,"temp":26.5,"humidity":90,"rain":0.1,"pressure":1010.2,"uv_index":7.85,"wind_gusts":44.3,"aqi":48,"pm10":16.9,"pm2_5":11.0,"no2":12.2,"co":156.0,"o3":33.0,"so2":2.9,"mosquito_risk":10,"arthritis_risk":0,"migraine_risk":4,"frizz_risk":1,"updated_at":"2026-06-06T20:13:09.827392+05:30"},{"city":"Thiruvananthapuram","state":"Kerala","latitude":8.5241,"longitude":76.9366,"temp":26.8,"humidity":86,"rain":0.0,"pressure":1009.3,"uv_index":8.3,"wind_gusts":46.1,"aqi":25,"pm10":13.2,"pm2_5":6.0,"no2":2.0,"co":120.0,"o3":49.0,"so2":0.5,"mosquito_risk":7,"arthritis_risk":0,"migraine_risk":4,"frizz_risk":1,"updated_at":"2026-06-06T20:13:09.827400+05:30"},{"city":"Kozhikode","state":"Kerala","latitude":11.2588,"longitude":75.7804,"temp":24.9,"humidity":97,"rain":0.5,"pressure":1008.9,"uv_index":2.0,"wind_gusts":28.4,"aqi":25,"pm10":7.4,"pm2_5":3.8,"no2":1.2,"co":208.0,"o3":57.0,"so2":0.4,"mosquito_risk":6,"arthritis_risk":0,"migraine_risk":0,"frizz_risk":1,"updated_at":"2026-06-06T20:13:09.827408+05:30"},{"city":"Thrissur","state":"Kerala","latitude":10.5276,"longitude":76.2144,"temp":24.7,"humidity":98,"rain":0.1,"pressure":1008.5,"uv_index":6.8,"wind_gusts":34.9,"aqi":46,"pm10":14.1,"pm2_5":9.6,"no2":10.8,"co":261.0,"o3":30.0,"so2":2.1,"mosquito_risk":6,"arthritis_risk":0,"migraine_risk":4,"frizz_risk":1,"updated_at":"2026-06-06T20:13:09.827416+05:30"},{"city":"Kannur","state":"Kerala","latitude":11.8745,"longitude":75.3704,"temp":25.3,"humidity":95,"rain":0.5,"pressure":1007.4,"uv_index":0.8,"wind_gusts":31.7,"aqi":23,"pm10":6.1,"pm2_5":4.9,"no2":9.5,"co":255.0,"o3":44.0,"so2":1.3,"mosquito_risk":10,"arthritis_risk":5,"migraine_risk":0,"frizz_risk":1,"updated_at":"2026-06-06T20:13:09.827424+05:30"},{"city":"Patna","state":"Bihar","latitude":25.5941,"longitude":85.1376,"temp":31.2,"humidity":74,"rain":0.0,"pressure":995.4,"uv_index":8.9,"wind_gusts":27.4,"aqi":203,"pm10":84.1,"pm2_5":71.5,"no2":11.4,"co":465.0,"o3":157.0,"so2":11.9,"mosquito_risk":3,"arthritis_risk":5,"migraine_risk":7,"frizz_risk":1,"updated_at":"2026-06-06T20:13:09.827432+05:30"},{"city":"Gaya","state":"Bihar","latitude":24.7914,"longitude":85.0002,"temp":32.0,"humidity":63,"rain":0.0,"pressure":988.8,"uv_index":8.7,"wind_gusts":22.0,"aqi":171,"pm10":87.8,"pm2_5":75.7,"no2":12.1,"co":364.0,"o3":117.0,"so2":9.8,"mosquito_risk":3,"arthritis_risk":5,"migraine_risk":7,"frizz_risk":1,"updated_at":"2026-06-06T20:13:09.827439+05:30"},{"city":"Muzaffarpur","state":"Bihar","latitude":26.1209,"longitude":85.3647,"temp":29.7,"humidity":75,"rain":0.0,"pressure":995.6,"uv_index":8.9,"wind_gusts":39.6,"aqi":202,"pm10":73.3,"pm2_5":65.7,"no2":12.2,"co":438.0,"o3":152.0,"so2":12.5,"mosquito_risk":7,"arthritis_risk":5,"migraine_risk":7,"frizz_risk":1,"updated_at":"2026-06-06T20:13:09.827447+05:30"},{"city":"Bhagalpur","state":"Bihar","latitude":25.2425,"longitude":87.0117,"temp":31.4,"humidity":71,"rain":0.0,"pressure":996.4,"uv_index":8.75,"wind_gusts":31.7,"aqi":207,"pm10":70.8,"pm2_5":64.7,"no2":21.3,"co":527.0,"o3":133.0,"so2":19.8,"mosquito_risk":3,"arthritis_risk":5,"migraine_risk":7,"frizz_risk":1,"updated_at":"2026-06-06T20:13:09.827454+05:30"},{"city":"Ranchi","state":"Jharkhand","latitude":23.3441,"longitude":85.3096,"temp":24.0,"humidity":93,"rain":0.3,"pressure":933.5,"uv_index":9.3,"wind_gusts":33.1,"aqi":135,"pm10":60.5,"pm2_5":50.9,"no2":14.1,"co":622.0,"o3":97.0,"so2":7.2,"mosquito_risk":6,"arthritis_risk":5,"migraine_risk":7,"frizz_risk":1,"updated_at":"2026-06-06T20:13:09.827462+05:30"},{"city":"Jamshedpur","state":"Jharkhand","latitude":22.8046,"longitude":86.2029,"temp":30.4,"humidity":80,"rain":0.0,"pressure":986.4,"uv_index":9.1,"wind_gusts":34.9,"aqi":201,"pm10":91.5,"pm2_5":75.2,"no2":22.0,"co":394.0,"o3":129.0,"so2":34.7,"mosquito_risk":3,"arthritis_risk":5,"migraine_risk":7,"frizz_risk":1,"updated_at":"2026-06-06T20:13:09.827469+05:30"},{"city":"Dhanbad","state":"Jharkhand","latitude":23.7957,"longitude":86.4304,"temp":30.1,"humidity":79,"rain":0.0,"pressure":975.4,"uv_index":8.65,"wind_gusts":27.4,"aqi":210,"pm10":111.5,"pm2_5":98.5,"no2":50.2,"co":735.0,"o3":130.0,"so2":161.9,"mosquito_risk":3,"arthritis_risk":5,"migraine_risk":7,"frizz_risk":1,"updated_at":"2026-06-06T20:13:09.827477+05:30"},{"city":"Bokaro","state":"Jharkhand","latitude":23.6693,"longitude":86.1511,"temp":29.0,"humidity":85,"rain":0.0,"pressure":979.3,"uv_index":8.5,"wind_gusts":30.6,"aqi":188,"pm10":97.6,"pm2_5":85.0,"no2":42.5,"co":1438.0,"o3":116.0,"so2":144.4,"mosquito_risk":7,"arthritis_risk":5,"migraine_risk":7,"frizz_risk":1,"updated_at":"2026-06-06T20:13:09.827484+05:30"},{"city":"Bhubaneswar","state":"Odisha","latitude":20.2961,"longitude":85.8245,"temp":32.0,"humidity":78,"rain":0.0,"pressure":997.5,"uv_index":8.9,"wind_gusts":29.5,"aqi":150,"pm10":42.7,"pm2_5":38.1,"no2":14.5,"co":450.0,"o3":103.0,"so2":9.0,"mosquito_risk":3,"arthritis_risk":5,"migraine_risk":7,"frizz_risk":1,"updated_at":"2026-06-06T20:13:09.827492+05:30"},{"city":"Cuttack","state":"Odisha","latitude":20.4625,"longitude":85.8828,"temp":32.2,"humidity":79,"rain":0.0,"pressure":999.2,"uv_index":8.95,"wind_gusts":36.0,"aqi":150,"pm10":42.7,"pm2_5":38.1,"no2":14.5,"co":469.0,"o3":103.0,"so2":9.0,"mosquito_risk":3,"arthritis_risk":5,"migraine_risk":7,"frizz_risk":1,"updated_at":"2026-06-06T20:13:09.827499+05:30"},{"city":"Rourkela","state":"Odisha","latitude":22.2604,"longitude":84.8536,"temp":28.0,"humidity":82,"rain":0.0,"pressure":980.8,"uv_index":8.4,"wind_gusts":43.9,"aqi":155,"pm10":91.5,"pm2_5":64.5,"no2":13.4,"co":1041.0,"o3":120.0,"so2":14.7,"mosquito_risk":7,"arthritis_risk":5,"migraine_risk":7,"frizz_risk":1,"updated_at":"2026-06-06T20:13:09.827507+05:30"},{"city":"Raipur","state":"Chhattisgarh","latitude":21.2514,"longitude":81.6296,"temp":35.7,"humidity":33,"rain":0.0,"pressure":969.7,"uv_index":8.8,"wind_gusts":33.5,"aqi":121,"pm10":45.9,"pm2_5":32.7,"no2":29.4,"co":209.0,"o3":77.0,"so2":35.8,"mosquito_risk":0,"arthritis_risk":5,"migraine_risk":10,"frizz_risk":1,"updated_at":"2026-06-06T20:13:09.827514+05:30"},{"city":"Bhilai","state":"Chhattisgarh","latitude":21.1938,"longitude":81.3509,"temp":34.5,"humidity":38,"rain":0.0,"pressure":970.3,"uv_index":8.95,"wind_gusts":43.6,"aqi":111,"pm10":46.2,"pm2_5":32.9,"no2":29.6,"co":270.0,"o3":69.0,"so2":29.6,"mosquito_risk":0,"arthritis_risk":5,"migraine_risk":7,"frizz_risk":1,"updated_at":"2026-06-06T20:13:09.827523+05:30"},{"city":"Guwahati","state":"Assam","latitude":26.1158,"longitude":91.7086,"temp":27.8,"humidity":89,"rain":0.0,"pressure":997.3,"uv_index":8.7,"wind_gusts":26.6,"aqi":88,"pm10":29.0,"pm2_5":27.2,"no2":8.2,"co":433.0,"o3":70.0,"so2":2.4,"mosquito_risk":7,"arthritis_risk":5,"migraine_risk":7,"frizz_risk":1,"updated_at":"2026-06-06T20:13:09.827531+05:30"},{"city":"Agartala","state":"Tripura","latitude":23.8315,"longitude":91.2868,"temp":29.7,"humidity":77,"rain":0.0,"pressure":1001.7,"uv_index":8.8,"wind_gusts":19.4,"aqi":157,"pm10":45.3,"pm2_5":42.6,"no2":19.0,"co":357.0,"o3":86.0,"so2":7.5,"mosquito_risk":7,"arthritis_risk":5,"migraine_risk":4,"frizz_risk":1,"updated_at":"2026-06-06T20:13:09.827539+05:30"},{"city":"Shillong","state":"Meghalaya","latitude":25.5788,"longitude":91.8933,"temp":19.7,"humidity":91,"rain":0.0,"pressure":854.9,"uv_index":8.65,"wind_gusts":20.5,"aqi":82,"pm10":32.1,"pm2_5":29.8,"no2":7.9,"co":474.0,"o3":96.0,"so2":3.6,"mosquito_risk":3,"arthritis_risk":10,"migraine_risk":7,"frizz_risk":1,"updated_at":"2026-06-06T20:13:09.827546+05:30"},{"city":"Imphal","state":"Manipur","latitude":24.817,"longitude":93.9368,"temp":24.4,"humidity":82,"rain":0.0,"pressure":919.8,"uv_index":9.05,"wind_gusts":27.7,"aqi":113,"pm10":41.1,"pm2_5":37.5,"no2":16.4,"co":544.0,"o3":60.0,"so2":4.2,"mosquito_risk":3,"arthritis_risk":5,"migraine_risk":7,"frizz_risk":1,"updated_at":"2026-06-06T20:13:09.827555+05:30"},{"city":"Aizawl","state":"Mizoram","latitude":23.7271,"longitude":92.7176,"temp":22.4,"humidity":86,"rain":0.0,"pressure":889.8,"uv_index":8.45,"wind_gusts":22.3,"aqi":113,"pm10":47.3,"pm2_5":40.3,"no2":7.3,"co":224.0,"o3":86.0,"so2":3.8,"mosquito_risk":3,"arthritis_risk":5,"migraine_risk":7,"frizz_risk":1,"updated_at":"2026-06-06T20:13:09.827562+05:30"},{"city":"Kohima","state":"Nagaland","latitude":25.6701,"longitude":94.1077,"temp":19.9,"humidity":96,"rain":0.1,"pressure":853.3,"uv_index":9.2,"wind_gusts":25.9,"aqi":70,"pm10":27.1,"pm2_5":24.3,"no2":12.2,"co":411.0,"o3":65.0,"so2":1.9,"mosquito_risk":6,"arthritis_risk":10,"migraine_risk":7,"frizz_risk":1,"updated_at":"2026-06-06T20:13:09.827571+05:30"},{"city":"Gangtok","state":"Sikkim","latitude":27.3314,"longitude":88.6138,"temp":18.2,"humidity":89,"rain":0.7,"pressure":835.6,"uv_index":9.1,"wind_gusts":33.8,"aqi":108,"pm10":24.8,"pm2_5":21.5,"no2":10.7,"co":440.0,"o3":123.0,"so2":3.5,"mosquito_risk":6,"arthritis_risk":10,"migraine_risk":7,"frizz_risk":1,"updated_at":"2026-06-06T20:13:09.827579+05:30"},{"city":"Siliguri","state":"West Bengal","latitude":26.7271,"longitude":88.3953,"temp":27.3,"humidity":84,"rain":0.0,"pressure":988.7,"uv_index":8.75,"wind_gusts":21.2,"aqi":131,"pm10":62.6,"pm2_5":55.2,"no2":17.7,"co":1255.0,"o3":128.0,"so2":9.1,"mosquito_risk":7,"arthritis_risk":5,"migraine_risk":7,"frizz_risk":1,"updated_at":"2026-06-06T20:13:13.109611+05:30"},{"city":"Durgapur","state":"West Bengal","latitude":23.5204,"longitude":87.3119,"temp":29.2,"humidity":89,"rain":0.0,"pressure":990.4,"uv_index":9.05,"wind_gusts":36.7,"aqi":197,"pm10":82.4,"pm2_5":74.5,"no2":27.4,"co":488.0,"o3":122.0,"so2":36.8,"mosquito_risk":7,"arthritis_risk":5,"migraine_risk":7,"frizz_risk":1,"updated_at":"2026-06-06T20:13:13.109648+05:30"},{"city":"Asansol","state":"West Bengal","latitude":23.6739,"longitude":86.9524,"temp":29.8,"humidity":84,"rain":0.0,"pressure":988.8,"uv_index":9.05,"wind_gusts":27.4,"aqi":207,"pm10":86.1,"pm2_5":76.1,"no2":29.9,"co":895.0,"o3":127.0,"so2":40.5,"mosquito_risk":7,"arthritis_risk":5,"migraine_risk":7,"frizz_risk":1,"updated_at":"2026-06-06T20:13:13.109660+05:30"},{"city":"Pondicherry","state":"Puducherry","latitude":11.9139,"longitude":79.8145,"temp":32.9,"humidity":48,"rain":0.0,"pressure":1005.5,"uv_index":8.7,"wind_gusts":50.4,"aqi":61,"pm10":17.5,"pm2_5":14.0,"no2":16.4,"co":274.0,"o3":72.0,"so2":6.5,"mosquito_risk":0,"arthritis_risk":5,"migraine_risk":4,"frizz_risk":1,"updated_at":"2026-06-06T20:13:13.109669+05:30"},{"city":"Port Blair","state":"Andaman and Nicobar Islands","latitude":11.6234,"longitude":92.7265,"temp":26.6,"humidity":93,"rain":0.1,"pressure":1007.6,"uv_index":7.85,"wind_gusts":42.1,"aqi":27,"pm10":8.7,"pm2_5":5.5,"no2":0.5,"co":107.0,"o3":57.0,"so2":0.4,"mosquito_risk":10,"arthritis_risk":5,"migraine_risk":4,"frizz_risk":1,"updated_at":"2026-06-06T20:13:13.109679+05:30"},{"city":"Haridwar","state":"Uttarakhand","latitude":29.9457,"longitude":78.1642,"temp":30.2,"humidity":58,"rain":0.0,"pressure":968.2,"uv_index":7.6,"wind_gusts":26.3,"aqi":167,"pm10":53.6,"pm2_5":35.0,"no2":14.8,"co":448.0,"o3":136.0,"so2":13.4,"mosquito_risk":0,"arthritis_risk":5,"migraine_risk":7,"frizz_risk":1,"updated_at":"2026-06-06T20:13:13.109688+05:30"},{"city":"Rishikesh","state":"Uttarakhand","latitude":30.0869,"longitude":78.2676,"temp":28.8,"humidity":56,"rain":0.0,"pressure":961.2,"uv_index":7.7,"wind_gusts":26.3,"aqi":157,"pm10":36.6,"pm2_5":25.8,"no2":8.3,"co":368.0,"o3":152.0,"so2":9.7,"mosquito_risk":4,"arthritis_risk":5,"migraine_risk":7,"frizz_risk":1,"updated_at":"2026-06-06T20:13:13.109696+05:30"},{"city":"Nainital","state":"Uttarakhand","latitude":29.3919,"longitude":79.4542,"temp":16.5,"humidity":76,"rain":0.0,"pressure":802.8,"uv_index":8.3,"wind_gusts":25.9,"aqi":154,"pm10":58.7,"pm2_5":30.4,"no2":11.9,"co":352.0,"o3":127.0,"so2":6.5,"mosquito_risk":3,"arthritis_risk":5,"migraine_risk":7,"frizz_risk":0,"updated_at":"2026-06-06T20:13:13.109705+05:30"},{"city":"Mussoorie","state":"Uttarakhand","latitude":30.4599,"longitude":78.0664,"temp":16.5,"humidity":62,"rain":0.0,"pressure":800.2,"uv_index":8.1,"wind_gusts":40.3,"aqi":168,"pm10":41.4,"pm2_5":30.4,"no2":18.6,"co":328.0,"o3":139.0,"so2":12.5,"mosquito_risk":3,"arthritis_risk":5,"migraine_risk":7,"frizz_risk":0,"updated_at":"2026-06-06T20:13:13.109714+05:30"},{"city":"Dharamshala","state":"Himachal Pradesh","latitude":32.219,"longitude":76.3234,"temp":21.6,"humidity":52,"rain":0.0,"pressure":865.7,"uv_index":8.5,"wind_gusts":42.8,"aqi":107,"pm10":12.8,"pm2_5":9.7,"no2":9.2,"co":296.0,"o3":99.0,"so2":1.2,"mosquito_risk":0,"arthritis_risk":5,"migraine_risk":7,"frizz_risk":0,"updated_at":"2026-06-06T20:13:13.109722+05:30"},{"city":"Dalhousie","state":"Himachal Pradesh","latitude":32.5387,"longitude":75.971,"temp":17.1,"humidity":57,"rain":0.0,"pressure":802.3,"uv_index":8.75,"wind_gusts":31.3,"aqi":137,"pm10":29.5,"pm2_5":21.3,"no2":17.0,"co":403.0,"o3":139.0,"so2":3.3,"mosquito_risk":0,"arthritis_risk":5,"migraine_risk":7,"frizz_risk":0,"updated_at":"2026-06-06T20:13:13.109731+05:30"},{"city":"Patiala","state":"Punjab","latitude":30.3398,"longitude":76.3869,"temp":33.4,"humidity":41,"rain":0.0,"pressure":972.3,"uv_index":7.7,"wind_gusts":33.1,"aqi":196,"pm10":262.6,"pm2_5":63.1,"no2":12.7,"co":336.0,"o3":107.0,"so2":7.0,"mosquito_risk":0,"arthritis_risk":5,"migraine_risk":7,"frizz_risk":1,"updated_at":"2026-06-06T20:13:13.109740+05:30"},{"city":"Bhatinda","state":"Punjab","latitude":30.211,"longitude":74.9455,"temp":35.4,"humidity":29,"rain":0.0,"pressure":977.7,"uv_index":8.35,"wind_gusts":29.5,"aqi":175,"pm10":85.4,"pm2_5":51.9,"no2":26.0,"co":289.0,"o3":119.0,"so2":17.4,"mosquito_risk":0,"arthritis_risk":5,"migraine_risk":10,"frizz_risk":0,"updated_at":"2026-06-06T20:13:13.109748+05:30"},{"city":"Rohtak","state":"Haryana","latitude":28.8955,"longitude":76.6066,"temp":33.8,"humidity":35,"rain":0.0,"pressure":975.9,"uv_index":7.8,"wind_gusts":18.7,"aqi":193,"pm10":328.8,"pm2_5":78.0,"no2":42.0,"co":486.0,"o3":73.0,"so2":9.0,"mosquito_risk":0,"arthritis_risk":5,"migraine_risk":7,"frizz_risk":1,"updated_at":"2026-06-06T20:13:13.109756+05:30"},{"city":"Panipat","state":"Haryana","latitude":29.3909,"longitude":76.9635,"temp":32.3,"humidity":41,"rain":0.0,"pressure":974.5,"uv_index":7.65,"wind_gusts":24.1,"aqi":304,"pm10":570.0,"pm2_5":107.3,"no2":24.9,"co":407.0,"o3":86.0,"so2":9.3,"mosquito_risk":0,"arthritis_risk":5,"migraine_risk":7,"frizz_risk":1,"updated_at":"2026-06-06T20:13:13.109764+05:30"},{"city":"Mathura","state":"Uttar Pradesh","latitude":27.4924,"longitude":77.6737,"temp":31.6,"humidity":53,"rain":0.0,"pressure":981.1,"uv_index":8.05,"wind_gusts":24.5,"aqi":303,"pm10":298.0,"pm2_5":75.2,"no2":31.4,"co":239.0,"o3":75.0,"so2":7.0,"mosquito_risk":0,"arthritis_risk":5,"migraine_risk":7,"frizz_risk":1,"updated_at":"2026-06-06T20:13:13.109772+05:30"},{"city":"Vrindavan","state":"Uttar Pradesh","latitude":27.5823,"longitude":77.7027,"temp":32.0,"humidity":53,"rain":0.0,"pressure":981.4,"uv_index":8.05,"wind_gusts":24.5,"aqi":303,"pm10":298.0,"pm2_5":75.2,"no2":31.4,"co":257.0,"o3":75.0,"so2":7.0,"mosquito_risk":0,"arthritis_risk":5,"migraine_risk":7,"frizz_risk":1,"updated_at":"2026-06-06T20:13:13.109780+05:30"},{"city":"Ayodhya","state":"Uttar Pradesh","latitude":26.7922,"longitude":82.1998,"temp":30.4,"humidity":74,"rain":0.0,"pressure":989.9,"uv_index":8.45,"wind_gusts":26.6,"aqi":153,"pm10":122.9,"pm2_5":65.4,"no2":24.6,"co":627.0,"o3":94.0,"so2":11.1,"mosquito_risk":3,"arthritis_risk":5,"migraine_risk":7,"frizz_risk":1,"updated_at":"2026-06-06T20:13:13.109788+05:30"},{"city":"Ratlam","state":"Madhya Pradesh","latitude":23.3315,"longitude":75.0367,"temp":32.0,"humidity":49,"rain":0.0,"pressure":951.2,"uv_index":8.5,"wind_gusts":38.2,"aqi":87,"pm10":58.7,"pm2_5":31.1,"no2":2.5,"co":188.0,"o3":94.0,"so2":4.4,"mosquito_risk":0,"arthritis_risk":5,"migraine_risk":7,"frizz_risk":1,"updated_at":"2026-06-06T20:13:13.109796+05:30"},{"city":"Sagar","state":"Madhya Pradesh","latitude":23.8388,"longitude":78.7378,"temp":31.9,"humidity":37,"rain":0.0,"pressure":946.3,"uv_index":8.7,"wind_gusts":41.4,"aqi":71,"pm10":42.4,"pm2_5":20.4,"no2":7.9,"co":201.0,"o3":96.0,"so2":4.1,"mosquito_risk":0,"arthritis_risk":5,"migraine_risk":7,"frizz_risk":0,"updated_at":"2026-06-06T20:13:13.109804+05:30"},{"city":"Satna","state":"Madhya Pradesh","latitude":24.6005,"longitude":80.8322,"temp":33.3,"humidity":37,"rain":0.0,"pressure":966.9,"uv_index":8.8,"wind_gusts":33.5,"aqi":122,"pm10":164.8,"pm2_5":57.6,"no2":7.5,"co":226.0,"o3":113.0,"so2":5.4,"mosquito_risk":0,"arthritis_risk":5,"migraine_risk":7,"frizz_risk":1,"updated_at":"2026-06-06T20:13:13.109813+05:30"},{"city":"Akola","state":"Maharashtra","latitude":20.7002,"longitude":77.0082,"temp":31.8,"humidity":54,"rain":0.0,"pressure":971.4,"uv_index":8.8,"wind_gusts":57.6,"aqi":77,"pm10":50.8,"pm2_5":27.0,"no2":5.1,"co":188.0,"o3":94.0,"so2":4.3,"mosquito_risk":0,"arthritis_risk":5,"migraine_risk":7,"frizz_risk":1,"updated_at":"2026-06-06T20:13:13.109822+05:30"},{"city":"Amravati","state":"Maharashtra","latitude":20.9374,"longitude":77.7796,"temp":32.5,"humidity":45,"rain":0.0,"pressure":964.0,"uv_index":8.85,"wind_gusts":43.6,"aqi":79,"pm10":47.3,"pm2_5":26.3,"no2":6.0,"co":178.0,"o3":92.0,"so2":5.0,"mosquito_risk":0,"arthritis_risk":5,"migraine_risk":7,"frizz_risk":1,"updated_at":"2026-06-06T20:13:13.109856+05:30"},{"city":"Latur","state":"Maharashtra","latitude":18.4088,"longitude":76.5604,"temp":30.4,"humidity":46,"rain":0.0,"pressure":936.5,"uv_index":8.75,"wind_gusts":37.4,"aqi":74,"pm10":59.6,"pm2_5":31.3,"no2":15.5,"co":486.0,"o3":70.0,"so2":3.7,"mosquito_risk":0,"arthritis_risk":5,"migraine_risk":7,"frizz_risk":1,"updated_at":"2026-06-06T20:13:13.109866+05:30"},{"city":"Nanded","state":"Maharashtra","latitude":19.1383,"longitude":77.3091,"temp":34.7,"humidity":31,"rain":0.0,"pressure":964.6,"uv_index":8.9,"wind_gusts":32.8,"aqi":81,"pm10":46.8,"pm2_5":27.0,"no2":13.4,"co":408.0,"o3":80.0,"so2":3.7,"mosquito_risk":0,"arthritis_risk":5,"migraine_risk":7,"frizz_risk":0,"updated_at":"2026-06-06T20:13:13.109874+05:30"},{"city":"Gulbarga","state":"Karnataka","latitude":17.3297,"longitude":76.8343,"temp":29.4,"humidity":62,"rain":0.0,"pressure":955.8,"uv_index":8.95,"wind_gusts":40.7,"aqi":72,"pm10":35.7,"pm2_5":21.8,"no2":18.0,"co":197.0,"o3":77.0,"so2":4.6,"mosquito_risk":7,"arthritis_risk":5,"migraine_risk":7,"frizz_risk":1,"updated_at":"2026-06-06T20:13:13.109882+05:30"},{"city":"Bidar","state":"Karnataka","latitude":17.9104,"longitude":77.5199,"temp":29.4,"humidity":59,"rain":0.0,"pressure":932.6,"uv_index":8.35,"wind_gusts":35.3,"aqi":91,"pm10":56.3,"pm2_5":34.9,"no2":29.2,"co":240.0,"o3":71.0,"so2":6.5,"mosquito_risk":4,"arthritis_risk":5,"migraine_risk":7,"frizz_risk":1,"updated_at":"2026-06-06T20:13:13.109890+05:30"},{"city":"Hospet","state":"Karnataka","latitude":15.2689,"longitude":76.3909,"temp":27.3,"humidity":73,"rain":0.0,"pressure":954.6,"uv_index":8.9,"wind_gusts":35.3,"aqi":37,"pm10":6.7,"pm2_5":5.3,"no2":7.2,"co":195.0,"o3":69.0,"so2":1.6,"mosquito_risk":7,"arthritis_risk":5,"migraine_risk":7,"frizz_risk":1,"updated_at":"2026-06-06T20:13:13.109898+05:30"},{"city":"Tirupur","state":"Tamil Nadu","latitude":11.1085,"longitude":77.3411,"temp":25.2,"humidity":82,"rain":0.0,"pressure":974.7,"uv_index":8.95,"wind_gusts":63.4,"aqi":32,"pm10":5.0,"pm2_5":4.8,"no2":9.5,"co":174.0,"o3":43.0,"so2":3.2,"mosquito_risk":7,"arthritis_risk":5,"migraine_risk":7,"frizz_risk":1,"updated_at":"2026-06-06T20:13:13.109904+05:30"},{"city":"Alappuzha","state":"Kerala","latitude":9.4981,"longitude":76.3388,"temp":26.4,"humidity":92,"rain":0.1,"pressure":1010.3,"uv_index":8.15,"wind_gusts":43.9,"aqi":39,"pm10":19.0,"pm2_5":10.2,"no2":6.7,"co":89.0,"o3":46.0,"so2":1.6,"mosquito_risk":10,"arthritis_risk":0,"migraine_risk":4,"frizz_risk":1,"updated_at":"2026-06-06T20:13:13.109912+05:30"},{"city":"Munnar","state":"Kerala","latitude":10.0889,"longitude":77.0595,"temp":16.9,"humidity":100,"rain":0.3,"pressure":856.8,"uv_index":8.75,"wind_gusts":47.5,"aqi":25,"pm10":4.6,"pm2_5":3.7,"no2":6.3,"co":127.0,"o3":42.0,"so2":1.4,"mosquito_risk":6,"arthritis_risk":10,"migraine_risk":7,"frizz_risk":1,"updated_at":"2026-06-06T20:13:13.109920+05:30"},{"city":"Silchar","state":"Assam","latitude":24.8333,"longitude":92.7789,"temp":30.1,"humidity":81,"rain":0.0,"pressure":1000.3,"uv_index":8.9,"wind_gusts":20.5,"aqi":142,"pm10":62.4,"pm2_5":54.7,"no2":14.0,"co":342.0,"o3":106.0,"so2":9.0,"mosquito_risk":3,"arthritis_risk":5,"migraine_risk":4,"frizz_risk":1,"updated_at":"2026-06-06T20:13:13.109928+05:30"},{"city":"Dibrugarh","state":"Assam","latitude":27.4728,"longitude":94.912,"temp":28.6,"humidity":81,"rain":0.0,"pressure":990.8,"uv_index":8.95,"wind_gusts":35.6,"aqi":117,"pm10":55.1,"pm2_5":51.0,"no2":25.2,"co":344.0,"o3":66.0,"so2":5.6,"mosquito_risk":7,"arthritis_risk":5,"migraine_risk":7,"frizz_risk":1,"updated_at":"2026-06-06T20:13:13.109936+05:30"}]