[{"city":"Delhi","state":"Delhi","latitude":28.6139,"longitude":77.209,"temp":29.5,"humidity":39,"rain":0.0,"pressure":981.9,"uv_index":7.2,"wind_gusts":28.4,"aqi":162,"pm10":238.0,"pm2_5":66.8,"mosquito_risk":4,"arthritis_risk":5,"migraine_risk":7,"frizz_risk":0,"updated_at":"2026-04-19T21:09:56.286600+05:30"},{"city":"Mumbai","state":"Maharashtra","latitude":19.076,"longitude":72.8777,"temp":30.0,"humidity":68,"rain":0.0,"pressure":1008.3,"uv_index":7.9,"wind_gusts":25.9,"aqi":100,"pm10":36.7,"pm2_5":20.9,"mosquito_risk":7,"arthritis_risk":0,"migraine_risk":4,"frizz_risk":1,"updated_at":"2026-04-19T21:09:56.286643+05:30"},{"city":"Bangalore","state":"Karnataka","latitude":12.9716,"longitude":77.5946,"temp":28.5,"humidity":38,"rain":0.0,"pressure":912.2,"uv_index":9.55,"wind_gusts":29.2,"aqi":144,"pm10":32.4,"pm2_5":28.8,"mosquito_risk":4,"arthritis_risk":5,"migraine_risk":7,"frizz_risk":0,"updated_at":"2026-04-19T21:09:56.286658+05:30"},{"city":"Hyderabad","state":"Telangana","latitude":17.385,"longitude":78.4867,"temp":28.7,"humidity":64,"rain":0.0,"pressure":953.3,"uv_index":9.25,"wind_gusts":27.0,"aqi":142,"pm10":63.1,"pm2_5":52.5,"mosquito_risk":7,"arthritis_risk":5,"migraine_risk":7,"frizz_risk":1,"updated_at":"2026-04-19T21:09:56.286669+05:30"},{"city":"Chennai","state":"Tamil Nadu","latitude":13.0827,"longitude":80.2707,"temp":28.9,"humidity":80,"rain":0.0,"pressure":1007.4,"uv_index":9.3,"wind_gusts":36.0,"aqi":35,"pm10":12.9,"pm2_5":8.7,"mosquito_risk":7,"arthritis_risk":5,"migraine_risk":4,"frizz_risk":1,"updated_at":"2026-04-19T21:09:56.286681+05:30"},{"city":"Kolkata","state":"West Bengal","latitude":22.5726,"longitude":88.3639,"temp":28.1,"humidity":87,"rain":0.0,"pressure":1004.6,"uv_index":8.9,"wind_gusts":32.4,"aqi":77,"pm10":28.4,"pm2_5":23.6,"mosquito_risk":7,"arthritis_risk":5,"migraine_risk":4,"frizz_risk":1,"updated_at":"2026-04-19T21:09:56.286692+05:30"},{"city":"Pune","state":"Maharashtra","latitude":18.5204,"longitude":73.8567,"temp":29.6,"humidity":54,"rain":0.0,"pressure":949.4,"uv_index":8.6,"wind_gusts":37.1,"aqi":166,"pm10":50.4,"pm2_5":44.8,"mosquito_risk":4,"arthritis_risk":5,"migraine_risk":7,"frizz_risk":1,"updated_at":"2026-04-19T21:09:56.286700+05:30"},{"city":"Ahmedabad","state":"Gujarat","latitude":23.0225,"longitude":72.5714,"temp":31.9,"humidity":26,"rain":0.0,"pressure":1001.3,"uv_index":8.0,"wind_gusts":25.6,"aqi":81,"pm10":24.5,"pm2_5":16.3,"mosquito_risk":0,"arthritis_risk":5,"migraine_risk":4,"frizz_risk":0,"updated_at":"2026-04-19T21:09:56.286708+05:30"},{"city":"Jaipur","state":"Rajasthan","latitude":26.9124,"longitude":75.7873,"temp":32.0,"humidity":15,"rain":0.0,"pressure":959.0,"uv_index":7.8,"wind_gusts":40.3,"aqi":109,"pm10":140.2,"pm2_5":32.6,"mosquito_risk":0,"arthritis_risk":5,"migraine_risk":7,"frizz_risk":0,"updated_at":"2026-04-19T21:09:56.286715+05:30"},{"city":"Lucknow","state":"Uttar Pradesh","latitude":26.8467,"longitude":80.9462,"temp":32.7,"humidity":36,"rain":0.0,"pressure":990.8,"uv_index":7.9,"wind_gusts":37.4,"aqi":133,"pm10":143.0,"pm2_5":41.2,"mosquito_risk":0,"arthritis_risk":5,"migraine_risk":7,"frizz_risk":0,"updated_at":"2026-04-19T21:09:56.286723+05:30"},{"city":"Kanpur","state":"Uttar Pradesh","latitude":26.4499,"longitude":80.3319,"temp":30.0,"humidity":50,"rain":0.0,"pressure":989.3,"uv_index":7.9,"wind_gusts":23.4,"aqi":191,"pm10":269.2,"pm2_5":51.5,"mosquito_risk":4,"arthritis_risk":5,"migraine_risk":7,"frizz_risk":1,"updated_at":"2026-04-19T21:09:56.286729+05:30"},{"city":"Chandigarh","state":"Chandigarh","latitude":30.7333,"longitude":76.7794,"temp":25.4,"humidity":55,"rain":0.0,"pressure":968.0,"uv_index":6.05,"wind_gusts":33.8,"aqi":115,"pm10":41.8,"pm2_5":19.8,"mosquito_risk":4,"arthritis_risk":5,"migraine_risk":7,"frizz_risk":0,"updated_at":"2026-04-19T21:09:56.286736+05:30"},{"city":"Srinagar","state":"Jammu and Kashmir","latitude":34.0837,"longitude":74.7973,"temp":12.1,"humidity":84,"rain":0.0,"pressure":843.7,"uv_index":7.35,"wind_gusts":21.2,"aqi":64,"pm10":42.3,"pm2_5":25.0,"mosquito_risk":3,"arthritis_risk":10,"migraine_risk":7,"frizz_risk":0,"updated_at":"2026-04-19T21:09:56.286744+05:30"},{"city":"Jammu","state":"Jammu and Kashmir","latitude":32.7266,"longitude":74.857,"temp":26.2,"humidity":51,"rain":0.0,"pressure":973.1,"uv_index":5.65,"wind_gusts":32.4,"aqi":60,"pm10":85.7,"pm2_5":39.2,"mosquito_risk":4,"arthritis_risk":5,"migraine_risk":3,"frizz_risk":0,"updated_at":"2026-04-19T21:09:56.286750+05:30"},{"city":"Amritsar","state":"Punjab","latitude":31.634,"longitude":74.8723,"temp":25.7,"humidity":59,"rain":0.0,"pressure":981.0,"uv_index":7.45,"wind_gusts":25.9,"aqi":100,"pm10":68.9,"pm2_5":31.2,"mosquito_risk":4,"arthritis_risk":5,"migraine_risk":7,"frizz_risk":1,"updated_at":"2026-04-19T21:09:56.286757+05:30"},{"city":"Ludhiana","state":"Punjab","latitude":30.901,"longitude":75.8573,"temp":28.5,"humidity":43,"rain":0.0,"pressure":978.6,"uv_index":7.35,"wind_gusts":42.5,"aqi":106,"pm10":77.8,"pm2_5":26.4,"mosquito_risk":4,"arthritis_risk":5,"migraine_risk":7,"frizz_risk":0,"updated_at":"2026-04-19T21:09:56.286765+05:30"},{"city":"Jalandhar","state":"Punjab","latitude":31.326,"longitude":75.5762,"temp":27.1,"humidity":50,"rain":0.0,"pressure":979.8,"uv_index":6.6,"wind_gusts":28.1,"aqi":103,"pm10":89.4,"pm2_5":25.1,"mosquito_risk":4,"arthritis_risk":5,"migraine_risk":7,"frizz_risk":0,"updated_at":"2026-04-19T21:09:56.286771+05:30"},{"city":"Dehradun","state":"Uttarakhand","latitude":30.6284,"longitude":78.0322,"temp":18.1,"humidity":50,"rain":0.0,"pressure":832.0,"uv_index":6.3,"wind_gusts":46.1,"aqi":86,"pm10":43.2,"pm2_5":15.0,"mosquito_risk":0,"arthritis_risk":5,"migraine_risk":7,"frizz_risk":0,"updated_at":"2026-04-19T21:09:56.286778+05:30"},{"city":"Shimla","state":"Himachal Pradesh","latitude":31.1048,"longitude":77.1734,"temp":16.9,"humidity":48,"rain":0.0,"pressure":786.5,"uv_index":6.7,"wind_gusts":45.7,"aqi":103,"pm10":45.3,"pm2_5":15.2,"mosquito_risk":0,"arthritis_risk":5,"migraine_risk":7,"frizz_risk":0,"updated_at":"2026-04-19T21:09:56.286784+05:30"},{"city":"Manali","state":"Himachal Pradesh","latitude":32.2396,"longitude":77.1887,"temp":14.4,"humidity":74,"rain":0.1,"pressure":823.6,"uv_index":6.95,"wind_gusts":40.7,"aqi":84,"pm10":16.1,"pm2_5":6.5,"mosquito_risk":6,"arthritis_risk":5,"migraine_risk":7,"frizz_risk":0,"updated_at":"2026-04-19T21:09:56.286791+05:30"},{"city":"Gurgaon","state":"Haryana","latitude":28.4595,"longitude":77.0266,"temp":26.7,"humidity":50,"rain":0.0,"pressure":980.3,"uv_index":7.35,"wind_gusts":25.2,"aqi":532,"pm10":761.8,"pm2_5":109.0,"mosquito_risk":4,"arthritis_risk":5,"migraine_risk":7,"frizz_risk":0,"updated_at":"2026-04-19T21:09:56.286797+05:30"},{"city":"Noida","state":"Uttar Pradesh","latitude":28.5355,"longitude":77.391,"temp":29.6,"humidity":39,"rain":0.0,"pressure":983.4,"uv_index":7.35,"wind_gusts":26.6,"aqi":532,"pm10":761.8,"pm2_5":109.0,"mosquito_risk":4,"arthritis_risk":5,"migraine_risk":7,"frizz_risk":0,"updated_at":"2026-04-19T21:09:56.286803+05:30"},{"city":"Ghaziabad","state":"Uttar Pradesh","latitude":28.6692,"longitude":77.4538,"temp":28.5,"humidity":42,"rain":0.0,"pressure":981.5,"uv_index":7.3,"wind_gusts":29.2,"aqi":151,"pm10":150.9,"pm2_5":61.5,"mosquito_risk":4,"arthritis_risk":5,"migraine_risk":7,"frizz_risk":0,"updated_at":"2026-04-19T21:09:56.286810+05:30"},{"city":"Faridabad","state":"Haryana","latitude":28.4089,"longitude":77.3178,"temp":29.5,"humidity":37,"rain":0.0,"pressure":982.6,"uv_index":7.3,"wind_gusts":28.8,"aqi":532,"pm10":761.8,"pm2_5":109.0,"mosquito_risk":4,"arthritis_risk":5,"migraine_risk":7,"frizz_risk":0,"updated_at":"2026-04-19T21:09:56.286816+05:30"},{"city":"Meerut","state":"Uttar Pradesh","latitude":28.9845,"longitude":77.7064,"temp":28.2,"humidity":41,"rain":0.0,"pressure":980.2,"uv_index":7.05,"wind_gusts":31.7,"aqi":151,"pm10":150.9,"pm2_5":61.5,"mosquito_risk":4,"arthritis_risk":5,"migraine_risk":7,"frizz_risk":0,"updated_at":"2026-04-19T21:09:56.286822+05:30"},{"city":"Agra","state":"Uttar Pradesh","latitude":27.1767,"longitude":78.0081,"temp":30.1,"humidity":39,"rain":0.0,"pressure":985.9,"uv_index":7.55,"wind_gusts":27.7,"aqi":418,"pm10":534.6,"pm2_5":95.5,"mosquito_risk":0,"arthritis_risk":5,"migraine_risk":7,"frizz_risk":0,"updated_at":"2026-04-19T21:09:56.286831+05:30"},{"city":"Varanasi","state":"Uttar Pradesh","latitude":25.3176,"longitude":82.9739,"temp":31.9,"humidity":31,"rain":0.0,"pressure":994.5,"uv_index":8.45,"wind_gusts":29.5,"aqi":135,"pm10":102.0,"pm2_5":43.9,"mosquito_risk":0,"arthritis_risk":5,"migraine_risk":7,"frizz_risk":0,"updated_at":"2026-04-19T21:09:56.286837+05:30"},{"city":"Prayagraj","state":"Uttar Pradesh","latitude":25.4358,"longitude":81.8463,"temp":32.3,"humidity":36,"rain":0.0,"pressure":993.5,"uv_index":8.35,"wind_gusts":29.9,"aqi":123,"pm10":95.5,"pm2_5":38.3,"mosquito_risk":0,"arthritis_risk":5,"migraine_risk":7,"frizz_risk":0,"updated_at":"2026-04-19T21:09:56.286844+05:30"},{"city":"Gorakhpur","state":"Uttar Pradesh","latitude":26.7606,"longitude":83.3732,"temp":31.1,"humidity":59,"rain":0.0,"pressure":994.1,"uv_index":8.3,"wind_gusts":32.4,"aqi":158,"pm10":78.0,"pm2_5":38.9,"mosquito_risk":0,"arthritis_risk":5,"migraine_risk":7,"frizz_risk":1,"updated_at":"2026-04-19T21:09:56.286850+05:30"},{"city":"Bareilly","state":"Uttar Pradesh","latitude":28.367,"longitude":79.4304,"temp":28.8,"humidity":48,"rain":0.0,"pressure":984.6,"uv_index":7.35,"wind_gusts":32.8,"aqi":125,"pm10":35.9,"pm2_5":19.6,"mosquito_risk":4,"arthritis_risk":5,"migraine_risk":7,"frizz_risk":1,"updated_at":"2026-04-19T21:09:56.286857+05:30"},{"city":"Aligarh","state":"Uttar Pradesh","latitude":27.8974,"longitude":78.088,"temp":29.3,"humidity":36,"rain":0.0,"pressure":983.6,"uv_index":7.5,"wind_gusts":39.6,"aqi":231,"pm10":489.9,"pm2_5":80.1,"mosquito_risk":4,"arthritis_risk":5,"migraine_risk":7,"frizz_risk":0,"updated_at":"2026-04-19T21:09:56.286863+05:30"},{"city":"Moradabad","state":"Uttar Pradesh","latitude":28.8386,"longitude":78.7733,"temp":28.5,"humidity":45,"rain":0.0,"pressure":982.1,"uv_index":7.35,"wind_gusts":37.1,"aqi":119,"pm10":62.9,"pm2_5":32.1,"mosquito_risk":4,"arthritis_risk":5,"migraine_risk":7,"frizz_risk":0,"updated_at":"2026-04-19T21:09:56.286869+05:30"},{"city":"Saharanpur","state":"Uttar Pradesh","latitude":29.9637,"longitude":77.546,"temp":25.9,"humidity":55,"rain":0.0,"pressure":974.6,"uv_index":6.5,"wind_gusts":36.0,"aqi":106,"pm10":99.2,"pm2_5":39.8,"mosquito_risk":4,"arthritis_risk":5,"migraine_risk":7,"frizz_risk":1,"updated_at":"2026-04-19T21:09:56.286877+05:30"},{"city":"Jhansi","state":"Uttar Pradesh","latitude":25.4484,"longitude":78.5685,"temp":31.9,"humidity":41,"rain":0.0,"pressure":976.3,"uv_index":8.25,"wind_gusts":32.0,"aqi":95,"pm10":26.0,"pm2_5":16.4,"mosquito_risk":0,"arthritis_risk":5,"migraine_risk":7,"frizz_risk":1,"updated_at":"2026-04-19T21:09:59.504410+05:30"},{"city":"Surat","state":"Gujarat","latitude":21.1702,"longitude":72.8311,"temp":28.5,"humidity":73,"rain":0.0,"pressure":1006.3,"uv_index":7.75,"wind_gusts":25.2,"aqi":96,"pm10":44.4,"pm2_5":35.2,"mosquito_risk":7,"arthritis_risk":5,"migraine_risk":4,"frizz_risk":1,"updated_at":"2026-04-19T21:09:59.504441+05:30"},{"city":"Vadodara","state":"Gujarat","latitude":22.3072,"longitude":73.1812,"temp":32.1,"humidity":37,"rain":0.0,"pressure":1003.4,"uv_index":8.15,"wind_gusts":29.9,"aqi":120,"pm10":49.5,"pm2_5":37.7,"mosquito_risk":0,"arthritis_risk":5,"migraine_risk":4,"frizz_risk":0,"updated_at":"2026-04-19T21:09:59.504454+05:30"},{"city":"Rajkot","state":"Gujarat","latitude":22.3039,"longitude":70.8022,"temp":28.9,"humidity":30,"rain":0.0,"pressure":994.4,"uv_index":7.25,"wind_gusts":27.0,"aqi":89,"pm10":20.0,"pm2_5":12.4,"mosquito_risk":4,"arthritis_risk":5,"migraine_risk":7,"frizz_risk":0,"updated_at":"2026-04-19T21:09:59.504461+05:30"},{"city":"Thane","state":"Maharashtra","latitude":19.2183,"longitude":72.9781,"temp":28.5,"humidity":75,"rain":0.0,"pressure":1007.8,"uv_index":8.05,"wind_gusts":37.4,"aqi":100,"pm10":36.7,"pm2_5":20.9,"mosquito_risk":7,"arthritis_risk":5,"migraine_risk":4,"frizz_risk":1,"updated_at":"2026-04-19T21:09:59.504469+05:30"},{"city":"Nagpur","state":"Maharashtra","latitude":21.1458,"longitude":79.0882,"temp":32.4,"humidity":39,"rain":0.0,"pressure":971.8,"uv_index":8.9,"wind_gusts":21.6,"aqi":140,"pm10":28.9,"pm2_5":26.5,"mosquito_risk":0,"arthritis_risk":5,"migraine_risk":7,"frizz_risk":1,"updated_at":"2026-04-19T21:09:59.504475+05:30"},{"city":"Nashik","state":"Maharashtra","latitude":19.9975,"longitude":73.7898,"temp":28.5,"humidity":45,"rain":0.0,"pressure":946.8,"uv_index":8.05,"wind_gusts":33.5,"aqi":133,"pm10":40.3,"pm2_5":32.4,"mosquito_risk":4,"arthritis_risk":5,"migraine_risk":7,"frizz_risk":0,"updated_at":"2026-04-19T21:09:59.504482+05:30"},{"city":"Aurangabad","state":"Maharashtra","latitude":19.8762,"longitude":75.3433,"temp":30.0,"humidity":45,"rain":0.0,"pressure":945.3,"uv_index":9.0,"wind_gusts":46.8,"aqi":141,"pm10":39.8,"pm2_5":34.9,"mosquito_risk":4,"arthritis_risk":5,"migraine_risk":7,"frizz_risk":1,"updated_at":"2026-04-19T21:09:59.504488+05:30"},{"city":"Solapur","state":"Maharashtra","latitude":17.6599,"longitude":75.9064,"temp":28.5,"humidity":61,"rain":0.0,"pressure":957.9,"uv_index":8.75,"wind_gusts":52.6,"aqi":158,"pm10":66.1,"pm2_5":59.1,"mosquito_risk":7,"arthritis_risk":5,"migraine_risk":7,"frizz_risk":1,"updated_at":"2026-04-19T21:09:59.504494+05:30"},{"city":"Kolhapur","state":"Maharashtra","latitude":16.705,"longitude":74.2433,"temp":25.8,"humidity":81,"rain":0.0,"pressure":948.6,"uv_index":9.0,"wind_gusts":45.7,"aqi":146,"pm10":42.3,"pm2_5":36.8,"mosquito_risk":7,"arthritis_risk":5,"migraine_risk":7,"frizz_risk":1,"updated_at":"2026-04-19T21:09:59.504500+05:30"},{"city":"Goa","state":"Goa","latitude":15.2993,"longitude":74.124,"temp":29.1,"humidity":76,"rain":0.0,"pressure":998.5,"uv_index":9.0,"wind_gusts":28.8,"aqi":86,"pm10":50.2,"pm2_5":27.2,"mosquito_risk":7,"arthritis_risk":5,"migraine_risk":7,"frizz_risk":1,"updated_at":"2026-04-19T21:09:59.504505+05:30"},{"city":"Jodhpur","state":"Rajasthan","latitude":26.2389,"longitude":73.0243,"temp":31.6,"humidity":28,"rain":0.0,"pressure":982.0,"uv_index":8.15,"wind_gusts":28.4,"aqi":98,"pm10":142.5,"pm2_5":23.6,"mosquito_risk":0,"arthritis_risk":5,"migraine_risk":7,"frizz_risk":0,"updated_at":"2026-04-19T21:09:59.504511+05:30"},{"city":"Udaipur","state":"Rajasthan","latitude":24.5854,"longitude":73.7125,"temp":30.0,"humidity":30,"rain":0.0,"pressure":947.1,"uv_index":8.6,"wind_gusts":40.3,"aqi":89,"pm10":15.0,"pm2_5":7.8,"mosquito_risk":4,"arthritis_risk":5,"migraine_risk":7,"frizz_risk":0,"updated_at":"2026-04-19T21:09:59.504517+05:30"},{"city":"Kota","state":"Rajasthan","latitude":25.2138,"longitude":75.8648,"temp":33.6,"humidity":23,"rain":0.0,"pressure":977.4,"uv_index":8.2,"wind_gusts":36.7,"aqi":99,"pm10":25.4,"pm2_5":23.6,"mosquito_risk":0,"arthritis_risk":5,"migraine_risk":7,"frizz_risk":0,"updated_at":"2026-04-19T21:09:59.504523+05:30"},{"city":"Bikaner","state":"Rajasthan","latitude":28.0229,"longitude":73.3119,"temp":33.4,"humidity":26,"rain":0.0,"pressure":980.9,"uv_index":7.9,"wind_gusts":25.2,"aqi":108,"pm10":43.0,"pm2_5":12.4,"mosquito_risk":0,"arthritis_risk":5,"migraine_risk":7,"frizz_risk":0,"updated_at":"2026-04-19T21:09:59.504529+05:30"},{"city":"Ajmer","state":"Rajasthan","latitude":26.4499,"longitude":74.6399,"temp":28.8,"humidity":26,"rain":0.0,"pressure":954.2,"uv_index":7.65,"wind_gusts":32.4,"aqi":98,"pm10":25.6,"pm2_5":13.5,"mosquito_risk":4,"arthritis_risk":5,"migraine_risk":7,"frizz_risk":0,"updated_at":"2026-04-19T21:09:59.504535+05:30"},{"city":"Gwalior","state":"Madhya Pradesh","latitude":26.2183,"longitude":78.1828,"temp":31.5,"humidity":33,"rain":0.0,"pressure":981.4,"uv_index":7.6,"wind_gusts":29.9,"aqi":104,"pm10":24.7,"pm2_5":14.6,"mosquito_risk":0,"arthritis_risk":5,"migraine_risk":7,"frizz_risk":0,"updated_at":"2026-04-19T21:09:59.504541+05:30"},{"city":"Indore","state":"Madhya Pradesh","latitude":22.7196,"longitude":75.8577,"temp":30.0,"humidity":40,"rain":0.0,"pressure":948.4,"uv_index":8.6,"wind_gusts":31.0,"aqi":108,"pm10":37.1,"pm2_5":33.5,"mosquito_risk":4,"arthritis_risk":5,"migraine_risk":7,"frizz_risk":0,"updated_at":"2026-04-19T21:09:59.504546+05:30"},{"city":"Bhopal","state":"Madhya Pradesh","latitude":23.2599,"longitude":77.4126,"temp":32.0,"humidity":31,"rain":0.0,"pressure":953.5,"uv_index":8.6,"wind_gusts":34.9,"aqi":127,"pm10":27.6,"pm2_5":19.9,"mosquito_risk":0,"arthritis_risk":5,"migraine_risk":7,"frizz_risk":0,"updated_at":"2026-04-19T21:09:59.504552+05:30"},{"city":"Jabalpur","state":"Madhya Pradesh","latitude":23.1815,"longitude":79.9864,"temp":32.1,"humidity":39,"rain":0.0,"pressure":960.4,"uv_index":8.75,"wind_gusts":21.2,"aqi":122,"pm10":35.2,"pm2_5":24.6,"mosquito_risk":0,"arthritis_risk":5,"migraine_risk":7,"frizz_risk":1,"updated_at":"2026-04-19T21:09:59.504558+05:30"},{"city":"Ujjain","state":"Madhya Pradesh","latitude":23.1765,"longitude":75.7885,"temp":30.8,"humidity":37,"rain":0.0,"pressure":954.1,"uv_index":8.5,"wind_gusts":33.5,"aqi":99,"pm10":32.9,"pm2_5":30.0,"mosquito_risk":0,"arthritis_risk":5,"migraine_risk":7,"frizz_risk":0,"updated_at":"2026-04-19T21:09:59.504564+05:30"},{"city":"Visakhapatnam","state":"Andhra Pradesh","latitude":17.6868,"longitude":83.2185,"temp":28.1,"humidity":86,"rain":0.0,"pressure":1004.7,"uv_index":9.15,"wind_gusts":36.7,"aqi":62,"pm10":20.0,"pm2_5":14.1,"mosquito_risk":7,"arthritis_risk":5,"migraine_risk":4,"frizz_risk":1,"updated_at":"2026-04-19T21:09:59.504570+05:30"},{"city":"Vijayawada","state":"Andhra Pradesh","latitude":16.5062,"longitude":80.648,"temp":29.0,"humidity":75,"rain":0.0,"pressure":1003.5,"uv_index":9.2,"wind_gusts":31.0,"aqi":53,"pm10":15.9,"pm2_5":12.4,"mosquito_risk":7,"arthritis_risk":5,"migraine_risk":4,"frizz_risk":1,"updated_at":"2026-04-19T21:09:59.504576+05:30"},{"city":"Guntur","state":"Andhra Pradesh","latitude":16.3067,"longitude":80.4365,"temp":28.2,"humidity":81,"rain":0.0,"pressure":1004.5,"uv_index":9.25,"wind_gusts":34.6,"aqi":64,"pm10":17.6,"pm2_5":13.9,"mosquito_risk":7,"arthritis_risk":5,"migraine_risk":4,"frizz_risk":1,"updated_at":"2026-04-19T21:09:59.504582+05:30"},{"city":"Nellore","state":"Andhra Pradesh","latitude":14.4426,"longitude":79.9865,"temp":29.0,"humidity":74,"rain":0.0,"pressure":1005.5,"uv_index":9.25,"wind_gusts":33.8,"aqi":79,"pm10":12.4,"pm2_5":9.5,"mosquito_risk":7,"arthritis_risk":5,"migraine_risk":4,"frizz_risk":1,"updated_at":"2026-04-19T21:09:59.504588+05:30"},{"city":"Kurnool","state":"Andhra Pradesh","latitude":15.8281,"longitude":78.0373,"temp":33.7,"humidity":41,"rain":0.0,"pressure":976.7,"uv_index":9.2,"wind_gusts":32.4,"aqi":135,"pm10":55.6,"pm2_5":44.9,"mosquito_risk":0,"arthritis_risk":5,"migraine_risk":7,"frizz_risk":1,"updated_at":"2026-04-19T21:09:59.504594+05:30"},{"city":"Kakinada","state":"Andhra Pradesh","latitude":16.9891,"longitude":82.2475,"temp":28.1,"humidity":81,"rain":0.0,"pressure":1008.5,"uv_index":9.2,"wind_gusts":32.0,"aqi":49,"pm10":16.0,"pm2_5":9.5,"mosquito_risk":7,"arthritis_risk":0,"migraine_risk":4,"frizz_risk":1,"updated_at":"2026-04-19T21:09:59.504600+05:30"},{"city":"Tirupati","state":"Andhra Pradesh","latitude":13.6288,"longitude":79.4192,"temp":30.3,"humidity":60,"rain":0.0,"pressure":991.7,"uv_index":9.35,"wind_gusts":34.6,"aqi":105,"pm10":21.1,"pm2_5":19.4,"mosquito_risk":0,"arthritis_risk":5,"migraine_risk":7,"frizz_risk":1,"updated_at":"2026-04-19T21:09:59.504605+05:30"},{"city":"Warangal","state":"Telangana","latitude":17.9689,"longitude":79.5941,"temp":33.1,"humidity":51,"rain":0.0,"pressure":978.7,"uv_index":9.15,"wind_gusts":30.6,"aqi":109,"pm10":44.8,"pm2_5":39.9,"mosquito_risk":0,"arthritis_risk":5,"migraine_risk":7,"frizz_risk":1,"updated_at":"2026-04-19T21:09:59.504611+05:30"},{"city":"Nizamabad","state":"Telangana","latitude":18.6725,"longitude":78.0941,"temp":33.5,"humidity":39,"rain":0.0,"pressure":964.8,"uv_index":8.95,"wind_gusts":41.0,"aqi":151,"pm10":64.0,"pm2_5":55.9,"mosquito_risk":0,"arthritis_risk":5,"migraine_risk":7,"frizz_risk":1,"updated_at":"2026-04-19T21:09:59.504617+05:30"},{"city":"Mysore","state":"Karnataka","latitude":12.2958,"longitude":76.6396,"temp":26.3,"humidity":74,"rain":0.0,"pressure":929.0,"uv_index":9.45,"wind_gusts":43.6,"aqi":130,"pm10":40.5,"pm2_5":36.1,"mosquito_risk":7,"arthritis_risk":5,"migraine_risk":7,"frizz_risk":1,"updated_at":"2026-04-19T21:09:59.504622+05:30"},{"city":"Mangalore","state":"Karnataka","latitude":12.9141,"longitude":74.856,"temp":29.9,"humidity":78,"rain":0.0,"pressure":1007.2,"uv_index":9.1,"wind_gusts":22.3,"aqi":72,"pm10":44.2,"pm2_5":26.8,"mosquito_risk":7,"arthritis_risk":5,"migraine_risk":4,"frizz_risk":1,"updated_at":"2026-04-19T21:09:59.504628+05:30"},{"city":"Hubli-Dharwad","state":"Karnataka","latitude":15.3647,"longitude":75.124,"temp":26.1,"humidity":81,"rain":0.0,"pressure":941.4,"uv_index":9.2,"wind_gusts":32.0,"aqi":114,"pm10":34.7,"pm2_5":28.1,"mosquito_risk":7,"arthritis_risk":5,"migraine_risk":7,"frizz_risk":1,"updated_at":"2026-04-19T21:09:59.504633+05:30"},{"city":"Belgaum","state":"Karnataka","latitude":15.8497,"longitude":74.4977,"temp":24.5,"humidity":91,"rain":0.0,"pressure":926.5,"uv_index":9.25,"wind_gusts":32.4,"aqi":106,"pm10":41.1,"pm2_5":31.5,"mosquito_risk":3,"arthritis_risk":5,"migraine_risk":7,"frizz_risk":1,"updated_at":"2026-04-19T21:10:19.845398+05:30"},{"city":"Coimbatore","state":"Tamil Nadu","latitude":11.0168,"longitude":76.9558,"temp":26.4,"humidity":80,"rain":0.0,"pressure":962.3,"uv_index":9.4,"wind_gusts":55.4,"aqi":130,"pm10":52.6,"pm2_5":48.7,"mosquito_risk":7,"arthritis_risk":5,"migraine_risk":7,"frizz_risk":1,"updated_at":"2026-04-19T21:10:19.845425+05:30"},{"city":"Madurai","state":"Tamil Nadu","latitude":9.9252,"longitude":78.1198,"temp":29.9,"humidity":65,"rain":0.0,"pressure":993.6,"uv_index":9.3,"wind_gusts":41.8,"aqi":107,"pm10":16.4,"pm2_5":15.0,"mosquito_risk":7,"arthritis_risk":5,"migraine_risk":7,"frizz_risk":1,"updated_at":"2026-04-19T21:10:19.845434+05:30"},{"city":"Trichy","state":"Tamil Nadu","latitude":10.7905,"longitude":78.7047,"temp":29.8,"humidity":69,"rain":0.0,"pressure":999.8,"uv_index":9.3,"wind_gusts":28.4,"aqi":70,"pm10":17.6,"pm2_5":16.2,"mosquito_risk":7,"arthritis_risk":5,"migraine_risk":7,"frizz_risk":1,"updated_at":"2026-04-19T21:10:19.845446+05:30"},{"city":"Salem","state":"Tamil Nadu","latitude":11.6643,"longitude":78.146,"temp":30.6,"humidity":47,"rain":0.0,"pressure":976.9,"uv_index":9.35,"wind_gusts":21.6,"aqi":113,"pm10":23.5,"pm2_5":19.8,"mosquito_risk":0,"arthritis_risk":5,"migraine_risk":7,"frizz_risk":1,"updated_at":"2026-04-19T21:10:19.845453+05:30"},{"city":"Tirunelveli","state":"Tamil Nadu","latitude":8.7139,"longitude":77.7567,"temp":30.2,"humidity":62,"rain":0.0,"pressure":1003.4,"uv_index":9.25,"wind_gusts":51.5,"aqi":98,"pm10":17.0,"pm2_5":14.6,"mosquito_risk":3,"arthritis_risk":5,"migraine_risk":4,"frizz_risk":1,"updated_at":"2026-04-19T21:10:19.845459+05:30"},{"city":"Vellore","state":"Tamil Nadu","latitude":12.9165,"longitude":79.1325,"temp":28.6,"humidity":69,"rain":0.0,"pressure":984.6,"uv_index":9.4,"wind_gusts":29.9,"aqi":102,"pm10":25.8,"pm2_5":24.1,"mosquito_risk":7,"arthritis_risk":5,"migraine_risk":7,"frizz_risk":1,"updated_at":"2026-04-19T21:10:19.845465+05:30"},{"city":"Erode","state":"Tamil Nadu","latitude":11.341,"longitude":77.7172,"temp":32.8,"humidity":39,"rain":0.0,"pressure":988.1,"uv_index":9.35,"wind_gusts":28.4,"aqi":129,"pm10":26.0,"pm2_5":21.7,"mosquito_risk":0,"arthritis_risk":5,"migraine_risk":7,"frizz_risk":1,"updated_at":"2026-04-19T21:10:19.845471+05:30"},{"city":"Kochi","state":"Kerala","latitude":9.9312,"longitude":76.2673,"temp":28.9,"humidity":82,"rain":0.0,"pressure":1009.3,"uv_index":9.1,"wind_gusts":25.2,"aqi":79,"pm10":27.5,"pm2_5":24.0,"mosquito_risk":7,"arthritis_risk":0,"migraine_risk":4,"frizz_risk":1,"updated_at":"2026-04-19T21:10:19.845478+05:30"},{"city":"Thiruvananthapuram","state":"Kerala","latitude":8.5241,"longitude":76.9366,"temp":28.8,"humidity":82,"rain":0.0,"pressure":1008.5,"uv_index":9.1,"wind_gusts":27.4,"aqi":67,"pm10":25.1,"pm2_5":16.6,"mosquito_risk":7,"arthritis_risk":0,"migraine_risk":4,"frizz_risk":1,"updated_at":"2026-04-19T21:10:19.845485+05:30"},{"city":"Kozhikode","state":"Kerala","latitude":11.2588,"longitude":75.7804,"temp":29.8,"humidity":81,"rain":0.0,"pressure":1008.2,"uv_index":9.1,"wind_gusts":31.3,"aqi":64,"pm10":33.8,"pm2_5":21.1,"mosquito_risk":7,"arthritis_risk":0,"migraine_risk":4,"frizz_risk":1,"updated_at":"2026-04-19T21:10:19.845490+05:30"},{"city":"Thrissur","state":"Kerala","latitude":10.5276,"longitude":76.2144,"temp":28.9,"humidity":84,"rain":0.0,"pressure":1007.4,"uv_index":9.15,"wind_gusts":33.8,"aqi":66,"pm10":25.1,"pm2_5":20.7,"mosquito_risk":7,"arthritis_risk":5,"migraine_risk":4,"frizz_risk":1,"updated_at":"2026-04-19T21:10:19.845497+05:30"},{"city":"Kannur","state":"Kerala","latitude":11.8745,"longitude":75.3704,"temp":29.7,"humidity":78,"rain":0.0,"pressure":1007.5,"uv_index":9.1,"wind_gusts":34.2,"aqi":68,"pm10":34.2,"pm2_5":24.7,"mosquito_risk":7,"arthritis_risk":5,"migraine_risk":4,"frizz_risk":1,"updated_at":"2026-04-19T21:10:19.845503+05:30"},{"city":"Patna","state":"Bihar","latitude":25.5941,"longitude":85.1376,"temp":32.0,"humidity":58,"rain":0.0,"pressure":998.0,"uv_index":8.6,"wind_gusts":27.0,"aqi":171,"pm10":67.3,"pm2_5":54.2,"mosquito_risk":0,"arthritis_risk":5,"migraine_risk":7,"frizz_risk":1,"updated_at":"2026-04-19T21:10:19.845510+05:30"},{"city":"Gaya","state":"Bihar","latitude":24.7914,"longitude":85.0002,"temp":33.0,"humidity":35,"rain":0.0,"pressure":991.1,"uv_index":8.7,"wind_gusts":34.9,"aqi":141,"pm10":85.2,"pm2_5":44.0,"mosquito_risk":0,"arthritis_risk":5,"migraine_risk":7,"frizz_risk":0,"updated_at":"2026-04-19T21:10:19.845515+05:30"},{"city":"Muzaffarpur","state":"Bihar","latitude":26.1209,"longitude":85.3647,"temp":29.6,"humidity":68,"rain":0.0,"pressure":998.2,"uv_index":8.6,"wind_gusts":29.5,"aqi":162,"pm10":73.1,"pm2_5":57.5,"mosquito_risk":7,"arthritis_risk":5,"migraine_risk":7,"frizz_risk":1,"updated_at":"2026-04-19T21:10:19.845521+05:30"},{"city":"Bhagalpur","state":"Bihar","latitude":25.2425,"longitude":87.0117,"temp":29.0,"humidity":74,"rain":0.0,"pressure":999.5,"uv_index":8.6,"wind_gusts":27.0,"aqi":193,"pm10":54.7,"pm2_5":50.1,"mosquito_risk":7,"arthritis_risk":5,"migraine_risk":7,"frizz_risk":1,"updated_at":"2026-04-19T21:10:19.845526+05:30"},{"city":"Ranchi","state":"Jharkhand","latitude":23.3441,"longitude":85.3096,"temp":29.9,"humidity":30,"rain":0.0,"pressure":937.3,"uv_index":9.15,"wind_gusts":45.0,"aqi":146,"pm10":71.5,"pm2_5":32.6,"mosquito_risk":4,"arthritis_risk":5,"migraine_risk":7,"frizz_risk":0,"updated_at":"2026-04-19T21:10:19.845533+05:30"},{"city":"Jamshedpur","state":"Jharkhand","latitude":22.8046,"longitude":86.2029,"temp":30.5,"humidity":69,"rain":0.0,"pressure":989.3,"uv_index":9.0,"wind_gusts":37.1,"aqi":190,"pm10":65.2,"pm2_5":54.5,"mosquito_risk":3,"arthritis_risk":5,"migraine_risk":7,"frizz_risk":1,"updated_at":"2026-04-19T21:10:19.845538+05:30"},{"city":"Dhanbad","state":"Jharkhand","latitude":23.7957,"longitude":86.4304,"temp":31.4,"humidity":66,"rain":0.0,"pressure":978.1,"uv_index":8.95,"wind_gusts":33.8,"aqi":156,"pm10":112.9,"pm2_5":73.3,"mosquito_risk":3,"arthritis_risk":5,"migraine_risk":7,"frizz_risk":1,"updated_at":"2026-04-19T21:10:19.845544+05:30"},{"city":"Bokaro","state":"Jharkhand","latitude":23.6693,"longitude":86.1511,"temp":31.1,"humidity":72,"rain":0.0,"pressure":982.1,"uv_index":8.95,"wind_gusts":42.1,"aqi":140,"pm10":113.9,"pm2_5":65.7,"mosquito_risk":3,"arthritis_risk":5,"migraine_risk":7,"frizz_risk":1,"updated_at":"2026-04-19T21:10:19.845550+05:30"},{"city":"Bhubaneswar","state":"Odisha","latitude":20.2961,"longitude":85.8245,"temp":27.5,"humidity":88,"rain":0.0,"pressure":1002.1,"uv_index":9.1,"wind_gusts":34.2,"aqi":69,"pm10":24.7,"pm2_5":20.0,"mosquito_risk":7,"arthritis_risk":5,"migraine_risk":4,"frizz_risk":1,"updated_at":"2026-04-19T21:10:19.845555+05:30"},{"city":"Cuttack","state":"Odisha","latitude":20.4625,"longitude":85.8828,"temp":28.2,"humidity":85,"rain":0.0,"pressure":1003.7,"uv_index":9.15,"wind_gusts":34.6,"aqi":69,"pm10":24.7,"pm2_5":20.0,"mosquito_risk":7,"arthritis_risk":5,"migraine_risk":4,"frizz_risk":1,"updated_at":"2026-04-19T21:10:19.845561+05:30"},{"city":"Rourkela","state":"Odisha","latitude":22.2604,"longitude":84.8536,"temp":32.5,"humidity":59,"rain":0.0,"pressure":983.5,"uv_index":8.9,"wind_gusts":43.2,"aqi":207,"pm10":72.6,"pm2_5":57.3,"mosquito_risk":0,"arthritis_risk":5,"migraine_risk":7,"frizz_risk":1,"updated_at":"2026-04-19T21:10:19.845566+05:30"},{"city":"Raipur","state":"Chhattisgarh","latitude":21.2514,"longitude":81.6296,"temp":33.2,"humidity":39,"rain":0.0,"pressure":973.3,"uv_index":8.95,"wind_gusts":33.8,"aqi":167,"pm10":53.7,"pm2_5":50.9,"mosquito_risk":0,"arthritis_risk":5,"migraine_risk":7,"frizz_risk":1,"updated_at":"2026-04-19T21:10:19.845572+05:30"},{"city":"Bhilai","state":"Chhattisgarh","latitude":21.1938,"longitude":81.3509,"temp":32.6,"humidity":42,"rain":0.0,"pressure":973.6,"uv_index":8.95,"wind_gusts":31.7,"aqi":146,"pm10":42.4,"pm2_5":39.5,"mosquito_risk":0,"arthritis_risk":5,"migraine_risk":7,"frizz_risk":1,"updated_at":"2026-04-19T21:10:19.845577+05:30"},{"city":"Guwahati","state":"Assam","latitude":26.1158,"longitude":91.7086,"temp":26.3,"humidity":85,"rain":0.0,"pressure":1001.5,"uv_index":8.55,"wind_gusts":29.2,"aqi":114,"pm10":41.9,"pm2_5":36.7,"mosquito_risk":7,"arthritis_risk":5,"migraine_risk":4,"frizz_risk":1,"updated_at":"2026-04-19T21:10:19.845583+05:30"},{"city":"Agartala","state":"Tripura","latitude":23.8315,"longitude":91.2868,"temp":26.9,"humidity":85,"rain":0.0,"pressure":1006.0,"uv_index":8.75,"wind_gusts":25.2,"aqi":113,"pm10":42.5,"pm2_5":37.1,"mosquito_risk":7,"arthritis_risk":5,"migraine_risk":4,"frizz_risk":1,"updated_at":"2026-04-19T21:10:19.845589+05:30"},{"city":"Shillong","state":"Meghalaya","latitude":25.5788,"longitude":91.8933,"temp":16.3,"humidity":91,"rain":0.0,"pressure":856.7,"uv_index":8.15,"wind_gusts":48.2,"aqi":92,"pm10":29.2,"pm2_5":24.8,"mosquito_risk":3,"arthritis_risk":10,"migraine_risk":7,"frizz_risk":0,"updated_at":"2026-04-19T21:10:19.845594+05:30"},{"city":"Imphal","state":"Manipur","latitude":24.817,"longitude":93.9368,"temp":20.1,"humidity":86,"rain":0.0,"pressure":923.8,"uv_index":8.85,"wind_gusts":61.2,"aqi":150,"pm10":63.6,"pm2_5":52.0,"mosquito_risk":3,"arthritis_risk":5,"migraine_risk":7,"frizz_risk":1,"updated_at":"2026-04-19T21:10:19.845600+05:30"},{"city":"Aizawl","state":"Mizoram","latitude":23.7271,"longitude":92.7176,"temp":20.7,"humidity":85,"rain":0.0,"pressure":893.3,"uv_index":8.3,"wind_gusts":40.0,"aqi":151,"pm10":83.6,"pm2_5":70.8,"mosquito_risk":3,"arthritis_risk":5,"migraine_risk":7,"frizz_risk":1,"updated_at":"2026-04-19T21:10:19.845606+05:30"},{"city":"Kohima","state":"Nagaland","latitude":25.6701,"longitude":94.1077,"temp":17.2,"humidity":84,"rain":0.0,"pressure":855.5,"uv_index":8.7,"wind_gusts":50.8,"aqi":117,"pm10":41.3,"pm2_5":31.4,"mosquito_risk":3,"arthritis_risk":10,"migraine_risk":7,"frizz_risk":0,"updated_at":"2026-04-19T21:10:19.845611+05:30"},{"city":"Gangtok","state":"Sikkim","latitude":27.3314,"longitude":88.6138,"temp":17.4,"humidity":89,"rain":0.0,"pressure":838.5,"uv_index":8.9,"wind_gusts":23.4,"aqi":85,"pm10":20.5,"pm2_5":18.3,"mosquito_risk":3,"arthritis_risk":10,"migraine_risk":7,"frizz_risk":0,"updated_at":"2026-04-19T21:10:19.845617+05:30"},{"city":"Siliguri","state":"West Bengal","latitude":26.7271,"longitude":88.3953,"temp":22.3,"humidity":90,"rain":0.0,"pressure":994.5,"uv_index":8.4,"wind_gusts":21.2,"aqi":118,"pm10":40.3,"pm2_5":34.9,"mosquito_risk":3,"arthritis_risk":5,"migraine_risk":7,"frizz_risk":1,"updated_at":"2026-04-19T21:10:23.070955+05:30"},{"city":"Durgapur","state":"West Bengal","latitude":23.5204,"longitude":87.3119,"temp":28.9,"humidity":86,"rain":0.0,"pressure":993.5,"uv_index":8.9,"wind_gusts":28.1,"aqi":208,"pm10":65.9,"pm2_5":60.3,"mosquito_risk":7,"arthritis_risk":5,"migraine_risk":7,"frizz_risk":1,"updated_at":"2026-04-19T21:10:23.070984+05:30"},{"city":"Asansol","state":"West Bengal","latitude":23.6739,"longitude":86.9524,"temp":29.7,"humidity":81,"rain":0.0,"pressure":992.0,"uv_index":8.9,"wind_gusts":33.8,"aqi":180,"pm10":82.2,"pm2_5":56.6,"mosquito_risk":7,"arthritis_risk":5,"migraine_risk":7,"frizz_risk":1,"updated_at":"2026-04-19T21:10:23.070994+05:30"},{"city":"Pondicherry","state":"Puducherry","latitude":11.9139,"longitude":79.8145,"temp":27.6,"humidity":88,"rain":0.0,"pressure":1008.5,"uv_index":9.25,"wind_gusts":31.0,"aqi":37,"pm10":12.0,"pm2_5":8.0,"mosquito_risk":7,"arthritis_risk":0,"migraine_risk":4,"frizz_risk":1,"updated_at":"2026-04-19T21:10:23.071002+05:30"},{"city":"Port Blair","state":"Andaman and Nicobar Islands","latitude":11.6234,"longitude":92.7265,"temp":29.2,"humidity":76,"rain":0.0,"pressure":1008.2,"uv_index":9.15,"wind_gusts":13.0,"aqi":52,"pm10":13.2,"pm2_5":10.9,"mosquito_risk":7,"arthritis_risk":0,"migraine_risk":4,"frizz_risk":1,"updated_at":"2026-04-19T21:10:23.071014+05:30"},{"city":"Haridwar","state":"Uttarakhand","latitude":29.9457,"longitude":78.1642,"temp":25.9,"humidity":59,"rain":0.0,"pressure":973.4,"uv_index":6.25,"wind_gusts":28.8,"aqi":106,"pm10":57.4,"pm2_5":24.6,"mosquito_risk":4,"arthritis_risk":5,"migraine_risk":7,"frizz_risk":1,"updated_at":"2026-04-19T21:10:23.071022+05:30"},{"city":"Rishikesh","state":"Uttarakhand","latitude":30.0869,"longitude":78.2676,"temp":23.0,"humidity":69,"rain":0.0,"pressure":966.2,"uv_index":6.55,"wind_gusts":31.7,"aqi":108,"pm10":61.2,"pm2_5":19.9,"mosquito_risk":3,"arthritis_risk":5,"migraine_risk":7,"frizz_risk":1,"updated_at":"2026-04-19T21:10:23.071029+05:30"},{"city":"Nainital","state":"Uttarakhand","latitude":29.3919,"longitude":79.4542,"temp":24.3,"humidity":30,"rain":0.0,"pressure":808.3,"uv_index":7.8,"wind_gusts":70.9,"aqi":115,"pm10":43.2,"pm2_5":17.4,"mosquito_risk":0,"arthritis_risk":5,"migraine_risk":7,"frizz_risk":0,"updated_at":"2026-04-19T21:10:23.071037+05:30"},{"city":"Mussoorie","state":"Uttarakhand","latitude":30.4599,"longitude":78.0664,"temp":19.9,"humidity":46,"rain":0.0,"pressure":804.5,"uv_index":6.6,"wind_gusts":45.7,"aqi":108,"pm10":71.2,"pm2_5":26.0,"mosquito_risk":0,"arthritis_risk":5,"migraine_risk":7,"frizz_risk":0,"updated_at":"2026-04-19T21:10:23.071044+05:30"},{"city":"Dharamshala","state":"Himachal Pradesh","latitude":32.219,"longitude":76.3234,"temp":22.2,"humidity":33,"rain":0.0,"pressure":870.5,"uv_index":6.1,"wind_gusts":38.5,"aqi":76,"pm10":32.4,"pm2_5":12.6,"mosquito_risk":0,"arthritis_risk":5,"migraine_risk":7,"frizz_risk":0,"updated_at":"2026-04-19T21:10:23.071051+05:30"},{"city":"Dalhousie","state":"Himachal Pradesh","latitude":32.5387,"longitude":75.971,"temp":18.4,"humidity":41,"rain":0.0,"pressure":804.9,"uv_index":6.8,"wind_gusts":35.3,"aqi":72,"pm10":49.8,"pm2_5":22.8,"mosquito_risk":0,"arthritis_risk":5,"migraine_risk":7,"frizz_risk":0,"updated_at":"2026-04-19T21:10:23.071058+05:30"},{"city":"Patiala","state":"Punjab","latitude":30.3398,"longitude":76.3869,"temp":26.9,"humidity":49,"rain":0.0,"pressure":977.7,"uv_index":6.65,"wind_gusts":45.0,"aqi":192,"pm10":486.2,"pm2_5":63.3,"mosquito_risk":4,"arthritis_risk":5,"migraine_risk":7,"frizz_risk":0,"updated_at":"2026-04-19T21:10:23.071065+05:30"},{"city":"Bhatinda","state":"Punjab","latitude":30.211,"longitude":74.9455,"temp":28.6,"humidity":41,"rain":0.0,"pressure":983.6,"uv_index":7.85,"wind_gusts":41.0,"aqi":132,"pm10":68.7,"pm2_5":22.8,"mosquito_risk":4,"arthritis_risk":5,"migraine_risk":7,"frizz_risk":0,"updated_at":"2026-04-19T21:10:23.071072+05:30"},{"city":"Rohtak","state":"Haryana","latitude":28.8955,"longitude":76.6066,"temp":25.3,"humidity":54,"rain":0.0,"pressure":980.6,"uv_index":7.05,"wind_gusts":28.4,"aqi":191,"pm10":314.8,"pm2_5":68.7,"mosquito_risk":4,"arthritis_risk":5,"migraine_risk":7,"frizz_risk":0,"updated_at":"2026-04-19T21:10:23.071078+05:30"},{"city":"Panipat","state":"Haryana","latitude":29.3909,"longitude":76.9635,"temp":26.7,"humidity":48,"rain":0.0,"pressure":979.5,"uv_index":6.3,"wind_gusts":51.5,"aqi":398,"pm10":555.1,"pm2_5":87.8,"mosquito_risk":4,"arthritis_risk":5,"migraine_risk":7,"frizz_risk":0,"updated_at":"2026-04-19T21:10:23.071084+05:30"},{"city":"Mathura","state":"Uttar Pradesh","latitude":27.4924,"longitude":77.6737,"temp":29.9,"humidity":38,"rain":0.0,"pressure":985.1,"uv_index":7.65,"wind_gusts":44.3,"aqi":337,"pm10":616.5,"pm2_5":90.8,"mosquito_risk":4,"arthritis_risk":5,"migraine_risk":7,"frizz_risk":0,"updated_at":"2026-04-19T21:10:23.071090+05:30"},{"city":"Vrindavan","state":"Uttar Pradesh","latitude":27.5823,"longitude":77.7027,"temp":28.8,"humidity":39,"rain":0.0,"pressure":985.4,"uv_index":7.65,"wind_gusts":43.9,"aqi":337,"pm10":616.5,"pm2_5":90.8,"mosquito_risk":4,"arthritis_risk":5,"migraine_risk":7,"frizz_risk":0,"updated_at":"2026-04-19T21:10:23.071097+05:30"},{"city":"Ayodhya","state":"Uttar Pradesh","latitude":26.7922,"longitude":82.1998,"temp":32.5,"humidity":29,"rain":0.0,"pressure":992.1,"uv_index":8.05,"wind_gusts":40.0,"aqi":140,"pm10":68.5,"pm2_5":26.3,"mosquito_risk":0,"arthritis_risk":5,"migraine_risk":7,"frizz_risk":0,"updated_at":"2026-04-19T21:10:23.071103+05:30"},{"city":"Ratlam","state":"Madhya Pradesh","latitude":23.3315,"longitude":75.0367,"temp":30.4,"humidity":48,"rain":0.0,"pressure":954.8,"uv_index":8.45,"wind_gusts":27.4,"aqi":113,"pm10":21.4,"pm2_5":18.6,"mosquito_risk":0,"arthritis_risk":5,"migraine_risk":7,"frizz_risk":1,"updated_at":"2026-04-19T21:10:23.071109+05:30"},{"city":"Sagar","state":"Madhya Pradesh","latitude":23.8388,"longitude":78.7378,"temp":32.5,"humidity":26,"rain":0.0,"pressure":949.8,"uv_index":8.6,"wind_gusts":38.2,"aqi":125,"pm10":28.6,"pm2_5":18.3,"mosquito_risk":0,"arthritis_risk":5,"migraine_risk":7,"frizz_risk":0,"updated_at":"2026-04-19T21:10:23.071115+05:30"},{"city":"Satna","state":"Madhya Pradesh","latitude":24.6005,"longitude":80.8322,"temp":32.8,"humidity":32,"rain":0.0,"pressure":970.0,"uv_index":8.6,"wind_gusts":32.8,"aqi":120,"pm10":30.4,"pm2_5":14.1,"mosquito_risk":0,"arthritis_risk":5,"migraine_risk":7,"frizz_risk":0,"updated_at":"2026-04-19T21:10:23.071121+05:30"},{"city":"Akola","state":"Maharashtra","latitude":20.7002,"longitude":77.0082,"temp":33.1,"humidity":40,"rain":0.0,"pressure":974.6,"uv_index":8.85,"wind_gusts":32.0,"aqi":122,"pm10":41.3,"pm2_5":36.8,"mosquito_risk":0,"arthritis_risk":5,"migraine_risk":7,"frizz_risk":1,"updated_at":"2026-04-19T21:10:23.071127+05:30"},{"city":"Amravati","state":"Maharashtra","latitude":20.9374,"longitude":77.7796,"temp":31.6,"humidity":40,"rain":0.0,"pressure":966.6,"uv_index":8.85,"wind_gusts":15.8,"aqi":118,"pm10":41.1,"pm2_5":35.6,"mosquito_risk":0,"arthritis_risk":5,"migraine_risk":7,"frizz_risk":1,"updated_at":"2026-04-19T21:10:23.071135+05:30"},{"city":"Latur","state":"Maharashtra","latitude":18.4088,"longitude":76.5604,"temp":28.1,"humidity":58,"rain":0.0,"pressure":940.6,"uv_index":9.1,"wind_gusts":32.0,"aqi":156,"pm10":66.8,"pm2_5":61.0,"mosquito_risk":4,"arthritis_risk":5,"migraine_risk":7,"frizz_risk":1,"updated_at":"2026-04-19T21:10:23.071141+05:30"},{"city":"Nanded","state":"Maharashtra","latitude":19.1383,"longitude":77.3091,"temp":31.7,"humidity":41,"rain":0.0,"pressure":968.1,"uv_index":9.0,"wind_gusts":20.5,"aqi":130,"pm10":59.0,"pm2_5":51.6,"mosquito_risk":0,"arthritis_risk":5,"migraine_risk":7,"frizz_risk":1,"updated_at":"2026-04-19T21:10:23.071147+05:30"},{"city":"Gulbarga","state":"Karnataka","latitude":17.3297,"longitude":76.8343,"temp":28.8,"humidity":58,"rain":0.0,"pressure":959.1,"uv_index":9.1,"wind_gusts":56.5,"aqi":161,"pm10":50.1,"pm2_5":45.1,"mosquito_risk":4,"arthritis_risk":5,"migraine_risk":7,"frizz_risk":1,"updated_at":"2026-04-19T21:10:23.071153+05:30"},{"city":"Bidar","state":"Karnataka","latitude":17.9104,"longitude":77.5199,"temp":28.8,"humidity":58,"rain":0.0,"pressure":936.1,"uv_index":9.15,"wind_gusts":40.7,"aqi":160,"pm10":53.4,"pm2_5":48.4,"mosquito_risk":4,"arthritis_risk":5,"migraine_risk":7,"frizz_risk":1,"updated_at":"2026-04-19T21:10:23.071159+05:30"},{"city":"Hospet","state":"Karnataka","latitude":15.2689,"longitude":76.3909,"temp":28.6,"humidity":64,"rain":0.0,"pressure":956.7,"uv_index":9.25,"wind_gusts":36.4,"aqi":171,"pm10":40.4,"pm2_5":36.6,"mosquito_risk":7,"arthritis_risk":5,"migraine_risk":7,"frizz_risk":1,"updated_at":"2026-04-19T21:10:23.071165+05:30"},{"city":"Tirupur","state":"Tamil Nadu","latitude":11.1085,"longitude":77.3411,"temp":29.1,"humidity":71,"rain":0.0,"pressure":975.3,"uv_index":9.4,"wind_gusts":32.4,"aqi":141,"pm10":42.8,"pm2_5":36.9,"mosquito_risk":7,"arthritis_risk":5,"migraine_risk":7,"frizz_risk":1,"updated_at":"2026-04-19T21:10:23.071171+05:30"},{"city":"Alappuzha","state":"Kerala","latitude":9.4981,"longitude":76.3388,"temp":28.6,"humidity":82,"rain":0.0,"pressure":1009.6,"uv_index":9.1,"wind_gusts":22.7,"aqi":80,"pm10":30.3,"pm2_5":23.5,"mosquito_risk":7,"arthritis_risk":0,"migraine_risk":4,"frizz_risk":1,"updated_at":"2026-04-19T21:10:23.071177+05:30"},{"city":"Munnar","state":"Kerala","latitude":10.0889,"longitude":77.0595,"temp":22.8,"humidity":97,"rain":0.0,"pressure":858.1,"uv_index":9.65,"wind_gusts":39.6,"aqi":80,"pm10":35.2,"pm2_5":31.7,"mosquito_risk":3,"arthritis_risk":5,"migraine_risk":7,"frizz_risk":1,"updated_at":"2026-04-19T21:10:23.071183+05:30"},{"city":"Silchar","state":"Assam","latitude":24.8333,"longitude":92.7789,"temp":26.0,"humidity":87,"rain":0.0,"pressure":1005.2,"uv_index":8.8,"wind_gusts":28.1,"aqi":153,"pm10":79.4,"pm2_5":68.5,"mosquito_risk":7,"arthritis_risk":5,"migraine_risk":4,"frizz_risk":1,"updated_at":"2026-04-19T21:10:23.071189+05:30"},{"city":"Dibrugarh","state":"Assam","latitude":27.4728,"longitude":94.912,"temp":26.7,"humidity":84,"rain":0.0,"pressure":994.8,"uv_index":8.65,"wind_gusts":19.4,"aqi":142,"pm10":82.2,"pm2_5":61.0,"mosquito_risk":7,"arthritis_risk":5,"migraine_risk":7,"frizz_risk":1,"updated_at":"2026-04-19T21:10:23.071196+05:30"}]