[{"city":"Delhi","state":"Delhi","latitude":28.6139,"longitude":77.209,"temp":26.6,"humidity":53,"rain":0.0,"pressure":982.0,"uv_index":6.7,"wind_gusts":17.6,"aqi":153,"pm10":164.8,"pm2_5":74.7,"mosquito_risk":4,"arthritis_risk":5,"migraine_risk":7,"frizz_risk":1,"updated_at":"2026-04-18T02:20:48.124440+05:30"},{"city":"Mumbai","state":"Maharashtra","latitude":19.076,"longitude":72.8777,"temp":29.8,"humidity":75,"rain":0.0,"pressure":1007.0,"uv_index":5.9,"wind_gusts":23.4,"aqi":97,"pm10":92.9,"pm2_5":27.3,"mosquito_risk":7,"arthritis_risk":5,"migraine_risk":0,"frizz_risk":1,"updated_at":"2026-04-18T02:20:48.124491+05:30"},{"city":"Bangalore","state":"Karnataka","latitude":12.9716,"longitude":77.5946,"temp":24.4,"humidity":76,"rain":0.0,"pressure":910.9,"uv_index":7.9,"wind_gusts":34.6,"aqi":87,"pm10":35.2,"pm2_5":32.6,"mosquito_risk":3,"arthritis_risk":5,"migraine_risk":7,"frizz_risk":1,"updated_at":"2026-04-18T02:20:48.124507+05:30"},{"city":"Hyderabad","state":"Telangana","latitude":17.385,"longitude":78.4867,"temp":28.3,"humidity":65,"rain":0.0,"pressure":951.9,"uv_index":9.0,"wind_gusts":19.8,"aqi":86,"pm10":25.7,"pm2_5":23.3,"mosquito_risk":7,"arthritis_risk":5,"migraine_risk":7,"frizz_risk":1,"updated_at":"2026-04-18T02:20:48.124517+05:30"},{"city":"Chennai","state":"Tamil Nadu","latitude":13.0827,"longitude":80.2707,"temp":27.7,"humidity":87,"rain":0.0,"pressure":1006.3,"uv_index":8.0,"wind_gusts":32.4,"aqi":35,"pm10":12.2,"pm2_5":8.3,"mosquito_risk":7,"arthritis_risk":5,"migraine_risk":4,"frizz_risk":1,"updated_at":"2026-04-18T02:20:48.124527+05:30"},{"city":"Kolkata","state":"West Bengal","latitude":22.5726,"longitude":88.3639,"temp":26.9,"humidity":97,"rain":0.0,"pressure":1005.4,"uv_index":8.85,"wind_gusts":23.0,"aqi":61,"pm10":16.6,"pm2_5":13.8,"mosquito_risk":7,"arthritis_risk":5,"migraine_risk":4,"frizz_risk":1,"updated_at":"2026-04-18T02:20:48.124540+05:30"},{"city":"Pune","state":"Maharashtra","latitude":18.5204,"longitude":73.8567,"temp":25.0,"humidity":76,"rain":0.0,"pressure":947.3,"uv_index":8.4,"wind_gusts":29.2,"aqi":119,"pm10":52.6,"pm2_5":36.8,"mosquito_risk":7,"arthritis_risk":5,"migraine_risk":7,"frizz_risk":1,"updated_at":"2026-04-18T02:20:48.124548+05:30"},{"city":"Ahmedabad","state":"Gujarat","latitude":23.0225,"longitude":72.5714,"temp":27.2,"humidity":46,"rain":0.0,"pressure":1001.2,"uv_index":8.15,"wind_gusts":23.4,"aqi":72,"pm10":46.7,"pm2_5":30.5,"mosquito_risk":4,"arthritis_risk":5,"migraine_risk":4,"frizz_risk":0,"updated_at":"2026-04-18T02:20:48.124557+05:30"},{"city":"Jaipur","state":"Rajasthan","latitude":26.9124,"longitude":75.7873,"temp":28.3,"humidity":42,"rain":0.0,"pressure":959.0,"uv_index":7.95,"wind_gusts":28.1,"aqi":88,"pm10":99.4,"pm2_5":40.7,"mosquito_risk":4,"arthritis_risk":5,"migraine_risk":7,"frizz_risk":0,"updated_at":"2026-04-18T02:20:48.124565+05:30"},{"city":"Lucknow","state":"Uttar Pradesh","latitude":26.8467,"longitude":80.9462,"temp":26.0,"humidity":58,"rain":0.0,"pressure":991.6,"uv_index":7.85,"wind_gusts":27.4,"aqi":103,"pm10":156.5,"pm2_5":45.5,"mosquito_risk":4,"arthritis_risk":5,"migraine_risk":7,"frizz_risk":1,"updated_at":"2026-04-18T02:20:48.124573+05:30"},{"city":"Kanpur","state":"Uttar Pradesh","latitude":26.4499,"longitude":80.3319,"temp":25.7,"humidity":58,"rain":0.0,"pressure":990.3,"uv_index":7.85,"wind_gusts":22.7,"aqi":109,"pm10":169.0,"pm2_5":44.8,"mosquito_risk":4,"arthritis_risk":5,"migraine_risk":7,"frizz_risk":1,"updated_at":"2026-04-18T02:20:48.124581+05:30"},{"city":"Chandigarh","state":"Chandigarh","latitude":30.7333,"longitude":76.7794,"temp":21.4,"humidity":60,"rain":0.0,"pressure":967.8,"uv_index":7.2,"wind_gusts":29.2,"aqi":56,"pm10":23.6,"pm2_5":15.1,"mosquito_risk":0,"arthritis_risk":5,"migraine_risk":7,"frizz_risk":0,"updated_at":"2026-04-18T02:20:48.124589+05:30"},{"city":"Srinagar","state":"Jammu and Kashmir","latitude":34.0837,"longitude":74.7973,"temp":10.3,"humidity":89,"rain":0.0,"pressure":843.0,"uv_index":7.1,"wind_gusts":19.4,"aqi":72,"pm10":32.7,"pm2_5":31.0,"mosquito_risk":3,"arthritis_risk":10,"migraine_risk":7,"frizz_risk":0,"updated_at":"2026-04-18T02:20:48.124597+05:30"},{"city":"Jammu","state":"Jammu and Kashmir","latitude":32.7266,"longitude":74.857,"temp":22.2,"humidity":60,"rain":0.0,"pressure":974.6,"uv_index":7.2,"wind_gusts":29.9,"aqi":65,"pm10":20.1,"pm2_5":17.8,"mosquito_risk":0,"arthritis_risk":5,"migraine_risk":7,"frizz_risk":0,"updated_at":"2026-04-18T02:20:48.124604+05:30"},{"city":"Amritsar","state":"Punjab","latitude":31.634,"longitude":74.8723,"temp":21.8,"humidity":59,"rain":0.0,"pressure":981.1,"uv_index":6.6,"wind_gusts":48.2,"aqi":59,"pm10":33.5,"pm2_5":23.1,"mosquito_risk":0,"arthritis_risk":5,"migraine_risk":7,"frizz_risk":0,"updated_at":"2026-04-18T02:20:48.124612+05:30"},{"city":"Ludhiana","state":"Punjab","latitude":30.901,"longitude":75.8573,"temp":23.2,"humidity":54,"rain":0.0,"pressure":978.0,"uv_index":7.5,"wind_gusts":31.7,"aqi":73,"pm10":30.0,"pm2_5":22.6,"mosquito_risk":0,"arthritis_risk":5,"migraine_risk":7,"frizz_risk":0,"updated_at":"2026-04-18T02:20:48.124622+05:30"},{"city":"Jalandhar","state":"Punjab","latitude":31.326,"longitude":75.5762,"temp":22.3,"humidity":50,"rain":0.0,"pressure":979.6,"uv_index":6.55,"wind_gusts":42.8,"aqi":61,"pm10":41.9,"pm2_5":18.5,"mosquito_risk":0,"arthritis_risk":5,"migraine_risk":7,"frizz_risk":0,"updated_at":"2026-04-18T02:20:48.124628+05:30"},{"city":"Dehradun","state":"Uttarakhand","latitude":30.6284,"longitude":78.0322,"temp":16.0,"humidity":51,"rain":0.0,"pressure":831.4,"uv_index":7.5,"wind_gusts":38.9,"aqi":43,"pm10":10.9,"pm2_5":6.6,"mosquito_risk":0,"arthritis_risk":5,"migraine_risk":7,"frizz_risk":0,"updated_at":"2026-04-18T02:20:48.124635+05:30"},{"city":"Shimla","state":"Himachal Pradesh","latitude":31.1048,"longitude":77.1734,"temp":13.6,"humidity":56,"rain":0.0,"pressure":785.0,"uv_index":5.95,"wind_gusts":45.0,"aqi":47,"pm10":24.2,"pm2_5":12.3,"mosquito_risk":0,"arthritis_risk":5,"migraine_risk":3,"frizz_risk":0,"updated_at":"2026-04-18T02:20:48.124645+05:30"},{"city":"Manali","state":"Himachal Pradesh","latitude":32.2396,"longitude":77.1887,"temp":13.9,"humidity":74,"rain":0.0,"pressure":821.2,"uv_index":9.2,"wind_gusts":33.8,"aqi":57,"pm10":4.2,"pm2_5":3.9,"mosquito_risk":3,"arthritis_risk":5,"migraine_risk":7,"frizz_risk":0,"updated_at":"2026-04-18T02:20:48.124652+05:30"},{"city":"Gurgaon","state":"Haryana","latitude":28.4595,"longitude":77.0266,"temp":24.0,"humidity":66,"rain":0.0,"pressure":980.3,"uv_index":6.9,"wind_gusts":15.5,"aqi":429,"pm10":366.9,"pm2_5":96.4,"mosquito_risk":3,"arthritis_risk":5,"migraine_risk":7,"frizz_risk":1,"updated_at":"2026-04-18T02:20:48.124659+05:30"},{"city":"Noida","state":"Uttar Pradesh","latitude":28.5355,"longitude":77.391,"temp":26.0,"humidity":57,"rain":0.0,"pressure":983.4,"uv_index":6.8,"wind_gusts":20.2,"aqi":429,"pm10":366.9,"pm2_5":96.4,"mosquito_risk":4,"arthritis_risk":5,"migraine_risk":7,"frizz_risk":1,"updated_at":"2026-04-18T02:20:48.124666+05:30"},{"city":"Ghaziabad","state":"Uttar Pradesh","latitude":28.6692,"longitude":77.4538,"temp":24.7,"humidity":61,"rain":0.0,"pressure":981.5,"uv_index":6.8,"wind_gusts":13.3,"aqi":143,"pm10":102.9,"pm2_5":53.4,"mosquito_risk":3,"arthritis_risk":5,"migraine_risk":7,"frizz_risk":1,"updated_at":"2026-04-18T02:20:48.124672+05:30"},{"city":"Faridabad","state":"Haryana","latitude":28.4089,"longitude":77.3178,"temp":25.9,"humidity":57,"rain":0.0,"pressure":982.7,"uv_index":6.85,"wind_gusts":13.7,"aqi":429,"pm10":366.9,"pm2_5":96.4,"mosquito_risk":4,"arthritis_risk":5,"migraine_risk":7,"frizz_risk":1,"updated_at":"2026-04-18T02:20:48.124700+05:30"},{"city":"Meerut","state":"Uttar Pradesh","latitude":28.9845,"longitude":77.7064,"temp":23.2,"humidity":63,"rain":0.0,"pressure":980.3,"uv_index":7.15,"wind_gusts":14.4,"aqi":143,"pm10":102.9,"pm2_5":53.4,"mosquito_risk":3,"arthritis_risk":5,"migraine_risk":7,"frizz_risk":0,"updated_at":"2026-04-18T02:20:48.124709+05:30"},{"city":"Agra","state":"Uttar Pradesh","latitude":27.1767,"longitude":78.0081,"temp":25.9,"humidity":50,"rain":0.0,"pressure":986.5,"uv_index":7.75,"wind_gusts":16.2,"aqi":327,"pm10":575.6,"pm2_5":89.9,"mosquito_risk":4,"arthritis_risk":5,"migraine_risk":7,"frizz_risk":0,"updated_at":"2026-04-18T02:20:48.124720+05:30"},{"city":"Varanasi","state":"Uttar Pradesh","latitude":25.3176,"longitude":82.9739,"temp":26.8,"humidity":61,"rain":0.0,"pressure":995.7,"uv_index":8.2,"wind_gusts":26.6,"aqi":120,"pm10":74.7,"pm2_5":51.3,"mosquito_risk":7,"arthritis_risk":5,"migraine_risk":7,"frizz_risk":1,"updated_at":"2026-04-18T02:20:48.124727+05:30"},{"city":"Prayagraj","state":"Uttar Pradesh","latitude":25.4358,"longitude":81.8463,"temp":27.0,"humidity":54,"rain":0.0,"pressure":993.9,"uv_index":7.8,"wind_gusts":26.6,"aqi":108,"pm10":45.4,"pm2_5":31.7,"mosquito_risk":4,"arthritis_risk":5,"migraine_risk":7,"frizz_risk":1,"updated_at":"2026-04-18T02:20:48.124735+05:30"},{"city":"Gorakhpur","state":"Uttar Pradesh","latitude":26.7606,"longitude":83.3732,"temp":25.5,"humidity":79,"rain":0.0,"pressure":995.7,"uv_index":8.25,"wind_gusts":23.4,"aqi":154,"pm10":89.4,"pm2_5":75.9,"mosquito_risk":7,"arthritis_risk":5,"migraine_risk":7,"frizz_risk":1,"updated_at":"2026-04-18T02:20:48.124744+05:30"},{"city":"Bareilly","state":"Uttar Pradesh","latitude":28.367,"longitude":79.4304,"temp":23.2,"humidity":70,"rain":0.0,"pressure":984.9,"uv_index":7.45,"wind_gusts":22.0,"aqi":92,"pm10":49.6,"pm2_5":25.8,"mosquito_risk":3,"arthritis_risk":5,"migraine_risk":7,"frizz_risk":1,"updated_at":"2026-04-18T02:20:48.124751+05:30"},{"city":"Aligarh","state":"Uttar Pradesh","latitude":27.8974,"longitude":78.088,"temp":24.6,"humidity":59,"rain":0.0,"pressure":984.2,"uv_index":7.35,"wind_gusts":19.1,"aqi":148,"pm10":166.2,"pm2_5":51.0,"mosquito_risk":0,"arthritis_risk":5,"migraine_risk":7,"frizz_risk":0,"updated_at":"2026-04-18T02:20:48.124758+05:30"},{"city":"Moradabad","state":"Uttar Pradesh","latitude":28.8386,"longitude":78.7733,"temp":23.2,"humidity":66,"rain":0.0,"pressure":982.0,"uv_index":7.4,"wind_gusts":19.8,"aqi":100,"pm10":52.5,"pm2_5":34.9,"mosquito_risk":3,"arthritis_risk":5,"migraine_risk":7,"frizz_risk":1,"updated_at":"2026-04-18T02:20:48.124764+05:30"},{"city":"Saharanpur","state":"Uttar Pradesh","latitude":29.9637,"longitude":77.546,"temp":21.4,"humidity":62,"rain":0.0,"pressure":974.4,"uv_index":7.0,"wind_gusts":19.4,"aqi":73,"pm10":36.9,"pm2_5":26.7,"mosquito_risk":3,"arthritis_risk":5,"migraine_risk":7,"frizz_risk":0,"updated_at":"2026-04-18T02:20:48.124771+05:30"},{"city":"Jhansi","state":"Uttar Pradesh","latitude":25.4484,"longitude":78.5685,"temp":29.4,"humidity":45,"rain":0.0,"pressure":976.4,"uv_index":7.95,"wind_gusts":20.5,"aqi":77,"pm10":71.2,"pm2_5":28.1,"mosquito_risk":4,"arthritis_risk":5,"migraine_risk":7,"frizz_risk":1,"updated_at":"2026-04-18T02:20:51.385868+05:30"},{"city":"Surat","state":"Gujarat","latitude":21.1702,"longitude":72.8311,"temp":27.8,"humidity":81,"rain":0.0,"pressure":1005.4,"uv_index":7.85,"wind_gusts":27.0,"aqi":113,"pm10":73.8,"pm2_5":36.2,"mosquito_risk":7,"arthritis_risk":5,"migraine_risk":4,"frizz_risk":1,"updated_at":"2026-04-18T02:20:51.385899+05:30"},{"city":"Vadodara","state":"Gujarat","latitude":22.3072,"longitude":73.1812,"temp":26.4,"humidity":67,"rain":0.0,"pressure":1003.1,"uv_index":8.15,"wind_gusts":18.0,"aqi":84,"pm10":61.9,"pm2_5":42.7,"mosquito_risk":7,"arthritis_risk":5,"migraine_risk":4,"frizz_risk":1,"updated_at":"2026-04-18T02:20:51.385909+05:30"},{"city":"Rajkot","state":"Gujarat","latitude":22.3039,"longitude":70.8022,"temp":24.5,"humidity":69,"rain":0.0,"pressure":993.8,"uv_index":7.85,"wind_gusts":27.7,"aqi":67,"pm10":52.2,"pm2_5":16.8,"mosquito_risk":3,"arthritis_risk":5,"migraine_risk":7,"frizz_risk":1,"updated_at":"2026-04-18T02:20:51.385917+05:30"},{"city":"Thane","state":"Maharashtra","latitude":19.2183,"longitude":72.9781,"temp":27.3,"humidity":84,"rain":0.0,"pressure":1006.5,"uv_index":6.3,"wind_gusts":34.2,"aqi":97,"pm10":92.9,"pm2_5":27.3,"mosquito_risk":7,"arthritis_risk":5,"migraine_risk":4,"frizz_risk":1,"updated_at":"2026-04-18T02:20:51.385924+05:30"},{"city":"Nagpur","state":"Maharashtra","latitude":21.1458,"longitude":79.0882,"temp":29.1,"humidity":48,"rain":0.0,"pressure":970.6,"uv_index":7.45,"wind_gusts":19.4,"aqi":95,"pm10":31.2,"pm2_5":26.4,"mosquito_risk":4,"arthritis_risk":5,"migraine_risk":7,"frizz_risk":1,"updated_at":"2026-04-18T02:20:51.385931+05:30"},{"city":"Nashik","state":"Maharashtra","latitude":19.9975,"longitude":73.7898,"temp":25.9,"humidity":50,"rain":0.0,"pressure":944.8,"uv_index":6.9,"wind_gusts":26.3,"aqi":65,"pm10":57.6,"pm2_5":32.7,"mosquito_risk":4,"arthritis_risk":5,"migraine_risk":7,"frizz_risk":0,"updated_at":"2026-04-18T02:20:51.385938+05:30"},{"city":"Aurangabad","state":"Maharashtra","latitude":19.8762,"longitude":75.3433,"temp":28.5,"humidity":35,"rain":0.0,"pressure":942.8,"uv_index":8.4,"wind_gusts":27.0,"aqi":57,"pm10":25.8,"pm2_5":17.2,"mosquito_risk":4,"arthritis_risk":5,"migraine_risk":7,"frizz_risk":0,"updated_at":"2026-04-18T02:20:51.385945+05:30"},{"city":"Solapur","state":"Maharashtra","latitude":17.6599,"longitude":75.9064,"temp":28.0,"humidity":65,"rain":0.0,"pressure":955.6,"uv_index":8.95,"wind_gusts":27.0,"aqi":125,"pm10":47.5,"pm2_5":41.2,"mosquito_risk":7,"arthritis_risk":5,"migraine_risk":7,"frizz_risk":1,"updated_at":"2026-04-18T02:20:51.385952+05:30"},{"city":"Kolhapur","state":"Maharashtra","latitude":16.705,"longitude":74.2433,"temp":23.4,"humidity":88,"rain":0.0,"pressure":946.6,"uv_index":8.9,"wind_gusts":38.5,"aqi":72,"pm10":39.7,"pm2_5":30.0,"mosquito_risk":3,"arthritis_risk":5,"migraine_risk":7,"frizz_risk":1,"updated_at":"2026-04-18T02:20:51.385959+05:30"},{"city":"Goa","state":"Goa","latitude":15.2993,"longitude":74.124,"temp":27.3,"humidity":85,"rain":0.0,"pressure":996.1,"uv_index":9.05,"wind_gusts":29.2,"aqi":69,"pm10":45.8,"pm2_5":27.0,"mosquito_risk":7,"arthritis_risk":5,"migraine_risk":7,"frizz_risk":1,"updated_at":"2026-04-18T02:20:51.385965+05:30"},{"city":"Jodhpur","state":"Rajasthan","latitude":26.2389,"longitude":73.0243,"temp":26.8,"humidity":48,"rain":0.0,"pressure":981.5,"uv_index":8.15,"wind_gusts":27.4,"aqi":91,"pm10":110.6,"pm2_5":21.9,"mosquito_risk":4,"arthritis_risk":5,"migraine_risk":7,"frizz_risk":0,"updated_at":"2026-04-18T02:20:51.385972+05:30"},{"city":"Udaipur","state":"Rajasthan","latitude":24.5854,"longitude":73.7125,"temp":25.5,"humidity":31,"rain":0.0,"pressure":946.1,"uv_index":8.7,"wind_gusts":28.1,"aqi":51,"pm10":33.5,"pm2_5":13.1,"mosquito_risk":4,"arthritis_risk":5,"migraine_risk":7,"frizz_risk":0,"updated_at":"2026-04-18T02:20:51.385979+05:30"},{"city":"Kota","state":"Rajasthan","latitude":25.2138,"longitude":75.8648,"temp":28.4,"humidity":42,"rain":0.0,"pressure":977.1,"uv_index":8.25,"wind_gusts":25.6,"aqi":76,"pm10":42.8,"pm2_5":31.8,"mosquito_risk":4,"arthritis_risk":5,"migraine_risk":7,"frizz_risk":0,"updated_at":"2026-04-18T02:20:51.385986+05:30"},{"city":"Bikaner","state":"Rajasthan","latitude":28.0229,"longitude":73.3119,"temp":30.0,"humidity":23,"rain":0.0,"pressure":979.8,"uv_index":7.55,"wind_gusts":24.5,"aqi":68,"pm10":60.8,"pm2_5":15.5,"mosquito_risk":4,"arthritis_risk":5,"migraine_risk":7,"frizz_risk":0,"updated_at":"2026-04-18T02:20:51.385992+05:30"},{"city":"Ajmer","state":"Rajasthan","latitude":26.4499,"longitude":74.6399,"temp":26.2,"humidity":43,"rain":0.0,"pressure":953.9,"uv_index":8.15,"wind_gusts":33.1,"aqi":62,"pm10":68.2,"pm2_5":15.4,"mosquito_risk":4,"arthritis_risk":5,"migraine_risk":7,"frizz_risk":0,"updated_at":"2026-04-18T02:20:51.385998+05:30"},{"city":"Gwalior","state":"Madhya Pradesh","latitude":26.2183,"longitude":78.1828,"temp":28.9,"humidity":49,"rain":0.0,"pressure":981.8,"uv_index":8.0,"wind_gusts":23.0,"aqi":87,"pm10":152.3,"pm2_5":42.3,"mosquito_risk":4,"arthritis_risk":5,"migraine_risk":7,"frizz_risk":1,"updated_at":"2026-04-18T02:20:51.386004+05:30"},{"city":"Indore","state":"Madhya Pradesh","latitude":22.7196,"longitude":75.8577,"temp":24.4,"humidity":55,"rain":0.0,"pressure":947.1,"uv_index":8.15,"wind_gusts":24.5,"aqi":71,"pm10":17.1,"pm2_5":13.2,"mosquito_risk":0,"arthritis_risk":5,"migraine_risk":7,"frizz_risk":0,"updated_at":"2026-04-18T02:20:51.386010+05:30"},{"city":"Bhopal","state":"Madhya Pradesh","latitude":23.2599,"longitude":77.4126,"temp":27.2,"humidity":47,"rain":0.0,"pressure":952.8,"uv_index":8.05,"wind_gusts":23.4,"aqi":72,"pm10":33.8,"pm2_5":26.0,"mosquito_risk":4,"arthritis_risk":5,"migraine_risk":7,"frizz_risk":0,"updated_at":"2026-04-18T02:20:51.386016+05:30"},{"city":"Jabalpur","state":"Madhya Pradesh","latitude":23.1815,"longitude":79.9864,"temp":27.9,"humidity":56,"rain":0.0,"pressure":959.6,"uv_index":8.05,"wind_gusts":22.3,"aqi":72,"pm10":66.8,"pm2_5":34.9,"mosquito_risk":4,"arthritis_risk":5,"migraine_risk":7,"frizz_risk":1,"updated_at":"2026-04-18T02:20:51.386022+05:30"},{"city":"Ujjain","state":"Madhya Pradesh","latitude":23.1765,"longitude":75.7885,"temp":24.8,"humidity":53,"rain":0.0,"pressure":952.9,"uv_index":8.5,"wind_gusts":21.6,"aqi":70,"pm10":16.4,"pm2_5":12.2,"mosquito_risk":0,"arthritis_risk":5,"migraine_risk":7,"frizz_risk":0,"updated_at":"2026-04-18T02:20:51.386029+05:30"},{"city":"Visakhapatnam","state":"Andhra Pradesh","latitude":17.6868,"longitude":83.2185,"temp":27.9,"humidity":88,"rain":0.0,"pressure":1002.9,"uv_index":9.2,"wind_gusts":34.6,"aqi":50,"pm10":14.8,"pm2_5":11.1,"mosquito_risk":7,"arthritis_risk":5,"migraine_risk":4,"frizz_risk":1,"updated_at":"2026-04-18T02:20:51.386035+05:30"},{"city":"Vijayawada","state":"Andhra Pradesh","latitude":16.5062,"longitude":80.648,"temp":27.1,"humidity":92,"rain":0.0,"pressure":1001.7,"uv_index":9.2,"wind_gusts":24.1,"aqi":49,"pm10":10.0,"pm2_5":7.8,"mosquito_risk":7,"arthritis_risk":5,"migraine_risk":4,"frizz_risk":1,"updated_at":"2026-04-18T02:20:51.386041+05:30"},{"city":"Guntur","state":"Andhra Pradesh","latitude":16.3067,"longitude":80.4365,"temp":27.4,"humidity":90,"rain":0.0,"pressure":1002.6,"uv_index":9.25,"wind_gusts":27.4,"aqi":53,"pm10":10.3,"pm2_5":7.9,"mosquito_risk":7,"arthritis_risk":5,"migraine_risk":4,"frizz_risk":1,"updated_at":"2026-04-18T02:20:51.386047+05:30"},{"city":"Nellore","state":"Andhra Pradesh","latitude":14.4426,"longitude":79.9865,"temp":27.0,"humidity":88,"rain":0.0,"pressure":1004.4,"uv_index":8.85,"wind_gusts":30.6,"aqi":51,"pm10":10.1,"pm2_5":8.0,"mosquito_risk":7,"arthritis_risk":5,"migraine_risk":4,"frizz_risk":1,"updated_at":"2026-04-18T02:20:51.386054+05:30"},{"city":"Kurnool","state":"Andhra Pradesh","latitude":15.8281,"longitude":78.0373,"temp":31.4,"humidity":62,"rain":0.0,"pressure":975.3,"uv_index":9.25,"wind_gusts":27.7,"aqi":82,"pm10":22.1,"pm2_5":20.3,"mosquito_risk":3,"arthritis_risk":5,"migraine_risk":7,"frizz_risk":1,"updated_at":"2026-04-18T02:20:51.386061+05:30"},{"city":"Kakinada","state":"Andhra Pradesh","latitude":16.9891,"longitude":82.2475,"temp":27.4,"humidity":90,"rain":0.0,"pressure":1006.6,"uv_index":8.8,"wind_gusts":27.7,"aqi":32,"pm10":12.3,"pm2_5":7.9,"mosquito_risk":7,"arthritis_risk":5,"migraine_risk":4,"frizz_risk":1,"updated_at":"2026-04-18T02:20:51.386067+05:30"},{"city":"Tirupati","state":"Andhra Pradesh","latitude":13.6288,"longitude":79.4192,"temp":26.1,"humidity":89,"rain":0.0,"pressure":991.2,"uv_index":8.1,"wind_gusts":30.6,"aqi":72,"pm10":15.2,"pm2_5":13.5,"mosquito_risk":7,"arthritis_risk":5,"migraine_risk":7,"frizz_risk":1,"updated_at":"2026-04-18T02:20:51.386073+05:30"},{"city":"Warangal","state":"Telangana","latitude":17.9689,"longitude":79.5941,"temp":28.7,"humidity":76,"rain":0.0,"pressure":976.8,"uv_index":9.15,"wind_gusts":47.2,"aqi":77,"pm10":23.1,"pm2_5":21.7,"mosquito_risk":7,"arthritis_risk":5,"migraine_risk":7,"frizz_risk":1,"updated_at":"2026-04-18T02:20:51.386079+05:30"},{"city":"Nizamabad","state":"Telangana","latitude":18.6725,"longitude":78.0941,"temp":30.9,"humidity":46,"rain":0.0,"pressure":963.1,"uv_index":8.85,"wind_gusts":19.4,"aqi":102,"pm10":46.1,"pm2_5":43.0,"mosquito_risk":0,"arthritis_risk":5,"migraine_risk":7,"frizz_risk":1,"updated_at":"2026-04-18T02:20:51.386085+05:30"},{"city":"Mysore","state":"Karnataka","latitude":12.2958,"longitude":76.6396,"temp":24.5,"humidity":89,"rain":0.0,"pressure":927.6,"uv_index":8.8,"wind_gusts":34.2,"aqi":95,"pm10":33.5,"pm2_5":30.3,"mosquito_risk":3,"arthritis_risk":5,"migraine_risk":7,"frizz_risk":1,"updated_at":"2026-04-18T02:20:51.386090+05:30"},{"city":"Mangalore","state":"Karnataka","latitude":12.9141,"longitude":74.856,"temp":29.8,"humidity":80,"rain":0.0,"pressure":1005.2,"uv_index":9.15,"wind_gusts":24.8,"aqi":77,"pm10":27.7,"pm2_5":18.9,"mosquito_risk":7,"arthritis_risk":5,"migraine_risk":4,"frizz_risk":1,"updated_at":"2026-04-18T02:20:51.386096+05:30"},{"city":"Hubli-Dharwad","state":"Karnataka","latitude":15.3647,"longitude":75.124,"temp":24.5,"humidity":84,"rain":0.0,"pressure":939.0,"uv_index":9.25,"wind_gusts":28.1,"aqi":70,"pm10":22.9,"pm2_5":17.7,"mosquito_risk":3,"arthritis_risk":5,"migraine_risk":7,"frizz_risk":1,"updated_at":"2026-04-18T02:20:51.386103+05:30"},{"city":"Belgaum","state":"Karnataka","latitude":15.8497,"longitude":74.4977,"temp":23.0,"humidity":86,"rain":0.0,"pressure":924.1,"uv_index":9.3,"wind_gusts":28.4,"aqi":64,"pm10":33.1,"pm2_5":22.1,"mosquito_risk":3,"arthritis_risk":5,"migraine_risk":7,"frizz_risk":1,"updated_at":"2026-04-18T02:20:54.655151+05:30"},{"city":"Coimbatore","state":"Tamil Nadu","latitude":11.0168,"longitude":76.9558,"temp":25.0,"humidity":91,"rain":0.0,"pressure":960.9,"uv_index":9.1,"wind_gusts":33.5,"aqi":97,"pm10":46.0,"pm2_5":42.3,"mosquito_risk":7,"arthritis_risk":5,"migraine_risk":7,"frizz_risk":1,"updated_at":"2026-04-18T02:20:54.655182+05:30"},{"city":"Madurai","state":"Tamil Nadu","latitude":9.9252,"longitude":78.1198,"temp":27.8,"humidity":86,"rain":0.0,"pressure":992.2,"uv_index":9.35,"wind_gusts":33.1,"aqi":82,"pm10":29.3,"pm2_5":27.6,"mosquito_risk":7,"arthritis_risk":5,"migraine_risk":7,"frizz_risk":1,"updated_at":"2026-04-18T02:20:54.655192+05:30"},{"city":"Trichy","state":"Tamil Nadu","latitude":10.7905,"longitude":78.7047,"temp":27.1,"humidity":92,"rain":0.0,"pressure":999.1,"uv_index":9.3,"wind_gusts":18.7,"aqi":75,"pm10":19.4,"pm2_5":18.0,"mosquito_risk":7,"arthritis_risk":5,"migraine_risk":7,"frizz_risk":1,"updated_at":"2026-04-18T02:20:54.655201+05:30"},{"city":"Salem","state":"Tamil Nadu","latitude":11.6643,"longitude":78.146,"temp":27.1,"humidity":87,"rain":0.0,"pressure":976.5,"uv_index":9.4,"wind_gusts":19.1,"aqi":76,"pm10":35.5,"pm2_5":32.8,"mosquito_risk":7,"arthritis_risk":5,"migraine_risk":7,"frizz_risk":1,"updated_at":"2026-04-18T02:20:54.655208+05:30"},{"city":"Tirunelveli","state":"Tamil Nadu","latitude":8.7139,"longitude":77.7567,"temp":27.1,"humidity":76,"rain":0.0,"pressure":1002.0,"uv_index":9.25,"wind_gusts":47.2,"aqi":90,"pm10":36.0,"pm2_5":32.5,"mosquito_risk":7,"arthritis_risk":5,"migraine_risk":4,"frizz_risk":1,"updated_at":"2026-04-18T02:20:54.655215+05:30"},{"city":"Vellore","state":"Tamil Nadu","latitude":12.9165,"longitude":79.1325,"temp":25.7,"humidity":92,"rain":0.0,"pressure":984.0,"uv_index":8.6,"wind_gusts":28.4,"aqi":93,"pm10":36.0,"pm2_5":34.6,"mosquito_risk":7,"arthritis_risk":5,"migraine_risk":7,"frizz_risk":1,"updated_at":"2026-04-18T02:20:54.655222+05:30"},{"city":"Erode","state":"Tamil Nadu","latitude":11.341,"longitude":77.7172,"temp":28.6,"humidity":82,"rain":0.0,"pressure":988.3,"uv_index":9.35,"wind_gusts":26.6,"aqi":72,"pm10":21.8,"pm2_5":20.1,"mosquito_risk":7,"arthritis_risk":5,"migraine_risk":7,"frizz_risk":1,"updated_at":"2026-04-18T02:20:54.655229+05:30"},{"city":"Kochi","state":"Kerala","latitude":9.9312,"longitude":76.2673,"temp":28.7,"humidity":85,"rain":0.0,"pressure":1007.3,"uv_index":9.15,"wind_gusts":32.0,"aqi":100,"pm10":44.2,"pm2_5":35.4,"mosquito_risk":7,"arthritis_risk":5,"migraine_risk":4,"frizz_risk":1,"updated_at":"2026-04-18T02:20:54.655236+05:30"},{"city":"Thiruvananthapuram","state":"Kerala","latitude":8.5241,"longitude":76.9366,"temp":28.9,"humidity":82,"rain":0.0,"pressure":1006.5,"uv_index":9.1,"wind_gusts":25.6,"aqi":82,"pm10":29.7,"pm2_5":21.5,"mosquito_risk":7,"arthritis_risk":5,"migraine_risk":4,"frizz_risk":1,"updated_at":"2026-04-18T02:20:54.655243+05:30"},{"city":"Kozhikode","state":"Kerala","latitude":11.2588,"longitude":75.7804,"temp":29.4,"humidity":85,"rain":0.0,"pressure":1006.3,"uv_index":8.85,"wind_gusts":29.9,"aqi":95,"pm10":45.5,"pm2_5":27.5,"mosquito_risk":7,"arthritis_risk":5,"migraine_risk":4,"frizz_risk":1,"updated_at":"2026-04-18T02:20:54.655248+05:30"},{"city":"Thrissur","state":"Kerala","latitude":10.5276,"longitude":76.2144,"temp":28.6,"humidity":87,"rain":0.0,"pressure":1005.6,"uv_index":9.1,"wind_gusts":40.0,"aqi":98,"pm10":46.4,"pm2_5":32.7,"mosquito_risk":7,"arthritis_risk":5,"migraine_risk":4,"frizz_risk":1,"updated_at":"2026-04-18T02:20:54.655256+05:30"},{"city":"Kannur","state":"Kerala","latitude":11.8745,"longitude":75.3704,"temp":29.5,"humidity":82,"rain":0.0,"pressure":1005.6,"uv_index":8.5,"wind_gusts":31.0,"aqi":92,"pm10":31.5,"pm2_5":24.2,"mosquito_risk":7,"arthritis_risk":5,"migraine_risk":4,"frizz_risk":1,"updated_at":"2026-04-18T02:20:54.655263+05:30"},{"city":"Patna","state":"Bihar","latitude":25.5941,"longitude":85.1376,"temp":27.9,"humidity":78,"rain":0.0,"pressure":999.0,"uv_index":8.6,"wind_gusts":22.0,"aqi":151,"pm10":68.2,"pm2_5":59.0,"mosquito_risk":7,"arthritis_risk":5,"migraine_risk":7,"frizz_risk":1,"updated_at":"2026-04-18T02:20:54.655269+05:30"},{"city":"Gaya","state":"Bihar","latitude":24.7914,"longitude":85.0002,"temp":27.4,"humidity":79,"rain":0.0,"pressure":992.2,"uv_index":8.65,"wind_gusts":24.5,"aqi":138,"pm10":60.8,"pm2_5":50.8,"mosquito_risk":7,"arthritis_risk":5,"migraine_risk":7,"frizz_risk":1,"updated_at":"2026-04-18T02:20:54.655275+05:30"},{"city":"Muzaffarpur","state":"Bihar","latitude":26.1209,"longitude":85.3647,"temp":26.3,"humidity":83,"rain":0.0,"pressure":999.2,"uv_index":8.6,"wind_gusts":27.7,"aqi":153,"pm10":66.4,"pm2_5":57.6,"mosquito_risk":7,"arthritis_risk":5,"migraine_risk":7,"frizz_risk":1,"updated_at":"2026-04-18T02:20:54.655282+05:30"},{"city":"Bhagalpur","state":"Bihar","latitude":25.2425,"longitude":87.0117,"temp":26.0,"humidity":88,"rain":0.0,"pressure":1000.4,"uv_index":8.6,"wind_gusts":24.1,"aqi":153,"pm10":60.3,"pm2_5":53.4,"mosquito_risk":7,"arthritis_risk":5,"migraine_risk":4,"frizz_risk":1,"updated_at":"2026-04-18T02:20:54.655288+05:30"},{"city":"Ranchi","state":"Jharkhand","latitude":23.3441,"longitude":85.3096,"temp":24.2,"humidity":88,"rain":0.0,"pressure":937.0,"uv_index":9.1,"wind_gusts":37.1,"aqi":94,"pm10":56.2,"pm2_5":32.8,"mosquito_risk":3,"arthritis_risk":5,"migraine_risk":7,"frizz_risk":1,"updated_at":"2026-04-18T02:20:54.655295+05:30"},{"city":"Jamshedpur","state":"Jharkhand","latitude":22.8046,"longitude":86.2029,"temp":27.3,"humidity":87,"rain":0.0,"pressure":990.0,"uv_index":9.0,"wind_gusts":27.7,"aqi":85,"pm10":16.2,"pm2_5":14.8,"mosquito_risk":7,"arthritis_risk":5,"migraine_risk":7,"frizz_risk":1,"updated_at":"2026-04-18T02:20:54.655301+05:30"},{"city":"Dhanbad","state":"Jharkhand","latitude":23.7957,"longitude":86.4304,"temp":27.2,"humidity":84,"rain":0.0,"pressure":979.0,"uv_index":8.95,"wind_gusts":23.8,"aqi":150,"pm10":43.9,"pm2_5":42.8,"mosquito_risk":7,"arthritis_risk":5,"migraine_risk":7,"frizz_risk":1,"updated_at":"2026-04-18T02:20:54.655307+05:30"},{"city":"Bokaro","state":"Jharkhand","latitude":23.6693,"longitude":86.1511,"temp":26.4,"humidity":92,"rain":0.0,"pressure":983.0,"uv_index":8.95,"wind_gusts":24.1,"aqi":154,"pm10":74.5,"pm2_5":65.4,"mosquito_risk":7,"arthritis_risk":5,"migraine_risk":7,"frizz_risk":1,"updated_at":"2026-04-18T02:20:54.655313+05:30"},{"city":"Bhubaneswar","state":"Odisha","latitude":20.2961,"longitude":85.8245,"temp":27.1,"humidity":91,"rain":0.0,"pressure":1001.5,"uv_index":8.65,"wind_gusts":28.1,"aqi":54,"pm10":13.6,"pm2_5":10.0,"mosquito_risk":7,"arthritis_risk":5,"migraine_risk":4,"frizz_risk":1,"updated_at":"2026-04-18T02:20:54.655319+05:30"},{"city":"Cuttack","state":"Odisha","latitude":20.4625,"longitude":85.8828,"temp":27.1,"humidity":92,"rain":0.0,"pressure":1003.4,"uv_index":8.75,"wind_gusts":25.6,"aqi":54,"pm10":13.6,"pm2_5":10.0,"mosquito_risk":7,"arthritis_risk":5,"migraine_risk":4,"frizz_risk":1,"updated_at":"2026-04-18T02:20:54.655324+05:30"},{"city":"Rourkela","state":"Odisha","latitude":22.2604,"longitude":84.8536,"temp":28.1,"humidity":80,"rain":0.0,"pressure":983.9,"uv_index":8.6,"wind_gusts":40.3,"aqi":109,"pm10":65.2,"pm2_5":50.1,"mosquito_risk":7,"arthritis_risk":5,"migraine_risk":7,"frizz_risk":1,"updated_at":"2026-04-18T02:20:54.655330+05:30"},{"city":"Raipur","state":"Chhattisgarh","latitude":21.2514,"longitude":81.6296,"temp":29.5,"humidity":55,"rain":0.0,"pressure":972.3,"uv_index":8.95,"wind_gusts":28.8,"aqi":108,"pm10":64.7,"pm2_5":52.0,"mosquito_risk":4,"arthritis_risk":5,"migraine_risk":7,"frizz_risk":1,"updated_at":"2026-04-18T02:20:54.655336+05:30"},{"city":"Bhilai","state":"Chhattisgarh","latitude":21.1938,"longitude":81.3509,"temp":28.1,"humidity":66,"rain":0.0,"pressure":972.4,"uv_index":9.0,"wind_gusts":29.9,"aqi":102,"pm10":71.2,"pm2_5":61.2,"mosquito_risk":7,"arthritis_risk":5,"migraine_risk":7,"frizz_risk":1,"updated_at":"2026-04-18T02:20:54.655342+05:30"},{"city":"Guwahati","state":"Assam","latitude":26.1158,"longitude":91.7086,"temp":25.7,"humidity":80,"rain":0.0,"pressure":1001.6,"uv_index":8.5,"wind_gusts":24.1,"aqi":151,"pm10":71.2,"pm2_5":62.2,"mosquito_risk":7,"arthritis_risk":5,"migraine_risk":4,"frizz_risk":1,"updated_at":"2026-04-18T02:20:54.655348+05:30"},{"city":"Agartala","state":"Tripura","latitude":23.8315,"longitude":91.2868,"temp":24.7,"humidity":92,"rain":0.0,"pressure":1006.2,"uv_index":8.7,"wind_gusts":19.4,"aqi":127,"pm10":49.7,"pm2_5":43.2,"mosquito_risk":3,"arthritis_risk":5,"migraine_risk":4,"frizz_risk":1,"updated_at":"2026-04-18T02:20:54.655354+05:30"},{"city":"Shillong","state":"Meghalaya","latitude":25.5788,"longitude":91.8933,"temp":12.7,"humidity":87,"rain":0.0,"pressure":854.9,"uv_index":6.7,"wind_gusts":27.7,"aqi":126,"pm10":56.3,"pm2_5":47.8,"mosquito_risk":3,"arthritis_risk":10,"migraine_risk":7,"frizz_risk":0,"updated_at":"2026-04-18T02:20:54.655361+05:30"},{"city":"Imphal","state":"Manipur","latitude":24.817,"longitude":93.9368,"temp":19.0,"humidity":89,"rain":0.0,"pressure":923.6,"uv_index":8.5,"wind_gusts":44.6,"aqi":153,"pm10":105.5,"pm2_5":85.7,"mosquito_risk":3,"arthritis_risk":10,"migraine_risk":7,"frizz_risk":1,"updated_at":"2026-04-18T02:20:54.655367+05:30"},{"city":"Aizawl","state":"Mizoram","latitude":23.7271,"longitude":92.7176,"temp":18.2,"humidity":94,"rain":0.0,"pressure":892.9,"uv_index":8.95,"wind_gusts":36.7,"aqi":150,"pm10":27.1,"pm2_5":20.3,"mosquito_risk":3,"arthritis_risk":10,"migraine_risk":7,"frizz_risk":1,"updated_at":"2026-04-18T02:20:54.655373+05:30"},{"city":"Kohima","state":"Nagaland","latitude":25.6701,"longitude":94.1077,"temp":16.0,"humidity":89,"rain":0.0,"pressure":855.2,"uv_index":8.2,"wind_gusts":47.5,"aqi":121,"pm10":71.2,"pm2_5":48.7,"mosquito_risk":3,"arthritis_risk":10,"migraine_risk":7,"frizz_risk":0,"updated_at":"2026-04-18T02:20:54.655379+05:30"},{"city":"Gangtok","state":"Sikkim","latitude":27.3314,"longitude":88.6138,"temp":16.0,"humidity":91,"rain":0.0,"pressure":837.6,"uv_index":8.85,"wind_gusts":20.5,"aqi":117,"pm10":48.8,"pm2_5":37.1,"mosquito_risk":3,"arthritis_risk":10,"migraine_risk":7,"frizz_risk":0,"updated_at":"2026-04-18T02:20:54.655385+05:30"},{"city":"Siliguri","state":"West Bengal","latitude":26.7271,"longitude":88.3953,"temp":21.6,"humidity":77,"rain":0.0,"pressure":994.5,"uv_index":7.15,"wind_gusts":17.6,"aqi":160,"pm10":122.0,"pm2_5":82.7,"mosquito_risk":3,"arthritis_risk":5,"migraine_risk":7,"frizz_risk":1,"updated_at":"2026-04-18T02:20:57.923848+05:30"},{"city":"Durgapur","state":"West Bengal","latitude":23.5204,"longitude":87.3119,"temp":26.8,"humidity":90,"rain":0.0,"pressure":994.3,"uv_index":8.75,"wind_gusts":31.3,"aqi":125,"pm10":39.5,"pm2_5":37.5,"mosquito_risk":7,"arthritis_risk":5,"migraine_risk":7,"frizz_risk":1,"updated_at":"2026-04-18T02:20:57.923883+05:30"},{"city":"Asansol","state":"West Bengal","latitude":23.6739,"longitude":86.9524,"temp":27.5,"humidity":86,"rain":0.0,"pressure":992.9,"uv_index":8.65,"wind_gusts":39.6,"aqi":127,"pm10":32.7,"pm2_5":31.2,"mosquito_risk":7,"arthritis_risk":5,"migraine_risk":7,"frizz_risk":1,"updated_at":"2026-04-18T02:20:57.923895+05:30"},{"city":"Pondicherry","state":"Puducherry","latitude":11.9139,"longitude":79.8145,"temp":26.5,"humidity":95,"rain":0.0,"pressure":1007.7,"uv_index":8.4,"wind_gusts":28.1,"aqi":32,"pm10":11.5,"pm2_5":7.5,"mosquito_risk":7,"arthritis_risk":5,"migraine_risk":4,"frizz_risk":1,"updated_at":"2026-04-18T02:20:57.923904+05:30"},{"city":"Port Blair","state":"Andaman and Nicobar Islands","latitude":11.6234,"longitude":92.7265,"temp":29.0,"humidity":76,"rain":0.0,"pressure":1005.8,"uv_index":9.2,"wind_gusts":13.3,"aqi":46,"pm10":12.0,"pm2_5":8.4,"mosquito_risk":7,"arthritis_risk":5,"migraine_risk":4,"frizz_risk":1,"updated_at":"2026-04-18T02:20:57.923913+05:30"},{"city":"Haridwar","state":"Uttarakhand","latitude":29.9457,"longitude":78.1642,"temp":21.7,"humidity":63,"rain":0.0,"pressure":973.4,"uv_index":7.05,"wind_gusts":28.8,"aqi":58,"pm10":24.2,"pm2_5":17.7,"mosquito_risk":3,"arthritis_risk":5,"migraine_risk":7,"frizz_risk":0,"updated_at":"2026-04-18T02:20:57.923922+05:30"},{"city":"Rishikesh","state":"Uttarakhand","latitude":30.0869,"longitude":78.2676,"temp":21.4,"humidity":59,"rain":0.0,"pressure":966.4,"uv_index":6.9,"wind_gusts":33.8,"aqi":50,"pm10":21.8,"pm2_5":13.5,"mosquito_risk":0,"arthritis_risk":5,"migraine_risk":7,"frizz_risk":0,"updated_at":"2026-04-18T02:20:57.923932+05:30"},{"city":"Nainital","state":"Uttarakhand","latitude":29.3919,"longitude":79.4542,"temp":22.9,"humidity":30,"rain":0.0,"pressure":807.7,"uv_index":8.1,"wind_gusts":57.2,"aqi":67,"pm10":27.4,"pm2_5":14.0,"mosquito_risk":0,"arthritis_risk":5,"migraine_risk":7,"frizz_risk":0,"updated_at":"2026-04-18T02:20:57.923941+05:30"},{"city":"Mussoorie","state":"Uttarakhand","latitude":30.4599,"longitude":78.0664,"temp":18.9,"humidity":41,"rain":0.0,"pressure":804.4,"uv_index":7.4,"wind_gusts":40.7,"aqi":54,"pm10":19.3,"pm2_5":13.1,"mosquito_risk":0,"arthritis_risk":5,"migraine_risk":7,"frizz_risk":0,"updated_at":"2026-04-18T02:20:57.923949+05:30"},{"city":"Dharamshala","state":"Himachal Pradesh","latitude":32.219,"longitude":76.3234,"temp":21.8,"humidity":36,"rain":0.0,"pressure":870.3,"uv_index":7.05,"wind_gusts":40.7,"aqi":39,"pm10":9.6,"pm2_5":6.9,"mosquito_risk":0,"arthritis_risk":5,"migraine_risk":7,"frizz_risk":0,"updated_at":"2026-04-18T02:20:57.923958+05:30"},{"city":"Dalhousie","state":"Himachal Pradesh","latitude":32.5387,"longitude":75.971,"temp":17.8,"humidity":38,"rain":0.0,"pressure":804.7,"uv_index":6.7,"wind_gusts":38.9,"aqi":56,"pm10":23.7,"pm2_5":20.8,"mosquito_risk":0,"arthritis_risk":5,"migraine_risk":7,"frizz_risk":0,"updated_at":"2026-04-18T02:20:57.923967+05:30"},{"city":"Patiala","state":"Punjab","latitude":30.3398,"longitude":76.3869,"temp":21.2,"humidity":64,"rain":0.0,"pressure":977.1,"uv_index":7.2,"wind_gusts":23.0,"aqi":169,"pm10":108.3,"pm2_5":37.1,"mosquito_risk":3,"arthritis_risk":5,"migraine_risk":7,"frizz_risk":0,"updated_at":"2026-04-18T02:20:57.923976+05:30"},{"city":"Bhatinda","state":"Punjab","latitude":30.211,"longitude":74.9455,"temp":24.5,"humidity":48,"rain":0.0,"pressure":982.8,"uv_index":7.85,"wind_gusts":35.3,"aqi":107,"pm10":187.2,"pm2_5":43.2,"mosquito_risk":0,"arthritis_risk":5,"migraine_risk":7,"frizz_risk":0,"updated_at":"2026-04-18T02:20:57.923984+05:30"},{"city":"Rohtak","state":"Haryana","latitude":28.8955,"longitude":76.6066,"temp":21.9,"humidity":71,"rain":0.0,"pressure":980.5,"uv_index":6.95,"wind_gusts":14.4,"aqi":184,"pm10":204.9,"pm2_5":79.9,"mosquito_risk":3,"arthritis_risk":5,"migraine_risk":7,"frizz_risk":1,"updated_at":"2026-04-18T02:20:57.923992+05:30"},{"city":"Panipat","state":"Haryana","latitude":29.3909,"longitude":76.9635,"temp":21.8,"humidity":64,"rain":0.0,"pressure":979.0,"uv_index":7.2,"wind_gusts":13.0,"aqi":407,"pm10":466.6,"pm2_5":96.6,"mosquito_risk":3,"arthritis_risk":5,"migraine_risk":7,"frizz_risk":0,"updated_at":"2026-04-18T02:20:57.924000+05:30"},{"city":"Mathura","state":"Uttar Pradesh","latitude":27.4924,"longitude":77.6737,"temp":23.8,"humidity":59,"rain":0.0,"pressure":985.3,"uv_index":7.65,"wind_gusts":22.0,"aqi":272,"pm10":543.9,"pm2_5":93.8,"mosquito_risk":0,"arthritis_risk":5,"migraine_risk":7,"frizz_risk":0,"updated_at":"2026-04-18T02:20:57.924008+05:30"},{"city":"Vrindavan","state":"Uttar Pradesh","latitude":27.5823,"longitude":77.7027,"temp":24.9,"humidity":54,"rain":0.0,"pressure":985.9,"uv_index":7.6,"wind_gusts":21.2,"aqi":272,"pm10":543.9,"pm2_5":93.8,"mosquito_risk":0,"arthritis_risk":5,"migraine_risk":7,"frizz_risk":0,"updated_at":"2026-04-18T02:20:57.924015+05:30"},{"city":"Ayodhya","state":"Uttar Pradesh","latitude":26.7922,"longitude":82.1998,"temp":25.2,"humidity":77,"rain":0.0,"pressure":993.4,"uv_index":8.0,"wind_gusts":27.7,"aqi":133,"pm10":87.5,"pm2_5":37.4,"mosquito_risk":7,"arthritis_risk":5,"migraine_risk":7,"frizz_risk":1,"updated_at":"2026-04-18T02:20:57.924021+05:30"},{"city":"Ratlam","state":"Madhya Pradesh","latitude":23.3315,"longitude":75.0367,"temp":26.5,"humidity":44,"rain":0.0,"pressure":953.6,"uv_index":8.45,"wind_gusts":21.2,"aqi":59,"pm10":17.0,"pm2_5":11.7,"mosquito_risk":4,"arthritis_risk":5,"migraine_risk":7,"frizz_risk":0,"updated_at":"2026-04-18T02:20:57.924028+05:30"},{"city":"Sagar","state":"Madhya Pradesh","latitude":23.8388,"longitude":78.7378,"temp":28.1,"humidity":52,"rain":0.0,"pressure":948.6,"uv_index":8.2,"wind_gusts":25.9,"aqi":65,"pm10":48.7,"pm2_5":26.2,"mosquito_risk":4,"arthritis_risk":5,"migraine_risk":7,"frizz_risk":1,"updated_at":"2026-04-18T02:20:57.924035+05:30"},{"city":"Satna","state":"Madhya Pradesh","latitude":24.6005,"longitude":80.8322,"temp":28.7,"humidity":43,"rain":0.0,"pressure":969.6,"uv_index":8.0,"wind_gusts":18.4,"aqi":74,"pm10":51.2,"pm2_5":18.3,"mosquito_risk":4,"arthritis_risk":5,"migraine_risk":7,"frizz_risk":0,"updated_at":"2026-04-18T02:20:57.924041+05:30"},{"city":"Akola","state":"Maharashtra","latitude":20.7002,"longitude":77.0082,"temp":28.3,"humidity":55,"rain":0.0,"pressure":973.2,"uv_index":8.5,"wind_gusts":26.6,"aqi":76,"pm10":18.2,"pm2_5":14.8,"mosquito_risk":4,"arthritis_risk":5,"migraine_risk":7,"frizz_risk":1,"updated_at":"2026-04-18T02:20:57.924048+05:30"},{"city":"Amravati","state":"Maharashtra","latitude":20.9374,"longitude":77.7796,"temp":27.0,"humidity":53,"rain":0.0,"pressure":965.0,"uv_index":8.0,"wind_gusts":21.2,"aqi":62,"pm10":17.4,"pm2_5":15.5,"mosquito_risk":4,"arthritis_risk":5,"migraine_risk":7,"frizz_risk":1,"updated_at":"2026-04-18T02:20:57.924055+05:30"},{"city":"Latur","state":"Maharashtra","latitude":18.4088,"longitude":76.5604,"temp":26.1,"humidity":64,"rain":0.0,"pressure":938.8,"uv_index":8.85,"wind_gusts":19.4,"aqi":77,"pm10":43.9,"pm2_5":40.0,"mosquito_risk":7,"arthritis_risk":5,"migraine_risk":7,"frizz_risk":1,"updated_at":"2026-04-18T02:20:57.924062+05:30"},{"city":"Nanded","state":"Maharashtra","latitude":19.1383,"longitude":77.3091,"temp":28.4,"humidity":58,"rain":0.0,"pressure":967.1,"uv_index":8.8,"wind_gusts":20.5,"aqi":82,"pm10":55.4,"pm2_5":50.4,"mosquito_risk":4,"arthritis_risk":5,"migraine_risk":7,"frizz_risk":1,"updated_at":"2026-04-18T02:20:57.924068+05:30"},{"city":"Gulbarga","state":"Karnataka","latitude":17.3297,"longitude":76.8343,"temp":29.6,"humidity":54,"rain":0.0,"pressure":957.2,"uv_index":9.15,"wind_gusts":20.9,"aqi":88,"pm10":38.5,"pm2_5":35.3,"mosquito_risk":4,"arthritis_risk":5,"migraine_risk":7,"frizz_risk":1,"updated_at":"2026-04-18T02:20:57.924075+05:30"},{"city":"Bidar","state":"Karnataka","latitude":17.9104,"longitude":77.5199,"temp":28.3,"humidity":53,"rain":0.0,"pressure":934.1,"uv_index":9.15,"wind_gusts":23.0,"aqi":94,"pm10":39.3,"pm2_5":36.3,"mosquito_risk":4,"arthritis_risk":5,"migraine_risk":7,"frizz_risk":1,"updated_at":"2026-04-18T02:20:57.924081+05:30"},{"city":"Hospet","state":"Karnataka","latitude":15.2689,"longitude":76.3909,"temp":28.5,"humidity":70,"rain":0.0,"pressure":954.7,"uv_index":9.25,"wind_gusts":20.9,"aqi":88,"pm10":46.0,"pm2_5":42.8,"mosquito_risk":7,"arthritis_risk":5,"migraine_risk":7,"frizz_risk":1,"updated_at":"2026-04-18T02:20:57.924087+05:30"},{"city":"Tirupur","state":"Tamil Nadu","latitude":11.1085,"longitude":77.3411,"temp":27.6,"humidity":80,"rain":0.0,"pressure":974.5,"uv_index":9.4,"wind_gusts":31.0,"aqi":80,"pm10":26.8,"pm2_5":24.3,"mosquito_risk":7,"arthritis_risk":5,"migraine_risk":7,"frizz_risk":1,"updated_at":"2026-04-18T02:20:57.924092+05:30"},{"city":"Alappuzha","state":"Kerala","latitude":9.4981,"longitude":76.3388,"temp":28.7,"humidity":83,"rain":0.0,"pressure":1007.4,"uv_index":9.15,"wind_gusts":28.8,"aqi":99,"pm10":47.1,"pm2_5":32.8,"mosquito_risk":7,"arthritis_risk":5,"migraine_risk":4,"frizz_risk":1,"updated_at":"2026-04-18T02:20:57.924099+05:30"},{"city":"Munnar","state":"Kerala","latitude":10.0889,"longitude":77.0595,"temp":21.7,"humidity":90,"rain":0.0,"pressure":856.1,"uv_index":9.7,"wind_gusts":25.2,"aqi":83,"pm10":40.6,"pm2_5":36.8,"mosquito_risk":3,"arthritis_risk":5,"migraine_risk":7,"frizz_risk":1,"updated_at":"2026-04-18T02:20:57.924106+05:30"},{"city":"Silchar","state":"Assam","latitude":24.8333,"longitude":92.7789,"temp":23.6,"humidity":88,"rain":0.0,"pressure":1006.1,"uv_index":8.75,"wind_gusts":22.3,"aqi":157,"pm10":111.8,"pm2_5":90.3,"mosquito_risk":3,"arthritis_risk":5,"migraine_risk":4,"frizz_risk":1,"updated_at":"2026-04-18T02:20:57.924113+05:30"},{"city":"Dibrugarh","state":"Assam","latitude":27.4728,"longitude":94.912,"temp":25.5,"humidity":83,"rain":0.0,"pressure":995.7,"uv_index":8.65,"wind_gusts":13.7,"aqi":139,"pm10":59.3,"pm2_5":47.1,"mosquito_risk":7,"arthritis_risk":5,"migraine_risk":7,"frizz_risk":1,"updated_at":"2026-04-18T02:20:57.924119+05:30"}]