[{"city":"Delhi","state":"Delhi","latitude":28.6139,"longitude":77.209,"temp":29.9,"humidity":29,"rain":0.0,"pressure":980.7,"uv_index":7.45,"wind_gusts":48.6,"aqi":600,"pm10":542.0,"pm2_5":108.3,"mosquito_risk":4,"arthritis_risk":5,"migraine_risk":7,"frizz_risk":0,"updated_at":"2026-04-26T03:09:47.106168+05:30"},{"city":"Mumbai","state":"Maharashtra","latitude":19.076,"longitude":72.8777,"temp":28.8,"humidity":49,"rain":0.0,"pressure":1006.1,"uv_index":7.7,"wind_gusts":38.9,"aqi":81,"pm10":49.6,"pm2_5":25.9,"mosquito_risk":4,"arthritis_risk":5,"migraine_risk":4,"frizz_risk":1,"updated_at":"2026-04-26T03:09:47.106222+05:30"},{"city":"Bangalore","state":"Karnataka","latitude":12.9716,"longitude":77.5946,"temp":24.8,"humidity":60,"rain":0.0,"pressure":910.9,"uv_index":9.5,"wind_gusts":36.7,"aqi":77,"pm10":32.7,"pm2_5":29.0,"mosquito_risk":0,"arthritis_risk":5,"migraine_risk":7,"frizz_risk":1,"updated_at":"2026-04-26T03:09:47.106239+05:30"},{"city":"Hyderabad","state":"Telangana","latitude":17.385,"longitude":78.4867,"temp":28.1,"humidity":56,"rain":0.0,"pressure":951.8,"uv_index":8.85,"wind_gusts":28.8,"aqi":118,"pm10":28.9,"pm2_5":24.8,"mosquito_risk":4,"arthritis_risk":5,"migraine_risk":7,"frizz_risk":1,"updated_at":"2026-04-26T03:09:47.106250+05:30"},{"city":"Chennai","state":"Tamil Nadu","latitude":13.0827,"longitude":80.2707,"temp":27.4,"humidity":91,"rain":0.0,"pressure":1005.9,"uv_index":9.25,"wind_gusts":52.2,"aqi":34,"pm10":14.3,"pm2_5":9.3,"mosquito_risk":7,"arthritis_risk":5,"migraine_risk":4,"frizz_risk":1,"updated_at":"2026-04-26T03:09:47.106260+05:30"},{"city":"Kolkata","state":"West Bengal","latitude":22.5726,"longitude":88.3639,"temp":27.5,"humidity":90,"rain":0.0,"pressure":1004.7,"uv_index":8.6,"wind_gusts":47.2,"aqi":74,"pm10":24.2,"pm2_5":19.2,"mosquito_risk":7,"arthritis_risk":5,"migraine_risk":4,"frizz_risk":1,"updated_at":"2026-04-26T03:09:47.106274+05:30"},{"city":"Pune","state":"Maharashtra","latitude":18.5204,"longitude":73.8567,"temp":28.5,"humidity":22,"rain":0.0,"pressure":946.3,"uv_index":8.6,"wind_gusts":37.4,"aqi":106,"pm10":36.1,"pm2_5":29.5,"mosquito_risk":4,"arthritis_risk":5,"migraine_risk":7,"frizz_risk":0,"updated_at":"2026-04-26T03:09:47.106282+05:30"},{"city":"Ahmedabad","state":"Gujarat","latitude":23.0225,"longitude":72.5714,"temp":30.8,"humidity":28,"rain":0.0,"pressure":1000.1,"uv_index":8.2,"wind_gusts":34.9,"aqi":62,"pm10":35.5,"pm2_5":15.6,"mosquito_risk":0,"arthritis_risk":5,"migraine_risk":4,"frizz_risk":0,"updated_at":"2026-04-26T03:09:47.106290+05:30"},{"city":"Jaipur","state":"Rajasthan","latitude":26.9124,"longitude":75.7873,"temp":31.2,"humidity":25,"rain":0.0,"pressure":958.2,"uv_index":8.05,"wind_gusts":42.8,"aqi":139,"pm10":272.9,"pm2_5":53.2,"mosquito_risk":0,"arthritis_risk":5,"migraine_risk":7,"frizz_risk":0,"updated_at":"2026-04-26T03:09:47.106300+05:30"},{"city":"Lucknow","state":"Uttar Pradesh","latitude":26.8467,"longitude":80.9462,"temp":29.6,"humidity":35,"rain":0.0,"pressure":990.4,"uv_index":7.9,"wind_gusts":48.6,"aqi":122,"pm10":191.4,"pm2_5":48.1,"mosquito_risk":4,"arthritis_risk":5,"migraine_risk":7,"frizz_risk":0,"updated_at":"2026-04-26T03:09:47.106308+05:30"},{"city":"Kanpur","state":"Uttar Pradesh","latitude":26.4499,"longitude":80.3319,"temp":30.5,"humidity":27,"rain":0.0,"pressure":988.2,"uv_index":7.9,"wind_gusts":47.2,"aqi":193,"pm10":612.8,"pm2_5":87.8,"mosquito_risk":0,"arthritis_risk":5,"migraine_risk":7,"frizz_risk":0,"updated_at":"2026-04-26T03:09:47.106316+05:30"},{"city":"Chandigarh","state":"Chandigarh","latitude":30.7333,"longitude":76.7794,"temp":26.5,"humidity":32,"rain":0.0,"pressure":965.5,"uv_index":7.4,"wind_gusts":46.1,"aqi":64,"pm10":44.7,"pm2_5":22.7,"mosquito_risk":4,"arthritis_risk":5,"migraine_risk":7,"frizz_risk":0,"updated_at":"2026-04-26T03:09:47.106325+05:30"},{"city":"Srinagar","state":"Jammu and Kashmir","latitude":34.0837,"longitude":74.7973,"temp":8.8,"humidity":99,"rain":0.0,"pressure":842.2,"uv_index":8.6,"wind_gusts":14.8,"aqi":80,"pm10":55.8,"pm2_5":39.1,"mosquito_risk":3,"arthritis_risk":10,"migraine_risk":7,"frizz_risk":0,"updated_at":"2026-04-26T03:09:47.106333+05:30"},{"city":"Jammu","state":"Jammu and Kashmir","latitude":32.7266,"longitude":74.857,"temp":22.4,"humidity":47,"rain":0.0,"pressure":970.4,"uv_index":8.15,"wind_gusts":36.4,"aqi":75,"pm10":32.7,"pm2_5":23.7,"mosquito_risk":0,"arthritis_risk":5,"migraine_risk":7,"frizz_risk":0,"updated_at":"2026-04-26T03:09:47.106341+05:30"},{"city":"Amritsar","state":"Punjab","latitude":31.634,"longitude":74.8723,"temp":26.5,"humidity":41,"rain":0.0,"pressure":978.6,"uv_index":8.1,"wind_gusts":33.5,"aqi":102,"pm10":120.1,"pm2_5":50.1,"mosquito_risk":4,"arthritis_risk":5,"migraine_risk":7,"frizz_risk":0,"updated_at":"2026-04-26T03:09:47.106348+05:30"},{"city":"Ludhiana","state":"Punjab","latitude":30.901,"longitude":75.8573,"temp":26.0,"humidity":44,"rain":0.0,"pressure":976.4,"uv_index":7.65,"wind_gusts":39.2,"aqi":87,"pm10":78.2,"pm2_5":37.6,"mosquito_risk":4,"arthritis_risk":5,"migraine_risk":7,"frizz_risk":0,"updated_at":"2026-04-26T03:09:47.106358+05:30"},{"city":"Jalandhar","state":"Punjab","latitude":31.326,"longitude":75.5762,"temp":25.4,"humidity":48,"rain":0.0,"pressure":977.3,"uv_index":7.85,"wind_gusts":32.4,"aqi":97,"pm10":103.1,"pm2_5":47.4,"mosquito_risk":4,"arthritis_risk":5,"migraine_risk":7,"frizz_risk":0,"updated_at":"2026-04-26T03:09:47.106365+05:30"},{"city":"Dehradun","state":"Uttarakhand","latitude":30.6284,"longitude":78.0322,"temp":11.0,"humidity":71,"rain":0.0,"pressure":825.4,"uv_index":7.8,"wind_gusts":49.3,"aqi":49,"pm10":23.8,"pm2_5":11.6,"mosquito_risk":3,"arthritis_risk":5,"migraine_risk":7,"frizz_risk":0,"updated_at":"2026-04-26T03:09:47.106372+05:30"},{"city":"Shimla","state":"Himachal Pradesh","latitude":31.1048,"longitude":77.1734,"temp":13.9,"humidity":42,"rain":0.0,"pressure":783.0,"uv_index":7.9,"wind_gusts":46.4,"aqi":58,"pm10":62.9,"pm2_5":20.0,"mosquito_risk":0,"arthritis_risk":5,"migraine_risk":7,"frizz_risk":0,"updated_at":"2026-04-26T03:09:47.106380+05:30"},{"city":"Manali","state":"Himachal Pradesh","latitude":32.2396,"longitude":77.1887,"temp":9.2,"humidity":61,"rain":0.0,"pressure":815.0,"uv_index":9.3,"wind_gusts":42.5,"aqi":46,"pm10":3.7,"pm2_5":2.6,"mosquito_risk":3,"arthritis_risk":5,"migraine_risk":7,"frizz_risk":0,"updated_at":"2026-04-26T03:09:47.106388+05:30"},{"city":"Gurgaon","state":"Haryana","latitude":28.4595,"longitude":77.0266,"temp":26.5,"humidity":37,"rain":0.0,"pressure":979.1,"uv_index":7.55,"wind_gusts":46.8,"aqi":1449,"pm10":1110.1,"pm2_5":162.1,"mosquito_risk":4,"arthritis_risk":5,"migraine_risk":7,"frizz_risk":0,"updated_at":"2026-04-26T03:09:47.106395+05:30"},{"city":"Noida","state":"Uttar Pradesh","latitude":28.5355,"longitude":77.391,"temp":29.0,"humidity":32,"rain":0.0,"pressure":981.8,"uv_index":7.45,"wind_gusts":41.4,"aqi":1449,"pm10":1110.1,"pm2_5":162.1,"mosquito_risk":4,"arthritis_risk":5,"migraine_risk":7,"frizz_risk":0,"updated_at":"2026-04-26T03:09:47.106401+05:30"},{"city":"Ghaziabad","state":"Uttar Pradesh","latitude":28.6692,"longitude":77.4538,"temp":28.8,"humidity":33,"rain":0.0,"pressure":980.0,"uv_index":7.45,"wind_gusts":47.2,"aqi":422,"pm10":510.4,"pm2_5":104.3,"mosquito_risk":4,"arthritis_risk":5,"migraine_risk":7,"frizz_risk":0,"updated_at":"2026-04-26T03:09:47.106407+05:30"},{"city":"Faridabad","state":"Haryana","latitude":28.4089,"longitude":77.3178,"temp":30.8,"humidity":27,"rain":0.0,"pressure":981.3,"uv_index":7.5,"wind_gusts":51.5,"aqi":1449,"pm10":1110.1,"pm2_5":162.1,"mosquito_risk":0,"arthritis_risk":5,"migraine_risk":7,"frizz_risk":0,"updated_at":"2026-04-26T03:09:47.106414+05:30"},{"city":"Meerut","state":"Uttar Pradesh","latitude":28.9845,"longitude":77.7064,"temp":28.3,"humidity":34,"rain":0.0,"pressure":978.5,"uv_index":7.35,"wind_gusts":40.7,"aqi":422,"pm10":510.4,"pm2_5":104.3,"mosquito_risk":4,"arthritis_risk":5,"migraine_risk":7,"frizz_risk":0,"updated_at":"2026-04-26T03:09:47.106421+05:30"},{"city":"Agra","state":"Uttar Pradesh","latitude":27.1767,"longitude":78.0081,"temp":29.4,"humidity":31,"rain":0.0,"pressure":985.2,"uv_index":7.8,"wind_gusts":47.2,"aqi":812,"pm10":1192.1,"pm2_5":186.7,"mosquito_risk":4,"arthritis_risk":5,"migraine_risk":7,"frizz_risk":0,"updated_at":"2026-04-26T03:09:47.106429+05:30"},{"city":"Varanasi","state":"Uttar Pradesh","latitude":25.3176,"longitude":82.9739,"temp":29.0,"humidity":51,"rain":0.0,"pressure":993.8,"uv_index":8.5,"wind_gusts":46.1,"aqi":139,"pm10":116.9,"pm2_5":63.6,"mosquito_risk":4,"arthritis_risk":5,"migraine_risk":7,"frizz_risk":1,"updated_at":"2026-04-26T03:09:47.106436+05:30"},{"city":"Prayagraj","state":"Uttar Pradesh","latitude":25.4358,"longitude":81.8463,"temp":27.9,"humidity":36,"rain":0.0,"pressure":992.2,"uv_index":8.4,"wind_gusts":41.0,"aqi":118,"pm10":81.3,"pm2_5":51.2,"mosquito_risk":4,"arthritis_risk":5,"migraine_risk":7,"frizz_risk":0,"updated_at":"2026-04-26T03:09:47.106444+05:30"},{"city":"Gorakhpur","state":"Uttar Pradesh","latitude":26.7606,"longitude":83.3732,"temp":26.5,"humidity":65,"rain":0.0,"pressure":995.0,"uv_index":8.35,"wind_gusts":35.6,"aqi":151,"pm10":84.8,"pm2_5":59.0,"mosquito_risk":7,"arthritis_risk":5,"migraine_risk":7,"frizz_risk":1,"updated_at":"2026-04-26T03:09:47.106451+05:30"},{"city":"Bareilly","state":"Uttar Pradesh","latitude":28.367,"longitude":79.4304,"temp":27.0,"humidity":39,"rain":0.0,"pressure":983.3,"uv_index":7.7,"wind_gusts":46.8,"aqi":100,"pm10":246.8,"pm2_5":61.2,"mosquito_risk":4,"arthritis_risk":5,"migraine_risk":7,"frizz_risk":0,"updated_at":"2026-04-26T03:09:47.106458+05:30"},{"city":"Aligarh","state":"Uttar Pradesh","latitude":27.8974,"longitude":78.088,"temp":28.8,"humidity":30,"rain":0.0,"pressure":982.8,"uv_index":7.6,"wind_gusts":51.5,"aqi":699,"pm10":976.0,"pm2_5":157.4,"mosquito_risk":4,"arthritis_risk":5,"migraine_risk":7,"frizz_risk":0,"updated_at":"2026-04-26T03:09:47.106464+05:30"},{"city":"Moradabad","state":"Uttar Pradesh","latitude":28.8386,"longitude":78.7733,"temp":28.4,"humidity":32,"rain":0.0,"pressure":980.1,"uv_index":7.5,"wind_gusts":49.3,"aqi":152,"pm10":271.0,"pm2_5":73.8,"mosquito_risk":4,"arthritis_risk":5,"migraine_risk":7,"frizz_risk":0,"updated_at":"2026-04-26T03:09:47.106470+05:30"},{"city":"Saharanpur","state":"Uttar Pradesh","latitude":29.9637,"longitude":77.546,"temp":27.8,"humidity":31,"rain":0.0,"pressure":972.3,"uv_index":7.1,"wind_gusts":51.8,"aqi":105,"pm10":123.9,"pm2_5":41.7,"mosquito_risk":4,"arthritis_risk":5,"migraine_risk":7,"frizz_risk":0,"updated_at":"2026-04-26T03:09:47.106476+05:30"},{"city":"Jhansi","state":"Uttar Pradesh","latitude":25.4484,"longitude":78.5685,"temp":29.6,"humidity":28,"rain":0.0,"pressure":975.2,"uv_index":8.3,"wind_gusts":43.6,"aqi":79,"pm10":344.6,"pm2_5":68.5,"mosquito_risk":4,"arthritis_risk":5,"migraine_risk":7,"frizz_risk":0,"updated_at":"2026-04-26T03:09:50.434692+05:30"},{"city":"Surat","state":"Gujarat","latitude":21.1702,"longitude":72.8311,"temp":28.4,"humidity":64,"rain":0.0,"pressure":1004.1,"uv_index":7.85,"wind_gusts":32.0,"aqi":106,"pm10":37.0,"pm2_5":23.5,"mosquito_risk":7,"arthritis_risk":5,"migraine_risk":4,"frizz_risk":1,"updated_at":"2026-04-26T03:09:50.434727+05:30"},{"city":"Vadodara","state":"Gujarat","latitude":22.3072,"longitude":73.1812,"temp":30.2,"humidity":35,"rain":0.0,"pressure":1001.8,"uv_index":8.15,"wind_gusts":37.1,"aqi":82,"pm10":29.9,"pm2_5":23.1,"mosquito_risk":0,"arthritis_risk":5,"migraine_risk":4,"frizz_risk":0,"updated_at":"2026-04-26T03:09:50.434738+05:30"},{"city":"Rajkot","state":"Gujarat","latitude":22.3039,"longitude":70.8022,"temp":24.6,"humidity":81,"rain":0.0,"pressure":993.1,"uv_index":7.9,"wind_gusts":37.8,"aqi":59,"pm10":62.9,"pm2_5":17.2,"mosquito_risk":3,"arthritis_risk":5,"migraine_risk":7,"frizz_risk":1,"updated_at":"2026-04-26T03:09:50.434746+05:30"},{"city":"Thane","state":"Maharashtra","latitude":19.2183,"longitude":72.9781,"temp":27.1,"humidity":65,"rain":0.0,"pressure":1005.4,"uv_index":7.8,"wind_gusts":34.2,"aqi":81,"pm10":49.6,"pm2_5":25.9,"mosquito_risk":7,"arthritis_risk":5,"migraine_risk":4,"frizz_risk":1,"updated_at":"2026-04-26T03:09:50.434753+05:30"},{"city":"Nagpur","state":"Maharashtra","latitude":21.1458,"longitude":79.0882,"temp":32.4,"humidity":22,"rain":0.0,"pressure":970.7,"uv_index":8.9,"wind_gusts":31.7,"aqi":92,"pm10":39.8,"pm2_5":34.0,"mosquito_risk":0,"arthritis_risk":5,"migraine_risk":7,"frizz_risk":0,"updated_at":"2026-04-26T03:09:50.434760+05:30"},{"city":"Nashik","state":"Maharashtra","latitude":19.9975,"longitude":73.7898,"temp":27.4,"humidity":22,"rain":0.0,"pressure":943.8,"uv_index":8.3,"wind_gusts":34.9,"aqi":78,"pm10":51.7,"pm2_5":33.9,"mosquito_risk":4,"arthritis_risk":5,"migraine_risk":7,"frizz_risk":0,"updated_at":"2026-04-26T03:09:50.434767+05:30"},{"city":"Aurangabad","state":"Maharashtra","latitude":19.8762,"longitude":75.3433,"temp":30.4,"humidity":23,"rain":0.0,"pressure":942.6,"uv_index":9.05,"wind_gusts":30.2,"aqi":82,"pm10":48.2,"pm2_5":37.1,"mosquito_risk":0,"arthritis_risk":5,"migraine_risk":7,"frizz_risk":0,"updated_at":"2026-04-26T03:09:50.434774+05:30"},{"city":"Solapur","state":"Maharashtra","latitude":17.6599,"longitude":75.9064,"temp":29.5,"humidity":33,"rain":0.0,"pressure":955.1,"uv_index":8.85,"wind_gusts":24.8,"aqi":115,"pm10":46.0,"pm2_5":41.3,"mosquito_risk":4,"arthritis_risk":5,"migraine_risk":7,"frizz_risk":0,"updated_at":"2026-04-26T03:09:50.434780+05:30"},{"city":"Kolhapur","state":"Maharashtra","latitude":16.705,"longitude":74.2433,"temp":25.3,"humidity":80,"rain":0.0,"pressure":946.1,"uv_index":8.5,"wind_gusts":46.4,"aqi":145,"pm10":58.9,"pm2_5":55.4,"mosquito_risk":7,"arthritis_risk":5,"migraine_risk":7,"frizz_risk":1,"updated_at":"2026-04-26T03:09:50.434787+05:30"},{"city":"Goa","state":"Goa","latitude":15.2993,"longitude":74.124,"temp":27.5,"humidity":95,"rain":0.0,"pressure":995.9,"uv_index":9.0,"wind_gusts":40.3,"aqi":77,"pm10":47.5,"pm2_5":38.1,"mosquito_risk":7,"arthritis_risk":5,"migraine_risk":7,"frizz_risk":1,"updated_at":"2026-04-26T03:09:50.434793+05:30"},{"city":"Jodhpur","state":"Rajasthan","latitude":26.2389,"longitude":73.0243,"temp":30.5,"humidity":30,"rain":0.0,"pressure":981.1,"uv_index":8.3,"wind_gusts":36.4,"aqi":92,"pm10":165.8,"pm2_5":31.7,"mosquito_risk":0,"arthritis_risk":5,"migraine_risk":7,"frizz_risk":0,"updated_at":"2026-04-26T03:09:50.434799+05:30"},{"city":"Udaipur","state":"Rajasthan","latitude":24.5854,"longitude":73.7125,"temp":30.0,"humidity":24,"rain":0.0,"pressure":945.3,"uv_index":8.8,"wind_gusts":41.4,"aqi":65,"pm10":40.9,"pm2_5":16.5,"mosquito_risk":4,"arthritis_risk":5,"migraine_risk":7,"frizz_risk":0,"updated_at":"2026-04-26T03:09:50.434806+05:30"},{"city":"Kota","state":"Rajasthan","latitude":25.2138,"longitude":75.8648,"temp":28.8,"humidity":31,"rain":0.0,"pressure":976.8,"uv_index":8.3,"wind_gusts":30.6,"aqi":80,"pm10":121.1,"pm2_5":42.5,"mosquito_risk":4,"arthritis_risk":5,"migraine_risk":7,"frizz_risk":0,"updated_at":"2026-04-26T03:09:50.434812+05:30"},{"city":"Bikaner","state":"Rajasthan","latitude":28.0229,"longitude":73.3119,"temp":29.0,"humidity":44,"rain":0.0,"pressure":979.8,"uv_index":8.15,"wind_gusts":35.3,"aqi":78,"pm10":79.6,"pm2_5":27.4,"mosquito_risk":4,"arthritis_risk":5,"migraine_risk":7,"frizz_risk":0,"updated_at":"2026-04-26T03:09:50.434818+05:30"},{"city":"Ajmer","state":"Rajasthan","latitude":26.4499,"longitude":74.6399,"temp":30.4,"humidity":26,"rain":0.0,"pressure":953.0,"uv_index":8.25,"wind_gusts":44.3,"aqi":82,"pm10":111.3,"pm2_5":30.4,"mosquito_risk":0,"arthritis_risk":5,"migraine_risk":7,"frizz_risk":0,"updated_at":"2026-04-26T03:09:50.434823+05:30"},{"city":"Gwalior","state":"Madhya Pradesh","latitude":26.2183,"longitude":78.1828,"temp":31.6,"humidity":25,"rain":0.0,"pressure":980.6,"uv_index":8.05,"wind_gusts":46.1,"aqi":113,"pm10":778.6,"pm2_5":134.6,"mosquito_risk":0,"arthritis_risk":5,"migraine_risk":7,"frizz_risk":0,"updated_at":"2026-04-26T03:09:50.434829+05:30"},{"city":"Indore","state":"Madhya Pradesh","latitude":22.7196,"longitude":75.8577,"temp":30.0,"humidity":22,"rain":0.0,"pressure":947.1,"uv_index":8.6,"wind_gusts":34.9,"aqi":67,"pm10":38.1,"pm2_5":25.5,"mosquito_risk":4,"arthritis_risk":5,"migraine_risk":7,"frizz_risk":0,"updated_at":"2026-04-26T03:09:50.434853+05:30"},{"city":"Bhopal","state":"Madhya Pradesh","latitude":23.2599,"longitude":77.4126,"temp":29.1,"humidity":22,"rain":0.0,"pressure":951.6,"uv_index":8.65,"wind_gusts":32.8,"aqi":63,"pm10":41.4,"pm2_5":29.9,"mosquito_risk":4,"arthritis_risk":5,"migraine_risk":7,"frizz_risk":0,"updated_at":"2026-04-26T03:09:50.434860+05:30"},{"city":"Jabalpur","state":"Madhya Pradesh","latitude":23.1815,"longitude":79.9864,"temp":27.5,"humidity":30,"rain":0.0,"pressure":958.9,"uv_index":8.6,"wind_gusts":36.0,"aqi":56,"pm10":21.2,"pm2_5":16.3,"mosquito_risk":4,"arthritis_risk":5,"migraine_risk":7,"frizz_risk":0,"updated_at":"2026-04-26T03:09:50.434866+05:30"},{"city":"Ujjain","state":"Madhya Pradesh","latitude":23.1765,"longitude":75.7885,"temp":29.5,"humidity":24,"rain":0.0,"pressure":952.5,"uv_index":8.55,"wind_gusts":29.2,"aqi":72,"pm10":31.4,"pm2_5":21.5,"mosquito_risk":4,"arthritis_risk":5,"migraine_risk":7,"frizz_risk":0,"updated_at":"2026-04-26T03:09:50.434872+05:30"},{"city":"Visakhapatnam","state":"Andhra Pradesh","latitude":17.6868,"longitude":83.2185,"temp":26.2,"humidity":93,"rain":0.0,"pressure":1002.0,"uv_index":9.1,"wind_gusts":48.6,"aqi":56,"pm10":17.3,"pm2_5":13.6,"mosquito_risk":7,"arthritis_risk":5,"migraine_risk":4,"frizz_risk":1,"updated_at":"2026-04-26T03:09:50.434878+05:30"},{"city":"Vijayawada","state":"Andhra Pradesh","latitude":16.5062,"longitude":80.648,"temp":26.6,"humidity":97,"rain":0.0,"pressure":1001.1,"uv_index":9.2,"wind_gusts":38.9,"aqi":52,"pm10":16.9,"pm2_5":13.5,"mosquito_risk":7,"arthritis_risk":5,"migraine_risk":4,"frizz_risk":1,"updated_at":"2026-04-26T03:09:50.434884+05:30"},{"city":"Guntur","state":"Andhra Pradesh","latitude":16.3067,"longitude":80.4365,"temp":26.5,"humidity":98,"rain":0.0,"pressure":1002.3,"uv_index":9.2,"wind_gusts":41.0,"aqi":53,"pm10":16.3,"pm2_5":12.6,"mosquito_risk":7,"arthritis_risk":5,"migraine_risk":4,"frizz_risk":1,"updated_at":"2026-04-26T03:09:50.434890+05:30"},{"city":"Nellore","state":"Andhra Pradesh","latitude":14.4426,"longitude":79.9865,"temp":25.8,"humidity":94,"rain":0.0,"pressure":1004.4,"uv_index":8.85,"wind_gusts":46.4,"aqi":43,"pm10":11.3,"pm2_5":8.7,"mosquito_risk":7,"arthritis_risk":5,"migraine_risk":4,"frizz_risk":1,"updated_at":"2026-04-26T03:09:50.434896+05:30"},{"city":"Kurnool","state":"Andhra Pradesh","latitude":15.8281,"longitude":78.0373,"temp":29.6,"humidity":56,"rain":0.0,"pressure":975.7,"uv_index":9.2,"wind_gusts":30.2,"aqi":83,"pm10":22.4,"pm2_5":19.6,"mosquito_risk":4,"arthritis_risk":5,"migraine_risk":7,"frizz_risk":1,"updated_at":"2026-04-26T03:09:50.434903+05:30"},{"city":"Kakinada","state":"Andhra Pradesh","latitude":16.9891,"longitude":82.2475,"temp":26.6,"humidity":95,"rain":0.0,"pressure":1006.1,"uv_index":9.15,"wind_gusts":45.4,"aqi":40,"pm10":17.1,"pm2_5":11.2,"mosquito_risk":7,"arthritis_risk":5,"migraine_risk":4,"frizz_risk":1,"updated_at":"2026-04-26T03:09:50.434909+05:30"},{"city":"Tirupati","state":"Andhra Pradesh","latitude":13.6288,"longitude":79.4192,"temp":26.3,"humidity":75,"rain":0.0,"pressure":990.1,"uv_index":9.3,"wind_gusts":35.6,"aqi":59,"pm10":19.7,"pm2_5":17.5,"mosquito_risk":7,"arthritis_risk":5,"migraine_risk":7,"frizz_risk":1,"updated_at":"2026-04-26T03:09:50.434915+05:30"},{"city":"Warangal","state":"Telangana","latitude":17.9689,"longitude":79.5941,"temp":27.8,"humidity":63,"rain":0.0,"pressure":976.8,"uv_index":8.9,"wind_gusts":34.2,"aqi":91,"pm10":22.1,"pm2_5":19.5,"mosquito_risk":7,"arthritis_risk":5,"migraine_risk":7,"frizz_risk":1,"updated_at":"2026-04-26T03:09:50.434921+05:30"},{"city":"Nizamabad","state":"Telangana","latitude":18.6725,"longitude":78.0941,"temp":30.0,"humidity":36,"rain":0.0,"pressure":962.7,"uv_index":9.1,"wind_gusts":36.0,"aqi":123,"pm10":46.9,"pm2_5":43.8,"mosquito_risk":4,"arthritis_risk":5,"migraine_risk":7,"frizz_risk":0,"updated_at":"2026-04-26T03:09:50.434927+05:30"},{"city":"Mysore","state":"Karnataka","latitude":12.2958,"longitude":76.6396,"temp":23.1,"humidity":83,"rain":0.0,"pressure":927.0,"uv_index":9.45,"wind_gusts":38.2,"aqi":86,"pm10":32.2,"pm2_5":29.2,"mosquito_risk":3,"arthritis_risk":5,"migraine_risk":7,"frizz_risk":1,"updated_at":"2026-04-26T03:09:50.434933+05:30"},{"city":"Mangalore","state":"Karnataka","latitude":12.9141,"longitude":74.856,"temp":28.4,"humidity":89,"rain":0.0,"pressure":1005.2,"uv_index":9.1,"wind_gusts":39.2,"aqi":63,"pm10":27.5,"pm2_5":20.0,"mosquito_risk":7,"arthritis_risk":5,"migraine_risk":4,"frizz_risk":1,"updated_at":"2026-04-26T03:09:50.434939+05:30"},{"city":"Hubli-Dharwad","state":"Karnataka","latitude":15.3647,"longitude":75.124,"temp":25.3,"humidity":84,"rain":0.0,"pressure":939.5,"uv_index":9.2,"wind_gusts":53.3,"aqi":104,"pm10":23.6,"pm2_5":21.1,"mosquito_risk":7,"arthritis_risk":5,"migraine_risk":7,"frizz_risk":1,"updated_at":"2026-04-26T03:09:50.434945+05:30"},{"city":"Belgaum","state":"Karnataka","latitude":15.8497,"longitude":74.4977,"temp":24.7,"humidity":78,"rain":0.0,"pressure":923.9,"uv_index":9.2,"wind_gusts":46.1,"aqi":115,"pm10":38.0,"pm2_5":32.9,"mosquito_risk":3,"arthritis_risk":5,"migraine_risk":7,"frizz_risk":1,"updated_at":"2026-04-26T03:09:53.753514+05:30"},{"city":"Coimbatore","state":"Tamil Nadu","latitude":11.0168,"longitude":76.9558,"temp":27.0,"humidity":67,"rain":0.0,"pressure":960.7,"uv_index":9.35,"wind_gusts":39.6,"aqi":76,"pm10":36.8,"pm2_5":34.0,"mosquito_risk":7,"arthritis_risk":5,"migraine_risk":7,"frizz_risk":1,"updated_at":"2026-04-26T03:09:53.753549+05:30"},{"city":"Madurai","state":"Tamil Nadu","latitude":9.9252,"longitude":78.1198,"temp":28.0,"humidity":61,"rain":0.0,"pressure":992.3,"uv_index":9.25,"wind_gusts":43.9,"aqi":57,"pm10":15.5,"pm2_5":15.1,"mosquito_risk":7,"arthritis_risk":5,"migraine_risk":7,"frizz_risk":1,"updated_at":"2026-04-26T03:09:53.753561+05:30"},{"city":"Trichy","state":"Tamil Nadu","latitude":10.7905,"longitude":78.7047,"temp":25.9,"humidity":90,"rain":0.0,"pressure":999.0,"uv_index":9.3,"wind_gusts":29.2,"aqi":55,"pm10":17.7,"pm2_5":15.3,"mosquito_risk":7,"arthritis_risk":5,"migraine_risk":7,"frizz_risk":1,"updated_at":"2026-04-26T03:09:53.753570+05:30"},{"city":"Salem","state":"Tamil Nadu","latitude":11.6643,"longitude":78.146,"temp":26.5,"humidity":71,"rain":0.0,"pressure":976.3,"uv_index":9.3,"wind_gusts":37.8,"aqi":65,"pm10":27.5,"pm2_5":25.1,"mosquito_risk":7,"arthritis_risk":5,"migraine_risk":7,"frizz_risk":1,"updated_at":"2026-04-26T03:09:53.753578+05:30"},{"city":"Tirunelveli","state":"Tamil Nadu","latitude":8.7139,"longitude":77.7567,"temp":26.6,"humidity":79,"rain":0.0,"pressure":1002.2,"uv_index":9.2,"wind_gusts":37.1,"aqi":60,"pm10":22.9,"pm2_5":21.8,"mosquito_risk":7,"arthritis_risk":5,"migraine_risk":4,"frizz_risk":1,"updated_at":"2026-04-26T03:09:53.753585+05:30"},{"city":"Vellore","state":"Tamil Nadu","latitude":12.9165,"longitude":79.1325,"temp":25.4,"humidity":81,"rain":0.0,"pressure":983.3,"uv_index":9.35,"wind_gusts":37.1,"aqi":78,"pm10":34.9,"pm2_5":32.9,"mosquito_risk":7,"arthritis_risk":5,"migraine_risk":7,"frizz_risk":1,"updated_at":"2026-04-26T03:09:53.753593+05:30"},{"city":"Erode","state":"Tamil Nadu","latitude":11.341,"longitude":77.7172,"temp":27.5,"humidity":66,"rain":0.0,"pressure":988.3,"uv_index":9.3,"wind_gusts":39.2,"aqi":56,"pm10":16.2,"pm2_5":14.8,"mosquito_risk":7,"arthritis_risk":5,"migraine_risk":7,"frizz_risk":1,"updated_at":"2026-04-26T03:09:53.753600+05:30"},{"city":"Kochi","state":"Kerala","latitude":9.9312,"longitude":76.2673,"temp":27.9,"humidity":86,"rain":0.0,"pressure":1007.3,"uv_index":9.0,"wind_gusts":37.4,"aqi":78,"pm10":26.5,"pm2_5":25.5,"mosquito_risk":7,"arthritis_risk":5,"migraine_risk":4,"frizz_risk":1,"updated_at":"2026-04-26T03:09:53.753607+05:30"},{"city":"Thiruvananthapuram","state":"Kerala","latitude":8.5241,"longitude":76.9366,"temp":24.8,"humidity":92,"rain":0.0,"pressure":1006.7,"uv_index":9.0,"wind_gusts":32.0,"aqi":55,"pm10":16.2,"pm2_5":12.5,"mosquito_risk":3,"arthritis_risk":5,"migraine_risk":4,"frizz_risk":1,"updated_at":"2026-04-26T03:09:53.753615+05:30"},{"city":"Kozhikode","state":"Kerala","latitude":11.2588,"longitude":75.7804,"temp":27.0,"humidity":91,"rain":0.0,"pressure":1006.6,"uv_index":8.25,"wind_gusts":34.2,"aqi":59,"pm10":21.5,"pm2_5":16.3,"mosquito_risk":7,"arthritis_risk":5,"migraine_risk":4,"frizz_risk":1,"updated_at":"2026-04-26T03:09:53.753621+05:30"},{"city":"Thrissur","state":"Kerala","latitude":10.5276,"longitude":76.2144,"temp":26.6,"humidity":94,"rain":0.0,"pressure":1005.8,"uv_index":8.05,"wind_gusts":36.7,"aqi":72,"pm10":27.8,"pm2_5":26.6,"mosquito_risk":7,"arthritis_risk":5,"migraine_risk":4,"frizz_risk":1,"updated_at":"2026-04-26T03:09:53.753628+05:30"},{"city":"Kannur","state":"Kerala","latitude":11.8745,"longitude":75.3704,"temp":27.8,"humidity":84,"rain":0.0,"pressure":1005.7,"uv_index":8.95,"wind_gusts":35.3,"aqi":63,"pm10":22.7,"pm2_5":19.6,"mosquito_risk":7,"arthritis_risk":5,"migraine_risk":4,"frizz_risk":1,"updated_at":"2026-04-26T03:09:53.753635+05:30"},{"city":"Patna","state":"Bihar","latitude":25.5941,"longitude":85.1376,"temp":26.9,"humidity":75,"rain":0.0,"pressure":997.4,"uv_index":8.6,"wind_gusts":54.7,"aqi":152,"pm10":68.2,"pm2_5":57.3,"mosquito_risk":7,"arthritis_risk":5,"migraine_risk":7,"frizz_risk":1,"updated_at":"2026-04-26T03:09:53.753641+05:30"},{"city":"Gaya","state":"Bihar","latitude":24.7914,"longitude":85.0002,"temp":26.7,"humidity":68,"rain":0.0,"pressure":990.2,"uv_index":8.7,"wind_gusts":41.4,"aqi":119,"pm10":49.6,"pm2_5":44.9,"mosquito_risk":7,"arthritis_risk":5,"migraine_risk":7,"frizz_risk":1,"updated_at":"2026-04-26T03:09:53.753648+05:30"},{"city":"Muzaffarpur","state":"Bihar","latitude":26.1209,"longitude":85.3647,"temp":26.0,"humidity":75,"rain":0.0,"pressure":997.9,"uv_index":8.65,"wind_gusts":53.6,"aqi":154,"pm10":73.3,"pm2_5":60.3,"mosquito_risk":7,"arthritis_risk":5,"migraine_risk":7,"frizz_risk":1,"updated_at":"2026-04-26T03:09:53.753654+05:30"},{"city":"Bhagalpur","state":"Bihar","latitude":25.2425,"longitude":87.0117,"temp":27.2,"humidity":78,"rain":0.0,"pressure":998.3,"uv_index":8.6,"wind_gusts":47.5,"aqi":151,"pm10":54.0,"pm2_5":46.4,"mosquito_risk":7,"arthritis_risk":5,"migraine_risk":7,"frizz_risk":1,"updated_at":"2026-04-26T03:09:53.753661+05:30"},{"city":"Ranchi","state":"Jharkhand","latitude":23.3441,"longitude":85.3096,"temp":25.8,"humidity":32,"rain":0.0,"pressure":935.3,"uv_index":9.15,"wind_gusts":39.2,"aqi":105,"pm10":45.5,"pm2_5":41.6,"mosquito_risk":4,"arthritis_risk":5,"migraine_risk":7,"frizz_risk":0,"updated_at":"2026-04-26T03:09:53.753667+05:30"},{"city":"Jamshedpur","state":"Jharkhand","latitude":22.8046,"longitude":86.2029,"temp":28.4,"humidity":66,"rain":0.0,"pressure":988.4,"uv_index":8.8,"wind_gusts":45.7,"aqi":126,"pm10":50.2,"pm2_5":44.7,"mosquito_risk":7,"arthritis_risk":5,"migraine_risk":7,"frizz_risk":1,"updated_at":"2026-04-26T03:09:53.753673+05:30"},{"city":"Dhanbad","state":"Jharkhand","latitude":23.7957,"longitude":86.4304,"temp":26.5,"humidity":95,"rain":0.0,"pressure":977.2,"uv_index":8.95,"wind_gusts":33.8,"aqi":153,"pm10":59.4,"pm2_5":56.5,"mosquito_risk":7,"arthritis_risk":5,"migraine_risk":7,"frizz_risk":1,"updated_at":"2026-04-26T03:09:53.753680+05:30"},{"city":"Bokaro","state":"Jharkhand","latitude":23.6693,"longitude":86.1511,"temp":25.5,"humidity":99,"rain":0.0,"pressure":980.8,"uv_index":8.95,"wind_gusts":47.5,"aqi":152,"pm10":67.5,"pm2_5":64.3,"mosquito_risk":7,"arthritis_risk":5,"migraine_risk":7,"frizz_risk":1,"updated_at":"2026-04-26T03:09:53.753686+05:30"},{"city":"Bhubaneswar","state":"Odisha","latitude":20.2961,"longitude":85.8245,"temp":26.1,"humidity":97,"rain":0.0,"pressure":1000.3,"uv_index":8.95,"wind_gusts":49.3,"aqi":59,"pm10":12.5,"pm2_5":9.4,"mosquito_risk":7,"arthritis_risk":5,"migraine_risk":4,"frizz_risk":1,"updated_at":"2026-04-26T03:09:53.753692+05:30"},{"city":"Cuttack","state":"Odisha","latitude":20.4625,"longitude":85.8828,"temp":26.0,"humidity":96,"rain":0.0,"pressure":1002.2,"uv_index":8.95,"wind_gusts":45.4,"aqi":59,"pm10":12.5,"pm2_5":9.4,"mosquito_risk":7,"arthritis_risk":5,"migraine_risk":4,"frizz_risk":1,"updated_at":"2026-04-26T03:09:53.753699+05:30"},{"city":"Rourkela","state":"Odisha","latitude":22.2604,"longitude":84.8536,"temp":27.6,"humidity":76,"rain":0.0,"pressure":982.8,"uv_index":8.9,"wind_gusts":40.0,"aqi":124,"pm10":50.1,"pm2_5":43.3,"mosquito_risk":7,"arthritis_risk":5,"migraine_risk":7,"frizz_risk":1,"updated_at":"2026-04-26T03:09:53.753705+05:30"},{"city":"Raipur","state":"Chhattisgarh","latitude":21.2514,"longitude":81.6296,"temp":28.9,"humidity":29,"rain":0.0,"pressure":972.4,"uv_index":8.95,"wind_gusts":41.8,"aqi":107,"pm10":45.9,"pm2_5":42.1,"mosquito_risk":4,"arthritis_risk":5,"migraine_risk":7,"frizz_risk":0,"updated_at":"2026-04-26T03:09:53.753711+05:30"},{"city":"Bhilai","state":"Chhattisgarh","latitude":21.1938,"longitude":81.3509,"temp":28.4,"humidity":34,"rain":0.0,"pressure":973.0,"uv_index":8.95,"wind_gusts":43.2,"aqi":104,"pm10":44.4,"pm2_5":39.3,"mosquito_risk":4,"arthritis_risk":5,"migraine_risk":7,"frizz_risk":0,"updated_at":"2026-04-26T03:09:53.753717+05:30"},{"city":"Guwahati","state":"Assam","latitude":26.1158,"longitude":91.7086,"temp":22.0,"humidity":93,"rain":0.0,"pressure":1001.3,"uv_index":3.1,"wind_gusts":37.1,"aqi":157,"pm10":72.4,"pm2_5":54.8,"mosquito_risk":3,"arthritis_risk":5,"migraine_risk":0,"frizz_risk":1,"updated_at":"2026-04-26T03:09:53.753722+05:30"},{"city":"Agartala","state":"Tripura","latitude":23.8315,"longitude":91.2868,"temp":25.8,"humidity":94,"rain":0.0,"pressure":1006.1,"uv_index":8.8,"wind_gusts":43.2,"aqi":140,"pm10":22.6,"pm2_5":21.2,"mosquito_risk":7,"arthritis_risk":5,"migraine_risk":4,"frizz_risk":1,"updated_at":"2026-04-26T03:09:53.753728+05:30"},{"city":"Shillong","state":"Meghalaya","latitude":25.5788,"longitude":91.8933,"temp":16.5,"humidity":79,"rain":0.0,"pressure":855.4,"uv_index":3.7,"wind_gusts":44.3,"aqi":139,"pm10":85.0,"pm2_5":44.5,"mosquito_risk":3,"arthritis_risk":5,"migraine_risk":3,"frizz_risk":0,"updated_at":"2026-04-26T03:09:53.753735+05:30"},{"city":"Imphal","state":"Manipur","latitude":24.817,"longitude":93.9368,"temp":18.2,"humidity":76,"rain":0.0,"pressure":922.0,"uv_index":7.75,"wind_gusts":33.5,"aqi":155,"pm10":135.0,"pm2_5":95.0,"mosquito_risk":3,"arthritis_risk":5,"migraine_risk":7,"frizz_risk":0,"updated_at":"2026-04-26T03:09:53.753740+05:30"},{"city":"Aizawl","state":"Mizoram","latitude":23.7271,"longitude":92.7176,"temp":17.9,"humidity":82,"rain":0.0,"pressure":891.2,"uv_index":9.0,"wind_gusts":45.7,"aqi":112,"pm10":66.8,"pm2_5":36.7,"mosquito_risk":3,"arthritis_risk":10,"migraine_risk":7,"frizz_risk":0,"updated_at":"2026-04-26T03:09:53.753747+05:30"},{"city":"Kohima","state":"Nagaland","latitude":25.6701,"longitude":94.1077,"temp":14.8,"humidity":75,"rain":0.0,"pressure":852.8,"uv_index":6.9,"wind_gusts":35.6,"aqi":157,"pm10":111.5,"pm2_5":84.3,"mosquito_risk":3,"arthritis_risk":5,"migraine_risk":7,"frizz_risk":0,"updated_at":"2026-04-26T03:09:53.753753+05:30"},{"city":"Gangtok","state":"Sikkim","latitude":27.3314,"longitude":88.6138,"temp":13.5,"humidity":75,"rain":0.0,"pressure":835.0,"uv_index":8.65,"wind_gusts":42.1,"aqi":80,"pm10":22.2,"pm2_5":16.2,"mosquito_risk":3,"arthritis_risk":5,"migraine_risk":7,"frizz_risk":0,"updated_at":"2026-04-26T03:09:53.753759+05:30"},{"city":"Siliguri","state":"West Bengal","latitude":26.7271,"longitude":88.3953,"temp":21.0,"humidity":99,"rain":0.0,"pressure":992.8,"uv_index":8.4,"wind_gusts":38.9,"aqi":147,"pm10":54.7,"pm2_5":45.9,"mosquito_risk":3,"arthritis_risk":5,"migraine_risk":7,"frizz_risk":1,"updated_at":"2026-04-26T03:09:57.071001+05:30"},{"city":"Durgapur","state":"West Bengal","latitude":23.5204,"longitude":87.3119,"temp":26.9,"humidity":92,"rain":0.0,"pressure":992.5,"uv_index":8.9,"wind_gusts":36.7,"aqi":126,"pm10":38.0,"pm2_5":35.3,"mosquito_risk":7,"arthritis_risk":5,"migraine_risk":7,"frizz_risk":1,"updated_at":"2026-04-26T03:09:57.071036+05:30"},{"city":"Asansol","state":"West Bengal","latitude":23.6739,"longitude":86.9524,"temp":26.5,"humidity":95,"rain":0.0,"pressure":991.0,"uv_index":8.95,"wind_gusts":32.0,"aqi":130,"pm10":37.6,"pm2_5":35.6,"mosquito_risk":7,"arthritis_risk":5,"migraine_risk":7,"frizz_risk":1,"updated_at":"2026-04-26T03:09:57.071048+05:30"},{"city":"Pondicherry","state":"Puducherry","latitude":11.9139,"longitude":79.8145,"temp":27.9,"humidity":87,"rain":0.0,"pressure":1007.3,"uv_index":9.2,"wind_gusts":41.0,"aqi":30,"pm10":13.5,"pm2_5":8.1,"mosquito_risk":7,"arthritis_risk":5,"migraine_risk":4,"frizz_risk":1,"updated_at":"2026-04-26T03:09:57.071056+05:30"},{"city":"Port Blair","state":"Andaman and Nicobar Islands","latitude":11.6234,"longitude":92.7265,"temp":26.7,"humidity":87,"rain":0.0,"pressure":1006.3,"uv_index":9.15,"wind_gusts":35.3,"aqi":49,"pm10":23.6,"pm2_5":16.6,"mosquito_risk":7,"arthritis_risk":5,"migraine_risk":4,"frizz_risk":1,"updated_at":"2026-04-26T03:09:57.071065+05:30"},{"city":"Haridwar","state":"Uttarakhand","latitude":29.9457,"longitude":78.1642,"temp":20.7,"humidity":61,"rain":0.0,"pressure":969.9,"uv_index":7.2,"wind_gusts":41.0,"aqi":76,"pm10":50.1,"pm2_5":35.2,"mosquito_risk":3,"arthritis_risk":5,"migraine_risk":7,"frizz_risk":0,"updated_at":"2026-04-26T03:09:57.071073+05:30"},{"city":"Rishikesh","state":"Uttarakhand","latitude":30.0869,"longitude":78.2676,"temp":18.7,"humidity":67,"rain":0.0,"pressure":962.6,"uv_index":7.3,"wind_gusts":33.1,"aqi":73,"pm10":44.9,"pm2_5":28.9,"mosquito_risk":3,"arthritis_risk":5,"migraine_risk":7,"frizz_risk":0,"updated_at":"2026-04-26T03:09:57.071080+05:30"},{"city":"Nainital","state":"Uttarakhand","latitude":29.3919,"longitude":79.4542,"temp":16.3,"humidity":45,"rain":0.0,"pressure":803.9,"uv_index":8.15,"wind_gusts":53.3,"aqi":74,"pm10":61.2,"pm2_5":28.2,"mosquito_risk":0,"arthritis_risk":5,"migraine_risk":7,"frizz_risk":0,"updated_at":"2026-04-26T03:09:57.071088+05:30"},{"city":"Mussoorie","state":"Uttarakhand","latitude":30.4599,"longitude":78.0664,"temp":17.6,"humidity":37,"rain":0.0,"pressure":802.3,"uv_index":7.7,"wind_gusts":55.8,"aqi":67,"pm10":37.0,"pm2_5":25.4,"mosquito_risk":0,"arthritis_risk":5,"migraine_risk":7,"frizz_risk":0,"updated_at":"2026-04-26T03:09:57.071094+05:30"},{"city":"Dharamshala","state":"Himachal Pradesh","latitude":32.219,"longitude":76.3234,"temp":21.6,"humidity":34,"rain":0.0,"pressure":868.4,"uv_index":8.05,"wind_gusts":44.3,"aqi":50,"pm10":22.8,"pm2_5":8.9,"mosquito_risk":0,"arthritis_risk":5,"migraine_risk":7,"frizz_risk":0,"updated_at":"2026-04-26T03:09:57.071102+05:30"},{"city":"Dalhousie","state":"Himachal Pradesh","latitude":32.5387,"longitude":75.971,"temp":10.9,"humidity":64,"rain":0.0,"pressure":800.7,"uv_index":8.3,"wind_gusts":40.0,"aqi":66,"pm10":38.3,"pm2_5":21.9,"mosquito_risk":3,"arthritis_risk":5,"migraine_risk":7,"frizz_risk":0,"updated_at":"2026-04-26T03:09:57.071109+05:30"},{"city":"Patiala","state":"Punjab","latitude":30.3398,"longitude":76.3869,"temp":27.9,"humidity":36,"rain":0.0,"pressure":975.5,"uv_index":7.3,"wind_gusts":46.4,"aqi":578,"pm10":417.2,"pm2_5":67.5,"mosquito_risk":4,"arthritis_risk":5,"migraine_risk":7,"frizz_risk":0,"updated_at":"2026-04-26T03:09:57.071117+05:30"},{"city":"Bhatinda","state":"Punjab","latitude":30.211,"longitude":74.9455,"temp":28.4,"humidity":31,"rain":0.0,"pressure":981.4,"uv_index":8.0,"wind_gusts":40.7,"aqi":97,"pm10":116.9,"pm2_5":44.8,"mosquito_risk":4,"arthritis_risk":5,"migraine_risk":7,"frizz_risk":0,"updated_at":"2026-04-26T03:09:57.071123+05:30"},{"city":"Rohtak","state":"Haryana","latitude":28.8955,"longitude":76.6066,"temp":26.6,"humidity":36,"rain":0.0,"pressure":979.5,"uv_index":7.45,"wind_gusts":45.7,"aqi":866,"pm10":491.7,"pm2_5":97.3,"mosquito_risk":4,"arthritis_risk":5,"migraine_risk":7,"frizz_risk":0,"updated_at":"2026-04-26T03:09:57.071130+05:30"},{"city":"Panipat","state":"Haryana","latitude":29.3909,"longitude":76.9635,"temp":28.8,"humidity":32,"rain":0.0,"pressure":977.7,"uv_index":7.25,"wind_gusts":50.4,"aqi":1567,"pm10":914.6,"pm2_5":134.1,"mosquito_risk":4,"arthritis_risk":5,"migraine_risk":7,"frizz_risk":0,"updated_at":"2026-04-26T03:09:57.071139+05:30"},{"city":"Mathura","state":"Uttar Pradesh","latitude":27.4924,"longitude":77.6737,"temp":28.8,"humidity":32,"rain":0.0,"pressure":984.2,"uv_index":7.75,"wind_gusts":43.2,"aqi":902,"pm10":1143.7,"pm2_5":183.0,"mosquito_risk":4,"arthritis_risk":5,"migraine_risk":7,"frizz_risk":0,"updated_at":"2026-04-26T03:09:57.071145+05:30"},{"city":"Vrindavan","state":"Uttar Pradesh","latitude":27.5823,"longitude":77.7027,"temp":28.3,"humidity":33,"rain":0.0,"pressure":984.6,"uv_index":7.7,"wind_gusts":42.8,"aqi":902,"pm10":1143.7,"pm2_5":183.0,"mosquito_risk":4,"arthritis_risk":5,"migraine_risk":7,"frizz_risk":0,"updated_at":"2026-04-26T03:09:57.071152+05:30"},{"city":"Ayodhya","state":"Uttar Pradesh","latitude":26.7922,"longitude":82.1998,"temp":27.0,"humidity":61,"rain":0.0,"pressure":992.6,"uv_index":8.1,"wind_gusts":50.0,"aqi":144,"pm10":88.7,"pm2_5":60.1,"mosquito_risk":7,"arthritis_risk":5,"migraine_risk":7,"frizz_risk":1,"updated_at":"2026-04-26T03:09:57.071157+05:30"},{"city":"Ratlam","state":"Madhya Pradesh","latitude":23.3315,"longitude":75.0367,"temp":28.8,"humidity":24,"rain":0.0,"pressure":953.2,"uv_index":8.5,"wind_gusts":33.8,"aqi":68,"pm10":25.1,"pm2_5":15.8,"mosquito_risk":4,"arthritis_risk":5,"migraine_risk":7,"frizz_risk":0,"updated_at":"2026-04-26T03:09:57.071164+05:30"},{"city":"Sagar","state":"Madhya Pradesh","latitude":23.8388,"longitude":78.7378,"temp":28.2,"humidity":26,"rain":0.0,"pressure":948.2,"uv_index":8.65,"wind_gusts":34.9,"aqi":58,"pm10":102.0,"pm2_5":29.3,"mosquito_risk":4,"arthritis_risk":5,"migraine_risk":7,"frizz_risk":0,"updated_at":"2026-04-26T03:09:57.071170+05:30"},{"city":"Satna","state":"Madhya Pradesh","latitude":24.6005,"longitude":80.8322,"temp":28.0,"humidity":32,"rain":0.0,"pressure":968.2,"uv_index":8.65,"wind_gusts":44.6,"aqi":81,"pm10":179.3,"pm2_5":38.3,"mosquito_risk":4,"arthritis_risk":5,"migraine_risk":7,"frizz_risk":0,"updated_at":"2026-04-26T03:09:57.071176+05:30"},{"city":"Akola","state":"Maharashtra","latitude":20.7002,"longitude":77.0082,"temp":29.5,"humidity":29,"rain":0.0,"pressure":972.5,"uv_index":8.85,"wind_gusts":33.1,"aqi":71,"pm10":33.6,"pm2_5":25.7,"mosquito_risk":4,"arthritis_risk":5,"migraine_risk":7,"frizz_risk":0,"updated_at":"2026-04-26T03:09:57.071183+05:30"},{"city":"Amravati","state":"Maharashtra","latitude":20.9374,"longitude":77.7796,"temp":30.9,"humidity":29,"rain":0.0,"pressure":964.9,"uv_index":8.85,"wind_gusts":37.4,"aqi":74,"pm10":32.4,"pm2_5":25.0,"mosquito_risk":0,"arthritis_risk":5,"migraine_risk":7,"frizz_risk":0,"updated_at":"2026-04-26T03:09:57.071189+05:30"},{"city":"Latur","state":"Maharashtra","latitude":18.4088,"longitude":76.5604,"temp":28.7,"humidity":36,"rain":0.0,"pressure":938.1,"uv_index":9.0,"wind_gusts":29.2,"aqi":104,"pm10":47.6,"pm2_5":43.3,"mosquito_risk":4,"arthritis_risk":5,"migraine_risk":7,"frizz_risk":0,"updated_at":"2026-04-26T03:09:57.071196+05:30"},{"city":"Nanded","state":"Maharashtra","latitude":19.1383,"longitude":77.3091,"temp":27.9,"humidity":39,"rain":0.0,"pressure":966.6,"uv_index":9.05,"wind_gusts":28.4,"aqi":99,"pm10":51.5,"pm2_5":45.9,"mosquito_risk":4,"arthritis_risk":5,"migraine_risk":7,"frizz_risk":0,"updated_at":"2026-04-26T03:09:57.071202+05:30"},{"city":"Gulbarga","state":"Karnataka","latitude":17.3297,"longitude":76.8343,"temp":29.1,"humidity":40,"rain":0.0,"pressure":956.9,"uv_index":9.0,"wind_gusts":24.5,"aqi":121,"pm10":47.7,"pm2_5":42.1,"mosquito_risk":4,"arthritis_risk":5,"migraine_risk":7,"frizz_risk":0,"updated_at":"2026-04-26T03:09:57.071208+05:30"},{"city":"Bidar","state":"Karnataka","latitude":17.9104,"longitude":77.5199,"temp":27.7,"humidity":39,"rain":0.0,"pressure":933.5,"uv_index":8.1,"wind_gusts":34.9,"aqi":124,"pm10":46.7,"pm2_5":43.2,"mosquito_risk":4,"arthritis_risk":5,"migraine_risk":7,"frizz_risk":0,"updated_at":"2026-04-26T03:09:57.071214+05:30"},{"city":"Hospet","state":"Karnataka","latitude":15.2689,"longitude":76.3909,"temp":28.6,"humidity":33,"rain":0.0,"pressure":954.3,"uv_index":9.05,"wind_gusts":33.5,"aqi":104,"pm10":36.2,"pm2_5":32.5,"mosquito_risk":4,"arthritis_risk":5,"migraine_risk":7,"frizz_risk":0,"updated_at":"2026-04-26T03:09:57.071220+05:30"},{"city":"Tirupur","state":"Tamil Nadu","latitude":11.1085,"longitude":77.3411,"temp":27.9,"humidity":58,"rain":0.0,"pressure":974.2,"uv_index":9.4,"wind_gusts":33.8,"aqi":61,"pm10":25.1,"pm2_5":22.1,"mosquito_risk":4,"arthritis_risk":5,"migraine_risk":7,"frizz_risk":1,"updated_at":"2026-04-26T03:09:57.071226+05:30"},{"city":"Alappuzha","state":"Kerala","latitude":9.4981,"longitude":76.3388,"temp":26.5,"humidity":94,"rain":0.0,"pressure":1007.4,"uv_index":8.5,"wind_gusts":36.0,"aqi":75,"pm10":23.8,"pm2_5":21.1,"mosquito_risk":7,"arthritis_risk":5,"migraine_risk":4,"frizz_risk":1,"updated_at":"2026-04-26T03:09:57.071232+05:30"},{"city":"Munnar","state":"Kerala","latitude":10.0889,"longitude":77.0595,"temp":15.7,"humidity":86,"rain":0.0,"pressure":854.4,"uv_index":9.6,"wind_gusts":28.4,"aqi":62,"pm10":26.3,"pm2_5":25.1,"mosquito_risk":3,"arthritis_risk":10,"migraine_risk":7,"frizz_risk":0,"updated_at":"2026-04-26T03:09:57.071239+05:30"},{"city":"Silchar","state":"Assam","latitude":24.8333,"longitude":92.7789,"temp":22.5,"humidity":97,"rain":0.0,"pressure":1004.1,"uv_index":8.6,"wind_gusts":32.4,"aqi":159,"pm10":101.0,"pm2_5":80.8,"mosquito_risk":3,"arthritis_risk":5,"migraine_risk":4,"frizz_risk":1,"updated_at":"2026-04-26T03:09:57.071245+05:30"},{"city":"Dibrugarh","state":"Assam","latitude":27.4728,"longitude":94.912,"temp":21.1,"humidity":95,"rain":0.1,"pressure":996.4,"uv_index":8.7,"wind_gusts":27.7,"aqi":84,"pm10":29.8,"pm2_5":19.0,"mosquito_risk":6,"arthritis_risk":5,"migraine_risk":7,"frizz_risk":1,"updated_at":"2026-04-26T03:09:57.071251+05:30"}]