[{"city":"Delhi","state":"Delhi","latitude":28.6139,"longitude":77.209,"temp":29.7,"humidity":40,"rain":0.0,"pressure":982.7,"uv_index":6.1,"wind_gusts":30.2,"aqi":268,"pm10":542.0,"pm2_5":73.6,"mosquito_risk":4,"arthritis_risk":5,"migraine_risk":7,"frizz_risk":0,"updated_at":"2026-03-30T16:35:42.167533+05:30"},{"city":"Mumbai","state":"Maharashtra","latitude":19.076,"longitude":72.8777,"temp":28.6,"humidity":83,"rain":0.0,"pressure":1006.6,"uv_index":8.0,"wind_gusts":26.6,"aqi":61,"pm10":48.4,"pm2_5":26.6,"mosquito_risk":7,"arthritis_risk":5,"migraine_risk":4,"frizz_risk":1,"updated_at":"2026-03-30T16:35:42.167572+05:30"},{"city":"Bangalore","state":"Karnataka","latitude":12.9716,"longitude":77.5946,"temp":32.6,"humidity":23,"rain":0.0,"pressure":910.4,"uv_index":8.7,"wind_gusts":29.2,"aqi":133,"pm10":33.1,"pm2_5":28.0,"mosquito_risk":0,"arthritis_risk":5,"migraine_risk":7,"frizz_risk":0,"updated_at":"2026-03-30T16:35:42.167587+05:30"},{"city":"Hyderabad","state":"Telangana","latitude":17.385,"longitude":78.4867,"temp":31.7,"humidity":46,"rain":0.0,"pressure":952.6,"uv_index":8.25,"wind_gusts":34.2,"aqi":125,"pm10":47.0,"pm2_5":37.0,"mosquito_risk":0,"arthritis_risk":5,"migraine_risk":7,"frizz_risk":1,"updated_at":"2026-03-30T16:35:42.167597+05:30"},{"city":"Chennai","state":"Tamil Nadu","latitude":13.0827,"longitude":80.2707,"temp":32.5,"humidity":55,"rain":0.0,"pressure":1005.8,"uv_index":9.3,"wind_gusts":32.0,"aqi":55,"pm10":14.6,"pm2_5":10.1,"mosquito_risk":0,"arthritis_risk":5,"migraine_risk":4,"frizz_risk":1,"updated_at":"2026-03-30T16:35:42.167606+05:30"},{"city":"Kolkata","state":"West Bengal","latitude":22.5726,"longitude":88.3639,"temp":31.0,"humidity":68,"rain":0.0,"pressure":1004.2,"uv_index":8.5,"wind_gusts":27.7,"aqi":105,"pm10":33.5,"pm2_5":28.6,"mosquito_risk":3,"arthritis_risk":5,"migraine_risk":4,"frizz_risk":1,"updated_at":"2026-03-30T16:35:42.167615+05:30"},{"city":"Pune","state":"Maharashtra","latitude":18.5204,"longitude":73.8567,"temp":32.7,"humidity":46,"rain":0.0,"pressure":947.2,"uv_index":8.55,"wind_gusts":36.4,"aqi":71,"pm10":29.7,"pm2_5":22.9,"mosquito_risk":0,"arthritis_risk":5,"migraine_risk":7,"frizz_risk":1,"updated_at":"2026-03-30T16:35:42.167626+05:30"},{"city":"Ahmedabad","state":"Gujarat","latitude":23.0225,"longitude":72.5714,"temp":35.0,"humidity":33,"rain":0.0,"pressure":1001.0,"uv_index":8.0,"wind_gusts":31.7,"aqi":55,"pm10":41.8,"pm2_5":11.7,"mosquito_risk":0,"arthritis_risk":5,"migraine_risk":4,"frizz_risk":1,"updated_at":"2026-03-30T16:35:42.167634+05:30"},{"city":"Jaipur","state":"Rajasthan","latitude":26.9124,"longitude":75.7873,"temp":31.1,"humidity":33,"rain":0.0,"pressure":959.7,"uv_index":6.05,"wind_gusts":46.1,"aqi":116,"pm10":89.4,"pm2_5":15.7,"mosquito_risk":0,"arthritis_risk":5,"migraine_risk":7,"frizz_risk":0,"updated_at":"2026-03-30T16:35:42.167641+05:30"},{"city":"Lucknow","state":"Uttar Pradesh","latitude":26.8467,"longitude":80.9462,"temp":36.2,"humidity":28,"rain":0.0,"pressure":990.7,"uv_index":7.3,"wind_gusts":18.7,"aqi":114,"pm10":57.9,"pm2_5":19.7,"mosquito_risk":0,"arthritis_risk":5,"migraine_risk":10,"frizz_risk":0,"updated_at":"2026-03-30T16:35:42.167649+05:30"},{"city":"Kanpur","state":"Uttar Pradesh","latitude":26.4499,"longitude":80.3319,"temp":34.7,"humidity":35,"rain":0.0,"pressure":989.3,"uv_index":7.3,"wind_gusts":18.4,"aqi":115,"pm10":228.2,"pm2_5":31.9,"mosquito_risk":0,"arthritis_risk":5,"migraine_risk":7,"frizz_risk":1,"updated_at":"2026-03-30T16:35:42.167656+05:30"},{"city":"Chandigarh","state":"Chandigarh","latitude":30.7333,"longitude":76.7794,"temp":29.7,"humidity":49,"rain":0.0,"pressure":968.6,"uv_index":6.2,"wind_gusts":37.8,"aqi":84,"pm10":394.9,"pm2_5":65.4,"mosquito_risk":4,"arthritis_risk":5,"migraine_risk":7,"frizz_risk":1,"updated_at":"2026-03-30T16:35:42.167663+05:30"},{"city":"Srinagar","state":"Jammu and Kashmir","latitude":34.0837,"longitude":74.7973,"temp":13.7,"humidity":82,"rain":0.0,"pressure":840.3,"uv_index":5.4,"wind_gusts":30.2,"aqi":82,"pm10":27.8,"pm2_5":10.8,"mosquito_risk":3,"arthritis_risk":10,"migraine_risk":3,"frizz_risk":0,"updated_at":"2026-03-30T16:35:42.167671+05:30"},{"city":"Jammu","state":"Jammu and Kashmir","latitude":32.7266,"longitude":74.857,"temp":27.0,"humidity":53,"rain":0.0,"pressure":972.1,"uv_index":6.35,"wind_gusts":39.2,"aqi":72,"pm10":98.3,"pm2_5":27.6,"mosquito_risk":4,"arthritis_risk":5,"migraine_risk":7,"frizz_risk":1,"updated_at":"2026-03-30T16:35:42.167678+05:30"},{"city":"Amritsar","state":"Punjab","latitude":31.634,"longitude":74.8723,"temp":22.3,"humidity":84,"rain":0.0,"pressure":981.1,"uv_index":5.3,"wind_gusts":50.8,"aqi":107,"pm10":99.7,"pm2_5":35.2,"mosquito_risk":3,"arthritis_risk":5,"migraine_risk":3,"frizz_risk":1,"updated_at":"2026-03-30T16:35:42.167684+05:30"},{"city":"Ludhiana","state":"Punjab","latitude":30.901,"longitude":75.8573,"temp":24.8,"humidity":71,"rain":0.0,"pressure":979.6,"uv_index":5.95,"wind_gusts":41.8,"aqi":150,"pm10":456.3,"pm2_5":79.4,"mosquito_risk":3,"arthritis_risk":5,"migraine_risk":3,"frizz_risk":1,"updated_at":"2026-03-30T16:35:42.167691+05:30"},{"city":"Jalandhar","state":"Punjab","latitude":31.326,"longitude":75.5762,"temp":28.6,"humidity":51,"rain":0.0,"pressure":979.5,"uv_index":4.7,"wind_gusts":38.5,"aqi":125,"pm10":292.4,"pm2_5":63.8,"mosquito_risk":4,"arthritis_risk":5,"migraine_risk":3,"frizz_risk":1,"updated_at":"2026-03-30T16:35:42.167699+05:30"},{"city":"Dehradun","state":"Uttarakhand","latitude":30.6284,"longitude":78.0322,"temp":20.3,"humidity":58,"rain":0.0,"pressure":831.3,"uv_index":6.35,"wind_gusts":26.6,"aqi":49,"pm10":81.0,"pm2_5":18.0,"mosquito_risk":0,"arthritis_risk":5,"migraine_risk":7,"frizz_risk":0,"updated_at":"2026-03-30T16:35:42.167706+05:30"},{"city":"Shimla","state":"Himachal Pradesh","latitude":31.1048,"longitude":77.1734,"temp":18.6,"humidity":59,"rain":0.0,"pressure":786.4,"uv_index":6.6,"wind_gusts":23.4,"aqi":54,"pm10":79.2,"pm2_5":19.6,"mosquito_risk":0,"arthritis_risk":5,"migraine_risk":7,"frizz_risk":0,"updated_at":"2026-03-30T16:35:42.167713+05:30"},{"city":"Manali","state":"Himachal Pradesh","latitude":32.2396,"longitude":77.1887,"temp":15.9,"humidity":72,"rain":0.0,"pressure":821.7,"uv_index":8.55,"wind_gusts":30.2,"aqi":66,"pm10":8.7,"pm2_5":4.8,"mosquito_risk":3,"arthritis_risk":5,"migraine_risk":7,"frizz_risk":0,"updated_at":"2026-03-30T16:35:42.167719+05:30"},{"city":"Gurgaon","state":"Haryana","latitude":28.4595,"longitude":77.0266,"temp":29.9,"humidity":36,"rain":0.0,"pressure":981.0,"uv_index":6.15,"wind_gusts":27.0,"aqi":1053,"pm10":1564.6,"pm2_5":157.4,"mosquito_risk":4,"arthritis_risk":5,"migraine_risk":7,"frizz_risk":0,"updated_at":"2026-03-30T16:35:42.167726+05:30"},{"city":"Noida","state":"Uttar Pradesh","latitude":28.5355,"longitude":77.391,"temp":29.8,"humidity":42,"rain":0.0,"pressure":984.3,"uv_index":5.9,"wind_gusts":32.0,"aqi":1053,"pm10":1564.6,"pm2_5":157.4,"mosquito_risk":4,"arthritis_risk":5,"migraine_risk":3,"frizz_risk":0,"updated_at":"2026-03-30T16:35:42.167733+05:30"},{"city":"Ghaziabad","state":"Uttar Pradesh","latitude":28.6692,"longitude":77.4538,"temp":30.1,"humidity":42,"rain":0.0,"pressure":982.8,"uv_index":5.95,"wind_gusts":31.3,"aqi":158,"pm10":629.6,"pm2_5":83.6,"mosquito_risk":0,"arthritis_risk":5,"migraine_risk":3,"frizz_risk":0,"updated_at":"2026-03-30T16:35:42.167740+05:30"},{"city":"Faridabad","state":"Haryana","latitude":28.4089,"longitude":77.3178,"temp":29.5,"humidity":42,"rain":0.0,"pressure":983.6,"uv_index":5.55,"wind_gusts":32.4,"aqi":1053,"pm10":1564.6,"pm2_5":157.4,"mosquito_risk":4,"arthritis_risk":5,"migraine_risk":3,"frizz_risk":0,"updated_at":"2026-03-30T16:35:42.167747+05:30"},{"city":"Meerut","state":"Uttar Pradesh","latitude":28.9845,"longitude":77.7064,"temp":30.1,"humidity":47,"rain":0.0,"pressure":981.3,"uv_index":5.8,"wind_gusts":25.2,"aqi":158,"pm10":629.6,"pm2_5":83.6,"mosquito_risk":0,"arthritis_risk":5,"migraine_risk":3,"frizz_risk":1,"updated_at":"2026-03-30T16:35:42.167755+05:30"},{"city":"Agra","state":"Uttar Pradesh","latitude":27.1767,"longitude":78.0081,"temp":35.3,"humidity":23,"rain":0.0,"pressure":986.7,"uv_index":6.85,"wind_gusts":42.5,"aqi":428,"pm10":1292.7,"pm2_5":118.5,"mosquito_risk":0,"arthritis_risk":5,"migraine_risk":10,"frizz_risk":0,"updated_at":"2026-03-30T16:35:42.167762+05:30"},{"city":"Varanasi","state":"Uttar Pradesh","latitude":25.3176,"longitude":82.9739,"temp":36.5,"humidity":30,"rain":0.0,"pressure":994.5,"uv_index":7.95,"wind_gusts":24.8,"aqi":96,"pm10":34.6,"pm2_5":16.4,"mosquito_risk":0,"arthritis_risk":5,"migraine_risk":10,"frizz_risk":1,"updated_at":"2026-03-30T16:35:42.167770+05:30"},{"city":"Prayagraj","state":"Uttar Pradesh","latitude":25.4358,"longitude":81.8463,"temp":36.7,"humidity":28,"rain":0.0,"pressure":992.9,"uv_index":7.85,"wind_gusts":24.5,"aqi":109,"pm10":40.9,"pm2_5":19.1,"mosquito_risk":0,"arthritis_risk":5,"migraine_risk":10,"frizz_risk":0,"updated_at":"2026-03-30T16:35:42.167777+05:30"},{"city":"Gorakhpur","state":"Uttar Pradesh","latitude":26.7606,"longitude":83.3732,"temp":33.2,"humidity":41,"rain":0.0,"pressure":995.3,"uv_index":7.7,"wind_gusts":25.9,"aqi":147,"pm10":86.1,"pm2_5":35.0,"mosquito_risk":0,"arthritis_risk":5,"migraine_risk":7,"frizz_risk":1,"updated_at":"2026-03-30T16:35:42.167786+05:30"},{"city":"Bareilly","state":"Uttar Pradesh","latitude":28.367,"longitude":79.4304,"temp":33.9,"humidity":34,"rain":0.0,"pressure":985.0,"uv_index":6.3,"wind_gusts":20.9,"aqi":112,"pm10":133.2,"pm2_5":32.7,"mosquito_risk":0,"arthritis_risk":5,"migraine_risk":7,"frizz_risk":0,"updated_at":"2026-03-30T16:35:42.167793+05:30"},{"city":"Aligarh","state":"Uttar Pradesh","latitude":27.8974,"longitude":78.088,"temp":32.5,"humidity":29,"rain":0.0,"pressure":985.0,"uv_index":6.3,"wind_gusts":36.4,"aqi":422,"pm10":1594.4,"pm2_5":178.3,"mosquito_risk":0,"arthritis_risk":5,"migraine_risk":7,"frizz_risk":0,"updated_at":"2026-03-30T16:35:42.167799+05:30"},{"city":"Moradabad","state":"Uttar Pradesh","latitude":28.8386,"longitude":78.7733,"temp":32.2,"humidity":38,"rain":0.0,"pressure":982.2,"uv_index":6.0,"wind_gusts":20.2,"aqi":150,"pm10":152.3,"pm2_5":42.7,"mosquito_risk":0,"arthritis_risk":5,"migraine_risk":3,"frizz_risk":1,"updated_at":"2026-03-30T16:35:42.167805+05:30"},{"city":"Saharanpur","state":"Uttar Pradesh","latitude":29.9637,"longitude":77.546,"temp":29.7,"humidity":52,"rain":0.0,"pressure":975.1,"uv_index":6.0,"wind_gusts":25.6,"aqi":94,"pm10":345.5,"pm2_5":66.4,"mosquito_risk":4,"arthritis_risk":5,"migraine_risk":3,"frizz_risk":1,"updated_at":"2026-03-30T16:35:42.167811+05:30"},{"city":"Jhansi","state":"Uttar Pradesh","latitude":25.4484,"longitude":78.5685,"temp":34.6,"humidity":27,"rain":0.0,"pressure":976.7,"uv_index":7.3,"wind_gusts":36.0,"aqi":68,"pm10":62.4,"pm2_5":16.1,"mosquito_risk":0,"arthritis_risk":5,"migraine_risk":7,"frizz_risk":0,"updated_at":"2026-03-30T16:35:45.432290+05:30"},{"city":"Surat","state":"Gujarat","latitude":21.1702,"longitude":72.8311,"temp":32.4,"humidity":52,"rain":0.0,"pressure":1004.9,"uv_index":7.6,"wind_gusts":27.0,"aqi":93,"pm10":60.1,"pm2_5":37.0,"mosquito_risk":0,"arthritis_risk":5,"migraine_risk":4,"frizz_risk":1,"updated_at":"2026-03-30T16:35:45.432322+05:30"},{"city":"Vadodara","state":"Gujarat","latitude":22.3072,"longitude":73.1812,"temp":36.9,"humidity":32,"rain":0.0,"pressure":1002.0,"uv_index":8.0,"wind_gusts":29.5,"aqi":70,"pm10":39.8,"pm2_5":15.0,"mosquito_risk":0,"arthritis_risk":5,"migraine_risk":7,"frizz_risk":1,"updated_at":"2026-03-30T16:35:45.432331+05:30"},{"city":"Rajkot","state":"Gujarat","latitude":22.3039,"longitude":70.8022,"temp":33.9,"humidity":37,"rain":0.0,"pressure":992.7,"uv_index":7.8,"wind_gusts":34.9,"aqi":59,"pm10":29.7,"pm2_5":11.6,"mosquito_risk":0,"arthritis_risk":5,"migraine_risk":7,"frizz_risk":1,"updated_at":"2026-03-30T16:35:45.432340+05:30"},{"city":"Thane","state":"Maharashtra","latitude":19.2183,"longitude":72.9781,"temp":30.8,"humidity":70,"rain":0.0,"pressure":1006.2,"uv_index":8.0,"wind_gusts":39.2,"aqi":61,"pm10":48.4,"pm2_5":26.6,"mosquito_risk":3,"arthritis_risk":5,"migraine_risk":4,"frizz_risk":1,"updated_at":"2026-03-30T16:35:45.432369+05:30"},{"city":"Nagpur","state":"Maharashtra","latitude":21.1458,"longitude":79.0882,"temp":35.1,"humidity":33,"rain":0.0,"pressure":970.7,"uv_index":8.55,"wind_gusts":31.0,"aqi":70,"pm10":21.7,"pm2_5":12.5,"mosquito_risk":0,"arthritis_risk":5,"migraine_risk":10,"frizz_risk":1,"updated_at":"2026-03-30T16:35:45.432377+05:30"},{"city":"Nashik","state":"Maharashtra","latitude":19.9975,"longitude":73.7898,"temp":31.5,"humidity":39,"rain":0.0,"pressure":944.6,"uv_index":8.25,"wind_gusts":32.0,"aqi":57,"pm10":21.0,"pm2_5":14.3,"mosquito_risk":0,"arthritis_risk":5,"migraine_risk":7,"frizz_risk":0,"updated_at":"2026-03-30T16:35:45.432385+05:30"},{"city":"Aurangabad","state":"Maharashtra","latitude":19.8762,"longitude":75.3433,"temp":34.2,"humidity":27,"rain":0.0,"pressure":942.5,"uv_index":8.75,"wind_gusts":48.6,"aqi":58,"pm10":16.4,"pm2_5":11.3,"mosquito_risk":0,"arthritis_risk":5,"migraine_risk":7,"frizz_risk":0,"updated_at":"2026-03-30T16:35:45.432392+05:30"},{"city":"Solapur","state":"Maharashtra","latitude":17.6599,"longitude":75.9064,"temp":37.9,"humidity":22,"rain":0.0,"pressure":953.8,"uv_index":8.85,"wind_gusts":39.2,"aqi":101,"pm10":27.8,"pm2_5":23.0,"mosquito_risk":0,"arthritis_risk":5,"migraine_risk":10,"frizz_risk":0,"updated_at":"2026-03-30T16:35:45.432400+05:30"},{"city":"Kolhapur","state":"Maharashtra","latitude":16.705,"longitude":74.2433,"temp":29.3,"humidity":62,"rain":0.0,"pressure":946.7,"uv_index":8.9,"wind_gusts":38.9,"aqi":81,"pm10":23.3,"pm2_5":18.7,"mosquito_risk":7,"arthritis_risk":5,"migraine_risk":7,"frizz_risk":1,"updated_at":"2026-03-30T16:35:45.432407+05:30"},{"city":"Goa","state":"Goa","latitude":15.2993,"longitude":74.124,"temp":31.2,"humidity":70,"rain":0.0,"pressure":995.9,"uv_index":8.95,"wind_gusts":30.2,"aqi":55,"pm10":24.6,"pm2_5":18.0,"mosquito_risk":3,"arthritis_risk":5,"migraine_risk":7,"frizz_risk":1,"updated_at":"2026-03-30T16:35:45.432415+05:30"},{"city":"Jodhpur","state":"Rajasthan","latitude":26.2389,"longitude":73.0243,"temp":30.5,"humidity":39,"rain":0.0,"pressure":982.6,"uv_index":7.65,"wind_gusts":37.4,"aqi":118,"pm10":195.6,"pm2_5":24.2,"mosquito_risk":0,"arthritis_risk":5,"migraine_risk":7,"frizz_risk":0,"updated_at":"2026-03-30T16:35:45.432422+05:30"},{"city":"Udaipur","state":"Rajasthan","latitude":24.5854,"longitude":73.7125,"temp":26.6,"humidity":53,"rain":0.0,"pressure":946.6,"uv_index":8.25,"wind_gusts":51.5,"aqi":42,"pm10":36.9,"pm2_5":11.2,"mosquito_risk":4,"arthritis_risk":5,"migraine_risk":7,"frizz_risk":1,"updated_at":"2026-03-30T16:35:45.432429+05:30"},{"city":"Kota","state":"Rajasthan","latitude":25.2138,"longitude":75.8648,"temp":33.7,"humidity":24,"rain":0.0,"pressure":978.3,"uv_index":6.2,"wind_gusts":40.3,"aqi":44,"pm10":38.1,"pm2_5":13.9,"mosquito_risk":0,"arthritis_risk":5,"migraine_risk":7,"frizz_risk":0,"updated_at":"2026-03-30T16:35:45.432435+05:30"},{"city":"Bikaner","state":"Rajasthan","latitude":28.0229,"longitude":73.3119,"temp":31.4,"humidity":35,"rain":0.0,"pressure":980.8,"uv_index":6.35,"wind_gusts":45.4,"aqi":105,"pm10":117.3,"pm2_5":30.0,"mosquito_risk":0,"arthritis_risk":5,"migraine_risk":7,"frizz_risk":0,"updated_at":"2026-03-30T16:35:45.432442+05:30"},{"city":"Ajmer","state":"Rajasthan","latitude":26.4499,"longitude":74.6399,"temp":30.5,"humidity":34,"rain":0.0,"pressure":955.0,"uv_index":6.4,"wind_gusts":37.4,"aqi":47,"pm10":26.8,"pm2_5":8.5,"mosquito_risk":0,"arthritis_risk":5,"migraine_risk":7,"frizz_risk":0,"updated_at":"2026-03-30T16:35:45.432449+05:30"},{"city":"Gwalior","state":"Madhya Pradesh","latitude":26.2183,"longitude":78.1828,"temp":34.4,"humidity":28,"rain":0.0,"pressure":982.3,"uv_index":6.4,"wind_gusts":38.9,"aqi":65,"pm10":45.3,"pm2_5":15.4,"mosquito_risk":0,"arthritis_risk":5,"migraine_risk":7,"frizz_risk":0,"updated_at":"2026-03-30T16:35:45.432456+05:30"},{"city":"Indore","state":"Madhya Pradesh","latitude":22.7196,"longitude":75.8577,"temp":33.5,"humidity":32,"rain":0.0,"pressure":946.7,"uv_index":8.15,"wind_gusts":24.1,"aqi":48,"pm10":22.5,"pm2_5":9.1,"mosquito_risk":0,"arthritis_risk":5,"migraine_risk":7,"frizz_risk":0,"updated_at":"2026-03-30T16:35:45.432463+05:30"},{"city":"Bhopal","state":"Madhya Pradesh","latitude":23.2599,"longitude":77.4126,"temp":35.6,"humidity":23,"rain":0.0,"pressure":951.6,"uv_index":8.2,"wind_gusts":29.2,"aqi":68,"pm10":19.4,"pm2_5":7.6,"mosquito_risk":0,"arthritis_risk":5,"migraine_risk":10,"frizz_risk":0,"updated_at":"2026-03-30T16:35:45.432470+05:30"},{"city":"Jabalpur","state":"Madhya Pradesh","latitude":23.1815,"longitude":79.9864,"temp":37.3,"humidity":21,"rain":0.0,"pressure":958.5,"uv_index":8.35,"wind_gusts":29.5,"aqi":49,"pm10":15.5,"pm2_5":7.8,"mosquito_risk":0,"arthritis_risk":5,"migraine_risk":10,"frizz_risk":0,"updated_at":"2026-03-30T16:35:45.432477+05:30"},{"city":"Ujjain","state":"Madhya Pradesh","latitude":23.1765,"longitude":75.7885,"temp":33.8,"humidity":30,"rain":0.0,"pressure":952.5,"uv_index":7.95,"wind_gusts":27.0,"aqi":47,"pm10":25.7,"pm2_5":9.7,"mosquito_risk":0,"arthritis_risk":5,"migraine_risk":7,"frizz_risk":0,"updated_at":"2026-03-30T16:35:45.432485+05:30"},{"city":"Visakhapatnam","state":"Andhra Pradesh","latitude":17.6868,"longitude":83.2185,"temp":31.0,"humidity":64,"rain":0.0,"pressure":1002.4,"uv_index":9.0,"wind_gusts":43.6,"aqi":62,"pm10":22.2,"pm2_5":17.0,"mosquito_risk":3,"arthritis_risk":5,"migraine_risk":4,"frizz_risk":1,"updated_at":"2026-03-30T16:35:45.432492+05:30"},{"city":"Vijayawada","state":"Andhra Pradesh","latitude":16.5062,"longitude":80.648,"temp":34.9,"humidity":42,"rain":0.0,"pressure":1000.1,"uv_index":9.05,"wind_gusts":32.0,"aqi":72,"pm10":25.2,"pm2_5":20.5,"mosquito_risk":0,"arthritis_risk":5,"migraine_risk":4,"frizz_risk":1,"updated_at":"2026-03-30T16:35:45.432498+05:30"},{"city":"Guntur","state":"Andhra Pradesh","latitude":16.3067,"longitude":80.4365,"temp":33.8,"humidity":46,"rain":0.0,"pressure":1001.5,"uv_index":9.1,"wind_gusts":34.2,"aqi":84,"pm10":29.3,"pm2_5":24.0,"mosquito_risk":0,"arthritis_risk":5,"migraine_risk":4,"frizz_risk":1,"updated_at":"2026-03-30T16:35:45.432505+05:30"},{"city":"Nellore","state":"Andhra Pradesh","latitude":14.4426,"longitude":79.9865,"temp":34.8,"humidity":52,"rain":0.0,"pressure":1003.5,"uv_index":9.2,"wind_gusts":32.4,"aqi":77,"pm10":20.8,"pm2_5":16.1,"mosquito_risk":0,"arthritis_risk":5,"migraine_risk":4,"frizz_risk":1,"updated_at":"2026-03-30T16:35:45.432512+05:30"},{"city":"Kurnool","state":"Andhra Pradesh","latitude":15.8281,"longitude":78.0373,"temp":37.4,"humidity":26,"rain":0.0,"pressure":974.1,"uv_index":9.1,"wind_gusts":24.5,"aqi":126,"pm10":39.0,"pm2_5":31.7,"mosquito_risk":0,"arthritis_risk":5,"migraine_risk":10,"frizz_risk":0,"updated_at":"2026-03-30T16:35:45.432519+05:30"},{"city":"Kakinada","state":"Andhra Pradesh","latitude":16.9891,"longitude":82.2475,"temp":33.5,"humidity":50,"rain":0.0,"pressure":1005.5,"uv_index":9.0,"wind_gusts":34.6,"aqi":51,"pm10":17.2,"pm2_5":11.7,"mosquito_risk":0,"arthritis_risk":5,"migraine_risk":4,"frizz_risk":1,"updated_at":"2026-03-30T16:35:45.432526+05:30"},{"city":"Tirupati","state":"Andhra Pradesh","latitude":13.6288,"longitude":79.4192,"temp":35.0,"humidity":33,"rain":0.0,"pressure":989.7,"uv_index":9.3,"wind_gusts":36.4,"aqi":92,"pm10":25.2,"pm2_5":22.2,"mosquito_risk":0,"arthritis_risk":5,"migraine_risk":7,"frizz_risk":1,"updated_at":"2026-03-30T16:35:45.432533+05:30"},{"city":"Warangal","state":"Telangana","latitude":17.9689,"longitude":79.5941,"temp":35.0,"humidity":45,"rain":0.0,"pressure":976.5,"uv_index":8.9,"wind_gusts":27.0,"aqi":119,"pm10":40.2,"pm2_5":33.9,"mosquito_risk":0,"arthritis_risk":5,"migraine_risk":7,"frizz_risk":1,"updated_at":"2026-03-30T16:35:45.432540+05:30"},{"city":"Nizamabad","state":"Telangana","latitude":18.6725,"longitude":78.0941,"temp":33.0,"humidity":40,"rain":0.0,"pressure":963.3,"uv_index":8.85,"wind_gusts":46.8,"aqi":83,"pm10":17.5,"pm2_5":12.9,"mosquito_risk":0,"arthritis_risk":5,"migraine_risk":7,"frizz_risk":1,"updated_at":"2026-03-30T16:35:45.432547+05:30"},{"city":"Mysore","state":"Karnataka","latitude":12.2958,"longitude":76.6396,"temp":32.2,"humidity":33,"rain":0.0,"pressure":926.7,"uv_index":8.75,"wind_gusts":23.8,"aqi":137,"pm10":21.4,"pm2_5":17.5,"mosquito_risk":0,"arthritis_risk":5,"migraine_risk":7,"frizz_risk":0,"updated_at":"2026-03-30T16:35:45.432554+05:30"},{"city":"Mangalore","state":"Karnataka","latitude":12.9141,"longitude":74.856,"temp":29.7,"humidity":80,"rain":0.0,"pressure":1004.6,"uv_index":2.45,"wind_gusts":23.4,"aqi":64,"pm10":19.9,"pm2_5":14.0,"mosquito_risk":7,"arthritis_risk":5,"migraine_risk":0,"frizz_risk":1,"updated_at":"2026-03-30T16:35:45.432561+05:30"},{"city":"Hubli-Dharwad","state":"Karnataka","latitude":15.3647,"longitude":75.124,"temp":31.8,"humidity":46,"rain":0.0,"pressure":939.5,"uv_index":8.1,"wind_gusts":30.6,"aqi":120,"pm10":28.6,"pm2_5":22.2,"mosquito_risk":0,"arthritis_risk":5,"migraine_risk":7,"frizz_risk":1,"updated_at":"2026-03-30T16:35:45.432567+05:30"},{"city":"Belgaum","state":"Karnataka","latitude":15.8497,"longitude":74.4977,"temp":27.3,"humidity":68,"rain":0.0,"pressure":925.1,"uv_index":9.1,"wind_gusts":31.7,"aqi":103,"pm10":19.3,"pm2_5":15.1,"mosquito_risk":7,"arthritis_risk":5,"migraine_risk":7,"frizz_risk":1,"updated_at":"2026-03-30T16:35:48.655115+05:30"},{"city":"Coimbatore","state":"Tamil Nadu","latitude":11.0168,"longitude":76.9558,"temp":31.5,"humidity":53,"rain":0.0,"pressure":959.4,"uv_index":9.45,"wind_gusts":36.4,"aqi":99,"pm10":20.2,"pm2_5":17.2,"mosquito_risk":0,"arthritis_risk":5,"migraine_risk":7,"frizz_risk":1,"updated_at":"2026-03-30T16:35:48.655145+05:30"},{"city":"Madurai","state":"Tamil Nadu","latitude":9.9252,"longitude":78.1198,"temp":36.6,"humidity":32,"rain":0.0,"pressure":989.6,"uv_index":9.4,"wind_gusts":36.0,"aqi":90,"pm10":16.7,"pm2_5":13.7,"mosquito_risk":0,"arthritis_risk":5,"migraine_risk":10,"frizz_risk":1,"updated_at":"2026-03-30T16:35:48.655155+05:30"},{"city":"Trichy","state":"Tamil Nadu","latitude":10.7905,"longitude":78.7047,"temp":36.6,"humidity":33,"rain":0.0,"pressure":996.6,"uv_index":9.35,"wind_gusts":25.6,"aqi":69,"pm10":12.0,"pm2_5":10.4,"mosquito_risk":0,"arthritis_risk":5,"migraine_risk":10,"frizz_risk":1,"updated_at":"2026-03-30T16:35:48.655163+05:30"},{"city":"Salem","state":"Tamil Nadu","latitude":11.6643,"longitude":78.146,"temp":36.9,"humidity":27,"rain":0.0,"pressure":974.3,"uv_index":9.45,"wind_gusts":27.0,"aqi":84,"pm10":18.6,"pm2_5":15.4,"mosquito_risk":0,"arthritis_risk":5,"migraine_risk":10,"frizz_risk":0,"updated_at":"2026-03-30T16:35:48.655171+05:30"},{"city":"Tirunelveli","state":"Tamil Nadu","latitude":8.7139,"longitude":77.7567,"temp":34.4,"humidity":44,"rain":0.0,"pressure":1000.0,"uv_index":9.35,"wind_gusts":52.2,"aqi":112,"pm10":19.4,"pm2_5":16.9,"mosquito_risk":0,"arthritis_risk":5,"migraine_risk":4,"frizz_risk":1,"updated_at":"2026-03-30T16:35:48.655179+05:30"},{"city":"Vellore","state":"Tamil Nadu","latitude":12.9165,"longitude":79.1325,"temp":34.7,"humidity":31,"rain":0.0,"pressure":982.7,"uv_index":9.35,"wind_gusts":33.5,"aqi":98,"pm10":28.5,"pm2_5":26.1,"mosquito_risk":0,"arthritis_risk":5,"migraine_risk":7,"frizz_risk":0,"updated_at":"2026-03-30T16:35:48.655186+05:30"},{"city":"Erode","state":"Tamil Nadu","latitude":11.341,"longitude":77.7172,"temp":38.3,"humidity":21,"rain":0.0,"pressure":985.7,"uv_index":9.4,"wind_gusts":25.2,"aqi":70,"pm10":16.4,"pm2_5":13.9,"mosquito_risk":0,"arthritis_risk":5,"migraine_risk":10,"frizz_risk":0,"updated_at":"2026-03-30T16:35:48.655193+05:30"},{"city":"Kochi","state":"Kerala","latitude":9.9312,"longitude":76.2673,"temp":29.7,"humidity":79,"rain":0.0,"pressure":1005.6,"uv_index":9.2,"wind_gusts":31.7,"aqi":138,"pm10":32.2,"pm2_5":28.3,"mosquito_risk":7,"arthritis_risk":5,"migraine_risk":4,"frizz_risk":1,"updated_at":"2026-03-30T16:35:48.655200+05:30"},{"city":"Thiruvananthapuram","state":"Kerala","latitude":8.5241,"longitude":76.9366,"temp":29.7,"humidity":79,"rain":0.0,"pressure":1004.8,"uv_index":9.2,"wind_gusts":33.1,"aqi":106,"pm10":29.0,"pm2_5":23.5,"mosquito_risk":7,"arthritis_risk":5,"migraine_risk":4,"frizz_risk":1,"updated_at":"2026-03-30T16:35:48.655207+05:30"},{"city":"Kozhikode","state":"Kerala","latitude":11.2588,"longitude":75.7804,"temp":30.2,"humidity":76,"rain":0.0,"pressure":1005.3,"uv_index":9.1,"wind_gusts":28.4,"aqi":126,"pm10":27.6,"pm2_5":21.4,"mosquito_risk":3,"arthritis_risk":5,"migraine_risk":4,"frizz_risk":1,"updated_at":"2026-03-30T16:35:48.655214+05:30"},{"city":"Thrissur","state":"Kerala","latitude":10.5276,"longitude":76.2144,"temp":32.4,"humidity":66,"rain":0.0,"pressure":1004.2,"uv_index":9.2,"wind_gusts":30.6,"aqi":116,"pm10":37.4,"pm2_5":33.3,"mosquito_risk":3,"arthritis_risk":5,"migraine_risk":4,"frizz_risk":1,"updated_at":"2026-03-30T16:35:48.655222+05:30"},{"city":"Kannur","state":"Kerala","latitude":11.8745,"longitude":75.3704,"temp":31.5,"humidity":66,"rain":0.0,"pressure":1004.9,"uv_index":8.15,"wind_gusts":24.8,"aqi":114,"pm10":30.7,"pm2_5":21.8,"mosquito_risk":3,"arthritis_risk":5,"migraine_risk":4,"frizz_risk":1,"updated_at":"2026-03-30T16:35:48.655228+05:30"},{"city":"Patna","state":"Bihar","latitude":25.5941,"longitude":85.1376,"temp":32.2,"humidity":50,"rain":0.0,"pressure":998.6,"uv_index":8.1,"wind_gusts":30.6,"aqi":155,"pm10":74.5,"pm2_5":42.6,"mosquito_risk":0,"arthritis_risk":5,"migraine_risk":7,"frizz_risk":1,"updated_at":"2026-03-30T16:35:48.655235+05:30"},{"city":"Gaya","state":"Bihar","latitude":24.7914,"longitude":85.0002,"temp":33.5,"humidity":46,"rain":0.0,"pressure":991.4,"uv_index":8.2,"wind_gusts":23.4,"aqi":106,"pm10":36.3,"pm2_5":16.8,"mosquito_risk":0,"arthritis_risk":5,"migraine_risk":7,"frizz_risk":1,"updated_at":"2026-03-30T16:35:48.655241+05:30"},{"city":"Muzaffarpur","state":"Bihar","latitude":26.1209,"longitude":85.3647,"temp":31.3,"humidity":49,"rain":0.0,"pressure":998.9,"uv_index":8.05,"wind_gusts":29.2,"aqi":159,"pm10":83.4,"pm2_5":51.7,"mosquito_risk":0,"arthritis_risk":5,"migraine_risk":7,"frizz_risk":1,"updated_at":"2026-03-30T16:35:48.655247+05:30"},{"city":"Bhagalpur","state":"Bihar","latitude":25.2425,"longitude":87.0117,"temp":29.5,"humidity":64,"rain":0.0,"pressure":1000.0,"uv_index":8.1,"wind_gusts":19.4,"aqi":165,"pm10":76.8,"pm2_5":55.6,"mosquito_risk":7,"arthritis_risk":5,"migraine_risk":4,"frizz_risk":1,"updated_at":"2026-03-30T16:35:48.655254+05:30"},{"city":"Ranchi","state":"Jharkhand","latitude":23.3441,"longitude":85.3096,"temp":29.4,"humidity":53,"rain":0.0,"pressure":936.4,"uv_index":8.75,"wind_gusts":27.0,"aqi":156,"pm10":36.8,"pm2_5":26.1,"mosquito_risk":4,"arthritis_risk":5,"migraine_risk":7,"frizz_risk":1,"updated_at":"2026-03-30T16:35:48.655262+05:30"},{"city":"Jamshedpur","state":"Jharkhand","latitude":22.8046,"longitude":86.2029,"temp":32.0,"humidity":59,"rain":0.0,"pressure":988.3,"uv_index":8.6,"wind_gusts":27.7,"aqi":164,"pm10":44.5,"pm2_5":34.7,"mosquito_risk":0,"arthritis_risk":5,"migraine_risk":7,"frizz_risk":1,"updated_at":"2026-03-30T16:35:48.655269+05:30"},{"city":"Dhanbad","state":"Jharkhand","latitude":23.7957,"longitude":86.4304,"temp":32.1,"humidity":45,"rain":0.0,"pressure":977.9,"uv_index":8.5,"wind_gusts":29.5,"aqi":163,"pm10":70.5,"pm2_5":55.3,"mosquito_risk":0,"arthritis_risk":5,"migraine_risk":7,"frizz_risk":1,"updated_at":"2026-03-30T16:35:48.655276+05:30"},{"city":"Bokaro","state":"Jharkhand","latitude":23.6693,"longitude":86.1511,"temp":31.3,"humidity":54,"rain":0.0,"pressure":981.8,"uv_index":8.55,"wind_gusts":30.6,"aqi":158,"pm10":58.3,"pm2_5":44.0,"mosquito_risk":0,"arthritis_risk":5,"migraine_risk":7,"frizz_risk":1,"updated_at":"2026-03-30T16:35:48.655283+05:30"},{"city":"Bhubaneswar","state":"Odisha","latitude":20.2961,"longitude":85.8245,"temp":31.1,"humidity":66,"rain":0.0,"pressure":1000.5,"uv_index":8.8,"wind_gusts":38.9,"aqi":69,"pm10":22.4,"pm2_5":18.3,"mosquito_risk":3,"arthritis_risk":5,"migraine_risk":4,"frizz_risk":1,"updated_at":"2026-03-30T16:35:48.655290+05:30"},{"city":"Cuttack","state":"Odisha","latitude":20.4625,"longitude":85.8828,"temp":32.6,"humidity":59,"rain":0.0,"pressure":1002.0,"uv_index":8.85,"wind_gusts":32.8,"aqi":69,"pm10":22.4,"pm2_5":18.3,"mosquito_risk":0,"arthritis_risk":5,"migraine_risk":4,"frizz_risk":1,"updated_at":"2026-03-30T16:35:48.655296+05:30"},{"city":"Rourkela","state":"Odisha","latitude":22.2604,"longitude":84.8536,"temp":36.6,"humidity":38,"rain":0.0,"pressure":981.5,"uv_index":8.5,"wind_gusts":52.6,"aqi":179,"pm10":30.4,"pm2_5":21.3,"mosquito_risk":0,"arthritis_risk":5,"migraine_risk":10,"frizz_risk":1,"updated_at":"2026-03-30T16:35:48.655302+05:30"},{"city":"Raipur","state":"Chhattisgarh","latitude":21.2514,"longitude":81.6296,"temp":36.9,"humidity":28,"rain":0.0,"pressure":971.8,"uv_index":8.65,"wind_gusts":32.8,"aqi":99,"pm10":26.3,"pm2_5":15.8,"mosquito_risk":0,"arthritis_risk":5,"migraine_risk":10,"frizz_risk":0,"updated_at":"2026-03-30T16:35:48.655308+05:30"},{"city":"Bhilai","state":"Chhattisgarh","latitude":21.1938,"longitude":81.3509,"temp":36.3,"humidity":32,"rain":0.0,"pressure":972.1,"uv_index":8.65,"wind_gusts":31.3,"aqi":74,"pm10":24.2,"pm2_5":13.2,"mosquito_risk":0,"arthritis_risk":5,"migraine_risk":10,"frizz_risk":1,"updated_at":"2026-03-30T16:35:48.655314+05:30"},{"city":"Guwahati","state":"Assam","latitude":26.1158,"longitude":91.7086,"temp":25.3,"humidity":76,"rain":0.0,"pressure":1002.1,"uv_index":7.15,"wind_gusts":27.7,"aqi":96,"pm10":46.2,"pm2_5":34.0,"mosquito_risk":7,"arthritis_risk":5,"migraine_risk":4,"frizz_risk":1,"updated_at":"2026-03-30T16:35:48.655321+05:30"},{"city":"Agartala","state":"Tripura","latitude":23.8315,"longitude":91.2868,"temp":30.9,"humidity":58,"rain":0.0,"pressure":1005.0,"uv_index":8.3,"wind_gusts":29.9,"aqi":124,"pm10":45.2,"pm2_5":37.6,"mosquito_risk":0,"arthritis_risk":5,"migraine_risk":4,"frizz_risk":1,"updated_at":"2026-03-30T16:35:48.655328+05:30"},{"city":"Shillong","state":"Meghalaya","latitude":25.5788,"longitude":91.8933,"temp":16.3,"humidity":74,"rain":0.0,"pressure":855.7,"uv_index":6.25,"wind_gusts":42.1,"aqi":109,"pm10":38.4,"pm2_5":29.5,"mosquito_risk":3,"arthritis_risk":5,"migraine_risk":7,"frizz_risk":0,"updated_at":"2026-03-30T16:35:48.655335+05:30"},{"city":"Imphal","state":"Manipur","latitude":24.817,"longitude":93.9368,"temp":20.0,"humidity":75,"rain":0.0,"pressure":922.8,"uv_index":7.75,"wind_gusts":58.7,"aqi":152,"pm10":37.4,"pm2_5":30.3,"mosquito_risk":3,"arthritis_risk":5,"migraine_risk":7,"frizz_risk":0,"updated_at":"2026-03-30T16:35:48.655341+05:30"},{"city":"Aizawl","state":"Mizoram","latitude":23.7271,"longitude":92.7176,"temp":23.0,"humidity":66,"rain":0.0,"pressure":893.1,"uv_index":8.45,"wind_gusts":50.8,"aqi":135,"pm10":43.4,"pm2_5":32.1,"mosquito_risk":3,"arthritis_risk":5,"migraine_risk":7,"frizz_risk":1,"updated_at":"2026-03-30T16:35:48.655372+05:30"},{"city":"Kohima","state":"Nagaland","latitude":25.6701,"longitude":94.1077,"temp":15.2,"humidity":94,"rain":0.0,"pressure":854.2,"uv_index":8.45,"wind_gusts":77.8,"aqi":130,"pm10":43.1,"pm2_5":29.6,"mosquito_risk":3,"arthritis_risk":10,"migraine_risk":7,"frizz_risk":0,"updated_at":"2026-03-30T16:35:48.655380+05:30"},{"city":"Gangtok","state":"Sikkim","latitude":27.3314,"longitude":88.6138,"temp":16.6,"humidity":77,"rain":0.0,"pressure":836.8,"uv_index":7.6,"wind_gusts":21.2,"aqi":95,"pm10":32.0,"pm2_5":24.7,"mosquito_risk":3,"arthritis_risk":5,"migraine_risk":7,"frizz_risk":0,"updated_at":"2026-03-30T16:35:48.655387+05:30"},{"city":"Siliguri","state":"West Bengal","latitude":26.7271,"longitude":88.3953,"temp":21.6,"humidity":76,"rain":0.0,"pressure":994.2,"uv_index":7.45,"wind_gusts":14.8,"aqi":155,"pm10":71.7,"pm2_5":50.8,"mosquito_risk":3,"arthritis_risk":5,"migraine_risk":7,"frizz_risk":1,"updated_at":"2026-03-30T16:35:51.881500+05:30"},{"city":"Durgapur","state":"West Bengal","latitude":23.5204,"longitude":87.3119,"temp":32.2,"humidity":58,"rain":0.0,"pressure":993.1,"uv_index":8.5,"wind_gusts":25.2,"aqi":160,"pm10":79.6,"pm2_5":67.1,"mosquito_risk":0,"arthritis_risk":5,"migraine_risk":7,"frizz_risk":1,"updated_at":"2026-03-30T16:35:51.881531+05:30"},{"city":"Asansol","state":"West Bengal","latitude":23.6739,"longitude":86.9524,"temp":29.4,"humidity":71,"rain":0.0,"pressure":992.0,"uv_index":8.5,"wind_gusts":28.4,"aqi":159,"pm10":77.3,"pm2_5":61.5,"mosquito_risk":7,"arthritis_risk":5,"migraine_risk":7,"frizz_risk":1,"updated_at":"2026-03-30T16:35:51.881541+05:30"},{"city":"Pondicherry","state":"Puducherry","latitude":11.9139,"longitude":79.8145,"temp":32.6,"humidity":62,"rain":0.0,"pressure":1006.5,"uv_index":9.25,"wind_gusts":27.7,"aqi":51,"pm10":13.4,"pm2_5":8.9,"mosquito_risk":3,"arthritis_risk":5,"migraine_risk":4,"frizz_risk":1,"updated_at":"2026-03-30T16:35:51.881549+05:30"},{"city":"Port Blair","state":"Andaman and Nicobar Islands","latitude":11.6234,"longitude":92.7265,"temp":30.0,"humidity":64,"rain":0.0,"pressure":1006.0,"uv_index":9.2,"wind_gusts":15.1,"aqi":65,"pm10":15.9,"pm2_5":12.3,"mosquito_risk":7,"arthritis_risk":5,"migraine_risk":4,"frizz_risk":1,"updated_at":"2026-03-30T16:35:51.881557+05:30"},{"city":"Haridwar","state":"Uttarakhand","latitude":29.9457,"longitude":78.1642,"temp":30.5,"humidity":45,"rain":0.0,"pressure":974.1,"uv_index":5.65,"wind_gusts":21.2,"aqi":89,"pm10":125.7,"pm2_5":35.6,"mosquito_risk":0,"arthritis_risk":5,"migraine_risk":3,"frizz_risk":1,"updated_at":"2026-03-30T16:35:51.881564+05:30"},{"city":"Rishikesh","state":"Uttarakhand","latitude":30.0869,"longitude":78.2676,"temp":29.5,"humidity":47,"rain":0.0,"pressure":966.8,"uv_index":5.55,"wind_gusts":24.8,"aqi":75,"pm10":106.2,"pm2_5":27.0,"mosquito_risk":4,"arthritis_risk":5,"migraine_risk":3,"frizz_risk":1,"updated_at":"2026-03-30T16:35:51.881571+05:30"},{"city":"Nainital","state":"Uttarakhand","latitude":29.3919,"longitude":79.4542,"temp":23.2,"humidity":51,"rain":0.0,"pressure":807.6,"uv_index":7.25,"wind_gusts":47.9,"aqi":84,"pm10":86.6,"pm2_5":25.1,"mosquito_risk":0,"arthritis_risk":5,"migraine_risk":7,"frizz_risk":0,"updated_at":"2026-03-30T16:35:51.881579+05:30"},{"city":"Mussoorie","state":"Uttarakhand","latitude":30.4599,"longitude":78.0664,"temp":20.8,"humidity":56,"rain":0.0,"pressure":804.2,"uv_index":6.2,"wind_gusts":34.2,"aqi":73,"pm10":107.3,"pm2_5":26.3,"mosquito_risk":0,"arthritis_risk":5,"migraine_risk":7,"frizz_risk":0,"updated_at":"2026-03-30T16:35:51.881587+05:30"},{"city":"Dharamshala","state":"Himachal Pradesh","latitude":32.219,"longitude":76.3234,"temp":21.8,"humidity":60,"rain":0.0,"pressure":869.5,"uv_index":5.9,"wind_gusts":30.2,"aqi":47,"pm10":31.0,"pm2_5":8.7,"mosquito_risk":0,"arthritis_risk":5,"migraine_risk":3,"frizz_risk":0,"updated_at":"2026-03-30T16:35:51.881594+05:30"},{"city":"Dalhousie","state":"Himachal Pradesh","latitude":32.5387,"longitude":75.971,"temp":16.9,"humidity":63,"rain":0.0,"pressure":803.4,"uv_index":5.85,"wind_gusts":45.0,"aqi":62,"pm10":75.4,"pm2_5":18.5,"mosquito_risk":3,"arthritis_risk":5,"migraine_risk":3,"frizz_risk":0,"updated_at":"2026-03-30T16:35:51.881601+05:30"},{"city":"Patiala","state":"Punjab","latitude":30.3398,"longitude":76.3869,"temp":30.0,"humidity":51,"rain":0.0,"pressure":978.2,"uv_index":5.6,"wind_gusts":25.6,"aqi":273,"pm10":1125.0,"pm2_5":135.5,"mosquito_risk":4,"arthritis_risk":5,"migraine_risk":3,"frizz_risk":1,"updated_at":"2026-03-30T16:35:51.881609+05:30"},{"city":"Bhatinda","state":"Punjab","latitude":30.211,"longitude":74.9455,"temp":29.5,"humidity":43,"rain":0.0,"pressure":983.2,"uv_index":4.15,"wind_gusts":38.9,"aqi":250,"pm10":59.5,"pm2_5":18.6,"mosquito_risk":4,"arthritis_risk":5,"migraine_risk":3,"frizz_risk":0,"updated_at":"2026-03-30T16:35:51.881615+05:30"},{"city":"Rohtak","state":"Haryana","latitude":28.8955,"longitude":76.6066,"temp":29.2,"humidity":42,"rain":0.0,"pressure":982.0,"uv_index":6.55,"wind_gusts":34.2,"aqi":483,"pm10":527.1,"pm2_5":64.5,"mosquito_risk":4,"arthritis_risk":5,"migraine_risk":7,"frizz_risk":0,"updated_at":"2026-03-30T16:35:51.881622+05:30"},{"city":"Panipat","state":"Haryana","latitude":29.3909,"longitude":76.9635,"temp":29.2,"humidity":48,"rain":0.0,"pressure":980.3,"uv_index":6.6,"wind_gusts":25.9,"aqi":722,"pm10":1028.2,"pm2_5":115.5,"mosquito_risk":4,"arthritis_risk":5,"migraine_risk":7,"frizz_risk":1,"updated_at":"2026-03-30T16:35:51.881629+05:30"},{"city":"Mathura","state":"Uttar Pradesh","latitude":27.4924,"longitude":77.6737,"temp":32.7,"humidity":27,"rain":0.0,"pressure":986.5,"uv_index":6.6,"wind_gusts":39.6,"aqi":406,"pm10":1125.0,"pm2_5":116.4,"mosquito_risk":0,"arthritis_risk":5,"migraine_risk":7,"frizz_risk":0,"updated_at":"2026-03-30T16:35:51.881636+05:30"},{"city":"Vrindavan","state":"Uttar Pradesh","latitude":27.5823,"longitude":77.7027,"temp":32.4,"humidity":26,"rain":0.0,"pressure":986.9,"uv_index":6.65,"wind_gusts":40.0,"aqi":406,"pm10":1125.0,"pm2_5":116.4,"mosquito_risk":0,"arthritis_risk":5,"migraine_risk":7,"frizz_risk":0,"updated_at":"2026-03-30T16:35:51.881642+05:30"},{"city":"Ayodhya","state":"Uttar Pradesh","latitude":26.7922,"longitude":82.1998,"temp":34.6,"humidity":36,"rain":0.0,"pressure":993.0,"uv_index":7.45,"wind_gusts":25.2,"aqi":146,"pm10":77.3,"pm2_5":24.7,"mosquito_risk":0,"arthritis_risk":5,"migraine_risk":7,"frizz_risk":1,"updated_at":"2026-03-30T16:35:51.881649+05:30"},{"city":"Ratlam","state":"Madhya Pradesh","latitude":23.3315,"longitude":75.0367,"temp":32.0,"humidity":40,"rain":0.0,"pressure":953.9,"uv_index":7.95,"wind_gusts":38.2,"aqi":46,"pm10":27.4,"pm2_5":9.6,"mosquito_risk":0,"arthritis_risk":5,"migraine_risk":7,"frizz_risk":1,"updated_at":"2026-03-30T16:35:51.881655+05:30"},{"city":"Sagar","state":"Madhya Pradesh","latitude":23.8388,"longitude":78.7378,"temp":36.3,"humidity":21,"rain":0.0,"pressure":947.9,"uv_index":8.2,"wind_gusts":32.8,"aqi":59,"pm10":25.4,"pm2_5":6.4,"mosquito_risk":0,"arthritis_risk":5,"migraine_risk":10,"frizz_risk":0,"updated_at":"2026-03-30T16:35:51.881661+05:30"},{"city":"Satna","state":"Madhya Pradesh","latitude":24.6005,"longitude":80.8322,"temp":36.3,"humidity":26,"rain":0.0,"pressure":968.8,"uv_index":8.2,"wind_gusts":55.8,"aqi":91,"pm10":22.9,"pm2_5":11.9,"mosquito_risk":0,"arthritis_risk":5,"migraine_risk":10,"frizz_risk":0,"updated_at":"2026-03-30T16:35:51.881668+05:30"},{"city":"Akola","state":"Maharashtra","latitude":20.7002,"longitude":77.0082,"temp":38.2,"humidity":22,"rain":0.0,"pressure":971.8,"uv_index":8.55,"wind_gusts":38.5,"aqi":55,"pm10":16.9,"pm2_5":10.0,"mosquito_risk":0,"arthritis_risk":5,"migraine_risk":10,"frizz_risk":0,"updated_at":"2026-03-30T16:35:51.881675+05:30"},{"city":"Amravati","state":"Maharashtra","latitude":20.9374,"longitude":77.7796,"temp":38.3,"humidity":20,"rain":0.0,"pressure":964.0,"uv_index":8.5,"wind_gusts":27.7,"aqi":53,"pm10":15.1,"pm2_5":8.3,"mosquito_risk":0,"arthritis_risk":5,"migraine_risk":10,"frizz_risk":0,"updated_at":"2026-03-30T16:35:51.881682+05:30"},{"city":"Latur","state":"Maharashtra","latitude":18.4088,"longitude":76.5604,"temp":34.9,"humidity":26,"rain":0.0,"pressure":937.6,"uv_index":8.0,"wind_gusts":36.7,"aqi":72,"pm10":24.0,"pm2_5":19.0,"mosquito_risk":0,"arthritis_risk":5,"migraine_risk":7,"frizz_risk":0,"updated_at":"2026-03-30T16:35:51.881689+05:30"},{"city":"Nanded","state":"Maharashtra","latitude":19.1383,"longitude":77.3091,"temp":35.6,"humidity":32,"rain":0.0,"pressure":966.4,"uv_index":8.7,"wind_gusts":49.0,"aqi":67,"pm10":16.5,"pm2_5":10.6,"mosquito_risk":0,"arthritis_risk":5,"migraine_risk":10,"frizz_risk":1,"updated_at":"2026-03-30T16:35:51.881695+05:30"},{"city":"Gulbarga","state":"Karnataka","latitude":17.3297,"longitude":76.8343,"temp":36.0,"humidity":25,"rain":0.0,"pressure":956.6,"uv_index":8.05,"wind_gusts":38.9,"aqi":123,"pm10":51.6,"pm2_5":43.3,"mosquito_risk":0,"arthritis_risk":5,"migraine_risk":10,"frizz_risk":0,"updated_at":"2026-03-30T16:35:51.881702+05:30"},{"city":"Bidar","state":"Karnataka","latitude":17.9104,"longitude":77.5199,"temp":30.6,"humidity":49,"rain":0.0,"pressure":934.4,"uv_index":8.9,"wind_gusts":42.8,"aqi":119,"pm10":39.8,"pm2_5":33.5,"mosquito_risk":0,"arthritis_risk":5,"migraine_risk":7,"frizz_risk":1,"updated_at":"2026-03-30T16:35:51.881708+05:30"},{"city":"Hospet","state":"Karnataka","latitude":15.2689,"longitude":76.3909,"temp":33.2,"humidity":43,"rain":0.0,"pressure":953.9,"uv_index":8.95,"wind_gusts":23.8,"aqi":125,"pm10":61.0,"pm2_5":49.5,"mosquito_risk":0,"arthritis_risk":5,"migraine_risk":7,"frizz_risk":1,"updated_at":"2026-03-30T16:35:51.881715+05:30"},{"city":"Tirupur","state":"Tamil Nadu","latitude":11.1085,"longitude":77.3411,"temp":36.4,"humidity":28,"rain":0.0,"pressure":972.2,"uv_index":9.45,"wind_gusts":27.7,"aqi":94,"pm10":18.5,"pm2_5":15.7,"mosquito_risk":0,"arthritis_risk":5,"migraine_risk":10,"frizz_risk":0,"updated_at":"2026-03-30T16:35:51.881722+05:30"},{"city":"Alappuzha","state":"Kerala","latitude":9.4981,"longitude":76.3388,"temp":29.7,"humidity":80,"rain":0.0,"pressure":1005.7,"uv_index":9.2,"wind_gusts":27.4,"aqi":133,"pm10":33.8,"pm2_5":29.0,"mosquito_risk":7,"arthritis_risk":5,"migraine_risk":4,"frizz_risk":1,"updated_at":"2026-03-30T16:35:51.881728+05:30"},{"city":"Munnar","state":"Kerala","latitude":10.0889,"longitude":77.0595,"temp":27.3,"humidity":62,"rain":0.0,"pressure":856.9,"uv_index":8.7,"wind_gusts":31.7,"aqi":87,"pm10":17.2,"pm2_5":14.5,"mosquito_risk":7,"arthritis_risk":5,"migraine_risk":7,"frizz_risk":1,"updated_at":"2026-03-30T16:35:51.881735+05:30"},{"city":"Silchar","state":"Assam","latitude":24.8333,"longitude":92.7789,"temp":28.3,"humidity":69,"rain":0.0,"pressure":1004.7,"uv_index":8.3,"wind_gusts":25.9,"aqi":153,"pm10":33.6,"pm2_5":25.8,"mosquito_risk":7,"arthritis_risk":5,"migraine_risk":4,"frizz_risk":1,"updated_at":"2026-03-30T16:35:51.881742+05:30"},{"city":"Dibrugarh","state":"Assam","latitude":27.4728,"longitude":94.912,"temp":24.8,"humidity":68,"rain":0.0,"pressure":996.5,"uv_index":5.55,"wind_gusts":10.1,"aqi":98,"pm10":26.6,"pm2_5":20.2,"mosquito_risk":3,"arthritis_risk":5,"migraine_risk":3,"frizz_risk":1,"updated_at":"2026-03-30T16:35:51.881749+05:30"}]