[{"city":"Delhi","state":"Delhi","latitude":28.6139,"longitude":77.209,"temp":28.1,"humidity":81,"rain":0.0,"pressure":977.9,"uv_index":7.4,"wind_gusts":32.0,"aqi":155,"pm10":194.2,"pm2_5":70.1,"no2":35.1,"co":827.0,"o3":72.0,"so2":32.3,"mosquito_risk":7,"arthritis_risk":5,"migraine_risk":7,"frizz_risk":1,"updated_at":"2026-07-01T23:29:19.690841+05:30"},{"city":"Mumbai","state":"Maharashtra","latitude":19.076,"longitude":72.8777,"temp":25.7,"humidity":93,"rain":0.3,"pressure":1005.8,"uv_index":0.85,"wind_gusts":45.4,"aqi":35,"pm10":19.7,"pm2_5":10.7,"no2":8.8,"co":217.0,"o3":46.0,"so2":6.3,"mosquito_risk":10,"arthritis_risk":5,"migraine_risk":0,"frizz_risk":1,"updated_at":"2026-07-01T23:29:19.690878+05:30"},{"city":"Bangalore","state":"Karnataka","latitude":12.9716,"longitude":77.5946,"temp":21.2,"humidity":90,"rain":0.0,"pressure":911.7,"uv_index":7.0,"wind_gusts":56.5,"aqi":22,"pm10":4.4,"pm2_5":4.2,"no2":14.8,"co":310.0,"o3":31.0,"so2":4.1,"mosquito_risk":3,"arthritis_risk":5,"migraine_risk":7,"frizz_risk":1,"updated_at":"2026-07-01T23:29:19.690893+05:30"},{"city":"Hyderabad","state":"Telangana","latitude":17.385,"longitude":78.4867,"temp":24.3,"humidity":85,"rain":0.1,"pressure":950.9,"uv_index":6.0,"wind_gusts":49.3,"aqi":28,"pm10":8.1,"pm2_5":6.0,"no2":8.2,"co":216.0,"o3":48.0,"so2":3.7,"mosquito_risk":6,"arthritis_risk":5,"migraine_risk":3,"frizz_risk":1,"updated_at":"2026-07-01T23:29:19.690902+05:30"},{"city":"Chennai","state":"Tamil Nadu","latitude":13.0827,"longitude":80.2707,"temp":30.2,"humidity":60,"rain":0.0,"pressure":1005.7,"uv_index":5.65,"wind_gusts":49.3,"aqi":38,"pm10":24.2,"pm2_5":20.8,"no2":30.8,"co":434.0,"o3":57.0,"so2":12.5,"mosquito_risk":0,"arthritis_risk":5,"migraine_risk":0,"frizz_risk":1,"updated_at":"2026-07-01T23:29:19.690910+05:30"},{"city":"Kolkata","state":"West Bengal","latitude":22.5726,"longitude":88.3639,"temp":27.4,"humidity":92,"rain":0.0,"pressure":1000.7,"uv_index":8.5,"wind_gusts":24.8,"aqi":88,"pm10":33.4,"pm2_5":32.1,"no2":19.3,"co":588.0,"o3":49.0,"so2":9.9,"mosquito_risk":7,"arthritis_risk":5,"migraine_risk":4,"frizz_risk":1,"updated_at":"2026-07-01T23:29:19.690918+05:30"},{"city":"Pune","state":"Maharashtra","latitude":18.5204,"longitude":73.8567,"temp":23.2,"humidity":94,"rain":0.1,"pressure":945.2,"uv_index":3.55,"wind_gusts":43.2,"aqi":20,"pm10":3.3,"pm2_5":3.2,"no2":9.6,"co":184.0,"o3":41.0,"so2":5.6,"mosquito_risk":6,"arthritis_risk":5,"migraine_risk":3,"frizz_risk":1,"updated_at":"2026-07-01T23:29:19.690924+05:30"},{"city":"Ahmedabad","state":"Gujarat","latitude":23.0225,"longitude":72.5714,"temp":27.5,"humidity":87,"rain":0.1,"pressure":997.2,"uv_index":6.35,"wind_gusts":41.8,"aqi":52,"pm10":11.6,"pm2_5":8.8,"no2":10.9,"co":199.0,"o3":54.0,"so2":7.0,"mosquito_risk":10,"arthritis_risk":5,"migraine_risk":7,"frizz_risk":1,"updated_at":"2026-07-01T23:29:19.690931+05:30"},{"city":"Jaipur","state":"Rajasthan","latitude":26.9124,"longitude":75.7873,"temp":30.2,"humidity":70,"rain":0.0,"pressure":954.8,"uv_index":8.2,"wind_gusts":35.3,"aqi":138,"pm10":232.4,"pm2_5":54.1,"no2":17.7,"co":315.0,"o3":56.0,"so2":6.5,"mosquito_risk":3,"arthritis_risk":5,"migraine_risk":7,"frizz_risk":1,"updated_at":"2026-07-01T23:29:19.690937+05:30"},{"city":"Lucknow","state":"Uttar Pradesh","latitude":26.8467,"longitude":80.9462,"temp":28.5,"humidity":88,"rain":0.0,"pressure":988.3,"uv_index":7.35,"wind_gusts":26.6,"aqi":111,"pm10":79.6,"pm2_5":61.2,"no2":35.0,"co":496.0,"o3":50.0,"so2":13.1,"mosquito_risk":7,"arthritis_risk":5,"migraine_risk":7,"frizz_risk":1,"updated_at":"2026-07-01T23:29:19.690948+05:30"},{"city":"Kanpur","state":"Uttar Pradesh","latitude":26.4499,"longitude":80.3319,"temp":29.4,"humidity":81,"rain":0.0,"pressure":986.6,"uv_index":5.6,"wind_gusts":29.9,"aqi":103,"pm10":97.3,"pm2_5":49.5,"no2":28.1,"co":348.0,"o3":62.0,"so2":9.7,"mosquito_risk":7,"arthritis_risk":5,"migraine_risk":3,"frizz_risk":1,"updated_at":"2026-07-01T23:29:19.690956+05:30"},{"city":"Chandigarh","state":"Chandigarh","latitude":30.7333,"longitude":76.7794,"temp":26.1,"humidity":91,"rain":0.0,"pressure":963.8,"uv_index":3.4,"wind_gusts":37.4,"aqi":106,"pm10":102.2,"pm2_5":57.0,"no2":34.9,"co":1121.0,"o3":68.0,"so2":12.4,"mosquito_risk":7,"arthritis_risk":5,"migraine_risk":3,"frizz_risk":1,"updated_at":"2026-07-01T23:29:19.690963+05:30"},{"city":"Srinagar","state":"Jammu and Kashmir","latitude":34.0837,"longitude":74.7973,"temp":23.0,"humidity":83,"rain":0.0,"pressure":838.0,"uv_index":9.1,"wind_gusts":28.4,"aqi":94,"pm10":22.1,"pm2_5":18.6,"no2":14.3,"co":1019.0,"o3":93.0,"so2":3.7,"mosquito_risk":3,"arthritis_risk":5,"migraine_risk":7,"frizz_risk":1,"updated_at":"2026-07-01T23:29:19.690970+05:30"},{"city":"Jammu","state":"Jammu and Kashmir","latitude":32.7266,"longitude":74.857,"temp":28.0,"humidity":85,"rain":0.0,"pressure":966.9,"uv_index":8.6,"wind_gusts":38.5,"aqi":106,"pm10":85.7,"pm2_5":39.7,"no2":26.7,"co":433.0,"o3":70.0,"so2":4.8,"mosquito_risk":7,"arthritis_risk":5,"migraine_risk":7,"frizz_risk":1,"updated_at":"2026-07-01T23:29:19.690976+05:30"},{"city":"Amritsar","state":"Punjab","latitude":31.634,"longitude":74.8723,"temp":28.7,"humidity":79,"rain":0.0,"pressure":974.4,"uv_index":8.45,"wind_gusts":46.4,"aqi":196,"pm10":191.9,"pm2_5":83.1,"no2":18.8,"co":475.0,"o3":83.0,"so2":8.7,"mosquito_risk":7,"arthritis_risk":5,"migraine_risk":7,"frizz_risk":1,"updated_at":"2026-07-01T23:29:19.690982+05:30"},{"city":"Ludhiana","state":"Punjab","latitude":30.901,"longitude":75.8573,"temp":28.1,"humidity":80,"rain":0.0,"pressure":973.2,"uv_index":7.15,"wind_gusts":43.2,"aqi":177,"pm10":67.5,"pm2_5":46.3,"no2":18.4,"co":365.0,"o3":96.0,"so2":14.0,"mosquito_risk":7,"arthritis_risk":5,"migraine_risk":7,"frizz_risk":1,"updated_at":"2026-07-01T23:29:19.690988+05:30"},{"city":"Jalandhar","state":"Punjab","latitude":31.326,"longitude":75.5762,"temp":28.7,"humidity":74,"rain":0.0,"pressure":973.9,"uv_index":6.3,"wind_gusts":41.4,"aqi":182,"pm10":83.6,"pm2_5":50.3,"no2":22.7,"co":446.0,"o3":84.0,"so2":16.0,"mosquito_risk":7,"arthritis_risk":5,"migraine_risk":7,"frizz_risk":1,"updated_at":"2026-07-01T23:29:19.690997+05:30"},{"city":"Dehradun","state":"Uttarakhand","latitude":30.6284,"longitude":78.0322,"temp":18.6,"humidity":98,"rain":0.1,"pressure":828.1,"uv_index":5.1,"wind_gusts":17.6,"aqi":67,"pm10":41.9,"pm2_5":26.3,"no2":24.8,"co":206.0,"o3":54.0,"so2":1.1,"mosquito_risk":6,"arthritis_risk":10,"migraine_risk":3,"frizz_risk":1,"updated_at":"2026-07-01T23:29:19.691004+05:30"},{"city":"Shimla","state":"Himachal Pradesh","latitude":31.1048,"longitude":77.1734,"temp":16.4,"humidity":95,"rain":0.0,"pressure":782.2,"uv_index":5.25,"wind_gusts":16.2,"aqi":73,"pm10":101.7,"pm2_5":42.0,"no2":33.0,"co":437.0,"o3":55.0,"so2":1.2,"mosquito_risk":3,"arthritis_risk":10,"migraine_risk":3,"frizz_risk":0,"updated_at":"2026-07-01T23:29:19.691012+05:30"},{"city":"Manali","state":"Himachal Pradesh","latitude":32.2396,"longitude":77.1887,"temp":19.2,"humidity":91,"rain":0.0,"pressure":817.1,"uv_index":6.35,"wind_gusts":41.0,"aqi":58,"pm10":13.2,"pm2_5":11.4,"no2":114.9,"co":368.0,"o3":5.0,"so2":0.2,"mosquito_risk":3,"arthritis_risk":10,"migraine_risk":7,"frizz_risk":1,"updated_at":"2026-07-01T23:29:19.691021+05:30"},{"city":"Gurgaon","state":"Haryana","latitude":28.4595,"longitude":77.0266,"temp":28.6,"humidity":77,"rain":0.0,"pressure":976.2,"uv_index":7.65,"wind_gusts":33.5,"aqi":432,"pm10":596.0,"pm2_5":118.7,"no2":33.7,"co":873.0,"o3":78.0,"so2":24.6,"mosquito_risk":7,"arthritis_risk":5,"migraine_risk":7,"frizz_risk":1,"updated_at":"2026-07-01T23:29:19.691028+05:30"},{"city":"Noida","state":"Uttar Pradesh","latitude":28.5355,"longitude":77.391,"temp":27.4,"humidity":82,"rain":0.0,"pressure":979.4,"uv_index":7.4,"wind_gusts":26.3,"aqi":432,"pm10":596.0,"pm2_5":118.7,"no2":33.7,"co":761.0,"o3":78.0,"so2":24.6,"mosquito_risk":7,"arthritis_risk":5,"migraine_risk":7,"frizz_risk":1,"updated_at":"2026-07-01T23:29:19.691034+05:30"},{"city":"Ghaziabad","state":"Uttar Pradesh","latitude":28.6692,"longitude":77.4538,"temp":27.1,"humidity":86,"rain":0.0,"pressure":977.7,"uv_index":7.25,"wind_gusts":25.9,"aqi":113,"pm10":93.4,"pm2_5":63.8,"no2":32.4,"co":580.0,"o3":54.0,"so2":12.5,"mosquito_risk":7,"arthritis_risk":5,"migraine_risk":7,"frizz_risk":1,"updated_at":"2026-07-01T23:29:19.691040+05:30"},{"city":"Faridabad","state":"Haryana","latitude":28.4089,"longitude":77.3178,"temp":27.9,"humidity":81,"rain":0.0,"pressure":978.7,"uv_index":7.5,"wind_gusts":29.9,"aqi":432,"pm10":596.0,"pm2_5":118.7,"no2":33.7,"co":569.0,"o3":78.0,"so2":24.6,"mosquito_risk":7,"arthritis_risk":5,"migraine_risk":7,"frizz_risk":1,"updated_at":"2026-07-01T23:29:19.691046+05:30"},{"city":"Meerut","state":"Uttar Pradesh","latitude":28.9845,"longitude":77.7064,"temp":27.1,"humidity":90,"rain":0.0,"pressure":976.7,"uv_index":7.2,"wind_gusts":26.3,"aqi":113,"pm10":93.4,"pm2_5":63.8,"no2":32.4,"co":754.0,"o3":54.0,"so2":12.5,"mosquito_risk":7,"arthritis_risk":5,"migraine_risk":7,"frizz_risk":1,"updated_at":"2026-07-01T23:29:19.691052+05:30"},{"city":"Agra","state":"Uttar Pradesh","latitude":27.1767,"longitude":78.0081,"temp":28.9,"humidity":77,"rain":0.0,"pressure":982.7,"uv_index":2.7,"wind_gusts":28.1,"aqi":130,"pm10":107.1,"pm2_5":51.1,"no2":31.2,"co":758.0,"o3":55.0,"so2":11.8,"mosquito_risk":7,"arthritis_risk":5,"migraine_risk":3,"frizz_risk":1,"updated_at":"2026-07-01T23:29:19.691058+05:30"},{"city":"Varanasi","state":"Uttar Pradesh","latitude":25.3176,"longitude":82.9739,"temp":27.5,"humidity":96,"rain":0.1,"pressure":992.8,"uv_index":7.9,"wind_gusts":23.0,"aqi":88,"pm10":29.7,"pm2_5":28.5,"no2":17.3,"co":804.0,"o3":75.0,"so2":9.8,"mosquito_risk":10,"arthritis_risk":5,"migraine_risk":7,"frizz_risk":1,"updated_at":"2026-07-01T23:29:19.691065+05:30"},{"city":"Prayagraj","state":"Uttar Pradesh","latitude":25.4358,"longitude":81.8463,"temp":28.1,"humidity":95,"rain":0.1,"pressure":990.7,"uv_index":8.3,"wind_gusts":24.5,"aqi":107,"pm10":39.1,"pm2_5":37.6,"no2":18.1,"co":398.0,"o3":87.0,"so2":10.6,"mosquito_risk":10,"arthritis_risk":5,"migraine_risk":7,"frizz_risk":1,"updated_at":"2026-07-01T23:29:19.691071+05:30"},{"city":"Gorakhpur","state":"Uttar Pradesh","latitude":26.7606,"longitude":83.3732,"temp":28.1,"humidity":93,"rain":0.1,"pressure":992.7,"uv_index":7.1,"wind_gusts":26.3,"aqi":152,"pm10":63.3,"pm2_5":60.8,"no2":17.4,"co":490.0,"o3":98.0,"so2":11.0,"mosquito_risk":10,"arthritis_risk":5,"migraine_risk":7,"frizz_risk":1,"updated_at":"2026-07-01T23:29:19.691078+05:30"},{"city":"Bareilly","state":"Uttar Pradesh","latitude":28.367,"longitude":79.4304,"temp":27.6,"humidity":90,"rain":0.0,"pressure":982.2,"uv_index":6.05,"wind_gusts":27.0,"aqi":107,"pm10":71.9,"pm2_5":54.0,"no2":26.7,"co":489.0,"o3":65.0,"so2":10.2,"mosquito_risk":7,"arthritis_risk":5,"migraine_risk":7,"frizz_risk":1,"updated_at":"2026-07-01T23:29:19.691086+05:30"},{"city":"Aligarh","state":"Uttar Pradesh","latitude":27.8974,"longitude":78.088,"temp":27.1,"humidity":81,"rain":0.0,"pressure":980.5,"uv_index":6.55,"wind_gusts":29.2,"aqi":115,"pm10":91.5,"pm2_5":66.4,"no2":45.6,"co":429.0,"o3":41.0,"so2":18.7,"mosquito_risk":7,"arthritis_risk":5,"migraine_risk":7,"frizz_risk":1,"updated_at":"2026-07-01T23:29:19.691092+05:30"},{"city":"Moradabad","state":"Uttar Pradesh","latitude":28.8386,"longitude":78.7733,"temp":27.2,"humidity":88,"rain":0.0,"pressure":979.0,"uv_index":7.5,"wind_gusts":24.5,"aqi":120,"pm10":128.1,"pm2_5":89.2,"no2":38.9,"co":510.0,"o3":71.0,"so2":23.1,"mosquito_risk":7,"arthritis_risk":5,"migraine_risk":7,"frizz_risk":1,"updated_at":"2026-07-01T23:29:19.691098+05:30"},{"city":"Saharanpur","state":"Uttar Pradesh","latitude":29.9637,"longitude":77.546,"temp":26.2,"humidity":93,"rain":0.0,"pressure":971.2,"uv_index":6.5,"wind_gusts":28.8,"aqi":108,"pm10":139.2,"pm2_5":86.1,"no2":42.1,"co":789.0,"o3":35.0,"so2":11.9,"mosquito_risk":7,"arthritis_risk":5,"migraine_risk":7,"frizz_risk":1,"updated_at":"2026-07-01T23:29:19.691104+05:30"},{"city":"Jhansi","state":"Uttar Pradesh","latitude":25.4484,"longitude":78.5685,"temp":29.6,"humidity":71,"rain":0.0,"pressure":972.6,"uv_index":8.2,"wind_gusts":32.8,"aqi":77,"pm10":61.5,"pm2_5":32.2,"no2":16.8,"co":440.0,"o3":53.0,"so2":6.4,"mosquito_risk":7,"arthritis_risk":5,"migraine_risk":7,"frizz_risk":1,"updated_at":"2026-07-01T23:29:22.933730+05:30"},{"city":"Surat","state":"Gujarat","latitude":21.1702,"longitude":72.8311,"temp":26.5,"humidity":96,"rain":0.1,"pressure":1002.3,"uv_index":5.55,"wind_gusts":34.9,"aqi":64,"pm10":20.8,"pm2_5":15.7,"no2":22.3,"co":392.0,"o3":30.0,"so2":32.4,"mosquito_risk":10,"arthritis_risk":5,"migraine_risk":0,"frizz_risk":1,"updated_at":"2026-07-01T23:29:22.933758+05:30"},{"city":"Vadodara","state":"Gujarat","latitude":22.3072,"longitude":73.1812,"temp":27.4,"humidity":90,"rain":0.0,"pressure":999.5,"uv_index":6.1,"wind_gusts":37.4,"aqi":56,"pm10":14.1,"pm2_5":11.6,"no2":19.6,"co":195.0,"o3":36.0,"so2":16.0,"mosquito_risk":7,"arthritis_risk":5,"migraine_risk":7,"frizz_risk":1,"updated_at":"2026-07-01T23:29:22.933768+05:30"},{"city":"Rajkot","state":"Gujarat","latitude":22.3039,"longitude":70.8022,"temp":28.0,"humidity":83,"rain":0.0,"pressure":988.9,"uv_index":5.25,"wind_gusts":35.3,"aqi":55,"pm10":31.0,"pm2_5":16.2,"no2":5.3,"co":143.0,"o3":48.0,"so2":5.0,"mosquito_risk":7,"arthritis_risk":5,"migraine_risk":3,"frizz_risk":1,"updated_at":"2026-07-01T23:29:22.933776+05:30"},{"city":"Thane","state":"Maharashtra","latitude":19.2183,"longitude":72.9781,"temp":25.2,"humidity":97,"rain":0.1,"pressure":1005.0,"uv_index":0.6,"wind_gusts":30.6,"aqi":35,"pm10":19.7,"pm2_5":10.7,"no2":8.8,"co":242.0,"o3":46.0,"so2":6.3,"mosquito_risk":10,"arthritis_risk":5,"migraine_risk":0,"frizz_risk":1,"updated_at":"2026-07-01T23:29:22.933784+05:30"},{"city":"Nagpur","state":"Maharashtra","latitude":21.1458,"longitude":79.0882,"temp":25.4,"humidity":97,"rain":0.1,"pressure":969.2,"uv_index":7.35,"wind_gusts":25.6,"aqi":54,"pm10":16.4,"pm2_5":14.9,"no2":18.4,"co":266.0,"o3":55.0,"so2":8.4,"mosquito_risk":10,"arthritis_risk":5,"migraine_risk":7,"frizz_risk":1,"updated_at":"2026-07-01T23:29:22.933791+05:30"},{"city":"Nashik","state":"Maharashtra","latitude":19.9975,"longitude":73.7898,"temp":23.0,"humidity":96,"rain":0.1,"pressure":941.7,"uv_index":2.45,"wind_gusts":40.0,"aqi":21,"pm10":2.0,"pm2_5":1.9,"no2":12.5,"co":158.0,"o3":32.0,"so2":5.7,"mosquito_risk":6,"arthritis_risk":5,"migraine_risk":3,"frizz_risk":1,"updated_at":"2026-07-01T23:29:22.933798+05:30"},{"city":"Aurangabad","state":"Maharashtra","latitude":19.8762,"longitude":75.3433,"temp":23.6,"humidity":96,"rain":0.2,"pressure":940.8,"uv_index":7.5,"wind_gusts":40.0,"aqi":25,"pm10":4.9,"pm2_5":3.9,"no2":9.6,"co":156.0,"o3":39.0,"so2":5.7,"mosquito_risk":6,"arthritis_risk":5,"migraine_risk":7,"frizz_risk":1,"updated_at":"2026-07-01T23:29:22.933804+05:30"},{"city":"Solapur","state":"Maharashtra","latitude":17.6599,"longitude":75.9064,"temp":24.0,"humidity":89,"rain":0.0,"pressure":955.1,"uv_index":7.65,"wind_gusts":43.2,"aqi":24,"pm10":4.1,"pm2_5":3.8,"no2":7.1,"co":157.0,"o3":39.0,"so2":2.3,"mosquito_risk":3,"arthritis_risk":5,"migraine_risk":7,"frizz_risk":1,"updated_at":"2026-07-01T23:29:22.933811+05:30"},{"city":"Kolhapur","state":"Maharashtra","latitude":16.705,"longitude":74.2433,"temp":21.5,"humidity":96,"rain":0.3,"pressure":946.5,"uv_index":7.05,"wind_gusts":55.1,"aqi":20,"pm10":4.4,"pm2_5":4.2,"no2":6.2,"co":156.0,"o3":42.0,"so2":2.0,"mosquito_risk":6,"arthritis_risk":5,"migraine_risk":7,"frizz_risk":1,"updated_at":"2026-07-01T23:29:22.933818+05:30"},{"city":"Goa","state":"Goa","latitude":15.2993,"longitude":74.124,"temp":23.5,"humidity":99,"rain":0.5,"pressure":998.7,"uv_index":3.3,"wind_gusts":34.6,"aqi":33,"pm10":17.8,"pm2_5":10.0,"no2":2.6,"co":340.0,"o3":50.0,"so2":0.8,"mosquito_risk":6,"arthritis_risk":5,"migraine_risk":3,"frizz_risk":1,"updated_at":"2026-07-01T23:29:22.933826+05:30"},{"city":"Jodhpur","state":"Rajasthan","latitude":26.2389,"longitude":73.0243,"temp":34.2,"humidity":45,"rain":0.0,"pressure":976.3,"uv_index":8.4,"wind_gusts":37.8,"aqi":132,"pm10":174.6,"pm2_5":45.8,"no2":10.0,"co":179.0,"o3":49.0,"so2":2.2,"mosquito_risk":0,"arthritis_risk":5,"migraine_risk":7,"frizz_risk":1,"updated_at":"2026-07-01T23:29:22.933833+05:30"},{"city":"Udaipur","state":"Rajasthan","latitude":24.5854,"longitude":73.7125,"temp":26.4,"humidity":82,"rain":0.0,"pressure":942.0,"uv_index":8.75,"wind_gusts":32.4,"aqi":55,"pm10":21.9,"pm2_5":15.1,"no2":6.5,"co":178.0,"o3":79.0,"so2":7.5,"mosquito_risk":7,"arthritis_risk":5,"migraine_risk":7,"frizz_risk":1,"updated_at":"2026-07-01T23:29:22.933840+05:30"},{"city":"Kota","state":"Rajasthan","latitude":25.2138,"longitude":75.8648,"temp":30.1,"humidity":71,"rain":0.0,"pressure":973.4,"uv_index":7.25,"wind_gusts":24.5,"aqi":75,"pm10":29.2,"pm2_5":24.6,"no2":16.2,"co":323.0,"o3":61.0,"so2":6.7,"mosquito_risk":3,"arthritis_risk":5,"migraine_risk":7,"frizz_risk":1,"updated_at":"2026-07-01T23:29:22.933846+05:30"},{"city":"Bikaner","state":"Rajasthan","latitude":28.0229,"longitude":73.3119,"temp":35.3,"humidity":40,"rain":0.0,"pressure":974.5,"uv_index":8.45,"wind_gusts":39.2,"aqi":156,"pm10":108.7,"pm2_5":36.4,"no2":3.7,"co":153.0,"o3":63.0,"so2":2.2,"mosquito_risk":0,"arthritis_risk":5,"migraine_risk":10,"frizz_risk":1,"updated_at":"2026-07-01T23:29:22.933853+05:30"},{"city":"Ajmer","state":"Rajasthan","latitude":26.4499,"longitude":74.6399,"temp":30.3,"humidity":63,"rain":0.0,"pressure":949.5,"uv_index":8.35,"wind_gusts":42.1,"aqi":74,"pm10":28.6,"pm2_5":21.2,"no2":12.2,"co":196.0,"o3":58.0,"so2":4.1,"mosquito_risk":3,"arthritis_risk":5,"migraine_risk":7,"frizz_risk":1,"updated_at":"2026-07-01T23:29:22.933860+05:30"},{"city":"Gwalior","state":"Madhya Pradesh","latitude":26.2183,"longitude":78.1828,"temp":28.5,"humidity":85,"rain":0.0,"pressure":978.0,"uv_index":1.25,"wind_gusts":33.1,"aqi":67,"pm10":51.8,"pm2_5":28.7,"no2":10.9,"co":252.0,"o3":73.0,"so2":4.8,"mosquito_risk":7,"arthritis_risk":5,"migraine_risk":3,"frizz_risk":1,"updated_at":"2026-07-01T23:29:22.933867+05:30"},{"city":"Indore","state":"Madhya Pradesh","latitude":22.7196,"longitude":75.8577,"temp":24.9,"humidity":95,"rain":0.0,"pressure":943.8,"uv_index":7.65,"wind_gusts":26.6,"aqi":60,"pm10":30.7,"pm2_5":28.1,"no2":17.7,"co":465.0,"o3":59.0,"so2":5.9,"mosquito_risk":3,"arthritis_risk":5,"migraine_risk":7,"frizz_risk":1,"updated_at":"2026-07-01T23:29:22.933873+05:30"},{"city":"Bhopal","state":"Madhya Pradesh","latitude":23.2599,"longitude":77.4126,"temp":25.7,"humidity":88,"rain":0.0,"pressure":948.9,"uv_index":7.6,"wind_gusts":33.1,"aqi":64,"pm10":27.5,"pm2_5":23.6,"no2":15.4,"co":416.0,"o3":52.0,"so2":4.1,"mosquito_risk":7,"arthritis_risk":5,"migraine_risk":7,"frizz_risk":1,"updated_at":"2026-07-01T23:29:22.933880+05:30"},{"city":"Jabalpur","state":"Madhya Pradesh","latitude":23.1815,"longitude":79.9864,"temp":25.3,"humidity":96,"rain":0.0,"pressure":956.6,"uv_index":8.25,"wind_gusts":29.2,"aqi":65,"pm10":36.3,"pm2_5":24.6,"no2":11.7,"co":392.0,"o3":70.0,"so2":3.3,"mosquito_risk":7,"arthritis_risk":5,"migraine_risk":7,"frizz_risk":1,"updated_at":"2026-07-01T23:29:22.933887+05:30"},{"city":"Ujjain","state":"Madhya Pradesh","latitude":23.1765,"longitude":75.7885,"temp":24.9,"humidity":94,"rain":0.0,"pressure":949.6,"uv_index":8.05,"wind_gusts":27.4,"aqi":56,"pm10":22.1,"pm2_5":19.6,"no2":7.4,"co":314.0,"o3":73.0,"so2":3.1,"mosquito_risk":3,"arthritis_risk":5,"migraine_risk":7,"frizz_risk":1,"updated_at":"2026-07-01T23:29:22.933894+05:30"},{"city":"Visakhapatnam","state":"Andhra Pradesh","latitude":17.6868,"longitude":83.2185,"temp":27.5,"humidity":86,"rain":0.0,"pressure":998.9,"uv_index":5.45,"wind_gusts":38.9,"aqi":66,"pm10":15.0,"pm2_5":14.1,"no2":23.1,"co":291.0,"o3":52.0,"so2":36.8,"mosquito_risk":7,"arthritis_risk":5,"migraine_risk":3,"frizz_risk":1,"updated_at":"2026-07-01T23:29:22.933900+05:30"},{"city":"Vijayawada","state":"Andhra Pradesh","latitude":16.5062,"longitude":80.648,"temp":31.2,"humidity":55,"rain":0.0,"pressure":999.8,"uv_index":5.2,"wind_gusts":51.5,"aqi":47,"pm10":13.6,"pm2_5":11.9,"no2":10.8,"co":212.0,"o3":49.0,"so2":4.9,"mosquito_risk":0,"arthritis_risk":5,"migraine_risk":3,"frizz_risk":1,"updated_at":"2026-07-01T23:29:22.933906+05:30"},{"city":"Guntur","state":"Andhra Pradesh","latitude":16.3067,"longitude":80.4365,"temp":30.5,"humidity":58,"rain":0.0,"pressure":1001.2,"uv_index":4.2,"wind_gusts":50.4,"aqi":37,"pm10":10.4,"pm2_5":8.7,"no2":8.6,"co":190.0,"o3":52.0,"so2":5.4,"mosquito_risk":0,"arthritis_risk":5,"migraine_risk":0,"frizz_risk":1,"updated_at":"2026-07-01T23:29:22.933913+05:30"},{"city":"Nellore","state":"Andhra Pradesh","latitude":14.4426,"longitude":79.9865,"temp":31.4,"humidity":53,"rain":0.0,"pressure":1004.4,"uv_index":3.7,"wind_gusts":55.8,"aqi":28,"pm10":7.5,"pm2_5":6.7,"no2":8.4,"co":119.0,"o3":41.0,"so2":3.1,"mosquito_risk":0,"arthritis_risk":5,"migraine_risk":0,"frizz_risk":1,"updated_at":"2026-07-01T23:29:22.933920+05:30"},{"city":"Kurnool","state":"Andhra Pradesh","latitude":15.8281,"longitude":78.0373,"temp":25.9,"humidity":82,"rain":0.0,"pressure":976.0,"uv_index":3.0,"wind_gusts":55.1,"aqi":27,"pm10":6.4,"pm2_5":5.0,"no2":9.5,"co":149.0,"o3":37.0,"so2":2.2,"mosquito_risk":7,"arthritis_risk":5,"migraine_risk":3,"frizz_risk":1,"updated_at":"2026-07-01T23:29:22.933928+05:30"},{"city":"Kakinada","state":"Andhra Pradesh","latitude":16.9891,"longitude":82.2475,"temp":28.0,"humidity":82,"rain":0.0,"pressure":1003.7,"uv_index":5.0,"wind_gusts":52.6,"aqi":50,"pm10":15.6,"pm2_5":12.8,"no2":7.2,"co":267.0,"o3":69.0,"so2":3.7,"mosquito_risk":7,"arthritis_risk":5,"migraine_risk":0,"frizz_risk":1,"updated_at":"2026-07-01T23:29:22.933934+05:30"},{"city":"Tirupati","state":"Andhra Pradesh","latitude":13.6288,"longitude":79.4192,"temp":29.6,"humidity":58,"rain":0.0,"pressure":990.3,"uv_index":3.55,"wind_gusts":53.3,"aqi":22,"pm10":11.8,"pm2_5":11.3,"no2":21.9,"co":290.0,"o3":23.0,"so2":3.0,"mosquito_risk":4,"arthritis_risk":5,"migraine_risk":3,"frizz_risk":1,"updated_at":"2026-07-01T23:29:22.933941+05:30"},{"city":"Warangal","state":"Telangana","latitude":17.9689,"longitude":79.5941,"temp":25.3,"humidity":91,"rain":0.2,"pressure":975.6,"uv_index":2.3,"wind_gusts":41.0,"aqi":33,"pm10":9.2,"pm2_5":8.6,"no2":9.6,"co":233.0,"o3":49.0,"so2":3.3,"mosquito_risk":10,"arthritis_risk":5,"migraine_risk":3,"frizz_risk":1,"updated_at":"2026-07-01T23:29:22.933947+05:30"},{"city":"Nizamabad","state":"Telangana","latitude":18.6725,"longitude":78.0941,"temp":24.3,"humidity":95,"rain":0.0,"pressure":961.8,"uv_index":1.95,"wind_gusts":38.9,"aqi":32,"pm10":5.2,"pm2_5":5.0,"no2":7.4,"co":161.0,"o3":44.0,"so2":3.0,"mosquito_risk":3,"arthritis_risk":5,"migraine_risk":3,"frizz_risk":1,"updated_at":"2026-07-01T23:29:22.933953+05:30"},{"city":"Mysore","state":"Karnataka","latitude":12.2958,"longitude":76.6396,"temp":21.1,"humidity":96,"rain":0.1,"pressure":928.9,"uv_index":4.8,"wind_gusts":57.6,"aqi":21,"pm10":3.3,"pm2_5":3.2,"no2":9.7,"co":149.0,"o3":35.0,"so2":2.1,"mosquito_risk":6,"arthritis_risk":5,"migraine_risk":3,"frizz_risk":1,"updated_at":"2026-07-01T23:29:22.933959+05:30"},{"city":"Mangalore","state":"Karnataka","latitude":12.9141,"longitude":74.856,"temp":25.1,"humidity":94,"rain":0.5,"pressure":1008.8,"uv_index":1.0,"wind_gusts":38.9,"aqi":26,"pm10":11.1,"pm2_5":7.7,"no2":6.8,"co":144.0,"o3":37.0,"so2":2.1,"mosquito_risk":10,"arthritis_risk":0,"migraine_risk":0,"frizz_risk":1,"updated_at":"2026-07-01T23:29:22.933966+05:30"},{"city":"Hubli-Dharwad","state":"Karnataka","latitude":15.3647,"longitude":75.124,"temp":21.7,"humidity":98,"rain":0.2,"pressure":940.2,"uv_index":5.55,"wind_gusts":49.7,"aqi":19,"pm10":1.6,"pm2_5":1.6,"no2":5.6,"co":127.0,"o3":42.0,"so2":1.2,"mosquito_risk":6,"arthritis_risk":5,"migraine_risk":3,"frizz_risk":1,"updated_at":"2026-07-01T23:29:22.933973+05:30"},{"city":"Belgaum","state":"Karnataka","latitude":15.8497,"longitude":74.4977,"temp":20.3,"humidity":98,"rain":0.0,"pressure":924.5,"uv_index":3.7,"wind_gusts":46.1,"aqi":21,"pm10":1.9,"pm2_5":1.8,"no2":5.0,"co":119.0,"o3":43.0,"so2":1.3,"mosquito_risk":3,"arthritis_risk":5,"migraine_risk":3,"frizz_risk":1,"updated_at":"2026-07-01T23:29:26.182676+05:30"},{"city":"Coimbatore","state":"Tamil Nadu","latitude":11.0168,"longitude":76.9558,"temp":22.9,"humidity":94,"rain":0.0,"pressure":962.6,"uv_index":3.15,"wind_gusts":57.6,"aqi":21,"pm10":5.4,"pm2_5":4.7,"no2":8.3,"co":240.0,"o3":35.0,"so2":3.0,"mosquito_risk":3,"arthritis_risk":5,"migraine_risk":3,"frizz_risk":1,"updated_at":"2026-07-01T23:29:26.182706+05:30"},{"city":"Madurai","state":"Tamil Nadu","latitude":9.9252,"longitude":78.1198,"temp":29.0,"humidity":60,"rain":0.0,"pressure":993.5,"uv_index":8.55,"wind_gusts":60.1,"aqi":41,"pm10":18.7,"pm2_5":13.2,"no2":17.1,"co":153.0,"o3":28.0,"so2":4.9,"mosquito_risk":4,"arthritis_risk":5,"migraine_risk":7,"frizz_risk":1,"updated_at":"2026-07-01T23:29:26.182717+05:30"},{"city":"Trichy","state":"Tamil Nadu","latitude":10.7905,"longitude":78.7047,"temp":29.2,"humidity":59,"rain":0.0,"pressure":1000.1,"uv_index":6.0,"wind_gusts":68.0,"aqi":26,"pm10":10.1,"pm2_5":6.9,"no2":6.8,"co":135.0,"o3":41.0,"so2":2.8,"mosquito_risk":4,"arthritis_risk":5,"migraine_risk":0,"frizz_risk":1,"updated_at":"2026-07-01T23:29:26.182725+05:30"},{"city":"Salem","state":"Tamil Nadu","latitude":11.6643,"longitude":78.146,"temp":26.5,"humidity":74,"rain":0.0,"pressure":978.0,"uv_index":2.8,"wind_gusts":37.1,"aqi":40,"pm10":15.0,"pm2_5":12.7,"no2":18.0,"co":409.0,"o3":32.0,"so2":7.0,"mosquito_risk":7,"arthritis_risk":5,"migraine_risk":3,"frizz_risk":1,"updated_at":"2026-07-01T23:29:26.182733+05:30"},{"city":"Tirunelveli","state":"Tamil Nadu","latitude":8.7139,"longitude":77.7567,"temp":29.1,"humidity":63,"rain":0.0,"pressure":1004.6,"uv_index":8.65,"wind_gusts":40.0,"aqi":32,"pm10":12.3,"pm2_5":8.2,"no2":5.8,"co":179.0,"o3":43.0,"so2":2.1,"mosquito_risk":7,"arthritis_risk":5,"migraine_risk":4,"frizz_risk":1,"updated_at":"2026-07-01T23:29:26.182741+05:30"},{"city":"Vellore","state":"Tamil Nadu","latitude":12.9165,"longitude":79.1325,"temp":28.8,"humidity":58,"rain":0.0,"pressure":984.1,"uv_index":3.3,"wind_gusts":53.3,"aqi":28,"pm10":6.2,"pm2_5":5.4,"no2":10.3,"co":141.0,"o3":42.0,"so2":3.5,"mosquito_risk":4,"arthritis_risk":5,"migraine_risk":3,"frizz_risk":1,"updated_at":"2026-07-01T23:29:26.182748+05:30"},{"city":"Erode","state":"Tamil Nadu","latitude":11.341,"longitude":77.7172,"temp":26.3,"humidity":74,"rain":0.0,"pressure":989.8,"uv_index":1.9,"wind_gusts":41.8,"aqi":36,"pm10":12.7,"pm2_5":10.9,"no2":16.2,"co":208.0,"o3":31.0,"so2":4.0,"mosquito_risk":7,"arthritis_risk":5,"migraine_risk":3,"frizz_risk":1,"updated_at":"2026-07-01T23:29:26.182755+05:30"},{"city":"Kochi","state":"Kerala","latitude":9.9312,"longitude":76.2673,"temp":25.3,"humidity":94,"rain":0.0,"pressure":1011.6,"uv_index":3.35,"wind_gusts":35.6,"aqi":50,"pm10":22.1,"pm2_5":18.0,"no2":24.5,"co":204.0,"o3":12.0,"so2":5.9,"mosquito_risk":7,"arthritis_risk":0,"migraine_risk":0,"frizz_risk":1,"updated_at":"2026-07-01T23:29:26.182763+05:30"},{"city":"Thiruvananthapuram","state":"Kerala","latitude":8.5241,"longitude":76.9366,"temp":25.0,"humidity":91,"rain":0.0,"pressure":1010.7,"uv_index":8.25,"wind_gusts":39.2,"aqi":42,"pm10":17.3,"pm2_5":9.8,"no2":4.0,"co":253.0,"o3":45.0,"so2":1.7,"mosquito_risk":7,"arthritis_risk":0,"migraine_risk":4,"frizz_risk":1,"updated_at":"2026-07-01T23:29:26.182770+05:30"},{"city":"Kozhikode","state":"Kerala","latitude":11.2588,"longitude":75.7804,"temp":24.0,"humidity":99,"rain":0.2,"pressure":1011.1,"uv_index":1.6,"wind_gusts":30.2,"aqi":23,"pm10":10.7,"pm2_5":6.2,"no2":2.1,"co":264.0,"o3":49.0,"so2":1.0,"mosquito_risk":6,"arthritis_risk":0,"migraine_risk":0,"frizz_risk":1,"updated_at":"2026-07-01T23:29:26.182778+05:30"},{"city":"Thrissur","state":"Kerala","latitude":10.5276,"longitude":76.2144,"temp":23.9,"humidity":100,"rain":0.1,"pressure":1010.1,"uv_index":2.55,"wind_gusts":34.2,"aqi":47,"pm10":19.0,"pm2_5":15.4,"no2":16.2,"co":296.0,"o3":22.0,"so2":4.5,"mosquito_risk":6,"arthritis_risk":0,"migraine_risk":0,"frizz_risk":1,"updated_at":"2026-07-01T23:29:26.182786+05:30"},{"city":"Kannur","state":"Kerala","latitude":11.8745,"longitude":75.3704,"temp":24.4,"humidity":96,"rain":0.1,"pressure":1010.1,"uv_index":1.6,"wind_gusts":34.2,"aqi":26,"pm10":14.1,"pm2_5":10.4,"no2":13.0,"co":380.0,"o3":31.0,"so2":2.5,"mosquito_risk":6,"arthritis_risk":0,"migraine_risk":0,"frizz_risk":1,"updated_at":"2026-07-01T23:29:26.182794+05:30"},{"city":"Patna","state":"Bihar","latitude":25.5941,"longitude":85.1376,"temp":27.4,"humidity":95,"rain":0.0,"pressure":996.2,"uv_index":8.05,"wind_gusts":25.9,"aqi":138,"pm10":60.1,"pm2_5":59.8,"no2":26.1,"co":469.0,"o3":76.0,"so2":17.5,"mosquito_risk":7,"arthritis_risk":5,"migraine_risk":7,"frizz_risk":1,"updated_at":"2026-07-01T23:29:26.182801+05:30"},{"city":"Gaya","state":"Bihar","latitude":24.7914,"longitude":85.0002,"temp":26.8,"humidity":98,"rain":0.0,"pressure":989.2,"uv_index":8.55,"wind_gusts":20.5,"aqi":123,"pm10":53.8,"pm2_5":53.4,"no2":17.3,"co":464.0,"o3":75.0,"so2":13.1,"mosquito_risk":7,"arthritis_risk":5,"migraine_risk":7,"frizz_risk":1,"updated_at":"2026-07-01T23:29:26.182809+05:30"},{"city":"Muzaffarpur","state":"Bihar","latitude":26.1209,"longitude":85.3647,"temp":28.2,"humidity":91,"rain":0.0,"pressure":996.3,"uv_index":7.6,"wind_gusts":29.5,"aqi":146,"pm10":47.5,"pm2_5":47.0,"no2":21.4,"co":492.0,"o3":79.0,"so2":12.1,"mosquito_risk":7,"arthritis_risk":5,"migraine_risk":7,"frizz_risk":1,"updated_at":"2026-07-01T23:29:26.182816+05:30"},{"city":"Bhagalpur","state":"Bihar","latitude":25.2425,"longitude":87.0117,"temp":27.3,"humidity":94,"rain":0.1,"pressure":997.0,"uv_index":8.15,"wind_gusts":28.4,"aqi":115,"pm10":40.6,"pm2_5":40.4,"no2":14.6,"co":355.0,"o3":88.0,"so2":9.7,"mosquito_risk":10,"arthritis_risk":5,"migraine_risk":7,"frizz_risk":1,"updated_at":"2026-07-01T23:29:26.182823+05:30"},{"city":"Ranchi","state":"Jharkhand","latitude":23.3441,"longitude":85.3096,"temp":23.7,"humidity":99,"rain":0.0,"pressure":933.1,"uv_index":8.95,"wind_gusts":23.0,"aqi":68,"pm10":30.3,"pm2_5":30.0,"no2":15.1,"co":357.0,"o3":79.0,"so2":9.2,"mosquito_risk":3,"arthritis_risk":5,"migraine_risk":7,"frizz_risk":1,"updated_at":"2026-07-01T23:29:26.182830+05:30"},{"city":"Jamshedpur","state":"Jharkhand","latitude":22.8046,"longitude":86.2029,"temp":26.7,"humidity":97,"rain":0.0,"pressure":985.7,"uv_index":9.05,"wind_gusts":22.3,"aqi":96,"pm10":48.2,"pm2_5":48.1,"no2":31.3,"co":508.0,"o3":56.0,"so2":34.1,"mosquito_risk":7,"arthritis_risk":5,"migraine_risk":7,"frizz_risk":1,"updated_at":"2026-07-01T23:29:26.182837+05:30"},{"city":"Dhanbad","state":"Jharkhand","latitude":23.7957,"longitude":86.4304,"temp":25.8,"humidity":97,"rain":0.3,"pressure":975.4,"uv_index":6.2,"wind_gusts":23.4,"aqi":163,"pm10":79.6,"pm2_5":79.2,"no2":50.4,"co":537.0,"o3":63.0,"so2":123.4,"mosquito_risk":10,"arthritis_risk":5,"migraine_risk":7,"frizz_risk":1,"updated_at":"2026-07-01T23:29:26.182844+05:30"},{"city":"Bokaro","state":"Jharkhand","latitude":23.6693,"longitude":86.1511,"temp":26.0,"humidity":96,"rain":0.2,"pressure":979.0,"uv_index":7.55,"wind_gusts":33.8,"aqi":159,"pm10":84.5,"pm2_5":84.3,"no2":47.8,"co":570.0,"o3":75.0,"so2":138.2,"mosquito_risk":10,"arthritis_risk":5,"migraine_risk":7,"frizz_risk":1,"updated_at":"2026-07-01T23:29:26.182851+05:30"},{"city":"Bhubaneswar","state":"Odisha","latitude":20.2961,"longitude":85.8245,"temp":26.1,"humidity":98,"rain":0.2,"pressure":996.7,"uv_index":6.35,"wind_gusts":21.2,"aqi":57,"pm10":21.4,"pm2_5":20.6,"no2":16.9,"co":513.0,"o3":56.0,"so2":4.6,"mosquito_risk":10,"arthritis_risk":5,"migraine_risk":7,"frizz_risk":1,"updated_at":"2026-07-01T23:29:26.182858+05:30"},{"city":"Cuttack","state":"Odisha","latitude":20.4625,"longitude":85.8828,"temp":26.7,"humidity":95,"rain":0.1,"pressure":998.3,"uv_index":4.95,"wind_gusts":25.6,"aqi":57,"pm10":21.4,"pm2_5":20.6,"no2":16.9,"co":490.0,"o3":56.0,"so2":4.6,"mosquito_risk":10,"arthritis_risk":5,"migraine_risk":3,"frizz_risk":1,"updated_at":"2026-07-01T23:29:26.182865+05:30"},{"city":"Rourkela","state":"Odisha","latitude":22.2604,"longitude":84.8536,"temp":25.9,"humidity":94,"rain":0.1,"pressure":980.0,"uv_index":5.55,"wind_gusts":36.0,"aqi":85,"pm10":32.7,"pm2_5":32.6,"no2":16.7,"co":731.0,"o3":96.0,"so2":18.9,"mosquito_risk":10,"arthritis_risk":5,"migraine_risk":3,"frizz_risk":1,"updated_at":"2026-07-01T23:29:26.182872+05:30"},{"city":"Raipur","state":"Chhattisgarh","latitude":21.2514,"longitude":81.6296,"temp":26.1,"humidity":92,"rain":0.0,"pressure":969.7,"uv_index":6.95,"wind_gusts":32.4,"aqi":76,"pm10":23.3,"pm2_5":22.9,"no2":42.5,"co":456.0,"o3":42.0,"so2":59.7,"mosquito_risk":7,"arthritis_risk":5,"migraine_risk":7,"frizz_risk":1,"updated_at":"2026-07-01T23:29:26.182879+05:30"},{"city":"Bhilai","state":"Chhattisgarh","latitude":21.1938,"longitude":81.3509,"temp":25.8,"humidity":95,"rain":0.0,"pressure":970.3,"uv_index":1.95,"wind_gusts":32.8,"aqi":69,"pm10":20.3,"pm2_5":19.8,"no2":34.1,"co":794.0,"o3":52.0,"so2":50.2,"mosquito_risk":7,"arthritis_risk":5,"migraine_risk":3,"frizz_risk":1,"updated_at":"2026-07-01T23:29:26.182886+05:30"},{"city":"Guwahati","state":"Assam","latitude":26.1158,"longitude":91.7086,"temp":26.9,"humidity":97,"rain":0.0,"pressure":997.8,"uv_index":8.6,"wind_gusts":22.0,"aqi":42,"pm10":15.1,"pm2_5":15.0,"no2":16.5,"co":372.0,"o3":23.0,"so2":2.5,"mosquito_risk":7,"arthritis_risk":5,"migraine_risk":7,"frizz_risk":1,"updated_at":"2026-07-01T23:29:26.182893+05:30"},{"city":"Agartala","state":"Tripura","latitude":23.8315,"longitude":91.2868,"temp":26.6,"humidity":90,"rain":0.0,"pressure":1002.3,"uv_index":8.45,"wind_gusts":30.6,"aqi":68,"pm10":16.4,"pm2_5":15.8,"no2":13.6,"co":218.0,"o3":41.0,"so2":2.9,"mosquito_risk":7,"arthritis_risk":5,"migraine_risk":4,"frizz_risk":1,"updated_at":"2026-07-01T23:29:26.182900+05:30"},{"city":"Shillong","state":"Meghalaya","latitude":25.5788,"longitude":91.8933,"temp":19.7,"humidity":95,"rain":0.0,"pressure":855.1,"uv_index":7.4,"wind_gusts":24.1,"aqi":32,"pm10":10.4,"pm2_5":10.3,"no2":7.8,"co":282.0,"o3":63.0,"so2":2.9,"mosquito_risk":3,"arthritis_risk":10,"migraine_risk":7,"frizz_risk":1,"updated_at":"2026-07-01T23:29:26.182907+05:30"},{"city":"Imphal","state":"Manipur","latitude":24.817,"longitude":93.9368,"temp":23.6,"humidity":95,"rain":0.0,"pressure":920.5,"uv_index":9.2,"wind_gusts":27.7,"aqi":34,"pm10":19.7,"pm2_5":19.3,"no2":23.9,"co":682.0,"o3":26.0,"so2":4.0,"mosquito_risk":3,"arthritis_risk":5,"migraine_risk":7,"frizz_risk":1,"updated_at":"2026-07-01T23:29:26.182914+05:30"},{"city":"Aizawl","state":"Mizoram","latitude":23.7271,"longitude":92.7176,"temp":20.5,"humidity":100,"rain":0.0,"pressure":889.4,"uv_index":8.0,"wind_gusts":28.8,"aqi":22,"pm10":5.8,"pm2_5":5.7,"no2":10.4,"co":195.0,"o3":20.0,"so2":0.8,"mosquito_risk":3,"arthritis_risk":5,"migraine_risk":7,"frizz_risk":1,"updated_at":"2026-07-01T23:29:26.182922+05:30"},{"city":"Kohima","state":"Nagaland","latitude":25.6701,"longitude":94.1077,"temp":19.6,"humidity":97,"rain":0.0,"pressure":852.8,"uv_index":5.45,"wind_gusts":22.0,"aqi":21,"pm10":10.8,"pm2_5":10.6,"no2":19.9,"co":377.0,"o3":13.0,"so2":1.2,"mosquito_risk":3,"arthritis_risk":10,"migraine_risk":3,"frizz_risk":1,"updated_at":"2026-07-01T23:29:26.182929+05:30"},{"city":"Gangtok","state":"Sikkim","latitude":27.3314,"longitude":88.6138,"temp":19.1,"humidity":94,"rain":0.0,"pressure":837.1,"uv_index":7.5,"wind_gusts":29.9,"aqi":68,"pm10":16.8,"pm2_5":15.9,"no2":11.9,"co":404.0,"o3":105.0,"so2":2.5,"mosquito_risk":3,"arthritis_risk":10,"migraine_risk":7,"frizz_risk":1,"updated_at":"2026-07-01T23:29:26.182936+05:30"},{"city":"Siliguri","state":"West Bengal","latitude":26.7271,"longitude":88.3953,"temp":26.9,"humidity":91,"rain":0.0,"pressure":989.8,"uv_index":8.6,"wind_gusts":27.7,"aqi":112,"pm10":51.8,"pm2_5":49.4,"no2":16.9,"co":559.0,"o3":95.0,"so2":5.7,"mosquito_risk":7,"arthritis_risk":5,"migraine_risk":7,"frizz_risk":1,"updated_at":"2026-07-01T23:29:29.473524+05:30"},{"city":"Durgapur","state":"West Bengal","latitude":23.5204,"longitude":87.3119,"temp":27.3,"humidity":95,"rain":0.0,"pressure":990.3,"uv_index":8.6,"wind_gusts":28.4,"aqi":147,"pm10":73.6,"pm2_5":73.3,"no2":32.2,"co":617.0,"o3":75.0,"so2":31.1,"mosquito_risk":7,"arthritis_risk":5,"migraine_risk":7,"frizz_risk":1,"updated_at":"2026-07-01T23:29:29.473561+05:30"},{"city":"Asansol","state":"West Bengal","latitude":23.6739,"longitude":86.9524,"temp":26.6,"humidity":95,"rain":0.1,"pressure":989.0,"uv_index":6.25,"wind_gusts":31.7,"aqi":152,"pm10":64.0,"pm2_5":63.6,"no2":34.0,"co":585.0,"o3":76.0,"so2":39.0,"mosquito_risk":10,"arthritis_risk":5,"migraine_risk":7,"frizz_risk":1,"updated_at":"2026-07-01T23:29:29.473576+05:30"},{"city":"Pondicherry","state":"Puducherry","latitude":11.9139,"longitude":79.8145,"temp":31.8,"humidity":49,"rain":0.0,"pressure":1007.6,"uv_index":1.85,"wind_gusts":47.5,"aqi":46,"pm10":15.9,"pm2_5":12.7,"no2":18.5,"co":296.0,"o3":45.0,"so2":14.7,"mosquito_risk":0,"arthritis_risk":5,"migraine_risk":0,"frizz_risk":1,"updated_at":"2026-07-01T23:29:29.473587+05:30"},{"city":"Port Blair","state":"Andaman and Nicobar Islands","latitude":11.6234,"longitude":92.7265,"temp":24.6,"humidity":97,"rain":0.3,"pressure":1007.2,"uv_index":4.85,"wind_gusts":49.3,"aqi":30,"pm10":8.3,"pm2_5":4.9,"no2":0.3,"co":96.0,"o3":63.0,"so2":0.4,"mosquito_risk":6,"arthritis_risk":5,"migraine_risk":0,"frizz_risk":1,"updated_at":"2026-07-01T23:29:29.473598+05:30"},{"city":"Haridwar","state":"Uttarakhand","latitude":29.9457,"longitude":78.1642,"temp":25.6,"humidity":98,"rain":0.2,"pressure":969.9,"uv_index":4.95,"wind_gusts":24.5,"aqi":95,"pm10":98.7,"pm2_5":65.4,"no2":38.9,"co":531.0,"o3":23.0,"so2":9.6,"mosquito_risk":10,"arthritis_risk":5,"migraine_risk":3,"frizz_risk":1,"updated_at":"2026-07-01T23:29:29.473608+05:30"},{"city":"Rishikesh","state":"Uttarakhand","latitude":30.0869,"longitude":78.2676,"temp":25.4,"humidity":95,"rain":0.3,"pressure":962.6,"uv_index":6.4,"wind_gusts":13.7,"aqi":74,"pm10":76.4,"pm2_5":35.6,"no2":15.7,"co":379.0,"o3":86.0,"so2":7.4,"mosquito_risk":10,"arthritis_risk":5,"migraine_risk":7,"frizz_risk":1,"updated_at":"2026-07-01T23:29:29.473618+05:30"},{"city":"Nainital","state":"Uttarakhand","latitude":29.3919,"longitude":79.4542,"temp":16.9,"humidity":100,"rain":0.0,"pressure":803.5,"uv_index":5.6,"wind_gusts":20.2,"aqi":62,"pm10":43.8,"pm2_5":28.0,"no2":14.9,"co":361.0,"o3":74.0,"so2":2.5,"mosquito_risk":3,"arthritis_risk":10,"migraine_risk":3,"frizz_risk":1,"updated_at":"2026-07-01T23:29:29.473628+05:30"},{"city":"Mussoorie","state":"Uttarakhand","latitude":30.4599,"longitude":78.0664,"temp":17.3,"humidity":96,"rain":0.1,"pressure":801.0,"uv_index":3.9,"wind_gusts":22.7,"aqi":75,"pm10":67.1,"pm2_5":44.6,"no2":35.0,"co":348.0,"o3":33.0,"so2":8.5,"mosquito_risk":6,"arthritis_risk":10,"migraine_risk":3,"frizz_risk":1,"updated_at":"2026-07-01T23:29:29.473637+05:30"},{"city":"Dharamshala","state":"Himachal Pradesh","latitude":32.219,"longitude":76.3234,"temp":21.7,"humidity":97,"rain":0.0,"pressure":865.9,"uv_index":4.7,"wind_gusts":32.8,"aqi":48,"pm10":15.3,"pm2_5":10.6,"no2":22.9,"co":449.0,"o3":46.0,"so2":0.9,"mosquito_risk":3,"arthritis_risk":5,"migraine_risk":3,"frizz_risk":1,"updated_at":"2026-07-01T23:29:29.473647+05:30"},{"city":"Dalhousie","state":"Himachal Pradesh","latitude":32.5387,"longitude":75.971,"temp":17.3,"humidity":96,"rain":0.0,"pressure":801.8,"uv_index":7.55,"wind_gusts":29.2,"aqi":99,"pm10":130.9,"pm2_5":44.6,"no2":28.4,"co":454.0,"o3":96.0,"so2":5.4,"mosquito_risk":3,"arthritis_risk":10,"migraine_risk":7,"frizz_risk":1,"updated_at":"2026-07-01T23:29:29.473657+05:30"},{"city":"Patiala","state":"Punjab","latitude":30.3398,"longitude":76.3869,"temp":27.4,"humidity":84,"rain":0.0,"pressure":973.0,"uv_index":7.3,"wind_gusts":43.6,"aqi":237,"pm10":372.5,"pm2_5":86.4,"no2":16.5,"co":402.0,"o3":90.0,"so2":15.4,"mosquito_risk":7,"arthritis_risk":5,"migraine_risk":7,"frizz_risk":1,"updated_at":"2026-07-01T23:29:29.473668+05:30"},{"city":"Bhatinda","state":"Punjab","latitude":30.211,"longitude":74.9455,"temp":31.4,"humidity":70,"rain":0.0,"pressure":977.2,"uv_index":8.25,"wind_gusts":34.2,"aqi":1012,"pm10":264.5,"pm2_5":104.1,"no2":26.5,"co":274.0,"o3":64.0,"so2":6.8,"mosquito_risk":3,"arthritis_risk":5,"migraine_risk":7,"frizz_risk":1,"updated_at":"2026-07-01T23:29:29.473678+05:30"},{"city":"Rohtak","state":"Haryana","latitude":28.8955,"longitude":76.6066,"temp":29.4,"humidity":76,"rain":0.0,"pressure":976.3,"uv_index":7.6,"wind_gusts":31.7,"aqi":657,"pm10":931.3,"pm2_5":170.4,"no2":34.7,"co":415.0,"o3":81.0,"so2":32.5,"mosquito_risk":7,"arthritis_risk":5,"migraine_risk":7,"frizz_risk":1,"updated_at":"2026-07-01T23:29:29.473688+05:30"},{"city":"Panipat","state":"Haryana","latitude":29.3909,"longitude":76.9635,"temp":27.1,"humidity":87,"rain":0.0,"pressure":975.4,"uv_index":7.55,"wind_gusts":30.6,"aqi":996,"pm10":1929.7,"pm2_5":278.5,"no2":21.9,"co":459.0,"o3":72.0,"so2":14.8,"mosquito_risk":7,"arthritis_risk":5,"migraine_risk":7,"frizz_risk":1,"updated_at":"2026-07-01T23:29:29.473697+05:30"},{"city":"Mathura","state":"Uttar Pradesh","latitude":27.4924,"longitude":77.6737,"temp":29.1,"humidity":69,"rain":0.0,"pressure":981.7,"uv_index":3.4,"wind_gusts":37.1,"aqi":136,"pm10":263.6,"pm2_5":60.5,"no2":30.2,"co":509.0,"o3":60.0,"so2":7.9,"mosquito_risk":7,"arthritis_risk":5,"migraine_risk":3,"frizz_risk":1,"updated_at":"2026-07-01T23:29:29.473707+05:30"},{"city":"Vrindavan","state":"Uttar Pradesh","latitude":27.5823,"longitude":77.7027,"temp":28.8,"humidity":70,"rain":0.0,"pressure":982.1,"uv_index":4.45,"wind_gusts":35.6,"aqi":136,"pm10":263.6,"pm2_5":60.5,"no2":30.2,"co":481.0,"o3":60.0,"so2":7.9,"mosquito_risk":7,"arthritis_risk":5,"migraine_risk":3,"frizz_risk":1,"updated_at":"2026-07-01T23:29:29.473717+05:30"},{"city":"Ayodhya","state":"Uttar Pradesh","latitude":26.7922,"longitude":82.1998,"temp":28.8,"humidity":89,"rain":0.0,"pressure":990.5,"uv_index":6.4,"wind_gusts":24.5,"aqi":123,"pm10":66.6,"pm2_5":62.2,"no2":20.0,"co":454.0,"o3":84.0,"so2":8.7,"mosquito_risk":7,"arthritis_risk":5,"migraine_risk":7,"frizz_risk":1,"updated_at":"2026-07-01T23:29:29.473727+05:30"},{"city":"Ratlam","state":"Madhya Pradesh","latitude":23.3315,"longitude":75.0367,"temp":25.2,"humidity":90,"rain":0.0,"pressure":950.6,"uv_index":7.35,"wind_gusts":28.4,"aqi":54,"pm10":21.5,"pm2_5":19.0,"no2":6.7,"co":190.0,"o3":73.0,"so2":3.1,"mosquito_risk":7,"arthritis_risk":5,"migraine_risk":7,"frizz_risk":1,"updated_at":"2026-07-01T23:29:29.473736+05:30"},{"city":"Sagar","state":"Madhya Pradesh","latitude":23.8388,"longitude":78.7378,"temp":25.1,"humidity":96,"rain":0.0,"pressure":945.2,"uv_index":8.05,"wind_gusts":33.5,"aqi":70,"pm10":37.7,"pm2_5":25.9,"no2":15.5,"co":331.0,"o3":48.0,"so2":2.7,"mosquito_risk":7,"arthritis_risk":5,"migraine_risk":7,"frizz_risk":1,"updated_at":"2026-07-01T23:29:29.473746+05:30"},{"city":"Satna","state":"Madhya Pradesh","latitude":24.6005,"longitude":80.8322,"temp":27.3,"humidity":88,"rain":0.0,"pressure":966.0,"uv_index":8.2,"wind_gusts":29.9,"aqi":74,"pm10":41.4,"pm2_5":25.9,"no2":14.9,"co":470.0,"o3":56.0,"so2":3.0,"mosquito_risk":7,"arthritis_risk":5,"migraine_risk":7,"frizz_risk":1,"updated_at":"2026-07-01T23:29:29.473754+05:30"},{"city":"Akola","state":"Maharashtra","latitude":20.7002,"longitude":77.0082,"temp":25.8,"humidity":95,"rain":0.1,"pressure":971.3,"uv_index":1.0,"wind_gusts":37.1,"aqi":40,"pm10":11.1,"pm2_5":10.1,"no2":10.8,"co":179.0,"o3":59.0,"so2":3.5,"mosquito_risk":10,"arthritis_risk":5,"migraine_risk":3,"frizz_risk":1,"updated_at":"2026-07-01T23:29:29.473763+05:30"},{"city":"Amravati","state":"Maharashtra","latitude":20.9374,"longitude":77.7796,"temp":25.2,"humidity":95,"rain":0.1,"pressure":963.4,"uv_index":5.4,"wind_gusts":31.3,"aqi":43,"pm10":11.9,"pm2_5":10.5,"no2":11.8,"co":196.0,"o3":58.0,"so2":3.9,"mosquito_risk":10,"arthritis_risk":5,"migraine_risk":3,"frizz_risk":1,"updated_at":"2026-07-01T23:29:29.473771+05:30"},{"city":"Latur","state":"Maharashtra","latitude":18.4088,"longitude":76.5604,"temp":23.5,"humidity":93,"rain":0.1,"pressure":937.0,"uv_index":5.35,"wind_gusts":45.7,"aqi":26,"pm10":4.2,"pm2_5":3.8,"no2":6.7,"co":152.0,"o3":41.0,"so2":2.2,"mosquito_risk":6,"arthritis_risk":5,"migraine_risk":3,"frizz_risk":1,"updated_at":"2026-07-01T23:29:29.473779+05:30"},{"city":"Nanded","state":"Maharashtra","latitude":19.1383,"longitude":77.3091,"temp":24.9,"humidity":93,"rain":0.1,"pressure":965.7,"uv_index":1.95,"wind_gusts":33.1,"aqi":29,"pm10":4.9,"pm2_5":4.7,"no2":8.7,"co":166.0,"o3":39.0,"so2":2.4,"mosquito_risk":6,"arthritis_risk":5,"migraine_risk":3,"frizz_risk":1,"updated_at":"2026-07-01T23:29:29.473787+05:30"},{"city":"Gulbarga","state":"Karnataka","latitude":17.3297,"longitude":76.8343,"temp":23.7,"humidity":94,"rain":0.1,"pressure":957.0,"uv_index":4.75,"wind_gusts":52.2,"aqi":26,"pm10":4.9,"pm2_5":4.1,"no2":8.8,"co":152.0,"o3":39.0,"so2":3.0,"mosquito_risk":6,"arthritis_risk":5,"migraine_risk":3,"frizz_risk":1,"updated_at":"2026-07-01T23:29:29.473794+05:30"},{"city":"Bidar","state":"Karnataka","latitude":17.9104,"longitude":77.5199,"temp":23.1,"humidity":94,"rain":0.0,"pressure":933.0,"uv_index":6.3,"wind_gusts":48.6,"aqi":28,"pm10":5.4,"pm2_5":4.6,"no2":8.1,"co":157.0,"o3":41.0,"so2":2.0,"mosquito_risk":3,"arthritis_risk":5,"migraine_risk":7,"frizz_risk":1,"updated_at":"2026-07-01T23:29:29.473802+05:30"},{"city":"Hospet","state":"Karnataka","latitude":15.2689,"longitude":76.3909,"temp":22.8,"humidity":96,"rain":0.2,"pressure":955.3,"uv_index":4.15,"wind_gusts":56.9,"aqi":22,"pm10":2.9,"pm2_5":2.5,"no2":6.9,"co":140.0,"o3":40.0,"so2":1.8,"mosquito_risk":6,"arthritis_risk":5,"migraine_risk":3,"frizz_risk":1,"updated_at":"2026-07-01T23:29:29.473809+05:30"},{"city":"Tirupur","state":"Tamil Nadu","latitude":11.1085,"longitude":77.3411,"temp":24.3,"humidity":86,"rain":0.0,"pressure":976.0,"uv_index":3.35,"wind_gusts":59.0,"aqi":40,"pm10":14.6,"pm2_5":12.8,"no2":18.5,"co":183.0,"o3":28.0,"so2":5.2,"mosquito_risk":3,"arthritis_risk":5,"migraine_risk":3,"frizz_risk":1,"updated_at":"2026-07-01T23:29:29.473816+05:30"},{"city":"Alappuzha","state":"Kerala","latitude":9.4981,"longitude":76.3388,"temp":25.3,"humidity":93,"rain":0.1,"pressure":1011.7,"uv_index":2.4,"wind_gusts":34.2,"aqi":46,"pm10":17.9,"pm2_5":12.2,"no2":12.7,"co":87.0,"o3":33.0,"so2":3.8,"mosquito_risk":10,"arthritis_risk":0,"migraine_risk":0,"frizz_risk":1,"updated_at":"2026-07-01T23:29:29.473823+05:30"},{"city":"Munnar","state":"Kerala","latitude":10.0889,"longitude":77.0595,"temp":16.4,"humidity":100,"rain":0.1,"pressure":857.9,"uv_index":4.25,"wind_gusts":46.1,"aqi":22,"pm10":9.3,"pm2_5":6.3,"no2":6.8,"co":95.0,"o3":38.0,"so2":2.1,"mosquito_risk":6,"arthritis_risk":10,"migraine_risk":3,"frizz_risk":1,"updated_at":"2026-07-01T23:29:29.473832+05:30"},{"city":"Silchar","state":"Assam","latitude":24.8333,"longitude":92.7789,"temp":27.3,"humidity":98,"rain":0.0,"pressure":1001.2,"uv_index":8.65,"wind_gusts":26.3,"aqi":57,"pm10":32.6,"pm2_5":32.2,"no2":17.9,"co":335.0,"o3":40.0,"so2":7.8,"mosquito_risk":7,"arthritis_risk":5,"migraine_risk":4,"frizz_risk":1,"updated_at":"2026-07-01T23:29:29.473840+05:30"},{"city":"Dibrugarh","state":"Assam","latitude":27.4728,"longitude":94.912,"temp":25.8,"humidity":98,"rain":0.0,"pressure":991.6,"uv_index":8.65,"wind_gusts":24.5,"aqi":78,"pm10":33.4,"pm2_5":33.1,"no2":23.0,"co":236.0,"o3":34.0,"so2":3.2,"mosquito_risk":7,"arthritis_risk":5,"migraine_risk":7,"frizz_risk":1,"updated_at":"2026-07-01T23:29:29.473847+05:30"}]