[{"city":"Delhi","state":"Delhi","latitude":28.6139,"longitude":77.209,"temp":31.3,"humidity":59,"rain":0.1,"pressure":976.1,"uv_index":7.5,"wind_gusts":33.5,"aqi":170,"pm10":222.1,"pm2_5":115.7,"no2":76.2,"co":474.0,"o3":0.0,"so2":26.3,"mosquito_risk":3,"arthritis_risk":5,"migraine_risk":7,"frizz_risk":1,"updated_at":"2026-06-28T04:34:43.510669+05:30"},{"city":"Mumbai","state":"Maharashtra","latitude":19.076,"longitude":72.8777,"temp":26.5,"humidity":89,"rain":0.1,"pressure":1003.7,"uv_index":7.7,"wind_gusts":39.2,"aqi":60,"pm10":25.3,"pm2_5":14.3,"no2":14.0,"co":153.0,"o3":37.0,"so2":9.6,"mosquito_risk":10,"arthritis_risk":5,"migraine_risk":4,"frizz_risk":1,"updated_at":"2026-06-28T04:34:43.510711+05:30"},{"city":"Bangalore","state":"Karnataka","latitude":12.9716,"longitude":77.5946,"temp":20.5,"humidity":97,"rain":0.0,"pressure":908.9,"uv_index":8.3,"wind_gusts":46.8,"aqi":44,"pm10":14.6,"pm2_5":10.4,"no2":13.3,"co":207.0,"o3":30.0,"so2":5.3,"mosquito_risk":3,"arthritis_risk":5,"migraine_risk":7,"frizz_risk":1,"updated_at":"2026-06-28T04:34:43.510727+05:30"},{"city":"Hyderabad","state":"Telangana","latitude":17.385,"longitude":78.4867,"temp":23.5,"humidity":95,"rain":0.0,"pressure":949.3,"uv_index":8.5,"wind_gusts":36.7,"aqi":76,"pm10":29.0,"pm2_5":21.0,"no2":10.0,"co":186.0,"o3":63.0,"so2":6.1,"mosquito_risk":3,"arthritis_risk":5,"migraine_risk":7,"frizz_risk":1,"updated_at":"2026-06-28T04:34:43.510736+05:30"},{"city":"Chennai","state":"Tamil Nadu","latitude":13.0827,"longitude":80.2707,"temp":26.2,"humidity":94,"rain":0.0,"pressure":1003.8,"uv_index":8.6,"wind_gusts":44.6,"aqi":68,"pm10":21.6,"pm2_5":16.7,"no2":17.3,"co":253.0,"o3":48.0,"so2":10.1,"mosquito_risk":7,"arthritis_risk":5,"migraine_risk":4,"frizz_risk":1,"updated_at":"2026-06-28T04:34:43.510744+05:30"},{"city":"Kolkata","state":"West Bengal","latitude":22.5726,"longitude":88.3639,"temp":27.5,"humidity":90,"rain":0.0,"pressure":1001.6,"uv_index":9.0,"wind_gusts":38.2,"aqi":67,"pm10":20.6,"pm2_5":18.1,"no2":10.1,"co":296.0,"o3":56.0,"so2":5.5,"mosquito_risk":7,"arthritis_risk":5,"migraine_risk":4,"frizz_risk":1,"updated_at":"2026-06-28T04:34:43.510753+05:30"},{"city":"Pune","state":"Maharashtra","latitude":18.5204,"longitude":73.8567,"temp":23.5,"humidity":91,"rain":0.0,"pressure":943.9,"uv_index":7.1,"wind_gusts":41.8,"aqi":46,"pm10":12.9,"pm2_5":10.4,"no2":15.8,"co":135.0,"o3":26.0,"so2":10.3,"mosquito_risk":3,"arthritis_risk":5,"migraine_risk":7,"frizz_risk":1,"updated_at":"2026-06-28T04:34:43.510761+05:30"},{"city":"Ahmedabad","state":"Gujarat","latitude":23.0225,"longitude":72.5714,"temp":30.7,"humidity":56,"rain":0.0,"pressure":996.6,"uv_index":8.05,"wind_gusts":39.6,"aqi":72,"pm10":39.5,"pm2_5":19.2,"no2":5.4,"co":109.0,"o3":46.0,"so2":3.0,"mosquito_risk":0,"arthritis_risk":5,"migraine_risk":7,"frizz_risk":1,"updated_at":"2026-06-28T04:34:43.510767+05:30"},{"city":"Jaipur","state":"Rajasthan","latitude":26.9124,"longitude":75.7873,"temp":29.2,"humidity":63,"rain":0.0,"pressure":954.1,"uv_index":8.2,"wind_gusts":38.5,"aqi":132,"pm10":300.8,"pm2_5":65.2,"no2":7.9,"co":156.0,"o3":55.0,"so2":4.3,"mosquito_risk":7,"arthritis_risk":5,"migraine_risk":7,"frizz_risk":1,"updated_at":"2026-06-28T04:34:43.510774+05:30"},{"city":"Lucknow","state":"Uttar Pradesh","latitude":26.8467,"longitude":80.9462,"temp":29.3,"humidity":77,"rain":0.0,"pressure":987.1,"uv_index":8.3,"wind_gusts":29.2,"aqi":128,"pm10":51.7,"pm2_5":34.2,"no2":18.8,"co":199.0,"o3":52.0,"so2":5.5,"mosquito_risk":7,"arthritis_risk":5,"migraine_risk":7,"frizz_risk":1,"updated_at":"2026-06-28T04:34:43.510787+05:30"},{"city":"Kanpur","state":"Uttar Pradesh","latitude":26.4499,"longitude":80.3319,"temp":32.1,"humidity":60,"rain":0.0,"pressure":985.2,"uv_index":8.3,"wind_gusts":43.6,"aqi":118,"pm10":38.0,"pm2_5":27.5,"no2":18.4,"co":174.0,"o3":48.0,"so2":4.5,"mosquito_risk":0,"arthritis_risk":5,"migraine_risk":7,"frizz_risk":1,"updated_at":"2026-06-28T04:34:43.510794+05:30"},{"city":"Chandigarh","state":"Chandigarh","latitude":30.7333,"longitude":76.7794,"temp":27.9,"humidity":75,"rain":0.0,"pressure":962.2,"uv_index":7.8,"wind_gusts":28.8,"aqi":154,"pm10":69.2,"pm2_5":58.2,"no2":40.2,"co":639.0,"o3":13.0,"so2":4.5,"mosquito_risk":7,"arthritis_risk":5,"migraine_risk":7,"frizz_risk":1,"updated_at":"2026-06-28T04:34:43.510801+05:30"},{"city":"Srinagar","state":"Jammu and Kashmir","latitude":34.0837,"longitude":74.7973,"temp":17.5,"humidity":83,"rain":0.0,"pressure":837.1,"uv_index":9.1,"wind_gusts":33.8,"aqi":76,"pm10":26.4,"pm2_5":25.4,"no2":25.5,"co":291.0,"o3":8.0,"so2":0.6,"mosquito_risk":3,"arthritis_risk":10,"migraine_risk":7,"frizz_risk":0,"updated_at":"2026-06-28T04:34:43.510809+05:30"},{"city":"Jammu","state":"Jammu and Kashmir","latitude":32.7266,"longitude":74.857,"temp":25.9,"humidity":93,"rain":0.2,"pressure":967.0,"uv_index":8.65,"wind_gusts":31.0,"aqi":125,"pm10":44.8,"pm2_5":39.3,"no2":48.5,"co":314.0,"o3":0.0,"so2":2.5,"mosquito_risk":10,"arthritis_risk":5,"migraine_risk":7,"frizz_risk":1,"updated_at":"2026-06-28T04:34:43.510816+05:30"},{"city":"Amritsar","state":"Punjab","latitude":31.634,"longitude":74.8723,"temp":28.9,"humidity":73,"rain":0.0,"pressure":973.6,"uv_index":8.5,"wind_gusts":48.2,"aqi":164,"pm10":107.3,"pm2_5":91.3,"no2":42.2,"co":543.0,"o3":28.0,"so2":5.7,"mosquito_risk":7,"arthritis_risk":5,"migraine_risk":7,"frizz_risk":1,"updated_at":"2026-06-28T04:34:43.510822+05:30"},{"city":"Ludhiana","state":"Punjab","latitude":30.901,"longitude":75.8573,"temp":30.7,"humidity":69,"rain":0.0,"pressure":971.8,"uv_index":8.0,"wind_gusts":43.6,"aqi":161,"pm10":160.7,"pm2_5":113.9,"no2":60.4,"co":1340.0,"o3":16.0,"so2":13.5,"mosquito_risk":3,"arthritis_risk":5,"migraine_risk":7,"frizz_risk":1,"updated_at":"2026-06-28T04:34:43.510828+05:30"},{"city":"Jalandhar","state":"Punjab","latitude":31.326,"longitude":75.5762,"temp":30.5,"humidity":68,"rain":0.0,"pressure":972.6,"uv_index":8.25,"wind_gusts":43.6,"aqi":165,"pm10":161.1,"pm2_5":135.0,"no2":74.2,"co":757.0,"o3":10.0,"so2":11.1,"mosquito_risk":3,"arthritis_risk":5,"migraine_risk":7,"frizz_risk":1,"updated_at":"2026-06-28T04:34:43.510835+05:30"},{"city":"Dehradun","state":"Uttarakhand","latitude":30.6284,"longitude":78.0322,"temp":16.7,"humidity":98,"rain":0.0,"pressure":827.0,"uv_index":6.45,"wind_gusts":31.7,"aqi":77,"pm10":29.1,"pm2_5":22.4,"no2":22.8,"co":207.0,"o3":13.0,"so2":0.1,"mosquito_risk":3,"arthritis_risk":10,"migraine_risk":7,"frizz_risk":1,"updated_at":"2026-06-28T04:34:43.510841+05:30"},{"city":"Shimla","state":"Himachal Pradesh","latitude":31.1048,"longitude":77.1734,"temp":12.7,"humidity":98,"rain":0.0,"pressure":779.6,"uv_index":7.6,"wind_gusts":35.6,"aqi":111,"pm10":70.8,"pm2_5":53.6,"no2":20.5,"co":307.0,"o3":32.0,"so2":0.0,"mosquito_risk":3,"arthritis_risk":10,"migraine_risk":7,"frizz_risk":0,"updated_at":"2026-06-28T04:34:43.510847+05:30"},{"city":"Manali","state":"Himachal Pradesh","latitude":32.2396,"longitude":77.1887,"temp":17.3,"humidity":63,"rain":0.0,"pressure":816.1,"uv_index":9.15,"wind_gusts":34.9,"aqi":55,"pm10":9.9,"pm2_5":7.0,"no2":46.5,"co":210.0,"o3":60.0,"so2":0.0,"mosquito_risk":3,"arthritis_risk":5,"migraine_risk":7,"frizz_risk":0,"updated_at":"2026-06-28T04:34:43.510856+05:30"},{"city":"Gurgaon","state":"Haryana","latitude":28.4595,"longitude":77.0266,"temp":30.7,"humidity":60,"rain":0.0,"pressure":974.6,"uv_index":7.5,"wind_gusts":36.7,"aqi":167,"pm10":197.9,"pm2_5":69.6,"no2":47.4,"co":517.0,"o3":9.0,"so2":12.4,"mosquito_risk":0,"arthritis_risk":5,"migraine_risk":7,"frizz_risk":1,"updated_at":"2026-06-28T04:34:43.510865+05:30"},{"city":"Noida","state":"Uttar Pradesh","latitude":28.5355,"longitude":77.391,"temp":30.1,"humidity":71,"rain":0.0,"pressure":977.6,"uv_index":7.2,"wind_gusts":24.1,"aqi":167,"pm10":197.9,"pm2_5":69.6,"no2":47.4,"co":604.0,"o3":9.0,"so2":12.4,"mosquito_risk":3,"arthritis_risk":5,"migraine_risk":7,"frizz_risk":1,"updated_at":"2026-06-28T04:34:43.510871+05:30"},{"city":"Ghaziabad","state":"Uttar Pradesh","latitude":28.6692,"longitude":77.4538,"temp":29.4,"humidity":77,"rain":0.0,"pressure":976.0,"uv_index":7.75,"wind_gusts":29.9,"aqi":171,"pm10":221.2,"pm2_5":113.6,"no2":51.0,"co":564.0,"o3":33.0,"so2":17.1,"mosquito_risk":7,"arthritis_risk":5,"migraine_risk":7,"frizz_risk":1,"updated_at":"2026-06-28T04:34:43.510877+05:30"},{"city":"Faridabad","state":"Haryana","latitude":28.4089,"longitude":77.3178,"temp":31.0,"humidity":64,"rain":0.0,"pressure":976.9,"uv_index":7.2,"wind_gusts":29.9,"aqi":167,"pm10":197.9,"pm2_5":69.6,"no2":47.4,"co":590.0,"o3":9.0,"so2":12.4,"mosquito_risk":3,"arthritis_risk":5,"migraine_risk":7,"frizz_risk":1,"updated_at":"2026-06-28T04:34:43.510883+05:30"},{"city":"Meerut","state":"Uttar Pradesh","latitude":28.9845,"longitude":77.7064,"temp":31.2,"humidity":59,"rain":0.0,"pressure":975.2,"uv_index":5.95,"wind_gusts":25.9,"aqi":171,"pm10":221.2,"pm2_5":113.6,"no2":51.0,"co":775.0,"o3":33.0,"so2":17.1,"mosquito_risk":0,"arthritis_risk":5,"migraine_risk":3,"frizz_risk":1,"updated_at":"2026-06-28T04:34:43.510889+05:30"},{"city":"Agra","state":"Uttar Pradesh","latitude":27.1767,"longitude":78.0081,"temp":31.2,"humidity":59,"rain":0.0,"pressure":981.3,"uv_index":7.25,"wind_gusts":37.8,"aqi":137,"pm10":36.2,"pm2_5":22.7,"no2":17.8,"co":181.0,"o3":36.0,"so2":4.9,"mosquito_risk":0,"arthritis_risk":5,"migraine_risk":7,"frizz_risk":1,"updated_at":"2026-06-28T04:34:43.510895+05:30"},{"city":"Varanasi","state":"Uttar Pradesh","latitude":25.3176,"longitude":82.9739,"temp":26.8,"humidity":90,"rain":0.2,"pressure":992.5,"uv_index":8.4,"wind_gusts":33.5,"aqi":135,"pm10":29.7,"pm2_5":27.2,"no2":14.0,"co":396.0,"o3":68.0,"so2":8.6,"mosquito_risk":10,"arthritis_risk":5,"migraine_risk":7,"frizz_risk":1,"updated_at":"2026-06-28T04:34:43.510902+05:30"},{"city":"Prayagraj","state":"Uttar Pradesh","latitude":25.4358,"longitude":81.8463,"temp":27.8,"humidity":89,"rain":0.2,"pressure":991.1,"uv_index":8.7,"wind_gusts":36.0,"aqi":111,"pm10":51.8,"pm2_5":39.8,"no2":20.0,"co":235.0,"o3":50.0,"so2":6.1,"mosquito_risk":10,"arthritis_risk":5,"migraine_risk":7,"frizz_risk":1,"updated_at":"2026-06-28T04:34:43.510909+05:30"},{"city":"Gorakhpur","state":"Uttar Pradesh","latitude":26.7606,"longitude":83.3732,"temp":26.8,"humidity":98,"rain":0.0,"pressure":991.9,"uv_index":7.75,"wind_gusts":34.2,"aqi":161,"pm10":90.8,"pm2_5":78.9,"no2":18.7,"co":616.0,"o3":74.0,"so2":6.6,"mosquito_risk":7,"arthritis_risk":5,"migraine_risk":7,"frizz_risk":1,"updated_at":"2026-06-28T04:34:43.510915+05:30"},{"city":"Bareilly","state":"Uttar Pradesh","latitude":28.367,"longitude":79.4304,"temp":30.6,"humidity":60,"rain":0.0,"pressure":980.3,"uv_index":8.1,"wind_gusts":23.4,"aqi":158,"pm10":80.3,"pm2_5":48.0,"no2":14.0,"co":688.0,"o3":90.0,"so2":9.1,"mosquito_risk":0,"arthritis_risk":5,"migraine_risk":7,"frizz_risk":1,"updated_at":"2026-06-28T04:34:43.510923+05:30"},{"city":"Aligarh","state":"Uttar Pradesh","latitude":27.8974,"longitude":78.088,"temp":30.7,"humidity":63,"rain":0.0,"pressure":978.9,"uv_index":5.5,"wind_gusts":29.9,"aqi":166,"pm10":110.1,"pm2_5":54.8,"no2":27.6,"co":537.0,"o3":49.0,"so2":6.6,"mosquito_risk":3,"arthritis_risk":5,"migraine_risk":3,"frizz_risk":1,"updated_at":"2026-06-28T04:34:43.510929+05:30"},{"city":"Moradabad","state":"Uttar Pradesh","latitude":28.8386,"longitude":78.7733,"temp":31.4,"humidity":58,"rain":0.0,"pressure":977.2,"uv_index":7.75,"wind_gusts":29.2,"aqi":163,"pm10":99.9,"pm2_5":66.6,"no2":25.8,"co":796.0,"o3":75.0,"so2":10.6,"mosquito_risk":0,"arthritis_risk":5,"migraine_risk":7,"frizz_risk":1,"updated_at":"2026-06-28T04:34:43.510935+05:30"},{"city":"Saharanpur","state":"Uttar Pradesh","latitude":29.9637,"longitude":77.546,"temp":30.6,"humidity":61,"rain":0.0,"pressure":969.4,"uv_index":6.9,"wind_gusts":22.3,"aqi":161,"pm10":94.1,"pm2_5":74.3,"no2":41.7,"co":667.0,"o3":15.0,"so2":8.7,"mosquito_risk":3,"arthritis_risk":5,"migraine_risk":7,"frizz_risk":1,"updated_at":"2026-06-28T04:34:43.510941+05:30"},{"city":"Jhansi","state":"Uttar Pradesh","latitude":25.4484,"longitude":78.5685,"temp":29.8,"humidity":66,"rain":0.0,"pressure":972.3,"uv_index":7.3,"wind_gusts":38.9,"aqi":87,"pm10":28.5,"pm2_5":21.4,"no2":7.9,"co":177.0,"o3":63.0,"so2":3.8,"mosquito_risk":7,"arthritis_risk":5,"migraine_risk":7,"frizz_risk":1,"updated_at":"2026-06-28T04:34:46.867791+05:30"},{"city":"Surat","state":"Gujarat","latitude":21.1702,"longitude":72.8311,"temp":29.1,"humidity":80,"rain":0.0,"pressure":1001.6,"uv_index":7.6,"wind_gusts":41.8,"aqi":84,"pm10":34.5,"pm2_5":19.2,"no2":19.5,"co":288.0,"o3":32.0,"so2":31.6,"mosquito_risk":7,"arthritis_risk":5,"migraine_risk":4,"frizz_risk":1,"updated_at":"2026-06-28T04:34:46.867823+05:30"},{"city":"Vadodara","state":"Gujarat","latitude":22.3072,"longitude":73.1812,"temp":30.6,"humidity":67,"rain":0.0,"pressure":998.9,"uv_index":8.0,"wind_gusts":45.0,"aqi":77,"pm10":25.9,"pm2_5":17.5,"no2":13.6,"co":148.0,"o3":32.0,"so2":10.4,"mosquito_risk":3,"arthritis_risk":5,"migraine_risk":7,"frizz_risk":1,"updated_at":"2026-06-28T04:34:46.867834+05:30"},{"city":"Rajkot","state":"Gujarat","latitude":22.3039,"longitude":70.8022,"temp":27.8,"humidity":77,"rain":0.0,"pressure":989.3,"uv_index":7.55,"wind_gusts":40.0,"aqi":69,"pm10":44.5,"pm2_5":19.3,"no2":7.7,"co":100.0,"o3":42.0,"so2":7.2,"mosquito_risk":7,"arthritis_risk":5,"migraine_risk":7,"frizz_risk":1,"updated_at":"2026-06-28T04:34:46.867843+05:30"},{"city":"Thane","state":"Maharashtra","latitude":19.2183,"longitude":72.9781,"temp":26.0,"humidity":93,"rain":0.0,"pressure":1003.3,"uv_index":7.7,"wind_gusts":33.1,"aqi":60,"pm10":25.3,"pm2_5":14.3,"no2":14.0,"co":163.0,"o3":37.0,"so2":9.6,"mosquito_risk":7,"arthritis_risk":5,"migraine_risk":4,"frizz_risk":1,"updated_at":"2026-06-28T04:34:46.867851+05:30"},{"city":"Nagpur","state":"Maharashtra","latitude":21.1458,"longitude":79.0882,"temp":26.4,"humidity":95,"rain":0.0,"pressure":968.4,"uv_index":8.85,"wind_gusts":35.6,"aqi":95,"pm10":34.5,"pm2_5":27.9,"no2":20.6,"co":277.0,"o3":32.0,"so2":6.5,"mosquito_risk":7,"arthritis_risk":5,"migraine_risk":7,"frizz_risk":1,"updated_at":"2026-06-28T04:34:46.867858+05:30"},{"city":"Nashik","state":"Maharashtra","latitude":19.9975,"longitude":73.7898,"temp":23.5,"humidity":93,"rain":0.0,"pressure":941.1,"uv_index":7.55,"wind_gusts":36.4,"aqi":55,"pm10":23.9,"pm2_5":13.8,"no2":9.3,"co":115.0,"o3":35.0,"so2":7.1,"mosquito_risk":3,"arthritis_risk":5,"migraine_risk":7,"frizz_risk":1,"updated_at":"2026-06-28T04:34:46.867866+05:30"},{"city":"Aurangabad","state":"Maharashtra","latitude":19.8762,"longitude":75.3433,"temp":25.1,"humidity":84,"rain":0.0,"pressure":939.5,"uv_index":7.65,"wind_gusts":33.5,"aqi":68,"pm10":21.7,"pm2_5":14.6,"no2":11.9,"co":147.0,"o3":43.0,"so2":6.2,"mosquito_risk":7,"arthritis_risk":5,"migraine_risk":7,"frizz_risk":1,"updated_at":"2026-06-28T04:34:46.867874+05:30"},{"city":"Solapur","state":"Maharashtra","latitude":17.6599,"longitude":75.9064,"temp":25.1,"humidity":90,"rain":0.0,"pressure":953.4,"uv_index":7.65,"wind_gusts":31.3,"aqi":57,"pm10":7.8,"pm2_5":6.3,"no2":8.7,"co":185.0,"o3":33.0,"so2":2.5,"mosquito_risk":7,"arthritis_risk":5,"migraine_risk":7,"frizz_risk":1,"updated_at":"2026-06-28T04:34:46.867882+05:30"},{"city":"Kolhapur","state":"Maharashtra","latitude":16.705,"longitude":74.2433,"temp":23.5,"humidity":90,"rain":0.0,"pressure":944.2,"uv_index":6.75,"wind_gusts":40.3,"aqi":33,"pm10":7.7,"pm2_5":6.5,"no2":7.1,"co":119.0,"o3":33.0,"so2":2.6,"mosquito_risk":3,"arthritis_risk":5,"migraine_risk":7,"frizz_risk":1,"updated_at":"2026-06-28T04:34:46.867889+05:30"},{"city":"Goa","state":"Goa","latitude":15.2993,"longitude":74.124,"temp":23.8,"humidity":99,"rain":0.1,"pressure":995.3,"uv_index":3.3,"wind_gusts":32.4,"aqi":40,"pm10":12.6,"pm2_5":8.0,"no2":2.3,"co":184.0,"o3":46.0,"so2":0.6,"mosquito_risk":6,"arthritis_risk":5,"migraine_risk":3,"frizz_risk":1,"updated_at":"2026-06-28T04:34:46.867897+05:30"},{"city":"Jodhpur","state":"Rajasthan","latitude":26.2389,"longitude":73.0243,"temp":31.2,"humidity":53,"rain":0.0,"pressure":976.8,"uv_index":8.45,"wind_gusts":38.5,"aqi":109,"pm10":191.9,"pm2_5":48.0,"no2":5.8,"co":133.0,"o3":46.0,"so2":2.5,"mosquito_risk":0,"arthritis_risk":5,"migraine_risk":7,"frizz_risk":1,"updated_at":"2026-06-28T04:34:46.867904+05:30"},{"city":"Udaipur","state":"Rajasthan","latitude":24.5854,"longitude":73.7125,"temp":25.8,"humidity":76,"rain":0.0,"pressure":941.2,"uv_index":8.7,"wind_gusts":32.4,"aqi":66,"pm10":40.5,"pm2_5":21.2,"no2":10.3,"co":133.0,"o3":41.0,"so2":2.2,"mosquito_risk":7,"arthritis_risk":5,"migraine_risk":7,"frizz_risk":1,"updated_at":"2026-06-28T04:34:46.867911+05:30"},{"city":"Kota","state":"Rajasthan","latitude":25.2138,"longitude":75.8648,"temp":28.8,"humidity":75,"rain":0.0,"pressure":973.0,"uv_index":6.25,"wind_gusts":30.2,"aqi":75,"pm10":33.6,"pm2_5":20.6,"no2":9.1,"co":196.0,"o3":47.0,"so2":3.4,"mosquito_risk":7,"arthritis_risk":5,"migraine_risk":7,"frizz_risk":1,"updated_at":"2026-06-28T04:34:46.867919+05:30"},{"city":"Bikaner","state":"Rajasthan","latitude":28.0229,"longitude":73.3119,"temp":32.5,"humidity":49,"rain":0.0,"pressure":975.3,"uv_index":8.45,"wind_gusts":32.4,"aqi":96,"pm10":114.8,"pm2_5":40.6,"no2":2.7,"co":118.0,"o3":55.0,"so2":2.8,"mosquito_risk":0,"arthritis_risk":5,"migraine_risk":7,"frizz_risk":1,"updated_at":"2026-06-28T04:34:46.867927+05:30"},{"city":"Ajmer","state":"Rajasthan","latitude":26.4499,"longitude":74.6399,"temp":28.4,"humidity":64,"rain":0.0,"pressure":949.3,"uv_index":8.35,"wind_gusts":42.1,"aqi":82,"pm10":41.0,"pm2_5":23.7,"no2":6.7,"co":139.0,"o3":56.0,"so2":3.3,"mosquito_risk":7,"arthritis_risk":5,"migraine_risk":7,"frizz_risk":1,"updated_at":"2026-06-28T04:34:46.867934+05:30"},{"city":"Gwalior","state":"Madhya Pradesh","latitude":26.2183,"longitude":78.1828,"temp":30.0,"humidity":65,"rain":0.0,"pressure":977.1,"uv_index":7.5,"wind_gusts":40.3,"aqi":85,"pm10":24.6,"pm2_5":19.6,"no2":9.3,"co":151.0,"o3":52.0,"so2":6.5,"mosquito_risk":7,"arthritis_risk":5,"migraine_risk":7,"frizz_risk":1,"updated_at":"2026-06-28T04:34:46.867941+05:30"},{"city":"Indore","state":"Madhya Pradesh","latitude":22.7196,"longitude":75.8577,"temp":25.2,"humidity":87,"rain":0.0,"pressure":943.2,"uv_index":3.25,"wind_gusts":40.0,"aqi":86,"pm10":36.3,"pm2_5":28.4,"no2":12.8,"co":268.0,"o3":51.0,"so2":5.2,"mosquito_risk":7,"arthritis_risk":5,"migraine_risk":3,"frizz_risk":1,"updated_at":"2026-06-28T04:34:46.867948+05:30"},{"city":"Bhopal","state":"Madhya Pradesh","latitude":23.2599,"longitude":77.4126,"temp":25.4,"humidity":90,"rain":0.0,"pressure":948.6,"uv_index":3.3,"wind_gusts":23.0,"aqi":90,"pm10":36.2,"pm2_5":31.1,"no2":12.0,"co":358.0,"o3":43.0,"so2":2.8,"mosquito_risk":7,"arthritis_risk":5,"migraine_risk":3,"frizz_risk":1,"updated_at":"2026-06-28T04:34:46.867956+05:30"},{"city":"Jabalpur","state":"Madhya Pradesh","latitude":23.1815,"longitude":79.9864,"temp":26.6,"humidity":88,"rain":0.0,"pressure":956.8,"uv_index":8.8,"wind_gusts":30.6,"aqi":69,"pm10":33.9,"pm2_5":28.4,"no2":10.3,"co":270.0,"o3":59.0,"so2":3.4,"mosquito_risk":7,"arthritis_risk":5,"migraine_risk":7,"frizz_risk":1,"updated_at":"2026-06-28T04:34:46.867963+05:30"},{"city":"Ujjain","state":"Madhya Pradesh","latitude":23.1765,"longitude":75.7885,"temp":25.5,"humidity":85,"rain":0.0,"pressure":948.9,"uv_index":7.0,"wind_gusts":33.8,"aqi":83,"pm10":36.4,"pm2_5":27.0,"no2":8.8,"co":257.0,"o3":56.0,"so2":3.6,"mosquito_risk":7,"arthritis_risk":5,"migraine_risk":7,"frizz_risk":1,"updated_at":"2026-06-28T04:34:46.867970+05:30"},{"city":"Visakhapatnam","state":"Andhra Pradesh","latitude":17.6868,"longitude":83.2185,"temp":26.8,"humidity":94,"rain":0.0,"pressure":998.3,"uv_index":8.4,"wind_gusts":36.7,"aqi":85,"pm10":21.1,"pm2_5":18.2,"no2":25.8,"co":330.0,"o3":56.0,"so2":34.8,"mosquito_risk":7,"arthritis_risk":5,"migraine_risk":7,"frizz_risk":1,"updated_at":"2026-06-28T04:34:46.867977+05:30"},{"city":"Vijayawada","state":"Andhra Pradesh","latitude":16.5062,"longitude":80.648,"temp":25.8,"humidity":96,"rain":0.1,"pressure":998.2,"uv_index":7.95,"wind_gusts":45.0,"aqi":90,"pm10":21.1,"pm2_5":17.8,"no2":8.2,"co":214.0,"o3":68.0,"so2":2.8,"mosquito_risk":10,"arthritis_risk":5,"migraine_risk":7,"frizz_risk":1,"updated_at":"2026-06-28T04:34:46.867985+05:30"},{"city":"Guntur","state":"Andhra Pradesh","latitude":16.3067,"longitude":80.4365,"temp":25.8,"humidity":95,"rain":0.0,"pressure":999.5,"uv_index":7.75,"wind_gusts":40.3,"aqi":85,"pm10":20.5,"pm2_5":17.4,"no2":8.6,"co":199.0,"o3":64.0,"so2":2.8,"mosquito_risk":7,"arthritis_risk":5,"migraine_risk":7,"frizz_risk":1,"updated_at":"2026-06-28T04:34:46.867993+05:30"},{"city":"Nellore","state":"Andhra Pradesh","latitude":14.4426,"longitude":79.9865,"temp":25.6,"humidity":95,"rain":0.1,"pressure":1002.1,"uv_index":8.1,"wind_gusts":36.4,"aqi":66,"pm10":26.4,"pm2_5":19.8,"no2":9.8,"co":143.0,"o3":55.0,"so2":5.4,"mosquito_risk":10,"arthritis_risk":5,"migraine_risk":4,"frizz_risk":1,"updated_at":"2026-06-28T04:34:46.868001+05:30"},{"city":"Kurnool","state":"Andhra Pradesh","latitude":15.8281,"longitude":78.0373,"temp":24.5,"humidity":95,"rain":0.1,"pressure":973.7,"uv_index":7.6,"wind_gusts":37.1,"aqi":62,"pm10":7.7,"pm2_5":6.0,"no2":10.3,"co":176.0,"o3":34.0,"so2":3.3,"mosquito_risk":6,"arthritis_risk":5,"migraine_risk":7,"frizz_risk":1,"updated_at":"2026-06-28T04:34:46.868009+05:30"},{"city":"Kakinada","state":"Andhra Pradesh","latitude":16.9891,"longitude":82.2475,"temp":25.5,"humidity":97,"rain":0.1,"pressure":1003.5,"uv_index":5.85,"wind_gusts":33.8,"aqi":69,"pm10":22.6,"pm2_5":16.5,"no2":4.7,"co":183.0,"o3":89.0,"so2":3.4,"mosquito_risk":10,"arthritis_risk":5,"migraine_risk":0,"frizz_risk":1,"updated_at":"2026-06-28T04:34:46.868016+05:30"},{"city":"Tirupati","state":"Andhra Pradesh","latitude":13.6288,"longitude":79.4192,"temp":25.1,"humidity":92,"rain":0.0,"pressure":987.5,"uv_index":7.6,"wind_gusts":42.5,"aqi":58,"pm10":15.8,"pm2_5":12.3,"no2":18.1,"co":172.0,"o3":21.0,"so2":1.9,"mosquito_risk":7,"arthritis_risk":5,"migraine_risk":7,"frizz_risk":1,"updated_at":"2026-06-28T04:34:46.868023+05:30"},{"city":"Warangal","state":"Telangana","latitude":17.9689,"longitude":79.5941,"temp":25.5,"humidity":95,"rain":0.0,"pressure":974.3,"uv_index":6.6,"wind_gusts":33.8,"aqi":90,"pm10":28.6,"pm2_5":21.0,"no2":8.9,"co":213.0,"o3":68.0,"so2":3.4,"mosquito_risk":7,"arthritis_risk":5,"migraine_risk":7,"frizz_risk":1,"updated_at":"2026-06-28T04:34:46.868031+05:30"},{"city":"Nizamabad","state":"Telangana","latitude":18.6725,"longitude":78.0941,"temp":25.2,"humidity":89,"rain":0.0,"pressure":960.6,"uv_index":4.3,"wind_gusts":33.5,"aqi":107,"pm10":49.1,"pm2_5":33.1,"no2":13.7,"co":197.0,"o3":46.0,"so2":5.7,"mosquito_risk":7,"arthritis_risk":5,"migraine_risk":3,"frizz_risk":1,"updated_at":"2026-06-28T04:34:46.868038+05:30"},{"city":"Mysore","state":"Karnataka","latitude":12.2958,"longitude":76.6396,"temp":21.2,"humidity":96,"rain":0.0,"pressure":926.1,"uv_index":7.45,"wind_gusts":48.6,"aqi":34,"pm10":12.9,"pm2_5":8.6,"no2":7.6,"co":122.0,"o3":34.0,"so2":2.2,"mosquito_risk":3,"arthritis_risk":5,"migraine_risk":7,"frizz_risk":1,"updated_at":"2026-06-28T04:34:46.868045+05:30"},{"city":"Mangalore","state":"Karnataka","latitude":12.9141,"longitude":74.856,"temp":24.6,"humidity":96,"rain":0.3,"pressure":1005.3,"uv_index":1.2,"wind_gusts":42.8,"aqi":46,"pm10":11.8,"pm2_5":6.4,"no2":2.2,"co":123.0,"o3":42.0,"so2":0.9,"mosquito_risk":6,"arthritis_risk":5,"migraine_risk":0,"frizz_risk":1,"updated_at":"2026-06-28T04:34:46.868053+05:30"},{"city":"Hubli-Dharwad","state":"Karnataka","latitude":15.3647,"longitude":75.124,"temp":22.4,"humidity":96,"rain":0.0,"pressure":937.5,"uv_index":6.3,"wind_gusts":44.3,"aqi":20,"pm10":1.5,"pm2_5":1.2,"no2":2.3,"co":106.0,"o3":42.0,"so2":0.9,"mosquito_risk":3,"arthritis_risk":5,"migraine_risk":7,"frizz_risk":1,"updated_at":"2026-06-28T04:34:46.868060+05:30"},{"city":"Belgaum","state":"Karnataka","latitude":15.8497,"longitude":74.4977,"temp":22.4,"humidity":93,"rain":0.0,"pressure":922.4,"uv_index":7.45,"wind_gusts":40.3,"aqi":21,"pm10":3.2,"pm2_5":2.5,"no2":3.3,"co":110.0,"o3":42.0,"so2":1.4,"mosquito_risk":3,"arthritis_risk":5,"migraine_risk":7,"frizz_risk":1,"updated_at":"2026-06-28T04:34:50.223131+05:30"},{"city":"Coimbatore","state":"Tamil Nadu","latitude":11.0168,"longitude":76.9558,"temp":22.7,"humidity":95,"rain":0.0,"pressure":959.6,"uv_index":8.7,"wind_gusts":50.0,"aqi":36,"pm10":15.3,"pm2_5":9.0,"no2":6.0,"co":128.0,"o3":34.0,"so2":3.0,"mosquito_risk":3,"arthritis_risk":5,"migraine_risk":7,"frizz_risk":1,"updated_at":"2026-06-28T04:34:50.223162+05:30"},{"city":"Madurai","state":"Tamil Nadu","latitude":9.9252,"longitude":78.1198,"temp":27.8,"humidity":67,"rain":0.0,"pressure":990.4,"uv_index":8.25,"wind_gusts":50.8,"aqi":66,"pm10":27.8,"pm2_5":25.0,"no2":39.4,"co":136.0,"o3":0.0,"so2":5.3,"mosquito_risk":7,"arthritis_risk":5,"migraine_risk":7,"frizz_risk":1,"updated_at":"2026-06-28T04:34:50.223173+05:30"},{"city":"Trichy","state":"Tamil Nadu","latitude":10.7905,"longitude":78.7047,"temp":27.4,"humidity":76,"rain":0.0,"pressure":997.1,"uv_index":8.25,"wind_gusts":51.5,"aqi":50,"pm10":14.9,"pm2_5":9.7,"no2":8.7,"co":111.0,"o3":32.0,"so2":3.3,"mosquito_risk":7,"arthritis_risk":5,"migraine_risk":7,"frizz_risk":1,"updated_at":"2026-06-28T04:34:50.223182+05:30"},{"city":"Salem","state":"Tamil Nadu","latitude":11.6643,"longitude":78.146,"temp":24.4,"humidity":94,"rain":0.0,"pressure":975.2,"uv_index":8.8,"wind_gusts":31.7,"aqi":57,"pm10":22.2,"pm2_5":17.8,"no2":23.1,"co":230.0,"o3":19.0,"so2":6.6,"mosquito_risk":3,"arthritis_risk":5,"migraine_risk":7,"frizz_risk":1,"updated_at":"2026-06-28T04:34:50.223191+05:30"},{"city":"Tirunelveli","state":"Tamil Nadu","latitude":8.7139,"longitude":77.7567,"temp":27.7,"humidity":71,"rain":0.0,"pressure":1000.8,"uv_index":8.55,"wind_gusts":46.8,"aqi":43,"pm10":14.9,"pm2_5":10.5,"no2":8.5,"co":122.0,"o3":29.0,"so2":2.6,"mosquito_risk":7,"arthritis_risk":5,"migraine_risk":4,"frizz_risk":1,"updated_at":"2026-06-28T04:34:50.223199+05:30"},{"city":"Vellore","state":"Tamil Nadu","latitude":12.9165,"longitude":79.1325,"temp":24.6,"humidity":95,"rain":0.0,"pressure":981.3,"uv_index":8.8,"wind_gusts":37.4,"aqi":57,"pm10":20.8,"pm2_5":16.9,"no2":22.4,"co":207.0,"o3":18.0,"so2":3.5,"mosquito_risk":3,"arthritis_risk":5,"migraine_risk":7,"frizz_risk":1,"updated_at":"2026-06-28T04:34:50.223206+05:30"},{"city":"Erode","state":"Tamil Nadu","latitude":11.341,"longitude":77.7172,"temp":25.0,"humidity":87,"rain":0.0,"pressure":987.0,"uv_index":8.6,"wind_gusts":41.8,"aqi":53,"pm10":19.3,"pm2_5":13.8,"no2":14.0,"co":131.0,"o3":26.0,"so2":3.6,"mosquito_risk":7,"arthritis_risk":5,"migraine_risk":7,"frizz_risk":1,"updated_at":"2026-06-28T04:34:50.223213+05:30"},{"city":"Kochi","state":"Kerala","latitude":9.9312,"longitude":76.2673,"temp":24.0,"humidity":99,"rain":0.2,"pressure":1008.0,"uv_index":8.55,"wind_gusts":43.2,"aqi":55,"pm10":15.1,"pm2_5":9.8,"no2":12.0,"co":128.0,"o3":23.0,"so2":3.4,"mosquito_risk":6,"arthritis_risk":0,"migraine_risk":4,"frizz_risk":1,"updated_at":"2026-06-28T04:34:50.223221+05:30"},{"city":"Thiruvananthapuram","state":"Kerala","latitude":8.5241,"longitude":76.9366,"temp":23.8,"humidity":97,"rain":0.0,"pressure":1007.2,"uv_index":7.5,"wind_gusts":52.9,"aqi":45,"pm10":18.3,"pm2_5":9.2,"no2":2.6,"co":113.0,"o3":48.0,"so2":1.3,"mosquito_risk":3,"arthritis_risk":5,"migraine_risk":4,"frizz_risk":1,"updated_at":"2026-06-28T04:34:50.223228+05:30"},{"city":"Kozhikode","state":"Kerala","latitude":11.2588,"longitude":75.7804,"temp":23.1,"humidity":99,"rain":0.2,"pressure":1007.0,"uv_index":8.55,"wind_gusts":41.4,"aqi":38,"pm10":15.5,"pm2_5":7.0,"no2":0.7,"co":118.0,"o3":52.0,"so2":0.6,"mosquito_risk":6,"arthritis_risk":5,"migraine_risk":4,"frizz_risk":1,"updated_at":"2026-06-28T04:34:50.223236+05:30"},{"city":"Thrissur","state":"Kerala","latitude":10.5276,"longitude":76.2144,"temp":23.5,"humidity":99,"rain":0.1,"pressure":1006.3,"uv_index":8.55,"wind_gusts":41.4,"aqi":57,"pm10":17.2,"pm2_5":10.5,"no2":9.4,"co":124.0,"o3":27.0,"so2":2.7,"mosquito_risk":6,"arthritis_risk":5,"migraine_risk":4,"frizz_risk":1,"updated_at":"2026-06-28T04:34:50.223244+05:30"},{"city":"Kannur","state":"Kerala","latitude":11.8745,"longitude":75.3704,"temp":24.0,"humidity":99,"rain":0.1,"pressure":1005.9,"uv_index":8.6,"wind_gusts":40.3,"aqi":46,"pm10":13.2,"pm2_5":7.3,"no2":3.0,"co":113.0,"o3":40.0,"so2":0.9,"mosquito_risk":6,"arthritis_risk":5,"migraine_risk":4,"frizz_risk":1,"updated_at":"2026-06-28T04:34:50.223251+05:30"},{"city":"Patna","state":"Bihar","latitude":25.5941,"longitude":85.1376,"temp":27.1,"humidity":98,"rain":0.1,"pressure":995.4,"uv_index":8.45,"wind_gusts":28.4,"aqi":155,"pm10":85.7,"pm2_5":77.8,"no2":18.4,"co":320.0,"o3":72.0,"so2":10.0,"mosquito_risk":10,"arthritis_risk":5,"migraine_risk":7,"frizz_risk":1,"updated_at":"2026-06-28T04:34:50.223258+05:30"},{"city":"Gaya","state":"Bihar","latitude":24.7914,"longitude":85.0002,"temp":27.0,"humidity":93,"rain":0.2,"pressure":990.0,"uv_index":8.65,"wind_gusts":27.7,"aqi":131,"pm10":41.8,"pm2_5":39.3,"no2":11.9,"co":276.0,"o3":79.0,"so2":7.4,"mosquito_risk":10,"arthritis_risk":5,"migraine_risk":7,"frizz_risk":1,"updated_at":"2026-06-28T04:34:50.223266+05:30"},{"city":"Muzaffarpur","state":"Bihar","latitude":26.1209,"longitude":85.3647,"temp":26.5,"humidity":95,"rain":0.0,"pressure":995.5,"uv_index":8.85,"wind_gusts":27.4,"aqi":158,"pm10":87.5,"pm2_5":77.5,"no2":13.6,"co":370.0,"o3":93.0,"so2":8.6,"mosquito_risk":7,"arthritis_risk":5,"migraine_risk":7,"frizz_risk":1,"updated_at":"2026-06-28T04:34:50.223274+05:30"},{"city":"Bhagalpur","state":"Bihar","latitude":25.2425,"longitude":87.0117,"temp":26.9,"humidity":96,"rain":0.0,"pressure":996.4,"uv_index":7.75,"wind_gusts":32.8,"aqi":129,"pm10":48.3,"pm2_5":44.2,"no2":13.5,"co":370.0,"o3":76.0,"so2":20.8,"mosquito_risk":7,"arthritis_risk":5,"migraine_risk":7,"frizz_risk":1,"updated_at":"2026-06-28T04:34:50.223280+05:30"},{"city":"Ranchi","state":"Jharkhand","latitude":23.3441,"longitude":85.3096,"temp":24.5,"humidity":91,"rain":0.0,"pressure":933.3,"uv_index":9.0,"wind_gusts":28.8,"aqi":124,"pm10":54.4,"pm2_5":51.7,"no2":10.6,"co":326.0,"o3":79.0,"so2":16.1,"mosquito_risk":3,"arthritis_risk":5,"migraine_risk":7,"frizz_risk":1,"updated_at":"2026-06-28T04:34:50.223288+05:30"},{"city":"Jamshedpur","state":"Jharkhand","latitude":22.8046,"longitude":86.2029,"temp":27.1,"humidity":90,"rain":0.0,"pressure":986.2,"uv_index":5.55,"wind_gusts":27.7,"aqi":129,"pm10":50.9,"pm2_5":48.1,"no2":26.1,"co":359.0,"o3":33.0,"so2":21.8,"mosquito_risk":7,"arthritis_risk":5,"migraine_risk":3,"frizz_risk":1,"updated_at":"2026-06-28T04:34:50.223295+05:30"},{"city":"Dhanbad","state":"Jharkhand","latitude":23.7957,"longitude":86.4304,"temp":27.6,"humidity":91,"rain":0.0,"pressure":975.0,"uv_index":9.1,"wind_gusts":35.3,"aqi":157,"pm10":92.9,"pm2_5":88.9,"no2":56.9,"co":1404.0,"o3":10.0,"so2":188.3,"mosquito_risk":7,"arthritis_risk":5,"migraine_risk":7,"frizz_risk":1,"updated_at":"2026-06-28T04:34:50.223302+05:30"},{"city":"Bokaro","state":"Jharkhand","latitude":23.6693,"longitude":86.1511,"temp":28.0,"humidity":84,"rain":0.0,"pressure":978.7,"uv_index":9.1,"wind_gusts":36.7,"aqi":160,"pm10":90.1,"pm2_5":85.7,"no2":35.0,"co":486.0,"o3":50.0,"so2":147.7,"mosquito_risk":7,"arthritis_risk":5,"migraine_risk":7,"frizz_risk":1,"updated_at":"2026-06-28T04:34:50.223309+05:30"},{"city":"Bhubaneswar","state":"Odisha","latitude":20.2961,"longitude":85.8245,"temp":27.5,"humidity":93,"rain":0.0,"pressure":997.7,"uv_index":8.75,"wind_gusts":39.2,"aqi":70,"pm10":25.1,"pm2_5":20.5,"no2":9.0,"co":239.0,"o3":56.0,"so2":2.9,"mosquito_risk":7,"arthritis_risk":5,"migraine_risk":7,"frizz_risk":1,"updated_at":"2026-06-28T04:34:50.223316+05:30"},{"city":"Cuttack","state":"Odisha","latitude":20.4625,"longitude":85.8828,"temp":27.8,"humidity":93,"rain":0.0,"pressure":999.5,"uv_index":8.65,"wind_gusts":33.5,"aqi":70,"pm10":25.1,"pm2_5":20.5,"no2":9.0,"co":253.0,"o3":56.0,"so2":2.9,"mosquito_risk":7,"arthritis_risk":5,"migraine_risk":7,"frizz_risk":1,"updated_at":"2026-06-28T04:34:50.223323+05:30"},{"city":"Rourkela","state":"Odisha","latitude":22.2604,"longitude":84.8536,"temp":27.8,"humidity":87,"rain":0.0,"pressure":980.3,"uv_index":9.0,"wind_gusts":44.3,"aqi":116,"pm10":43.0,"pm2_5":39.8,"no2":14.0,"co":314.0,"o3":65.0,"so2":20.8,"mosquito_risk":7,"arthritis_risk":5,"migraine_risk":7,"frizz_risk":1,"updated_at":"2026-06-28T04:34:50.223330+05:30"},{"city":"Raipur","state":"Chhattisgarh","latitude":21.2514,"longitude":81.6296,"temp":27.8,"humidity":84,"rain":0.0,"pressure":969.7,"uv_index":8.95,"wind_gusts":26.3,"aqi":104,"pm10":44.9,"pm2_5":41.9,"no2":33.2,"co":576.0,"o3":44.0,"so2":55.5,"mosquito_risk":7,"arthritis_risk":5,"migraine_risk":7,"frizz_risk":1,"updated_at":"2026-06-28T04:34:50.223336+05:30"},{"city":"Bhilai","state":"Chhattisgarh","latitude":21.1938,"longitude":81.3509,"temp":27.6,"humidity":83,"rain":0.0,"pressure":970.2,"uv_index":8.95,"wind_gusts":35.6,"aqi":106,"pm10":44.2,"pm2_5":41.6,"no2":30.7,"co":694.0,"o3":45.0,"so2":48.2,"mosquito_risk":7,"arthritis_risk":5,"migraine_risk":7,"frizz_risk":1,"updated_at":"2026-06-28T04:34:50.223343+05:30"},{"city":"Guwahati","state":"Assam","latitude":26.1158,"longitude":91.7086,"temp":26.0,"humidity":91,"rain":0.0,"pressure":997.0,"uv_index":7.8,"wind_gusts":34.9,"aqi":80,"pm10":23.5,"pm2_5":21.7,"no2":6.7,"co":297.0,"o3":65.0,"so2":2.3,"mosquito_risk":7,"arthritis_risk":5,"migraine_risk":7,"frizz_risk":1,"updated_at":"2026-06-28T04:34:50.223349+05:30"},{"city":"Agartala","state":"Tripura","latitude":23.8315,"longitude":91.2868,"temp":26.4,"humidity":90,"rain":0.0,"pressure":1002.8,"uv_index":8.05,"wind_gusts":38.2,"aqi":57,"pm10":14.3,"pm2_5":12.5,"no2":9.3,"co":154.0,"o3":38.0,"so2":2.2,"mosquito_risk":7,"arthritis_risk":5,"migraine_risk":4,"frizz_risk":1,"updated_at":"2026-06-28T04:34:50.223356+05:30"},{"city":"Shillong","state":"Meghalaya","latitude":25.5788,"longitude":91.8933,"temp":19.8,"humidity":97,"rain":0.0,"pressure":854.1,"uv_index":8.0,"wind_gusts":37.8,"aqi":54,"pm10":2.9,"pm2_5":2.7,"no2":5.1,"co":156.0,"o3":49.0,"so2":1.5,"mosquito_risk":3,"arthritis_risk":10,"migraine_risk":7,"frizz_risk":1,"updated_at":"2026-06-28T04:34:50.223363+05:30"},{"city":"Imphal","state":"Manipur","latitude":24.817,"longitude":93.9368,"temp":23.0,"humidity":96,"rain":0.0,"pressure":920.1,"uv_index":9.25,"wind_gusts":32.0,"aqi":57,"pm10":11.8,"pm2_5":11.2,"no2":6.3,"co":263.0,"o3":41.0,"so2":2.0,"mosquito_risk":3,"arthritis_risk":5,"migraine_risk":7,"frizz_risk":1,"updated_at":"2026-06-28T04:34:50.223370+05:30"},{"city":"Aizawl","state":"Mizoram","latitude":23.7271,"longitude":92.7176,"temp":20.2,"humidity":92,"rain":0.0,"pressure":889.9,"uv_index":8.2,"wind_gusts":35.6,"aqi":32,"pm10":4.5,"pm2_5":3.7,"no2":2.2,"co":119.0,"o3":36.0,"so2":0.5,"mosquito_risk":3,"arthritis_risk":5,"migraine_risk":7,"frizz_risk":1,"updated_at":"2026-06-28T04:34:50.223376+05:30"},{"city":"Kohima","state":"Nagaland","latitude":25.6701,"longitude":94.1077,"temp":20.1,"humidity":92,"rain":0.1,"pressure":852.4,"uv_index":7.4,"wind_gusts":25.6,"aqi":47,"pm10":10.0,"pm2_5":8.5,"no2":3.8,"co":229.0,"o3":49.0,"so2":1.2,"mosquito_risk":6,"arthritis_risk":5,"migraine_risk":7,"frizz_risk":1,"updated_at":"2026-06-28T04:34:50.223383+05:30"},{"city":"Gangtok","state":"Sikkim","latitude":27.3314,"longitude":88.6138,"temp":18.7,"humidity":96,"rain":0.3,"pressure":834.8,"uv_index":6.7,"wind_gusts":31.0,"aqi":76,"pm10":10.5,"pm2_5":9.2,"no2":4.3,"co":327.0,"o3":130.0,"so2":2.7,"mosquito_risk":6,"arthritis_risk":10,"migraine_risk":7,"frizz_risk":1,"updated_at":"2026-06-28T04:34:50.223389+05:30"},{"city":"Siliguri","state":"West Bengal","latitude":26.7271,"longitude":88.3953,"temp":24.7,"humidity":99,"rain":0.2,"pressure":988.7,"uv_index":8.8,"wind_gusts":19.8,"aqi":90,"pm10":30.3,"pm2_5":25.3,"no2":7.1,"co":368.0,"o3":120.0,"so2":3.1,"mosquito_risk":6,"arthritis_risk":5,"migraine_risk":7,"frizz_risk":1,"updated_at":"2026-06-28T04:34:53.594612+05:30"},{"city":"Durgapur","state":"West Bengal","latitude":23.5204,"longitude":87.3119,"temp":27.2,"humidity":94,"rain":0.0,"pressure":990.2,"uv_index":9.05,"wind_gusts":28.8,"aqi":127,"pm10":49.4,"pm2_5":48.1,"no2":32.8,"co":557.0,"o3":29.0,"so2":39.8,"mosquito_risk":7,"arthritis_risk":5,"migraine_risk":7,"frizz_risk":1,"updated_at":"2026-06-28T04:34:53.594645+05:30"},{"city":"Asansol","state":"West Bengal","latitude":23.6739,"longitude":86.9524,"temp":27.4,"humidity":92,"rain":0.0,"pressure":988.7,"uv_index":8.85,"wind_gusts":37.4,"aqi":129,"pm10":50.3,"pm2_5":48.0,"no2":33.5,"co":397.0,"o3":21.0,"so2":40.2,"mosquito_risk":7,"arthritis_risk":5,"migraine_risk":7,"frizz_risk":1,"updated_at":"2026-06-28T04:34:53.594656+05:30"},{"city":"Pondicherry","state":"Puducherry","latitude":11.9139,"longitude":79.8145,"temp":26.7,"humidity":84,"rain":0.0,"pressure":1005.4,"uv_index":8.4,"wind_gusts":41.4,"aqi":65,"pm10":20.9,"pm2_5":16.4,"no2":14.2,"co":335.0,"o3":49.0,"so2":10.4,"mosquito_risk":7,"arthritis_risk":5,"migraine_risk":4,"frizz_risk":1,"updated_at":"2026-06-28T04:34:53.594665+05:30"},{"city":"Port Blair","state":"Andaman and Nicobar Islands","latitude":11.6234,"longitude":92.7265,"temp":25.2,"humidity":94,"rain":0.1,"pressure":1005.4,"uv_index":2.25,"wind_gusts":41.8,"aqi":18,"pm10":9.4,"pm2_5":5.6,"no2":0.3,"co":89.0,"o3":41.0,"so2":0.2,"mosquito_risk":10,"arthritis_risk":5,"migraine_risk":0,"frizz_risk":1,"updated_at":"2026-06-28T04:34:53.594673+05:30"},{"city":"Haridwar","state":"Uttarakhand","latitude":29.9457,"longitude":78.1642,"temp":27.9,"humidity":73,"rain":0.0,"pressure":967.7,"uv_index":7.05,"wind_gusts":27.7,"aqi":147,"pm10":85.0,"pm2_5":66.4,"no2":35.4,"co":335.0,"o3":19.0,"so2":5.8,"mosquito_risk":7,"arthritis_risk":5,"migraine_risk":7,"frizz_risk":1,"updated_at":"2026-06-28T04:34:53.594682+05:30"},{"city":"Rishikesh","state":"Uttarakhand","latitude":30.0869,"longitude":78.2676,"temp":26.0,"humidity":81,"rain":0.0,"pressure":960.8,"uv_index":6.55,"wind_gusts":31.3,"aqi":114,"pm10":98.0,"pm2_5":52.2,"no2":14.7,"co":360.0,"o3":77.0,"so2":4.8,"mosquito_risk":7,"arthritis_risk":5,"migraine_risk":7,"frizz_risk":1,"updated_at":"2026-06-28T04:34:53.594690+05:30"},{"city":"Nainital","state":"Uttarakhand","latitude":29.3919,"longitude":79.4542,"temp":15.5,"humidity":94,"rain":0.0,"pressure":802.5,"uv_index":6.75,"wind_gusts":28.4,"aqi":124,"pm10":94.3,"pm2_5":52.0,"no2":15.4,"co":312.0,"o3":74.0,"so2":5.5,"mosquito_risk":3,"arthritis_risk":10,"migraine_risk":7,"frizz_risk":0,"updated_at":"2026-06-28T04:34:53.594698+05:30"},{"city":"Mussoorie","state":"Uttarakhand","latitude":30.4599,"longitude":78.0664,"temp":15.3,"humidity":95,"rain":0.1,"pressure":799.8,"uv_index":5.7,"wind_gusts":40.7,"aqi":116,"pm10":60.1,"pm2_5":44.2,"no2":35.4,"co":264.0,"o3":14.0,"so2":4.0,"mosquito_risk":6,"arthritis_risk":10,"migraine_risk":3,"frizz_risk":0,"updated_at":"2026-06-28T04:34:53.594707+05:30"},{"city":"Dharamshala","state":"Himachal Pradesh","latitude":32.219,"longitude":76.3234,"temp":20.9,"humidity":87,"rain":0.2,"pressure":864.9,"uv_index":7.9,"wind_gusts":31.0,"aqi":59,"pm10":20.2,"pm2_5":15.4,"no2":11.5,"co":246.0,"o3":61.0,"so2":0.0,"mosquito_risk":6,"arthritis_risk":5,"migraine_risk":7,"frizz_risk":1,"updated_at":"2026-06-28T04:34:53.594715+05:30"},{"city":"Dalhousie","state":"Himachal Pradesh","latitude":32.5387,"longitude":75.971,"temp":15.2,"humidity":94,"rain":0.0,"pressure":800.2,"uv_index":7.1,"wind_gusts":33.1,"aqi":108,"pm10":36.0,"pm2_5":28.2,"no2":14.3,"co":336.0,"o3":59.0,"so2":0.7,"mosquito_risk":3,"arthritis_risk":10,"migraine_risk":7,"frizz_risk":0,"updated_at":"2026-06-28T04:34:53.594723+05:30"},{"city":"Patiala","state":"Punjab","latitude":30.3398,"longitude":76.3869,"temp":30.6,"humidity":67,"rain":0.0,"pressure":971.5,"uv_index":7.65,"wind_gusts":33.5,"aqi":166,"pm10":177.0,"pm2_5":109.2,"no2":49.3,"co":827.0,"o3":18.0,"so2":8.5,"mosquito_risk":3,"arthritis_risk":5,"migraine_risk":7,"frizz_risk":1,"updated_at":"2026-06-28T04:34:53.594730+05:30"},{"city":"Bhatinda","state":"Punjab","latitude":30.211,"longitude":74.9455,"temp":30.7,"humidity":73,"rain":0.0,"pressure":976.4,"uv_index":8.05,"wind_gusts":27.0,"aqi":156,"pm10":110.8,"pm2_5":88.5,"no2":63.7,"co":639.0,"o3":14.0,"so2":8.7,"mosquito_risk":3,"arthritis_risk":5,"migraine_risk":7,"frizz_risk":1,"updated_at":"2026-06-28T04:34:53.594737+05:30"},{"city":"Rohtak","state":"Haryana","latitude":28.8955,"longitude":76.6066,"temp":29.9,"humidity":69,"rain":0.0,"pressure":974.5,"uv_index":7.1,"wind_gusts":28.8,"aqi":174,"pm10":260.8,"pm2_5":115.5,"no2":70.2,"co":790.0,"o3":0.0,"so2":14.0,"mosquito_risk":7,"arthritis_risk":5,"migraine_risk":7,"frizz_risk":1,"updated_at":"2026-06-28T04:34:53.594743+05:30"},{"city":"Panipat","state":"Haryana","latitude":29.3909,"longitude":76.9635,"temp":30.0,"humidity":69,"rain":0.0,"pressure":973.5,"uv_index":6.8,"wind_gusts":28.8,"aqi":443,"pm10":277.5,"pm2_5":136.4,"no2":73.4,"co":951.0,"o3":0.0,"so2":14.1,"mosquito_risk":7,"arthritis_risk":5,"migraine_risk":7,"frizz_risk":1,"updated_at":"2026-06-28T04:34:53.594751+05:30"},{"city":"Mathura","state":"Uttar Pradesh","latitude":27.4924,"longitude":77.6737,"temp":30.8,"humidity":59,"rain":0.0,"pressure":980.3,"uv_index":7.4,"wind_gusts":31.0,"aqi":153,"pm10":213.3,"pm2_5":51.6,"no2":27.4,"co":279.0,"o3":30.0,"so2":3.7,"mosquito_risk":0,"arthritis_risk":5,"migraine_risk":7,"frizz_risk":1,"updated_at":"2026-06-28T04:34:53.594758+05:30"},{"city":"Vrindavan","state":"Uttar Pradesh","latitude":27.5823,"longitude":77.7027,"temp":30.6,"humidity":61,"rain":0.0,"pressure":980.6,"uv_index":7.4,"wind_gusts":28.4,"aqi":153,"pm10":213.3,"pm2_5":51.6,"no2":27.4,"co":334.0,"o3":30.0,"so2":3.7,"mosquito_risk":3,"arthritis_risk":5,"migraine_risk":7,"frizz_risk":1,"updated_at":"2026-06-28T04:34:53.594765+05:30"},{"city":"Ayodhya","state":"Uttar Pradesh","latitude":26.7922,"longitude":82.1998,"temp":27.8,"humidity":93,"rain":0.0,"pressure":989.4,"uv_index":8.0,"wind_gusts":23.4,"aqi":140,"pm10":78.9,"pm2_5":59.4,"no2":18.6,"co":504.0,"o3":61.0,"so2":4.8,"mosquito_risk":7,"arthritis_risk":5,"migraine_risk":7,"frizz_risk":1,"updated_at":"2026-06-28T04:34:53.594772+05:30"},{"city":"Ratlam","state":"Madhya Pradesh","latitude":23.3315,"longitude":75.0367,"temp":25.6,"humidity":85,"rain":0.0,"pressure":949.8,"uv_index":8.1,"wind_gusts":32.0,"aqi":80,"pm10":38.8,"pm2_5":27.5,"no2":8.6,"co":199.0,"o3":58.0,"so2":4.8,"mosquito_risk":7,"arthritis_risk":5,"migraine_risk":7,"frizz_risk":1,"updated_at":"2026-06-28T04:34:53.594779+05:30"},{"city":"Sagar","state":"Madhya Pradesh","latitude":23.8388,"longitude":78.7378,"temp":26.0,"humidity":86,"rain":0.0,"pressure":945.3,"uv_index":8.1,"wind_gusts":24.1,"aqi":69,"pm10":33.4,"pm2_5":25.9,"no2":9.2,"co":273.0,"o3":61.0,"so2":2.2,"mosquito_risk":7,"arthritis_risk":5,"migraine_risk":7,"frizz_risk":1,"updated_at":"2026-06-28T04:34:53.594786+05:30"},{"city":"Satna","state":"Madhya Pradesh","latitude":24.6005,"longitude":80.8322,"temp":28.9,"humidity":75,"rain":0.0,"pressure":966.0,"uv_index":6.35,"wind_gusts":25.9,"aqi":72,"pm10":29.3,"pm2_5":24.5,"no2":11.1,"co":196.0,"o3":58.0,"so2":1.9,"mosquito_risk":7,"arthritis_risk":5,"migraine_risk":7,"frizz_risk":1,"updated_at":"2026-06-28T04:34:53.594793+05:30"},{"city":"Akola","state":"Maharashtra","latitude":20.7002,"longitude":77.0082,"temp":26.8,"humidity":86,"rain":0.0,"pressure":970.2,"uv_index":5.8,"wind_gusts":34.2,"aqi":84,"pm10":38.9,"pm2_5":29.6,"no2":14.2,"co":168.0,"o3":45.0,"so2":6.5,"mosquito_risk":7,"arthritis_risk":5,"migraine_risk":3,"frizz_risk":1,"updated_at":"2026-06-28T04:34:53.594801+05:30"},{"city":"Amravati","state":"Maharashtra","latitude":20.9374,"longitude":77.7796,"temp":26.1,"humidity":91,"rain":0.0,"pressure":962.4,"uv_index":8.45,"wind_gusts":36.0,"aqi":80,"pm10":35.4,"pm2_5":27.8,"no2":13.4,"co":206.0,"o3":48.0,"so2":6.3,"mosquito_risk":7,"arthritis_risk":5,"migraine_risk":7,"frizz_risk":1,"updated_at":"2026-06-28T04:34:53.594809+05:30"},{"city":"Latur","state":"Maharashtra","latitude":18.4088,"longitude":76.5604,"temp":24.3,"humidity":91,"rain":0.0,"pressure":935.4,"uv_index":6.9,"wind_gusts":28.8,"aqi":89,"pm10":48.7,"pm2_5":29.9,"no2":12.0,"co":165.0,"o3":42.0,"so2":3.1,"mosquito_risk":3,"arthritis_risk":5,"migraine_risk":7,"frizz_risk":1,"updated_at":"2026-06-28T04:34:53.594816+05:30"},{"city":"Nanded","state":"Maharashtra","latitude":19.1383,"longitude":77.3091,"temp":25.6,"humidity":90,"rain":0.0,"pressure":964.3,"uv_index":8.2,"wind_gusts":29.2,"aqi":90,"pm10":55.3,"pm2_5":30.6,"no2":10.2,"co":183.0,"o3":57.0,"so2":4.3,"mosquito_risk":7,"arthritis_risk":5,"migraine_risk":7,"frizz_risk":1,"updated_at":"2026-06-28T04:34:53.594823+05:30"},{"city":"Gulbarga","state":"Karnataka","latitude":17.3297,"longitude":76.8343,"temp":24.2,"humidity":93,"rain":0.1,"pressure":955.0,"uv_index":8.6,"wind_gusts":40.0,"aqi":64,"pm10":9.7,"pm2_5":7.7,"no2":10.9,"co":152.0,"o3":37.0,"so2":2.5,"mosquito_risk":6,"arthritis_risk":5,"migraine_risk":7,"frizz_risk":1,"updated_at":"2026-06-28T04:34:53.594830+05:30"},{"city":"Bidar","state":"Karnataka","latitude":17.9104,"longitude":77.5199,"temp":23.5,"humidity":95,"rain":0.0,"pressure":931.5,"uv_index":8.35,"wind_gusts":37.1,"aqi":84,"pm10":31.7,"pm2_5":20.6,"no2":11.8,"co":164.0,"o3":58.0,"so2":3.6,"mosquito_risk":3,"arthritis_risk":5,"migraine_risk":7,"frizz_risk":1,"updated_at":"2026-06-28T04:34:53.594837+05:30"},{"city":"Hospet","state":"Karnataka","latitude":15.2689,"longitude":76.3909,"temp":24.1,"humidity":86,"rain":0.0,"pressure":952.9,"uv_index":7.85,"wind_gusts":46.4,"aqi":27,"pm10":5.2,"pm2_5":3.9,"no2":5.7,"co":111.0,"o3":35.0,"so2":1.5,"mosquito_risk":3,"arthritis_risk":5,"migraine_risk":7,"frizz_risk":1,"updated_at":"2026-06-28T04:34:53.594843+05:30"},{"city":"Tirupur","state":"Tamil Nadu","latitude":11.1085,"longitude":77.3411,"temp":23.7,"humidity":90,"rain":0.0,"pressure":973.3,"uv_index":8.9,"wind_gusts":55.1,"aqi":55,"pm10":19.5,"pm2_5":14.6,"no2":15.3,"co":114.0,"o3":23.0,"so2":4.3,"mosquito_risk":3,"arthritis_risk":5,"migraine_risk":7,"frizz_risk":1,"updated_at":"2026-06-28T04:34:53.594850+05:30"},{"city":"Alappuzha","state":"Kerala","latitude":9.4981,"longitude":76.3388,"temp":24.9,"humidity":95,"rain":0.1,"pressure":1008.0,"uv_index":8.5,"wind_gusts":44.6,"aqi":54,"pm10":19.3,"pm2_5":10.1,"no2":6.8,"co":85.0,"o3":41.0,"so2":2.4,"mosquito_risk":6,"arthritis_risk":0,"migraine_risk":4,"frizz_risk":1,"updated_at":"2026-06-28T04:34:53.594856+05:30"},{"city":"Munnar","state":"Kerala","latitude":10.0889,"longitude":77.0595,"temp":16.4,"humidity":98,"rain":0.0,"pressure":854.4,"uv_index":7.95,"wind_gusts":41.0,"aqi":31,"pm10":12.9,"pm2_5":7.7,"no2":5.8,"co":91.0,"o3":24.0,"so2":1.3,"mosquito_risk":3,"arthritis_risk":10,"migraine_risk":7,"frizz_risk":1,"updated_at":"2026-06-28T04:34:53.594864+05:30"},{"city":"Silchar","state":"Assam","latitude":24.8333,"longitude":92.7789,"temp":25.6,"humidity":96,"rain":0.1,"pressure":1002.0,"uv_index":8.5,"wind_gusts":32.4,"aqi":65,"pm10":19.0,"pm2_5":16.5,"no2":8.6,"co":211.0,"o3":43.0,"so2":3.6,"mosquito_risk":10,"arthritis_risk":5,"migraine_risk":4,"frizz_risk":1,"updated_at":"2026-06-28T04:34:53.594870+05:30"},{"city":"Dibrugarh","state":"Assam","latitude":27.4728,"longitude":94.912,"temp":24.7,"humidity":99,"rain":0.1,"pressure":990.6,"uv_index":7.45,"wind_gusts":41.0,"aqi":66,"pm10":22.4,"pm2_5":19.4,"no2":6.8,"co":222.0,"o3":85.0,"so2":2.0,"mosquito_risk":6,"arthritis_risk":5,"migraine_risk":7,"frizz_risk":1,"updated_at":"2026-06-28T04:34:53.594877+05:30"}]