[{"city":"Delhi","state":"Delhi","latitude":28.6139,"longitude":77.209,"temp":31.0,"humidity":44,"rain":0.0,"pressure":978.5,"uv_index":7.1,"wind_gusts":56.9,"aqi":586,"pm10":301.7,"pm2_5":41.2,"mosquito_risk":0,"arthritis_risk":5,"migraine_risk":7,"frizz_risk":1,"updated_at":"2026-04-28T14:54:38.637973+05:30"},{"city":"Mumbai","state":"Maharashtra","latitude":19.076,"longitude":72.8777,"temp":33.5,"humidity":52,"rain":0.0,"pressure":1005.1,"uv_index":8.05,"wind_gusts":40.0,"aqi":93,"pm10":63.6,"pm2_5":35.5,"mosquito_risk":0,"arthritis_risk":5,"migraine_risk":4,"frizz_risk":1,"updated_at":"2026-04-28T14:54:38.638015+05:30"},{"city":"Bangalore","state":"Karnataka","latitude":12.9716,"longitude":77.5946,"temp":36.6,"humidity":20,"rain":0.0,"pressure":910.1,"uv_index":9.2,"wind_gusts":33.8,"aqi":114,"pm10":49.0,"pm2_5":31.8,"mosquito_risk":0,"arthritis_risk":5,"migraine_risk":10,"frizz_risk":0,"updated_at":"2026-04-28T14:54:38.638032+05:30"},{"city":"Hyderabad","state":"Telangana","latitude":17.385,"longitude":78.4867,"temp":39.3,"humidity":17,"rain":0.0,"pressure":949.6,"uv_index":9.3,"wind_gusts":36.4,"aqi":115,"pm10":48.1,"pm2_5":37.5,"mosquito_risk":0,"arthritis_risk":5,"migraine_risk":10,"frizz_risk":0,"updated_at":"2026-04-28T14:54:38.638042+05:30"},{"city":"Chennai","state":"Tamil Nadu","latitude":13.0827,"longitude":80.2707,"temp":34.9,"humidity":45,"rain":0.0,"pressure":1002.9,"uv_index":8.4,"wind_gusts":55.4,"aqi":51,"pm10":18.0,"pm2_5":14.3,"mosquito_risk":0,"arthritis_risk":5,"migraine_risk":4,"frizz_risk":1,"updated_at":"2026-04-28T14:54:38.638051+05:30"},{"city":"Kolkata","state":"West Bengal","latitude":22.5726,"longitude":88.3639,"temp":36.8,"humidity":49,"rain":0.0,"pressure":998.1,"uv_index":8.85,"wind_gusts":49.3,"aqi":67,"pm10":37.4,"pm2_5":30.6,"mosquito_risk":0,"arthritis_risk":5,"migraine_risk":10,"frizz_risk":1,"updated_at":"2026-04-28T14:54:38.638060+05:30"},{"city":"Pune","state":"Maharashtra","latitude":18.5204,"longitude":73.8567,"temp":39.3,"humidity":15,"rain":0.0,"pressure":945.6,"uv_index":8.6,"wind_gusts":42.8,"aqi":73,"pm10":35.6,"pm2_5":23.2,"mosquito_risk":0,"arthritis_risk":5,"migraine_risk":10,"frizz_risk":0,"updated_at":"2026-04-28T14:54:38.638072+05:30"},{"city":"Ahmedabad","state":"Gujarat","latitude":23.0225,"longitude":72.5714,"temp":42.1,"humidity":16,"rain":0.0,"pressure":996.3,"uv_index":8.2,"wind_gusts":46.4,"aqi":47,"pm10":51.3,"pm2_5":13.5,"mosquito_risk":0,"arthritis_risk":5,"migraine_risk":10,"frizz_risk":0,"updated_at":"2026-04-28T14:54:38.638079+05:30"},{"city":"Jaipur","state":"Rajasthan","latitude":26.9124,"longitude":75.7873,"temp":39.2,"humidity":15,"rain":0.0,"pressure":954.9,"uv_index":8.1,"wind_gusts":37.1,"aqi":159,"pm10":135.0,"pm2_5":17.6,"mosquito_risk":0,"arthritis_risk":5,"migraine_risk":10,"frizz_risk":0,"updated_at":"2026-04-28T14:54:38.638087+05:30"},{"city":"Lucknow","state":"Uttar Pradesh","latitude":26.8467,"longitude":80.9462,"temp":41.2,"humidity":19,"rain":0.0,"pressure":985.9,"uv_index":7.9,"wind_gusts":39.6,"aqi":135,"pm10":150.9,"pm2_5":39.8,"mosquito_risk":0,"arthritis_risk":5,"migraine_risk":10,"frizz_risk":0,"updated_at":"2026-04-28T14:54:38.638095+05:30"},{"city":"Kanpur","state":"Uttar Pradesh","latitude":26.4499,"longitude":80.3319,"temp":42.4,"humidity":14,"rain":0.0,"pressure":984.0,"uv_index":7.95,"wind_gusts":40.3,"aqi":183,"pm10":512.2,"pm2_5":67.3,"mosquito_risk":0,"arthritis_risk":5,"migraine_risk":10,"frizz_risk":0,"updated_at":"2026-04-28T14:54:38.638102+05:30"},{"city":"Chandigarh","state":"Chandigarh","latitude":30.7333,"longitude":76.7794,"temp":31.1,"humidity":39,"rain":0.0,"pressure":965.2,"uv_index":5.8,"wind_gusts":34.2,"aqi":86,"pm10":45.3,"pm2_5":15.1,"mosquito_risk":0,"arthritis_risk":5,"migraine_risk":3,"frizz_risk":0,"updated_at":"2026-04-28T14:54:38.638110+05:30"},{"city":"Srinagar","state":"Jammu and Kashmir","latitude":34.0837,"longitude":74.7973,"temp":16.3,"humidity":85,"rain":0.1,"pressure":840.6,"uv_index":5.1,"wind_gusts":19.1,"aqi":82,"pm10":27.9,"pm2_5":20.3,"mosquito_risk":6,"arthritis_risk":10,"migraine_risk":3,"frizz_risk":0,"updated_at":"2026-04-28T14:54:38.638119+05:30"},{"city":"Jammu","state":"Jammu and Kashmir","latitude":32.7266,"longitude":74.857,"temp":30.4,"humidity":38,"rain":0.0,"pressure":969.5,"uv_index":6.6,"wind_gusts":27.0,"aqi":58,"pm10":27.5,"pm2_5":9.1,"mosquito_risk":0,"arthritis_risk":5,"migraine_risk":7,"frizz_risk":0,"updated_at":"2026-04-28T14:54:38.638126+05:30"},{"city":"Amritsar","state":"Punjab","latitude":31.634,"longitude":74.8723,"temp":34.5,"humidity":27,"rain":0.0,"pressure":976.2,"uv_index":6.9,"wind_gusts":32.8,"aqi":85,"pm10":70.8,"pm2_5":20.0,"mosquito_risk":0,"arthritis_risk":5,"migraine_risk":7,"frizz_risk":0,"updated_at":"2026-04-28T14:54:38.638133+05:30"},{"city":"Ludhiana","state":"Punjab","latitude":30.901,"longitude":75.8573,"temp":34.3,"humidity":28,"rain":0.0,"pressure":973.8,"uv_index":6.75,"wind_gusts":37.1,"aqi":76,"pm10":52.4,"pm2_5":18.0,"mosquito_risk":0,"arthritis_risk":5,"migraine_risk":7,"frizz_risk":0,"updated_at":"2026-04-28T14:54:38.638140+05:30"},{"city":"Jalandhar","state":"Punjab","latitude":31.326,"longitude":75.5762,"temp":31.1,"humidity":37,"rain":0.0,"pressure":975.2,"uv_index":6.9,"wind_gusts":37.8,"aqi":81,"pm10":76.1,"pm2_5":20.7,"mosquito_risk":0,"arthritis_risk":5,"migraine_risk":7,"frizz_risk":0,"updated_at":"2026-04-28T14:54:38.638149+05:30"},{"city":"Dehradun","state":"Uttarakhand","latitude":30.6284,"longitude":78.0322,"temp":23.2,"humidity":33,"rain":0.0,"pressure":829.6,"uv_index":4.95,"wind_gusts":43.2,"aqi":74,"pm10":43.1,"pm2_5":14.0,"mosquito_risk":0,"arthritis_risk":5,"migraine_risk":3,"frizz_risk":0,"updated_at":"2026-04-28T14:54:38.638156+05:30"},{"city":"Shimla","state":"Himachal Pradesh","latitude":31.1048,"longitude":77.1734,"temp":16.3,"humidity":57,"rain":0.1,"pressure":782.7,"uv_index":3.75,"wind_gusts":39.6,"aqi":81,"pm10":47.8,"pm2_5":13.0,"mosquito_risk":3,"arthritis_risk":5,"migraine_risk":3,"frizz_risk":0,"updated_at":"2026-04-28T14:54:38.638163+05:30"},{"city":"Manali","state":"Himachal Pradesh","latitude":32.2396,"longitude":77.1887,"temp":15.2,"humidity":64,"rain":0.2,"pressure":815.8,"uv_index":9.65,"wind_gusts":40.7,"aqi":100,"pm10":16.8,"pm2_5":8.3,"mosquito_risk":6,"arthritis_risk":5,"migraine_risk":7,"frizz_risk":0,"updated_at":"2026-04-28T14:54:38.638172+05:30"},{"city":"Gurgaon","state":"Haryana","latitude":28.4595,"longitude":77.0266,"temp":35.0,"humidity":30,"rain":0.0,"pressure":976.9,"uv_index":7.5,"wind_gusts":54.7,"aqi":1300,"pm10":1113.9,"pm2_5":103.4,"mosquito_risk":0,"arthritis_risk":5,"migraine_risk":7,"frizz_risk":0,"updated_at":"2026-04-28T14:54:38.638180+05:30"},{"city":"Noida","state":"Uttar Pradesh","latitude":28.5355,"longitude":77.391,"temp":31.6,"humidity":45,"rain":0.0,"pressure":980.6,"uv_index":7.5,"wind_gusts":47.9,"aqi":1300,"pm10":1113.9,"pm2_5":103.4,"mosquito_risk":0,"arthritis_risk":5,"migraine_risk":7,"frizz_risk":1,"updated_at":"2026-04-28T14:54:38.638188+05:30"},{"city":"Ghaziabad","state":"Uttar Pradesh","latitude":28.6692,"longitude":77.4538,"temp":34.3,"humidity":33,"rain":0.0,"pressure":978.3,"uv_index":7.15,"wind_gusts":32.4,"aqi":477,"pm10":228.2,"pm2_5":35.0,"mosquito_risk":0,"arthritis_risk":5,"migraine_risk":7,"frizz_risk":0,"updated_at":"2026-04-28T14:54:38.638194+05:30"},{"city":"Faridabad","state":"Haryana","latitude":28.4089,"longitude":77.3178,"temp":27.5,"humidity":65,"rain":0.0,"pressure":980.2,"uv_index":7.55,"wind_gusts":59.0,"aqi":1300,"pm10":1113.9,"pm2_5":103.4,"mosquito_risk":7,"arthritis_risk":5,"migraine_risk":7,"frizz_risk":1,"updated_at":"2026-04-28T14:54:38.638201+05:30"},{"city":"Meerut","state":"Uttar Pradesh","latitude":28.9845,"longitude":77.7064,"temp":34.5,"humidity":31,"rain":0.0,"pressure":976.5,"uv_index":6.85,"wind_gusts":37.1,"aqi":477,"pm10":228.2,"pm2_5":35.0,"mosquito_risk":0,"arthritis_risk":5,"migraine_risk":7,"frizz_risk":0,"updated_at":"2026-04-28T14:54:38.638207+05:30"},{"city":"Agra","state":"Uttar Pradesh","latitude":27.1767,"longitude":78.0081,"temp":40.7,"humidity":18,"rain":0.0,"pressure":981.3,"uv_index":7.8,"wind_gusts":40.7,"aqi":613,"pm10":685.5,"pm2_5":61.7,"mosquito_risk":0,"arthritis_risk":5,"migraine_risk":10,"frizz_risk":0,"updated_at":"2026-04-28T14:54:38.638214+05:30"},{"city":"Varanasi","state":"Uttar Pradesh","latitude":25.3176,"longitude":82.9739,"temp":41.7,"humidity":20,"rain":0.0,"pressure":989.3,"uv_index":8.5,"wind_gusts":40.0,"aqi":154,"pm10":160.2,"pm2_5":38.4,"mosquito_risk":0,"arthritis_risk":5,"migraine_risk":10,"frizz_risk":0,"updated_at":"2026-04-28T14:54:38.638223+05:30"},{"city":"Prayagraj","state":"Uttar Pradesh","latitude":25.4358,"longitude":81.8463,"temp":42.0,"humidity":19,"rain":0.0,"pressure":987.7,"uv_index":8.4,"wind_gusts":40.7,"aqi":142,"pm10":256.1,"pm2_5":49.9,"mosquito_risk":0,"arthritis_risk":5,"migraine_risk":10,"frizz_risk":0,"updated_at":"2026-04-28T14:54:38.638230+05:30"},{"city":"Gorakhpur","state":"Uttar Pradesh","latitude":26.7606,"longitude":83.3732,"temp":36.2,"humidity":36,"rain":0.0,"pressure":989.7,"uv_index":8.3,"wind_gusts":29.9,"aqi":118,"pm10":81.3,"pm2_5":37.4,"mosquito_risk":0,"arthritis_risk":5,"migraine_risk":10,"frizz_risk":1,"updated_at":"2026-04-28T14:54:38.638236+05:30"},{"city":"Bareilly","state":"Uttar Pradesh","latitude":28.367,"longitude":79.4304,"temp":38.5,"humidity":25,"rain":0.0,"pressure":979.9,"uv_index":7.75,"wind_gusts":45.7,"aqi":131,"pm10":58.9,"pm2_5":24.6,"mosquito_risk":0,"arthritis_risk":5,"migraine_risk":10,"frizz_risk":0,"updated_at":"2026-04-28T14:54:38.638242+05:30"},{"city":"Aligarh","state":"Uttar Pradesh","latitude":27.8974,"longitude":78.088,"temp":39.8,"humidity":20,"rain":0.0,"pressure":979.1,"uv_index":7.65,"wind_gusts":50.0,"aqi":745,"pm10":653.8,"pm2_5":69.2,"mosquito_risk":0,"arthritis_risk":5,"migraine_risk":10,"frizz_risk":0,"updated_at":"2026-04-28T14:54:38.638249+05:30"},{"city":"Moradabad","state":"Uttar Pradesh","latitude":28.8386,"longitude":78.7733,"temp":38.2,"humidity":23,"rain":0.0,"pressure":977.4,"uv_index":7.4,"wind_gusts":42.5,"aqi":147,"pm10":65.9,"pm2_5":27.1,"mosquito_risk":0,"arthritis_risk":5,"migraine_risk":10,"frizz_risk":0,"updated_at":"2026-04-28T14:54:38.638255+05:30"},{"city":"Saharanpur","state":"Uttar Pradesh","latitude":29.9637,"longitude":77.546,"temp":34.8,"humidity":25,"rain":0.0,"pressure":970.7,"uv_index":6.65,"wind_gusts":42.5,"aqi":104,"pm10":94.3,"pm2_5":22.3,"mosquito_risk":0,"arthritis_risk":5,"migraine_risk":7,"frizz_risk":0,"updated_at":"2026-04-28T14:54:38.638261+05:30"},{"city":"Jhansi","state":"Uttar Pradesh","latitude":25.4484,"longitude":78.5685,"temp":40.8,"humidity":15,"rain":0.0,"pressure":971.8,"uv_index":8.3,"wind_gusts":33.8,"aqi":53,"pm10":33.1,"pm2_5":10.1,"mosquito_risk":0,"arthritis_risk":5,"migraine_risk":10,"frizz_risk":0,"updated_at":"2026-04-28T14:54:42.003175+05:30"},{"city":"Surat","state":"Gujarat","latitude":21.1702,"longitude":72.8311,"temp":37.3,"humidity":35,"rain":0.0,"pressure":1002.3,"uv_index":7.9,"wind_gusts":45.0,"aqi":89,"pm10":52.2,"pm2_5":30.4,"mosquito_risk":0,"arthritis_risk":5,"migraine_risk":7,"frizz_risk":1,"updated_at":"2026-04-28T14:54:42.003202+05:30"},{"city":"Vadodara","state":"Gujarat","latitude":22.3072,"longitude":73.1812,"temp":42.3,"humidity":11,"rain":0.0,"pressure":998.8,"uv_index":8.15,"wind_gusts":46.8,"aqi":67,"pm10":31.4,"pm2_5":11.2,"mosquito_risk":0,"arthritis_risk":5,"migraine_risk":10,"frizz_risk":0,"updated_at":"2026-04-28T14:54:42.003211+05:30"},{"city":"Rajkot","state":"Gujarat","latitude":22.3039,"longitude":70.8022,"temp":42.3,"humidity":16,"rain":0.0,"pressure":989.1,"uv_index":7.9,"wind_gusts":51.1,"aqi":45,"pm10":41.9,"pm2_5":13.0,"mosquito_risk":0,"arthritis_risk":5,"migraine_risk":10,"frizz_risk":0,"updated_at":"2026-04-28T14:54:42.003219+05:30"},{"city":"Thane","state":"Maharashtra","latitude":19.2183,"longitude":72.9781,"temp":37.7,"humidity":34,"rain":0.0,"pressure":1003.8,"uv_index":8.05,"wind_gusts":37.1,"aqi":93,"pm10":63.6,"pm2_5":35.5,"mosquito_risk":0,"arthritis_risk":5,"migraine_risk":7,"frizz_risk":1,"updated_at":"2026-04-28T14:54:42.003226+05:30"},{"city":"Nagpur","state":"Maharashtra","latitude":21.1458,"longitude":79.0882,"temp":43.6,"humidity":10,"rain":0.0,"pressure":967.6,"uv_index":8.85,"wind_gusts":50.8,"aqi":105,"pm10":26.7,"pm2_5":19.6,"mosquito_risk":0,"arthritis_risk":5,"migraine_risk":10,"frizz_risk":0,"updated_at":"2026-04-28T14:54:42.003233+05:30"},{"city":"Nashik","state":"Maharashtra","latitude":19.9975,"longitude":73.7898,"temp":38.5,"humidity":16,"rain":0.0,"pressure":943.4,"uv_index":8.3,"wind_gusts":43.2,"aqi":71,"pm10":24.9,"pm2_5":12.9,"mosquito_risk":0,"arthritis_risk":5,"migraine_risk":10,"frizz_risk":0,"updated_at":"2026-04-28T14:54:42.003239+05:30"},{"city":"Aurangabad","state":"Maharashtra","latitude":19.8762,"longitude":75.3433,"temp":40.3,"humidity":13,"rain":0.0,"pressure":941.4,"uv_index":9.0,"wind_gusts":42.5,"aqi":69,"pm10":28.3,"pm2_5":18.8,"mosquito_risk":0,"arthritis_risk":5,"migraine_risk":10,"frizz_risk":0,"updated_at":"2026-04-28T14:54:42.003246+05:30"},{"city":"Solapur","state":"Maharashtra","latitude":17.6599,"longitude":75.9064,"temp":41.7,"humidity":15,"rain":0.0,"pressure":953.2,"uv_index":9.1,"wind_gusts":37.8,"aqi":86,"pm10":34.9,"pm2_5":23.5,"mosquito_risk":0,"arthritis_risk":5,"migraine_risk":10,"frizz_risk":0,"updated_at":"2026-04-28T14:54:42.003253+05:30"},{"city":"Kolhapur","state":"Maharashtra","latitude":16.705,"longitude":74.2433,"temp":39.0,"humidity":21,"rain":0.0,"pressure":945.1,"uv_index":5.95,"wind_gusts":49.3,"aqi":73,"pm10":41.8,"pm2_5":24.6,"mosquito_risk":0,"arthritis_risk":5,"migraine_risk":6,"frizz_risk":0,"updated_at":"2026-04-28T14:54:42.003259+05:30"},{"city":"Goa","state":"Goa","latitude":15.2993,"longitude":74.124,"temp":36.0,"humidity":51,"rain":0.0,"pressure":994.1,"uv_index":9.0,"wind_gusts":37.8,"aqi":61,"pm10":54.8,"pm2_5":19.4,"mosquito_risk":0,"arthritis_risk":5,"migraine_risk":10,"frizz_risk":1,"updated_at":"2026-04-28T14:54:42.003266+05:30"},{"city":"Jodhpur","state":"Rajasthan","latitude":26.2389,"longitude":73.0243,"temp":40.8,"humidity":15,"rain":0.0,"pressure":976.0,"uv_index":8.3,"wind_gusts":49.0,"aqi":123,"pm10":242.1,"pm2_5":28.6,"mosquito_risk":0,"arthritis_risk":5,"migraine_risk":10,"frizz_risk":0,"updated_at":"2026-04-28T14:54:42.003271+05:30"},{"city":"Udaipur","state":"Rajasthan","latitude":24.5854,"longitude":73.7125,"temp":38.0,"humidity":15,"rain":0.0,"pressure":942.5,"uv_index":8.75,"wind_gusts":49.7,"aqi":41,"pm10":47.4,"pm2_5":11.2,"mosquito_risk":0,"arthritis_risk":5,"migraine_risk":10,"frizz_risk":0,"updated_at":"2026-04-28T14:54:42.003278+05:30"},{"city":"Kota","state":"Rajasthan","latitude":25.2138,"longitude":75.8648,"temp":41.5,"humidity":11,"rain":0.0,"pressure":972.7,"uv_index":8.3,"wind_gusts":33.8,"aqi":49,"pm10":17.6,"pm2_5":7.5,"mosquito_risk":0,"arthritis_risk":5,"migraine_risk":10,"frizz_risk":0,"updated_at":"2026-04-28T14:54:42.003284+05:30"},{"city":"Bikaner","state":"Rajasthan","latitude":28.0229,"longitude":73.3119,"temp":41.8,"humidity":13,"rain":0.0,"pressure":974.5,"uv_index":8.15,"wind_gusts":40.0,"aqi":82,"pm10":75.9,"pm2_5":18.5,"mosquito_risk":0,"arthritis_risk":5,"migraine_risk":10,"frizz_risk":0,"updated_at":"2026-04-28T14:54:42.003290+05:30"},{"city":"Ajmer","state":"Rajasthan","latitude":26.4499,"longitude":74.6399,"temp":39.1,"humidity":12,"rain":0.0,"pressure":949.5,"uv_index":8.25,"wind_gusts":47.2,"aqi":54,"pm10":23.1,"pm2_5":7.4,"mosquito_risk":0,"arthritis_risk":5,"migraine_risk":10,"frizz_risk":0,"updated_at":"2026-04-28T14:54:42.003296+05:30"},{"city":"Gwalior","state":"Madhya Pradesh","latitude":26.2183,"longitude":78.1828,"temp":40.2,"humidity":16,"rain":0.0,"pressure":977.1,"uv_index":8.05,"wind_gusts":39.6,"aqi":57,"pm10":51.2,"pm2_5":12.4,"mosquito_risk":0,"arthritis_risk":5,"migraine_risk":10,"frizz_risk":0,"updated_at":"2026-04-28T14:54:42.003302+05:30"},{"city":"Indore","state":"Madhya Pradesh","latitude":22.7196,"longitude":75.8577,"temp":40.2,"humidity":11,"rain":0.0,"pressure":944.4,"uv_index":8.6,"wind_gusts":56.2,"aqi":52,"pm10":17.3,"pm2_5":11.3,"mosquito_risk":0,"arthritis_risk":5,"migraine_risk":10,"frizz_risk":0,"updated_at":"2026-04-28T14:54:42.003308+05:30"},{"city":"Bhopal","state":"Madhya Pradesh","latitude":23.2599,"longitude":77.4126,"temp":41.5,"humidity":9,"rain":0.0,"pressure":948.9,"uv_index":8.6,"wind_gusts":50.8,"aqi":72,"pm10":17.1,"pm2_5":12.3,"mosquito_risk":0,"arthritis_risk":5,"migraine_risk":10,"frizz_risk":0,"updated_at":"2026-04-28T14:54:42.003315+05:30"},{"city":"Jabalpur","state":"Madhya Pradesh","latitude":23.1815,"longitude":79.9864,"temp":42.7,"humidity":10,"rain":0.0,"pressure":955.3,"uv_index":8.75,"wind_gusts":45.4,"aqi":72,"pm10":18.6,"pm2_5":10.4,"mosquito_risk":0,"arthritis_risk":5,"migraine_risk":10,"frizz_risk":0,"updated_at":"2026-04-28T14:54:42.003321+05:30"},{"city":"Ujjain","state":"Madhya Pradesh","latitude":23.1765,"longitude":75.7885,"temp":39.9,"humidity":11,"rain":0.0,"pressure":949.8,"uv_index":8.55,"wind_gusts":55.1,"aqi":52,"pm10":15.4,"pm2_5":8.1,"mosquito_risk":0,"arthritis_risk":5,"migraine_risk":10,"frizz_risk":0,"updated_at":"2026-04-28T14:54:42.003328+05:30"},{"city":"Visakhapatnam","state":"Andhra Pradesh","latitude":17.6868,"longitude":83.2185,"temp":33.0,"humidity":60,"rain":0.0,"pressure":999.2,"uv_index":9.15,"wind_gusts":59.0,"aqi":72,"pm10":29.2,"pm2_5":19.4,"mosquito_risk":0,"arthritis_risk":5,"migraine_risk":7,"frizz_risk":1,"updated_at":"2026-04-28T14:54:42.003335+05:30"},{"city":"Vijayawada","state":"Andhra Pradesh","latitude":16.5062,"longitude":80.648,"temp":38.2,"humidity":34,"rain":0.0,"pressure":997.8,"uv_index":9.15,"wind_gusts":41.0,"aqi":66,"pm10":26.5,"pm2_5":16.5,"mosquito_risk":0,"arthritis_risk":5,"migraine_risk":10,"frizz_risk":1,"updated_at":"2026-04-28T14:54:42.003341+05:30"},{"city":"Guntur","state":"Andhra Pradesh","latitude":16.3067,"longitude":80.4365,"temp":37.2,"humidity":45,"rain":0.0,"pressure":999.2,"uv_index":9.25,"wind_gusts":43.6,"aqi":67,"pm10":32.8,"pm2_5":21.0,"mosquito_risk":0,"arthritis_risk":5,"migraine_risk":10,"frizz_risk":1,"updated_at":"2026-04-28T14:54:42.003347+05:30"},{"city":"Nellore","state":"Andhra Pradesh","latitude":14.4426,"longitude":79.9865,"temp":36.2,"humidity":51,"rain":0.0,"pressure":1000.7,"uv_index":9.25,"wind_gusts":50.0,"aqi":60,"pm10":29.0,"pm2_5":20.8,"mosquito_risk":0,"arthritis_risk":5,"migraine_risk":7,"frizz_risk":1,"updated_at":"2026-04-28T14:54:42.003353+05:30"},{"city":"Kurnool","state":"Andhra Pradesh","latitude":15.8281,"longitude":78.0373,"temp":41.2,"humidity":24,"rain":0.0,"pressure":972.2,"uv_index":9.2,"wind_gusts":52.2,"aqi":116,"pm10":44.4,"pm2_5":32.6,"mosquito_risk":0,"arthritis_risk":5,"migraine_risk":10,"frizz_risk":1,"updated_at":"2026-04-28T14:54:42.003360+05:30"},{"city":"Kakinada","state":"Andhra Pradesh","latitude":16.9891,"longitude":82.2475,"temp":37.5,"humidity":41,"rain":0.0,"pressure":1002.3,"uv_index":9.2,"wind_gusts":43.9,"aqi":65,"pm10":24.3,"pm2_5":15.1,"mosquito_risk":0,"arthritis_risk":5,"migraine_risk":7,"frizz_risk":1,"updated_at":"2026-04-28T14:54:42.003366+05:30"},{"city":"Tirupati","state":"Andhra Pradesh","latitude":13.6288,"longitude":79.4192,"temp":40.2,"humidity":22,"rain":0.0,"pressure":986.1,"uv_index":8.6,"wind_gusts":41.4,"aqi":66,"pm10":27.0,"pm2_5":18.7,"mosquito_risk":0,"arthritis_risk":5,"migraine_risk":10,"frizz_risk":0,"updated_at":"2026-04-28T14:54:42.003372+05:30"},{"city":"Warangal","state":"Telangana","latitude":17.9689,"longitude":79.5941,"temp":36.9,"humidity":35,"rain":0.0,"pressure":974.9,"uv_index":9.15,"wind_gusts":40.0,"aqi":87,"pm10":43.9,"pm2_5":34.7,"mosquito_risk":0,"arthritis_risk":5,"migraine_risk":10,"frizz_risk":1,"updated_at":"2026-04-28T14:54:42.003378+05:30"},{"city":"Nizamabad","state":"Telangana","latitude":18.6725,"longitude":78.0941,"temp":40.8,"humidity":14,"rain":0.0,"pressure":960.5,"uv_index":9.1,"wind_gusts":37.1,"aqi":104,"pm10":27.4,"pm2_5":19.4,"mosquito_risk":0,"arthritis_risk":5,"migraine_risk":10,"frizz_risk":0,"updated_at":"2026-04-28T14:54:42.003384+05:30"},{"city":"Mysore","state":"Karnataka","latitude":12.2958,"longitude":76.6396,"temp":35.0,"humidity":30,"rain":0.0,"pressure":926.3,"uv_index":8.7,"wind_gusts":37.8,"aqi":97,"pm10":43.5,"pm2_5":30.4,"mosquito_risk":0,"arthritis_risk":5,"migraine_risk":7,"frizz_risk":0,"updated_at":"2026-04-28T14:54:42.003390+05:30"},{"city":"Mangalore","state":"Karnataka","latitude":12.9141,"longitude":74.856,"temp":33.1,"humidity":55,"rain":0.0,"pressure":1003.3,"uv_index":8.55,"wind_gusts":41.8,"aqi":75,"pm10":29.5,"pm2_5":20.1,"mosquito_risk":0,"arthritis_risk":5,"migraine_risk":4,"frizz_risk":1,"updated_at":"2026-04-28T14:54:42.003396+05:30"},{"city":"Hubli-Dharwad","state":"Karnataka","latitude":15.3647,"longitude":75.124,"temp":37.2,"humidity":30,"rain":0.0,"pressure":938.1,"uv_index":9.2,"wind_gusts":49.3,"aqi":73,"pm10":41.4,"pm2_5":29.9,"mosquito_risk":0,"arthritis_risk":5,"migraine_risk":10,"frizz_risk":1,"updated_at":"2026-04-28T14:54:42.003402+05:30"},{"city":"Belgaum","state":"Karnataka","latitude":15.8497,"longitude":74.4977,"temp":35.6,"humidity":30,"rain":0.0,"pressure":923.6,"uv_index":9.25,"wind_gusts":47.5,"aqi":80,"pm10":44.4,"pm2_5":27.6,"mosquito_risk":0,"arthritis_risk":5,"migraine_risk":10,"frizz_risk":0,"updated_at":"2026-04-28T14:54:45.377134+05:30"},{"city":"Coimbatore","state":"Tamil Nadu","latitude":11.0168,"longitude":76.9558,"temp":37.2,"humidity":26,"rain":0.0,"pressure":958.4,"uv_index":8.15,"wind_gusts":56.2,"aqi":77,"pm10":38.5,"pm2_5":25.8,"mosquito_risk":0,"arthritis_risk":5,"migraine_risk":10,"frizz_risk":0,"updated_at":"2026-04-28T14:54:45.377165+05:30"},{"city":"Madurai","state":"Tamil Nadu","latitude":9.9252,"longitude":78.1198,"temp":40.3,"humidity":24,"rain":0.0,"pressure":988.1,"uv_index":9.2,"wind_gusts":51.1,"aqi":61,"pm10":24.0,"pm2_5":17.6,"mosquito_risk":0,"arthritis_risk":5,"migraine_risk":10,"frizz_risk":0,"updated_at":"2026-04-28T14:54:45.377176+05:30"},{"city":"Trichy","state":"Tamil Nadu","latitude":10.7905,"longitude":78.7047,"temp":38.6,"humidity":27,"rain":0.0,"pressure":995.1,"uv_index":8.3,"wind_gusts":45.4,"aqi":51,"pm10":15.4,"pm2_5":12.5,"mosquito_risk":0,"arthritis_risk":5,"migraine_risk":10,"frizz_risk":1,"updated_at":"2026-04-28T14:54:45.377186+05:30"},{"city":"Salem","state":"Tamil Nadu","latitude":11.6643,"longitude":78.146,"temp":39.2,"humidity":24,"rain":0.0,"pressure":973.1,"uv_index":8.35,"wind_gusts":31.3,"aqi":61,"pm10":32.8,"pm2_5":21.5,"mosquito_risk":0,"arthritis_risk":5,"migraine_risk":10,"frizz_risk":0,"updated_at":"2026-04-28T14:54:45.377194+05:30"},{"city":"Tirunelveli","state":"Tamil Nadu","latitude":8.7139,"longitude":77.7567,"temp":35.8,"humidity":41,"rain":0.0,"pressure":999.1,"uv_index":9.15,"wind_gusts":45.4,"aqi":65,"pm10":20.3,"pm2_5":16.8,"mosquito_risk":0,"arthritis_risk":5,"migraine_risk":10,"frizz_risk":1,"updated_at":"2026-04-28T14:54:45.377201+05:30"},{"city":"Vellore","state":"Tamil Nadu","latitude":12.9165,"longitude":79.1325,"temp":39.9,"humidity":20,"rain":0.0,"pressure":980.1,"uv_index":8.2,"wind_gusts":40.0,"aqi":72,"pm10":25.0,"pm2_5":16.5,"mosquito_risk":0,"arthritis_risk":5,"migraine_risk":10,"frizz_risk":0,"updated_at":"2026-04-28T14:54:45.377209+05:30"},{"city":"Erode","state":"Tamil Nadu","latitude":11.341,"longitude":77.7172,"temp":40.4,"humidity":23,"rain":0.0,"pressure":984.2,"uv_index":8.25,"wind_gusts":40.3,"aqi":66,"pm10":34.3,"pm2_5":22.6,"mosquito_risk":0,"arthritis_risk":5,"migraine_risk":10,"frizz_risk":0,"updated_at":"2026-04-28T14:54:45.377217+05:30"},{"city":"Kochi","state":"Kerala","latitude":9.9312,"longitude":76.2673,"temp":31.9,"humidity":64,"rain":0.1,"pressure":1005.6,"uv_index":7.8,"wind_gusts":37.1,"aqi":71,"pm10":13.4,"pm2_5":11.4,"mosquito_risk":6,"arthritis_risk":5,"migraine_risk":4,"frizz_risk":1,"updated_at":"2026-04-28T14:54:45.377225+05:30"},{"city":"Thiruvananthapuram","state":"Kerala","latitude":8.5241,"longitude":76.9366,"temp":30.1,"humidity":71,"rain":0.0,"pressure":1005.5,"uv_index":7.8,"wind_gusts":32.8,"aqi":64,"pm10":18.9,"pm2_5":15.4,"mosquito_risk":3,"arthritis_risk":5,"migraine_risk":4,"frizz_risk":1,"updated_at":"2026-04-28T14:54:45.377232+05:30"},{"city":"Kozhikode","state":"Kerala","latitude":11.2588,"longitude":75.7804,"temp":30.2,"humidity":79,"rain":0.1,"pressure":1004.8,"uv_index":6.65,"wind_gusts":37.8,"aqi":64,"pm10":14.2,"pm2_5":10.4,"mosquito_risk":6,"arthritis_risk":5,"migraine_risk":4,"frizz_risk":1,"updated_at":"2026-04-28T14:54:45.377240+05:30"},{"city":"Thrissur","state":"Kerala","latitude":10.5276,"longitude":76.2144,"temp":32.2,"humidity":65,"rain":0.0,"pressure":1003.7,"uv_index":6.8,"wind_gusts":37.8,"aqi":70,"pm10":17.3,"pm2_5":14.5,"mosquito_risk":3,"arthritis_risk":5,"migraine_risk":4,"frizz_risk":1,"updated_at":"2026-04-28T14:54:45.377248+05:30"},{"city":"Kannur","state":"Kerala","latitude":11.8745,"longitude":75.3704,"temp":31.5,"humidity":68,"rain":0.0,"pressure":1004.2,"uv_index":7.25,"wind_gusts":43.9,"aqi":76,"pm10":25.3,"pm2_5":19.4,"mosquito_risk":3,"arthritis_risk":5,"migraine_risk":4,"frizz_risk":1,"updated_at":"2026-04-28T14:54:45.377256+05:30"},{"city":"Patna","state":"Bihar","latitude":25.5941,"longitude":85.1376,"temp":35.2,"humidity":45,"rain":0.0,"pressure":993.0,"uv_index":8.6,"wind_gusts":33.1,"aqi":110,"pm10":73.6,"pm2_5":44.1,"mosquito_risk":0,"arthritis_risk":5,"migraine_risk":10,"frizz_risk":1,"updated_at":"2026-04-28T14:54:45.377264+05:30"},{"city":"Gaya","state":"Bihar","latitude":24.7914,"longitude":85.0002,"temp":37.1,"humidity":36,"rain":0.0,"pressure":987.3,"uv_index":8.7,"wind_gusts":41.8,"aqi":122,"pm10":80.6,"pm2_5":39.0,"mosquito_risk":0,"arthritis_risk":5,"migraine_risk":10,"frizz_risk":1,"updated_at":"2026-04-28T14:54:45.377271+05:30"},{"city":"Muzaffarpur","state":"Bihar","latitude":26.1209,"longitude":85.3647,"temp":33.8,"humidity":51,"rain":0.0,"pressure":993.3,"uv_index":8.4,"wind_gusts":45.4,"aqi":100,"pm10":68.0,"pm2_5":39.2,"mosquito_risk":0,"arthritis_risk":5,"migraine_risk":7,"frizz_risk":1,"updated_at":"2026-04-28T14:54:45.377278+05:30"},{"city":"Bhagalpur","state":"Bihar","latitude":25.2425,"longitude":87.0117,"temp":31.7,"humidity":58,"rain":0.0,"pressure":995.1,"uv_index":8.6,"wind_gusts":32.4,"aqi":95,"pm10":70.3,"pm2_5":40.7,"mosquito_risk":0,"arthritis_risk":5,"migraine_risk":7,"frizz_risk":1,"updated_at":"2026-04-28T14:54:45.377285+05:30"},{"city":"Ranchi","state":"Jharkhand","latitude":23.3441,"longitude":85.3096,"temp":35.0,"humidity":23,"rain":0.0,"pressure":933.7,"uv_index":8.9,"wind_gusts":53.6,"aqi":101,"pm10":51.0,"pm2_5":16.3,"mosquito_risk":0,"arthritis_risk":5,"migraine_risk":7,"frizz_risk":0,"updated_at":"2026-04-28T14:54:45.377293+05:30"},{"city":"Jamshedpur","state":"Jharkhand","latitude":22.8046,"longitude":86.2029,"temp":38.5,"humidity":24,"rain":0.0,"pressure":984.6,"uv_index":8.6,"wind_gusts":51.5,"aqi":151,"pm10":52.6,"pm2_5":31.0,"mosquito_risk":0,"arthritis_risk":5,"migraine_risk":10,"frizz_risk":0,"updated_at":"2026-04-28T14:54:45.377300+05:30"},{"city":"Dhanbad","state":"Jharkhand","latitude":23.7957,"longitude":86.4304,"temp":35.0,"humidity":42,"rain":0.0,"pressure":974.1,"uv_index":8.75,"wind_gusts":39.2,"aqi":138,"pm10":92.0,"pm2_5":61.9,"mosquito_risk":0,"arthritis_risk":5,"migraine_risk":7,"frizz_risk":1,"updated_at":"2026-04-28T14:54:45.377308+05:30"},{"city":"Bokaro","state":"Jharkhand","latitude":23.6693,"longitude":86.1511,"temp":37.4,"humidity":31,"rain":0.0,"pressure":977.5,"uv_index":8.85,"wind_gusts":38.9,"aqi":131,"pm10":93.8,"pm2_5":39.1,"mosquito_risk":0,"arthritis_risk":5,"migraine_risk":10,"frizz_risk":1,"updated_at":"2026-04-28T14:54:45.377316+05:30"},{"city":"Bhubaneswar","state":"Odisha","latitude":20.2961,"longitude":85.8245,"temp":37.3,"humidity":37,"rain":0.0,"pressure":997.1,"uv_index":9.1,"wind_gusts":46.4,"aqi":67,"pm10":29.2,"pm2_5":23.6,"mosquito_risk":0,"arthritis_risk":5,"migraine_risk":10,"frizz_risk":1,"updated_at":"2026-04-28T14:54:45.377323+05:30"},{"city":"Cuttack","state":"Odisha","latitude":20.4625,"longitude":85.8828,"temp":37.8,"humidity":35,"rain":0.0,"pressure":998.7,"uv_index":9.15,"wind_gusts":43.9,"aqi":67,"pm10":29.2,"pm2_5":23.6,"mosquito_risk":0,"arthritis_risk":5,"migraine_risk":10,"frizz_risk":1,"updated_at":"2026-04-28T14:54:45.377331+05:30"},{"city":"Rourkela","state":"Odisha","latitude":22.2604,"longitude":84.8536,"temp":40.0,"humidity":19,"rain":0.0,"pressure":978.9,"uv_index":8.4,"wind_gusts":46.8,"aqi":156,"pm10":36.2,"pm2_5":25.4,"mosquito_risk":0,"arthritis_risk":5,"migraine_risk":10,"frizz_risk":0,"updated_at":"2026-04-28T14:54:45.377338+05:30"},{"city":"Raipur","state":"Chhattisgarh","latitude":21.2514,"longitude":81.6296,"temp":39.8,"humidity":18,"rain":0.0,"pressure":969.7,"uv_index":8.9,"wind_gusts":49.0,"aqi":140,"pm10":21.7,"pm2_5":16.5,"mosquito_risk":0,"arthritis_risk":5,"migraine_risk":10,"frizz_risk":0,"updated_at":"2026-04-28T14:54:45.377345+05:30"},{"city":"Bhilai","state":"Chhattisgarh","latitude":21.1938,"longitude":81.3509,"temp":39.6,"humidity":21,"rain":0.0,"pressure":970.1,"uv_index":8.95,"wind_gusts":54.4,"aqi":117,"pm10":19.6,"pm2_5":14.2,"mosquito_risk":0,"arthritis_risk":5,"migraine_risk":10,"frizz_risk":0,"updated_at":"2026-04-28T14:54:45.377353+05:30"},{"city":"Guwahati","state":"Assam","latitude":26.1158,"longitude":91.7086,"temp":28.2,"humidity":67,"rain":0.0,"pressure":996.3,"uv_index":8.1,"wind_gusts":28.4,"aqi":75,"pm10":28.1,"pm2_5":16.6,"mosquito_risk":7,"arthritis_risk":5,"migraine_risk":7,"frizz_risk":1,"updated_at":"2026-04-28T14:54:45.377360+05:30"},{"city":"Agartala","state":"Tripura","latitude":23.8315,"longitude":91.2868,"temp":24.6,"humidity":91,"rain":0.0,"pressure":1002.2,"uv_index":4.35,"wind_gusts":45.0,"aqi":67,"pm10":42.7,"pm2_5":30.0,"mosquito_risk":3,"arthritis_risk":5,"migraine_risk":0,"frizz_risk":1,"updated_at":"2026-04-28T14:54:45.377368+05:30"},{"city":"Shillong","state":"Meghalaya","latitude":25.5788,"longitude":91.8933,"temp":17.8,"humidity":88,"rain":0.0,"pressure":853.0,"uv_index":8.85,"wind_gusts":38.2,"aqi":44,"pm10":10.5,"pm2_5":6.6,"mosquito_risk":3,"arthritis_risk":10,"migraine_risk":7,"frizz_risk":0,"updated_at":"2026-04-28T14:54:45.377376+05:30"},{"city":"Imphal","state":"Manipur","latitude":24.817,"longitude":93.9368,"temp":24.9,"humidity":65,"rain":0.0,"pressure":919.9,"uv_index":3.85,"wind_gusts":20.9,"aqi":101,"pm10":24.7,"pm2_5":24.7,"mosquito_risk":3,"arthritis_risk":5,"migraine_risk":3,"frizz_risk":1,"updated_at":"2026-04-28T14:54:45.377384+05:30"},{"city":"Aizawl","state":"Mizoram","latitude":23.7271,"longitude":92.7176,"temp":18.0,"humidity":94,"rain":0.0,"pressure":889.6,"uv_index":5.85,"wind_gusts":47.5,"aqi":79,"pm10":37.4,"pm2_5":23.3,"mosquito_risk":3,"arthritis_risk":10,"migraine_risk":3,"frizz_risk":1,"updated_at":"2026-04-28T14:54:45.377391+05:30"},{"city":"Kohima","state":"Nagaland","latitude":25.6701,"longitude":94.1077,"temp":22.5,"humidity":61,"rain":0.1,"pressure":853.0,"uv_index":8.45,"wind_gusts":30.2,"aqi":63,"pm10":12.8,"pm2_5":8.0,"mosquito_risk":6,"arthritis_risk":5,"migraine_risk":7,"frizz_risk":0,"updated_at":"2026-04-28T14:54:45.377398+05:30"},{"city":"Gangtok","state":"Sikkim","latitude":27.3314,"longitude":88.6138,"temp":18.9,"humidity":77,"rain":0.1,"pressure":834.0,"uv_index":8.7,"wind_gusts":36.4,"aqi":90,"pm10":23.7,"pm2_5":15.4,"mosquito_risk":6,"arthritis_risk":5,"migraine_risk":7,"frizz_risk":0,"updated_at":"2026-04-28T14:54:45.377406+05:30"},{"city":"Siliguri","state":"West Bengal","latitude":26.7271,"longitude":88.3953,"temp":27.9,"humidity":64,"rain":0.1,"pressure":987.9,"uv_index":8.0,"wind_gusts":33.1,"aqi":88,"pm10":41.3,"pm2_5":23.3,"mosquito_risk":10,"arthritis_risk":5,"migraine_risk":7,"frizz_risk":1,"updated_at":"2026-04-28T14:54:48.748994+05:30"},{"city":"Durgapur","state":"West Bengal","latitude":23.5204,"longitude":87.3119,"temp":28.6,"humidity":80,"rain":0.0,"pressure":989.8,"uv_index":8.85,"wind_gusts":37.1,"aqi":139,"pm10":93.8,"pm2_5":77.5,"mosquito_risk":7,"arthritis_risk":5,"migraine_risk":7,"frizz_risk":1,"updated_at":"2026-04-28T14:54:48.749021+05:30"},{"city":"Asansol","state":"West Bengal","latitude":23.6739,"longitude":86.9524,"temp":27.2,"humidity":78,"rain":0.0,"pressure":988.8,"uv_index":8.9,"wind_gusts":31.0,"aqi":125,"pm10":93.6,"pm2_5":78.7,"mosquito_risk":7,"arthritis_risk":5,"migraine_risk":7,"frizz_risk":1,"updated_at":"2026-04-28T14:54:48.749031+05:30"},{"city":"Pondicherry","state":"Puducherry","latitude":11.9139,"longitude":79.8145,"temp":32.7,"humidity":64,"rain":0.0,"pressure":1004.7,"uv_index":8.85,"wind_gusts":46.8,"aqi":47,"pm10":15.2,"pm2_5":11.7,"mosquito_risk":3,"arthritis_risk":5,"migraine_risk":4,"frizz_risk":1,"updated_at":"2026-04-28T14:54:48.749039+05:30"},{"city":"Port Blair","state":"Andaman and Nicobar Islands","latitude":11.6234,"longitude":92.7265,"temp":33.5,"humidity":54,"rain":0.0,"pressure":1005.0,"uv_index":9.1,"wind_gusts":31.3,"aqi":52,"pm10":15.6,"pm2_5":11.8,"mosquito_risk":0,"arthritis_risk":5,"migraine_risk":4,"frizz_risk":1,"updated_at":"2026-04-28T14:54:48.749047+05:30"},{"city":"Haridwar","state":"Uttarakhand","latitude":29.9457,"longitude":78.1642,"temp":33.9,"humidity":38,"rain":0.0,"pressure":969.1,"uv_index":7.1,"wind_gusts":32.0,"aqi":117,"pm10":51.8,"pm2_5":16.0,"mosquito_risk":0,"arthritis_risk":5,"migraine_risk":7,"frizz_risk":1,"updated_at":"2026-04-28T14:54:48.749054+05:30"},{"city":"Rishikesh","state":"Uttarakhand","latitude":30.0869,"longitude":78.2676,"temp":33.0,"humidity":39,"rain":0.0,"pressure":962.2,"uv_index":7.05,"wind_gusts":23.4,"aqi":112,"pm10":44.6,"pm2_5":13.6,"mosquito_risk":0,"arthritis_risk":5,"migraine_risk":7,"frizz_risk":1,"updated_at":"2026-04-28T14:54:48.749061+05:30"},{"city":"Nainital","state":"Uttarakhand","latitude":29.3919,"longitude":79.4542,"temp":22.4,"humidity":52,"rain":0.0,"pressure":805.1,"uv_index":7.55,"wind_gusts":44.6,"aqi":142,"pm10":49.6,"pm2_5":24.2,"mosquito_risk":0,"arthritis_risk":5,"migraine_risk":7,"frizz_risk":0,"updated_at":"2026-04-28T14:54:48.749068+05:30"},{"city":"Mussoorie","state":"Uttarakhand","latitude":30.4599,"longitude":78.0664,"temp":19.8,"humidity":47,"rain":0.0,"pressure":802.3,"uv_index":4.15,"wind_gusts":48.2,"aqi":96,"pm10":50.1,"pm2_5":15.6,"mosquito_risk":0,"arthritis_risk":5,"migraine_risk":3,"frizz_risk":0,"updated_at":"2026-04-28T14:54:48.749074+05:30"},{"city":"Dharamshala","state":"Himachal Pradesh","latitude":32.219,"longitude":76.3234,"temp":23.2,"humidity":44,"rain":0.0,"pressure":867.0,"uv_index":7.45,"wind_gusts":49.7,"aqi":95,"pm10":21.9,"pm2_5":10.9,"mosquito_risk":0,"arthritis_risk":5,"migraine_risk":7,"frizz_risk":0,"updated_at":"2026-04-28T14:54:48.749081+05:30"},{"city":"Dalhousie","state":"Himachal Pradesh","latitude":32.5387,"longitude":75.971,"temp":16.7,"humidity":65,"rain":0.0,"pressure":803.1,"uv_index":6.9,"wind_gusts":27.7,"aqi":66,"pm10":31.7,"pm2_5":10.2,"mosquito_risk":3,"arthritis_risk":5,"migraine_risk":7,"frizz_risk":0,"updated_at":"2026-04-28T14:54:48.749087+05:30"},{"city":"Patiala","state":"Punjab","latitude":30.3398,"longitude":76.3869,"temp":35.8,"humidity":25,"rain":0.0,"pressure":973.0,"uv_index":7.2,"wind_gusts":43.9,"aqi":371,"pm10":488.0,"pm2_5":52.9,"mosquito_risk":0,"arthritis_risk":5,"migraine_risk":10,"frizz_risk":0,"updated_at":"2026-04-28T14:54:48.749093+05:30"},{"city":"Bhatinda","state":"Punjab","latitude":30.211,"longitude":74.9455,"temp":37.3,"humidity":22,"rain":0.0,"pressure":978.1,"uv_index":7.6,"wind_gusts":52.9,"aqi":97,"pm10":114.3,"pm2_5":25.6,"mosquito_risk":0,"arthritis_risk":5,"migraine_risk":10,"frizz_risk":0,"updated_at":"2026-04-28T14:54:48.749100+05:30"},{"city":"Rohtak","state":"Haryana","latitude":28.8955,"longitude":76.6066,"temp":37.3,"humidity":20,"rain":0.0,"pressure":976.5,"uv_index":7.0,"wind_gusts":48.6,"aqi":678,"pm10":446.1,"pm2_5":49.2,"mosquito_risk":0,"arthritis_risk":5,"migraine_risk":10,"frizz_risk":0,"updated_at":"2026-04-28T14:54:48.749106+05:30"},{"city":"Panipat","state":"Haryana","latitude":29.3909,"longitude":76.9635,"temp":35.0,"humidity":28,"rain":0.0,"pressure":975.6,"uv_index":6.4,"wind_gusts":46.1,"aqi":1164,"pm10":946.2,"pm2_5":87.3,"mosquito_risk":0,"arthritis_risk":5,"migraine_risk":7,"frizz_risk":0,"updated_at":"2026-04-28T14:54:48.749113+05:30"},{"city":"Mathura","state":"Uttar Pradesh","latitude":27.4924,"longitude":77.6737,"temp":40.2,"humidity":19,"rain":0.0,"pressure":980.5,"uv_index":7.75,"wind_gusts":42.8,"aqi":608,"pm10":476.8,"pm2_5":47.6,"mosquito_risk":0,"arthritis_risk":5,"migraine_risk":10,"frizz_risk":0,"updated_at":"2026-04-28T14:54:48.749120+05:30"},{"city":"Vrindavan","state":"Uttar Pradesh","latitude":27.5823,"longitude":77.7027,"temp":40.2,"humidity":18,"rain":0.0,"pressure":980.8,"uv_index":7.75,"wind_gusts":45.7,"aqi":608,"pm10":476.8,"pm2_5":47.6,"mosquito_risk":0,"arthritis_risk":5,"migraine_risk":10,"frizz_risk":0,"updated_at":"2026-04-28T14:54:48.749126+05:30"},{"city":"Ayodhya","state":"Uttar Pradesh","latitude":26.7922,"longitude":82.1998,"temp":38.8,"humidity":29,"rain":0.0,"pressure":987.5,"uv_index":8.1,"wind_gusts":49.0,"aqi":121,"pm10":109.7,"pm2_5":38.8,"mosquito_risk":0,"arthritis_risk":5,"migraine_risk":10,"frizz_risk":1,"updated_at":"2026-04-28T14:54:48.749133+05:30"},{"city":"Ratlam","state":"Madhya Pradesh","latitude":23.3315,"longitude":75.0367,"temp":39.1,"humidity":13,"rain":0.0,"pressure":951.0,"uv_index":8.45,"wind_gusts":50.4,"aqi":52,"pm10":16.2,"pm2_5":7.6,"mosquito_risk":0,"arthritis_risk":5,"migraine_risk":10,"frizz_risk":0,"updated_at":"2026-04-28T14:54:48.749139+05:30"},{"city":"Sagar","state":"Madhya Pradesh","latitude":23.8388,"longitude":78.7378,"temp":40.8,"humidity":10,"rain":0.0,"pressure":945.2,"uv_index":8.6,"wind_gusts":45.4,"aqi":66,"pm10":14.2,"pm2_5":7.9,"mosquito_risk":0,"arthritis_risk":5,"migraine_risk":10,"frizz_risk":0,"updated_at":"2026-04-28T14:54:48.749145+05:30"},{"city":"Satna","state":"Madhya Pradesh","latitude":24.6005,"longitude":80.8322,"temp":42.0,"humidity":14,"rain":0.0,"pressure":964.6,"uv_index":8.65,"wind_gusts":47.2,"aqi":74,"pm10":68.7,"pm2_5":18.7,"mosquito_risk":0,"arthritis_risk":5,"migraine_risk":10,"frizz_risk":0,"updated_at":"2026-04-28T14:54:48.749151+05:30"},{"city":"Akola","state":"Maharashtra","latitude":20.7002,"longitude":77.0082,"temp":41.5,"humidity":15,"rain":0.0,"pressure":970.6,"uv_index":8.4,"wind_gusts":37.4,"aqi":78,"pm10":28.4,"pm2_5":19.7,"mosquito_risk":0,"arthritis_risk":5,"migraine_risk":10,"frizz_risk":0,"updated_at":"2026-04-28T14:54:48.749158+05:30"},{"city":"Amravati","state":"Maharashtra","latitude":20.9374,"longitude":77.7796,"temp":42.2,"humidity":13,"rain":0.0,"pressure":962.6,"uv_index":8.85,"wind_gusts":47.2,"aqi":84,"pm10":28.3,"pm2_5":19.3,"mosquito_risk":0,"arthritis_risk":5,"migraine_risk":10,"frizz_risk":0,"updated_at":"2026-04-28T14:54:48.749165+05:30"},{"city":"Latur","state":"Maharashtra","latitude":18.4088,"longitude":76.5604,"temp":40.3,"humidity":14,"rain":0.0,"pressure":937.0,"uv_index":9.1,"wind_gusts":34.9,"aqi":86,"pm10":32.5,"pm2_5":21.9,"mosquito_risk":0,"arthritis_risk":5,"migraine_risk":10,"frizz_risk":0,"updated_at":"2026-04-28T14:54:48.749172+05:30"},{"city":"Nanded","state":"Maharashtra","latitude":19.1383,"longitude":77.3091,"temp":41.7,"humidity":14,"rain":0.0,"pressure":964.3,"uv_index":8.95,"wind_gusts":32.8,"aqi":101,"pm10":34.7,"pm2_5":23.4,"mosquito_risk":0,"arthritis_risk":5,"migraine_risk":10,"frizz_risk":0,"updated_at":"2026-04-28T14:54:48.749178+05:30"},{"city":"Gulbarga","state":"Karnataka","latitude":17.3297,"longitude":76.8343,"temp":41.3,"humidity":15,"rain":0.0,"pressure":954.5,"uv_index":9.0,"wind_gusts":40.7,"aqi":105,"pm10":43.7,"pm2_5":31.4,"mosquito_risk":0,"arthritis_risk":5,"migraine_risk":10,"frizz_risk":0,"updated_at":"2026-04-28T14:54:48.749184+05:30"},{"city":"Bidar","state":"Karnataka","latitude":17.9104,"longitude":77.5199,"temp":39.4,"humidity":16,"rain":0.0,"pressure":932.7,"uv_index":7.65,"wind_gusts":34.6,"aqi":106,"pm10":29.0,"pm2_5":21.2,"mosquito_risk":0,"arthritis_risk":5,"migraine_risk":10,"frizz_risk":0,"updated_at":"2026-04-28T14:54:48.749190+05:30"},{"city":"Hospet","state":"Karnataka","latitude":15.2689,"longitude":76.3909,"temp":37.5,"humidity":28,"rain":0.0,"pressure":952.6,"uv_index":9.25,"wind_gusts":36.4,"aqi":90,"pm10":44.2,"pm2_5":32.7,"mosquito_risk":0,"arthritis_risk":5,"migraine_risk":10,"frizz_risk":1,"updated_at":"2026-04-28T14:54:48.749196+05:30"},{"city":"Tirupur","state":"Tamil Nadu","latitude":11.1085,"longitude":77.3411,"temp":38.9,"humidity":23,"rain":0.0,"pressure":970.9,"uv_index":8.1,"wind_gusts":48.2,"aqi":81,"pm10":38.6,"pm2_5":26.0,"mosquito_risk":0,"arthritis_risk":5,"migraine_risk":10,"frizz_risk":0,"updated_at":"2026-04-28T14:54:48.749202+05:30"},{"city":"Alappuzha","state":"Kerala","latitude":9.4981,"longitude":76.3388,"temp":30.5,"humidity":72,"rain":0.0,"pressure":1005.9,"uv_index":7.65,"wind_gusts":35.3,"aqi":73,"pm10":16.6,"pm2_5":14.3,"mosquito_risk":3,"arthritis_risk":5,"migraine_risk":4,"frizz_risk":1,"updated_at":"2026-04-28T14:54:48.749208+05:30"},{"city":"Munnar","state":"Kerala","latitude":10.0889,"longitude":77.0595,"temp":23.4,"humidity":72,"rain":0.0,"pressure":856.5,"uv_index":8.8,"wind_gusts":27.4,"aqi":83,"pm10":29.7,"pm2_5":19.8,"mosquito_risk":3,"arthritis_risk":5,"migraine_risk":7,"frizz_risk":1,"updated_at":"2026-04-28T14:54:48.749214+05:30"},{"city":"Silchar","state":"Assam","latitude":24.8333,"longitude":92.7789,"temp":24.9,"humidity":89,"rain":0.2,"pressure":1002.2,"uv_index":1.2,"wind_gusts":34.2,"aqi":88,"pm10":11.7,"pm2_5":10.6,"mosquito_risk":6,"arthritis_risk":5,"migraine_risk":0,"frizz_risk":1,"updated_at":"2026-04-28T14:54:48.749221+05:30"},{"city":"Dibrugarh","state":"Assam","latitude":27.4728,"longitude":94.912,"temp":28.9,"humidity":59,"rain":0.0,"pressure":991.1,"uv_index":7.3,"wind_gusts":20.2,"aqi":111,"pm10":49.8,"pm2_5":32.4,"mosquito_risk":4,"arthritis_risk":5,"migraine_risk":7,"frizz_risk":1,"updated_at":"2026-04-28T14:54:48.749227+05:30"}]