[{"city":"Delhi","state":"Delhi","latitude":28.6139,"longitude":77.209,"temp":22.4,"humidity":67,"rain":0.0,"pressure":989.4,"uv_index":5.5,"wind_gusts":33.1,"aqi":130,"pm10":107.3,"pm2_5":42.6,"mosquito_risk":3,"arthritis_risk":5,"migraine_risk":3,"frizz_risk":0,"updated_at":"2026-03-19T10:26:51.087554+05:30"},{"city":"Mumbai","state":"Maharashtra","latitude":19.076,"longitude":72.8777,"temp":26.9,"humidity":76,"rain":0.0,"pressure":1013.4,"uv_index":7.75,"wind_gusts":21.2,"aqi":71,"pm10":38.3,"pm2_5":26.4,"mosquito_risk":7,"arthritis_risk":0,"migraine_risk":4,"frizz_risk":1,"updated_at":"2026-03-19T10:26:51.087599+05:30"},{"city":"Bangalore","state":"Karnataka","latitude":12.9716,"longitude":77.5946,"temp":24.8,"humidity":62,"rain":0.0,"pressure":916.4,"uv_index":9.35,"wind_gusts":23.0,"aqi":91,"pm10":29.4,"pm2_5":26.2,"mosquito_risk":3,"arthritis_risk":5,"migraine_risk":7,"frizz_risk":1,"updated_at":"2026-03-19T10:26:51.087614+05:30"},{"city":"Hyderabad","state":"Telangana","latitude":17.385,"longitude":78.4867,"temp":27.6,"humidity":57,"rain":0.0,"pressure":959.1,"uv_index":8.75,"wind_gusts":24.5,"aqi":86,"pm10":20.0,"pm2_5":14.4,"mosquito_risk":4,"arthritis_risk":5,"migraine_risk":7,"frizz_risk":1,"updated_at":"2026-03-19T10:26:51.087625+05:30"},{"city":"Chennai","state":"Tamil Nadu","latitude":13.0827,"longitude":80.2707,"temp":29.8,"humidity":61,"rain":0.0,"pressure":1012.8,"uv_index":9.1,"wind_gusts":29.5,"aqi":40,"pm10":17.2,"pm2_5":13.1,"mosquito_risk":7,"arthritis_risk":0,"migraine_risk":4,"frizz_risk":1,"updated_at":"2026-03-19T10:26:51.087634+05:30"},{"city":"Kolkata","state":"West Bengal","latitude":22.5726,"longitude":88.3639,"temp":29.5,"humidity":72,"rain":0.0,"pressure":1012.1,"uv_index":7.55,"wind_gusts":25.2,"aqi":67,"pm10":34.0,"pm2_5":29.6,"mosquito_risk":7,"arthritis_risk":0,"migraine_risk":4,"frizz_risk":1,"updated_at":"2026-03-19T10:26:51.087643+05:30"},{"city":"Pune","state":"Maharashtra","latitude":18.5204,"longitude":73.8567,"temp":28.6,"humidity":46,"rain":0.0,"pressure":953.6,"uv_index":8.3,"wind_gusts":34.2,"aqi":98,"pm10":44.7,"pm2_5":33.8,"mosquito_risk":4,"arthritis_risk":5,"migraine_risk":7,"frizz_risk":0,"updated_at":"2026-03-19T10:26:51.087656+05:30"},{"city":"Ahmedabad","state":"Gujarat","latitude":23.0225,"longitude":72.5714,"temp":27.6,"humidity":55,"rain":0.0,"pressure":1006.9,"uv_index":7.6,"wind_gusts":45.4,"aqi":65,"pm10":33.4,"pm2_5":21.8,"mosquito_risk":4,"arthritis_risk":5,"migraine_risk":4,"frizz_risk":1,"updated_at":"2026-03-19T10:26:51.087664+05:30"},{"city":"Jaipur","state":"Rajasthan","latitude":26.9124,"longitude":75.7873,"temp":21.7,"humidity":69,"rain":0.0,"pressure":965.4,"uv_index":6.55,"wind_gusts":31.7,"aqi":149,"pm10":170.9,"pm2_5":43.0,"mosquito_risk":3,"arthritis_risk":5,"migraine_risk":7,"frizz_risk":0,"updated_at":"2026-03-19T10:26:51.087672+05:30"},{"city":"Lucknow","state":"Uttar Pradesh","latitude":26.8467,"longitude":80.9462,"temp":30.2,"humidity":36,"rain":0.0,"pressure":998.7,"uv_index":6.8,"wind_gusts":28.1,"aqi":98,"pm10":61.5,"pm2_5":33.4,"mosquito_risk":0,"arthritis_risk":5,"migraine_risk":7,"frizz_risk":0,"updated_at":"2026-03-19T10:26:51.087681+05:30"},{"city":"Kanpur","state":"Uttar Pradesh","latitude":26.4499,"longitude":80.3319,"temp":28.3,"humidity":50,"rain":0.0,"pressure":997.1,"uv_index":6.85,"wind_gusts":32.8,"aqi":111,"pm10":348.3,"pm2_5":62.2,"mosquito_risk":4,"arthritis_risk":5,"migraine_risk":7,"frizz_risk":1,"updated_at":"2026-03-19T10:26:51.087688+05:30"},{"city":"Chandigarh","state":"Chandigarh","latitude":30.7333,"longitude":76.7794,"temp":19.8,"humidity":72,"rain":0.0,"pressure":975.1,"uv_index":2.55,"wind_gusts":19.1,"aqi":61,"pm10":31.3,"pm2_5":13.5,"mosquito_risk":3,"arthritis_risk":5,"migraine_risk":3,"frizz_risk":0,"updated_at":"2026-03-19T10:26:51.087695+05:30"},{"city":"Srinagar","state":"Jammu and Kashmir","latitude":34.0837,"longitude":74.7973,"temp":6.8,"humidity":84,"rain":0.0,"pressure":843.1,"uv_index":1.0,"wind_gusts":15.1,"aqi":94,"pm10":24.7,"pm2_5":20.5,"mosquito_risk":3,"arthritis_risk":10,"migraine_risk":3,"frizz_risk":0,"updated_at":"2026-03-19T10:26:51.087703+05:30"},{"city":"Jammu","state":"Jammu and Kashmir","latitude":32.7266,"longitude":74.857,"temp":19.3,"humidity":75,"rain":0.0,"pressure":978.9,"uv_index":3.9,"wind_gusts":35.3,"aqi":61,"pm10":22.1,"pm2_5":12.1,"mosquito_risk":3,"arthritis_risk":5,"migraine_risk":3,"frizz_risk":0,"updated_at":"2026-03-19T10:26:51.087711+05:30"},{"city":"Amritsar","state":"Punjab","latitude":31.634,"longitude":74.8723,"temp":18.7,"humidity":78,"rain":0.0,"pressure":987.2,"uv_index":1.6,"wind_gusts":22.7,"aqi":83,"pm10":70.1,"pm2_5":28.9,"mosquito_risk":3,"arthritis_risk":5,"migraine_risk":3,"frizz_risk":0,"updated_at":"2026-03-19T10:26:51.087719+05:30"},{"city":"Ludhiana","state":"Punjab","latitude":30.901,"longitude":75.8573,"temp":18.9,"humidity":81,"rain":0.0,"pressure":985.1,"uv_index":1.75,"wind_gusts":24.5,"aqi":86,"pm10":51.0,"pm2_5":25.4,"mosquito_risk":3,"arthritis_risk":10,"migraine_risk":3,"frizz_risk":0,"updated_at":"2026-03-19T10:26:51.087726+05:30"},{"city":"Jalandhar","state":"Punjab","latitude":31.326,"longitude":75.5762,"temp":19.5,"humidity":70,"rain":0.0,"pressure":986.2,"uv_index":3.05,"wind_gusts":27.7,"aqi":83,"pm10":61.0,"pm2_5":29.8,"mosquito_risk":3,"arthritis_risk":5,"migraine_risk":3,"frizz_risk":0,"updated_at":"2026-03-19T10:26:51.087735+05:30"},{"city":"Dehradun","state":"Uttarakhand","latitude":30.6284,"longitude":78.0322,"temp":12.9,"humidity":69,"rain":0.0,"pressure":832.9,"uv_index":4.9,"wind_gusts":32.0,"aqi":42,"pm10":22.4,"pm2_5":6.6,"mosquito_risk":3,"arthritis_risk":5,"migraine_risk":3,"frizz_risk":0,"updated_at":"2026-03-19T10:26:51.087743+05:30"},{"city":"Shimla","state":"Himachal Pradesh","latitude":31.1048,"longitude":77.1734,"temp":12.3,"humidity":70,"rain":0.0,"pressure":786.7,"uv_index":3.1,"wind_gusts":37.4,"aqi":41,"pm10":21.0,"pm2_5":7.8,"mosquito_risk":3,"arthritis_risk":5,"migraine_risk":3,"frizz_risk":0,"updated_at":"2026-03-19T10:26:51.087752+05:30"},{"city":"Manali","state":"Himachal Pradesh","latitude":32.2396,"longitude":77.1887,"temp":12.3,"humidity":91,"rain":0.0,"pressure":820.2,"uv_index":4.15,"wind_gusts":23.8,"aqi":42,"pm10":5.2,"pm2_5":2.8,"mosquito_risk":3,"arthritis_risk":10,"migraine_risk":3,"frizz_risk":0,"updated_at":"2026-03-19T10:26:51.087759+05:30"},{"city":"Gurgaon","state":"Haryana","latitude":28.4595,"longitude":77.0266,"temp":21.7,"humidity":77,"rain":0.0,"pressure":987.8,"uv_index":6.25,"wind_gusts":30.2,"aqi":177,"pm10":103.4,"pm2_5":44.6,"mosquito_risk":3,"arthritis_risk":5,"migraine_risk":7,"frizz_risk":1,"updated_at":"2026-03-19T10:26:51.087766+05:30"},{"city":"Noida","state":"Uttar Pradesh","latitude":28.5355,"longitude":77.391,"temp":23.2,"humidity":65,"rain":0.0,"pressure":990.9,"uv_index":5.95,"wind_gusts":32.8,"aqi":177,"pm10":103.4,"pm2_5":44.6,"mosquito_risk":3,"arthritis_risk":5,"migraine_risk":3,"frizz_risk":1,"updated_at":"2026-03-19T10:26:51.087772+05:30"},{"city":"Ghaziabad","state":"Uttar Pradesh","latitude":28.6692,"longitude":77.4538,"temp":22.5,"humidity":67,"rain":0.0,"pressure":989.0,"uv_index":6.0,"wind_gusts":34.2,"aqi":121,"pm10":64.5,"pm2_5":28.7,"mosquito_risk":3,"arthritis_risk":5,"migraine_risk":3,"frizz_risk":1,"updated_at":"2026-03-19T10:26:51.087778+05:30"},{"city":"Faridabad","state":"Haryana","latitude":28.4089,"longitude":77.3178,"temp":23.0,"humidity":69,"rain":0.0,"pressure":990.3,"uv_index":6.3,"wind_gusts":33.5,"aqi":177,"pm10":103.4,"pm2_5":44.6,"mosquito_risk":3,"arthritis_risk":5,"migraine_risk":7,"frizz_risk":1,"updated_at":"2026-03-19T10:26:51.087785+05:30"},{"city":"Meerut","state":"Uttar Pradesh","latitude":28.9845,"longitude":77.7064,"temp":21.9,"humidity":71,"rain":0.0,"pressure":987.7,"uv_index":4.6,"wind_gusts":35.6,"aqi":121,"pm10":64.5,"pm2_5":28.7,"mosquito_risk":3,"arthritis_risk":5,"migraine_risk":3,"frizz_risk":1,"updated_at":"2026-03-19T10:26:51.087791+05:30"},{"city":"Agra","state":"Uttar Pradesh","latitude":27.1767,"longitude":78.0081,"temp":25.6,"humidity":46,"rain":0.0,"pressure":994.6,"uv_index":6.6,"wind_gusts":37.8,"aqi":540,"pm10":661.2,"pm2_5":88.9,"mosquito_risk":4,"arthritis_risk":5,"migraine_risk":7,"frizz_risk":0,"updated_at":"2026-03-19T10:26:51.087798+05:30"},{"city":"Varanasi","state":"Uttar Pradesh","latitude":25.3176,"longitude":82.9739,"temp":30.5,"humidity":54,"rain":0.0,"pressure":1002.3,"uv_index":7.5,"wind_gusts":52.9,"aqi":117,"pm10":53.3,"pm2_5":44.0,"mosquito_risk":0,"arthritis_risk":5,"migraine_risk":4,"frizz_risk":1,"updated_at":"2026-03-19T10:26:51.087807+05:30"},{"city":"Prayagraj","state":"Uttar Pradesh","latitude":25.4358,"longitude":81.8463,"temp":29.2,"humidity":58,"rain":0.0,"pressure":1000.9,"uv_index":7.35,"wind_gusts":21.2,"aqi":107,"pm10":77.5,"pm2_5":43.8,"mosquito_risk":4,"arthritis_risk":5,"migraine_risk":4,"frizz_risk":1,"updated_at":"2026-03-19T10:26:51.087817+05:30"},{"city":"Gorakhpur","state":"Uttar Pradesh","latitude":26.7606,"longitude":83.3732,"temp":28.7,"humidity":50,"rain":0.0,"pressure":1002.4,"uv_index":7.1,"wind_gusts":17.3,"aqi":126,"pm10":76.6,"pm2_5":36.9,"mosquito_risk":4,"arthritis_risk":5,"migraine_risk":4,"frizz_risk":1,"updated_at":"2026-03-19T10:26:51.087823+05:30"},{"city":"Bareilly","state":"Uttar Pradesh","latitude":28.367,"longitude":79.4304,"temp":25.9,"humidity":54,"rain":0.0,"pressure":992.4,"uv_index":6.1,"wind_gusts":34.2,"aqi":91,"pm10":27.0,"pm2_5":13.8,"mosquito_risk":4,"arthritis_risk":5,"migraine_risk":7,"frizz_risk":0,"updated_at":"2026-03-19T10:26:51.087830+05:30"},{"city":"Aligarh","state":"Uttar Pradesh","latitude":27.8974,"longitude":78.088,"temp":24.3,"humidity":57,"rain":0.0,"pressure":992.3,"uv_index":6.35,"wind_gusts":34.6,"aqi":142,"pm10":376.3,"pm2_5":56.3,"mosquito_risk":0,"arthritis_risk":5,"migraine_risk":7,"frizz_risk":0,"updated_at":"2026-03-19T10:26:51.087837+05:30"},{"city":"Moradabad","state":"Uttar Pradesh","latitude":28.8386,"longitude":78.7733,"temp":26.0,"humidity":53,"rain":0.0,"pressure":989.4,"uv_index":4.85,"wind_gusts":46.1,"aqi":118,"pm10":48.5,"pm2_5":27.5,"mosquito_risk":4,"arthritis_risk":5,"migraine_risk":3,"frizz_risk":0,"updated_at":"2026-03-19T10:26:51.087843+05:30"},{"city":"Saharanpur","state":"Uttar Pradesh","latitude":29.9637,"longitude":77.546,"temp":20.9,"humidity":69,"rain":0.0,"pressure":982.1,"uv_index":3.35,"wind_gusts":27.0,"aqi":78,"pm10":47.6,"pm2_5":23.6,"mosquito_risk":3,"arthritis_risk":5,"migraine_risk":3,"frizz_risk":0,"updated_at":"2026-03-19T10:26:51.087849+05:30"},{"city":"Jhansi","state":"Uttar Pradesh","latitude":25.4484,"longitude":78.5685,"temp":29.9,"humidity":38,"rain":0.0,"pressure":982.4,"uv_index":7.3,"wind_gusts":46.1,"aqi":80,"pm10":151.8,"pm2_5":48.2,"mosquito_risk":4,"arthritis_risk":5,"migraine_risk":7,"frizz_risk":0,"updated_at":"2026-03-19T10:26:54.371756+05:30"},{"city":"Surat","state":"Gujarat","latitude":21.1702,"longitude":72.8311,"temp":27.2,"humidity":65,"rain":0.0,"pressure":1012.4,"uv_index":7.45,"wind_gusts":30.6,"aqi":77,"pm10":39.2,"pm2_5":30.6,"mosquito_risk":7,"arthritis_risk":0,"migraine_risk":4,"frizz_risk":1,"updated_at":"2026-03-19T10:26:54.371788+05:30"},{"city":"Vadodara","state":"Gujarat","latitude":22.3072,"longitude":73.1812,"temp":28.6,"humidity":58,"rain":0.0,"pressure":1009.6,"uv_index":7.55,"wind_gusts":55.8,"aqi":63,"pm10":22.4,"pm2_5":16.5,"mosquito_risk":4,"arthritis_risk":0,"migraine_risk":4,"frizz_risk":1,"updated_at":"2026-03-19T10:26:54.371798+05:30"},{"city":"Rajkot","state":"Gujarat","latitude":22.3039,"longitude":70.8022,"temp":28.2,"humidity":56,"rain":0.0,"pressure":998.2,"uv_index":7.45,"wind_gusts":51.8,"aqi":40,"pm10":31.9,"pm2_5":17.1,"mosquito_risk":4,"arthritis_risk":5,"migraine_risk":7,"frizz_risk":1,"updated_at":"2026-03-19T10:26:54.371807+05:30"},{"city":"Thane","state":"Maharashtra","latitude":19.2183,"longitude":72.9781,"temp":28.4,"humidity":64,"rain":0.0,"pressure":1013.0,"uv_index":7.75,"wind_gusts":34.6,"aqi":71,"pm10":38.3,"pm2_5":26.4,"mosquito_risk":7,"arthritis_risk":0,"migraine_risk":4,"frizz_risk":1,"updated_at":"2026-03-19T10:26:54.371814+05:30"},{"city":"Nagpur","state":"Maharashtra","latitude":21.1458,"longitude":79.0882,"temp":28.6,"humidity":53,"rain":0.0,"pressure":979.1,"uv_index":8.2,"wind_gusts":22.7,"aqi":101,"pm10":58.3,"pm2_5":48.0,"mosquito_risk":4,"arthritis_risk":5,"migraine_risk":7,"frizz_risk":1,"updated_at":"2026-03-19T10:26:54.371822+05:30"},{"city":"Nashik","state":"Maharashtra","latitude":19.9975,"longitude":73.7898,"temp":26.7,"humidity":57,"rain":0.0,"pressure":950.2,"uv_index":7.95,"wind_gusts":38.9,"aqi":57,"pm10":17.0,"pm2_5":9.9,"mosquito_risk":4,"arthritis_risk":5,"migraine_risk":7,"frizz_risk":1,"updated_at":"2026-03-19T10:26:54.371829+05:30"},{"city":"Aurangabad","state":"Maharashtra","latitude":19.8762,"longitude":75.3433,"temp":27.7,"humidity":46,"rain":0.0,"pressure":949.3,"uv_index":8.25,"wind_gusts":29.2,"aqi":73,"pm10":29.1,"pm2_5":20.5,"mosquito_risk":4,"arthritis_risk":5,"migraine_risk":7,"frizz_risk":0,"updated_at":"2026-03-19T10:26:54.371836+05:30"},{"city":"Solapur","state":"Maharashtra","latitude":17.6599,"longitude":75.9064,"temp":28.3,"humidity":51,"rain":0.0,"pressure":962.6,"uv_index":8.65,"wind_gusts":33.5,"aqi":83,"pm10":33.5,"pm2_5":27.8,"mosquito_risk":4,"arthritis_risk":5,"migraine_risk":7,"frizz_risk":1,"updated_at":"2026-03-19T10:26:54.371843+05:30"},{"city":"Kolhapur","state":"Maharashtra","latitude":16.705,"longitude":74.2433,"temp":27.4,"humidity":29,"rain":0.0,"pressure":953.3,"uv_index":8.8,"wind_gusts":37.8,"aqi":120,"pm10":46.6,"pm2_5":34.5,"mosquito_risk":4,"arthritis_risk":5,"migraine_risk":7,"frizz_risk":0,"updated_at":"2026-03-19T10:26:54.371850+05:30"},{"city":"Goa","state":"Goa","latitude":15.2993,"longitude":74.124,"temp":29.4,"humidity":64,"rain":0.0,"pressure":1003.4,"uv_index":8.8,"wind_gusts":30.6,"aqi":82,"pm10":35.5,"pm2_5":22.2,"mosquito_risk":7,"arthritis_risk":5,"migraine_risk":4,"frizz_risk":1,"updated_at":"2026-03-19T10:26:54.371856+05:30"},{"city":"Jodhpur","state":"Rajasthan","latitude":26.2389,"longitude":73.0243,"temp":22.4,"humidity":68,"rain":0.0,"pressure":988.8,"uv_index":6.95,"wind_gusts":40.7,"aqi":62,"pm10":104.1,"pm2_5":20.9,"mosquito_risk":3,"arthritis_risk":5,"migraine_risk":7,"frizz_risk":1,"updated_at":"2026-03-19T10:26:54.371863+05:30"},{"city":"Udaipur","state":"Rajasthan","latitude":24.5854,"longitude":73.7125,"temp":23.9,"humidity":52,"rain":0.0,"pressure":951.2,"uv_index":6.9,"wind_gusts":38.9,"aqi":31,"pm10":46.2,"pm2_5":17.5,"mosquito_risk":0,"arthritis_risk":5,"migraine_risk":7,"frizz_risk":0,"updated_at":"2026-03-19T10:26:54.371870+05:30"},{"city":"Kota","state":"Rajasthan","latitude":25.2138,"longitude":75.8648,"temp":26.5,"humidity":51,"rain":0.0,"pressure":983.7,"uv_index":7.35,"wind_gusts":34.2,"aqi":77,"pm10":105.0,"pm2_5":38.3,"mosquito_risk":4,"arthritis_risk":5,"migraine_risk":7,"frizz_risk":0,"updated_at":"2026-03-19T10:26:54.371878+05:30"},{"city":"Bikaner","state":"Rajasthan","latitude":28.0229,"longitude":73.3119,"temp":21.6,"humidity":73,"rain":0.0,"pressure":987.3,"uv_index":4.6,"wind_gusts":31.0,"aqi":65,"pm10":64.0,"pm2_5":15.6,"mosquito_risk":3,"arthritis_risk":5,"migraine_risk":3,"frizz_risk":1,"updated_at":"2026-03-19T10:26:54.371884+05:30"},{"city":"Ajmer","state":"Rajasthan","latitude":26.4499,"longitude":74.6399,"temp":23.5,"humidity":59,"rain":0.0,"pressure":960.1,"uv_index":6.1,"wind_gusts":31.0,"aqi":76,"pm10":75.9,"pm2_5":21.9,"mosquito_risk":0,"arthritis_risk":5,"migraine_risk":7,"frizz_risk":0,"updated_at":"2026-03-19T10:26:54.371891+05:30"},{"city":"Gwalior","state":"Madhya Pradesh","latitude":26.2183,"longitude":78.1828,"temp":28.0,"humidity":47,"rain":0.0,"pressure":988.5,"uv_index":6.95,"wind_gusts":31.3,"aqi":125,"pm10":257.0,"pm2_5":62.2,"mosquito_risk":4,"arthritis_risk":5,"migraine_risk":7,"frizz_risk":0,"updated_at":"2026-03-19T10:26:54.371898+05:30"},{"city":"Indore","state":"Madhya Pradesh","latitude":22.7196,"longitude":75.8577,"temp":28.3,"humidity":32,"rain":0.0,"pressure":952.8,"uv_index":7.9,"wind_gusts":41.4,"aqi":54,"pm10":15.9,"pm2_5":15.8,"mosquito_risk":4,"arthritis_risk":5,"migraine_risk":7,"frizz_risk":0,"updated_at":"2026-03-19T10:26:54.371904+05:30"},{"city":"Bhopal","state":"Madhya Pradesh","latitude":23.2599,"longitude":77.4126,"temp":29.7,"humidity":36,"rain":0.0,"pressure":958.6,"uv_index":7.8,"wind_gusts":34.9,"aqi":68,"pm10":26.9,"pm2_5":24.7,"mosquito_risk":4,"arthritis_risk":5,"migraine_risk":7,"frizz_risk":0,"updated_at":"2026-03-19T10:26:54.371911+05:30"},{"city":"Jabalpur","state":"Madhya Pradesh","latitude":23.1815,"longitude":79.9864,"temp":30.3,"humidity":44,"rain":0.0,"pressure":966.5,"uv_index":7.9,"wind_gusts":31.7,"aqi":74,"pm10":35.0,"pm2_5":29.1,"mosquito_risk":0,"arthritis_risk":5,"migraine_risk":7,"frizz_risk":1,"updated_at":"2026-03-19T10:26:54.371917+05:30"},{"city":"Ujjain","state":"Madhya Pradesh","latitude":23.1765,"longitude":75.7885,"temp":27.1,"humidity":34,"rain":0.0,"pressure":958.6,"uv_index":7.8,"wind_gusts":31.3,"aqi":53,"pm10":19.6,"pm2_5":17.6,"mosquito_risk":4,"arthritis_risk":5,"migraine_risk":7,"frizz_risk":0,"updated_at":"2026-03-19T10:26:54.371925+05:30"},{"city":"Visakhapatnam","state":"Andhra Pradesh","latitude":17.6868,"longitude":83.2185,"temp":29.7,"humidity":60,"rain":0.0,"pressure":1010.0,"uv_index":8.45,"wind_gusts":31.0,"aqi":63,"pm10":29.1,"pm2_5":24.0,"mosquito_risk":4,"arthritis_risk":0,"migraine_risk":4,"frizz_risk":1,"updated_at":"2026-03-19T10:26:54.371931+05:30"},{"city":"Vijayawada","state":"Andhra Pradesh","latitude":16.5062,"longitude":80.648,"temp":27.7,"humidity":71,"rain":0.0,"pressure":1009.0,"uv_index":8.85,"wind_gusts":28.4,"aqi":63,"pm10":16.7,"pm2_5":13.3,"mosquito_risk":7,"arthritis_risk":0,"migraine_risk":4,"frizz_risk":1,"updated_at":"2026-03-19T10:26:54.371938+05:30"},{"city":"Guntur","state":"Andhra Pradesh","latitude":16.3067,"longitude":80.4365,"temp":28.3,"humidity":70,"rain":0.0,"pressure":1010.0,"uv_index":8.85,"wind_gusts":23.0,"aqi":64,"pm10":15.7,"pm2_5":12.0,"mosquito_risk":7,"arthritis_risk":0,"migraine_risk":4,"frizz_risk":1,"updated_at":"2026-03-19T10:26:54.371944+05:30"},{"city":"Nellore","state":"Andhra Pradesh","latitude":14.4426,"longitude":79.9865,"temp":29.4,"humidity":64,"rain":0.0,"pressure":1011.7,"uv_index":9.0,"wind_gusts":23.8,"aqi":34,"pm10":14.2,"pm2_5":10.4,"mosquito_risk":7,"arthritis_risk":0,"migraine_risk":4,"frizz_risk":1,"updated_at":"2026-03-19T10:26:54.371952+05:30"},{"city":"Kurnool","state":"Andhra Pradesh","latitude":15.8281,"longitude":78.0373,"temp":28.1,"humidity":58,"rain":0.0,"pressure":983.1,"uv_index":8.85,"wind_gusts":18.7,"aqi":65,"pm10":14.8,"pm2_5":10.8,"mosquito_risk":4,"arthritis_risk":5,"migraine_risk":7,"frizz_risk":1,"updated_at":"2026-03-19T10:26:54.371959+05:30"},{"city":"Kakinada","state":"Andhra Pradesh","latitude":16.9891,"longitude":82.2475,"temp":29.4,"humidity":61,"rain":0.0,"pressure":1013.9,"uv_index":8.7,"wind_gusts":24.1,"aqi":41,"pm10":13.7,"pm2_5":10.2,"mosquito_risk":7,"arthritis_risk":0,"migraine_risk":4,"frizz_risk":1,"updated_at":"2026-03-19T10:26:54.371965+05:30"},{"city":"Tirupati","state":"Andhra Pradesh","latitude":13.6288,"longitude":79.4192,"temp":28.7,"humidity":62,"rain":0.0,"pressure":997.2,"uv_index":9.1,"wind_gusts":25.6,"aqi":61,"pm10":15.7,"pm2_5":11.7,"mosquito_risk":7,"arthritis_risk":5,"migraine_risk":7,"frizz_risk":1,"updated_at":"2026-03-19T10:26:54.371971+05:30"},{"city":"Warangal","state":"Telangana","latitude":17.9689,"longitude":79.5941,"temp":27.0,"humidity":70,"rain":0.0,"pressure":984.9,"uv_index":8.5,"wind_gusts":21.6,"aqi":144,"pm10":23.9,"pm2_5":20.1,"mosquito_risk":7,"arthritis_risk":5,"migraine_risk":7,"frizz_risk":1,"updated_at":"2026-03-19T10:26:54.371978+05:30"},{"city":"Nizamabad","state":"Telangana","latitude":18.6725,"longitude":78.0941,"temp":27.3,"humidity":56,"rain":0.0,"pressure":970.8,"uv_index":8.5,"wind_gusts":25.6,"aqi":121,"pm10":36.0,"pm2_5":32.2,"mosquito_risk":4,"arthritis_risk":5,"migraine_risk":7,"frizz_risk":1,"updated_at":"2026-03-19T10:26:54.371984+05:30"},{"city":"Mysore","state":"Karnataka","latitude":12.2958,"longitude":76.6396,"temp":25.5,"humidity":63,"rain":0.0,"pressure":933.4,"uv_index":9.35,"wind_gusts":31.3,"aqi":94,"pm10":40.5,"pm2_5":36.3,"mosquito_risk":7,"arthritis_risk":5,"migraine_risk":7,"frizz_risk":1,"updated_at":"2026-03-19T10:26:54.371990+05:30"},{"city":"Mangalore","state":"Karnataka","latitude":12.9141,"longitude":74.856,"temp":27.2,"humidity":74,"rain":0.0,"pressure":1011.9,"uv_index":8.95,"wind_gusts":24.1,"aqi":72,"pm10":27.5,"pm2_5":22.2,"mosquito_risk":7,"arthritis_risk":0,"migraine_risk":4,"frizz_risk":1,"updated_at":"2026-03-19T10:26:54.371996+05:30"},{"city":"Hubli-Dharwad","state":"Karnataka","latitude":15.3647,"longitude":75.124,"temp":26.4,"humidity":61,"rain":0.0,"pressure":946.2,"uv_index":8.95,"wind_gusts":36.4,"aqi":97,"pm10":33.5,"pm2_5":28.2,"mosquito_risk":7,"arthritis_risk":5,"migraine_risk":7,"frizz_risk":1,"updated_at":"2026-03-19T10:26:54.372003+05:30"},{"city":"Belgaum","state":"Karnataka","latitude":15.8497,"longitude":74.4977,"temp":26.7,"humidity":51,"rain":0.0,"pressure":930.9,"uv_index":9.0,"wind_gusts":37.4,"aqi":105,"pm10":32.7,"pm2_5":19.4,"mosquito_risk":4,"arthritis_risk":5,"migraine_risk":7,"frizz_risk":0,"updated_at":"2026-03-19T10:26:57.648516+05:30"},{"city":"Coimbatore","state":"Tamil Nadu","latitude":11.0168,"longitude":76.9558,"temp":26.5,"humidity":66,"rain":0.0,"pressure":967.2,"uv_index":9.35,"wind_gusts":39.2,"aqi":65,"pm10":18.9,"pm2_5":17.6,"mosquito_risk":7,"arthritis_risk":5,"migraine_risk":7,"frizz_risk":1,"updated_at":"2026-03-19T10:26:57.648547+05:30"},{"city":"Madurai","state":"Tamil Nadu","latitude":9.9252,"longitude":78.1198,"temp":27.9,"humidity":70,"rain":0.0,"pressure":998.5,"uv_index":9.3,"wind_gusts":20.5,"aqi":49,"pm10":13.4,"pm2_5":12.5,"mosquito_risk":7,"arthritis_risk":5,"migraine_risk":7,"frizz_risk":1,"updated_at":"2026-03-19T10:26:57.648558+05:30"},{"city":"Trichy","state":"Tamil Nadu","latitude":10.7905,"longitude":78.7047,"temp":28.0,"humidity":69,"rain":0.0,"pressure":1005.4,"uv_index":9.2,"wind_gusts":25.2,"aqi":51,"pm10":11.7,"pm2_5":10.6,"mosquito_risk":7,"arthritis_risk":5,"migraine_risk":4,"frizz_risk":1,"updated_at":"2026-03-19T10:26:57.648566+05:30"},{"city":"Salem","state":"Tamil Nadu","latitude":11.6643,"longitude":78.146,"temp":28.2,"humidity":64,"rain":0.0,"pressure":982.7,"uv_index":9.25,"wind_gusts":20.2,"aqi":74,"pm10":24.0,"pm2_5":22.1,"mosquito_risk":7,"arthritis_risk":5,"migraine_risk":7,"frizz_risk":1,"updated_at":"2026-03-19T10:26:57.648573+05:30"},{"city":"Tirunelveli","state":"Tamil Nadu","latitude":8.7139,"longitude":77.7567,"temp":29.3,"humidity":64,"rain":0.0,"pressure":1008.2,"uv_index":9.0,"wind_gusts":24.1,"aqi":65,"pm10":17.3,"pm2_5":15.9,"mosquito_risk":7,"arthritis_risk":0,"migraine_risk":4,"frizz_risk":1,"updated_at":"2026-03-19T10:26:57.648581+05:30"},{"city":"Vellore","state":"Tamil Nadu","latitude":12.9165,"longitude":79.1325,"temp":28.4,"humidity":60,"rain":0.0,"pressure":990.0,"uv_index":9.15,"wind_gusts":23.4,"aqi":58,"pm10":13.1,"pm2_5":10.3,"mosquito_risk":4,"arthritis_risk":5,"migraine_risk":7,"frizz_risk":1,"updated_at":"2026-03-19T10:26:57.648588+05:30"},{"city":"Erode","state":"Tamil Nadu","latitude":11.341,"longitude":77.7172,"temp":27.8,"humidity":63,"rain":0.0,"pressure":994.8,"uv_index":9.25,"wind_gusts":23.4,"aqi":55,"pm10":15.8,"pm2_5":14.5,"mosquito_risk":7,"arthritis_risk":5,"migraine_risk":7,"frizz_risk":1,"updated_at":"2026-03-19T10:26:57.648595+05:30"},{"city":"Kochi","state":"Kerala","latitude":9.9312,"longitude":76.2673,"temp":26.8,"humidity":81,"rain":0.0,"pressure":1013.4,"uv_index":9.05,"wind_gusts":25.9,"aqi":63,"pm10":16.3,"pm2_5":15.4,"mosquito_risk":7,"arthritis_risk":0,"migraine_risk":4,"frizz_risk":1,"updated_at":"2026-03-19T10:26:57.648603+05:30"},{"city":"Thiruvananthapuram","state":"Kerala","latitude":8.5241,"longitude":76.9366,"temp":27.2,"humidity":78,"rain":0.0,"pressure":1012.2,"uv_index":8.7,"wind_gusts":20.5,"aqi":44,"pm10":12.8,"pm2_5":12.1,"mosquito_risk":7,"arthritis_risk":0,"migraine_risk":4,"frizz_risk":1,"updated_at":"2026-03-19T10:26:57.648610+05:30"},{"city":"Kozhikode","state":"Kerala","latitude":11.2588,"longitude":75.7804,"temp":28.4,"humidity":74,"rain":0.0,"pressure":1012.9,"uv_index":9.05,"wind_gusts":27.7,"aqi":62,"pm10":15.5,"pm2_5":14.4,"mosquito_risk":7,"arthritis_risk":0,"migraine_risk":4,"frizz_risk":1,"updated_at":"2026-03-19T10:26:57.648616+05:30"},{"city":"Thrissur","state":"Kerala","latitude":10.5276,"longitude":76.2144,"temp":29.6,"humidity":67,"rain":0.0,"pressure":1012.0,"uv_index":9.1,"wind_gusts":31.0,"aqi":59,"pm10":15.0,"pm2_5":14.3,"mosquito_risk":7,"arthritis_risk":0,"migraine_risk":4,"frizz_risk":1,"updated_at":"2026-03-19T10:26:57.648624+05:30"},{"city":"Kannur","state":"Kerala","latitude":11.8745,"longitude":75.3704,"temp":28.8,"humidity":66,"rain":0.0,"pressure":1012.3,"uv_index":9.0,"wind_gusts":30.6,"aqi":66,"pm10":21.4,"pm2_5":18.6,"mosquito_risk":7,"arthritis_risk":0,"migraine_risk":4,"frizz_risk":1,"updated_at":"2026-03-19T10:26:57.648630+05:30"},{"city":"Patna","state":"Bihar","latitude":25.5941,"longitude":85.1376,"temp":28.9,"humidity":62,"rain":0.0,"pressure":1005.9,"uv_index":7.65,"wind_gusts":50.8,"aqi":160,"pm10":95.0,"pm2_5":77.3,"mosquito_risk":7,"arthritis_risk":5,"migraine_risk":4,"frizz_risk":1,"updated_at":"2026-03-19T10:26:57.648637+05:30"},{"city":"Gaya","state":"Bihar","latitude":24.7914,"longitude":85.0002,"temp":29.7,"humidity":50,"rain":0.0,"pressure":999.1,"uv_index":6.5,"wind_gusts":29.9,"aqi":114,"pm10":46.2,"pm2_5":38.2,"mosquito_risk":4,"arthritis_risk":5,"migraine_risk":7,"frizz_risk":1,"updated_at":"2026-03-19T10:26:57.648644+05:30"},{"city":"Muzaffarpur","state":"Bihar","latitude":26.1209,"longitude":85.3647,"temp":28.1,"humidity":63,"rain":0.0,"pressure":1006.0,"uv_index":7.0,"wind_gusts":35.6,"aqi":161,"pm10":86.8,"pm2_5":73.8,"mosquito_risk":7,"arthritis_risk":5,"migraine_risk":4,"frizz_risk":1,"updated_at":"2026-03-19T10:26:57.648651+05:30"},{"city":"Bhagalpur","state":"Bihar","latitude":25.2425,"longitude":87.0117,"temp":26.6,"humidity":74,"rain":0.0,"pressure":1007.5,"uv_index":7.25,"wind_gusts":34.9,"aqi":125,"pm10":52.5,"pm2_5":50.5,"mosquito_risk":7,"arthritis_risk":5,"migraine_risk":4,"frizz_risk":1,"updated_at":"2026-03-19T10:26:57.648657+05:30"},{"city":"Ranchi","state":"Jharkhand","latitude":23.3441,"longitude":85.3096,"temp":27.6,"humidity":50,"rain":0.0,"pressure":943.6,"uv_index":5.5,"wind_gusts":35.3,"aqi":95,"pm10":47.5,"pm2_5":37.5,"mosquito_risk":4,"arthritis_risk":5,"migraine_risk":3,"frizz_risk":1,"updated_at":"2026-03-19T10:26:57.648664+05:30"},{"city":"Jamshedpur","state":"Jharkhand","latitude":22.8046,"longitude":86.2029,"temp":29.9,"humidity":49,"rain":0.0,"pressure":997.0,"uv_index":8.0,"wind_gusts":40.3,"aqi":137,"pm10":57.0,"pm2_5":48.5,"mosquito_risk":4,"arthritis_risk":5,"migraine_risk":7,"frizz_risk":1,"updated_at":"2026-03-19T10:26:57.648670+05:30"},{"city":"Dhanbad","state":"Jharkhand","latitude":23.7957,"longitude":86.4304,"temp":31.4,"humidity":35,"rain":0.0,"pressure":985.4,"uv_index":7.25,"wind_gusts":30.2,"aqi":157,"pm10":66.1,"pm2_5":58.2,"mosquito_risk":0,"arthritis_risk":5,"migraine_risk":7,"frizz_risk":0,"updated_at":"2026-03-19T10:26:57.648677+05:30"},{"city":"Bokaro","state":"Jharkhand","latitude":23.6693,"longitude":86.1511,"temp":31.8,"humidity":36,"rain":0.0,"pressure":989.6,"uv_index":6.85,"wind_gusts":35.6,"aqi":144,"pm10":56.1,"pm2_5":47.8,"mosquito_risk":0,"arthritis_risk":5,"migraine_risk":7,"frizz_risk":0,"updated_at":"2026-03-19T10:26:57.648684+05:30"},{"city":"Bhubaneswar","state":"Odisha","latitude":20.2961,"longitude":85.8245,"temp":30.1,"humidity":67,"rain":0.0,"pressure":1008.7,"uv_index":7.05,"wind_gusts":22.0,"aqi":79,"pm10":38.9,"pm2_5":31.2,"mosquito_risk":3,"arthritis_risk":0,"migraine_risk":4,"frizz_risk":1,"updated_at":"2026-03-19T10:26:57.648691+05:30"},{"city":"Cuttack","state":"Odisha","latitude":20.4625,"longitude":85.8828,"temp":31.3,"humidity":60,"rain":0.0,"pressure":1010.5,"uv_index":7.45,"wind_gusts":22.3,"aqi":79,"pm10":38.9,"pm2_5":31.2,"mosquito_risk":0,"arthritis_risk":0,"migraine_risk":4,"frizz_risk":1,"updated_at":"2026-03-19T10:26:57.648698+05:30"},{"city":"Rourkela","state":"Odisha","latitude":22.2604,"longitude":84.8536,"temp":28.9,"humidity":57,"rain":0.0,"pressure":991.6,"uv_index":6.8,"wind_gusts":25.6,"aqi":123,"pm10":57.9,"pm2_5":46.8,"mosquito_risk":4,"arthritis_risk":5,"migraine_risk":7,"frizz_risk":1,"updated_at":"2026-03-19T10:26:57.648705+05:30"},{"city":"Raipur","state":"Chhattisgarh","latitude":21.2514,"longitude":81.6296,"temp":30.4,"humidity":43,"rain":0.0,"pressure":981.0,"uv_index":7.35,"wind_gusts":27.7,"aqi":122,"pm10":74.0,"pm2_5":67.8,"mosquito_risk":0,"arthritis_risk":5,"migraine_risk":7,"frizz_risk":1,"updated_at":"2026-03-19T10:26:57.648711+05:30"},{"city":"Bhilai","state":"Chhattisgarh","latitude":21.1938,"longitude":81.3509,"temp":30.3,"humidity":47,"rain":0.0,"pressure":981.3,"uv_index":8.05,"wind_gusts":26.3,"aqi":128,"pm10":69.6,"pm2_5":61.9,"mosquito_risk":0,"arthritis_risk":5,"migraine_risk":7,"frizz_risk":1,"updated_at":"2026-03-19T10:26:57.648718+05:30"},{"city":"Guwahati","state":"Assam","latitude":26.1158,"longitude":91.7086,"temp":24.2,"humidity":75,"rain":0.0,"pressure":1009.0,"uv_index":7.55,"wind_gusts":29.5,"aqi":116,"pm10":43.2,"pm2_5":31.3,"mosquito_risk":3,"arthritis_risk":0,"migraine_risk":4,"frizz_risk":1,"updated_at":"2026-03-19T10:26:57.648724+05:30"},{"city":"Agartala","state":"Tripura","latitude":23.8315,"longitude":91.2868,"temp":28.2,"humidity":63,"rain":0.0,"pressure":1012.9,"uv_index":7.9,"wind_gusts":29.2,"aqi":87,"pm10":21.9,"pm2_5":19.2,"mosquito_risk":7,"arthritis_risk":0,"migraine_risk":4,"frizz_risk":1,"updated_at":"2026-03-19T10:26:57.648730+05:30"},{"city":"Shillong","state":"Meghalaya","latitude":25.5788,"longitude":91.8933,"temp":18.8,"humidity":50,"rain":0.0,"pressure":861.6,"uv_index":7.1,"wind_gusts":47.9,"aqi":85,"pm10":46.6,"pm2_5":29.4,"mosquito_risk":0,"arthritis_risk":5,"migraine_risk":7,"frizz_risk":0,"updated_at":"2026-03-19T10:26:57.648737+05:30"},{"city":"Imphal","state":"Manipur","latitude":24.817,"longitude":93.9368,"temp":20.3,"humidity":73,"rain":0.0,"pressure":929.1,"uv_index":8.25,"wind_gusts":60.8,"aqi":92,"pm10":32.2,"pm2_5":25.3,"mosquito_risk":3,"arthritis_risk":5,"migraine_risk":7,"frizz_risk":0,"updated_at":"2026-03-19T10:26:57.648743+05:30"},{"city":"Aizawl","state":"Mizoram","latitude":23.7271,"longitude":92.7176,"temp":24.9,"humidity":49,"rain":0.0,"pressure":899.3,"uv_index":8.05,"wind_gusts":40.0,"aqi":72,"pm10":26.5,"pm2_5":19.6,"mosquito_risk":0,"arthritis_risk":5,"migraine_risk":7,"frizz_risk":0,"updated_at":"2026-03-19T10:26:57.648750+05:30"},{"city":"Kohima","state":"Nagaland","latitude":25.6701,"longitude":94.1077,"temp":17.8,"humidity":71,"rain":0.0,"pressure":860.4,"uv_index":7.95,"wind_gusts":86.8,"aqi":82,"pm10":37.1,"pm2_5":24.6,"mosquito_risk":3,"arthritis_risk":5,"migraine_risk":7,"frizz_risk":0,"updated_at":"2026-03-19T10:26:57.648756+05:30"},{"city":"Gangtok","state":"Sikkim","latitude":27.3314,"longitude":88.6138,"temp":17.4,"humidity":69,"rain":0.0,"pressure":841.6,"uv_index":7.5,"wind_gusts":19.4,"aqi":97,"pm10":61.5,"pm2_5":29.8,"mosquito_risk":3,"arthritis_risk":5,"migraine_risk":7,"frizz_risk":0,"updated_at":"2026-03-19T10:26:57.648763+05:30"},{"city":"Siliguri","state":"West Bengal","latitude":26.7271,"longitude":88.3953,"temp":20.6,"humidity":82,"rain":0.0,"pressure":1000.5,"uv_index":7.35,"wind_gusts":24.8,"aqi":133,"pm10":79.2,"pm2_5":55.9,"mosquito_risk":3,"arthritis_risk":5,"migraine_risk":4,"frizz_risk":1,"updated_at":"2026-03-19T10:27:00.978766+05:30"},{"city":"Durgapur","state":"West Bengal","latitude":23.5204,"longitude":87.3119,"temp":30.5,"humidity":54,"rain":0.0,"pressure":1000.8,"uv_index":7.9,"wind_gusts":28.4,"aqi":147,"pm10":78.9,"pm2_5":70.1,"mosquito_risk":0,"arthritis_risk":5,"migraine_risk":4,"frizz_risk":1,"updated_at":"2026-03-19T10:27:00.978798+05:30"},{"city":"Asansol","state":"West Bengal","latitude":23.6739,"longitude":86.9524,"temp":31.1,"humidity":49,"rain":0.0,"pressure":999.2,"uv_index":7.6,"wind_gusts":25.6,"aqi":153,"pm10":71.9,"pm2_5":64.0,"mosquito_risk":0,"arthritis_risk":5,"migraine_risk":7,"frizz_risk":1,"updated_at":"2026-03-19T10:27:00.978810+05:30"},{"city":"Pondicherry","state":"Puducherry","latitude":11.9139,"longitude":79.8145,"temp":28.3,"humidity":73,"rain":0.0,"pressure":1014.1,"uv_index":9.1,"wind_gusts":26.6,"aqi":37,"pm10":15.4,"pm2_5":11.8,"mosquito_risk":7,"arthritis_risk":0,"migraine_risk":4,"frizz_risk":1,"updated_at":"2026-03-19T10:27:00.978820+05:30"},{"city":"Port Blair","state":"Andaman and Nicobar Islands","latitude":11.6234,"longitude":92.7265,"temp":28.3,"humidity":76,"rain":0.0,"pressure":1011.0,"uv_index":9.05,"wind_gusts":22.0,"aqi":50,"pm10":16.5,"pm2_5":12.8,"mosquito_risk":7,"arthritis_risk":0,"migraine_risk":4,"frizz_risk":1,"updated_at":"2026-03-19T10:27:00.978827+05:30"},{"city":"Haridwar","state":"Uttarakhand","latitude":29.9457,"longitude":78.1642,"temp":23.3,"humidity":62,"rain":0.0,"pressure":980.4,"uv_index":2.7,"wind_gusts":24.8,"aqi":68,"pm10":35.9,"pm2_5":15.7,"mosquito_risk":3,"arthritis_risk":5,"migraine_risk":3,"frizz_risk":0,"updated_at":"2026-03-19T10:27:00.978835+05:30"},{"city":"Rishikesh","state":"Uttarakhand","latitude":30.0869,"longitude":78.2676,"temp":23.9,"humidity":49,"rain":0.0,"pressure":972.8,"uv_index":2.25,"wind_gusts":28.1,"aqi":63,"pm10":27.2,"pm2_5":9.8,"mosquito_risk":0,"arthritis_risk":5,"migraine_risk":3,"frizz_risk":0,"updated_at":"2026-03-19T10:27:00.978842+05:30"},{"city":"Nainital","state":"Uttarakhand","latitude":29.3919,"longitude":79.4542,"temp":19.8,"humidity":53,"rain":0.0,"pressure":810.5,"uv_index":4.85,"wind_gusts":59.4,"aqi":76,"pm10":31.8,"pm2_5":14.4,"mosquito_risk":0,"arthritis_risk":5,"migraine_risk":3,"frizz_risk":0,"updated_at":"2026-03-19T10:27:00.978848+05:30"},{"city":"Mussoorie","state":"Uttarakhand","latitude":30.4599,"longitude":78.0664,"temp":14.1,"humidity":64,"rain":0.0,"pressure":805.4,"uv_index":2.55,"wind_gusts":41.0,"aqi":60,"pm10":34.5,"pm2_5":11.9,"mosquito_risk":3,"arthritis_risk":5,"migraine_risk":3,"frizz_risk":0,"updated_at":"2026-03-19T10:27:00.978854+05:30"},{"city":"Dharamshala","state":"Himachal Pradesh","latitude":32.219,"longitude":76.3234,"temp":17.4,"humidity":67,"rain":0.0,"pressure":872.0,"uv_index":4.4,"wind_gusts":29.9,"aqi":40,"pm10":8.2,"pm2_5":3.3,"mosquito_risk":3,"arthritis_risk":5,"migraine_risk":3,"frizz_risk":0,"updated_at":"2026-03-19T10:27:00.978860+05:30"},{"city":"Dalhousie","state":"Himachal Pradesh","latitude":32.5387,"longitude":75.971,"temp":13.3,"humidity":65,"rain":0.0,"pressure":805.2,"uv_index":4.55,"wind_gusts":25.2,"aqi":55,"pm10":40.2,"pm2_5":12.7,"mosquito_risk":3,"arthritis_risk":5,"migraine_risk":3,"frizz_risk":0,"updated_at":"2026-03-19T10:27:00.978867+05:30"},{"city":"Patiala","state":"Punjab","latitude":30.3398,"longitude":76.3869,"temp":20.4,"humidity":76,"rain":0.0,"pressure":985.0,"uv_index":2.6,"wind_gusts":25.2,"aqi":107,"pm10":35.0,"pm2_5":16.8,"mosquito_risk":3,"arthritis_risk":5,"migraine_risk":3,"frizz_risk":0,"updated_at":"2026-03-19T10:27:00.978873+05:30"},{"city":"Bhatinda","state":"Punjab","latitude":30.211,"longitude":74.9455,"temp":18.2,"humidity":87,"rain":0.0,"pressure":990.0,"uv_index":1.7,"wind_gusts":21.2,"aqi":85,"pm10":73.3,"pm2_5":31.3,"mosquito_risk":3,"arthritis_risk":10,"migraine_risk":3,"frizz_risk":0,"updated_at":"2026-03-19T10:27:00.978880+05:30"},{"city":"Rohtak","state":"Haryana","latitude":28.8955,"longitude":76.6066,"temp":21.8,"humidity":81,"rain":0.0,"pressure":988.2,"uv_index":4.55,"wind_gusts":28.8,"aqi":139,"pm10":81.7,"pm2_5":45.5,"mosquito_risk":3,"arthritis_risk":5,"migraine_risk":3,"frizz_risk":1,"updated_at":"2026-03-19T10:27:00.978887+05:30"},{"city":"Panipat","state":"Haryana","latitude":29.3909,"longitude":76.9635,"temp":20.8,"humidity":78,"rain":0.0,"pressure":987.0,"uv_index":4.3,"wind_gusts":36.0,"aqi":137,"pm10":54.1,"pm2_5":28.7,"mosquito_risk":3,"arthritis_risk":5,"migraine_risk":3,"frizz_risk":1,"updated_at":"2026-03-19T10:27:00.978893+05:30"},{"city":"Mathura","state":"Uttar Pradesh","latitude":27.4924,"longitude":77.6737,"temp":23.6,"humidity":57,"rain":0.0,"pressure":994.3,"uv_index":6.6,"wind_gusts":35.6,"aqi":131,"pm10":244.0,"pm2_5":51.2,"mosquito_risk":0,"arthritis_risk":5,"migraine_risk":7,"frizz_risk":0,"updated_at":"2026-03-19T10:27:00.978899+05:30"},{"city":"Vrindavan","state":"Uttar Pradesh","latitude":27.5823,"longitude":77.7027,"temp":24.7,"humidity":54,"rain":0.0,"pressure":994.5,"uv_index":6.55,"wind_gusts":34.2,"aqi":131,"pm10":244.0,"pm2_5":51.2,"mosquito_risk":0,"arthritis_risk":5,"migraine_risk":7,"frizz_risk":0,"updated_at":"2026-03-19T10:27:00.978905+05:30"},{"city":"Ayodhya","state":"Uttar Pradesh","latitude":26.7922,"longitude":82.1998,"temp":31.5,"humidity":28,"rain":0.0,"pressure":1000.4,"uv_index":7.0,"wind_gusts":29.5,"aqi":116,"pm10":70.3,"pm2_5":41.8,"mosquito_risk":0,"arthritis_risk":5,"migraine_risk":4,"frizz_risk":0,"updated_at":"2026-03-19T10:27:00.978911+05:30"},{"city":"Ratlam","state":"Madhya Pradesh","latitude":23.3315,"longitude":75.0367,"temp":25.5,"humidity":51,"rain":0.0,"pressure":959.3,"uv_index":7.75,"wind_gusts":58.7,"aqi":48,"pm10":19.3,"pm2_5":16.4,"mosquito_risk":4,"arthritis_risk":5,"migraine_risk":7,"frizz_risk":0,"updated_at":"2026-03-19T10:27:00.978918+05:30"},{"city":"Sagar","state":"Madhya Pradesh","latitude":23.8388,"longitude":78.7378,"temp":30.5,"humidity":29,"rain":0.0,"pressure":954.7,"uv_index":7.75,"wind_gusts":43.6,"aqi":43,"pm10":26.8,"pm2_5":23.7,"mosquito_risk":0,"arthritis_risk":5,"migraine_risk":7,"frizz_risk":0,"updated_at":"2026-03-19T10:27:00.978924+05:30"},{"city":"Satna","state":"Madhya Pradesh","latitude":24.6005,"longitude":80.8322,"temp":31.6,"humidity":34,"rain":0.0,"pressure":976.0,"uv_index":7.7,"wind_gusts":31.0,"aqi":64,"pm10":54.5,"pm2_5":30.2,"mosquito_risk":0,"arthritis_risk":5,"migraine_risk":7,"frizz_risk":0,"updated_at":"2026-03-19T10:27:00.978930+05:30"},{"city":"Akola","state":"Maharashtra","latitude":20.7002,"longitude":77.0082,"temp":30.4,"humidity":38,"rain":0.0,"pressure":980.5,"uv_index":8.2,"wind_gusts":25.6,"aqi":98,"pm10":46.9,"pm2_5":40.6,"mosquito_risk":0,"arthritis_risk":5,"migraine_risk":7,"frizz_risk":0,"updated_at":"2026-03-19T10:27:00.978937+05:30"},{"city":"Amravati","state":"Maharashtra","latitude":20.9374,"longitude":77.7796,"temp":30.0,"humidity":43,"rain":0.0,"pressure":972.8,"uv_index":8.15,"wind_gusts":23.0,"aqi":101,"pm10":51.5,"pm2_5":43.7,"mosquito_risk":4,"arthritis_risk":5,"migraine_risk":7,"frizz_risk":1,"updated_at":"2026-03-19T10:27:00.978944+05:30"},{"city":"Latur","state":"Maharashtra","latitude":18.4088,"longitude":76.5604,"temp":24.4,"humidity":61,"rain":0.0,"pressure":945.5,"uv_index":8.55,"wind_gusts":37.4,"aqi":94,"pm10":31.8,"pm2_5":27.0,"mosquito_risk":3,"arthritis_risk":5,"migraine_risk":7,"frizz_risk":1,"updated_at":"2026-03-19T10:27:00.978950+05:30"},{"city":"Nanded","state":"Maharashtra","latitude":19.1383,"longitude":77.3091,"temp":28.1,"humidity":51,"rain":0.0,"pressure":974.6,"uv_index":8.4,"wind_gusts":19.8,"aqi":100,"pm10":37.8,"pm2_5":32.9,"mosquito_risk":4,"arthritis_risk":5,"migraine_risk":7,"frizz_risk":1,"updated_at":"2026-03-19T10:27:00.978956+05:30"},{"city":"Gulbarga","state":"Karnataka","latitude":17.3297,"longitude":76.8343,"temp":28.4,"humidity":50,"rain":0.0,"pressure":964.4,"uv_index":8.65,"wind_gusts":21.2,"aqi":89,"pm10":25.0,"pm2_5":21.8,"mosquito_risk":4,"arthritis_risk":5,"migraine_risk":7,"frizz_risk":1,"updated_at":"2026-03-19T10:27:00.978962+05:30"},{"city":"Bidar","state":"Karnataka","latitude":17.9104,"longitude":77.5199,"temp":27.0,"humidity":53,"rain":0.0,"pressure":941.0,"uv_index":8.6,"wind_gusts":28.1,"aqi":95,"pm10":17.2,"pm2_5":13.8,"mosquito_risk":4,"arthritis_risk":5,"migraine_risk":7,"frizz_risk":1,"updated_at":"2026-03-19T10:27:00.978968+05:30"},{"city":"Hospet","state":"Karnataka","latitude":15.2689,"longitude":76.3909,"temp":25.6,"humidity":65,"rain":0.0,"pressure":961.6,"uv_index":8.9,"wind_gusts":22.3,"aqi":92,"pm10":40.5,"pm2_5":34.1,"mosquito_risk":7,"arthritis_risk":5,"migraine_risk":7,"frizz_risk":1,"updated_at":"2026-03-19T10:27:00.978974+05:30"},{"city":"Tirupur","state":"Tamil Nadu","latitude":11.1085,"longitude":77.3411,"temp":27.8,"humidity":61,"rain":0.0,"pressure":981.1,"uv_index":9.35,"wind_gusts":28.8,"aqi":59,"pm10":19.9,"pm2_5":18.1,"mosquito_risk":7,"arthritis_risk":5,"migraine_risk":7,"frizz_risk":1,"updated_at":"2026-03-19T10:27:00.978980+05:30"},{"city":"Alappuzha","state":"Kerala","latitude":9.4981,"longitude":76.3388,"temp":27.1,"humidity":80,"rain":0.0,"pressure":1013.4,"uv_index":9.1,"wind_gusts":24.8,"aqi":56,"pm10":15.8,"pm2_5":14.7,"mosquito_risk":7,"arthritis_risk":0,"migraine_risk":4,"frizz_risk":1,"updated_at":"2026-03-19T10:27:00.978985+05:30"},{"city":"Munnar","state":"Kerala","latitude":10.0889,"longitude":77.0595,"temp":25.1,"humidity":64,"rain":0.0,"pressure":861.7,"uv_index":9.6,"wind_gusts":36.7,"aqi":63,"pm10":13.9,"pm2_5":13.2,"mosquito_risk":7,"arthritis_risk":5,"migraine_risk":7,"frizz_risk":1,"updated_at":"2026-03-19T10:27:00.978992+05:30"},{"city":"Silchar","state":"Assam","latitude":24.8333,"longitude":92.7789,"temp":25.5,"humidity":70,"rain":0.0,"pressure":1012.4,"uv_index":7.9,"wind_gusts":23.0,"aqi":94,"pm10":30.7,"pm2_5":24.9,"mosquito_risk":7,"arthritis_risk":0,"migraine_risk":4,"frizz_risk":1,"updated_at":"2026-03-19T10:27:00.978998+05:30"},{"city":"Dibrugarh","state":"Assam","latitude":27.4728,"longitude":94.912,"temp":21.0,"humidity":77,"rain":0.0,"pressure":1003.6,"uv_index":6.5,"wind_gusts":19.8,"aqi":91,"pm10":70.5,"pm2_5":43.7,"mosquito_risk":3,"arthritis_risk":5,"migraine_risk":4,"frizz_risk":1,"updated_at":"2026-03-19T10:27:00.979004+05:30"}]