[{"city":"Delhi","state":"Delhi","latitude":28.6139,"longitude":77.209,"temp":33.6,"humidity":41,"rain":0.0,"pressure":986.9,"uv_index":5.35,"wind_gusts":27.7,"aqi":165,"pm10":221.2,"pm2_5":61.9,"mosquito_risk":0,"arthritis_risk":5,"migraine_risk":3,"frizz_risk":1,"updated_at":"2026-03-09T14:20:54.680933+05:30"},{"city":"Mumbai","state":"Maharashtra","latitude":19.076,"longitude":72.8777,"temp":28.2,"humidity":78,"rain":0.0,"pressure":1008.4,"uv_index":7.55,"wind_gusts":24.1,"aqi":137,"pm10":60.3,"pm2_5":59.3,"mosquito_risk":7,"arthritis_risk":0,"migraine_risk":4,"frizz_risk":1,"updated_at":"2026-03-09T14:20:54.680973+05:30"},{"city":"Bangalore","state":"Karnataka","latitude":12.9716,"longitude":77.5946,"temp":31.5,"humidity":28,"rain":0.0,"pressure":913.1,"uv_index":9.25,"wind_gusts":37.4,"aqi":100,"pm10":43.4,"pm2_5":32.8,"mosquito_risk":0,"arthritis_risk":5,"migraine_risk":7,"frizz_risk":0,"updated_at":"2026-03-09T14:20:54.680989+05:30"},{"city":"Hyderabad","state":"Telangana","latitude":17.385,"longitude":78.4867,"temp":34.8,"humidity":25,"rain":0.0,"pressure":955.9,"uv_index":8.55,"wind_gusts":30.2,"aqi":99,"pm10":41.1,"pm2_5":32.9,"mosquito_risk":0,"arthritis_risk":5,"migraine_risk":7,"frizz_risk":0,"updated_at":"2026-03-09T14:20:54.680999+05:30"},{"city":"Chennai","state":"Tamil Nadu","latitude":13.0827,"longitude":80.2707,"temp":30.7,"humidity":55,"rain":0.0,"pressure":1010.1,"uv_index":8.95,"wind_gusts":33.1,"aqi":84,"pm10":57.6,"pm2_5":41.3,"mosquito_risk":0,"arthritis_risk":0,"migraine_risk":4,"frizz_risk":1,"updated_at":"2026-03-09T14:20:54.681007+05:30"},{"city":"Kolkata","state":"West Bengal","latitude":22.5726,"longitude":88.3639,"temp":30.4,"humidity":58,"rain":0.0,"pressure":1010.1,"uv_index":7.9,"wind_gusts":16.6,"aqi":145,"pm10":61.0,"pm2_5":48.8,"mosquito_risk":0,"arthritis_risk":0,"migraine_risk":4,"frizz_risk":1,"updated_at":"2026-03-09T14:20:54.681017+05:30"},{"city":"Pune","state":"Maharashtra","latitude":18.5204,"longitude":73.8567,"temp":37.9,"humidity":15,"rain":0.0,"pressure":950.4,"uv_index":8.1,"wind_gusts":31.0,"aqi":82,"pm10":17.9,"pm2_5":14.8,"mosquito_risk":0,"arthritis_risk":5,"migraine_risk":10,"frizz_risk":0,"updated_at":"2026-03-09T14:20:54.681029+05:30"},{"city":"Ahmedabad","state":"Gujarat","latitude":23.0225,"longitude":72.5714,"temp":39.0,"humidity":16,"rain":0.0,"pressure":1005.2,"uv_index":7.4,"wind_gusts":18.4,"aqi":61,"pm10":16.4,"pm2_5":11.4,"mosquito_risk":0,"arthritis_risk":5,"migraine_risk":7,"frizz_risk":0,"updated_at":"2026-03-09T14:20:54.681038+05:30"},{"city":"Jaipur","state":"Rajasthan","latitude":26.9124,"longitude":75.7873,"temp":37.8,"humidity":10,"rain":0.0,"pressure":964.0,"uv_index":6.8,"wind_gusts":29.2,"aqi":81,"pm10":84.3,"pm2_5":13.8,"mosquito_risk":0,"arthritis_risk":5,"migraine_risk":10,"frizz_risk":0,"updated_at":"2026-03-09T14:20:54.681045+05:30"},{"city":"Lucknow","state":"Uttar Pradesh","latitude":26.8467,"longitude":80.9462,"temp":33.4,"humidity":39,"rain":0.0,"pressure":997.3,"uv_index":6.55,"wind_gusts":20.5,"aqi":177,"pm10":171.4,"pm2_5":51.8,"mosquito_risk":0,"arthritis_risk":5,"migraine_risk":7,"frizz_risk":1,"updated_at":"2026-03-09T14:20:54.681053+05:30"},{"city":"Kanpur","state":"Uttar Pradesh","latitude":26.4499,"longitude":80.3319,"temp":33.7,"humidity":42,"rain":0.0,"pressure":995.6,"uv_index":6.55,"wind_gusts":18.0,"aqi":164,"pm10":200.7,"pm2_5":44.8,"mosquito_risk":0,"arthritis_risk":5,"migraine_risk":7,"frizz_risk":1,"updated_at":"2026-03-09T14:20:54.681061+05:30"},{"city":"Chandigarh","state":"Chandigarh","latitude":30.7333,"longitude":76.7794,"temp":32.3,"humidity":41,"rain":0.0,"pressure":972.7,"uv_index":5.95,"wind_gusts":28.1,"aqi":114,"pm10":41.4,"pm2_5":21.7,"mosquito_risk":0,"arthritis_risk":5,"migraine_risk":3,"frizz_risk":1,"updated_at":"2026-03-09T14:20:54.681069+05:30"},{"city":"Srinagar","state":"Jammu and Kashmir","latitude":34.0837,"longitude":74.7973,"temp":17.9,"humidity":45,"rain":0.0,"pressure":847.2,"uv_index":6.3,"wind_gusts":25.9,"aqi":136,"pm10":56.0,"pm2_5":28.5,"mosquito_risk":0,"arthritis_risk":5,"migraine_risk":7,"frizz_risk":0,"updated_at":"2026-03-09T14:20:54.681076+05:30"},{"city":"Jammu","state":"Jammu and Kashmir","latitude":32.7266,"longitude":74.857,"temp":31.1,"humidity":37,"rain":0.0,"pressure":976.6,"uv_index":6.55,"wind_gusts":20.9,"aqi":91,"pm10":41.9,"pm2_5":21.6,"mosquito_risk":0,"arthritis_risk":5,"migraine_risk":7,"frizz_risk":0,"updated_at":"2026-03-09T14:20:54.681084+05:30"},{"city":"Amritsar","state":"Punjab","latitude":31.634,"longitude":74.8723,"temp":31.6,"humidity":48,"rain":0.0,"pressure":984.7,"uv_index":6.5,"wind_gusts":16.9,"aqi":159,"pm10":78.7,"pm2_5":48.1,"mosquito_risk":0,"arthritis_risk":5,"migraine_risk":7,"frizz_risk":1,"updated_at":"2026-03-09T14:20:54.681090+05:30"},{"city":"Ludhiana","state":"Punjab","latitude":30.901,"longitude":75.8573,"temp":32.5,"humidity":41,"rain":0.0,"pressure":982.8,"uv_index":6.1,"wind_gusts":22.7,"aqi":154,"pm10":68.2,"pm2_5":44.6,"mosquito_risk":0,"arthritis_risk":5,"migraine_risk":7,"frizz_risk":1,"updated_at":"2026-03-09T14:20:54.681097+05:30"},{"city":"Jalandhar","state":"Punjab","latitude":31.326,"longitude":75.5762,"temp":31.7,"humidity":45,"rain":0.0,"pressure":983.7,"uv_index":6.35,"wind_gusts":20.9,"aqi":157,"pm10":74.7,"pm2_5":44.0,"mosquito_risk":0,"arthritis_risk":5,"migraine_risk":7,"frizz_risk":1,"updated_at":"2026-03-09T14:20:54.681105+05:30"},{"city":"Dehradun","state":"Uttarakhand","latitude":30.6284,"longitude":78.0322,"temp":23.2,"humidity":44,"rain":0.0,"pressure":835.8,"uv_index":6.3,"wind_gusts":29.9,"aqi":73,"pm10":32.9,"pm2_5":16.6,"mosquito_risk":0,"arthritis_risk":5,"migraine_risk":7,"frizz_risk":0,"updated_at":"2026-03-09T14:20:54.681112+05:30"},{"city":"Shimla","state":"Himachal Pradesh","latitude":31.1048,"longitude":77.1734,"temp":22.6,"humidity":30,"rain":0.0,"pressure":791.7,"uv_index":6.35,"wind_gusts":50.4,"aqi":72,"pm10":21.9,"pm2_5":8.7,"mosquito_risk":0,"arthritis_risk":5,"migraine_risk":7,"frizz_risk":0,"updated_at":"2026-03-09T14:20:54.681119+05:30"},{"city":"Manali","state":"Himachal Pradesh","latitude":32.2396,"longitude":77.1887,"temp":25.8,"humidity":18,"rain":0.0,"pressure":826.8,"uv_index":8.05,"wind_gusts":35.6,"aqi":66,"pm10":21.7,"pm2_5":8.5,"mosquito_risk":4,"arthritis_risk":5,"migraine_risk":7,"frizz_risk":1,"updated_at":"2026-03-09T14:20:54.681125+05:30"},{"city":"Gurgaon","state":"Haryana","latitude":28.4595,"longitude":77.0266,"temp":34.1,"humidity":37,"rain":0.0,"pressure":985.3,"uv_index":5.85,"wind_gusts":26.3,"aqi":644,"pm10":631.4,"pm2_5":95.2,"mosquito_risk":0,"arthritis_risk":5,"migraine_risk":3,"frizz_risk":1,"updated_at":"2026-03-09T14:20:54.681132+05:30"},{"city":"Noida","state":"Uttar Pradesh","latitude":28.5355,"longitude":77.391,"temp":34.1,"humidity":38,"rain":0.0,"pressure":988.3,"uv_index":5.55,"wind_gusts":27.0,"aqi":644,"pm10":631.4,"pm2_5":95.2,"mosquito_risk":0,"arthritis_risk":5,"migraine_risk":3,"frizz_risk":1,"updated_at":"2026-03-09T14:20:54.681139+05:30"},{"city":"Ghaziabad","state":"Uttar Pradesh","latitude":28.6692,"longitude":77.4538,"temp":33.5,"humidity":42,"rain":0.0,"pressure":986.4,"uv_index":5.3,"wind_gusts":27.4,"aqi":157,"pm10":153.7,"pm2_5":63.1,"mosquito_risk":0,"arthritis_risk":5,"migraine_risk":3,"frizz_risk":1,"updated_at":"2026-03-09T14:20:54.681146+05:30"},{"city":"Faridabad","state":"Haryana","latitude":28.4089,"longitude":77.3178,"temp":33.5,"humidity":39,"rain":0.0,"pressure":987.7,"uv_index":6.05,"wind_gusts":24.5,"aqi":644,"pm10":631.4,"pm2_5":95.2,"mosquito_risk":0,"arthritis_risk":5,"migraine_risk":7,"frizz_risk":1,"updated_at":"2026-03-09T14:20:54.681152+05:30"},{"city":"Meerut","state":"Uttar Pradesh","latitude":28.9845,"longitude":77.7064,"temp":33.7,"humidity":39,"rain":0.0,"pressure":985.1,"uv_index":5.5,"wind_gusts":28.4,"aqi":157,"pm10":153.7,"pm2_5":63.1,"mosquito_risk":0,"arthritis_risk":5,"migraine_risk":3,"frizz_risk":1,"updated_at":"2026-03-09T14:20:54.681158+05:30"},{"city":"Agra","state":"Uttar Pradesh","latitude":27.1767,"longitude":78.0081,"temp":37.2,"humidity":25,"rain":0.0,"pressure":991.4,"uv_index":6.4,"wind_gusts":22.3,"aqi":188,"pm10":285.9,"pm2_5":67.3,"mosquito_risk":0,"arthritis_risk":5,"migraine_risk":10,"frizz_risk":0,"updated_at":"2026-03-09T14:20:54.681165+05:30"},{"city":"Varanasi","state":"Uttar Pradesh","latitude":25.3176,"longitude":82.9739,"temp":32.5,"humidity":46,"rain":0.0,"pressure":1001.7,"uv_index":7.2,"wind_gusts":15.8,"aqi":182,"pm10":122.9,"pm2_5":87.1,"mosquito_risk":0,"arthritis_risk":5,"migraine_risk":4,"frizz_risk":1,"updated_at":"2026-03-09T14:20:54.681174+05:30"},{"city":"Prayagraj","state":"Uttar Pradesh","latitude":25.4358,"longitude":81.8463,"temp":32.4,"humidity":46,"rain":0.0,"pressure":1000.1,"uv_index":7.1,"wind_gusts":14.8,"aqi":189,"pm10":143.0,"pm2_5":77.1,"mosquito_risk":0,"arthritis_risk":5,"migraine_risk":4,"frizz_risk":1,"updated_at":"2026-03-09T14:20:54.681182+05:30"},{"city":"Gorakhpur","state":"Uttar Pradesh","latitude":26.7606,"longitude":83.3732,"temp":29.4,"humidity":58,"rain":0.0,"pressure":1002.3,"uv_index":6.9,"wind_gusts":27.0,"aqi":186,"pm10":129.0,"pm2_5":112.5,"mosquito_risk":4,"arthritis_risk":5,"migraine_risk":4,"frizz_risk":1,"updated_at":"2026-03-09T14:20:54.681188+05:30"},{"city":"Bareilly","state":"Uttar Pradesh","latitude":28.367,"longitude":79.4304,"temp":32.4,"humidity":48,"rain":0.0,"pressure":990.4,"uv_index":6.25,"wind_gusts":18.4,"aqi":167,"pm10":173.2,"pm2_5":81.7,"mosquito_risk":0,"arthritis_risk":5,"migraine_risk":7,"frizz_risk":1,"updated_at":"2026-03-09T14:20:54.681197+05:30"},{"city":"Aligarh","state":"Uttar Pradesh","latitude":27.8974,"longitude":78.088,"temp":34.8,"humidity":35,"rain":0.0,"pressure":989.4,"uv_index":6.15,"wind_gusts":24.8,"aqi":238,"pm10":251.5,"pm2_5":72.4,"mosquito_risk":0,"arthritis_risk":5,"migraine_risk":7,"frizz_risk":1,"updated_at":"2026-03-09T14:20:54.681203+05:30"},{"city":"Moradabad","state":"Uttar Pradesh","latitude":28.8386,"longitude":78.7733,"temp":32.2,"humidity":46,"rain":0.0,"pressure":987.4,"uv_index":6.05,"wind_gusts":19.1,"aqi":171,"pm10":143.9,"pm2_5":82.0,"mosquito_risk":0,"arthritis_risk":5,"migraine_risk":7,"frizz_risk":1,"updated_at":"2026-03-09T14:20:54.681210+05:30"},{"city":"Saharanpur","state":"Uttar Pradesh","latitude":29.9637,"longitude":77.546,"temp":31.4,"humidity":46,"rain":0.0,"pressure":979.3,"uv_index":5.7,"wind_gusts":28.4,"aqi":160,"pm10":82.2,"pm2_5":50.8,"mosquito_risk":0,"arthritis_risk":5,"migraine_risk":3,"frizz_risk":1,"updated_at":"2026-03-09T14:20:54.681215+05:30"},{"city":"Jhansi","state":"Uttar Pradesh","latitude":25.4484,"longitude":78.5685,"temp":37.6,"humidity":17,"rain":0.0,"pressure":981.5,"uv_index":7.0,"wind_gusts":25.6,"aqi":69,"pm10":45.2,"pm2_5":16.2,"mosquito_risk":0,"arthritis_risk":5,"migraine_risk":10,"frizz_risk":0,"updated_at":"2026-03-09T14:20:58.013530+05:30"},{"city":"Surat","state":"Gujarat","latitude":21.1702,"longitude":72.8311,"temp":38.4,"humidity":19,"rain":0.0,"pressure":1008.5,"uv_index":7.25,"wind_gusts":24.8,"aqi":98,"pm10":35.0,"pm2_5":32.6,"mosquito_risk":0,"arthritis_risk":0,"migraine_risk":7,"frizz_risk":0,"updated_at":"2026-03-09T14:20:58.013560+05:30"},{"city":"Vadodara","state":"Gujarat","latitude":22.3072,"longitude":73.1812,"temp":40.4,"humidity":16,"rain":0.0,"pressure":1006.7,"uv_index":7.4,"wind_gusts":15.5,"aqi":68,"pm10":19.4,"pm2_5":18.5,"mosquito_risk":0,"arthritis_risk":5,"migraine_risk":7,"frizz_risk":0,"updated_at":"2026-03-09T14:20:58.013569+05:30"},{"city":"Rajkot","state":"Gujarat","latitude":22.3039,"longitude":70.8022,"temp":37.4,"humidity":17,"rain":0.0,"pressure":997.7,"uv_index":7.2,"wind_gusts":24.1,"aqi":63,"pm10":12.9,"pm2_5":9.2,"mosquito_risk":0,"arthritis_risk":5,"migraine_risk":10,"frizz_risk":0,"updated_at":"2026-03-09T14:20:58.013577+05:30"},{"city":"Thane","state":"Maharashtra","latitude":19.2183,"longitude":72.9781,"temp":40.6,"humidity":15,"rain":0.0,"pressure":1007.7,"uv_index":7.55,"wind_gusts":33.8,"aqi":137,"pm10":60.3,"pm2_5":59.3,"mosquito_risk":0,"arthritis_risk":5,"migraine_risk":7,"frizz_risk":0,"updated_at":"2026-03-09T14:20:58.013584+05:30"},{"city":"Nagpur","state":"Maharashtra","latitude":21.1458,"longitude":79.0882,"temp":36.6,"humidity":17,"rain":0.0,"pressure":976.2,"uv_index":7.95,"wind_gusts":28.8,"aqi":77,"pm10":19.8,"pm2_5":11.4,"mosquito_risk":0,"arthritis_risk":5,"migraine_risk":10,"frizz_risk":0,"updated_at":"2026-03-09T14:20:58.013591+05:30"},{"city":"Nashik","state":"Maharashtra","latitude":19.9975,"longitude":73.7898,"temp":36.3,"humidity":15,"rain":0.0,"pressure":948.4,"uv_index":7.75,"wind_gusts":31.0,"aqi":68,"pm10":13.4,"pm2_5":12.4,"mosquito_risk":0,"arthritis_risk":5,"migraine_risk":10,"frizz_risk":0,"updated_at":"2026-03-09T14:20:58.013598+05:30"},{"city":"Aurangabad","state":"Maharashtra","latitude":19.8762,"longitude":75.3433,"temp":36.2,"humidity":16,"rain":0.0,"pressure":947.0,"uv_index":8.25,"wind_gusts":34.2,"aqi":65,"pm10":13.2,"pm2_5":8.9,"mosquito_risk":0,"arthritis_risk":5,"migraine_risk":10,"frizz_risk":0,"updated_at":"2026-03-09T14:20:58.013605+05:30"},{"city":"Solapur","state":"Maharashtra","latitude":17.6599,"longitude":75.9064,"temp":36.0,"humidity":19,"rain":0.0,"pressure":959.0,"uv_index":8.5,"wind_gusts":26.6,"aqi":75,"pm10":20.4,"pm2_5":16.2,"mosquito_risk":0,"arthritis_risk":5,"migraine_risk":10,"frizz_risk":0,"updated_at":"2026-03-09T14:20:58.013612+05:30"},{"city":"Kolhapur","state":"Maharashtra","latitude":16.705,"longitude":74.2433,"temp":35.3,"humidity":20,"rain":0.0,"pressure":949.3,"uv_index":8.6,"wind_gusts":40.0,"aqi":140,"pm10":23.6,"pm2_5":19.1,"mosquito_risk":0,"arthritis_risk":5,"migraine_risk":10,"frizz_risk":0,"updated_at":"2026-03-09T14:20:58.013618+05:30"},{"city":"Goa","state":"Goa","latitude":15.2993,"longitude":74.124,"temp":31.8,"humidity":64,"rain":0.0,"pressure":997.7,"uv_index":8.65,"wind_gusts":34.2,"aqi":138,"pm10":44.6,"pm2_5":38.9,"mosquito_risk":3,"arthritis_risk":5,"migraine_risk":7,"frizz_risk":1,"updated_at":"2026-03-09T14:20:58.013625+05:30"},{"city":"Jodhpur","state":"Rajasthan","latitude":26.2389,"longitude":73.0243,"temp":36.7,"humidity":14,"rain":0.0,"pressure":987.7,"uv_index":7.1,"wind_gusts":22.7,"aqi":59,"pm10":33.6,"pm2_5":9.9,"mosquito_risk":0,"arthritis_risk":5,"migraine_risk":10,"frizz_risk":0,"updated_at":"2026-03-09T14:20:58.013632+05:30"},{"city":"Udaipur","state":"Rajasthan","latitude":24.5854,"longitude":73.7125,"temp":36.4,"humidity":15,"rain":0.0,"pressure":951.3,"uv_index":7.7,"wind_gusts":14.4,"aqi":42,"pm10":10.0,"pm2_5":5.9,"mosquito_risk":0,"arthritis_risk":5,"migraine_risk":10,"frizz_risk":0,"updated_at":"2026-03-09T14:20:58.013638+05:30"},{"city":"Kota","state":"Rajasthan","latitude":25.2138,"longitude":75.8648,"temp":38.0,"humidity":15,"rain":0.0,"pressure":982.7,"uv_index":7.1,"wind_gusts":17.3,"aqi":74,"pm10":24.9,"pm2_5":9.3,"mosquito_risk":0,"arthritis_risk":5,"migraine_risk":10,"frizz_risk":0,"updated_at":"2026-03-09T14:20:58.013645+05:30"},{"city":"Bikaner","state":"Rajasthan","latitude":28.0229,"longitude":73.3119,"temp":35.7,"humidity":16,"rain":0.0,"pressure":986.3,"uv_index":6.8,"wind_gusts":22.3,"aqi":55,"pm10":101.0,"pm2_5":19.7,"mosquito_risk":0,"arthritis_risk":5,"migraine_risk":10,"frizz_risk":0,"updated_at":"2026-03-09T14:20:58.013651+05:30"},{"city":"Ajmer","state":"Rajasthan","latitude":26.4499,"longitude":74.6399,"temp":35.6,"humidity":16,"rain":0.0,"pressure":959.5,"uv_index":7.1,"wind_gusts":22.3,"aqi":46,"pm10":42.8,"pm2_5":10.2,"mosquito_risk":0,"arthritis_risk":5,"migraine_risk":10,"frizz_risk":0,"updated_at":"2026-03-09T14:20:58.013658+05:30"},{"city":"Gwalior","state":"Madhya Pradesh","latitude":26.2183,"longitude":78.1828,"temp":35.7,"humidity":28,"rain":0.0,"pressure":986.9,"uv_index":6.75,"wind_gusts":23.0,"aqi":74,"pm10":67.8,"pm2_5":23.1,"mosquito_risk":0,"arthritis_risk":5,"migraine_risk":10,"frizz_risk":0,"updated_at":"2026-03-09T14:20:58.013665+05:30"},{"city":"Indore","state":"Madhya Pradesh","latitude":22.7196,"longitude":75.8577,"temp":36.0,"humidity":15,"rain":0.0,"pressure":952.3,"uv_index":7.65,"wind_gusts":24.5,"aqi":79,"pm10":18.4,"pm2_5":7.2,"mosquito_risk":0,"arthritis_risk":5,"migraine_risk":10,"frizz_risk":0,"updated_at":"2026-03-09T14:20:58.013671+05:30"},{"city":"Bhopal","state":"Madhya Pradesh","latitude":23.2599,"longitude":77.4126,"temp":36.1,"humidity":18,"rain":0.0,"pressure":957.9,"uv_index":7.55,"wind_gusts":15.8,"aqi":67,"pm10":32.4,"pm2_5":10.6,"mosquito_risk":0,"arthritis_risk":5,"migraine_risk":10,"frizz_risk":0,"updated_at":"2026-03-09T14:20:58.013677+05:30"},{"city":"Jabalpur","state":"Madhya Pradesh","latitude":23.1815,"longitude":79.9864,"temp":34.8,"humidity":21,"rain":0.0,"pressure":965.5,"uv_index":7.65,"wind_gusts":21.2,"aqi":106,"pm10":43.2,"pm2_5":17.6,"mosquito_risk":0,"arthritis_risk":5,"migraine_risk":7,"frizz_risk":0,"updated_at":"2026-03-09T14:20:58.013684+05:30"},{"city":"Ujjain","state":"Madhya Pradesh","latitude":23.1765,"longitude":75.7885,"temp":35.2,"humidity":19,"rain":0.0,"pressure":958.1,"uv_index":7.55,"wind_gusts":14.8,"aqi":97,"pm10":13.6,"pm2_5":8.5,"mosquito_risk":0,"arthritis_risk":5,"migraine_risk":10,"frizz_risk":0,"updated_at":"2026-03-09T14:20:58.013690+05:30"},{"city":"Visakhapatnam","state":"Andhra Pradesh","latitude":17.6868,"longitude":83.2185,"temp":30.6,"humidity":57,"rain":0.0,"pressure":1007.4,"uv_index":8.55,"wind_gusts":33.8,"aqi":96,"pm10":55.9,"pm2_5":44.0,"mosquito_risk":0,"arthritis_risk":5,"migraine_risk":4,"frizz_risk":1,"updated_at":"2026-03-09T14:20:58.013697+05:30"},{"city":"Vijayawada","state":"Andhra Pradesh","latitude":16.5062,"longitude":80.648,"temp":31.7,"humidity":55,"rain":0.0,"pressure":1005.5,"uv_index":8.65,"wind_gusts":26.3,"aqi":92,"pm10":49.5,"pm2_5":39.2,"mosquito_risk":0,"arthritis_risk":5,"migraine_risk":4,"frizz_risk":1,"updated_at":"2026-03-09T14:20:58.013703+05:30"},{"city":"Guntur","state":"Andhra Pradesh","latitude":16.3067,"longitude":80.4365,"temp":31.1,"humidity":57,"rain":0.0,"pressure":1006.8,"uv_index":8.65,"wind_gusts":27.0,"aqi":88,"pm10":48.0,"pm2_5":38.0,"mosquito_risk":0,"arthritis_risk":5,"migraine_risk":4,"frizz_risk":1,"updated_at":"2026-03-09T14:20:58.013709+05:30"},{"city":"Nellore","state":"Andhra Pradesh","latitude":14.4426,"longitude":79.9865,"temp":31.7,"humidity":54,"rain":0.0,"pressure":1008.6,"uv_index":8.8,"wind_gusts":33.8,"aqi":77,"pm10":52.7,"pm2_5":39.6,"mosquito_risk":0,"arthritis_risk":0,"migraine_risk":4,"frizz_risk":1,"updated_at":"2026-03-09T14:20:58.013716+05:30"},{"city":"Kurnool","state":"Andhra Pradesh","latitude":15.8281,"longitude":78.0373,"temp":36.3,"humidity":25,"rain":0.0,"pressure":978.4,"uv_index":8.65,"wind_gusts":38.5,"aqi":83,"pm10":41.0,"pm2_5":30.6,"mosquito_risk":0,"arthritis_risk":5,"migraine_risk":10,"frizz_risk":0,"updated_at":"2026-03-09T14:20:58.013724+05:30"},{"city":"Kakinada","state":"Andhra Pradesh","latitude":16.9891,"longitude":82.2475,"temp":31.3,"humidity":56,"rain":0.0,"pressure":1010.8,"uv_index":8.55,"wind_gusts":31.7,"aqi":87,"pm10":56.1,"pm2_5":41.8,"mosquito_risk":0,"arthritis_risk":0,"migraine_risk":4,"frizz_risk":1,"updated_at":"2026-03-09T14:20:58.013730+05:30"},{"city":"Tirupati","state":"Andhra Pradesh","latitude":13.6288,"longitude":79.4192,"temp":32.3,"humidity":42,"rain":0.0,"pressure":993.5,"uv_index":8.95,"wind_gusts":38.5,"aqi":90,"pm10":52.0,"pm2_5":39.6,"mosquito_risk":0,"arthritis_risk":5,"migraine_risk":7,"frizz_risk":1,"updated_at":"2026-03-09T14:20:58.013736+05:30"},{"city":"Warangal","state":"Telangana","latitude":17.9689,"longitude":79.5941,"temp":33.8,"humidity":45,"rain":0.0,"pressure":981.4,"uv_index":8.4,"wind_gusts":28.1,"aqi":109,"pm10":45.1,"pm2_5":36.7,"mosquito_risk":0,"arthritis_risk":5,"migraine_risk":7,"frizz_risk":1,"updated_at":"2026-03-09T14:20:58.013742+05:30"},{"city":"Nizamabad","state":"Telangana","latitude":18.6725,"longitude":78.0941,"temp":35.5,"humidity":25,"rain":0.0,"pressure":967.5,"uv_index":8.3,"wind_gusts":31.7,"aqi":116,"pm10":35.0,"pm2_5":23.9,"mosquito_risk":0,"arthritis_risk":5,"migraine_risk":10,"frizz_risk":0,"updated_at":"2026-03-09T14:20:58.013748+05:30"},{"city":"Mysore","state":"Karnataka","latitude":12.2958,"longitude":76.6396,"temp":32.2,"humidity":29,"rain":0.0,"pressure":929.3,"uv_index":9.25,"wind_gusts":41.0,"aqi":128,"pm10":41.4,"pm2_5":32.9,"mosquito_risk":0,"arthritis_risk":5,"migraine_risk":7,"frizz_risk":0,"updated_at":"2026-03-09T14:20:58.013754+05:30"},{"city":"Mangalore","state":"Karnataka","latitude":12.9141,"longitude":74.856,"temp":29.0,"humidity":80,"rain":0.0,"pressure":1006.1,"uv_index":8.85,"wind_gusts":23.8,"aqi":129,"pm10":50.2,"pm2_5":44.8,"mosquito_risk":7,"arthritis_risk":5,"migraine_risk":4,"frizz_risk":1,"updated_at":"2026-03-09T14:20:58.013760+05:30"},{"city":"Hubli-Dharwad","state":"Karnataka","latitude":15.3647,"longitude":75.124,"temp":35.8,"humidity":18,"rain":0.0,"pressure":942.0,"uv_index":8.85,"wind_gusts":36.7,"aqi":87,"pm10":28.3,"pm2_5":22.2,"mosquito_risk":0,"arthritis_risk":5,"migraine_risk":10,"frizz_risk":0,"updated_at":"2026-03-09T14:20:58.013767+05:30"},{"city":"Belgaum","state":"Karnataka","latitude":15.8497,"longitude":74.4977,"temp":35.0,"humidity":18,"rain":0.0,"pressure":927.3,"uv_index":8.85,"wind_gusts":45.0,"aqi":119,"pm10":19.3,"pm2_5":15.8,"mosquito_risk":0,"arthritis_risk":5,"migraine_risk":7,"frizz_risk":0,"updated_at":"2026-03-09T14:21:01.342127+05:30"},{"city":"Coimbatore","state":"Tamil Nadu","latitude":11.0168,"longitude":76.9558,"temp":33.0,"humidity":35,"rain":0.0,"pressure":962.2,"uv_index":9.25,"wind_gusts":47.9,"aqi":107,"pm10":40.5,"pm2_5":29.3,"mosquito_risk":0,"arthritis_risk":5,"migraine_risk":7,"frizz_risk":0,"updated_at":"2026-03-09T14:21:01.342155+05:30"},{"city":"Madurai","state":"Tamil Nadu","latitude":9.9252,"longitude":78.1198,"temp":33.7,"humidity":39,"rain":0.0,"pressure":993.3,"uv_index":9.2,"wind_gusts":36.7,"aqi":91,"pm10":39.7,"pm2_5":27.9,"mosquito_risk":0,"arthritis_risk":5,"migraine_risk":7,"frizz_risk":1,"updated_at":"2026-03-09T14:21:01.342165+05:30"},{"city":"Trichy","state":"Tamil Nadu","latitude":10.7905,"longitude":78.7047,"temp":33.1,"humidity":43,"rain":0.0,"pressure":1000.8,"uv_index":9.1,"wind_gusts":32.4,"aqi":80,"pm10":51.8,"pm2_5":39.2,"mosquito_risk":0,"arthritis_risk":5,"migraine_risk":4,"frizz_risk":1,"updated_at":"2026-03-09T14:21:01.342172+05:30"},{"city":"Salem","state":"Tamil Nadu","latitude":11.6643,"longitude":78.146,"temp":32.9,"humidity":39,"rain":0.0,"pressure":978.2,"uv_index":9.15,"wind_gusts":34.9,"aqi":108,"pm10":56.8,"pm2_5":41.9,"mosquito_risk":0,"arthritis_risk":5,"migraine_risk":7,"frizz_risk":1,"updated_at":"2026-03-09T14:21:01.342179+05:30"},{"city":"Tirunelveli","state":"Tamil Nadu","latitude":8.7139,"longitude":77.7567,"temp":33.4,"humidity":40,"rain":0.0,"pressure":1003.8,"uv_index":9.2,"wind_gusts":31.7,"aqi":98,"pm10":32.7,"pm2_5":22.5,"mosquito_risk":0,"arthritis_risk":5,"migraine_risk":4,"frizz_risk":1,"updated_at":"2026-03-09T14:21:01.342185+05:30"},{"city":"Vellore","state":"Tamil Nadu","latitude":12.9165,"longitude":79.1325,"temp":31.9,"humidity":43,"rain":0.0,"pressure":986.5,"uv_index":9.0,"wind_gusts":41.8,"aqi":107,"pm10":48.1,"pm2_5":36.0,"mosquito_risk":0,"arthritis_risk":5,"migraine_risk":7,"frizz_risk":1,"updated_at":"2026-03-09T14:21:01.342192+05:30"},{"city":"Erode","state":"Tamil Nadu","latitude":11.341,"longitude":77.7172,"temp":34.2,"humidity":39,"rain":0.0,"pressure":989.7,"uv_index":9.15,"wind_gusts":28.8,"aqi":82,"pm10":45.5,"pm2_5":31.1,"mosquito_risk":0,"arthritis_risk":5,"migraine_risk":7,"frizz_risk":1,"updated_at":"2026-03-09T14:21:01.342198+05:30"},{"city":"Kochi","state":"Kerala","latitude":9.9312,"longitude":76.2673,"temp":28.0,"humidity":81,"rain":0.0,"pressure":1008.3,"uv_index":8.95,"wind_gusts":29.9,"aqi":150,"pm10":52.5,"pm2_5":46.2,"mosquito_risk":7,"arthritis_risk":0,"migraine_risk":4,"frizz_risk":1,"updated_at":"2026-03-09T14:21:01.342205+05:30"},{"city":"Thiruvananthapuram","state":"Kerala","latitude":8.5241,"longitude":76.9366,"temp":28.3,"humidity":79,"rain":0.0,"pressure":1007.6,"uv_index":9.05,"wind_gusts":26.6,"aqi":112,"pm10":49.8,"pm2_5":42.7,"mosquito_risk":7,"arthritis_risk":5,"migraine_risk":4,"frizz_risk":1,"updated_at":"2026-03-09T14:21:01.342211+05:30"},{"city":"Kozhikode","state":"Kerala","latitude":11.2588,"longitude":75.7804,"temp":29.6,"humidity":76,"rain":0.0,"pressure":1007.4,"uv_index":8.45,"wind_gusts":24.5,"aqi":107,"pm10":26.3,"pm2_5":24.7,"mosquito_risk":7,"arthritis_risk":5,"migraine_risk":4,"frizz_risk":1,"updated_at":"2026-03-09T14:21:01.342217+05:30"},{"city":"Thrissur","state":"Kerala","latitude":10.5276,"longitude":76.2144,"temp":31.9,"humidity":64,"rain":0.0,"pressure":1006.6,"uv_index":9.05,"wind_gusts":41.4,"aqi":130,"pm10":43.1,"pm2_5":37.6,"mosquito_risk":3,"arthritis_risk":5,"migraine_risk":4,"frizz_risk":1,"updated_at":"2026-03-09T14:21:01.342224+05:30"},{"city":"Kannur","state":"Kerala","latitude":11.8745,"longitude":75.3704,"temp":30.8,"humidity":70,"rain":0.0,"pressure":1006.8,"uv_index":8.95,"wind_gusts":27.0,"aqi":127,"pm10":38.1,"pm2_5":35.3,"mosquito_risk":3,"arthritis_risk":5,"migraine_risk":4,"frizz_risk":1,"updated_at":"2026-03-09T14:21:01.342231+05:30"},{"city":"Patna","state":"Bihar","latitude":25.5941,"longitude":85.1376,"temp":29.4,"humidity":59,"rain":0.0,"pressure":1005.4,"uv_index":7.4,"wind_gusts":30.6,"aqi":170,"pm10":98.7,"pm2_5":88.9,"mosquito_risk":4,"arthritis_risk":5,"migraine_risk":4,"frizz_risk":1,"updated_at":"2026-03-09T14:21:01.342237+05:30"},{"city":"Gaya","state":"Bihar","latitude":24.7914,"longitude":85.0002,"temp":30.2,"humidity":60,"rain":0.0,"pressure":997.9,"uv_index":7.5,"wind_gusts":27.0,"aqi":164,"pm10":115.3,"pm2_5":99.2,"mosquito_risk":0,"arthritis_risk":5,"migraine_risk":7,"frizz_risk":1,"updated_at":"2026-03-09T14:21:01.342243+05:30"},{"city":"Muzaffarpur","state":"Bihar","latitude":26.1209,"longitude":85.3647,"temp":28.7,"humidity":60,"rain":0.0,"pressure":1005.8,"uv_index":7.3,"wind_gusts":34.2,"aqi":173,"pm10":96.6,"pm2_5":86.6,"mosquito_risk":4,"arthritis_risk":5,"migraine_risk":4,"frizz_risk":1,"updated_at":"2026-03-09T14:21:01.342249+05:30"},{"city":"Bhagalpur","state":"Bihar","latitude":25.2425,"longitude":87.0117,"temp":28.5,"humidity":66,"rain":0.0,"pressure":1006.3,"uv_index":4.8,"wind_gusts":25.9,"aqi":162,"pm10":84.3,"pm2_5":70.3,"mosquito_risk":7,"arthritis_risk":5,"migraine_risk":0,"frizz_risk":1,"updated_at":"2026-03-09T14:21:01.342256+05:30"},{"city":"Ranchi","state":"Jharkhand","latitude":23.3441,"longitude":85.3096,"temp":31.4,"humidity":37,"rain":0.0,"pressure":941.2,"uv_index":8.15,"wind_gusts":33.5,"aqi":162,"pm10":90.3,"pm2_5":71.9,"mosquito_risk":0,"arthritis_risk":5,"migraine_risk":7,"frizz_risk":0,"updated_at":"2026-03-09T14:21:01.342263+05:30"},{"city":"Jamshedpur","state":"Jharkhand","latitude":22.8046,"longitude":86.2029,"temp":33.3,"humidity":46,"rain":0.0,"pressure":993.6,"uv_index":8.0,"wind_gusts":28.8,"aqi":156,"pm10":88.5,"pm2_5":72.4,"mosquito_risk":0,"arthritis_risk":5,"migraine_risk":7,"frizz_risk":1,"updated_at":"2026-03-09T14:21:01.342269+05:30"},{"city":"Dhanbad","state":"Jharkhand","latitude":23.7957,"longitude":86.4304,"temp":32.7,"humidity":43,"rain":0.0,"pressure":983.2,"uv_index":7.65,"wind_gusts":32.8,"aqi":168,"pm10":100.4,"pm2_5":87.3,"mosquito_risk":0,"arthritis_risk":5,"migraine_risk":7,"frizz_risk":1,"updated_at":"2026-03-09T14:21:01.342275+05:30"},{"city":"Bokaro","state":"Jharkhand","latitude":23.6693,"longitude":86.1511,"temp":33.3,"humidity":38,"rain":0.0,"pressure":987.1,"uv_index":7.6,"wind_gusts":35.6,"aqi":173,"pm10":105.0,"pm2_5":87.8,"mosquito_risk":0,"arthritis_risk":5,"migraine_risk":7,"frizz_risk":1,"updated_at":"2026-03-09T14:21:01.342282+05:30"},{"city":"Bhubaneswar","state":"Odisha","latitude":20.2961,"longitude":85.8245,"temp":31.9,"humidity":51,"rain":0.0,"pressure":1006.2,"uv_index":8.3,"wind_gusts":31.3,"aqi":96,"pm10":57.3,"pm2_5":43.7,"mosquito_risk":0,"arthritis_risk":5,"migraine_risk":4,"frizz_risk":1,"updated_at":"2026-03-09T14:21:01.342288+05:30"},{"city":"Cuttack","state":"Odisha","latitude":20.4625,"longitude":85.8828,"temp":34.3,"humidity":41,"rain":0.0,"pressure":1007.5,"uv_index":8.35,"wind_gusts":30.2,"aqi":96,"pm10":57.3,"pm2_5":43.7,"mosquito_risk":0,"arthritis_risk":5,"migraine_risk":4,"frizz_risk":1,"updated_at":"2026-03-09T14:21:01.342294+05:30"},{"city":"Rourkela","state":"Odisha","latitude":22.2604,"longitude":84.8536,"temp":35.1,"humidity":35,"rain":0.0,"pressure":987.5,"uv_index":7.9,"wind_gusts":22.7,"aqi":165,"pm10":95.7,"pm2_5":77.1,"mosquito_risk":0,"arthritis_risk":5,"migraine_risk":10,"frizz_risk":1,"updated_at":"2026-03-09T14:21:01.342300+05:30"},{"city":"Raipur","state":"Chhattisgarh","latitude":21.2514,"longitude":81.6296,"temp":36.2,"humidity":23,"rain":0.0,"pressure":977.5,"uv_index":8.0,"wind_gusts":24.8,"aqi":161,"pm10":70.3,"pm2_5":54.1,"mosquito_risk":0,"arthritis_risk":5,"migraine_risk":10,"frizz_risk":0,"updated_at":"2026-03-09T14:21:01.342306+05:30"},{"city":"Bhilai","state":"Chhattisgarh","latitude":21.1938,"longitude":81.3509,"temp":36.6,"humidity":22,"rain":0.0,"pressure":978.0,"uv_index":8.05,"wind_gusts":24.5,"aqi":155,"pm10":66.4,"pm2_5":49.1,"mosquito_risk":0,"arthritis_risk":5,"migraine_risk":10,"frizz_risk":0,"updated_at":"2026-03-09T14:21:01.342312+05:30"},{"city":"Guwahati","state":"Assam","latitude":26.1158,"longitude":91.7086,"temp":31.3,"humidity":48,"rain":0.0,"pressure":1005.3,"uv_index":7.3,"wind_gusts":11.5,"aqi":154,"pm10":82.0,"pm2_5":67.1,"mosquito_risk":0,"arthritis_risk":5,"migraine_risk":4,"frizz_risk":1,"updated_at":"2026-03-09T14:21:01.342318+05:30"},{"city":"Agartala","state":"Tripura","latitude":23.8315,"longitude":91.2868,"temp":31.1,"humidity":45,"rain":0.0,"pressure":1010.0,"uv_index":7.7,"wind_gusts":10.8,"aqi":161,"pm10":71.7,"pm2_5":58.0,"mosquito_risk":0,"arthritis_risk":0,"migraine_risk":4,"frizz_risk":1,"updated_at":"2026-03-09T14:21:01.342324+05:30"},{"city":"Shillong","state":"Meghalaya","latitude":25.5788,"longitude":91.8933,"temp":16.1,"humidity":78,"rain":0.0,"pressure":859.9,"uv_index":6.45,"wind_gusts":26.6,"aqi":141,"pm10":64.5,"pm2_5":53.2,"mosquito_risk":3,"arthritis_risk":5,"migraine_risk":7,"frizz_risk":0,"updated_at":"2026-03-09T14:21:01.342331+05:30"},{"city":"Imphal","state":"Manipur","latitude":24.817,"longitude":93.9368,"temp":24.0,"humidity":57,"rain":0.0,"pressure":927.0,"uv_index":7.95,"wind_gusts":27.0,"aqi":160,"pm10":51.7,"pm2_5":46.2,"mosquito_risk":0,"arthritis_risk":5,"migraine_risk":7,"frizz_risk":0,"updated_at":"2026-03-09T14:21:01.342337+05:30"},{"city":"Aizawl","state":"Mizoram","latitude":23.7271,"longitude":92.7176,"temp":25.3,"humidity":45,"rain":0.0,"pressure":896.9,"uv_index":7.85,"wind_gusts":27.4,"aqi":163,"pm10":64.3,"pm2_5":53.7,"mosquito_risk":4,"arthritis_risk":5,"migraine_risk":7,"frizz_risk":0,"updated_at":"2026-03-09T14:21:01.342343+05:30"},{"city":"Kohima","state":"Nagaland","latitude":25.6701,"longitude":94.1077,"temp":17.5,"humidity":85,"rain":0.0,"pressure":858.7,"uv_index":7.0,"wind_gusts":55.1,"aqi":155,"pm10":75.7,"pm2_5":67.5,"mosquito_risk":3,"arthritis_risk":10,"migraine_risk":7,"frizz_risk":0,"updated_at":"2026-03-09T14:21:01.342349+05:30"},{"city":"Gangtok","state":"Sikkim","latitude":27.3314,"longitude":88.6138,"temp":17.6,"humidity":73,"rain":0.0,"pressure":842.8,"uv_index":4.8,"wind_gusts":18.4,"aqi":152,"pm10":78.2,"pm2_5":59.0,"mosquito_risk":3,"arthritis_risk":5,"migraine_risk":3,"frizz_risk":0,"updated_at":"2026-03-09T14:21:01.342355+05:30"},{"city":"Siliguri","state":"West Bengal","latitude":26.7271,"longitude":88.3953,"temp":25.6,"humidity":55,"rain":0.0,"pressure":999.7,"uv_index":7.35,"wind_gusts":18.4,"aqi":155,"pm10":73.1,"pm2_5":54.7,"mosquito_risk":4,"arthritis_risk":5,"migraine_risk":7,"frizz_risk":0,"updated_at":"2026-03-09T14:21:04.674006+05:30"},{"city":"Durgapur","state":"West Bengal","latitude":23.5204,"longitude":87.3119,"temp":32.4,"humidity":48,"rain":0.0,"pressure":998.9,"uv_index":7.6,"wind_gusts":23.4,"aqi":159,"pm10":83.1,"pm2_5":71.5,"mosquito_risk":0,"arthritis_risk":5,"migraine_risk":7,"frizz_risk":1,"updated_at":"2026-03-09T14:21:04.674036+05:30"},{"city":"Asansol","state":"West Bengal","latitude":23.6739,"longitude":86.9524,"temp":32.1,"humidity":48,"rain":0.0,"pressure":997.4,"uv_index":7.55,"wind_gusts":27.0,"aqi":159,"pm10":87.1,"pm2_5":75.7,"mosquito_risk":0,"arthritis_risk":5,"migraine_risk":7,"frizz_risk":1,"updated_at":"2026-03-09T14:21:04.674048+05:30"},{"city":"Pondicherry","state":"Puducherry","latitude":11.9139,"longitude":79.8145,"temp":31.8,"humidity":52,"rain":0.0,"pressure":1010.6,"uv_index":8.95,"wind_gusts":32.4,"aqi":77,"pm10":55.4,"pm2_5":39.0,"mosquito_risk":0,"arthritis_risk":0,"migraine_risk":4,"frizz_risk":1,"updated_at":"2026-03-09T14:21:04.674057+05:30"},{"city":"Port Blair","state":"Andaman and Nicobar Islands","latitude":11.6234,"longitude":92.7265,"temp":27.7,"humidity":74,"rain":0.0,"pressure":1008.6,"uv_index":8.9,"wind_gusts":27.4,"aqi":84,"pm10":29.2,"pm2_5":25.1,"mosquito_risk":7,"arthritis_risk":0,"migraine_risk":4,"frizz_risk":1,"updated_at":"2026-03-09T14:21:04.674066+05:30"},{"city":"Haridwar","state":"Uttarakhand","latitude":29.9457,"longitude":78.1642,"temp":31.2,"humidity":50,"rain":0.0,"pressure":978.0,"uv_index":5.8,"wind_gusts":25.6,"aqi":158,"pm10":95.2,"pm2_5":55.3,"mosquito_risk":0,"arthritis_risk":5,"migraine_risk":3,"frizz_risk":1,"updated_at":"2026-03-09T14:21:04.674074+05:30"},{"city":"Rishikesh","state":"Uttarakhand","latitude":30.0869,"longitude":78.2676,"temp":31.1,"humidity":46,"rain":0.0,"pressure":971.0,"uv_index":5.85,"wind_gusts":27.0,"aqi":154,"pm10":91.3,"pm2_5":53.8,"mosquito_risk":0,"arthritis_risk":5,"migraine_risk":3,"frizz_risk":1,"updated_at":"2026-03-09T14:21:04.674083+05:30"},{"city":"Nainital","state":"Uttarakhand","latitude":29.3919,"longitude":79.4542,"temp":23.1,"humidity":62,"rain":0.0,"pressure":811.7,"uv_index":6.7,"wind_gusts":55.8,"aqi":159,"pm10":112.0,"pm2_5":66.4,"mosquito_risk":3,"arthritis_risk":5,"migraine_risk":7,"frizz_risk":0,"updated_at":"2026-03-09T14:21:04.674091+05:30"},{"city":"Mussoorie","state":"Uttarakhand","latitude":30.4599,"longitude":78.0664,"temp":23.2,"humidity":50,"rain":0.0,"pressure":808.8,"uv_index":6.2,"wind_gusts":41.0,"aqi":151,"pm10":75.7,"pm2_5":48.3,"mosquito_risk":0,"arthritis_risk":5,"migraine_risk":7,"frizz_risk":0,"updated_at":"2026-03-09T14:21:04.674099+05:30"},{"city":"Dharamshala","state":"Himachal Pradesh","latitude":32.219,"longitude":76.3234,"temp":27.1,"humidity":33,"rain":0.0,"pressure":874.7,"uv_index":6.45,"wind_gusts":26.6,"aqi":53,"pm10":29.3,"pm2_5":10.5,"mosquito_risk":4,"arthritis_risk":5,"migraine_risk":7,"frizz_risk":0,"updated_at":"2026-03-09T14:21:04.674107+05:30"},{"city":"Dalhousie","state":"Himachal Pradesh","latitude":32.5387,"longitude":75.971,"temp":26.7,"humidity":23,"rain":0.0,"pressure":810.9,"uv_index":6.65,"wind_gusts":21.6,"aqi":82,"pm10":34.7,"pm2_5":15.9,"mosquito_risk":4,"arthritis_risk":5,"migraine_risk":7,"frizz_risk":0,"updated_at":"2026-03-09T14:21:04.674115+05:30"},{"city":"Patiala","state":"Punjab","latitude":30.3398,"longitude":76.3869,"temp":32.3,"humidity":40,"rain":0.0,"pressure":982.2,"uv_index":5.35,"wind_gusts":25.6,"aqi":174,"pm10":223.5,"pm2_5":58.3,"mosquito_risk":0,"arthritis_risk":5,"migraine_risk":3,"frizz_risk":1,"updated_at":"2026-03-09T14:21:04.674122+05:30"},{"city":"Bhatinda","state":"Punjab","latitude":30.211,"longitude":74.9455,"temp":33.4,"humidity":39,"rain":0.0,"pressure":987.8,"uv_index":6.2,"wind_gusts":21.6,"aqi":155,"pm10":85.9,"pm2_5":55.1,"mosquito_risk":0,"arthritis_risk":5,"migraine_risk":7,"frizz_risk":1,"updated_at":"2026-03-09T14:21:04.674129+05:30"},{"city":"Rohtak","state":"Haryana","latitude":28.8955,"longitude":76.6066,"temp":34.2,"humidity":36,"rain":0.0,"pressure":985.6,"uv_index":6.0,"wind_gusts":28.4,"aqi":177,"pm10":308.3,"pm2_5":61.2,"mosquito_risk":0,"arthritis_risk":5,"migraine_risk":3,"frizz_risk":1,"updated_at":"2026-03-09T14:21:04.674135+05:30"},{"city":"Panipat","state":"Haryana","latitude":29.3909,"longitude":76.9635,"temp":34.1,"humidity":37,"rain":0.0,"pressure":984.2,"uv_index":5.8,"wind_gusts":28.8,"aqi":566,"pm10":504.8,"pm2_5":86.6,"mosquito_risk":0,"arthritis_risk":5,"migraine_risk":3,"frizz_risk":1,"updated_at":"2026-03-09T14:21:04.674142+05:30"},{"city":"Mathura","state":"Uttar Pradesh","latitude":27.4924,"longitude":77.6737,"temp":36.6,"humidity":25,"rain":0.0,"pressure":990.5,"uv_index":6.3,"wind_gusts":24.1,"aqi":195,"pm10":239.3,"pm2_5":59.4,"mosquito_risk":0,"arthritis_risk":5,"migraine_risk":10,"frizz_risk":0,"updated_at":"2026-03-09T14:21:04.674149+05:30"},{"city":"Vrindavan","state":"Uttar Pradesh","latitude":27.5823,"longitude":77.7027,"temp":35.8,"humidity":29,"rain":0.0,"pressure":991.0,"uv_index":6.25,"wind_gusts":26.3,"aqi":195,"pm10":239.3,"pm2_5":59.4,"mosquito_risk":0,"arthritis_risk":5,"migraine_risk":10,"frizz_risk":0,"updated_at":"2026-03-09T14:21:04.674156+05:30"},{"city":"Ayodhya","state":"Uttar Pradesh","latitude":26.7922,"longitude":82.1998,"temp":31.9,"humidity":47,"rain":0.0,"pressure":999.8,"uv_index":6.7,"wind_gusts":17.3,"aqi":192,"pm10":130.9,"pm2_5":101.3,"mosquito_risk":0,"arthritis_risk":5,"migraine_risk":7,"frizz_risk":1,"updated_at":"2026-03-09T14:21:04.674162+05:30"},{"city":"Ratlam","state":"Madhya Pradesh","latitude":23.3315,"longitude":75.0367,"temp":35.9,"humidity":20,"rain":0.0,"pressure":958.6,"uv_index":7.5,"wind_gusts":11.9,"aqi":80,"pm10":8.4,"pm2_5":7.8,"mosquito_risk":0,"arthritis_risk":5,"migraine_risk":10,"frizz_risk":0,"updated_at":"2026-03-09T14:21:04.674168+05:30"},{"city":"Sagar","state":"Madhya Pradesh","latitude":23.8388,"longitude":78.7378,"temp":35.5,"humidity":19,"rain":0.0,"pressure":954.3,"uv_index":7.5,"wind_gusts":16.9,"aqi":64,"pm10":33.4,"pm2_5":10.9,"mosquito_risk":0,"arthritis_risk":5,"migraine_risk":10,"frizz_risk":0,"updated_at":"2026-03-09T14:21:04.674174+05:30"},{"city":"Satna","state":"Madhya Pradesh","latitude":24.6005,"longitude":80.8322,"temp":35.4,"humidity":27,"rain":0.0,"pressure":975.0,"uv_index":7.45,"wind_gusts":24.1,"aqi":145,"pm10":98.3,"pm2_5":29.9,"mosquito_risk":0,"arthritis_risk":5,"migraine_risk":10,"frizz_risk":0,"updated_at":"2026-03-09T14:21:04.674180+05:30"},{"city":"Akola","state":"Maharashtra","latitude":20.7002,"longitude":77.0082,"temp":37.9,"humidity":17,"rain":0.0,"pressure":977.9,"uv_index":7.95,"wind_gusts":19.1,"aqi":69,"pm10":21.8,"pm2_5":13.3,"mosquito_risk":0,"arthritis_risk":5,"migraine_risk":10,"frizz_risk":0,"updated_at":"2026-03-09T14:21:04.674187+05:30"},{"city":"Amravati","state":"Maharashtra","latitude":20.9374,"longitude":77.7796,"temp":37.8,"humidity":15,"rain":0.0,"pressure":970.2,"uv_index":7.9,"wind_gusts":26.6,"aqi":63,"pm10":21.1,"pm2_5":12.6,"mosquito_risk":0,"arthritis_risk":5,"migraine_risk":10,"frizz_risk":0,"updated_at":"2026-03-09T14:21:04.674194+05:30"},{"city":"Latur","state":"Maharashtra","latitude":18.4088,"longitude":76.5604,"temp":35.0,"humidity":17,"rain":0.0,"pressure":942.6,"uv_index":8.4,"wind_gusts":29.5,"aqi":96,"pm10":25.0,"pm2_5":18.3,"mosquito_risk":0,"arthritis_risk":5,"migraine_risk":7,"frizz_risk":0,"updated_at":"2026-03-09T14:21:04.674201+05:30"},{"city":"Nanded","state":"Maharashtra","latitude":19.1383,"longitude":77.3091,"temp":37.5,"humidity":16,"rain":0.0,"pressure":971.1,"uv_index":8.15,"wind_gusts":29.9,"aqi":77,"pm10":25.0,"pm2_5":16.1,"mosquito_risk":0,"arthritis_risk":5,"migraine_risk":10,"frizz_risk":0,"updated_at":"2026-03-09T14:21:04.674207+05:30"},{"city":"Gulbarga","state":"Karnataka","latitude":17.3297,"longitude":76.8343,"temp":37.6,"humidity":13,"rain":0.0,"pressure":960.6,"uv_index":8.5,"wind_gusts":32.0,"aqi":82,"pm10":25.5,"pm2_5":20.4,"mosquito_risk":0,"arthritis_risk":5,"migraine_risk":10,"frizz_risk":0,"updated_at":"2026-03-09T14:21:04.674213+05:30"},{"city":"Bidar","state":"Karnataka","latitude":17.9104,"longitude":77.5199,"temp":35.5,"humidity":14,"rain":0.0,"pressure":938.3,"uv_index":8.45,"wind_gusts":31.7,"aqi":102,"pm10":31.0,"pm2_5":22.5,"mosquito_risk":0,"arthritis_risk":5,"migraine_risk":10,"frizz_risk":0,"updated_at":"2026-03-09T14:21:04.674219+05:30"},{"city":"Hospet","state":"Karnataka","latitude":15.2689,"longitude":76.3909,"temp":35.6,"humidity":23,"rain":0.0,"pressure":956.9,"uv_index":8.8,"wind_gusts":36.7,"aqi":89,"pm10":43.8,"pm2_5":32.7,"mosquito_risk":0,"arthritis_risk":5,"migraine_risk":10,"frizz_risk":0,"updated_at":"2026-03-09T14:21:04.674224+05:30"},{"city":"Tirupur","state":"Tamil Nadu","latitude":11.1085,"longitude":77.3411,"temp":34.6,"humidity":34,"rain":0.0,"pressure":976.0,"uv_index":9.25,"wind_gusts":39.2,"aqi":95,"pm10":43.0,"pm2_5":29.5,"mosquito_risk":0,"arthritis_risk":5,"migraine_risk":7,"frizz_risk":1,"updated_at":"2026-03-09T14:21:04.674230+05:30"},{"city":"Alappuzha","state":"Kerala","latitude":9.4981,"longitude":76.3388,"temp":27.8,"humidity":82,"rain":0.0,"pressure":1008.6,"uv_index":8.95,"wind_gusts":25.6,"aqi":130,"pm10":44.9,"pm2_5":40.3,"mosquito_risk":7,"arthritis_risk":0,"migraine_risk":4,"frizz_risk":1,"updated_at":"2026-03-09T14:21:04.674236+05:30"},{"city":"Munnar","state":"Kerala","latitude":10.0889,"longitude":77.0595,"temp":29.2,"humidity":41,"rain":0.0,"pressure":858.9,"uv_index":9.55,"wind_gusts":19.1,"aqi":101,"pm10":41.1,"pm2_5":26.1,"mosquito_risk":4,"arthritis_risk":5,"migraine_risk":7,"frizz_risk":0,"updated_at":"2026-03-09T14:21:04.674243+05:30"},{"city":"Silchar","state":"Assam","latitude":24.8333,"longitude":92.7789,"temp":31.7,"humidity":46,"rain":0.0,"pressure":1008.3,"uv_index":7.65,"wind_gusts":12.6,"aqi":167,"pm10":80.3,"pm2_5":68.0,"mosquito_risk":0,"arthritis_risk":0,"migraine_risk":4,"frizz_risk":1,"updated_at":"2026-03-09T14:21:04.674249+05:30"},{"city":"Dibrugarh","state":"Assam","latitude":27.4728,"longitude":94.912,"temp":30.0,"humidity":55,"rain":0.0,"pressure":999.1,"uv_index":7.4,"wind_gusts":14.0,"aqi":160,"pm10":93.8,"pm2_5":75.4,"mosquito_risk":4,"arthritis_risk":5,"migraine_risk":7,"frizz_risk":1,"updated_at":"2026-03-09T14:21:04.674255+05:30"}]