[{"city":"Delhi","state":"Delhi","latitude":28.6139,"longitude":77.209,"temp":29.8,"humidity":62,"rain":0.0,"pressure":979.0,"uv_index":7.65,"wind_gusts":34.6,"aqi":414,"pm10":484.3,"pm2_5":163.9,"no2":89.8,"co":1438.0,"o3":15.0,"so2":46.3,"mosquito_risk":7,"arthritis_risk":5,"migraine_risk":7,"frizz_risk":1,"updated_at":"2026-06-18T02:39:57.176157+05:30"},{"city":"Mumbai","state":"Maharashtra","latitude":19.076,"longitude":72.8777,"temp":29.7,"humidity":66,"rain":0.0,"pressure":1007.8,"uv_index":7.7,"wind_gusts":41.8,"aqi":55,"pm10":26.6,"pm2_5":12.6,"no2":4.2,"co":129.0,"o3":46.0,"so2":3.5,"mosquito_risk":7,"arthritis_risk":5,"migraine_risk":4,"frizz_risk":1,"updated_at":"2026-06-18T02:39:57.176203+05:30"},{"city":"Bangalore","state":"Karnataka","latitude":12.9716,"longitude":77.5946,"temp":21.5,"humidity":94,"rain":0.0,"pressure":911.3,"uv_index":8.5,"wind_gusts":42.1,"aqi":64,"pm10":13.8,"pm2_5":10.8,"no2":16.7,"co":322.0,"o3":42.0,"so2":5.3,"mosquito_risk":3,"arthritis_risk":5,"migraine_risk":7,"frizz_risk":1,"updated_at":"2026-06-18T02:39:57.176219+05:30"},{"city":"Hyderabad","state":"Telangana","latitude":17.385,"longitude":78.4867,"temp":28.1,"humidity":57,"rain":0.0,"pressure":950.9,"uv_index":9.05,"wind_gusts":34.2,"aqi":91,"pm10":48.1,"pm2_5":32.0,"no2":19.1,"co":617.0,"o3":66.0,"so2":7.3,"mosquito_risk":4,"arthritis_risk":5,"migraine_risk":7,"frizz_risk":1,"updated_at":"2026-06-18T02:39:57.176228+05:30"},{"city":"Chennai","state":"Tamil Nadu","latitude":13.0827,"longitude":80.2707,"temp":28.7,"humidity":74,"rain":0.0,"pressure":1005.1,"uv_index":6.7,"wind_gusts":44.6,"aqi":84,"pm10":34.5,"pm2_5":25.7,"no2":13.0,"co":224.0,"o3":86.0,"so2":11.1,"mosquito_risk":7,"arthritis_risk":5,"migraine_risk":4,"frizz_risk":1,"updated_at":"2026-06-18T02:39:57.176237+05:30"},{"city":"Kolkata","state":"West Bengal","latitude":22.5726,"longitude":88.3639,"temp":29.5,"humidity":90,"rain":0.1,"pressure":1002.5,"uv_index":9.0,"wind_gusts":46.8,"aqi":119,"pm10":47.0,"pm2_5":38.4,"no2":10.0,"co":292.0,"o3":82.0,"so2":8.5,"mosquito_risk":10,"arthritis_risk":5,"migraine_risk":4,"frizz_risk":1,"updated_at":"2026-06-18T02:39:57.176245+05:30"},{"city":"Pune","state":"Maharashtra","latitude":18.5204,"longitude":73.8567,"temp":23.4,"humidity":85,"rain":0.0,"pressure":947.6,"uv_index":8.35,"wind_gusts":48.2,"aqi":47,"pm10":12.2,"pm2_5":7.9,"no2":8.5,"co":130.0,"o3":37.0,"so2":7.8,"mosquito_risk":3,"arthritis_risk":5,"migraine_risk":7,"frizz_risk":1,"updated_at":"2026-06-18T02:39:57.176252+05:30"},{"city":"Ahmedabad","state":"Gujarat","latitude":23.0225,"longitude":72.5714,"temp":28.0,"humidity":79,"rain":0.0,"pressure":1000.3,"uv_index":8.05,"wind_gusts":43.2,"aqi":63,"pm10":32.0,"pm2_5":15.1,"no2":4.0,"co":171.0,"o3":43.0,"so2":3.9,"mosquito_risk":7,"arthritis_risk":5,"migraine_risk":4,"frizz_risk":1,"updated_at":"2026-06-18T02:39:57.176259+05:30"},{"city":"Jaipur","state":"Rajasthan","latitude":26.9124,"longitude":75.7873,"temp":28.4,"humidity":63,"rain":0.0,"pressure":956.6,"uv_index":8.2,"wind_gusts":33.1,"aqi":116,"pm10":49.4,"pm2_5":24.0,"no2":5.6,"co":153.0,"o3":61.0,"so2":3.9,"mosquito_risk":7,"arthritis_risk":5,"migraine_risk":7,"frizz_risk":1,"updated_at":"2026-06-18T02:39:57.176266+05:30"},{"city":"Lucknow","state":"Uttar Pradesh","latitude":26.8467,"longitude":80.9462,"temp":31.1,"humidity":57,"rain":0.0,"pressure":989.6,"uv_index":8.35,"wind_gusts":32.8,"aqi":157,"pm10":215.1,"pm2_5":71.2,"no2":36.6,"co":358.0,"o3":27.0,"so2":9.0,"mosquito_risk":0,"arthritis_risk":5,"migraine_risk":7,"frizz_risk":1,"updated_at":"2026-06-18T02:39:57.176277+05:30"},{"city":"Kanpur","state":"Uttar Pradesh","latitude":26.4499,"longitude":80.3319,"temp":32.3,"humidity":49,"rain":0.0,"pressure":988.1,"uv_index":7.85,"wind_gusts":32.0,"aqi":175,"pm10":188.6,"pm2_5":68.2,"no2":41.8,"co":372.0,"o3":16.0,"so2":8.8,"mosquito_risk":0,"arthritis_risk":5,"migraine_risk":7,"frizz_risk":1,"updated_at":"2026-06-18T02:39:57.176283+05:30"},{"city":"Chandigarh","state":"Chandigarh","latitude":30.7333,"longitude":76.7794,"temp":25.6,"humidity":77,"rain":0.0,"pressure":964.7,"uv_index":7.8,"wind_gusts":23.8,"aqi":155,"pm10":126.2,"pm2_5":86.1,"no2":49.5,"co":838.0,"o3":16.0,"so2":6.7,"mosquito_risk":7,"arthritis_risk":5,"migraine_risk":7,"frizz_risk":1,"updated_at":"2026-06-18T02:39:57.176292+05:30"},{"city":"Srinagar","state":"Jammu and Kashmir","latitude":34.0837,"longitude":74.7973,"temp":15.0,"humidity":100,"rain":0.0,"pressure":840.1,"uv_index":7.5,"wind_gusts":24.5,"aqi":77,"pm10":35.4,"pm2_5":32.6,"no2":27.5,"co":745.0,"o3":15.0,"so2":0.0,"mosquito_risk":3,"arthritis_risk":10,"migraine_risk":7,"frizz_risk":0,"updated_at":"2026-06-18T02:39:57.176300+05:30"},{"city":"Jammu","state":"Jammu and Kashmir","latitude":32.7266,"longitude":74.857,"temp":25.3,"humidity":66,"rain":0.0,"pressure":968.2,"uv_index":8.6,"wind_gusts":32.4,"aqi":114,"pm10":41.2,"pm2_5":38.3,"no2":50.9,"co":416.0,"o3":8.0,"so2":2.9,"mosquito_risk":7,"arthritis_risk":5,"migraine_risk":7,"frizz_risk":1,"updated_at":"2026-06-18T02:39:57.176306+05:30"},{"city":"Amritsar","state":"Punjab","latitude":31.634,"longitude":74.8723,"temp":27.2,"humidity":79,"rain":0.0,"pressure":976.4,"uv_index":8.45,"wind_gusts":20.5,"aqi":149,"pm10":95.7,"pm2_5":79.4,"no2":46.3,"co":900.0,"o3":61.0,"so2":13.7,"mosquito_risk":7,"arthritis_risk":5,"migraine_risk":7,"frizz_risk":1,"updated_at":"2026-06-18T02:39:57.176313+05:30"},{"city":"Ludhiana","state":"Punjab","latitude":30.901,"longitude":75.8573,"temp":27.9,"humidity":80,"rain":0.0,"pressure":974.5,"uv_index":8.05,"wind_gusts":27.7,"aqi":154,"pm10":78.0,"pm2_5":60.8,"no2":32.9,"co":1092.0,"o3":49.0,"so2":7.0,"mosquito_risk":7,"arthritis_risk":5,"migraine_risk":7,"frizz_risk":1,"updated_at":"2026-06-18T02:39:57.176320+05:30"},{"city":"Jalandhar","state":"Punjab","latitude":31.326,"longitude":75.5762,"temp":27.1,"humidity":81,"rain":0.0,"pressure":975.5,"uv_index":8.25,"wind_gusts":24.8,"aqi":151,"pm10":78.9,"pm2_5":61.0,"no2":32.9,"co":1343.0,"o3":57.0,"so2":6.2,"mosquito_risk":7,"arthritis_risk":5,"migraine_risk":7,"frizz_risk":1,"updated_at":"2026-06-18T02:39:57.176332+05:30"},{"city":"Dehradun","state":"Uttarakhand","latitude":30.6284,"longitude":78.0322,"temp":16.0,"humidity":92,"rain":0.0,"pressure":828.1,"uv_index":7.5,"wind_gusts":32.8,"aqi":70,"pm10":29.5,"pm2_5":24.0,"no2":29.9,"co":245.0,"o3":14.0,"so2":0.3,"mosquito_risk":3,"arthritis_risk":10,"migraine_risk":7,"frizz_risk":0,"updated_at":"2026-06-18T02:39:57.176339+05:30"},{"city":"Shimla","state":"Himachal Pradesh","latitude":31.1048,"longitude":77.1734,"temp":12.2,"humidity":90,"rain":0.0,"pressure":780.9,"uv_index":7.65,"wind_gusts":34.6,"aqi":97,"pm10":75.9,"pm2_5":46.4,"no2":25.1,"co":295.0,"o3":37.0,"so2":0.0,"mosquito_risk":3,"arthritis_risk":10,"migraine_risk":7,"frizz_risk":0,"updated_at":"2026-06-18T02:39:57.176346+05:30"},{"city":"Manali","state":"Himachal Pradesh","latitude":32.2396,"longitude":77.1887,"temp":15.4,"humidity":60,"rain":0.0,"pressure":815.8,"uv_index":9.6,"wind_gusts":34.2,"aqi":47,"pm10":7.4,"pm2_5":7.0,"no2":27.3,"co":205.0,"o3":93.0,"so2":0.0,"mosquito_risk":0,"arthritis_risk":5,"migraine_risk":7,"frizz_risk":0,"updated_at":"2026-06-18T02:39:57.176354+05:30"},{"city":"Gurgaon","state":"Haryana","latitude":28.4595,"longitude":77.0266,"temp":28.2,"humidity":65,"rain":0.0,"pressure":977.5,"uv_index":7.85,"wind_gusts":31.3,"aqi":433,"pm10":382.8,"pm2_5":134.1,"no2":82.0,"co":1368.0,"o3":18.0,"so2":32.0,"mosquito_risk":7,"arthritis_risk":5,"migraine_risk":7,"frizz_risk":1,"updated_at":"2026-06-18T02:39:57.176361+05:30"},{"city":"Noida","state":"Uttar Pradesh","latitude":28.5355,"longitude":77.391,"temp":28.1,"humidity":70,"rain":0.0,"pressure":980.5,"uv_index":7.7,"wind_gusts":24.5,"aqi":433,"pm10":382.8,"pm2_5":134.1,"no2":82.0,"co":1416.0,"o3":18.0,"so2":32.0,"mosquito_risk":7,"arthritis_risk":5,"migraine_risk":7,"frizz_risk":1,"updated_at":"2026-06-18T02:39:57.176367+05:30"},{"city":"Ghaziabad","state":"Uttar Pradesh","latitude":28.6692,"longitude":77.4538,"temp":26.1,"humidity":82,"rain":0.0,"pressure":978.5,"uv_index":7.6,"wind_gusts":20.9,"aqi":427,"pm10":555.1,"pm2_5":179.3,"no2":69.8,"co":832.0,"o3":28.0,"so2":25.7,"mosquito_risk":7,"arthritis_risk":5,"migraine_risk":7,"frizz_risk":1,"updated_at":"2026-06-18T02:39:57.176373+05:30"},{"city":"Faridabad","state":"Haryana","latitude":28.4089,"longitude":77.3178,"temp":29.8,"humidity":57,"rain":0.0,"pressure":979.8,"uv_index":7.75,"wind_gusts":32.8,"aqi":433,"pm10":382.8,"pm2_5":134.1,"no2":82.0,"co":1091.0,"o3":18.0,"so2":32.0,"mosquito_risk":4,"arthritis_risk":5,"migraine_risk":7,"frizz_risk":1,"updated_at":"2026-06-18T02:39:57.176380+05:30"},{"city":"Meerut","state":"Uttar Pradesh","latitude":28.9845,"longitude":77.7064,"temp":28.2,"humidity":68,"rain":0.0,"pressure":977.6,"uv_index":6.0,"wind_gusts":27.0,"aqi":427,"pm10":555.1,"pm2_5":179.3,"no2":69.8,"co":822.0,"o3":28.0,"so2":25.7,"mosquito_risk":7,"arthritis_risk":5,"migraine_risk":3,"frizz_risk":1,"updated_at":"2026-06-18T02:39:57.176387+05:30"},{"city":"Agra","state":"Uttar Pradesh","latitude":27.1767,"longitude":78.0081,"temp":30.6,"humidity":55,"rain":0.0,"pressure":983.8,"uv_index":8.15,"wind_gusts":28.8,"aqi":191,"pm10":393.0,"pm2_5":121.5,"no2":67.9,"co":516.0,"o3":2.0,"so2":23.1,"mosquito_risk":0,"arthritis_risk":5,"migraine_risk":7,"frizz_risk":1,"updated_at":"2026-06-18T02:39:57.176393+05:30"},{"city":"Varanasi","state":"Uttar Pradesh","latitude":25.3176,"longitude":82.9739,"temp":29.6,"humidity":66,"rain":0.0,"pressure":994.1,"uv_index":8.4,"wind_gusts":37.4,"aqi":154,"pm10":65.0,"pm2_5":40.0,"no2":12.9,"co":293.0,"o3":71.0,"so2":6.5,"mosquito_risk":7,"arthritis_risk":5,"migraine_risk":7,"frizz_risk":1,"updated_at":"2026-06-18T02:39:57.176400+05:30"},{"city":"Prayagraj","state":"Uttar Pradesh","latitude":25.4358,"longitude":81.8463,"temp":32.2,"humidity":59,"rain":0.0,"pressure":992.3,"uv_index":8.25,"wind_gusts":29.9,"aqi":155,"pm10":64.7,"pm2_5":43.4,"no2":16.5,"co":186.0,"o3":65.0,"so2":8.4,"mosquito_risk":0,"arthritis_risk":5,"migraine_risk":7,"frizz_risk":1,"updated_at":"2026-06-18T02:39:57.176406+05:30"},{"city":"Gorakhpur","state":"Uttar Pradesh","latitude":26.7606,"longitude":83.3732,"temp":28.9,"humidity":71,"rain":0.0,"pressure":993.3,"uv_index":8.35,"wind_gusts":31.7,"aqi":163,"pm10":99.4,"pm2_5":63.3,"no2":31.4,"co":368.0,"o3":41.0,"so2":10.5,"mosquito_risk":7,"arthritis_risk":5,"migraine_risk":7,"frizz_risk":1,"updated_at":"2026-06-18T02:39:57.176413+05:30"},{"city":"Bareilly","state":"Uttar Pradesh","latitude":28.367,"longitude":79.4304,"temp":27.1,"humidity":78,"rain":0.0,"pressure":982.9,"uv_index":8.1,"wind_gusts":29.2,"aqi":162,"pm10":320.4,"pm2_5":114.3,"no2":36.0,"co":577.0,"o3":63.0,"so2":17.9,"mosquito_risk":7,"arthritis_risk":5,"migraine_risk":7,"frizz_risk":1,"updated_at":"2026-06-18T02:39:57.176421+05:30"},{"city":"Aligarh","state":"Uttar Pradesh","latitude":27.8974,"longitude":78.088,"temp":28.4,"humidity":65,"rain":0.0,"pressure":981.6,"uv_index":7.85,"wind_gusts":25.9,"aqi":302,"pm10":448.9,"pm2_5":144.8,"no2":76.8,"co":708.0,"o3":18.0,"so2":19.9,"mosquito_risk":7,"arthritis_risk":5,"migraine_risk":7,"frizz_risk":1,"updated_at":"2026-06-18T02:39:57.176427+05:30"},{"city":"Moradabad","state":"Uttar Pradesh","latitude":28.8386,"longitude":78.7733,"temp":27.6,"humidity":75,"rain":0.0,"pressure":979.8,"uv_index":7.9,"wind_gusts":33.5,"aqi":185,"pm10":447.0,"pm2_5":151.3,"no2":58.0,"co":795.0,"o3":21.0,"so2":14.9,"mosquito_risk":7,"arthritis_risk":5,"migraine_risk":7,"frizz_risk":1,"updated_at":"2026-06-18T02:39:57.176433+05:30"},{"city":"Saharanpur","state":"Uttar Pradesh","latitude":29.9637,"longitude":77.546,"temp":27.6,"humidity":72,"rain":0.0,"pressure":972.0,"uv_index":7.55,"wind_gusts":25.9,"aqi":325,"pm10":372.5,"pm2_5":164.8,"no2":90.1,"co":672.0,"o3":2.0,"so2":27.0,"mosquito_risk":7,"arthritis_risk":5,"migraine_risk":7,"frizz_risk":1,"updated_at":"2026-06-18T02:39:57.176440+05:30"},{"city":"Jhansi","state":"Uttar Pradesh","latitude":25.4484,"longitude":78.5685,"temp":30.1,"humidity":51,"rain":0.0,"pressure":975.0,"uv_index":7.9,"wind_gusts":36.0,"aqi":93,"pm10":43.0,"pm2_5":27.9,"no2":7.9,"co":162.0,"o3":66.0,"so2":7.7,"mosquito_risk":0,"arthritis_risk":5,"migraine_risk":7,"frizz_risk":1,"updated_at":"2026-06-18T02:40:00.586099+05:30"},{"city":"Surat","state":"Gujarat","latitude":21.1702,"longitude":72.8311,"temp":29.1,"humidity":74,"rain":0.0,"pressure":1005.5,"uv_index":7.6,"wind_gusts":51.8,"aqi":65,"pm10":36.7,"pm2_5":20.6,"no2":17.4,"co":283.0,"o3":30.0,"so2":30.1,"mosquito_risk":7,"arthritis_risk":5,"migraine_risk":4,"frizz_risk":1,"updated_at":"2026-06-18T02:40:00.586135+05:30"},{"city":"Vadodara","state":"Gujarat","latitude":22.3072,"longitude":73.1812,"temp":29.6,"humidity":62,"rain":0.0,"pressure":1002.4,"uv_index":8.05,"wind_gusts":53.6,"aqi":58,"pm10":24.8,"pm2_5":15.0,"no2":9.1,"co":136.0,"o3":34.0,"so2":7.4,"mosquito_risk":7,"arthritis_risk":5,"migraine_risk":4,"frizz_risk":1,"updated_at":"2026-06-18T02:40:00.586147+05:30"},{"city":"Rajkot","state":"Gujarat","latitude":22.3039,"longitude":70.8022,"temp":27.7,"humidity":81,"rain":0.0,"pressure":992.6,"uv_index":7.0,"wind_gusts":49.7,"aqi":55,"pm10":27.2,"pm2_5":13.1,"no2":4.8,"co":97.0,"o3":39.0,"so2":5.0,"mosquito_risk":7,"arthritis_risk":5,"migraine_risk":7,"frizz_risk":1,"updated_at":"2026-06-18T02:40:00.586157+05:30"},{"city":"Thane","state":"Maharashtra","latitude":19.2183,"longitude":72.9781,"temp":29.7,"humidity":69,"rain":0.0,"pressure":1007.1,"uv_index":7.7,"wind_gusts":40.7,"aqi":55,"pm10":26.6,"pm2_5":12.6,"no2":4.2,"co":146.0,"o3":46.0,"so2":3.5,"mosquito_risk":7,"arthritis_risk":5,"migraine_risk":4,"frizz_risk":1,"updated_at":"2026-06-18T02:40:00.586166+05:30"},{"city":"Nagpur","state":"Maharashtra","latitude":21.1458,"longitude":79.0882,"temp":28.0,"humidity":64,"rain":0.0,"pressure":970.8,"uv_index":8.9,"wind_gusts":36.7,"aqi":98,"pm10":37.6,"pm2_5":28.3,"no2":16.3,"co":224.0,"o3":49.0,"so2":9.9,"mosquito_risk":7,"arthritis_risk":5,"migraine_risk":7,"frizz_risk":1,"updated_at":"2026-06-18T02:40:00.586176+05:30"},{"city":"Nashik","state":"Maharashtra","latitude":19.9975,"longitude":73.7898,"temp":23.8,"humidity":87,"rain":0.0,"pressure":945.0,"uv_index":8.05,"wind_gusts":43.6,"aqi":43,"pm10":18.4,"pm2_5":9.0,"no2":4.1,"co":109.0,"o3":42.0,"so2":2.3,"mosquito_risk":3,"arthritis_risk":5,"migraine_risk":7,"frizz_risk":1,"updated_at":"2026-06-18T02:40:00.586185+05:30"},{"city":"Aurangabad","state":"Maharashtra","latitude":19.8762,"longitude":75.3433,"temp":25.8,"humidity":68,"rain":0.0,"pressure":943.4,"uv_index":8.95,"wind_gusts":48.6,"aqi":49,"pm10":14.0,"pm2_5":8.4,"no2":5.9,"co":123.0,"o3":44.0,"so2":5.2,"mosquito_risk":7,"arthritis_risk":5,"migraine_risk":7,"frizz_risk":1,"updated_at":"2026-06-18T02:40:00.586194+05:30"},{"city":"Solapur","state":"Maharashtra","latitude":17.6599,"longitude":75.9064,"temp":27.5,"humidity":63,"rain":0.0,"pressure":956.7,"uv_index":8.85,"wind_gusts":41.8,"aqi":57,"pm10":13.6,"pm2_5":9.0,"no2":6.0,"co":137.0,"o3":49.0,"so2":4.3,"mosquito_risk":7,"arthritis_risk":5,"migraine_risk":7,"frizz_risk":1,"updated_at":"2026-06-18T02:40:00.586203+05:30"},{"city":"Kolhapur","state":"Maharashtra","latitude":16.705,"longitude":74.2433,"temp":22.9,"humidity":88,"rain":0.0,"pressure":947.6,"uv_index":8.75,"wind_gusts":45.7,"aqi":49,"pm10":15.7,"pm2_5":9.9,"no2":6.4,"co":130.0,"o3":37.0,"so2":2.9,"mosquito_risk":3,"arthritis_risk":5,"migraine_risk":7,"frizz_risk":1,"updated_at":"2026-06-18T02:40:00.586212+05:30"},{"city":"Goa","state":"Goa","latitude":15.2993,"longitude":74.124,"temp":25.6,"humidity":90,"rain":0.0,"pressure":998.4,"uv_index":8.65,"wind_gusts":28.8,"aqi":57,"pm10":37.0,"pm2_5":22.0,"no2":7.8,"co":406.0,"o3":42.0,"so2":2.5,"mosquito_risk":7,"arthritis_risk":5,"migraine_risk":7,"frizz_risk":1,"updated_at":"2026-06-18T02:40:00.586221+05:30"},{"city":"Jodhpur","state":"Rajasthan","latitude":26.2389,"longitude":73.0243,"temp":31.0,"humidity":59,"rain":0.0,"pressure":979.8,"uv_index":8.4,"wind_gusts":36.0,"aqi":105,"pm10":95.2,"pm2_5":28.1,"no2":4.6,"co":135.0,"o3":55.0,"so2":1.8,"mosquito_risk":0,"arthritis_risk":5,"migraine_risk":7,"frizz_risk":1,"updated_at":"2026-06-18T02:40:00.586230+05:30"},{"city":"Udaipur","state":"Rajasthan","latitude":24.5854,"longitude":73.7125,"temp":26.0,"humidity":66,"rain":0.0,"pressure":944.5,"uv_index":8.85,"wind_gusts":33.1,"aqi":68,"pm10":48.8,"pm2_5":24.0,"no2":5.8,"co":115.0,"o3":59.0,"so2":3.4,"mosquito_risk":7,"arthritis_risk":5,"migraine_risk":7,"frizz_risk":1,"updated_at":"2026-06-18T02:40:00.586239+05:30"},{"city":"Kota","state":"Rajasthan","latitude":25.2138,"longitude":75.8648,"temp":30.4,"humidity":53,"rain":0.0,"pressure":975.9,"uv_index":8.35,"wind_gusts":34.6,"aqi":84,"pm10":30.5,"pm2_5":19.2,"no2":6.5,"co":172.0,"o3":62.0,"so2":4.7,"mosquito_risk":0,"arthritis_risk":5,"migraine_risk":7,"frizz_risk":1,"updated_at":"2026-06-18T02:40:00.586248+05:30"},{"city":"Bikaner","state":"Rajasthan","latitude":28.0229,"longitude":73.3119,"temp":30.1,"humidity":61,"rain":0.0,"pressure":978.3,"uv_index":8.45,"wind_gusts":29.9,"aqi":131,"pm10":149.9,"pm2_5":44.8,"no2":2.9,"co":121.0,"o3":55.0,"so2":2.4,"mosquito_risk":3,"arthritis_risk":5,"migraine_risk":7,"frizz_risk":1,"updated_at":"2026-06-18T02:40:00.586256+05:30"},{"city":"Ajmer","state":"Rajasthan","latitude":26.4499,"longitude":74.6399,"temp":28.0,"humidity":63,"rain":0.0,"pressure":952.0,"uv_index":8.35,"wind_gusts":40.0,"aqi":89,"pm10":31.8,"pm2_5":17.6,"no2":7.0,"co":151.0,"o3":50.0,"so2":3.6,"mosquito_risk":7,"arthritis_risk":5,"migraine_risk":7,"frizz_risk":1,"updated_at":"2026-06-18T02:40:00.586266+05:30"},{"city":"Gwalior","state":"Madhya Pradesh","latitude":26.2183,"longitude":78.1828,"temp":30.5,"humidity":50,"rain":0.0,"pressure":979.7,"uv_index":8.25,"wind_gusts":37.8,"aqi":110,"pm10":44.2,"pm2_5":25.3,"no2":6.6,"co":134.0,"o3":59.0,"so2":3.2,"mosquito_risk":0,"arthritis_risk":5,"migraine_risk":7,"frizz_risk":1,"updated_at":"2026-06-18T02:40:00.586274+05:30"},{"city":"Indore","state":"Madhya Pradesh","latitude":22.7196,"longitude":75.8577,"temp":26.8,"humidity":60,"rain":0.0,"pressure":946.8,"uv_index":8.65,"wind_gusts":40.0,"aqi":78,"pm10":29.0,"pm2_5":20.0,"no2":8.7,"co":200.0,"o3":62.0,"so2":10.8,"mosquito_risk":4,"arthritis_risk":5,"migraine_risk":7,"frizz_risk":1,"updated_at":"2026-06-18T02:40:00.586283+05:30"},{"city":"Bhopal","state":"Madhya Pradesh","latitude":23.2599,"longitude":77.4126,"temp":26.7,"humidity":71,"rain":0.0,"pressure":951.6,"uv_index":8.7,"wind_gusts":38.5,"aqi":88,"pm10":33.2,"pm2_5":23.7,"no2":7.9,"co":275.0,"o3":61.0,"so2":3.5,"mosquito_risk":7,"arthritis_risk":5,"migraine_risk":7,"frizz_risk":1,"updated_at":"2026-06-18T02:40:00.586292+05:30"},{"city":"Jabalpur","state":"Madhya Pradesh","latitude":23.1815,"longitude":79.9864,"temp":26.0,"humidity":70,"rain":0.0,"pressure":959.3,"uv_index":6.35,"wind_gusts":28.1,"aqi":98,"pm10":33.1,"pm2_5":24.9,"no2":12.9,"co":234.0,"o3":56.0,"so2":3.4,"mosquito_risk":7,"arthritis_risk":5,"migraine_risk":7,"frizz_risk":1,"updated_at":"2026-06-18T02:40:00.586301+05:30"},{"city":"Ujjain","state":"Madhya Pradesh","latitude":23.1765,"longitude":75.7885,"temp":27.0,"humidity":59,"rain":0.0,"pressure":952.3,"uv_index":8.6,"wind_gusts":39.6,"aqi":73,"pm10":25.0,"pm2_5":16.1,"no2":5.8,"co":169.0,"o3":58.0,"so2":9.9,"mosquito_risk":4,"arthritis_risk":5,"migraine_risk":7,"frizz_risk":1,"updated_at":"2026-06-18T02:40:00.586310+05:30"},{"city":"Visakhapatnam","state":"Andhra Pradesh","latitude":17.6868,"longitude":83.2185,"temp":29.1,"humidity":79,"rain":0.0,"pressure":1000.6,"uv_index":8.95,"wind_gusts":47.2,"aqi":141,"pm10":57.4,"pm2_5":42.0,"no2":41.1,"co":387.0,"o3":62.0,"so2":47.3,"mosquito_risk":7,"arthritis_risk":5,"migraine_risk":4,"frizz_risk":1,"updated_at":"2026-06-18T02:40:00.586318+05:30"},{"city":"Vijayawada","state":"Andhra Pradesh","latitude":16.5062,"longitude":80.648,"temp":30.3,"humidity":79,"rain":0.0,"pressure":999.5,"uv_index":8.95,"wind_gusts":28.1,"aqi":117,"pm10":41.0,"pm2_5":31.9,"no2":7.7,"co":277.0,"o3":104.0,"so2":6.1,"mosquito_risk":3,"arthritis_risk":5,"migraine_risk":7,"frizz_risk":1,"updated_at":"2026-06-18T02:40:00.586327+05:30"},{"city":"Guntur","state":"Andhra Pradesh","latitude":16.3067,"longitude":80.4365,"temp":29.8,"humidity":83,"rain":0.0,"pressure":1000.6,"uv_index":8.95,"wind_gusts":31.3,"aqi":123,"pm10":42.0,"pm2_5":33.6,"no2":10.7,"co":259.0,"o3":97.0,"so2":6.9,"mosquito_risk":7,"arthritis_risk":5,"migraine_risk":4,"frizz_risk":1,"updated_at":"2026-06-18T02:40:00.586336+05:30"},{"city":"Nellore","state":"Andhra Pradesh","latitude":14.4426,"longitude":79.9865,"temp":30.1,"humidity":73,"rain":0.0,"pressure":1002.9,"uv_index":8.0,"wind_gusts":38.5,"aqi":91,"pm10":51.6,"pm2_5":34.3,"no2":10.6,"co":258.0,"o3":75.0,"so2":6.7,"mosquito_risk":3,"arthritis_risk":5,"migraine_risk":4,"frizz_risk":1,"updated_at":"2026-06-18T02:40:00.586345+05:30"},{"city":"Kurnool","state":"Andhra Pradesh","latitude":15.8281,"longitude":78.0373,"temp":27.2,"humidity":58,"rain":0.0,"pressure":975.8,"uv_index":6.0,"wind_gusts":44.3,"aqi":81,"pm10":21.8,"pm2_5":16.9,"no2":13.0,"co":237.0,"o3":46.0,"so2":3.6,"mosquito_risk":4,"arthritis_risk":5,"migraine_risk":3,"frizz_risk":1,"updated_at":"2026-06-18T02:40:00.586354+05:30"},{"city":"Kakinada","state":"Andhra Pradesh","latitude":16.9891,"longitude":82.2475,"temp":29.8,"humidity":82,"rain":0.0,"pressure":1004.3,"uv_index":8.2,"wind_gusts":30.2,"aqi":100,"pm10":46.2,"pm2_5":30.4,"no2":3.1,"co":324.0,"o3":117.0,"so2":4.6,"mosquito_risk":7,"arthritis_risk":5,"migraine_risk":4,"frizz_risk":1,"updated_at":"2026-06-18T02:40:00.586363+05:30"},{"city":"Tirupati","state":"Andhra Pradesh","latitude":13.6288,"longitude":79.4192,"temp":26.9,"humidity":85,"rain":0.0,"pressure":989.3,"uv_index":8.15,"wind_gusts":29.2,"aqi":91,"pm10":40.7,"pm2_5":29.0,"no2":17.8,"co":185.0,"o3":49.0,"so2":4.2,"mosquito_risk":7,"arthritis_risk":5,"migraine_risk":7,"frizz_risk":1,"updated_at":"2026-06-18T02:40:00.586372+05:30"},{"city":"Warangal","state":"Telangana","latitude":17.9689,"longitude":79.5941,"temp":28.6,"humidity":67,"rain":0.0,"pressure":975.6,"uv_index":9.0,"wind_gusts":31.0,"aqi":140,"pm10":69.6,"pm2_5":54.8,"no2":36.9,"co":454.0,"o3":16.0,"so2":6.2,"mosquito_risk":7,"arthritis_risk":5,"migraine_risk":7,"frizz_risk":1,"updated_at":"2026-06-18T02:40:00.586381+05:30"},{"city":"Nizamabad","state":"Telangana","latitude":18.6725,"longitude":78.0941,"temp":28.4,"humidity":43,"rain":0.0,"pressure":963.1,"uv_index":8.85,"wind_gusts":31.0,"aqi":89,"pm10":44.9,"pm2_5":29.7,"no2":18.1,"co":392.0,"o3":47.0,"so2":4.9,"mosquito_risk":4,"arthritis_risk":5,"migraine_risk":7,"frizz_risk":0,"updated_at":"2026-06-18T02:40:00.586390+05:30"},{"city":"Mysore","state":"Karnataka","latitude":12.2958,"longitude":76.6396,"temp":21.0,"humidity":100,"rain":0.3,"pressure":928.0,"uv_index":8.6,"wind_gusts":28.8,"aqi":53,"pm10":14.1,"pm2_5":11.1,"no2":14.6,"co":173.0,"o3":34.0,"so2":2.8,"mosquito_risk":6,"arthritis_risk":5,"migraine_risk":7,"frizz_risk":1,"updated_at":"2026-06-18T02:40:00.586399+05:30"},{"city":"Mangalore","state":"Karnataka","latitude":12.9141,"longitude":74.856,"temp":26.4,"humidity":84,"rain":0.0,"pressure":1007.2,"uv_index":8.15,"wind_gusts":28.8,"aqi":60,"pm10":33.9,"pm2_5":27.0,"no2":23.8,"co":278.0,"o3":15.0,"so2":4.2,"mosquito_risk":7,"arthritis_risk":5,"migraine_risk":4,"frizz_risk":1,"updated_at":"2026-06-18T02:40:00.586408+05:30"},{"city":"Hubli-Dharwad","state":"Karnataka","latitude":15.3647,"longitude":75.124,"temp":22.4,"humidity":93,"rain":0.0,"pressure":940.9,"uv_index":8.85,"wind_gusts":40.7,"aqi":42,"pm10":17.0,"pm2_5":9.8,"no2":5.5,"co":135.0,"o3":40.0,"so2":2.0,"mosquito_risk":3,"arthritis_risk":5,"migraine_risk":7,"frizz_risk":1,"updated_at":"2026-06-18T02:40:00.586416+05:30"},{"city":"Belgaum","state":"Karnataka","latitude":15.8497,"longitude":74.4977,"temp":21.0,"humidity":98,"rain":0.0,"pressure":925.2,"uv_index":8.9,"wind_gusts":40.0,"aqi":47,"pm10":21.8,"pm2_5":13.6,"no2":7.6,"co":131.0,"o3":33.0,"so2":1.3,"mosquito_risk":3,"arthritis_risk":5,"migraine_risk":7,"frizz_risk":1,"updated_at":"2026-06-18T02:40:09.375747+05:30"},{"city":"Coimbatore","state":"Tamil Nadu","latitude":11.0168,"longitude":76.9558,"temp":23.5,"humidity":93,"rain":0.0,"pressure":961.7,"uv_index":3.45,"wind_gusts":35.3,"aqi":35,"pm10":11.7,"pm2_5":10.0,"no2":16.0,"co":229.0,"o3":19.0,"so2":3.7,"mosquito_risk":3,"arthritis_risk":5,"migraine_risk":3,"frizz_risk":1,"updated_at":"2026-06-18T02:40:09.375784+05:30"},{"city":"Madurai","state":"Tamil Nadu","latitude":9.9252,"longitude":78.1198,"temp":26.9,"humidity":72,"rain":0.0,"pressure":992.3,"uv_index":8.0,"wind_gusts":37.1,"aqi":82,"pm10":16.8,"pm2_5":12.9,"no2":17.0,"co":161.0,"o3":39.0,"so2":3.7,"mosquito_risk":7,"arthritis_risk":5,"migraine_risk":7,"frizz_risk":1,"updated_at":"2026-06-18T02:40:09.375796+05:30"},{"city":"Trichy","state":"Tamil Nadu","latitude":10.7905,"longitude":78.7047,"temp":26.8,"humidity":77,"rain":0.0,"pressure":999.0,"uv_index":4.95,"wind_gusts":44.6,"aqi":68,"pm10":13.8,"pm2_5":10.1,"no2":9.2,"co":165.0,"o3":46.0,"so2":3.7,"mosquito_risk":7,"arthritis_risk":5,"migraine_risk":3,"frizz_risk":1,"updated_at":"2026-06-18T02:40:09.375805+05:30"},{"city":"Salem","state":"Tamil Nadu","latitude":11.6643,"longitude":78.146,"temp":24.7,"humidity":95,"rain":0.0,"pressure":977.2,"uv_index":8.7,"wind_gusts":26.6,"aqi":72,"pm10":26.0,"pm2_5":18.6,"no2":16.5,"co":275.0,"o3":54.0,"so2":8.6,"mosquito_risk":3,"arthritis_risk":5,"migraine_risk":7,"frizz_risk":1,"updated_at":"2026-06-18T02:40:09.375815+05:30"},{"city":"Tirunelveli","state":"Tamil Nadu","latitude":8.7139,"longitude":77.7567,"temp":29.8,"humidity":59,"rain":0.0,"pressure":1002.6,"uv_index":8.15,"wind_gusts":38.5,"aqi":39,"pm10":18.8,"pm2_5":12.4,"no2":9.4,"co":198.0,"o3":34.0,"so2":2.8,"mosquito_risk":4,"arthritis_risk":5,"migraine_risk":4,"frizz_risk":1,"updated_at":"2026-06-18T02:40:09.375825+05:30"},{"city":"Vellore","state":"Tamil Nadu","latitude":12.9165,"longitude":79.1325,"temp":26.7,"humidity":70,"rain":0.0,"pressure":982.9,"uv_index":6.95,"wind_gusts":37.4,"aqi":93,"pm10":24.5,"pm2_5":17.5,"no2":11.4,"co":231.0,"o3":64.0,"so2":4.4,"mosquito_risk":7,"arthritis_risk":5,"migraine_risk":7,"frizz_risk":1,"updated_at":"2026-06-18T02:40:09.375834+05:30"},{"city":"Erode","state":"Tamil Nadu","latitude":11.341,"longitude":77.7172,"temp":25.8,"humidity":88,"rain":0.4,"pressure":988.9,"uv_index":7.75,"wind_gusts":27.0,"aqi":56,"pm10":19.1,"pm2_5":14.5,"no2":16.6,"co":260.0,"o3":34.0,"so2":3.7,"mosquito_risk":10,"arthritis_risk":5,"migraine_risk":7,"frizz_risk":1,"updated_at":"2026-06-18T02:40:09.375844+05:30"},{"city":"Kochi","state":"Kerala","latitude":9.9312,"longitude":76.2673,"temp":26.2,"humidity":97,"rain":0.0,"pressure":1009.1,"uv_index":8.25,"wind_gusts":29.9,"aqi":62,"pm10":39.0,"pm2_5":35.4,"no2":28.3,"co":330.0,"o3":2.0,"so2":7.4,"mosquito_risk":7,"arthritis_risk":0,"migraine_risk":4,"frizz_risk":1,"updated_at":"2026-06-18T02:40:09.375854+05:30"},{"city":"Thiruvananthapuram","state":"Kerala","latitude":8.5241,"longitude":76.9366,"temp":25.1,"humidity":92,"rain":0.0,"pressure":1008.8,"uv_index":7.65,"wind_gusts":36.0,"aqi":47,"pm10":28.4,"pm2_5":14.5,"no2":6.2,"co":236.0,"o3":49.0,"so2":3.3,"mosquito_risk":7,"arthritis_risk":0,"migraine_risk":4,"frizz_risk":1,"updated_at":"2026-06-18T02:40:09.375862+05:30"},{"city":"Kozhikode","state":"Kerala","latitude":11.2588,"longitude":75.7804,"temp":25.7,"humidity":91,"rain":0.0,"pressure":1008.3,"uv_index":8.05,"wind_gusts":36.0,"aqi":49,"pm10":28.9,"pm2_5":14.3,"no2":3.3,"co":159.0,"o3":52.0,"so2":2.0,"mosquito_risk":7,"arthritis_risk":0,"migraine_risk":4,"frizz_risk":1,"updated_at":"2026-06-18T02:40:09.375871+05:30"},{"city":"Thrissur","state":"Kerala","latitude":10.5276,"longitude":76.2144,"temp":25.0,"humidity":91,"rain":0.0,"pressure":1007.6,"uv_index":6.9,"wind_gusts":30.6,"aqi":68,"pm10":59.0,"pm2_5":52.5,"no2":24.9,"co":318.0,"o3":4.0,"so2":7.6,"mosquito_risk":7,"arthritis_risk":5,"migraine_risk":4,"frizz_risk":1,"updated_at":"2026-06-18T02:40:09.375880+05:30"},{"city":"Kannur","state":"Kerala","latitude":11.8745,"longitude":75.3704,"temp":25.5,"humidity":93,"rain":0.1,"pressure":1007.7,"uv_index":5.1,"wind_gusts":37.4,"aqi":53,"pm10":25.7,"pm2_5":20.1,"no2":22.4,"co":508.0,"o3":13.0,"so2":3.0,"mosquito_risk":10,"arthritis_risk":5,"migraine_risk":0,"frizz_risk":1,"updated_at":"2026-06-18T02:40:09.375889+05:30"},{"city":"Patna","state":"Bihar","latitude":25.5941,"longitude":85.1376,"temp":30.0,"humidity":66,"rain":0.0,"pressure":996.5,"uv_index":8.6,"wind_gusts":27.0,"aqi":166,"pm10":187.7,"pm2_5":140.6,"no2":87.7,"co":623.0,"o3":1.0,"so2":29.0,"mosquito_risk":7,"arthritis_risk":5,"migraine_risk":7,"frizz_risk":1,"updated_at":"2026-06-18T02:40:09.375897+05:30"},{"city":"Gaya","state":"Bihar","latitude":24.7914,"longitude":85.0002,"temp":30.2,"humidity":60,"rain":0.0,"pressure":990.3,"uv_index":8.95,"wind_gusts":28.1,"aqi":157,"pm10":140.2,"pm2_5":88.0,"no2":39.0,"co":465.0,"o3":35.0,"so2":12.7,"mosquito_risk":0,"arthritis_risk":5,"migraine_risk":7,"frizz_risk":1,"updated_at":"2026-06-18T02:40:09.375907+05:30"},{"city":"Muzaffarpur","state":"Bihar","latitude":26.1209,"longitude":85.3647,"temp":28.4,"humidity":81,"rain":0.0,"pressure":996.8,"uv_index":8.6,"wind_gusts":27.0,"aqi":166,"pm10":143.9,"pm2_5":119.2,"no2":56.5,"co":932.0,"o3":24.0,"so2":21.4,"mosquito_risk":7,"arthritis_risk":5,"migraine_risk":7,"frizz_risk":1,"updated_at":"2026-06-18T02:40:09.375915+05:30"},{"city":"Bhagalpur","state":"Bihar","latitude":25.2425,"longitude":87.0117,"temp":28.3,"humidity":87,"rain":0.0,"pressure":997.5,"uv_index":8.6,"wind_gusts":29.5,"aqi":163,"pm10":96.9,"pm2_5":87.5,"no2":12.2,"co":815.0,"o3":100.0,"so2":19.4,"mosquito_risk":7,"arthritis_risk":5,"migraine_risk":7,"frizz_risk":1,"updated_at":"2026-06-18T02:40:09.375924+05:30"},{"city":"Ranchi","state":"Jharkhand","latitude":23.3441,"longitude":85.3096,"temp":25.5,"humidity":65,"rain":0.0,"pressure":934.9,"uv_index":9.0,"wind_gusts":28.1,"aqi":151,"pm10":84.1,"pm2_5":58.8,"no2":12.3,"co":316.0,"o3":91.0,"so2":7.9,"mosquito_risk":7,"arthritis_risk":5,"migraine_risk":7,"frizz_risk":1,"updated_at":"2026-06-18T02:40:09.375933+05:30"},{"city":"Jamshedpur","state":"Jharkhand","latitude":22.8046,"longitude":86.2029,"temp":28.4,"humidity":75,"rain":0.0,"pressure":987.7,"uv_index":9.05,"wind_gusts":26.6,"aqi":167,"pm10":85.7,"pm2_5":71.5,"no2":17.5,"co":436.0,"o3":99.0,"so2":30.3,"mosquito_risk":7,"arthritis_risk":5,"migraine_risk":7,"frizz_risk":1,"updated_at":"2026-06-18T02:40:09.375941+05:30"},{"city":"Dhanbad","state":"Jharkhand","latitude":23.7957,"longitude":86.4304,"temp":29.1,"humidity":73,"rain":0.0,"pressure":976.3,"uv_index":9.05,"wind_gusts":28.4,"aqi":174,"pm10":174.6,"pm2_5":137.4,"no2":71.5,"co":594.0,"o3":21.0,"so2":194.6,"mosquito_risk":7,"arthritis_risk":5,"migraine_risk":7,"frizz_risk":1,"updated_at":"2026-06-18T02:40:09.375950+05:30"},{"city":"Bokaro","state":"Jharkhand","latitude":23.6693,"longitude":86.1511,"temp":28.3,"humidity":81,"rain":0.0,"pressure":980.0,"uv_index":9.1,"wind_gusts":25.9,"aqi":168,"pm10":143.9,"pm2_5":113.4,"no2":54.9,"co":470.0,"o3":9.0,"so2":144.8,"mosquito_risk":7,"arthritis_risk":5,"migraine_risk":7,"frizz_risk":1,"updated_at":"2026-06-18T02:40:09.375958+05:30"},{"city":"Bhubaneswar","state":"Odisha","latitude":20.2961,"longitude":85.8245,"temp":27.9,"humidity":95,"rain":0.0,"pressure":999.3,"uv_index":9.05,"wind_gusts":29.9,"aqi":109,"pm10":42.5,"pm2_5":36.2,"no2":10.8,"co":397.0,"o3":100.0,"so2":11.0,"mosquito_risk":7,"arthritis_risk":5,"migraine_risk":7,"frizz_risk":1,"updated_at":"2026-06-18T02:40:09.375967+05:30"},{"city":"Cuttack","state":"Odisha","latitude":20.4625,"longitude":85.8828,"temp":28.2,"humidity":92,"rain":0.0,"pressure":1001.1,"uv_index":9.1,"wind_gusts":23.4,"aqi":109,"pm10":42.5,"pm2_5":36.2,"no2":10.8,"co":334.0,"o3":100.0,"so2":11.0,"mosquito_risk":7,"arthritis_risk":5,"migraine_risk":4,"frizz_risk":1,"updated_at":"2026-06-18T02:40:09.375976+05:30"},{"city":"Rourkela","state":"Odisha","latitude":22.2604,"longitude":84.8536,"temp":27.4,"humidity":80,"rain":0.0,"pressure":982.2,"uv_index":9.0,"wind_gusts":26.3,"aqi":158,"pm10":87.5,"pm2_5":66.8,"no2":12.4,"co":615.0,"o3":91.0,"so2":9.1,"mosquito_risk":7,"arthritis_risk":5,"migraine_risk":7,"frizz_risk":1,"updated_at":"2026-06-18T02:40:09.375984+05:30"},{"city":"Raipur","state":"Chhattisgarh","latitude":21.2514,"longitude":81.6296,"temp":27.7,"humidity":72,"rain":0.0,"pressure":971.8,"uv_index":8.95,"wind_gusts":54.4,"aqi":157,"pm10":81.5,"pm2_5":57.5,"no2":49.6,"co":580.0,"o3":36.0,"so2":67.3,"mosquito_risk":7,"arthritis_risk":5,"migraine_risk":7,"frizz_risk":1,"updated_at":"2026-06-18T02:40:09.375993+05:30"},{"city":"Bhilai","state":"Chhattisgarh","latitude":21.1938,"longitude":81.3509,"temp":27.6,"humidity":74,"rain":0.0,"pressure":972.2,"uv_index":8.95,"wind_gusts":49.3,"aqi":154,"pm10":83.1,"pm2_5":56.0,"no2":45.6,"co":860.0,"o3":42.0,"so2":61.2,"mosquito_risk":7,"arthritis_risk":5,"migraine_risk":7,"frizz_risk":1,"updated_at":"2026-06-18T02:40:09.376001+05:30"},{"city":"Guwahati","state":"Assam","latitude":26.1158,"longitude":91.7086,"temp":25.0,"humidity":99,"rain":0.0,"pressure":999.2,"uv_index":8.8,"wind_gusts":27.0,"aqi":75,"pm10":25.2,"pm2_5":22.5,"no2":7.4,"co":362.0,"o3":72.0,"so2":3.1,"mosquito_risk":7,"arthritis_risk":5,"migraine_risk":7,"frizz_risk":1,"updated_at":"2026-06-18T02:40:09.376010+05:30"},{"city":"Agartala","state":"Tripura","latitude":23.8315,"longitude":91.2868,"temp":26.0,"humidity":94,"rain":0.0,"pressure":1004.1,"uv_index":8.55,"wind_gusts":29.9,"aqi":71,"pm10":27.7,"pm2_5":22.9,"no2":11.7,"co":249.0,"o3":57.0,"so2":2.5,"mosquito_risk":7,"arthritis_risk":5,"migraine_risk":4,"frizz_risk":1,"updated_at":"2026-06-18T02:40:09.376018+05:30"},{"city":"Shillong","state":"Meghalaya","latitude":25.5788,"longitude":91.8933,"temp":16.9,"humidity":94,"rain":0.0,"pressure":854.5,"uv_index":6.5,"wind_gusts":22.7,"aqi":51,"pm10":7.3,"pm2_5":6.1,"no2":3.8,"co":243.0,"o3":89.0,"so2":2.9,"mosquito_risk":3,"arthritis_risk":10,"migraine_risk":7,"frizz_risk":0,"updated_at":"2026-06-18T02:40:09.376026+05:30"},{"city":"Imphal","state":"Manipur","latitude":24.817,"longitude":93.9368,"temp":22.6,"humidity":96,"rain":0.0,"pressure":921.4,"uv_index":8.75,"wind_gusts":28.1,"aqi":51,"pm10":15.9,"pm2_5":15.1,"no2":12.5,"co":395.0,"o3":30.0,"so2":2.3,"mosquito_risk":3,"arthritis_risk":5,"migraine_risk":7,"frizz_risk":1,"updated_at":"2026-06-18T02:40:09.376034+05:30"},{"city":"Aizawl","state":"Mizoram","latitude":23.7271,"longitude":92.7176,"temp":19.2,"humidity":97,"rain":0.0,"pressure":890.9,"uv_index":9.0,"wind_gusts":26.6,"aqi":34,"pm10":6.2,"pm2_5":5.7,"no2":4.1,"co":147.0,"o3":38.0,"so2":0.6,"mosquito_risk":3,"arthritis_risk":10,"migraine_risk":7,"frizz_risk":1,"updated_at":"2026-06-18T02:40:09.376042+05:30"},{"city":"Kohima","state":"Nagaland","latitude":25.6701,"longitude":94.1077,"temp":17.8,"humidity":99,"rain":0.0,"pressure":853.1,"uv_index":6.9,"wind_gusts":28.4,"aqi":49,"pm10":10.2,"pm2_5":9.1,"no2":7.5,"co":235.0,"o3":34.0,"so2":0.8,"mosquito_risk":3,"arthritis_risk":10,"migraine_risk":7,"frizz_risk":1,"updated_at":"2026-06-18T02:40:09.376053+05:30"},{"city":"Gangtok","state":"Sikkim","latitude":27.3314,"longitude":88.6138,"temp":17.7,"humidity":90,"rain":0.0,"pressure":836.0,"uv_index":8.3,"wind_gusts":38.9,"aqi":55,"pm10":8.4,"pm2_5":7.6,"no2":7.2,"co":747.0,"o3":114.0,"so2":3.3,"mosquito_risk":3,"arthritis_risk":10,"migraine_risk":7,"frizz_risk":0,"updated_at":"2026-06-18T02:40:09.376061+05:30"},{"city":"Siliguri","state":"West Bengal","latitude":26.7271,"longitude":88.3953,"temp":23.4,"humidity":100,"rain":0.1,"pressure":990.6,"uv_index":8.75,"wind_gusts":21.6,"aqi":126,"pm10":49.4,"pm2_5":42.7,"no2":10.2,"co":484.0,"o3":112.0,"so2":7.4,"mosquito_risk":6,"arthritis_risk":5,"migraine_risk":7,"frizz_risk":1,"updated_at":"2026-06-18T02:40:12.756614+05:30"},{"city":"Durgapur","state":"West Bengal","latitude":23.5204,"longitude":87.3119,"temp":28.4,"humidity":94,"rain":0.0,"pressure":991.2,"uv_index":9.0,"wind_gusts":28.8,"aqi":175,"pm10":106.6,"pm2_5":96.2,"no2":32.1,"co":649.0,"o3":62.0,"so2":46.1,"mosquito_risk":7,"arthritis_risk":5,"migraine_risk":7,"frizz_risk":1,"updated_at":"2026-06-18T02:40:12.756651+05:30"},{"city":"Asansol","state":"West Bengal","latitude":23.6739,"longitude":86.9524,"temp":28.4,"humidity":90,"rain":0.0,"pressure":989.8,"uv_index":9.0,"wind_gusts":24.8,"aqi":171,"pm10":123.4,"pm2_5":103.4,"no2":43.1,"co":531.0,"o3":52.0,"so2":67.3,"mosquito_risk":7,"arthritis_risk":5,"migraine_risk":7,"frizz_risk":1,"updated_at":"2026-06-18T02:40:12.756663+05:30"},{"city":"Pondicherry","state":"Puducherry","latitude":11.9139,"longitude":79.8145,"temp":27.0,"humidity":86,"rain":0.0,"pressure":1006.9,"uv_index":4.1,"wind_gusts":63.7,"aqi":76,"pm10":28.3,"pm2_5":21.0,"no2":12.5,"co":347.0,"o3":75.0,"so2":9.8,"mosquito_risk":7,"arthritis_risk":5,"migraine_risk":0,"frizz_risk":1,"updated_at":"2026-06-18T02:40:12.756673+05:30"},{"city":"Port Blair","state":"Andaman and Nicobar Islands","latitude":11.6234,"longitude":92.7265,"temp":26.2,"humidity":90,"rain":0.0,"pressure":1007.7,"uv_index":8.6,"wind_gusts":37.1,"aqi":23,"pm10":7.2,"pm2_5":3.9,"no2":0.2,"co":87.0,"o3":43.0,"so2":0.2,"mosquito_risk":7,"arthritis_risk":5,"migraine_risk":4,"frizz_risk":1,"updated_at":"2026-06-18T02:40:12.756683+05:30"},{"city":"Haridwar","state":"Uttarakhand","latitude":29.9457,"longitude":78.1642,"temp":26.5,"humidity":83,"rain":0.0,"pressure":970.4,"uv_index":7.1,"wind_gusts":21.6,"aqi":169,"pm10":137.8,"pm2_5":87.1,"no2":45.3,"co":359.0,"o3":27.0,"so2":10.3,"mosquito_risk":7,"arthritis_risk":5,"migraine_risk":7,"frizz_risk":1,"updated_at":"2026-06-18T02:40:12.756692+05:30"},{"city":"Rishikesh","state":"Uttarakhand","latitude":30.0869,"longitude":78.2676,"temp":23.5,"humidity":92,"rain":0.0,"pressure":963.1,"uv_index":6.35,"wind_gusts":25.9,"aqi":151,"pm10":90.1,"pm2_5":43.8,"no2":13.0,"co":332.0,"o3":90.0,"so2":3.9,"mosquito_risk":3,"arthritis_risk":5,"migraine_risk":7,"frizz_risk":1,"updated_at":"2026-06-18T02:40:12.756700+05:30"},{"city":"Nainital","state":"Uttarakhand","latitude":29.3919,"longitude":79.4542,"temp":14.5,"humidity":97,"rain":0.0,"pressure":803.5,"uv_index":5.25,"wind_gusts":27.0,"aqi":144,"pm10":108.5,"pm2_5":59.8,"no2":26.2,"co":373.0,"o3":64.0,"so2":7.5,"mosquito_risk":3,"arthritis_risk":10,"migraine_risk":3,"frizz_risk":0,"updated_at":"2026-06-18T02:40:12.756731+05:30"},{"city":"Mussoorie","state":"Uttarakhand","latitude":30.4599,"longitude":78.0664,"temp":16.0,"humidity":87,"rain":0.0,"pressure":801.7,"uv_index":6.15,"wind_gusts":32.0,"aqi":127,"pm10":87.1,"pm2_5":55.8,"no2":47.1,"co":242.0,"o3":29.0,"so2":7.8,"mosquito_risk":3,"arthritis_risk":10,"migraine_risk":7,"frizz_risk":0,"updated_at":"2026-06-18T02:40:12.756741+05:30"},{"city":"Dharamshala","state":"Himachal Pradesh","latitude":32.219,"longitude":76.3234,"temp":21.1,"humidity":67,"rain":0.0,"pressure":867.0,"uv_index":8.25,"wind_gusts":40.0,"aqi":59,"pm10":14.1,"pm2_5":13.4,"no2":12.8,"co":361.0,"o3":66.0,"so2":0.0,"mosquito_risk":3,"arthritis_risk":5,"migraine_risk":7,"frizz_risk":0,"updated_at":"2026-06-18T02:40:12.756749+05:30"},{"city":"Dalhousie","state":"Himachal Pradesh","latitude":32.5387,"longitude":75.971,"temp":13.1,"humidity":87,"rain":0.0,"pressure":800.7,"uv_index":8.25,"wind_gusts":33.8,"aqi":94,"pm10":34.5,"pm2_5":31.0,"no2":30.5,"co":315.0,"o3":30.0,"so2":0.6,"mosquito_risk":3,"arthritis_risk":10,"migraine_risk":7,"frizz_risk":0,"updated_at":"2026-06-18T02:40:12.756758+05:30"},{"city":"Patiala","state":"Punjab","latitude":30.3398,"longitude":76.3869,"temp":27.9,"humidity":69,"rain":0.0,"pressure":974.1,"uv_index":7.7,"wind_gusts":27.7,"aqi":182,"pm10":143.9,"pm2_5":76.8,"no2":35.5,"co":513.0,"o3":36.0,"so2":9.4,"mosquito_risk":7,"arthritis_risk":5,"migraine_risk":7,"frizz_risk":1,"updated_at":"2026-06-18T02:40:12.756767+05:30"},{"city":"Bhatinda","state":"Punjab","latitude":30.211,"longitude":74.9455,"temp":29.5,"humidity":60,"rain":0.0,"pressure":979.7,"uv_index":8.35,"wind_gusts":35.6,"aqi":119,"pm10":82.9,"pm2_5":61.0,"no2":47.2,"co":445.0,"o3":35.0,"so2":7.3,"mosquito_risk":4,"arthritis_risk":5,"migraine_risk":7,"frizz_risk":1,"updated_at":"2026-06-18T02:40:12.756775+05:30"},{"city":"Rohtak","state":"Haryana","latitude":28.8955,"longitude":76.6066,"temp":28.1,"humidity":72,"rain":0.0,"pressure":977.7,"uv_index":7.65,"wind_gusts":28.8,"aqi":364,"pm10":420.0,"pm2_5":137.8,"no2":90.0,"co":557.0,"o3":0.0,"so2":30.4,"mosquito_risk":7,"arthritis_risk":5,"migraine_risk":7,"frizz_risk":1,"updated_at":"2026-06-18T02:40:12.756783+05:30"},{"city":"Panipat","state":"Haryana","latitude":29.3909,"longitude":76.9635,"temp":28.0,"humidity":72,"rain":0.0,"pressure":976.4,"uv_index":7.25,"wind_gusts":22.7,"aqi":647,"pm10":553.2,"pm2_5":150.9,"no2":69.5,"co":877.0,"o3":2.0,"so2":14.7,"mosquito_risk":7,"arthritis_risk":5,"migraine_risk":7,"frizz_risk":1,"updated_at":"2026-06-18T02:40:12.756790+05:30"},{"city":"Mathura","state":"Uttar Pradesh","latitude":27.4924,"longitude":77.6737,"temp":28.6,"humidity":68,"rain":0.0,"pressure":982.9,"uv_index":8.1,"wind_gusts":25.6,"aqi":192,"pm10":306.4,"pm2_5":105.5,"no2":70.7,"co":705.0,"o3":1.0,"so2":11.9,"mosquito_risk":7,"arthritis_risk":5,"migraine_risk":7,"frizz_risk":1,"updated_at":"2026-06-18T02:40:12.756798+05:30"},{"city":"Vrindavan","state":"Uttar Pradesh","latitude":27.5823,"longitude":77.7027,"temp":28.8,"humidity":67,"rain":0.0,"pressure":983.3,"uv_index":8.05,"wind_gusts":25.9,"aqi":192,"pm10":306.4,"pm2_5":105.5,"no2":70.7,"co":831.0,"o3":1.0,"so2":11.9,"mosquito_risk":7,"arthritis_risk":5,"migraine_risk":7,"frizz_risk":1,"updated_at":"2026-06-18T02:40:12.756806+05:30"},{"city":"Ayodhya","state":"Uttar Pradesh","latitude":26.7922,"longitude":82.1998,"temp":29.1,"humidity":72,"rain":0.0,"pressure":991.3,"uv_index":8.4,"wind_gusts":29.5,"aqi":157,"pm10":109.2,"pm2_5":61.5,"no2":34.8,"co":656.0,"o3":33.0,"so2":8.5,"mosquito_risk":7,"arthritis_risk":5,"migraine_risk":7,"frizz_risk":1,"updated_at":"2026-06-18T02:40:12.756814+05:30"},{"city":"Ratlam","state":"Madhya Pradesh","latitude":23.3315,"longitude":75.0367,"temp":26.5,"humidity":67,"rain":0.0,"pressure":953.4,"uv_index":8.55,"wind_gusts":38.2,"aqi":66,"pm10":21.7,"pm2_5":13.9,"no2":7.1,"co":141.0,"o3":45.0,"so2":11.0,"mosquito_risk":7,"arthritis_risk":5,"migraine_risk":7,"frizz_risk":1,"updated_at":"2026-06-18T02:40:12.756823+05:30"},{"city":"Sagar","state":"Madhya Pradesh","latitude":23.8388,"longitude":78.7378,"temp":27.1,"humidity":66,"rain":0.0,"pressure":948.2,"uv_index":8.75,"wind_gusts":35.3,"aqi":89,"pm10":34.0,"pm2_5":24.7,"no2":10.4,"co":183.0,"o3":57.0,"so2":2.9,"mosquito_risk":7,"arthritis_risk":5,"migraine_risk":7,"frizz_risk":1,"updated_at":"2026-06-18T02:40:12.756831+05:30"},{"city":"Satna","state":"Madhya Pradesh","latitude":24.6005,"longitude":80.8322,"temp":29.4,"humidity":56,"rain":0.0,"pressure":968.5,"uv_index":8.8,"wind_gusts":30.2,"aqi":94,"pm10":36.6,"pm2_5":26.6,"no2":7.3,"co":174.0,"o3":75.0,"so2":3.9,"mosquito_risk":4,"arthritis_risk":5,"migraine_risk":7,"frizz_risk":1,"updated_at":"2026-06-18T02:40:12.756839+05:30"},{"city":"Akola","state":"Maharashtra","latitude":20.7002,"longitude":77.0082,"temp":30.2,"humidity":48,"rain":0.0,"pressure":973.8,"uv_index":8.8,"wind_gusts":41.0,"aqi":69,"pm10":28.6,"pm2_5":17.2,"no2":8.5,"co":116.0,"o3":64.0,"so2":9.1,"mosquito_risk":0,"arthritis_risk":5,"migraine_risk":7,"frizz_risk":1,"updated_at":"2026-06-18T02:40:12.756848+05:30"},{"city":"Amravati","state":"Maharashtra","latitude":20.9374,"longitude":77.7796,"temp":28.3,"humidity":61,"rain":0.0,"pressure":965.6,"uv_index":8.7,"wind_gusts":34.6,"aqi":75,"pm10":33.4,"pm2_5":21.7,"no2":11.9,"co":354.0,"o3":58.0,"so2":7.0,"mosquito_risk":7,"arthritis_risk":5,"migraine_risk":7,"frizz_risk":1,"updated_at":"2026-06-18T02:40:12.756856+05:30"},{"city":"Latur","state":"Maharashtra","latitude":18.4088,"longitude":76.5604,"temp":27.5,"humidity":57,"rain":0.0,"pressure":939.0,"uv_index":8.9,"wind_gusts":39.6,"aqi":68,"pm10":19.8,"pm2_5":13.6,"no2":5.5,"co":139.0,"o3":81.0,"so2":6.9,"mosquito_risk":4,"arthritis_risk":5,"migraine_risk":7,"frizz_risk":1,"updated_at":"2026-06-18T02:40:12.756865+05:30"},{"city":"Nanded","state":"Maharashtra","latitude":19.1383,"longitude":77.3091,"temp":29.7,"humidity":48,"rain":0.0,"pressure":967.1,"uv_index":8.85,"wind_gusts":33.5,"aqi":69,"pm10":21.9,"pm2_5":13.4,"no2":5.7,"co":210.0,"o3":61.0,"so2":2.5,"mosquito_risk":4,"arthritis_risk":5,"migraine_risk":7,"frizz_risk":1,"updated_at":"2026-06-18T02:40:12.756874+05:30"},{"city":"Gulbarga","state":"Karnataka","latitude":17.3297,"longitude":76.8343,"temp":28.0,"humidity":55,"rain":0.0,"pressure":957.5,"uv_index":8.9,"wind_gusts":40.0,"aqi":65,"pm10":13.2,"pm2_5":9.3,"no2":6.1,"co":136.0,"o3":53.0,"so2":3.7,"mosquito_risk":4,"arthritis_risk":5,"migraine_risk":7,"frizz_risk":1,"updated_at":"2026-06-18T02:40:12.756881+05:30"},{"city":"Bidar","state":"Karnataka","latitude":17.9104,"longitude":77.5199,"temp":27.6,"humidity":45,"rain":0.0,"pressure":934.1,"uv_index":8.9,"wind_gusts":32.0,"aqi":86,"pm10":39.6,"pm2_5":26.6,"no2":16.6,"co":199.0,"o3":61.0,"so2":5.4,"mosquito_risk":4,"arthritis_risk":5,"migraine_risk":7,"frizz_risk":0,"updated_at":"2026-06-18T02:40:12.756890+05:30"},{"city":"Hospet","state":"Karnataka","latitude":15.2689,"longitude":76.3909,"temp":25.0,"humidity":81,"rain":0.0,"pressure":955.6,"uv_index":8.9,"wind_gusts":37.8,"aqi":51,"pm10":14.3,"pm2_5":9.4,"no2":6.3,"co":137.0,"o3":42.0,"so2":2.0,"mosquito_risk":7,"arthritis_risk":5,"migraine_risk":7,"frizz_risk":1,"updated_at":"2026-06-18T02:40:12.756898+05:30"},{"city":"Tirupur","state":"Tamil Nadu","latitude":11.1085,"longitude":77.3411,"temp":24.2,"humidity":91,"rain":0.0,"pressure":975.2,"uv_index":8.7,"wind_gusts":41.0,"aqi":58,"pm10":21.9,"pm2_5":18.0,"no2":23.4,"co":161.0,"o3":19.0,"so2":5.1,"mosquito_risk":3,"arthritis_risk":5,"migraine_risk":7,"frizz_risk":1,"updated_at":"2026-06-18T02:40:12.756906+05:30"},{"city":"Alappuzha","state":"Kerala","latitude":9.4981,"longitude":76.3388,"temp":26.4,"humidity":97,"rain":0.0,"pressure":1009.3,"uv_index":7.9,"wind_gusts":29.2,"aqi":57,"pm10":27.6,"pm2_5":19.2,"no2":18.9,"co":207.0,"o3":27.0,"so2":6.6,"mosquito_risk":7,"arthritis_risk":0,"migraine_risk":4,"frizz_risk":1,"updated_at":"2026-06-18T02:40:12.756914+05:30"},{"city":"Munnar","state":"Kerala","latitude":10.0889,"longitude":77.0595,"temp":16.0,"humidity":98,"rain":0.0,"pressure":855.7,"uv_index":5.4,"wind_gusts":25.9,"aqi":21,"pm10":10.2,"pm2_5":6.5,"no2":8.1,"co":121.0,"o3":25.0,"so2":1.1,"mosquito_risk":3,"arthritis_risk":10,"migraine_risk":3,"frizz_risk":0,"updated_at":"2026-06-18T02:40:12.756922+05:30"},{"city":"Silchar","state":"Assam","latitude":24.8333,"longitude":92.7789,"temp":25.0,"humidity":100,"rain":0.0,"pressure":1003.6,"uv_index":8.95,"wind_gusts":31.0,"aqi":77,"pm10":27.1,"pm2_5":22.6,"no2":6.8,"co":253.0,"o3":87.0,"so2":3.8,"mosquito_risk":7,"arthritis_risk":5,"migraine_risk":4,"frizz_risk":1,"updated_at":"2026-06-18T02:40:12.756930+05:30"},{"city":"Dibrugarh","state":"Assam","latitude":27.4728,"longitude":94.912,"temp":25.5,"humidity":98,"rain":0.0,"pressure":993.0,"uv_index":9.0,"wind_gusts":22.3,"aqi":57,"pm10":10.6,"pm2_5":10.1,"no2":6.7,"co":275.0,"o3":80.0,"so2":1.3,"mosquito_risk":7,"arthritis_risk":5,"migraine_risk":7,"frizz_risk":1,"updated_at":"2026-06-18T02:40:12.756938+05:30"}]