[{"city":"Delhi","state":"Delhi","latitude":28.6139,"longitude":77.209,"temp":39.9,"humidity":19,"rain":0.0,"pressure":977.7,"uv_index":7.4,"wind_gusts":27.7,"aqi":154,"pm10":319.4,"pm2_5":46.8,"mosquito_risk":0,"arthritis_risk":5,"migraine_risk":10,"frizz_risk":0,"updated_at":"2026-04-24T17:29:39.926954+05:30"},{"city":"Mumbai","state":"Maharashtra","latitude":19.076,"longitude":72.8777,"temp":30.2,"humidity":73,"rain":0.0,"pressure":1004.1,"uv_index":8.05,"wind_gusts":21.2,"aqi":121,"pm10":46.9,"pm2_5":30.9,"mosquito_risk":3,"arthritis_risk":5,"migraine_risk":4,"frizz_risk":1,"updated_at":"2026-04-24T17:29:39.927006+05:30"},{"city":"Bangalore","state":"Karnataka","latitude":12.9716,"longitude":77.5946,"temp":33.9,"humidity":25,"rain":0.0,"pressure":909.3,"uv_index":9.6,"wind_gusts":33.1,"aqi":145,"pm10":25.4,"pm2_5":20.1,"mosquito_risk":0,"arthritis_risk":5,"migraine_risk":7,"frizz_risk":0,"updated_at":"2026-04-24T17:29:39.927022+05:30"},{"city":"Hyderabad","state":"Telangana","latitude":17.385,"longitude":78.4867,"temp":35.8,"humidity":28,"rain":0.0,"pressure":951.0,"uv_index":9.25,"wind_gusts":28.8,"aqi":153,"pm10":39.1,"pm2_5":31.8,"mosquito_risk":0,"arthritis_risk":5,"migraine_risk":10,"frizz_risk":0,"updated_at":"2026-04-24T17:29:39.927032+05:30"},{"city":"Chennai","state":"Tamil Nadu","latitude":13.0827,"longitude":80.2707,"temp":33.2,"humidity":54,"rain":0.0,"pressure":1004.3,"uv_index":9.25,"wind_gusts":33.5,"aqi":29,"pm10":9.1,"pm2_5":6.1,"mosquito_risk":0,"arthritis_risk":5,"migraine_risk":4,"frizz_risk":1,"updated_at":"2026-04-24T17:29:39.927041+05:30"},{"city":"Kolkata","state":"West Bengal","latitude":22.5726,"longitude":88.3639,"temp":33.5,"humidity":68,"rain":0.0,"pressure":1002.5,"uv_index":8.9,"wind_gusts":24.8,"aqi":80,"pm10":26.0,"pm2_5":22.1,"mosquito_risk":3,"arthritis_risk":5,"migraine_risk":4,"frizz_risk":1,"updated_at":"2026-04-24T17:29:39.927054+05:30"},{"city":"Pune","state":"Maharashtra","latitude":18.5204,"longitude":73.8567,"temp":33.4,"humidity":39,"rain":0.0,"pressure":946.8,"uv_index":8.65,"wind_gusts":41.4,"aqi":152,"pm10":27.2,"pm2_5":23.5,"mosquito_risk":0,"arthritis_risk":5,"migraine_risk":7,"frizz_risk":1,"updated_at":"2026-04-24T17:29:39.927063+05:30"},{"city":"Ahmedabad","state":"Gujarat","latitude":23.0225,"longitude":72.5714,"temp":41.9,"humidity":14,"rain":0.0,"pressure":997.2,"uv_index":8.2,"wind_gusts":24.5,"aqi":48,"pm10":65.0,"pm2_5":14.7,"mosquito_risk":0,"arthritis_risk":5,"migraine_risk":10,"frizz_risk":0,"updated_at":"2026-04-24T17:29:39.927070+05:30"},{"city":"Jaipur","state":"Rajasthan","latitude":26.9124,"longitude":75.7873,"temp":40.6,"humidity":13,"rain":0.0,"pressure":955.7,"uv_index":8.05,"wind_gusts":25.2,"aqi":86,"pm10":187.7,"pm2_5":27.8,"mosquito_risk":0,"arthritis_risk":5,"migraine_risk":10,"frizz_risk":0,"updated_at":"2026-04-24T17:29:39.927079+05:30"},{"city":"Lucknow","state":"Uttar Pradesh","latitude":26.8467,"longitude":80.9462,"temp":40.4,"humidity":15,"rain":0.0,"pressure":988.0,"uv_index":7.9,"wind_gusts":23.0,"aqi":139,"pm10":230.5,"pm2_5":35.6,"mosquito_risk":0,"arthritis_risk":5,"migraine_risk":10,"frizz_risk":0,"updated_at":"2026-04-24T17:29:39.927086+05:30"},{"city":"Kanpur","state":"Uttar Pradesh","latitude":26.4499,"longitude":80.3319,"temp":38.5,"humidity":27,"rain":0.0,"pressure":986.6,"uv_index":7.95,"wind_gusts":19.8,"aqi":153,"pm10":227.7,"pm2_5":27.6,"mosquito_risk":0,"arthritis_risk":5,"migraine_risk":10,"frizz_risk":1,"updated_at":"2026-04-24T17:29:39.927094+05:30"},{"city":"Chandigarh","state":"Chandigarh","latitude":30.7333,"longitude":76.7794,"temp":37.8,"humidity":24,"rain":0.0,"pressure":963.9,"uv_index":7.4,"wind_gusts":32.4,"aqi":143,"pm10":34.8,"pm2_5":17.1,"mosquito_risk":0,"arthritis_risk":5,"migraine_risk":10,"frizz_risk":0,"updated_at":"2026-04-24T17:29:39.927102+05:30"},{"city":"Srinagar","state":"Jammu and Kashmir","latitude":34.0837,"longitude":74.7973,"temp":18.7,"humidity":78,"rain":0.0,"pressure":843.5,"uv_index":8.6,"wind_gusts":17.6,"aqi":78,"pm10":35.3,"pm2_5":15.1,"mosquito_risk":3,"arthritis_risk":5,"migraine_risk":7,"frizz_risk":0,"updated_at":"2026-04-24T17:29:39.927108+05:30"},{"city":"Jammu","state":"Jammu and Kashmir","latitude":32.7266,"longitude":74.857,"temp":35.5,"humidity":32,"rain":0.0,"pressure":969.8,"uv_index":8.15,"wind_gusts":45.0,"aqi":75,"pm10":82.0,"pm2_5":21.7,"mosquito_risk":0,"arthritis_risk":5,"migraine_risk":10,"frizz_risk":1,"updated_at":"2026-04-24T17:29:39.927115+05:30"},{"city":"Amritsar","state":"Punjab","latitude":31.634,"longitude":74.8723,"temp":36.9,"humidity":26,"rain":0.0,"pressure":977.0,"uv_index":8.05,"wind_gusts":34.6,"aqi":125,"pm10":79.6,"pm2_5":20.7,"mosquito_risk":0,"arthritis_risk":5,"migraine_risk":10,"frizz_risk":0,"updated_at":"2026-04-24T17:29:39.927122+05:30"},{"city":"Ludhiana","state":"Punjab","latitude":30.901,"longitude":75.8573,"temp":39.5,"humidity":18,"rain":0.0,"pressure":973.9,"uv_index":7.7,"wind_gusts":36.0,"aqi":104,"pm10":52.4,"pm2_5":16.6,"mosquito_risk":0,"arthritis_risk":5,"migraine_risk":10,"frizz_risk":0,"updated_at":"2026-04-24T17:29:39.927132+05:30"},{"city":"Jalandhar","state":"Punjab","latitude":31.326,"longitude":75.5762,"temp":38.4,"humidity":21,"rain":0.0,"pressure":975.4,"uv_index":7.85,"wind_gusts":41.0,"aqi":104,"pm10":68.7,"pm2_5":19.1,"mosquito_risk":0,"arthritis_risk":5,"migraine_risk":10,"frizz_risk":0,"updated_at":"2026-04-24T17:29:39.927140+05:30"},{"city":"Dehradun","state":"Uttarakhand","latitude":30.6284,"longitude":78.0322,"temp":23.5,"humidity":50,"rain":0.0,"pressure":831.7,"uv_index":7.85,"wind_gusts":46.8,"aqi":121,"pm10":32.4,"pm2_5":17.5,"mosquito_risk":0,"arthritis_risk":5,"migraine_risk":7,"frizz_risk":0,"updated_at":"2026-04-24T17:29:39.927147+05:30"},{"city":"Shimla","state":"Himachal Pradesh","latitude":31.1048,"longitude":77.1734,"temp":25.2,"humidity":30,"rain":0.0,"pressure":787.7,"uv_index":7.9,"wind_gusts":45.0,"aqi":108,"pm10":31.2,"pm2_5":13.0,"mosquito_risk":4,"arthritis_risk":5,"migraine_risk":7,"frizz_risk":0,"updated_at":"2026-04-24T17:29:39.927155+05:30"},{"city":"Manali","state":"Himachal Pradesh","latitude":32.2396,"longitude":77.1887,"temp":22.0,"humidity":68,"rain":0.0,"pressure":823.9,"uv_index":9.95,"wind_gusts":35.3,"aqi":125,"pm10":21.2,"pm2_5":10.0,"mosquito_risk":3,"arthritis_risk":5,"migraine_risk":7,"frizz_risk":0,"updated_at":"2026-04-24T17:29:39.927162+05:30"},{"city":"Gurgaon","state":"Haryana","latitude":28.4595,"longitude":77.0266,"temp":38.3,"humidity":27,"rain":0.0,"pressure":976.1,"uv_index":7.5,"wind_gusts":23.8,"aqi":502,"pm10":808.4,"pm2_5":86.1,"mosquito_risk":0,"arthritis_risk":5,"migraine_risk":10,"frizz_risk":1,"updated_at":"2026-04-24T17:29:39.927170+05:30"},{"city":"Noida","state":"Uttar Pradesh","latitude":28.5355,"longitude":77.391,"temp":40.0,"humidity":19,"rain":0.0,"pressure":979.0,"uv_index":7.45,"wind_gusts":28.4,"aqi":502,"pm10":808.4,"pm2_5":86.1,"mosquito_risk":0,"arthritis_risk":5,"migraine_risk":10,"frizz_risk":0,"updated_at":"2026-04-24T17:29:39.927176+05:30"},{"city":"Ghaziabad","state":"Uttar Pradesh","latitude":28.6692,"longitude":77.4538,"temp":39.6,"humidity":21,"rain":0.0,"pressure":977.3,"uv_index":7.4,"wind_gusts":28.1,"aqi":161,"pm10":191.4,"pm2_5":37.0,"mosquito_risk":0,"arthritis_risk":5,"migraine_risk":10,"frizz_risk":0,"updated_at":"2026-04-24T17:29:39.927183+05:30"},{"city":"Faridabad","state":"Haryana","latitude":28.4089,"longitude":77.3178,"temp":40.1,"humidity":17,"rain":0.0,"pressure":978.5,"uv_index":7.5,"wind_gusts":28.4,"aqi":502,"pm10":808.4,"pm2_5":86.1,"mosquito_risk":0,"arthritis_risk":5,"migraine_risk":10,"frizz_risk":0,"updated_at":"2026-04-24T17:29:39.927190+05:30"},{"city":"Meerut","state":"Uttar Pradesh","latitude":28.9845,"longitude":77.7064,"temp":39.9,"humidity":19,"rain":0.0,"pressure":976.0,"uv_index":7.35,"wind_gusts":35.3,"aqi":161,"pm10":191.4,"pm2_5":37.0,"mosquito_risk":0,"arthritis_risk":5,"migraine_risk":10,"frizz_risk":0,"updated_at":"2026-04-24T17:29:39.927197+05:30"},{"city":"Agra","state":"Uttar Pradesh","latitude":27.1767,"longitude":78.0081,"temp":41.0,"humidity":16,"rain":0.0,"pressure":982.2,"uv_index":7.8,"wind_gusts":26.6,"aqi":452,"pm10":287.8,"pm2_5":37.6,"mosquito_risk":0,"arthritis_risk":5,"migraine_risk":10,"frizz_risk":0,"updated_at":"2026-04-24T17:29:39.927206+05:30"},{"city":"Varanasi","state":"Uttar Pradesh","latitude":25.3176,"longitude":82.9739,"temp":41.2,"humidity":14,"rain":0.0,"pressure":992.2,"uv_index":8.45,"wind_gusts":20.5,"aqi":148,"pm10":74.5,"pm2_5":18.3,"mosquito_risk":0,"arthritis_risk":5,"migraine_risk":10,"frizz_risk":0,"updated_at":"2026-04-24T17:29:39.927215+05:30"},{"city":"Prayagraj","state":"Uttar Pradesh","latitude":25.4358,"longitude":81.8463,"temp":40.0,"humidity":17,"rain":0.0,"pressure":990.3,"uv_index":8.35,"wind_gusts":16.6,"aqi":154,"pm10":25.3,"pm2_5":7.9,"mosquito_risk":0,"arthritis_risk":5,"migraine_risk":10,"frizz_risk":0,"updated_at":"2026-04-24T17:29:39.927222+05:30"},{"city":"Gorakhpur","state":"Uttar Pradesh","latitude":26.7606,"longitude":83.3732,"temp":39.7,"humidity":18,"rain":0.0,"pressure":992.4,"uv_index":8.3,"wind_gusts":24.1,"aqi":188,"pm10":267.3,"pm2_5":47.1,"mosquito_risk":0,"arthritis_risk":5,"migraine_risk":10,"frizz_risk":0,"updated_at":"2026-04-24T17:29:39.927229+05:30"},{"city":"Bareilly","state":"Uttar Pradesh","latitude":28.367,"longitude":79.4304,"temp":39.5,"humidity":22,"rain":0.0,"pressure":981.2,"uv_index":7.65,"wind_gusts":23.8,"aqi":171,"pm10":75.0,"pm2_5":26.5,"mosquito_risk":0,"arthritis_risk":5,"migraine_risk":10,"frizz_risk":0,"updated_at":"2026-04-24T17:29:39.927236+05:30"},{"city":"Aligarh","state":"Uttar Pradesh","latitude":27.8974,"longitude":78.088,"temp":41.0,"humidity":15,"rain":0.0,"pressure":979.8,"uv_index":7.6,"wind_gusts":28.8,"aqi":290,"pm10":302.7,"pm2_5":47.4,"mosquito_risk":0,"arthritis_risk":5,"migraine_risk":10,"frizz_risk":0,"updated_at":"2026-04-24T17:29:39.927243+05:30"},{"city":"Moradabad","state":"Uttar Pradesh","latitude":28.8386,"longitude":78.7733,"temp":39.9,"humidity":19,"rain":0.0,"pressure":977.9,"uv_index":7.5,"wind_gusts":33.1,"aqi":183,"pm10":70.1,"pm2_5":26.6,"mosquito_risk":0,"arthritis_risk":5,"migraine_risk":10,"frizz_risk":0,"updated_at":"2026-04-24T17:29:39.927250+05:30"},{"city":"Saharanpur","state":"Uttar Pradesh","latitude":29.9637,"longitude":77.546,"temp":38.6,"humidity":22,"rain":0.0,"pressure":970.5,"uv_index":7.15,"wind_gusts":30.6,"aqi":165,"pm10":92.7,"pm2_5":29.1,"mosquito_risk":0,"arthritis_risk":5,"migraine_risk":10,"frizz_risk":0,"updated_at":"2026-04-24T17:29:39.927256+05:30"},{"city":"Jhansi","state":"Uttar Pradesh","latitude":25.4484,"longitude":78.5685,"temp":40.8,"humidity":11,"rain":0.0,"pressure":973.1,"uv_index":8.3,"wind_gusts":34.9,"aqi":109,"pm10":23.7,"pm2_5":11.6,"mosquito_risk":0,"arthritis_risk":5,"migraine_risk":10,"frizz_risk":0,"updated_at":"2026-04-24T17:29:43.147482+05:30"},{"city":"Surat","state":"Gujarat","latitude":21.1702,"longitude":72.8311,"temp":32.2,"humidity":56,"rain":0.0,"pressure":1003.0,"uv_index":7.9,"wind_gusts":23.0,"aqi":103,"pm10":56.7,"pm2_5":40.6,"mosquito_risk":0,"arthritis_risk":5,"migraine_risk":4,"frizz_risk":1,"updated_at":"2026-04-24T17:29:43.147533+05:30"},{"city":"Vadodara","state":"Gujarat","latitude":22.3072,"longitude":73.1812,"temp":41.9,"humidity":10,"rain":0.0,"pressure":999.5,"uv_index":8.15,"wind_gusts":27.4,"aqi":90,"pm10":30.5,"pm2_5":13.3,"mosquito_risk":0,"arthritis_risk":5,"migraine_risk":10,"frizz_risk":0,"updated_at":"2026-04-24T17:29:43.147546+05:30"},{"city":"Rajkot","state":"Gujarat","latitude":22.3039,"longitude":70.8022,"temp":39.8,"humidity":18,"rain":0.0,"pressure":990.5,"uv_index":7.9,"wind_gusts":34.9,"aqi":47,"pm10":34.2,"pm2_5":11.1,"mosquito_risk":0,"arthritis_risk":5,"migraine_risk":10,"frizz_risk":0,"updated_at":"2026-04-24T17:29:43.147554+05:30"},{"city":"Thane","state":"Maharashtra","latitude":19.2183,"longitude":72.9781,"temp":33.1,"humidity":53,"rain":0.0,"pressure":1003.8,"uv_index":7.4,"wind_gusts":35.3,"aqi":121,"pm10":46.9,"pm2_5":30.9,"mosquito_risk":0,"arthritis_risk":5,"migraine_risk":4,"frizz_risk":1,"updated_at":"2026-04-24T17:29:43.147561+05:30"},{"city":"Nagpur","state":"Maharashtra","latitude":21.1458,"longitude":79.0882,"temp":40.0,"humidity":16,"rain":0.0,"pressure":968.9,"uv_index":8.6,"wind_gusts":29.2,"aqi":152,"pm10":28.5,"pm2_5":22.2,"mosquito_risk":0,"arthritis_risk":5,"migraine_risk":10,"frizz_risk":0,"updated_at":"2026-04-24T17:29:43.147568+05:30"},{"city":"Nashik","state":"Maharashtra","latitude":19.9975,"longitude":73.7898,"temp":35.8,"humidity":24,"rain":0.0,"pressure":943.5,"uv_index":8.35,"wind_gusts":35.3,"aqi":128,"pm10":28.1,"pm2_5":22.0,"mosquito_risk":0,"arthritis_risk":5,"migraine_risk":10,"frizz_risk":0,"updated_at":"2026-04-24T17:29:43.147575+05:30"},{"city":"Aurangabad","state":"Maharashtra","latitude":19.8762,"longitude":75.3433,"temp":36.2,"humidity":23,"rain":0.0,"pressure":942.1,"uv_index":9.1,"wind_gusts":36.0,"aqi":125,"pm10":21.6,"pm2_5":17.5,"mosquito_risk":0,"arthritis_risk":5,"migraine_risk":10,"frizz_risk":0,"updated_at":"2026-04-24T17:29:43.147582+05:30"},{"city":"Solapur","state":"Maharashtra","latitude":17.6599,"longitude":75.9064,"temp":37.2,"humidity":25,"rain":0.0,"pressure":953.9,"uv_index":9.0,"wind_gusts":23.8,"aqi":156,"pm10":44.8,"pm2_5":36.6,"mosquito_risk":0,"arthritis_risk":5,"migraine_risk":10,"frizz_risk":0,"updated_at":"2026-04-24T17:29:43.147590+05:30"},{"city":"Kolhapur","state":"Maharashtra","latitude":16.705,"longitude":74.2433,"temp":29.6,"humidity":63,"rain":0.0,"pressure":946.0,"uv_index":9.05,"wind_gusts":31.3,"aqi":142,"pm10":50.8,"pm2_5":45.5,"mosquito_risk":7,"arthritis_risk":5,"migraine_risk":7,"frizz_risk":1,"updated_at":"2026-04-24T17:29:43.147597+05:30"},{"city":"Goa","state":"Goa","latitude":15.2993,"longitude":74.124,"temp":31.7,"humidity":70,"rain":0.0,"pressure":994.1,"uv_index":9.0,"wind_gusts":30.2,"aqi":122,"pm10":32.2,"pm2_5":26.0,"mosquito_risk":3,"arthritis_risk":5,"migraine_risk":7,"frizz_risk":1,"updated_at":"2026-04-24T17:29:43.147603+05:30"},{"city":"Jodhpur","state":"Rajasthan","latitude":26.2389,"longitude":73.0243,"temp":40.0,"humidity":19,"rain":0.0,"pressure":979.5,"uv_index":8.25,"wind_gusts":24.8,"aqi":69,"pm10":112.2,"pm2_5":20.8,"mosquito_risk":0,"arthritis_risk":5,"migraine_risk":10,"frizz_risk":0,"updated_at":"2026-04-24T17:29:43.147611+05:30"},{"city":"Udaipur","state":"Rajasthan","latitude":24.5854,"longitude":73.7125,"temp":35.5,"humidity":24,"rain":0.0,"pressure":944.8,"uv_index":8.8,"wind_gusts":34.2,"aqi":65,"pm10":35.3,"pm2_5":10.3,"mosquito_risk":0,"arthritis_risk":5,"migraine_risk":10,"frizz_risk":0,"updated_at":"2026-04-24T17:29:43.147618+05:30"},{"city":"Kota","state":"Rajasthan","latitude":25.2138,"longitude":75.8648,"temp":41.8,"humidity":14,"rain":0.0,"pressure":973.7,"uv_index":8.3,"wind_gusts":20.2,"aqi":83,"pm10":30.7,"pm2_5":11.0,"mosquito_risk":0,"arthritis_risk":5,"migraine_risk":10,"frizz_risk":0,"updated_at":"2026-04-24T17:29:43.147625+05:30"},{"city":"Bikaner","state":"Rajasthan","latitude":28.0229,"longitude":73.3119,"temp":41.3,"humidity":15,"rain":0.0,"pressure":977.5,"uv_index":8.05,"wind_gusts":21.2,"aqi":57,"pm10":87.5,"pm2_5":20.0,"mosquito_risk":0,"arthritis_risk":5,"migraine_risk":10,"frizz_risk":0,"updated_at":"2026-04-24T17:29:43.147631+05:30"},{"city":"Ajmer","state":"Rajasthan","latitude":26.4499,"longitude":74.6399,"temp":39.5,"humidity":16,"rain":0.0,"pressure":951.4,"uv_index":8.2,"wind_gusts":28.1,"aqi":71,"pm10":66.4,"pm2_5":15.9,"mosquito_risk":0,"arthritis_risk":5,"migraine_risk":10,"frizz_risk":0,"updated_at":"2026-04-24T17:29:43.147637+05:30"},{"city":"Gwalior","state":"Madhya Pradesh","latitude":26.2183,"longitude":78.1828,"temp":39.5,"humidity":17,"rain":0.0,"pressure":978.8,"uv_index":8.05,"wind_gusts":30.6,"aqi":97,"pm10":109.7,"pm2_5":19.7,"mosquito_risk":0,"arthritis_risk":5,"migraine_risk":10,"frizz_risk":0,"updated_at":"2026-04-24T17:29:43.147643+05:30"},{"city":"Indore","state":"Madhya Pradesh","latitude":22.7196,"longitude":75.8577,"temp":38.3,"humidity":13,"rain":0.0,"pressure":945.2,"uv_index":8.65,"wind_gusts":34.9,"aqi":82,"pm10":17.4,"pm2_5":7.7,"mosquito_risk":0,"arthritis_risk":5,"migraine_risk":10,"frizz_risk":0,"updated_at":"2026-04-24T17:29:43.147649+05:30"},{"city":"Bhopal","state":"Madhya Pradesh","latitude":23.2599,"longitude":77.4126,"temp":39.4,"humidity":14,"rain":0.0,"pressure":950.2,"uv_index":8.65,"wind_gusts":31.3,"aqi":70,"pm10":21.0,"pm2_5":8.3,"mosquito_risk":0,"arthritis_risk":5,"migraine_risk":10,"frizz_risk":0,"updated_at":"2026-04-24T17:29:43.147656+05:30"},{"city":"Jabalpur","state":"Madhya Pradesh","latitude":23.1815,"longitude":79.9864,"temp":38.1,"humidity":20,"rain":0.0,"pressure":958.2,"uv_index":8.75,"wind_gusts":21.2,"aqi":124,"pm10":19.2,"pm2_5":14.1,"mosquito_risk":0,"arthritis_risk":5,"migraine_risk":10,"frizz_risk":0,"updated_at":"2026-04-24T17:29:43.147662+05:30"},{"city":"Ujjain","state":"Madhya Pradesh","latitude":23.1765,"longitude":75.7885,"temp":38.2,"humidity":18,"rain":0.0,"pressure":950.8,"uv_index":8.55,"wind_gusts":35.3,"aqi":61,"pm10":25.6,"pm2_5":8.9,"mosquito_risk":0,"arthritis_risk":5,"migraine_risk":10,"frizz_risk":0,"updated_at":"2026-04-24T17:29:43.147668+05:30"},{"city":"Visakhapatnam","state":"Andhra Pradesh","latitude":17.6868,"longitude":83.2185,"temp":30.7,"humidity":67,"rain":0.0,"pressure":1000.8,"uv_index":9.2,"wind_gusts":40.0,"aqi":60,"pm10":18.1,"pm2_5":13.7,"mosquito_risk":3,"arthritis_risk":5,"migraine_risk":4,"frizz_risk":1,"updated_at":"2026-04-24T17:29:43.147675+05:30"},{"city":"Vijayawada","state":"Andhra Pradesh","latitude":16.5062,"longitude":80.648,"temp":36.4,"humidity":37,"rain":0.0,"pressure":998.7,"uv_index":9.15,"wind_gusts":29.9,"aqi":54,"pm10":17.0,"pm2_5":12.8,"mosquito_risk":0,"arthritis_risk":5,"migraine_risk":10,"frizz_risk":1,"updated_at":"2026-04-24T17:29:43.147681+05:30"},{"city":"Guntur","state":"Andhra Pradesh","latitude":16.3067,"longitude":80.4365,"temp":34.6,"humidity":44,"rain":0.0,"pressure":1000.3,"uv_index":9.25,"wind_gusts":31.0,"aqi":55,"pm10":21.7,"pm2_5":16.8,"mosquito_risk":0,"arthritis_risk":5,"migraine_risk":4,"frizz_risk":1,"updated_at":"2026-04-24T17:29:43.147687+05:30"},{"city":"Nellore","state":"Andhra Pradesh","latitude":14.4426,"longitude":79.9865,"temp":33.8,"humidity":53,"rain":0.0,"pressure":1002.1,"uv_index":9.3,"wind_gusts":34.9,"aqi":46,"pm10":16.7,"pm2_5":12.0,"mosquito_risk":0,"arthritis_risk":5,"migraine_risk":4,"frizz_risk":1,"updated_at":"2026-04-24T17:29:43.147694+05:30"},{"city":"Kurnool","state":"Andhra Pradesh","latitude":15.8281,"longitude":78.0373,"temp":40.2,"humidity":17,"rain":0.0,"pressure":972.2,"uv_index":9.25,"wind_gusts":26.3,"aqi":116,"pm10":26.7,"pm2_5":19.7,"mosquito_risk":0,"arthritis_risk":5,"migraine_risk":10,"frizz_risk":0,"updated_at":"2026-04-24T17:29:43.147702+05:30"},{"city":"Kakinada","state":"Andhra Pradesh","latitude":16.9891,"longitude":82.2475,"temp":34.1,"humidity":51,"rain":0.0,"pressure":1004.0,"uv_index":9.05,"wind_gusts":32.8,"aqi":40,"pm10":11.0,"pm2_5":7.1,"mosquito_risk":0,"arthritis_risk":5,"migraine_risk":4,"frizz_risk":1,"updated_at":"2026-04-24T17:29:43.147708+05:30"},{"city":"Tirupati","state":"Andhra Pradesh","latitude":13.6288,"longitude":79.4192,"temp":36.5,"humidity":31,"rain":0.0,"pressure":988.0,"uv_index":9.35,"wind_gusts":33.8,"aqi":55,"pm10":16.9,"pm2_5":13.6,"mosquito_risk":0,"arthritis_risk":5,"migraine_risk":10,"frizz_risk":1,"updated_at":"2026-04-24T17:29:43.147714+05:30"},{"city":"Warangal","state":"Telangana","latitude":17.9689,"longitude":79.5941,"temp":38.8,"humidity":27,"rain":0.0,"pressure":974.8,"uv_index":9.2,"wind_gusts":25.9,"aqi":166,"pm10":53.1,"pm2_5":44.6,"mosquito_risk":0,"arthritis_risk":5,"migraine_risk":10,"frizz_risk":1,"updated_at":"2026-04-24T17:29:43.147720+05:30"},{"city":"Nizamabad","state":"Telangana","latitude":18.6725,"longitude":78.0941,"temp":39.0,"humidity":19,"rain":0.0,"pressure":961.3,"uv_index":8.8,"wind_gusts":29.5,"aqi":148,"pm10":43.1,"pm2_5":35.4,"mosquito_risk":0,"arthritis_risk":5,"migraine_risk":10,"frizz_risk":0,"updated_at":"2026-04-24T17:29:43.147727+05:30"},{"city":"Mysore","state":"Karnataka","latitude":12.2958,"longitude":76.6396,"temp":35.1,"humidity":24,"rain":0.0,"pressure":925.2,"uv_index":9.5,"wind_gusts":36.4,"aqi":139,"pm10":28.5,"pm2_5":21.7,"mosquito_risk":0,"arthritis_risk":5,"migraine_risk":10,"frizz_risk":0,"updated_at":"2026-04-24T17:29:43.147733+05:30"},{"city":"Mangalore","state":"Karnataka","latitude":12.9141,"longitude":74.856,"temp":30.7,"humidity":80,"rain":0.0,"pressure":1002.8,"uv_index":9.1,"wind_gusts":24.5,"aqi":80,"pm10":27.5,"pm2_5":20.1,"mosquito_risk":3,"arthritis_risk":5,"migraine_risk":4,"frizz_risk":1,"updated_at":"2026-04-24T17:29:43.147739+05:30"},{"city":"Hubli-Dharwad","state":"Karnataka","latitude":15.3647,"longitude":75.124,"temp":32.0,"humidity":45,"rain":0.0,"pressure":939.0,"uv_index":9.2,"wind_gusts":42.1,"aqi":147,"pm10":38.8,"pm2_5":31.5,"mosquito_risk":0,"arthritis_risk":5,"migraine_risk":7,"frizz_risk":1,"updated_at":"2026-04-24T17:29:43.147745+05:30"},{"city":"Belgaum","state":"Karnataka","latitude":15.8497,"longitude":74.4977,"temp":29.4,"humidity":61,"rain":0.0,"pressure":923.9,"uv_index":9.25,"wind_gusts":40.0,"aqi":161,"pm10":49.0,"pm2_5":40.7,"mosquito_risk":7,"arthritis_risk":5,"migraine_risk":7,"frizz_risk":1,"updated_at":"2026-04-24T17:29:46.381076+05:30"},{"city":"Coimbatore","state":"Tamil Nadu","latitude":11.0168,"longitude":76.9558,"temp":34.3,"humidity":36,"rain":0.0,"pressure":958.3,"uv_index":9.4,"wind_gusts":36.4,"aqi":119,"pm10":19.0,"pm2_5":14.7,"mosquito_risk":0,"arthritis_risk":5,"migraine_risk":7,"frizz_risk":1,"updated_at":"2026-04-24T17:29:46.381108+05:30"},{"city":"Madurai","state":"Tamil Nadu","latitude":9.9252,"longitude":78.1198,"temp":37.7,"humidity":30,"rain":0.0,"pressure":988.4,"uv_index":9.3,"wind_gusts":34.6,"aqi":62,"pm10":6.4,"pm2_5":5.6,"mosquito_risk":0,"arthritis_risk":5,"migraine_risk":10,"frizz_risk":1,"updated_at":"2026-04-24T17:29:46.381120+05:30"},{"city":"Trichy","state":"Tamil Nadu","latitude":10.7905,"longitude":78.7047,"temp":36.9,"humidity":36,"rain":0.0,"pressure":995.4,"uv_index":9.3,"wind_gusts":25.2,"aqi":50,"pm10":7.0,"pm2_5":6.5,"mosquito_risk":0,"arthritis_risk":5,"migraine_risk":10,"frizz_risk":1,"updated_at":"2026-04-24T17:29:46.381130+05:30"},{"city":"Salem","state":"Tamil Nadu","latitude":11.6643,"longitude":78.146,"temp":37.2,"humidity":28,"rain":0.0,"pressure":973.5,"uv_index":9.35,"wind_gusts":28.8,"aqi":81,"pm10":17.2,"pm2_5":13.5,"mosquito_risk":0,"arthritis_risk":5,"migraine_risk":10,"frizz_risk":0,"updated_at":"2026-04-24T17:29:46.381139+05:30"},{"city":"Tirunelveli","state":"Tamil Nadu","latitude":8.7139,"longitude":77.7567,"temp":33.5,"humidity":53,"rain":0.0,"pressure":999.2,"uv_index":9.2,"wind_gusts":40.0,"aqi":86,"pm10":16.2,"pm2_5":14.9,"mosquito_risk":0,"arthritis_risk":5,"migraine_risk":7,"frizz_risk":1,"updated_at":"2026-04-24T17:29:46.381148+05:30"},{"city":"Vellore","state":"Tamil Nadu","latitude":12.9165,"longitude":79.1325,"temp":35.5,"humidity":33,"rain":0.0,"pressure":981.3,"uv_index":9.4,"wind_gusts":31.3,"aqi":72,"pm10":16.6,"pm2_5":15.1,"mosquito_risk":0,"arthritis_risk":5,"migraine_risk":10,"frizz_risk":1,"updated_at":"2026-04-24T17:29:46.381157+05:30"},{"city":"Erode","state":"Tamil Nadu","latitude":11.341,"longitude":77.7172,"temp":38.3,"humidity":28,"rain":0.0,"pressure":984.5,"uv_index":9.35,"wind_gusts":29.2,"aqi":56,"pm10":12.7,"pm2_5":9.8,"mosquito_risk":0,"arthritis_risk":5,"migraine_risk":10,"frizz_risk":1,"updated_at":"2026-04-24T17:29:46.381165+05:30"},{"city":"Kochi","state":"Kerala","latitude":9.9312,"longitude":76.2673,"temp":30.1,"humidity":80,"rain":0.0,"pressure":1004.6,"uv_index":8.5,"wind_gusts":29.2,"aqi":90,"pm10":33.1,"pm2_5":27.9,"mosquito_risk":3,"arthritis_risk":5,"migraine_risk":4,"frizz_risk":1,"updated_at":"2026-04-24T17:29:46.381173+05:30"},{"city":"Thiruvananthapuram","state":"Kerala","latitude":8.5241,"longitude":76.9366,"temp":29.1,"humidity":81,"rain":0.0,"pressure":1004.7,"uv_index":8.9,"wind_gusts":25.2,"aqi":75,"pm10":18.7,"pm2_5":14.4,"mosquito_risk":7,"arthritis_risk":5,"migraine_risk":4,"frizz_risk":1,"updated_at":"2026-04-24T17:29:46.381182+05:30"},{"city":"Kozhikode","state":"Kerala","latitude":11.2588,"longitude":75.7804,"temp":31.3,"humidity":74,"rain":0.0,"pressure":1003.9,"uv_index":9.1,"wind_gusts":33.8,"aqi":85,"pm10":28.1,"pm2_5":20.9,"mosquito_risk":3,"arthritis_risk":5,"migraine_risk":4,"frizz_risk":1,"updated_at":"2026-04-24T17:29:46.381189+05:30"},{"city":"Thrissur","state":"Kerala","latitude":10.5276,"longitude":76.2144,"temp":32.2,"humidity":69,"rain":0.0,"pressure":1003.1,"uv_index":9.15,"wind_gusts":33.1,"aqi":99,"pm10":33.8,"pm2_5":28.4,"mosquito_risk":3,"arthritis_risk":5,"migraine_risk":4,"frizz_risk":1,"updated_at":"2026-04-24T17:29:46.381198+05:30"},{"city":"Kannur","state":"Kerala","latitude":11.8745,"longitude":75.3704,"temp":31.6,"humidity":70,"rain":0.0,"pressure":1003.4,"uv_index":9.1,"wind_gusts":32.0,"aqi":84,"pm10":30.3,"pm2_5":22.6,"mosquito_risk":3,"arthritis_risk":5,"migraine_risk":4,"frizz_risk":1,"updated_at":"2026-04-24T17:29:46.381206+05:30"},{"city":"Patna","state":"Bihar","latitude":25.5941,"longitude":85.1376,"temp":37.6,"humidity":35,"rain":0.0,"pressure":996.2,"uv_index":8.6,"wind_gusts":25.9,"aqi":202,"pm10":141.6,"pm2_5":39.5,"mosquito_risk":0,"arthritis_risk":5,"migraine_risk":10,"frizz_risk":1,"updated_at":"2026-04-24T17:29:46.381214+05:30"},{"city":"Gaya","state":"Bihar","latitude":24.7914,"longitude":85.0002,"temp":38.9,"humidity":22,"rain":0.0,"pressure":989.4,"uv_index":8.7,"wind_gusts":20.5,"aqi":162,"pm10":122.0,"pm2_5":27.0,"mosquito_risk":0,"arthritis_risk":5,"migraine_risk":10,"frizz_risk":0,"updated_at":"2026-04-24T17:29:46.381222+05:30"},{"city":"Muzaffarpur","state":"Bihar","latitude":26.1209,"longitude":85.3647,"temp":36.4,"humidity":44,"rain":0.0,"pressure":996.3,"uv_index":8.6,"wind_gusts":31.7,"aqi":198,"pm10":130.9,"pm2_5":46.2,"mosquito_risk":0,"arthritis_risk":5,"migraine_risk":10,"frizz_risk":1,"updated_at":"2026-04-24T17:29:46.381231+05:30"},{"city":"Bhagalpur","state":"Bihar","latitude":25.2425,"longitude":87.0117,"temp":35.1,"humidity":53,"rain":0.0,"pressure":997.2,"uv_index":8.65,"wind_gusts":20.9,"aqi":200,"pm10":104.5,"pm2_5":37.5,"mosquito_risk":0,"arthritis_risk":5,"migraine_risk":10,"frizz_risk":1,"updated_at":"2026-04-24T17:29:46.381238+05:30"},{"city":"Ranchi","state":"Jharkhand","latitude":23.3441,"longitude":85.3096,"temp":36.5,"humidity":12,"rain":0.0,"pressure":935.8,"uv_index":9.15,"wind_gusts":28.8,"aqi":166,"pm10":86.8,"pm2_5":22.5,"mosquito_risk":0,"arthritis_risk":5,"migraine_risk":10,"frizz_risk":0,"updated_at":"2026-04-24T17:29:46.381246+05:30"},{"city":"Jamshedpur","state":"Jharkhand","latitude":22.8046,"longitude":86.2029,"temp":39.2,"humidity":25,"rain":0.0,"pressure":986.3,"uv_index":8.65,"wind_gusts":35.6,"aqi":216,"pm10":158.8,"pm2_5":44.2,"mosquito_risk":0,"arthritis_risk":5,"migraine_risk":10,"frizz_risk":0,"updated_at":"2026-04-24T17:29:46.381253+05:30"},{"city":"Dhanbad","state":"Jharkhand","latitude":23.7957,"longitude":86.4304,"temp":40.3,"humidity":15,"rain":0.0,"pressure":975.7,"uv_index":8.95,"wind_gusts":35.6,"aqi":174,"pm10":163.0,"pm2_5":47.0,"mosquito_risk":0,"arthritis_risk":5,"migraine_risk":10,"frizz_risk":0,"updated_at":"2026-04-24T17:29:46.381261+05:30"},{"city":"Bokaro","state":"Jharkhand","latitude":23.6693,"longitude":86.1511,"temp":39.5,"humidity":16,"rain":0.0,"pressure":979.6,"uv_index":8.95,"wind_gusts":31.0,"aqi":168,"pm10":144.4,"pm2_5":41.1,"mosquito_risk":0,"arthritis_risk":5,"migraine_risk":10,"frizz_risk":0,"updated_at":"2026-04-24T17:29:46.381269+05:30"},{"city":"Bhubaneswar","state":"Odisha","latitude":20.2961,"longitude":85.8245,"temp":30.7,"humidity":74,"rain":0.0,"pressure":1000.6,"uv_index":9.1,"wind_gusts":38.2,"aqi":107,"pm10":31.7,"pm2_5":24.7,"mosquito_risk":3,"arthritis_risk":5,"migraine_risk":4,"frizz_risk":1,"updated_at":"2026-04-24T17:29:46.381277+05:30"},{"city":"Cuttack","state":"Odisha","latitude":20.4625,"longitude":85.8828,"temp":29.8,"humidity":77,"rain":0.0,"pressure":1002.7,"uv_index":9.15,"wind_gusts":30.6,"aqi":107,"pm10":31.7,"pm2_5":24.7,"mosquito_risk":7,"arthritis_risk":5,"migraine_risk":4,"frizz_risk":1,"updated_at":"2026-04-24T17:29:46.381285+05:30"},{"city":"Rourkela","state":"Odisha","latitude":22.2604,"longitude":84.8536,"temp":40.2,"humidity":17,"rain":0.0,"pressure":980.5,"uv_index":8.85,"wind_gusts":37.8,"aqi":203,"pm10":120.6,"pm2_5":30.7,"mosquito_risk":0,"arthritis_risk":5,"migraine_risk":10,"frizz_risk":0,"updated_at":"2026-04-24T17:29:46.381292+05:30"},{"city":"Raipur","state":"Chhattisgarh","latitude":21.2514,"longitude":81.6296,"temp":41.0,"humidity":14,"rain":0.0,"pressure":970.1,"uv_index":8.95,"wind_gusts":27.4,"aqi":202,"pm10":29.0,"pm2_5":20.2,"mosquito_risk":0,"arthritis_risk":5,"migraine_risk":10,"frizz_risk":0,"updated_at":"2026-04-24T17:29:46.381297+05:30"},{"city":"Bhilai","state":"Chhattisgarh","latitude":21.1938,"longitude":81.3509,"temp":40.5,"humidity":16,"rain":0.0,"pressure":970.3,"uv_index":8.9,"wind_gusts":24.1,"aqi":154,"pm10":21.4,"pm2_5":17.8,"mosquito_risk":0,"arthritis_risk":5,"migraine_risk":10,"frizz_risk":0,"updated_at":"2026-04-24T17:29:46.381303+05:30"},{"city":"Guwahati","state":"Assam","latitude":26.1158,"longitude":91.7086,"temp":31.2,"humidity":70,"rain":0.0,"pressure":999.0,"uv_index":8.55,"wind_gusts":20.5,"aqi":151,"pm10":94.1,"pm2_5":54.4,"mosquito_risk":3,"arthritis_risk":5,"migraine_risk":7,"frizz_risk":1,"updated_at":"2026-04-24T17:29:46.381309+05:30"},{"city":"Agartala","state":"Tripura","latitude":23.8315,"longitude":91.2868,"temp":32.4,"humidity":68,"rain":0.0,"pressure":1003.2,"uv_index":8.65,"wind_gusts":21.2,"aqi":120,"pm10":77.8,"pm2_5":39.5,"mosquito_risk":3,"arthritis_risk":5,"migraine_risk":4,"frizz_risk":1,"updated_at":"2026-04-24T17:29:46.381315+05:30"},{"city":"Shillong","state":"Meghalaya","latitude":25.5788,"longitude":91.8933,"temp":20.7,"humidity":72,"rain":0.0,"pressure":857.4,"uv_index":6.3,"wind_gusts":27.0,"aqi":160,"pm10":85.9,"pm2_5":44.7,"mosquito_risk":3,"arthritis_risk":5,"migraine_risk":7,"frizz_risk":0,"updated_at":"2026-04-24T17:29:46.381321+05:30"},{"city":"Imphal","state":"Manipur","latitude":24.817,"longitude":93.9368,"temp":24.7,"humidity":62,"rain":0.0,"pressure":922.4,"uv_index":9.1,"wind_gusts":34.6,"aqi":152,"pm10":83.8,"pm2_5":40.2,"mosquito_risk":3,"arthritis_risk":5,"migraine_risk":7,"frizz_risk":1,"updated_at":"2026-04-24T17:29:46.381327+05:30"},{"city":"Aizawl","state":"Mizoram","latitude":23.7271,"longitude":92.7176,"temp":26.8,"humidity":55,"rain":0.0,"pressure":892.5,"uv_index":8.45,"wind_gusts":31.3,"aqi":139,"pm10":100.4,"pm2_5":36.6,"mosquito_risk":4,"arthritis_risk":5,"migraine_risk":7,"frizz_risk":1,"updated_at":"2026-04-24T17:29:46.381333+05:30"},{"city":"Kohima","state":"Nagaland","latitude":25.6701,"longitude":94.1077,"temp":21.0,"humidity":82,"rain":0.0,"pressure":855.7,"uv_index":8.55,"wind_gusts":42.5,"aqi":146,"pm10":98.7,"pm2_5":47.1,"mosquito_risk":3,"arthritis_risk":5,"migraine_risk":7,"frizz_risk":1,"updated_at":"2026-04-24T17:29:46.381339+05:30"},{"city":"Gangtok","state":"Sikkim","latitude":27.3314,"longitude":88.6138,"temp":21.3,"humidity":77,"rain":0.0,"pressure":839.2,"uv_index":6.7,"wind_gusts":22.3,"aqi":129,"pm10":48.2,"pm2_5":30.4,"mosquito_risk":3,"arthritis_risk":5,"migraine_risk":7,"frizz_risk":1,"updated_at":"2026-04-24T17:29:46.381345+05:30"},{"city":"Siliguri","state":"West Bengal","latitude":26.7271,"longitude":88.3953,"temp":27.3,"humidity":72,"rain":0.0,"pressure":992.2,"uv_index":8.45,"wind_gusts":18.7,"aqi":155,"pm10":90.3,"pm2_5":54.0,"mosquito_risk":7,"arthritis_risk":5,"migraine_risk":7,"frizz_risk":1,"updated_at":"2026-04-24T17:29:49.596711+05:30"},{"city":"Durgapur","state":"West Bengal","latitude":23.5204,"longitude":87.3119,"temp":34.4,"humidity":48,"rain":0.0,"pressure":991.4,"uv_index":8.5,"wind_gusts":31.0,"aqi":155,"pm10":140.2,"pm2_5":57.3,"mosquito_risk":0,"arthritis_risk":5,"migraine_risk":7,"frizz_risk":1,"updated_at":"2026-04-24T17:29:49.596738+05:30"},{"city":"Asansol","state":"West Bengal","latitude":23.6739,"longitude":86.9524,"temp":35.6,"humidity":44,"rain":0.0,"pressure":989.7,"uv_index":8.9,"wind_gusts":37.8,"aqi":155,"pm10":151.8,"pm2_5":47.7,"mosquito_risk":0,"arthritis_risk":5,"migraine_risk":10,"frizz_risk":1,"updated_at":"2026-04-24T17:29:49.596748+05:30"},{"city":"Pondicherry","state":"Puducherry","latitude":11.9139,"longitude":79.8145,"temp":33.7,"humidity":56,"rain":0.0,"pressure":1005.0,"uv_index":9.15,"wind_gusts":31.0,"aqi":29,"pm10":6.1,"pm2_5":3.9,"mosquito_risk":0,"arthritis_risk":5,"migraine_risk":4,"frizz_risk":1,"updated_at":"2026-04-24T17:29:49.596756+05:30"},{"city":"Port Blair","state":"Andaman and Nicobar Islands","latitude":11.6234,"longitude":92.7265,"temp":29.7,"humidity":74,"rain":0.0,"pressure":1004.9,"uv_index":9.15,"wind_gusts":21.6,"aqi":37,"pm10":10.3,"pm2_5":5.5,"mosquito_risk":7,"arthritis_risk":5,"migraine_risk":4,"frizz_risk":1,"updated_at":"2026-04-24T17:29:49.596763+05:30"},{"city":"Haridwar","state":"Uttarakhand","latitude":29.9457,"longitude":78.1642,"temp":38.5,"humidity":23,"rain":0.0,"pressure":969.4,"uv_index":7.25,"wind_gusts":36.7,"aqi":146,"pm10":45.8,"pm2_5":20.8,"mosquito_risk":0,"arthritis_risk":5,"migraine_risk":10,"frizz_risk":0,"updated_at":"2026-04-24T17:29:49.596770+05:30"},{"city":"Rishikesh","state":"Uttarakhand","latitude":30.0869,"longitude":78.2676,"temp":36.5,"humidity":29,"rain":0.0,"pressure":962.9,"uv_index":7.35,"wind_gusts":39.2,"aqi":125,"pm10":27.5,"pm2_5":15.0,"mosquito_risk":0,"arthritis_risk":5,"migraine_risk":10,"frizz_risk":0,"updated_at":"2026-04-24T17:29:49.596778+05:30"},{"city":"Nainital","state":"Uttarakhand","latitude":29.3919,"longitude":79.4542,"temp":29.8,"humidity":24,"rain":0.0,"pressure":808.5,"uv_index":8.2,"wind_gusts":44.6,"aqi":166,"pm10":38.3,"pm2_5":22.7,"mosquito_risk":4,"arthritis_risk":5,"migraine_risk":7,"frizz_risk":0,"updated_at":"2026-04-24T17:29:49.596785+05:30"},{"city":"Mussoorie","state":"Uttarakhand","latitude":30.4599,"longitude":78.0664,"temp":26.5,"humidity":39,"rain":0.0,"pressure":805.1,"uv_index":7.75,"wind_gusts":49.7,"aqi":147,"pm10":41.6,"pm2_5":21.0,"mosquito_risk":4,"arthritis_risk":5,"migraine_risk":7,"frizz_risk":0,"updated_at":"2026-04-24T17:29:49.596792+05:30"},{"city":"Dharamshala","state":"Himachal Pradesh","latitude":32.219,"longitude":76.3234,"temp":28.6,"humidity":39,"rain":0.0,"pressure":869.5,"uv_index":8.05,"wind_gusts":29.2,"aqi":96,"pm10":29.5,"pm2_5":10.6,"mosquito_risk":4,"arthritis_risk":5,"migraine_risk":7,"frizz_risk":0,"updated_at":"2026-04-24T17:29:49.596798+05:30"},{"city":"Dalhousie","state":"Himachal Pradesh","latitude":32.5387,"longitude":75.971,"temp":28.3,"humidity":27,"rain":0.0,"pressure":806.3,"uv_index":8.3,"wind_gusts":33.1,"aqi":116,"pm10":40.5,"pm2_5":13.7,"mosquito_risk":4,"arthritis_risk":5,"migraine_risk":7,"frizz_risk":0,"updated_at":"2026-04-24T17:29:49.596806+05:30"},{"city":"Patiala","state":"Punjab","latitude":30.3398,"longitude":76.3869,"temp":39.1,"humidity":19,"rain":0.0,"pressure":973.2,"uv_index":7.35,"wind_gusts":38.2,"aqi":174,"pm10":462.9,"pm2_5":49.4,"mosquito_risk":0,"arthritis_risk":5,"migraine_risk":10,"frizz_risk":0,"updated_at":"2026-04-24T17:29:49.596813+05:30"},{"city":"Bhatinda","state":"Punjab","latitude":30.211,"longitude":74.9455,"temp":40.2,"humidity":17,"rain":0.0,"pressure":979.0,"uv_index":8.0,"wind_gusts":42.8,"aqi":113,"pm10":89.6,"pm2_5":23.9,"mosquito_risk":0,"arthritis_risk":5,"migraine_risk":10,"frizz_risk":0,"updated_at":"2026-04-24T17:29:49.596820+05:30"},{"city":"Rohtak","state":"Haryana","latitude":28.8955,"longitude":76.6066,"temp":39.3,"humidity":19,"rain":0.0,"pressure":976.6,"uv_index":7.45,"wind_gusts":29.2,"aqi":158,"pm10":445.2,"pm2_5":52.2,"mosquito_risk":0,"arthritis_risk":5,"migraine_risk":10,"frizz_risk":0,"updated_at":"2026-04-24T17:29:49.596826+05:30"},{"city":"Panipat","state":"Haryana","latitude":29.3909,"longitude":76.9635,"temp":39.4,"humidity":20,"rain":0.0,"pressure":975.2,"uv_index":7.3,"wind_gusts":31.0,"aqi":310,"pm10":707.8,"pm2_5":71.7,"mosquito_risk":0,"arthritis_risk":5,"migraine_risk":10,"frizz_risk":0,"updated_at":"2026-04-24T17:29:49.596832+05:30"},{"city":"Mathura","state":"Uttar Pradesh","latitude":27.4924,"longitude":77.6737,"temp":40.9,"humidity":15,"rain":0.0,"pressure":981.2,"uv_index":7.75,"wind_gusts":23.0,"aqi":376,"pm10":323.2,"pm2_5":44.1,"mosquito_risk":0,"arthritis_risk":5,"migraine_risk":10,"frizz_risk":0,"updated_at":"2026-04-24T17:29:49.596838+05:30"},{"city":"Vrindavan","state":"Uttar Pradesh","latitude":27.5823,"longitude":77.7027,"temp":40.7,"humidity":16,"rain":0.0,"pressure":981.6,"uv_index":7.7,"wind_gusts":23.4,"aqi":376,"pm10":323.2,"pm2_5":44.1,"mosquito_risk":0,"arthritis_risk":5,"migraine_risk":10,"frizz_risk":0,"updated_at":"2026-04-24T17:29:49.596844+05:30"},{"city":"Ayodhya","state":"Uttar Pradesh","latitude":26.7922,"longitude":82.1998,"temp":40.7,"humidity":12,"rain":0.0,"pressure":990.1,"uv_index":8.05,"wind_gusts":18.7,"aqi":138,"pm10":185.8,"pm2_5":31.2,"mosquito_risk":0,"arthritis_risk":5,"migraine_risk":10,"frizz_risk":0,"updated_at":"2026-04-24T17:29:49.596850+05:30"},{"city":"Ratlam","state":"Madhya Pradesh","latitude":23.3315,"longitude":75.0367,"temp":36.9,"humidity":24,"rain":0.0,"pressure":951.7,"uv_index":8.5,"wind_gusts":30.2,"aqi":70,"pm10":27.2,"pm2_5":9.0,"mosquito_risk":0,"arthritis_risk":5,"migraine_risk":10,"frizz_risk":0,"updated_at":"2026-04-24T17:29:49.596856+05:30"},{"city":"Sagar","state":"Madhya Pradesh","latitude":23.8388,"longitude":78.7378,"temp":38.6,"humidity":16,"rain":0.0,"pressure":946.9,"uv_index":8.65,"wind_gusts":31.3,"aqi":95,"pm10":20.1,"pm2_5":10.7,"mosquito_risk":0,"arthritis_risk":5,"migraine_risk":10,"frizz_risk":0,"updated_at":"2026-04-24T17:29:49.596863+05:30"},{"city":"Satna","state":"Madhya Pradesh","latitude":24.6005,"longitude":80.8322,"temp":41.2,"humidity":11,"rain":0.0,"pressure":966.7,"uv_index":8.65,"wind_gusts":28.4,"aqi":132,"pm10":14.0,"pm2_5":12.0,"mosquito_risk":0,"arthritis_risk":5,"migraine_risk":10,"frizz_risk":0,"updated_at":"2026-04-24T17:29:49.596868+05:30"},{"city":"Akola","state":"Maharashtra","latitude":20.7002,"longitude":77.0082,"temp":40.6,"humidity":16,"rain":0.0,"pressure":971.1,"uv_index":8.85,"wind_gusts":29.5,"aqi":126,"pm10":23.7,"pm2_5":15.8,"mosquito_risk":0,"arthritis_risk":5,"migraine_risk":10,"frizz_risk":0,"updated_at":"2026-04-24T17:29:49.596875+05:30"},{"city":"Amravati","state":"Maharashtra","latitude":20.9374,"longitude":77.7796,"temp":40.4,"humidity":17,"rain":0.0,"pressure":963.3,"uv_index":8.75,"wind_gusts":20.9,"aqi":136,"pm10":24.5,"pm2_5":16.4,"mosquito_risk":0,"arthritis_risk":5,"migraine_risk":10,"frizz_risk":0,"updated_at":"2026-04-24T17:29:49.596882+05:30"},{"city":"Latur","state":"Maharashtra","latitude":18.4088,"longitude":76.5604,"temp":36.5,"humidity":22,"rain":0.0,"pressure":937.3,"uv_index":8.3,"wind_gusts":33.8,"aqi":150,"pm10":36.4,"pm2_5":31.2,"mosquito_risk":0,"arthritis_risk":5,"migraine_risk":10,"frizz_risk":0,"updated_at":"2026-04-24T17:29:49.596888+05:30"},{"city":"Nanded","state":"Maharashtra","latitude":19.1383,"longitude":77.3091,"temp":39.4,"humidity":19,"rain":0.0,"pressure":964.8,"uv_index":8.1,"wind_gusts":25.6,"aqi":146,"pm10":33.3,"pm2_5":27.3,"mosquito_risk":0,"arthritis_risk":5,"migraine_risk":10,"frizz_risk":0,"updated_at":"2026-04-24T17:29:49.596894+05:30"},{"city":"Gulbarga","state":"Karnataka","latitude":17.3297,"longitude":76.8343,"temp":34.7,"humidity":34,"rain":0.0,"pressure":956.0,"uv_index":8.7,"wind_gusts":49.3,"aqi":157,"pm10":36.3,"pm2_5":29.5,"mosquito_risk":0,"arthritis_risk":5,"migraine_risk":7,"frizz_risk":1,"updated_at":"2026-04-24T17:29:49.596901+05:30"},{"city":"Bidar","state":"Karnataka","latitude":17.9104,"longitude":77.5199,"temp":32.2,"humidity":35,"rain":0.0,"pressure":933.4,"uv_index":8.9,"wind_gusts":52.2,"aqi":150,"pm10":39.6,"pm2_5":32.1,"mosquito_risk":0,"arthritis_risk":5,"migraine_risk":7,"frizz_risk":0,"updated_at":"2026-04-24T17:29:49.596907+05:30"},{"city":"Hospet","state":"Karnataka","latitude":15.2689,"longitude":76.3909,"temp":37.5,"humidity":24,"rain":0.0,"pressure":952.1,"uv_index":9.25,"wind_gusts":22.0,"aqi":156,"pm10":31.5,"pm2_5":25.7,"mosquito_risk":0,"arthritis_risk":5,"migraine_risk":10,"frizz_risk":0,"updated_at":"2026-04-24T17:29:49.596913+05:30"},{"city":"Tirupur","state":"Tamil Nadu","latitude":11.1085,"longitude":77.3411,"temp":38.0,"humidity":21,"rain":0.0,"pressure":971.0,"uv_index":9.4,"wind_gusts":33.8,"aqi":92,"pm10":14.1,"pm2_5":10.8,"mosquito_risk":0,"arthritis_risk":5,"migraine_risk":10,"frizz_risk":0,"updated_at":"2026-04-24T17:29:49.596919+05:30"},{"city":"Alappuzha","state":"Kerala","latitude":9.4981,"longitude":76.3388,"temp":30.1,"humidity":80,"rain":0.0,"pressure":1004.7,"uv_index":9.0,"wind_gusts":28.1,"aqi":91,"pm10":28.8,"pm2_5":23.3,"mosquito_risk":3,"arthritis_risk":5,"migraine_risk":4,"frizz_risk":1,"updated_at":"2026-04-24T17:29:49.596926+05:30"},{"city":"Munnar","state":"Kerala","latitude":10.0889,"longitude":77.0595,"temp":28.9,"humidity":55,"rain":0.0,"pressure":856.4,"uv_index":9.6,"wind_gusts":33.1,"aqi":75,"pm10":11.0,"pm2_5":9.1,"mosquito_risk":4,"arthritis_risk":5,"migraine_risk":7,"frizz_risk":1,"updated_at":"2026-04-24T17:29:49.596932+05:30"},{"city":"Silchar","state":"Assam","latitude":24.8333,"longitude":92.7789,"temp":31.1,"humidity":68,"rain":0.0,"pressure":1002.1,"uv_index":8.75,"wind_gusts":20.2,"aqi":162,"pm10":109.9,"pm2_5":52.7,"mosquito_risk":3,"arthritis_risk":5,"migraine_risk":4,"frizz_risk":1,"updated_at":"2026-04-24T17:29:49.596939+05:30"},{"city":"Dibrugarh","state":"Assam","latitude":27.4728,"longitude":94.912,"temp":31.5,"humidity":59,"rain":0.0,"pressure":992.7,"uv_index":8.65,"wind_gusts":14.4,"aqi":133,"pm10":43.4,"pm2_5":25.6,"mosquito_risk":0,"arthritis_risk":5,"migraine_risk":7,"frizz_risk":1,"updated_at":"2026-04-24T17:29:49.596945+05:30"}]