[{"city":"Delhi","state":"Delhi","latitude":28.6139,"longitude":77.209,"temp":28.6,"humidity":62,"rain":0.0,"pressure":981.7,"uv_index":7.6,"wind_gusts":50.8,"aqi":170,"pm10":208.2,"pm2_5":50.4,"no2":13.9,"co":479.0,"o3":169.0,"so2":21.8,"mosquito_risk":7,"arthritis_risk":5,"migraine_risk":7,"frizz_risk":1,"updated_at":"2026-05-31T16:30:45.267335+05:30"},{"city":"Mumbai","state":"Maharashtra","latitude":19.076,"longitude":72.8777,"temp":32.5,"humidity":64,"rain":0.0,"pressure":1007.2,"uv_index":7.8,"wind_gusts":40.3,"aqi":61,"pm10":27.8,"pm2_5":16.9,"no2":4.2,"co":154.0,"o3":73.0,"so2":4.1,"mosquito_risk":3,"arthritis_risk":5,"migraine_risk":4,"frizz_risk":1,"updated_at":"2026-05-31T16:30:45.267384+05:30"},{"city":"Bangalore","state":"Karnataka","latitude":12.9716,"longitude":77.5946,"temp":29.6,"humidity":53,"rain":0.0,"pressure":911.0,"uv_index":9.25,"wind_gusts":42.8,"aqi":82,"pm10":26.1,"pm2_5":18.5,"no2":17.0,"co":463.0,"o3":99.0,"so2":4.4,"mosquito_risk":4,"arthritis_risk":5,"migraine_risk":7,"frizz_risk":1,"updated_at":"2026-05-31T16:30:45.267401+05:30"},{"city":"Hyderabad","state":"Telangana","latitude":17.385,"longitude":78.4867,"temp":36.0,"humidity":32,"rain":0.0,"pressure":951.0,"uv_index":9.1,"wind_gusts":55.1,"aqi":71,"pm10":53.3,"pm2_5":27.4,"no2":0.8,"co":207.0,"o3":131.0,"so2":5.3,"mosquito_risk":0,"arthritis_risk":5,"migraine_risk":10,"frizz_risk":1,"updated_at":"2026-05-31T16:30:45.267412+05:30"},{"city":"Chennai","state":"Tamil Nadu","latitude":13.0827,"longitude":80.2707,"temp":35.2,"humidity":53,"rain":0.0,"pressure":1003.6,"uv_index":8.2,"wind_gusts":38.2,"aqi":86,"pm10":33.1,"pm2_5":25.3,"no2":5.3,"co":280.0,"o3":162.0,"so2":9.0,"mosquito_risk":0,"arthritis_risk":5,"migraine_risk":7,"frizz_risk":1,"updated_at":"2026-05-31T16:30:45.267422+05:30"},{"city":"Kolkata","state":"West Bengal","latitude":22.5726,"longitude":88.3639,"temp":31.2,"humidity":71,"rain":0.1,"pressure":1002.6,"uv_index":8.95,"wind_gusts":26.6,"aqi":153,"pm10":55.9,"pm2_5":36.3,"no2":8.6,"co":397.0,"o3":128.0,"so2":10.6,"mosquito_risk":6,"arthritis_risk":5,"migraine_risk":4,"frizz_risk":1,"updated_at":"2026-05-31T16:30:45.267432+05:30"},{"city":"Pune","state":"Maharashtra","latitude":18.5204,"longitude":73.8567,"temp":31.3,"humidity":50,"rain":0.0,"pressure":947.5,"uv_index":6.2,"wind_gusts":42.1,"aqi":54,"pm10":44.7,"pm2_5":19.4,"no2":1.8,"co":136.0,"o3":101.0,"so2":4.1,"mosquito_risk":0,"arthritis_risk":5,"migraine_risk":7,"frizz_risk":1,"updated_at":"2026-05-31T16:30:45.267441+05:30"},{"city":"Ahmedabad","state":"Gujarat","latitude":23.0225,"longitude":72.5714,"temp":40.2,"humidity":29,"rain":0.0,"pressure":997.6,"uv_index":8.1,"wind_gusts":53.3,"aqi":71,"pm10":103.1,"pm2_5":25.5,"no2":1.1,"co":135.0,"o3":92.0,"so2":3.4,"mosquito_risk":0,"arthritis_risk":5,"migraine_risk":10,"frizz_risk":1,"updated_at":"2026-05-31T16:30:45.267450+05:30"},{"city":"Jaipur","state":"Rajasthan","latitude":26.9124,"longitude":75.7873,"temp":33.0,"humidity":37,"rain":0.1,"pressure":957.9,"uv_index":8.15,"wind_gusts":41.4,"aqi":87,"pm10":171.4,"pm2_5":32.8,"no2":1.1,"co":182.0,"o3":110.0,"so2":2.2,"mosquito_risk":3,"arthritis_risk":5,"migraine_risk":7,"frizz_risk":1,"updated_at":"2026-05-31T16:30:45.267464+05:30"},{"city":"Lucknow","state":"Uttar Pradesh","latitude":26.8467,"longitude":80.9462,"temp":29.5,"humidity":62,"rain":0.1,"pressure":991.8,"uv_index":8.15,"wind_gusts":41.0,"aqi":153,"pm10":78.9,"pm2_5":26.6,"no2":1.4,"co":256.0,"o3":168.0,"so2":5.6,"mosquito_risk":10,"arthritis_risk":5,"migraine_risk":7,"frizz_risk":1,"updated_at":"2026-05-31T16:30:45.267474+05:30"},{"city":"Kanpur","state":"Uttar Pradesh","latitude":26.4499,"longitude":80.3319,"temp":35.1,"humidity":37,"rain":0.0,"pressure":989.4,"uv_index":8.15,"wind_gusts":54.7,"aqi":155,"pm10":134.1,"pm2_5":34.7,"no2":1.5,"co":255.0,"o3":174.0,"so2":7.5,"mosquito_risk":0,"arthritis_risk":5,"migraine_risk":10,"frizz_risk":1,"updated_at":"2026-05-31T16:30:45.267482+05:30"},{"city":"Chandigarh","state":"Chandigarh","latitude":30.7333,"longitude":76.7794,"temp":30.3,"humidity":41,"rain":0.0,"pressure":968.6,"uv_index":6.25,"wind_gusts":39.2,"aqi":134,"pm10":63.3,"pm2_5":29.0,"no2":2.0,"co":312.0,"o3":174.0,"so2":7.2,"mosquito_risk":0,"arthritis_risk":5,"migraine_risk":7,"frizz_risk":0,"updated_at":"2026-05-31T16:30:45.267491+05:30"},{"city":"Srinagar","state":"Jammu and Kashmir","latitude":34.0837,"longitude":74.7973,"temp":27.4,"humidity":34,"rain":0.0,"pressure":841.6,"uv_index":9.0,"wind_gusts":27.0,"aqi":123,"pm10":50.4,"pm2_5":19.8,"no2":0.0,"co":277.0,"o3":146.0,"so2":2.9,"mosquito_risk":4,"arthritis_risk":5,"migraine_risk":7,"frizz_risk":0,"updated_at":"2026-05-31T16:30:45.267500+05:30"},{"city":"Jammu","state":"Jammu and Kashmir","latitude":32.7266,"longitude":74.857,"temp":31.8,"humidity":38,"rain":0.0,"pressure":972.3,"uv_index":8.5,"wind_gusts":28.1,"aqi":152,"pm10":135.0,"pm2_5":45.5,"no2":0.8,"co":238.0,"o3":177.0,"so2":3.6,"mosquito_risk":0,"arthritis_risk":5,"migraine_risk":7,"frizz_risk":0,"updated_at":"2026-05-31T16:30:45.267528+05:30"},{"city":"Amritsar","state":"Punjab","latitude":31.634,"longitude":74.8723,"temp":32.7,"humidity":38,"rain":0.0,"pressure":979.9,"uv_index":8.3,"wind_gusts":35.6,"aqi":134,"pm10":133.6,"pm2_5":36.4,"no2":1.1,"co":241.0,"o3":159.0,"so2":4.7,"mosquito_risk":0,"arthritis_risk":5,"migraine_risk":7,"frizz_risk":1,"updated_at":"2026-05-31T16:30:45.267536+05:30"},{"city":"Ludhiana","state":"Punjab","latitude":30.901,"longitude":75.8573,"temp":32.5,"humidity":36,"rain":0.0,"pressure":977.8,"uv_index":7.85,"wind_gusts":38.5,"aqi":128,"pm10":125.3,"pm2_5":34.6,"no2":1.4,"co":318.0,"o3":161.0,"so2":6.4,"mosquito_risk":0,"arthritis_risk":5,"migraine_risk":7,"frizz_risk":0,"updated_at":"2026-05-31T16:30:45.267544+05:30"},{"city":"Jalandhar","state":"Punjab","latitude":31.326,"longitude":75.5762,"temp":32.8,"humidity":35,"rain":0.0,"pressure":978.9,"uv_index":8.05,"wind_gusts":38.2,"aqi":140,"pm10":171.8,"pm2_5":43.4,"no2":1.4,"co":281.0,"o3":164.0,"so2":6.7,"mosquito_risk":0,"arthritis_risk":5,"migraine_risk":7,"frizz_risk":0,"updated_at":"2026-05-31T16:30:45.267551+05:30"},{"city":"Dehradun","state":"Uttarakhand","latitude":30.6284,"longitude":78.0322,"temp":17.0,"humidity":82,"rain":0.0,"pressure":831.1,"uv_index":7.55,"wind_gusts":30.2,"aqi":131,"pm10":24.6,"pm2_5":13.8,"no2":1.4,"co":229.0,"o3":145.0,"so2":1.9,"mosquito_risk":3,"arthritis_risk":10,"migraine_risk":7,"frizz_risk":0,"updated_at":"2026-05-31T16:30:45.267559+05:30"},{"city":"Shimla","state":"Himachal Pradesh","latitude":31.1048,"longitude":77.1734,"temp":13.2,"humidity":89,"rain":0.0,"pressure":784.0,"uv_index":3.95,"wind_gusts":22.3,"aqi":120,"pm10":23.9,"pm2_5":17.5,"no2":3.5,"co":282.0,"o3":154.0,"so2":2.6,"mosquito_risk":3,"arthritis_risk":10,"migraine_risk":3,"frizz_risk":0,"updated_at":"2026-05-31T16:30:45.267569+05:30"},{"city":"Manali","state":"Himachal Pradesh","latitude":32.2396,"longitude":77.1887,"temp":19.3,"humidity":66,"rain":0.0,"pressure":819.2,"uv_index":6.85,"wind_gusts":33.5,"aqi":129,"pm10":12.8,"pm2_5":6.2,"no2":1.5,"co":161.0,"o3":161.0,"so2":0.3,"mosquito_risk":3,"arthritis_risk":5,"migraine_risk":7,"frizz_risk":0,"updated_at":"2026-05-31T16:30:45.267577+05:30"},{"city":"Gurgaon","state":"Haryana","latitude":28.4595,"longitude":77.0266,"temp":29.9,"humidity":56,"rain":0.0,"pressure":979.8,"uv_index":7.7,"wind_gusts":46.4,"aqi":880,"pm10":218.9,"pm2_5":45.8,"no2":8.5,"co":427.0,"o3":152.0,"so2":11.5,"mosquito_risk":4,"arthritis_risk":5,"migraine_risk":7,"frizz_risk":1,"updated_at":"2026-05-31T16:30:45.267586+05:30"},{"city":"Noida","state":"Uttar Pradesh","latitude":28.5355,"longitude":77.391,"temp":28.5,"humidity":67,"rain":0.0,"pressure":983.1,"uv_index":7.6,"wind_gusts":51.5,"aqi":880,"pm10":218.9,"pm2_5":45.8,"no2":8.5,"co":373.0,"o3":152.0,"so2":11.5,"mosquito_risk":7,"arthritis_risk":5,"migraine_risk":7,"frizz_risk":1,"updated_at":"2026-05-31T16:30:45.267594+05:30"},{"city":"Ghaziabad","state":"Uttar Pradesh","latitude":28.6692,"longitude":77.4538,"temp":27.1,"humidity":71,"rain":0.0,"pressure":981.6,"uv_index":7.6,"wind_gusts":54.4,"aqi":123,"pm10":127.1,"pm2_5":33.9,"no2":4.2,"co":321.0,"o3":160.0,"so2":9.9,"mosquito_risk":7,"arthritis_risk":5,"migraine_risk":7,"frizz_risk":1,"updated_at":"2026-05-31T16:30:45.267601+05:30"},{"city":"Faridabad","state":"Haryana","latitude":28.4089,"longitude":77.3178,"temp":28.0,"humidity":66,"rain":0.0,"pressure":982.3,"uv_index":7.65,"wind_gusts":49.7,"aqi":880,"pm10":218.9,"pm2_5":45.8,"no2":8.5,"co":419.0,"o3":152.0,"so2":11.5,"mosquito_risk":7,"arthritis_risk":5,"migraine_risk":7,"frizz_risk":1,"updated_at":"2026-05-31T16:30:45.267608+05:30"},{"city":"Meerut","state":"Uttar Pradesh","latitude":28.9845,"longitude":77.7064,"temp":26.2,"humidity":74,"rain":0.0,"pressure":981.1,"uv_index":6.9,"wind_gusts":35.6,"aqi":123,"pm10":127.1,"pm2_5":33.9,"no2":4.2,"co":302.0,"o3":160.0,"so2":9.9,"mosquito_risk":7,"arthritis_risk":5,"migraine_risk":7,"frizz_risk":1,"updated_at":"2026-05-31T16:30:45.267616+05:30"},{"city":"Agra","state":"Uttar Pradesh","latitude":27.1767,"longitude":78.0081,"temp":36.0,"humidity":32,"rain":0.0,"pressure":985.4,"uv_index":7.95,"wind_gusts":33.1,"aqi":540,"pm10":148.1,"pm2_5":31.9,"no2":1.2,"co":235.0,"o3":150.0,"so2":3.9,"mosquito_risk":0,"arthritis_risk":5,"migraine_risk":10,"frizz_risk":1,"updated_at":"2026-05-31T16:30:45.267623+05:30"},{"city":"Varanasi","state":"Uttar Pradesh","latitude":25.3176,"longitude":82.9739,"temp":35.2,"humidity":40,"rain":0.0,"pressure":994.1,"uv_index":8.7,"wind_gusts":31.0,"aqi":162,"pm10":45.9,"pm2_5":27.5,"no2":0.7,"co":345.0,"o3":179.0,"so2":6.4,"mosquito_risk":0,"arthritis_risk":5,"migraine_risk":10,"frizz_risk":1,"updated_at":"2026-05-31T16:30:45.267631+05:30"},{"city":"Prayagraj","state":"Uttar Pradesh","latitude":25.4358,"longitude":81.8463,"temp":36.5,"humidity":32,"rain":0.0,"pressure":992.6,"uv_index":8.55,"wind_gusts":25.2,"aqi":162,"pm10":63.6,"pm2_5":24.9,"no2":1.1,"co":257.0,"o3":173.0,"so2":6.1,"mosquito_risk":0,"arthritis_risk":5,"migraine_risk":10,"frizz_risk":1,"updated_at":"2026-05-31T16:30:45.267639+05:30"},{"city":"Gorakhpur","state":"Uttar Pradesh","latitude":26.7606,"longitude":83.3732,"temp":33.8,"humidity":46,"rain":0.0,"pressure":994.5,"uv_index":8.55,"wind_gusts":26.3,"aqi":154,"pm10":48.7,"pm2_5":32.6,"no2":1.4,"co":312.0,"o3":169.0,"so2":7.5,"mosquito_risk":0,"arthritis_risk":5,"migraine_risk":7,"frizz_risk":1,"updated_at":"2026-05-31T16:30:45.267653+05:30"},{"city":"Bareilly","state":"Uttar Pradesh","latitude":28.367,"longitude":79.4304,"temp":31.0,"humidity":52,"rain":0.0,"pressure":986.1,"uv_index":7.95,"wind_gusts":33.5,"aqi":107,"pm10":18.7,"pm2_5":14.3,"no2":0.3,"co":263.0,"o3":152.0,"so2":2.4,"mosquito_risk":0,"arthritis_risk":5,"migraine_risk":7,"frizz_risk":1,"updated_at":"2026-05-31T16:30:45.267661+05:30"},{"city":"Aligarh","state":"Uttar Pradesh","latitude":27.8974,"longitude":78.088,"temp":27.0,"humidity":71,"rain":0.0,"pressure":984.7,"uv_index":7.75,"wind_gusts":44.6,"aqi":167,"pm10":209.5,"pm2_5":41.0,"no2":2.0,"co":277.0,"o3":160.0,"so2":8.6,"mosquito_risk":7,"arthritis_risk":5,"migraine_risk":7,"frizz_risk":1,"updated_at":"2026-05-31T16:30:45.267668+05:30"},{"city":"Moradabad","state":"Uttar Pradesh","latitude":28.8386,"longitude":78.7733,"temp":25.8,"humidity":82,"rain":0.3,"pressure":983.4,"uv_index":7.75,"wind_gusts":30.2,"aqi":116,"pm10":22.4,"pm2_5":15.9,"no2":1.3,"co":314.0,"o3":152.0,"so2":6.8,"mosquito_risk":10,"arthritis_risk":5,"migraine_risk":7,"frizz_risk":1,"updated_at":"2026-05-31T16:30:45.267676+05:30"},{"city":"Saharanpur","state":"Uttar Pradesh","latitude":29.9637,"longitude":77.546,"temp":28.5,"humidity":59,"rain":0.0,"pressure":975.8,"uv_index":3.9,"wind_gusts":32.8,"aqi":126,"pm10":46.9,"pm2_5":23.6,"no2":2.8,"co":306.0,"o3":149.0,"so2":3.6,"mosquito_risk":4,"arthritis_risk":5,"migraine_risk":3,"frizz_risk":1,"updated_at":"2026-05-31T16:30:45.267683+05:30"},{"city":"Jhansi","state":"Uttar Pradesh","latitude":25.4484,"longitude":78.5685,"temp":35.5,"humidity":32,"rain":0.0,"pressure":975.6,"uv_index":8.4,"wind_gusts":19.4,"aqi":118,"pm10":24.3,"pm2_5":12.7,"no2":1.3,"co":210.0,"o3":148.0,"so2":6.4,"mosquito_risk":0,"arthritis_risk":5,"migraine_risk":10,"frizz_risk":1,"updated_at":"2026-05-31T16:30:51.539442+05:30"},{"city":"Surat","state":"Gujarat","latitude":21.1702,"longitude":72.8311,"temp":33.7,"humidity":57,"rain":0.0,"pressure":1004.6,"uv_index":7.7,"wind_gusts":49.7,"aqi":78,"pm10":36.2,"pm2_5":23.8,"no2":10.6,"co":200.0,"o3":51.0,"so2":30.1,"mosquito_risk":0,"arthritis_risk":5,"migraine_risk":4,"frizz_risk":1,"updated_at":"2026-05-31T16:30:51.539472+05:30"},{"city":"Vadodara","state":"Gujarat","latitude":22.3072,"longitude":73.1812,"temp":38.7,"humidity":32,"rain":0.0,"pressure":1000.6,"uv_index":8.05,"wind_gusts":43.6,"aqi":74,"pm10":81.5,"pm2_5":24.7,"no2":1.1,"co":139.0,"o3":96.0,"so2":2.2,"mosquito_risk":0,"arthritis_risk":5,"migraine_risk":7,"frizz_risk":1,"updated_at":"2026-05-31T16:30:51.539482+05:30"},{"city":"Rajkot","state":"Gujarat","latitude":22.3039,"longitude":70.8022,"temp":39.9,"humidity":28,"rain":0.0,"pressure":990.2,"uv_index":7.7,"wind_gusts":43.6,"aqi":68,"pm10":61.9,"pm2_5":26.4,"no2":1.1,"co":110.0,"o3":97.0,"so2":4.2,"mosquito_risk":0,"arthritis_risk":5,"migraine_risk":10,"frizz_risk":1,"updated_at":"2026-05-31T16:30:51.539491+05:30"},{"city":"Thane","state":"Maharashtra","latitude":19.2183,"longitude":72.9781,"temp":33.7,"humidity":55,"rain":0.0,"pressure":1006.3,"uv_index":7.8,"wind_gusts":37.1,"aqi":61,"pm10":27.8,"pm2_5":16.9,"no2":4.2,"co":146.0,"o3":73.0,"so2":4.1,"mosquito_risk":0,"arthritis_risk":5,"migraine_risk":4,"frizz_risk":1,"updated_at":"2026-05-31T16:30:51.539499+05:30"},{"city":"Nagpur","state":"Maharashtra","latitude":21.1458,"longitude":79.0882,"temp":38.2,"humidity":20,"rain":0.0,"pressure":969.9,"uv_index":8.8,"wind_gusts":39.6,"aqi":101,"pm10":30.2,"pm2_5":16.7,"no2":7.9,"co":161.0,"o3":138.0,"so2":22.7,"mosquito_risk":0,"arthritis_risk":5,"migraine_risk":10,"frizz_risk":0,"updated_at":"2026-05-31T16:30:51.539506+05:30"},{"city":"Nashik","state":"Maharashtra","latitude":19.9975,"longitude":73.7898,"temp":31.6,"humidity":53,"rain":0.1,"pressure":944.8,"uv_index":8.1,"wind_gusts":46.8,"aqi":57,"pm10":36.1,"pm2_5":15.4,"no2":1.1,"co":119.0,"o3":72.0,"so2":0.8,"mosquito_risk":3,"arthritis_risk":5,"migraine_risk":7,"frizz_risk":1,"updated_at":"2026-05-31T16:30:51.539514+05:30"},{"city":"Aurangabad","state":"Maharashtra","latitude":19.8762,"longitude":75.3433,"temp":37.4,"humidity":20,"rain":0.0,"pressure":942.0,"uv_index":8.9,"wind_gusts":51.8,"aqi":64,"pm10":85.9,"pm2_5":24.1,"no2":0.8,"co":124.0,"o3":101.0,"so2":1.9,"mosquito_risk":0,"arthritis_risk":5,"migraine_risk":10,"frizz_risk":0,"updated_at":"2026-05-31T16:30:51.539522+05:30"},{"city":"Solapur","state":"Maharashtra","latitude":17.6599,"longitude":75.9064,"temp":37.5,"humidity":25,"rain":0.0,"pressure":954.9,"uv_index":8.95,"wind_gusts":62.3,"aqi":63,"pm10":56.1,"pm2_5":19.0,"no2":1.2,"co":124.0,"o3":104.0,"so2":2.0,"mosquito_risk":0,"arthritis_risk":5,"migraine_risk":10,"frizz_risk":0,"updated_at":"2026-05-31T16:30:51.539530+05:30"},{"city":"Kolhapur","state":"Maharashtra","latitude":16.705,"longitude":74.2433,"temp":32.8,"humidity":48,"rain":0.1,"pressure":946.9,"uv_index":8.75,"wind_gusts":47.5,"aqi":40,"pm10":24.0,"pm2_5":10.8,"no2":2.3,"co":131.0,"o3":82.0,"so2":1.5,"mosquito_risk":3,"arthritis_risk":5,"migraine_risk":7,"frizz_risk":1,"updated_at":"2026-05-31T16:30:51.539538+05:30"},{"city":"Goa","state":"Goa","latitude":15.2993,"longitude":74.124,"temp":33.2,"humidity":57,"rain":0.0,"pressure":996.4,"uv_index":8.0,"wind_gusts":33.1,"aqi":51,"pm10":13.9,"pm2_5":8.7,"no2":1.0,"co":118.0,"o3":57.0,"so2":0.9,"mosquito_risk":0,"arthritis_risk":5,"migraine_risk":7,"frizz_risk":1,"updated_at":"2026-05-31T16:30:51.539545+05:30"},{"city":"Jodhpur","state":"Rajasthan","latitude":26.2389,"longitude":73.0243,"temp":38.0,"humidity":31,"rain":0.0,"pressure":980.1,"uv_index":8.4,"wind_gusts":39.6,"aqi":85,"pm10":173.2,"pm2_5":33.4,"no2":0.2,"co":113.0,"o3":96.0,"so2":1.6,"mosquito_risk":0,"arthritis_risk":5,"migraine_risk":10,"frizz_risk":1,"updated_at":"2026-05-31T16:30:51.539552+05:30"},{"city":"Udaipur","state":"Rajasthan","latitude":24.5854,"longitude":73.7125,"temp":35.7,"humidity":31,"rain":0.0,"pressure":945.0,"uv_index":8.8,"wind_gusts":36.7,"aqi":66,"pm10":72.6,"pm2_5":23.2,"no2":0.5,"co":124.0,"o3":100.0,"so2":2.7,"mosquito_risk":0,"arthritis_risk":5,"migraine_risk":10,"frizz_risk":0,"updated_at":"2026-05-31T16:30:51.539560+05:30"},{"city":"Kota","state":"Rajasthan","latitude":25.2138,"longitude":75.8648,"temp":38.1,"humidity":24,"rain":0.0,"pressure":976.0,"uv_index":8.3,"wind_gusts":28.8,"aqi":66,"pm10":45.2,"pm2_5":17.8,"no2":0.8,"co":132.0,"o3":128.0,"so2":4.5,"mosquito_risk":0,"arthritis_risk":5,"migraine_risk":10,"frizz_risk":0,"updated_at":"2026-05-31T16:30:51.539567+05:30"},{"city":"Bikaner","state":"Rajasthan","latitude":28.0229,"longitude":73.3119,"temp":36.6,"humidity":33,"rain":0.0,"pressure":979.2,"uv_index":8.35,"wind_gusts":28.1,"aqi":59,"pm10":202.6,"pm2_5":43.3,"no2":0.3,"co":125.0,"o3":102.0,"so2":2.6,"mosquito_risk":0,"arthritis_risk":5,"migraine_risk":10,"frizz_risk":1,"updated_at":"2026-05-31T16:30:51.539575+05:30"},{"city":"Ajmer","state":"Rajasthan","latitude":26.4499,"longitude":74.6399,"temp":33.2,"humidity":39,"rain":0.0,"pressure":953.4,"uv_index":8.3,"wind_gusts":40.3,"aqi":53,"pm10":72.4,"pm2_5":22.2,"no2":0.8,"co":125.0,"o3":106.0,"so2":2.0,"mosquito_risk":0,"arthritis_risk":5,"migraine_risk":7,"frizz_risk":1,"updated_at":"2026-05-31T16:30:51.539582+05:30"},{"city":"Gwalior","state":"Madhya Pradesh","latitude":26.2183,"longitude":78.1828,"temp":34.7,"humidity":36,"rain":0.0,"pressure":980.7,"uv_index":8.1,"wind_gusts":19.1,"aqi":105,"pm10":34.3,"pm2_5":14.1,"no2":0.6,"co":189.0,"o3":139.0,"so2":3.2,"mosquito_risk":0,"arthritis_risk":5,"migraine_risk":7,"frizz_risk":1,"updated_at":"2026-05-31T16:30:51.539589+05:30"},{"city":"Indore","state":"Madhya Pradesh","latitude":22.7196,"longitude":75.8577,"temp":36.2,"humidity":28,"rain":0.0,"pressure":946.4,"uv_index":8.35,"wind_gusts":67.7,"aqi":67,"pm10":60.1,"pm2_5":22.9,"no2":0.9,"co":157.0,"o3":110.0,"so2":3.0,"mosquito_risk":0,"arthritis_risk":5,"migraine_risk":10,"frizz_risk":0,"updated_at":"2026-05-31T16:30:51.539596+05:30"},{"city":"Bhopal","state":"Madhya Pradesh","latitude":23.2599,"longitude":77.4126,"temp":36.2,"humidity":23,"rain":0.0,"pressure":951.5,"uv_index":8.6,"wind_gusts":42.1,"aqi":76,"pm10":35.6,"pm2_5":15.5,"no2":0.1,"co":155.0,"o3":124.0,"so2":2.9,"mosquito_risk":0,"arthritis_risk":5,"migraine_risk":10,"frizz_risk":0,"updated_at":"2026-05-31T16:30:51.539603+05:30"},{"city":"Jabalpur","state":"Madhya Pradesh","latitude":23.1815,"longitude":79.9864,"temp":31.5,"humidity":44,"rain":0.0,"pressure":959.7,"uv_index":8.8,"wind_gusts":48.6,"aqi":101,"pm10":34.2,"pm2_5":15.7,"no2":1.7,"co":172.0,"o3":130.0,"so2":2.4,"mosquito_risk":0,"arthritis_risk":5,"migraine_risk":7,"frizz_risk":1,"updated_at":"2026-05-31T16:30:51.539610+05:30"},{"city":"Ujjain","state":"Madhya Pradesh","latitude":23.1765,"longitude":75.7885,"temp":36.2,"humidity":30,"rain":0.0,"pressure":951.9,"uv_index":8.45,"wind_gusts":52.6,"aqi":66,"pm10":55.5,"pm2_5":22.4,"no2":0.6,"co":136.0,"o3":112.0,"so2":3.5,"mosquito_risk":0,"arthritis_risk":5,"migraine_risk":10,"frizz_risk":0,"updated_at":"2026-05-31T16:30:51.539618+05:30"},{"city":"Visakhapatnam","state":"Andhra Pradesh","latitude":17.6868,"longitude":83.2185,"temp":33.7,"humidity":62,"rain":0.0,"pressure":998.4,"uv_index":8.9,"wind_gusts":44.6,"aqi":109,"pm10":40.5,"pm2_5":32.8,"no2":15.2,"co":409.0,"o3":121.0,"so2":40.8,"mosquito_risk":3,"arthritis_risk":5,"migraine_risk":7,"frizz_risk":1,"updated_at":"2026-05-31T16:30:51.539626+05:30"},{"city":"Vijayawada","state":"Andhra Pradesh","latitude":16.5062,"longitude":80.648,"temp":39.0,"humidity":31,"rain":0.0,"pressure":997.9,"uv_index":9.0,"wind_gusts":41.4,"aqi":92,"pm10":48.3,"pm2_5":28.4,"no2":3.8,"co":183.0,"o3":129.0,"so2":5.3,"mosquito_risk":0,"arthritis_risk":5,"migraine_risk":10,"frizz_risk":1,"updated_at":"2026-05-31T16:30:51.539632+05:30"},{"city":"Guntur","state":"Andhra Pradesh","latitude":16.3067,"longitude":80.4365,"temp":38.6,"humidity":32,"rain":0.0,"pressure":999.2,"uv_index":8.55,"wind_gusts":45.0,"aqi":85,"pm10":48.8,"pm2_5":27.4,"no2":1.8,"co":188.0,"o3":132.0,"so2":4.9,"mosquito_risk":0,"arthritis_risk":5,"migraine_risk":10,"frizz_risk":1,"updated_at":"2026-05-31T16:30:51.539639+05:30"},{"city":"Nellore","state":"Andhra Pradesh","latitude":14.4426,"longitude":79.9865,"temp":35.0,"humidity":58,"rain":0.1,"pressure":1002.2,"uv_index":8.45,"wind_gusts":33.1,"aqi":89,"pm10":32.0,"pm2_5":24.3,"no2":2.8,"co":155.0,"o3":154.0,"so2":4.5,"mosquito_risk":3,"arthritis_risk":5,"migraine_risk":4,"frizz_risk":1,"updated_at":"2026-05-31T16:30:51.539648+05:30"},{"city":"Kurnool","state":"Andhra Pradesh","latitude":15.8281,"longitude":78.0373,"temp":37.0,"humidity":35,"rain":0.0,"pressure":973.8,"uv_index":9.0,"wind_gusts":55.1,"aqi":60,"pm10":41.2,"pm2_5":21.2,"no2":0.4,"co":133.0,"o3":126.0,"so2":6.7,"mosquito_risk":0,"arthritis_risk":5,"migraine_risk":10,"frizz_risk":1,"updated_at":"2026-05-31T16:30:51.539655+05:30"},{"city":"Kakinada","state":"Andhra Pradesh","latitude":16.9891,"longitude":82.2475,"temp":37.2,"humidity":48,"rain":0.0,"pressure":1002.2,"uv_index":9.0,"wind_gusts":37.8,"aqi":91,"pm10":29.4,"pm2_5":21.7,"no2":2.2,"co":250.0,"o3":136.0,"so2":3.4,"mosquito_risk":0,"arthritis_risk":5,"migraine_risk":7,"frizz_risk":1,"updated_at":"2026-05-31T16:30:51.539663+05:30"},{"city":"Tirupati","state":"Andhra Pradesh","latitude":13.6288,"longitude":79.4192,"temp":34.0,"humidity":46,"rain":0.1,"pressure":987.9,"uv_index":9.05,"wind_gusts":34.9,"aqi":73,"pm10":25.6,"pm2_5":16.1,"no2":6.2,"co":199.0,"o3":110.0,"so2":3.1,"mosquito_risk":3,"arthritis_risk":5,"migraine_risk":7,"frizz_risk":1,"updated_at":"2026-05-31T16:30:51.539670+05:30"},{"city":"Warangal","state":"Telangana","latitude":17.9689,"longitude":79.5941,"temp":37.3,"humidity":32,"rain":0.0,"pressure":975.1,"uv_index":8.6,"wind_gusts":59.0,"aqi":90,"pm10":51.5,"pm2_5":24.9,"no2":0.5,"co":162.0,"o3":132.0,"so2":4.9,"mosquito_risk":0,"arthritis_risk":5,"migraine_risk":10,"frizz_risk":1,"updated_at":"2026-05-31T16:30:51.539677+05:30"},{"city":"Nizamabad","state":"Telangana","latitude":18.6725,"longitude":78.0941,"temp":37.0,"humidity":27,"rain":0.0,"pressure":962.0,"uv_index":9.0,"wind_gusts":40.0,"aqi":84,"pm10":66.4,"pm2_5":26.6,"no2":0.7,"co":135.0,"o3":113.0,"so2":3.0,"mosquito_risk":0,"arthritis_risk":5,"migraine_risk":10,"frizz_risk":0,"updated_at":"2026-05-31T16:30:51.539684+05:30"},{"city":"Mysore","state":"Karnataka","latitude":12.2958,"longitude":76.6396,"temp":26.4,"humidity":73,"rain":0.2,"pressure":927.9,"uv_index":9.1,"wind_gusts":44.6,"aqi":52,"pm10":15.7,"pm2_5":10.9,"no2":4.1,"co":184.0,"o3":102.0,"so2":1.2,"mosquito_risk":10,"arthritis_risk":5,"migraine_risk":7,"frizz_risk":1,"updated_at":"2026-05-31T16:30:51.539691+05:30"},{"city":"Mangalore","state":"Karnataka","latitude":12.9141,"longitude":74.856,"temp":29.4,"humidity":81,"rain":0.0,"pressure":1006.2,"uv_index":8.6,"wind_gusts":29.5,"aqi":43,"pm10":10.7,"pm2_5":7.3,"no2":1.6,"co":150.0,"o3":73.0,"so2":1.7,"mosquito_risk":7,"arthritis_risk":5,"migraine_risk":4,"frizz_risk":1,"updated_at":"2026-05-31T16:30:51.539697+05:30"},{"city":"Hubli-Dharwad","state":"Karnataka","latitude":15.3647,"longitude":75.124,"temp":33.0,"humidity":43,"rain":0.1,"pressure":939.7,"uv_index":8.9,"wind_gusts":43.6,"aqi":37,"pm10":14.6,"pm2_5":9.0,"no2":1.7,"co":145.0,"o3":79.0,"so2":0.9,"mosquito_risk":3,"arthritis_risk":5,"migraine_risk":7,"frizz_risk":1,"updated_at":"2026-05-31T16:30:51.539704+05:30"},{"city":"Belgaum","state":"Karnataka","latitude":15.8497,"longitude":74.4977,"temp":29.2,"humidity":59,"rain":0.1,"pressure":925.5,"uv_index":7.55,"wind_gusts":44.6,"aqi":35,"pm10":13.8,"pm2_5":8.0,"no2":1.8,"co":130.0,"o3":74.0,"so2":1.2,"mosquito_risk":7,"arthritis_risk":5,"migraine_risk":7,"frizz_risk":1,"updated_at":"2026-05-31T16:30:55.483902+05:30"},{"city":"Coimbatore","state":"Tamil Nadu","latitude":11.0168,"longitude":76.9558,"temp":30.5,"humidity":60,"rain":0.2,"pressure":960.7,"uv_index":8.1,"wind_gusts":43.2,"aqi":42,"pm10":8.3,"pm2_5":6.3,"no2":3.1,"co":157.0,"o3":82.0,"so2":1.9,"mosquito_risk":3,"arthritis_risk":5,"migraine_risk":7,"frizz_risk":1,"updated_at":"2026-05-31T16:30:55.483932+05:30"},{"city":"Madurai","state":"Tamil Nadu","latitude":9.9252,"longitude":78.1198,"temp":35.0,"humidity":46,"rain":0.0,"pressure":990.2,"uv_index":8.7,"wind_gusts":33.1,"aqi":97,"pm10":36.2,"pm2_5":17.2,"no2":1.2,"co":165.0,"o3":138.0,"so2":2.4,"mosquito_risk":0,"arthritis_risk":5,"migraine_risk":7,"frizz_risk":1,"updated_at":"2026-05-31T16:30:55.483943+05:30"},{"city":"Trichy","state":"Tamil Nadu","latitude":10.7905,"longitude":78.7047,"temp":34.2,"humidity":45,"rain":0.0,"pressure":996.8,"uv_index":8.9,"wind_gusts":34.2,"aqi":53,"pm10":25.6,"pm2_5":13.2,"no2":4.8,"co":140.0,"o3":126.0,"so2":3.0,"mosquito_risk":0,"arthritis_risk":5,"migraine_risk":7,"frizz_risk":1,"updated_at":"2026-05-31T16:30:55.483951+05:30"},{"city":"Salem","state":"Tamil Nadu","latitude":11.6643,"longitude":78.146,"temp":33.3,"humidity":46,"rain":0.1,"pressure":975.6,"uv_index":8.95,"wind_gusts":47.9,"aqi":122,"pm10":31.7,"pm2_5":19.9,"no2":3.4,"co":188.0,"o3":165.0,"so2":8.2,"mosquito_risk":3,"arthritis_risk":5,"migraine_risk":7,"frizz_risk":1,"updated_at":"2026-05-31T16:30:55.483960+05:30"},{"city":"Tirunelveli","state":"Tamil Nadu","latitude":8.7139,"longitude":77.7567,"temp":37.7,"humidity":33,"rain":0.0,"pressure":1000.2,"uv_index":8.35,"wind_gusts":24.5,"aqi":35,"pm10":8.1,"pm2_5":4.9,"no2":1.7,"co":121.0,"o3":75.0,"so2":0.8,"mosquito_risk":0,"arthritis_risk":5,"migraine_risk":7,"frizz_risk":1,"updated_at":"2026-05-31T16:30:55.483967+05:30"},{"city":"Vellore","state":"Tamil Nadu","latitude":12.9165,"longitude":79.1325,"temp":33.0,"humidity":54,"rain":0.1,"pressure":981.8,"uv_index":8.7,"wind_gusts":37.1,"aqi":99,"pm10":28.7,"pm2_5":19.4,"no2":6.3,"co":191.0,"o3":114.0,"so2":2.5,"mosquito_risk":3,"arthritis_risk":5,"migraine_risk":7,"frizz_risk":1,"updated_at":"2026-05-31T16:30:55.483975+05:30"},{"city":"Erode","state":"Tamil Nadu","latitude":11.341,"longitude":77.7172,"temp":35.8,"humidity":38,"rain":0.0,"pressure":986.5,"uv_index":8.5,"wind_gusts":27.7,"aqi":68,"pm10":25.7,"pm2_5":13.5,"no2":2.7,"co":167.0,"o3":131.0,"so2":2.0,"mosquito_risk":0,"arthritis_risk":5,"migraine_risk":10,"frizz_risk":1,"updated_at":"2026-05-31T16:30:55.483982+05:30"},{"city":"Kochi","state":"Kerala","latitude":9.9312,"longitude":76.2673,"temp":26.1,"humidity":87,"rain":0.3,"pressure":1008.8,"uv_index":7.7,"wind_gusts":32.8,"aqi":61,"pm10":9.2,"pm2_5":6.1,"no2":4.1,"co":124.0,"o3":70.0,"so2":2.5,"mosquito_risk":10,"arthritis_risk":0,"migraine_risk":4,"frizz_risk":1,"updated_at":"2026-05-31T16:30:55.483989+05:30"},{"city":"Thiruvananthapuram","state":"Kerala","latitude":8.5241,"longitude":76.9366,"temp":27.8,"humidity":83,"rain":0.1,"pressure":1007.9,"uv_index":7.3,"wind_gusts":31.3,"aqi":31,"pm10":7.0,"pm2_5":4.3,"no2":1.1,"co":115.0,"o3":68.0,"so2":0.5,"mosquito_risk":10,"arthritis_risk":5,"migraine_risk":4,"frizz_risk":1,"updated_at":"2026-05-31T16:30:55.483997+05:30"},{"city":"Kozhikode","state":"Kerala","latitude":11.2588,"longitude":75.7804,"temp":27.9,"humidity":86,"rain":0.1,"pressure":1007.3,"uv_index":8.65,"wind_gusts":29.2,"aqi":31,"pm10":6.0,"pm2_5":3.6,"no2":0.8,"co":140.0,"o3":67.0,"so2":0.6,"mosquito_risk":10,"arthritis_risk":5,"migraine_risk":4,"frizz_risk":1,"updated_at":"2026-05-31T16:30:55.484004+05:30"},{"city":"Thrissur","state":"Kerala","latitude":10.5276,"longitude":76.2144,"temp":28.6,"humidity":79,"rain":0.1,"pressure":1006.3,"uv_index":7.95,"wind_gusts":32.4,"aqi":56,"pm10":11.1,"pm2_5":7.5,"no2":1.9,"co":89.0,"o3":73.0,"so2":1.5,"mosquito_risk":10,"arthritis_risk":5,"migraine_risk":4,"frizz_risk":1,"updated_at":"2026-05-31T16:30:55.484013+05:30"},{"city":"Kannur","state":"Kerala","latitude":11.8745,"longitude":75.3704,"temp":27.4,"humidity":93,"rain":0.2,"pressure":1006.7,"uv_index":7.2,"wind_gusts":31.0,"aqi":39,"pm10":8.2,"pm2_5":5.8,"no2":1.9,"co":161.0,"o3":65.0,"so2":1.1,"mosquito_risk":10,"arthritis_risk":5,"migraine_risk":4,"frizz_risk":1,"updated_at":"2026-05-31T16:30:55.484020+05:30"},{"city":"Patna","state":"Bihar","latitude":25.5941,"longitude":85.1376,"temp":33.2,"humidity":55,"rain":0.0,"pressure":997.2,"uv_index":8.8,"wind_gusts":33.5,"aqi":191,"pm10":79.4,"pm2_5":55.9,"no2":6.8,"co":371.0,"o3":186.0,"so2":14.2,"mosquito_risk":0,"arthritis_risk":5,"migraine_risk":7,"frizz_risk":1,"updated_at":"2026-05-31T16:30:55.484028+05:30"},{"city":"Gaya","state":"Bihar","latitude":24.7914,"longitude":85.0002,"temp":33.8,"humidity":50,"rain":0.0,"pressure":990.6,"uv_index":8.85,"wind_gusts":21.2,"aqi":181,"pm10":69.6,"pm2_5":53.4,"no2":3.4,"co":291.0,"o3":182.0,"so2":16.5,"mosquito_risk":0,"arthritis_risk":5,"migraine_risk":7,"frizz_risk":1,"updated_at":"2026-05-31T16:30:55.484035+05:30"},{"city":"Muzaffarpur","state":"Bihar","latitude":26.1209,"longitude":85.3647,"temp":33.5,"humidity":52,"rain":0.0,"pressure":997.2,"uv_index":8.8,"wind_gusts":33.5,"aqi":187,"pm10":76.8,"pm2_5":54.8,"no2":7.1,"co":403.0,"o3":177.0,"so2":13.8,"mosquito_risk":0,"arthritis_risk":5,"migraine_risk":7,"frizz_risk":1,"updated_at":"2026-05-31T16:30:55.484042+05:30"},{"city":"Bhagalpur","state":"Bihar","latitude":25.2425,"longitude":87.0117,"temp":33.5,"humidity":55,"rain":0.0,"pressure":997.6,"uv_index":8.8,"wind_gusts":25.9,"aqi":202,"pm10":91.3,"pm2_5":64.0,"no2":5.2,"co":341.0,"o3":217.0,"so2":26.9,"mosquito_risk":0,"arthritis_risk":5,"migraine_risk":7,"frizz_risk":1,"updated_at":"2026-05-31T16:30:55.484049+05:30"},{"city":"Ranchi","state":"Jharkhand","latitude":23.3441,"longitude":85.3096,"temp":27.9,"humidity":66,"rain":0.0,"pressure":936.0,"uv_index":9.25,"wind_gusts":32.4,"aqi":127,"pm10":52.3,"pm2_5":35.9,"no2":1.4,"co":238.0,"o3":143.0,"so2":5.4,"mosquito_risk":7,"arthritis_risk":5,"migraine_risk":7,"frizz_risk":1,"updated_at":"2026-05-31T16:30:55.484056+05:30"},{"city":"Jamshedpur","state":"Jharkhand","latitude":22.8046,"longitude":86.2029,"temp":26.8,"humidity":88,"rain":0.1,"pressure":988.4,"uv_index":5.55,"wind_gusts":36.7,"aqi":113,"pm10":54.4,"pm2_5":34.8,"no2":4.5,"co":384.0,"o3":133.0,"so2":9.6,"mosquito_risk":10,"arthritis_risk":5,"migraine_risk":3,"frizz_risk":1,"updated_at":"2026-05-31T16:30:55.484063+05:30"},{"city":"Dhanbad","state":"Jharkhand","latitude":23.7957,"longitude":86.4304,"temp":31.7,"humidity":57,"rain":0.0,"pressure":977.1,"uv_index":8.85,"wind_gusts":24.5,"aqi":164,"pm10":86.8,"pm2_5":69.2,"no2":17.7,"co":450.0,"o3":189.0,"so2":54.6,"mosquito_risk":0,"arthritis_risk":5,"migraine_risk":7,"frizz_risk":1,"updated_at":"2026-05-31T16:30:55.484071+05:30"},{"city":"Bokaro","state":"Jharkhand","latitude":23.6693,"longitude":86.1511,"temp":29.9,"humidity":72,"rain":0.0,"pressure":980.9,"uv_index":9.05,"wind_gusts":27.0,"aqi":171,"pm10":85.9,"pm2_5":68.5,"no2":18.2,"co":983.0,"o3":202.0,"so2":64.8,"mosquito_risk":7,"arthritis_risk":5,"migraine_risk":7,"frizz_risk":1,"updated_at":"2026-05-31T16:30:55.484078+05:30"},{"city":"Bhubaneswar","state":"Odisha","latitude":20.2961,"longitude":85.8245,"temp":29.9,"humidity":84,"rain":0.2,"pressure":999.1,"uv_index":9.05,"wind_gusts":26.3,"aqi":102,"pm10":26.4,"pm2_5":20.4,"no2":3.8,"co":304.0,"o3":127.0,"so2":5.4,"mosquito_risk":10,"arthritis_risk":5,"migraine_risk":7,"frizz_risk":1,"updated_at":"2026-05-31T16:30:55.484085+05:30"},{"city":"Cuttack","state":"Odisha","latitude":20.4625,"longitude":85.8828,"temp":29.1,"humidity":88,"rain":0.3,"pressure":1001.0,"uv_index":9.1,"wind_gusts":24.5,"aqi":102,"pm10":26.4,"pm2_5":20.4,"no2":3.8,"co":276.0,"o3":127.0,"so2":5.4,"mosquito_risk":10,"arthritis_risk":5,"migraine_risk":4,"frizz_risk":1,"updated_at":"2026-05-31T16:30:55.484092+05:30"},{"city":"Rourkela","state":"Odisha","latitude":22.2604,"longitude":84.8536,"temp":31.2,"humidity":62,"rain":0.0,"pressure":981.8,"uv_index":8.35,"wind_gusts":37.1,"aqi":151,"pm10":68.9,"pm2_5":46.4,"no2":3.4,"co":284.0,"o3":181.0,"so2":16.2,"mosquito_risk":3,"arthritis_risk":5,"migraine_risk":7,"frizz_risk":1,"updated_at":"2026-05-31T16:30:55.484099+05:30"},{"city":"Raipur","state":"Chhattisgarh","latitude":21.2514,"longitude":81.6296,"temp":39.0,"humidity":21,"rain":0.0,"pressure":970.7,"uv_index":8.85,"wind_gusts":31.3,"aqi":138,"pm10":42.1,"pm2_5":25.8,"no2":5.1,"co":226.0,"o3":169.0,"so2":23.3,"mosquito_risk":0,"arthritis_risk":5,"migraine_risk":10,"frizz_risk":0,"updated_at":"2026-05-31T16:30:55.484106+05:30"},{"city":"Bhilai","state":"Chhattisgarh","latitude":21.1938,"longitude":81.3509,"temp":38.7,"humidity":21,"rain":0.0,"pressure":971.1,"uv_index":8.95,"wind_gusts":29.5,"aqi":131,"pm10":48.1,"pm2_5":28.8,"no2":8.4,"co":242.0,"o3":166.0,"so2":31.1,"mosquito_risk":0,"arthritis_risk":5,"migraine_risk":10,"frizz_risk":0,"updated_at":"2026-05-31T16:30:55.484114+05:30"},{"city":"Guwahati","state":"Assam","latitude":26.1158,"longitude":91.7086,"temp":32.3,"humidity":60,"rain":0.0,"pressure":997.5,"uv_index":8.75,"wind_gusts":29.9,"aqi":80,"pm10":29.7,"pm2_5":18.2,"no2":2.5,"co":328.0,"o3":113.0,"so2":2.0,"mosquito_risk":0,"arthritis_risk":5,"migraine_risk":7,"frizz_risk":1,"updated_at":"2026-05-31T16:30:55.484121+05:30"},{"city":"Agartala","state":"Tripura","latitude":23.8315,"longitude":91.2868,"temp":32.8,"humidity":59,"rain":0.0,"pressure":1002.1,"uv_index":8.85,"wind_gusts":23.8,"aqi":176,"pm10":53.3,"pm2_5":36.2,"no2":9.8,"co":328.0,"o3":168.0,"so2":10.2,"mosquito_risk":0,"arthritis_risk":5,"migraine_risk":4,"frizz_risk":1,"updated_at":"2026-05-31T16:30:55.484128+05:30"},{"city":"Shillong","state":"Meghalaya","latitude":25.5788,"longitude":91.8933,"temp":21.1,"humidity":97,"rain":0.2,"pressure":856.4,"uv_index":9.05,"wind_gusts":23.8,"aqi":65,"pm10":26.1,"pm2_5":17.3,"no2":2.6,"co":237.0,"o3":117.0,"so2":2.8,"mosquito_risk":6,"arthritis_risk":5,"migraine_risk":7,"frizz_risk":1,"updated_at":"2026-05-31T16:30:55.484135+05:30"},{"city":"Imphal","state":"Manipur","latitude":24.817,"longitude":93.9368,"temp":24.4,"humidity":90,"rain":0.1,"pressure":921.5,"uv_index":9.0,"wind_gusts":24.5,"aqi":69,"pm10":4.1,"pm2_5":4.0,"no2":3.9,"co":232.0,"o3":62.0,"so2":1.0,"mosquito_risk":6,"arthritis_risk":5,"migraine_risk":7,"frizz_risk":1,"updated_at":"2026-05-31T16:30:55.484142+05:30"},{"city":"Aizawl","state":"Mizoram","latitude":23.7271,"longitude":92.7176,"temp":23.2,"humidity":93,"rain":0.1,"pressure":890.6,"uv_index":8.2,"wind_gusts":27.7,"aqi":41,"pm10":20.5,"pm2_5":10.8,"no2":2.5,"co":220.0,"o3":66.0,"so2":0.8,"mosquito_risk":6,"arthritis_risk":5,"migraine_risk":7,"frizz_risk":1,"updated_at":"2026-05-31T16:30:55.484149+05:30"},{"city":"Kohima","state":"Nagaland","latitude":25.6701,"longitude":94.1077,"temp":22.0,"humidity":92,"rain":0.0,"pressure":854.4,"uv_index":2.15,"wind_gusts":23.0,"aqi":53,"pm10":12.7,"pm2_5":9.7,"no2":3.4,"co":193.0,"o3":65.0,"so2":0.7,"mosquito_risk":3,"arthritis_risk":5,"migraine_risk":3,"frizz_risk":1,"updated_at":"2026-05-31T16:30:55.484156+05:30"},{"city":"Gangtok","state":"Sikkim","latitude":27.3314,"longitude":88.6138,"temp":23.3,"humidity":63,"rain":0.0,"pressure":838.1,"uv_index":9.15,"wind_gusts":42.5,"aqi":82,"pm10":29.9,"pm2_5":18.8,"no2":2.0,"co":229.0,"o3":128.0,"so2":1.9,"mosquito_risk":3,"arthritis_risk":5,"migraine_risk":7,"frizz_risk":0,"updated_at":"2026-05-31T16:30:55.484162+05:30"},{"city":"Siliguri","state":"West Bengal","latitude":26.7271,"longitude":88.3953,"temp":33.0,"humidity":57,"rain":0.0,"pressure":988.8,"uv_index":8.65,"wind_gusts":20.2,"aqi":143,"pm10":57.3,"pm2_5":35.4,"no2":2.7,"co":411.0,"o3":154.0,"so2":4.9,"mosquito_risk":0,"arthritis_risk":5,"migraine_risk":7,"frizz_risk":1,"updated_at":"2026-05-31T16:30:58.846412+05:30"},{"city":"Durgapur","state":"West Bengal","latitude":23.5204,"longitude":87.3119,"temp":33.2,"humidity":61,"rain":0.0,"pressure":991.4,"uv_index":8.95,"wind_gusts":23.8,"aqi":168,"pm10":86.8,"pm2_5":71.5,"no2":17.4,"co":385.0,"o3":203.0,"so2":53.1,"mosquito_risk":3,"arthritis_risk":5,"migraine_risk":7,"frizz_risk":1,"updated_at":"2026-05-31T16:30:58.846443+05:30"},{"city":"Asansol","state":"West Bengal","latitude":23.6739,"longitude":86.9524,"temp":32.3,"humidity":67,"rain":0.1,"pressure":990.3,"uv_index":9.0,"wind_gusts":29.2,"aqi":159,"pm10":88.0,"pm2_5":72.4,"no2":16.8,"co":395.0,"o3":195.0,"so2":49.2,"mosquito_risk":6,"arthritis_risk":5,"migraine_risk":7,"frizz_risk":1,"updated_at":"2026-05-31T16:30:58.846454+05:30"},{"city":"Pondicherry","state":"Puducherry","latitude":11.9139,"longitude":79.8145,"temp":32.5,"humidity":68,"rain":0.0,"pressure":1005.0,"uv_index":8.8,"wind_gusts":38.9,"aqi":109,"pm10":34.9,"pm2_5":27.6,"no2":9.4,"co":207.0,"o3":150.0,"so2":7.6,"mosquito_risk":3,"arthritis_risk":5,"migraine_risk":4,"frizz_risk":1,"updated_at":"2026-05-31T16:30:58.846463+05:30"},{"city":"Port Blair","state":"Andaman and Nicobar Islands","latitude":11.6234,"longitude":92.7265,"temp":27.7,"humidity":84,"rain":0.1,"pressure":1005.3,"uv_index":8.0,"wind_gusts":36.0,"aqi":36,"pm10":8.4,"pm2_5":5.0,"no2":0.4,"co":134.0,"o3":75.0,"so2":0.4,"mosquito_risk":10,"arthritis_risk":5,"migraine_risk":4,"frizz_risk":1,"updated_at":"2026-05-31T16:30:58.846471+05:30"},{"city":"Haridwar","state":"Uttarakhand","latitude":29.9457,"longitude":78.1642,"temp":28.4,"humidity":56,"rain":0.0,"pressure":974.2,"uv_index":6.4,"wind_gusts":27.4,"aqi":134,"pm10":33.1,"pm2_5":23.0,"no2":1.4,"co":235.0,"o3":159.0,"so2":4.9,"mosquito_risk":4,"arthritis_risk":5,"migraine_risk":7,"frizz_risk":1,"updated_at":"2026-05-31T16:30:58.846479+05:30"},{"city":"Rishikesh","state":"Uttarakhand","latitude":30.0869,"longitude":78.2676,"temp":26.6,"humidity":63,"rain":0.1,"pressure":966.9,"uv_index":6.85,"wind_gusts":29.9,"aqi":130,"pm10":21.2,"pm2_5":16.6,"no2":0.9,"co":232.0,"o3":158.0,"so2":3.7,"mosquito_risk":10,"arthritis_risk":5,"migraine_risk":7,"frizz_risk":1,"updated_at":"2026-05-31T16:30:58.846487+05:30"},{"city":"Nainital","state":"Uttarakhand","latitude":29.3919,"longitude":79.4542,"temp":17.5,"humidity":72,"rain":0.0,"pressure":806.6,"uv_index":6.15,"wind_gusts":25.6,"aqi":102,"pm10":19.8,"pm2_5":11.8,"no2":0.7,"co":242.0,"o3":145.0,"so2":2.2,"mosquito_risk":3,"arthritis_risk":5,"migraine_risk":7,"frizz_risk":0,"updated_at":"2026-05-31T16:30:58.846495+05:30"},{"city":"Mussoorie","state":"Uttarakhand","latitude":30.4599,"longitude":78.0664,"temp":14.1,"humidity":87,"rain":0.0,"pressure":802.8,"uv_index":7.25,"wind_gusts":37.4,"aqi":141,"pm10":28.2,"pm2_5":17.2,"no2":2.1,"co":224.0,"o3":150.0,"so2":3.5,"mosquito_risk":3,"arthritis_risk":10,"migraine_risk":7,"frizz_risk":0,"updated_at":"2026-05-31T16:30:58.846504+05:30"},{"city":"Dharamshala","state":"Himachal Pradesh","latitude":32.219,"longitude":76.3234,"temp":21.3,"humidity":53,"rain":0.0,"pressure":869.5,"uv_index":7.85,"wind_gusts":36.7,"aqi":105,"pm10":19.2,"pm2_5":8.7,"no2":0.4,"co":236.0,"o3":146.0,"so2":0.9,"mosquito_risk":0,"arthritis_risk":5,"migraine_risk":7,"frizz_risk":0,"updated_at":"2026-05-31T16:30:58.846511+05:30"},{"city":"Dalhousie","state":"Himachal Pradesh","latitude":32.5387,"longitude":75.971,"temp":16.9,"humidity":77,"rain":0.0,"pressure":805.3,"uv_index":7.4,"wind_gusts":23.0,"aqi":140,"pm10":49.6,"pm2_5":17.8,"no2":1.1,"co":232.0,"o3":163.0,"so2":2.4,"mosquito_risk":3,"arthritis_risk":5,"migraine_risk":7,"frizz_risk":0,"updated_at":"2026-05-31T16:30:58.846519+05:30"},{"city":"Patiala","state":"Punjab","latitude":30.3398,"longitude":76.3869,"temp":30.1,"humidity":45,"rain":0.0,"pressure":977.7,"uv_index":7.5,"wind_gusts":44.6,"aqi":140,"pm10":411.6,"pm2_5":62.6,"no2":1.7,"co":280.0,"o3":162.0,"so2":7.9,"mosquito_risk":0,"arthritis_risk":5,"migraine_risk":7,"frizz_risk":1,"updated_at":"2026-05-31T16:30:58.846526+05:30"},{"city":"Bhatinda","state":"Punjab","latitude":30.211,"longitude":74.9455,"temp":33.7,"humidity":39,"rain":0.0,"pressure":982.0,"uv_index":8.2,"wind_gusts":33.5,"aqi":184,"pm10":339.9,"pm2_5":67.3,"no2":2.7,"co":234.0,"o3":178.0,"so2":14.2,"mosquito_risk":0,"arthritis_risk":5,"migraine_risk":7,"frizz_risk":1,"updated_at":"2026-05-31T16:30:58.846533+05:30"},{"city":"Rohtak","state":"Haryana","latitude":28.8955,"longitude":76.6066,"temp":30.5,"humidity":52,"rain":0.0,"pressure":980.4,"uv_index":7.6,"wind_gusts":47.5,"aqi":456,"pm10":329.7,"pm2_5":65.9,"no2":6.4,"co":319.0,"o3":180.0,"so2":13.9,"mosquito_risk":0,"arthritis_risk":5,"migraine_risk":7,"frizz_risk":1,"updated_at":"2026-05-31T16:30:58.846540+05:30"},{"city":"Panipat","state":"Haryana","latitude":29.3909,"longitude":76.9635,"temp":28.5,"humidity":62,"rain":0.0,"pressure":979.7,"uv_index":7.4,"wind_gusts":32.4,"aqi":672,"pm10":245.9,"pm2_5":55.1,"no2":6.6,"co":291.0,"o3":188.0,"so2":21.7,"mosquito_risk":7,"arthritis_risk":5,"migraine_risk":7,"frizz_risk":1,"updated_at":"2026-05-31T16:30:58.846548+05:30"},{"city":"Mathura","state":"Uttar Pradesh","latitude":27.4924,"longitude":77.6737,"temp":34.7,"humidity":35,"rain":0.0,"pressure":984.5,"uv_index":7.9,"wind_gusts":40.3,"aqi":506,"pm10":167.6,"pm2_5":34.8,"no2":1.2,"co":285.0,"o3":148.0,"so2":3.0,"mosquito_risk":0,"arthritis_risk":5,"migraine_risk":7,"frizz_risk":1,"updated_at":"2026-05-31T16:30:58.846555+05:30"},{"city":"Vrindavan","state":"Uttar Pradesh","latitude":27.5823,"longitude":77.7027,"temp":34.0,"humidity":37,"rain":0.0,"pressure":985.0,"uv_index":7.85,"wind_gusts":39.6,"aqi":506,"pm10":167.6,"pm2_5":34.8,"no2":1.2,"co":272.0,"o3":148.0,"so2":3.0,"mosquito_risk":0,"arthritis_risk":5,"migraine_risk":7,"frizz_risk":1,"updated_at":"2026-05-31T16:30:58.846562+05:30"},{"city":"Ayodhya","state":"Uttar Pradesh","latitude":26.7922,"longitude":82.1998,"temp":29.4,"humidity":66,"rain":0.0,"pressure":993.5,"uv_index":8.25,"wind_gusts":38.5,"aqi":147,"pm10":48.9,"pm2_5":25.3,"no2":1.2,"co":282.0,"o3":163.0,"so2":4.7,"mosquito_risk":7,"arthritis_risk":5,"migraine_risk":7,"frizz_risk":1,"updated_at":"2026-05-31T16:30:58.846569+05:30"},{"city":"Ratlam","state":"Madhya Pradesh","latitude":23.3315,"longitude":75.0367,"temp":36.2,"humidity":29,"rain":0.0,"pressure":952.9,"uv_index":8.45,"wind_gusts":47.2,"aqi":67,"pm10":58.4,"pm2_5":23.3,"no2":0.6,"co":124.0,"o3":107.0,"so2":3.4,"mosquito_risk":0,"arthritis_risk":5,"migraine_risk":10,"frizz_risk":0,"updated_at":"2026-05-31T16:30:58.846576+05:30"},{"city":"Sagar","state":"Madhya Pradesh","latitude":23.8388,"longitude":78.7378,"temp":33.0,"humidity":37,"rain":0.0,"pressure":948.6,"uv_index":8.65,"wind_gusts":49.0,"aqi":91,"pm10":17.6,"pm2_5":7.5,"no2":0.4,"co":144.0,"o3":135.0,"so2":2.2,"mosquito_risk":0,"arthritis_risk":5,"migraine_risk":7,"frizz_risk":1,"updated_at":"2026-05-31T16:30:58.846583+05:30"},{"city":"Satna","state":"Madhya Pradesh","latitude":24.6005,"longitude":80.8322,"temp":35.5,"humidity":30,"rain":0.0,"pressure":969.0,"uv_index":8.7,"wind_gusts":30.6,"aqi":120,"pm10":51.0,"pm2_5":21.4,"no2":0.9,"co":223.0,"o3":155.0,"so2":5.3,"mosquito_risk":0,"arthritis_risk":5,"migraine_risk":10,"frizz_risk":0,"updated_at":"2026-05-31T16:30:58.846590+05:30"},{"city":"Akola","state":"Maharashtra","latitude":20.7002,"longitude":77.0082,"temp":38.2,"humidity":22,"rain":0.0,"pressure":972.3,"uv_index":8.7,"wind_gusts":64.1,"aqi":71,"pm10":60.1,"pm2_5":23.3,"no2":1.4,"co":123.0,"o3":116.0,"so2":6.1,"mosquito_risk":0,"arthritis_risk":5,"migraine_risk":10,"frizz_risk":0,"updated_at":"2026-05-31T16:30:58.846598+05:30"},{"city":"Amravati","state":"Maharashtra","latitude":20.9374,"longitude":77.7796,"temp":37.7,"humidity":23,"rain":0.0,"pressure":964.5,"uv_index":8.75,"wind_gusts":48.6,"aqi":70,"pm10":54.4,"pm2_5":20.7,"no2":1.8,"co":140.0,"o3":121.0,"so2":6.4,"mosquito_risk":0,"arthritis_risk":5,"migraine_risk":10,"frizz_risk":0,"updated_at":"2026-05-31T16:30:58.846606+05:30"},{"city":"Latur","state":"Maharashtra","latitude":18.4088,"longitude":76.5604,"temp":36.8,"humidity":19,"rain":0.0,"pressure":938.0,"uv_index":8.95,"wind_gusts":44.3,"aqi":64,"pm10":71.9,"pm2_5":22.8,"no2":0.0,"co":128.0,"o3":103.0,"so2":2.0,"mosquito_risk":0,"arthritis_risk":5,"migraine_risk":10,"frizz_risk":0,"updated_at":"2026-05-31T16:30:58.846613+05:30"},{"city":"Nanded","state":"Maharashtra","latitude":19.1383,"longitude":77.3091,"temp":38.2,"humidity":24,"rain":0.0,"pressure":965.6,"uv_index":8.9,"wind_gusts":47.2,"aqi":74,"pm10":89.2,"pm2_5":26.8,"no2":0.6,"co":124.0,"o3":102.0,"so2":1.7,"mosquito_risk":0,"arthritis_risk":5,"migraine_risk":10,"frizz_risk":0,"updated_at":"2026-05-31T16:30:58.846621+05:30"},{"city":"Gulbarga","state":"Karnataka","latitude":17.3297,"longitude":76.8343,"temp":37.5,"humidity":25,"rain":0.0,"pressure":956.4,"uv_index":8.95,"wind_gusts":52.2,"aqi":58,"pm10":47.5,"pm2_5":18.9,"no2":0.8,"co":128.0,"o3":110.0,"so2":2.2,"mosquito_risk":0,"arthritis_risk":5,"migraine_risk":10,"frizz_risk":0,"updated_at":"2026-05-31T16:30:58.846629+05:30"},{"city":"Bidar","state":"Karnataka","latitude":17.9104,"longitude":77.5199,"temp":35.5,"humidity":31,"rain":0.0,"pressure":933.8,"uv_index":9.0,"wind_gusts":45.4,"aqi":72,"pm10":71.7,"pm2_5":26.8,"no2":0.0,"co":145.0,"o3":118.0,"so2":3.5,"mosquito_risk":0,"arthritis_risk":5,"migraine_risk":10,"frizz_risk":0,"updated_at":"2026-05-31T16:30:58.846636+05:30"},{"city":"Hospet","state":"Karnataka","latitude":15.2689,"longitude":76.3909,"temp":34.1,"humidity":45,"rain":0.0,"pressure":953.8,"uv_index":8.9,"wind_gusts":52.2,"aqi":47,"pm10":24.4,"pm2_5":12.6,"no2":1.9,"co":141.0,"o3":109.0,"so2":3.5,"mosquito_risk":0,"arthritis_risk":5,"migraine_risk":7,"frizz_risk":1,"updated_at":"2026-05-31T16:30:58.846643+05:30"},{"city":"Tirupur","state":"Tamil Nadu","latitude":11.1085,"longitude":77.3411,"temp":31.4,"humidity":54,"rain":0.2,"pressure":973.7,"uv_index":8.45,"wind_gusts":36.0,"aqi":61,"pm10":16.8,"pm2_5":10.3,"no2":2.9,"co":155.0,"o3":115.0,"so2":2.4,"mosquito_risk":3,"arthritis_risk":5,"migraine_risk":7,"frizz_risk":1,"updated_at":"2026-05-31T16:30:58.846651+05:30"},{"city":"Alappuzha","state":"Kerala","latitude":9.4981,"longitude":76.3388,"temp":26.5,"humidity":86,"rain":0.1,"pressure":1008.9,"uv_index":6.4,"wind_gusts":27.7,"aqi":41,"pm10":8.4,"pm2_5":5.3,"no2":2.8,"co":103.0,"o3":65.0,"so2":1.2,"mosquito_risk":10,"arthritis_risk":0,"migraine_risk":4,"frizz_risk":1,"updated_at":"2026-05-31T16:30:58.846659+05:30"},{"city":"Munnar","state":"Kerala","latitude":10.0889,"longitude":77.0595,"temp":20.4,"humidity":92,"rain":0.0,"pressure":857.1,"uv_index":7.8,"wind_gusts":25.9,"aqi":42,"pm10":29.9,"pm2_5":13.2,"no2":2.4,"co":134.0,"o3":88.0,"so2":1.6,"mosquito_risk":3,"arthritis_risk":5,"migraine_risk":7,"frizz_risk":1,"updated_at":"2026-05-31T16:30:58.846666+05:30"},{"city":"Silchar","state":"Assam","latitude":24.8333,"longitude":92.7789,"temp":32.5,"humidity":62,"rain":0.0,"pressure":1000.8,"uv_index":8.2,"wind_gusts":20.2,"aqi":111,"pm10":38.3,"pm2_5":22.2,"no2":2.0,"co":233.0,"o3":111.0,"so2":3.6,"mosquito_risk":3,"arthritis_risk":5,"migraine_risk":4,"frizz_risk":1,"updated_at":"2026-05-31T16:30:58.846673+05:30"},{"city":"Dibrugarh","state":"Assam","latitude":27.4728,"longitude":94.912,"temp":29.9,"humidity":82,"rain":0.0,"pressure":992.0,"uv_index":3.4,"wind_gusts":22.7,"aqi":116,"pm10":17.0,"pm2_5":13.7,"no2":3.3,"co":215.0,"o3":79.0,"so2":1.1,"mosquito_risk":7,"arthritis_risk":5,"migraine_risk":3,"frizz_risk":1,"updated_at":"2026-05-31T16:30:58.846680+05:30"}]