[{"city":"Delhi","state":"Delhi","latitude":28.6139,"longitude":77.209,"temp":23.8,"humidity":48,"rain":0.0,"pressure":985.4,"uv_index":6.15,"wind_gusts":25.6,"aqi":192,"pm10":418.2,"pm2_5":95.0,"mosquito_risk":0,"arthritis_risk":5,"migraine_risk":7,"frizz_risk":0,"updated_at":"2026-03-11T23:23:17.124183+05:30"},{"city":"Mumbai","state":"Maharashtra","latitude":19.076,"longitude":72.8777,"temp":27.9,"humidity":87,"rain":0.0,"pressure":1010.8,"uv_index":7.6,"wind_gusts":23.4,"aqi":168,"pm10":62.4,"pm2_5":57.0,"mosquito_risk":7,"arthritis_risk":0,"migraine_risk":4,"frizz_risk":1,"updated_at":"2026-03-11T23:23:17.124217+05:30"},{"city":"Bangalore","state":"Karnataka","latitude":12.9716,"longitude":77.5946,"temp":23.4,"humidity":57,"rain":0.0,"pressure":913.9,"uv_index":9.25,"wind_gusts":27.7,"aqi":61,"pm10":19.8,"pm2_5":19.2,"mosquito_risk":0,"arthritis_risk":5,"migraine_risk":7,"frizz_risk":0,"updated_at":"2026-03-11T23:23:17.124232+05:30"},{"city":"Hyderabad","state":"Telangana","latitude":17.385,"longitude":78.4867,"temp":24.8,"humidity":54,"rain":0.0,"pressure":956.0,"uv_index":8.6,"wind_gusts":24.8,"aqi":82,"pm10":47.4,"pm2_5":38.8,"mosquito_risk":0,"arthritis_risk":5,"migraine_risk":7,"frizz_risk":0,"updated_at":"2026-03-11T23:23:17.124241+05:30"},{"city":"Chennai","state":"Tamil Nadu","latitude":13.0827,"longitude":80.2707,"temp":25.8,"humidity":85,"rain":0.0,"pressure":1010.5,"uv_index":9.0,"wind_gusts":31.7,"aqi":67,"pm10":25.0,"pm2_5":20.8,"mosquito_risk":7,"arthritis_risk":0,"migraine_risk":4,"frizz_risk":1,"updated_at":"2026-03-11T23:23:17.124249+05:30"},{"city":"Kolkata","state":"West Bengal","latitude":22.5726,"longitude":88.3639,"temp":24.6,"humidity":91,"rain":0.0,"pressure":1008.7,"uv_index":7.5,"wind_gusts":22.0,"aqi":135,"pm10":50.9,"pm2_5":48.1,"mosquito_risk":3,"arthritis_risk":0,"migraine_risk":4,"frizz_risk":1,"updated_at":"2026-03-11T23:23:17.124258+05:30"},{"city":"Pune","state":"Maharashtra","latitude":18.5204,"longitude":73.8567,"temp":24.6,"humidity":79,"rain":0.0,"pressure":951.1,"uv_index":8.15,"wind_gusts":31.3,"aqi":116,"pm10":57.3,"pm2_5":53.6,"mosquito_risk":3,"arthritis_risk":5,"migraine_risk":7,"frizz_risk":1,"updated_at":"2026-03-11T23:23:17.124268+05:30"},{"city":"Ahmedabad","state":"Gujarat","latitude":23.0225,"longitude":72.5714,"temp":27.3,"humidity":31,"rain":0.0,"pressure":1004.9,"uv_index":7.4,"wind_gusts":25.9,"aqi":100,"pm10":28.6,"pm2_5":27.5,"mosquito_risk":4,"arthritis_risk":5,"migraine_risk":4,"frizz_risk":0,"updated_at":"2026-03-11T23:23:17.124275+05:30"},{"city":"Jaipur","state":"Rajasthan","latitude":26.9124,"longitude":75.7873,"temp":27.8,"humidity":22,"rain":0.0,"pressure":962.9,"uv_index":6.85,"wind_gusts":33.1,"aqi":102,"pm10":80.1,"pm2_5":37.7,"mosquito_risk":4,"arthritis_risk":5,"migraine_risk":7,"frizz_risk":0,"updated_at":"2026-03-11T23:23:17.124282+05:30"},{"city":"Lucknow","state":"Uttar Pradesh","latitude":26.8467,"longitude":80.9462,"temp":25.1,"humidity":64,"rain":0.0,"pressure":995.5,"uv_index":6.6,"wind_gusts":28.8,"aqi":177,"pm10":293.4,"pm2_5":70.8,"mosquito_risk":7,"arthritis_risk":5,"migraine_risk":7,"frizz_risk":1,"updated_at":"2026-03-11T23:23:17.124289+05:30"},{"city":"Kanpur","state":"Uttar Pradesh","latitude":26.4499,"longitude":80.3319,"temp":25.4,"humidity":69,"rain":0.0,"pressure":994.0,"uv_index":6.6,"wind_gusts":23.8,"aqi":172,"pm10":443.3,"pm2_5":78.0,"mosquito_risk":7,"arthritis_risk":5,"migraine_risk":7,"frizz_risk":1,"updated_at":"2026-03-11T23:23:17.124296+05:30"},{"city":"Chandigarh","state":"Chandigarh","latitude":30.7333,"longitude":76.7794,"temp":22.5,"humidity":53,"rain":0.0,"pressure":971.1,"uv_index":5.35,"wind_gusts":24.5,"aqi":129,"pm10":69.8,"pm2_5":52.0,"mosquito_risk":0,"arthritis_risk":5,"migraine_risk":3,"frizz_risk":0,"updated_at":"2026-03-11T23:23:17.124303+05:30"},{"city":"Srinagar","state":"Jammu and Kashmir","latitude":34.0837,"longitude":74.7973,"temp":8.7,"humidity":96,"rain":0.0,"pressure":844.6,"uv_index":4.55,"wind_gusts":28.1,"aqi":115,"pm10":84.8,"pm2_5":76.4,"mosquito_risk":3,"arthritis_risk":10,"migraine_risk":3,"frizz_risk":0,"updated_at":"2026-03-11T23:23:17.124310+05:30"},{"city":"Jammu","state":"Jammu and Kashmir","latitude":32.7266,"longitude":74.857,"temp":20.1,"humidity":65,"rain":0.0,"pressure":975.5,"uv_index":5.4,"wind_gusts":27.0,"aqi":86,"pm10":32.7,"pm2_5":25.8,"mosquito_risk":3,"arthritis_risk":5,"migraine_risk":3,"frizz_risk":0,"updated_at":"2026-03-11T23:23:17.124317+05:30"},{"city":"Amritsar","state":"Punjab","latitude":31.634,"longitude":74.8723,"temp":22.4,"humidity":89,"rain":0.0,"pressure":983.7,"uv_index":6.45,"wind_gusts":23.8,"aqi":156,"pm10":92.4,"pm2_5":71.9,"mosquito_risk":3,"arthritis_risk":5,"migraine_risk":7,"frizz_risk":1,"updated_at":"2026-03-11T23:23:17.124323+05:30"},{"city":"Ludhiana","state":"Punjab","latitude":30.901,"longitude":75.8573,"temp":24.1,"humidity":57,"rain":0.0,"pressure":981.3,"uv_index":6.25,"wind_gusts":14.8,"aqi":173,"pm10":150.9,"pm2_5":106.6,"mosquito_risk":0,"arthritis_risk":5,"migraine_risk":7,"frizz_risk":0,"updated_at":"2026-03-11T23:23:17.124329+05:30"},{"city":"Jalandhar","state":"Punjab","latitude":31.326,"longitude":75.5762,"temp":23.7,"humidity":64,"rain":0.0,"pressure":982.5,"uv_index":6.5,"wind_gusts":17.6,"aqi":166,"pm10":132.2,"pm2_5":95.2,"mosquito_risk":3,"arthritis_risk":5,"migraine_risk":7,"frizz_risk":1,"updated_at":"2026-03-11T23:23:17.124338+05:30"},{"city":"Dehradun","state":"Uttarakhand","latitude":30.6284,"longitude":78.0322,"temp":15.0,"humidity":63,"rain":0.0,"pressure":831.5,"uv_index":6.0,"wind_gusts":28.8,"aqi":89,"pm10":37.8,"pm2_5":27.8,"mosquito_risk":3,"arthritis_risk":5,"migraine_risk":3,"frizz_risk":0,"updated_at":"2026-03-11T23:23:17.124344+05:30"},{"city":"Shimla","state":"Himachal Pradesh","latitude":31.1048,"longitude":77.1734,"temp":12.8,"humidity":72,"rain":0.0,"pressure":785.8,"uv_index":5.95,"wind_gusts":46.8,"aqi":97,"pm10":46.0,"pm2_5":35.2,"mosquito_risk":3,"arthritis_risk":5,"migraine_risk":3,"frizz_risk":0,"updated_at":"2026-03-11T23:23:17.124352+05:30"},{"city":"Manali","state":"Himachal Pradesh","latitude":32.2396,"longitude":77.1887,"temp":14.9,"humidity":57,"rain":0.0,"pressure":823.7,"uv_index":6.55,"wind_gusts":42.5,"aqi":65,"pm10":11.5,"pm2_5":6.7,"mosquito_risk":0,"arthritis_risk":5,"migraine_risk":7,"frizz_risk":0,"updated_at":"2026-03-11T23:23:17.124359+05:30"},{"city":"Gurgaon","state":"Haryana","latitude":28.4595,"longitude":77.0266,"temp":21.1,"humidity":58,"rain":0.0,"pressure":983.8,"uv_index":6.25,"wind_gusts":24.5,"aqi":637,"pm10":504.8,"pm2_5":126.7,"mosquito_risk":0,"arthritis_risk":5,"migraine_risk":7,"frizz_risk":0,"updated_at":"2026-03-11T23:23:17.124366+05:30"},{"city":"Noida","state":"Uttar Pradesh","latitude":28.5355,"longitude":77.391,"temp":23.4,"humidity":50,"rain":0.0,"pressure":986.9,"uv_index":6.15,"wind_gusts":25.9,"aqi":637,"pm10":504.8,"pm2_5":126.7,"mosquito_risk":0,"arthritis_risk":5,"migraine_risk":7,"frizz_risk":0,"updated_at":"2026-03-11T23:23:17.124372+05:30"},{"city":"Ghaziabad","state":"Uttar Pradesh","latitude":28.6692,"longitude":77.4538,"temp":21.9,"humidity":57,"rain":0.0,"pressure":984.9,"uv_index":6.1,"wind_gusts":24.5,"aqi":166,"pm10":342.7,"pm2_5":79.2,"mosquito_risk":0,"arthritis_risk":5,"migraine_risk":7,"frizz_risk":0,"updated_at":"2026-03-11T23:23:17.124377+05:30"},{"city":"Faridabad","state":"Haryana","latitude":28.4089,"longitude":77.3178,"temp":20.9,"humidity":57,"rain":0.0,"pressure":986.2,"uv_index":6.15,"wind_gusts":23.0,"aqi":637,"pm10":504.8,"pm2_5":126.7,"mosquito_risk":0,"arthritis_risk":5,"migraine_risk":7,"frizz_risk":0,"updated_at":"2026-03-11T23:23:17.124383+05:30"},{"city":"Meerut","state":"Uttar Pradesh","latitude":28.9845,"longitude":77.7064,"temp":20.5,"humidity":71,"rain":0.0,"pressure":983.5,"uv_index":5.75,"wind_gusts":29.2,"aqi":166,"pm10":342.7,"pm2_5":79.2,"mosquito_risk":3,"arthritis_risk":5,"migraine_risk":3,"frizz_risk":0,"updated_at":"2026-03-11T23:23:17.124389+05:30"},{"city":"Agra","state":"Uttar Pradesh","latitude":27.1767,"longitude":78.0081,"temp":21.3,"humidity":74,"rain":0.0,"pressure":990.3,"uv_index":6.5,"wind_gusts":18.4,"aqi":341,"pm10":547.6,"pm2_5":104.8,"mosquito_risk":3,"arthritis_risk":5,"migraine_risk":7,"frizz_risk":1,"updated_at":"2026-03-11T23:23:17.124395+05:30"},{"city":"Varanasi","state":"Uttar Pradesh","latitude":25.3176,"longitude":82.9739,"temp":23.1,"humidity":76,"rain":0.0,"pressure":999.7,"uv_index":7.3,"wind_gusts":23.0,"aqi":182,"pm10":85.9,"pm2_5":61.7,"mosquito_risk":3,"arthritis_risk":5,"migraine_risk":7,"frizz_risk":1,"updated_at":"2026-03-11T23:23:17.124403+05:30"},{"city":"Prayagraj","state":"Uttar Pradesh","latitude":25.4358,"longitude":81.8463,"temp":25.2,"humidity":62,"rain":0.0,"pressure":998.5,"uv_index":7.15,"wind_gusts":23.8,"aqi":180,"pm10":132.7,"pm2_5":74.3,"mosquito_risk":7,"arthritis_risk":5,"migraine_risk":7,"frizz_risk":1,"updated_at":"2026-03-11T23:23:17.124409+05:30"},{"city":"Gorakhpur","state":"Uttar Pradesh","latitude":26.7606,"longitude":83.3732,"temp":24.1,"humidity":79,"rain":0.0,"pressure":999.0,"uv_index":7.0,"wind_gusts":22.0,"aqi":211,"pm10":160.7,"pm2_5":146.2,"mosquito_risk":3,"arthritis_risk":5,"migraine_risk":7,"frizz_risk":1,"updated_at":"2026-03-11T23:23:17.124415+05:30"},{"city":"Bareilly","state":"Uttar Pradesh","latitude":28.367,"longitude":79.4304,"temp":21.0,"humidity":73,"rain":0.0,"pressure":988.6,"uv_index":6.35,"wind_gusts":30.6,"aqi":192,"pm10":170.4,"pm2_5":59.6,"mosquito_risk":3,"arthritis_risk":5,"migraine_risk":7,"frizz_risk":0,"updated_at":"2026-03-11T23:23:17.124421+05:30"},{"city":"Aligarh","state":"Uttar Pradesh","latitude":27.8974,"longitude":78.088,"temp":21.2,"humidity":58,"rain":0.0,"pressure":987.8,"uv_index":6.25,"wind_gusts":25.6,"aqi":402,"pm10":694.8,"pm2_5":127.6,"mosquito_risk":0,"arthritis_risk":5,"migraine_risk":7,"frizz_risk":0,"updated_at":"2026-03-11T23:23:17.124428+05:30"},{"city":"Moradabad","state":"Uttar Pradesh","latitude":28.8386,"longitude":78.7733,"temp":20.8,"humidity":73,"rain":0.0,"pressure":985.6,"uv_index":6.15,"wind_gusts":34.6,"aqi":184,"pm10":119.0,"pm2_5":45.3,"mosquito_risk":3,"arthritis_risk":5,"migraine_risk":7,"frizz_risk":0,"updated_at":"2026-03-11T23:23:17.124436+05:30"},{"city":"Saharanpur","state":"Uttar Pradesh","latitude":29.9637,"longitude":77.546,"temp":20.7,"humidity":68,"rain":0.0,"pressure":977.5,"uv_index":5.45,"wind_gusts":36.0,"aqi":162,"pm10":95.0,"pm2_5":56.0,"mosquito_risk":3,"arthritis_risk":5,"migraine_risk":3,"frizz_risk":0,"updated_at":"2026-03-11T23:23:17.124442+05:30"},{"city":"Jhansi","state":"Uttar Pradesh","latitude":25.4484,"longitude":78.5685,"temp":24.1,"humidity":49,"rain":0.0,"pressure":980.5,"uv_index":7.1,"wind_gusts":27.7,"aqi":94,"pm10":39.6,"pm2_5":24.2,"mosquito_risk":0,"arthritis_risk":5,"migraine_risk":7,"frizz_risk":0,"updated_at":"2026-03-11T23:23:20.393611+05:30"},{"city":"Surat","state":"Gujarat","latitude":21.1702,"longitude":72.8311,"temp":27.8,"humidity":59,"rain":0.0,"pressure":1008.6,"uv_index":7.3,"wind_gusts":27.4,"aqi":147,"pm10":79.4,"pm2_5":77.3,"mosquito_risk":4,"arthritis_risk":0,"migraine_risk":4,"frizz_risk":1,"updated_at":"2026-03-11T23:23:20.393638+05:30"},{"city":"Vadodara","state":"Gujarat","latitude":22.3072,"longitude":73.1812,"temp":29.3,"humidity":30,"rain":0.0,"pressure":1006.6,"uv_index":7.45,"wind_gusts":20.2,"aqi":93,"pm10":43.8,"pm2_5":41.4,"mosquito_risk":4,"arthritis_risk":5,"migraine_risk":4,"frizz_risk":0,"updated_at":"2026-03-11T23:23:20.393650+05:30"},{"city":"Rajkot","state":"Gujarat","latitude":22.3039,"longitude":70.8022,"temp":26.7,"humidity":32,"rain":0.0,"pressure":997.8,"uv_index":7.25,"wind_gusts":32.4,"aqi":106,"pm10":13.7,"pm2_5":13.4,"mosquito_risk":4,"arthritis_risk":5,"migraine_risk":7,"frizz_risk":0,"updated_at":"2026-03-11T23:23:20.393660+05:30"},{"city":"Thane","state":"Maharashtra","latitude":19.2183,"longitude":72.9781,"temp":26.1,"humidity":95,"rain":0.0,"pressure":1010.3,"uv_index":7.6,"wind_gusts":40.7,"aqi":168,"pm10":62.4,"pm2_5":57.0,"mosquito_risk":7,"arthritis_risk":0,"migraine_risk":4,"frizz_risk":1,"updated_at":"2026-03-11T23:23:20.393668+05:30"},{"city":"Nagpur","state":"Maharashtra","latitude":21.1458,"longitude":79.0882,"temp":24.9,"humidity":56,"rain":0.0,"pressure":975.5,"uv_index":8.0,"wind_gusts":12.6,"aqi":88,"pm10":59.3,"pm2_5":45.5,"mosquito_risk":0,"arthritis_risk":5,"migraine_risk":7,"frizz_risk":0,"updated_at":"2026-03-11T23:23:20.393677+05:30"},{"city":"Nashik","state":"Maharashtra","latitude":19.9975,"longitude":73.7898,"temp":24.3,"humidity":58,"rain":0.0,"pressure":948.3,"uv_index":7.75,"wind_gusts":25.6,"aqi":150,"pm10":54.9,"pm2_5":51.7,"mosquito_risk":0,"arthritis_risk":5,"migraine_risk":7,"frizz_risk":0,"updated_at":"2026-03-11T23:23:20.393685+05:30"},{"city":"Aurangabad","state":"Maharashtra","latitude":19.8762,"longitude":75.3433,"temp":24.8,"humidity":43,"rain":0.0,"pressure":946.3,"uv_index":8.3,"wind_gusts":18.4,"aqi":124,"pm10":48.2,"pm2_5":42.8,"mosquito_risk":0,"arthritis_risk":5,"migraine_risk":7,"frizz_risk":0,"updated_at":"2026-03-11T23:23:20.393693+05:30"},{"city":"Solapur","state":"Maharashtra","latitude":17.6599,"longitude":75.9064,"temp":26.6,"humidity":65,"rain":0.0,"pressure":959.3,"uv_index":8.5,"wind_gusts":20.5,"aqi":112,"pm10":35.3,"pm2_5":31.1,"mosquito_risk":7,"arthritis_risk":5,"migraine_risk":7,"frizz_risk":1,"updated_at":"2026-03-11T23:23:20.393702+05:30"},{"city":"Kolhapur","state":"Maharashtra","latitude":16.705,"longitude":74.2433,"temp":24.1,"humidity":86,"rain":0.0,"pressure":950.7,"uv_index":8.65,"wind_gusts":32.4,"aqi":147,"pm10":59.6,"pm2_5":55.4,"mosquito_risk":3,"arthritis_risk":5,"migraine_risk":7,"frizz_risk":1,"updated_at":"2026-03-11T23:23:20.393710+05:30"},{"city":"Goa","state":"Goa","latitude":15.2993,"longitude":74.124,"temp":28.0,"humidity":82,"rain":0.0,"pressure":1000.7,"uv_index":8.65,"wind_gusts":39.6,"aqi":150,"pm10":67.5,"pm2_5":58.9,"mosquito_risk":7,"arthritis_risk":5,"migraine_risk":4,"frizz_risk":1,"updated_at":"2026-03-11T23:23:20.393718+05:30"},{"city":"Jodhpur","state":"Rajasthan","latitude":26.2389,"longitude":73.0243,"temp":25.6,"humidity":29,"rain":0.0,"pressure":986.0,"uv_index":7.15,"wind_gusts":31.7,"aqi":93,"pm10":124.8,"pm2_5":24.6,"mosquito_risk":4,"arthritis_risk":5,"migraine_risk":7,"frizz_risk":0,"updated_at":"2026-03-11T23:23:20.393726+05:30"},{"city":"Udaipur","state":"Rajasthan","latitude":24.5854,"longitude":73.7125,"temp":22.7,"humidity":35,"rain":0.0,"pressure":950.0,"uv_index":7.8,"wind_gusts":26.3,"aqi":93,"pm10":16.1,"pm2_5":15.1,"mosquito_risk":0,"arthritis_risk":5,"migraine_risk":7,"frizz_risk":0,"updated_at":"2026-03-11T23:23:20.393734+05:30"},{"city":"Kota","state":"Rajasthan","latitude":25.2138,"longitude":75.8648,"temp":22.6,"humidity":49,"rain":0.0,"pressure":981.5,"uv_index":7.2,"wind_gusts":18.7,"aqi":78,"pm10":62.4,"pm2_5":33.2,"mosquito_risk":0,"arthritis_risk":5,"migraine_risk":7,"frizz_risk":0,"updated_at":"2026-03-11T23:23:20.393742+05:30"},{"city":"Bikaner","state":"Rajasthan","latitude":28.0229,"longitude":73.3119,"temp":26.7,"humidity":26,"rain":0.0,"pressure":984.6,"uv_index":6.15,"wind_gusts":27.7,"aqi":82,"pm10":83.1,"pm2_5":23.1,"mosquito_risk":4,"arthritis_risk":5,"migraine_risk":7,"frizz_risk":0,"updated_at":"2026-03-11T23:23:20.393749+05:30"},{"city":"Ajmer","state":"Rajasthan","latitude":26.4499,"longitude":74.6399,"temp":23.8,"humidity":34,"rain":0.0,"pressure":957.7,"uv_index":7.2,"wind_gusts":27.7,"aqi":92,"pm10":34.6,"pm2_5":20.0,"mosquito_risk":0,"arthritis_risk":5,"migraine_risk":7,"frizz_risk":0,"updated_at":"2026-03-11T23:23:20.393757+05:30"},{"city":"Gwalior","state":"Madhya Pradesh","latitude":26.2183,"longitude":78.1828,"temp":26.0,"humidity":39,"rain":0.0,"pressure":985.7,"uv_index":6.8,"wind_gusts":29.9,"aqi":104,"pm10":134.1,"pm2_5":41.4,"mosquito_risk":4,"arthritis_risk":5,"migraine_risk":7,"frizz_risk":0,"updated_at":"2026-03-11T23:23:20.393764+05:30"},{"city":"Indore","state":"Madhya Pradesh","latitude":22.7196,"longitude":75.8577,"temp":22.0,"humidity":41,"rain":0.0,"pressure":950.5,"uv_index":7.7,"wind_gusts":20.9,"aqi":77,"pm10":38.8,"pm2_5":30.9,"mosquito_risk":0,"arthritis_risk":5,"migraine_risk":7,"frizz_risk":0,"updated_at":"2026-03-11T23:23:20.393771+05:30"},{"city":"Bhopal","state":"Madhya Pradesh","latitude":23.2599,"longitude":77.4126,"temp":24.5,"humidity":36,"rain":0.0,"pressure":956.6,"uv_index":7.55,"wind_gusts":24.8,"aqi":77,"pm10":38.8,"pm2_5":28.8,"mosquito_risk":0,"arthritis_risk":5,"migraine_risk":7,"frizz_risk":0,"updated_at":"2026-03-11T23:23:20.393778+05:30"},{"city":"Jabalpur","state":"Madhya Pradesh","latitude":23.1815,"longitude":79.9864,"temp":26.2,"humidity":31,"rain":0.0,"pressure":963.9,"uv_index":7.7,"wind_gusts":24.5,"aqi":92,"pm10":85.4,"pm2_5":36.4,"mosquito_risk":4,"arthritis_risk":5,"migraine_risk":7,"frizz_risk":0,"updated_at":"2026-03-11T23:23:20.393785+05:30"},{"city":"Ujjain","state":"Madhya Pradesh","latitude":23.1765,"longitude":75.7885,"temp":23.2,"humidity":54,"rain":0.0,"pressure":956.5,"uv_index":7.65,"wind_gusts":14.8,"aqi":75,"pm10":47.8,"pm2_5":40.2,"mosquito_risk":0,"arthritis_risk":5,"migraine_risk":7,"frizz_risk":0,"updated_at":"2026-03-11T23:23:20.393793+05:30"},{"city":"Visakhapatnam","state":"Andhra Pradesh","latitude":17.6868,"longitude":83.2185,"temp":25.7,"humidity":85,"rain":0.0,"pressure":1006.5,"uv_index":8.6,"wind_gusts":39.2,"aqi":90,"pm10":22.0,"pm2_5":18.9,"mosquito_risk":7,"arthritis_risk":5,"migraine_risk":4,"frizz_risk":1,"updated_at":"2026-03-11T23:23:20.393800+05:30"},{"city":"Vijayawada","state":"Andhra Pradesh","latitude":16.5062,"longitude":80.648,"temp":25.1,"humidity":73,"rain":0.0,"pressure":1005.7,"uv_index":8.7,"wind_gusts":17.6,"aqi":87,"pm10":19.0,"pm2_5":18.4,"mosquito_risk":7,"arthritis_risk":5,"migraine_risk":4,"frizz_risk":1,"updated_at":"2026-03-11T23:23:20.393807+05:30"},{"city":"Guntur","state":"Andhra Pradesh","latitude":16.3067,"longitude":80.4365,"temp":24.5,"humidity":79,"rain":0.0,"pressure":1006.9,"uv_index":8.7,"wind_gusts":18.7,"aqi":76,"pm10":20.0,"pm2_5":19.4,"mosquito_risk":3,"arthritis_risk":5,"migraine_risk":4,"frizz_risk":1,"updated_at":"2026-03-11T23:23:20.393815+05:30"},{"city":"Nellore","state":"Andhra Pradesh","latitude":14.4426,"longitude":79.9865,"temp":24.2,"humidity":90,"rain":0.0,"pressure":1009.4,"uv_index":8.85,"wind_gusts":28.4,"aqi":64,"pm10":19.0,"pm2_5":16.4,"mosquito_risk":3,"arthritis_risk":0,"migraine_risk":4,"frizz_risk":1,"updated_at":"2026-03-11T23:23:20.393823+05:30"},{"city":"Kurnool","state":"Andhra Pradesh","latitude":15.8281,"longitude":78.0373,"temp":28.2,"humidity":45,"rain":0.0,"pressure":979.7,"uv_index":8.7,"wind_gusts":25.2,"aqi":62,"pm10":42.4,"pm2_5":36.2,"mosquito_risk":4,"arthritis_risk":5,"migraine_risk":7,"frizz_risk":0,"updated_at":"2026-03-11T23:23:20.393831+05:30"},{"city":"Kakinada","state":"Andhra Pradesh","latitude":16.9891,"longitude":82.2475,"temp":23.9,"humidity":87,"rain":0.0,"pressure":1010.3,"uv_index":8.65,"wind_gusts":25.9,"aqi":81,"pm10":17.9,"pm2_5":14.8,"mosquito_risk":3,"arthritis_risk":0,"migraine_risk":4,"frizz_risk":1,"updated_at":"2026-03-11T23:23:20.393838+05:30"},{"city":"Tirupati","state":"Andhra Pradesh","latitude":13.6288,"longitude":79.4192,"temp":23.7,"humidity":72,"rain":0.0,"pressure":995.2,"uv_index":9.0,"wind_gusts":32.4,"aqi":78,"pm10":27.9,"pm2_5":26.5,"mosquito_risk":3,"arthritis_risk":5,"migraine_risk":7,"frizz_risk":1,"updated_at":"2026-03-11T23:23:20.393845+05:30"},{"city":"Warangal","state":"Telangana","latitude":17.9689,"longitude":79.5941,"temp":27.0,"humidity":52,"rain":0.0,"pressure":980.8,"uv_index":8.45,"wind_gusts":23.4,"aqi":81,"pm10":48.8,"pm2_5":43.8,"mosquito_risk":4,"arthritis_risk":5,"migraine_risk":7,"frizz_risk":1,"updated_at":"2026-03-11T23:23:20.393853+05:30"},{"city":"Nizamabad","state":"Telangana","latitude":18.6725,"longitude":78.0941,"temp":24.3,"humidity":51,"rain":0.0,"pressure":966.9,"uv_index":8.35,"wind_gusts":26.6,"aqi":119,"pm10":51.1,"pm2_5":45.9,"mosquito_risk":0,"arthritis_risk":5,"migraine_risk":7,"frizz_risk":0,"updated_at":"2026-03-11T23:23:20.393860+05:30"},{"city":"Mysore","state":"Karnataka","latitude":12.2958,"longitude":76.6396,"temp":23.6,"humidity":57,"rain":0.0,"pressure":930.2,"uv_index":9.25,"wind_gusts":28.8,"aqi":61,"pm10":18.0,"pm2_5":17.2,"mosquito_risk":0,"arthritis_risk":5,"migraine_risk":7,"frizz_risk":0,"updated_at":"2026-03-11T23:23:20.393867+05:30"},{"city":"Mangalore","state":"Karnataka","latitude":12.9141,"longitude":74.856,"temp":29.1,"humidity":78,"rain":0.0,"pressure":1009.5,"uv_index":8.9,"wind_gusts":29.5,"aqi":104,"pm10":44.9,"pm2_5":38.4,"mosquito_risk":7,"arthritis_risk":0,"migraine_risk":4,"frizz_risk":1,"updated_at":"2026-03-11T23:23:20.393875+05:30"},{"city":"Hubli-Dharwad","state":"Karnataka","latitude":15.3647,"longitude":75.124,"temp":24.0,"humidity":48,"rain":0.0,"pressure":943.1,"uv_index":8.85,"wind_gusts":37.1,"aqi":84,"pm10":21.4,"pm2_5":19.6,"mosquito_risk":0,"arthritis_risk":5,"migraine_risk":7,"frizz_risk":0,"updated_at":"2026-03-11T23:23:20.393883+05:30"},{"city":"Belgaum","state":"Karnataka","latitude":15.8497,"longitude":74.4977,"temp":23.5,"humidity":77,"rain":0.0,"pressure":928.2,"uv_index":8.9,"wind_gusts":41.0,"aqi":105,"pm10":43.8,"pm2_5":37.7,"mosquito_risk":3,"arthritis_risk":5,"migraine_risk":7,"frizz_risk":1,"updated_at":"2026-03-11T23:23:23.662020+05:30"},{"city":"Coimbatore","state":"Tamil Nadu","latitude":11.0168,"longitude":76.9558,"temp":23.8,"humidity":62,"rain":0.0,"pressure":964.2,"uv_index":9.25,"wind_gusts":35.6,"aqi":70,"pm10":31.0,"pm2_5":29.6,"mosquito_risk":3,"arthritis_risk":5,"migraine_risk":7,"frizz_risk":1,"updated_at":"2026-03-11T23:23:23.662046+05:30"},{"city":"Madurai","state":"Tamil Nadu","latitude":9.9252,"longitude":78.1198,"temp":26.0,"humidity":82,"rain":0.0,"pressure":996.2,"uv_index":8.4,"wind_gusts":31.7,"aqi":63,"pm10":17.4,"pm2_5":16.5,"mosquito_risk":7,"arthritis_risk":5,"migraine_risk":7,"frizz_risk":1,"updated_at":"2026-03-11T23:23:23.662065+05:30"},{"city":"Trichy","state":"Tamil Nadu","latitude":10.7905,"longitude":78.7047,"temp":25.4,"humidity":87,"rain":0.0,"pressure":1002.9,"uv_index":9.15,"wind_gusts":28.8,"aqi":65,"pm10":20.2,"pm2_5":18.9,"mosquito_risk":7,"arthritis_risk":5,"migraine_risk":4,"frizz_risk":1,"updated_at":"2026-03-11T23:23:23.662075+05:30"},{"city":"Salem","state":"Tamil Nadu","latitude":11.6643,"longitude":78.146,"temp":25.7,"humidity":77,"rain":0.0,"pressure":979.8,"uv_index":9.15,"wind_gusts":19.8,"aqi":69,"pm10":20.0,"pm2_5":19.0,"mosquito_risk":7,"arthritis_risk":5,"migraine_risk":7,"frizz_risk":1,"updated_at":"2026-03-11T23:23:23.662084+05:30"},{"city":"Tirunelveli","state":"Tamil Nadu","latitude":8.7139,"longitude":77.7567,"temp":26.1,"humidity":80,"rain":0.0,"pressure":1006.3,"uv_index":6.2,"wind_gusts":25.9,"aqi":53,"pm10":18.5,"pm2_5":16.8,"mosquito_risk":7,"arthritis_risk":5,"migraine_risk":4,"frizz_risk":1,"updated_at":"2026-03-11T23:23:23.662092+05:30"},{"city":"Vellore","state":"Tamil Nadu","latitude":12.9165,"longitude":79.1325,"temp":24.4,"humidity":84,"rain":0.0,"pressure":988.1,"uv_index":9.1,"wind_gusts":34.6,"aqi":89,"pm10":34.7,"pm2_5":33.3,"mosquito_risk":3,"arthritis_risk":5,"migraine_risk":7,"frizz_risk":1,"updated_at":"2026-03-11T23:23:23.662100+05:30"},{"city":"Erode","state":"Tamil Nadu","latitude":11.341,"longitude":77.7172,"temp":26.4,"humidity":72,"rain":0.0,"pressure":991.7,"uv_index":9.15,"wind_gusts":18.7,"aqi":73,"pm10":20.7,"pm2_5":20.0,"mosquito_risk":7,"arthritis_risk":5,"migraine_risk":7,"frizz_risk":1,"updated_at":"2026-03-11T23:23:23.662108+05:30"},{"city":"Kochi","state":"Kerala","latitude":9.9312,"longitude":76.2673,"temp":27.9,"humidity":81,"rain":0.0,"pressure":1011.2,"uv_index":8.25,"wind_gusts":38.9,"aqi":114,"pm10":55.1,"pm2_5":52.9,"mosquito_risk":7,"arthritis_risk":0,"migraine_risk":4,"frizz_risk":1,"updated_at":"2026-03-11T23:23:23.662116+05:30"},{"city":"Thiruvananthapuram","state":"Kerala","latitude":8.5241,"longitude":76.9366,"temp":27.9,"humidity":82,"rain":0.0,"pressure":1010.2,"uv_index":7.3,"wind_gusts":25.6,"aqi":81,"pm10":20.7,"pm2_5":17.6,"mosquito_risk":7,"arthritis_risk":0,"migraine_risk":4,"frizz_risk":1,"updated_at":"2026-03-11T23:23:23.662123+05:30"},{"city":"Kozhikode","state":"Kerala","latitude":11.2588,"longitude":75.7804,"temp":28.7,"humidity":82,"rain":0.0,"pressure":1009.9,"uv_index":8.95,"wind_gusts":31.3,"aqi":115,"pm10":35.6,"pm2_5":30.0,"mosquito_risk":7,"arthritis_risk":0,"migraine_risk":4,"frizz_risk":1,"updated_at":"2026-03-11T23:23:23.662130+05:30"},{"city":"Thrissur","state":"Kerala","latitude":10.5276,"longitude":76.2144,"temp":27.3,"humidity":85,"rain":0.0,"pressure":1009.4,"uv_index":9.05,"wind_gusts":39.2,"aqi":88,"pm10":43.0,"pm2_5":40.4,"mosquito_risk":7,"arthritis_risk":0,"migraine_risk":4,"frizz_risk":1,"updated_at":"2026-03-11T23:23:23.662139+05:30"},{"city":"Kannur","state":"Kerala","latitude":11.8745,"longitude":75.3704,"temp":27.9,"humidity":85,"rain":0.0,"pressure":1009.4,"uv_index":8.95,"wind_gusts":38.9,"aqi":122,"pm10":41.3,"pm2_5":35.7,"mosquito_risk":7,"arthritis_risk":0,"migraine_risk":4,"frizz_risk":1,"updated_at":"2026-03-11T23:23:23.662147+05:30"},{"city":"Patna","state":"Bihar","latitude":25.5941,"longitude":85.1376,"temp":26.1,"humidity":84,"rain":0.0,"pressure":1002.6,"uv_index":6.85,"wind_gusts":24.8,"aqi":200,"pm10":188.1,"pm2_5":176.0,"mosquito_risk":7,"arthritis_risk":5,"migraine_risk":4,"frizz_risk":1,"updated_at":"2026-03-11T23:23:23.662155+05:30"},{"city":"Gaya","state":"Bihar","latitude":24.7914,"longitude":85.0002,"temp":25.6,"humidity":81,"rain":0.0,"pressure":996.3,"uv_index":7.5,"wind_gusts":21.6,"aqi":177,"pm10":171.8,"pm2_5":158.8,"mosquito_risk":7,"arthritis_risk":5,"migraine_risk":7,"frizz_risk":1,"updated_at":"2026-03-11T23:23:23.662163+05:30"},{"city":"Muzaffarpur","state":"Bihar","latitude":26.1209,"longitude":85.3647,"temp":24.4,"humidity":84,"rain":0.0,"pressure":1002.5,"uv_index":7.35,"wind_gusts":22.0,"aqi":215,"pm10":190.0,"pm2_5":177.9,"mosquito_risk":3,"arthritis_risk":5,"migraine_risk":4,"frizz_risk":1,"updated_at":"2026-03-11T23:23:23.662170+05:30"},{"city":"Bhagalpur","state":"Bihar","latitude":25.2425,"longitude":87.0117,"temp":24.9,"humidity":91,"rain":0.0,"pressure":1003.6,"uv_index":7.15,"wind_gusts":18.4,"aqi":175,"pm10":104.3,"pm2_5":96.6,"mosquito_risk":3,"arthritis_risk":5,"migraine_risk":4,"frizz_risk":1,"updated_at":"2026-03-11T23:23:23.662178+05:30"},{"city":"Ranchi","state":"Jharkhand","latitude":23.3441,"longitude":85.3096,"temp":23.2,"humidity":66,"rain":0.0,"pressure":939.9,"uv_index":8.15,"wind_gusts":28.1,"aqi":170,"pm10":100.4,"pm2_5":86.8,"mosquito_risk":3,"arthritis_risk":5,"migraine_risk":7,"frizz_risk":1,"updated_at":"2026-03-11T23:23:23.662185+05:30"},{"city":"Jamshedpur","state":"Jharkhand","latitude":22.8046,"longitude":86.2029,"temp":24.9,"humidity":82,"rain":0.0,"pressure":993.7,"uv_index":8.05,"wind_gusts":27.0,"aqi":162,"pm10":84.1,"pm2_5":73.6,"mosquito_risk":3,"arthritis_risk":5,"migraine_risk":7,"frizz_risk":1,"updated_at":"2026-03-11T23:23:23.662192+05:30"},{"city":"Dhanbad","state":"Jharkhand","latitude":23.7957,"longitude":86.4304,"temp":23.8,"humidity":80,"rain":0.0,"pressure":982.7,"uv_index":7.6,"wind_gusts":28.4,"aqi":196,"pm10":128.1,"pm2_5":120.1,"mosquito_risk":3,"arthritis_risk":5,"migraine_risk":7,"frizz_risk":1,"updated_at":"2026-03-11T23:23:23.662199+05:30"},{"city":"Bokaro","state":"Jharkhand","latitude":23.6693,"longitude":86.1511,"temp":24.1,"humidity":83,"rain":0.0,"pressure":986.9,"uv_index":7.7,"wind_gusts":37.8,"aqi":193,"pm10":123.9,"pm2_5":113.9,"mosquito_risk":3,"arthritis_risk":5,"migraine_risk":7,"frizz_risk":1,"updated_at":"2026-03-11T23:23:23.662207+05:30"},{"city":"Bhubaneswar","state":"Odisha","latitude":20.2961,"longitude":85.8245,"temp":25.8,"humidity":87,"rain":0.0,"pressure":1004.9,"uv_index":8.35,"wind_gusts":28.4,"aqi":98,"pm10":24.3,"pm2_5":21.2,"mosquito_risk":7,"arthritis_risk":5,"migraine_risk":4,"frizz_risk":1,"updated_at":"2026-03-11T23:23:23.662214+05:30"},{"city":"Cuttack","state":"Odisha","latitude":20.4625,"longitude":85.8828,"temp":25.8,"humidity":88,"rain":0.0,"pressure":1006.8,"uv_index":8.4,"wind_gusts":26.3,"aqi":98,"pm10":24.3,"pm2_5":21.2,"mosquito_risk":7,"arthritis_risk":5,"migraine_risk":4,"frizz_risk":1,"updated_at":"2026-03-11T23:23:23.662221+05:30"},{"city":"Rourkela","state":"Odisha","latitude":22.2604,"longitude":84.8536,"temp":25.6,"humidity":68,"rain":0.0,"pressure":987.1,"uv_index":7.95,"wind_gusts":27.4,"aqi":163,"pm10":87.5,"pm2_5":77.5,"mosquito_risk":7,"arthritis_risk":5,"migraine_risk":7,"frizz_risk":1,"updated_at":"2026-03-11T23:23:23.662229+05:30"},{"city":"Raipur","state":"Chhattisgarh","latitude":21.2514,"longitude":81.6296,"temp":25.4,"humidity":35,"rain":0.0,"pressure":976.9,"uv_index":8.05,"wind_gusts":24.1,"aqi":157,"pm10":140.2,"pm2_5":115.9,"mosquito_risk":4,"arthritis_risk":5,"migraine_risk":7,"frizz_risk":0,"updated_at":"2026-03-11T23:23:23.662237+05:30"},{"city":"Bhilai","state":"Chhattisgarh","latitude":21.1938,"longitude":81.3509,"temp":24.5,"humidity":36,"rain":0.0,"pressure":977.2,"uv_index":8.05,"wind_gusts":19.1,"aqi":153,"pm10":122.0,"pm2_5":99.2,"mosquito_risk":0,"arthritis_risk":5,"migraine_risk":7,"frizz_risk":0,"updated_at":"2026-03-11T23:23:23.662244+05:30"},{"city":"Guwahati","state":"Assam","latitude":26.1158,"longitude":91.7086,"temp":24.5,"humidity":86,"rain":0.0,"pressure":1003.1,"uv_index":7.35,"wind_gusts":19.4,"aqi":152,"pm10":67.3,"pm2_5":62.6,"mosquito_risk":3,"arthritis_risk":5,"migraine_risk":4,"frizz_risk":1,"updated_at":"2026-03-11T23:23:23.662251+05:30"},{"city":"Agartala","state":"Tripura","latitude":23.8315,"longitude":91.2868,"temp":22.9,"humidity":90,"rain":0.0,"pressure":1008.9,"uv_index":7.7,"wind_gusts":15.8,"aqi":175,"pm10":86.1,"pm2_5":79.9,"mosquito_risk":3,"arthritis_risk":0,"migraine_risk":4,"frizz_risk":1,"updated_at":"2026-03-11T23:23:23.662259+05:30"},{"city":"Shillong","state":"Meghalaya","latitude":25.5788,"longitude":91.8933,"temp":13.4,"humidity":92,"rain":0.0,"pressure":857.3,"uv_index":6.65,"wind_gusts":31.3,"aqi":117,"pm10":42.6,"pm2_5":39.9,"mosquito_risk":3,"arthritis_risk":10,"migraine_risk":7,"frizz_risk":0,"updated_at":"2026-03-11T23:23:23.662266+05:30"},{"city":"Imphal","state":"Manipur","latitude":24.817,"longitude":93.9368,"temp":18.5,"humidity":85,"rain":0.0,"pressure":925.4,"uv_index":7.95,"wind_gusts":40.3,"aqi":159,"pm10":115.7,"pm2_5":108.7,"mosquito_risk":3,"arthritis_risk":10,"migraine_risk":7,"frizz_risk":0,"updated_at":"2026-03-11T23:23:23.662274+05:30"},{"city":"Aizawl","state":"Mizoram","latitude":23.7271,"longitude":92.7176,"temp":16.5,"humidity":91,"rain":0.0,"pressure":894.2,"uv_index":7.9,"wind_gusts":27.4,"aqi":188,"pm10":152.7,"pm2_5":147.1,"mosquito_risk":3,"arthritis_risk":10,"migraine_risk":7,"frizz_risk":0,"updated_at":"2026-03-11T23:23:23.662282+05:30"},{"city":"Kohima","state":"Nagaland","latitude":25.6701,"longitude":94.1077,"temp":14.9,"humidity":92,"rain":0.0,"pressure":856.4,"uv_index":7.05,"wind_gusts":32.8,"aqi":151,"pm10":76.1,"pm2_5":72.2,"mosquito_risk":3,"arthritis_risk":10,"migraine_risk":7,"frizz_risk":0,"updated_at":"2026-03-11T23:23:23.662289+05:30"},{"city":"Gangtok","state":"Sikkim","latitude":27.3314,"longitude":88.6138,"temp":15.0,"humidity":91,"rain":0.0,"pressure":838.4,"uv_index":6.3,"wind_gusts":19.8,"aqi":121,"pm10":52.3,"pm2_5":48.2,"mosquito_risk":3,"arthritis_risk":10,"migraine_risk":7,"frizz_risk":0,"updated_at":"2026-03-11T23:23:23.662296+05:30"},{"city":"Siliguri","state":"West Bengal","latitude":26.7271,"longitude":88.3953,"temp":21.4,"humidity":72,"rain":0.0,"pressure":996.2,"uv_index":7.35,"wind_gusts":21.2,"aqi":170,"pm10":120.6,"pm2_5":110.1,"mosquito_risk":3,"arthritis_risk":5,"migraine_risk":7,"frizz_risk":1,"updated_at":"2026-03-11T23:23:26.933326+05:30"},{"city":"Durgapur","state":"West Bengal","latitude":23.5204,"longitude":87.3119,"temp":24.0,"humidity":88,"rain":0.0,"pressure":997.8,"uv_index":7.6,"wind_gusts":20.5,"aqi":164,"pm10":111.1,"pm2_5":104.3,"mosquito_risk":3,"arthritis_risk":5,"migraine_risk":7,"frizz_risk":1,"updated_at":"2026-03-11T23:23:26.933349+05:30"},{"city":"Asansol","state":"West Bengal","latitude":23.6739,"longitude":86.9524,"temp":23.7,"humidity":85,"rain":0.0,"pressure":996.4,"uv_index":7.85,"wind_gusts":20.2,"aqi":174,"pm10":112.5,"pm2_5":105.2,"mosquito_risk":3,"arthritis_risk":5,"migraine_risk":7,"frizz_risk":1,"updated_at":"2026-03-11T23:23:26.933358+05:30"},{"city":"Pondicherry","state":"Puducherry","latitude":11.9139,"longitude":79.8145,"temp":25.0,"humidity":93,"rain":0.0,"pressure":1011.7,"uv_index":9.0,"wind_gusts":31.3,"aqi":59,"pm10":21.4,"pm2_5":17.1,"mosquito_risk":7,"arthritis_risk":0,"migraine_risk":4,"frizz_risk":1,"updated_at":"2026-03-11T23:23:26.933366+05:30"},{"city":"Port Blair","state":"Andaman and Nicobar Islands","latitude":11.6234,"longitude":92.7265,"temp":27.8,"humidity":80,"rain":0.0,"pressure":1009.0,"uv_index":8.95,"wind_gusts":20.2,"aqi":56,"pm10":14.0,"pm2_5":11.3,"mosquito_risk":7,"arthritis_risk":0,"migraine_risk":4,"frizz_risk":1,"updated_at":"2026-03-11T23:23:26.933373+05:30"},{"city":"Haridwar","state":"Uttarakhand","latitude":29.9457,"longitude":78.1642,"temp":19.8,"humidity":81,"rain":0.0,"pressure":976.2,"uv_index":5.85,"wind_gusts":38.5,"aqi":150,"pm10":69.2,"pm2_5":47.7,"mosquito_risk":3,"arthritis_risk":10,"migraine_risk":3,"frizz_risk":1,"updated_at":"2026-03-11T23:23:26.933380+05:30"},{"city":"Rishikesh","state":"Uttarakhand","latitude":30.0869,"longitude":78.2676,"temp":20.0,"humidity":73,"rain":0.0,"pressure":969.0,"uv_index":5.95,"wind_gusts":36.4,"aqi":130,"pm10":56.5,"pm2_5":37.0,"mosquito_risk":3,"arthritis_risk":5,"migraine_risk":3,"frizz_risk":0,"updated_at":"2026-03-11T23:23:26.933387+05:30"},{"city":"Nainital","state":"Uttarakhand","latitude":29.3919,"longitude":79.4542,"temp":18.9,"humidity":47,"rain":0.0,"pressure":807.7,"uv_index":6.8,"wind_gusts":64.4,"aqi":157,"pm10":37.1,"pm2_5":26.5,"mosquito_risk":0,"arthritis_risk":5,"migraine_risk":7,"frizz_risk":0,"updated_at":"2026-03-11T23:23:26.933394+05:30"},{"city":"Mussoorie","state":"Uttarakhand","latitude":30.4599,"longitude":78.0664,"temp":17.3,"humidity":59,"rain":0.0,"pressure":804.6,"uv_index":6.0,"wind_gusts":38.9,"aqi":117,"pm10":61.2,"pm2_5":46.6,"mosquito_risk":0,"arthritis_risk":5,"migraine_risk":3,"frizz_risk":0,"updated_at":"2026-03-11T23:23:26.933400+05:30"},{"city":"Dharamshala","state":"Himachal Pradesh","latitude":32.219,"longitude":76.3234,"temp":21.1,"humidity":29,"rain":0.0,"pressure":872.2,"uv_index":5.4,"wind_gusts":25.9,"aqi":55,"pm10":16.8,"pm2_5":8.6,"mosquito_risk":0,"arthritis_risk":5,"migraine_risk":3,"frizz_risk":0,"updated_at":"2026-03-11T23:23:26.933406+05:30"},{"city":"Dalhousie","state":"Himachal Pradesh","latitude":32.5387,"longitude":75.971,"temp":17.4,"humidity":28,"rain":0.0,"pressure":806.2,"uv_index":4.75,"wind_gusts":19.8,"aqi":84,"pm10":29.2,"pm2_5":23.2,"mosquito_risk":0,"arthritis_risk":5,"migraine_risk":3,"frizz_risk":1,"updated_at":"2026-03-11T23:23:26.933412+05:30"},{"city":"Patiala","state":"Punjab","latitude":30.3398,"longitude":76.3869,"temp":21.4,"humidity":66,"rain":0.0,"pressure":980.5,"uv_index":5.4,"wind_gusts":19.1,"aqi":166,"pm10":133.2,"pm2_5":103.4,"mosquito_risk":3,"arthritis_risk":5,"migraine_risk":3,"frizz_risk":0,"updated_at":"2026-03-11T23:23:26.933418+05:30"},{"city":"Bhatinda","state":"Punjab","latitude":30.211,"longitude":74.9455,"temp":22.7,"humidity":71,"rain":0.0,"pressure":986.2,"uv_index":6.6,"wind_gusts":25.2,"aqi":150,"pm10":109.9,"pm2_5":84.3,"mosquito_risk":3,"arthritis_risk":5,"migraine_risk":7,"frizz_risk":1,"updated_at":"2026-03-11T23:23:26.933424+05:30"},{"city":"Rohtak","state":"Haryana","latitude":28.8955,"longitude":76.6066,"temp":21.7,"humidity":59,"rain":0.0,"pressure":984.2,"uv_index":6.1,"wind_gusts":27.4,"aqi":210,"pm10":432.1,"pm2_5":108.3,"mosquito_risk":0,"arthritis_risk":5,"migraine_risk":7,"frizz_risk":0,"updated_at":"2026-03-11T23:23:26.933429+05:30"},{"city":"Panipat","state":"Haryana","latitude":29.3909,"longitude":76.9635,"temp":20.3,"humidity":71,"rain":0.0,"pressure":982.6,"uv_index":5.45,"wind_gusts":24.8,"aqi":347,"pm10":538.3,"pm2_5":100.6,"mosquito_risk":3,"arthritis_risk":5,"migraine_risk":3,"frizz_risk":0,"updated_at":"2026-03-11T23:23:26.933435+05:30"},{"city":"Mathura","state":"Uttar Pradesh","latitude":27.4924,"longitude":77.6737,"temp":22.1,"humidity":59,"rain":0.0,"pressure":989.2,"uv_index":6.4,"wind_gusts":21.2,"aqi":348,"pm10":551.3,"pm2_5":103.4,"mosquito_risk":0,"arthritis_risk":5,"migraine_risk":7,"frizz_risk":0,"updated_at":"2026-03-11T23:23:26.933441+05:30"},{"city":"Vrindavan","state":"Uttar Pradesh","latitude":27.5823,"longitude":77.7027,"temp":21.4,"humidity":58,"rain":0.0,"pressure":989.6,"uv_index":6.35,"wind_gusts":23.0,"aqi":348,"pm10":551.3,"pm2_5":103.4,"mosquito_risk":0,"arthritis_risk":5,"migraine_risk":7,"frizz_risk":0,"updated_at":"2026-03-11T23:23:26.933447+05:30"},{"city":"Ayodhya","state":"Uttar Pradesh","latitude":26.7922,"longitude":82.1998,"temp":22.9,"humidity":79,"rain":0.0,"pressure":997.1,"uv_index":6.8,"wind_gusts":25.2,"aqi":182,"pm10":92.9,"pm2_5":57.3,"mosquito_risk":3,"arthritis_risk":5,"migraine_risk":7,"frizz_risk":1,"updated_at":"2026-03-11T23:23:26.933453+05:30"},{"city":"Ratlam","state":"Madhya Pradesh","latitude":23.3315,"longitude":75.0367,"temp":23.9,"humidity":44,"rain":0.0,"pressure":957.1,"uv_index":7.55,"wind_gusts":19.8,"aqi":80,"pm10":44.4,"pm2_5":38.2,"mosquito_risk":0,"arthritis_risk":5,"migraine_risk":7,"frizz_risk":0,"updated_at":"2026-03-11T23:23:26.933459+05:30"},{"city":"Sagar","state":"Madhya Pradesh","latitude":23.8388,"longitude":78.7378,"temp":26.5,"humidity":27,"rain":0.0,"pressure":953.0,"uv_index":7.55,"wind_gusts":24.8,"aqi":91,"pm10":60.5,"pm2_5":25.6,"mosquito_risk":4,"arthritis_risk":5,"migraine_risk":7,"frizz_risk":0,"updated_at":"2026-03-11T23:23:26.933465+05:30"},{"city":"Satna","state":"Madhya Pradesh","latitude":24.6005,"longitude":80.8322,"temp":24.8,"humidity":41,"rain":0.0,"pressure":973.9,"uv_index":7.55,"wind_gusts":34.2,"aqi":142,"pm10":57.5,"pm2_5":26.8,"mosquito_risk":0,"arthritis_risk":5,"migraine_risk":7,"frizz_risk":0,"updated_at":"2026-03-11T23:23:26.933471+05:30"},{"city":"Akola","state":"Maharashtra","latitude":20.7002,"longitude":77.0082,"temp":27.9,"humidity":39,"rain":0.0,"pressure":977.3,"uv_index":8.0,"wind_gusts":14.4,"aqi":133,"pm10":46.4,"pm2_5":38.0,"mosquito_risk":4,"arthritis_risk":5,"migraine_risk":7,"frizz_risk":0,"updated_at":"2026-03-11T23:23:26.933478+05:30"},{"city":"Amravati","state":"Maharashtra","latitude":20.9374,"longitude":77.7796,"temp":26.3,"humidity":53,"rain":0.0,"pressure":969.2,"uv_index":8.0,"wind_gusts":11.9,"aqi":127,"pm10":48.0,"pm2_5":34.9,"mosquito_risk":4,"arthritis_risk":5,"migraine_risk":7,"frizz_risk":0,"updated_at":"2026-03-11T23:23:26.933484+05:30"},{"city":"Latur","state":"Maharashtra","latitude":18.4088,"longitude":76.5604,"temp":26.3,"humidity":46,"rain":0.0,"pressure":942.4,"uv_index":8.45,"wind_gusts":24.5,"aqi":123,"pm10":41.8,"pm2_5":37.6,"mosquito_risk":4,"arthritis_risk":5,"migraine_risk":7,"frizz_risk":0,"updated_at":"2026-03-11T23:23:26.933490+05:30"},{"city":"Nanded","state":"Maharashtra","latitude":19.1383,"longitude":77.3091,"temp":26.9,"humidity":50,"rain":0.0,"pressure":970.7,"uv_index":8.2,"wind_gusts":18.0,"aqi":122,"pm10":44.2,"pm2_5":39.9,"mosquito_risk":4,"arthritis_risk":5,"migraine_risk":7,"frizz_risk":0,"updated_at":"2026-03-11T23:23:26.933496+05:30"},{"city":"Gulbarga","state":"Karnataka","latitude":17.3297,"longitude":76.8343,"temp":29.0,"humidity":47,"rain":0.0,"pressure":961.6,"uv_index":8.5,"wind_gusts":21.6,"aqi":87,"pm10":39.2,"pm2_5":33.1,"mosquito_risk":4,"arthritis_risk":5,"migraine_risk":7,"frizz_risk":1,"updated_at":"2026-03-11T23:23:26.933501+05:30"},{"city":"Bidar","state":"Karnataka","latitude":17.9104,"longitude":77.5199,"temp":27.0,"humidity":46,"rain":0.0,"pressure":938.3,"uv_index":8.5,"wind_gusts":24.8,"aqi":99,"pm10":57.4,"pm2_5":49.8,"mosquito_risk":4,"arthritis_risk":5,"migraine_risk":7,"frizz_risk":0,"updated_at":"2026-03-11T23:23:26.933507+05:30"},{"city":"Hospet","state":"Karnataka","latitude":15.2689,"longitude":76.3909,"temp":27.6,"humidity":47,"rain":0.0,"pressure":958.3,"uv_index":8.8,"wind_gusts":28.4,"aqi":66,"pm10":28.8,"pm2_5":26.1,"mosquito_risk":4,"arthritis_risk":5,"migraine_risk":7,"frizz_risk":0,"updated_at":"2026-03-11T23:23:26.933512+05:30"},{"city":"Tirupur","state":"Tamil Nadu","latitude":11.1085,"longitude":77.3411,"temp":26.5,"humidity":68,"rain":0.0,"pressure":978.1,"uv_index":9.25,"wind_gusts":29.5,"aqi":80,"pm10":22.6,"pm2_5":21.8,"mosquito_risk":7,"arthritis_risk":5,"migraine_risk":7,"frizz_risk":1,"updated_at":"2026-03-11T23:23:26.933518+05:30"},{"city":"Alappuzha","state":"Kerala","latitude":9.4981,"longitude":76.3388,"temp":27.8,"humidity":82,"rain":0.0,"pressure":1011.3,"uv_index":8.25,"wind_gusts":37.8,"aqi":106,"pm10":49.5,"pm2_5":44.9,"mosquito_risk":7,"arthritis_risk":0,"migraine_risk":4,"frizz_risk":1,"updated_at":"2026-03-11T23:23:26.933524+05:30"},{"city":"Munnar","state":"Kerala","latitude":10.0889,"longitude":77.0595,"temp":20.5,"humidity":79,"rain":0.0,"pressure":858.3,"uv_index":8.0,"wind_gusts":27.4,"aqi":61,"pm10":27.3,"pm2_5":26.3,"mosquito_risk":3,"arthritis_risk":5,"migraine_risk":7,"frizz_risk":1,"updated_at":"2026-03-11T23:23:26.933530+05:30"},{"city":"Silchar","state":"Assam","latitude":24.8333,"longitude":92.7789,"temp":23.8,"humidity":82,"rain":0.0,"pressure":1008.1,"uv_index":7.65,"wind_gusts":20.2,"aqi":175,"pm10":124.8,"pm2_5":115.7,"mosquito_risk":3,"arthritis_risk":0,"migraine_risk":4,"frizz_risk":1,"updated_at":"2026-03-11T23:23:26.933536+05:30"},{"city":"Dibrugarh","state":"Assam","latitude":27.4728,"longitude":94.912,"temp":22.1,"humidity":90,"rain":0.0,"pressure":998.2,"uv_index":7.45,"wind_gusts":31.3,"aqi":157,"pm10":85.9,"pm2_5":81.5,"mosquito_risk":3,"arthritis_risk":5,"migraine_risk":7,"frizz_risk":1,"updated_at":"2026-03-11T23:23:26.933542+05:30"}]