[{"city":"Delhi","state":"Delhi","latitude":28.6139,"longitude":77.209,"temp":22.0,"humidity":57,"rain":0.0,"pressure":986.9,"uv_index":7.15,"wind_gusts":37.8,"aqi":748,"pm10":897.8,"pm2_5":150.4,"mosquito_risk":0,"arthritis_risk":5,"migraine_risk":7,"frizz_risk":0,"updated_at":"2026-04-11T01:20:18.290002+05:30"},{"city":"Mumbai","state":"Maharashtra","latitude":19.076,"longitude":72.8777,"temp":28.6,"humidity":78,"rain":0.0,"pressure":1009.8,"uv_index":7.95,"wind_gusts":25.2,"aqi":100,"pm10":66.4,"pm2_5":40.9,"mosquito_risk":7,"arthritis_risk":0,"migraine_risk":4,"frizz_risk":1,"updated_at":"2026-04-11T01:20:18.290073+05:30"},{"city":"Bangalore","state":"Karnataka","latitude":12.9716,"longitude":77.5946,"temp":24.8,"humidity":79,"rain":0.0,"pressure":913.3,"uv_index":9.65,"wind_gusts":28.1,"aqi":100,"pm10":37.3,"pm2_5":34.9,"mosquito_risk":3,"arthritis_risk":5,"migraine_risk":7,"frizz_risk":1,"updated_at":"2026-04-11T01:20:18.290090+05:30"},{"city":"Hyderabad","state":"Telangana","latitude":17.385,"longitude":78.4867,"temp":29.0,"humidity":49,"rain":0.0,"pressure":954.6,"uv_index":9.25,"wind_gusts":27.0,"aqi":101,"pm10":82.2,"pm2_5":52.5,"mosquito_risk":4,"arthritis_risk":5,"migraine_risk":7,"frizz_risk":1,"updated_at":"2026-04-11T01:20:18.290113+05:30"},{"city":"Chennai","state":"Tamil Nadu","latitude":13.0827,"longitude":80.2707,"temp":28.6,"humidity":83,"rain":0.0,"pressure":1009.0,"uv_index":9.15,"wind_gusts":36.0,"aqi":63,"pm10":20.5,"pm2_5":14.3,"mosquito_risk":7,"arthritis_risk":0,"migraine_risk":4,"frizz_risk":1,"updated_at":"2026-04-11T01:20:18.290123+05:30"},{"city":"Kolkata","state":"West Bengal","latitude":22.5726,"longitude":88.3639,"temp":24.0,"humidity":93,"rain":0.0,"pressure":1007.8,"uv_index":8.75,"wind_gusts":18.7,"aqi":154,"pm10":57.6,"pm2_5":43.0,"mosquito_risk":3,"arthritis_risk":5,"migraine_risk":4,"frizz_risk":1,"updated_at":"2026-04-11T01:20:18.290132+05:30"},{"city":"Pune","state":"Maharashtra","latitude":18.5204,"longitude":73.8567,"temp":25.2,"humidity":79,"rain":0.0,"pressure":950.1,"uv_index":8.55,"wind_gusts":40.7,"aqi":94,"pm10":61.5,"pm2_5":39.2,"mosquito_risk":7,"arthritis_risk":5,"migraine_risk":7,"frizz_risk":1,"updated_at":"2026-04-11T01:20:18.290141+05:30"},{"city":"Ahmedabad","state":"Gujarat","latitude":23.0225,"longitude":72.5714,"temp":28.6,"humidity":35,"rain":0.0,"pressure":1004.9,"uv_index":8.05,"wind_gusts":21.6,"aqi":77,"pm10":48.9,"pm2_5":25.9,"mosquito_risk":4,"arthritis_risk":5,"migraine_risk":4,"frizz_risk":0,"updated_at":"2026-04-11T01:20:18.290149+05:30"},{"city":"Jaipur","state":"Rajasthan","latitude":26.9124,"longitude":75.7873,"temp":24.6,"humidity":42,"rain":0.0,"pressure":964.0,"uv_index":7.85,"wind_gusts":33.1,"aqi":163,"pm10":127.6,"pm2_5":33.1,"mosquito_risk":0,"arthritis_risk":5,"migraine_risk":7,"frizz_risk":0,"updated_at":"2026-04-11T01:20:18.290157+05:30"},{"city":"Lucknow","state":"Uttar Pradesh","latitude":26.8467,"longitude":80.9462,"temp":21.6,"humidity":52,"rain":0.0,"pressure":996.1,"uv_index":7.65,"wind_gusts":44.6,"aqi":171,"pm10":728.3,"pm2_5":134.6,"mosquito_risk":0,"arthritis_risk":5,"migraine_risk":7,"frizz_risk":0,"updated_at":"2026-04-11T01:20:18.290165+05:30"},{"city":"Kanpur","state":"Uttar Pradesh","latitude":26.4499,"longitude":80.3319,"temp":20.2,"humidity":65,"rain":0.0,"pressure":994.7,"uv_index":7.7,"wind_gusts":40.0,"aqi":407,"pm10":907.1,"pm2_5":130.4,"mosquito_risk":3,"arthritis_risk":5,"migraine_risk":7,"frizz_risk":0,"updated_at":"2026-04-11T01:20:18.290173+05:30"},{"city":"Chandigarh","state":"Chandigarh","latitude":30.7333,"longitude":76.7794,"temp":19.0,"humidity":63,"rain":0.0,"pressure":972.6,"uv_index":7.1,"wind_gusts":32.0,"aqi":88,"pm10":17.8,"pm2_5":17.0,"mosquito_risk":3,"arthritis_risk":5,"migraine_risk":7,"frizz_risk":0,"updated_at":"2026-04-11T01:20:18.290180+05:30"},{"city":"Srinagar","state":"Jammu and Kashmir","latitude":34.0837,"longitude":74.7973,"temp":10.6,"humidity":73,"rain":0.0,"pressure":843.2,"uv_index":8.05,"wind_gusts":23.4,"aqi":70,"pm10":55.2,"pm2_5":40.6,"mosquito_risk":3,"arthritis_risk":5,"migraine_risk":7,"frizz_risk":0,"updated_at":"2026-04-11T01:20:18.290189+05:30"},{"city":"Jammu","state":"Jammu and Kashmir","latitude":32.7266,"longitude":74.857,"temp":18.6,"humidity":73,"rain":0.0,"pressure":977.6,"uv_index":7.75,"wind_gusts":27.0,"aqi":66,"pm10":39.3,"pm2_5":30.6,"mosquito_risk":3,"arthritis_risk":5,"migraine_risk":7,"frizz_risk":0,"updated_at":"2026-04-11T01:20:18.290199+05:30"},{"city":"Amritsar","state":"Punjab","latitude":31.634,"longitude":74.8723,"temp":20.2,"humidity":70,"rain":0.0,"pressure":986.0,"uv_index":7.7,"wind_gusts":30.6,"aqi":76,"pm10":56.2,"pm2_5":23.9,"mosquito_risk":3,"arthritis_risk":5,"migraine_risk":7,"frizz_risk":0,"updated_at":"2026-04-11T01:20:18.290207+05:30"},{"city":"Ludhiana","state":"Punjab","latitude":30.901,"longitude":75.8573,"temp":21.0,"humidity":59,"rain":0.0,"pressure":983.5,"uv_index":7.2,"wind_gusts":32.0,"aqi":82,"pm10":28.3,"pm2_5":25.2,"mosquito_risk":0,"arthritis_risk":5,"migraine_risk":7,"frizz_risk":0,"updated_at":"2026-04-11T01:20:18.290214+05:30"},{"city":"Jalandhar","state":"Punjab","latitude":31.326,"longitude":75.5762,"temp":20.1,"humidity":66,"rain":0.0,"pressure":984.8,"uv_index":7.5,"wind_gusts":26.6,"aqi":85,"pm10":42.0,"pm2_5":21.9,"mosquito_risk":3,"arthritis_risk":5,"migraine_risk":7,"frizz_risk":0,"updated_at":"2026-04-11T01:20:18.290221+05:30"},{"city":"Dehradun","state":"Uttarakhand","latitude":30.6284,"longitude":78.0322,"temp":11.7,"humidity":58,"rain":0.0,"pressure":829.7,"uv_index":7.55,"wind_gusts":36.4,"aqi":74,"pm10":14.3,"pm2_5":11.7,"mosquito_risk":0,"arthritis_risk":5,"migraine_risk":7,"frizz_risk":0,"updated_at":"2026-04-11T01:20:18.290228+05:30"},{"city":"Shimla","state":"Himachal Pradesh","latitude":31.1048,"longitude":77.1734,"temp":9.1,"humidity":57,"rain":0.0,"pressure":783.6,"uv_index":7.2,"wind_gusts":47.5,"aqi":78,"pm10":18.2,"pm2_5":14.8,"mosquito_risk":0,"arthritis_risk":5,"migraine_risk":7,"frizz_risk":0,"updated_at":"2026-04-11T01:20:18.290236+05:30"},{"city":"Manali","state":"Himachal Pradesh","latitude":32.2396,"longitude":77.1887,"temp":12.9,"humidity":61,"rain":0.0,"pressure":819.8,"uv_index":9.55,"wind_gusts":37.4,"aqi":117,"pm10":21.9,"pm2_5":13.5,"mosquito_risk":3,"arthritis_risk":5,"migraine_risk":7,"frizz_risk":0,"updated_at":"2026-04-11T01:20:18.290243+05:30"},{"city":"Gurgaon","state":"Haryana","latitude":28.4595,"longitude":77.0266,"temp":19.8,"humidity":69,"rain":0.0,"pressure":985.4,"uv_index":7.3,"wind_gusts":31.7,"aqi":2120,"pm10":2481.0,"pm2_5":299.9,"mosquito_risk":3,"arthritis_risk":5,"migraine_risk":7,"frizz_risk":0,"updated_at":"2026-04-11T01:20:18.290252+05:30"},{"city":"Noida","state":"Uttar Pradesh","latitude":28.5355,"longitude":77.391,"temp":21.6,"humidity":60,"rain":0.0,"pressure":988.4,"uv_index":7.2,"wind_gusts":37.4,"aqi":2120,"pm10":2481.0,"pm2_5":299.9,"mosquito_risk":0,"arthritis_risk":5,"migraine_risk":7,"frizz_risk":0,"updated_at":"2026-04-11T01:20:18.290259+05:30"},{"city":"Ghaziabad","state":"Uttar Pradesh","latitude":28.6692,"longitude":77.4538,"temp":20.4,"humidity":62,"rain":0.0,"pressure":986.5,"uv_index":7.15,"wind_gusts":39.2,"aqi":568,"pm10":773.0,"pm2_5":136.0,"mosquito_risk":3,"arthritis_risk":5,"migraine_risk":7,"frizz_risk":0,"updated_at":"2026-04-11T01:20:18.290267+05:30"},{"city":"Faridabad","state":"Haryana","latitude":28.4089,"longitude":77.3178,"temp":22.1,"humidity":56,"rain":0.0,"pressure":987.7,"uv_index":7.25,"wind_gusts":38.9,"aqi":2120,"pm10":2481.0,"pm2_5":299.9,"mosquito_risk":0,"arthritis_risk":5,"migraine_risk":7,"frizz_risk":0,"updated_at":"2026-04-11T01:20:18.290276+05:30"},{"city":"Meerut","state":"Uttar Pradesh","latitude":28.9845,"longitude":77.7064,"temp":19.1,"humidity":66,"rain":0.0,"pressure":984.8,"uv_index":7.05,"wind_gusts":39.6,"aqi":568,"pm10":773.0,"pm2_5":136.0,"mosquito_risk":3,"arthritis_risk":5,"migraine_risk":7,"frizz_risk":0,"updated_at":"2026-04-11T01:20:18.290282+05:30"},{"city":"Agra","state":"Uttar Pradesh","latitude":27.1767,"longitude":78.0081,"temp":20.4,"humidity":63,"rain":0.0,"pressure":991.5,"uv_index":7.55,"wind_gusts":31.7,"aqi":1125,"pm10":1438.0,"pm2_5":171.8,"mosquito_risk":3,"arthritis_risk":5,"migraine_risk":7,"frizz_risk":0,"updated_at":"2026-04-11T01:20:18.290290+05:30"},{"city":"Varanasi","state":"Uttar Pradesh","latitude":25.3176,"longitude":82.9739,"temp":20.6,"humidity":53,"rain":0.0,"pressure":1000.2,"uv_index":8.3,"wind_gusts":39.6,"aqi":87,"pm10":188.1,"pm2_5":44.1,"mosquito_risk":0,"arthritis_risk":5,"migraine_risk":4,"frizz_risk":0,"updated_at":"2026-04-11T01:20:18.290297+05:30"},{"city":"Prayagraj","state":"Uttar Pradesh","latitude":25.4358,"longitude":81.8463,"temp":21.6,"humidity":55,"rain":0.0,"pressure":999.1,"uv_index":8.15,"wind_gusts":40.7,"aqi":92,"pm10":322.2,"pm2_5":62.6,"mosquito_risk":0,"arthritis_risk":5,"migraine_risk":7,"frizz_risk":0,"updated_at":"2026-04-11T01:20:18.290305+05:30"},{"city":"Gorakhpur","state":"Uttar Pradesh","latitude":26.7606,"longitude":83.3732,"temp":20.8,"humidity":42,"rain":0.0,"pressure":998.9,"uv_index":8.1,"wind_gusts":34.6,"aqi":101,"pm10":339.9,"pm2_5":64.7,"mosquito_risk":0,"arthritis_risk":5,"migraine_risk":7,"frizz_risk":0,"updated_at":"2026-04-11T01:20:18.290314+05:30"},{"city":"Bareilly","state":"Uttar Pradesh","latitude":28.367,"longitude":79.4304,"temp":18.6,"humidity":70,"rain":0.0,"pressure":989.4,"uv_index":7.45,"wind_gusts":44.3,"aqi":98,"pm10":366.0,"pm2_5":85.7,"mosquito_risk":3,"arthritis_risk":5,"migraine_risk":7,"frizz_risk":0,"updated_at":"2026-04-11T01:20:18.290320+05:30"},{"city":"Aligarh","state":"Uttar Pradesh","latitude":27.8974,"longitude":78.088,"temp":19.8,"humidity":63,"rain":0.0,"pressure":989.1,"uv_index":7.35,"wind_gusts":46.4,"aqi":1175,"pm10":1665.2,"pm2_5":239.3,"mosquito_risk":3,"arthritis_risk":5,"migraine_risk":7,"frizz_risk":0,"updated_at":"2026-04-11T01:20:18.290327+05:30"},{"city":"Moradabad","state":"Uttar Pradesh","latitude":28.8386,"longitude":78.7733,"temp":18.6,"humidity":68,"rain":0.0,"pressure":986.4,"uv_index":7.25,"wind_gusts":40.0,"aqi":122,"pm10":291.5,"pm2_5":75.4,"mosquito_risk":3,"arthritis_risk":5,"migraine_risk":7,"frizz_risk":0,"updated_at":"2026-04-11T01:20:18.290334+05:30"},{"city":"Saharanpur","state":"Uttar Pradesh","latitude":29.9637,"longitude":77.546,"temp":19.4,"humidity":59,"rain":0.0,"pressure":978.6,"uv_index":6.85,"wind_gusts":42.5,"aqi":98,"pm10":40.5,"pm2_5":18.7,"mosquito_risk":0,"arthritis_risk":5,"migraine_risk":7,"frizz_risk":0,"updated_at":"2026-04-11T01:20:18.290340+05:30"},{"city":"Jhansi","state":"Uttar Pradesh","latitude":25.4484,"longitude":78.5685,"temp":23.2,"humidity":41,"rain":0.0,"pressure":981.5,"uv_index":8.1,"wind_gusts":26.6,"aqi":76,"pm10":18.4,"pm2_5":12.5,"mosquito_risk":0,"arthritis_risk":5,"migraine_risk":7,"frizz_risk":0,"updated_at":"2026-04-11T01:20:21.515509+05:30"},{"city":"Surat","state":"Gujarat","latitude":21.1702,"longitude":72.8311,"temp":27.1,"humidity":58,"rain":0.0,"pressure":1008.2,"uv_index":7.8,"wind_gusts":29.5,"aqi":137,"pm10":46.9,"pm2_5":34.8,"mosquito_risk":4,"arthritis_risk":0,"migraine_risk":4,"frizz_risk":1,"updated_at":"2026-04-11T01:20:21.515543+05:30"},{"city":"Vadodara","state":"Gujarat","latitude":22.3072,"longitude":73.1812,"temp":26.4,"humidity":46,"rain":0.0,"pressure":1006.5,"uv_index":8.05,"wind_gusts":16.6,"aqi":74,"pm10":35.3,"pm2_5":26.3,"mosquito_risk":4,"arthritis_risk":5,"migraine_risk":4,"frizz_risk":0,"updated_at":"2026-04-11T01:20:21.515553+05:30"},{"city":"Rajkot","state":"Gujarat","latitude":22.3039,"longitude":70.8022,"temp":26.4,"humidity":63,"rain":0.0,"pressure":997.6,"uv_index":7.75,"wind_gusts":33.8,"aqi":86,"pm10":51.2,"pm2_5":36.9,"mosquito_risk":7,"arthritis_risk":5,"migraine_risk":7,"frizz_risk":1,"updated_at":"2026-04-11T01:20:21.515561+05:30"},{"city":"Thane","state":"Maharashtra","latitude":19.2183,"longitude":72.9781,"temp":26.7,"humidity":85,"rain":0.0,"pressure":1009.2,"uv_index":7.95,"wind_gusts":39.2,"aqi":100,"pm10":66.4,"pm2_5":40.9,"mosquito_risk":7,"arthritis_risk":0,"migraine_risk":4,"frizz_risk":1,"updated_at":"2026-04-11T01:20:21.515568+05:30"},{"city":"Nagpur","state":"Maharashtra","latitude":21.1458,"longitude":79.0882,"temp":27.1,"humidity":53,"rain":0.0,"pressure":975.1,"uv_index":8.75,"wind_gusts":21.2,"aqi":76,"pm10":35.6,"pm2_5":20.5,"mosquito_risk":4,"arthritis_risk":5,"migraine_risk":7,"frizz_risk":1,"updated_at":"2026-04-11T01:20:21.515575+05:30"},{"city":"Nashik","state":"Maharashtra","latitude":19.9975,"longitude":73.7898,"temp":25.5,"humidity":57,"rain":0.0,"pressure":947.5,"uv_index":8.25,"wind_gusts":37.8,"aqi":89,"pm10":66.6,"pm2_5":52.4,"mosquito_risk":4,"arthritis_risk":5,"migraine_risk":7,"frizz_risk":1,"updated_at":"2026-04-11T01:20:21.515581+05:30"},{"city":"Aurangabad","state":"Maharashtra","latitude":19.8762,"longitude":75.3433,"temp":27.4,"humidity":45,"rain":0.0,"pressure":945.8,"uv_index":8.9,"wind_gusts":29.2,"aqi":95,"pm10":46.2,"pm2_5":29.0,"mosquito_risk":4,"arthritis_risk":5,"migraine_risk":7,"frizz_risk":0,"updated_at":"2026-04-11T01:20:21.515589+05:30"},{"city":"Solapur","state":"Maharashtra","latitude":17.6599,"longitude":75.9064,"temp":30.3,"humidity":43,"rain":0.0,"pressure":957.7,"uv_index":9.0,"wind_gusts":18.4,"aqi":75,"pm10":28.0,"pm2_5":21.1,"mosquito_risk":0,"arthritis_risk":5,"migraine_risk":7,"frizz_risk":1,"updated_at":"2026-04-11T01:20:21.515596+05:30"},{"city":"Kolhapur","state":"Maharashtra","latitude":16.705,"longitude":74.2433,"temp":23.2,"humidity":73,"rain":0.0,"pressure":948.9,"uv_index":9.05,"wind_gusts":44.6,"aqi":91,"pm10":67.8,"pm2_5":43.5,"mosquito_risk":3,"arthritis_risk":5,"migraine_risk":7,"frizz_risk":1,"updated_at":"2026-04-11T01:20:21.515604+05:30"},{"city":"Goa","state":"Goa","latitude":15.2993,"longitude":74.124,"temp":27.5,"humidity":79,"rain":0.0,"pressure":999.0,"uv_index":9.05,"wind_gusts":33.1,"aqi":88,"pm10":94.8,"pm2_5":40.0,"mosquito_risk":7,"arthritis_risk":5,"migraine_risk":7,"frizz_risk":1,"updated_at":"2026-04-11T01:20:21.515611+05:30"},{"city":"Jodhpur","state":"Rajasthan","latitude":26.2389,"longitude":73.0243,"temp":27.0,"humidity":34,"rain":0.0,"pressure":986.4,"uv_index":8.05,"wind_gusts":27.4,"aqi":62,"pm10":58.0,"pm2_5":21.8,"mosquito_risk":4,"arthritis_risk":5,"migraine_risk":7,"frizz_risk":0,"updated_at":"2026-04-11T01:20:21.515617+05:30"},{"city":"Udaipur","state":"Rajasthan","latitude":24.5854,"longitude":73.7125,"temp":22.9,"humidity":38,"rain":0.0,"pressure":950.4,"uv_index":8.6,"wind_gusts":37.1,"aqi":52,"pm10":53.0,"pm2_5":17.5,"mosquito_risk":0,"arthritis_risk":5,"migraine_risk":7,"frizz_risk":0,"updated_at":"2026-04-11T01:20:21.515624+05:30"},{"city":"Kota","state":"Rajasthan","latitude":25.2138,"longitude":75.8648,"temp":22.8,"humidity":53,"rain":0.0,"pressure":982.6,"uv_index":8.1,"wind_gusts":22.0,"aqi":79,"pm10":78.0,"pm2_5":40.4,"mosquito_risk":0,"arthritis_risk":5,"migraine_risk":7,"frizz_risk":0,"updated_at":"2026-04-11T01:20:21.515630+05:30"},{"city":"Bikaner","state":"Rajasthan","latitude":28.0229,"longitude":73.3119,"temp":26.6,"humidity":38,"rain":0.0,"pressure":985.7,"uv_index":7.9,"wind_gusts":32.8,"aqi":67,"pm10":36.8,"pm2_5":16.6,"mosquito_risk":4,"arthritis_risk":5,"migraine_risk":7,"frizz_risk":0,"updated_at":"2026-04-11T01:20:21.515637+05:30"},{"city":"Ajmer","state":"Rajasthan","latitude":26.4499,"longitude":74.6399,"temp":24.5,"humidity":38,"rain":0.0,"pressure":958.4,"uv_index":8.0,"wind_gusts":34.6,"aqi":77,"pm10":66.4,"pm2_5":35.0,"mosquito_risk":0,"arthritis_risk":5,"migraine_risk":7,"frizz_risk":0,"updated_at":"2026-04-11T01:20:21.515644+05:30"},{"city":"Gwalior","state":"Madhya Pradesh","latitude":26.2183,"longitude":78.1828,"temp":23.1,"humidity":53,"rain":0.0,"pressure":987.0,"uv_index":7.8,"wind_gusts":27.0,"aqi":96,"pm10":72.2,"pm2_5":21.8,"mosquito_risk":0,"arthritis_risk":5,"migraine_risk":7,"frizz_risk":0,"updated_at":"2026-04-11T01:20:21.515650+05:30"},{"city":"Indore","state":"Madhya Pradesh","latitude":22.7196,"longitude":75.8577,"temp":22.4,"humidity":47,"rain":0.0,"pressure":950.8,"uv_index":8.5,"wind_gusts":22.0,"aqi":86,"pm10":33.2,"pm2_5":19.2,"mosquito_risk":0,"arthritis_risk":5,"migraine_risk":7,"frizz_risk":0,"updated_at":"2026-04-11T01:20:21.515656+05:30"},{"city":"Bhopal","state":"Madhya Pradesh","latitude":23.2599,"longitude":77.4126,"temp":23.9,"humidity":37,"rain":0.0,"pressure":956.8,"uv_index":8.5,"wind_gusts":21.6,"aqi":76,"pm10":27.5,"pm2_5":14.6,"mosquito_risk":0,"arthritis_risk":5,"migraine_risk":7,"frizz_risk":0,"updated_at":"2026-04-11T01:20:21.515662+05:30"},{"city":"Jabalpur","state":"Madhya Pradesh","latitude":23.1815,"longitude":79.9864,"temp":25.3,"humidity":42,"rain":0.0,"pressure":964.4,"uv_index":8.6,"wind_gusts":16.6,"aqi":74,"pm10":37.3,"pm2_5":18.5,"mosquito_risk":4,"arthritis_risk":5,"migraine_risk":7,"frizz_risk":0,"updated_at":"2026-04-11T01:20:21.515669+05:30"},{"city":"Ujjain","state":"Madhya Pradesh","latitude":23.1765,"longitude":75.7885,"temp":22.9,"humidity":44,"rain":0.0,"pressure":956.8,"uv_index":8.4,"wind_gusts":19.4,"aqi":71,"pm10":33.8,"pm2_5":19.6,"mosquito_risk":0,"arthritis_risk":5,"migraine_risk":7,"frizz_risk":0,"updated_at":"2026-04-11T01:20:21.515676+05:30"},{"city":"Visakhapatnam","state":"Andhra Pradesh","latitude":17.6868,"longitude":83.2185,"temp":27.8,"humidity":86,"rain":0.0,"pressure":1005.4,"uv_index":9.15,"wind_gusts":41.8,"aqi":93,"pm10":26.2,"pm2_5":20.4,"mosquito_risk":7,"arthritis_risk":5,"migraine_risk":4,"frizz_risk":1,"updated_at":"2026-04-11T01:20:21.515682+05:30"},{"city":"Vijayawada","state":"Andhra Pradesh","latitude":16.5062,"longitude":80.648,"temp":27.9,"humidity":86,"rain":0.0,"pressure":1004.0,"uv_index":9.2,"wind_gusts":24.5,"aqi":77,"pm10":20.4,"pm2_5":17.5,"mosquito_risk":7,"arthritis_risk":5,"migraine_risk":4,"frizz_risk":1,"updated_at":"2026-04-11T01:20:21.515688+05:30"},{"city":"Guntur","state":"Andhra Pradesh","latitude":16.3067,"longitude":80.4365,"temp":27.9,"humidity":88,"rain":0.0,"pressure":1005.2,"uv_index":9.25,"wind_gusts":32.0,"aqi":77,"pm10":21.5,"pm2_5":18.9,"mosquito_risk":7,"arthritis_risk":5,"migraine_risk":4,"frizz_risk":1,"updated_at":"2026-04-11T01:20:21.515695+05:30"},{"city":"Nellore","state":"Andhra Pradesh","latitude":14.4426,"longitude":79.9865,"temp":27.8,"humidity":85,"rain":0.0,"pressure":1007.2,"uv_index":9.0,"wind_gusts":39.2,"aqi":70,"pm10":17.6,"pm2_5":14.1,"mosquito_risk":7,"arthritis_risk":5,"migraine_risk":4,"frizz_risk":1,"updated_at":"2026-04-11T01:20:21.515702+05:30"},{"city":"Kurnool","state":"Andhra Pradesh","latitude":15.8281,"longitude":78.0373,"temp":31.2,"humidity":54,"rain":0.0,"pressure":977.6,"uv_index":9.25,"wind_gusts":26.3,"aqi":87,"pm10":41.1,"pm2_5":29.8,"mosquito_risk":0,"arthritis_risk":5,"migraine_risk":7,"frizz_risk":1,"updated_at":"2026-04-11T01:20:21.515708+05:30"},{"city":"Kakinada","state":"Andhra Pradesh","latitude":16.9891,"longitude":82.2475,"temp":27.8,"humidity":88,"rain":0.0,"pressure":1009.3,"uv_index":9.2,"wind_gusts":35.3,"aqi":69,"pm10":23.2,"pm2_5":16.0,"mosquito_risk":7,"arthritis_risk":0,"migraine_risk":4,"frizz_risk":1,"updated_at":"2026-04-11T01:20:21.515715+05:30"},{"city":"Tirupati","state":"Andhra Pradesh","latitude":13.6288,"longitude":79.4192,"temp":26.6,"humidity":85,"rain":0.0,"pressure":994.0,"uv_index":9.1,"wind_gusts":31.7,"aqi":89,"pm10":19.3,"pm2_5":17.1,"mosquito_risk":7,"arthritis_risk":5,"migraine_risk":7,"frizz_risk":1,"updated_at":"2026-04-11T01:20:21.515721+05:30"},{"city":"Warangal","state":"Telangana","latitude":17.9689,"longitude":79.5941,"temp":28.8,"humidity":68,"rain":0.0,"pressure":979.8,"uv_index":9.1,"wind_gusts":25.9,"aqi":110,"pm10":62.2,"pm2_5":46.4,"mosquito_risk":7,"arthritis_risk":5,"migraine_risk":7,"frizz_risk":1,"updated_at":"2026-04-11T01:20:21.515728+05:30"},{"city":"Nizamabad","state":"Telangana","latitude":18.6725,"longitude":78.0941,"temp":27.4,"humidity":60,"rain":0.0,"pressure":965.9,"uv_index":9.0,"wind_gusts":18.4,"aqi":83,"pm10":46.9,"pm2_5":30.5,"mosquito_risk":4,"arthritis_risk":5,"migraine_risk":7,"frizz_risk":1,"updated_at":"2026-04-11T01:20:21.515734+05:30"},{"city":"Mysore","state":"Karnataka","latitude":12.2958,"longitude":76.6396,"temp":23.7,"humidity":87,"rain":0.0,"pressure":930.2,"uv_index":9.55,"wind_gusts":30.2,"aqi":132,"pm10":41.3,"pm2_5":35.5,"mosquito_risk":3,"arthritis_risk":5,"migraine_risk":7,"frizz_risk":1,"updated_at":"2026-04-11T01:20:21.515740+05:30"},{"city":"Mangalore","state":"Karnataka","latitude":12.9141,"longitude":74.856,"temp":29.7,"humidity":80,"rain":0.0,"pressure":1008.3,"uv_index":8.6,"wind_gusts":27.0,"aqi":71,"pm10":102.7,"pm2_5":32.9,"mosquito_risk":7,"arthritis_risk":0,"migraine_risk":4,"frizz_risk":1,"updated_at":"2026-04-11T01:20:21.515746+05:30"},{"city":"Hubli-Dharwad","state":"Karnataka","latitude":15.3647,"longitude":75.124,"temp":24.6,"humidity":76,"rain":0.0,"pressure":941.5,"uv_index":9.25,"wind_gusts":36.0,"aqi":75,"pm10":62.2,"pm2_5":34.7,"mosquito_risk":3,"arthritis_risk":5,"migraine_risk":7,"frizz_risk":1,"updated_at":"2026-04-11T01:20:21.515753+05:30"},{"city":"Belgaum","state":"Karnataka","latitude":15.8497,"longitude":74.4977,"temp":23.4,"humidity":78,"rain":0.0,"pressure":926.4,"uv_index":9.3,"wind_gusts":40.0,"aqi":82,"pm10":84.1,"pm2_5":43.0,"mosquito_risk":3,"arthritis_risk":5,"migraine_risk":7,"frizz_risk":1,"updated_at":"2026-04-11T01:20:24.735359+05:30"},{"city":"Coimbatore","state":"Tamil Nadu","latitude":11.0168,"longitude":76.9558,"temp":24.9,"humidity":82,"rain":0.0,"pressure":963.8,"uv_index":8.85,"wind_gusts":32.0,"aqi":73,"pm10":39.0,"pm2_5":32.1,"mosquito_risk":3,"arthritis_risk":5,"migraine_risk":7,"frizz_risk":1,"updated_at":"2026-04-11T01:20:24.735393+05:30"},{"city":"Madurai","state":"Tamil Nadu","latitude":9.9252,"longitude":78.1198,"temp":27.7,"humidity":87,"rain":0.0,"pressure":995.0,"uv_index":8.9,"wind_gusts":40.3,"aqi":83,"pm10":22.1,"pm2_5":19.6,"mosquito_risk":7,"arthritis_risk":5,"migraine_risk":7,"frizz_risk":1,"updated_at":"2026-04-11T01:20:24.735404+05:30"},{"city":"Trichy","state":"Tamil Nadu","latitude":10.7905,"longitude":78.7047,"temp":27.7,"humidity":89,"rain":0.0,"pressure":1001.8,"uv_index":8.9,"wind_gusts":24.8,"aqi":67,"pm10":18.2,"pm2_5":16.3,"mosquito_risk":7,"arthritis_risk":5,"migraine_risk":4,"frizz_risk":1,"updated_at":"2026-04-11T01:20:24.735413+05:30"},{"city":"Salem","state":"Tamil Nadu","latitude":11.6643,"longitude":78.146,"temp":28.0,"humidity":80,"rain":0.0,"pressure":979.1,"uv_index":8.7,"wind_gusts":15.8,"aqi":92,"pm10":25.3,"pm2_5":23.1,"mosquito_risk":7,"arthritis_risk":5,"migraine_risk":7,"frizz_risk":1,"updated_at":"2026-04-11T01:20:24.735420+05:30"},{"city":"Tirunelveli","state":"Tamil Nadu","latitude":8.7139,"longitude":77.7567,"temp":26.3,"humidity":81,"rain":0.0,"pressure":1004.8,"uv_index":9.2,"wind_gusts":45.4,"aqi":71,"pm10":32.9,"pm2_5":27.7,"mosquito_risk":7,"arthritis_risk":5,"migraine_risk":4,"frizz_risk":1,"updated_at":"2026-04-11T01:20:24.735428+05:30"},{"city":"Vellore","state":"Tamil Nadu","latitude":12.9165,"longitude":79.1325,"temp":26.9,"humidity":75,"rain":0.0,"pressure":986.6,"uv_index":9.5,"wind_gusts":31.3,"aqi":95,"pm10":23.5,"pm2_5":21.1,"mosquito_risk":7,"arthritis_risk":5,"migraine_risk":7,"frizz_risk":1,"updated_at":"2026-04-11T01:20:24.735436+05:30"},{"city":"Erode","state":"Tamil Nadu","latitude":11.341,"longitude":77.7172,"temp":29.2,"humidity":73,"rain":0.0,"pressure":991.0,"uv_index":8.1,"wind_gusts":27.4,"aqi":85,"pm10":31.9,"pm2_5":29.0,"mosquito_risk":7,"arthritis_risk":5,"migraine_risk":7,"frizz_risk":1,"updated_at":"2026-04-11T01:20:24.735443+05:30"},{"city":"Kochi","state":"Kerala","latitude":9.9312,"longitude":76.2673,"temp":26.7,"humidity":85,"rain":0.0,"pressure":1011.0,"uv_index":7.35,"wind_gusts":30.6,"aqi":74,"pm10":26.8,"pm2_5":24.9,"mosquito_risk":7,"arthritis_risk":0,"migraine_risk":4,"frizz_risk":1,"updated_at":"2026-04-11T01:20:24.735450+05:30"},{"city":"Thiruvananthapuram","state":"Kerala","latitude":8.5241,"longitude":76.9366,"temp":27.3,"humidity":83,"rain":0.0,"pressure":1009.6,"uv_index":9.05,"wind_gusts":32.8,"aqi":67,"pm10":33.3,"pm2_5":18.4,"mosquito_risk":7,"arthritis_risk":0,"migraine_risk":4,"frizz_risk":1,"updated_at":"2026-04-11T01:20:24.735457+05:30"},{"city":"Kozhikode","state":"Kerala","latitude":11.2588,"longitude":75.7804,"temp":28.0,"humidity":85,"rain":0.0,"pressure":1010.0,"uv_index":9.1,"wind_gusts":27.4,"aqi":68,"pm10":49.7,"pm2_5":19.1,"mosquito_risk":7,"arthritis_risk":0,"migraine_risk":4,"frizz_risk":1,"updated_at":"2026-04-11T01:20:24.735463+05:30"},{"city":"Thrissur","state":"Kerala","latitude":10.5276,"longitude":76.2144,"temp":26.3,"humidity":90,"rain":0.0,"pressure":1009.4,"uv_index":8.55,"wind_gusts":34.2,"aqi":77,"pm10":23.3,"pm2_5":19.0,"mosquito_risk":7,"arthritis_risk":0,"migraine_risk":4,"frizz_risk":1,"updated_at":"2026-04-11T01:20:24.735471+05:30"},{"city":"Kannur","state":"Kerala","latitude":11.8745,"longitude":75.3704,"temp":27.6,"humidity":85,"rain":0.0,"pressure":1009.1,"uv_index":8.15,"wind_gusts":31.3,"aqi":69,"pm10":70.3,"pm2_5":24.3,"mosquito_risk":7,"arthritis_risk":0,"migraine_risk":4,"frizz_risk":1,"updated_at":"2026-04-11T01:20:24.735479+05:30"},{"city":"Patna","state":"Bihar","latitude":25.5941,"longitude":85.1376,"temp":23.2,"humidity":52,"rain":0.0,"pressure":1002.1,"uv_index":8.45,"wind_gusts":31.7,"aqi":70,"pm10":53.4,"pm2_5":31.2,"mosquito_risk":0,"arthritis_risk":5,"migraine_risk":4,"frizz_risk":0,"updated_at":"2026-04-11T01:20:24.735487+05:30"},{"city":"Gaya","state":"Bihar","latitude":24.7914,"longitude":85.0002,"temp":23.2,"humidity":48,"rain":0.0,"pressure":996.0,"uv_index":8.55,"wind_gusts":33.5,"aqi":81,"pm10":55.3,"pm2_5":28.3,"mosquito_risk":0,"arthritis_risk":5,"migraine_risk":7,"frizz_risk":0,"updated_at":"2026-04-11T01:20:24.735494+05:30"},{"city":"Muzaffarpur","state":"Bihar","latitude":26.1209,"longitude":85.3647,"temp":20.8,"humidity":49,"rain":0.0,"pressure":1002.1,"uv_index":8.45,"wind_gusts":25.9,"aqi":72,"pm10":51.5,"pm2_5":28.4,"mosquito_risk":0,"arthritis_risk":5,"migraine_risk":4,"frizz_risk":0,"updated_at":"2026-04-11T01:20:24.735501+05:30"},{"city":"Bhagalpur","state":"Bihar","latitude":25.2425,"longitude":87.0117,"temp":23.0,"humidity":58,"rain":0.0,"pressure":1002.5,"uv_index":8.45,"wind_gusts":22.3,"aqi":86,"pm10":43.4,"pm2_5":22.1,"mosquito_risk":0,"arthritis_risk":5,"migraine_risk":4,"frizz_risk":0,"updated_at":"2026-04-11T01:20:24.735507+05:30"},{"city":"Ranchi","state":"Jharkhand","latitude":23.3441,"longitude":85.3096,"temp":20.9,"humidity":47,"rain":0.0,"pressure":939.2,"uv_index":9.05,"wind_gusts":32.8,"aqi":91,"pm10":58.3,"pm2_5":24.6,"mosquito_risk":0,"arthritis_risk":5,"migraine_risk":7,"frizz_risk":0,"updated_at":"2026-04-11T01:20:24.735513+05:30"},{"city":"Jamshedpur","state":"Jharkhand","latitude":22.8046,"longitude":86.2029,"temp":24.8,"humidity":71,"rain":0.0,"pressure":992.5,"uv_index":8.85,"wind_gusts":17.6,"aqi":128,"pm10":93.1,"pm2_5":60.8,"mosquito_risk":3,"arthritis_risk":5,"migraine_risk":7,"frizz_risk":1,"updated_at":"2026-04-11T01:20:24.735519+05:30"},{"city":"Dhanbad","state":"Jharkhand","latitude":23.7957,"longitude":86.4304,"temp":21.3,"humidity":62,"rain":0.0,"pressure":981.7,"uv_index":8.8,"wind_gusts":26.3,"aqi":136,"pm10":93.4,"pm2_5":67.1,"mosquito_risk":3,"arthritis_risk":5,"migraine_risk":7,"frizz_risk":0,"updated_at":"2026-04-11T01:20:24.735525+05:30"},{"city":"Bokaro","state":"Jharkhand","latitude":23.6693,"longitude":86.1511,"temp":23.6,"humidity":49,"rain":0.0,"pressure":986.0,"uv_index":8.8,"wind_gusts":27.0,"aqi":123,"pm10":91.5,"pm2_5":65.2,"mosquito_risk":0,"arthritis_risk":5,"migraine_risk":7,"frizz_risk":0,"updated_at":"2026-04-11T01:20:24.735532+05:30"},{"city":"Bhubaneswar","state":"Odisha","latitude":20.2961,"longitude":85.8245,"temp":26.8,"humidity":95,"rain":0.0,"pressure":1004.3,"uv_index":9.0,"wind_gusts":27.0,"aqi":122,"pm10":35.3,"pm2_5":30.9,"mosquito_risk":7,"arthritis_risk":5,"migraine_risk":4,"frizz_risk":1,"updated_at":"2026-04-11T01:20:24.735538+05:30"},{"city":"Cuttack","state":"Odisha","latitude":20.4625,"longitude":85.8828,"temp":27.0,"humidity":97,"rain":0.0,"pressure":1006.1,"uv_index":9.05,"wind_gusts":20.2,"aqi":122,"pm10":35.3,"pm2_5":30.9,"mosquito_risk":7,"arthritis_risk":5,"migraine_risk":4,"frizz_risk":1,"updated_at":"2026-04-11T01:20:24.735544+05:30"},{"city":"Rourkela","state":"Odisha","latitude":22.2604,"longitude":84.8536,"temp":24.9,"humidity":67,"rain":0.0,"pressure":986.8,"uv_index":8.75,"wind_gusts":16.2,"aqi":78,"pm10":69.6,"pm2_5":42.3,"mosquito_risk":3,"arthritis_risk":5,"migraine_risk":7,"frizz_risk":1,"updated_at":"2026-04-11T01:20:24.735550+05:30"},{"city":"Raipur","state":"Chhattisgarh","latitude":21.2514,"longitude":81.6296,"temp":26.5,"humidity":31,"rain":0.0,"pressure":976.3,"uv_index":8.85,"wind_gusts":21.6,"aqi":122,"pm10":94.8,"pm2_5":68.7,"mosquito_risk":4,"arthritis_risk":5,"migraine_risk":7,"frizz_risk":0,"updated_at":"2026-04-11T01:20:24.735557+05:30"},{"city":"Bhilai","state":"Chhattisgarh","latitude":21.1938,"longitude":81.3509,"temp":25.1,"humidity":38,"rain":0.0,"pressure":976.6,"uv_index":8.85,"wind_gusts":19.1,"aqi":117,"pm10":81.7,"pm2_5":59.5,"mosquito_risk":4,"arthritis_risk":5,"migraine_risk":7,"frizz_risk":0,"updated_at":"2026-04-11T01:20:24.735563+05:30"},{"city":"Guwahati","state":"Assam","latitude":26.1158,"longitude":91.7086,"temp":21.7,"humidity":87,"rain":0.0,"pressure":1003.9,"uv_index":8.3,"wind_gusts":23.4,"aqi":81,"pm10":47.8,"pm2_5":42.3,"mosquito_risk":3,"arthritis_risk":5,"migraine_risk":4,"frizz_risk":1,"updated_at":"2026-04-11T01:20:24.735569+05:30"},{"city":"Agartala","state":"Tripura","latitude":23.8315,"longitude":91.2868,"temp":20.9,"humidity":95,"rain":0.0,"pressure":1008.1,"uv_index":8.6,"wind_gusts":25.6,"aqi":152,"pm10":92.7,"pm2_5":76.6,"mosquito_risk":3,"arthritis_risk":0,"migraine_risk":4,"frizz_risk":1,"updated_at":"2026-04-11T01:20:24.735575+05:30"},{"city":"Shillong","state":"Meghalaya","latitude":25.5788,"longitude":91.8933,"temp":10.2,"humidity":68,"rain":0.0,"pressure":854.8,"uv_index":8.75,"wind_gusts":56.5,"aqi":71,"pm10":37.1,"pm2_5":30.4,"mosquito_risk":3,"arthritis_risk":5,"migraine_risk":7,"frizz_risk":0,"updated_at":"2026-04-11T01:20:24.735582+05:30"},{"city":"Imphal","state":"Manipur","latitude":24.817,"longitude":93.9368,"temp":14.5,"humidity":87,"rain":0.0,"pressure":923.7,"uv_index":8.95,"wind_gusts":52.9,"aqi":92,"pm10":61.2,"pm2_5":46.9,"mosquito_risk":3,"arthritis_risk":10,"migraine_risk":7,"frizz_risk":0,"updated_at":"2026-04-11T01:20:24.735589+05:30"},{"city":"Aizawl","state":"Mizoram","latitude":23.7271,"longitude":92.7176,"temp":15.9,"humidity":85,"rain":0.0,"pressure":893.2,"uv_index":8.8,"wind_gusts":41.4,"aqi":72,"pm10":57.5,"pm2_5":29.8,"mosquito_risk":3,"arthritis_risk":10,"migraine_risk":7,"frizz_risk":0,"updated_at":"2026-04-11T01:20:24.735595+05:30"},{"city":"Kohima","state":"Nagaland","latitude":25.6701,"longitude":94.1077,"temp":11.0,"humidity":90,"rain":0.0,"pressure":853.6,"uv_index":8.85,"wind_gusts":77.0,"aqi":66,"pm10":40.3,"pm2_5":29.4,"mosquito_risk":3,"arthritis_risk":10,"migraine_risk":7,"frizz_risk":0,"updated_at":"2026-04-11T01:20:24.735602+05:30"},{"city":"Gangtok","state":"Sikkim","latitude":27.3314,"longitude":88.6138,"temp":11.8,"humidity":90,"rain":0.1,"pressure":835.8,"uv_index":8.2,"wind_gusts":18.7,"aqi":69,"pm10":39.1,"pm2_5":31.5,"mosquito_risk":6,"arthritis_risk":10,"migraine_risk":7,"frizz_risk":0,"updated_at":"2026-04-11T01:20:24.735608+05:30"},{"city":"Siliguri","state":"West Bengal","latitude":26.7271,"longitude":88.3953,"temp":18.9,"humidity":62,"rain":0.0,"pressure":995.3,"uv_index":8.35,"wind_gusts":18.0,"aqi":100,"pm10":63.3,"pm2_5":51.6,"mosquito_risk":3,"arthritis_risk":5,"migraine_risk":7,"frizz_risk":0,"updated_at":"2026-04-11T01:20:27.964094+05:30"},{"city":"Durgapur","state":"West Bengal","latitude":23.5204,"longitude":87.3119,"temp":24.4,"humidity":57,"rain":0.0,"pressure":997.0,"uv_index":8.75,"wind_gusts":21.6,"aqi":131,"pm10":82.0,"pm2_5":59.8,"mosquito_risk":0,"arthritis_risk":5,"migraine_risk":7,"frizz_risk":0,"updated_at":"2026-04-11T01:20:27.964129+05:30"},{"city":"Asansol","state":"West Bengal","latitude":23.6739,"longitude":86.9524,"temp":24.7,"humidity":46,"rain":0.0,"pressure":995.5,"uv_index":8.8,"wind_gusts":22.3,"aqi":110,"pm10":67.8,"pm2_5":44.1,"mosquito_risk":0,"arthritis_risk":5,"migraine_risk":7,"frizz_risk":0,"updated_at":"2026-04-11T01:20:27.964140+05:30"},{"city":"Pondicherry","state":"Puducherry","latitude":11.9139,"longitude":79.8145,"temp":27.1,"humidity":91,"rain":0.0,"pressure":1010.4,"uv_index":9.35,"wind_gusts":33.5,"aqi":59,"pm10":19.6,"pm2_5":13.2,"mosquito_risk":7,"arthritis_risk":0,"migraine_risk":4,"frizz_risk":1,"updated_at":"2026-04-11T01:20:27.964148+05:30"},{"city":"Port Blair","state":"Andaman and Nicobar Islands","latitude":11.6234,"longitude":92.7265,"temp":29.1,"humidity":74,"rain":0.0,"pressure":1007.8,"uv_index":9.25,"wind_gusts":22.3,"aqi":35,"pm10":4.2,"pm2_5":2.9,"mosquito_risk":7,"arthritis_risk":5,"migraine_risk":4,"frizz_risk":1,"updated_at":"2026-04-11T01:20:27.964156+05:30"},{"city":"Haridwar","state":"Uttarakhand","latitude":29.9457,"longitude":78.1642,"temp":15.8,"humidity":81,"rain":0.0,"pressure":976.8,"uv_index":7.0,"wind_gusts":41.4,"aqi":80,"pm10":27.9,"pm2_5":27.3,"mosquito_risk":3,"arthritis_risk":10,"migraine_risk":7,"frizz_risk":0,"updated_at":"2026-04-11T01:20:27.964164+05:30"},{"city":"Rishikesh","state":"Uttarakhand","latitude":30.0869,"longitude":78.2676,"temp":16.5,"humidity":72,"rain":0.0,"pressure":969.3,"uv_index":7.05,"wind_gusts":40.0,"aqi":102,"pm10":33.1,"pm2_5":23.4,"mosquito_risk":3,"arthritis_risk":5,"migraine_risk":7,"frizz_risk":0,"updated_at":"2026-04-11T01:20:27.964171+05:30"},{"city":"Nainital","state":"Uttarakhand","latitude":29.3919,"longitude":79.4542,"temp":15.5,"humidity":47,"rain":0.0,"pressure":805.6,"uv_index":7.9,"wind_gusts":69.1,"aqi":97,"pm10":75.4,"pm2_5":25.6,"mosquito_risk":0,"arthritis_risk":5,"migraine_risk":7,"frizz_risk":0,"updated_at":"2026-04-11T01:20:27.964178+05:30"},{"city":"Mussoorie","state":"Uttarakhand","latitude":30.4599,"longitude":78.0664,"temp":13.3,"humidity":62,"rain":0.0,"pressure":802.3,"uv_index":7.45,"wind_gusts":52.2,"aqi":70,"pm10":31.0,"pm2_5":28.9,"mosquito_risk":3,"arthritis_risk":5,"migraine_risk":7,"frizz_risk":0,"updated_at":"2026-04-11T01:20:27.964185+05:30"},{"city":"Dharamshala","state":"Himachal Pradesh","latitude":32.219,"longitude":76.3234,"temp":17.2,"humidity":43,"rain":0.0,"pressure":871.4,"uv_index":7.65,"wind_gusts":22.7,"aqi":112,"pm10":19.2,"pm2_5":11.4,"mosquito_risk":0,"arthritis_risk":5,"migraine_risk":7,"frizz_risk":0,"updated_at":"2026-04-11T01:20:27.964192+05:30"},{"city":"Dalhousie","state":"Himachal Pradesh","latitude":32.5387,"longitude":75.971,"temp":13.0,"humidity":60,"rain":0.0,"pressure":804.5,"uv_index":7.65,"wind_gusts":23.8,"aqi":66,"pm10":28.9,"pm2_5":23.3,"mosquito_risk":0,"arthritis_risk":5,"migraine_risk":7,"frizz_risk":0,"updated_at":"2026-04-11T01:20:27.964200+05:30"},{"city":"Patiala","state":"Punjab","latitude":30.3398,"longitude":76.3869,"temp":19.9,"humidity":62,"rain":0.0,"pressure":982.4,"uv_index":7.05,"wind_gusts":34.6,"aqi":742,"pm10":763.7,"pm2_5":89.4,"mosquito_risk":3,"arthritis_risk":5,"migraine_risk":7,"frizz_risk":0,"updated_at":"2026-04-11T01:20:27.964206+05:30"},{"city":"Bhatinda","state":"Punjab","latitude":30.211,"longitude":74.9455,"temp":21.4,"humidity":60,"rain":0.0,"pressure":988.6,"uv_index":7.4,"wind_gusts":29.9,"aqi":78,"pm10":40.3,"pm2_5":24.8,"mosquito_risk":0,"arthritis_risk":5,"migraine_risk":7,"frizz_risk":0,"updated_at":"2026-04-11T01:20:27.964213+05:30"},{"city":"Rohtak","state":"Haryana","latitude":28.8955,"longitude":76.6066,"temp":20.3,"humidity":61,"rain":0.0,"pressure":985.8,"uv_index":7.2,"wind_gusts":33.1,"aqi":1095,"pm10":1147.4,"pm2_5":162.1,"mosquito_risk":3,"arthritis_risk":5,"migraine_risk":7,"frizz_risk":0,"updated_at":"2026-04-11T01:20:27.964219+05:30"},{"city":"Panipat","state":"Haryana","latitude":29.3909,"longitude":76.9635,"temp":20.1,"humidity":59,"rain":0.0,"pressure":984.2,"uv_index":7.0,"wind_gusts":35.6,"aqi":1999,"pm10":1996.8,"pm2_5":243.1,"mosquito_risk":0,"arthritis_risk":5,"migraine_risk":7,"frizz_risk":0,"updated_at":"2026-04-11T01:20:27.964225+05:30"},{"city":"Mathura","state":"Uttar Pradesh","latitude":27.4924,"longitude":77.6737,"temp":24.3,"humidity":44,"rain":0.0,"pressure":990.7,"uv_index":7.5,"wind_gusts":31.7,"aqi":1249,"pm10":1519.9,"pm2_5":190.5,"mosquito_risk":0,"arthritis_risk":5,"migraine_risk":7,"frizz_risk":0,"updated_at":"2026-04-11T01:20:27.964232+05:30"},{"city":"Vrindavan","state":"Uttar Pradesh","latitude":27.5823,"longitude":77.7027,"temp":20.4,"humidity":62,"rain":0.0,"pressure":991.0,"uv_index":7.45,"wind_gusts":38.2,"aqi":1249,"pm10":1519.9,"pm2_5":190.5,"mosquito_risk":3,"arthritis_risk":5,"migraine_risk":7,"frizz_risk":0,"updated_at":"2026-04-11T01:20:27.964239+05:30"},{"city":"Ayodhya","state":"Uttar Pradesh","latitude":26.7922,"longitude":82.1998,"temp":20.6,"humidity":48,"rain":0.0,"pressure":997.4,"uv_index":7.85,"wind_gusts":42.8,"aqi":92,"pm10":553.2,"pm2_5":104.3,"mosquito_risk":0,"arthritis_risk":5,"migraine_risk":7,"frizz_risk":0,"updated_at":"2026-04-11T01:20:27.964245+05:30"},{"city":"Ratlam","state":"Madhya Pradesh","latitude":23.3315,"longitude":75.0367,"temp":22.5,"humidity":51,"rain":0.0,"pressure":957.5,"uv_index":8.35,"wind_gusts":20.2,"aqi":77,"pm10":31.5,"pm2_5":18.0,"mosquito_risk":0,"arthritis_risk":5,"migraine_risk":7,"frizz_risk":0,"updated_at":"2026-04-11T01:20:27.964252+05:30"},{"city":"Sagar","state":"Madhya Pradesh","latitude":23.8388,"longitude":78.7378,"temp":24.2,"humidity":33,"rain":0.0,"pressure":953.4,"uv_index":8.5,"wind_gusts":28.1,"aqi":77,"pm10":32.5,"pm2_5":15.0,"mosquito_risk":0,"arthritis_risk":5,"migraine_risk":7,"frizz_risk":0,"updated_at":"2026-04-11T01:20:27.964257+05:30"},{"city":"Satna","state":"Madhya Pradesh","latitude":24.6005,"longitude":80.8322,"temp":23.4,"humidity":38,"rain":0.0,"pressure":974.6,"uv_index":8.5,"wind_gusts":34.2,"aqi":101,"pm10":21.9,"pm2_5":14.6,"mosquito_risk":0,"arthritis_risk":5,"migraine_risk":7,"frizz_risk":0,"updated_at":"2026-04-11T01:20:27.964263+05:30"},{"city":"Akola","state":"Maharashtra","latitude":20.7002,"longitude":77.0082,"temp":28.8,"humidity":38,"rain":0.0,"pressure":976.6,"uv_index":8.7,"wind_gusts":21.6,"aqi":84,"pm10":57.2,"pm2_5":37.1,"mosquito_risk":4,"arthritis_risk":5,"migraine_risk":7,"frizz_risk":0,"updated_at":"2026-04-11T01:20:27.964270+05:30"},{"city":"Amravati","state":"Maharashtra","latitude":20.9374,"longitude":77.7796,"temp":26.7,"humidity":39,"rain":0.0,"pressure":968.8,"uv_index":8.75,"wind_gusts":22.0,"aqi":82,"pm10":48.2,"pm2_5":28.9,"mosquito_risk":4,"arthritis_risk":5,"migraine_risk":7,"frizz_risk":0,"updated_at":"2026-04-11T01:20:27.964277+05:30"},{"city":"Latur","state":"Maharashtra","latitude":18.4088,"longitude":76.5604,"temp":26.9,"humidity":55,"rain":0.0,"pressure":940.8,"uv_index":9.0,"wind_gusts":16.6,"aqi":80,"pm10":43.7,"pm2_5":27.4,"mosquito_risk":4,"arthritis_risk":5,"migraine_risk":7,"frizz_risk":1,"updated_at":"2026-04-11T01:20:27.964283+05:30"},{"city":"Nanded","state":"Maharashtra","latitude":19.1383,"longitude":77.3091,"temp":28.4,"humidity":50,"rain":0.0,"pressure":969.6,"uv_index":8.9,"wind_gusts":13.0,"aqi":76,"pm10":50.5,"pm2_5":34.3,"mosquito_risk":4,"arthritis_risk":5,"migraine_risk":7,"frizz_risk":1,"updated_at":"2026-04-11T01:20:27.964290+05:30"},{"city":"Gulbarga","state":"Karnataka","latitude":17.3297,"longitude":76.8343,"temp":30.5,"humidity":42,"rain":0.0,"pressure":959.7,"uv_index":9.1,"wind_gusts":18.4,"aqi":79,"pm10":28.6,"pm2_5":21.4,"mosquito_risk":0,"arthritis_risk":5,"migraine_risk":7,"frizz_risk":1,"updated_at":"2026-04-11T01:20:27.964295+05:30"},{"city":"Bidar","state":"Karnataka","latitude":17.9104,"longitude":77.5199,"temp":27.8,"humidity":48,"rain":0.0,"pressure":936.8,"uv_index":9.05,"wind_gusts":28.1,"aqi":77,"pm10":44.2,"pm2_5":27.4,"mosquito_risk":4,"arthritis_risk":5,"migraine_risk":7,"frizz_risk":0,"updated_at":"2026-04-11T01:20:27.964301+05:30"},{"city":"Hospet","state":"Karnataka","latitude":15.2689,"longitude":76.3909,"temp":29.7,"humidity":59,"rain":0.0,"pressure":957.0,"uv_index":9.25,"wind_gusts":25.9,"aqi":108,"pm10":49.0,"pm2_5":33.2,"mosquito_risk":4,"arthritis_risk":5,"migraine_risk":7,"frizz_risk":1,"updated_at":"2026-04-11T01:20:27.964307+05:30"},{"city":"Tirupur","state":"Tamil Nadu","latitude":11.1085,"longitude":77.3411,"temp":26.4,"humidity":78,"rain":0.0,"pressure":977.4,"uv_index":9.25,"wind_gusts":35.6,"aqi":98,"pm10":46.6,"pm2_5":41.4,"mosquito_risk":7,"arthritis_risk":5,"migraine_risk":7,"frizz_risk":1,"updated_at":"2026-04-11T01:20:27.964313+05:30"},{"city":"Alappuzha","state":"Kerala","latitude":9.4981,"longitude":76.3388,"temp":26.3,"humidity":86,"rain":0.0,"pressure":1011.0,"uv_index":7.4,"wind_gusts":28.4,"aqi":75,"pm10":30.0,"pm2_5":19.4,"mosquito_risk":7,"arthritis_risk":0,"migraine_risk":4,"frizz_risk":1,"updated_at":"2026-04-11T01:20:27.964319+05:30"},{"city":"Munnar","state":"Kerala","latitude":10.0889,"longitude":77.0595,"temp":21.5,"humidity":88,"rain":0.0,"pressure":858.3,"uv_index":8.05,"wind_gusts":37.4,"aqi":79,"pm10":25.6,"pm2_5":24.0,"mosquito_risk":3,"arthritis_risk":5,"migraine_risk":7,"frizz_risk":1,"updated_at":"2026-04-11T01:20:27.964325+05:30"},{"city":"Silchar","state":"Assam","latitude":24.8333,"longitude":92.7789,"temp":20.1,"humidity":91,"rain":0.0,"pressure":1007.9,"uv_index":8.6,"wind_gusts":24.5,"aqi":125,"pm10":74.3,"pm2_5":56.8,"mosquito_risk":3,"arthritis_risk":5,"migraine_risk":4,"frizz_risk":1,"updated_at":"2026-04-11T01:20:27.964332+05:30"},{"city":"Dibrugarh","state":"Assam","latitude":27.4728,"longitude":94.912,"temp":19.8,"humidity":92,"rain":0.0,"pressure":998.7,"uv_index":8.4,"wind_gusts":19.1,"aqi":94,"pm10":26.7,"pm2_5":21.4,"mosquito_risk":3,"arthritis_risk":10,"migraine_risk":7,"frizz_risk":1,"updated_at":"2026-04-11T01:20:27.964338+05:30"}]