[{"city":"Delhi","state":"Delhi","latitude":28.6139,"longitude":77.209,"temp":32.0,"humidity":27,"rain":0.0,"pressure":975.7,"uv_index":7.75,"wind_gusts":37.1,"aqi":604,"pm10":637.0,"pm2_5":144.8,"no2":18.2,"co":233.0,"o3":49.0,"so2":9.0,"mosquito_risk":0,"arthritis_risk":5,"migraine_risk":7,"frizz_risk":0,"updated_at":"2026-05-19T03:34:59.000912+05:30"},{"city":"Mumbai","state":"Maharashtra","latitude":19.076,"longitude":72.8777,"temp":28.5,"humidity":82,"rain":0.0,"pressure":1004.2,"uv_index":7.9,"wind_gusts":43.6,"aqi":71,"pm10":56.2,"pm2_5":23.0,"no2":8.9,"co":206.0,"o3":55.0,"so2":4.4,"mosquito_risk":7,"arthritis_risk":5,"migraine_risk":4,"frizz_risk":1,"updated_at":"2026-05-19T03:34:59.000953+05:30"},{"city":"Bangalore","state":"Karnataka","latitude":12.9716,"longitude":77.5946,"temp":21.5,"humidity":97,"rain":0.0,"pressure":908.7,"uv_index":6.7,"wind_gusts":38.9,"aqi":76,"pm10":11.5,"pm2_5":10.8,"no2":12.1,"co":227.0,"o3":57.0,"so2":6.9,"mosquito_risk":3,"arthritis_risk":5,"migraine_risk":7,"frizz_risk":1,"updated_at":"2026-05-19T03:34:59.000965+05:30"},{"city":"Hyderabad","state":"Telangana","latitude":17.385,"longitude":78.4867,"temp":29.0,"humidity":64,"rain":0.0,"pressure":949.1,"uv_index":8.65,"wind_gusts":28.8,"aqi":64,"pm10":28.3,"pm2_5":26.0,"no2":10.3,"co":276.0,"o3":89.0,"so2":8.7,"mosquito_risk":7,"arthritis_risk":5,"migraine_risk":7,"frizz_risk":1,"updated_at":"2026-05-19T03:34:59.000973+05:30"},{"city":"Chennai","state":"Tamil Nadu","latitude":13.0827,"longitude":80.2707,"temp":29.0,"humidity":79,"rain":0.0,"pressure":1002.5,"uv_index":9.1,"wind_gusts":42.5,"aqi":57,"pm10":14.0,"pm2_5":11.6,"no2":13.3,"co":287.0,"o3":63.0,"so2":15.5,"mosquito_risk":7,"arthritis_risk":5,"migraine_risk":4,"frizz_risk":1,"updated_at":"2026-05-19T03:34:59.000980+05:30"},{"city":"Kolkata","state":"West Bengal","latitude":22.5726,"longitude":88.3639,"temp":28.8,"humidity":92,"rain":0.0,"pressure":1000.4,"uv_index":8.95,"wind_gusts":33.8,"aqi":73,"pm10":21.8,"pm2_5":17.4,"no2":7.0,"co":216.0,"o3":70.0,"so2":6.0,"mosquito_risk":7,"arthritis_risk":5,"migraine_risk":4,"frizz_risk":1,"updated_at":"2026-05-19T03:34:59.000986+05:30"},{"city":"Pune","state":"Maharashtra","latitude":18.5204,"longitude":73.8567,"temp":25.2,"humidity":80,"rain":0.0,"pressure":944.7,"uv_index":8.5,"wind_gusts":41.8,"aqi":76,"pm10":35.4,"pm2_5":24.2,"no2":17.3,"co":176.0,"o3":61.0,"so2":23.4,"mosquito_risk":7,"arthritis_risk":5,"migraine_risk":7,"frizz_risk":1,"updated_at":"2026-05-19T03:34:59.000992+05:30"},{"city":"Ahmedabad","state":"Gujarat","latitude":23.0225,"longitude":72.5714,"temp":31.0,"humidity":42,"rain":0.0,"pressure":996.9,"uv_index":8.15,"wind_gusts":33.5,"aqi":67,"pm10":34.2,"pm2_5":17.8,"no2":4.3,"co":147.0,"o3":55.0,"so2":3.2,"mosquito_risk":0,"arthritis_risk":5,"migraine_risk":7,"frizz_risk":1,"updated_at":"2026-05-19T03:34:59.000999+05:30"},{"city":"Jaipur","state":"Rajasthan","latitude":26.9124,"longitude":75.7873,"temp":32.5,"humidity":23,"rain":0.0,"pressure":954.3,"uv_index":8.25,"wind_gusts":37.4,"aqi":174,"pm10":337.1,"pm2_5":63.1,"no2":4.3,"co":163.0,"o3":75.0,"so2":3.7,"mosquito_risk":0,"arthritis_risk":5,"migraine_risk":7,"frizz_risk":0,"updated_at":"2026-05-19T03:34:59.001008+05:30"},{"city":"Lucknow","state":"Uttar Pradesh","latitude":26.8467,"longitude":80.9462,"temp":30.9,"humidity":51,"rain":0.0,"pressure":986.1,"uv_index":8.2,"wind_gusts":34.9,"aqi":194,"pm10":450.8,"pm2_5":122.9,"no2":52.2,"co":444.0,"o3":13.0,"so2":15.7,"mosquito_risk":0,"arthritis_risk":5,"migraine_risk":7,"frizz_risk":1,"updated_at":"2026-05-19T03:34:59.001013+05:30"},{"city":"Kanpur","state":"Uttar Pradesh","latitude":26.4499,"longitude":80.3319,"temp":32.5,"humidity":37,"rain":0.0,"pressure":984.3,"uv_index":8.25,"wind_gusts":40.7,"aqi":429,"pm10":551.3,"pm2_5":123.9,"no2":33.1,"co":355.0,"o3":26.0,"so2":11.4,"mosquito_risk":0,"arthritis_risk":5,"migraine_risk":7,"frizz_risk":0,"updated_at":"2026-05-19T03:34:59.001018+05:30"},{"city":"Chandigarh","state":"Chandigarh","latitude":30.7333,"longitude":76.7794,"temp":31.3,"humidity":32,"rain":0.0,"pressure":960.6,"uv_index":7.8,"wind_gusts":27.7,"aqi":64,"pm10":31.8,"pm2_5":22.9,"no2":14.8,"co":294.0,"o3":76.0,"so2":11.1,"mosquito_risk":0,"arthritis_risk":5,"migraine_risk":7,"frizz_risk":0,"updated_at":"2026-05-19T03:34:59.001025+05:30"},{"city":"Srinagar","state":"Jammu and Kashmir","latitude":34.0837,"longitude":74.7973,"temp":13.1,"humidity":91,"rain":0.0,"pressure":836.6,"uv_index":8.85,"wind_gusts":41.4,"aqi":70,"pm10":38.1,"pm2_5":28.3,"no2":18.9,"co":312.0,"o3":25.0,"so2":0.2,"mosquito_risk":3,"arthritis_risk":10,"migraine_risk":7,"frizz_risk":0,"updated_at":"2026-05-19T03:34:59.001031+05:30"},{"city":"Jammu","state":"Jammu and Kashmir","latitude":32.7266,"longitude":74.857,"temp":25.6,"humidity":55,"rain":0.0,"pressure":964.4,"uv_index":8.55,"wind_gusts":30.2,"aqi":74,"pm10":29.2,"pm2_5":27.0,"no2":30.8,"co":311.0,"o3":15.0,"so2":2.0,"mosquito_risk":4,"arthritis_risk":5,"migraine_risk":7,"frizz_risk":0,"updated_at":"2026-05-19T03:34:59.001037+05:30"},{"city":"Amritsar","state":"Punjab","latitude":31.634,"longitude":74.8723,"temp":29.0,"humidity":56,"rain":0.0,"pressure":972.0,"uv_index":8.45,"wind_gusts":24.8,"aqi":94,"pm10":88.7,"pm2_5":65.9,"no2":41.2,"co":836.0,"o3":40.0,"so2":16.1,"mosquito_risk":4,"arthritis_risk":5,"migraine_risk":7,"frizz_risk":1,"updated_at":"2026-05-19T03:34:59.001042+05:30"},{"city":"Ludhiana","state":"Punjab","latitude":30.901,"longitude":75.8573,"temp":29.9,"humidity":53,"rain":0.0,"pressure":970.4,"uv_index":8.05,"wind_gusts":29.2,"aqi":94,"pm10":56.7,"pm2_5":42.4,"no2":19.6,"co":755.0,"o3":50.0,"so2":9.0,"mosquito_risk":4,"arthritis_risk":5,"migraine_risk":7,"frizz_risk":1,"updated_at":"2026-05-19T03:34:59.001047+05:30"},{"city":"Jalandhar","state":"Punjab","latitude":31.326,"longitude":75.5762,"temp":28.8,"humidity":49,"rain":0.0,"pressure":970.9,"uv_index":8.25,"wind_gusts":24.1,"aqi":105,"pm10":70.3,"pm2_5":51.3,"no2":27.4,"co":1107.0,"o3":45.0,"so2":10.3,"mosquito_risk":4,"arthritis_risk":5,"migraine_risk":7,"frizz_risk":1,"updated_at":"2026-05-19T03:34:59.001054+05:30"},{"city":"Dehradun","state":"Uttarakhand","latitude":30.6284,"longitude":78.0322,"temp":14.3,"humidity":85,"rain":0.0,"pressure":823.2,"uv_index":8.2,"wind_gusts":43.2,"aqi":43,"pm10":13.9,"pm2_5":12.7,"no2":26.0,"co":258.0,"o3":14.0,"so2":0.7,"mosquito_risk":3,"arthritis_risk":10,"migraine_risk":7,"frizz_risk":0,"updated_at":"2026-05-19T03:34:59.001071+05:30"},{"city":"Shimla","state":"Himachal Pradesh","latitude":31.1048,"longitude":77.1734,"temp":16.3,"humidity":51,"rain":0.0,"pressure":781.0,"uv_index":8.3,"wind_gusts":46.1,"aqi":58,"pm10":20.5,"pm2_5":17.4,"no2":17.8,"co":197.0,"o3":73.0,"so2":3.2,"mosquito_risk":0,"arthritis_risk":5,"migraine_risk":7,"frizz_risk":0,"updated_at":"2026-05-19T03:34:59.001079+05:30"},{"city":"Manali","state":"Himachal Pradesh","latitude":32.2396,"longitude":77.1887,"temp":10.9,"humidity":38,"rain":0.0,"pressure":811.6,"uv_index":9.65,"wind_gusts":47.5,"aqi":25,"pm10":10.2,"pm2_5":5.2,"no2":51.5,"co":207.0,"o3":54.0,"so2":0.1,"mosquito_risk":0,"arthritis_risk":5,"migraine_risk":7,"frizz_risk":1,"updated_at":"2026-05-19T03:34:59.001083+05:30"},{"city":"Gurgaon","state":"Haryana","latitude":28.4595,"longitude":77.0266,"temp":30.1,"humidity":29,"rain":0.0,"pressure":974.1,"uv_index":7.85,"wind_gusts":34.2,"aqi":1405,"pm10":1765.8,"pm2_5":264.5,"no2":13.4,"co":220.0,"o3":55.0,"so2":7.5,"mosquito_risk":0,"arthritis_risk":5,"migraine_risk":7,"frizz_risk":0,"updated_at":"2026-05-19T03:34:59.001089+05:30"},{"city":"Noida","state":"Uttar Pradesh","latitude":28.5355,"longitude":77.391,"temp":30.0,"humidity":34,"rain":0.0,"pressure":976.7,"uv_index":7.8,"wind_gusts":31.3,"aqi":1405,"pm10":1765.8,"pm2_5":264.5,"no2":13.4,"co":244.0,"o3":55.0,"so2":7.5,"mosquito_risk":4,"arthritis_risk":5,"migraine_risk":7,"frizz_risk":0,"updated_at":"2026-05-19T03:34:59.001093+05:30"},{"city":"Ghaziabad","state":"Uttar Pradesh","latitude":28.6692,"longitude":77.4538,"temp":31.1,"humidity":32,"rain":0.0,"pressure":975.0,"uv_index":7.75,"wind_gusts":36.0,"aqi":506,"pm10":579.3,"pm2_5":150.9,"no2":20.0,"co":293.0,"o3":46.0,"so2":11.1,"mosquito_risk":0,"arthritis_risk":5,"migraine_risk":7,"frizz_risk":0,"updated_at":"2026-05-19T03:34:59.001098+05:30"},{"city":"Faridabad","state":"Haryana","latitude":28.4089,"longitude":77.3178,"temp":32.2,"humidity":26,"rain":0.0,"pressure":976.3,"uv_index":7.8,"wind_gusts":40.0,"aqi":1405,"pm10":1765.8,"pm2_5":264.5,"no2":13.4,"co":224.0,"o3":55.0,"so2":7.5,"mosquito_risk":0,"arthritis_risk":5,"migraine_risk":7,"frizz_risk":0,"updated_at":"2026-05-19T03:34:59.001103+05:30"},{"city":"Meerut","state":"Uttar Pradesh","latitude":28.9845,"longitude":77.7064,"temp":30.7,"humidity":39,"rain":0.0,"pressure":973.2,"uv_index":7.65,"wind_gusts":27.0,"aqi":506,"pm10":579.3,"pm2_5":150.9,"no2":20.0,"co":342.0,"o3":46.0,"so2":11.1,"mosquito_risk":0,"arthritis_risk":5,"migraine_risk":7,"frizz_risk":0,"updated_at":"2026-05-19T03:34:59.001108+05:30"},{"city":"Agra","state":"Uttar Pradesh","latitude":27.1767,"longitude":78.0081,"temp":32.5,"humidity":26,"rain":0.0,"pressure":980.1,"uv_index":8.1,"wind_gusts":41.8,"aqi":707,"pm10":853.1,"pm2_5":117.8,"no2":14.2,"co":201.0,"o3":42.0,"so2":5.4,"mosquito_risk":0,"arthritis_risk":5,"migraine_risk":7,"frizz_risk":0,"updated_at":"2026-05-19T03:34:59.001113+05:30"},{"city":"Varanasi","state":"Uttar Pradesh","latitude":25.3176,"longitude":82.9739,"temp":31.1,"humidity":54,"rain":0.0,"pressure":990.6,"uv_index":8.7,"wind_gusts":32.0,"aqi":120,"pm10":138.8,"pm2_5":72.9,"no2":54.5,"co":761.0,"o3":12.0,"so2":16.4,"mosquito_risk":0,"arthritis_risk":5,"migraine_risk":7,"frizz_risk":1,"updated_at":"2026-05-19T03:34:59.001118+05:30"},{"city":"Prayagraj","state":"Uttar Pradesh","latitude":25.4358,"longitude":81.8463,"temp":31.5,"humidity":44,"rain":0.0,"pressure":988.6,"uv_index":8.65,"wind_gusts":36.4,"aqi":150,"pm10":230.0,"pm2_5":99.2,"no2":63.5,"co":395.0,"o3":7.0,"so2":17.5,"mosquito_risk":0,"arthritis_risk":5,"migraine_risk":7,"frizz_risk":1,"updated_at":"2026-05-19T03:34:59.001123+05:30"},{"city":"Gorakhpur","state":"Uttar Pradesh","latitude":26.7606,"longitude":83.3732,"temp":28.5,"humidity":77,"rain":0.0,"pressure":991.7,"uv_index":8.65,"wind_gusts":36.7,"aqi":166,"pm10":91.7,"pm2_5":78.2,"no2":15.7,"co":617.0,"o3":91.0,"so2":18.3,"mosquito_risk":7,"arthritis_risk":5,"migraine_risk":7,"frizz_risk":1,"updated_at":"2026-05-19T03:34:59.001130+05:30"},{"city":"Bareilly","state":"Uttar Pradesh","latitude":28.367,"longitude":79.4304,"temp":27.5,"humidity":69,"rain":0.0,"pressure":978.9,"uv_index":8.05,"wind_gusts":28.4,"aqi":155,"pm10":208.6,"pm2_5":92.2,"no2":54.5,"co":631.0,"o3":25.0,"so2":16.9,"mosquito_risk":7,"arthritis_risk":5,"migraine_risk":7,"frizz_risk":1,"updated_at":"2026-05-19T03:34:59.001135+05:30"},{"city":"Aligarh","state":"Uttar Pradesh","latitude":27.8974,"longitude":78.088,"temp":29.7,"humidity":35,"rain":0.0,"pressure":977.9,"uv_index":7.9,"wind_gusts":36.4,"aqi":841,"pm10":1013.3,"pm2_5":197.0,"no2":15.3,"co":289.0,"o3":50.0,"so2":8.4,"mosquito_risk":4,"arthritis_risk":5,"migraine_risk":7,"frizz_risk":0,"updated_at":"2026-05-19T03:34:59.001140+05:30"},{"city":"Moradabad","state":"Uttar Pradesh","latitude":28.8386,"longitude":78.7733,"temp":28.3,"humidity":67,"rain":0.0,"pressure":975.7,"uv_index":7.85,"wind_gusts":26.3,"aqi":168,"pm10":439.6,"pm2_5":143.9,"no2":64.2,"co":889.0,"o3":6.0,"so2":18.8,"mosquito_risk":7,"arthritis_risk":5,"migraine_risk":7,"frizz_risk":1,"updated_at":"2026-05-19T03:34:59.001144+05:30"},{"city":"Saharanpur","state":"Uttar Pradesh","latitude":29.9637,"longitude":77.546,"temp":29.5,"humidity":39,"rain":0.0,"pressure":967.2,"uv_index":7.4,"wind_gusts":25.2,"aqi":112,"pm10":64.3,"pm2_5":38.3,"no2":25.2,"co":393.0,"o3":65.0,"so2":13.5,"mosquito_risk":4,"arthritis_risk":5,"migraine_risk":7,"frizz_risk":0,"updated_at":"2026-05-19T03:34:59.001149+05:30"},{"city":"Jhansi","state":"Uttar Pradesh","latitude":25.4484,"longitude":78.5685,"temp":33.0,"humidity":26,"rain":0.0,"pressure":970.7,"uv_index":8.5,"wind_gusts":29.9,"aqi":69,"pm10":66.6,"pm2_5":26.0,"no2":4.0,"co":167.0,"o3":65.0,"so2":2.0,"mosquito_risk":0,"arthritis_risk":5,"migraine_risk":7,"frizz_risk":0,"updated_at":"2026-05-19T03:35:02.467401+05:30"},{"city":"Surat","state":"Gujarat","latitude":21.1702,"longitude":72.8311,"temp":28.4,"humidity":89,"rain":0.0,"pressure":1001.3,"uv_index":7.75,"wind_gusts":40.3,"aqi":96,"pm10":51.5,"pm2_5":32.6,"no2":32.7,"co":281.0,"o3":29.0,"so2":43.1,"mosquito_risk":7,"arthritis_risk":5,"migraine_risk":4,"frizz_risk":1,"updated_at":"2026-05-19T03:35:02.467432+05:30"},{"city":"Vadodara","state":"Gujarat","latitude":22.3072,"longitude":73.1812,"temp":31.0,"humidity":42,"rain":0.0,"pressure":998.7,"uv_index":7.75,"wind_gusts":44.3,"aqi":73,"pm10":36.6,"pm2_5":23.3,"no2":11.5,"co":202.0,"o3":48.0,"so2":7.9,"mosquito_risk":0,"arthritis_risk":5,"migraine_risk":7,"frizz_risk":1,"updated_at":"2026-05-19T03:35:02.467441+05:30"},{"city":"Rajkot","state":"Gujarat","latitude":22.3039,"longitude":70.8022,"temp":25.5,"humidity":91,"rain":0.0,"pressure":990.1,"uv_index":7.7,"wind_gusts":43.2,"aqi":68,"pm10":26.7,"pm2_5":10.7,"no2":6.2,"co":119.0,"o3":43.0,"so2":5.5,"mosquito_risk":7,"arthritis_risk":5,"migraine_risk":7,"frizz_risk":1,"updated_at":"2026-05-19T03:35:02.467448+05:30"},{"city":"Thane","state":"Maharashtra","latitude":19.2183,"longitude":72.9781,"temp":28.2,"humidity":87,"rain":0.0,"pressure":1003.5,"uv_index":7.9,"wind_gusts":39.6,"aqi":71,"pm10":56.2,"pm2_5":23.0,"no2":8.9,"co":207.0,"o3":55.0,"so2":4.4,"mosquito_risk":7,"arthritis_risk":5,"migraine_risk":4,"frizz_risk":1,"updated_at":"2026-05-19T03:35:02.467455+05:30"},{"city":"Nagpur","state":"Maharashtra","latitude":21.1458,"longitude":79.0882,"temp":33.1,"humidity":42,"rain":0.0,"pressure":967.8,"uv_index":8.1,"wind_gusts":40.7,"aqi":75,"pm10":28.6,"pm2_5":25.7,"no2":14.5,"co":295.0,"o3":84.0,"so2":22.5,"mosquito_risk":0,"arthritis_risk":5,"migraine_risk":7,"frizz_risk":1,"updated_at":"2026-05-19T03:35:02.467461+05:30"},{"city":"Nashik","state":"Maharashtra","latitude":19.9975,"longitude":73.7898,"temp":26.0,"humidity":46,"rain":0.0,"pressure":941.3,"uv_index":8.2,"wind_gusts":37.8,"aqi":66,"pm10":33.2,"pm2_5":19.6,"no2":11.7,"co":162.0,"o3":54.0,"so2":2.5,"mosquito_risk":4,"arthritis_risk":5,"migraine_risk":7,"frizz_risk":0,"updated_at":"2026-05-19T03:35:02.467467+05:30"},{"city":"Aurangabad","state":"Maharashtra","latitude":19.8762,"longitude":75.3433,"temp":30.5,"humidity":35,"rain":0.0,"pressure":939.6,"uv_index":9.05,"wind_gusts":36.7,"aqi":64,"pm10":32.0,"pm2_5":23.0,"no2":10.9,"co":213.0,"o3":102.0,"so2":12.1,"mosquito_risk":0,"arthritis_risk":5,"migraine_risk":7,"frizz_risk":0,"updated_at":"2026-05-19T03:35:02.467473+05:30"},{"city":"Solapur","state":"Maharashtra","latitude":17.6599,"longitude":75.9064,"temp":30.0,"humidity":62,"rain":0.0,"pressure":953.2,"uv_index":7.75,"wind_gusts":41.8,"aqi":71,"pm10":26.4,"pm2_5":21.8,"no2":12.0,"co":190.0,"o3":62.0,"so2":5.1,"mosquito_risk":7,"arthritis_risk":5,"migraine_risk":7,"frizz_risk":1,"updated_at":"2026-05-19T03:35:02.467479+05:30"},{"city":"Kolhapur","state":"Maharashtra","latitude":16.705,"longitude":74.2433,"temp":24.6,"humidity":89,"rain":0.0,"pressure":944.5,"uv_index":8.0,"wind_gusts":43.9,"aqi":59,"pm10":25.7,"pm2_5":14.8,"no2":4.5,"co":138.0,"o3":63.0,"so2":2.5,"mosquito_risk":3,"arthritis_risk":5,"migraine_risk":7,"frizz_risk":1,"updated_at":"2026-05-19T03:35:02.467485+05:30"},{"city":"Goa","state":"Goa","latitude":15.2993,"longitude":74.124,"temp":28.6,"humidity":83,"rain":0.0,"pressure":994.9,"uv_index":6.1,"wind_gusts":27.0,"aqi":67,"pm10":53.4,"pm2_5":24.6,"no2":5.3,"co":339.0,"o3":52.0,"so2":1.9,"mosquito_risk":7,"arthritis_risk":5,"migraine_risk":7,"frizz_risk":1,"updated_at":"2026-05-19T03:35:02.467491+05:30"},{"city":"Jodhpur","state":"Rajasthan","latitude":26.2389,"longitude":73.0243,"temp":30.9,"humidity":25,"rain":0.0,"pressure":977.5,"uv_index":8.45,"wind_gusts":39.6,"aqi":142,"pm10":202.1,"pm2_5":46.9,"no2":4.2,"co":141.0,"o3":61.0,"so2":3.2,"mosquito_risk":0,"arthritis_risk":5,"migraine_risk":7,"frizz_risk":0,"updated_at":"2026-05-19T03:35:02.467497+05:30"},{"city":"Udaipur","state":"Rajasthan","latitude":24.5854,"longitude":73.7125,"temp":30.4,"humidity":22,"rain":0.0,"pressure":941.6,"uv_index":8.85,"wind_gusts":41.0,"aqi":56,"pm10":34.2,"pm2_5":16.2,"no2":3.0,"co":130.0,"o3":69.0,"so2":3.3,"mosquito_risk":0,"arthritis_risk":5,"migraine_risk":7,"frizz_risk":0,"updated_at":"2026-05-19T03:35:02.467503+05:30"},{"city":"Kota","state":"Rajasthan","latitude":25.2138,"longitude":75.8648,"temp":33.2,"humidity":23,"rain":0.0,"pressure":972.8,"uv_index":8.4,"wind_gusts":32.4,"aqi":82,"pm10":37.7,"pm2_5":23.0,"no2":10.1,"co":182.0,"o3":50.0,"so2":4.5,"mosquito_risk":0,"arthritis_risk":5,"migraine_risk":7,"frizz_risk":0,"updated_at":"2026-05-19T03:35:02.467509+05:30"},{"city":"Bikaner","state":"Rajasthan","latitude":28.0229,"longitude":73.3119,"temp":31.8,"humidity":18,"rain":0.0,"pressure":975.5,"uv_index":8.4,"wind_gusts":36.0,"aqi":102,"pm10":321.3,"pm2_5":94.8,"no2":1.8,"co":126.0,"o3":81.0,"so2":1.9,"mosquito_risk":0,"arthritis_risk":5,"migraine_risk":7,"frizz_risk":0,"updated_at":"2026-05-19T03:35:02.467516+05:30"},{"city":"Ajmer","state":"Rajasthan","latitude":26.4499,"longitude":74.6399,"temp":30.0,"humidity":24,"rain":0.0,"pressure":950.0,"uv_index":8.4,"wind_gusts":41.8,"aqi":82,"pm10":75.9,"pm2_5":25.0,"no2":4.3,"co":167.0,"o3":72.0,"so2":4.1,"mosquito_risk":4,"arthritis_risk":5,"migraine_risk":7,"frizz_risk":0,"updated_at":"2026-05-19T03:35:02.467521+05:30"},{"city":"Gwalior","state":"Madhya Pradesh","latitude":26.2183,"longitude":78.1828,"temp":33.5,"humidity":25,"rain":0.0,"pressure":975.8,"uv_index":8.3,"wind_gusts":38.9,"aqi":84,"pm10":59.6,"pm2_5":26.5,"no2":7.2,"co":173.0,"o3":54.0,"so2":3.4,"mosquito_risk":0,"arthritis_risk":5,"migraine_risk":7,"frizz_risk":0,"updated_at":"2026-05-19T03:35:02.467527+05:30"},{"city":"Indore","state":"Madhya Pradesh","latitude":22.7196,"longitude":75.8577,"temp":32.3,"humidity":23,"rain":0.0,"pressure":943.6,"uv_index":8.65,"wind_gusts":42.8,"aqi":73,"pm10":30.2,"pm2_5":17.6,"no2":2.9,"co":206.0,"o3":93.0,"so2":5.4,"mosquito_risk":0,"arthritis_risk":5,"migraine_risk":7,"frizz_risk":0,"updated_at":"2026-05-19T03:35:02.467533+05:30"},{"city":"Bhopal","state":"Madhya Pradesh","latitude":23.2599,"longitude":77.4126,"temp":34.1,"humidity":21,"rain":0.0,"pressure":948.0,"uv_index":8.7,"wind_gusts":39.6,"aqi":74,"pm10":88.5,"pm2_5":35.2,"no2":13.4,"co":371.0,"o3":66.0,"so2":7.8,"mosquito_risk":0,"arthritis_risk":5,"migraine_risk":7,"frizz_risk":0,"updated_at":"2026-05-19T03:35:02.467538+05:30"},{"city":"Jabalpur","state":"Madhya Pradesh","latitude":23.1815,"longitude":79.9864,"temp":31.5,"humidity":36,"rain":0.0,"pressure":955.5,"uv_index":8.6,"wind_gusts":36.7,"aqi":84,"pm10":59.4,"pm2_5":38.3,"no2":31.8,"co":251.0,"o3":32.0,"so2":5.3,"mosquito_risk":0,"arthritis_risk":5,"migraine_risk":7,"frizz_risk":0,"updated_at":"2026-05-19T03:35:02.467544+05:30"},{"city":"Ujjain","state":"Madhya Pradesh","latitude":23.1765,"longitude":75.7885,"temp":32.2,"humidity":23,"rain":0.0,"pressure":948.9,"uv_index":8.6,"wind_gusts":44.6,"aqi":66,"pm10":30.2,"pm2_5":17.9,"no2":3.3,"co":240.0,"o3":83.0,"so2":5.1,"mosquito_risk":0,"arthritis_risk":5,"migraine_risk":7,"frizz_risk":0,"updated_at":"2026-05-19T03:35:02.467550+05:30"},{"city":"Visakhapatnam","state":"Andhra Pradesh","latitude":17.6868,"longitude":83.2185,"temp":28.9,"humidity":87,"rain":0.0,"pressure":1000.1,"uv_index":9.05,"wind_gusts":47.5,"aqi":64,"pm10":20.7,"pm2_5":15.4,"no2":15.5,"co":319.0,"o3":56.0,"so2":29.5,"mosquito_risk":7,"arthritis_risk":5,"migraine_risk":4,"frizz_risk":1,"updated_at":"2026-05-19T03:35:02.467556+05:30"},{"city":"Vijayawada","state":"Andhra Pradesh","latitude":16.5062,"longitude":80.648,"temp":29.5,"humidity":83,"rain":0.0,"pressure":998.4,"uv_index":8.5,"wind_gusts":27.0,"aqi":64,"pm10":18.5,"pm2_5":14.4,"no2":5.5,"co":225.0,"o3":81.0,"so2":4.7,"mosquito_risk":7,"arthritis_risk":5,"migraine_risk":7,"frizz_risk":1,"updated_at":"2026-05-19T03:35:02.467561+05:30"},{"city":"Guntur","state":"Andhra Pradesh","latitude":16.3067,"longitude":80.4365,"temp":29.9,"humidity":83,"rain":0.0,"pressure":999.4,"uv_index":8.65,"wind_gusts":32.0,"aqi":67,"pm10":18.5,"pm2_5":14.8,"no2":5.3,"co":222.0,"o3":89.0,"so2":4.3,"mosquito_risk":7,"arthritis_risk":5,"migraine_risk":7,"frizz_risk":1,"updated_at":"2026-05-19T03:35:02.467567+05:30"},{"city":"Nellore","state":"Andhra Pradesh","latitude":14.4426,"longitude":79.9865,"temp":29.8,"humidity":74,"rain":0.0,"pressure":1000.7,"uv_index":8.55,"wind_gusts":42.8,"aqi":64,"pm10":19.0,"pm2_5":17.8,"no2":10.8,"co":290.0,"o3":80.0,"so2":16.1,"mosquito_risk":7,"arthritis_risk":5,"migraine_risk":4,"frizz_risk":1,"updated_at":"2026-05-19T03:35:02.467573+05:30"},{"city":"Kurnool","state":"Andhra Pradesh","latitude":15.8281,"longitude":78.0373,"temp":31.2,"humidity":61,"rain":0.0,"pressure":972.0,"uv_index":7.25,"wind_gusts":40.7,"aqi":65,"pm10":23.5,"pm2_5":21.8,"no2":6.1,"co":241.0,"o3":95.0,"so2":8.6,"mosquito_risk":3,"arthritis_risk":5,"migraine_risk":7,"frizz_risk":1,"updated_at":"2026-05-19T03:35:02.467579+05:30"},{"city":"Kakinada","state":"Andhra Pradesh","latitude":16.9891,"longitude":82.2475,"temp":29.4,"humidity":85,"rain":0.0,"pressure":1003.8,"uv_index":8.25,"wind_gusts":29.5,"aqi":53,"pm10":16.4,"pm2_5":10.0,"no2":1.9,"co":238.0,"o3":70.0,"so2":1.1,"mosquito_risk":7,"arthritis_risk":5,"migraine_risk":4,"frizz_risk":1,"updated_at":"2026-05-19T03:35:02.467585+05:30"},{"city":"Tirupati","state":"Andhra Pradesh","latitude":13.6288,"longitude":79.4192,"temp":28.0,"humidity":76,"rain":0.0,"pressure":986.7,"uv_index":8.4,"wind_gusts":40.7,"aqi":72,"pm10":19.0,"pm2_5":17.6,"no2":12.0,"co":252.0,"o3":68.0,"so2":10.2,"mosquito_risk":7,"arthritis_risk":5,"migraine_risk":7,"frizz_risk":1,"updated_at":"2026-05-19T03:35:02.467590+05:30"},{"city":"Warangal","state":"Telangana","latitude":17.9689,"longitude":79.5941,"temp":28.5,"humidity":70,"rain":0.0,"pressure":974.1,"uv_index":9.1,"wind_gusts":33.5,"aqi":74,"pm10":27.5,"pm2_5":25.7,"no2":8.7,"co":268.0,"o3":96.0,"so2":11.2,"mosquito_risk":7,"arthritis_risk":5,"migraine_risk":7,"frizz_risk":1,"updated_at":"2026-05-19T03:35:02.467596+05:30"},{"city":"Nizamabad","state":"Telangana","latitude":18.6725,"longitude":78.0941,"temp":30.5,"humidity":51,"rain":0.0,"pressure":960.1,"uv_index":9.15,"wind_gusts":29.5,"aqi":79,"pm10":26.4,"pm2_5":24.0,"no2":12.8,"co":279.0,"o3":69.0,"so2":6.2,"mosquito_risk":0,"arthritis_risk":5,"migraine_risk":7,"frizz_risk":1,"updated_at":"2026-05-19T03:35:02.467614+05:30"},{"city":"Mysore","state":"Karnataka","latitude":12.2958,"longitude":76.6396,"temp":22.0,"humidity":93,"rain":0.0,"pressure":925.4,"uv_index":8.6,"wind_gusts":41.4,"aqi":52,"pm10":7.3,"pm2_5":7.1,"no2":10.0,"co":201.0,"o3":48.0,"so2":2.5,"mosquito_risk":3,"arthritis_risk":5,"migraine_risk":7,"frizz_risk":1,"updated_at":"2026-05-19T03:35:02.467620+05:30"},{"city":"Mangalore","state":"Karnataka","latitude":12.9141,"longitude":74.856,"temp":25.4,"humidity":96,"rain":0.0,"pressure":1004.5,"uv_index":8.2,"wind_gusts":34.6,"aqi":53,"pm10":10.0,"pm2_5":8.4,"no2":6.6,"co":165.0,"o3":58.0,"so2":2.4,"mosquito_risk":7,"arthritis_risk":5,"migraine_risk":4,"frizz_risk":1,"updated_at":"2026-05-19T03:35:02.467626+05:30"},{"city":"Hubli-Dharwad","state":"Karnataka","latitude":15.3647,"longitude":75.124,"temp":24.4,"humidity":89,"rain":0.0,"pressure":937.9,"uv_index":6.5,"wind_gusts":38.5,"aqi":57,"pm10":19.3,"pm2_5":10.6,"no2":5.5,"co":146.0,"o3":44.0,"so2":1.8,"mosquito_risk":3,"arthritis_risk":5,"migraine_risk":7,"frizz_risk":1,"updated_at":"2026-05-19T03:35:02.467632+05:30"},{"city":"Belgaum","state":"Karnataka","latitude":15.8497,"longitude":74.4977,"temp":22.9,"humidity":93,"rain":0.0,"pressure":922.6,"uv_index":8.8,"wind_gusts":41.0,"aqi":57,"pm10":25.9,"pm2_5":12.4,"no2":3.1,"co":124.0,"o3":58.0,"so2":1.5,"mosquito_risk":3,"arthritis_risk":5,"migraine_risk":7,"frizz_risk":1,"updated_at":"2026-05-19T03:35:05.847480+05:30"},{"city":"Coimbatore","state":"Tamil Nadu","latitude":11.0168,"longitude":76.9558,"temp":25.1,"humidity":80,"rain":0.0,"pressure":959.1,"uv_index":9.05,"wind_gusts":56.2,"aqi":27,"pm10":2.3,"pm2_5":2.1,"no2":4.8,"co":152.0,"o3":52.0,"so2":2.1,"mosquito_risk":7,"arthritis_risk":5,"migraine_risk":7,"frizz_risk":1,"updated_at":"2026-05-19T03:35:05.847510+05:30"},{"city":"Madurai","state":"Tamil Nadu","latitude":9.9252,"longitude":78.1198,"temp":27.5,"humidity":76,"rain":0.0,"pressure":990.7,"uv_index":8.55,"wind_gusts":37.4,"aqi":58,"pm10":11.8,"pm2_5":11.3,"no2":20.6,"co":403.0,"o3":24.0,"so2":4.8,"mosquito_risk":7,"arthritis_risk":5,"migraine_risk":7,"frizz_risk":1,"updated_at":"2026-05-19T03:35:05.847519+05:30"},{"city":"Trichy","state":"Tamil Nadu","latitude":10.7905,"longitude":78.7047,"temp":27.0,"humidity":81,"rain":0.0,"pressure":997.0,"uv_index":7.3,"wind_gusts":31.0,"aqi":55,"pm10":14.4,"pm2_5":14.0,"no2":20.4,"co":202.0,"o3":34.0,"so2":4.7,"mosquito_risk":7,"arthritis_risk":5,"migraine_risk":7,"frizz_risk":1,"updated_at":"2026-05-19T03:35:05.847527+05:30"},{"city":"Salem","state":"Tamil Nadu","latitude":11.6643,"longitude":78.146,"temp":26.2,"humidity":78,"rain":0.0,"pressure":974.7,"uv_index":6.0,"wind_gusts":42.1,"aqi":51,"pm10":13.8,"pm2_5":13.0,"no2":20.0,"co":291.0,"o3":31.0,"so2":6.3,"mosquito_risk":7,"arthritis_risk":5,"migraine_risk":3,"frizz_risk":1,"updated_at":"2026-05-19T03:35:05.847534+05:30"},{"city":"Tirunelveli","state":"Tamil Nadu","latitude":8.7139,"longitude":77.7567,"temp":27.4,"humidity":82,"rain":0.0,"pressure":1001.3,"uv_index":7.6,"wind_gusts":27.7,"aqi":28,"pm10":9.3,"pm2_5":7.0,"no2":5.7,"co":149.0,"o3":43.0,"so2":1.8,"mosquito_risk":7,"arthritis_risk":5,"migraine_risk":4,"frizz_risk":1,"updated_at":"2026-05-19T03:35:05.847540+05:30"},{"city":"Vellore","state":"Tamil Nadu","latitude":12.9165,"longitude":79.1325,"temp":27.6,"humidity":75,"rain":0.0,"pressure":980.5,"uv_index":7.75,"wind_gusts":39.6,"aqi":69,"pm10":19.5,"pm2_5":18.0,"no2":10.5,"co":245.0,"o3":66.0,"so2":6.7,"mosquito_risk":7,"arthritis_risk":5,"migraine_risk":7,"frizz_risk":1,"updated_at":"2026-05-19T03:35:05.847547+05:30"},{"city":"Erode","state":"Tamil Nadu","latitude":11.341,"longitude":77.7172,"temp":27.5,"humidity":71,"rain":0.0,"pressure":986.3,"uv_index":7.4,"wind_gusts":48.2,"aqi":39,"pm10":10.0,"pm2_5":9.5,"no2":18.4,"co":156.0,"o3":31.0,"so2":4.1,"mosquito_risk":7,"arthritis_risk":5,"migraine_risk":7,"frizz_risk":1,"updated_at":"2026-05-19T03:35:05.847553+05:30"},{"city":"Kochi","state":"Kerala","latitude":9.9312,"longitude":76.2673,"temp":25.6,"humidity":96,"rain":0.2,"pressure":1006.9,"uv_index":7.6,"wind_gusts":36.7,"aqi":32,"pm10":6.6,"pm2_5":5.6,"no2":6.0,"co":212.0,"o3":47.0,"so2":2.2,"mosquito_risk":10,"arthritis_risk":5,"migraine_risk":4,"frizz_risk":1,"updated_at":"2026-05-19T03:35:05.847559+05:30"},{"city":"Thiruvananthapuram","state":"Kerala","latitude":8.5241,"longitude":76.9366,"temp":25.2,"humidity":98,"rain":0.3,"pressure":1006.8,"uv_index":6.9,"wind_gusts":38.2,"aqi":40,"pm10":14.2,"pm2_5":8.0,"no2":1.0,"co":118.0,"o3":56.0,"so2":0.4,"mosquito_risk":10,"arthritis_risk":5,"migraine_risk":4,"frizz_risk":1,"updated_at":"2026-05-19T03:35:05.847565+05:30"},{"city":"Kozhikode","state":"Kerala","latitude":11.2588,"longitude":75.7804,"temp":24.6,"humidity":99,"rain":0.1,"pressure":1005.9,"uv_index":6.6,"wind_gusts":37.4,"aqi":30,"pm10":4.2,"pm2_5":3.3,"no2":2.6,"co":257.0,"o3":70.0,"so2":1.1,"mosquito_risk":6,"arthritis_risk":5,"migraine_risk":4,"frizz_risk":1,"updated_at":"2026-05-19T03:35:05.847571+05:30"},{"city":"Thrissur","state":"Kerala","latitude":10.5276,"longitude":76.2144,"temp":24.5,"humidity":98,"rain":0.0,"pressure":1005.1,"uv_index":5.55,"wind_gusts":34.9,"aqi":29,"pm10":5.6,"pm2_5":5.0,"no2":7.0,"co":196.0,"o3":42.0,"so2":2.5,"mosquito_risk":3,"arthritis_risk":5,"migraine_risk":0,"frizz_risk":1,"updated_at":"2026-05-19T03:35:05.847577+05:30"},{"city":"Kannur","state":"Kerala","latitude":11.8745,"longitude":75.3704,"temp":25.4,"humidity":94,"rain":0.1,"pressure":1005.0,"uv_index":7.45,"wind_gusts":34.2,"aqi":32,"pm10":7.3,"pm2_5":6.7,"no2":7.3,"co":212.0,"o3":44.0,"so2":2.7,"mosquito_risk":10,"arthritis_risk":5,"migraine_risk":4,"frizz_risk":1,"updated_at":"2026-05-19T03:35:05.847583+05:30"},{"city":"Patna","state":"Bihar","latitude":25.5941,"longitude":85.1376,"temp":27.8,"humidity":85,"rain":0.0,"pressure":994.8,"uv_index":8.8,"wind_gusts":41.0,"aqi":154,"pm10":42.0,"pm2_5":34.9,"no2":11.6,"co":446.0,"o3":96.0,"so2":14.2,"mosquito_risk":7,"arthritis_risk":5,"migraine_risk":7,"frizz_risk":1,"updated_at":"2026-05-19T03:35:05.847589+05:30"},{"city":"Gaya","state":"Bihar","latitude":24.7914,"longitude":85.0002,"temp":28.0,"humidity":65,"rain":0.0,"pressure":987.2,"uv_index":8.85,"wind_gusts":29.5,"aqi":143,"pm10":54.0,"pm2_5":44.8,"no2":12.7,"co":435.0,"o3":90.0,"so2":16.8,"mosquito_risk":7,"arthritis_risk":5,"migraine_risk":7,"frizz_risk":1,"updated_at":"2026-05-19T03:35:05.847595+05:30"},{"city":"Muzaffarpur","state":"Bihar","latitude":26.1209,"longitude":85.3647,"temp":26.9,"humidity":85,"rain":0.0,"pressure":995.6,"uv_index":8.8,"wind_gusts":44.6,"aqi":154,"pm10":39.2,"pm2_5":33.1,"no2":10.6,"co":430.0,"o3":91.0,"so2":11.8,"mosquito_risk":7,"arthritis_risk":5,"migraine_risk":7,"frizz_risk":1,"updated_at":"2026-05-19T03:35:05.847600+05:30"},{"city":"Bhagalpur","state":"Bihar","latitude":25.2425,"longitude":87.0117,"temp":26.4,"humidity":89,"rain":0.0,"pressure":996.6,"uv_index":8.8,"wind_gusts":39.6,"aqi":128,"pm10":43.1,"pm2_5":40.5,"no2":14.1,"co":465.0,"o3":67.0,"so2":6.7,"mosquito_risk":7,"arthritis_risk":5,"migraine_risk":7,"frizz_risk":1,"updated_at":"2026-05-19T03:35:05.847622+05:30"},{"city":"Ranchi","state":"Jharkhand","latitude":23.3441,"longitude":85.3096,"temp":25.5,"humidity":64,"rain":0.0,"pressure":932.8,"uv_index":9.25,"wind_gusts":45.0,"aqi":121,"pm10":46.1,"pm2_5":37.7,"no2":11.4,"co":298.0,"o3":116.0,"so2":29.0,"mosquito_risk":7,"arthritis_risk":5,"migraine_risk":7,"frizz_risk":1,"updated_at":"2026-05-19T03:35:05.847628+05:30"},{"city":"Jamshedpur","state":"Jharkhand","latitude":22.8046,"longitude":86.2029,"temp":27.9,"humidity":66,"rain":0.0,"pressure":985.2,"uv_index":9.1,"wind_gusts":40.0,"aqi":129,"pm10":50.3,"pm2_5":43.0,"no2":17.0,"co":317.0,"o3":91.0,"so2":26.2,"mosquito_risk":7,"arthritis_risk":5,"migraine_risk":7,"frizz_risk":1,"updated_at":"2026-05-19T03:35:05.847634+05:30"},{"city":"Dhanbad","state":"Jharkhand","latitude":23.7957,"longitude":86.4304,"temp":27.1,"humidity":64,"rain":0.0,"pressure":974.1,"uv_index":9.05,"wind_gusts":24.8,"aqi":158,"pm10":76.6,"pm2_5":67.5,"no2":44.0,"co":695.0,"o3":63.0,"so2":102.1,"mosquito_risk":7,"arthritis_risk":5,"migraine_risk":7,"frizz_risk":1,"updated_at":"2026-05-19T03:35:05.847640+05:30"},{"city":"Bokaro","state":"Jharkhand","latitude":23.6693,"longitude":86.1511,"temp":26.6,"humidity":67,"rain":0.0,"pressure":977.6,"uv_index":9.05,"wind_gusts":27.7,"aqi":153,"pm10":62.9,"pm2_5":51.2,"no2":27.8,"co":282.0,"o3":78.0,"so2":58.3,"mosquito_risk":7,"arthritis_risk":5,"migraine_risk":7,"frizz_risk":1,"updated_at":"2026-05-19T03:35:05.847646+05:30"},{"city":"Bhubaneswar","state":"Odisha","latitude":20.2961,"longitude":85.8245,"temp":28.9,"humidity":87,"rain":0.0,"pressure":997.0,"uv_index":9.1,"wind_gusts":45.7,"aqi":62,"pm10":14.5,"pm2_5":11.4,"no2":5.1,"co":199.0,"o3":63.0,"so2":4.7,"mosquito_risk":7,"arthritis_risk":5,"migraine_risk":7,"frizz_risk":1,"updated_at":"2026-05-19T03:35:05.847651+05:30"},{"city":"Cuttack","state":"Odisha","latitude":20.4625,"longitude":85.8828,"temp":29.0,"humidity":88,"rain":0.0,"pressure":998.7,"uv_index":9.15,"wind_gusts":39.2,"aqi":62,"pm10":14.5,"pm2_5":11.4,"no2":5.1,"co":207.0,"o3":63.0,"so2":4.7,"mosquito_risk":7,"arthritis_risk":5,"migraine_risk":7,"frizz_risk":1,"updated_at":"2026-05-19T03:35:05.847656+05:30"},{"city":"Rourkela","state":"Odisha","latitude":22.2604,"longitude":84.8536,"temp":28.1,"humidity":78,"rain":0.0,"pressure":979.8,"uv_index":9.0,"wind_gusts":48.2,"aqi":130,"pm10":70.8,"pm2_5":54.9,"no2":29.9,"co":368.0,"o3":60.0,"so2":22.3,"mosquito_risk":7,"arthritis_risk":5,"migraine_risk":7,"frizz_risk":1,"updated_at":"2026-05-19T03:35:05.847662+05:30"},{"city":"Raipur","state":"Chhattisgarh","latitude":21.2514,"longitude":81.6296,"temp":31.0,"humidity":50,"rain":0.0,"pressure":969.3,"uv_index":8.7,"wind_gusts":45.7,"aqi":106,"pm10":31.9,"pm2_5":28.8,"no2":20.1,"co":469.0,"o3":71.0,"so2":32.9,"mosquito_risk":0,"arthritis_risk":5,"migraine_risk":7,"frizz_risk":1,"updated_at":"2026-05-19T03:35:05.847668+05:30"},{"city":"Bhilai","state":"Chhattisgarh","latitude":21.1938,"longitude":81.3509,"temp":30.5,"humidity":54,"rain":0.0,"pressure":969.8,"uv_index":9.0,"wind_gusts":44.3,"aqi":97,"pm10":30.6,"pm2_5":27.6,"no2":18.8,"co":700.0,"o3":80.0,"so2":33.2,"mosquito_risk":0,"arthritis_risk":5,"migraine_risk":7,"frizz_risk":1,"updated_at":"2026-05-19T03:35:05.847674+05:30"},{"city":"Guwahati","state":"Assam","latitude":26.1158,"longitude":91.7086,"temp":22.8,"humidity":99,"rain":0.0,"pressure":999.5,"uv_index":8.7,"wind_gusts":22.0,"aqi":58,"pm10":19.7,"pm2_5":15.7,"no2":7.8,"co":311.0,"o3":65.0,"so2":3.1,"mosquito_risk":3,"arthritis_risk":5,"migraine_risk":7,"frizz_risk":1,"updated_at":"2026-05-19T03:35:05.847679+05:30"},{"city":"Agartala","state":"Tripura","latitude":23.8315,"longitude":91.2868,"temp":25.8,"humidity":92,"rain":0.0,"pressure":1002.7,"uv_index":8.9,"wind_gusts":41.0,"aqi":75,"pm10":21.0,"pm2_5":18.3,"no2":14.3,"co":211.0,"o3":28.0,"so2":2.2,"mosquito_risk":7,"arthritis_risk":5,"migraine_risk":4,"frizz_risk":1,"updated_at":"2026-05-19T03:35:05.847685+05:30"},{"city":"Shillong","state":"Meghalaya","latitude":25.5788,"longitude":91.8933,"temp":17.8,"humidity":95,"rain":0.0,"pressure":854.4,"uv_index":7.3,"wind_gusts":24.8,"aqi":41,"pm10":18.6,"pm2_5":10.8,"no2":4.7,"co":255.0,"o3":93.0,"so2":5.3,"mosquito_risk":3,"arthritis_risk":10,"migraine_risk":7,"frizz_risk":1,"updated_at":"2026-05-19T03:35:05.847691+05:30"},{"city":"Imphal","state":"Manipur","latitude":24.817,"longitude":93.9368,"temp":20.7,"humidity":97,"rain":0.0,"pressure":920.1,"uv_index":9.25,"wind_gusts":33.5,"aqi":75,"pm10":19.3,"pm2_5":15.1,"no2":8.2,"co":333.0,"o3":44.0,"so2":2.7,"mosquito_risk":3,"arthritis_risk":5,"migraine_risk":7,"frizz_risk":1,"updated_at":"2026-05-19T03:35:05.847697+05:30"},{"city":"Aizawl","state":"Mizoram","latitude":23.7271,"longitude":92.7176,"temp":18.5,"humidity":94,"rain":0.0,"pressure":889.3,"uv_index":9.1,"wind_gusts":28.1,"aqi":75,"pm10":38.0,"pm2_5":25.5,"no2":8.1,"co":189.0,"o3":49.0,"so2":3.1,"mosquito_risk":3,"arthritis_risk":10,"migraine_risk":7,"frizz_risk":1,"updated_at":"2026-05-19T03:35:05.847702+05:30"},{"city":"Kohima","state":"Nagaland","latitude":25.6701,"longitude":94.1077,"temp":17.7,"humidity":82,"rain":0.1,"pressure":852.6,"uv_index":8.7,"wind_gusts":31.0,"aqi":57,"pm10":13.9,"pm2_5":8.3,"no2":6.4,"co":239.0,"o3":49.0,"so2":1.9,"mosquito_risk":6,"arthritis_risk":10,"migraine_risk":7,"frizz_risk":0,"updated_at":"2026-05-19T03:35:05.847708+05:30"},{"city":"Gangtok","state":"Sikkim","latitude":27.3314,"longitude":88.6138,"temp":15.6,"humidity":100,"rain":0.0,"pressure":834.9,"uv_index":8.6,"wind_gusts":40.3,"aqi":73,"pm10":15.5,"pm2_5":12.7,"no2":13.8,"co":843.0,"o3":28.0,"so2":0.7,"mosquito_risk":3,"arthritis_risk":10,"migraine_risk":7,"frizz_risk":0,"updated_at":"2026-05-19T03:35:05.847713+05:30"},{"city":"Siliguri","state":"West Bengal","latitude":26.7271,"longitude":88.3953,"temp":23.6,"humidity":93,"rain":0.0,"pressure":991.1,"uv_index":8.7,"wind_gusts":26.3,"aqi":117,"pm10":51.6,"pm2_5":41.9,"no2":11.2,"co":389.0,"o3":96.0,"so2":4.5,"mosquito_risk":3,"arthritis_risk":5,"migraine_risk":7,"frizz_risk":1,"updated_at":"2026-05-19T03:35:09.249175+05:30"},{"city":"Durgapur","state":"West Bengal","latitude":23.5204,"longitude":87.3119,"temp":27.9,"humidity":86,"rain":0.0,"pressure":989.4,"uv_index":9.0,"wind_gusts":28.1,"aqi":156,"pm10":64.5,"pm2_5":58.1,"no2":26.2,"co":668.0,"o3":79.0,"so2":38.7,"mosquito_risk":7,"arthritis_risk":5,"migraine_risk":7,"frizz_risk":1,"updated_at":"2026-05-19T03:35:09.249207+05:30"},{"city":"Asansol","state":"West Bengal","latitude":23.6739,"longitude":86.9524,"temp":27.2,"humidity":92,"rain":0.0,"pressure":987.9,"uv_index":9.0,"wind_gusts":32.8,"aqi":155,"pm10":64.5,"pm2_5":57.5,"no2":31.9,"co":453.0,"o3":70.0,"so2":54.2,"mosquito_risk":7,"arthritis_risk":5,"migraine_risk":7,"frizz_risk":1,"updated_at":"2026-05-19T03:35:09.249216+05:30"},{"city":"Pondicherry","state":"Puducherry","latitude":11.9139,"longitude":79.8145,"temp":28.3,"humidity":80,"rain":0.0,"pressure":1004.4,"uv_index":5.0,"wind_gusts":42.8,"aqi":56,"pm10":12.0,"pm2_5":10.4,"no2":12.2,"co":256.0,"o3":61.0,"so2":11.1,"mosquito_risk":7,"arthritis_risk":5,"migraine_risk":0,"frizz_risk":1,"updated_at":"2026-05-19T03:35:09.249222+05:30"},{"city":"Port Blair","state":"Andaman and Nicobar Islands","latitude":11.6234,"longitude":92.7265,"temp":24.9,"humidity":96,"rain":0.2,"pressure":1004.6,"uv_index":8.95,"wind_gusts":48.6,"aqi":28,"pm10":7.2,"pm2_5":4.3,"no2":0.2,"co":121.0,"o3":55.0,"so2":0.3,"mosquito_risk":6,"arthritis_risk":5,"migraine_risk":4,"frizz_risk":1,"updated_at":"2026-05-19T03:35:09.249229+05:30"},{"city":"Haridwar","state":"Uttarakhand","latitude":29.9457,"longitude":78.1642,"temp":25.2,"humidity":62,"rain":0.0,"pressure":965.6,"uv_index":7.55,"wind_gusts":36.7,"aqi":84,"pm10":43.9,"pm2_5":37.7,"no2":38.5,"co":323.0,"o3":15.0,"so2":6.4,"mosquito_risk":7,"arthritis_risk":5,"migraine_risk":7,"frizz_risk":1,"updated_at":"2026-05-19T03:35:09.249235+05:30"},{"city":"Rishikesh","state":"Uttarakhand","latitude":30.0869,"longitude":78.2676,"temp":21.4,"humidity":77,"rain":0.0,"pressure":958.1,"uv_index":7.65,"wind_gusts":32.4,"aqi":68,"pm10":35.6,"pm2_5":24.7,"no2":18.5,"co":361.0,"o3":75.0,"so2":6.6,"mosquito_risk":3,"arthritis_risk":5,"migraine_risk":7,"frizz_risk":1,"updated_at":"2026-05-19T03:35:09.249243+05:30"},{"city":"Nainital","state":"Uttarakhand","latitude":29.3919,"longitude":79.4542,"temp":15.8,"humidity":66,"rain":0.0,"pressure":801.1,"uv_index":8.5,"wind_gusts":38.2,"aqi":85,"pm10":42.6,"pm2_5":25.6,"no2":18.3,"co":235.0,"o3":90.0,"so2":5.3,"mosquito_risk":3,"arthritis_risk":5,"migraine_risk":7,"frizz_risk":0,"updated_at":"2026-05-19T03:35:09.249248+05:30"},{"city":"Mussoorie","state":"Uttarakhand","latitude":30.4599,"longitude":78.0664,"temp":19.2,"humidity":49,"rain":0.0,"pressure":799.6,"uv_index":8.1,"wind_gusts":55.4,"aqi":64,"pm10":27.5,"pm2_5":26.1,"no2":38.3,"co":224.0,"o3":23.0,"so2":5.5,"mosquito_risk":0,"arthritis_risk":5,"migraine_risk":7,"frizz_risk":0,"updated_at":"2026-05-19T03:35:09.249255+05:30"},{"city":"Dharamshala","state":"Himachal Pradesh","latitude":32.219,"longitude":76.3234,"temp":24.0,"humidity":46,"rain":0.0,"pressure":865.2,"uv_index":8.45,"wind_gusts":51.1,"aqi":30,"pm10":10.5,"pm2_5":7.5,"no2":16.0,"co":239.0,"o3":23.0,"so2":0.0,"mosquito_risk":0,"arthritis_risk":5,"migraine_risk":7,"frizz_risk":0,"updated_at":"2026-05-19T03:35:09.249261+05:30"},{"city":"Dalhousie","state":"Himachal Pradesh","latitude":32.5387,"longitude":75.971,"temp":13.5,"humidity":75,"rain":0.0,"pressure":798.3,"uv_index":8.7,"wind_gusts":52.2,"aqi":52,"pm10":16.1,"pm2_5":14.3,"no2":21.4,"co":311.0,"o3":26.0,"so2":0.9,"mosquito_risk":3,"arthritis_risk":5,"migraine_risk":7,"frizz_risk":0,"updated_at":"2026-05-19T03:35:09.249268+05:30"},{"city":"Patiala","state":"Punjab","latitude":30.3398,"longitude":76.3869,"temp":30.2,"humidity":44,"rain":0.0,"pressure":969.8,"uv_index":7.7,"wind_gusts":30.6,"aqi":335,"pm10":143.9,"pm2_5":57.4,"no2":16.9,"co":519.0,"o3":47.0,"so2":8.0,"mosquito_risk":0,"arthritis_risk":5,"migraine_risk":7,"frizz_risk":1,"updated_at":"2026-05-19T03:35:09.249274+05:30"},{"city":"Bhatinda","state":"Punjab","latitude":30.211,"longitude":74.9455,"temp":31.6,"humidity":31,"rain":0.0,"pressure":975.5,"uv_index":8.35,"wind_gusts":31.3,"aqi":97,"pm10":97.8,"pm2_5":45.1,"no2":35.0,"co":339.0,"o3":27.0,"so2":5.6,"mosquito_risk":0,"arthritis_risk":5,"migraine_risk":7,"frizz_risk":0,"updated_at":"2026-05-19T03:35:09.249280+05:30"},{"city":"Rohtak","state":"Haryana","latitude":28.8955,"longitude":76.6066,"temp":29.5,"humidity":32,"rain":0.0,"pressure":974.2,"uv_index":7.8,"wind_gusts":29.9,"aqi":760,"pm10":717.1,"pm2_5":127.6,"no2":13.2,"co":212.0,"o3":52.0,"so2":3.7,"mosquito_risk":4,"arthritis_risk":5,"migraine_risk":7,"frizz_risk":0,"updated_at":"2026-05-19T03:35:09.249285+05:30"},{"city":"Panipat","state":"Haryana","latitude":29.3909,"longitude":76.9635,"temp":29.2,"humidity":46,"rain":0.0,"pressure":972.1,"uv_index":7.6,"wind_gusts":39.2,"aqi":1640,"pm10":1620.5,"pm2_5":269.2,"no2":13.9,"co":339.0,"o3":50.0,"so2":5.7,"mosquito_risk":4,"arthritis_risk":5,"migraine_risk":7,"frizz_risk":1,"updated_at":"2026-05-19T03:35:09.249291+05:30"},{"city":"Mathura","state":"Uttar Pradesh","latitude":27.4924,"longitude":77.6737,"temp":33.4,"humidity":23,"rain":0.0,"pressure":979.3,"uv_index":8.05,"wind_gusts":41.4,"aqi":745,"pm10":836.3,"pm2_5":121.5,"no2":11.5,"co":184.0,"o3":47.0,"so2":4.2,"mosquito_risk":0,"arthritis_risk":5,"migraine_risk":7,"frizz_risk":0,"updated_at":"2026-05-19T03:35:09.249297+05:30"},{"city":"Vrindavan","state":"Uttar Pradesh","latitude":27.5823,"longitude":77.7027,"temp":32.5,"humidity":26,"rain":0.0,"pressure":979.7,"uv_index":8.0,"wind_gusts":38.5,"aqi":745,"pm10":836.3,"pm2_5":121.5,"no2":11.5,"co":188.0,"o3":47.0,"so2":4.2,"mosquito_risk":0,"arthritis_risk":5,"migraine_risk":7,"frizz_risk":0,"updated_at":"2026-05-19T03:35:09.249302+05:30"},{"city":"Ayodhya","state":"Uttar Pradesh","latitude":26.7922,"longitude":82.1998,"temp":29.0,"humidity":68,"rain":0.0,"pressure":989.0,"uv_index":8.4,"wind_gusts":36.0,"aqi":164,"pm10":175.6,"pm2_5":101.5,"no2":65.4,"co":630.0,"o3":7.0,"so2":15.2,"mosquito_risk":7,"arthritis_risk":5,"migraine_risk":7,"frizz_risk":1,"updated_at":"2026-05-19T03:35:09.249308+05:30"},{"city":"Ratlam","state":"Madhya Pradesh","latitude":23.3315,"longitude":75.0367,"temp":29.7,"humidity":29,"rain":0.0,"pressure":949.7,"uv_index":8.55,"wind_gusts":40.7,"aqi":61,"pm10":29.2,"pm2_5":17.8,"no2":4.1,"co":204.0,"o3":74.0,"so2":4.9,"mosquito_risk":4,"arthritis_risk":5,"migraine_risk":7,"frizz_risk":0,"updated_at":"2026-05-19T03:35:09.249314+05:30"},{"city":"Sagar","state":"Madhya Pradesh","latitude":23.8388,"longitude":78.7378,"temp":31.8,"humidity":29,"rain":0.0,"pressure":944.1,"uv_index":8.75,"wind_gusts":37.4,"aqi":70,"pm10":85.0,"pm2_5":30.6,"no2":19.6,"co":227.0,"o3":46.0,"so2":3.7,"mosquito_risk":0,"arthritis_risk":5,"migraine_risk":7,"frizz_risk":0,"updated_at":"2026-05-19T03:35:09.249319+05:30"},{"city":"Satna","state":"Madhya Pradesh","latitude":24.6005,"longitude":80.8322,"temp":30.0,"humidity":38,"rain":0.0,"pressure":964.4,"uv_index":8.8,"wind_gusts":44.3,"aqi":81,"pm10":102.7,"pm2_5":37.6,"no2":31.2,"co":288.0,"o3":24.0,"so2":4.3,"mosquito_risk":4,"arthritis_risk":5,"migraine_risk":7,"frizz_risk":0,"updated_at":"2026-05-19T03:35:09.249325+05:30"},{"city":"Akola","state":"Maharashtra","latitude":20.7002,"longitude":77.0082,"temp":35.0,"humidity":26,"rain":0.0,"pressure":969.9,"uv_index":8.65,"wind_gusts":39.2,"aqi":63,"pm10":33.3,"pm2_5":22.5,"no2":17.8,"co":224.0,"o3":61.0,"so2":6.9,"mosquito_risk":0,"arthritis_risk":5,"migraine_risk":7,"frizz_risk":0,"updated_at":"2026-05-19T03:35:09.249331+05:30"},{"city":"Amravati","state":"Maharashtra","latitude":20.9374,"longitude":77.7796,"temp":34.0,"humidity":35,"rain":0.0,"pressure":962.1,"uv_index":8.35,"wind_gusts":51.1,"aqi":65,"pm10":32.5,"pm2_5":25.4,"no2":22.0,"co":267.0,"o3":52.0,"so2":6.0,"mosquito_risk":0,"arthritis_risk":5,"migraine_risk":7,"frizz_risk":1,"updated_at":"2026-05-19T03:35:09.249337+05:30"},{"city":"Latur","state":"Maharashtra","latitude":18.4088,"longitude":76.5604,"temp":29.7,"humidity":53,"rain":0.0,"pressure":935.9,"uv_index":8.75,"wind_gusts":32.0,"aqi":71,"pm10":29.0,"pm2_5":25.8,"no2":8.7,"co":190.0,"o3":99.0,"so2":4.8,"mosquito_risk":4,"arthritis_risk":5,"migraine_risk":7,"frizz_risk":1,"updated_at":"2026-05-19T03:35:09.249343+05:30"},{"city":"Nanded","state":"Maharashtra","latitude":19.1383,"longitude":77.3091,"temp":32.5,"humidity":44,"rain":0.0,"pressure":964.5,"uv_index":8.3,"wind_gusts":34.9,"aqi":75,"pm10":31.3,"pm2_5":27.9,"no2":10.0,"co":258.0,"o3":92.0,"so2":5.1,"mosquito_risk":0,"arthritis_risk":5,"migraine_risk":7,"frizz_risk":1,"updated_at":"2026-05-19T03:35:09.249348+05:30"},{"city":"Gulbarga","state":"Karnataka","latitude":17.3297,"longitude":76.8343,"temp":29.0,"humidity":63,"rain":0.0,"pressure":954.3,"uv_index":9.05,"wind_gusts":37.4,"aqi":79,"pm10":30.5,"pm2_5":27.0,"no2":19.3,"co":241.0,"o3":59.0,"so2":9.0,"mosquito_risk":7,"arthritis_risk":5,"migraine_risk":7,"frizz_risk":1,"updated_at":"2026-05-19T03:35:09.249353+05:30"},{"city":"Bidar","state":"Karnataka","latitude":17.9104,"longitude":77.5199,"temp":28.6,"humidity":55,"rain":0.0,"pressure":931.4,"uv_index":9.1,"wind_gusts":29.9,"aqi":81,"pm10":25.9,"pm2_5":23.3,"no2":13.3,"co":245.0,"o3":73.0,"so2":6.5,"mosquito_risk":4,"arthritis_risk":5,"migraine_risk":7,"frizz_risk":1,"updated_at":"2026-05-19T03:35:09.249359+05:30"},{"city":"Hospet","state":"Karnataka","latitude":15.2689,"longitude":76.3909,"temp":26.0,"humidity":87,"rain":0.0,"pressure":952.5,"uv_index":5.85,"wind_gusts":40.0,"aqi":66,"pm10":11.6,"pm2_5":8.7,"no2":8.5,"co":155.0,"o3":48.0,"so2":2.4,"mosquito_risk":7,"arthritis_risk":5,"migraine_risk":3,"frizz_risk":1,"updated_at":"2026-05-19T03:35:09.249364+05:30"},{"city":"Tirupur","state":"Tamil Nadu","latitude":11.1085,"longitude":77.3411,"temp":26.4,"humidity":76,"rain":0.0,"pressure":972.4,"uv_index":8.95,"wind_gusts":56.9,"aqi":41,"pm10":9.0,"pm2_5":8.5,"no2":17.7,"co":144.0,"o3":37.0,"so2":4.3,"mosquito_risk":7,"arthritis_risk":5,"migraine_risk":7,"frizz_risk":1,"updated_at":"2026-05-19T03:35:09.249370+05:30"},{"city":"Alappuzha","state":"Kerala","latitude":9.4981,"longitude":76.3388,"temp":25.4,"humidity":98,"rain":0.1,"pressure":1007.4,"uv_index":8.7,"wind_gusts":35.6,"aqi":30,"pm10":7.9,"pm2_5":5.6,"no2":3.4,"co":126.0,"o3":58.0,"so2":1.1,"mosquito_risk":10,"arthritis_risk":5,"migraine_risk":4,"frizz_risk":1,"updated_at":"2026-05-19T03:35:09.249375+05:30"},{"city":"Munnar","state":"Kerala","latitude":10.0889,"longitude":77.0595,"temp":17.4,"humidity":99,"rain":0.0,"pressure":855.3,"uv_index":7.5,"wind_gusts":35.6,"aqi":19,"pm10":2.1,"pm2_5":2.1,"no2":5.7,"co":140.0,"o3":34.0,"so2":1.2,"mosquito_risk":3,"arthritis_risk":10,"migraine_risk":7,"frizz_risk":1,"updated_at":"2026-05-19T03:35:09.249381+05:30"},{"city":"Silchar","state":"Assam","latitude":24.8333,"longitude":92.7789,"temp":24.0,"humidity":98,"rain":0.0,"pressure":1002.2,"uv_index":8.9,"wind_gusts":25.9,"aqi":80,"pm10":27.0,"pm2_5":16.1,"no2":5.2,"co":319.0,"o3":89.0,"so2":3.6,"mosquito_risk":3,"arthritis_risk":5,"migraine_risk":4,"frizz_risk":1,"updated_at":"2026-05-19T03:35:09.249386+05:30"},{"city":"Dibrugarh","state":"Assam","latitude":27.4728,"longitude":94.912,"temp":20.8,"humidity":98,"rain":0.0,"pressure":993.5,"uv_index":8.85,"wind_gusts":15.1,"aqi":92,"pm10":51.9,"pm2_5":45.6,"no2":30.3,"co":326.0,"o3":2.0,"so2":1.1,"mosquito_risk":3,"arthritis_risk":5,"migraine_risk":7,"frizz_risk":1,"updated_at":"2026-05-19T03:35:09.249391+05:30"}]