[{"city":"Delhi","state":"Delhi","latitude":28.6139,"longitude":77.209,"temp":20.4,"humidity":73,"rain":0.0,"pressure":989.3,"uv_index":5.85,"wind_gusts":23.8,"aqi":160,"pm10":155.1,"pm2_5":72.6,"mosquito_risk":3,"arthritis_risk":5,"migraine_risk":3,"frizz_risk":0,"updated_at":"2026-03-21T22:04:34.855000+05:30"},{"city":"Mumbai","state":"Maharashtra","latitude":19.076,"longitude":72.8777,"temp":28.4,"humidity":61,"rain":0.0,"pressure":1010.4,"uv_index":7.9,"wind_gusts":29.2,"aqi":102,"pm10":32.7,"pm2_5":26.2,"mosquito_risk":7,"arthritis_risk":0,"migraine_risk":4,"frizz_risk":1,"updated_at":"2026-03-21T22:04:34.855039+05:30"},{"city":"Bangalore","state":"Karnataka","latitude":12.9716,"longitude":77.5946,"temp":25.6,"humidity":57,"rain":0.0,"pressure":913.4,"uv_index":9.4,"wind_gusts":25.2,"aqi":144,"pm10":38.4,"pm2_5":35.4,"mosquito_risk":4,"arthritis_risk":5,"migraine_risk":7,"frizz_risk":1,"updated_at":"2026-03-21T22:04:34.855054+05:30"},{"city":"Hyderabad","state":"Telangana","latitude":17.385,"longitude":78.4867,"temp":25.9,"humidity":70,"rain":0.0,"pressure":955.9,"uv_index":8.85,"wind_gusts":28.1,"aqi":134,"pm10":34.6,"pm2_5":28.9,"mosquito_risk":7,"arthritis_risk":5,"migraine_risk":7,"frizz_risk":1,"updated_at":"2026-03-21T22:04:34.855081+05:30"},{"city":"Chennai","state":"Tamil Nadu","latitude":13.0827,"longitude":80.2707,"temp":27.7,"humidity":81,"rain":0.0,"pressure":1009.9,"uv_index":9.1,"wind_gusts":35.6,"aqi":38,"pm10":14.1,"pm2_5":9.4,"mosquito_risk":7,"arthritis_risk":0,"migraine_risk":4,"frizz_risk":1,"updated_at":"2026-03-21T22:04:34.855091+05:30"},{"city":"Kolkata","state":"West Bengal","latitude":22.5726,"longitude":88.3639,"temp":21.7,"humidity":90,"rain":0.0,"pressure":1011.2,"uv_index":7.5,"wind_gusts":19.8,"aqi":62,"pm10":37.0,"pm2_5":34.9,"mosquito_risk":3,"arthritis_risk":0,"migraine_risk":4,"frizz_risk":1,"updated_at":"2026-03-21T22:04:34.855100+05:30"},{"city":"Pune","state":"Maharashtra","latitude":18.5204,"longitude":73.8567,"temp":25.4,"humidity":63,"rain":0.0,"pressure":950.6,"uv_index":8.4,"wind_gusts":24.1,"aqi":91,"pm10":35.2,"pm2_5":26.0,"mosquito_risk":7,"arthritis_risk":5,"migraine_risk":7,"frizz_risk":1,"updated_at":"2026-03-21T22:04:34.855111+05:30"},{"city":"Ahmedabad","state":"Gujarat","latitude":23.0225,"longitude":72.5714,"temp":25.5,"humidity":44,"rain":0.0,"pressure":1005.9,"uv_index":7.6,"wind_gusts":15.1,"aqi":105,"pm10":39.2,"pm2_5":29.7,"mosquito_risk":4,"arthritis_risk":5,"migraine_risk":4,"frizz_risk":0,"updated_at":"2026-03-21T22:04:34.855120+05:30"},{"city":"Jaipur","state":"Rajasthan","latitude":26.9124,"longitude":75.7873,"temp":20.8,"humidity":69,"rain":0.0,"pressure":965.7,"uv_index":6.75,"wind_gusts":34.2,"aqi":75,"pm10":97.8,"pm2_5":32.6,"mosquito_risk":3,"arthritis_risk":5,"migraine_risk":7,"frizz_risk":0,"updated_at":"2026-03-21T22:04:34.855127+05:30"},{"city":"Lucknow","state":"Uttar Pradesh","latitude":26.8467,"longitude":80.9462,"temp":21.2,"humidity":73,"rain":0.0,"pressure":1000.1,"uv_index":6.25,"wind_gusts":24.5,"aqi":104,"pm10":60.8,"pm2_5":41.3,"mosquito_risk":3,"arthritis_risk":5,"migraine_risk":4,"frizz_risk":1,"updated_at":"2026-03-21T22:04:34.855135+05:30"},{"city":"Kanpur","state":"Uttar Pradesh","latitude":26.4499,"longitude":80.3319,"temp":20.7,"humidity":71,"rain":0.0,"pressure":998.3,"uv_index":6.7,"wind_gusts":25.6,"aqi":114,"pm10":233.8,"pm2_5":53.1,"mosquito_risk":3,"arthritis_risk":5,"migraine_risk":7,"frizz_risk":0,"updated_at":"2026-03-21T22:04:34.855142+05:30"},{"city":"Chandigarh","state":"Chandigarh","latitude":30.7333,"longitude":76.7794,"temp":17.0,"humidity":86,"rain":0.0,"pressure":974.5,"uv_index":6.35,"wind_gusts":28.4,"aqi":80,"pm10":39.0,"pm2_5":35.2,"mosquito_risk":3,"arthritis_risk":10,"migraine_risk":7,"frizz_risk":0,"updated_at":"2026-03-21T22:04:34.855150+05:30"},{"city":"Srinagar","state":"Jammu and Kashmir","latitude":34.0837,"longitude":74.7973,"temp":8.1,"humidity":80,"rain":0.0,"pressure":841.7,"uv_index":6.7,"wind_gusts":14.0,"aqi":116,"pm10":78.0,"pm2_5":70.5,"mosquito_risk":3,"arthritis_risk":5,"migraine_risk":7,"frizz_risk":0,"updated_at":"2026-03-21T22:04:34.855157+05:30"},{"city":"Jammu","state":"Jammu and Kashmir","latitude":32.7266,"longitude":74.857,"temp":19.6,"humidity":71,"rain":0.0,"pressure":979.1,"uv_index":6.45,"wind_gusts":16.9,"aqi":97,"pm10":66.4,"pm2_5":54.4,"mosquito_risk":3,"arthritis_risk":5,"migraine_risk":7,"frizz_risk":0,"updated_at":"2026-03-21T22:04:34.855165+05:30"},{"city":"Amritsar","state":"Punjab","latitude":31.634,"longitude":74.8723,"temp":18.3,"humidity":77,"rain":0.0,"pressure":987.6,"uv_index":6.1,"wind_gusts":15.8,"aqi":112,"pm10":85.2,"pm2_5":75.4,"mosquito_risk":3,"arthritis_risk":5,"migraine_risk":7,"frizz_risk":0,"updated_at":"2026-03-21T22:04:34.855171+05:30"},{"city":"Ludhiana","state":"Punjab","latitude":30.901,"longitude":75.8573,"temp":17.7,"humidity":80,"rain":0.0,"pressure":985.5,"uv_index":6.0,"wind_gusts":23.0,"aqi":154,"pm10":52.4,"pm2_5":45.6,"mosquito_risk":3,"arthritis_risk":5,"migraine_risk":3,"frizz_risk":0,"updated_at":"2026-03-21T22:04:34.855178+05:30"},{"city":"Jalandhar","state":"Punjab","latitude":31.326,"longitude":75.5762,"temp":17.6,"humidity":82,"rain":0.0,"pressure":986.6,"uv_index":6.3,"wind_gusts":20.5,"aqi":137,"pm10":56.3,"pm2_5":47.7,"mosquito_risk":3,"arthritis_risk":10,"migraine_risk":7,"frizz_risk":0,"updated_at":"2026-03-21T22:04:34.855186+05:30"},{"city":"Dehradun","state":"Uttarakhand","latitude":30.6284,"longitude":78.0322,"temp":10.6,"humidity":87,"rain":0.0,"pressure":830.9,"uv_index":6.7,"wind_gusts":22.7,"aqi":84,"pm10":25.3,"pm2_5":21.1,"mosquito_risk":3,"arthritis_risk":10,"migraine_risk":7,"frizz_risk":0,"updated_at":"2026-03-21T22:04:34.855194+05:30"},{"city":"Shimla","state":"Himachal Pradesh","latitude":31.1048,"longitude":77.1734,"temp":8.1,"humidity":89,"rain":0.0,"pressure":784.0,"uv_index":6.6,"wind_gusts":33.5,"aqi":75,"pm10":36.6,"pm2_5":29.2,"mosquito_risk":3,"arthritis_risk":10,"migraine_risk":7,"frizz_risk":0,"updated_at":"2026-03-21T22:04:34.855200+05:30"},{"city":"Manali","state":"Himachal Pradesh","latitude":32.2396,"longitude":77.1887,"temp":10.3,"humidity":45,"rain":0.0,"pressure":818.4,"uv_index":8.65,"wind_gusts":22.0,"aqi":105,"pm10":17.1,"pm2_5":12.7,"mosquito_risk":0,"arthritis_risk":5,"migraine_risk":7,"frizz_risk":1,"updated_at":"2026-03-21T22:04:34.855207+05:30"},{"city":"Gurgaon","state":"Haryana","latitude":28.4595,"longitude":77.0266,"temp":18.9,"humidity":82,"rain":0.0,"pressure":987.8,"uv_index":6.1,"wind_gusts":20.5,"aqi":172,"pm10":178.8,"pm2_5":87.3,"mosquito_risk":3,"arthritis_risk":10,"migraine_risk":7,"frizz_risk":0,"updated_at":"2026-03-21T22:04:34.855214+05:30"},{"city":"Noida","state":"Uttar Pradesh","latitude":28.5355,"longitude":77.391,"temp":20.4,"humidity":73,"rain":0.0,"pressure":990.9,"uv_index":6.15,"wind_gusts":22.7,"aqi":172,"pm10":178.8,"pm2_5":87.3,"mosquito_risk":3,"arthritis_risk":5,"migraine_risk":7,"frizz_risk":0,"updated_at":"2026-03-21T22:04:34.855220+05:30"},{"city":"Ghaziabad","state":"Uttar Pradesh","latitude":28.6692,"longitude":77.4538,"temp":19.2,"humidity":77,"rain":0.0,"pressure":988.9,"uv_index":5.85,"wind_gusts":21.6,"aqi":158,"pm10":117.6,"pm2_5":61.2,"mosquito_risk":3,"arthritis_risk":5,"migraine_risk":3,"frizz_risk":0,"updated_at":"2026-03-21T22:04:34.855226+05:30"},{"city":"Faridabad","state":"Haryana","latitude":28.4089,"longitude":77.3178,"temp":19.0,"humidity":78,"rain":0.0,"pressure":990.0,"uv_index":6.4,"wind_gusts":20.9,"aqi":172,"pm10":178.8,"pm2_5":87.3,"mosquito_risk":3,"arthritis_risk":5,"migraine_risk":7,"frizz_risk":0,"updated_at":"2026-03-21T22:04:34.855234+05:30"},{"city":"Meerut","state":"Uttar Pradesh","latitude":28.9845,"longitude":77.7064,"temp":17.8,"humidity":81,"rain":0.0,"pressure":987.6,"uv_index":6.15,"wind_gusts":22.0,"aqi":158,"pm10":117.6,"pm2_5":61.2,"mosquito_risk":3,"arthritis_risk":10,"migraine_risk":7,"frizz_risk":0,"updated_at":"2026-03-21T22:04:34.855241+05:30"},{"city":"Agra","state":"Uttar Pradesh","latitude":27.1767,"longitude":78.0081,"temp":21.0,"humidity":65,"rain":0.0,"pressure":994.0,"uv_index":6.8,"wind_gusts":28.1,"aqi":188,"pm10":437.7,"pm2_5":91.5,"mosquito_risk":3,"arthritis_risk":5,"migraine_risk":7,"frizz_risk":0,"updated_at":"2026-03-21T22:04:34.855247+05:30"},{"city":"Varanasi","state":"Uttar Pradesh","latitude":25.3176,"longitude":82.9739,"temp":19.8,"humidity":83,"rain":0.0,"pressure":1004.5,"uv_index":5.1,"wind_gusts":26.3,"aqi":100,"pm10":83.6,"pm2_5":67.8,"mosquito_risk":3,"arthritis_risk":10,"migraine_risk":0,"frizz_risk":1,"updated_at":"2026-03-21T22:04:34.855259+05:30"},{"city":"Prayagraj","state":"Uttar Pradesh","latitude":25.4358,"longitude":81.8463,"temp":20.9,"humidity":77,"rain":0.0,"pressure":1002.7,"uv_index":7.35,"wind_gusts":25.2,"aqi":99,"pm10":60.3,"pm2_5":50.1,"mosquito_risk":3,"arthritis_risk":5,"migraine_risk":4,"frizz_risk":1,"updated_at":"2026-03-21T22:04:34.855267+05:30"},{"city":"Gorakhpur","state":"Uttar Pradesh","latitude":26.7606,"longitude":83.3732,"temp":17.2,"humidity":97,"rain":0.0,"pressure":1004.3,"uv_index":5.7,"wind_gusts":17.3,"aqi":111,"pm10":53.2,"pm2_5":49.8,"mosquito_risk":3,"arthritis_risk":10,"migraine_risk":0,"frizz_risk":1,"updated_at":"2026-03-21T22:04:34.855274+05:30"},{"city":"Bareilly","state":"Uttar Pradesh","latitude":28.367,"longitude":79.4304,"temp":18.6,"humidity":84,"rain":0.0,"pressure":993.0,"uv_index":6.6,"wind_gusts":18.0,"aqi":129,"pm10":34.5,"pm2_5":32.4,"mosquito_risk":3,"arthritis_risk":10,"migraine_risk":7,"frizz_risk":0,"updated_at":"2026-03-21T22:04:34.855280+05:30"},{"city":"Aligarh","state":"Uttar Pradesh","latitude":27.8974,"longitude":78.088,"temp":18.9,"humidity":74,"rain":0.0,"pressure":991.7,"uv_index":6.5,"wind_gusts":20.2,"aqi":163,"pm10":267.3,"pm2_5":81.0,"mosquito_risk":3,"arthritis_risk":5,"migraine_risk":7,"frizz_risk":0,"updated_at":"2026-03-21T22:04:34.855286+05:30"},{"city":"Moradabad","state":"Uttar Pradesh","latitude":28.8386,"longitude":78.7733,"temp":18.7,"humidity":79,"rain":0.0,"pressure":989.6,"uv_index":6.45,"wind_gusts":18.4,"aqi":143,"pm10":61.9,"pm2_5":56.8,"mosquito_risk":3,"arthritis_risk":5,"migraine_risk":7,"frizz_risk":0,"updated_at":"2026-03-21T22:04:34.855292+05:30"},{"city":"Saharanpur","state":"Uttar Pradesh","latitude":29.9637,"longitude":77.546,"temp":17.8,"humidity":80,"rain":0.0,"pressure":981.5,"uv_index":6.1,"wind_gusts":27.0,"aqi":150,"pm10":107.3,"pm2_5":56.2,"mosquito_risk":3,"arthritis_risk":5,"migraine_risk":7,"frizz_risk":0,"updated_at":"2026-03-21T22:04:34.855298+05:30"},{"city":"Jhansi","state":"Uttar Pradesh","latitude":25.4484,"longitude":78.5685,"temp":22.8,"humidity":50,"rain":0.0,"pressure":983.7,"uv_index":7.4,"wind_gusts":24.5,"aqi":82,"pm10":52.0,"pm2_5":26.3,"mosquito_risk":0,"arthritis_risk":5,"migraine_risk":7,"frizz_risk":0,"updated_at":"2026-03-21T22:04:38.078455+05:30"},{"city":"Surat","state":"Gujarat","latitude":21.1702,"longitude":72.8311,"temp":25.8,"humidity":54,"rain":0.0,"pressure":1009.6,"uv_index":7.55,"wind_gusts":28.1,"aqi":110,"pm10":46.4,"pm2_5":40.7,"mosquito_risk":4,"arthritis_risk":0,"migraine_risk":4,"frizz_risk":0,"updated_at":"2026-03-21T22:04:38.078485+05:30"},{"city":"Vadodara","state":"Gujarat","latitude":22.3072,"longitude":73.1812,"temp":26.9,"humidity":47,"rain":0.0,"pressure":1007.7,"uv_index":7.55,"wind_gusts":16.9,"aqi":84,"pm10":27.6,"pm2_5":22.7,"mosquito_risk":4,"arthritis_risk":5,"migraine_risk":4,"frizz_risk":0,"updated_at":"2026-03-21T22:04:38.078494+05:30"},{"city":"Rajkot","state":"Gujarat","latitude":22.3039,"longitude":70.8022,"temp":26.4,"humidity":47,"rain":0.0,"pressure":997.8,"uv_index":7.05,"wind_gusts":19.4,"aqi":76,"pm10":38.5,"pm2_5":21.6,"mosquito_risk":4,"arthritis_risk":5,"migraine_risk":7,"frizz_risk":0,"updated_at":"2026-03-21T22:04:38.078502+05:30"},{"city":"Thane","state":"Maharashtra","latitude":19.2183,"longitude":72.9781,"temp":27.6,"humidity":48,"rain":0.0,"pressure":1009.9,"uv_index":7.85,"wind_gusts":42.8,"aqi":102,"pm10":32.7,"pm2_5":26.2,"mosquito_risk":4,"arthritis_risk":0,"migraine_risk":4,"frizz_risk":0,"updated_at":"2026-03-21T22:04:38.078510+05:30"},{"city":"Nagpur","state":"Maharashtra","latitude":21.1458,"longitude":79.0882,"temp":26.2,"humidity":37,"rain":0.0,"pressure":977.0,"uv_index":8.3,"wind_gusts":24.8,"aqi":71,"pm10":20.4,"pm2_5":16.1,"mosquito_risk":4,"arthritis_risk":5,"migraine_risk":7,"frizz_risk":0,"updated_at":"2026-03-21T22:04:38.078517+05:30"},{"city":"Nashik","state":"Maharashtra","latitude":19.9975,"longitude":73.7898,"temp":24.5,"humidity":34,"rain":0.0,"pressure":948.1,"uv_index":8.05,"wind_gusts":22.7,"aqi":82,"pm10":27.1,"pm2_5":24.0,"mosquito_risk":0,"arthritis_risk":5,"migraine_risk":7,"frizz_risk":0,"updated_at":"2026-03-21T22:04:38.078524+05:30"},{"city":"Aurangabad","state":"Maharashtra","latitude":19.8762,"longitude":75.3433,"temp":26.1,"humidity":30,"rain":0.0,"pressure":946.8,"uv_index":8.6,"wind_gusts":24.5,"aqi":93,"pm10":20.5,"pm2_5":16.1,"mosquito_risk":4,"arthritis_risk":5,"migraine_risk":7,"frizz_risk":0,"updated_at":"2026-03-21T22:04:38.078531+05:30"},{"city":"Solapur","state":"Maharashtra","latitude":17.6599,"longitude":75.9064,"temp":27.9,"humidity":40,"rain":0.0,"pressure":958.9,"uv_index":8.75,"wind_gusts":27.7,"aqi":100,"pm10":42.7,"pm2_5":27.6,"mosquito_risk":4,"arthritis_risk":5,"migraine_risk":7,"frizz_risk":0,"updated_at":"2026-03-21T22:04:38.078538+05:30"},{"city":"Kolhapur","state":"Maharashtra","latitude":16.705,"longitude":74.2433,"temp":21.8,"humidity":59,"rain":0.0,"pressure":949.5,"uv_index":8.85,"wind_gusts":26.6,"aqi":82,"pm10":56.3,"pm2_5":44.6,"mosquito_risk":0,"arthritis_risk":5,"migraine_risk":7,"frizz_risk":0,"updated_at":"2026-03-21T22:04:38.078545+05:30"},{"city":"Goa","state":"Goa","latitude":15.2993,"longitude":74.124,"temp":27.1,"humidity":81,"rain":0.0,"pressure":999.6,"uv_index":8.85,"wind_gusts":35.3,"aqi":107,"pm10":62.2,"pm2_5":33.9,"mosquito_risk":7,"arthritis_risk":5,"migraine_risk":7,"frizz_risk":1,"updated_at":"2026-03-21T22:04:38.078552+05:30"},{"city":"Jodhpur","state":"Rajasthan","latitude":26.2389,"longitude":73.0243,"temp":25.1,"humidity":47,"rain":0.0,"pressure":987.7,"uv_index":6.6,"wind_gusts":24.1,"aqi":67,"pm10":45.9,"pm2_5":16.1,"mosquito_risk":4,"arthritis_risk":5,"migraine_risk":7,"frizz_risk":0,"updated_at":"2026-03-21T22:04:38.078559+05:30"},{"city":"Udaipur","state":"Rajasthan","latitude":24.5854,"longitude":73.7125,"temp":22.9,"humidity":49,"rain":0.0,"pressure":950.4,"uv_index":7.1,"wind_gusts":11.9,"aqi":73,"pm10":28.8,"pm2_5":14.1,"mosquito_risk":0,"arthritis_risk":5,"migraine_risk":7,"frizz_risk":0,"updated_at":"2026-03-21T22:04:38.078566+05:30"},{"city":"Kota","state":"Rajasthan","latitude":25.2138,"longitude":75.8648,"temp":23.2,"humidity":48,"rain":0.0,"pressure":983.5,"uv_index":7.5,"wind_gusts":22.0,"aqi":82,"pm10":35.3,"pm2_5":22.9,"mosquito_risk":0,"arthritis_risk":5,"migraine_risk":7,"frizz_risk":0,"updated_at":"2026-03-21T22:04:38.078573+05:30"},{"city":"Bikaner","state":"Rajasthan","latitude":28.0229,"longitude":73.3119,"temp":23.1,"humidity":56,"rain":0.0,"pressure":987.8,"uv_index":6.25,"wind_gusts":31.7,"aqi":53,"pm10":31.9,"pm2_5":12.7,"mosquito_risk":0,"arthritis_risk":5,"migraine_risk":7,"frizz_risk":0,"updated_at":"2026-03-21T22:04:38.078580+05:30"},{"city":"Ajmer","state":"Rajasthan","latitude":26.4499,"longitude":74.6399,"temp":21.9,"humidity":57,"rain":0.0,"pressure":959.2,"uv_index":7.4,"wind_gusts":30.2,"aqi":74,"pm10":44.8,"pm2_5":21.0,"mosquito_risk":0,"arthritis_risk":5,"migraine_risk":7,"frizz_risk":0,"updated_at":"2026-03-21T22:04:38.078587+05:30"},{"city":"Gwalior","state":"Madhya Pradesh","latitude":26.2183,"longitude":78.1828,"temp":23.5,"humidity":56,"rain":0.0,"pressure":989.3,"uv_index":7.1,"wind_gusts":25.6,"aqi":95,"pm10":185.8,"pm2_5":46.0,"mosquito_risk":0,"arthritis_risk":5,"migraine_risk":7,"frizz_risk":0,"updated_at":"2026-03-21T22:04:38.078594+05:30"},{"city":"Indore","state":"Madhya Pradesh","latitude":22.7196,"longitude":75.8577,"temp":22.7,"humidity":49,"rain":0.0,"pressure":951.4,"uv_index":7.95,"wind_gusts":22.7,"aqi":68,"pm10":25.0,"pm2_5":19.0,"mosquito_risk":0,"arthritis_risk":5,"migraine_risk":7,"frizz_risk":0,"updated_at":"2026-03-21T22:04:38.078601+05:30"},{"city":"Bhopal","state":"Madhya Pradesh","latitude":23.2599,"longitude":77.4126,"temp":21.9,"humidity":47,"rain":0.0,"pressure":957.7,"uv_index":7.9,"wind_gusts":23.8,"aqi":68,"pm10":23.4,"pm2_5":16.9,"mosquito_risk":0,"arthritis_risk":5,"migraine_risk":7,"frizz_risk":0,"updated_at":"2026-03-21T22:04:38.078607+05:30"},{"city":"Jabalpur","state":"Madhya Pradesh","latitude":23.1815,"longitude":79.9864,"temp":22.1,"humidity":52,"rain":0.0,"pressure":966.2,"uv_index":8.0,"wind_gusts":31.3,"aqi":65,"pm10":20.5,"pm2_5":14.2,"mosquito_risk":0,"arthritis_risk":5,"migraine_risk":7,"frizz_risk":0,"updated_at":"2026-03-21T22:04:38.078614+05:30"},{"city":"Ujjain","state":"Madhya Pradesh","latitude":23.1765,"longitude":75.7885,"temp":23.8,"humidity":47,"rain":0.0,"pressure":957.4,"uv_index":7.75,"wind_gusts":19.4,"aqi":62,"pm10":32.4,"pm2_5":25.1,"mosquito_risk":0,"arthritis_risk":5,"migraine_risk":7,"frizz_risk":0,"updated_at":"2026-03-21T22:04:38.078621+05:30"},{"city":"Visakhapatnam","state":"Andhra Pradesh","latitude":17.6868,"longitude":83.2185,"temp":25.2,"humidity":85,"rain":0.0,"pressure":1007.5,"uv_index":8.8,"wind_gusts":35.3,"aqi":74,"pm10":18.6,"pm2_5":15.7,"mosquito_risk":7,"arthritis_risk":5,"migraine_risk":4,"frizz_risk":1,"updated_at":"2026-03-21T22:04:38.078628+05:30"},{"city":"Vijayawada","state":"Andhra Pradesh","latitude":16.5062,"longitude":80.648,"temp":26.8,"humidity":80,"rain":0.0,"pressure":1005.9,"uv_index":8.85,"wind_gusts":24.8,"aqi":61,"pm10":26.6,"pm2_5":22.9,"mosquito_risk":7,"arthritis_risk":5,"migraine_risk":4,"frizz_risk":1,"updated_at":"2026-03-21T22:04:38.078635+05:30"},{"city":"Guntur","state":"Andhra Pradesh","latitude":16.3067,"longitude":80.4365,"temp":26.1,"humidity":87,"rain":0.0,"pressure":1007.0,"uv_index":8.85,"wind_gusts":23.8,"aqi":57,"pm10":31.2,"pm2_5":26.7,"mosquito_risk":7,"arthritis_risk":5,"migraine_risk":4,"frizz_risk":1,"updated_at":"2026-03-21T22:04:38.078642+05:30"},{"city":"Nellore","state":"Andhra Pradesh","latitude":14.4426,"longitude":79.9865,"temp":27.1,"humidity":83,"rain":0.0,"pressure":1008.8,"uv_index":9.0,"wind_gusts":35.3,"aqi":45,"pm10":12.5,"pm2_5":8.6,"mosquito_risk":7,"arthritis_risk":0,"migraine_risk":4,"frizz_risk":1,"updated_at":"2026-03-21T22:04:38.078649+05:30"},{"city":"Kurnool","state":"Andhra Pradesh","latitude":15.8281,"longitude":78.0373,"temp":30.3,"humidity":38,"rain":0.0,"pressure":978.1,"uv_index":8.9,"wind_gusts":24.1,"aqi":133,"pm10":44.6,"pm2_5":36.6,"mosquito_risk":0,"arthritis_risk":5,"migraine_risk":7,"frizz_risk":0,"updated_at":"2026-03-21T22:04:38.078657+05:30"},{"city":"Kakinada","state":"Andhra Pradesh","latitude":16.9891,"longitude":82.2475,"temp":24.9,"humidity":89,"rain":0.0,"pressure":1011.1,"uv_index":8.85,"wind_gusts":26.6,"aqi":39,"pm10":10.9,"pm2_5":7.8,"mosquito_risk":3,"arthritis_risk":0,"migraine_risk":4,"frizz_risk":1,"updated_at":"2026-03-21T22:04:38.078664+05:30"},{"city":"Tirupati","state":"Andhra Pradesh","latitude":13.6288,"longitude":79.4192,"temp":26.9,"humidity":76,"rain":0.0,"pressure":994.5,"uv_index":8.85,"wind_gusts":25.6,"aqi":79,"pm10":30.0,"pm2_5":26.5,"mosquito_risk":7,"arthritis_risk":5,"migraine_risk":7,"frizz_risk":1,"updated_at":"2026-03-21T22:04:38.078670+05:30"},{"city":"Warangal","state":"Telangana","latitude":17.9689,"longitude":79.5941,"temp":26.0,"humidity":72,"rain":0.0,"pressure":981.4,"uv_index":8.65,"wind_gusts":22.7,"aqi":107,"pm10":58.0,"pm2_5":49.7,"mosquito_risk":7,"arthritis_risk":5,"migraine_risk":7,"frizz_risk":1,"updated_at":"2026-03-21T22:04:38.078677+05:30"},{"city":"Nizamabad","state":"Telangana","latitude":18.6725,"longitude":78.0941,"temp":27.2,"humidity":52,"rain":0.0,"pressure":967.1,"uv_index":8.6,"wind_gusts":34.9,"aqi":88,"pm10":57.0,"pm2_5":39.3,"mosquito_risk":4,"arthritis_risk":5,"migraine_risk":7,"frizz_risk":1,"updated_at":"2026-03-21T22:04:38.078683+05:30"},{"city":"Mysore","state":"Karnataka","latitude":12.2958,"longitude":76.6396,"temp":24.7,"humidity":71,"rain":0.0,"pressure":930.2,"uv_index":9.4,"wind_gusts":39.6,"aqi":135,"pm10":45.6,"pm2_5":37.3,"mosquito_risk":3,"arthritis_risk":5,"migraine_risk":7,"frizz_risk":1,"updated_at":"2026-03-21T22:04:38.078690+05:30"},{"city":"Mangalore","state":"Karnataka","latitude":12.9141,"longitude":74.856,"temp":29.7,"humidity":76,"rain":0.0,"pressure":1008.3,"uv_index":9.05,"wind_gusts":29.2,"aqi":67,"pm10":32.9,"pm2_5":18.0,"mosquito_risk":7,"arthritis_risk":0,"migraine_risk":4,"frizz_risk":1,"updated_at":"2026-03-21T22:04:38.078696+05:30"},{"city":"Hubli-Dharwad","state":"Karnataka","latitude":15.3647,"longitude":75.124,"temp":25.0,"humidity":51,"rain":0.0,"pressure":942.5,"uv_index":9.05,"wind_gusts":27.4,"aqi":107,"pm10":23.4,"pm2_5":20.8,"mosquito_risk":4,"arthritis_risk":5,"migraine_risk":7,"frizz_risk":0,"updated_at":"2026-03-21T22:04:38.078703+05:30"},{"city":"Belgaum","state":"Karnataka","latitude":15.8497,"longitude":74.4977,"temp":22.8,"humidity":65,"rain":0.0,"pressure":927.3,"uv_index":9.1,"wind_gusts":34.2,"aqi":103,"pm10":34.3,"pm2_5":24.4,"mosquito_risk":3,"arthritis_risk":5,"migraine_risk":7,"frizz_risk":0,"updated_at":"2026-03-21T22:04:41.298486+05:30"},{"city":"Coimbatore","state":"Tamil Nadu","latitude":11.0168,"longitude":76.9558,"temp":25.8,"humidity":71,"rain":0.0,"pressure":963.5,"uv_index":9.35,"wind_gusts":40.7,"aqi":120,"pm10":29.0,"pm2_5":24.1,"mosquito_risk":7,"arthritis_risk":5,"migraine_risk":7,"frizz_risk":1,"updated_at":"2026-03-21T22:04:41.298517+05:30"},{"city":"Madurai","state":"Tamil Nadu","latitude":9.9252,"longitude":78.1198,"temp":27.8,"humidity":76,"rain":0.0,"pressure":995.7,"uv_index":9.3,"wind_gusts":36.7,"aqi":74,"pm10":13.1,"pm2_5":11.2,"mosquito_risk":7,"arthritis_risk":5,"migraine_risk":7,"frizz_risk":1,"updated_at":"2026-03-21T22:04:41.298527+05:30"},{"city":"Trichy","state":"Tamil Nadu","latitude":10.7905,"longitude":78.7047,"temp":27.6,"humidity":81,"rain":0.0,"pressure":1002.0,"uv_index":9.25,"wind_gusts":26.3,"aqi":61,"pm10":16.2,"pm2_5":14.2,"mosquito_risk":7,"arthritis_risk":5,"migraine_risk":4,"frizz_risk":1,"updated_at":"2026-03-21T22:04:41.298535+05:30"},{"city":"Salem","state":"Tamil Nadu","latitude":11.6643,"longitude":78.146,"temp":28.3,"humidity":64,"rain":0.0,"pressure":978.9,"uv_index":9.3,"wind_gusts":24.8,"aqi":125,"pm10":35.0,"pm2_5":31.0,"mosquito_risk":7,"arthritis_risk":5,"migraine_risk":7,"frizz_risk":1,"updated_at":"2026-03-21T22:04:41.298543+05:30"},{"city":"Tirunelveli","state":"Tamil Nadu","latitude":8.7139,"longitude":77.7567,"temp":27.5,"humidity":79,"rain":0.0,"pressure":1005.5,"uv_index":9.3,"wind_gusts":42.8,"aqi":94,"pm10":19.3,"pm2_5":17.5,"mosquito_risk":7,"arthritis_risk":5,"migraine_risk":4,"frizz_risk":1,"updated_at":"2026-03-21T22:04:41.298550+05:30"},{"city":"Vellore","state":"Tamil Nadu","latitude":12.9165,"longitude":79.1325,"temp":27.0,"humidity":74,"rain":0.0,"pressure":987.3,"uv_index":9.2,"wind_gusts":32.0,"aqi":99,"pm10":19.8,"pm2_5":17.6,"mosquito_risk":7,"arthritis_risk":5,"migraine_risk":7,"frizz_risk":1,"updated_at":"2026-03-21T22:04:41.298557+05:30"},{"city":"Erode","state":"Tamil Nadu","latitude":11.341,"longitude":77.7172,"temp":29.8,"humidity":60,"rain":0.0,"pressure":990.6,"uv_index":9.3,"wind_gusts":29.9,"aqi":105,"pm10":17.8,"pm2_5":15.6,"mosquito_risk":4,"arthritis_risk":5,"migraine_risk":7,"frizz_risk":1,"updated_at":"2026-03-21T22:04:41.298564+05:30"},{"city":"Kochi","state":"Kerala","latitude":9.9312,"longitude":76.2673,"temp":29.1,"humidity":74,"rain":0.0,"pressure":1010.4,"uv_index":9.15,"wind_gusts":33.8,"aqi":80,"pm10":36.2,"pm2_5":32.2,"mosquito_risk":7,"arthritis_risk":0,"migraine_risk":4,"frizz_risk":1,"updated_at":"2026-03-21T22:04:41.298571+05:30"},{"city":"Thiruvananthapuram","state":"Kerala","latitude":8.5241,"longitude":76.9366,"temp":28.3,"humidity":81,"rain":0.0,"pressure":1010.0,"uv_index":8.55,"wind_gusts":24.8,"aqi":101,"pm10":20.9,"pm2_5":16.6,"mosquito_risk":7,"arthritis_risk":0,"migraine_risk":4,"frizz_risk":1,"updated_at":"2026-03-21T22:04:41.298578+05:30"},{"city":"Kozhikode","state":"Kerala","latitude":11.2588,"longitude":75.7804,"temp":29.6,"humidity":77,"rain":0.0,"pressure":1009.5,"uv_index":9.05,"wind_gusts":31.3,"aqi":61,"pm10":23.7,"pm2_5":15.6,"mosquito_risk":7,"arthritis_risk":0,"migraine_risk":4,"frizz_risk":1,"updated_at":"2026-03-21T22:04:41.298585+05:30"},{"city":"Thrissur","state":"Kerala","latitude":10.5276,"longitude":76.2144,"temp":28.4,"humidity":74,"rain":0.0,"pressure":1008.7,"uv_index":9.15,"wind_gusts":38.9,"aqi":77,"pm10":29.9,"pm2_5":26.5,"mosquito_risk":7,"arthritis_risk":0,"migraine_risk":4,"frizz_risk":1,"updated_at":"2026-03-21T22:04:41.298591+05:30"},{"city":"Kannur","state":"Kerala","latitude":11.8745,"longitude":75.3704,"temp":29.1,"humidity":77,"rain":0.0,"pressure":1009.0,"uv_index":9.1,"wind_gusts":34.9,"aqi":66,"pm10":27.4,"pm2_5":16.8,"mosquito_risk":7,"arthritis_risk":0,"migraine_risk":4,"frizz_risk":1,"updated_at":"2026-03-21T22:04:41.298598+05:30"},{"city":"Patna","state":"Bihar","latitude":25.5941,"longitude":85.1376,"temp":19.5,"humidity":91,"rain":0.0,"pressure":1007.3,"uv_index":7.2,"wind_gusts":24.5,"aqi":139,"pm10":68.2,"pm2_5":64.7,"mosquito_risk":3,"arthritis_risk":10,"migraine_risk":4,"frizz_risk":1,"updated_at":"2026-03-21T22:04:41.298605+05:30"},{"city":"Gaya","state":"Bihar","latitude":24.7914,"longitude":85.0002,"temp":19.6,"humidity":88,"rain":0.0,"pressure":1000.4,"uv_index":7.65,"wind_gusts":24.8,"aqi":111,"pm10":50.9,"pm2_5":47.0,"mosquito_risk":3,"arthritis_risk":10,"migraine_risk":4,"frizz_risk":1,"updated_at":"2026-03-21T22:04:41.298611+05:30"},{"city":"Muzaffarpur","state":"Bihar","latitude":26.1209,"longitude":85.3647,"temp":17.5,"humidity":97,"rain":0.0,"pressure":1007.5,"uv_index":5.2,"wind_gusts":23.8,"aqi":143,"pm10":73.8,"pm2_5":71.2,"mosquito_risk":3,"arthritis_risk":10,"migraine_risk":0,"frizz_risk":1,"updated_at":"2026-03-21T22:04:41.298617+05:30"},{"city":"Bhagalpur","state":"Bihar","latitude":25.2425,"longitude":87.0117,"temp":19.2,"humidity":93,"rain":0.0,"pressure":1007.8,"uv_index":5.85,"wind_gusts":24.5,"aqi":116,"pm10":39.8,"pm2_5":36.9,"mosquito_risk":3,"arthritis_risk":10,"migraine_risk":0,"frizz_risk":1,"updated_at":"2026-03-21T22:04:41.298623+05:30"},{"city":"Ranchi","state":"Jharkhand","latitude":23.3441,"longitude":85.3096,"temp":17.8,"humidity":84,"rain":0.0,"pressure":941.5,"uv_index":8.35,"wind_gusts":32.0,"aqi":93,"pm10":32.0,"pm2_5":30.4,"mosquito_risk":3,"arthritis_risk":10,"migraine_risk":7,"frizz_risk":0,"updated_at":"2026-03-21T22:04:41.298630+05:30"},{"city":"Jamshedpur","state":"Jharkhand","latitude":22.8046,"longitude":86.2029,"temp":22.1,"humidity":76,"rain":0.0,"pressure":996.4,"uv_index":7.75,"wind_gusts":28.1,"aqi":118,"pm10":46.8,"pm2_5":44.5,"mosquito_risk":3,"arthritis_risk":5,"migraine_risk":7,"frizz_risk":1,"updated_at":"2026-03-21T22:04:41.298636+05:30"},{"city":"Dhanbad","state":"Jharkhand","latitude":23.7957,"longitude":86.4304,"temp":19.9,"humidity":77,"rain":0.0,"pressure":985.3,"uv_index":7.6,"wind_gusts":27.0,"aqi":146,"pm10":51.3,"pm2_5":48.3,"mosquito_risk":3,"arthritis_risk":5,"migraine_risk":7,"frizz_risk":0,"updated_at":"2026-03-21T22:04:41.298643+05:30"},{"city":"Bokaro","state":"Jharkhand","latitude":23.6693,"longitude":86.1511,"temp":19.2,"humidity":84,"rain":0.0,"pressure":989.6,"uv_index":5.8,"wind_gusts":37.4,"aqi":143,"pm10":52.2,"pm2_5":49.5,"mosquito_risk":3,"arthritis_risk":10,"migraine_risk":3,"frizz_risk":1,"updated_at":"2026-03-21T22:04:41.298650+05:30"},{"city":"Bhubaneswar","state":"Odisha","latitude":20.2961,"longitude":85.8245,"temp":24.2,"humidity":86,"rain":0.0,"pressure":1006.7,"uv_index":8.55,"wind_gusts":28.1,"aqi":132,"pm10":42.8,"pm2_5":38.9,"mosquito_risk":3,"arthritis_risk":5,"migraine_risk":4,"frizz_risk":1,"updated_at":"2026-03-21T22:04:41.298656+05:30"},{"city":"Cuttack","state":"Odisha","latitude":20.4625,"longitude":85.8828,"temp":24.5,"humidity":82,"rain":0.0,"pressure":1008.6,"uv_index":8.6,"wind_gusts":24.8,"aqi":132,"pm10":42.8,"pm2_5":38.9,"mosquito_risk":3,"arthritis_risk":0,"migraine_risk":4,"frizz_risk":1,"updated_at":"2026-03-21T22:04:41.298662+05:30"},{"city":"Rourkela","state":"Odisha","latitude":22.2604,"longitude":84.8536,"temp":23.6,"humidity":64,"rain":0.0,"pressure":989.6,"uv_index":8.15,"wind_gusts":29.9,"aqi":119,"pm10":33.9,"pm2_5":30.0,"mosquito_risk":3,"arthritis_risk":5,"migraine_risk":7,"frizz_risk":1,"updated_at":"2026-03-21T22:04:41.298668+05:30"},{"city":"Raipur","state":"Chhattisgarh","latitude":21.2514,"longitude":81.6296,"temp":24.6,"humidity":37,"rain":0.0,"pressure":978.4,"uv_index":8.35,"wind_gusts":31.7,"aqi":118,"pm10":54.9,"pm2_5":47.3,"mosquito_risk":0,"arthritis_risk":5,"migraine_risk":7,"frizz_risk":0,"updated_at":"2026-03-21T22:04:41.298674+05:30"},{"city":"Bhilai","state":"Chhattisgarh","latitude":21.1938,"longitude":81.3509,"temp":23.4,"humidity":41,"rain":0.0,"pressure":978.7,"uv_index":8.35,"wind_gusts":33.8,"aqi":107,"pm10":22.4,"pm2_5":19.6,"mosquito_risk":0,"arthritis_risk":5,"migraine_risk":7,"frizz_risk":0,"updated_at":"2026-03-21T22:04:41.298681+05:30"},{"city":"Guwahati","state":"Assam","latitude":26.1158,"longitude":91.7086,"temp":21.1,"humidity":86,"rain":0.1,"pressure":1007.5,"uv_index":2.65,"wind_gusts":19.4,"aqi":87,"pm10":43.1,"pm2_5":37.7,"mosquito_risk":6,"arthritis_risk":5,"migraine_risk":0,"frizz_risk":1,"updated_at":"2026-03-21T22:04:41.298687+05:30"},{"city":"Agartala","state":"Tripura","latitude":23.8315,"longitude":91.2868,"temp":21.7,"humidity":84,"rain":0.0,"pressure":1010.4,"uv_index":5.1,"wind_gusts":18.4,"aqi":110,"pm10":34.2,"pm2_5":28.6,"mosquito_risk":3,"arthritis_risk":0,"migraine_risk":0,"frizz_risk":1,"updated_at":"2026-03-21T22:04:41.298693+05:30"},{"city":"Shillong","state":"Meghalaya","latitude":25.5788,"longitude":91.8933,"temp":10.5,"humidity":94,"rain":0.0,"pressure":856.4,"uv_index":5.05,"wind_gusts":30.6,"aqi":70,"pm10":39.6,"pm2_5":26.7,"mosquito_risk":3,"arthritis_risk":10,"migraine_risk":3,"frizz_risk":0,"updated_at":"2026-03-21T22:04:41.298699+05:30"},{"city":"Imphal","state":"Manipur","latitude":24.817,"longitude":93.9368,"temp":16.6,"humidity":85,"rain":0.0,"pressure":925.0,"uv_index":7.45,"wind_gusts":25.9,"aqi":89,"pm10":40.6,"pm2_5":33.2,"mosquito_risk":3,"arthritis_risk":10,"migraine_risk":7,"frizz_risk":0,"updated_at":"2026-03-21T22:04:41.298705+05:30"},{"city":"Aizawl","state":"Mizoram","latitude":23.7271,"longitude":92.7176,"temp":16.2,"humidity":91,"rain":0.0,"pressure":893.8,"uv_index":5.35,"wind_gusts":42.8,"aqi":112,"pm10":57.7,"pm2_5":45.5,"mosquito_risk":3,"arthritis_risk":10,"migraine_risk":3,"frizz_risk":0,"updated_at":"2026-03-21T22:04:41.298712+05:30"},{"city":"Kohima","state":"Nagaland","latitude":25.6701,"longitude":94.1077,"temp":13.3,"humidity":95,"rain":0.2,"pressure":856.0,"uv_index":7.0,"wind_gusts":57.2,"aqi":72,"pm10":24.2,"pm2_5":17.4,"mosquito_risk":6,"arthritis_risk":10,"migraine_risk":7,"frizz_risk":0,"updated_at":"2026-03-21T22:04:41.298718+05:30"},{"city":"Gangtok","state":"Sikkim","latitude":27.3314,"longitude":88.6138,"temp":9.7,"humidity":87,"rain":0.0,"pressure":836.7,"uv_index":1.95,"wind_gusts":16.6,"aqi":95,"pm10":33.4,"pm2_5":27.7,"mosquito_risk":3,"arthritis_risk":10,"migraine_risk":3,"frizz_risk":0,"updated_at":"2026-03-21T22:04:41.298724+05:30"},{"city":"Siliguri","state":"West Bengal","latitude":26.7271,"longitude":88.3953,"temp":16.6,"humidity":66,"rain":0.0,"pressure":998.9,"uv_index":0.45,"wind_gusts":29.2,"aqi":93,"pm10":66.8,"pm2_5":52.0,"mosquito_risk":3,"arthritis_risk":5,"migraine_risk":3,"frizz_risk":0,"updated_at":"2026-03-21T22:04:44.525903+05:30"},{"city":"Durgapur","state":"West Bengal","latitude":23.5204,"longitude":87.3119,"temp":21.6,"humidity":79,"rain":0.0,"pressure":1000.7,"uv_index":7.8,"wind_gusts":20.9,"aqi":120,"pm10":44.4,"pm2_5":41.6,"mosquito_risk":3,"arthritis_risk":5,"migraine_risk":4,"frizz_risk":1,"updated_at":"2026-03-21T22:04:44.525936+05:30"},{"city":"Asansol","state":"West Bengal","latitude":23.6739,"longitude":86.9524,"temp":21.2,"humidity":80,"rain":0.0,"pressure":999.3,"uv_index":6.55,"wind_gusts":22.7,"aqi":125,"pm10":44.1,"pm2_5":40.6,"mosquito_risk":3,"arthritis_risk":5,"migraine_risk":7,"frizz_risk":1,"updated_at":"2026-03-21T22:04:44.525948+05:30"},{"city":"Pondicherry","state":"Puducherry","latitude":11.9139,"longitude":79.8145,"temp":26.2,"humidity":92,"rain":0.0,"pressure":1011.1,"uv_index":9.15,"wind_gusts":30.6,"aqi":32,"pm10":14.0,"pm2_5":9.0,"mosquito_risk":7,"arthritis_risk":0,"migraine_risk":4,"frizz_risk":1,"updated_at":"2026-03-21T22:04:44.525957+05:30"},{"city":"Port Blair","state":"Andaman and Nicobar Islands","latitude":11.6234,"longitude":92.7265,"temp":28.3,"humidity":78,"rain":0.0,"pressure":1009.5,"uv_index":9.1,"wind_gusts":14.8,"aqi":49,"pm10":13.4,"pm2_5":10.2,"mosquito_risk":7,"arthritis_risk":0,"migraine_risk":4,"frizz_risk":1,"updated_at":"2026-03-21T22:04:44.525966+05:30"},{"city":"Haridwar","state":"Uttarakhand","latitude":29.9457,"longitude":78.1642,"temp":18.2,"humidity":83,"rain":0.0,"pressure":979.9,"uv_index":6.2,"wind_gusts":21.6,"aqi":92,"pm10":59.0,"pm2_5":46.4,"mosquito_risk":3,"arthritis_risk":10,"migraine_risk":7,"frizz_risk":0,"updated_at":"2026-03-21T22:04:44.525976+05:30"},{"city":"Rishikesh","state":"Uttarakhand","latitude":30.0869,"longitude":78.2676,"temp":17.6,"humidity":82,"rain":0.0,"pressure":972.3,"uv_index":6.25,"wind_gusts":20.9,"aqi":90,"pm10":29.4,"pm2_5":26.0,"mosquito_risk":3,"arthritis_risk":10,"migraine_risk":7,"frizz_risk":0,"updated_at":"2026-03-21T22:04:44.525986+05:30"},{"city":"Nainital","state":"Uttarakhand","latitude":29.3919,"longitude":79.4542,"temp":12.4,"humidity":85,"rain":0.0,"pressure":806.8,"uv_index":6.9,"wind_gusts":34.2,"aqi":56,"pm10":23.7,"pm2_5":21.5,"mosquito_risk":3,"arthritis_risk":10,"migraine_risk":7,"frizz_risk":0,"updated_at":"2026-03-21T22:04:44.525995+05:30"},{"city":"Mussoorie","state":"Uttarakhand","latitude":30.4599,"longitude":78.0664,"temp":11.1,"humidity":77,"rain":0.0,"pressure":803.1,"uv_index":6.6,"wind_gusts":26.3,"aqi":91,"pm10":42.4,"pm2_5":38.4,"mosquito_risk":3,"arthritis_risk":5,"migraine_risk":7,"frizz_risk":0,"updated_at":"2026-03-21T22:04:44.526003+05:30"},{"city":"Dharamshala","state":"Himachal Pradesh","latitude":32.219,"longitude":76.3234,"temp":14.6,"humidity":65,"rain":0.0,"pressure":871.2,"uv_index":6.6,"wind_gusts":17.6,"aqi":83,"pm10":28.9,"pm2_5":21.4,"mosquito_risk":3,"arthritis_risk":5,"migraine_risk":7,"frizz_risk":0,"updated_at":"2026-03-21T22:04:44.526012+05:30"},{"city":"Dalhousie","state":"Himachal Pradesh","latitude":32.5387,"longitude":75.971,"temp":10.9,"humidity":75,"rain":0.0,"pressure":804.1,"uv_index":6.25,"wind_gusts":17.3,"aqi":74,"pm10":53.0,"pm2_5":44.1,"mosquito_risk":3,"arthritis_risk":5,"migraine_risk":7,"frizz_risk":0,"updated_at":"2026-03-21T22:04:44.526021+05:30"},{"city":"Patiala","state":"Punjab","latitude":30.3398,"longitude":76.3869,"temp":16.6,"humidity":86,"rain":0.0,"pressure":984.7,"uv_index":5.85,"wind_gusts":23.8,"aqi":153,"pm10":193.2,"pm2_5":51.0,"mosquito_risk":3,"arthritis_risk":10,"migraine_risk":3,"frizz_risk":0,"updated_at":"2026-03-21T22:04:44.526030+05:30"},{"city":"Bhatinda","state":"Punjab","latitude":30.211,"longitude":74.9455,"temp":18.9,"humidity":80,"rain":0.0,"pressure":990.8,"uv_index":5.55,"wind_gusts":18.0,"aqi":133,"pm10":94.8,"pm2_5":74.5,"mosquito_risk":3,"arthritis_risk":5,"migraine_risk":3,"frizz_risk":0,"updated_at":"2026-03-21T22:04:44.526038+05:30"},{"city":"Rohtak","state":"Haryana","latitude":28.8955,"longitude":76.6066,"temp":18.9,"humidity":82,"rain":0.0,"pressure":988.2,"uv_index":5.9,"wind_gusts":22.7,"aqi":165,"pm10":153.2,"pm2_5":75.7,"mosquito_risk":3,"arthritis_risk":10,"migraine_risk":3,"frizz_risk":0,"updated_at":"2026-03-21T22:04:44.526046+05:30"},{"city":"Panipat","state":"Haryana","latitude":29.3909,"longitude":76.9635,"temp":17.5,"humidity":86,"rain":0.0,"pressure":986.7,"uv_index":6.0,"wind_gusts":24.8,"aqi":165,"pm10":218.4,"pm2_5":69.8,"mosquito_risk":3,"arthritis_risk":10,"migraine_risk":3,"frizz_risk":0,"updated_at":"2026-03-21T22:04:44.526054+05:30"},{"city":"Mathura","state":"Uttar Pradesh","latitude":27.4924,"longitude":77.6737,"temp":19.9,"humidity":74,"rain":0.0,"pressure":993.1,"uv_index":6.7,"wind_gusts":23.8,"aqi":162,"pm10":381.8,"pm2_5":93.1,"mosquito_risk":3,"arthritis_risk":5,"migraine_risk":7,"frizz_risk":0,"updated_at":"2026-03-21T22:04:44.526083+05:30"},{"city":"Vrindavan","state":"Uttar Pradesh","latitude":27.5823,"longitude":77.7027,"temp":19.0,"humidity":79,"rain":0.0,"pressure":993.5,"uv_index":6.65,"wind_gusts":21.6,"aqi":162,"pm10":381.8,"pm2_5":93.1,"mosquito_risk":3,"arthritis_risk":5,"migraine_risk":7,"frizz_risk":0,"updated_at":"2026-03-21T22:04:44.526090+05:30"},{"city":"Ayodhya","state":"Uttar Pradesh","latitude":26.7922,"longitude":82.1998,"temp":19.2,"humidity":86,"rain":0.0,"pressure":1002.2,"uv_index":6.95,"wind_gusts":22.0,"aqi":91,"pm10":53.7,"pm2_5":46.1,"mosquito_risk":3,"arthritis_risk":10,"migraine_risk":4,"frizz_risk":1,"updated_at":"2026-03-21T22:04:44.526097+05:30"},{"city":"Ratlam","state":"Madhya Pradesh","latitude":23.3315,"longitude":75.0367,"temp":24.3,"humidity":56,"rain":0.0,"pressure":958.1,"uv_index":7.55,"wind_gusts":21.2,"aqi":68,"pm10":30.5,"pm2_5":22.2,"mosquito_risk":0,"arthritis_risk":5,"migraine_risk":7,"frizz_risk":0,"updated_at":"2026-03-21T22:04:44.526103+05:30"},{"city":"Sagar","state":"Madhya Pradesh","latitude":23.8388,"longitude":78.7378,"temp":23.1,"humidity":44,"rain":0.0,"pressure":954.8,"uv_index":7.9,"wind_gusts":28.4,"aqi":84,"pm10":19.2,"pm2_5":13.0,"mosquito_risk":0,"arthritis_risk":5,"migraine_risk":7,"frizz_risk":0,"updated_at":"2026-03-21T22:04:44.526110+05:30"},{"city":"Satna","state":"Madhya Pradesh","latitude":24.6005,"longitude":80.8322,"temp":21.1,"humidity":60,"rain":0.0,"pressure":977.1,"uv_index":7.8,"wind_gusts":32.8,"aqi":73,"pm10":36.8,"pm2_5":15.8,"mosquito_risk":0,"arthritis_risk":5,"migraine_risk":7,"frizz_risk":0,"updated_at":"2026-03-21T22:04:44.526116+05:30"},{"city":"Akola","state":"Maharashtra","latitude":20.7002,"longitude":77.0082,"temp":25.0,"humidity":38,"rain":0.0,"pressure":978.4,"uv_index":8.25,"wind_gusts":21.6,"aqi":84,"pm10":37.7,"pm2_5":31.7,"mosquito_risk":4,"arthritis_risk":5,"migraine_risk":7,"frizz_risk":0,"updated_at":"2026-03-21T22:04:44.526123+05:30"},{"city":"Amravati","state":"Maharashtra","latitude":20.9374,"longitude":77.7796,"temp":25.4,"humidity":37,"rain":0.0,"pressure":970.5,"uv_index":8.3,"wind_gusts":25.2,"aqi":82,"pm10":32.6,"pm2_5":26.5,"mosquito_risk":4,"arthritis_risk":5,"migraine_risk":7,"frizz_risk":0,"updated_at":"2026-03-21T22:04:44.526131+05:30"},{"city":"Latur","state":"Maharashtra","latitude":18.4088,"longitude":76.5604,"temp":25.4,"humidity":47,"rain":0.0,"pressure":941.9,"uv_index":8.65,"wind_gusts":34.2,"aqi":100,"pm10":29.9,"pm2_5":18.7,"mosquito_risk":4,"arthritis_risk":5,"migraine_risk":7,"frizz_risk":0,"updated_at":"2026-03-21T22:04:44.526137+05:30"},{"city":"Nanded","state":"Maharashtra","latitude":19.1383,"longitude":77.3091,"temp":27.9,"humidity":39,"rain":0.0,"pressure":970.9,"uv_index":8.5,"wind_gusts":28.1,"aqi":66,"pm10":56.8,"pm2_5":36.9,"mosquito_risk":4,"arthritis_risk":5,"migraine_risk":7,"frizz_risk":0,"updated_at":"2026-03-21T22:04:44.526144+05:30"},{"city":"Gulbarga","state":"Karnataka","latitude":17.3297,"longitude":76.8343,"temp":29.2,"humidity":35,"rain":0.0,"pressure":960.5,"uv_index":8.75,"wind_gusts":42.1,"aqi":124,"pm10":39.9,"pm2_5":31.5,"mosquito_risk":4,"arthritis_risk":5,"migraine_risk":7,"frizz_risk":0,"updated_at":"2026-03-21T22:04:44.526150+05:30"},{"city":"Bidar","state":"Karnataka","latitude":17.9104,"longitude":77.5199,"temp":27.6,"humidity":41,"rain":0.0,"pressure":937.6,"uv_index":8.75,"wind_gusts":40.3,"aqi":85,"pm10":29.2,"pm2_5":20.7,"mosquito_risk":4,"arthritis_risk":5,"migraine_risk":7,"frizz_risk":0,"updated_at":"2026-03-21T22:04:44.526156+05:30"},{"city":"Hospet","state":"Karnataka","latitude":15.2689,"longitude":76.3909,"temp":29.0,"humidity":54,"rain":0.0,"pressure":957.2,"uv_index":9.0,"wind_gusts":19.4,"aqi":159,"pm10":28.5,"pm2_5":23.9,"mosquito_risk":4,"arthritis_risk":5,"migraine_risk":7,"frizz_risk":1,"updated_at":"2026-03-21T22:04:44.526162+05:30"},{"city":"Tirupur","state":"Tamil Nadu","latitude":11.1085,"longitude":77.3411,"temp":28.7,"humidity":62,"rain":0.0,"pressure":977.1,"uv_index":9.4,"wind_gusts":25.2,"aqi":119,"pm10":22.6,"pm2_5":18.7,"mosquito_risk":7,"arthritis_risk":5,"migraine_risk":7,"frizz_risk":1,"updated_at":"2026-03-21T22:04:44.526168+05:30"},{"city":"Alappuzha","state":"Kerala","latitude":9.4981,"longitude":76.3388,"temp":29.0,"humidity":73,"rain":0.0,"pressure":1010.7,"uv_index":9.1,"wind_gusts":29.2,"aqi":77,"pm10":23.9,"pm2_5":18.6,"mosquito_risk":7,"arthritis_risk":0,"migraine_risk":4,"frizz_risk":1,"updated_at":"2026-03-21T22:04:44.526174+05:30"},{"city":"Munnar","state":"Kerala","latitude":10.0889,"longitude":77.0595,"temp":20.8,"humidity":88,"rain":0.0,"pressure":858.4,"uv_index":9.65,"wind_gusts":30.6,"aqi":72,"pm10":31.2,"pm2_5":27.4,"mosquito_risk":3,"arthritis_risk":5,"migraine_risk":7,"frizz_risk":1,"updated_at":"2026-03-21T22:04:44.526181+05:30"},{"city":"Silchar","state":"Assam","latitude":24.8333,"longitude":92.7789,"temp":23.2,"humidity":81,"rain":0.0,"pressure":1008.3,"uv_index":6.8,"wind_gusts":22.3,"aqi":100,"pm10":51.1,"pm2_5":43.1,"mosquito_risk":3,"arthritis_risk":0,"migraine_risk":4,"frizz_risk":1,"updated_at":"2026-03-21T22:04:44.526188+05:30"},{"city":"Dibrugarh","state":"Assam","latitude":27.4728,"longitude":94.912,"temp":23.3,"humidity":82,"rain":0.0,"pressure":998.6,"uv_index":7.6,"wind_gusts":32.4,"aqi":90,"pm10":55.9,"pm2_5":47.7,"mosquito_risk":3,"arthritis_risk":5,"migraine_risk":7,"frizz_risk":1,"updated_at":"2026-03-21T22:04:44.526195+05:30"}]