[{"city":"Delhi","state":"Delhi","latitude":28.6139,"longitude":77.209,"temp":22.6,"humidity":68,"rain":0.0,"pressure":984.3,"uv_index":6.55,"wind_gusts":45.0,"aqi":163,"pm10":340.9,"pm2_5":70.1,"mosquito_risk":3,"arthritis_risk":5,"migraine_risk":7,"frizz_risk":1,"updated_at":"2026-03-27T04:04:23.079135+05:30"},{"city":"Mumbai","state":"Maharashtra","latitude":19.076,"longitude":72.8777,"temp":28.5,"humidity":78,"rain":0.0,"pressure":1008.2,"uv_index":8.0,"wind_gusts":27.4,"aqi":98,"pm10":35.4,"pm2_5":24.9,"mosquito_risk":7,"arthritis_risk":0,"migraine_risk":4,"frizz_risk":1,"updated_at":"2026-03-27T04:04:23.079191+05:30"},{"city":"Bangalore","state":"Karnataka","latitude":12.9716,"longitude":77.5946,"temp":21.1,"humidity":76,"rain":0.0,"pressure":911.5,"uv_index":9.5,"wind_gusts":27.0,"aqi":68,"pm10":28.2,"pm2_5":23.8,"mosquito_risk":3,"arthritis_risk":5,"migraine_risk":7,"frizz_risk":1,"updated_at":"2026-03-27T04:04:23.079207+05:30"},{"city":"Hyderabad","state":"Telangana","latitude":17.385,"longitude":78.4867,"temp":24.8,"humidity":63,"rain":0.0,"pressure":954.0,"uv_index":9.0,"wind_gusts":29.9,"aqi":90,"pm10":25.6,"pm2_5":20.0,"mosquito_risk":3,"arthritis_risk":5,"migraine_risk":7,"frizz_risk":1,"updated_at":"2026-03-27T04:04:23.079218+05:30"},{"city":"Chennai","state":"Tamil Nadu","latitude":13.0827,"longitude":80.2707,"temp":23.8,"humidity":93,"rain":0.0,"pressure":1008.0,"uv_index":9.25,"wind_gusts":29.9,"aqi":64,"pm10":37.8,"pm2_5":22.5,"mosquito_risk":3,"arthritis_risk":0,"migraine_risk":4,"frizz_risk":1,"updated_at":"2026-03-27T04:04:23.079227+05:30"},{"city":"Kolkata","state":"West Bengal","latitude":22.5726,"longitude":88.3639,"temp":24.9,"humidity":97,"rain":0.0,"pressure":1006.9,"uv_index":8.4,"wind_gusts":25.2,"aqi":141,"pm10":36.1,"pm2_5":30.6,"mosquito_risk":3,"arthritis_risk":5,"migraine_risk":4,"frizz_risk":1,"updated_at":"2026-03-27T04:04:23.079236+05:30"},{"city":"Pune","state":"Maharashtra","latitude":18.5204,"longitude":73.8567,"temp":25.5,"humidity":76,"rain":0.0,"pressure":948.5,"uv_index":8.55,"wind_gusts":34.9,"aqi":110,"pm10":53.4,"pm2_5":47.3,"mosquito_risk":7,"arthritis_risk":5,"migraine_risk":7,"frizz_risk":1,"updated_at":"2026-03-27T04:04:23.079249+05:30"},{"city":"Ahmedabad","state":"Gujarat","latitude":23.0225,"longitude":72.5714,"temp":23.7,"humidity":56,"rain":0.0,"pressure":1003.7,"uv_index":7.9,"wind_gusts":30.2,"aqi":60,"pm10":17.1,"pm2_5":12.8,"mosquito_risk":0,"arthritis_risk":5,"migraine_risk":4,"frizz_risk":0,"updated_at":"2026-03-27T04:04:23.079258+05:30"},{"city":"Jaipur","state":"Rajasthan","latitude":26.9124,"longitude":75.7873,"temp":24.1,"humidity":53,"rain":0.0,"pressure":960.6,"uv_index":7.35,"wind_gusts":37.8,"aqi":94,"pm10":140.6,"pm2_5":29.7,"mosquito_risk":0,"arthritis_risk":5,"migraine_risk":7,"frizz_risk":0,"updated_at":"2026-03-27T04:04:23.079266+05:30"},{"city":"Lucknow","state":"Uttar Pradesh","latitude":26.8467,"longitude":80.9462,"temp":23.8,"humidity":56,"rain":0.0,"pressure":993.9,"uv_index":4.15,"wind_gusts":52.6,"aqi":104,"pm10":96.9,"pm2_5":29.6,"mosquito_risk":0,"arthritis_risk":5,"migraine_risk":3,"frizz_risk":0,"updated_at":"2026-03-27T04:04:23.079275+05:30"},{"city":"Kanpur","state":"Uttar Pradesh","latitude":26.4499,"longitude":80.3319,"temp":23.1,"humidity":69,"rain":0.0,"pressure":992.4,"uv_index":6.9,"wind_gusts":42.8,"aqi":166,"pm10":189.1,"pm2_5":40.6,"mosquito_risk":3,"arthritis_risk":5,"migraine_risk":7,"frizz_risk":1,"updated_at":"2026-03-27T04:04:23.079283+05:30"},{"city":"Chandigarh","state":"Chandigarh","latitude":30.7333,"longitude":76.7794,"temp":19.7,"humidity":83,"rain":0.0,"pressure":970.2,"uv_index":6.45,"wind_gusts":30.2,"aqi":64,"pm10":27.7,"pm2_5":24.9,"mosquito_risk":3,"arthritis_risk":10,"migraine_risk":7,"frizz_risk":1,"updated_at":"2026-03-27T04:04:23.079291+05:30"},{"city":"Srinagar","state":"Jammu and Kashmir","latitude":34.0837,"longitude":74.7973,"temp":6.8,"humidity":84,"rain":0.0,"pressure":839.7,"uv_index":7.5,"wind_gusts":17.3,"aqi":95,"pm10":59.1,"pm2_5":51.2,"mosquito_risk":3,"arthritis_risk":10,"migraine_risk":7,"frizz_risk":0,"updated_at":"2026-03-27T04:04:23.079301+05:30"},{"city":"Jammu","state":"Jammu and Kashmir","latitude":32.7266,"longitude":74.857,"temp":19.5,"humidity":86,"rain":0.0,"pressure":974.9,"uv_index":7.15,"wind_gusts":26.6,"aqi":77,"pm10":36.2,"pm2_5":33.6,"mosquito_risk":3,"arthritis_risk":10,"migraine_risk":7,"frizz_risk":1,"updated_at":"2026-03-27T04:04:23.079309+05:30"},{"city":"Amritsar","state":"Punjab","latitude":31.634,"longitude":74.8723,"temp":18.5,"humidity":86,"rain":0.0,"pressure":983.8,"uv_index":7.1,"wind_gusts":25.2,"aqi":84,"pm10":38.1,"pm2_5":25.5,"mosquito_risk":3,"arthritis_risk":10,"migraine_risk":7,"frizz_risk":1,"updated_at":"2026-03-27T04:04:23.079316+05:30"},{"city":"Ludhiana","state":"Punjab","latitude":30.901,"longitude":75.8573,"temp":20.3,"humidity":79,"rain":0.0,"pressure":981.4,"uv_index":6.7,"wind_gusts":27.7,"aqi":88,"pm10":52.4,"pm2_5":38.1,"mosquito_risk":3,"arthritis_risk":5,"migraine_risk":7,"frizz_risk":1,"updated_at":"2026-03-27T04:04:23.079323+05:30"},{"city":"Jalandhar","state":"Punjab","latitude":31.326,"longitude":75.5762,"temp":19.3,"humidity":82,"rain":0.0,"pressure":982.7,"uv_index":6.9,"wind_gusts":26.6,"aqi":84,"pm10":75.4,"pm2_5":41.1,"mosquito_risk":3,"arthritis_risk":10,"migraine_risk":7,"frizz_risk":1,"updated_at":"2026-03-27T04:04:23.079332+05:30"},{"city":"Dehradun","state":"Uttarakhand","latitude":30.6284,"longitude":78.0322,"temp":12.2,"humidity":66,"rain":0.0,"pressure":828.4,"uv_index":6.55,"wind_gusts":30.2,"aqi":49,"pm10":18.8,"pm2_5":12.8,"mosquito_risk":3,"arthritis_risk":5,"migraine_risk":7,"frizz_risk":0,"updated_at":"2026-03-27T04:04:23.079339+05:30"},{"city":"Shimla","state":"Himachal Pradesh","latitude":31.1048,"longitude":77.1734,"temp":9.8,"humidity":81,"rain":0.0,"pressure":782.2,"uv_index":6.75,"wind_gusts":35.6,"aqi":57,"pm10":29.9,"pm2_5":22.1,"mosquito_risk":3,"arthritis_risk":10,"migraine_risk":7,"frizz_risk":0,"updated_at":"2026-03-27T04:04:23.079347+05:30"},{"city":"Manali","state":"Himachal Pradesh","latitude":32.2396,"longitude":77.1887,"temp":13.3,"humidity":60,"rain":0.0,"pressure":817.9,"uv_index":8.1,"wind_gusts":25.9,"aqi":49,"pm10":12.7,"pm2_5":8.9,"mosquito_risk":0,"arthritis_risk":5,"migraine_risk":7,"frizz_risk":0,"updated_at":"2026-03-27T04:04:23.079354+05:30"},{"city":"Gurgaon","state":"Haryana","latitude":28.4595,"longitude":77.0266,"temp":20.5,"humidity":78,"rain":0.0,"pressure":982.9,"uv_index":6.6,"wind_gusts":42.1,"aqi":589,"pm10":789.8,"pm2_5":122.9,"mosquito_risk":3,"arthritis_risk":5,"migraine_risk":7,"frizz_risk":1,"updated_at":"2026-03-27T04:04:23.079360+05:30"},{"city":"Noida","state":"Uttar Pradesh","latitude":28.5355,"longitude":77.391,"temp":22.3,"humidity":71,"rain":0.0,"pressure":985.7,"uv_index":6.55,"wind_gusts":43.6,"aqi":589,"pm10":789.8,"pm2_5":122.9,"mosquito_risk":3,"arthritis_risk":5,"migraine_risk":7,"frizz_risk":1,"updated_at":"2026-03-27T04:04:23.079368+05:30"},{"city":"Ghaziabad","state":"Uttar Pradesh","latitude":28.6692,"longitude":77.4538,"temp":21.6,"humidity":73,"rain":0.0,"pressure":983.8,"uv_index":6.5,"wind_gusts":42.1,"aqi":132,"pm10":253.3,"pm2_5":59.8,"mosquito_risk":3,"arthritis_risk":5,"migraine_risk":7,"frizz_risk":1,"updated_at":"2026-03-27T04:04:23.079374+05:30"},{"city":"Faridabad","state":"Haryana","latitude":28.4089,"longitude":77.3178,"temp":21.8,"humidity":71,"rain":0.0,"pressure":985.0,"uv_index":6.5,"wind_gusts":43.2,"aqi":589,"pm10":789.8,"pm2_5":122.9,"mosquito_risk":3,"arthritis_risk":5,"migraine_risk":7,"frizz_risk":1,"updated_at":"2026-03-27T04:04:23.079380+05:30"},{"city":"Meerut","state":"Uttar Pradesh","latitude":28.9845,"longitude":77.7064,"temp":20.6,"humidity":79,"rain":0.0,"pressure":982.4,"uv_index":5.65,"wind_gusts":48.2,"aqi":132,"pm10":253.3,"pm2_5":59.8,"mosquito_risk":3,"arthritis_risk":5,"migraine_risk":3,"frizz_risk":1,"updated_at":"2026-03-27T04:04:23.079387+05:30"},{"city":"Agra","state":"Uttar Pradesh","latitude":27.1767,"longitude":78.0081,"temp":22.8,"humidity":65,"rain":0.0,"pressure":988.9,"uv_index":6.85,"wind_gusts":34.6,"aqi":387,"pm10":1419.3,"pm2_5":170.4,"mosquito_risk":3,"arthritis_risk":5,"migraine_risk":7,"frizz_risk":0,"updated_at":"2026-03-27T04:04:23.079393+05:30"},{"city":"Varanasi","state":"Uttar Pradesh","latitude":25.3176,"longitude":82.9739,"temp":20.9,"humidity":68,"rain":0.0,"pressure":998.1,"uv_index":7.35,"wind_gusts":47.2,"aqi":96,"pm10":65.9,"pm2_5":35.9,"mosquito_risk":3,"arthritis_risk":5,"migraine_risk":7,"frizz_risk":0,"updated_at":"2026-03-27T04:04:23.079402+05:30"},{"city":"Prayagraj","state":"Uttar Pradesh","latitude":25.4358,"longitude":81.8463,"temp":23.2,"humidity":62,"rain":0.0,"pressure":996.7,"uv_index":7.65,"wind_gusts":44.3,"aqi":94,"pm10":115.5,"pm2_5":34.1,"mosquito_risk":3,"arthritis_risk":5,"migraine_risk":7,"frizz_risk":0,"updated_at":"2026-03-27T04:04:23.079410+05:30"},{"city":"Gorakhpur","state":"Uttar Pradesh","latitude":26.7606,"longitude":83.3732,"temp":20.2,"humidity":72,"rain":0.0,"pressure":997.1,"uv_index":6.6,"wind_gusts":47.5,"aqi":95,"pm10":85.2,"pm2_5":27.7,"mosquito_risk":3,"arthritis_risk":5,"migraine_risk":7,"frizz_risk":0,"updated_at":"2026-03-27T04:04:23.079417+05:30"},{"city":"Bareilly","state":"Uttar Pradesh","latitude":28.367,"longitude":79.4304,"temp":21.5,"humidity":74,"rain":0.0,"pressure":987.3,"uv_index":5.4,"wind_gusts":46.8,"aqi":74,"pm10":25.7,"pm2_5":21.4,"mosquito_risk":3,"arthritis_risk":5,"migraine_risk":3,"frizz_risk":1,"updated_at":"2026-03-27T04:04:23.079425+05:30"},{"city":"Aligarh","state":"Uttar Pradesh","latitude":27.8974,"longitude":78.088,"temp":21.4,"humidity":74,"rain":0.0,"pressure":986.5,"uv_index":5.2,"wind_gusts":39.6,"aqi":234,"pm10":761.8,"pm2_5":113.4,"mosquito_risk":3,"arthritis_risk":5,"migraine_risk":3,"frizz_risk":1,"updated_at":"2026-03-27T04:04:23.079431+05:30"},{"city":"Moradabad","state":"Uttar Pradesh","latitude":28.8386,"longitude":78.7733,"temp":21.2,"humidity":76,"rain":0.0,"pressure":984.2,"uv_index":5.75,"wind_gusts":49.0,"aqi":82,"pm10":48.8,"pm2_5":27.4,"mosquito_risk":3,"arthritis_risk":5,"migraine_risk":3,"frizz_risk":1,"updated_at":"2026-03-27T04:04:23.079440+05:30"},{"city":"Saharanpur","state":"Uttar Pradesh","latitude":29.9637,"longitude":77.546,"temp":20.3,"humidity":81,"rain":0.0,"pressure":976.6,"uv_index":5.65,"wind_gusts":36.4,"aqi":77,"pm10":73.3,"pm2_5":39.1,"mosquito_risk":3,"arthritis_risk":5,"migraine_risk":3,"frizz_risk":1,"updated_at":"2026-03-27T04:04:23.079446+05:30"},{"city":"Jhansi","state":"Uttar Pradesh","latitude":25.4484,"longitude":78.5685,"temp":22.7,"humidity":68,"rain":0.0,"pressure":978.9,"uv_index":7.2,"wind_gusts":54.0,"aqi":79,"pm10":158.8,"pm2_5":30.5,"mosquito_risk":3,"arthritis_risk":5,"migraine_risk":7,"frizz_risk":1,"updated_at":"2026-03-27T04:04:26.338604+05:30"},{"city":"Surat","state":"Gujarat","latitude":21.1702,"longitude":72.8311,"temp":26.1,"humidity":76,"rain":0.0,"pressure":1007.4,"uv_index":7.75,"wind_gusts":25.9,"aqi":122,"pm10":48.8,"pm2_5":44.5,"mosquito_risk":7,"arthritis_risk":5,"migraine_risk":4,"frizz_risk":1,"updated_at":"2026-03-27T04:04:26.338679+05:30"},{"city":"Vadodara","state":"Gujarat","latitude":22.3072,"longitude":73.1812,"temp":25.3,"humidity":49,"rain":0.0,"pressure":1005.6,"uv_index":7.9,"wind_gusts":26.6,"aqi":86,"pm10":25.0,"pm2_5":21.7,"mosquito_risk":4,"arthritis_risk":5,"migraine_risk":4,"frizz_risk":0,"updated_at":"2026-03-27T04:04:26.338694+05:30"},{"city":"Rajkot","state":"Gujarat","latitude":22.3039,"longitude":70.8022,"temp":22.7,"humidity":91,"rain":0.0,"pressure":996.2,"uv_index":7.75,"wind_gusts":33.1,"aqi":53,"pm10":19.4,"pm2_5":12.1,"mosquito_risk":3,"arthritis_risk":5,"migraine_risk":7,"frizz_risk":1,"updated_at":"2026-03-27T04:04:26.338703+05:30"},{"city":"Thane","state":"Maharashtra","latitude":19.2183,"longitude":72.9781,"temp":27.5,"humidity":75,"rain":0.0,"pressure":1007.7,"uv_index":8.0,"wind_gusts":39.6,"aqi":98,"pm10":35.4,"pm2_5":24.9,"mosquito_risk":7,"arthritis_risk":5,"migraine_risk":4,"frizz_risk":1,"updated_at":"2026-03-27T04:04:26.338711+05:30"},{"city":"Nagpur","state":"Maharashtra","latitude":21.1458,"longitude":79.0882,"temp":25.7,"humidity":66,"rain":0.0,"pressure":973.0,"uv_index":8.25,"wind_gusts":45.7,"aqi":117,"pm10":48.8,"pm2_5":43.5,"mosquito_risk":7,"arthritis_risk":5,"migraine_risk":7,"frizz_risk":1,"updated_at":"2026-03-27T04:04:26.338718+05:30"},{"city":"Nashik","state":"Maharashtra","latitude":19.9975,"longitude":73.7898,"temp":25.6,"humidity":51,"rain":0.0,"pressure":946.1,"uv_index":8.2,"wind_gusts":42.8,"aqi":85,"pm10":31.0,"pm2_5":25.2,"mosquito_risk":4,"arthritis_risk":5,"migraine_risk":7,"frizz_risk":0,"updated_at":"2026-03-27T04:04:26.338725+05:30"},{"city":"Aurangabad","state":"Maharashtra","latitude":19.8762,"longitude":75.3433,"temp":25.9,"humidity":47,"rain":0.0,"pressure":944.3,"uv_index":8.7,"wind_gusts":38.9,"aqi":70,"pm10":31.2,"pm2_5":23.2,"mosquito_risk":4,"arthritis_risk":5,"migraine_risk":7,"frizz_risk":0,"updated_at":"2026-03-27T04:04:26.338732+05:30"},{"city":"Solapur","state":"Maharashtra","latitude":17.6599,"longitude":75.9064,"temp":26.6,"humidity":57,"rain":0.0,"pressure":957.1,"uv_index":8.85,"wind_gusts":27.0,"aqi":102,"pm10":44.5,"pm2_5":39.5,"mosquito_risk":4,"arthritis_risk":5,"migraine_risk":7,"frizz_risk":1,"updated_at":"2026-03-27T04:04:26.338739+05:30"},{"city":"Kolhapur","state":"Maharashtra","latitude":16.705,"longitude":74.2433,"temp":23.4,"humidity":88,"rain":0.0,"pressure":947.6,"uv_index":8.95,"wind_gusts":38.5,"aqi":155,"pm10":105.9,"pm2_5":100.4,"mosquito_risk":3,"arthritis_risk":5,"migraine_risk":7,"frizz_risk":1,"updated_at":"2026-03-27T04:04:26.338747+05:30"},{"city":"Goa","state":"Goa","latitude":15.2993,"longitude":74.124,"temp":26.9,"humidity":92,"rain":0.0,"pressure":996.3,"uv_index":8.95,"wind_gusts":32.4,"aqi":98,"pm10":44.1,"pm2_5":39.7,"mosquito_risk":7,"arthritis_risk":5,"migraine_risk":7,"frizz_risk":1,"updated_at":"2026-03-27T04:04:26.338754+05:30"},{"city":"Jodhpur","state":"Rajasthan","latitude":26.2389,"longitude":73.0243,"temp":23.8,"humidity":53,"rain":0.0,"pressure":984.6,"uv_index":7.7,"wind_gusts":29.2,"aqi":92,"pm10":84.8,"pm2_5":21.9,"mosquito_risk":0,"arthritis_risk":5,"migraine_risk":7,"frizz_risk":0,"updated_at":"2026-03-27T04:04:26.338760+05:30"},{"city":"Udaipur","state":"Rajasthan","latitude":24.5854,"longitude":73.7125,"temp":24.6,"humidity":34,"rain":0.0,"pressure":947.8,"uv_index":8.35,"wind_gusts":34.2,"aqi":31,"pm10":11.4,"pm2_5":6.2,"mosquito_risk":0,"arthritis_risk":5,"migraine_risk":7,"frizz_risk":0,"updated_at":"2026-03-27T04:04:26.338767+05:30"},{"city":"Kota","state":"Rajasthan","latitude":25.2138,"longitude":75.8648,"temp":24.5,"humidity":60,"rain":0.0,"pressure":979.7,"uv_index":7.7,"wind_gusts":38.2,"aqi":66,"pm10":21.8,"pm2_5":12.1,"mosquito_risk":0,"arthritis_risk":5,"migraine_risk":7,"frizz_risk":1,"updated_at":"2026-03-27T04:04:26.338774+05:30"},{"city":"Bikaner","state":"Rajasthan","latitude":28.0229,"longitude":73.3119,"temp":22.3,"humidity":71,"rain":0.0,"pressure":984.9,"uv_index":7.45,"wind_gusts":27.7,"aqi":66,"pm10":46.2,"pm2_5":23.1,"mosquito_risk":3,"arthritis_risk":5,"migraine_risk":7,"frizz_risk":1,"updated_at":"2026-03-27T04:04:26.338781+05:30"},{"city":"Ajmer","state":"Rajasthan","latitude":26.4499,"longitude":74.6399,"temp":23.1,"humidity":51,"rain":0.0,"pressure":955.3,"uv_index":7.65,"wind_gusts":32.8,"aqi":54,"pm10":38.1,"pm2_5":13.9,"mosquito_risk":0,"arthritis_risk":5,"migraine_risk":7,"frizz_risk":0,"updated_at":"2026-03-27T04:04:26.338787+05:30"},{"city":"Gwalior","state":"Madhya Pradesh","latitude":26.2183,"longitude":78.1828,"temp":25.3,"humidity":55,"rain":0.0,"pressure":984.4,"uv_index":7.1,"wind_gusts":58.3,"aqi":86,"pm10":259.8,"pm2_5":54.2,"mosquito_risk":4,"arthritis_risk":5,"migraine_risk":7,"frizz_risk":0,"updated_at":"2026-03-27T04:04:26.338794+05:30"},{"city":"Indore","state":"Madhya Pradesh","latitude":22.7196,"longitude":75.8577,"temp":22.3,"humidity":57,"rain":0.0,"pressure":948.5,"uv_index":8.2,"wind_gusts":35.3,"aqi":48,"pm10":9.5,"pm2_5":8.2,"mosquito_risk":0,"arthritis_risk":5,"migraine_risk":7,"frizz_risk":0,"updated_at":"2026-03-27T04:04:26.338800+05:30"},{"city":"Bhopal","state":"Madhya Pradesh","latitude":23.2599,"longitude":77.4126,"temp":23.7,"humidity":53,"rain":0.0,"pressure":954.1,"uv_index":8.1,"wind_gusts":40.7,"aqi":40,"pm10":8.9,"pm2_5":8.7,"mosquito_risk":0,"arthritis_risk":5,"migraine_risk":7,"frizz_risk":0,"updated_at":"2026-03-27T04:04:26.338807+05:30"},{"city":"Jabalpur","state":"Madhya Pradesh","latitude":23.1815,"longitude":79.9864,"temp":23.6,"humidity":59,"rain":0.0,"pressure":962.5,"uv_index":8.2,"wind_gusts":36.7,"aqi":57,"pm10":28.3,"pm2_5":19.8,"mosquito_risk":0,"arthritis_risk":5,"migraine_risk":7,"frizz_risk":0,"updated_at":"2026-03-27T04:04:26.338813+05:30"},{"city":"Ujjain","state":"Madhya Pradesh","latitude":23.1765,"longitude":75.7885,"temp":23.0,"humidity":55,"rain":0.0,"pressure":954.3,"uv_index":8.1,"wind_gusts":35.6,"aqi":38,"pm10":8.8,"pm2_5":7.3,"mosquito_risk":0,"arthritis_risk":5,"migraine_risk":7,"frizz_risk":0,"updated_at":"2026-03-27T04:04:26.338820+05:30"},{"city":"Visakhapatnam","state":"Andhra Pradesh","latitude":17.6868,"longitude":83.2185,"temp":25.9,"humidity":89,"rain":0.0,"pressure":1004.4,"uv_index":8.95,"wind_gusts":40.3,"aqi":81,"pm10":32.9,"pm2_5":26.4,"mosquito_risk":7,"arthritis_risk":5,"migraine_risk":4,"frizz_risk":1,"updated_at":"2026-03-27T04:04:26.338826+05:30"},{"city":"Vijayawada","state":"Andhra Pradesh","latitude":16.5062,"longitude":80.648,"temp":24.7,"humidity":95,"rain":0.0,"pressure":1003.2,"uv_index":9.05,"wind_gusts":25.9,"aqi":73,"pm10":33.3,"pm2_5":25.8,"mosquito_risk":3,"arthritis_risk":5,"migraine_risk":4,"frizz_risk":1,"updated_at":"2026-03-27T04:04:26.338833+05:30"},{"city":"Guntur","state":"Andhra Pradesh","latitude":16.3067,"longitude":80.4365,"temp":24.2,"humidity":96,"rain":0.0,"pressure":1004.4,"uv_index":9.05,"wind_gusts":32.4,"aqi":69,"pm10":27.4,"pm2_5":21.6,"mosquito_risk":3,"arthritis_risk":5,"migraine_risk":4,"frizz_risk":1,"updated_at":"2026-03-27T04:04:26.338840+05:30"},{"city":"Nellore","state":"Andhra Pradesh","latitude":14.4426,"longitude":79.9865,"temp":24.1,"humidity":94,"rain":0.0,"pressure":1006.5,"uv_index":9.15,"wind_gusts":30.2,"aqi":60,"pm10":26.1,"pm2_5":17.6,"mosquito_risk":3,"arthritis_risk":5,"migraine_risk":4,"frizz_risk":1,"updated_at":"2026-03-27T04:04:26.338848+05:30"},{"city":"Kurnool","state":"Andhra Pradesh","latitude":15.8281,"longitude":78.0373,"temp":27.6,"humidity":52,"rain":0.0,"pressure":976.9,"uv_index":9.05,"wind_gusts":21.2,"aqi":72,"pm10":22.3,"pm2_5":17.4,"mosquito_risk":4,"arthritis_risk":5,"migraine_risk":7,"frizz_risk":1,"updated_at":"2026-03-27T04:04:26.338855+05:30"},{"city":"Kakinada","state":"Andhra Pradesh","latitude":16.9891,"longitude":82.2475,"temp":24.2,"humidity":94,"rain":0.0,"pressure":1008.2,"uv_index":8.95,"wind_gusts":25.2,"aqi":63,"pm10":33.8,"pm2_5":22.3,"mosquito_risk":3,"arthritis_risk":0,"migraine_risk":4,"frizz_risk":1,"updated_at":"2026-03-27T04:04:26.338862+05:30"},{"city":"Tirupati","state":"Andhra Pradesh","latitude":13.6288,"longitude":79.4192,"temp":21.7,"humidity":91,"rain":0.0,"pressure":992.5,"uv_index":9.25,"wind_gusts":30.6,"aqi":89,"pm10":51.5,"pm2_5":46.0,"mosquito_risk":3,"arthritis_risk":5,"migraine_risk":7,"frizz_risk":1,"updated_at":"2026-03-27T04:04:26.338869+05:30"},{"city":"Warangal","state":"Telangana","latitude":17.9689,"longitude":79.5941,"temp":25.4,"humidity":71,"rain":0.0,"pressure":979.3,"uv_index":8.85,"wind_gusts":34.2,"aqi":84,"pm10":26.1,"pm2_5":22.8,"mosquito_risk":7,"arthritis_risk":5,"migraine_risk":7,"frizz_risk":1,"updated_at":"2026-03-27T04:04:26.338876+05:30"},{"city":"Nizamabad","state":"Telangana","latitude":18.6725,"longitude":78.0941,"temp":26.5,"humidity":62,"rain":0.0,"pressure":965.3,"uv_index":8.75,"wind_gusts":23.8,"aqi":102,"pm10":42.5,"pm2_5":38.6,"mosquito_risk":7,"arthritis_risk":5,"migraine_risk":7,"frizz_risk":1,"updated_at":"2026-03-27T04:04:26.338881+05:30"},{"city":"Mysore","state":"Karnataka","latitude":12.2958,"longitude":76.6396,"temp":22.8,"humidity":60,"rain":0.0,"pressure":928.3,"uv_index":9.45,"wind_gusts":37.1,"aqi":70,"pm10":24.9,"pm2_5":21.8,"mosquito_risk":0,"arthritis_risk":5,"migraine_risk":7,"frizz_risk":0,"updated_at":"2026-03-27T04:04:26.338888+05:30"},{"city":"Mangalore","state":"Karnataka","latitude":12.9141,"longitude":74.856,"temp":28.8,"humidity":85,"rain":0.0,"pressure":1006.2,"uv_index":9.1,"wind_gusts":24.1,"aqi":105,"pm10":55.5,"pm2_5":43.2,"mosquito_risk":7,"arthritis_risk":5,"migraine_risk":4,"frizz_risk":1,"updated_at":"2026-03-27T04:04:26.338894+05:30"},{"city":"Hubli-Dharwad","state":"Karnataka","latitude":15.3647,"longitude":75.124,"temp":23.2,"humidity":67,"rain":0.0,"pressure":940.2,"uv_index":9.1,"wind_gusts":41.4,"aqi":85,"pm10":28.9,"pm2_5":25.6,"mosquito_risk":3,"arthritis_risk":5,"migraine_risk":7,"frizz_risk":1,"updated_at":"2026-03-27T04:04:26.338901+05:30"},{"city":"Belgaum","state":"Karnataka","latitude":15.8497,"longitude":74.4977,"temp":22.3,"humidity":75,"rain":0.0,"pressure":924.9,"uv_index":9.15,"wind_gusts":33.1,"aqi":115,"pm10":59.5,"pm2_5":53.4,"mosquito_risk":3,"arthritis_risk":5,"migraine_risk":7,"frizz_risk":1,"updated_at":"2026-03-27T04:04:29.594798+05:30"},{"city":"Coimbatore","state":"Tamil Nadu","latitude":11.0168,"longitude":76.9558,"temp":23.2,"humidity":79,"rain":0.0,"pressure":962.1,"uv_index":9.4,"wind_gusts":37.8,"aqi":69,"pm10":33.6,"pm2_5":31.0,"mosquito_risk":3,"arthritis_risk":5,"migraine_risk":7,"frizz_risk":1,"updated_at":"2026-03-27T04:04:29.594833+05:30"},{"city":"Madurai","state":"Tamil Nadu","latitude":9.9252,"longitude":78.1198,"temp":24.4,"humidity":91,"rain":0.0,"pressure":993.7,"uv_index":9.4,"wind_gusts":23.0,"aqi":70,"pm10":35.0,"pm2_5":31.5,"mosquito_risk":3,"arthritis_risk":5,"migraine_risk":7,"frizz_risk":1,"updated_at":"2026-03-27T04:04:29.594844+05:30"},{"city":"Trichy","state":"Tamil Nadu","latitude":10.7905,"longitude":78.7047,"temp":23.2,"humidity":95,"rain":0.0,"pressure":1000.6,"uv_index":9.3,"wind_gusts":19.4,"aqi":79,"pm10":41.0,"pm2_5":32.6,"mosquito_risk":3,"arthritis_risk":5,"migraine_risk":4,"frizz_risk":1,"updated_at":"2026-03-27T04:04:29.594851+05:30"},{"city":"Salem","state":"Tamil Nadu","latitude":11.6643,"longitude":78.146,"temp":23.0,"humidity":90,"rain":0.0,"pressure":977.8,"uv_index":9.35,"wind_gusts":26.3,"aqi":91,"pm10":44.7,"pm2_5":40.9,"mosquito_risk":3,"arthritis_risk":5,"migraine_risk":7,"frizz_risk":1,"updated_at":"2026-03-27T04:04:29.594859+05:30"},{"city":"Tirunelveli","state":"Tamil Nadu","latitude":8.7139,"longitude":77.7567,"temp":26.2,"humidity":77,"rain":0.0,"pressure":1003.8,"uv_index":9.35,"wind_gusts":42.5,"aqi":52,"pm10":24.9,"pm2_5":20.5,"mosquito_risk":7,"arthritis_risk":5,"migraine_risk":4,"frizz_risk":1,"updated_at":"2026-03-27T04:04:29.594866+05:30"},{"city":"Vellore","state":"Tamil Nadu","latitude":12.9165,"longitude":79.1325,"temp":21.7,"humidity":92,"rain":0.0,"pressure":985.5,"uv_index":9.35,"wind_gusts":32.0,"aqi":84,"pm10":56.8,"pm2_5":50.9,"mosquito_risk":3,"arthritis_risk":5,"migraine_risk":7,"frizz_risk":1,"updated_at":"2026-03-27T04:04:29.594872+05:30"},{"city":"Erode","state":"Tamil Nadu","latitude":11.341,"longitude":77.7172,"temp":24.2,"humidity":89,"rain":0.0,"pressure":989.7,"uv_index":9.35,"wind_gusts":29.2,"aqi":78,"pm10":35.7,"pm2_5":32.0,"mosquito_risk":3,"arthritis_risk":5,"migraine_risk":7,"frizz_risk":1,"updated_at":"2026-03-27T04:04:29.594879+05:30"},{"city":"Kochi","state":"Kerala","latitude":9.9312,"longitude":76.2673,"temp":28.2,"humidity":74,"rain":0.0,"pressure":1008.4,"uv_index":9.2,"wind_gusts":38.2,"aqi":95,"pm10":34.3,"pm2_5":31.5,"mosquito_risk":7,"arthritis_risk":0,"migraine_risk":4,"frizz_risk":1,"updated_at":"2026-03-27T04:04:29.594886+05:30"},{"city":"Thiruvananthapuram","state":"Kerala","latitude":8.5241,"longitude":76.9366,"temp":29.1,"humidity":75,"rain":0.0,"pressure":1007.4,"uv_index":9.2,"wind_gusts":31.0,"aqi":70,"pm10":18.2,"pm2_5":12.3,"mosquito_risk":7,"arthritis_risk":5,"migraine_risk":4,"frizz_risk":1,"updated_at":"2026-03-27T04:04:29.594892+05:30"},{"city":"Kozhikode","state":"Kerala","latitude":11.2588,"longitude":75.7804,"temp":28.7,"humidity":83,"rain":0.0,"pressure":1007.6,"uv_index":9.1,"wind_gusts":32.0,"aqi":92,"pm10":41.7,"pm2_5":33.5,"mosquito_risk":7,"arthritis_risk":5,"migraine_risk":4,"frizz_risk":1,"updated_at":"2026-03-27T04:04:29.594899+05:30"},{"city":"Thrissur","state":"Kerala","latitude":10.5276,"longitude":76.2144,"temp":26.9,"humidity":89,"rain":0.0,"pressure":1006.8,"uv_index":9.15,"wind_gusts":40.7,"aqi":89,"pm10":43.8,"pm2_5":40.0,"mosquito_risk":7,"arthritis_risk":5,"migraine_risk":4,"frizz_risk":1,"updated_at":"2026-03-27T04:04:29.594906+05:30"},{"city":"Kannur","state":"Kerala","latitude":11.8745,"longitude":75.3704,"temp":29.0,"humidity":81,"rain":0.0,"pressure":1006.8,"uv_index":9.1,"wind_gusts":32.0,"aqi":104,"pm10":48.5,"pm2_5":42.5,"mosquito_risk":7,"arthritis_risk":5,"migraine_risk":4,"frizz_risk":1,"updated_at":"2026-03-27T04:04:29.594913+05:30"},{"city":"Patna","state":"Bihar","latitude":25.5941,"longitude":85.1376,"temp":21.8,"humidity":67,"rain":0.0,"pressure":1000.7,"uv_index":7.75,"wind_gusts":35.6,"aqi":151,"pm10":105.7,"pm2_5":81.3,"mosquito_risk":3,"arthritis_risk":5,"migraine_risk":4,"frizz_risk":0,"updated_at":"2026-03-27T04:04:29.594920+05:30"},{"city":"Gaya","state":"Bihar","latitude":24.7914,"longitude":85.0002,"temp":20.9,"humidity":59,"rain":0.0,"pressure":994.2,"uv_index":8.05,"wind_gusts":28.8,"aqi":76,"pm10":40.7,"pm2_5":19.7,"mosquito_risk":0,"arthritis_risk":5,"migraine_risk":7,"frizz_risk":0,"updated_at":"2026-03-27T04:04:29.594927+05:30"},{"city":"Muzaffarpur","state":"Bihar","latitude":26.1209,"longitude":85.3647,"temp":20.2,"humidity":74,"rain":0.0,"pressure":1000.8,"uv_index":6.8,"wind_gusts":40.7,"aqi":157,"pm10":112.2,"pm2_5":95.5,"mosquito_risk":3,"arthritis_risk":5,"migraine_risk":4,"frizz_risk":0,"updated_at":"2026-03-27T04:04:29.594932+05:30"},{"city":"Bhagalpur","state":"Bihar","latitude":25.2425,"longitude":87.0117,"temp":22.5,"humidity":81,"rain":0.0,"pressure":1001.7,"uv_index":7.75,"wind_gusts":38.5,"aqi":119,"pm10":84.5,"pm2_5":62.6,"mosquito_risk":3,"arthritis_risk":5,"migraine_risk":4,"frizz_risk":1,"updated_at":"2026-03-27T04:04:29.594939+05:30"},{"city":"Ranchi","state":"Jharkhand","latitude":23.3441,"longitude":85.3096,"temp":21.8,"humidity":42,"rain":0.0,"pressure":938.4,"uv_index":8.25,"wind_gusts":30.2,"aqi":59,"pm10":28.0,"pm2_5":15.5,"mosquito_risk":0,"arthritis_risk":5,"migraine_risk":7,"frizz_risk":0,"updated_at":"2026-03-27T04:04:29.594946+05:30"},{"city":"Jamshedpur","state":"Jharkhand","latitude":22.8046,"longitude":86.2029,"temp":24.5,"humidity":88,"rain":0.0,"pressure":991.9,"uv_index":8.35,"wind_gusts":21.2,"aqi":159,"pm10":99.7,"pm2_5":87.8,"mosquito_risk":3,"arthritis_risk":5,"migraine_risk":7,"frizz_risk":1,"updated_at":"2026-03-27T04:04:29.594951+05:30"},{"city":"Dhanbad","state":"Jharkhand","latitude":23.7957,"longitude":86.4304,"temp":21.1,"humidity":67,"rain":0.0,"pressure":980.6,"uv_index":8.15,"wind_gusts":26.3,"aqi":149,"pm10":83.1,"pm2_5":68.7,"mosquito_risk":3,"arthritis_risk":5,"migraine_risk":7,"frizz_risk":0,"updated_at":"2026-03-27T04:04:29.594958+05:30"},{"city":"Bokaro","state":"Jharkhand","latitude":23.6693,"longitude":86.1511,"temp":21.3,"humidity":58,"rain":0.0,"pressure":985.0,"uv_index":8.15,"wind_gusts":31.3,"aqi":129,"pm10":86.4,"pm2_5":74.0,"mosquito_risk":0,"arthritis_risk":5,"migraine_risk":7,"frizz_risk":0,"updated_at":"2026-03-27T04:04:29.594965+05:30"},{"city":"Bhubaneswar","state":"Odisha","latitude":20.2961,"longitude":85.8245,"temp":25.7,"humidity":97,"rain":0.0,"pressure":1003.4,"uv_index":8.75,"wind_gusts":24.8,"aqi":103,"pm10":45.3,"pm2_5":37.6,"mosquito_risk":7,"arthritis_risk":5,"migraine_risk":4,"frizz_risk":1,"updated_at":"2026-03-27T04:04:29.594971+05:30"},{"city":"Cuttack","state":"Odisha","latitude":20.4625,"longitude":85.8828,"temp":25.4,"humidity":97,"rain":0.0,"pressure":1005.4,"uv_index":8.8,"wind_gusts":27.7,"aqi":103,"pm10":45.3,"pm2_5":37.6,"mosquito_risk":7,"arthritis_risk":5,"migraine_risk":4,"frizz_risk":1,"updated_at":"2026-03-27T04:04:29.594977+05:30"},{"city":"Rourkela","state":"Odisha","latitude":22.2604,"longitude":84.8536,"temp":24.3,"humidity":84,"rain":0.0,"pressure":985.9,"uv_index":8.45,"wind_gusts":41.4,"aqi":88,"pm10":22.8,"pm2_5":18.9,"mosquito_risk":3,"arthritis_risk":5,"migraine_risk":7,"frizz_risk":1,"updated_at":"2026-03-27T04:04:29.594983+05:30"},{"city":"Raipur","state":"Chhattisgarh","latitude":21.2514,"longitude":81.6296,"temp":25.3,"humidity":63,"rain":0.0,"pressure":975.2,"uv_index":8.55,"wind_gusts":38.5,"aqi":126,"pm10":67.1,"pm2_5":56.0,"mosquito_risk":7,"arthritis_risk":5,"migraine_risk":7,"frizz_risk":1,"updated_at":"2026-03-27T04:04:29.594989+05:30"},{"city":"Bhilai","state":"Chhattisgarh","latitude":21.1938,"longitude":81.3509,"temp":24.2,"humidity":69,"rain":0.0,"pressure":975.5,"uv_index":8.55,"wind_gusts":31.7,"aqi":129,"pm10":71.2,"pm2_5":61.2,"mosquito_risk":3,"arthritis_risk":5,"migraine_risk":7,"frizz_risk":1,"updated_at":"2026-03-27T04:04:29.594995+05:30"},{"city":"Guwahati","state":"Assam","latitude":26.1158,"longitude":91.7086,"temp":22.3,"humidity":89,"rain":0.0,"pressure":1003.1,"uv_index":7.9,"wind_gusts":31.3,"aqi":148,"pm10":77.5,"pm2_5":63.6,"mosquito_risk":3,"arthritis_risk":5,"migraine_risk":4,"frizz_risk":1,"updated_at":"2026-03-27T04:04:29.595001+05:30"},{"city":"Agartala","state":"Tripura","latitude":23.8315,"longitude":91.2868,"temp":22.6,"humidity":85,"rain":0.0,"pressure":1007.0,"uv_index":8.2,"wind_gusts":35.6,"aqi":159,"pm10":71.7,"pm2_5":64.3,"mosquito_risk":3,"arthritis_risk":5,"migraine_risk":4,"frizz_risk":1,"updated_at":"2026-03-27T04:04:29.595007+05:30"},{"city":"Shillong","state":"Meghalaya","latitude":25.5788,"longitude":91.8933,"temp":10.6,"humidity":72,"rain":0.0,"pressure":854.3,"uv_index":7.8,"wind_gusts":40.0,"aqi":115,"pm10":57.7,"pm2_5":46.0,"mosquito_risk":3,"arthritis_risk":5,"migraine_risk":7,"frizz_risk":0,"updated_at":"2026-03-27T04:04:29.595013+05:30"},{"city":"Imphal","state":"Manipur","latitude":24.817,"longitude":93.9368,"temp":15.6,"humidity":83,"rain":0.0,"pressure":923.7,"uv_index":8.55,"wind_gusts":43.9,"aqi":132,"pm10":72.6,"pm2_5":60.5,"mosquito_risk":3,"arthritis_risk":10,"migraine_risk":7,"frizz_risk":0,"updated_at":"2026-03-27T04:04:29.595020+05:30"},{"city":"Aizawl","state":"Mizoram","latitude":23.7271,"longitude":92.7176,"temp":15.0,"humidity":78,"rain":0.0,"pressure":892.0,"uv_index":8.45,"wind_gusts":28.8,"aqi":114,"pm10":53.0,"pm2_5":41.8,"mosquito_risk":3,"arthritis_risk":5,"migraine_risk":7,"frizz_risk":0,"updated_at":"2026-03-27T04:04:29.595026+05:30"},{"city":"Kohima","state":"Nagaland","latitude":25.6701,"longitude":94.1077,"temp":12.9,"humidity":89,"rain":0.0,"pressure":854.4,"uv_index":8.45,"wind_gusts":52.9,"aqi":101,"pm10":45.4,"pm2_5":37.4,"mosquito_risk":3,"arthritis_risk":10,"migraine_risk":7,"frizz_risk":0,"updated_at":"2026-03-27T04:04:29.595032+05:30"},{"city":"Gangtok","state":"Sikkim","latitude":27.3314,"longitude":88.6138,"temp":12.9,"humidity":82,"rain":0.0,"pressure":835.9,"uv_index":7.2,"wind_gusts":21.2,"aqi":107,"pm10":48.0,"pm2_5":38.2,"mosquito_risk":3,"arthritis_risk":10,"migraine_risk":7,"frizz_risk":0,"updated_at":"2026-03-27T04:04:29.595038+05:30"},{"city":"Siliguri","state":"West Bengal","latitude":26.7271,"longitude":88.3953,"temp":19.2,"humidity":75,"rain":0.0,"pressure":995.2,"uv_index":7.85,"wind_gusts":33.1,"aqi":156,"pm10":116.4,"pm2_5":89.6,"mosquito_risk":3,"arthritis_risk":5,"migraine_risk":7,"frizz_risk":0,"updated_at":"2026-03-27T04:04:32.855375+05:30"},{"city":"Durgapur","state":"West Bengal","latitude":23.5204,"longitude":87.3119,"temp":24.8,"humidity":88,"rain":0.0,"pressure":995.9,"uv_index":8.25,"wind_gusts":22.3,"aqi":160,"pm10":84.3,"pm2_5":71.9,"mosquito_risk":3,"arthritis_risk":5,"migraine_risk":7,"frizz_risk":1,"updated_at":"2026-03-27T04:04:32.855409+05:30"},{"city":"Asansol","state":"West Bengal","latitude":23.6739,"longitude":86.9524,"temp":25.2,"humidity":83,"rain":0.0,"pressure":994.4,"uv_index":8.4,"wind_gusts":21.2,"aqi":148,"pm10":53.0,"pm2_5":39.2,"mosquito_risk":7,"arthritis_risk":5,"migraine_risk":7,"frizz_risk":1,"updated_at":"2026-03-27T04:04:32.855419+05:30"},{"city":"Pondicherry","state":"Puducherry","latitude":11.9139,"longitude":79.8145,"temp":22.3,"humidity":99,"rain":0.0,"pressure":1009.3,"uv_index":9.2,"wind_gusts":25.6,"aqi":63,"pm10":36.9,"pm2_5":21.3,"mosquito_risk":3,"arthritis_risk":0,"migraine_risk":4,"frizz_risk":1,"updated_at":"2026-03-27T04:04:32.855427+05:30"},{"city":"Port Blair","state":"Andaman and Nicobar Islands","latitude":11.6234,"longitude":92.7265,"temp":27.5,"humidity":82,"rain":0.0,"pressure":1006.3,"uv_index":9.15,"wind_gusts":24.1,"aqi":48,"pm10":25.8,"pm2_5":17.5,"mosquito_risk":7,"arthritis_risk":5,"migraine_risk":4,"frizz_risk":1,"updated_at":"2026-03-27T04:04:32.855436+05:30"},{"city":"Haridwar","state":"Uttarakhand","latitude":29.9457,"longitude":78.1642,"temp":20.8,"humidity":81,"rain":0.0,"pressure":974.8,"uv_index":6.1,"wind_gusts":37.4,"aqi":71,"pm10":38.2,"pm2_5":35.6,"mosquito_risk":3,"arthritis_risk":5,"migraine_risk":7,"frizz_risk":1,"updated_at":"2026-03-27T04:04:32.855443+05:30"},{"city":"Rishikesh","state":"Uttarakhand","latitude":30.0869,"longitude":78.2676,"temp":20.4,"humidity":69,"rain":0.0,"pressure":967.3,"uv_index":6.3,"wind_gusts":34.6,"aqi":58,"pm10":26.4,"pm2_5":20.8,"mosquito_risk":3,"arthritis_risk":5,"migraine_risk":7,"frizz_risk":0,"updated_at":"2026-03-27T04:04:32.855451+05:30"},{"city":"Nainital","state":"Uttarakhand","latitude":29.3919,"longitude":79.4542,"temp":17.8,"humidity":45,"rain":0.0,"pressure":805.4,"uv_index":6.15,"wind_gusts":53.3,"aqi":54,"pm10":18.7,"pm2_5":15.8,"mosquito_risk":0,"arthritis_risk":5,"migraine_risk":7,"frizz_risk":0,"updated_at":"2026-03-27T04:04:32.855458+05:30"},{"city":"Mussoorie","state":"Uttarakhand","latitude":30.4599,"longitude":78.0664,"temp":14.6,"humidity":63,"rain":0.0,"pressure":801.4,"uv_index":6.5,"wind_gusts":31.0,"aqi":65,"pm10":28.3,"pm2_5":24.0,"mosquito_risk":3,"arthritis_risk":5,"migraine_risk":7,"frizz_risk":0,"updated_at":"2026-03-27T04:04:32.855466+05:30"},{"city":"Dharamshala","state":"Himachal Pradesh","latitude":32.219,"longitude":76.3234,"temp":17.2,"humidity":54,"rain":0.0,"pressure":869.1,"uv_index":6.95,"wind_gusts":22.0,"aqi":52,"pm10":10.5,"pm2_5":6.8,"mosquito_risk":0,"arthritis_risk":5,"migraine_risk":7,"frizz_risk":0,"updated_at":"2026-03-27T04:04:32.855473+05:30"},{"city":"Dalhousie","state":"Himachal Pradesh","latitude":32.5387,"longitude":75.971,"temp":13.5,"humidity":50,"rain":0.0,"pressure":802.7,"uv_index":7.2,"wind_gusts":24.1,"aqi":66,"pm10":29.2,"pm2_5":25.0,"mosquito_risk":0,"arthritis_risk":5,"migraine_risk":7,"frizz_risk":0,"updated_at":"2026-03-27T04:04:32.855481+05:30"},{"city":"Patiala","state":"Punjab","latitude":30.3398,"longitude":76.3869,"temp":20.0,"humidity":80,"rain":0.0,"pressure":980.2,"uv_index":4.9,"wind_gusts":34.6,"aqi":180,"pm10":203.5,"pm2_5":44.1,"mosquito_risk":3,"arthritis_risk":5,"migraine_risk":3,"frizz_risk":1,"updated_at":"2026-03-27T04:04:32.855489+05:30"},{"city":"Bhatinda","state":"Punjab","latitude":30.211,"longitude":74.9455,"temp":20.4,"humidity":81,"rain":0.0,"pressure":986.9,"uv_index":7.1,"wind_gusts":31.0,"aqi":88,"pm10":52.4,"pm2_5":37.4,"mosquito_risk":3,"arthritis_risk":5,"migraine_risk":7,"frizz_risk":1,"updated_at":"2026-03-27T04:04:32.855495+05:30"},{"city":"Rohtak","state":"Haryana","latitude":28.8955,"longitude":76.6066,"temp":20.3,"humidity":80,"rain":0.0,"pressure":983.5,"uv_index":6.6,"wind_gusts":40.7,"aqi":182,"pm10":330.6,"pm2_5":64.7,"mosquito_risk":3,"arthritis_risk":5,"migraine_risk":7,"frizz_risk":1,"updated_at":"2026-03-27T04:04:32.855502+05:30"},{"city":"Panipat","state":"Haryana","latitude":29.3909,"longitude":76.9635,"temp":20.3,"humidity":79,"rain":0.0,"pressure":981.8,"uv_index":5.5,"wind_gusts":41.4,"aqi":367,"pm10":476.8,"pm2_5":90.1,"mosquito_risk":3,"arthritis_risk":5,"migraine_risk":3,"frizz_risk":1,"updated_at":"2026-03-27T04:04:32.855508+05:30"},{"city":"Mathura","state":"Uttar Pradesh","latitude":27.4924,"longitude":77.6737,"temp":22.3,"humidity":70,"rain":0.0,"pressure":988.0,"uv_index":6.85,"wind_gusts":36.0,"aqi":378,"pm10":1400.7,"pm2_5":196.5,"mosquito_risk":3,"arthritis_risk":5,"migraine_risk":7,"frizz_risk":1,"updated_at":"2026-03-27T04:04:32.855516+05:30"},{"city":"Vrindavan","state":"Uttar Pradesh","latitude":27.5823,"longitude":77.7027,"temp":21.8,"humidity":73,"rain":0.0,"pressure":988.5,"uv_index":6.8,"wind_gusts":36.7,"aqi":378,"pm10":1400.7,"pm2_5":196.5,"mosquito_risk":3,"arthritis_risk":5,"migraine_risk":7,"frizz_risk":1,"updated_at":"2026-03-27T04:04:32.855522+05:30"},{"city":"Ayodhya","state":"Uttar Pradesh","latitude":26.7922,"longitude":82.1998,"temp":21.9,"humidity":61,"rain":0.0,"pressure":995.4,"uv_index":5.2,"wind_gusts":54.0,"aqi":101,"pm10":88.0,"pm2_5":27.5,"mosquito_risk":3,"arthritis_risk":5,"migraine_risk":3,"frizz_risk":0,"updated_at":"2026-03-27T04:04:32.855529+05:30"},{"city":"Ratlam","state":"Madhya Pradesh","latitude":23.3315,"longitude":75.0367,"temp":23.7,"humidity":57,"rain":0.0,"pressure":955.3,"uv_index":8.05,"wind_gusts":33.1,"aqi":34,"pm10":8.0,"pm2_5":6.3,"mosquito_risk":0,"arthritis_risk":5,"migraine_risk":7,"frizz_risk":0,"updated_at":"2026-03-27T04:04:32.855536+05:30"},{"city":"Sagar","state":"Madhya Pradesh","latitude":23.8388,"longitude":78.7378,"temp":24.5,"humidity":53,"rain":0.0,"pressure":951.2,"uv_index":8.05,"wind_gusts":32.4,"aqi":50,"pm10":23.8,"pm2_5":13.7,"mosquito_risk":0,"arthritis_risk":5,"migraine_risk":7,"frizz_risk":0,"updated_at":"2026-03-27T04:04:32.855543+05:30"},{"city":"Satna","state":"Madhya Pradesh","latitude":24.6005,"longitude":80.8322,"temp":24.4,"humidity":49,"rain":0.0,"pressure":972.4,"uv_index":8.05,"wind_gusts":48.6,"aqi":64,"pm10":98.7,"pm2_5":21.3,"mosquito_risk":0,"arthritis_risk":5,"migraine_risk":7,"frizz_risk":0,"updated_at":"2026-03-27T04:04:32.855550+05:30"},{"city":"Akola","state":"Maharashtra","latitude":20.7002,"longitude":77.0082,"temp":24.6,"humidity":65,"rain":0.0,"pressure":975.0,"uv_index":8.45,"wind_gusts":37.4,"aqi":68,"pm10":29.2,"pm2_5":24.0,"mosquito_risk":3,"arthritis_risk":5,"migraine_risk":7,"frizz_risk":1,"updated_at":"2026-03-27T04:04:32.855557+05:30"},{"city":"Amravati","state":"Maharashtra","latitude":20.9374,"longitude":77.7796,"temp":24.2,"humidity":57,"rain":0.0,"pressure":966.8,"uv_index":8.45,"wind_gusts":34.9,"aqi":70,"pm10":28.6,"pm2_5":23.8,"mosquito_risk":0,"arthritis_risk":5,"migraine_risk":7,"frizz_risk":0,"updated_at":"2026-03-27T04:04:32.855564+05:30"},{"city":"Latur","state":"Maharashtra","latitude":18.4088,"longitude":76.5604,"temp":24.7,"humidity":60,"rain":0.0,"pressure":939.8,"uv_index":8.8,"wind_gusts":31.0,"aqi":87,"pm10":49.7,"pm2_5":42.3,"mosquito_risk":0,"arthritis_risk":5,"migraine_risk":7,"frizz_risk":1,"updated_at":"2026-03-27T04:04:32.855571+05:30"},{"city":"Nanded","state":"Maharashtra","latitude":19.1383,"longitude":77.3091,"temp":26.3,"humidity":57,"rain":0.0,"pressure":968.7,"uv_index":8.65,"wind_gusts":26.6,"aqi":82,"pm10":40.5,"pm2_5":33.9,"mosquito_risk":4,"arthritis_risk":5,"migraine_risk":7,"frizz_risk":1,"updated_at":"2026-03-27T04:04:32.855577+05:30"},{"city":"Gulbarga","state":"Karnataka","latitude":17.3297,"longitude":76.8343,"temp":25.6,"humidity":62,"rain":0.0,"pressure":959.5,"uv_index":8.85,"wind_gusts":32.0,"aqi":98,"pm10":41.4,"pm2_5":36.1,"mosquito_risk":7,"arthritis_risk":5,"migraine_risk":7,"frizz_risk":1,"updated_at":"2026-03-27T04:04:32.855583+05:30"},{"city":"Bidar","state":"Karnataka","latitude":17.9104,"longitude":77.5199,"temp":25.5,"humidity":64,"rain":0.0,"pressure":936.1,"uv_index":8.85,"wind_gusts":22.0,"aqi":98,"pm10":35.3,"pm2_5":31.7,"mosquito_risk":7,"arthritis_risk":5,"migraine_risk":7,"frizz_risk":1,"updated_at":"2026-03-27T04:04:32.855589+05:30"},{"city":"Hospet","state":"Karnataka","latitude":15.2689,"longitude":76.3909,"temp":27.3,"humidity":58,"rain":0.0,"pressure":955.8,"uv_index":9.1,"wind_gusts":16.2,"aqi":87,"pm10":34.7,"pm2_5":31.1,"mosquito_risk":4,"arthritis_risk":5,"migraine_risk":7,"frizz_risk":1,"updated_at":"2026-03-27T04:04:32.855595+05:30"},{"city":"Tirupur","state":"Tamil Nadu","latitude":11.1085,"longitude":77.3411,"temp":24.5,"humidity":81,"rain":0.0,"pressure":976.0,"uv_index":9.4,"wind_gusts":26.6,"aqi":81,"pm10":42.4,"pm2_5":38.9,"mosquito_risk":3,"arthritis_risk":5,"migraine_risk":7,"frizz_risk":1,"updated_at":"2026-03-27T04:04:32.855601+05:30"},{"city":"Alappuzha","state":"Kerala","latitude":9.4981,"longitude":76.3388,"temp":28.6,"humidity":80,"rain":0.0,"pressure":1008.4,"uv_index":9.15,"wind_gusts":35.3,"aqi":86,"pm10":37.1,"pm2_5":32.0,"mosquito_risk":7,"arthritis_risk":0,"migraine_risk":4,"frizz_risk":1,"updated_at":"2026-03-27T04:04:32.855608+05:30"},{"city":"Munnar","state":"Kerala","latitude":10.0889,"longitude":77.0595,"temp":19.5,"humidity":43,"rain":0.0,"pressure":855.7,"uv_index":9.7,"wind_gusts":33.8,"aqi":67,"pm10":30.6,"pm2_5":27.2,"mosquito_risk":0,"arthritis_risk":5,"migraine_risk":7,"frizz_risk":0,"updated_at":"2026-03-27T04:04:32.855614+05:30"},{"city":"Silchar","state":"Assam","latitude":24.8333,"longitude":92.7789,"temp":21.8,"humidity":83,"rain":0.0,"pressure":1006.2,"uv_index":8.25,"wind_gusts":18.0,"aqi":154,"pm10":83.8,"pm2_5":74.0,"mosquito_risk":3,"arthritis_risk":5,"migraine_risk":4,"frizz_risk":1,"updated_at":"2026-03-27T04:04:32.855620+05:30"},{"city":"Dibrugarh","state":"Assam","latitude":27.4728,"longitude":94.912,"temp":21.2,"humidity":87,"rain":0.0,"pressure":998.0,"uv_index":6.3,"wind_gusts":14.0,"aqi":104,"pm10":49.4,"pm2_5":41.1,"mosquito_risk":3,"arthritis_risk":5,"migraine_risk":7,"frizz_risk":1,"updated_at":"2026-03-27T04:04:32.855627+05:30"}]