[{"city":"Delhi","state":"Delhi","latitude":28.6139,"longitude":77.209,"temp":36.2,"humidity":42,"rain":0.0,"pressure":976.0,"uv_index":7.7,"wind_gusts":24.5,"aqi":174,"pm10":709.7,"pm2_5":142.5,"no2":6.4,"co":233.0,"o3":135.0,"so2":11.6,"mosquito_risk":0,"arthritis_risk":5,"migraine_risk":10,"frizz_risk":1,"updated_at":"2026-07-15T16:22:33.875194+05:30"},{"city":"Mumbai","state":"Maharashtra","latitude":19.076,"longitude":72.8777,"temp":27.7,"humidity":77,"rain":0.0,"pressure":1007.1,"uv_index":7.6,"wind_gusts":42.5,"aqi":68,"pm10":66.1,"pm2_5":23.0,"no2":7.8,"co":192.0,"o3":70.0,"so2":8.3,"mosquito_risk":7,"arthritis_risk":5,"migraine_risk":4,"frizz_risk":1,"updated_at":"2026-07-15T16:22:33.875235+05:30"},{"city":"Bangalore","state":"Karnataka","latitude":12.9716,"longitude":77.5946,"temp":31.5,"humidity":29,"rain":0.0,"pressure":910.9,"uv_index":9.15,"wind_gusts":42.5,"aqi":62,"pm10":14.0,"pm2_5":9.2,"no2":4.2,"co":256.0,"o3":96.0,"so2":2.2,"mosquito_risk":0,"arthritis_risk":5,"migraine_risk":7,"frizz_risk":0,"updated_at":"2026-07-15T16:22:33.875250+05:30"},{"city":"Hyderabad","state":"Telangana","latitude":17.385,"longitude":78.4867,"temp":32.6,"humidity":42,"rain":0.0,"pressure":950.1,"uv_index":9.05,"wind_gusts":44.3,"aqi":77,"pm10":44.7,"pm2_5":19.7,"no2":2.5,"co":229.0,"o3":97.0,"so2":2.7,"mosquito_risk":0,"arthritis_risk":5,"migraine_risk":7,"frizz_risk":1,"updated_at":"2026-07-15T16:22:33.875259+05:30"},{"city":"Chennai","state":"Tamil Nadu","latitude":13.0827,"longitude":80.2707,"temp":35.3,"humidity":51,"rain":0.0,"pressure":1002.4,"uv_index":8.75,"wind_gusts":37.8,"aqi":89,"pm10":43.1,"pm2_5":28.1,"no2":3.9,"co":271.0,"o3":173.0,"so2":5.3,"mosquito_risk":0,"arthritis_risk":5,"migraine_risk":7,"frizz_risk":1,"updated_at":"2026-07-15T16:22:33.875267+05:30"},{"city":"Kolkata","state":"West Bengal","latitude":22.5726,"longitude":88.3639,"temp":28.4,"humidity":90,"rain":0.1,"pressure":995.9,"uv_index":7.65,"wind_gusts":34.2,"aqi":119,"pm10":12.7,"pm2_5":11.9,"no2":6.6,"co":349.0,"o3":111.0,"so2":8.6,"mosquito_risk":10,"arthritis_risk":5,"migraine_risk":7,"frizz_risk":1,"updated_at":"2026-07-15T16:22:33.875275+05:30"},{"city":"Pune","state":"Maharashtra","latitude":18.5204,"longitude":73.8567,"temp":26.8,"humidity":67,"rain":0.1,"pressure":946.3,"uv_index":8.05,"wind_gusts":46.4,"aqi":56,"pm10":21.2,"pm2_5":9.7,"no2":3.0,"co":149.0,"o3":64.0,"so2":3.5,"mosquito_risk":10,"arthritis_risk":5,"migraine_risk":7,"frizz_risk":1,"updated_at":"2026-07-15T16:22:33.875282+05:30"},{"city":"Ahmedabad","state":"Gujarat","latitude":23.0225,"longitude":72.5714,"temp":35.1,"humidity":43,"rain":0.1,"pressure":996.5,"uv_index":7.0,"wind_gusts":40.7,"aqi":66,"pm10":56.6,"pm2_5":19.8,"no2":2.2,"co":141.0,"o3":83.0,"so2":3.1,"mosquito_risk":3,"arthritis_risk":5,"migraine_risk":10,"frizz_risk":1,"updated_at":"2026-07-15T16:22:33.875289+05:30"},{"city":"Jaipur","state":"Rajasthan","latitude":26.9124,"longitude":75.7873,"temp":34.2,"humidity":45,"rain":0.0,"pressure":955.0,"uv_index":7.65,"wind_gusts":38.2,"aqi":364,"pm10":250.5,"pm2_5":56.2,"no2":1.5,"co":136.0,"o3":102.0,"so2":3.1,"mosquito_risk":0,"arthritis_risk":5,"migraine_risk":7,"frizz_risk":1,"updated_at":"2026-07-15T16:22:33.875295+05:30"},{"city":"Lucknow","state":"Uttar Pradesh","latitude":26.8467,"longitude":80.9462,"temp":34.4,"humidity":54,"rain":0.0,"pressure":985.8,"uv_index":7.05,"wind_gusts":23.0,"aqi":166,"pm10":174.6,"pm2_5":66.4,"no2":3.0,"co":206.0,"o3":153.0,"so2":8.0,"mosquito_risk":0,"arthritis_risk":5,"migraine_risk":7,"frizz_risk":1,"updated_at":"2026-07-15T16:22:33.875305+05:30"},{"city":"Kanpur","state":"Uttar Pradesh","latitude":26.4499,"longitude":80.3319,"temp":34.6,"humidity":52,"rain":0.0,"pressure":984.3,"uv_index":7.6,"wind_gusts":36.7,"aqi":157,"pm10":196.0,"pm2_5":67.5,"no2":2.5,"co":169.0,"o3":138.0,"so2":5.6,"mosquito_risk":0,"arthritis_risk":5,"migraine_risk":7,"frizz_risk":1,"updated_at":"2026-07-15T16:22:33.875312+05:30"},{"city":"Chandigarh","state":"Chandigarh","latitude":30.7333,"longitude":76.7794,"temp":34.2,"humidity":53,"rain":0.0,"pressure":962.1,"uv_index":7.7,"wind_gusts":29.9,"aqi":191,"pm10":98.7,"pm2_5":63.3,"no2":3.2,"co":512.0,"o3":223.0,"so2":14.4,"mosquito_risk":0,"arthritis_risk":5,"migraine_risk":7,"frizz_risk":1,"updated_at":"2026-07-15T16:22:33.875318+05:30"},{"city":"Srinagar","state":"Jammu and Kashmir","latitude":34.0837,"longitude":74.7973,"temp":30.1,"humidity":38,"rain":0.0,"pressure":839.7,"uv_index":8.95,"wind_gusts":24.5,"aqi":109,"pm10":30.5,"pm2_5":15.0,"no2":0.9,"co":250.0,"o3":157.0,"so2":2.1,"mosquito_risk":0,"arthritis_risk":5,"migraine_risk":7,"frizz_risk":0,"updated_at":"2026-07-15T16:22:33.875325+05:30"},{"city":"Jammu","state":"Jammu and Kashmir","latitude":32.7266,"longitude":74.857,"temp":32.7,"humidity":50,"rain":0.0,"pressure":966.7,"uv_index":8.55,"wind_gusts":16.6,"aqi":153,"pm10":65.9,"pm2_5":41.6,"no2":1.5,"co":354.0,"o3":187.0,"so2":3.9,"mosquito_risk":0,"arthritis_risk":5,"migraine_risk":7,"frizz_risk":1,"updated_at":"2026-07-15T16:22:33.875331+05:30"},{"city":"Amritsar","state":"Punjab","latitude":31.634,"longitude":74.8723,"temp":34.6,"humidity":51,"rain":0.0,"pressure":974.1,"uv_index":8.35,"wind_gusts":20.5,"aqi":192,"pm10":145.3,"pm2_5":66.6,"no2":2.3,"co":447.0,"o3":180.0,"so2":8.6,"mosquito_risk":0,"arthritis_risk":5,"migraine_risk":7,"frizz_risk":1,"updated_at":"2026-07-15T16:22:33.875343+05:30"},{"city":"Ludhiana","state":"Punjab","latitude":30.901,"longitude":75.8573,"temp":35.9,"humidity":46,"rain":0.0,"pressure":971.8,"uv_index":7.95,"wind_gusts":24.5,"aqi":189,"pm10":121.1,"pm2_5":65.9,"no2":2.9,"co":320.0,"o3":171.0,"so2":5.7,"mosquito_risk":0,"arthritis_risk":5,"migraine_risk":10,"frizz_risk":1,"updated_at":"2026-07-15T16:22:33.875350+05:30"},{"city":"Jalandhar","state":"Punjab","latitude":31.326,"longitude":75.5762,"temp":35.2,"humidity":49,"rain":0.0,"pressure":972.9,"uv_index":8.15,"wind_gusts":18.7,"aqi":194,"pm10":122.5,"pm2_5":65.2,"no2":2.7,"co":400.0,"o3":179.0,"so2":5.9,"mosquito_risk":0,"arthritis_risk":5,"migraine_risk":10,"frizz_risk":1,"updated_at":"2026-07-15T16:22:33.875356+05:30"},{"city":"Dehradun","state":"Uttarakhand","latitude":30.6284,"longitude":78.0322,"temp":22.7,"humidity":88,"rain":0.0,"pressure":828.7,"uv_index":7.5,"wind_gusts":25.2,"aqi":104,"pm10":49.1,"pm2_5":29.5,"no2":1.1,"co":308.0,"o3":164.0,"so2":4.5,"mosquito_risk":3,"arthritis_risk":5,"migraine_risk":7,"frizz_risk":1,"updated_at":"2026-07-15T16:22:33.875362+05:30"},{"city":"Shimla","state":"Himachal Pradesh","latitude":31.1048,"longitude":77.1734,"temp":22.6,"humidity":56,"rain":0.0,"pressure":784.8,"uv_index":8.2,"wind_gusts":39.2,"aqi":114,"pm10":55.3,"pm2_5":33.3,"no2":1.1,"co":225.0,"o3":174.0,"so2":9.1,"mosquito_risk":0,"arthritis_risk":5,"migraine_risk":7,"frizz_risk":0,"updated_at":"2026-07-15T16:22:33.875371+05:30"},{"city":"Manali","state":"Himachal Pradesh","latitude":32.2396,"longitude":77.1887,"temp":24.4,"humidity":74,"rain":0.0,"pressure":818.7,"uv_index":9.55,"wind_gusts":30.2,"aqi":94,"pm10":17.5,"pm2_5":8.7,"no2":0.0,"co":153.0,"o3":150.0,"so2":1.2,"mosquito_risk":3,"arthritis_risk":5,"migraine_risk":7,"frizz_risk":1,"updated_at":"2026-07-15T16:22:33.875379+05:30"},{"city":"Gurgaon","state":"Haryana","latitude":28.4595,"longitude":77.0266,"temp":35.9,"humidity":43,"rain":0.0,"pressure":974.6,"uv_index":7.75,"wind_gusts":29.9,"aqi":179,"pm10":828.9,"pm2_5":158.3,"no2":7.5,"co":218.0,"o3":131.0,"so2":9.7,"mosquito_risk":0,"arthritis_risk":5,"migraine_risk":10,"frizz_risk":1,"updated_at":"2026-07-15T16:22:33.875386+05:30"},{"city":"Noida","state":"Uttar Pradesh","latitude":28.5355,"longitude":77.391,"temp":35.9,"humidity":45,"rain":0.0,"pressure":977.4,"uv_index":7.7,"wind_gusts":29.9,"aqi":179,"pm10":828.9,"pm2_5":158.3,"no2":7.5,"co":281.0,"o3":131.0,"so2":9.7,"mosquito_risk":0,"arthritis_risk":5,"migraine_risk":10,"frizz_risk":1,"updated_at":"2026-07-15T16:22:33.875392+05:30"},{"city":"Ghaziabad","state":"Uttar Pradesh","latitude":28.6692,"longitude":77.4538,"temp":35.5,"humidity":47,"rain":0.0,"pressure":975.6,"uv_index":7.7,"wind_gusts":32.0,"aqi":172,"pm10":434.0,"pm2_5":116.4,"no2":4.8,"co":205.0,"o3":164.0,"so2":15.0,"mosquito_risk":0,"arthritis_risk":5,"migraine_risk":10,"frizz_risk":1,"updated_at":"2026-07-15T16:22:33.875398+05:30"},{"city":"Faridabad","state":"Haryana","latitude":28.4089,"longitude":77.3178,"temp":36.1,"humidity":42,"rain":0.0,"pressure":976.8,"uv_index":7.75,"wind_gusts":27.4,"aqi":179,"pm10":828.9,"pm2_5":158.3,"no2":7.5,"co":191.0,"o3":131.0,"so2":9.7,"mosquito_risk":0,"arthritis_risk":5,"migraine_risk":10,"frizz_risk":1,"updated_at":"2026-07-15T16:22:33.875404+05:30"},{"city":"Meerut","state":"Uttar Pradesh","latitude":28.9845,"longitude":77.7064,"temp":34.9,"humidity":52,"rain":0.0,"pressure":974.5,"uv_index":7.55,"wind_gusts":38.2,"aqi":172,"pm10":434.0,"pm2_5":116.4,"no2":4.8,"co":216.0,"o3":164.0,"so2":15.0,"mosquito_risk":0,"arthritis_risk":5,"migraine_risk":7,"frizz_risk":1,"updated_at":"2026-07-15T16:22:33.875410+05:30"},{"city":"Agra","state":"Uttar Pradesh","latitude":27.1767,"longitude":78.0081,"temp":34.3,"humidity":53,"rain":0.0,"pressure":981.2,"uv_index":7.95,"wind_gusts":32.4,"aqi":154,"pm10":258.0,"pm2_5":69.4,"no2":2.5,"co":129.0,"o3":105.0,"so2":3.4,"mosquito_risk":0,"arthritis_risk":5,"migraine_risk":7,"frizz_risk":1,"updated_at":"2026-07-15T16:22:33.875417+05:30"},{"city":"Varanasi","state":"Uttar Pradesh","latitude":25.3176,"longitude":82.9739,"temp":33.6,"humidity":64,"rain":0.0,"pressure":989.2,"uv_index":8.55,"wind_gusts":29.2,"aqi":180,"pm10":216.1,"pm2_5":85.2,"no2":3.7,"co":230.0,"o3":151.0,"so2":8.7,"mosquito_risk":3,"arthritis_risk":5,"migraine_risk":7,"frizz_risk":1,"updated_at":"2026-07-15T16:22:33.875423+05:30"},{"city":"Prayagraj","state":"Uttar Pradesh","latitude":25.4358,"longitude":81.8463,"temp":31.8,"humidity":72,"rain":0.1,"pressure":988.5,"uv_index":8.6,"wind_gusts":30.2,"aqi":172,"pm10":181.1,"pm2_5":73.8,"no2":2.8,"co":170.0,"o3":148.0,"so2":7.9,"mosquito_risk":6,"arthritis_risk":5,"migraine_risk":7,"frizz_risk":1,"updated_at":"2026-07-15T16:22:33.875430+05:30"},{"city":"Gorakhpur","state":"Uttar Pradesh","latitude":26.7606,"longitude":83.3732,"temp":31.3,"humidity":76,"rain":0.0,"pressure":989.4,"uv_index":8.4,"wind_gusts":28.4,"aqi":161,"pm10":151.3,"pm2_5":62.6,"no2":3.5,"co":280.0,"o3":148.0,"so2":5.2,"mosquito_risk":3,"arthritis_risk":5,"migraine_risk":7,"frizz_risk":1,"updated_at":"2026-07-15T16:22:33.875436+05:30"},{"city":"Bareilly","state":"Uttar Pradesh","latitude":28.367,"longitude":79.4304,"temp":34.3,"humidity":56,"rain":0.0,"pressure":979.4,"uv_index":8.0,"wind_gusts":22.0,"aqi":165,"pm10":131.3,"pm2_5":62.6,"no2":2.6,"co":296.0,"o3":174.0,"so2":10.6,"mosquito_risk":0,"arthritis_risk":5,"migraine_risk":7,"frizz_risk":1,"updated_at":"2026-07-15T16:22:33.875444+05:30"},{"city":"Aligarh","state":"Uttar Pradesh","latitude":27.8974,"longitude":78.088,"temp":33.8,"humidity":60,"rain":0.0,"pressure":978.8,"uv_index":7.75,"wind_gusts":31.0,"aqi":159,"pm10":395.8,"pm2_5":102.0,"no2":3.5,"co":169.0,"o3":149.0,"so2":8.5,"mosquito_risk":0,"arthritis_risk":5,"migraine_risk":7,"frizz_risk":1,"updated_at":"2026-07-15T16:22:33.875451+05:30"},{"city":"Moradabad","state":"Uttar Pradesh","latitude":28.8386,"longitude":78.7733,"temp":34.5,"humidity":56,"rain":0.0,"pressure":976.5,"uv_index":7.8,"wind_gusts":27.4,"aqi":169,"pm10":154.1,"pm2_5":76.1,"no2":2.6,"co":277.0,"o3":186.0,"so2":11.4,"mosquito_risk":0,"arthritis_risk":5,"migraine_risk":7,"frizz_risk":1,"updated_at":"2026-07-15T16:22:33.875457+05:30"},{"city":"Saharanpur","state":"Uttar Pradesh","latitude":29.9637,"longitude":77.546,"temp":34.0,"humidity":57,"rain":0.0,"pressure":968.8,"uv_index":7.35,"wind_gusts":25.2,"aqi":183,"pm10":158.3,"pm2_5":79.6,"no2":3.9,"co":403.0,"o3":207.0,"so2":15.5,"mosquito_risk":0,"arthritis_risk":5,"migraine_risk":7,"frizz_risk":1,"updated_at":"2026-07-15T16:22:33.875463+05:30"},{"city":"Jhansi","state":"Uttar Pradesh","latitude":25.4484,"longitude":78.5685,"temp":33.4,"humidity":56,"rain":0.1,"pressure":972.0,"uv_index":6.45,"wind_gusts":42.5,"aqi":125,"pm10":175.1,"pm2_5":52.2,"no2":1.6,"co":125.0,"o3":99.0,"so2":3.4,"mosquito_risk":3,"arthritis_risk":5,"migraine_risk":7,"frizz_risk":1,"updated_at":"2026-07-15T16:22:37.138684+05:30"},{"city":"Surat","state":"Gujarat","latitude":21.1702,"longitude":72.8311,"temp":29.8,"humidity":75,"rain":0.0,"pressure":1003.3,"uv_index":7.75,"wind_gusts":47.2,"aqi":71,"pm10":35.7,"pm2_5":19.4,"no2":11.7,"co":170.0,"o3":46.0,"so2":35.9,"mosquito_risk":7,"arthritis_risk":5,"migraine_risk":4,"frizz_risk":1,"updated_at":"2026-07-15T16:22:37.138719+05:30"},{"city":"Vadodara","state":"Gujarat","latitude":22.3072,"longitude":73.1812,"temp":34.6,"humidity":46,"rain":0.0,"pressure":999.3,"uv_index":7.0,"wind_gusts":42.1,"aqi":65,"pm10":47.4,"pm2_5":20.1,"no2":3.4,"co":147.0,"o3":88.0,"so2":6.5,"mosquito_risk":0,"arthritis_risk":5,"migraine_risk":7,"frizz_risk":1,"updated_at":"2026-07-15T16:22:37.138732+05:30"},{"city":"Rajkot","state":"Gujarat","latitude":22.3039,"longitude":70.8022,"temp":33.7,"humidity":46,"rain":0.0,"pressure":989.0,"uv_index":5.7,"wind_gusts":43.2,"aqi":55,"pm10":41.4,"pm2_5":17.6,"no2":1.3,"co":106.0,"o3":75.0,"so2":3.1,"mosquito_risk":0,"arthritis_risk":5,"migraine_risk":3,"frizz_risk":1,"updated_at":"2026-07-15T16:22:37.138745+05:30"},{"city":"Thane","state":"Maharashtra","latitude":19.2183,"longitude":72.9781,"temp":28.0,"humidity":75,"rain":0.1,"pressure":1006.3,"uv_index":6.9,"wind_gusts":36.4,"aqi":68,"pm10":66.1,"pm2_5":23.0,"no2":7.8,"co":196.0,"o3":70.0,"so2":8.3,"mosquito_risk":10,"arthritis_risk":5,"migraine_risk":4,"frizz_risk":1,"updated_at":"2026-07-15T16:22:37.138756+05:30"},{"city":"Nagpur","state":"Maharashtra","latitude":21.1458,"longitude":79.0882,"temp":31.0,"humidity":56,"rain":0.1,"pressure":968.8,"uv_index":7.5,"wind_gusts":40.0,"aqi":94,"pm10":69.8,"pm2_5":31.2,"no2":8.5,"co":153.0,"o3":95.0,"so2":21.2,"mosquito_risk":3,"arthritis_risk":5,"migraine_risk":7,"frizz_risk":1,"updated_at":"2026-07-15T16:22:37.138766+05:30"},{"city":"Nashik","state":"Maharashtra","latitude":19.9975,"longitude":73.7898,"temp":26.2,"humidity":75,"rain":0.0,"pressure":943.2,"uv_index":7.6,"wind_gusts":44.6,"aqi":55,"pm10":19.3,"pm2_5":8.4,"no2":2.2,"co":143.0,"o3":75.0,"so2":2.7,"mosquito_risk":7,"arthritis_risk":5,"migraine_risk":7,"frizz_risk":1,"updated_at":"2026-07-15T16:22:37.138775+05:30"},{"city":"Aurangabad","state":"Maharashtra","latitude":19.8762,"longitude":75.3433,"temp":29.1,"humidity":61,"rain":0.0,"pressure":941.4,"uv_index":8.85,"wind_gusts":44.3,"aqi":59,"pm10":32.2,"pm2_5":12.9,"no2":1.6,"co":124.0,"o3":79.0,"so2":3.3,"mosquito_risk":7,"arthritis_risk":5,"migraine_risk":7,"frizz_risk":1,"updated_at":"2026-07-15T16:22:37.138783+05:30"},{"city":"Solapur","state":"Maharashtra","latitude":17.6599,"longitude":75.9064,"temp":29.2,"humidity":62,"rain":0.0,"pressure":955.2,"uv_index":8.85,"wind_gusts":63.0,"aqi":62,"pm10":36.4,"pm2_5":14.8,"no2":2.0,"co":118.0,"o3":71.0,"so2":1.5,"mosquito_risk":7,"arthritis_risk":5,"migraine_risk":7,"frizz_risk":1,"updated_at":"2026-07-15T16:22:37.138790+05:30"},{"city":"Kolhapur","state":"Maharashtra","latitude":16.705,"longitude":74.2433,"temp":25.7,"humidity":76,"rain":0.0,"pressure":946.8,"uv_index":8.3,"wind_gusts":45.0,"aqi":56,"pm10":26.0,"pm2_5":12.5,"no2":2.6,"co":124.0,"o3":61.0,"so2":1.7,"mosquito_risk":7,"arthritis_risk":5,"migraine_risk":7,"frizz_risk":1,"updated_at":"2026-07-15T16:22:37.138797+05:30"},{"city":"Goa","state":"Goa","latitude":15.2993,"longitude":74.124,"temp":29.8,"humidity":69,"rain":0.0,"pressure":997.4,"uv_index":7.8,"wind_gusts":32.8,"aqi":75,"pm10":41.2,"pm2_5":18.5,"no2":0.8,"co":110.0,"o3":58.0,"so2":1.1,"mosquito_risk":7,"arthritis_risk":5,"migraine_risk":7,"frizz_risk":1,"updated_at":"2026-07-15T16:22:37.138804+05:30"},{"city":"Jodhpur","state":"Rajasthan","latitude":26.2389,"longitude":73.0243,"temp":36.2,"humidity":38,"rain":0.0,"pressure":977.0,"uv_index":8.35,"wind_gusts":39.2,"aqi":162,"pm10":152.7,"pm2_5":29.6,"no2":0.9,"co":110.0,"o3":81.0,"so2":1.6,"mosquito_risk":0,"arthritis_risk":5,"migraine_risk":10,"frizz_risk":1,"updated_at":"2026-07-15T16:22:37.138811+05:30"},{"city":"Udaipur","state":"Rajasthan","latitude":24.5854,"longitude":73.7125,"temp":30.9,"humidity":53,"rain":0.0,"pressure":942.4,"uv_index":8.05,"wind_gusts":37.1,"aqi":72,"pm10":48.9,"pm2_5":16.8,"no2":0.8,"co":111.0,"o3":80.0,"so2":2.3,"mosquito_risk":0,"arthritis_risk":5,"migraine_risk":7,"frizz_risk":1,"updated_at":"2026-07-15T16:22:37.138819+05:30"},{"city":"Kota","state":"Rajasthan","latitude":25.2138,"longitude":75.8648,"temp":34.4,"humidity":47,"rain":0.0,"pressure":973.7,"uv_index":8.3,"wind_gusts":34.9,"aqi":94,"pm10":123.4,"pm2_5":39.3,"no2":1.3,"co":125.0,"o3":104.0,"so2":4.8,"mosquito_risk":0,"arthritis_risk":5,"migraine_risk":7,"frizz_risk":1,"updated_at":"2026-07-15T16:22:37.138826+05:30"},{"city":"Bikaner","state":"Rajasthan","latitude":28.0229,"longitude":73.3119,"temp":38.9,"humidity":30,"rain":0.0,"pressure":974.8,"uv_index":8.4,"wind_gusts":36.7,"aqi":161,"pm10":236.1,"pm2_5":57.6,"no2":0.4,"co":105.0,"o3":84.0,"so2":2.4,"mosquito_risk":0,"arthritis_risk":5,"migraine_risk":10,"frizz_risk":1,"updated_at":"2026-07-15T16:22:37.138833+05:30"},{"city":"Ajmer","state":"Rajasthan","latitude":26.4499,"longitude":74.6399,"temp":32.6,"humidity":46,"rain":0.0,"pressure":950.2,"uv_index":8.35,"wind_gusts":46.1,"aqi":98,"pm10":124.3,"pm2_5":36.1,"no2":1.0,"co":117.0,"o3":93.0,"so2":2.4,"mosquito_risk":0,"arthritis_risk":5,"migraine_risk":7,"frizz_risk":1,"updated_at":"2026-07-15T16:22:37.138840+05:30"},{"city":"Gwalior","state":"Madhya Pradesh","latitude":26.2183,"longitude":78.1828,"temp":33.5,"humidity":55,"rain":0.0,"pressure":977.1,"uv_index":7.6,"wind_gusts":40.0,"aqi":147,"pm10":170.9,"pm2_5":50.9,"no2":1.2,"co":144.0,"o3":97.0,"so2":2.1,"mosquito_risk":0,"arthritis_risk":5,"migraine_risk":7,"frizz_risk":1,"updated_at":"2026-07-15T16:22:37.138846+05:30"},{"city":"Indore","state":"Madhya Pradesh","latitude":22.7196,"longitude":75.8577,"temp":30.7,"humidity":58,"rain":0.0,"pressure":944.6,"uv_index":8.6,"wind_gusts":38.2,"aqi":68,"pm10":41.3,"pm2_5":17.3,"no2":1.8,"co":187.0,"o3":93.0,"so2":3.5,"mosquito_risk":0,"arthritis_risk":5,"migraine_risk":7,"frizz_risk":1,"updated_at":"2026-07-15T16:22:37.138853+05:30"},{"city":"Bhopal","state":"Madhya Pradesh","latitude":23.2599,"longitude":77.4126,"temp":27.0,"humidity":78,"rain":0.2,"pressure":949.8,"uv_index":6.7,"wind_gusts":43.6,"aqi":84,"pm10":111.1,"pm2_5":32.9,"no2":1.5,"co":162.0,"o3":92.0,"so2":3.0,"mosquito_risk":10,"arthritis_risk":5,"migraine_risk":7,"frizz_risk":1,"updated_at":"2026-07-15T16:22:37.138860+05:30"},{"city":"Jabalpur","state":"Madhya Pradesh","latitude":23.1815,"longitude":79.9864,"temp":29.0,"humidity":74,"rain":0.0,"pressure":956.2,"uv_index":8.7,"wind_gusts":33.1,"aqi":107,"pm10":143.0,"pm2_5":50.6,"no2":1.9,"co":156.0,"o3":102.0,"so2":3.9,"mosquito_risk":7,"arthritis_risk":5,"migraine_risk":7,"frizz_risk":1,"updated_at":"2026-07-15T16:22:37.138866+05:30"},{"city":"Ujjain","state":"Madhya Pradesh","latitude":23.1765,"longitude":75.7885,"temp":30.8,"humidity":60,"rain":0.0,"pressure":949.9,"uv_index":8.5,"wind_gusts":36.7,"aqi":69,"pm10":47.4,"pm2_5":18.5,"no2":1.2,"co":142.0,"o3":88.0,"so2":3.3,"mosquito_risk":0,"arthritis_risk":5,"migraine_risk":7,"frizz_risk":1,"updated_at":"2026-07-15T16:22:37.138874+05:30"},{"city":"Visakhapatnam","state":"Andhra Pradesh","latitude":17.6868,"longitude":83.2185,"temp":35.6,"humidity":43,"rain":0.0,"pressure":996.1,"uv_index":8.5,"wind_gusts":36.7,"aqi":131,"pm10":64.3,"pm2_5":40.7,"no2":14.8,"co":329.0,"o3":122.0,"so2":40.3,"mosquito_risk":0,"arthritis_risk":5,"migraine_risk":10,"frizz_risk":1,"updated_at":"2026-07-15T16:22:37.138881+05:30"},{"city":"Vijayawada","state":"Andhra Pradesh","latitude":16.5062,"longitude":80.648,"temp":36.6,"humidity":33,"rain":0.0,"pressure":996.9,"uv_index":8.95,"wind_gusts":47.5,"aqi":93,"pm10":29.1,"pm2_5":19.6,"no2":2.1,"co":160.0,"o3":120.0,"so2":4.8,"mosquito_risk":0,"arthritis_risk":5,"migraine_risk":10,"frizz_risk":1,"updated_at":"2026-07-15T16:22:37.138888+05:30"},{"city":"Guntur","state":"Andhra Pradesh","latitude":16.3067,"longitude":80.4365,"temp":37.3,"humidity":28,"rain":0.0,"pressure":998.0,"uv_index":8.8,"wind_gusts":49.0,"aqi":88,"pm10":32.1,"pm2_5":18.9,"no2":1.9,"co":164.0,"o3":114.0,"so2":3.8,"mosquito_risk":0,"arthritis_risk":5,"migraine_risk":10,"frizz_risk":0,"updated_at":"2026-07-15T16:22:37.138895+05:30"},{"city":"Nellore","state":"Andhra Pradesh","latitude":14.4426,"longitude":79.9865,"temp":37.9,"humidity":26,"rain":0.0,"pressure":1000.9,"uv_index":8.8,"wind_gusts":51.1,"aqi":81,"pm10":28.3,"pm2_5":16.0,"no2":2.8,"co":124.0,"o3":118.0,"so2":4.3,"mosquito_risk":0,"arthritis_risk":5,"migraine_risk":7,"frizz_risk":0,"updated_at":"2026-07-15T16:22:37.138903+05:30"},{"city":"Kurnool","state":"Andhra Pradesh","latitude":15.8281,"longitude":78.0373,"temp":36.6,"humidity":30,"rain":0.0,"pressure":973.1,"uv_index":8.95,"wind_gusts":62.6,"aqi":66,"pm10":61.9,"pm2_5":24.2,"no2":1.2,"co":120.0,"o3":103.0,"so2":5.6,"mosquito_risk":0,"arthritis_risk":5,"migraine_risk":10,"frizz_risk":1,"updated_at":"2026-07-15T16:22:37.138911+05:30"},{"city":"Kakinada","state":"Andhra Pradesh","latitude":16.9891,"longitude":82.2475,"temp":35.4,"humidity":42,"rain":0.0,"pressure":1000.7,"uv_index":6.15,"wind_gusts":52.6,"aqi":99,"pm10":39.7,"pm2_5":26.1,"no2":2.9,"co":185.0,"o3":132.0,"so2":5.9,"mosquito_risk":0,"arthritis_risk":5,"migraine_risk":7,"frizz_risk":1,"updated_at":"2026-07-15T16:22:37.138918+05:30"},{"city":"Tirupati","state":"Andhra Pradesh","latitude":13.6288,"longitude":79.4192,"temp":37.6,"humidity":24,"rain":0.0,"pressure":986.7,"uv_index":8.9,"wind_gusts":40.0,"aqi":84,"pm10":27.9,"pm2_5":13.4,"no2":2.5,"co":99.0,"o3":98.0,"so2":1.6,"mosquito_risk":0,"arthritis_risk":5,"migraine_risk":10,"frizz_risk":0,"updated_at":"2026-07-15T16:22:37.138925+05:30"},{"city":"Warangal","state":"Telangana","latitude":17.9689,"longitude":79.5941,"temp":32.2,"humidity":48,"rain":0.0,"pressure":974.4,"uv_index":8.85,"wind_gusts":45.4,"aqi":91,"pm10":44.4,"pm2_5":22.6,"no2":3.2,"co":138.0,"o3":90.0,"so2":3.5,"mosquito_risk":0,"arthritis_risk":5,"migraine_risk":7,"frizz_risk":1,"updated_at":"2026-07-15T16:22:37.138931+05:30"},{"city":"Nizamabad","state":"Telangana","latitude":18.6725,"longitude":78.0941,"temp":31.9,"humidity":49,"rain":0.0,"pressure":961.4,"uv_index":8.85,"wind_gusts":40.0,"aqi":84,"pm10":44.9,"pm2_5":20.3,"no2":1.1,"co":122.0,"o3":95.0,"so2":2.9,"mosquito_risk":0,"arthritis_risk":5,"migraine_risk":7,"frizz_risk":1,"updated_at":"2026-07-15T16:22:37.138938+05:30"},{"city":"Mysore","state":"Karnataka","latitude":12.2958,"longitude":76.6396,"temp":30.0,"humidity":48,"rain":0.0,"pressure":927.8,"uv_index":9.05,"wind_gusts":41.0,"aqi":59,"pm10":13.7,"pm2_5":8.9,"no2":2.1,"co":138.0,"o3":96.0,"so2":1.5,"mosquito_risk":4,"arthritis_risk":5,"migraine_risk":7,"frizz_risk":1,"updated_at":"2026-07-15T16:22:37.138945+05:30"},{"city":"Mangalore","state":"Karnataka","latitude":12.9141,"longitude":74.856,"temp":29.0,"humidity":72,"rain":0.0,"pressure":1006.7,"uv_index":8.7,"wind_gusts":36.4,"aqi":67,"pm10":43.2,"pm2_5":19.5,"no2":0.9,"co":99.0,"o3":61.0,"so2":1.3,"mosquito_risk":7,"arthritis_risk":5,"migraine_risk":4,"frizz_risk":1,"updated_at":"2026-07-15T16:22:37.138951+05:30"},{"city":"Hubli-Dharwad","state":"Karnataka","latitude":15.3647,"longitude":75.124,"temp":27.9,"humidity":61,"rain":0.1,"pressure":939.7,"uv_index":7.55,"wind_gusts":49.0,"aqi":54,"pm10":22.6,"pm2_5":11.4,"no2":1.4,"co":116.0,"o3":66.0,"so2":0.9,"mosquito_risk":10,"arthritis_risk":5,"migraine_risk":7,"frizz_risk":1,"updated_at":"2026-07-15T16:22:37.138958+05:30"},{"city":"Belgaum","state":"Karnataka","latitude":15.8497,"longitude":74.4977,"temp":24.9,"humidity":75,"rain":0.0,"pressure":924.8,"uv_index":8.4,"wind_gusts":49.0,"aqi":54,"pm10":22.1,"pm2_5":11.3,"no2":1.9,"co":111.0,"o3":59.0,"so2":1.6,"mosquito_risk":3,"arthritis_risk":5,"migraine_risk":7,"frizz_risk":1,"updated_at":"2026-07-15T16:22:40.399236+05:30"},{"city":"Coimbatore","state":"Tamil Nadu","latitude":11.0168,"longitude":76.9558,"temp":32.4,"humidity":44,"rain":0.0,"pressure":960.0,"uv_index":8.25,"wind_gusts":49.7,"aqi":59,"pm10":21.7,"pm2_5":12.5,"no2":1.5,"co":147.0,"o3":89.0,"so2":2.0,"mosquito_risk":0,"arthritis_risk":5,"migraine_risk":7,"frizz_risk":1,"updated_at":"2026-07-15T16:22:40.399268+05:30"},{"city":"Madurai","state":"Tamil Nadu","latitude":9.9252,"longitude":78.1198,"temp":39.2,"humidity":23,"rain":0.0,"pressure":989.0,"uv_index":8.05,"wind_gusts":32.4,"aqi":85,"pm10":60.3,"pm2_5":25.4,"no2":2.7,"co":131.0,"o3":122.0,"so2":2.7,"mosquito_risk":0,"arthritis_risk":5,"migraine_risk":10,"frizz_risk":0,"updated_at":"2026-07-15T16:22:40.399279+05:30"},{"city":"Trichy","state":"Tamil Nadu","latitude":10.7905,"longitude":78.7047,"temp":38.9,"humidity":25,"rain":0.0,"pressure":995.5,"uv_index":8.5,"wind_gusts":47.2,"aqi":71,"pm10":41.4,"pm2_5":19.2,"no2":1.8,"co":127.0,"o3":109.0,"so2":2.0,"mosquito_risk":0,"arthritis_risk":5,"migraine_risk":10,"frizz_risk":0,"updated_at":"2026-07-15T16:22:40.399287+05:30"},{"city":"Salem","state":"Tamil Nadu","latitude":11.6643,"longitude":78.146,"temp":35.3,"humidity":34,"rain":0.0,"pressure":974.1,"uv_index":8.8,"wind_gusts":20.9,"aqi":76,"pm10":47.7,"pm2_5":19.6,"no2":2.4,"co":156.0,"o3":114.0,"so2":4.7,"mosquito_risk":0,"arthritis_risk":5,"migraine_risk":10,"frizz_risk":1,"updated_at":"2026-07-15T16:22:40.399295+05:30"},{"city":"Tirunelveli","state":"Tamil Nadu","latitude":8.7139,"longitude":77.7567,"temp":37.2,"humidity":31,"rain":0.0,"pressure":999.5,"uv_index":7.95,"wind_gusts":44.3,"aqi":57,"pm10":23.3,"pm2_5":12.7,"no2":1.7,"co":123.0,"o3":88.0,"so2":1.5,"mosquito_risk":0,"arthritis_risk":5,"migraine_risk":10,"frizz_risk":1,"updated_at":"2026-07-15T16:22:40.399303+05:30"},{"city":"Vellore","state":"Tamil Nadu","latitude":12.9165,"longitude":79.1325,"temp":38.0,"humidity":21,"rain":0.0,"pressure":980.2,"uv_index":8.95,"wind_gusts":43.2,"aqi":92,"pm10":36.8,"pm2_5":17.0,"no2":2.0,"co":120.0,"o3":111.0,"so2":1.7,"mosquito_risk":0,"arthritis_risk":5,"migraine_risk":10,"frizz_risk":0,"updated_at":"2026-07-15T16:22:40.399310+05:30"},{"city":"Erode","state":"Tamil Nadu","latitude":11.341,"longitude":77.7172,"temp":37.1,"humidity":30,"rain":0.0,"pressure":985.3,"uv_index":8.4,"wind_gusts":45.0,"aqi":66,"pm10":39.3,"pm2_5":17.2,"no2":2.4,"co":160.0,"o3":109.0,"so2":2.0,"mosquito_risk":0,"arthritis_risk":5,"migraine_risk":10,"frizz_risk":1,"updated_at":"2026-07-15T16:22:40.399317+05:30"},{"city":"Kochi","state":"Kerala","latitude":9.9312,"longitude":76.2673,"temp":28.7,"humidity":78,"rain":0.0,"pressure":1008.5,"uv_index":8.35,"wind_gusts":38.5,"aqi":65,"pm10":25.1,"pm2_5":14.7,"no2":2.0,"co":112.0,"o3":72.0,"so2":2.2,"mosquito_risk":7,"arthritis_risk":0,"migraine_risk":4,"frizz_risk":1,"updated_at":"2026-07-15T16:22:40.399325+05:30"},{"city":"Thiruvananthapuram","state":"Kerala","latitude":8.5241,"longitude":76.9366,"temp":28.0,"humidity":78,"rain":0.0,"pressure":1007.6,"uv_index":8.05,"wind_gusts":47.5,"aqi":60,"pm10":25.6,"pm2_5":14.7,"no2":2.7,"co":104.0,"o3":69.0,"so2":1.1,"mosquito_risk":7,"arthritis_risk":5,"migraine_risk":4,"frizz_risk":1,"updated_at":"2026-07-15T16:22:40.399332+05:30"},{"city":"Kozhikode","state":"Kerala","latitude":11.2588,"longitude":75.7804,"temp":29.1,"humidity":73,"rain":0.0,"pressure":1007.6,"uv_index":8.15,"wind_gusts":38.9,"aqi":61,"pm10":26.7,"pm2_5":13.3,"no2":0.5,"co":100.0,"o3":66.0,"so2":1.1,"mosquito_risk":7,"arthritis_risk":5,"migraine_risk":4,"frizz_risk":1,"updated_at":"2026-07-15T16:22:40.399339+05:30"},{"city":"Thrissur","state":"Kerala","latitude":10.5276,"longitude":76.2144,"temp":29.2,"humidity":72,"rain":0.0,"pressure":1006.8,"uv_index":8.65,"wind_gusts":37.8,"aqi":62,"pm10":23.2,"pm2_5":13.8,"no2":1.4,"co":103.0,"o3":70.0,"so2":1.6,"mosquito_risk":7,"arthritis_risk":5,"migraine_risk":4,"frizz_risk":1,"updated_at":"2026-07-15T16:22:40.399346+05:30"},{"city":"Kannur","state":"Kerala","latitude":11.8745,"longitude":75.3704,"temp":29.7,"humidity":68,"rain":0.0,"pressure":1007.1,"uv_index":7.85,"wind_gusts":39.6,"aqi":64,"pm10":36.0,"pm2_5":17.1,"no2":0.9,"co":98.0,"o3":63.0,"so2":1.2,"mosquito_risk":7,"arthritis_risk":5,"migraine_risk":4,"frizz_risk":1,"updated_at":"2026-07-15T16:22:40.399354+05:30"},{"city":"Patna","state":"Bihar","latitude":25.5941,"longitude":85.1376,"temp":33.7,"humidity":65,"rain":0.0,"pressure":991.2,"uv_index":8.25,"wind_gusts":34.2,"aqi":164,"pm10":144.4,"pm2_5":66.6,"no2":5.4,"co":319.0,"o3":173.0,"so2":9.9,"mosquito_risk":3,"arthritis_risk":5,"migraine_risk":7,"frizz_risk":1,"updated_at":"2026-07-15T16:22:40.399361+05:30"},{"city":"Gaya","state":"Bihar","latitude":24.7914,"longitude":85.0002,"temp":33.7,"humidity":65,"rain":0.0,"pressure":984.9,"uv_index":8.45,"wind_gusts":26.6,"aqi":163,"pm10":125.7,"pm2_5":59.0,"no2":3.5,"co":322.0,"o3":152.0,"so2":7.7,"mosquito_risk":3,"arthritis_risk":5,"migraine_risk":7,"frizz_risk":1,"updated_at":"2026-07-15T16:22:40.399369+05:30"},{"city":"Muzaffarpur","state":"Bihar","latitude":26.1209,"longitude":85.3647,"temp":32.2,"humidity":74,"rain":0.1,"pressure":991.3,"uv_index":7.35,"wind_gusts":20.5,"aqi":159,"pm10":117.6,"pm2_5":58.6,"no2":7.0,"co":374.0,"o3":168.0,"so2":11.3,"mosquito_risk":6,"arthritis_risk":5,"migraine_risk":7,"frizz_risk":1,"updated_at":"2026-07-15T16:22:40.399375+05:30"},{"city":"Bhagalpur","state":"Bihar","latitude":25.2425,"longitude":87.0117,"temp":32.8,"humidity":70,"rain":0.0,"pressure":992.1,"uv_index":7.95,"wind_gusts":29.9,"aqi":130,"pm10":34.1,"pm2_5":31.7,"no2":5.9,"co":288.0,"o3":157.0,"so2":18.2,"mosquito_risk":3,"arthritis_risk":5,"migraine_risk":7,"frizz_risk":1,"updated_at":"2026-07-15T16:22:40.399382+05:30"},{"city":"Ranchi","state":"Jharkhand","latitude":23.3441,"longitude":85.3096,"temp":27.4,"humidity":81,"rain":0.0,"pressure":930.6,"uv_index":8.5,"wind_gusts":33.8,"aqi":159,"pm10":98.3,"pm2_5":45.3,"no2":3.2,"co":232.0,"o3":147.0,"so2":9.3,"mosquito_risk":7,"arthritis_risk":5,"migraine_risk":7,"frizz_risk":1,"updated_at":"2026-07-15T16:22:40.399389+05:30"},{"city":"Jamshedpur","state":"Jharkhand","latitude":22.8046,"longitude":86.2029,"temp":28.1,"humidity":91,"rain":0.2,"pressure":982.6,"uv_index":7.75,"wind_gusts":32.0,"aqi":169,"pm10":35.0,"pm2_5":31.4,"no2":5.7,"co":453.0,"o3":148.0,"so2":23.2,"mosquito_risk":10,"arthritis_risk":5,"migraine_risk":7,"frizz_risk":1,"updated_at":"2026-07-15T16:22:40.399396+05:30"},{"city":"Dhanbad","state":"Jharkhand","latitude":23.7957,"longitude":86.4304,"temp":29.3,"humidity":82,"rain":0.0,"pressure":972.3,"uv_index":8.6,"wind_gusts":29.9,"aqi":187,"pm10":57.2,"pm2_5":50.6,"no2":13.2,"co":244.0,"o3":178.0,"so2":53.4,"mosquito_risk":7,"arthritis_risk":5,"migraine_risk":7,"frizz_risk":1,"updated_at":"2026-07-15T16:22:40.399404+05:30"},{"city":"Bokaro","state":"Jharkhand","latitude":23.6693,"longitude":86.1511,"temp":27.3,"humidity":92,"rain":0.2,"pressure":976.0,"uv_index":8.35,"wind_gusts":29.2,"aqi":189,"pm10":105.5,"pm2_5":60.5,"no2":15.3,"co":253.0,"o3":172.0,"so2":59.4,"mosquito_risk":10,"arthritis_risk":5,"migraine_risk":7,"frizz_risk":1,"updated_at":"2026-07-15T16:22:40.399411+05:30"},{"city":"Bhubaneswar","state":"Odisha","latitude":20.2961,"longitude":85.8245,"temp":27.3,"humidity":95,"rain":0.2,"pressure":993.7,"uv_index":4.95,"wind_gusts":40.0,"aqi":141,"pm10":92.4,"pm2_5":51.2,"no2":9.8,"co":309.0,"o3":118.0,"so2":23.8,"mosquito_risk":10,"arthritis_risk":5,"migraine_risk":3,"frizz_risk":1,"updated_at":"2026-07-15T16:22:40.399418+05:30"},{"city":"Cuttack","state":"Odisha","latitude":20.4625,"longitude":85.8828,"temp":28.7,"humidity":89,"rain":0.1,"pressure":995.2,"uv_index":5.55,"wind_gusts":36.4,"aqi":141,"pm10":92.4,"pm2_5":51.2,"no2":9.8,"co":236.0,"o3":118.0,"so2":23.8,"mosquito_risk":10,"arthritis_risk":5,"migraine_risk":3,"frizz_risk":1,"updated_at":"2026-07-15T16:22:40.399425+05:30"},{"city":"Rourkela","state":"Odisha","latitude":22.2604,"longitude":84.8536,"temp":28.2,"humidity":87,"rain":0.2,"pressure":977.3,"uv_index":7.8,"wind_gusts":33.5,"aqi":158,"pm10":129.5,"pm2_5":60.3,"no2":4.2,"co":260.0,"o3":143.0,"so2":9.1,"mosquito_risk":10,"arthritis_risk":5,"migraine_risk":7,"frizz_risk":1,"updated_at":"2026-07-15T16:22:40.399432+05:30"},{"city":"Raipur","state":"Chhattisgarh","latitude":21.2514,"longitude":81.6296,"temp":33.6,"humidity":49,"rain":0.0,"pressure":968.2,"uv_index":8.0,"wind_gusts":32.8,"aqi":144,"pm10":96.9,"pm2_5":48.4,"no2":16.7,"co":147.0,"o3":97.0,"so2":41.8,"mosquito_risk":0,"arthritis_risk":5,"migraine_risk":7,"frizz_risk":1,"updated_at":"2026-07-15T16:22:40.399439+05:30"},{"city":"Bhilai","state":"Chhattisgarh","latitude":21.1938,"longitude":81.3509,"temp":32.5,"humidity":53,"rain":0.0,"pressure":968.8,"uv_index":8.35,"wind_gusts":32.4,"aqi":124,"pm10":85.0,"pm2_5":41.7,"no2":15.2,"co":379.0,"o3":95.0,"so2":35.0,"mosquito_risk":0,"arthritis_risk":5,"migraine_risk":7,"frizz_risk":1,"updated_at":"2026-07-15T16:22:40.399446+05:30"},{"city":"Guwahati","state":"Assam","latitude":26.1158,"longitude":91.7086,"temp":28.5,"humidity":94,"rain":0.2,"pressure":993.1,"uv_index":7.85,"wind_gusts":24.5,"aqi":44,"pm10":6.4,"pm2_5":6.2,"no2":2.9,"co":245.0,"o3":88.0,"so2":1.1,"mosquito_risk":10,"arthritis_risk":5,"migraine_risk":7,"frizz_risk":1,"updated_at":"2026-07-15T16:22:40.399453+05:30"},{"city":"Agartala","state":"Tripura","latitude":23.8315,"longitude":91.2868,"temp":27.6,"humidity":95,"rain":0.2,"pressure":998.3,"uv_index":8.4,"wind_gusts":34.6,"aqi":77,"pm10":15.2,"pm2_5":14.2,"no2":5.7,"co":164.0,"o3":133.0,"so2":1.5,"mosquito_risk":10,"arthritis_risk":5,"migraine_risk":7,"frizz_risk":1,"updated_at":"2026-07-15T16:22:40.399459+05:30"},{"city":"Shillong","state":"Meghalaya","latitude":25.5788,"longitude":91.8933,"temp":25.3,"humidity":72,"rain":0.0,"pressure":853.2,"uv_index":7.1,"wind_gusts":27.4,"aqi":42,"pm10":7.7,"pm2_5":7.0,"no2":4.0,"co":192.0,"o3":82.0,"so2":1.7,"mosquito_risk":7,"arthritis_risk":5,"migraine_risk":7,"frizz_risk":1,"updated_at":"2026-07-15T16:22:40.399467+05:30"},{"city":"Imphal","state":"Manipur","latitude":24.817,"longitude":93.9368,"temp":28.0,"humidity":75,"rain":0.0,"pressure":917.1,"uv_index":8.15,"wind_gusts":28.8,"aqi":56,"pm10":4.9,"pm2_5":3.9,"no2":1.6,"co":175.0,"o3":74.0,"so2":1.1,"mosquito_risk":7,"arthritis_risk":5,"migraine_risk":7,"frizz_risk":1,"updated_at":"2026-07-15T16:22:40.399473+05:30"},{"city":"Aizawl","state":"Mizoram","latitude":23.7271,"longitude":92.7176,"temp":21.7,"humidity":97,"rain":0.4,"pressure":886.7,"uv_index":9.0,"wind_gusts":38.5,"aqi":43,"pm10":7.1,"pm2_5":6.6,"no2":2.5,"co":137.0,"o3":64.0,"so2":0.5,"mosquito_risk":6,"arthritis_risk":5,"migraine_risk":7,"frizz_risk":1,"updated_at":"2026-07-15T16:22:40.399480+05:30"},{"city":"Kohima","state":"Nagaland","latitude":25.6701,"longitude":94.1077,"temp":24.0,"humidity":94,"rain":0.1,"pressure":850.6,"uv_index":7.25,"wind_gusts":26.6,"aqi":51,"pm10":5.4,"pm2_5":4.9,"no2":1.9,"co":164.0,"o3":84.0,"so2":0.8,"mosquito_risk":6,"arthritis_risk":5,"migraine_risk":7,"frizz_risk":1,"updated_at":"2026-07-15T16:22:40.399487+05:30"},{"city":"Gangtok","state":"Sikkim","latitude":27.3314,"longitude":88.6138,"temp":23.0,"humidity":77,"rain":0.0,"pressure":834.4,"uv_index":7.8,"wind_gusts":32.0,"aqi":46,"pm10":4.0,"pm2_5":3.8,"no2":3.4,"co":226.0,"o3":98.0,"so2":1.0,"mosquito_risk":3,"arthritis_risk":5,"migraine_risk":7,"frizz_risk":1,"updated_at":"2026-07-15T16:22:40.399494+05:30"},{"city":"Siliguri","state":"West Bengal","latitude":26.7271,"longitude":88.3953,"temp":30.6,"humidity":81,"rain":0.0,"pressure":984.4,"uv_index":6.95,"wind_gusts":22.0,"aqi":74,"pm10":18.4,"pm2_5":17.3,"no2":3.7,"co":460.0,"o3":127.0,"so2":2.3,"mosquito_risk":3,"arthritis_risk":5,"migraine_risk":7,"frizz_risk":1,"updated_at":"2026-07-15T16:22:43.647933+05:30"},{"city":"Durgapur","state":"West Bengal","latitude":23.5204,"longitude":87.3119,"temp":30.8,"humidity":79,"rain":0.0,"pressure":985.9,"uv_index":9.0,"wind_gusts":31.0,"aqi":155,"pm10":31.1,"pm2_5":29.3,"no2":10.2,"co":282.0,"o3":142.0,"so2":31.7,"mosquito_risk":3,"arthritis_risk":5,"migraine_risk":7,"frizz_risk":1,"updated_at":"2026-07-15T16:22:43.647966+05:30"},{"city":"Asansol","state":"West Bengal","latitude":23.6739,"longitude":86.9524,"temp":29.3,"humidity":86,"rain":0.1,"pressure":985.2,"uv_index":8.15,"wind_gusts":28.4,"aqi":156,"pm10":42.6,"pm2_5":40.3,"no2":9.6,"co":288.0,"o3":164.0,"so2":33.0,"mosquito_risk":10,"arthritis_risk":5,"migraine_risk":7,"frizz_risk":1,"updated_at":"2026-07-15T16:22:43.647980+05:30"},{"city":"Pondicherry","state":"Puducherry","latitude":11.9139,"longitude":79.8145,"temp":34.8,"humidity":56,"rain":0.0,"pressure":1003.8,"uv_index":7.9,"wind_gusts":51.1,"aqi":85,"pm10":47.6,"pm2_5":31.4,"no2":10.0,"co":200.0,"o3":181.0,"so2":7.6,"mosquito_risk":0,"arthritis_risk":5,"migraine_risk":4,"frizz_risk":1,"updated_at":"2026-07-15T16:22:43.647990+05:30"},{"city":"Port Blair","state":"Andaman and Nicobar Islands","latitude":11.6234,"longitude":92.7265,"temp":26.1,"humidity":96,"rain":0.2,"pressure":1005.1,"uv_index":8.4,"wind_gusts":55.8,"aqi":44,"pm10":21.0,"pm2_5":9.1,"no2":0.4,"co":97.0,"o3":48.0,"so2":0.4,"mosquito_risk":10,"arthritis_risk":5,"migraine_risk":4,"frizz_risk":1,"updated_at":"2026-07-15T16:22:43.647999+05:30"},{"city":"Haridwar","state":"Uttarakhand","latitude":29.9457,"longitude":78.1642,"temp":33.5,"humidity":62,"rain":0.0,"pressure":967.1,"uv_index":7.5,"wind_gusts":24.5,"aqi":169,"pm10":115.5,"pm2_5":71.9,"no2":2.0,"co":440.0,"o3":208.0,"so2":14.1,"mosquito_risk":3,"arthritis_risk":5,"migraine_risk":7,"frizz_risk":1,"updated_at":"2026-07-15T16:22:43.648008+05:30"},{"city":"Rishikesh","state":"Uttarakhand","latitude":30.0869,"longitude":78.2676,"temp":32.4,"humidity":65,"rain":0.0,"pressure":960.1,"uv_index":7.6,"wind_gusts":23.8,"aqi":159,"pm10":96.6,"pm2_5":54.8,"no2":1.4,"co":362.0,"o3":183.0,"so2":10.0,"mosquito_risk":3,"arthritis_risk":5,"migraine_risk":7,"frizz_risk":1,"updated_at":"2026-07-15T16:22:43.648018+05:30"},{"city":"Nainital","state":"Uttarakhand","latitude":29.3919,"longitude":79.4542,"temp":21.4,"humidity":86,"rain":0.1,"pressure":804.0,"uv_index":7.55,"wind_gusts":25.6,"aqi":163,"pm10":95.2,"pm2_5":51.0,"no2":1.9,"co":260.0,"o3":181.0,"so2":11.9,"mosquito_risk":6,"arthritis_risk":5,"migraine_risk":7,"frizz_risk":1,"updated_at":"2026-07-15T16:22:43.648026+05:30"},{"city":"Mussoorie","state":"Uttarakhand","latitude":30.4599,"longitude":78.0664,"temp":21.7,"humidity":81,"rain":0.0,"pressure":801.6,"uv_index":7.3,"wind_gusts":35.3,"aqi":153,"pm10":88.9,"pm2_5":54.6,"no2":1.4,"co":309.0,"o3":195.0,"so2":9.4,"mosquito_risk":3,"arthritis_risk":5,"migraine_risk":7,"frizz_risk":1,"updated_at":"2026-07-15T16:22:43.648033+05:30"},{"city":"Dharamshala","state":"Himachal Pradesh","latitude":32.219,"longitude":76.3234,"temp":26.2,"humidity":64,"rain":0.0,"pressure":866.9,"uv_index":8.4,"wind_gusts":34.2,"aqi":101,"pm10":41.4,"pm2_5":22.3,"no2":0.5,"co":294.0,"o3":150.0,"so2":1.8,"mosquito_risk":7,"arthritis_risk":5,"migraine_risk":7,"frizz_risk":1,"updated_at":"2026-07-15T16:22:43.648040+05:30"},{"city":"Dalhousie","state":"Himachal Pradesh","latitude":32.5387,"longitude":75.971,"temp":22.4,"humidity":73,"rain":0.0,"pressure":804.3,"uv_index":8.55,"wind_gusts":29.5,"aqi":152,"pm10":57.7,"pm2_5":34.7,"no2":1.2,"co":287.0,"o3":177.0,"so2":3.0,"mosquito_risk":3,"arthritis_risk":5,"migraine_risk":7,"frizz_risk":1,"updated_at":"2026-07-15T16:22:43.648048+05:30"},{"city":"Patiala","state":"Punjab","latitude":30.3398,"longitude":76.3869,"temp":34.8,"humidity":52,"rain":0.0,"pressure":971.3,"uv_index":7.6,"wind_gusts":25.2,"aqi":193,"pm10":268.2,"pm2_5":84.8,"no2":2.9,"co":368.0,"o3":167.0,"so2":6.7,"mosquito_risk":0,"arthritis_risk":5,"migraine_risk":7,"frizz_risk":1,"updated_at":"2026-07-15T16:22:43.648056+05:30"},{"city":"Bhatinda","state":"Punjab","latitude":30.211,"longitude":74.9455,"temp":38.0,"humidity":36,"rain":0.0,"pressure":976.8,"uv_index":8.25,"wind_gusts":28.1,"aqi":173,"pm10":247.7,"pm2_5":77.3,"no2":2.0,"co":164.0,"o3":133.0,"so2":9.1,"mosquito_risk":0,"arthritis_risk":5,"migraine_risk":10,"frizz_risk":1,"updated_at":"2026-07-15T16:22:43.648062+05:30"},{"city":"Rohtak","state":"Haryana","latitude":28.8955,"longitude":76.6066,"temp":36.2,"humidity":44,"rain":0.0,"pressure":974.8,"uv_index":7.65,"wind_gusts":33.1,"aqi":295,"pm10":1221.9,"pm2_5":184.9,"no2":4.0,"co":176.0,"o3":114.0,"so2":5.0,"mosquito_risk":0,"arthritis_risk":5,"migraine_risk":10,"frizz_risk":1,"updated_at":"2026-07-15T16:22:43.648069+05:30"},{"city":"Panipat","state":"Haryana","latitude":29.3909,"longitude":76.9635,"temp":34.9,"humidity":55,"rain":0.0,"pressure":973.4,"uv_index":7.55,"wind_gusts":25.9,"aqi":482,"pm10":2235.2,"pm2_5":274.7,"no2":3.8,"co":221.0,"o3":125.0,"so2":11.3,"mosquito_risk":0,"arthritis_risk":5,"migraine_risk":7,"frizz_risk":1,"updated_at":"2026-07-15T16:22:43.648076+05:30"},{"city":"Mathura","state":"Uttar Pradesh","latitude":27.4924,"longitude":77.6737,"temp":34.2,"humidity":55,"rain":0.0,"pressure":980.2,"uv_index":7.85,"wind_gusts":38.2,"aqi":158,"pm10":1050.5,"pm2_5":144.8,"no2":3.2,"co":173.0,"o3":119.0,"so2":3.1,"mosquito_risk":0,"arthritis_risk":5,"migraine_risk":7,"frizz_risk":1,"updated_at":"2026-07-15T16:22:43.648082+05:30"},{"city":"Vrindavan","state":"Uttar Pradesh","latitude":27.5823,"longitude":77.7027,"temp":34.2,"humidity":55,"rain":0.0,"pressure":980.7,"uv_index":7.9,"wind_gusts":31.0,"aqi":158,"pm10":1050.5,"pm2_5":144.8,"no2":3.2,"co":180.0,"o3":119.0,"so2":3.1,"mosquito_risk":0,"arthritis_risk":5,"migraine_risk":7,"frizz_risk":1,"updated_at":"2026-07-15T16:22:43.648088+05:30"},{"city":"Ayodhya","state":"Uttar Pradesh","latitude":26.7922,"longitude":82.1998,"temp":33.1,"humidity":67,"rain":0.0,"pressure":987.5,"uv_index":6.55,"wind_gusts":20.5,"aqi":185,"pm10":189.5,"pm2_5":82.7,"no2":3.1,"co":386.0,"o3":159.0,"so2":6.3,"mosquito_risk":3,"arthritis_risk":5,"migraine_risk":7,"frizz_risk":1,"updated_at":"2026-07-15T16:22:43.648095+05:30"},{"city":"Ratlam","state":"Madhya Pradesh","latitude":23.3315,"longitude":75.0367,"temp":31.4,"humidity":53,"rain":0.0,"pressure":950.9,"uv_index":7.3,"wind_gusts":37.4,"aqi":67,"pm10":51.0,"pm2_5":19.0,"no2":1.0,"co":119.0,"o3":89.0,"so2":3.0,"mosquito_risk":0,"arthritis_risk":5,"migraine_risk":7,"frizz_risk":1,"updated_at":"2026-07-15T16:22:43.648102+05:30"},{"city":"Sagar","state":"Madhya Pradesh","latitude":23.8388,"longitude":78.7378,"temp":30.2,"humidity":63,"rain":0.1,"pressure":945.3,"uv_index":7.05,"wind_gusts":40.0,"aqi":103,"pm10":118.5,"pm2_5":40.5,"no2":1.6,"co":128.0,"o3":93.0,"so2":3.2,"mosquito_risk":6,"arthritis_risk":5,"migraine_risk":7,"frizz_risk":1,"updated_at":"2026-07-15T16:22:43.648108+05:30"},{"city":"Satna","state":"Madhya Pradesh","latitude":24.6005,"longitude":80.8322,"temp":32.1,"humidity":60,"rain":0.1,"pressure":964.9,"uv_index":8.75,"wind_gusts":31.3,"aqi":129,"pm10":125.7,"pm2_5":47.6,"no2":1.6,"co":141.0,"o3":108.0,"so2":2.7,"mosquito_risk":3,"arthritis_risk":5,"migraine_risk":7,"frizz_risk":1,"updated_at":"2026-07-15T16:22:43.648115+05:30"},{"city":"Akola","state":"Maharashtra","latitude":20.7002,"longitude":77.0082,"temp":33.4,"humidity":49,"rain":0.0,"pressure":971.1,"uv_index":7.95,"wind_gusts":42.5,"aqi":69,"pm10":43.5,"pm2_5":18.5,"no2":1.6,"co":113.0,"o3":98.0,"so2":6.0,"mosquito_risk":0,"arthritis_risk":5,"migraine_risk":7,"frizz_risk":1,"updated_at":"2026-07-15T16:22:43.648122+05:30"},{"city":"Amravati","state":"Maharashtra","latitude":20.9374,"longitude":77.7796,"temp":31.4,"humidity":54,"rain":0.0,"pressure":963.3,"uv_index":7.4,"wind_gusts":41.4,"aqi":70,"pm10":53.2,"pm2_5":21.3,"no2":2.0,"co":119.0,"o3":97.0,"so2":7.1,"mosquito_risk":0,"arthritis_risk":5,"migraine_risk":7,"frizz_risk":1,"updated_at":"2026-07-15T16:22:43.648129+05:30"},{"city":"Latur","state":"Maharashtra","latitude":18.4088,"longitude":76.5604,"temp":27.0,"humidity":70,"rain":0.0,"pressure":937.6,"uv_index":8.95,"wind_gusts":41.4,"aqi":64,"pm10":28.8,"pm2_5":11.9,"no2":1.5,"co":119.0,"o3":70.0,"so2":1.3,"mosquito_risk":7,"arthritis_risk":5,"migraine_risk":7,"frizz_risk":1,"updated_at":"2026-07-15T16:22:43.648136+05:30"},{"city":"Nanded","state":"Maharashtra","latitude":19.1383,"longitude":77.3091,"temp":31.9,"humidity":50,"rain":0.0,"pressure":965.1,"uv_index":8.6,"wind_gusts":38.5,"aqi":77,"pm10":38.5,"pm2_5":16.9,"no2":1.2,"co":124.0,"o3":90.0,"so2":2.4,"mosquito_risk":0,"arthritis_risk":5,"migraine_risk":7,"frizz_risk":1,"updated_at":"2026-07-15T16:22:43.648143+05:30"},{"city":"Gulbarga","state":"Karnataka","latitude":17.3297,"longitude":76.8343,"temp":27.6,"humidity":64,"rain":0.1,"pressure":956.7,"uv_index":8.8,"wind_gusts":54.4,"aqi":63,"pm10":54.0,"pm2_5":19.3,"no2":2.3,"co":123.0,"o3":82.0,"so2":2.0,"mosquito_risk":10,"arthritis_risk":5,"migraine_risk":7,"frizz_risk":1,"updated_at":"2026-07-15T16:22:43.648149+05:30"},{"city":"Bidar","state":"Karnataka","latitude":17.9104,"longitude":77.5199,"temp":27.4,"humidity":62,"rain":0.1,"pressure":933.0,"uv_index":9.0,"wind_gusts":43.9,"aqi":77,"pm10":39.9,"pm2_5":17.0,"no2":2.0,"co":138.0,"o3":88.0,"so2":2.6,"mosquito_risk":10,"arthritis_risk":5,"migraine_risk":7,"frizz_risk":1,"updated_at":"2026-07-15T16:22:43.648156+05:30"},{"city":"Hospet","state":"Karnataka","latitude":15.2689,"longitude":76.3909,"temp":30.8,"humidity":50,"rain":0.1,"pressure":953.5,"uv_index":8.4,"wind_gusts":43.9,"aqi":57,"pm10":26.8,"pm2_5":12.6,"no2":1.8,"co":115.0,"o3":89.0,"so2":1.5,"mosquito_risk":3,"arthritis_risk":5,"migraine_risk":7,"frizz_risk":1,"updated_at":"2026-07-15T16:22:43.648162+05:30"},{"city":"Tirupur","state":"Tamil Nadu","latitude":11.1085,"longitude":77.3411,"temp":33.9,"humidity":41,"rain":0.0,"pressure":972.5,"uv_index":8.55,"wind_gusts":56.9,"aqi":67,"pm10":33.3,"pm2_5":16.0,"no2":2.1,"co":142.0,"o3":105.0,"so2":2.4,"mosquito_risk":0,"arthritis_risk":5,"migraine_risk":7,"frizz_risk":1,"updated_at":"2026-07-15T16:22:43.648168+05:30"},{"city":"Alappuzha","state":"Kerala","latitude":9.4981,"longitude":76.3388,"temp":28.9,"humidity":76,"rain":0.0,"pressure":1008.5,"uv_index":8.35,"wind_gusts":38.5,"aqi":64,"pm10":28.5,"pm2_5":16.2,"no2":2.7,"co":92.0,"o3":73.0,"so2":2.1,"mosquito_risk":7,"arthritis_risk":0,"migraine_risk":4,"frizz_risk":1,"updated_at":"2026-07-15T16:22:43.648174+05:30"},{"city":"Munnar","state":"Kerala","latitude":10.0889,"longitude":77.0595,"temp":20.3,"humidity":84,"rain":0.0,"pressure":857.0,"uv_index":8.45,"wind_gusts":36.4,"aqi":54,"pm10":28.5,"pm2_5":12.9,"no2":1.0,"co":106.0,"o3":79.0,"so2":1.3,"mosquito_risk":3,"arthritis_risk":5,"migraine_risk":7,"frizz_risk":1,"updated_at":"2026-07-15T16:22:43.648181+05:30"},{"city":"Silchar","state":"Assam","latitude":24.8333,"longitude":92.7789,"temp":29.1,"humidity":90,"rain":0.2,"pressure":997.1,"uv_index":8.85,"wind_gusts":23.0,"aqi":68,"pm10":16.9,"pm2_5":15.5,"no2":2.8,"co":188.0,"o3":113.0,"so2":3.6,"mosquito_risk":10,"arthritis_risk":5,"migraine_risk":7,"frizz_risk":1,"updated_at":"2026-07-15T16:22:43.648187+05:30"},{"city":"Dibrugarh","state":"Assam","latitude":27.4728,"longitude":94.912,"temp":33.0,"humidity":69,"rain":0.0,"pressure":985.6,"uv_index":7.65,"wind_gusts":22.0,"aqi":57,"pm10":7.1,"pm2_5":7.1,"no2":2.4,"co":204.0,"o3":99.0,"so2":1.2,"mosquito_risk":3,"arthritis_risk":5,"migraine_risk":7,"frizz_risk":1,"updated_at":"2026-07-15T16:22:43.648194+05:30"}]