[{"city":"Delhi","state":"Delhi","latitude":28.6139,"longitude":77.209,"temp":32.6,"humidity":47,"rain":0.0,"pressure":979.2,"uv_index":7.75,"wind_gusts":25.9,"aqi":313,"pm10":339.0,"pm2_5":95.2,"no2":5.5,"co":513.0,"o3":223.0,"so2":23.1,"mosquito_risk":0,"arthritis_risk":5,"migraine_risk":7,"frizz_risk":1,"updated_at":"2026-06-13T16:46:23.776210+05:30"},{"city":"Mumbai","state":"Maharashtra","latitude":19.076,"longitude":72.8777,"temp":32.1,"humidity":62,"rain":0.0,"pressure":1006.8,"uv_index":7.45,"wind_gusts":46.4,"aqi":77,"pm10":40.0,"pm2_5":20.1,"no2":5.2,"co":155.0,"o3":65.0,"so2":3.8,"mosquito_risk":3,"arthritis_risk":5,"migraine_risk":4,"frizz_risk":1,"updated_at":"2026-06-13T16:46:23.776255+05:30"},{"city":"Bangalore","state":"Karnataka","latitude":12.9716,"longitude":77.5946,"temp":28.8,"humidity":54,"rain":0.0,"pressure":910.7,"uv_index":8.7,"wind_gusts":38.9,"aqi":43,"pm10":23.6,"pm2_5":13.7,"no2":14.5,"co":367.0,"o3":80.0,"so2":3.3,"mosquito_risk":4,"arthritis_risk":5,"migraine_risk":7,"frizz_risk":1,"updated_at":"2026-06-13T16:46:23.776271+05:30"},{"city":"Hyderabad","state":"Telangana","latitude":17.385,"longitude":78.4867,"temp":33.1,"humidity":47,"rain":0.0,"pressure":950.0,"uv_index":5.85,"wind_gusts":38.2,"aqi":84,"pm10":61.5,"pm2_5":29.8,"no2":2.6,"co":225.0,"o3":122.0,"so2":4.0,"mosquito_risk":0,"arthritis_risk":5,"migraine_risk":3,"frizz_risk":1,"updated_at":"2026-06-13T16:46:23.776282+05:30"},{"city":"Chennai","state":"Tamil Nadu","latitude":13.0827,"longitude":80.2707,"temp":31.7,"humidity":67,"rain":0.1,"pressure":1003.4,"uv_index":5.65,"wind_gusts":37.8,"aqi":58,"pm10":28.3,"pm2_5":20.1,"no2":5.9,"co":294.0,"o3":141.0,"so2":7.6,"mosquito_risk":6,"arthritis_risk":5,"migraine_risk":0,"frizz_risk":1,"updated_at":"2026-06-13T16:46:23.776291+05:30"},{"city":"Kolkata","state":"West Bengal","latitude":22.5726,"longitude":88.3639,"temp":29.7,"humidity":81,"rain":0.0,"pressure":1000.6,"uv_index":8.9,"wind_gusts":33.8,"aqi":125,"pm10":36.2,"pm2_5":30.2,"no2":7.7,"co":537.0,"o3":113.0,"so2":7.4,"mosquito_risk":7,"arthritis_risk":5,"migraine_risk":4,"frizz_risk":1,"updated_at":"2026-06-13T16:46:23.776298+05:30"},{"city":"Pune","state":"Maharashtra","latitude":18.5204,"longitude":73.8567,"temp":31.3,"humidity":49,"rain":0.1,"pressure":946.6,"uv_index":8.15,"wind_gusts":52.6,"aqi":66,"pm10":35.6,"pm2_5":15.5,"no2":2.6,"co":140.0,"o3":85.0,"so2":3.5,"mosquito_risk":3,"arthritis_risk":5,"migraine_risk":7,"frizz_risk":1,"updated_at":"2026-06-13T16:46:23.776305+05:30"},{"city":"Ahmedabad","state":"Gujarat","latitude":23.0225,"longitude":72.5714,"temp":40.6,"humidity":29,"rain":0.0,"pressure":995.6,"uv_index":8.05,"wind_gusts":45.7,"aqi":72,"pm10":74.7,"pm2_5":25.8,"no2":1.9,"co":134.0,"o3":94.0,"so2":2.7,"mosquito_risk":0,"arthritis_risk":5,"migraine_risk":10,"frizz_risk":1,"updated_at":"2026-06-13T16:46:23.776316+05:30"},{"city":"Jaipur","state":"Rajasthan","latitude":26.9124,"longitude":75.7873,"temp":34.0,"humidity":41,"rain":0.0,"pressure":955.4,"uv_index":8.2,"wind_gusts":24.5,"aqi":116,"pm10":133.6,"pm2_5":38.6,"no2":1.0,"co":187.0,"o3":131.0,"so2":4.5,"mosquito_risk":0,"arthritis_risk":5,"migraine_risk":7,"frizz_risk":1,"updated_at":"2026-06-13T16:46:23.776329+05:30"},{"city":"Lucknow","state":"Uttar Pradesh","latitude":26.8467,"longitude":80.9462,"temp":31.5,"humidity":63,"rain":0.0,"pressure":988.3,"uv_index":8.25,"wind_gusts":32.4,"aqi":146,"pm10":85.2,"pm2_5":56.9,"no2":1.4,"co":295.0,"o3":168.0,"so2":7.5,"mosquito_risk":3,"arthritis_risk":5,"migraine_risk":7,"frizz_risk":1,"updated_at":"2026-06-13T16:46:23.776336+05:30"},{"city":"Kanpur","state":"Uttar Pradesh","latitude":26.4499,"longitude":80.3319,"temp":34.2,"humidity":53,"rain":0.0,"pressure":986.2,"uv_index":8.3,"wind_gusts":52.2,"aqi":155,"pm10":130.4,"pm2_5":57.7,"no2":1.7,"co":239.0,"o3":177.0,"so2":9.5,"mosquito_risk":0,"arthritis_risk":5,"migraine_risk":7,"frizz_risk":1,"updated_at":"2026-06-13T16:46:23.776342+05:30"},{"city":"Chandigarh","state":"Chandigarh","latitude":30.7333,"longitude":76.7794,"temp":30.6,"humidity":53,"rain":0.0,"pressure":966.0,"uv_index":7.75,"wind_gusts":49.7,"aqi":122,"pm10":106.9,"pm2_5":37.1,"no2":1.0,"co":275.0,"o3":164.0,"so2":6.6,"mosquito_risk":0,"arthritis_risk":5,"migraine_risk":7,"frizz_risk":1,"updated_at":"2026-06-13T16:46:23.776348+05:30"},{"city":"Srinagar","state":"Jammu and Kashmir","latitude":34.0837,"longitude":74.7973,"temp":18.8,"humidity":80,"rain":0.1,"pressure":841.7,"uv_index":6.8,"wind_gusts":24.1,"aqi":87,"pm10":16.1,"pm2_5":8.4,"no2":0.8,"co":226.0,"o3":139.0,"so2":1.7,"mosquito_risk":6,"arthritis_risk":5,"migraine_risk":7,"frizz_risk":0,"updated_at":"2026-06-13T16:46:23.776355+05:30"},{"city":"Jammu","state":"Jammu and Kashmir","latitude":32.7266,"longitude":74.857,"temp":31.1,"humidity":42,"rain":0.0,"pressure":970.9,"uv_index":7.95,"wind_gusts":45.0,"aqi":99,"pm10":64.5,"pm2_5":22.2,"no2":0.2,"co":252.0,"o3":147.0,"so2":1.2,"mosquito_risk":0,"arthritis_risk":5,"migraine_risk":7,"frizz_risk":1,"updated_at":"2026-06-13T16:46:23.776361+05:30"},{"city":"Amritsar","state":"Punjab","latitude":31.634,"longitude":74.8723,"temp":29.5,"humidity":58,"rain":0.0,"pressure":978.3,"uv_index":8.45,"wind_gusts":51.5,"aqi":132,"pm10":166.2,"pm2_5":38.4,"no2":1.0,"co":227.0,"o3":140.0,"so2":2.9,"mosquito_risk":4,"arthritis_risk":5,"migraine_risk":7,"frizz_risk":1,"updated_at":"2026-06-13T16:46:23.776367+05:30"},{"city":"Ludhiana","state":"Punjab","latitude":30.901,"longitude":75.8573,"temp":29.1,"humidity":64,"rain":0.0,"pressure":976.0,"uv_index":8.05,"wind_gusts":42.5,"aqi":153,"pm10":122.5,"pm2_5":44.0,"no2":0.7,"co":225.0,"o3":147.0,"so2":7.9,"mosquito_risk":7,"arthritis_risk":5,"migraine_risk":7,"frizz_risk":1,"updated_at":"2026-06-13T16:46:23.776374+05:30"},{"city":"Jalandhar","state":"Punjab","latitude":31.326,"longitude":75.5762,"temp":28.2,"humidity":60,"rain":0.0,"pressure":977.4,"uv_index":8.2,"wind_gusts":49.7,"aqi":119,"pm10":124.8,"pm2_5":37.8,"no2":0.2,"co":209.0,"o3":144.0,"so2":3.7,"mosquito_risk":4,"arthritis_risk":5,"migraine_risk":7,"frizz_risk":1,"updated_at":"2026-06-13T16:46:23.776380+05:30"},{"city":"Dehradun","state":"Uttarakhand","latitude":30.6284,"longitude":78.0322,"temp":22.0,"humidity":56,"rain":0.0,"pressure":830.9,"uv_index":7.7,"wind_gusts":30.6,"aqi":85,"pm10":41.2,"pm2_5":15.1,"no2":1.0,"co":180.0,"o3":134.0,"so2":1.7,"mosquito_risk":0,"arthritis_risk":5,"migraine_risk":7,"frizz_risk":0,"updated_at":"2026-06-13T16:46:23.776386+05:30"},{"city":"Shimla","state":"Himachal Pradesh","latitude":31.1048,"longitude":77.1734,"temp":18.2,"humidity":57,"rain":0.0,"pressure":785.1,"uv_index":7.35,"wind_gusts":27.7,"aqi":92,"pm10":61.9,"pm2_5":25.8,"no2":0.8,"co":285.0,"o3":152.0,"so2":3.6,"mosquito_risk":0,"arthritis_risk":5,"migraine_risk":7,"frizz_risk":0,"updated_at":"2026-06-13T16:46:23.776397+05:30"},{"city":"Manali","state":"Himachal Pradesh","latitude":32.2396,"longitude":77.1887,"temp":15.3,"humidity":93,"rain":0.2,"pressure":818.7,"uv_index":4.85,"wind_gusts":37.1,"aqi":119,"pm10":15.9,"pm2_5":9.2,"no2":5.2,"co":145.0,"o3":142.0,"so2":0.5,"mosquito_risk":6,"arthritis_risk":10,"migraine_risk":3,"frizz_risk":0,"updated_at":"2026-06-13T16:46:23.776404+05:30"},{"city":"Gurgaon","state":"Haryana","latitude":28.4595,"longitude":77.0266,"temp":33.7,"humidity":43,"rain":0.0,"pressure":977.5,"uv_index":7.85,"wind_gusts":27.7,"aqi":1234,"pm10":584.9,"pm2_5":129.0,"no2":5.1,"co":385.0,"o3":238.0,"so2":25.3,"mosquito_risk":0,"arthritis_risk":5,"migraine_risk":7,"frizz_risk":1,"updated_at":"2026-06-13T16:46:23.776410+05:30"},{"city":"Noida","state":"Uttar Pradesh","latitude":28.5355,"longitude":77.391,"temp":33.4,"humidity":48,"rain":0.0,"pressure":980.6,"uv_index":7.8,"wind_gusts":23.4,"aqi":1234,"pm10":584.9,"pm2_5":129.0,"no2":5.1,"co":414.0,"o3":238.0,"so2":25.3,"mosquito_risk":0,"arthritis_risk":5,"migraine_risk":7,"frizz_risk":1,"updated_at":"2026-06-13T16:46:23.776416+05:30"},{"city":"Ghaziabad","state":"Uttar Pradesh","latitude":28.6692,"longitude":77.4538,"temp":32.3,"humidity":56,"rain":0.0,"pressure":978.8,"uv_index":7.8,"wind_gusts":25.6,"aqi":156,"pm10":270.1,"pm2_5":79.6,"no2":3.0,"co":283.0,"o3":190.0,"so2":16.9,"mosquito_risk":0,"arthritis_risk":5,"migraine_risk":7,"frizz_risk":1,"updated_at":"2026-06-13T16:46:23.776422+05:30"},{"city":"Faridabad","state":"Haryana","latitude":28.4089,"longitude":77.3178,"temp":33.0,"humidity":46,"rain":0.0,"pressure":979.9,"uv_index":7.8,"wind_gusts":25.9,"aqi":1234,"pm10":584.9,"pm2_5":129.0,"no2":5.1,"co":352.0,"o3":238.0,"so2":25.3,"mosquito_risk":0,"arthritis_risk":5,"migraine_risk":7,"frizz_risk":1,"updated_at":"2026-06-13T16:46:23.776429+05:30"},{"city":"Meerut","state":"Uttar Pradesh","latitude":28.9845,"longitude":77.7064,"temp":28.0,"humidity":81,"rain":0.0,"pressure":978.0,"uv_index":7.7,"wind_gusts":37.8,"aqi":156,"pm10":270.1,"pm2_5":79.6,"no2":3.0,"co":256.0,"o3":190.0,"so2":16.9,"mosquito_risk":7,"arthritis_risk":5,"migraine_risk":7,"frizz_risk":1,"updated_at":"2026-06-13T16:46:23.776435+05:30"},{"city":"Agra","state":"Uttar Pradesh","latitude":27.1767,"longitude":78.0081,"temp":34.4,"humidity":46,"rain":0.0,"pressure":982.9,"uv_index":8.1,"wind_gusts":25.2,"aqi":692,"pm10":614.7,"pm2_5":108.0,"no2":1.8,"co":224.0,"o3":170.0,"so2":7.8,"mosquito_risk":0,"arthritis_risk":5,"migraine_risk":7,"frizz_risk":1,"updated_at":"2026-06-13T16:46:23.776441+05:30"},{"city":"Varanasi","state":"Uttar Pradesh","latitude":25.3176,"longitude":82.9739,"temp":35.3,"humidity":46,"rain":0.0,"pressure":991.3,"uv_index":7.75,"wind_gusts":38.5,"aqi":165,"pm10":85.4,"pm2_5":56.9,"no2":2.1,"co":316.0,"o3":181.0,"so2":10.7,"mosquito_risk":0,"arthritis_risk":5,"migraine_risk":10,"frizz_risk":1,"updated_at":"2026-06-13T16:46:23.776448+05:30"},{"city":"Prayagraj","state":"Uttar Pradesh","latitude":25.4358,"longitude":81.8463,"temp":34.9,"humidity":50,"rain":0.0,"pressure":989.9,"uv_index":8.75,"wind_gusts":46.8,"aqi":161,"pm10":88.0,"pm2_5":60.1,"no2":1.6,"co":319.0,"o3":196.0,"so2":11.8,"mosquito_risk":0,"arthritis_risk":5,"migraine_risk":7,"frizz_risk":1,"updated_at":"2026-06-13T16:46:23.776454+05:30"},{"city":"Gorakhpur","state":"Uttar Pradesh","latitude":26.7606,"longitude":83.3732,"temp":31.8,"humidity":62,"rain":0.0,"pressure":991.2,"uv_index":8.7,"wind_gusts":38.2,"aqi":148,"pm10":68.0,"pm2_5":43.7,"no2":2.2,"co":317.0,"o3":177.0,"so2":7.0,"mosquito_risk":3,"arthritis_risk":5,"migraine_risk":7,"frizz_risk":1,"updated_at":"2026-06-13T16:46:23.776463+05:30"},{"city":"Bareilly","state":"Uttar Pradesh","latitude":28.367,"longitude":79.4304,"temp":32.5,"humidity":58,"rain":0.0,"pressure":982.3,"uv_index":8.05,"wind_gusts":21.2,"aqi":146,"pm10":197.0,"pm2_5":63.8,"no2":2.1,"co":254.0,"o3":167.0,"so2":9.2,"mosquito_risk":0,"arthritis_risk":5,"migraine_risk":7,"frizz_risk":1,"updated_at":"2026-06-13T16:46:23.776469+05:30"},{"city":"Aligarh","state":"Uttar Pradesh","latitude":27.8974,"longitude":78.088,"temp":33.9,"humidity":46,"rain":0.0,"pressure":981.2,"uv_index":7.95,"wind_gusts":24.8,"aqi":412,"pm10":436.8,"pm2_5":93.4,"no2":1.5,"co":259.0,"o3":167.0,"so2":11.1,"mosquito_risk":0,"arthritis_risk":5,"migraine_risk":7,"frizz_risk":1,"updated_at":"2026-06-13T16:46:23.776476+05:30"},{"city":"Moradabad","state":"Uttar Pradesh","latitude":28.8386,"longitude":78.7733,"temp":32.6,"humidity":50,"rain":0.1,"pressure":979.9,"uv_index":7.95,"wind_gusts":30.2,"aqi":147,"pm10":154.1,"pm2_5":53.3,"no2":3.7,"co":275.0,"o3":179.0,"so2":13.9,"mosquito_risk":3,"arthritis_risk":5,"migraine_risk":7,"frizz_risk":1,"updated_at":"2026-06-13T16:46:23.776482+05:30"},{"city":"Saharanpur","state":"Uttar Pradesh","latitude":29.9637,"longitude":77.546,"temp":30.3,"humidity":60,"rain":0.0,"pressure":972.8,"uv_index":7.55,"wind_gusts":29.2,"aqi":151,"pm10":135.0,"pm2_5":45.2,"no2":0.5,"co":282.0,"o3":176.0,"so2":8.3,"mosquito_risk":0,"arthritis_risk":5,"migraine_risk":7,"frizz_risk":1,"updated_at":"2026-06-13T16:46:23.776487+05:30"},{"city":"Jhansi","state":"Uttar Pradesh","latitude":25.4484,"longitude":78.5685,"temp":36.9,"humidity":37,"rain":0.0,"pressure":972.5,"uv_index":8.5,"wind_gusts":29.9,"aqi":138,"pm10":123.9,"pm2_5":49.6,"no2":1.9,"co":151.0,"o3":136.0,"so2":9.7,"mosquito_risk":0,"arthritis_risk":5,"migraine_risk":10,"frizz_risk":1,"updated_at":"2026-06-13T16:46:26.999128+05:30"},{"city":"Surat","state":"Gujarat","latitude":21.1702,"longitude":72.8311,"temp":33.2,"humidity":59,"rain":0.0,"pressure":1003.4,"uv_index":7.6,"wind_gusts":56.5,"aqi":75,"pm10":48.1,"pm2_5":23.8,"no2":8.6,"co":173.0,"o3":52.0,"so2":23.3,"mosquito_risk":0,"arthritis_risk":5,"migraine_risk":4,"frizz_risk":1,"updated_at":"2026-06-13T16:46:26.999162+05:30"},{"city":"Vadodara","state":"Gujarat","latitude":22.3072,"longitude":73.1812,"temp":36.6,"humidity":43,"rain":0.0,"pressure":999.0,"uv_index":8.0,"wind_gusts":50.8,"aqi":70,"pm10":66.1,"pm2_5":24.3,"no2":2.0,"co":142.0,"o3":98.0,"so2":3.2,"mosquito_risk":0,"arthritis_risk":5,"migraine_risk":10,"frizz_risk":1,"updated_at":"2026-06-13T16:46:26.999173+05:30"},{"city":"Rajkot","state":"Gujarat","latitude":22.3039,"longitude":70.8022,"temp":38.5,"humidity":34,"rain":0.0,"pressure":989.4,"uv_index":7.55,"wind_gusts":51.5,"aqi":67,"pm10":55.3,"pm2_5":22.2,"no2":1.4,"co":106.0,"o3":85.0,"so2":4.2,"mosquito_risk":0,"arthritis_risk":5,"migraine_risk":10,"frizz_risk":1,"updated_at":"2026-06-13T16:46:26.999181+05:30"},{"city":"Thane","state":"Maharashtra","latitude":19.2183,"longitude":72.9781,"temp":33.4,"humidity":55,"rain":0.0,"pressure":1005.8,"uv_index":6.65,"wind_gusts":42.5,"aqi":77,"pm10":40.0,"pm2_5":20.1,"no2":5.2,"co":140.0,"o3":65.0,"so2":3.8,"mosquito_risk":0,"arthritis_risk":5,"migraine_risk":4,"frizz_risk":1,"updated_at":"2026-06-13T16:46:26.999189+05:30"},{"city":"Nagpur","state":"Maharashtra","latitude":21.1458,"longitude":79.0882,"temp":37.2,"humidity":33,"rain":0.0,"pressure":968.0,"uv_index":8.9,"wind_gusts":37.1,"aqi":107,"pm10":64.0,"pm2_5":30.6,"no2":4.2,"co":139.0,"o3":129.0,"so2":15.4,"mosquito_risk":0,"arthritis_risk":5,"migraine_risk":10,"frizz_risk":1,"updated_at":"2026-06-13T16:46:26.999197+05:30"},{"city":"Nashik","state":"Maharashtra","latitude":19.9975,"longitude":73.7898,"temp":32.0,"humidity":46,"rain":0.0,"pressure":943.6,"uv_index":8.05,"wind_gusts":51.1,"aqi":71,"pm10":52.0,"pm2_5":20.8,"no2":1.3,"co":137.0,"o3":75.0,"so2":1.2,"mosquito_risk":0,"arthritis_risk":5,"migraine_risk":7,"frizz_risk":1,"updated_at":"2026-06-13T16:46:26.999204+05:30"},{"city":"Aurangabad","state":"Maharashtra","latitude":19.8762,"longitude":75.3433,"temp":35.4,"humidity":31,"rain":0.0,"pressure":941.2,"uv_index":8.95,"wind_gusts":51.1,"aqi":80,"pm10":65.0,"pm2_5":22.0,"no2":1.3,"co":120.0,"o3":109.0,"so2":3.1,"mosquito_risk":0,"arthritis_risk":5,"migraine_risk":10,"frizz_risk":0,"updated_at":"2026-06-13T16:46:26.999212+05:30"},{"city":"Solapur","state":"Maharashtra","latitude":17.6599,"longitude":75.9064,"temp":37.0,"humidity":28,"rain":0.0,"pressure":953.8,"uv_index":8.0,"wind_gusts":44.6,"aqi":63,"pm10":61.9,"pm2_5":20.8,"no2":1.3,"co":120.0,"o3":108.0,"so2":1.8,"mosquito_risk":0,"arthritis_risk":5,"migraine_risk":10,"frizz_risk":0,"updated_at":"2026-06-13T16:46:26.999220+05:30"},{"city":"Kolhapur","state":"Maharashtra","latitude":16.705,"longitude":74.2433,"temp":28.6,"humidity":65,"rain":0.0,"pressure":947.2,"uv_index":5.95,"wind_gusts":50.4,"aqi":54,"pm10":23.0,"pm2_5":12.0,"no2":2.3,"co":125.0,"o3":77.0,"so2":1.6,"mosquito_risk":7,"arthritis_risk":5,"migraine_risk":3,"frizz_risk":1,"updated_at":"2026-06-13T16:46:26.999228+05:30"},{"city":"Goa","state":"Goa","latitude":15.2993,"longitude":74.124,"temp":29.9,"humidity":72,"rain":0.0,"pressure":997.4,"uv_index":5.65,"wind_gusts":29.2,"aqi":67,"pm10":27.5,"pm2_5":12.3,"no2":0.8,"co":119.0,"o3":60.0,"so2":1.0,"mosquito_risk":7,"arthritis_risk":5,"migraine_risk":3,"frizz_risk":1,"updated_at":"2026-06-13T16:46:26.999236+05:30"},{"city":"Jodhpur","state":"Rajasthan","latitude":26.2389,"longitude":73.0243,"temp":38.3,"humidity":33,"rain":0.0,"pressure":977.2,"uv_index":8.4,"wind_gusts":41.8,"aqi":140,"pm10":326.9,"pm2_5":57.2,"no2":0.6,"co":107.0,"o3":93.0,"so2":1.7,"mosquito_risk":0,"arthritis_risk":5,"migraine_risk":10,"frizz_risk":1,"updated_at":"2026-06-13T16:46:26.999243+05:30"},{"city":"Udaipur","state":"Rajasthan","latitude":24.5854,"longitude":73.7125,"temp":35.2,"humidity":36,"rain":0.0,"pressure":942.5,"uv_index":8.85,"wind_gusts":38.5,"aqi":73,"pm10":71.7,"pm2_5":24.3,"no2":0.6,"co":113.0,"o3":92.0,"so2":2.2,"mosquito_risk":0,"arthritis_risk":5,"migraine_risk":10,"frizz_risk":1,"updated_at":"2026-06-13T16:46:26.999250+05:30"},{"city":"Kota","state":"Rajasthan","latitude":25.2138,"longitude":75.8648,"temp":36.7,"humidity":40,"rain":0.0,"pressure":973.0,"uv_index":8.35,"wind_gusts":50.0,"aqi":91,"pm10":87.8,"pm2_5":32.8,"no2":1.6,"co":146.0,"o3":111.0,"so2":4.8,"mosquito_risk":0,"arthritis_risk":5,"migraine_risk":10,"frizz_risk":1,"updated_at":"2026-06-13T16:46:26.999257+05:30"},{"city":"Bikaner","state":"Rajasthan","latitude":28.0229,"longitude":73.3119,"temp":39.1,"humidity":28,"rain":0.0,"pressure":975.8,"uv_index":8.45,"wind_gusts":49.7,"aqi":143,"pm10":318.5,"pm2_5":81.0,"no2":0.2,"co":128.0,"o3":99.0,"so2":2.5,"mosquito_risk":0,"arthritis_risk":5,"migraine_risk":10,"frizz_risk":1,"updated_at":"2026-06-13T16:46:26.999264+05:30"},{"city":"Ajmer","state":"Rajasthan","latitude":26.4499,"longitude":74.6399,"temp":34.7,"humidity":39,"rain":0.1,"pressure":950.1,"uv_index":8.35,"wind_gusts":49.7,"aqi":92,"pm10":168.1,"pm2_5":41.4,"no2":0.6,"co":121.0,"o3":106.0,"so2":2.2,"mosquito_risk":3,"arthritis_risk":5,"migraine_risk":7,"frizz_risk":1,"updated_at":"2026-06-13T16:46:26.999270+05:30"},{"city":"Gwalior","state":"Madhya Pradesh","latitude":26.2183,"longitude":78.1828,"temp":34.7,"humidity":47,"rain":0.1,"pressure":977.9,"uv_index":8.3,"wind_gusts":20.9,"aqi":159,"pm10":141.6,"pm2_5":53.2,"no2":0.5,"co":179.0,"o3":134.0,"so2":5.1,"mosquito_risk":3,"arthritis_risk":5,"migraine_risk":7,"frizz_risk":1,"updated_at":"2026-06-13T16:46:26.999277+05:30"},{"city":"Indore","state":"Madhya Pradesh","latitude":22.7196,"longitude":75.8577,"temp":37.1,"humidity":27,"rain":0.0,"pressure":944.0,"uv_index":8.65,"wind_gusts":45.7,"aqi":79,"pm10":89.6,"pm2_5":28.3,"no2":1.5,"co":158.0,"o3":107.0,"so2":3.5,"mosquito_risk":0,"arthritis_risk":5,"migraine_risk":10,"frizz_risk":0,"updated_at":"2026-06-13T16:46:26.999283+05:30"},{"city":"Bhopal","state":"Madhya Pradesh","latitude":23.2599,"longitude":77.4126,"temp":35.3,"humidity":38,"rain":0.0,"pressure":948.9,"uv_index":8.7,"wind_gusts":37.1,"aqi":98,"pm10":102.9,"pm2_5":32.4,"no2":0.3,"co":340.0,"o3":105.0,"so2":3.4,"mosquito_risk":0,"arthritis_risk":5,"migraine_risk":10,"frizz_risk":1,"updated_at":"2026-06-13T16:46:26.999290+05:30"},{"city":"Jabalpur","state":"Madhya Pradesh","latitude":23.1815,"longitude":79.9864,"temp":34.1,"humidity":49,"rain":0.0,"pressure":956.5,"uv_index":8.85,"wind_gusts":47.2,"aqi":101,"pm10":102.4,"pm2_5":38.5,"no2":0.7,"co":154.0,"o3":119.0,"so2":3.2,"mosquito_risk":0,"arthritis_risk":5,"migraine_risk":7,"frizz_risk":1,"updated_at":"2026-06-13T16:46:26.999295+05:30"},{"city":"Ujjain","state":"Madhya Pradesh","latitude":23.1765,"longitude":75.7885,"temp":36.8,"humidity":31,"rain":0.0,"pressure":949.3,"uv_index":8.6,"wind_gusts":43.6,"aqi":77,"pm10":87.5,"pm2_5":27.9,"no2":0.8,"co":132.0,"o3":102.0,"so2":2.9,"mosquito_risk":0,"arthritis_risk":5,"migraine_risk":10,"frizz_risk":1,"updated_at":"2026-06-13T16:46:26.999302+05:30"},{"city":"Visakhapatnam","state":"Andhra Pradesh","latitude":17.6868,"longitude":83.2185,"temp":33.9,"humidity":59,"rain":0.0,"pressure":998.0,"uv_index":9.05,"wind_gusts":44.3,"aqi":112,"pm10":37.4,"pm2_5":28.4,"no2":13.2,"co":305.0,"o3":138.0,"so2":34.3,"mosquito_risk":0,"arthritis_risk":5,"migraine_risk":7,"frizz_risk":1,"updated_at":"2026-06-13T16:46:26.999308+05:30"},{"city":"Vijayawada","state":"Andhra Pradesh","latitude":16.5062,"longitude":80.648,"temp":35.3,"humidity":49,"rain":0.0,"pressure":997.7,"uv_index":4.65,"wind_gusts":33.5,"aqi":79,"pm10":50.3,"pm2_5":32.4,"no2":6.1,"co":168.0,"o3":116.0,"so2":6.5,"mosquito_risk":0,"arthritis_risk":5,"migraine_risk":6,"frizz_risk":1,"updated_at":"2026-06-13T16:46:26.999315+05:30"},{"city":"Guntur","state":"Andhra Pradesh","latitude":16.3067,"longitude":80.4365,"temp":35.3,"humidity":46,"rain":0.0,"pressure":999.0,"uv_index":2.55,"wind_gusts":33.1,"aqi":81,"pm10":55.2,"pm2_5":32.8,"no2":5.1,"co":170.0,"o3":111.0,"so2":5.3,"mosquito_risk":0,"arthritis_risk":5,"migraine_risk":6,"frizz_risk":1,"updated_at":"2026-06-13T16:46:26.999321+05:30"},{"city":"Nellore","state":"Andhra Pradesh","latitude":14.4426,"longitude":79.9865,"temp":35.6,"humidity":44,"rain":0.0,"pressure":1001.3,"uv_index":7.7,"wind_gusts":40.3,"aqi":55,"pm10":36.9,"pm2_5":21.7,"no2":4.3,"co":139.0,"o3":118.0,"so2":7.4,"mosquito_risk":0,"arthritis_risk":5,"migraine_risk":7,"frizz_risk":1,"updated_at":"2026-06-13T16:46:26.999329+05:30"},{"city":"Kurnool","state":"Andhra Pradesh","latitude":15.8281,"longitude":78.0373,"temp":34.8,"humidity":44,"rain":0.0,"pressure":973.3,"uv_index":2.85,"wind_gusts":33.8,"aqi":73,"pm10":53.1,"pm2_5":24.3,"no2":0.8,"co":139.0,"o3":112.0,"so2":5.5,"mosquito_risk":0,"arthritis_risk":5,"migraine_risk":3,"frizz_risk":1,"updated_at":"2026-06-13T16:46:26.999336+05:30"},{"city":"Kakinada","state":"Andhra Pradesh","latitude":16.9891,"longitude":82.2475,"temp":34.6,"humidity":51,"rain":0.0,"pressure":1002.1,"uv_index":8.9,"wind_gusts":37.8,"aqi":79,"pm10":29.5,"pm2_5":21.1,"no2":4.0,"co":240.0,"o3":127.0,"so2":4.1,"mosquito_risk":0,"arthritis_risk":5,"migraine_risk":4,"frizz_risk":1,"updated_at":"2026-06-13T16:46:26.999343+05:30"},{"city":"Tirupati","state":"Andhra Pradesh","latitude":13.6288,"longitude":79.4192,"temp":32.3,"humidity":53,"rain":0.0,"pressure":987.2,"uv_index":8.35,"wind_gusts":27.4,"aqi":52,"pm10":30.9,"pm2_5":17.5,"no2":4.8,"co":144.0,"o3":101.0,"so2":2.8,"mosquito_risk":0,"arthritis_risk":5,"migraine_risk":7,"frizz_risk":1,"updated_at":"2026-06-13T16:46:26.999349+05:30"},{"city":"Warangal","state":"Telangana","latitude":17.9689,"longitude":79.5941,"temp":33.4,"humidity":54,"rain":0.0,"pressure":974.6,"uv_index":4.3,"wind_gusts":34.9,"aqi":100,"pm10":62.9,"pm2_5":33.5,"no2":2.5,"co":156.0,"o3":120.0,"so2":5.0,"mosquito_risk":0,"arthritis_risk":5,"migraine_risk":3,"frizz_risk":1,"updated_at":"2026-06-13T16:46:26.999355+05:30"},{"city":"Nizamabad","state":"Telangana","latitude":18.6725,"longitude":78.0941,"temp":35.9,"humidity":37,"rain":0.0,"pressure":960.7,"uv_index":4.15,"wind_gusts":39.6,"aqi":89,"pm10":63.6,"pm2_5":29.3,"no2":0.8,"co":139.0,"o3":123.0,"so2":4.5,"mosquito_risk":0,"arthritis_risk":5,"migraine_risk":6,"frizz_risk":1,"updated_at":"2026-06-13T16:46:26.999361+05:30"},{"city":"Mysore","state":"Karnataka","latitude":12.2958,"longitude":76.6396,"temp":24.9,"humidity":77,"rain":0.1,"pressure":927.6,"uv_index":7.6,"wind_gusts":38.5,"aqi":32,"pm10":15.1,"pm2_5":9.1,"no2":6.2,"co":164.0,"o3":78.0,"so2":1.6,"mosquito_risk":6,"arthritis_risk":5,"migraine_risk":7,"frizz_risk":1,"updated_at":"2026-06-13T16:46:26.999367+05:30"},{"city":"Mangalore","state":"Karnataka","latitude":12.9141,"longitude":74.856,"temp":28.3,"humidity":77,"rain":0.0,"pressure":1006.9,"uv_index":8.5,"wind_gusts":31.7,"aqi":47,"pm10":20.1,"pm2_5":9.2,"no2":1.0,"co":99.0,"o3":66.0,"so2":1.5,"mosquito_risk":7,"arthritis_risk":5,"migraine_risk":4,"frizz_risk":1,"updated_at":"2026-06-13T16:46:26.999373+05:30"},{"city":"Hubli-Dharwad","state":"Karnataka","latitude":15.3647,"longitude":75.124,"temp":28.2,"humidity":70,"rain":0.1,"pressure":939.7,"uv_index":7.5,"wind_gusts":46.4,"aqi":44,"pm10":21.8,"pm2_5":10.4,"no2":2.2,"co":128.0,"o3":70.0,"so2":1.1,"mosquito_risk":10,"arthritis_risk":5,"migraine_risk":7,"frizz_risk":1,"updated_at":"2026-06-13T16:46:26.999380+05:30"},{"city":"Belgaum","state":"Karnataka","latitude":15.8497,"longitude":74.4977,"temp":28.1,"humidity":64,"rain":0.0,"pressure":925.1,"uv_index":8.25,"wind_gusts":48.6,"aqi":47,"pm10":22.8,"pm2_5":10.7,"no2":1.9,"co":113.0,"o3":65.0,"so2":1.2,"mosquito_risk":7,"arthritis_risk":5,"migraine_risk":7,"frizz_risk":1,"updated_at":"2026-06-13T16:46:30.223895+05:30"},{"city":"Coimbatore","state":"Tamil Nadu","latitude":11.0168,"longitude":76.9558,"temp":28.4,"humidity":69,"rain":0.1,"pressure":960.7,"uv_index":8.9,"wind_gusts":46.4,"aqi":33,"pm10":15.9,"pm2_5":8.4,"no2":2.9,"co":171.0,"o3":77.0,"so2":1.4,"mosquito_risk":10,"arthritis_risk":5,"migraine_risk":7,"frizz_risk":1,"updated_at":"2026-06-13T16:46:30.223930+05:30"},{"city":"Madurai","state":"Tamil Nadu","latitude":9.9252,"longitude":78.1198,"temp":30.4,"humidity":65,"rain":0.1,"pressure":991.2,"uv_index":8.3,"wind_gusts":41.0,"aqi":58,"pm10":18.9,"pm2_5":9.5,"no2":2.1,"co":182.0,"o3":91.0,"so2":1.4,"mosquito_risk":6,"arthritis_risk":5,"migraine_risk":7,"frizz_risk":1,"updated_at":"2026-06-13T16:46:30.223941+05:30"},{"city":"Trichy","state":"Tamil Nadu","latitude":10.7905,"longitude":78.7047,"temp":35.7,"humidity":40,"rain":0.2,"pressure":996.6,"uv_index":8.25,"wind_gusts":55.4,"aqi":51,"pm10":11.2,"pm2_5":6.7,"no2":1.8,"co":131.0,"o3":93.0,"so2":1.5,"mosquito_risk":3,"arthritis_risk":5,"migraine_risk":10,"frizz_risk":1,"updated_at":"2026-06-13T16:46:30.223950+05:30"},{"city":"Salem","state":"Tamil Nadu","latitude":11.6643,"longitude":78.146,"temp":32.2,"humidity":51,"rain":0.0,"pressure":975.2,"uv_index":7.35,"wind_gusts":32.8,"aqi":56,"pm10":18.2,"pm2_5":10.9,"no2":4.8,"co":151.0,"o3":93.0,"so2":6.9,"mosquito_risk":0,"arthritis_risk":5,"migraine_risk":7,"frizz_risk":1,"updated_at":"2026-06-13T16:46:30.223958+05:30"},{"city":"Tirunelveli","state":"Tamil Nadu","latitude":8.7139,"longitude":77.7567,"temp":33.8,"humidity":45,"rain":0.0,"pressure":1001.8,"uv_index":7.85,"wind_gusts":41.4,"aqi":32,"pm10":19.5,"pm2_5":9.7,"no2":1.9,"co":111.0,"o3":75.0,"so2":1.0,"mosquito_risk":0,"arthritis_risk":5,"migraine_risk":4,"frizz_risk":1,"updated_at":"2026-06-13T16:46:30.223966+05:30"},{"city":"Vellore","state":"Tamil Nadu","latitude":12.9165,"longitude":79.1325,"temp":28.5,"humidity":84,"rain":0.3,"pressure":981.5,"uv_index":8.8,"wind_gusts":40.7,"aqi":51,"pm10":23.2,"pm2_5":14.7,"no2":2.8,"co":165.0,"o3":113.0,"so2":2.4,"mosquito_risk":10,"arthritis_risk":5,"migraine_risk":7,"frizz_risk":1,"updated_at":"2026-06-13T16:46:30.223973+05:30"},{"city":"Erode","state":"Tamil Nadu","latitude":11.341,"longitude":77.7172,"temp":32.7,"humidity":49,"rain":0.1,"pressure":987.0,"uv_index":8.05,"wind_gusts":39.6,"aqi":53,"pm10":14.6,"pm2_5":8.3,"no2":3.7,"co":158.0,"o3":90.0,"so2":1.1,"mosquito_risk":3,"arthritis_risk":5,"migraine_risk":7,"frizz_risk":1,"updated_at":"2026-06-13T16:46:30.223981+05:30"},{"city":"Kochi","state":"Kerala","latitude":9.9312,"longitude":76.2673,"temp":28.2,"humidity":79,"rain":0.0,"pressure":1009.3,"uv_index":7.5,"wind_gusts":33.5,"aqi":64,"pm10":32.9,"pm2_5":15.0,"no2":2.7,"co":136.0,"o3":69.0,"so2":1.9,"mosquito_risk":7,"arthritis_risk":0,"migraine_risk":4,"frizz_risk":1,"updated_at":"2026-06-13T16:46:30.223989+05:30"},{"city":"Thiruvananthapuram","state":"Kerala","latitude":8.5241,"longitude":76.9366,"temp":27.0,"humidity":83,"rain":0.1,"pressure":1009.0,"uv_index":6.7,"wind_gusts":40.7,"aqi":30,"pm10":12.9,"pm2_5":6.4,"no2":1.6,"co":107.0,"o3":68.0,"so2":0.7,"mosquito_risk":10,"arthritis_risk":0,"migraine_risk":4,"frizz_risk":1,"updated_at":"2026-06-13T16:46:30.223995+05:30"},{"city":"Kozhikode","state":"Kerala","latitude":11.2588,"longitude":75.7804,"temp":25.9,"humidity":91,"rain":0.0,"pressure":1008.7,"uv_index":8.3,"wind_gusts":31.3,"aqi":33,"pm10":20.2,"pm2_5":8.4,"no2":0.8,"co":111.0,"o3":72.0,"so2":0.8,"mosquito_risk":7,"arthritis_risk":0,"migraine_risk":4,"frizz_risk":1,"updated_at":"2026-06-13T16:46:30.224002+05:30"},{"city":"Thrissur","state":"Kerala","latitude":10.5276,"longitude":76.2144,"temp":27.4,"humidity":82,"rain":0.0,"pressure":1007.7,"uv_index":7.25,"wind_gusts":33.1,"aqi":65,"pm10":35.4,"pm2_5":15.1,"no2":1.6,"co":127.0,"o3":68.0,"so2":1.2,"mosquito_risk":7,"arthritis_risk":5,"migraine_risk":4,"frizz_risk":1,"updated_at":"2026-06-13T16:46:30.224010+05:30"},{"city":"Kannur","state":"Kerala","latitude":11.8745,"longitude":75.3704,"temp":25.8,"humidity":86,"rain":0.0,"pressure":1007.8,"uv_index":8.55,"wind_gusts":34.2,"aqi":41,"pm10":17.6,"pm2_5":8.2,"no2":0.7,"co":105.0,"o3":72.0,"so2":1.1,"mosquito_risk":7,"arthritis_risk":5,"migraine_risk":4,"frizz_risk":1,"updated_at":"2026-06-13T16:46:30.224017+05:30"},{"city":"Patna","state":"Bihar","latitude":25.5941,"longitude":85.1376,"temp":29.7,"humidity":78,"rain":0.0,"pressure":994.4,"uv_index":8.9,"wind_gusts":41.8,"aqi":188,"pm10":87.3,"pm2_5":64.7,"no2":5.6,"co":373.0,"o3":191.0,"so2":15.2,"mosquito_risk":7,"arthritis_risk":5,"migraine_risk":7,"frizz_risk":1,"updated_at":"2026-06-13T16:46:30.224023+05:30"},{"city":"Gaya","state":"Bihar","latitude":24.7914,"longitude":85.0002,"temp":28.4,"humidity":86,"rain":0.0,"pressure":988.4,"uv_index":8.95,"wind_gusts":63.4,"aqi":188,"pm10":86.4,"pm2_5":63.6,"no2":3.8,"co":250.0,"o3":182.0,"so2":12.9,"mosquito_risk":7,"arthritis_risk":5,"migraine_risk":7,"frizz_risk":1,"updated_at":"2026-06-13T16:46:30.224029+05:30"},{"city":"Muzaffarpur","state":"Bihar","latitude":26.1209,"longitude":85.3647,"temp":33.9,"humidity":56,"rain":0.0,"pressure":993.9,"uv_index":8.85,"wind_gusts":23.0,"aqi":188,"pm10":82.4,"pm2_5":63.3,"no2":4.5,"co":373.0,"o3":195.0,"so2":17.0,"mosquito_risk":0,"arthritis_risk":5,"migraine_risk":7,"frizz_risk":1,"updated_at":"2026-06-13T16:46:30.224036+05:30"},{"city":"Bhagalpur","state":"Bihar","latitude":25.2425,"longitude":87.0117,"temp":33.6,"humidity":59,"rain":0.0,"pressure":994.5,"uv_index":7.9,"wind_gusts":40.0,"aqi":188,"pm10":89.2,"pm2_5":67.5,"no2":6.0,"co":358.0,"o3":218.0,"so2":25.9,"mosquito_risk":0,"arthritis_risk":5,"migraine_risk":7,"frizz_risk":1,"updated_at":"2026-06-13T16:46:30.224042+05:30"},{"city":"Ranchi","state":"Jharkhand","latitude":23.3441,"longitude":85.3096,"temp":28.7,"humidity":63,"rain":0.0,"pressure":933.8,"uv_index":9.3,"wind_gusts":27.0,"aqi":149,"pm10":76.8,"pm2_5":53.7,"no2":4.4,"co":270.0,"o3":135.0,"so2":9.2,"mosquito_risk":7,"arthritis_risk":5,"migraine_risk":7,"frizz_risk":1,"updated_at":"2026-06-13T16:46:30.224048+05:30"},{"city":"Jamshedpur","state":"Jharkhand","latitude":22.8046,"longitude":86.2029,"temp":28.0,"humidity":87,"rain":0.1,"pressure":986.1,"uv_index":8.95,"wind_gusts":41.4,"aqi":175,"pm10":76.8,"pm2_5":60.8,"no2":6.1,"co":348.0,"o3":159.0,"so2":14.9,"mosquito_risk":10,"arthritis_risk":5,"migraine_risk":7,"frizz_risk":1,"updated_at":"2026-06-13T16:46:30.224055+05:30"},{"city":"Dhanbad","state":"Jharkhand","latitude":23.7957,"longitude":86.4304,"temp":30.5,"humidity":70,"rain":0.0,"pressure":974.5,"uv_index":9.0,"wind_gusts":32.4,"aqi":170,"pm10":101.0,"pm2_5":83.4,"no2":20.7,"co":232.0,"o3":189.0,"so2":64.9,"mosquito_risk":3,"arthritis_risk":5,"migraine_risk":7,"frizz_risk":1,"updated_at":"2026-06-13T16:46:30.224061+05:30"},{"city":"Bokaro","state":"Jharkhand","latitude":23.6693,"longitude":86.1511,"temp":31.1,"humidity":65,"rain":0.0,"pressure":978.3,"uv_index":9.0,"wind_gusts":29.5,"aqi":168,"pm10":86.1,"pm2_5":65.2,"no2":17.1,"co":302.0,"o3":155.0,"so2":53.5,"mosquito_risk":3,"arthritis_risk":5,"migraine_risk":7,"frizz_risk":1,"updated_at":"2026-06-13T16:46:30.224067+05:30"},{"city":"Bhubaneswar","state":"Odisha","latitude":20.2961,"longitude":85.8245,"temp":32.9,"humidity":64,"rain":0.0,"pressure":997.3,"uv_index":8.8,"wind_gusts":34.6,"aqi":128,"pm10":46.7,"pm2_5":36.0,"no2":5.7,"co":324.0,"o3":147.0,"so2":7.6,"mosquito_risk":3,"arthritis_risk":5,"migraine_risk":7,"frizz_risk":1,"updated_at":"2026-06-13T16:46:30.224074+05:30"},{"city":"Cuttack","state":"Odisha","latitude":20.4625,"longitude":85.8828,"temp":32.8,"humidity":66,"rain":0.0,"pressure":999.1,"uv_index":8.9,"wind_gusts":32.0,"aqi":128,"pm10":46.7,"pm2_5":36.0,"no2":5.7,"co":314.0,"o3":147.0,"so2":7.6,"mosquito_risk":3,"arthritis_risk":5,"migraine_risk":7,"frizz_risk":1,"updated_at":"2026-06-13T16:46:30.224080+05:30"},{"city":"Rourkela","state":"Odisha","latitude":22.2604,"longitude":84.8536,"temp":26.7,"humidity":98,"rain":0.2,"pressure":980.3,"uv_index":9.0,"wind_gusts":43.6,"aqi":152,"pm10":66.6,"pm2_5":49.5,"no2":4.2,"co":330.0,"o3":163.0,"so2":11.1,"mosquito_risk":10,"arthritis_risk":5,"migraine_risk":7,"frizz_risk":1,"updated_at":"2026-06-13T16:46:30.224086+05:30"},{"city":"Raipur","state":"Chhattisgarh","latitude":21.2514,"longitude":81.6296,"temp":34.6,"humidity":41,"rain":0.0,"pressure":969.7,"uv_index":9.0,"wind_gusts":49.0,"aqi":125,"pm10":100.4,"pm2_5":45.2,"no2":5.6,"co":222.0,"o3":145.0,"so2":21.5,"mosquito_risk":0,"arthritis_risk":5,"migraine_risk":7,"frizz_risk":1,"updated_at":"2026-06-13T16:46:30.224093+05:30"},{"city":"Bhilai","state":"Chhattisgarh","latitude":21.1938,"longitude":81.3509,"temp":34.9,"humidity":41,"rain":0.0,"pressure":969.8,"uv_index":8.95,"wind_gusts":42.5,"aqi":116,"pm10":103.1,"pm2_5":42.8,"no2":6.5,"co":549.0,"o3":132.0,"so2":18.9,"mosquito_risk":0,"arthritis_risk":5,"migraine_risk":7,"frizz_risk":1,"updated_at":"2026-06-13T16:46:30.224099+05:30"},{"city":"Guwahati","state":"Assam","latitude":26.1158,"longitude":91.7086,"temp":28.6,"humidity":82,"rain":0.0,"pressure":995.2,"uv_index":8.8,"wind_gusts":30.6,"aqi":83,"pm10":31.7,"pm2_5":23.5,"no2":3.9,"co":268.0,"o3":101.0,"so2":1.6,"mosquito_risk":7,"arthritis_risk":5,"migraine_risk":7,"frizz_risk":1,"updated_at":"2026-06-13T16:46:30.224105+05:30"},{"city":"Agartala","state":"Tripura","latitude":23.8315,"longitude":91.2868,"temp":27.5,"humidity":91,"rain":0.0,"pressure":1001.1,"uv_index":8.85,"wind_gusts":33.8,"aqi":87,"pm10":29.7,"pm2_5":20.5,"no2":8.1,"co":253.0,"o3":107.0,"so2":3.2,"mosquito_risk":7,"arthritis_risk":5,"migraine_risk":4,"frizz_risk":1,"updated_at":"2026-06-13T16:46:30.224112+05:30"},{"city":"Shillong","state":"Meghalaya","latitude":25.5788,"longitude":91.8933,"temp":21.2,"humidity":97,"rain":0.0,"pressure":853.8,"uv_index":6.75,"wind_gusts":19.1,"aqi":67,"pm10":15.1,"pm2_5":12.7,"no2":5.1,"co":250.0,"o3":107.0,"so2":1.6,"mosquito_risk":3,"arthritis_risk":5,"migraine_risk":7,"frizz_risk":1,"updated_at":"2026-06-13T16:46:30.224118+05:30"},{"city":"Imphal","state":"Manipur","latitude":24.817,"longitude":93.9368,"temp":25.6,"humidity":76,"rain":0.1,"pressure":918.7,"uv_index":7.9,"wind_gusts":27.0,"aqi":39,"pm10":5.3,"pm2_5":4.7,"no2":4.7,"co":203.0,"o3":84.0,"so2":1.7,"mosquito_risk":10,"arthritis_risk":5,"migraine_risk":7,"frizz_risk":1,"updated_at":"2026-06-13T16:46:30.224124+05:30"},{"city":"Aizawl","state":"Mizoram","latitude":23.7271,"longitude":92.7176,"temp":21.4,"humidity":90,"rain":0.0,"pressure":889.0,"uv_index":8.2,"wind_gusts":27.4,"aqi":43,"pm10":20.4,"pm2_5":11.7,"no2":2.2,"co":182.0,"o3":84.0,"so2":1.0,"mosquito_risk":3,"arthritis_risk":5,"migraine_risk":7,"frizz_risk":1,"updated_at":"2026-06-13T16:46:30.224131+05:30"},{"city":"Kohima","state":"Nagaland","latitude":25.6701,"longitude":94.1077,"temp":21.3,"humidity":94,"rain":0.1,"pressure":851.8,"uv_index":2.8,"wind_gusts":20.5,"aqi":33,"pm10":4.7,"pm2_5":4.2,"no2":3.9,"co":209.0,"o3":72.0,"so2":0.7,"mosquito_risk":6,"arthritis_risk":5,"migraine_risk":3,"frizz_risk":1,"updated_at":"2026-06-13T16:46:30.224137+05:30"},{"city":"Gangtok","state":"Sikkim","latitude":27.3314,"longitude":88.6138,"temp":20.9,"humidity":91,"rain":0.1,"pressure":834.8,"uv_index":9.1,"wind_gusts":37.8,"aqi":89,"pm10":28.0,"pm2_5":19.1,"no2":2.6,"co":279.0,"o3":133.0,"so2":1.1,"mosquito_risk":6,"arthritis_risk":5,"migraine_risk":7,"frizz_risk":1,"updated_at":"2026-06-13T16:46:30.224143+05:30"},{"city":"Siliguri","state":"West Bengal","latitude":26.7271,"longitude":88.3953,"temp":29.8,"humidity":77,"rain":0.0,"pressure":986.8,"uv_index":8.65,"wind_gusts":20.2,"aqi":150,"pm10":58.2,"pm2_5":39.2,"no2":5.9,"co":493.0,"o3":148.0,"so2":5.1,"mosquito_risk":7,"arthritis_risk":5,"migraine_risk":7,"frizz_risk":1,"updated_at":"2026-06-13T16:46:33.472332+05:30"},{"city":"Durgapur","state":"West Bengal","latitude":23.5204,"longitude":87.3119,"temp":30.4,"humidity":82,"rain":0.0,"pressure":989.4,"uv_index":8.85,"wind_gusts":25.9,"aqi":161,"pm10":75.4,"pm2_5":66.8,"no2":24.4,"co":735.0,"o3":169.0,"so2":52.8,"mosquito_risk":3,"arthritis_risk":5,"migraine_risk":7,"frizz_risk":1,"updated_at":"2026-06-13T16:46:33.472367+05:30"},{"city":"Asansol","state":"West Bengal","latitude":23.6739,"longitude":86.9524,"temp":30.4,"humidity":77,"rain":0.0,"pressure":988.1,"uv_index":8.85,"wind_gusts":40.7,"aqi":162,"pm10":96.6,"pm2_5":83.6,"no2":23.5,"co":422.0,"o3":185.0,"so2":51.0,"mosquito_risk":3,"arthritis_risk":5,"migraine_risk":7,"frizz_risk":1,"updated_at":"2026-06-13T16:46:33.472378+05:30"},{"city":"Pondicherry","state":"Puducherry","latitude":11.9139,"longitude":79.8145,"temp":31.3,"humidity":72,"rain":0.0,"pressure":1005.1,"uv_index":8.15,"wind_gusts":41.0,"aqi":53,"pm10":20.4,"pm2_5":16.1,"no2":7.6,"co":245.0,"o3":138.0,"so2":6.2,"mosquito_risk":3,"arthritis_risk":5,"migraine_risk":4,"frizz_risk":1,"updated_at":"2026-06-13T16:46:33.472388+05:30"},{"city":"Port Blair","state":"Andaman and Nicobar Islands","latitude":11.6234,"longitude":92.7265,"temp":27.2,"humidity":83,"rain":0.2,"pressure":1007.2,"uv_index":8.8,"wind_gusts":43.6,"aqi":21,"pm10":6.5,"pm2_5":3.9,"no2":0.5,"co":97.0,"o3":44.0,"so2":0.4,"mosquito_risk":10,"arthritis_risk":5,"migraine_risk":4,"frizz_risk":1,"updated_at":"2026-06-13T16:46:33.472396+05:30"},{"city":"Haridwar","state":"Uttarakhand","latitude":29.9457,"longitude":78.1642,"temp":31.1,"humidity":56,"rain":0.0,"pressure":971.1,"uv_index":7.6,"wind_gusts":29.5,"aqi":140,"pm10":92.2,"pm2_5":34.9,"no2":0.9,"co":254.0,"o3":177.0,"so2":5.4,"mosquito_risk":0,"arthritis_risk":5,"migraine_risk":7,"frizz_risk":1,"updated_at":"2026-06-13T16:46:33.472404+05:30"},{"city":"Rishikesh","state":"Uttarakhand","latitude":30.0869,"longitude":78.2676,"temp":30.2,"humidity":52,"rain":0.0,"pressure":963.9,"uv_index":7.7,"wind_gusts":20.5,"aqi":109,"pm10":57.4,"pm2_5":24.3,"no2":0.8,"co":213.0,"o3":166.0,"so2":3.9,"mosquito_risk":0,"arthritis_risk":5,"migraine_risk":7,"frizz_risk":1,"updated_at":"2026-06-13T16:46:33.472412+05:30"},{"city":"Nainital","state":"Uttarakhand","latitude":29.3919,"longitude":79.4542,"temp":16.9,"humidity":92,"rain":0.1,"pressure":804.2,"uv_index":8.55,"wind_gusts":22.7,"aqi":101,"pm10":101.5,"pm2_5":38.2,"no2":1.5,"co":233.0,"o3":157.0,"so2":6.4,"mosquito_risk":6,"arthritis_risk":10,"migraine_risk":7,"frizz_risk":0,"updated_at":"2026-06-13T16:46:33.472420+05:30"},{"city":"Mussoorie","state":"Uttarakhand","latitude":30.4599,"longitude":78.0664,"temp":18.6,"humidity":64,"rain":0.0,"pressure":803.0,"uv_index":7.95,"wind_gusts":25.9,"aqi":117,"pm10":49.0,"pm2_5":22.1,"no2":1.0,"co":174.0,"o3":169.0,"so2":4.4,"mosquito_risk":3,"arthritis_risk":5,"migraine_risk":7,"frizz_risk":0,"updated_at":"2026-06-13T16:46:33.472428+05:30"},{"city":"Dharamshala","state":"Himachal Pradesh","latitude":32.219,"longitude":76.3234,"temp":19.5,"humidity":94,"rain":0.1,"pressure":867.4,"uv_index":7.85,"wind_gusts":31.0,"aqi":73,"pm10":29.2,"pm2_5":9.3,"no2":1.6,"co":190.0,"o3":124.0,"so2":0.5,"mosquito_risk":6,"arthritis_risk":10,"migraine_risk":7,"frizz_risk":1,"updated_at":"2026-06-13T16:46:33.472435+05:30"},{"city":"Dalhousie","state":"Himachal Pradesh","latitude":32.5387,"longitude":75.971,"temp":15.3,"humidity":97,"rain":0.1,"pressure":803.2,"uv_index":7.95,"wind_gusts":26.3,"aqi":88,"pm10":45.6,"pm2_5":16.3,"no2":3.7,"co":348.0,"o3":128.0,"so2":0.7,"mosquito_risk":6,"arthritis_risk":10,"migraine_risk":7,"frizz_risk":0,"updated_at":"2026-06-13T16:46:33.472442+05:30"},{"city":"Patiala","state":"Punjab","latitude":30.3398,"longitude":76.3869,"temp":31.0,"humidity":58,"rain":0.0,"pressure":975.1,"uv_index":7.7,"wind_gusts":42.8,"aqi":536,"pm10":133.6,"pm2_5":44.0,"no2":1.2,"co":223.0,"o3":149.0,"so2":6.2,"mosquito_risk":0,"arthritis_risk":5,"migraine_risk":7,"frizz_risk":1,"updated_at":"2026-06-13T16:46:33.472450+05:30"},{"city":"Bhatinda","state":"Punjab","latitude":30.211,"longitude":74.9455,"temp":33.2,"humidity":48,"rain":0.0,"pressure":980.0,"uv_index":8.3,"wind_gusts":30.6,"aqi":940,"pm10":244.9,"pm2_5":72.4,"no2":2.5,"co":211.0,"o3":160.0,"so2":14.0,"mosquito_risk":0,"arthritis_risk":5,"migraine_risk":7,"frizz_risk":1,"updated_at":"2026-06-13T16:46:33.472456+05:30"},{"city":"Rohtak","state":"Haryana","latitude":28.8955,"longitude":76.6066,"temp":34.2,"humidity":39,"rain":0.0,"pressure":977.8,"uv_index":7.8,"wind_gusts":26.6,"aqi":824,"pm10":448.9,"pm2_5":104.8,"no2":0.9,"co":243.0,"o3":202.0,"so2":12.1,"mosquito_risk":0,"arthritis_risk":5,"migraine_risk":7,"frizz_risk":1,"updated_at":"2026-06-13T16:46:33.472463+05:30"},{"city":"Panipat","state":"Haryana","latitude":29.3909,"longitude":76.9635,"temp":31.4,"humidity":61,"rain":0.0,"pressure":977.0,"uv_index":7.65,"wind_gusts":33.1,"aqi":1335,"pm10":491.7,"pm2_5":107.8,"no2":3.0,"co":228.0,"o3":179.0,"so2":22.9,"mosquito_risk":3,"arthritis_risk":5,"migraine_risk":7,"frizz_risk":1,"updated_at":"2026-06-13T16:46:33.472470+05:30"},{"city":"Mathura","state":"Uttar Pradesh","latitude":27.4924,"longitude":77.6737,"temp":34.3,"humidity":43,"rain":0.0,"pressure":982.2,"uv_index":8.05,"wind_gusts":25.9,"aqi":682,"pm10":484.3,"pm2_5":96.4,"no2":0.5,"co":210.0,"o3":163.0,"so2":7.2,"mosquito_risk":0,"arthritis_risk":5,"migraine_risk":7,"frizz_risk":1,"updated_at":"2026-06-13T16:46:33.472477+05:30"},{"city":"Vrindavan","state":"Uttar Pradesh","latitude":27.5823,"longitude":77.7027,"temp":34.5,"humidity":44,"rain":0.0,"pressure":982.7,"uv_index":8.0,"wind_gusts":25.2,"aqi":682,"pm10":484.3,"pm2_5":96.4,"no2":0.5,"co":226.0,"o3":163.0,"so2":7.2,"mosquito_risk":0,"arthritis_risk":5,"migraine_risk":7,"frizz_risk":1,"updated_at":"2026-06-13T16:46:33.472484+05:30"},{"city":"Ayodhya","state":"Uttar Pradesh","latitude":26.7922,"longitude":82.1998,"temp":32.5,"humidity":59,"rain":0.0,"pressure":989.6,"uv_index":8.4,"wind_gusts":42.5,"aqi":149,"pm10":72.9,"pm2_5":49.2,"no2":2.9,"co":304.0,"o3":162.0,"so2":7.5,"mosquito_risk":0,"arthritis_risk":5,"migraine_risk":7,"frizz_risk":1,"updated_at":"2026-06-13T16:46:33.472490+05:30"},{"city":"Ratlam","state":"Madhya Pradesh","latitude":23.3315,"longitude":75.0367,"temp":35.5,"humidity":37,"rain":0.0,"pressure":950.6,"uv_index":8.5,"wind_gusts":42.5,"aqi":75,"pm10":80.8,"pm2_5":27.4,"no2":0.6,"co":124.0,"o3":103.0,"so2":3.0,"mosquito_risk":0,"arthritis_risk":5,"migraine_risk":10,"frizz_risk":1,"updated_at":"2026-06-13T16:46:33.472497+05:30"},{"city":"Sagar","state":"Madhya Pradesh","latitude":23.8388,"longitude":78.7378,"temp":25.7,"humidity":86,"rain":0.3,"pressure":945.7,"uv_index":8.15,"wind_gusts":53.6,"aqi":91,"pm10":52.9,"pm2_5":25.2,"no2":0.7,"co":162.0,"o3":118.0,"so2":3.0,"mosquito_risk":10,"arthritis_risk":5,"migraine_risk":7,"frizz_risk":1,"updated_at":"2026-06-13T16:46:33.472504+05:30"},{"city":"Satna","state":"Madhya Pradesh","latitude":24.6005,"longitude":80.8322,"temp":36.2,"humidity":35,"rain":0.0,"pressure":965.7,"uv_index":8.8,"wind_gusts":35.3,"aqi":109,"pm10":89.2,"pm2_5":42.7,"no2":0.4,"co":155.0,"o3":135.0,"so2":4.7,"mosquito_risk":0,"arthritis_risk":5,"migraine_risk":10,"frizz_risk":1,"updated_at":"2026-06-13T16:46:33.472511+05:30"},{"city":"Akola","state":"Maharashtra","latitude":20.7002,"longitude":77.0082,"temp":38.9,"humidity":28,"rain":0.0,"pressure":969.9,"uv_index":8.85,"wind_gusts":42.8,"aqi":81,"pm10":70.1,"pm2_5":25.7,"no2":1.7,"co":119.0,"o3":112.0,"so2":5.5,"mosquito_risk":0,"arthritis_risk":5,"migraine_risk":10,"frizz_risk":1,"updated_at":"2026-06-13T16:46:33.472518+05:30"},{"city":"Amravati","state":"Maharashtra","latitude":20.9374,"longitude":77.7796,"temp":37.9,"humidity":33,"rain":0.0,"pressure":962.3,"uv_index":8.85,"wind_gusts":40.7,"aqi":86,"pm10":71.0,"pm2_5":26.5,"no2":1.9,"co":121.0,"o3":112.0,"so2":6.0,"mosquito_risk":0,"arthritis_risk":5,"migraine_risk":10,"frizz_risk":1,"updated_at":"2026-06-13T16:46:33.472526+05:30"},{"city":"Latur","state":"Maharashtra","latitude":18.4088,"longitude":76.5604,"temp":35.5,"humidity":31,"rain":0.0,"pressure":936.8,"uv_index":8.85,"wind_gusts":35.6,"aqi":73,"pm10":66.4,"pm2_5":23.2,"no2":0.6,"co":123.0,"o3":105.0,"so2":2.2,"mosquito_risk":0,"arthritis_risk":5,"migraine_risk":10,"frizz_risk":0,"updated_at":"2026-06-13T16:46:33.472532+05:30"},{"city":"Nanded","state":"Maharashtra","latitude":19.1383,"longitude":77.3091,"temp":37.4,"humidity":34,"rain":0.0,"pressure":964.2,"uv_index":8.0,"wind_gusts":36.4,"aqi":88,"pm10":67.5,"pm2_5":27.5,"no2":0.7,"co":126.0,"o3":117.0,"so2":3.5,"mosquito_risk":0,"arthritis_risk":5,"migraine_risk":10,"frizz_risk":1,"updated_at":"2026-06-13T16:46:33.472539+05:30"},{"city":"Gulbarga","state":"Karnataka","latitude":17.3297,"longitude":76.8343,"temp":34.4,"humidity":38,"rain":0.0,"pressure":955.4,"uv_index":5.8,"wind_gusts":37.8,"aqi":65,"pm10":51.2,"pm2_5":19.6,"no2":0.9,"co":135.0,"o3":109.0,"so2":1.9,"mosquito_risk":0,"arthritis_risk":5,"migraine_risk":3,"frizz_risk":1,"updated_at":"2026-06-13T16:46:33.472545+05:30"},{"city":"Bidar","state":"Karnataka","latitude":17.9104,"longitude":77.5199,"temp":33.7,"humidity":42,"rain":0.0,"pressure":932.6,"uv_index":7.2,"wind_gusts":37.4,"aqi":80,"pm10":63.8,"pm2_5":27.7,"no2":0.8,"co":127.0,"o3":118.0,"so2":3.5,"mosquito_risk":0,"arthritis_risk":5,"migraine_risk":7,"frizz_risk":1,"updated_at":"2026-06-13T16:46:33.472552+05:30"},{"city":"Hospet","state":"Karnataka","latitude":15.2689,"longitude":76.3909,"temp":30.3,"humidity":57,"rain":0.0,"pressure":954.0,"uv_index":6.35,"wind_gusts":42.8,"aqi":46,"pm10":32.6,"pm2_5":14.1,"no2":3.2,"co":138.0,"o3":81.0,"so2":1.6,"mosquito_risk":0,"arthritis_risk":5,"migraine_risk":7,"frizz_risk":1,"updated_at":"2026-06-13T16:46:33.472558+05:30"},{"city":"Tirupur","state":"Tamil Nadu","latitude":11.1085,"longitude":77.3411,"temp":31.7,"humidity":53,"rain":0.0,"pressure":973.6,"uv_index":8.8,"wind_gusts":51.5,"aqi":54,"pm10":16.9,"pm2_5":9.4,"no2":3.0,"co":160.0,"o3":88.0,"so2":1.7,"mosquito_risk":0,"arthritis_risk":5,"migraine_risk":7,"frizz_risk":1,"updated_at":"2026-06-13T16:46:33.472565+05:30"},{"city":"Alappuzha","state":"Kerala","latitude":9.4981,"longitude":76.3388,"temp":28.7,"humidity":74,"rain":0.0,"pressure":1009.3,"uv_index":7.35,"wind_gusts":35.3,"aqi":53,"pm10":25.0,"pm2_5":11.7,"no2":2.6,"co":94.0,"o3":71.0,"so2":1.4,"mosquito_risk":7,"arthritis_risk":0,"migraine_risk":4,"frizz_risk":1,"updated_at":"2026-06-13T16:46:33.472587+05:30"},{"city":"Munnar","state":"Kerala","latitude":10.0889,"longitude":77.0595,"temp":17.8,"humidity":95,"rain":0.0,"pressure":856.7,"uv_index":7.2,"wind_gusts":39.2,"aqi":41,"pm10":13.2,"pm2_5":7.4,"no2":3.7,"co":108.0,"o3":66.0,"so2":1.0,"mosquito_risk":3,"arthritis_risk":10,"migraine_risk":7,"frizz_risk":1,"updated_at":"2026-06-13T16:46:33.472593+05:30"},{"city":"Silchar","state":"Assam","latitude":24.8333,"longitude":92.7789,"temp":28.6,"humidity":82,"rain":0.2,"pressure":999.7,"uv_index":8.6,"wind_gusts":24.8,"aqi":68,"pm10":16.5,"pm2_5":12.6,"no2":3.4,"co":218.0,"o3":102.0,"so2":2.9,"mosquito_risk":10,"arthritis_risk":5,"migraine_risk":7,"frizz_risk":1,"updated_at":"2026-06-13T16:46:33.472600+05:30"},{"city":"Dibrugarh","state":"Assam","latitude":27.4728,"longitude":94.912,"temp":28.2,"humidity":91,"rain":0.1,"pressure":988.8,"uv_index":7.3,"wind_gusts":25.6,"aqi":82,"pm10":13.9,"pm2_5":12.6,"no2":3.0,"co":255.0,"o3":102.0,"so2":1.1,"mosquito_risk":10,"arthritis_risk":5,"migraine_risk":7,"frizz_risk":1,"updated_at":"2026-06-13T16:46:33.472606+05:30"}]