[{"city":"Delhi","state":"Delhi","latitude":28.6139,"longitude":77.209,"temp":31.0,"humidity":29,"rain":0.0,"pressure":984.2,"uv_index":6.0,"wind_gusts":28.8,"aqi":382,"pm10":290.6,"pm2_5":60.1,"mosquito_risk":0,"arthritis_risk":5,"migraine_risk":3,"frizz_risk":0,"updated_at":"2026-03-13T14:15:55.121876+05:30"},{"city":"Mumbai","state":"Maharashtra","latitude":19.076,"longitude":72.8777,"temp":29.1,"humidity":71,"rain":0.0,"pressure":1007.1,"uv_index":7.65,"wind_gusts":26.6,"aqi":153,"pm10":68.9,"pm2_5":66.4,"mosquito_risk":7,"arthritis_risk":5,"migraine_risk":4,"frizz_risk":1,"updated_at":"2026-03-13T14:15:55.121918+05:30"},{"city":"Bangalore","state":"Karnataka","latitude":12.9716,"longitude":77.5946,"temp":32.6,"humidity":23,"rain":0.0,"pressure":912.1,"uv_index":9.3,"wind_gusts":28.4,"aqi":83,"pm10":43.5,"pm2_5":33.6,"mosquito_risk":0,"arthritis_risk":5,"migraine_risk":7,"frizz_risk":0,"updated_at":"2026-03-13T14:15:55.121933+05:30"},{"city":"Hyderabad","state":"Telangana","latitude":17.385,"longitude":78.4867,"temp":37.2,"humidity":14,"rain":0.0,"pressure":953.2,"uv_index":8.65,"wind_gusts":18.7,"aqi":101,"pm10":47.8,"pm2_5":32.5,"mosquito_risk":0,"arthritis_risk":5,"migraine_risk":10,"frizz_risk":0,"updated_at":"2026-03-13T14:15:55.121943+05:30"},{"city":"Chennai","state":"Tamil Nadu","latitude":13.0827,"longitude":80.2707,"temp":33.0,"humidity":50,"rain":0.0,"pressure":1007.5,"uv_index":9.05,"wind_gusts":30.6,"aqi":68,"pm10":18.5,"pm2_5":14.1,"mosquito_risk":0,"arthritis_risk":5,"migraine_risk":4,"frizz_risk":1,"updated_at":"2026-03-13T14:15:55.121953+05:30"},{"city":"Kolkata","state":"West Bengal","latitude":22.5726,"longitude":88.3639,"temp":34.0,"humidity":48,"rain":0.0,"pressure":1004.5,"uv_index":8.0,"wind_gusts":28.4,"aqi":142,"pm10":63.1,"pm2_5":43.4,"mosquito_risk":0,"arthritis_risk":5,"migraine_risk":4,"frizz_risk":1,"updated_at":"2026-03-13T14:15:55.121961+05:30"},{"city":"Pune","state":"Maharashtra","latitude":18.5204,"longitude":73.8567,"temp":38.4,"humidity":16,"rain":0.0,"pressure":948.2,"uv_index":8.2,"wind_gusts":26.6,"aqi":147,"pm10":24.7,"pm2_5":20.5,"mosquito_risk":0,"arthritis_risk":5,"migraine_risk":10,"frizz_risk":0,"updated_at":"2026-03-13T14:15:55.121973+05:30"},{"city":"Ahmedabad","state":"Gujarat","latitude":23.0225,"longitude":72.5714,"temp":37.8,"humidity":20,"rain":0.0,"pressure":1001.8,"uv_index":7.5,"wind_gusts":21.6,"aqi":95,"pm10":67.5,"pm2_5":29.3,"mosquito_risk":0,"arthritis_risk":5,"migraine_risk":7,"frizz_risk":0,"updated_at":"2026-03-13T14:15:55.121981+05:30"},{"city":"Jaipur","state":"Rajasthan","latitude":26.9124,"longitude":75.7873,"temp":35.4,"humidity":21,"rain":0.0,"pressure":960.7,"uv_index":6.95,"wind_gusts":24.5,"aqi":115,"pm10":118.7,"pm2_5":31.8,"mosquito_risk":0,"arthritis_risk":5,"migraine_risk":10,"frizz_risk":0,"updated_at":"2026-03-13T14:15:55.121988+05:30"},{"city":"Lucknow","state":"Uttar Pradesh","latitude":26.8467,"longitude":80.9462,"temp":33.7,"humidity":34,"rain":0.0,"pressure":993.4,"uv_index":5.95,"wind_gusts":26.6,"aqi":173,"pm10":158.8,"pm2_5":54.0,"mosquito_risk":0,"arthritis_risk":5,"migraine_risk":3,"frizz_risk":0,"updated_at":"2026-03-13T14:15:55.121995+05:30"},{"city":"Kanpur","state":"Uttar Pradesh","latitude":26.4499,"longitude":80.3319,"temp":33.6,"humidity":37,"rain":0.0,"pressure":992.0,"uv_index":6.35,"wind_gusts":21.2,"aqi":292,"pm10":258.9,"pm2_5":62.2,"mosquito_risk":0,"arthritis_risk":5,"migraine_risk":7,"frizz_risk":1,"updated_at":"2026-03-13T14:15:55.122003+05:30"},{"city":"Chandigarh","state":"Chandigarh","latitude":30.7333,"longitude":76.7794,"temp":29.8,"humidity":38,"rain":0.0,"pressure":969.6,"uv_index":5.15,"wind_gusts":30.6,"aqi":84,"pm10":44.7,"pm2_5":22.8,"mosquito_risk":4,"arthritis_risk":5,"migraine_risk":3,"frizz_risk":0,"updated_at":"2026-03-13T14:15:55.122010+05:30"},{"city":"Srinagar","state":"Jammu and Kashmir","latitude":34.0837,"longitude":74.7973,"temp":15.6,"humidity":55,"rain":0.0,"pressure":844.0,"uv_index":6.85,"wind_gusts":14.0,"aqi":69,"pm10":23.9,"pm2_5":12.9,"mosquito_risk":0,"arthritis_risk":5,"migraine_risk":7,"frizz_risk":0,"updated_at":"2026-03-13T14:15:55.122017+05:30"},{"city":"Jammu","state":"Jammu and Kashmir","latitude":32.7266,"longitude":74.857,"temp":30.5,"humidity":28,"rain":0.0,"pressure":974.0,"uv_index":6.45,"wind_gusts":23.0,"aqi":80,"pm10":22.0,"pm2_5":9.4,"mosquito_risk":0,"arthritis_risk":5,"migraine_risk":7,"frizz_risk":0,"updated_at":"2026-03-13T14:15:55.122025+05:30"},{"city":"Amritsar","state":"Punjab","latitude":31.634,"longitude":74.8723,"temp":28.2,"humidity":44,"rain":0.0,"pressure":982.6,"uv_index":6.05,"wind_gusts":23.8,"aqi":102,"pm10":26.3,"pm2_5":13.7,"mosquito_risk":4,"arthritis_risk":5,"migraine_risk":7,"frizz_risk":0,"updated_at":"2026-03-13T14:15:55.122032+05:30"},{"city":"Ludhiana","state":"Punjab","latitude":30.901,"longitude":75.8573,"temp":29.3,"humidity":38,"rain":0.0,"pressure":980.2,"uv_index":5.75,"wind_gusts":28.8,"aqi":113,"pm10":43.9,"pm2_5":27.5,"mosquito_risk":4,"arthritis_risk":5,"migraine_risk":3,"frizz_risk":0,"updated_at":"2026-03-13T14:15:55.122038+05:30"},{"city":"Jalandhar","state":"Punjab","latitude":31.326,"longitude":75.5762,"temp":28.3,"humidity":41,"rain":0.0,"pressure":981.4,"uv_index":5.65,"wind_gusts":26.6,"aqi":114,"pm10":57.5,"pm2_5":22.1,"mosquito_risk":4,"arthritis_risk":5,"migraine_risk":3,"frizz_risk":0,"updated_at":"2026-03-13T14:15:55.122047+05:30"},{"city":"Dehradun","state":"Uttarakhand","latitude":30.6284,"longitude":78.0322,"temp":22.1,"humidity":33,"rain":0.0,"pressure":832.1,"uv_index":6.0,"wind_gusts":28.1,"aqi":42,"pm10":34.8,"pm2_5":10.9,"mosquito_risk":0,"arthritis_risk":5,"migraine_risk":3,"frizz_risk":0,"updated_at":"2026-03-13T14:15:55.122054+05:30"},{"city":"Shimla","state":"Himachal Pradesh","latitude":31.1048,"longitude":77.1734,"temp":19.6,"humidity":39,"rain":0.0,"pressure":787.0,"uv_index":5.2,"wind_gusts":38.5,"aqi":55,"pm10":31.2,"pm2_5":9.5,"mosquito_risk":0,"arthritis_risk":5,"migraine_risk":3,"frizz_risk":0,"updated_at":"2026-03-13T14:15:55.122062+05:30"},{"city":"Manali","state":"Himachal Pradesh","latitude":32.2396,"longitude":77.1887,"temp":20.2,"humidity":17,"rain":0.0,"pressure":821.7,"uv_index":8.15,"wind_gusts":38.5,"aqi":48,"pm10":22.0,"pm2_5":7.1,"mosquito_risk":0,"arthritis_risk":5,"migraine_risk":7,"frizz_risk":1,"updated_at":"2026-03-13T14:15:55.122069+05:30"},{"city":"Gurgaon","state":"Haryana","latitude":28.4595,"longitude":77.0266,"temp":31.2,"humidity":29,"rain":0.0,"pressure":982.9,"uv_index":6.1,"wind_gusts":26.6,"aqi":1171,"pm10":1084.1,"pm2_5":124.8,"mosquito_risk":0,"arthritis_risk":5,"migraine_risk":7,"frizz_risk":0,"updated_at":"2026-03-13T14:15:55.122076+05:30"},{"city":"Noida","state":"Uttar Pradesh","latitude":28.5355,"longitude":77.391,"temp":31.7,"humidity":26,"rain":0.0,"pressure":985.7,"uv_index":5.95,"wind_gusts":28.4,"aqi":1171,"pm10":1084.1,"pm2_5":124.8,"mosquito_risk":0,"arthritis_risk":5,"migraine_risk":3,"frizz_risk":0,"updated_at":"2026-03-13T14:15:55.122082+05:30"},{"city":"Ghaziabad","state":"Uttar Pradesh","latitude":28.6692,"longitude":77.4538,"temp":30.7,"humidity":32,"rain":0.0,"pressure":983.9,"uv_index":5.85,"wind_gusts":27.7,"aqi":226,"pm10":177.4,"pm2_5":46.1,"mosquito_risk":0,"arthritis_risk":5,"migraine_risk":3,"frizz_risk":0,"updated_at":"2026-03-13T14:15:55.122089+05:30"},{"city":"Faridabad","state":"Haryana","latitude":28.4089,"longitude":77.3178,"temp":31.4,"humidity":27,"rain":0.0,"pressure":985.1,"uv_index":6.0,"wind_gusts":27.0,"aqi":1171,"pm10":1084.1,"pm2_5":124.8,"mosquito_risk":0,"arthritis_risk":5,"migraine_risk":3,"frizz_risk":0,"updated_at":"2026-03-13T14:15:55.122095+05:30"},{"city":"Meerut","state":"Uttar Pradesh","latitude":28.9845,"longitude":77.7064,"temp":30.3,"humidity":37,"rain":0.0,"pressure":982.3,"uv_index":5.3,"wind_gusts":28.8,"aqi":226,"pm10":177.4,"pm2_5":46.1,"mosquito_risk":0,"arthritis_risk":5,"migraine_risk":3,"frizz_risk":0,"updated_at":"2026-03-13T14:15:55.122102+05:30"},{"city":"Agra","state":"Uttar Pradesh","latitude":27.1767,"longitude":78.0081,"temp":34.7,"humidity":31,"rain":0.0,"pressure":988.5,"uv_index":6.2,"wind_gusts":22.0,"aqi":564,"pm10":625.8,"pm2_5":94.1,"mosquito_risk":0,"arthritis_risk":5,"migraine_risk":7,"frizz_risk":0,"updated_at":"2026-03-13T14:15:55.122110+05:30"},{"city":"Varanasi","state":"Uttar Pradesh","latitude":25.3176,"longitude":82.9739,"temp":34.9,"humidity":27,"rain":0.0,"pressure":997.1,"uv_index":7.35,"wind_gusts":26.6,"aqi":136,"pm10":295.2,"pm2_5":55.3,"mosquito_risk":0,"arthritis_risk":5,"migraine_risk":7,"frizz_risk":0,"updated_at":"2026-03-13T14:15:55.122119+05:30"},{"city":"Prayagraj","state":"Uttar Pradesh","latitude":25.4358,"longitude":81.8463,"temp":34.9,"humidity":31,"rain":0.0,"pressure":995.7,"uv_index":7.05,"wind_gusts":22.0,"aqi":152,"pm10":331.6,"pm2_5":65.4,"mosquito_risk":0,"arthritis_risk":5,"migraine_risk":7,"frizz_risk":0,"updated_at":"2026-03-13T14:15:55.122126+05:30"},{"city":"Gorakhpur","state":"Uttar Pradesh","latitude":26.7606,"longitude":83.3732,"temp":32.6,"humidity":46,"rain":0.0,"pressure":996.1,"uv_index":7.0,"wind_gusts":28.1,"aqi":180,"pm10":174.2,"pm2_5":95.9,"mosquito_risk":0,"arthritis_risk":5,"migraine_risk":7,"frizz_risk":1,"updated_at":"2026-03-13T14:15:55.122133+05:30"},{"city":"Bareilly","state":"Uttar Pradesh","latitude":28.367,"longitude":79.4304,"temp":32.1,"humidity":34,"rain":0.0,"pressure":986.8,"uv_index":6.4,"wind_gusts":26.6,"aqi":154,"pm10":79.4,"pm2_5":46.6,"mosquito_risk":0,"arthritis_risk":5,"migraine_risk":7,"frizz_risk":0,"updated_at":"2026-03-13T14:15:55.122140+05:30"},{"city":"Aligarh","state":"Uttar Pradesh","latitude":27.8974,"longitude":78.088,"temp":33.6,"humidity":23,"rain":0.0,"pressure":986.4,"uv_index":6.0,"wind_gusts":29.2,"aqi":653,"pm10":586.7,"pm2_5":88.2,"mosquito_risk":0,"arthritis_risk":5,"migraine_risk":3,"frizz_risk":0,"updated_at":"2026-03-13T14:15:55.122149+05:30"},{"city":"Moradabad","state":"Uttar Pradesh","latitude":28.8386,"longitude":78.7733,"temp":31.3,"humidity":33,"rain":0.0,"pressure":983.8,"uv_index":5.65,"wind_gusts":27.0,"aqi":152,"pm10":69.2,"pm2_5":39.8,"mosquito_risk":0,"arthritis_risk":5,"migraine_risk":3,"frizz_risk":0,"updated_at":"2026-03-13T14:15:55.122156+05:30"},{"city":"Saharanpur","state":"Uttar Pradesh","latitude":29.9637,"longitude":77.546,"temp":29.8,"humidity":41,"rain":0.0,"pressure":976.2,"uv_index":4.85,"wind_gusts":28.1,"aqi":140,"pm10":62.9,"pm2_5":29.0,"mosquito_risk":4,"arthritis_risk":5,"migraine_risk":3,"frizz_risk":0,"updated_at":"2026-03-13T14:15:55.122165+05:30"},{"city":"Jhansi","state":"Uttar Pradesh","latitude":25.4484,"longitude":78.5685,"temp":35.7,"humidity":22,"rain":0.0,"pressure":978.6,"uv_index":6.85,"wind_gusts":18.7,"aqi":66,"pm10":160.7,"pm2_5":42.0,"mosquito_risk":0,"arthritis_risk":5,"migraine_risk":10,"frizz_risk":0,"updated_at":"2026-03-13T14:15:58.334619+05:30"},{"city":"Surat","state":"Gujarat","latitude":21.1702,"longitude":72.8311,"temp":35.3,"humidity":33,"rain":0.0,"pressure":1006.5,"uv_index":7.35,"wind_gusts":23.8,"aqi":147,"pm10":58.0,"pm2_5":50.1,"mosquito_risk":0,"arthritis_risk":5,"migraine_risk":7,"frizz_risk":1,"updated_at":"2026-03-13T14:15:58.334645+05:30"},{"city":"Vadodara","state":"Gujarat","latitude":22.3072,"longitude":73.1812,"temp":39.1,"humidity":16,"rain":0.0,"pressure":1003.9,"uv_index":7.5,"wind_gusts":22.0,"aqi":108,"pm10":29.2,"pm2_5":17.1,"mosquito_risk":0,"arthritis_risk":5,"migraine_risk":7,"frizz_risk":0,"updated_at":"2026-03-13T14:15:58.334655+05:30"},{"city":"Rajkot","state":"Gujarat","latitude":22.3039,"longitude":70.8022,"temp":36.8,"humidity":18,"rain":0.0,"pressure":994.3,"uv_index":7.3,"wind_gusts":30.2,"aqi":86,"pm10":51.3,"pm2_5":20.4,"mosquito_risk":0,"arthritis_risk":5,"migraine_risk":10,"frizz_risk":0,"updated_at":"2026-03-13T14:15:58.334662+05:30"},{"city":"Thane","state":"Maharashtra","latitude":19.2183,"longitude":72.9781,"temp":33.9,"humidity":46,"rain":0.0,"pressure":1007.0,"uv_index":7.65,"wind_gusts":38.9,"aqi":153,"pm10":68.9,"pm2_5":66.4,"mosquito_risk":0,"arthritis_risk":5,"migraine_risk":4,"frizz_risk":1,"updated_at":"2026-03-13T14:15:58.334669+05:30"},{"city":"Nagpur","state":"Maharashtra","latitude":21.1458,"longitude":79.0882,"temp":37.6,"humidity":16,"rain":0.0,"pressure":973.0,"uv_index":8.05,"wind_gusts":18.7,"aqi":89,"pm10":27.0,"pm2_5":19.0,"mosquito_risk":0,"arthritis_risk":5,"migraine_risk":10,"frizz_risk":0,"updated_at":"2026-03-13T14:15:58.334676+05:30"},{"city":"Nashik","state":"Maharashtra","latitude":19.9975,"longitude":73.7898,"temp":36.6,"humidity":15,"rain":0.0,"pressure":945.8,"uv_index":7.85,"wind_gusts":32.4,"aqi":74,"pm10":18.2,"pm2_5":15.6,"mosquito_risk":0,"arthritis_risk":5,"migraine_risk":10,"frizz_risk":0,"updated_at":"2026-03-13T14:15:58.334682+05:30"},{"city":"Aurangabad","state":"Maharashtra","latitude":19.8762,"longitude":75.3433,"temp":36.4,"humidity":17,"rain":0.0,"pressure":944.4,"uv_index":8.35,"wind_gusts":29.5,"aqi":112,"pm10":19.9,"pm2_5":17.9,"mosquito_risk":0,"arthritis_risk":5,"migraine_risk":10,"frizz_risk":0,"updated_at":"2026-03-13T14:15:58.334689+05:30"},{"city":"Solapur","state":"Maharashtra","latitude":17.6599,"longitude":75.9064,"temp":36.4,"humidity":23,"rain":0.0,"pressure":956.9,"uv_index":8.6,"wind_gusts":24.8,"aqi":91,"pm10":33.2,"pm2_5":27.1,"mosquito_risk":0,"arthritis_risk":5,"migraine_risk":10,"frizz_risk":0,"updated_at":"2026-03-13T14:15:58.334696+05:30"},{"city":"Kolhapur","state":"Maharashtra","latitude":16.705,"longitude":74.2433,"temp":35.1,"humidity":22,"rain":0.0,"pressure":947.6,"uv_index":8.7,"wind_gusts":44.6,"aqi":153,"pm10":31.7,"pm2_5":26.5,"mosquito_risk":0,"arthritis_risk":5,"migraine_risk":10,"frizz_risk":0,"updated_at":"2026-03-13T14:15:58.334703+05:30"},{"city":"Goa","state":"Goa","latitude":15.2993,"longitude":74.124,"temp":31.8,"humidity":63,"rain":0.0,"pressure":997.2,"uv_index":8.7,"wind_gusts":32.8,"aqi":140,"pm10":43.3,"pm2_5":37.1,"mosquito_risk":3,"arthritis_risk":5,"migraine_risk":7,"frizz_risk":1,"updated_at":"2026-03-13T14:15:58.334710+05:30"},{"city":"Jodhpur","state":"Rajasthan","latitude":26.2389,"longitude":73.0243,"temp":36.5,"humidity":24,"rain":0.0,"pressure":983.2,"uv_index":6.9,"wind_gusts":19.4,"aqi":75,"pm10":156.0,"pm2_5":33.4,"mosquito_risk":0,"arthritis_risk":5,"migraine_risk":10,"frizz_risk":0,"updated_at":"2026-03-13T14:15:58.334716+05:30"},{"city":"Udaipur","state":"Rajasthan","latitude":24.5854,"longitude":73.7125,"temp":35.6,"humidity":12,"rain":0.0,"pressure":947.5,"uv_index":7.85,"wind_gusts":32.8,"aqi":51,"pm10":33.2,"pm2_5":14.5,"mosquito_risk":0,"arthritis_risk":5,"migraine_risk":10,"frizz_risk":0,"updated_at":"2026-03-13T14:15:58.334723+05:30"},{"city":"Kota","state":"Rajasthan","latitude":25.2138,"longitude":75.8648,"temp":37.1,"humidity":14,"rain":0.0,"pressure":979.2,"uv_index":7.1,"wind_gusts":16.6,"aqi":71,"pm10":73.1,"pm2_5":21.7,"mosquito_risk":0,"arthritis_risk":5,"migraine_risk":10,"frizz_risk":0,"updated_at":"2026-03-13T14:15:58.334729+05:30"},{"city":"Bikaner","state":"Rajasthan","latitude":28.0229,"longitude":73.3119,"temp":33.7,"humidity":20,"rain":0.0,"pressure":983.5,"uv_index":6.6,"wind_gusts":24.8,"aqi":82,"pm10":35.5,"pm2_5":20.0,"mosquito_risk":0,"arthritis_risk":5,"migraine_risk":7,"frizz_risk":0,"updated_at":"2026-03-13T14:15:58.334734+05:30"},{"city":"Ajmer","state":"Rajasthan","latitude":26.4499,"longitude":74.6399,"temp":34.1,"humidity":24,"rain":0.0,"pressure":955.4,"uv_index":7.05,"wind_gusts":19.4,"aqi":69,"pm10":136.9,"pm2_5":36.6,"mosquito_risk":0,"arthritis_risk":5,"migraine_risk":7,"frizz_risk":0,"updated_at":"2026-03-13T14:15:58.334741+05:30"},{"city":"Gwalior","state":"Madhya Pradesh","latitude":26.2183,"longitude":78.1828,"temp":33.1,"humidity":37,"rain":0.0,"pressure":984.3,"uv_index":6.8,"wind_gusts":20.2,"aqi":95,"pm10":145.3,"pm2_5":48.2,"mosquito_risk":0,"arthritis_risk":5,"migraine_risk":7,"frizz_risk":1,"updated_at":"2026-03-13T14:15:58.334747+05:30"},{"city":"Indore","state":"Madhya Pradesh","latitude":22.7196,"longitude":75.8577,"temp":36.6,"humidity":11,"rain":0.0,"pressure":949.0,"uv_index":7.75,"wind_gusts":32.4,"aqi":59,"pm10":9.7,"pm2_5":8.7,"mosquito_risk":0,"arthritis_risk":5,"migraine_risk":10,"frizz_risk":0,"updated_at":"2026-03-13T14:15:58.334752+05:30"},{"city":"Bhopal","state":"Madhya Pradesh","latitude":23.2599,"longitude":77.4126,"temp":36.4,"humidity":12,"rain":0.0,"pressure":954.7,"uv_index":7.55,"wind_gusts":29.9,"aqi":77,"pm10":16.9,"pm2_5":15.5,"mosquito_risk":0,"arthritis_risk":5,"migraine_risk":10,"frizz_risk":0,"updated_at":"2026-03-13T14:15:58.334758+05:30"},{"city":"Jabalpur","state":"Madhya Pradesh","latitude":23.1815,"longitude":79.9864,"temp":35.6,"humidity":19,"rain":0.0,"pressure":962.1,"uv_index":7.75,"wind_gusts":18.7,"aqi":79,"pm10":18.4,"pm2_5":13.8,"mosquito_risk":0,"arthritis_risk":5,"migraine_risk":10,"frizz_risk":0,"updated_at":"2026-03-13T14:15:58.334764+05:30"},{"city":"Ujjain","state":"Madhya Pradesh","latitude":23.1765,"longitude":75.7885,"temp":35.9,"humidity":11,"rain":0.0,"pressure":954.8,"uv_index":7.7,"wind_gusts":25.2,"aqi":55,"pm10":10.6,"pm2_5":6.8,"mosquito_risk":0,"arthritis_risk":5,"migraine_risk":10,"frizz_risk":0,"updated_at":"2026-03-13T14:15:58.334770+05:30"},{"city":"Visakhapatnam","state":"Andhra Pradesh","latitude":17.6868,"longitude":83.2185,"temp":32.2,"humidity":56,"rain":0.0,"pressure":1003.7,"uv_index":8.65,"wind_gusts":39.6,"aqi":91,"pm10":30.7,"pm2_5":25.8,"mosquito_risk":0,"arthritis_risk":5,"migraine_risk":4,"frizz_risk":1,"updated_at":"2026-03-13T14:15:58.334776+05:30"},{"city":"Vijayawada","state":"Andhra Pradesh","latitude":16.5062,"longitude":80.648,"temp":35.6,"humidity":42,"rain":0.0,"pressure":1002.1,"uv_index":8.75,"wind_gusts":29.9,"aqi":92,"pm10":29.0,"pm2_5":23.4,"mosquito_risk":0,"arthritis_risk":5,"migraine_risk":7,"frizz_risk":1,"updated_at":"2026-03-13T14:15:58.334782+05:30"},{"city":"Guntur","state":"Andhra Pradesh","latitude":16.3067,"longitude":80.4365,"temp":35.6,"humidity":37,"rain":0.0,"pressure":1003.5,"uv_index":8.75,"wind_gusts":31.0,"aqi":85,"pm10":34.2,"pm2_5":26.7,"mosquito_risk":0,"arthritis_risk":5,"migraine_risk":7,"frizz_risk":1,"updated_at":"2026-03-13T14:15:58.334788+05:30"},{"city":"Nellore","state":"Andhra Pradesh","latitude":14.4426,"longitude":79.9865,"temp":35.8,"humidity":38,"rain":0.0,"pressure":1005.5,"uv_index":8.9,"wind_gusts":28.8,"aqi":75,"pm10":30.0,"pm2_5":25.7,"mosquito_risk":0,"arthritis_risk":5,"migraine_risk":7,"frizz_risk":1,"updated_at":"2026-03-13T14:15:58.334795+05:30"},{"city":"Kurnool","state":"Andhra Pradesh","latitude":15.8281,"longitude":78.0373,"temp":38.7,"humidity":14,"rain":0.0,"pressure":976.2,"uv_index":8.75,"wind_gusts":23.8,"aqi":93,"pm10":46.7,"pm2_5":33.6,"mosquito_risk":0,"arthritis_risk":5,"migraine_risk":10,"frizz_risk":0,"updated_at":"2026-03-13T14:15:58.334802+05:30"},{"city":"Kakinada","state":"Andhra Pradesh","latitude":16.9891,"longitude":82.2475,"temp":35.0,"humidity":46,"rain":0.0,"pressure":1007.1,"uv_index":8.7,"wind_gusts":31.3,"aqi":80,"pm10":21.4,"pm2_5":16.5,"mosquito_risk":0,"arthritis_risk":5,"migraine_risk":4,"frizz_risk":1,"updated_at":"2026-03-13T14:15:58.334809+05:30"},{"city":"Tirupati","state":"Andhra Pradesh","latitude":13.6288,"longitude":79.4192,"temp":35.2,"humidity":29,"rain":0.0,"pressure":991.2,"uv_index":9.05,"wind_gusts":32.4,"aqi":100,"pm10":26.3,"pm2_5":21.7,"mosquito_risk":0,"arthritis_risk":5,"migraine_risk":10,"frizz_risk":0,"updated_at":"2026-03-13T14:15:58.334815+05:30"},{"city":"Warangal","state":"Telangana","latitude":17.9689,"longitude":79.5941,"temp":36.5,"humidity":32,"rain":0.0,"pressure":978.3,"uv_index":8.5,"wind_gusts":29.5,"aqi":115,"pm10":46.3,"pm2_5":36.2,"mosquito_risk":0,"arthritis_risk":5,"migraine_risk":10,"frizz_risk":1,"updated_at":"2026-03-13T14:15:58.334821+05:30"},{"city":"Nizamabad","state":"Telangana","latitude":18.6725,"longitude":78.0941,"temp":36.3,"humidity":23,"rain":0.0,"pressure":964.7,"uv_index":8.4,"wind_gusts":23.4,"aqi":121,"pm10":32.2,"pm2_5":25.5,"mosquito_risk":0,"arthritis_risk":5,"migraine_risk":10,"frizz_risk":0,"updated_at":"2026-03-13T14:15:58.334827+05:30"},{"city":"Mysore","state":"Karnataka","latitude":12.2958,"longitude":76.6396,"temp":33.2,"humidity":20,"rain":0.0,"pressure":928.4,"uv_index":9.3,"wind_gusts":32.0,"aqi":76,"pm10":39.6,"pm2_5":30.6,"mosquito_risk":0,"arthritis_risk":5,"migraine_risk":7,"frizz_risk":0,"updated_at":"2026-03-13T14:15:58.334833+05:30"},{"city":"Mangalore","state":"Karnataka","latitude":12.9141,"longitude":74.856,"temp":28.7,"humidity":83,"rain":0.0,"pressure":1005.2,"uv_index":8.95,"wind_gusts":24.8,"aqi":116,"pm10":42.4,"pm2_5":36.1,"mosquito_risk":7,"arthritis_risk":5,"migraine_risk":4,"frizz_risk":1,"updated_at":"2026-03-13T14:15:58.334840+05:30"},{"city":"Hubli-Dharwad","state":"Karnataka","latitude":15.3647,"longitude":75.124,"temp":35.2,"humidity":25,"rain":0.0,"pressure":940.7,"uv_index":8.9,"wind_gusts":29.9,"aqi":75,"pm10":31.3,"pm2_5":25.7,"mosquito_risk":0,"arthritis_risk":5,"migraine_risk":10,"frizz_risk":0,"updated_at":"2026-03-13T14:15:58.334846+05:30"},{"city":"Belgaum","state":"Karnataka","latitude":15.8497,"longitude":74.4977,"temp":35.8,"humidity":21,"rain":0.0,"pressure":926.0,"uv_index":8.95,"wind_gusts":43.6,"aqi":113,"pm10":29.0,"pm2_5":24.3,"mosquito_risk":0,"arthritis_risk":5,"migraine_risk":10,"frizz_risk":0,"updated_at":"2026-03-13T14:16:01.550820+05:30"},{"city":"Coimbatore","state":"Tamil Nadu","latitude":11.0168,"longitude":76.9558,"temp":34.4,"humidity":24,"rain":0.0,"pressure":961.0,"uv_index":9.25,"wind_gusts":41.0,"aqi":79,"pm10":34.5,"pm2_5":26.4,"mosquito_risk":0,"arthritis_risk":5,"migraine_risk":7,"frizz_risk":0,"updated_at":"2026-03-13T14:16:01.550850+05:30"},{"city":"Madurai","state":"Tamil Nadu","latitude":9.9252,"longitude":78.1198,"temp":35.3,"humidity":38,"rain":0.0,"pressure":991.7,"uv_index":9.25,"wind_gusts":26.6,"aqi":83,"pm10":15.2,"pm2_5":11.4,"mosquito_risk":0,"arthritis_risk":5,"migraine_risk":10,"frizz_risk":1,"updated_at":"2026-03-13T14:16:01.550861+05:30"},{"city":"Trichy","state":"Tamil Nadu","latitude":10.7905,"longitude":78.7047,"temp":34.3,"humidity":43,"rain":0.0,"pressure":998.9,"uv_index":9.15,"wind_gusts":23.8,"aqi":88,"pm10":19.0,"pm2_5":15.2,"mosquito_risk":0,"arthritis_risk":5,"migraine_risk":7,"frizz_risk":1,"updated_at":"2026-03-13T14:16:01.550869+05:30"},{"city":"Salem","state":"Tamil Nadu","latitude":11.6643,"longitude":78.146,"temp":34.7,"humidity":34,"rain":0.0,"pressure":976.6,"uv_index":9.2,"wind_gusts":24.1,"aqi":99,"pm10":42.7,"pm2_5":34.5,"mosquito_risk":0,"arthritis_risk":5,"migraine_risk":7,"frizz_risk":1,"updated_at":"2026-03-13T14:16:01.550876+05:30"},{"city":"Tirunelveli","state":"Tamil Nadu","latitude":8.7139,"longitude":77.7567,"temp":34.3,"humidity":44,"rain":0.0,"pressure":1002.0,"uv_index":9.2,"wind_gusts":29.9,"aqi":64,"pm10":12.9,"pm2_5":9.9,"mosquito_risk":0,"arthritis_risk":5,"migraine_risk":4,"frizz_risk":1,"updated_at":"2026-03-13T14:16:01.550883+05:30"},{"city":"Vellore","state":"Tamil Nadu","latitude":12.9165,"longitude":79.1325,"temp":35.1,"humidity":28,"rain":0.0,"pressure":984.2,"uv_index":9.1,"wind_gusts":32.8,"aqi":106,"pm10":30.9,"pm2_5":26.3,"mosquito_risk":0,"arthritis_risk":5,"migraine_risk":10,"frizz_risk":0,"updated_at":"2026-03-13T14:16:01.550890+05:30"},{"city":"Erode","state":"Tamil Nadu","latitude":11.341,"longitude":77.7172,"temp":35.6,"humidity":33,"rain":0.0,"pressure":988.2,"uv_index":9.15,"wind_gusts":22.3,"aqi":84,"pm10":33.6,"pm2_5":27.1,"mosquito_risk":0,"arthritis_risk":5,"migraine_risk":10,"frizz_risk":1,"updated_at":"2026-03-13T14:16:01.550897+05:30"},{"city":"Kochi","state":"Kerala","latitude":9.9312,"longitude":76.2673,"temp":28.4,"humidity":81,"rain":0.0,"pressure":1007.0,"uv_index":9.1,"wind_gusts":33.5,"aqi":98,"pm10":31.2,"pm2_5":27.7,"mosquito_risk":7,"arthritis_risk":5,"migraine_risk":4,"frizz_risk":1,"updated_at":"2026-03-13T14:16:01.550904+05:30"},{"city":"Thiruvananthapuram","state":"Kerala","latitude":8.5241,"longitude":76.9366,"temp":28.6,"humidity":77,"rain":0.0,"pressure":1006.3,"uv_index":9.1,"wind_gusts":24.1,"aqi":58,"pm10":22.2,"pm2_5":19.3,"mosquito_risk":7,"arthritis_risk":5,"migraine_risk":4,"frizz_risk":1,"updated_at":"2026-03-13T14:16:01.550912+05:30"},{"city":"Kozhikode","state":"Kerala","latitude":11.2588,"longitude":75.7804,"temp":29.8,"humidity":77,"rain":0.0,"pressure":1006.4,"uv_index":8.95,"wind_gusts":30.6,"aqi":95,"pm10":31.0,"pm2_5":28.3,"mosquito_risk":7,"arthritis_risk":5,"migraine_risk":4,"frizz_risk":1,"updated_at":"2026-03-13T14:16:01.550918+05:30"},{"city":"Thrissur","state":"Kerala","latitude":10.5276,"longitude":76.2144,"temp":32.3,"humidity":64,"rain":0.0,"pressure":1005.3,"uv_index":9.05,"wind_gusts":37.8,"aqi":98,"pm10":33.6,"pm2_5":27.8,"mosquito_risk":3,"arthritis_risk":5,"migraine_risk":4,"frizz_risk":1,"updated_at":"2026-03-13T14:16:01.550926+05:30"},{"city":"Kannur","state":"Kerala","latitude":11.8745,"longitude":75.3704,"temp":30.9,"humidity":68,"rain":0.0,"pressure":1006.0,"uv_index":9.0,"wind_gusts":29.5,"aqi":106,"pm10":38.0,"pm2_5":32.6,"mosquito_risk":3,"arthritis_risk":5,"migraine_risk":4,"frizz_risk":1,"updated_at":"2026-03-13T14:16:01.550933+05:30"},{"city":"Patna","state":"Bihar","latitude":25.5941,"longitude":85.1376,"temp":33.1,"humidity":42,"rain":0.0,"pressure":999.5,"uv_index":7.5,"wind_gusts":25.2,"aqi":178,"pm10":149.9,"pm2_5":96.2,"mosquito_risk":0,"arthritis_risk":5,"migraine_risk":7,"frizz_risk":1,"updated_at":"2026-03-13T14:16:01.550940+05:30"},{"city":"Gaya","state":"Bihar","latitude":24.7914,"longitude":85.0002,"temp":33.6,"humidity":32,"rain":0.0,"pressure":993.2,"uv_index":7.6,"wind_gusts":23.0,"aqi":152,"pm10":193.7,"pm2_5":47.1,"mosquito_risk":0,"arthritis_risk":5,"migraine_risk":7,"frizz_risk":0,"updated_at":"2026-03-13T14:16:01.550947+05:30"},{"city":"Muzaffarpur","state":"Bihar","latitude":26.1209,"longitude":85.3647,"temp":32.5,"humidity":46,"rain":0.0,"pressure":999.3,"uv_index":7.45,"wind_gusts":24.8,"aqi":183,"pm10":135.5,"pm2_5":95.0,"mosquito_risk":0,"arthritis_risk":5,"migraine_risk":7,"frizz_risk":1,"updated_at":"2026-03-13T14:16:01.550953+05:30"},{"city":"Bhagalpur","state":"Bihar","latitude":25.2425,"longitude":87.0117,"temp":33.4,"humidity":43,"rain":0.0,"pressure":999.4,"uv_index":7.5,"wind_gusts":26.6,"aqi":176,"pm10":130.4,"pm2_5":90.3,"mosquito_risk":0,"arthritis_risk":5,"migraine_risk":7,"frizz_risk":1,"updated_at":"2026-03-13T14:16:01.550959+05:30"},{"city":"Ranchi","state":"Jharkhand","latitude":23.3441,"longitude":85.3096,"temp":33.7,"humidity":15,"rain":0.0,"pressure":938.3,"uv_index":8.2,"wind_gusts":29.9,"aqi":86,"pm10":28.4,"pm2_5":11.9,"mosquito_risk":0,"arthritis_risk":5,"migraine_risk":7,"frizz_risk":0,"updated_at":"2026-03-13T14:16:01.550965+05:30"},{"city":"Jamshedpur","state":"Jharkhand","latitude":22.8046,"longitude":86.2029,"temp":35.9,"humidity":28,"rain":0.0,"pressure":989.8,"uv_index":8.1,"wind_gusts":16.6,"aqi":162,"pm10":58.8,"pm2_5":30.4,"mosquito_risk":0,"arthritis_risk":5,"migraine_risk":10,"frizz_risk":0,"updated_at":"2026-03-13T14:16:01.550972+05:30"},{"city":"Dhanbad","state":"Jharkhand","latitude":23.7957,"longitude":86.4304,"temp":36.4,"humidity":19,"rain":0.0,"pressure":978.9,"uv_index":8.0,"wind_gusts":29.9,"aqi":176,"pm10":80.1,"pm2_5":37.5,"mosquito_risk":0,"arthritis_risk":5,"migraine_risk":10,"frizz_risk":0,"updated_at":"2026-03-13T14:16:01.550978+05:30"},{"city":"Bokaro","state":"Jharkhand","latitude":23.6693,"longitude":86.1511,"temp":36.1,"humidity":19,"rain":0.0,"pressure":982.9,"uv_index":8.0,"wind_gusts":31.0,"aqi":157,"pm10":61.2,"pm2_5":23.6,"mosquito_risk":0,"arthritis_risk":5,"migraine_risk":10,"frizz_risk":0,"updated_at":"2026-03-13T14:16:01.550985+05:30"},{"city":"Bhubaneswar","state":"Odisha","latitude":20.2961,"longitude":85.8245,"temp":33.3,"humidity":53,"rain":0.0,"pressure":1002.4,"uv_index":8.4,"wind_gusts":34.9,"aqi":109,"pm10":43.3,"pm2_5":34.5,"mosquito_risk":0,"arthritis_risk":5,"migraine_risk":4,"frizz_risk":1,"updated_at":"2026-03-13T14:16:01.550991+05:30"},{"city":"Cuttack","state":"Odisha","latitude":20.4625,"longitude":85.8828,"temp":36.0,"humidity":41,"rain":0.0,"pressure":1003.5,"uv_index":8.45,"wind_gusts":30.6,"aqi":109,"pm10":43.3,"pm2_5":34.5,"mosquito_risk":0,"arthritis_risk":5,"migraine_risk":7,"frizz_risk":1,"updated_at":"2026-03-13T14:16:01.550997+05:30"},{"city":"Rourkela","state":"Odisha","latitude":22.2604,"longitude":84.8536,"temp":37.7,"humidity":17,"rain":0.0,"pressure":984.1,"uv_index":8.0,"wind_gusts":26.3,"aqi":104,"pm10":50.2,"pm2_5":19.8,"mosquito_risk":0,"arthritis_risk":5,"migraine_risk":10,"frizz_risk":0,"updated_at":"2026-03-13T14:16:01.551004+05:30"},{"city":"Raipur","state":"Chhattisgarh","latitude":21.2514,"longitude":81.6296,"temp":38.3,"humidity":14,"rain":0.0,"pressure":974.1,"uv_index":8.15,"wind_gusts":17.6,"aqi":146,"pm10":45.4,"pm2_5":28.0,"mosquito_risk":0,"arthritis_risk":5,"migraine_risk":10,"frizz_risk":0,"updated_at":"2026-03-13T14:16:01.551010+05:30"},{"city":"Bhilai","state":"Chhattisgarh","latitude":21.1938,"longitude":81.3509,"temp":38.8,"humidity":15,"rain":0.0,"pressure":974.4,"uv_index":8.15,"wind_gusts":13.3,"aqi":145,"pm10":42.0,"pm2_5":27.5,"mosquito_risk":0,"arthritis_risk":5,"migraine_risk":10,"frizz_risk":0,"updated_at":"2026-03-13T14:16:01.551017+05:30"},{"city":"Guwahati","state":"Assam","latitude":26.1158,"longitude":91.7086,"temp":23.6,"humidity":87,"rain":0.0,"pressure":1001.6,"uv_index":6.9,"wind_gusts":32.8,"aqi":160,"pm10":61.0,"pm2_5":55.9,"mosquito_risk":3,"arthritis_risk":5,"migraine_risk":4,"frizz_risk":1,"updated_at":"2026-03-13T14:16:01.551023+05:30"},{"city":"Agartala","state":"Tripura","latitude":23.8315,"longitude":91.2868,"temp":28.1,"humidity":74,"rain":0.0,"pressure":1005.9,"uv_index":7.6,"wind_gusts":28.1,"aqi":145,"pm10":44.6,"pm2_5":39.2,"mosquito_risk":7,"arthritis_risk":5,"migraine_risk":4,"frizz_risk":1,"updated_at":"2026-03-13T14:16:01.551030+05:30"},{"city":"Shillong","state":"Meghalaya","latitude":25.5788,"longitude":91.8933,"temp":16.8,"humidity":74,"rain":0.0,"pressure":855.2,"uv_index":7.0,"wind_gusts":54.0,"aqi":151,"pm10":39.1,"pm2_5":35.0,"mosquito_risk":3,"arthritis_risk":5,"migraine_risk":7,"frizz_risk":0,"updated_at":"2026-03-13T14:16:01.551036+05:30"},{"city":"Imphal","state":"Manipur","latitude":24.817,"longitude":93.9368,"temp":20.8,"humidity":74,"rain":0.0,"pressure":922.1,"uv_index":7.4,"wind_gusts":62.6,"aqi":156,"pm10":76.6,"pm2_5":63.3,"mosquito_risk":3,"arthritis_risk":5,"migraine_risk":7,"frizz_risk":0,"updated_at":"2026-03-13T14:16:01.551043+05:30"},{"city":"Aizawl","state":"Mizoram","latitude":23.7271,"longitude":92.7176,"temp":22.1,"humidity":67,"rain":0.0,"pressure":893.0,"uv_index":7.15,"wind_gusts":72.4,"aqi":153,"pm10":67.3,"pm2_5":57.3,"mosquito_risk":3,"arthritis_risk":5,"migraine_risk":7,"frizz_risk":0,"updated_at":"2026-03-13T14:16:01.551049+05:30"},{"city":"Kohima","state":"Nagaland","latitude":25.6701,"longitude":94.1077,"temp":17.1,"humidity":85,"rain":0.0,"pressure":853.3,"uv_index":6.25,"wind_gusts":81.4,"aqi":136,"pm10":68.2,"pm2_5":58.8,"mosquito_risk":3,"arthritis_risk":10,"migraine_risk":7,"frizz_risk":0,"updated_at":"2026-03-13T14:16:01.551056+05:30"},{"city":"Gangtok","state":"Sikkim","latitude":27.3314,"longitude":88.6138,"temp":17.3,"humidity":81,"rain":0.0,"pressure":836.3,"uv_index":4.55,"wind_gusts":17.3,"aqi":114,"pm10":31.3,"pm2_5":28.4,"mosquito_risk":3,"arthritis_risk":10,"migraine_risk":3,"frizz_risk":0,"updated_at":"2026-03-13T14:16:01.551062+05:30"},{"city":"Siliguri","state":"West Bengal","latitude":26.7271,"longitude":88.3953,"temp":22.7,"humidity":77,"rain":0.0,"pressure":993.5,"uv_index":7.3,"wind_gusts":30.6,"aqi":160,"pm10":54.5,"pm2_5":50.1,"mosquito_risk":3,"arthritis_risk":5,"migraine_risk":7,"frizz_risk":1,"updated_at":"2026-03-13T14:16:04.763337+05:30"},{"city":"Durgapur","state":"West Bengal","latitude":23.5204,"longitude":87.3119,"temp":36.8,"humidity":16,"rain":0.0,"pressure":993.5,"uv_index":7.95,"wind_gusts":29.2,"aqi":176,"pm10":109.2,"pm2_5":56.9,"mosquito_risk":0,"arthritis_risk":5,"migraine_risk":10,"frizz_risk":0,"updated_at":"2026-03-13T14:16:04.763370+05:30"},{"city":"Asansol","state":"West Bengal","latitude":23.6739,"longitude":86.9524,"temp":36.4,"humidity":18,"rain":0.0,"pressure":992.2,"uv_index":7.95,"wind_gusts":27.0,"aqi":175,"pm10":97.8,"pm2_5":48.1,"mosquito_risk":0,"arthritis_risk":5,"migraine_risk":10,"frizz_risk":0,"updated_at":"2026-03-13T14:16:04.763382+05:30"},{"city":"Pondicherry","state":"Puducherry","latitude":11.9139,"longitude":79.8145,"temp":33.9,"humidity":50,"rain":0.0,"pressure":1008.0,"uv_index":9.0,"wind_gusts":27.7,"aqi":64,"pm10":17.6,"pm2_5":12.4,"mosquito_risk":0,"arthritis_risk":0,"migraine_risk":4,"frizz_risk":1,"updated_at":"2026-03-13T14:16:04.763391+05:30"},{"city":"Port Blair","state":"Andaman and Nicobar Islands","latitude":11.6234,"longitude":92.7265,"temp":28.9,"humidity":70,"rain":0.0,"pressure":1006.4,"uv_index":8.95,"wind_gusts":23.4,"aqi":64,"pm10":10.6,"pm2_5":8.3,"mosquito_risk":7,"arthritis_risk":5,"migraine_risk":4,"frizz_risk":1,"updated_at":"2026-03-13T14:16:04.763399+05:30"},{"city":"Haridwar","state":"Uttarakhand","latitude":29.9457,"longitude":78.1642,"temp":30.5,"humidity":38,"rain":0.0,"pressure":974.5,"uv_index":5.45,"wind_gusts":28.4,"aqi":93,"pm10":45.9,"pm2_5":19.9,"mosquito_risk":0,"arthritis_risk":5,"migraine_risk":3,"frizz_risk":0,"updated_at":"2026-03-13T14:16:04.763407+05:30"},{"city":"Rishikesh","state":"Uttarakhand","latitude":30.0869,"longitude":78.2676,"temp":30.6,"humidity":34,"rain":0.0,"pressure":967.2,"uv_index":5.7,"wind_gusts":28.4,"aqi":69,"pm10":38.1,"pm2_5":14.7,"mosquito_risk":0,"arthritis_risk":5,"migraine_risk":3,"frizz_risk":0,"updated_at":"2026-03-13T14:16:04.763415+05:30"},{"city":"Nainital","state":"Uttarakhand","latitude":29.3919,"longitude":79.4542,"temp":22.9,"humidity":48,"rain":0.0,"pressure":808.2,"uv_index":6.7,"wind_gusts":44.3,"aqi":91,"pm10":45.2,"pm2_5":23.7,"mosquito_risk":0,"arthritis_risk":5,"migraine_risk":7,"frizz_risk":0,"updated_at":"2026-03-13T14:16:04.763423+05:30"},{"city":"Mussoorie","state":"Uttarakhand","latitude":30.4599,"longitude":78.0664,"temp":22.5,"humidity":35,"rain":0.0,"pressure":805.1,"uv_index":5.45,"wind_gusts":30.2,"aqi":72,"pm10":38.9,"pm2_5":14.2,"mosquito_risk":0,"arthritis_risk":5,"migraine_risk":3,"frizz_risk":0,"updated_at":"2026-03-13T14:16:04.763431+05:30"},{"city":"Dharamshala","state":"Himachal Pradesh","latitude":32.219,"longitude":76.3234,"temp":24.5,"humidity":33,"rain":0.0,"pressure":871.0,"uv_index":6.0,"wind_gusts":26.6,"aqi":44,"pm10":21.5,"pm2_5":6.5,"mosquito_risk":0,"arthritis_risk":5,"migraine_risk":3,"frizz_risk":0,"updated_at":"2026-03-13T14:16:04.763439+05:30"},{"city":"Dalhousie","state":"Himachal Pradesh","latitude":32.5387,"longitude":75.971,"temp":22.8,"humidity":29,"rain":0.0,"pressure":806.5,"uv_index":6.45,"wind_gusts":31.0,"aqi":74,"pm10":25.6,"pm2_5":11.4,"mosquito_risk":0,"arthritis_risk":5,"migraine_risk":7,"frizz_risk":0,"updated_at":"2026-03-13T14:16:04.763447+05:30"},{"city":"Patiala","state":"Punjab","latitude":30.3398,"longitude":76.3869,"temp":29.5,"humidity":34,"rain":0.0,"pressure":979.3,"uv_index":5.2,"wind_gusts":29.2,"aqi":253,"pm10":501.1,"pm2_5":66.4,"mosquito_risk":4,"arthritis_risk":5,"migraine_risk":3,"frizz_risk":0,"updated_at":"2026-03-13T14:16:04.763455+05:30"},{"city":"Bhatinda","state":"Punjab","latitude":30.211,"longitude":74.9455,"temp":29.1,"humidity":39,"rain":0.0,"pressure":986.0,"uv_index":6.05,"wind_gusts":27.7,"aqi":134,"pm10":49.9,"pm2_5":25.1,"mosquito_risk":4,"arthritis_risk":5,"migraine_risk":7,"frizz_risk":0,"updated_at":"2026-03-13T14:16:04.763463+05:30"},{"city":"Rohtak","state":"Haryana","latitude":28.8955,"longitude":76.6066,"temp":30.1,"humidity":33,"rain":0.0,"pressure":983.4,"uv_index":5.35,"wind_gusts":24.8,"aqi":526,"pm10":438.7,"pm2_5":67.5,"mosquito_risk":0,"arthritis_risk":5,"migraine_risk":3,"frizz_risk":0,"updated_at":"2026-03-13T14:16:04.763471+05:30"},{"city":"Panipat","state":"Haryana","latitude":29.3909,"longitude":76.9635,"temp":29.7,"humidity":38,"rain":0.0,"pressure":981.7,"uv_index":5.15,"wind_gusts":25.9,"aqi":895,"pm10":760.0,"pm2_5":89.9,"mosquito_risk":4,"arthritis_risk":5,"migraine_risk":3,"frizz_risk":0,"updated_at":"2026-03-13T14:16:04.763479+05:30"},{"city":"Mathura","state":"Uttar Pradesh","latitude":27.4924,"longitude":77.6737,"temp":34.2,"humidity":23,"rain":0.0,"pressure":987.9,"uv_index":5.8,"wind_gusts":26.3,"aqi":655,"pm10":773.0,"pm2_5":104.5,"mosquito_risk":0,"arthritis_risk":5,"migraine_risk":3,"frizz_risk":0,"updated_at":"2026-03-13T14:16:04.763487+05:30"},{"city":"Vrindavan","state":"Uttar Pradesh","latitude":27.5823,"longitude":77.7027,"temp":34.0,"humidity":21,"rain":0.0,"pressure":988.2,"uv_index":5.85,"wind_gusts":29.2,"aqi":655,"pm10":773.0,"pm2_5":104.5,"mosquito_risk":0,"arthritis_risk":5,"migraine_risk":3,"frizz_risk":0,"updated_at":"2026-03-13T14:16:04.763494+05:30"},{"city":"Ayodhya","state":"Uttar Pradesh","latitude":26.7922,"longitude":82.1998,"temp":33.2,"humidity":40,"rain":0.0,"pressure":994.8,"uv_index":6.4,"wind_gusts":28.8,"aqi":161,"pm10":267.3,"pm2_5":84.8,"mosquito_risk":0,"arthritis_risk":5,"migraine_risk":7,"frizz_risk":1,"updated_at":"2026-03-13T14:16:04.763502+05:30"},{"city":"Ratlam","state":"Madhya Pradesh","latitude":23.3315,"longitude":75.0367,"temp":35.8,"humidity":15,"rain":0.0,"pressure":955.7,"uv_index":7.6,"wind_gusts":29.2,"aqi":51,"pm10":15.5,"pm2_5":8.7,"mosquito_risk":0,"arthritis_risk":5,"migraine_risk":10,"frizz_risk":0,"updated_at":"2026-03-13T14:16:04.763509+05:30"},{"city":"Sagar","state":"Madhya Pradesh","latitude":23.8388,"longitude":78.7378,"temp":36.3,"humidity":11,"rain":0.0,"pressure":951.1,"uv_index":7.5,"wind_gusts":28.1,"aqi":67,"pm10":12.6,"pm2_5":10.3,"mosquito_risk":0,"arthritis_risk":5,"migraine_risk":10,"frizz_risk":0,"updated_at":"2026-03-13T14:16:04.763515+05:30"},{"city":"Satna","state":"Madhya Pradesh","latitude":24.6005,"longitude":80.8322,"temp":37.3,"humidity":14,"rain":0.0,"pressure":971.3,"uv_index":7.15,"wind_gusts":29.9,"aqi":66,"pm10":79.4,"pm2_5":17.9,"mosquito_risk":0,"arthritis_risk":5,"migraine_risk":10,"frizz_risk":0,"updated_at":"2026-03-13T14:16:04.763521+05:30"},{"city":"Akola","state":"Maharashtra","latitude":20.7002,"longitude":77.0082,"temp":39.0,"humidity":16,"rain":0.0,"pressure":974.6,"uv_index":8.05,"wind_gusts":20.2,"aqi":79,"pm10":21.0,"pm2_5":15.5,"mosquito_risk":0,"arthritis_risk":5,"migraine_risk":10,"frizz_risk":0,"updated_at":"2026-03-13T14:16:04.763528+05:30"},{"city":"Amravati","state":"Maharashtra","latitude":20.9374,"longitude":77.7796,"temp":38.6,"humidity":14,"rain":0.0,"pressure":967.3,"uv_index":8.0,"wind_gusts":14.0,"aqi":85,"pm10":23.1,"pm2_5":16.2,"mosquito_risk":0,"arthritis_risk":5,"migraine_risk":10,"frizz_risk":0,"updated_at":"2026-03-13T14:16:04.763535+05:30"},{"city":"Latur","state":"Maharashtra","latitude":18.4088,"longitude":76.5604,"temp":34.7,"humidity":24,"rain":0.0,"pressure":940.2,"uv_index":8.5,"wind_gusts":21.2,"aqi":97,"pm10":36.1,"pm2_5":28.1,"mosquito_risk":0,"arthritis_risk":5,"migraine_risk":7,"frizz_risk":0,"updated_at":"2026-03-13T14:16:04.763541+05:30"},{"city":"Nanded","state":"Maharashtra","latitude":19.1383,"longitude":77.3091,"temp":38.3,"humidity":18,"rain":0.0,"pressure":968.5,"uv_index":8.3,"wind_gusts":20.9,"aqi":108,"pm10":22.3,"pm2_5":18.6,"mosquito_risk":0,"arthritis_risk":5,"migraine_risk":10,"frizz_risk":0,"updated_at":"2026-03-13T14:16:04.763548+05:30"},{"city":"Gulbarga","state":"Karnataka","latitude":17.3297,"longitude":76.8343,"temp":37.6,"humidity":19,"rain":0.0,"pressure":958.4,"uv_index":8.6,"wind_gusts":32.0,"aqi":91,"pm10":29.9,"pm2_5":23.9,"mosquito_risk":0,"arthritis_risk":5,"migraine_risk":10,"frizz_risk":0,"updated_at":"2026-03-13T14:16:04.763554+05:30"},{"city":"Bidar","state":"Karnataka","latitude":17.9104,"longitude":77.5199,"temp":35.4,"humidity":21,"rain":0.0,"pressure":935.7,"uv_index":8.55,"wind_gusts":26.6,"aqi":102,"pm10":27.6,"pm2_5":21.4,"mosquito_risk":0,"arthritis_risk":5,"migraine_risk":10,"frizz_risk":0,"updated_at":"2026-03-13T14:16:04.763560+05:30"},{"city":"Hospet","state":"Karnataka","latitude":15.2689,"longitude":76.3909,"temp":35.6,"humidity":25,"rain":0.0,"pressure":955.2,"uv_index":8.9,"wind_gusts":24.1,"aqi":88,"pm10":34.0,"pm2_5":26.8,"mosquito_risk":0,"arthritis_risk":5,"migraine_risk":10,"frizz_risk":0,"updated_at":"2026-03-13T14:16:04.763566+05:30"},{"city":"Tirupur","state":"Tamil Nadu","latitude":11.1085,"longitude":77.3411,"temp":35.6,"humidity":27,"rain":0.0,"pressure":974.5,"uv_index":9.25,"wind_gusts":29.9,"aqi":89,"pm10":37.7,"pm2_5":29.7,"mosquito_risk":0,"arthritis_risk":5,"migraine_risk":10,"frizz_risk":0,"updated_at":"2026-03-13T14:16:04.763572+05:30"},{"city":"Alappuzha","state":"Kerala","latitude":9.4981,"longitude":76.3388,"temp":28.5,"humidity":79,"rain":0.0,"pressure":1007.3,"uv_index":9.1,"wind_gusts":27.7,"aqi":90,"pm10":27.8,"pm2_5":26.0,"mosquito_risk":7,"arthritis_risk":5,"migraine_risk":4,"frizz_risk":1,"updated_at":"2026-03-13T14:16:04.763578+05:30"},{"city":"Munnar","state":"Kerala","latitude":10.0889,"longitude":77.0595,"temp":31.6,"humidity":24,"rain":0.0,"pressure":858.5,"uv_index":9.55,"wind_gusts":24.1,"aqi":72,"pm10":17.7,"pm2_5":13.7,"mosquito_risk":0,"arthritis_risk":5,"migraine_risk":7,"frizz_risk":0,"updated_at":"2026-03-13T14:16:04.763584+05:30"},{"city":"Silchar","state":"Assam","latitude":24.8333,"longitude":92.7789,"temp":25.7,"humidity":78,"rain":0.0,"pressure":1004.8,"uv_index":7.75,"wind_gusts":36.4,"aqi":166,"pm10":93.4,"pm2_5":78.2,"mosquito_risk":7,"arthritis_risk":5,"migraine_risk":4,"frizz_risk":1,"updated_at":"2026-03-13T14:16:04.763590+05:30"},{"city":"Dibrugarh","state":"Assam","latitude":27.4728,"longitude":94.912,"temp":23.3,"humidity":81,"rain":0.0,"pressure":995.4,"uv_index":5.5,"wind_gusts":24.8,"aqi":143,"pm10":69.8,"pm2_5":63.3,"mosquito_risk":3,"arthritis_risk":5,"migraine_risk":3,"frizz_risk":1,"updated_at":"2026-03-13T14:16:04.763597+05:30"}]