[{"city":"Delhi","state":"Delhi","latitude":28.6139,"longitude":77.209,"temp":19.6,"humidity":84,"rain":0.0,"pressure":985.1,"uv_index":5.6,"wind_gusts":37.4,"aqi":121,"pm10":148.5,"pm2_5":63.8,"mosquito_risk":3,"arthritis_risk":10,"migraine_risk":3,"frizz_risk":1,"updated_at":"2026-04-04T22:09:38.470213+05:30"},{"city":"Mumbai","state":"Maharashtra","latitude":19.076,"longitude":72.8777,"temp":27.8,"humidity":77,"rain":0.0,"pressure":1010.4,"uv_index":7.9,"wind_gusts":20.9,"aqi":72,"pm10":55.9,"pm2_5":20.1,"mosquito_risk":7,"arthritis_risk":0,"migraine_risk":4,"frizz_risk":1,"updated_at":"2026-04-04T22:09:38.470256+05:30"},{"city":"Bangalore","state":"Karnataka","latitude":12.9716,"longitude":77.5946,"temp":24.9,"humidity":67,"rain":0.0,"pressure":913.0,"uv_index":9.1,"wind_gusts":24.5,"aqi":98,"pm10":56.2,"pm2_5":53.3,"mosquito_risk":3,"arthritis_risk":5,"migraine_risk":7,"frizz_risk":1,"updated_at":"2026-04-04T22:09:38.470271+05:30"},{"city":"Hyderabad","state":"Telangana","latitude":17.385,"longitude":78.4867,"temp":26.8,"humidity":65,"rain":0.0,"pressure":954.2,"uv_index":7.95,"wind_gusts":43.2,"aqi":141,"pm10":60.1,"pm2_5":52.6,"mosquito_risk":7,"arthritis_risk":5,"migraine_risk":7,"frizz_risk":1,"updated_at":"2026-04-04T22:09:38.470280+05:30"},{"city":"Chennai","state":"Tamil Nadu","latitude":13.0827,"longitude":80.2707,"temp":28.9,"humidity":87,"rain":0.0,"pressure":1007.5,"uv_index":8.75,"wind_gusts":31.0,"aqi":79,"pm10":16.4,"pm2_5":12.8,"mosquito_risk":7,"arthritis_risk":5,"migraine_risk":4,"frizz_risk":1,"updated_at":"2026-04-04T22:09:38.470288+05:30"},{"city":"Kolkata","state":"West Bengal","latitude":22.5726,"longitude":88.3639,"temp":28.5,"humidity":85,"rain":0.0,"pressure":1004.9,"uv_index":8.55,"wind_gusts":19.1,"aqi":167,"pm10":50.1,"pm2_5":47.1,"mosquito_risk":7,"arthritis_risk":5,"migraine_risk":4,"frizz_risk":1,"updated_at":"2026-04-04T22:09:38.470296+05:30"},{"city":"Pune","state":"Maharashtra","latitude":18.5204,"longitude":73.8567,"temp":24.1,"humidity":73,"rain":0.0,"pressure":949.8,"uv_index":8.5,"wind_gusts":40.0,"aqi":129,"pm10":27.4,"pm2_5":23.3,"mosquito_risk":3,"arthritis_risk":5,"migraine_risk":7,"frizz_risk":1,"updated_at":"2026-04-04T22:09:38.470305+05:30"},{"city":"Ahmedabad","state":"Gujarat","latitude":23.0225,"longitude":72.5714,"temp":27.1,"humidity":42,"rain":0.0,"pressure":1003.5,"uv_index":7.5,"wind_gusts":24.8,"aqi":60,"pm10":23.1,"pm2_5":16.5,"mosquito_risk":4,"arthritis_risk":5,"migraine_risk":4,"frizz_risk":0,"updated_at":"2026-04-04T22:09:38.470311+05:30"},{"city":"Jaipur","state":"Rajasthan","latitude":26.9124,"longitude":75.7873,"temp":22.5,"humidity":68,"rain":0.0,"pressure":961.0,"uv_index":7.45,"wind_gusts":30.6,"aqi":80,"pm10":268.2,"pm2_5":43.2,"mosquito_risk":3,"arthritis_risk":5,"migraine_risk":7,"frizz_risk":1,"updated_at":"2026-04-04T22:09:38.470318+05:30"},{"city":"Lucknow","state":"Uttar Pradesh","latitude":26.8467,"longitude":80.9462,"temp":25.5,"humidity":64,"rain":0.0,"pressure":995.2,"uv_index":6.3,"wind_gusts":48.6,"aqi":155,"pm10":268.2,"pm2_5":61.2,"mosquito_risk":7,"arthritis_risk":5,"migraine_risk":7,"frizz_risk":1,"updated_at":"2026-04-04T22:09:38.470324+05:30"},{"city":"Kanpur","state":"Uttar Pradesh","latitude":26.4499,"longitude":80.3319,"temp":24.0,"humidity":72,"rain":0.0,"pressure":993.5,"uv_index":6.75,"wind_gusts":33.1,"aqi":295,"pm10":362.3,"pm2_5":67.3,"mosquito_risk":3,"arthritis_risk":5,"migraine_risk":7,"frizz_risk":1,"updated_at":"2026-04-04T22:09:38.470330+05:30"},{"city":"Chandigarh","state":"Chandigarh","latitude":30.7333,"longitude":76.7794,"temp":18.7,"humidity":84,"rain":0.0,"pressure":971.2,"uv_index":5.9,"wind_gusts":32.0,"aqi":91,"pm10":61.0,"pm2_5":38.2,"mosquito_risk":3,"arthritis_risk":10,"migraine_risk":3,"frizz_risk":0,"updated_at":"2026-04-04T22:09:38.470336+05:30"},{"city":"Srinagar","state":"Jammu and Kashmir","latitude":34.0837,"longitude":74.7973,"temp":8.5,"humidity":85,"rain":0.0,"pressure":840.8,"uv_index":5.25,"wind_gusts":37.1,"aqi":63,"pm10":41.3,"pm2_5":39.1,"mosquito_risk":3,"arthritis_risk":10,"migraine_risk":3,"frizz_risk":0,"updated_at":"2026-04-04T22:09:38.470342+05:30"},{"city":"Jammu","state":"Jammu and Kashmir","latitude":32.7266,"longitude":74.857,"temp":17.8,"humidity":85,"rain":0.0,"pressure":975.2,"uv_index":6.55,"wind_gusts":46.4,"aqi":66,"pm10":107.3,"pm2_5":50.4,"mosquito_risk":3,"arthritis_risk":10,"migraine_risk":7,"frizz_risk":0,"updated_at":"2026-04-04T22:09:38.470348+05:30"},{"city":"Amritsar","state":"Punjab","latitude":31.634,"longitude":74.8723,"temp":17.3,"humidity":93,"rain":0.0,"pressure":983.8,"uv_index":6.15,"wind_gusts":32.0,"aqi":85,"pm10":99.9,"pm2_5":52.6,"mosquito_risk":3,"arthritis_risk":10,"migraine_risk":7,"frizz_risk":1,"updated_at":"2026-04-04T22:09:38.470353+05:30"},{"city":"Ludhiana","state":"Punjab","latitude":30.901,"longitude":75.8573,"temp":18.8,"humidity":83,"rain":0.0,"pressure":982.0,"uv_index":6.7,"wind_gusts":32.8,"aqi":119,"pm10":76.6,"pm2_5":37.1,"mosquito_risk":3,"arthritis_risk":10,"migraine_risk":7,"frizz_risk":0,"updated_at":"2026-04-04T22:09:38.470359+05:30"},{"city":"Jalandhar","state":"Punjab","latitude":31.326,"longitude":75.5762,"temp":18.2,"humidity":87,"rain":0.0,"pressure":982.8,"uv_index":6.75,"wind_gusts":34.2,"aqi":100,"pm10":102.2,"pm2_5":38.5,"mosquito_risk":3,"arthritis_risk":10,"migraine_risk":7,"frizz_risk":0,"updated_at":"2026-04-04T22:09:38.470366+05:30"},{"city":"Dehradun","state":"Uttarakhand","latitude":30.6284,"longitude":78.0322,"temp":12.5,"humidity":78,"rain":0.0,"pressure":830.2,"uv_index":3.85,"wind_gusts":38.9,"aqi":47,"pm10":23.9,"pm2_5":12.0,"mosquito_risk":3,"arthritis_risk":5,"migraine_risk":3,"frizz_risk":0,"updated_at":"2026-04-04T22:09:38.470372+05:30"},{"city":"Shimla","state":"Himachal Pradesh","latitude":31.1048,"longitude":77.1734,"temp":10.6,"humidity":87,"rain":0.0,"pressure":783.5,"uv_index":5.55,"wind_gusts":49.7,"aqi":51,"pm10":22.1,"pm2_5":10.4,"mosquito_risk":3,"arthritis_risk":10,"migraine_risk":3,"frizz_risk":0,"updated_at":"2026-04-04T22:09:38.470377+05:30"},{"city":"Manali","state":"Himachal Pradesh","latitude":32.2396,"longitude":77.1887,"temp":13.5,"humidity":44,"rain":0.0,"pressure":818.1,"uv_index":7.2,"wind_gusts":31.3,"aqi":65,"pm10":15.9,"pm2_5":7.3,"mosquito_risk":0,"arthritis_risk":5,"migraine_risk":7,"frizz_risk":0,"updated_at":"2026-04-04T22:09:38.470384+05:30"},{"city":"Gurgaon","state":"Haryana","latitude":28.4595,"longitude":77.0266,"temp":19.3,"humidity":89,"rain":0.0,"pressure":983.4,"uv_index":6.2,"wind_gusts":46.4,"aqi":372,"pm10":104.5,"pm2_5":54.5,"mosquito_risk":3,"arthritis_risk":10,"migraine_risk":7,"frizz_risk":1,"updated_at":"2026-04-04T22:09:38.470390+05:30"},{"city":"Noida","state":"Uttar Pradesh","latitude":28.5355,"longitude":77.391,"temp":19.8,"humidity":83,"rain":0.0,"pressure":986.9,"uv_index":5.7,"wind_gusts":43.6,"aqi":372,"pm10":104.5,"pm2_5":54.5,"mosquito_risk":3,"arthritis_risk":10,"migraine_risk":3,"frizz_risk":1,"updated_at":"2026-04-04T22:09:38.470395+05:30"},{"city":"Ghaziabad","state":"Uttar Pradesh","latitude":28.6692,"longitude":77.4538,"temp":19.1,"humidity":86,"rain":0.0,"pressure":985.2,"uv_index":5.55,"wind_gusts":43.2,"aqi":134,"pm10":205.8,"pm2_5":64.0,"mosquito_risk":3,"arthritis_risk":10,"migraine_risk":3,"frizz_risk":1,"updated_at":"2026-04-04T22:09:38.470401+05:30"},{"city":"Faridabad","state":"Haryana","latitude":28.4089,"longitude":77.3178,"temp":20.1,"humidity":81,"rain":0.0,"pressure":986.1,"uv_index":5.8,"wind_gusts":38.9,"aqi":372,"pm10":104.5,"pm2_5":54.5,"mosquito_risk":3,"arthritis_risk":5,"migraine_risk":3,"frizz_risk":1,"updated_at":"2026-04-04T22:09:38.470406+05:30"},{"city":"Meerut","state":"Uttar Pradesh","latitude":28.9845,"longitude":77.7064,"temp":19.9,"humidity":89,"rain":0.0,"pressure":983.0,"uv_index":6.45,"wind_gusts":46.4,"aqi":134,"pm10":205.8,"pm2_5":64.0,"mosquito_risk":3,"arthritis_risk":10,"migraine_risk":7,"frizz_risk":1,"updated_at":"2026-04-04T22:09:38.470411+05:30"},{"city":"Agra","state":"Uttar Pradesh","latitude":27.1767,"longitude":78.0081,"temp":21.8,"humidity":85,"rain":0.0,"pressure":989.4,"uv_index":6.8,"wind_gusts":35.6,"aqi":473,"pm10":192.8,"pm2_5":45.9,"mosquito_risk":3,"arthritis_risk":5,"migraine_risk":7,"frizz_risk":1,"updated_at":"2026-04-04T22:09:38.470417+05:30"},{"city":"Varanasi","state":"Uttar Pradesh","latitude":25.3176,"longitude":82.9739,"temp":26.6,"humidity":74,"rain":0.0,"pressure":997.8,"uv_index":6.05,"wind_gusts":24.8,"aqi":76,"pm10":50.4,"pm2_5":38.4,"mosquito_risk":7,"arthritis_risk":5,"migraine_risk":7,"frizz_risk":1,"updated_at":"2026-04-04T22:09:38.470425+05:30"},{"city":"Prayagraj","state":"Uttar Pradesh","latitude":25.4358,"longitude":81.8463,"temp":27.5,"humidity":67,"rain":0.0,"pressure":997.7,"uv_index":5.45,"wind_gusts":35.6,"aqi":79,"pm10":104.8,"pm2_5":45.5,"mosquito_risk":7,"arthritis_risk":5,"migraine_risk":3,"frizz_risk":1,"updated_at":"2026-04-04T22:09:38.470431+05:30"},{"city":"Gorakhpur","state":"Uttar Pradesh","latitude":26.7606,"longitude":83.3732,"temp":27.9,"humidity":54,"rain":0.0,"pressure":996.5,"uv_index":6.8,"wind_gusts":37.1,"aqi":93,"pm10":80.8,"pm2_5":41.8,"mosquito_risk":4,"arthritis_risk":5,"migraine_risk":7,"frizz_risk":1,"updated_at":"2026-04-04T22:09:38.470437+05:30"},{"city":"Bareilly","state":"Uttar Pradesh","latitude":28.367,"longitude":79.4304,"temp":23.1,"humidity":76,"rain":0.0,"pressure":987.8,"uv_index":5.35,"wind_gusts":24.5,"aqi":101,"pm10":39.2,"pm2_5":28.3,"mosquito_risk":3,"arthritis_risk":5,"migraine_risk":3,"frizz_risk":1,"updated_at":"2026-04-04T22:09:38.470442+05:30"},{"city":"Aligarh","state":"Uttar Pradesh","latitude":27.8974,"longitude":78.088,"temp":22.1,"humidity":82,"rain":0.0,"pressure":986.8,"uv_index":5.3,"wind_gusts":40.7,"aqi":556,"pm10":765.5,"pm2_5":117.8,"mosquito_risk":3,"arthritis_risk":5,"migraine_risk":3,"frizz_risk":1,"updated_at":"2026-04-04T22:09:38.470447+05:30"},{"city":"Moradabad","state":"Uttar Pradesh","latitude":28.8386,"longitude":78.7733,"temp":22.0,"humidity":76,"rain":0.0,"pressure":984.4,"uv_index":6.0,"wind_gusts":31.0,"aqi":115,"pm10":57.4,"pm2_5":28.0,"mosquito_risk":3,"arthritis_risk":5,"migraine_risk":3,"frizz_risk":1,"updated_at":"2026-04-04T22:09:38.470452+05:30"},{"city":"Saharanpur","state":"Uttar Pradesh","latitude":29.9637,"longitude":77.546,"temp":19.6,"humidity":77,"rain":0.0,"pressure":977.7,"uv_index":5.6,"wind_gusts":35.6,"aqi":144,"pm10":66.4,"pm2_5":34.3,"mosquito_risk":3,"arthritis_risk":5,"migraine_risk":3,"frizz_risk":0,"updated_at":"2026-04-04T22:09:38.470457+05:30"},{"city":"Jhansi","state":"Uttar Pradesh","latitude":25.4484,"longitude":78.5685,"temp":24.3,"humidity":77,"rain":0.0,"pressure":979.5,"uv_index":7.15,"wind_gusts":45.0,"aqi":83,"pm10":29.9,"pm2_5":15.6,"mosquito_risk":3,"arthritis_risk":5,"migraine_risk":7,"frizz_risk":1,"updated_at":"2026-04-04T22:09:41.788053+05:30"},{"city":"Surat","state":"Gujarat","latitude":21.1702,"longitude":72.8311,"temp":26.9,"humidity":81,"rain":0.0,"pressure":1008.5,"uv_index":7.6,"wind_gusts":25.6,"aqi":77,"pm10":43.9,"pm2_5":25.0,"mosquito_risk":7,"arthritis_risk":0,"migraine_risk":4,"frizz_risk":1,"updated_at":"2026-04-04T22:09:41.788082+05:30"},{"city":"Vadodara","state":"Gujarat","latitude":22.3072,"longitude":73.1812,"temp":27.1,"humidity":72,"rain":0.0,"pressure":1005.8,"uv_index":7.85,"wind_gusts":25.9,"aqi":78,"pm10":47.0,"pm2_5":25.9,"mosquito_risk":7,"arthritis_risk":5,"migraine_risk":4,"frizz_risk":1,"updated_at":"2026-04-04T22:09:41.788092+05:30"},{"city":"Rajkot","state":"Gujarat","latitude":22.3039,"longitude":70.8022,"temp":25.0,"humidity":44,"rain":0.0,"pressure":996.4,"uv_index":7.55,"wind_gusts":32.8,"aqi":108,"pm10":22.5,"pm2_5":14.5,"mosquito_risk":4,"arthritis_risk":5,"migraine_risk":7,"frizz_risk":0,"updated_at":"2026-04-04T22:09:41.788100+05:30"},{"city":"Thane","state":"Maharashtra","latitude":19.2183,"longitude":72.9781,"temp":26.8,"humidity":80,"rain":0.0,"pressure":1009.9,"uv_index":7.9,"wind_gusts":36.7,"aqi":72,"pm10":55.9,"pm2_5":20.1,"mosquito_risk":7,"arthritis_risk":0,"migraine_risk":4,"frizz_risk":1,"updated_at":"2026-04-04T22:09:41.788108+05:30"},{"city":"Nagpur","state":"Maharashtra","latitude":21.1458,"longitude":79.0882,"temp":25.4,"humidity":76,"rain":0.0,"pressure":973.8,"uv_index":7.65,"wind_gusts":36.4,"aqi":126,"pm10":68.9,"pm2_5":63.8,"mosquito_risk":7,"arthritis_risk":5,"migraine_risk":7,"frizz_risk":1,"updated_at":"2026-04-04T22:09:41.788116+05:30"},{"city":"Nashik","state":"Maharashtra","latitude":19.9975,"longitude":73.7898,"temp":22.9,"humidity":76,"rain":0.0,"pressure":946.9,"uv_index":8.15,"wind_gusts":37.4,"aqi":56,"pm10":26.3,"pm2_5":12.2,"mosquito_risk":3,"arthritis_risk":5,"migraine_risk":7,"frizz_risk":1,"updated_at":"2026-04-04T22:09:41.788123+05:30"},{"city":"Aurangabad","state":"Maharashtra","latitude":19.8762,"longitude":75.3433,"temp":27.3,"humidity":49,"rain":0.0,"pressure":944.9,"uv_index":8.85,"wind_gusts":36.7,"aqi":73,"pm10":17.3,"pm2_5":12.6,"mosquito_risk":4,"arthritis_risk":5,"migraine_risk":7,"frizz_risk":0,"updated_at":"2026-04-04T22:09:41.788130+05:30"},{"city":"Solapur","state":"Maharashtra","latitude":17.6599,"longitude":75.9064,"temp":30.4,"humidity":39,"rain":0.0,"pressure":957.2,"uv_index":8.9,"wind_gusts":25.9,"aqi":115,"pm10":44.0,"pm2_5":38.1,"mosquito_risk":0,"arthritis_risk":5,"migraine_risk":7,"frizz_risk":0,"updated_at":"2026-04-04T22:09:41.788138+05:30"},{"city":"Kolhapur","state":"Maharashtra","latitude":16.705,"longitude":74.2433,"temp":22.8,"humidity":77,"rain":0.0,"pressure":948.9,"uv_index":8.95,"wind_gusts":44.6,"aqi":85,"pm10":27.3,"pm2_5":21.0,"mosquito_risk":3,"arthritis_risk":5,"migraine_risk":7,"frizz_risk":1,"updated_at":"2026-04-04T22:09:41.788145+05:30"},{"city":"Goa","state":"Goa","latitude":15.2993,"longitude":74.124,"temp":28.2,"humidity":76,"rain":0.0,"pressure":999.8,"uv_index":8.15,"wind_gusts":36.4,"aqi":65,"pm10":38.3,"pm2_5":18.3,"mosquito_risk":7,"arthritis_risk":5,"migraine_risk":7,"frizz_risk":1,"updated_at":"2026-04-04T22:09:41.788152+05:30"},{"city":"Jodhpur","state":"Rajasthan","latitude":26.2389,"longitude":73.0243,"temp":24.6,"humidity":38,"rain":0.0,"pressure":984.6,"uv_index":7.6,"wind_gusts":28.4,"aqi":94,"pm10":136.9,"pm2_5":24.1,"mosquito_risk":0,"arthritis_risk":5,"migraine_risk":7,"frizz_risk":0,"updated_at":"2026-04-04T22:09:41.788159+05:30"},{"city":"Udaipur","state":"Rajasthan","latitude":24.5854,"longitude":73.7125,"temp":22.1,"humidity":46,"rain":0.0,"pressure":947.6,"uv_index":7.5,"wind_gusts":37.8,"aqi":66,"pm10":13.6,"pm2_5":7.8,"mosquito_risk":0,"arthritis_risk":5,"migraine_risk":7,"frizz_risk":0,"updated_at":"2026-04-04T22:09:41.788166+05:30"},{"city":"Kota","state":"Rajasthan","latitude":25.2138,"longitude":75.8648,"temp":25.6,"humidity":57,"rain":0.0,"pressure":979.3,"uv_index":7.8,"wind_gusts":34.2,"aqi":67,"pm10":30.4,"pm2_5":15.9,"mosquito_risk":4,"arthritis_risk":5,"migraine_risk":7,"frizz_risk":1,"updated_at":"2026-04-04T22:09:41.788173+05:30"},{"city":"Bikaner","state":"Rajasthan","latitude":28.0229,"longitude":73.3119,"temp":23.8,"humidity":47,"rain":0.0,"pressure":983.9,"uv_index":7.15,"wind_gusts":29.9,"aqi":88,"pm10":18.5,"pm2_5":10.4,"mosquito_risk":0,"arthritis_risk":5,"migraine_risk":7,"frizz_risk":0,"updated_at":"2026-04-04T22:09:41.788180+05:30"},{"city":"Ajmer","state":"Rajasthan","latitude":26.4499,"longitude":74.6399,"temp":23.3,"humidity":47,"rain":0.0,"pressure":955.8,"uv_index":7.65,"wind_gusts":36.0,"aqi":72,"pm10":31.9,"pm2_5":13.7,"mosquito_risk":0,"arthritis_risk":5,"migraine_risk":7,"frizz_risk":0,"updated_at":"2026-04-04T22:09:41.788187+05:30"},{"city":"Gwalior","state":"Madhya Pradesh","latitude":26.2183,"longitude":78.1828,"temp":23.2,"humidity":73,"rain":0.0,"pressure":985.2,"uv_index":7.3,"wind_gusts":29.5,"aqi":107,"pm10":42.8,"pm2_5":18.6,"mosquito_risk":3,"arthritis_risk":5,"migraine_risk":7,"frizz_risk":1,"updated_at":"2026-04-04T22:09:41.788194+05:30"},{"city":"Indore","state":"Madhya Pradesh","latitude":22.7196,"longitude":75.8577,"temp":23.2,"humidity":73,"rain":0.0,"pressure":948.8,"uv_index":8.35,"wind_gusts":38.9,"aqi":64,"pm10":32.7,"pm2_5":21.5,"mosquito_risk":3,"arthritis_risk":5,"migraine_risk":7,"frizz_risk":1,"updated_at":"2026-04-04T22:09:41.788200+05:30"},{"city":"Bhopal","state":"Madhya Pradesh","latitude":23.2599,"longitude":77.4126,"temp":25.0,"humidity":57,"rain":0.0,"pressure":954.6,"uv_index":8.3,"wind_gusts":34.6,"aqi":64,"pm10":27.7,"pm2_5":19.5,"mosquito_risk":4,"arthritis_risk":5,"migraine_risk":7,"frizz_risk":0,"updated_at":"2026-04-04T22:09:41.788207+05:30"},{"city":"Jabalpur","state":"Madhya Pradesh","latitude":23.1815,"longitude":79.9864,"temp":25.9,"humidity":59,"rain":0.0,"pressure":963.3,"uv_index":6.8,"wind_gusts":31.0,"aqi":75,"pm10":24.4,"pm2_5":21.7,"mosquito_risk":4,"arthritis_risk":5,"migraine_risk":7,"frizz_risk":1,"updated_at":"2026-04-04T22:09:41.788214+05:30"},{"city":"Ujjain","state":"Madhya Pradesh","latitude":23.1765,"longitude":75.7885,"temp":23.8,"humidity":66,"rain":0.0,"pressure":954.6,"uv_index":8.25,"wind_gusts":33.8,"aqi":64,"pm10":49.2,"pm2_5":27.6,"mosquito_risk":3,"arthritis_risk":5,"migraine_risk":7,"frizz_risk":1,"updated_at":"2026-04-04T22:09:41.788222+05:30"},{"city":"Visakhapatnam","state":"Andhra Pradesh","latitude":17.6868,"longitude":83.2185,"temp":27.4,"humidity":84,"rain":0.0,"pressure":1004.4,"uv_index":8.4,"wind_gusts":36.7,"aqi":60,"pm10":16.5,"pm2_5":13.3,"mosquito_risk":7,"arthritis_risk":5,"migraine_risk":4,"frizz_risk":1,"updated_at":"2026-04-04T22:09:41.788228+05:30"},{"city":"Vijayawada","state":"Andhra Pradesh","latitude":16.5062,"longitude":80.648,"temp":28.5,"humidity":70,"rain":0.0,"pressure":1003.0,"uv_index":8.8,"wind_gusts":20.9,"aqi":61,"pm10":26.2,"pm2_5":25.6,"mosquito_risk":7,"arthritis_risk":5,"migraine_risk":4,"frizz_risk":1,"updated_at":"2026-04-04T22:09:41.788235+05:30"},{"city":"Guntur","state":"Andhra Pradesh","latitude":16.3067,"longitude":80.4365,"temp":28.1,"humidity":73,"rain":0.0,"pressure":1004.2,"uv_index":8.6,"wind_gusts":30.6,"aqi":61,"pm10":27.9,"pm2_5":27.0,"mosquito_risk":7,"arthritis_risk":5,"migraine_risk":4,"frizz_risk":1,"updated_at":"2026-04-04T22:09:41.788242+05:30"},{"city":"Nellore","state":"Andhra Pradesh","latitude":14.4426,"longitude":79.9865,"temp":27.7,"humidity":92,"rain":0.0,"pressure":1006.4,"uv_index":8.75,"wind_gusts":31.0,"aqi":76,"pm10":16.9,"pm2_5":14.1,"mosquito_risk":7,"arthritis_risk":5,"migraine_risk":4,"frizz_risk":1,"updated_at":"2026-04-04T22:09:41.788249+05:30"},{"city":"Kurnool","state":"Andhra Pradesh","latitude":15.8281,"longitude":78.0373,"temp":32.4,"humidity":43,"rain":0.0,"pressure":976.5,"uv_index":8.15,"wind_gusts":22.0,"aqi":112,"pm10":29.5,"pm2_5":24.6,"mosquito_risk":0,"arthritis_risk":5,"migraine_risk":7,"frizz_risk":1,"updated_at":"2026-04-04T22:09:41.788256+05:30"},{"city":"Kakinada","state":"Andhra Pradesh","latitude":16.9891,"longitude":82.2475,"temp":27.4,"humidity":79,"rain":0.0,"pressure":1008.0,"uv_index":8.5,"wind_gusts":34.6,"aqi":35,"pm10":15.3,"pm2_5":11.8,"mosquito_risk":7,"arthritis_risk":0,"migraine_risk":4,"frizz_risk":1,"updated_at":"2026-04-04T22:09:41.788263+05:30"},{"city":"Tirupati","state":"Andhra Pradesh","latitude":13.6288,"longitude":79.4192,"temp":28.4,"humidity":82,"rain":0.0,"pressure":992.5,"uv_index":8.8,"wind_gusts":26.3,"aqi":85,"pm10":26.0,"pm2_5":25.1,"mosquito_risk":7,"arthritis_risk":5,"migraine_risk":7,"frizz_risk":1,"updated_at":"2026-04-04T22:09:41.788270+05:30"},{"city":"Warangal","state":"Telangana","latitude":17.9689,"longitude":79.5941,"temp":26.6,"humidity":77,"rain":0.0,"pressure":979.3,"uv_index":8.0,"wind_gusts":31.0,"aqi":133,"pm10":74.3,"pm2_5":67.1,"mosquito_risk":7,"arthritis_risk":5,"migraine_risk":7,"frizz_risk":1,"updated_at":"2026-04-04T22:09:41.788276+05:30"},{"city":"Nizamabad","state":"Telangana","latitude":18.6725,"longitude":78.0941,"temp":27.4,"humidity":68,"rain":0.0,"pressure":965.3,"uv_index":8.2,"wind_gusts":29.9,"aqi":126,"pm10":51.0,"pm2_5":45.4,"mosquito_risk":7,"arthritis_risk":5,"migraine_risk":7,"frizz_risk":1,"updated_at":"2026-04-04T22:09:41.788283+05:30"},{"city":"Mysore","state":"Karnataka","latitude":12.2958,"longitude":76.6396,"temp":23.7,"humidity":84,"rain":0.0,"pressure":929.8,"uv_index":9.05,"wind_gusts":32.0,"aqi":104,"pm10":22.0,"pm2_5":21.1,"mosquito_risk":3,"arthritis_risk":5,"migraine_risk":7,"frizz_risk":1,"updated_at":"2026-04-04T22:09:41.788289+05:30"},{"city":"Mangalore","state":"Karnataka","latitude":12.9141,"longitude":74.856,"temp":29.2,"humidity":78,"rain":0.0,"pressure":1008.8,"uv_index":8.1,"wind_gusts":20.5,"aqi":60,"pm10":26.3,"pm2_5":22.0,"mosquito_risk":7,"arthritis_risk":0,"migraine_risk":4,"frizz_risk":1,"updated_at":"2026-04-04T22:09:41.788295+05:30"},{"city":"Hubli-Dharwad","state":"Karnataka","latitude":15.3647,"longitude":75.124,"temp":24.6,"humidity":80,"rain":0.0,"pressure":942.2,"uv_index":8.6,"wind_gusts":41.8,"aqi":98,"pm10":16.2,"pm2_5":13.7,"mosquito_risk":3,"arthritis_risk":5,"migraine_risk":7,"frizz_risk":1,"updated_at":"2026-04-04T22:09:41.788303+05:30"},{"city":"Belgaum","state":"Karnataka","latitude":15.8497,"longitude":74.4977,"temp":22.7,"humidity":85,"rain":0.0,"pressure":926.7,"uv_index":9.1,"wind_gusts":37.8,"aqi":69,"pm10":26.1,"pm2_5":16.8,"mosquito_risk":3,"arthritis_risk":5,"migraine_risk":7,"frizz_risk":1,"updated_at":"2026-04-04T22:09:45.079330+05:30"},{"city":"Coimbatore","state":"Tamil Nadu","latitude":11.0168,"longitude":76.9558,"temp":25.8,"humidity":79,"rain":0.0,"pressure":963.3,"uv_index":8.95,"wind_gusts":50.4,"aqi":71,"pm10":18.9,"pm2_5":18.1,"mosquito_risk":7,"arthritis_risk":5,"migraine_risk":7,"frizz_risk":1,"updated_at":"2026-04-04T22:09:45.079357+05:30"},{"city":"Madurai","state":"Tamil Nadu","latitude":9.9252,"longitude":78.1198,"temp":26.9,"humidity":80,"rain":0.0,"pressure":994.2,"uv_index":8.6,"wind_gusts":24.8,"aqi":115,"pm10":37.3,"pm2_5":36.0,"mosquito_risk":7,"arthritis_risk":5,"migraine_risk":7,"frizz_risk":1,"updated_at":"2026-04-04T22:09:45.079365+05:30"},{"city":"Trichy","state":"Tamil Nadu","latitude":10.7905,"longitude":78.7047,"temp":28.3,"humidity":73,"rain":0.0,"pressure":1000.9,"uv_index":9.15,"wind_gusts":20.2,"aqi":88,"pm10":31.2,"pm2_5":30.0,"mosquito_risk":7,"arthritis_risk":5,"migraine_risk":4,"frizz_risk":1,"updated_at":"2026-04-04T22:09:45.079372+05:30"},{"city":"Salem","state":"Tamil Nadu","latitude":11.6643,"longitude":78.146,"temp":28.8,"humidity":66,"rain":0.0,"pressure":978.3,"uv_index":8.5,"wind_gusts":38.2,"aqi":159,"pm10":34.5,"pm2_5":31.4,"mosquito_risk":7,"arthritis_risk":5,"migraine_risk":7,"frizz_risk":1,"updated_at":"2026-04-04T22:09:45.079378+05:30"},{"city":"Tirunelveli","state":"Tamil Nadu","latitude":8.7139,"longitude":77.7567,"temp":28.5,"humidity":71,"rain":0.0,"pressure":1004.3,"uv_index":8.45,"wind_gusts":24.5,"aqi":62,"pm10":19.0,"pm2_5":18.2,"mosquito_risk":7,"arthritis_risk":5,"migraine_risk":4,"frizz_risk":1,"updated_at":"2026-04-04T22:09:45.079384+05:30"},{"city":"Vellore","state":"Tamil Nadu","latitude":12.9165,"longitude":79.1325,"temp":28.2,"humidity":75,"rain":0.0,"pressure":985.3,"uv_index":8.75,"wind_gusts":26.6,"aqi":119,"pm10":34.5,"pm2_5":33.2,"mosquito_risk":7,"arthritis_risk":5,"migraine_risk":7,"frizz_risk":1,"updated_at":"2026-04-04T22:09:45.079390+05:30"},{"city":"Erode","state":"Tamil Nadu","latitude":11.341,"longitude":77.7172,"temp":28.8,"humidity":71,"rain":0.0,"pressure":989.8,"uv_index":8.8,"wind_gusts":45.4,"aqi":121,"pm10":23.5,"pm2_5":22.1,"mosquito_risk":7,"arthritis_risk":5,"migraine_risk":7,"frizz_risk":1,"updated_at":"2026-04-04T22:09:45.079396+05:30"},{"city":"Kochi","state":"Kerala","latitude":9.9312,"longitude":76.2673,"temp":29.5,"humidity":78,"rain":0.0,"pressure":1010.4,"uv_index":8.7,"wind_gusts":21.2,"aqi":61,"pm10":21.7,"pm2_5":20.0,"mosquito_risk":7,"arthritis_risk":0,"migraine_risk":4,"frizz_risk":1,"updated_at":"2026-04-04T22:09:45.079402+05:30"},{"city":"Thiruvananthapuram","state":"Kerala","latitude":8.5241,"longitude":76.9366,"temp":29.4,"humidity":80,"rain":0.0,"pressure":1009.5,"uv_index":8.55,"wind_gusts":29.5,"aqi":56,"pm10":14.8,"pm2_5":10.6,"mosquito_risk":7,"arthritis_risk":0,"migraine_risk":4,"frizz_risk":1,"updated_at":"2026-04-04T22:09:45.079408+05:30"},{"city":"Kozhikode","state":"Kerala","latitude":11.2588,"longitude":75.7804,"temp":29.3,"humidity":80,"rain":0.0,"pressure":1009.6,"uv_index":8.25,"wind_gusts":26.3,"aqi":50,"pm10":15.0,"pm2_5":10.9,"mosquito_risk":7,"arthritis_risk":0,"migraine_risk":4,"frizz_risk":1,"updated_at":"2026-04-04T22:09:45.079414+05:30"},{"city":"Thrissur","state":"Kerala","latitude":10.5276,"longitude":76.2144,"temp":28.3,"humidity":83,"rain":0.0,"pressure":1008.7,"uv_index":8.5,"wind_gusts":28.1,"aqi":54,"pm10":30.6,"pm2_5":28.3,"mosquito_risk":7,"arthritis_risk":0,"migraine_risk":4,"frizz_risk":1,"updated_at":"2026-04-04T22:09:45.079419+05:30"},{"city":"Kannur","state":"Kerala","latitude":11.8745,"longitude":75.3704,"temp":28.1,"humidity":82,"rain":0.0,"pressure":1009.1,"uv_index":8.2,"wind_gusts":24.1,"aqi":60,"pm10":16.2,"pm2_5":13.9,"mosquito_risk":7,"arthritis_risk":0,"migraine_risk":4,"frizz_risk":1,"updated_at":"2026-04-04T22:09:45.079425+05:30"},{"city":"Patna","state":"Bihar","latitude":25.5941,"longitude":85.1376,"temp":29.0,"humidity":55,"rain":0.0,"pressure":999.4,"uv_index":7.95,"wind_gusts":34.6,"aqi":107,"pm10":43.3,"pm2_5":30.2,"mosquito_risk":4,"arthritis_risk":5,"migraine_risk":7,"frizz_risk":1,"updated_at":"2026-04-04T22:09:45.079431+05:30"},{"city":"Gaya","state":"Bihar","latitude":24.7914,"longitude":85.0002,"temp":28.3,"humidity":57,"rain":0.0,"pressure":993.4,"uv_index":8.4,"wind_gusts":22.7,"aqi":89,"pm10":28.9,"pm2_5":27.1,"mosquito_risk":4,"arthritis_risk":5,"migraine_risk":7,"frizz_risk":1,"updated_at":"2026-04-04T22:09:45.079436+05:30"},{"city":"Muzaffarpur","state":"Bihar","latitude":26.1209,"longitude":85.3647,"temp":27.9,"humidity":52,"rain":0.0,"pressure":998.9,"uv_index":7.9,"wind_gusts":32.8,"aqi":103,"pm10":58.0,"pm2_5":34.7,"mosquito_risk":4,"arthritis_risk":5,"migraine_risk":7,"frizz_risk":1,"updated_at":"2026-04-04T22:09:45.079441+05:30"},{"city":"Bhagalpur","state":"Bihar","latitude":25.2425,"longitude":87.0117,"temp":27.9,"humidity":60,"rain":0.0,"pressure":999.3,"uv_index":8.25,"wind_gusts":27.0,"aqi":115,"pm10":41.7,"pm2_5":26.8,"mosquito_risk":4,"arthritis_risk":5,"migraine_risk":7,"frizz_risk":1,"updated_at":"2026-04-04T22:09:45.079446+05:30"},{"city":"Ranchi","state":"Jharkhand","latitude":23.3441,"longitude":85.3096,"temp":26.3,"humidity":53,"rain":0.0,"pressure":938.2,"uv_index":8.2,"wind_gusts":37.8,"aqi":84,"pm10":24.4,"pm2_5":21.9,"mosquito_risk":4,"arthritis_risk":5,"migraine_risk":7,"frizz_risk":0,"updated_at":"2026-04-04T22:09:45.079452+05:30"},{"city":"Jamshedpur","state":"Jharkhand","latitude":22.8046,"longitude":86.2029,"temp":31.0,"humidity":45,"rain":0.0,"pressure":990.1,"uv_index":8.5,"wind_gusts":17.3,"aqi":119,"pm10":32.1,"pm2_5":29.0,"mosquito_risk":0,"arthritis_risk":5,"migraine_risk":7,"frizz_risk":1,"updated_at":"2026-04-04T22:09:45.079457+05:30"},{"city":"Dhanbad","state":"Jharkhand","latitude":23.7957,"longitude":86.4304,"temp":30.2,"humidity":38,"rain":0.0,"pressure":979.2,"uv_index":8.55,"wind_gusts":19.8,"aqi":92,"pm10":32.6,"pm2_5":29.0,"mosquito_risk":0,"arthritis_risk":5,"migraine_risk":7,"frizz_risk":0,"updated_at":"2026-04-04T22:09:45.079463+05:30"},{"city":"Bokaro","state":"Jharkhand","latitude":23.6693,"longitude":86.1511,"temp":29.6,"humidity":41,"rain":0.0,"pressure":983.6,"uv_index":8.15,"wind_gusts":20.2,"aqi":95,"pm10":32.2,"pm2_5":29.6,"mosquito_risk":4,"arthritis_risk":5,"migraine_risk":7,"frizz_risk":0,"updated_at":"2026-04-04T22:09:45.079468+05:30"},{"city":"Bhubaneswar","state":"Odisha","latitude":20.2961,"longitude":85.8245,"temp":28.0,"humidity":85,"rain":0.0,"pressure":1003.1,"uv_index":8.95,"wind_gusts":26.3,"aqi":134,"pm10":26.6,"pm2_5":24.2,"mosquito_risk":7,"arthritis_risk":5,"migraine_risk":4,"frizz_risk":1,"updated_at":"2026-04-04T22:09:45.079474+05:30"},{"city":"Cuttack","state":"Odisha","latitude":20.4625,"longitude":85.8828,"temp":28.0,"humidity":84,"rain":0.0,"pressure":1005.3,"uv_index":9.0,"wind_gusts":31.7,"aqi":134,"pm10":26.6,"pm2_5":24.2,"mosquito_risk":7,"arthritis_risk":5,"migraine_risk":4,"frizz_risk":1,"updated_at":"2026-04-04T22:09:45.079480+05:30"},{"city":"Rourkela","state":"Odisha","latitude":22.2604,"longitude":84.8536,"temp":28.5,"humidity":58,"rain":0.0,"pressure":985.6,"uv_index":8.45,"wind_gusts":59.4,"aqi":114,"pm10":42.8,"pm2_5":39.7,"mosquito_risk":4,"arthritis_risk":5,"migraine_risk":7,"frizz_risk":1,"updated_at":"2026-04-04T22:09:45.079485+05:30"},{"city":"Raipur","state":"Chhattisgarh","latitude":21.2514,"longitude":81.6296,"temp":27.5,"humidity":63,"rain":0.0,"pressure":975.9,"uv_index":7.75,"wind_gusts":41.4,"aqi":119,"pm10":70.5,"pm2_5":64.5,"mosquito_risk":7,"arthritis_risk":5,"migraine_risk":7,"frizz_risk":1,"updated_at":"2026-04-04T22:09:45.079491+05:30"},{"city":"Bhilai","state":"Chhattisgarh","latitude":21.1938,"longitude":81.3509,"temp":27.4,"humidity":66,"rain":0.0,"pressure":976.0,"uv_index":8.15,"wind_gusts":37.8,"aqi":98,"pm10":55.6,"pm2_5":50.9,"mosquito_risk":7,"arthritis_risk":5,"migraine_risk":7,"frizz_risk":1,"updated_at":"2026-04-04T22:09:45.079496+05:30"},{"city":"Guwahati","state":"Assam","latitude":26.1158,"longitude":91.7086,"temp":25.7,"humidity":85,"rain":0.0,"pressure":1000.5,"uv_index":8.25,"wind_gusts":32.4,"aqi":121,"pm10":59.4,"pm2_5":52.6,"mosquito_risk":7,"arthritis_risk":5,"migraine_risk":4,"frizz_risk":1,"updated_at":"2026-04-04T22:09:45.079501+05:30"},{"city":"Agartala","state":"Tripura","latitude":23.8315,"longitude":91.2868,"temp":27.4,"humidity":89,"rain":0.0,"pressure":1004.9,"uv_index":8.45,"wind_gusts":25.6,"aqi":101,"pm10":35.7,"pm2_5":33.5,"mosquito_risk":7,"arthritis_risk":5,"migraine_risk":4,"frizz_risk":1,"updated_at":"2026-04-04T22:09:45.079507+05:30"},{"city":"Shillong","state":"Meghalaya","latitude":25.5788,"longitude":91.8933,"temp":15.5,"humidity":84,"rain":0.0,"pressure":856.0,"uv_index":8.4,"wind_gusts":55.1,"aqi":88,"pm10":41.8,"pm2_5":37.0,"mosquito_risk":3,"arthritis_risk":10,"migraine_risk":7,"frizz_risk":0,"updated_at":"2026-04-04T22:09:45.079513+05:30"},{"city":"Imphal","state":"Manipur","latitude":24.817,"longitude":93.9368,"temp":19.8,"humidity":78,"rain":0.0,"pressure":923.1,"uv_index":8.75,"wind_gusts":76.0,"aqi":121,"pm10":58.7,"pm2_5":49.1,"mosquito_risk":3,"arthritis_risk":5,"migraine_risk":7,"frizz_risk":0,"updated_at":"2026-04-04T22:09:45.079518+05:30"},{"city":"Aizawl","state":"Mizoram","latitude":23.7271,"longitude":92.7176,"temp":20.3,"humidity":85,"rain":0.0,"pressure":892.6,"uv_index":8.55,"wind_gusts":55.1,"aqi":108,"pm10":44.0,"pm2_5":37.5,"mosquito_risk":3,"arthritis_risk":5,"migraine_risk":7,"frizz_risk":1,"updated_at":"2026-04-04T22:09:45.079524+05:30"},{"city":"Kohima","state":"Nagaland","latitude":25.6701,"longitude":94.1077,"temp":16.5,"humidity":84,"rain":0.0,"pressure":854.5,"uv_index":8.55,"wind_gusts":74.2,"aqi":98,"pm10":46.1,"pm2_5":37.5,"mosquito_risk":3,"arthritis_risk":10,"migraine_risk":7,"frizz_risk":0,"updated_at":"2026-04-04T22:09:45.079529+05:30"},{"city":"Gangtok","state":"Sikkim","latitude":27.3314,"longitude":88.6138,"temp":16.5,"humidity":94,"rain":0.0,"pressure":837.1,"uv_index":8.45,"wind_gusts":18.4,"aqi":126,"pm10":53.0,"pm2_5":45.3,"mosquito_risk":3,"arthritis_risk":10,"migraine_risk":7,"frizz_risk":0,"updated_at":"2026-04-04T22:09:45.079534+05:30"},{"city":"Siliguri","state":"West Bengal","latitude":26.7271,"longitude":88.3953,"temp":22.7,"humidity":78,"rain":0.0,"pressure":992.7,"uv_index":8.2,"wind_gusts":28.8,"aqi":161,"pm10":91.7,"pm2_5":77.1,"mosquito_risk":3,"arthritis_risk":5,"migraine_risk":7,"frizz_risk":1,"updated_at":"2026-04-04T22:09:48.367190+05:30"},{"city":"Durgapur","state":"West Bengal","latitude":23.5204,"longitude":87.3119,"temp":30.4,"humidity":61,"rain":0.0,"pressure":994.1,"uv_index":8.35,"wind_gusts":15.8,"aqi":112,"pm10":65.2,"pm2_5":63.1,"mosquito_risk":3,"arthritis_risk":5,"migraine_risk":7,"frizz_risk":1,"updated_at":"2026-04-04T22:09:48.367222+05:30"},{"city":"Asansol","state":"West Bengal","latitude":23.6739,"longitude":86.9524,"temp":31.7,"humidity":54,"rain":0.0,"pressure":992.6,"uv_index":8.45,"wind_gusts":15.5,"aqi":90,"pm10":34.0,"pm2_5":30.4,"mosquito_risk":0,"arthritis_risk":5,"migraine_risk":7,"frizz_risk":1,"updated_at":"2026-04-04T22:09:48.367231+05:30"},{"city":"Pondicherry","state":"Puducherry","latitude":11.9139,"longitude":79.8145,"temp":28.3,"humidity":92,"rain":0.0,"pressure":1008.8,"uv_index":8.9,"wind_gusts":23.8,"aqi":66,"pm10":14.6,"pm2_5":10.6,"mosquito_risk":7,"arthritis_risk":0,"migraine_risk":4,"frizz_risk":1,"updated_at":"2026-04-04T22:09:48.367239+05:30"},{"city":"Port Blair","state":"Andaman and Nicobar Islands","latitude":11.6234,"longitude":92.7265,"temp":29.1,"humidity":71,"rain":0.0,"pressure":1007.5,"uv_index":8.75,"wind_gusts":18.7,"aqi":45,"pm10":16.0,"pm2_5":9.5,"mosquito_risk":7,"arthritis_risk":5,"migraine_risk":4,"frizz_risk":1,"updated_at":"2026-04-04T22:09:48.367245+05:30"},{"city":"Haridwar","state":"Uttarakhand","latitude":29.9457,"longitude":78.1642,"temp":21.7,"humidity":72,"rain":0.0,"pressure":976.4,"uv_index":5.55,"wind_gusts":37.1,"aqi":85,"pm10":32.0,"pm2_5":20.3,"mosquito_risk":3,"arthritis_risk":5,"migraine_risk":3,"frizz_risk":1,"updated_at":"2026-04-04T22:09:48.367252+05:30"},{"city":"Rishikesh","state":"Uttarakhand","latitude":30.0869,"longitude":78.2676,"temp":20.8,"humidity":67,"rain":0.0,"pressure":968.7,"uv_index":6.05,"wind_gusts":25.6,"aqi":57,"pm10":23.6,"pm2_5":12.8,"mosquito_risk":3,"arthritis_risk":5,"migraine_risk":7,"frizz_risk":0,"updated_at":"2026-04-04T22:09:48.367258+05:30"},{"city":"Nainital","state":"Uttarakhand","latitude":29.3919,"longitude":79.4542,"temp":18.4,"humidity":42,"rain":0.0,"pressure":806.6,"uv_index":4.95,"wind_gusts":39.2,"aqi":58,"pm10":27.2,"pm2_5":17.1,"mosquito_risk":0,"arthritis_risk":5,"migraine_risk":3,"frizz_risk":0,"updated_at":"2026-04-04T22:09:48.367264+05:30"},{"city":"Mussoorie","state":"Uttarakhand","latitude":30.4599,"longitude":78.0664,"temp":13.4,"humidity":67,"rain":0.0,"pressure":802.4,"uv_index":5.1,"wind_gusts":46.4,"aqi":59,"pm10":25.7,"pm2_5":15.5,"mosquito_risk":3,"arthritis_risk":5,"migraine_risk":3,"frizz_risk":0,"updated_at":"2026-04-04T22:09:48.367270+05:30"},{"city":"Dharamshala","state":"Himachal Pradesh","latitude":32.219,"longitude":76.3234,"temp":15.7,"humidity":62,"rain":0.0,"pressure":869.8,"uv_index":5.7,"wind_gusts":47.5,"aqi":47,"pm10":12.5,"pm2_5":9.0,"mosquito_risk":3,"arthritis_risk":5,"migraine_risk":3,"frizz_risk":0,"updated_at":"2026-04-04T22:09:48.367276+05:30"},{"city":"Dalhousie","state":"Himachal Pradesh","latitude":32.5387,"longitude":75.971,"temp":12.3,"humidity":70,"rain":0.0,"pressure":803.2,"uv_index":5.65,"wind_gusts":52.6,"aqi":68,"pm10":66.6,"pm2_5":31.3,"mosquito_risk":3,"arthritis_risk":5,"migraine_risk":3,"frizz_risk":0,"updated_at":"2026-04-04T22:09:48.367283+05:30"},{"city":"Patiala","state":"Punjab","latitude":30.3398,"longitude":76.3869,"temp":19.0,"humidity":81,"rain":0.0,"pressure":981.0,"uv_index":5.4,"wind_gusts":31.7,"aqi":165,"pm10":258.9,"pm2_5":52.7,"mosquito_risk":3,"arthritis_risk":10,"migraine_risk":3,"frizz_risk":0,"updated_at":"2026-04-04T22:09:48.367289+05:30"},{"city":"Bhatinda","state":"Punjab","latitude":30.211,"longitude":74.9455,"temp":19.8,"humidity":80,"rain":0.0,"pressure":986.4,"uv_index":6.95,"wind_gusts":29.2,"aqi":84,"pm10":107.3,"pm2_5":30.7,"mosquito_risk":3,"arthritis_risk":5,"migraine_risk":7,"frizz_risk":1,"updated_at":"2026-04-04T22:09:48.367295+05:30"},{"city":"Rohtak","state":"Haryana","latitude":28.8955,"longitude":76.6066,"temp":19.2,"humidity":90,"rain":0.0,"pressure":983.7,"uv_index":6.55,"wind_gusts":29.9,"aqi":96,"pm10":110.4,"pm2_5":57.2,"mosquito_risk":3,"arthritis_risk":10,"migraine_risk":7,"frizz_risk":1,"updated_at":"2026-04-04T22:09:48.367301+05:30"},{"city":"Panipat","state":"Haryana","latitude":29.3909,"longitude":76.9635,"temp":18.8,"humidity":89,"rain":0.0,"pressure":983.1,"uv_index":5.75,"wind_gusts":31.7,"aqi":199,"pm10":343.7,"pm2_5":85.2,"mosquito_risk":3,"arthritis_risk":10,"migraine_risk":3,"frizz_risk":1,"updated_at":"2026-04-04T22:09:48.367306+05:30"},{"city":"Mathura","state":"Uttar Pradesh","latitude":27.4924,"longitude":77.6737,"temp":21.3,"humidity":81,"rain":0.0,"pressure":988.0,"uv_index":5.25,"wind_gusts":40.7,"aqi":449,"pm10":225.8,"pm2_5":49.8,"mosquito_risk":3,"arthritis_risk":5,"migraine_risk":3,"frizz_risk":1,"updated_at":"2026-04-04T22:09:48.367312+05:30"},{"city":"Vrindavan","state":"Uttar Pradesh","latitude":27.5823,"longitude":77.7027,"temp":20.7,"humidity":83,"rain":0.0,"pressure":988.5,"uv_index":5.45,"wind_gusts":45.7,"aqi":449,"pm10":225.8,"pm2_5":49.8,"mosquito_risk":3,"arthritis_risk":5,"migraine_risk":3,"frizz_risk":1,"updated_at":"2026-04-04T22:09:48.367317+05:30"},{"city":"Ayodhya","state":"Uttar Pradesh","latitude":26.7922,"longitude":82.1998,"temp":26.7,"humidity":61,"rain":0.0,"pressure":995.8,"uv_index":7.2,"wind_gusts":37.4,"aqi":116,"pm10":110.8,"pm2_5":47.6,"mosquito_risk":7,"arthritis_risk":5,"migraine_risk":7,"frizz_risk":1,"updated_at":"2026-04-04T22:09:48.367323+05:30"},{"city":"Ratlam","state":"Madhya Pradesh","latitude":23.3315,"longitude":75.0367,"temp":24.5,"humidity":62,"rain":0.0,"pressure":955.5,"uv_index":8.1,"wind_gusts":36.7,"aqi":62,"pm10":49.9,"pm2_5":24.9,"mosquito_risk":3,"arthritis_risk":5,"migraine_risk":7,"frizz_risk":1,"updated_at":"2026-04-04T22:09:48.367328+05:30"},{"city":"Sagar","state":"Madhya Pradesh","latitude":23.8388,"longitude":78.7378,"temp":23.1,"humidity":77,"rain":0.0,"pressure":951.0,"uv_index":8.3,"wind_gusts":34.9,"aqi":58,"pm10":19.8,"pm2_5":14.8,"mosquito_risk":3,"arthritis_risk":5,"migraine_risk":7,"frizz_risk":1,"updated_at":"2026-04-04T22:09:48.367333+05:30"},{"city":"Satna","state":"Madhya Pradesh","latitude":24.6005,"longitude":80.8322,"temp":24.4,"humidity":75,"rain":0.0,"pressure":973.4,"uv_index":5.05,"wind_gusts":43.2,"aqi":80,"pm10":32.1,"pm2_5":20.4,"mosquito_risk":3,"arthritis_risk":5,"migraine_risk":3,"frizz_risk":1,"updated_at":"2026-04-04T22:09:48.367339+05:30"},{"city":"Akola","state":"Maharashtra","latitude":20.7002,"longitude":77.0082,"temp":29.6,"humidity":43,"rain":0.0,"pressure":975.7,"uv_index":7.25,"wind_gusts":28.4,"aqi":103,"pm10":50.2,"pm2_5":41.9,"mosquito_risk":4,"arthritis_risk":5,"migraine_risk":7,"frizz_risk":0,"updated_at":"2026-04-04T22:09:48.367345+05:30"},{"city":"Amravati","state":"Maharashtra","latitude":20.9374,"longitude":77.7796,"temp":26.9,"humidity":66,"rain":0.0,"pressure":968.1,"uv_index":7.7,"wind_gusts":41.4,"aqi":105,"pm10":46.6,"pm2_5":39.1,"mosquito_risk":7,"arthritis_risk":5,"migraine_risk":7,"frizz_risk":1,"updated_at":"2026-04-04T22:09:48.367351+05:30"},{"city":"Latur","state":"Maharashtra","latitude":18.4088,"longitude":76.5604,"temp":27.3,"humidity":62,"rain":0.0,"pressure":940.0,"uv_index":8.9,"wind_gusts":28.8,"aqi":104,"pm10":41.6,"pm2_5":37.5,"mosquito_risk":7,"arthritis_risk":5,"migraine_risk":7,"frizz_risk":1,"updated_at":"2026-04-04T22:09:48.367356+05:30"},{"city":"Nanded","state":"Maharashtra","latitude":19.1383,"longitude":77.3091,"temp":28.6,"humidity":60,"rain":0.0,"pressure":968.4,"uv_index":8.25,"wind_gusts":21.2,"aqi":98,"pm10":52.3,"pm2_5":46.6,"mosquito_risk":4,"arthritis_risk":5,"migraine_risk":7,"frizz_risk":1,"updated_at":"2026-04-04T22:09:48.367361+05:30"},{"city":"Gulbarga","state":"Karnataka","latitude":17.3297,"longitude":76.8343,"temp":28.9,"humidity":57,"rain":0.0,"pressure":959.0,"uv_index":8.45,"wind_gusts":32.0,"aqi":148,"pm10":60.1,"pm2_5":50.5,"mosquito_risk":4,"arthritis_risk":5,"migraine_risk":7,"frizz_risk":1,"updated_at":"2026-04-04T22:09:48.367367+05:30"},{"city":"Bidar","state":"Karnataka","latitude":17.9104,"longitude":77.5199,"temp":27.1,"humidity":63,"rain":0.0,"pressure":936.0,"uv_index":8.6,"wind_gusts":31.3,"aqi":125,"pm10":50.4,"pm2_5":43.4,"mosquito_risk":7,"arthritis_risk":5,"migraine_risk":7,"frizz_risk":1,"updated_at":"2026-04-04T22:09:48.367372+05:30"},{"city":"Hospet","state":"Karnataka","latitude":15.2689,"longitude":76.3909,"temp":30.0,"humidity":53,"rain":0.0,"pressure":956.8,"uv_index":8.1,"wind_gusts":29.5,"aqi":123,"pm10":53.3,"pm2_5":46.0,"mosquito_risk":4,"arthritis_risk":5,"migraine_risk":7,"frizz_risk":1,"updated_at":"2026-04-04T22:09:48.367377+05:30"},{"city":"Tirupur","state":"Tamil Nadu","latitude":11.1085,"longitude":77.3411,"temp":27.8,"humidity":73,"rain":0.0,"pressure":976.4,"uv_index":8.6,"wind_gusts":31.3,"aqi":97,"pm10":24.0,"pm2_5":22.7,"mosquito_risk":7,"arthritis_risk":5,"migraine_risk":7,"frizz_risk":1,"updated_at":"2026-04-04T22:09:48.367382+05:30"},{"city":"Alappuzha","state":"Kerala","latitude":9.4981,"longitude":76.3388,"temp":29.7,"humidity":76,"rain":0.0,"pressure":1010.5,"uv_index":9.15,"wind_gusts":21.6,"aqi":61,"pm10":20.0,"pm2_5":17.0,"mosquito_risk":7,"arthritis_risk":0,"migraine_risk":4,"frizz_risk":1,"updated_at":"2026-04-04T22:09:48.367387+05:30"},{"city":"Munnar","state":"Kerala","latitude":10.0889,"longitude":77.0595,"temp":20.8,"humidity":95,"rain":0.0,"pressure":858.4,"uv_index":6.2,"wind_gusts":33.5,"aqi":58,"pm10":20.4,"pm2_5":20.0,"mosquito_risk":3,"arthritis_risk":5,"migraine_risk":7,"frizz_risk":1,"updated_at":"2026-04-04T22:09:48.367394+05:30"},{"city":"Silchar","state":"Assam","latitude":24.8333,"longitude":92.7789,"temp":26.0,"humidity":84,"rain":0.0,"pressure":1004.2,"uv_index":8.45,"wind_gusts":26.6,"aqi":133,"pm10":84.3,"pm2_5":73.6,"mosquito_risk":7,"arthritis_risk":5,"migraine_risk":4,"frizz_risk":1,"updated_at":"2026-04-04T22:09:48.367399+05:30"},{"city":"Dibrugarh","state":"Assam","latitude":27.4728,"longitude":94.912,"temp":24.3,"humidity":89,"rain":0.0,"pressure":995.2,"uv_index":8.3,"wind_gusts":14.4,"aqi":111,"pm10":46.2,"pm2_5":42.1,"mosquito_risk":3,"arthritis_risk":5,"migraine_risk":7,"frizz_risk":1,"updated_at":"2026-04-04T22:09:48.367404+05:30"}]