[{"city":"Delhi","state":"Delhi","latitude":28.6139,"longitude":77.209,"temp":21.8,"humidity":86,"rain":0.0,"pressure":984.2,"uv_index":7.55,"wind_gusts":22.0,"aqi":119,"pm10":111.8,"pm2_5":66.6,"no2":45.9,"co":942.0,"o3":59.0,"so2":23.7,"mosquito_risk":3,"arthritis_risk":5,"migraine_risk":7,"frizz_risk":1,"updated_at":"2026-05-06T01:39:27.111117+05:30"},{"city":"Mumbai","state":"Maharashtra","latitude":19.076,"longitude":72.8777,"temp":27.8,"humidity":80,"rain":0.0,"pressure":1007.9,"uv_index":7.85,"wind_gusts":46.8,"aqi":75,"pm10":64.5,"pm2_5":23.5,"no2":7.6,"co":347.0,"o3":69.0,"so2":24.7,"mosquito_risk":7,"arthritis_risk":5,"migraine_risk":4,"frizz_risk":1,"updated_at":"2026-05-06T01:39:27.111174+05:30"},{"city":"Bangalore","state":"Karnataka","latitude":12.9716,"longitude":77.5946,"temp":23.1,"humidity":72,"rain":0.0,"pressure":910.6,"uv_index":9.55,"wind_gusts":32.8,"aqi":99,"pm10":58.7,"pm2_5":42.0,"no2":24.6,"co":395.0,"o3":88.0,"so2":12.0,"mosquito_risk":3,"arthritis_risk":5,"migraine_risk":7,"frizz_risk":1,"updated_at":"2026-05-06T01:39:27.111191+05:30"},{"city":"Hyderabad","state":"Telangana","latitude":17.385,"longitude":78.4867,"temp":27.4,"humidity":61,"rain":0.0,"pressure":952.2,"uv_index":9.3,"wind_gusts":37.8,"aqi":81,"pm10":41.4,"pm2_5":34.3,"no2":8.8,"co":305.0,"o3":96.0,"so2":7.2,"mosquito_risk":7,"arthritis_risk":5,"migraine_risk":7,"frizz_risk":1,"updated_at":"2026-05-06T01:39:27.111203+05:30"},{"city":"Chennai","state":"Tamil Nadu","latitude":13.0827,"longitude":80.2707,"temp":28.6,"humidity":82,"rain":0.0,"pressure":1006.1,"uv_index":9.25,"wind_gusts":42.1,"aqi":68,"pm10":19.2,"pm2_5":12.6,"no2":5.2,"co":171.0,"o3":73.0,"so2":2.5,"mosquito_risk":7,"arthritis_risk":5,"migraine_risk":4,"frizz_risk":1,"updated_at":"2026-05-06T01:39:27.111223+05:30"},{"city":"Kolkata","state":"West Bengal","latitude":22.5726,"longitude":88.3639,"temp":25.0,"humidity":94,"rain":0.0,"pressure":1007.3,"uv_index":8.9,"wind_gusts":29.5,"aqi":78,"pm10":19.3,"pm2_5":17.8,"no2":14.8,"co":338.0,"o3":38.0,"so2":5.8,"mosquito_risk":7,"arthritis_risk":5,"migraine_risk":4,"frizz_risk":1,"updated_at":"2026-05-06T01:39:27.111234+05:30"},{"city":"Pune","state":"Maharashtra","latitude":18.5204,"longitude":73.8567,"temp":23.1,"humidity":90,"rain":0.0,"pressure":947.2,"uv_index":8.5,"wind_gusts":58.3,"aqi":60,"pm10":41.6,"pm2_5":21.0,"no2":14.3,"co":223.0,"o3":59.0,"so2":15.3,"mosquito_risk":3,"arthritis_risk":5,"migraine_risk":7,"frizz_risk":1,"updated_at":"2026-05-06T01:39:27.111243+05:30"},{"city":"Ahmedabad","state":"Gujarat","latitude":23.0225,"longitude":72.5714,"temp":29.0,"humidity":73,"rain":0.0,"pressure":1001.3,"uv_index":8.1,"wind_gusts":26.6,"aqi":87,"pm10":92.2,"pm2_5":43.5,"no2":28.8,"co":209.0,"o3":34.0,"so2":15.7,"mosquito_risk":7,"arthritis_risk":5,"migraine_risk":4,"frizz_risk":1,"updated_at":"2026-05-06T01:39:27.111261+05:30"},{"city":"Jaipur","state":"Rajasthan","latitude":26.9124,"longitude":75.7873,"temp":22.5,"humidity":75,"rain":0.0,"pressure":960.3,"uv_index":8.1,"wind_gusts":31.7,"aqi":127,"pm10":274.7,"pm2_5":60.5,"no2":7.7,"co":441.0,"o3":96.0,"so2":5.7,"mosquito_risk":3,"arthritis_risk":5,"migraine_risk":7,"frizz_risk":1,"updated_at":"2026-05-06T01:39:27.111271+05:30"},{"city":"Lucknow","state":"Uttar Pradesh","latitude":26.8467,"longitude":80.9462,"temp":22.4,"humidity":90,"rain":0.0,"pressure":994.3,"uv_index":8.05,"wind_gusts":27.4,"aqi":117,"pm10":79.2,"pm2_5":65.9,"no2":35.7,"co":669.0,"o3":50.0,"so2":17.3,"mosquito_risk":3,"arthritis_risk":5,"migraine_risk":7,"frizz_risk":1,"updated_at":"2026-05-06T01:39:27.111280+05:30"},{"city":"Kanpur","state":"Uttar Pradesh","latitude":26.4499,"longitude":80.3319,"temp":22.8,"humidity":92,"rain":0.0,"pressure":992.5,"uv_index":8.05,"wind_gusts":19.8,"aqi":129,"pm10":102.4,"pm2_5":70.3,"no2":31.8,"co":629.0,"o3":63.0,"so2":16.2,"mosquito_risk":3,"arthritis_risk":5,"migraine_risk":7,"frizz_risk":1,"updated_at":"2026-05-06T01:39:27.111288+05:30"},{"city":"Chandigarh","state":"Chandigarh","latitude":30.7333,"longitude":76.7794,"temp":18.9,"humidity":77,"rain":0.0,"pressure":969.4,"uv_index":7.55,"wind_gusts":36.4,"aqi":74,"pm10":46.9,"pm2_5":34.3,"no2":48.1,"co":792.0,"o3":11.0,"so2":3.5,"mosquito_risk":3,"arthritis_risk":5,"migraine_risk":7,"frizz_risk":0,"updated_at":"2026-05-06T01:39:27.111297+05:30"},{"city":"Srinagar","state":"Jammu and Kashmir","latitude":34.0837,"longitude":74.7973,"temp":7.9,"humidity":98,"rain":0.0,"pressure":840.6,"uv_index":8.65,"wind_gusts":27.0,"aqi":61,"pm10":42.3,"pm2_5":39.2,"no2":31.1,"co":744.0,"o3":26.0,"so2":2.4,"mosquito_risk":3,"arthritis_risk":10,"migraine_risk":7,"frizz_risk":0,"updated_at":"2026-05-06T01:39:27.111306+05:30"},{"city":"Jammu","state":"Jammu and Kashmir","latitude":32.7266,"longitude":74.857,"temp":19.0,"humidity":58,"rain":0.0,"pressure":973.4,"uv_index":8.25,"wind_gusts":29.9,"aqi":64,"pm10":29.5,"pm2_5":21.5,"no2":24.9,"co":325.0,"o3":38.0,"so2":2.8,"mosquito_risk":0,"arthritis_risk":5,"migraine_risk":7,"frizz_risk":0,"updated_at":"2026-05-06T01:39:27.111316+05:30"},{"city":"Amritsar","state":"Punjab","latitude":31.634,"longitude":74.8723,"temp":22.4,"humidity":56,"rain":0.0,"pressure":981.9,"uv_index":8.15,"wind_gusts":31.3,"aqi":92,"pm10":72.4,"pm2_5":36.4,"no2":6.2,"co":431.0,"o3":105.0,"so2":8.9,"mosquito_risk":0,"arthritis_risk":5,"migraine_risk":7,"frizz_risk":0,"updated_at":"2026-05-06T01:39:27.111327+05:30"},{"city":"Ludhiana","state":"Punjab","latitude":30.901,"longitude":75.8573,"temp":20.8,"humidity":74,"rain":0.0,"pressure":979.7,"uv_index":7.8,"wind_gusts":29.9,"aqi":125,"pm10":114.3,"pm2_5":79.6,"no2":35.2,"co":763.0,"o3":43.0,"so2":19.2,"mosquito_risk":3,"arthritis_risk":5,"migraine_risk":7,"frizz_risk":0,"updated_at":"2026-05-06T01:39:27.111335+05:30"},{"city":"Jalandhar","state":"Punjab","latitude":31.326,"longitude":75.5762,"temp":20.0,"humidity":73,"rain":0.0,"pressure":980.7,"uv_index":7.95,"wind_gusts":32.0,"aqi":104,"pm10":102.2,"pm2_5":58.8,"no2":22.2,"co":673.0,"o3":61.0,"so2":14.2,"mosquito_risk":3,"arthritis_risk":5,"migraine_risk":7,"frizz_risk":0,"updated_at":"2026-05-06T01:39:27.111343+05:30"},{"city":"Dehradun","state":"Uttarakhand","latitude":30.6284,"longitude":78.0322,"temp":8.0,"humidity":95,"rain":0.0,"pressure":826.5,"uv_index":7.45,"wind_gusts":34.9,"aqi":55,"pm10":54.7,"pm2_5":20.3,"no2":26.9,"co":226.0,"o3":40.0,"so2":0.5,"mosquito_risk":3,"arthritis_risk":10,"migraine_risk":7,"frizz_risk":0,"updated_at":"2026-05-06T01:39:27.111354+05:30"},{"city":"Shimla","state":"Himachal Pradesh","latitude":31.1048,"longitude":77.1734,"temp":7.0,"humidity":78,"rain":0.0,"pressure":780.2,"uv_index":7.5,"wind_gusts":42.5,"aqi":59,"pm10":50.6,"pm2_5":25.3,"no2":29.3,"co":271.0,"o3":40.0,"so2":0.4,"mosquito_risk":3,"arthritis_risk":5,"migraine_risk":7,"frizz_risk":0,"updated_at":"2026-05-06T01:39:27.111362+05:30"},{"city":"Manali","state":"Himachal Pradesh","latitude":32.2396,"longitude":77.1887,"temp":6.1,"humidity":70,"rain":0.0,"pressure":812.9,"uv_index":9.5,"wind_gusts":40.7,"aqi":92,"pm10":9.1,"pm2_5":6.1,"no2":28.4,"co":307.0,"o3":103.0,"so2":0.1,"mosquito_risk":3,"arthritis_risk":5,"migraine_risk":7,"frizz_risk":0,"updated_at":"2026-05-06T01:39:27.111369+05:30"},{"city":"Gurgaon","state":"Haryana","latitude":28.4595,"longitude":77.0266,"temp":21.1,"humidity":91,"rain":0.0,"pressure":982.5,"uv_index":7.65,"wind_gusts":24.8,"aqi":175,"pm10":161.6,"pm2_5":74.0,"no2":40.5,"co":1382.0,"o3":52.0,"so2":27.2,"mosquito_risk":3,"arthritis_risk":5,"migraine_risk":7,"frizz_risk":1,"updated_at":"2026-05-06T01:39:27.111377+05:30"},{"city":"Noida","state":"Uttar Pradesh","latitude":28.5355,"longitude":77.391,"temp":21.0,"humidity":86,"rain":0.0,"pressure":985.6,"uv_index":7.55,"wind_gusts":20.5,"aqi":175,"pm10":161.6,"pm2_5":74.0,"no2":40.5,"co":841.0,"o3":52.0,"so2":27.2,"mosquito_risk":3,"arthritis_risk":5,"migraine_risk":7,"frizz_risk":1,"updated_at":"2026-05-06T01:39:27.111384+05:30"},{"city":"Ghaziabad","state":"Uttar Pradesh","latitude":28.6692,"longitude":77.4538,"temp":20.5,"humidity":91,"rain":0.0,"pressure":983.6,"uv_index":7.55,"wind_gusts":24.1,"aqi":102,"pm10":115.7,"pm2_5":57.6,"no2":24.1,"co":580.0,"o3":77.0,"so2":11.4,"mosquito_risk":3,"arthritis_risk":5,"migraine_risk":7,"frizz_risk":1,"updated_at":"2026-05-06T01:39:27.111392+05:30"},{"city":"Faridabad","state":"Haryana","latitude":28.4089,"longitude":77.3178,"temp":21.5,"humidity":85,"rain":0.0,"pressure":984.8,"uv_index":7.6,"wind_gusts":19.4,"aqi":175,"pm10":161.6,"pm2_5":74.0,"no2":40.5,"co":1008.0,"o3":52.0,"so2":27.2,"mosquito_risk":3,"arthritis_risk":5,"migraine_risk":7,"frizz_risk":1,"updated_at":"2026-05-06T01:39:27.111400+05:30"},{"city":"Meerut","state":"Uttar Pradesh","latitude":28.9845,"longitude":77.7064,"temp":19.6,"humidity":92,"rain":0.0,"pressure":982.2,"uv_index":7.45,"wind_gusts":23.4,"aqi":102,"pm10":115.7,"pm2_5":57.6,"no2":24.1,"co":541.0,"o3":77.0,"so2":11.4,"mosquito_risk":3,"arthritis_risk":10,"migraine_risk":7,"frizz_risk":1,"updated_at":"2026-05-06T01:39:27.111410+05:30"},{"city":"Agra","state":"Uttar Pradesh","latitude":27.1767,"longitude":78.0081,"temp":22.5,"humidity":87,"rain":0.0,"pressure":988.6,"uv_index":7.9,"wind_gusts":20.9,"aqi":279,"pm10":199.8,"pm2_5":69.6,"no2":19.0,"co":521.0,"o3":61.0,"so2":17.6,"mosquito_risk":3,"arthritis_risk":5,"migraine_risk":7,"frizz_risk":1,"updated_at":"2026-05-06T01:39:27.111419+05:30"},{"city":"Varanasi","state":"Uttar Pradesh","latitude":25.3176,"longitude":82.9739,"temp":24.0,"humidity":83,"rain":0.0,"pressure":998.3,"uv_index":8.55,"wind_gusts":26.3,"aqi":135,"pm10":65.4,"pm2_5":53.6,"no2":19.1,"co":536.0,"o3":83.0,"so2":17.9,"mosquito_risk":3,"arthritis_risk":5,"migraine_risk":7,"frizz_risk":1,"updated_at":"2026-05-06T01:39:27.111428+05:30"},{"city":"Prayagraj","state":"Uttar Pradesh","latitude":25.4358,"longitude":81.8463,"temp":23.8,"humidity":88,"rain":0.0,"pressure":996.7,"uv_index":8.45,"wind_gusts":31.0,"aqi":122,"pm10":72.4,"pm2_5":58.9,"no2":27.3,"co":625.0,"o3":56.0,"so2":16.4,"mosquito_risk":3,"arthritis_risk":5,"migraine_risk":7,"frizz_risk":1,"updated_at":"2026-05-06T01:39:27.111438+05:30"},{"city":"Gorakhpur","state":"Uttar Pradesh","latitude":26.7606,"longitude":83.3732,"temp":22.1,"humidity":88,"rain":0.0,"pressure":998.1,"uv_index":8.45,"wind_gusts":29.2,"aqi":89,"pm10":34.1,"pm2_5":30.9,"no2":19.6,"co":560.0,"o3":61.0,"so2":7.7,"mosquito_risk":3,"arthritis_risk":5,"migraine_risk":7,"frizz_risk":1,"updated_at":"2026-05-06T01:39:27.111446+05:30"},{"city":"Bareilly","state":"Uttar Pradesh","latitude":28.367,"longitude":79.4304,"temp":20.1,"humidity":84,"rain":0.0,"pressure":987.4,"uv_index":7.85,"wind_gusts":24.1,"aqi":120,"pm10":80.6,"pm2_5":65.2,"no2":29.9,"co":402.0,"o3":57.0,"so2":13.6,"mosquito_risk":3,"arthritis_risk":5,"migraine_risk":7,"frizz_risk":1,"updated_at":"2026-05-06T01:39:27.111454+05:30"},{"city":"Aligarh","state":"Uttar Pradesh","latitude":27.8974,"longitude":78.088,"temp":21.4,"humidity":86,"rain":0.0,"pressure":986.5,"uv_index":7.7,"wind_gusts":24.5,"aqi":160,"pm10":169.5,"pm2_5":61.7,"no2":19.0,"co":510.0,"o3":76.0,"so2":14.8,"mosquito_risk":3,"arthritis_risk":5,"migraine_risk":7,"frizz_risk":1,"updated_at":"2026-05-06T01:39:27.111461+05:30"},{"city":"Moradabad","state":"Uttar Pradesh","latitude":28.8386,"longitude":78.7733,"temp":19.5,"humidity":90,"rain":0.0,"pressure":984.3,"uv_index":7.65,"wind_gusts":24.1,"aqi":113,"pm10":70.1,"pm2_5":51.6,"no2":20.6,"co":539.0,"o3":71.0,"so2":12.1,"mosquito_risk":3,"arthritis_risk":10,"migraine_risk":7,"frizz_risk":1,"updated_at":"2026-05-06T01:39:27.111468+05:30"},{"city":"Saharanpur","state":"Uttar Pradesh","latitude":29.9637,"longitude":77.546,"temp":18.8,"humidity":88,"rain":0.0,"pressure":976.2,"uv_index":7.25,"wind_gusts":24.5,"aqi":82,"pm10":74.3,"pm2_5":48.9,"no2":29.9,"co":688.0,"o3":49.0,"so2":11.2,"mosquito_risk":3,"arthritis_risk":10,"migraine_risk":7,"frizz_risk":1,"updated_at":"2026-05-06T01:39:27.111476+05:30"},{"city":"Jhansi","state":"Uttar Pradesh","latitude":25.4484,"longitude":78.5685,"temp":23.9,"humidity":73,"rain":0.0,"pressure":978.5,"uv_index":8.35,"wind_gusts":30.6,"aqi":115,"pm10":159.7,"pm2_5":44.4,"no2":5.6,"co":363.0,"o3":88.0,"so2":4.8,"mosquito_risk":3,"arthritis_risk":5,"migraine_risk":7,"frizz_risk":1,"updated_at":"2026-05-06T01:39:30.356790+05:30"},{"city":"Surat","state":"Gujarat","latitude":21.1702,"longitude":72.8311,"temp":27.9,"humidity":85,"rain":0.0,"pressure":1006.1,"uv_index":7.7,"wind_gusts":34.9,"aqi":82,"pm10":43.5,"pm2_5":23.5,"no2":22.1,"co":280.0,"o3":51.0,"so2":35.8,"mosquito_risk":7,"arthritis_risk":5,"migraine_risk":4,"frizz_risk":1,"updated_at":"2026-05-06T01:39:30.356822+05:30"},{"city":"Vadodara","state":"Gujarat","latitude":22.3072,"longitude":73.1812,"temp":27.6,"humidity":83,"rain":0.0,"pressure":1004.1,"uv_index":8.05,"wind_gusts":25.9,"aqi":76,"pm10":35.4,"pm2_5":21.9,"no2":22.6,"co":239.0,"o3":39.0,"so2":29.3,"mosquito_risk":7,"arthritis_risk":5,"migraine_risk":4,"frizz_risk":1,"updated_at":"2026-05-06T01:39:30.356833+05:30"},{"city":"Rajkot","state":"Gujarat","latitude":22.3039,"longitude":70.8022,"temp":26.5,"humidity":83,"rain":0.0,"pressure":993.8,"uv_index":7.7,"wind_gusts":47.5,"aqi":67,"pm10":42.0,"pm2_5":16.6,"no2":6.7,"co":187.0,"o3":56.0,"so2":7.2,"mosquito_risk":7,"arthritis_risk":5,"migraine_risk":7,"frizz_risk":1,"updated_at":"2026-05-06T01:39:30.356842+05:30"},{"city":"Thane","state":"Maharashtra","latitude":19.2183,"longitude":72.9781,"temp":27.0,"humidity":82,"rain":0.0,"pressure":1007.3,"uv_index":7.9,"wind_gusts":42.5,"aqi":75,"pm10":64.5,"pm2_5":23.5,"no2":7.6,"co":329.0,"o3":69.0,"so2":24.7,"mosquito_risk":7,"arthritis_risk":5,"migraine_risk":4,"frizz_risk":1,"updated_at":"2026-05-06T01:39:30.356850+05:30"},{"city":"Nagpur","state":"Maharashtra","latitude":21.1458,"longitude":79.0882,"temp":30.7,"humidity":32,"rain":0.0,"pressure":972.7,"uv_index":8.9,"wind_gusts":35.6,"aqi":82,"pm10":41.2,"pm2_5":23.5,"no2":9.4,"co":274.0,"o3":81.0,"so2":7.7,"mosquito_risk":0,"arthritis_risk":5,"migraine_risk":7,"frizz_risk":0,"updated_at":"2026-05-06T01:39:30.356858+05:30"},{"city":"Nashik","state":"Maharashtra","latitude":19.9975,"longitude":73.7898,"temp":23.3,"humidity":81,"rain":0.0,"pressure":944.3,"uv_index":8.2,"wind_gusts":41.4,"aqi":64,"pm10":50.2,"pm2_5":20.7,"no2":9.1,"co":212.0,"o3":50.0,"so2":1.1,"mosquito_risk":3,"arthritis_risk":5,"migraine_risk":7,"frizz_risk":1,"updated_at":"2026-05-06T01:39:30.356867+05:30"},{"city":"Aurangabad","state":"Maharashtra","latitude":19.8762,"longitude":75.3433,"temp":28.2,"humidity":36,"rain":0.0,"pressure":943.5,"uv_index":9.05,"wind_gusts":36.7,"aqi":64,"pm10":31.1,"pm2_5":17.9,"no2":7.6,"co":192.0,"o3":65.0,"so2":3.4,"mosquito_risk":4,"arthritis_risk":5,"migraine_risk":7,"frizz_risk":0,"updated_at":"2026-05-06T01:39:30.356875+05:30"},{"city":"Solapur","state":"Maharashtra","latitude":17.6599,"longitude":75.9064,"temp":29.4,"humidity":37,"rain":0.0,"pressure":955.8,"uv_index":9.05,"wind_gusts":42.5,"aqi":59,"pm10":26.1,"pm2_5":16.5,"no2":9.4,"co":186.0,"o3":78.0,"so2":5.9,"mosquito_risk":4,"arthritis_risk":5,"migraine_risk":7,"frizz_risk":0,"updated_at":"2026-05-06T01:39:30.356884+05:30"},{"city":"Kolhapur","state":"Maharashtra","latitude":16.705,"longitude":74.2433,"temp":23.2,"humidity":89,"rain":0.0,"pressure":946.7,"uv_index":8.95,"wind_gusts":45.0,"aqi":62,"pm10":34.1,"pm2_5":17.8,"no2":9.8,"co":168.0,"o3":45.0,"so2":2.6,"mosquito_risk":3,"arthritis_risk":5,"migraine_risk":7,"frizz_risk":1,"updated_at":"2026-05-06T01:39:30.356892+05:30"},{"city":"Goa","state":"Goa","latitude":15.2993,"longitude":74.124,"temp":27.6,"humidity":83,"rain":0.0,"pressure":997.0,"uv_index":8.9,"wind_gusts":39.2,"aqi":67,"pm10":47.7,"pm2_5":22.3,"no2":7.1,"co":179.0,"o3":51.0,"so2":1.9,"mosquito_risk":7,"arthritis_risk":5,"migraine_risk":7,"frizz_risk":1,"updated_at":"2026-05-06T01:39:30.356900+05:30"},{"city":"Jodhpur","state":"Rajasthan","latitude":26.2389,"longitude":73.0243,"temp":27.8,"humidity":35,"rain":0.0,"pressure":983.7,"uv_index":8.3,"wind_gusts":28.1,"aqi":114,"pm10":159.3,"pm2_5":38.5,"no2":14.0,"co":257.0,"o3":74.0,"so2":6.1,"mosquito_risk":4,"arthritis_risk":5,"migraine_risk":7,"frizz_risk":0,"updated_at":"2026-05-06T01:39:30.356908+05:30"},{"city":"Udaipur","state":"Rajasthan","latitude":24.5854,"longitude":73.7125,"temp":24.5,"humidity":55,"rain":0.0,"pressure":945.9,"uv_index":8.75,"wind_gusts":22.0,"aqi":78,"pm10":139.2,"pm2_5":37.8,"no2":6.5,"co":202.0,"o3":70.0,"so2":4.3,"mosquito_risk":0,"arthritis_risk":5,"migraine_risk":7,"frizz_risk":0,"updated_at":"2026-05-06T01:39:30.356916+05:30"},{"city":"Kota","state":"Rajasthan","latitude":25.2138,"longitude":75.8648,"temp":25.0,"humidity":63,"rain":0.0,"pressure":979.1,"uv_index":8.3,"wind_gusts":27.7,"aqi":88,"pm10":103.4,"pm2_5":41.9,"no2":13.8,"co":389.0,"o3":59.0,"so2":6.0,"mosquito_risk":7,"arthritis_risk":5,"migraine_risk":7,"frizz_risk":1,"updated_at":"2026-05-06T01:39:30.356924+05:30"},{"city":"Bikaner","state":"Rajasthan","latitude":28.0229,"longitude":73.3119,"temp":26.0,"humidity":44,"rain":0.0,"pressure":982.5,"uv_index":8.25,"wind_gusts":28.8,"aqi":103,"pm10":63.6,"pm2_5":30.2,"no2":3.1,"co":314.0,"o3":109.0,"so2":8.4,"mosquito_risk":4,"arthritis_risk":5,"migraine_risk":7,"frizz_risk":0,"updated_at":"2026-05-06T01:39:30.356932+05:30"},{"city":"Ajmer","state":"Rajasthan","latitude":26.4499,"longitude":74.6399,"temp":23.3,"humidity":50,"rain":0.0,"pressure":955.3,"uv_index":8.25,"wind_gusts":36.7,"aqi":75,"pm10":68.0,"pm2_5":28.6,"no2":10.6,"co":290.0,"o3":68.0,"so2":4.8,"mosquito_risk":0,"arthritis_risk":5,"migraine_risk":7,"frizz_risk":0,"updated_at":"2026-05-06T01:39:30.356939+05:30"},{"city":"Gwalior","state":"Madhya Pradesh","latitude":26.2183,"longitude":78.1828,"temp":22.5,"humidity":87,"rain":0.0,"pressure":983.6,"uv_index":8.15,"wind_gusts":22.3,"aqi":113,"pm10":255.2,"pm2_5":59.1,"no2":10.3,"co":392.0,"o3":78.0,"so2":7.0,"mosquito_risk":3,"arthritis_risk":5,"migraine_risk":7,"frizz_risk":1,"updated_at":"2026-05-06T01:39:30.356947+05:30"},{"city":"Indore","state":"Madhya Pradesh","latitude":22.7196,"longitude":75.8577,"temp":26.9,"humidity":46,"rain":0.0,"pressure":947.6,"uv_index":8.6,"wind_gusts":34.6,"aqi":72,"pm10":59.6,"pm2_5":24.9,"no2":4.9,"co":269.0,"o3":96.0,"so2":4.6,"mosquito_risk":4,"arthritis_risk":5,"migraine_risk":7,"frizz_risk":0,"updated_at":"2026-05-06T01:39:30.356955+05:30"},{"city":"Bhopal","state":"Madhya Pradesh","latitude":23.2599,"longitude":77.4126,"temp":26.4,"humidity":46,"rain":0.0,"pressure":953.5,"uv_index":8.65,"wind_gusts":36.0,"aqi":74,"pm10":51.1,"pm2_5":34.3,"no2":3.3,"co":274.0,"o3":112.0,"so2":7.0,"mosquito_risk":4,"arthritis_risk":5,"migraine_risk":7,"frizz_risk":0,"updated_at":"2026-05-06T01:39:30.356963+05:30"},{"city":"Jabalpur","state":"Madhya Pradesh","latitude":23.1815,"longitude":79.9864,"temp":25.4,"humidity":61,"rain":0.0,"pressure":961.4,"uv_index":8.8,"wind_gusts":35.6,"aqi":92,"pm10":48.0,"pm2_5":35.0,"no2":8.0,"co":254.0,"o3":117.0,"so2":9.1,"mosquito_risk":7,"arthritis_risk":5,"migraine_risk":7,"frizz_risk":1,"updated_at":"2026-05-06T01:39:30.356971+05:30"},{"city":"Ujjain","state":"Madhya Pradesh","latitude":23.1765,"longitude":75.7885,"temp":25.5,"humidity":49,"rain":0.0,"pressure":953.5,"uv_index":8.55,"wind_gusts":32.4,"aqi":72,"pm10":65.7,"pm2_5":28.6,"no2":5.8,"co":258.0,"o3":83.0,"so2":5.3,"mosquito_risk":4,"arthritis_risk":5,"migraine_risk":7,"frizz_risk":0,"updated_at":"2026-05-06T01:39:30.356979+05:30"},{"city":"Visakhapatnam","state":"Andhra Pradesh","latitude":17.6868,"longitude":83.2185,"temp":26.1,"humidity":91,"rain":0.0,"pressure":1003.8,"uv_index":9.15,"wind_gusts":28.4,"aqi":83,"pm10":40.3,"pm2_5":31.5,"no2":37.2,"co":450.0,"o3":30.0,"so2":5.5,"mosquito_risk":7,"arthritis_risk":5,"migraine_risk":4,"frizz_risk":1,"updated_at":"2026-05-06T01:39:30.356987+05:30"},{"city":"Vijayawada","state":"Andhra Pradesh","latitude":16.5062,"longitude":80.648,"temp":28.5,"humidity":84,"rain":0.0,"pressure":1001.6,"uv_index":9.2,"wind_gusts":43.2,"aqi":77,"pm10":22.8,"pm2_5":19.5,"no2":7.8,"co":202.0,"o3":58.0,"so2":4.2,"mosquito_risk":7,"arthritis_risk":5,"migraine_risk":4,"frizz_risk":1,"updated_at":"2026-05-06T01:39:30.356994+05:30"},{"city":"Guntur","state":"Andhra Pradesh","latitude":16.3067,"longitude":80.4365,"temp":28.6,"humidity":84,"rain":0.0,"pressure":1002.8,"uv_index":9.25,"wind_gusts":39.2,"aqi":82,"pm10":22.9,"pm2_5":19.3,"no2":6.6,"co":191.0,"o3":65.0,"so2":4.2,"mosquito_risk":7,"arthritis_risk":5,"migraine_risk":4,"frizz_risk":1,"updated_at":"2026-05-06T01:39:30.357002+05:30"},{"city":"Nellore","state":"Andhra Pradesh","latitude":14.4426,"longitude":79.9865,"temp":27.7,"humidity":91,"rain":0.0,"pressure":1004.9,"uv_index":9.25,"wind_gusts":39.2,"aqi":79,"pm10":18.0,"pm2_5":13.2,"no2":7.5,"co":180.0,"o3":62.0,"so2":7.1,"mosquito_risk":7,"arthritis_risk":5,"migraine_risk":4,"frizz_risk":1,"updated_at":"2026-05-06T01:39:30.357011+05:30"},{"city":"Kurnool","state":"Andhra Pradesh","latitude":15.8281,"longitude":78.0373,"temp":28.9,"humidity":62,"rain":0.0,"pressure":975.2,"uv_index":8.95,"wind_gusts":40.7,"aqi":79,"pm10":40.2,"pm2_5":34.3,"no2":3.6,"co":249.0,"o3":106.0,"so2":7.1,"mosquito_risk":7,"arthritis_risk":5,"migraine_risk":7,"frizz_risk":1,"updated_at":"2026-05-06T01:39:30.357020+05:30"},{"city":"Kakinada","state":"Andhra Pradesh","latitude":16.9891,"longitude":82.2475,"temp":27.2,"humidity":92,"rain":0.0,"pressure":1007.3,"uv_index":9.15,"wind_gusts":31.7,"aqi":62,"pm10":25.1,"pm2_5":16.4,"no2":3.3,"co":219.0,"o3":65.0,"so2":0.9,"mosquito_risk":7,"arthritis_risk":5,"migraine_risk":4,"frizz_risk":1,"updated_at":"2026-05-06T01:39:30.357028+05:30"},{"city":"Tirupati","state":"Andhra Pradesh","latitude":13.6288,"longitude":79.4192,"temp":27.5,"humidity":82,"rain":0.0,"pressure":990.3,"uv_index":9.3,"wind_gusts":30.2,"aqi":121,"pm10":39.7,"pm2_5":34.0,"no2":26.4,"co":235.0,"o3":35.0,"so2":11.2,"mosquito_risk":7,"arthritis_risk":5,"migraine_risk":7,"frizz_risk":1,"updated_at":"2026-05-06T01:39:30.357035+05:30"},{"city":"Warangal","state":"Telangana","latitude":17.9689,"longitude":79.5941,"temp":27.9,"humidity":68,"rain":0.0,"pressure":977.8,"uv_index":9.2,"wind_gusts":41.0,"aqi":82,"pm10":35.6,"pm2_5":31.2,"no2":8.1,"co":258.0,"o3":82.0,"so2":11.7,"mosquito_risk":7,"arthritis_risk":5,"migraine_risk":7,"frizz_risk":1,"updated_at":"2026-05-06T01:39:30.357043+05:30"},{"city":"Nizamabad","state":"Telangana","latitude":18.6725,"longitude":78.0941,"temp":29.3,"humidity":36,"rain":0.0,"pressure":962.9,"uv_index":9.05,"wind_gusts":35.6,"aqi":87,"pm10":58.0,"pm2_5":34.9,"no2":19.5,"co":292.0,"o3":73.0,"so2":7.2,"mosquito_risk":4,"arthritis_risk":5,"migraine_risk":7,"frizz_risk":0,"updated_at":"2026-05-06T01:39:30.357050+05:30"},{"city":"Mysore","state":"Karnataka","latitude":12.2958,"longitude":76.6396,"temp":22.5,"humidity":88,"rain":0.0,"pressure":926.9,"uv_index":9.4,"wind_gusts":29.2,"aqi":73,"pm10":39.2,"pm2_5":26.4,"no2":18.5,"co":234.0,"o3":58.0,"so2":4.1,"mosquito_risk":3,"arthritis_risk":5,"migraine_risk":7,"frizz_risk":1,"updated_at":"2026-05-06T01:39:30.357058+05:30"},{"city":"Mangalore","state":"Karnataka","latitude":12.9141,"longitude":74.856,"temp":27.6,"humidity":85,"rain":0.0,"pressure":1005.5,"uv_index":9.05,"wind_gusts":53.6,"aqi":63,"pm10":35.9,"pm2_5":16.9,"no2":3.0,"co":179.0,"o3":59.0,"so2":1.3,"mosquito_risk":7,"arthritis_risk":5,"migraine_risk":4,"frizz_risk":1,"updated_at":"2026-05-06T01:39:30.357066+05:30"},{"city":"Hubli-Dharwad","state":"Karnataka","latitude":15.3647,"longitude":75.124,"temp":23.5,"humidity":85,"rain":0.0,"pressure":939.3,"uv_index":8.8,"wind_gusts":41.8,"aqi":59,"pm10":26.0,"pm2_5":14.2,"no2":8.3,"co":181.0,"o3":44.0,"so2":2.3,"mosquito_risk":3,"arthritis_risk":5,"migraine_risk":7,"frizz_risk":1,"updated_at":"2026-05-06T01:39:30.357074+05:30"},{"city":"Belgaum","state":"Karnataka","latitude":15.8497,"longitude":74.4977,"temp":21.9,"humidity":92,"rain":0.0,"pressure":924.3,"uv_index":8.6,"wind_gusts":48.6,"aqi":60,"pm10":40.3,"pm2_5":20.4,"no2":12.3,"co":167.0,"o3":38.0,"so2":1.6,"mosquito_risk":3,"arthritis_risk":5,"migraine_risk":7,"frizz_risk":1,"updated_at":"2026-05-06T01:39:33.620165+05:30"},{"city":"Coimbatore","state":"Tamil Nadu","latitude":11.0168,"longitude":76.9558,"temp":23.6,"humidity":99,"rain":0.0,"pressure":960.1,"uv_index":9.35,"wind_gusts":26.3,"aqi":65,"pm10":22.5,"pm2_5":15.1,"no2":15.2,"co":260.0,"o3":62.0,"so2":3.8,"mosquito_risk":3,"arthritis_risk":5,"migraine_risk":7,"frizz_risk":1,"updated_at":"2026-05-06T01:39:33.620198+05:30"},{"city":"Madurai","state":"Tamil Nadu","latitude":9.9252,"longitude":78.1198,"temp":25.8,"humidity":94,"rain":0.0,"pressure":991.4,"uv_index":8.8,"wind_gusts":36.0,"aqi":82,"pm10":50.6,"pm2_5":36.2,"no2":23.3,"co":364.0,"o3":49.0,"so2":6.4,"mosquito_risk":7,"arthritis_risk":5,"migraine_risk":7,"frizz_risk":1,"updated_at":"2026-05-06T01:39:33.620211+05:30"},{"city":"Trichy","state":"Tamil Nadu","latitude":10.7905,"longitude":78.7047,"temp":26.5,"humidity":81,"rain":0.0,"pressure":998.2,"uv_index":9.15,"wind_gusts":27.0,"aqi":98,"pm10":39.5,"pm2_5":30.3,"no2":16.6,"co":318.0,"o3":61.0,"so2":4.3,"mosquito_risk":7,"arthritis_risk":5,"migraine_risk":7,"frizz_risk":1,"updated_at":"2026-05-06T01:39:33.620221+05:30"},{"city":"Salem","state":"Tamil Nadu","latitude":11.6643,"longitude":78.146,"temp":26.5,"humidity":72,"rain":0.0,"pressure":976.0,"uv_index":9.25,"wind_gusts":42.8,"aqi":103,"pm10":67.5,"pm2_5":44.9,"no2":20.1,"co":309.0,"o3":72.0,"so2":9.5,"mosquito_risk":7,"arthritis_risk":5,"migraine_risk":7,"frizz_risk":1,"updated_at":"2026-05-06T01:39:33.620230+05:30"},{"city":"Tirunelveli","state":"Tamil Nadu","latitude":8.7139,"longitude":77.7567,"temp":27.6,"humidity":73,"rain":0.0,"pressure":1001.3,"uv_index":7.95,"wind_gusts":40.3,"aqi":73,"pm10":27.5,"pm2_5":21.7,"no2":10.8,"co":310.0,"o3":59.0,"so2":5.5,"mosquito_risk":7,"arthritis_risk":5,"migraine_risk":4,"frizz_risk":1,"updated_at":"2026-05-06T01:39:33.620239+05:30"},{"city":"Vellore","state":"Tamil Nadu","latitude":12.9165,"longitude":79.1325,"temp":26.5,"humidity":86,"rain":0.0,"pressure":983.6,"uv_index":9.3,"wind_gusts":34.9,"aqi":119,"pm10":53.1,"pm2_5":46.1,"no2":22.7,"co":231.0,"o3":37.0,"so2":7.4,"mosquito_risk":7,"arthritis_risk":5,"migraine_risk":7,"frizz_risk":1,"updated_at":"2026-05-06T01:39:33.620247+05:30"},{"city":"Erode","state":"Tamil Nadu","latitude":11.341,"longitude":77.7172,"temp":27.2,"humidity":73,"rain":0.0,"pressure":987.8,"uv_index":9.25,"wind_gusts":30.6,"aqi":78,"pm10":34.1,"pm2_5":23.9,"no2":21.1,"co":356.0,"o3":50.0,"so2":3.9,"mosquito_risk":7,"arthritis_risk":5,"migraine_risk":7,"frizz_risk":1,"updated_at":"2026-05-06T01:39:33.620256+05:30"},{"city":"Kochi","state":"Kerala","latitude":9.9312,"longitude":76.2673,"temp":26.6,"humidity":91,"rain":0.0,"pressure":1007.1,"uv_index":6.25,"wind_gusts":31.3,"aqi":62,"pm10":45.9,"pm2_5":40.0,"no2":41.5,"co":175.0,"o3":5.0,"so2":6.5,"mosquito_risk":7,"arthritis_risk":5,"migraine_risk":4,"frizz_risk":1,"updated_at":"2026-05-06T01:39:33.620264+05:30"},{"city":"Thiruvananthapuram","state":"Kerala","latitude":8.5241,"longitude":76.9366,"temp":25.0,"humidity":93,"rain":0.0,"pressure":1006.3,"uv_index":8.7,"wind_gusts":31.0,"aqi":57,"pm10":29.9,"pm2_5":13.9,"no2":5.3,"co":262.0,"o3":78.0,"so2":2.8,"mosquito_risk":7,"arthritis_risk":5,"migraine_risk":4,"frizz_risk":1,"updated_at":"2026-05-06T01:39:33.620272+05:30"},{"city":"Kozhikode","state":"Kerala","latitude":11.2588,"longitude":75.7804,"temp":26.0,"humidity":96,"rain":0.0,"pressure":1006.3,"uv_index":9.05,"wind_gusts":39.6,"aqi":57,"pm10":41.8,"pm2_5":20.0,"no2":4.2,"co":506.0,"o3":66.0,"so2":2.4,"mosquito_risk":7,"arthritis_risk":5,"migraine_risk":4,"frizz_risk":1,"updated_at":"2026-05-06T01:39:33.620280+05:30"},{"city":"Thrissur","state":"Kerala","latitude":10.5276,"longitude":76.2144,"temp":24.6,"humidity":100,"rain":0.0,"pressure":1005.7,"uv_index":8.9,"wind_gusts":31.3,"aqi":64,"pm10":62.6,"pm2_5":53.3,"no2":42.1,"co":374.0,"o3":6.0,"so2":5.1,"mosquito_risk":3,"arthritis_risk":5,"migraine_risk":4,"frizz_risk":1,"updated_at":"2026-05-06T01:39:33.620289+05:30"},{"city":"Kannur","state":"Kerala","latitude":11.8745,"longitude":75.3704,"temp":27.8,"humidity":81,"rain":0.0,"pressure":1005.3,"uv_index":9.05,"wind_gusts":55.8,"aqi":64,"pm10":33.5,"pm2_5":17.1,"no2":8.7,"co":278.0,"o3":43.0,"so2":1.9,"mosquito_risk":7,"arthritis_risk":5,"migraine_risk":4,"frizz_risk":1,"updated_at":"2026-05-06T01:39:33.620297+05:30"},{"city":"Patna","state":"Bihar","latitude":25.5941,"longitude":85.1376,"temp":24.1,"humidity":82,"rain":0.0,"pressure":1001.0,"uv_index":8.7,"wind_gusts":35.6,"aqi":149,"pm10":73.6,"pm2_5":63.1,"no2":24.1,"co":793.0,"o3":88.0,"so2":16.8,"mosquito_risk":3,"arthritis_risk":5,"migraine_risk":4,"frizz_risk":1,"updated_at":"2026-05-06T01:39:33.620305+05:30"},{"city":"Gaya","state":"Bihar","latitude":24.7914,"longitude":85.0002,"temp":23.0,"humidity":82,"rain":0.0,"pressure":995.0,"uv_index":8.75,"wind_gusts":38.9,"aqi":107,"pm10":44.2,"pm2_5":37.1,"no2":7.8,"co":315.0,"o3":123.0,"so2":9.1,"mosquito_risk":3,"arthritis_risk":5,"migraine_risk":7,"frizz_risk":1,"updated_at":"2026-05-06T01:39:33.620313+05:30"},{"city":"Muzaffarpur","state":"Bihar","latitude":26.1209,"longitude":85.3647,"temp":23.5,"humidity":86,"rain":0.0,"pressure":1000.9,"uv_index":8.7,"wind_gusts":45.7,"aqi":149,"pm10":87.3,"pm2_5":75.0,"no2":30.9,"co":481.0,"o3":78.0,"so2":19.1,"mosquito_risk":3,"arthritis_risk":5,"migraine_risk":4,"frizz_risk":1,"updated_at":"2026-05-06T01:39:33.620320+05:30"},{"city":"Bhagalpur","state":"Bihar","latitude":25.2425,"longitude":87.0117,"temp":25.5,"humidity":81,"rain":0.0,"pressure":1001.5,"uv_index":8.7,"wind_gusts":38.9,"aqi":112,"pm10":55.1,"pm2_5":49.9,"no2":15.4,"co":424.0,"o3":90.0,"so2":18.7,"mosquito_risk":7,"arthritis_risk":5,"migraine_risk":4,"frizz_risk":1,"updated_at":"2026-05-06T01:39:33.620329+05:30"},{"city":"Ranchi","state":"Jharkhand","latitude":23.3441,"longitude":85.3096,"temp":20.8,"humidity":81,"rain":0.0,"pressure":938.4,"uv_index":9.2,"wind_gusts":34.9,"aqi":102,"pm10":42.4,"pm2_5":34.0,"no2":4.1,"co":260.0,"o3":148.0,"so2":10.7,"mosquito_risk":3,"arthritis_risk":5,"migraine_risk":7,"frizz_risk":1,"updated_at":"2026-05-06T01:39:33.620337+05:30"},{"city":"Jamshedpur","state":"Jharkhand","latitude":22.8046,"longitude":86.2029,"temp":24.0,"humidity":81,"rain":0.0,"pressure":992.4,"uv_index":9.0,"wind_gusts":41.8,"aqi":96,"pm10":38.2,"pm2_5":31.5,"no2":20.3,"co":220.0,"o3":78.0,"so2":27.9,"mosquito_risk":3,"arthritis_risk":5,"migraine_risk":7,"frizz_risk":1,"updated_at":"2026-05-06T01:39:33.620345+05:30"},{"city":"Dhanbad","state":"Jharkhand","latitude":23.7957,"longitude":86.4304,"temp":24.5,"humidity":79,"rain":0.0,"pressure":980.6,"uv_index":8.95,"wind_gusts":32.8,"aqi":151,"pm10":82.7,"pm2_5":72.2,"no2":38.4,"co":1227.0,"o3":81.0,"so2":53.5,"mosquito_risk":3,"arthritis_risk":5,"migraine_risk":7,"frizz_risk":1,"updated_at":"2026-05-06T01:39:33.620353+05:30"},{"city":"Bokaro","state":"Jharkhand","latitude":23.6693,"longitude":86.1511,"temp":23.5,"humidity":75,"rain":0.0,"pressure":984.4,"uv_index":9.0,"wind_gusts":42.8,"aqi":150,"pm10":64.5,"pm2_5":50.9,"no2":25.1,"co":311.0,"o3":109.0,"so2":31.3,"mosquito_risk":3,"arthritis_risk":5,"migraine_risk":7,"frizz_risk":1,"updated_at":"2026-05-06T01:39:33.620362+05:30"},{"city":"Bhubaneswar","state":"Odisha","latitude":20.2961,"longitude":85.8245,"temp":25.2,"humidity":91,"rain":0.0,"pressure":1003.9,"uv_index":9.1,"wind_gusts":35.3,"aqi":41,"pm10":20.9,"pm2_5":16.8,"no2":11.1,"co":218.0,"o3":38.0,"so2":3.7,"mosquito_risk":7,"arthritis_risk":5,"migraine_risk":4,"frizz_risk":1,"updated_at":"2026-05-06T01:39:33.620370+05:30"},{"city":"Cuttack","state":"Odisha","latitude":20.4625,"longitude":85.8828,"temp":25.2,"humidity":91,"rain":0.0,"pressure":1005.7,"uv_index":9.15,"wind_gusts":33.8,"aqi":41,"pm10":20.9,"pm2_5":16.8,"no2":11.1,"co":223.0,"o3":38.0,"so2":3.7,"mosquito_risk":7,"arthritis_risk":5,"migraine_risk":4,"frizz_risk":1,"updated_at":"2026-05-06T01:39:33.620378+05:30"},{"city":"Rourkela","state":"Odisha","latitude":22.2604,"longitude":84.8536,"temp":22.6,"humidity":96,"rain":0.0,"pressure":986.6,"uv_index":8.95,"wind_gusts":43.6,"aqi":103,"pm10":53.6,"pm2_5":41.7,"no2":9.4,"co":454.0,"o3":113.0,"so2":39.5,"mosquito_risk":3,"arthritis_risk":5,"migraine_risk":7,"frizz_risk":1,"updated_at":"2026-05-06T01:39:33.620385+05:30"},{"city":"Raipur","state":"Chhattisgarh","latitude":21.2514,"longitude":81.6296,"temp":26.4,"humidity":69,"rain":0.0,"pressure":975.3,"uv_index":9.0,"wind_gusts":34.6,"aqi":107,"pm10":58.4,"pm2_5":42.6,"no2":19.3,"co":277.0,"o3":82.0,"so2":6.0,"mosquito_risk":7,"arthritis_risk":5,"migraine_risk":7,"frizz_risk":1,"updated_at":"2026-05-06T01:39:33.620393+05:30"},{"city":"Bhilai","state":"Chhattisgarh","latitude":21.1938,"longitude":81.3509,"temp":26.7,"humidity":63,"rain":0.0,"pressure":975.5,"uv_index":9.0,"wind_gusts":27.7,"aqi":113,"pm10":54.1,"pm2_5":40.6,"no2":32.9,"co":398.0,"o3":59.0,"so2":7.4,"mosquito_risk":7,"arthritis_risk":5,"migraine_risk":7,"frizz_risk":1,"updated_at":"2026-05-06T01:39:33.620401+05:30"},{"city":"Guwahati","state":"Assam","latitude":26.1158,"longitude":91.7086,"temp":22.4,"humidity":88,"rain":0.0,"pressure":1002.7,"uv_index":8.65,"wind_gusts":31.7,"aqi":70,"pm10":35.0,"pm2_5":30.3,"no2":11.7,"co":263.0,"o3":47.0,"so2":1.8,"mosquito_risk":3,"arthritis_risk":5,"migraine_risk":4,"frizz_risk":1,"updated_at":"2026-05-06T01:39:33.620409+05:30"},{"city":"Agartala","state":"Tripura","latitude":23.8315,"longitude":91.2868,"temp":23.4,"humidity":97,"rain":0.0,"pressure":1007.4,"uv_index":8.8,"wind_gusts":19.8,"aqi":102,"pm10":27.6,"pm2_5":24.4,"no2":23.1,"co":365.0,"o3":25.0,"so2":3.0,"mosquito_risk":3,"arthritis_risk":5,"migraine_risk":4,"frizz_risk":1,"updated_at":"2026-05-06T01:39:33.620418+05:30"},{"city":"Shillong","state":"Meghalaya","latitude":25.5788,"longitude":91.8933,"temp":15.0,"humidity":95,"rain":0.0,"pressure":856.1,"uv_index":8.9,"wind_gusts":27.7,"aqi":66,"pm10":30.5,"pm2_5":27.0,"no2":8.3,"co":234.0,"o3":75.0,"so2":0.5,"mosquito_risk":3,"arthritis_risk":10,"migraine_risk":7,"frizz_risk":0,"updated_at":"2026-05-06T01:39:33.620426+05:30"},{"city":"Imphal","state":"Manipur","latitude":24.817,"longitude":93.9368,"temp":19.0,"humidity":97,"rain":0.0,"pressure":923.3,"uv_index":9.2,"wind_gusts":28.4,"aqi":89,"pm10":45.6,"pm2_5":37.3,"no2":17.6,"co":268.0,"o3":34.0,"so2":4.3,"mosquito_risk":3,"arthritis_risk":10,"migraine_risk":7,"frizz_risk":1,"updated_at":"2026-05-06T01:39:33.620435+05:30"},{"city":"Aizawl","state":"Mizoram","latitude":23.7271,"longitude":92.7176,"temp":16.7,"humidity":95,"rain":0.0,"pressure":892.1,"uv_index":9.05,"wind_gusts":25.2,"aqi":66,"pm10":24.8,"pm2_5":19.3,"no2":11.3,"co":254.0,"o3":31.0,"so2":0.6,"mosquito_risk":3,"arthritis_risk":10,"migraine_risk":7,"frizz_risk":0,"updated_at":"2026-05-06T01:39:33.620444+05:30"},{"city":"Kohima","state":"Nagaland","latitude":25.6701,"longitude":94.1077,"temp":14.5,"humidity":86,"rain":0.0,"pressure":853.9,"uv_index":9.15,"wind_gusts":30.6,"aqi":64,"pm10":36.1,"pm2_5":23.4,"no2":9.8,"co":269.0,"o3":57.0,"so2":1.0,"mosquito_risk":3,"arthritis_risk":10,"migraine_risk":7,"frizz_risk":0,"updated_at":"2026-05-06T01:39:33.620452+05:30"},{"city":"Gangtok","state":"Sikkim","latitude":27.3314,"longitude":88.6138,"temp":11.2,"humidity":94,"rain":0.0,"pressure":835.9,"uv_index":8.85,"wind_gusts":38.9,"aqi":50,"pm10":19.8,"pm2_5":17.2,"no2":21.5,"co":403.0,"o3":46.0,"so2":0.9,"mosquito_risk":3,"arthritis_risk":10,"migraine_risk":7,"frizz_risk":0,"updated_at":"2026-05-06T01:39:33.620461+05:30"},{"city":"Siliguri","state":"West Bengal","latitude":26.7271,"longitude":88.3953,"temp":21.0,"humidity":94,"rain":0.0,"pressure":994.1,"uv_index":8.6,"wind_gusts":21.2,"aqi":76,"pm10":48.5,"pm2_5":40.3,"no2":29.0,"co":1116.0,"o3":66.0,"so2":4.6,"mosquito_risk":3,"arthritis_risk":5,"migraine_risk":7,"frizz_risk":1,"updated_at":"2026-05-06T01:39:36.887020+05:30"},{"city":"Durgapur","state":"West Bengal","latitude":23.5204,"longitude":87.3119,"temp":23.6,"humidity":92,"rain":0.0,"pressure":996.4,"uv_index":8.9,"wind_gusts":29.2,"aqi":121,"pm10":36.9,"pm2_5":34.1,"no2":31.2,"co":919.0,"o3":49.0,"so2":45.5,"mosquito_risk":3,"arthritis_risk":5,"migraine_risk":7,"frizz_risk":1,"updated_at":"2026-05-06T01:39:36.887051+05:30"},{"city":"Asansol","state":"West Bengal","latitude":23.6739,"longitude":86.9524,"temp":23.9,"humidity":90,"rain":0.0,"pressure":995.0,"uv_index":8.95,"wind_gusts":35.6,"aqi":123,"pm10":59.8,"pm2_5":54.4,"no2":34.0,"co":270.0,"o3":60.0,"so2":51.2,"mosquito_risk":3,"arthritis_risk":5,"migraine_risk":7,"frizz_risk":1,"updated_at":"2026-05-06T01:39:36.887062+05:30"},{"city":"Pondicherry","state":"Puducherry","latitude":11.9139,"longitude":79.8145,"temp":28.0,"humidity":86,"rain":0.0,"pressure":1007.0,"uv_index":8.75,"wind_gusts":37.8,"aqi":67,"pm10":20.0,"pm2_5":12.0,"no2":1.5,"co":202.0,"o3":78.0,"so2":0.4,"mosquito_risk":7,"arthritis_risk":5,"migraine_risk":4,"frizz_risk":1,"updated_at":"2026-05-06T01:39:36.887071+05:30"},{"city":"Port Blair","state":"Andaman and Nicobar Islands","latitude":11.6234,"longitude":92.7265,"temp":26.8,"humidity":88,"rain":0.0,"pressure":1006.1,"uv_index":8.35,"wind_gusts":36.0,"aqi":28,"pm10":5.8,"pm2_5":5.0,"no2":0.5,"co":209.0,"o3":59.0,"so2":2.8,"mosquito_risk":7,"arthritis_risk":5,"migraine_risk":4,"frizz_risk":1,"updated_at":"2026-05-06T01:39:36.887079+05:30"},{"city":"Haridwar","state":"Uttarakhand","latitude":29.9457,"longitude":78.1642,"temp":18.4,"humidity":78,"rain":0.0,"pressure":974.3,"uv_index":7.35,"wind_gusts":24.5,"aqi":67,"pm10":54.0,"pm2_5":34.8,"no2":23.2,"co":253.0,"o3":31.0,"so2":4.2,"mosquito_risk":3,"arthritis_risk":5,"migraine_risk":7,"frizz_risk":0,"updated_at":"2026-05-06T01:39:36.887087+05:30"},{"city":"Rishikesh","state":"Uttarakhand","latitude":30.0869,"longitude":78.2676,"temp":15.9,"humidity":87,"rain":0.0,"pressure":966.7,"uv_index":7.45,"wind_gusts":23.4,"aqi":57,"pm10":62.9,"pm2_5":23.3,"no2":10.3,"co":322.0,"o3":76.0,"so2":1.1,"mosquito_risk":3,"arthritis_risk":10,"migraine_risk":7,"frizz_risk":0,"updated_at":"2026-05-06T01:39:36.887095+05:30"},{"city":"Nainital","state":"Uttarakhand","latitude":29.3919,"longitude":79.4542,"temp":9.3,"humidity":70,"rain":0.0,"pressure":802.3,"uv_index":6.8,"wind_gusts":35.3,"aqi":65,"pm10":45.2,"pm2_5":26.3,"no2":16.8,"co":212.0,"o3":60.0,"so2":2.9,"mosquito_risk":3,"arthritis_risk":5,"migraine_risk":7,"frizz_risk":0,"updated_at":"2026-05-06T01:39:36.887102+05:30"},{"city":"Mussoorie","state":"Uttarakhand","latitude":30.4599,"longitude":78.0664,"temp":8.8,"humidity":77,"rain":0.0,"pressure":799.3,"uv_index":7.3,"wind_gusts":33.1,"aqi":61,"pm10":81.7,"pm2_5":33.6,"no2":29.8,"co":217.0,"o3":49.0,"so2":7.2,"mosquito_risk":3,"arthritis_risk":5,"migraine_risk":7,"frizz_risk":0,"updated_at":"2026-05-06T01:39:36.887110+05:30"},{"city":"Dharamshala","state":"Himachal Pradesh","latitude":32.219,"longitude":76.3234,"temp":15.8,"humidity":55,"rain":0.0,"pressure":868.2,"uv_index":8.15,"wind_gusts":42.5,"aqi":49,"pm10":20.8,"pm2_5":11.5,"no2":11.4,"co":208.0,"o3":59.0,"so2":0.3,"mosquito_risk":0,"arthritis_risk":5,"migraine_risk":7,"frizz_risk":0,"updated_at":"2026-05-06T01:39:36.887121+05:30"},{"city":"Dalhousie","state":"Himachal Pradesh","latitude":32.5387,"longitude":75.971,"temp":6.5,"humidity":83,"rain":0.0,"pressure":799.7,"uv_index":8.3,"wind_gusts":39.2,"aqi":63,"pm10":43.2,"pm2_5":25.8,"no2":39.9,"co":382.0,"o3":31.0,"so2":2.1,"mosquito_risk":3,"arthritis_risk":10,"migraine_risk":7,"frizz_risk":0,"updated_at":"2026-05-06T01:39:36.887129+05:30"},{"city":"Patiala","state":"Punjab","latitude":30.3398,"longitude":76.3869,"temp":20.9,"humidity":81,"rain":0.0,"pressure":979.2,"uv_index":7.45,"wind_gusts":40.0,"aqi":287,"pm10":73.1,"pm2_5":44.2,"no2":19.2,"co":444.0,"o3":60.0,"so2":7.5,"mosquito_risk":3,"arthritis_risk":5,"migraine_risk":7,"frizz_risk":1,"updated_at":"2026-05-06T01:39:36.887136+05:30"},{"city":"Bhatinda","state":"Punjab","latitude":30.211,"longitude":74.9455,"temp":22.3,"humidity":65,"rain":0.0,"pressure":985.0,"uv_index":8.1,"wind_gusts":24.5,"aqi":184,"pm10":272.9,"pm2_5":68.5,"no2":8.5,"co":431.0,"o3":89.0,"so2":9.3,"mosquito_risk":3,"arthritis_risk":5,"migraine_risk":7,"frizz_risk":0,"updated_at":"2026-05-06T01:39:36.887144+05:30"},{"city":"Rohtak","state":"Haryana","latitude":28.8955,"longitude":76.6066,"temp":21.2,"humidity":84,"rain":0.0,"pressure":983.1,"uv_index":7.55,"wind_gusts":29.2,"aqi":180,"pm10":151.8,"pm2_5":75.4,"no2":38.7,"co":638.0,"o3":59.0,"so2":32.9,"mosquito_risk":3,"arthritis_risk":5,"migraine_risk":7,"frizz_risk":1,"updated_at":"2026-05-06T01:39:36.887150+05:30"},{"city":"Panipat","state":"Haryana","latitude":29.3909,"longitude":76.9635,"temp":19.9,"humidity":90,"rain":0.0,"pressure":981.3,"uv_index":7.4,"wind_gusts":25.2,"aqi":642,"pm10":383.7,"pm2_5":85.4,"no2":21.6,"co":655.0,"o3":79.0,"so2":14.1,"mosquito_risk":3,"arthritis_risk":10,"migraine_risk":7,"frizz_risk":1,"updated_at":"2026-05-06T01:39:36.887157+05:30"},{"city":"Mathura","state":"Uttar Pradesh","latitude":27.4924,"longitude":77.6737,"temp":22.1,"humidity":82,"rain":0.0,"pressure":987.8,"uv_index":7.85,"wind_gusts":24.1,"aqi":184,"pm10":190.9,"pm2_5":63.3,"no2":20.6,"co":498.0,"o3":72.0,"so2":13.0,"mosquito_risk":3,"arthritis_risk":5,"migraine_risk":7,"frizz_risk":1,"updated_at":"2026-05-06T01:39:36.887165+05:30"},{"city":"Vrindavan","state":"Uttar Pradesh","latitude":27.5823,"longitude":77.7027,"temp":22.2,"humidity":82,"rain":0.0,"pressure":988.2,"uv_index":7.8,"wind_gusts":23.8,"aqi":184,"pm10":190.9,"pm2_5":63.3,"no2":20.6,"co":484.0,"o3":72.0,"so2":13.0,"mosquito_risk":3,"arthritis_risk":5,"migraine_risk":7,"frizz_risk":1,"updated_at":"2026-05-06T01:39:36.887172+05:30"},{"city":"Ayodhya","state":"Uttar Pradesh","latitude":26.7922,"longitude":82.1998,"temp":21.7,"humidity":92,"rain":0.0,"pressure":996.1,"uv_index":8.2,"wind_gusts":19.4,"aqi":86,"pm10":51.8,"pm2_5":43.7,"no2":23.9,"co":532.0,"o3":63.0,"so2":8.6,"mosquito_risk":3,"arthritis_risk":5,"migraine_risk":7,"frizz_risk":1,"updated_at":"2026-05-06T01:39:36.887179+05:30"},{"city":"Ratlam","state":"Madhya Pradesh","latitude":23.3315,"longitude":75.0367,"temp":25.3,"humidity":53,"rain":0.0,"pressure":953.9,"uv_index":8.5,"wind_gusts":31.7,"aqi":69,"pm10":64.3,"pm2_5":27.6,"no2":5.1,"co":290.0,"o3":80.0,"so2":5.1,"mosquito_risk":4,"arthritis_risk":5,"migraine_risk":7,"frizz_risk":0,"updated_at":"2026-05-06T01:39:36.887186+05:30"},{"city":"Sagar","state":"Madhya Pradesh","latitude":23.8388,"longitude":78.7378,"temp":24.7,"humidity":56,"rain":0.0,"pressure":949.6,"uv_index":8.65,"wind_gusts":34.2,"aqi":100,"pm10":50.9,"pm2_5":36.7,"no2":6.2,"co":263.0,"o3":105.0,"so2":7.3,"mosquito_risk":0,"arthritis_risk":5,"migraine_risk":7,"frizz_risk":0,"updated_at":"2026-05-06T01:39:36.887192+05:30"},{"city":"Satna","state":"Madhya Pradesh","latitude":24.6005,"longitude":80.8322,"temp":22.8,"humidity":81,"rain":0.0,"pressure":971.4,"uv_index":8.7,"wind_gusts":42.5,"aqi":118,"pm10":52.4,"pm2_5":42.1,"no2":16.1,"co":387.0,"o3":74.0,"so2":8.5,"mosquito_risk":3,"arthritis_risk":5,"migraine_risk":7,"frizz_risk":1,"updated_at":"2026-05-06T01:39:36.887199+05:30"},{"city":"Akola","state":"Maharashtra","latitude":20.7002,"longitude":77.0082,"temp":29.6,"humidity":34,"rain":0.0,"pressure":973.2,"uv_index":8.85,"wind_gusts":33.1,"aqi":62,"pm10":43.7,"pm2_5":19.7,"no2":7.0,"co":197.0,"o3":75.0,"so2":9.3,"mosquito_risk":4,"arthritis_risk":5,"migraine_risk":7,"frizz_risk":0,"updated_at":"2026-05-06T01:39:36.887207+05:30"},{"city":"Amravati","state":"Maharashtra","latitude":20.9374,"longitude":77.7796,"temp":30.0,"humidity":31,"rain":0.0,"pressure":966.0,"uv_index":8.85,"wind_gusts":37.4,"aqi":62,"pm10":39.1,"pm2_5":18.9,"no2":7.5,"co":185.0,"o3":76.0,"so2":8.5,"mosquito_risk":4,"arthritis_risk":5,"migraine_risk":7,"frizz_risk":0,"updated_at":"2026-05-06T01:39:36.887215+05:30"},{"city":"Latur","state":"Maharashtra","latitude":18.4088,"longitude":76.5604,"temp":28.7,"humidity":28,"rain":0.0,"pressure":938.1,"uv_index":8.95,"wind_gusts":44.3,"aqi":69,"pm10":64.7,"pm2_5":35.2,"no2":21.1,"co":308.0,"o3":55.0,"so2":8.8,"mosquito_risk":4,"arthritis_risk":5,"migraine_risk":7,"frizz_risk":0,"updated_at":"2026-05-06T01:39:36.887222+05:30"},{"city":"Nanded","state":"Maharashtra","latitude":19.1383,"longitude":77.3091,"temp":29.8,"humidity":32,"rain":0.0,"pressure":966.4,"uv_index":9.0,"wind_gusts":28.4,"aqi":74,"pm10":62.6,"pm2_5":35.4,"no2":26.8,"co":355.0,"o3":48.0,"so2":7.8,"mosquito_risk":4,"arthritis_risk":5,"migraine_risk":7,"frizz_risk":0,"updated_at":"2026-05-06T01:39:36.887229+05:30"},{"city":"Gulbarga","state":"Karnataka","latitude":17.3297,"longitude":76.8343,"temp":29.6,"humidity":29,"rain":0.0,"pressure":957.2,"uv_index":9.15,"wind_gusts":26.6,"aqi":63,"pm10":31.5,"pm2_5":20.4,"no2":17.2,"co":294.0,"o3":56.0,"so2":5.7,"mosquito_risk":4,"arthritis_risk":5,"migraine_risk":7,"frizz_risk":0,"updated_at":"2026-05-06T01:39:36.887235+05:30"},{"city":"Bidar","state":"Karnataka","latitude":17.9104,"longitude":77.5199,"temp":27.4,"humidity":41,"rain":0.0,"pressure":933.7,"uv_index":8.7,"wind_gusts":29.2,"aqi":74,"pm10":62.4,"pm2_5":37.5,"no2":23.5,"co":254.0,"o3":69.0,"so2":7.2,"mosquito_risk":4,"arthritis_risk":5,"migraine_risk":7,"frizz_risk":0,"updated_at":"2026-05-06T01:39:36.887242+05:30"},{"city":"Hospet","state":"Karnataka","latitude":15.2689,"longitude":76.3909,"temp":26.1,"humidity":72,"rain":0.0,"pressure":954.7,"uv_index":8.95,"wind_gusts":30.2,"aqi":70,"pm10":30.2,"pm2_5":19.0,"no2":23.4,"co":181.0,"o3":43.0,"so2":4.5,"mosquito_risk":7,"arthritis_risk":5,"migraine_risk":7,"frizz_risk":1,"updated_at":"2026-05-06T01:39:36.887248+05:30"},{"city":"Tirupur","state":"Tamil Nadu","latitude":11.1085,"longitude":77.3411,"temp":24.6,"humidity":87,"rain":0.0,"pressure":973.7,"uv_index":9.35,"wind_gusts":23.8,"aqi":77,"pm10":38.9,"pm2_5":27.0,"no2":27.4,"co":235.0,"o3":37.0,"so2":5.9,"mosquito_risk":3,"arthritis_risk":5,"migraine_risk":7,"frizz_risk":1,"updated_at":"2026-05-06T01:39:36.887255+05:30"},{"city":"Alappuzha","state":"Kerala","latitude":9.4981,"longitude":76.3388,"temp":26.2,"humidity":94,"rain":0.0,"pressure":1007.1,"uv_index":8.95,"wind_gusts":32.0,"aqi":53,"pm10":37.4,"pm2_5":24.2,"no2":17.9,"co":127.0,"o3":48.0,"so2":5.3,"mosquito_risk":7,"arthritis_risk":5,"migraine_risk":4,"frizz_risk":1,"updated_at":"2026-05-06T01:39:36.887261+05:30"},{"city":"Munnar","state":"Kerala","latitude":10.0889,"longitude":77.0595,"temp":16.4,"humidity":97,"rain":0.0,"pressure":853.9,"uv_index":6.5,"wind_gusts":21.6,"aqi":61,"pm10":36.1,"pm2_5":24.7,"no2":13.0,"co":255.0,"o3":38.0,"so2":2.2,"mosquito_risk":3,"arthritis_risk":10,"migraine_risk":7,"frizz_risk":0,"updated_at":"2026-05-06T01:39:36.887268+05:30"},{"city":"Silchar","state":"Assam","latitude":24.8333,"longitude":92.7789,"temp":22.0,"humidity":96,"rain":0.1,"pressure":1007.0,"uv_index":8.85,"wind_gusts":25.9,"aqi":90,"pm10":35.7,"pm2_5":27.8,"no2":8.8,"co":234.0,"o3":70.0,"so2":3.0,"mosquito_risk":6,"arthritis_risk":5,"migraine_risk":4,"frizz_risk":1,"updated_at":"2026-05-06T01:39:36.887275+05:30"},{"city":"Dibrugarh","state":"Assam","latitude":27.4728,"longitude":94.912,"temp":20.7,"humidity":97,"rain":0.2,"pressure":996.8,"uv_index":8.8,"wind_gusts":25.2,"aqi":60,"pm10":10.8,"pm2_5":8.2,"no2":12.1,"co":231.0,"o3":45.0,"so2":0.3,"mosquito_risk":6,"arthritis_risk":5,"migraine_risk":7,"frizz_risk":1,"updated_at":"2026-05-06T01:39:36.887282+05:30"}]