[{"city":"Delhi","state":"Delhi","latitude":28.6139,"longitude":77.209,"temp":26.9,"humidity":96,"rain":0.2,"pressure":978.9,"uv_index":5.95,"wind_gusts":29.5,"aqi":155,"pm10":95.9,"pm2_5":53.0,"no2":49.0,"co":1047.0,"o3":38.0,"so2":34.4,"mosquito_risk":10,"arthritis_risk":5,"migraine_risk":3,"frizz_risk":1,"updated_at":"2026-07-20T23:36:32.937732+05:30"},{"city":"Mumbai","state":"Maharashtra","latitude":19.076,"longitude":72.8777,"temp":25.9,"humidity":91,"rain":0.1,"pressure":1007.5,"uv_index":7.8,"wind_gusts":49.3,"aqi":56,"pm10":35.4,"pm2_5":15.9,"no2":7.6,"co":212.0,"o3":48.0,"so2":5.9,"mosquito_risk":10,"arthritis_risk":5,"migraine_risk":4,"frizz_risk":1,"updated_at":"2026-07-20T23:36:32.937785+05:30"},{"city":"Bangalore","state":"Karnataka","latitude":12.9716,"longitude":77.5946,"temp":21.4,"humidity":85,"rain":0.0,"pressure":912.9,"uv_index":8.65,"wind_gusts":49.7,"aqi":36,"pm10":8.5,"pm2_5":6.7,"no2":14.3,"co":291.0,"o3":34.0,"so2":4.6,"mosquito_risk":3,"arthritis_risk":5,"migraine_risk":7,"frizz_risk":1,"updated_at":"2026-07-20T23:36:32.937797+05:30"},{"city":"Hyderabad","state":"Telangana","latitude":17.385,"longitude":78.4867,"temp":23.3,"humidity":94,"rain":0.2,"pressure":952.6,"uv_index":8.6,"wind_gusts":43.6,"aqi":34,"pm10":12.6,"pm2_5":8.2,"no2":8.0,"co":234.0,"o3":44.0,"so2":4.3,"mosquito_risk":6,"arthritis_risk":5,"migraine_risk":7,"frizz_risk":1,"updated_at":"2026-07-20T23:36:32.937805+05:30"},{"city":"Chennai","state":"Tamil Nadu","latitude":13.0827,"longitude":80.2707,"temp":26.4,"humidity":91,"rain":0.0,"pressure":1007.9,"uv_index":7.95,"wind_gusts":51.1,"aqi":76,"pm10":29.2,"pm2_5":22.4,"no2":22.7,"co":472.0,"o3":68.0,"so2":11.3,"mosquito_risk":7,"arthritis_risk":5,"migraine_risk":4,"frizz_risk":1,"updated_at":"2026-07-20T23:36:32.937812+05:30"},{"city":"Kolkata","state":"West Bengal","latitude":22.5726,"longitude":88.3639,"temp":26.4,"humidity":97,"rain":0.2,"pressure":1003.2,"uv_index":8.35,"wind_gusts":30.6,"aqi":76,"pm10":17.6,"pm2_5":15.2,"no2":8.2,"co":396.0,"o3":57.0,"so2":5.9,"mosquito_risk":10,"arthritis_risk":5,"migraine_risk":4,"frizz_risk":1,"updated_at":"2026-07-20T23:36:32.937818+05:30"},{"city":"Pune","state":"Maharashtra","latitude":18.5204,"longitude":73.8567,"temp":22.8,"humidity":91,"rain":0.1,"pressure":946.9,"uv_index":5.75,"wind_gusts":52.2,"aqi":20,"pm10":3.7,"pm2_5":3.3,"no2":9.2,"co":178.0,"o3":34.0,"so2":5.7,"mosquito_risk":6,"arthritis_risk":5,"migraine_risk":3,"frizz_risk":1,"updated_at":"2026-07-20T23:36:32.937823+05:30"},{"city":"Ahmedabad","state":"Gujarat","latitude":23.0225,"longitude":72.5714,"temp":26.8,"humidity":92,"rain":0.1,"pressure":998.2,"uv_index":6.35,"wind_gusts":41.4,"aqi":63,"pm10":23.0,"pm2_5":15.7,"no2":16.6,"co":295.0,"o3":39.0,"so2":6.6,"mosquito_risk":10,"arthritis_risk":5,"migraine_risk":7,"frizz_risk":1,"updated_at":"2026-07-20T23:36:32.937829+05:30"},{"city":"Jaipur","state":"Rajasthan","latitude":26.9124,"longitude":75.7873,"temp":28.5,"humidity":76,"rain":0.0,"pressure":955.8,"uv_index":6.05,"wind_gusts":31.3,"aqi":132,"pm10":145.8,"pm2_5":38.9,"no2":17.7,"co":243.0,"o3":57.0,"so2":7.5,"mosquito_risk":7,"arthritis_risk":5,"migraine_risk":7,"frizz_risk":1,"updated_at":"2026-07-20T23:36:32.937834+05:30"},{"city":"Lucknow","state":"Uttar Pradesh","latitude":26.8467,"longitude":80.9462,"temp":26.6,"humidity":95,"rain":0.0,"pressure":990.2,"uv_index":7.55,"wind_gusts":16.2,"aqi":81,"pm10":25.1,"pm2_5":23.1,"no2":17.4,"co":373.0,"o3":64.0,"so2":7.9,"mosquito_risk":7,"arthritis_risk":5,"migraine_risk":7,"frizz_risk":1,"updated_at":"2026-07-20T23:36:32.937841+05:30"},{"city":"Kanpur","state":"Uttar Pradesh","latitude":26.4499,"longitude":80.3319,"temp":26.4,"humidity":97,"rain":0.0,"pressure":988.5,"uv_index":6.15,"wind_gusts":18.0,"aqi":76,"pm10":24.7,"pm2_5":21.4,"no2":18.9,"co":546.0,"o3":55.0,"so2":5.4,"mosquito_risk":7,"arthritis_risk":5,"migraine_risk":7,"frizz_risk":1,"updated_at":"2026-07-20T23:36:32.937845+05:30"},{"city":"Chandigarh","state":"Chandigarh","latitude":30.7333,"longitude":76.7794,"temp":26.5,"humidity":78,"rain":0.0,"pressure":965.2,"uv_index":4.95,"wind_gusts":31.0,"aqi":129,"pm10":46.4,"pm2_5":34.9,"no2":26.6,"co":409.0,"o3":58.0,"so2":8.1,"mosquito_risk":7,"arthritis_risk":5,"migraine_risk":3,"frizz_risk":1,"updated_at":"2026-07-20T23:36:32.937850+05:30"},{"city":"Srinagar","state":"Jammu and Kashmir","latitude":34.0837,"longitude":74.7973,"temp":21.3,"humidity":98,"rain":0.0,"pressure":839.1,"uv_index":8.7,"wind_gusts":24.5,"aqi":66,"pm10":18.6,"pm2_5":16.9,"no2":20.0,"co":412.0,"o3":61.0,"so2":3.2,"mosquito_risk":3,"arthritis_risk":5,"migraine_risk":7,"frizz_risk":1,"updated_at":"2026-07-20T23:36:32.937854+05:30"},{"city":"Jammu","state":"Jammu and Kashmir","latitude":32.7266,"longitude":74.857,"temp":25.7,"humidity":96,"rain":0.0,"pressure":968.2,"uv_index":8.4,"wind_gusts":24.5,"aqi":98,"pm10":80.6,"pm2_5":52.4,"no2":50.5,"co":411.0,"o3":22.0,"so2":7.1,"mosquito_risk":7,"arthritis_risk":5,"migraine_risk":7,"frizz_risk":1,"updated_at":"2026-07-20T23:36:32.937859+05:30"},{"city":"Amritsar","state":"Punjab","latitude":31.634,"longitude":74.8723,"temp":27.9,"humidity":89,"rain":0.0,"pressure":975.4,"uv_index":8.15,"wind_gusts":32.4,"aqi":165,"pm10":107.3,"pm2_5":58.0,"no2":14.3,"co":533.0,"o3":85.0,"so2":5.5,"mosquito_risk":7,"arthritis_risk":5,"migraine_risk":7,"frizz_risk":1,"updated_at":"2026-07-20T23:36:32.937864+05:30"},{"city":"Ludhiana","state":"Punjab","latitude":30.901,"longitude":75.8573,"temp":27.3,"humidity":91,"rain":0.0,"pressure":974.1,"uv_index":5.85,"wind_gusts":28.4,"aqi":161,"pm10":61.0,"pm2_5":42.3,"no2":20.3,"co":545.0,"o3":64.0,"so2":6.2,"mosquito_risk":7,"arthritis_risk":5,"migraine_risk":3,"frizz_risk":1,"updated_at":"2026-07-20T23:36:32.937868+05:30"},{"city":"Jalandhar","state":"Punjab","latitude":31.326,"longitude":75.5762,"temp":27.6,"humidity":90,"rain":0.0,"pressure":974.9,"uv_index":7.2,"wind_gusts":31.0,"aqi":165,"pm10":83.8,"pm2_5":46.4,"no2":16.0,"co":520.0,"o3":80.0,"so2":6.0,"mosquito_risk":7,"arthritis_risk":5,"migraine_risk":7,"frizz_risk":1,"updated_at":"2026-07-20T23:36:32.937872+05:30"},{"city":"Dehradun","state":"Uttarakhand","latitude":30.6284,"longitude":78.0322,"temp":18.2,"humidity":99,"rain":0.1,"pressure":829.1,"uv_index":5.15,"wind_gusts":16.6,"aqi":56,"pm10":12.2,"pm2_5":7.4,"no2":14.3,"co":254.0,"o3":77.0,"so2":1.6,"mosquito_risk":6,"arthritis_risk":10,"migraine_risk":3,"frizz_risk":1,"updated_at":"2026-07-20T23:36:32.937877+05:30"},{"city":"Shimla","state":"Himachal Pradesh","latitude":31.1048,"longitude":77.1734,"temp":16.3,"humidity":99,"rain":0.0,"pressure":783.1,"uv_index":7.2,"wind_gusts":31.7,"aqi":74,"pm10":17.0,"pm2_5":8.8,"no2":11.1,"co":638.0,"o3":82.0,"so2":2.8,"mosquito_risk":3,"arthritis_risk":10,"migraine_risk":7,"frizz_risk":1,"updated_at":"2026-07-20T23:36:32.937884+05:30"},{"city":"Manali","state":"Himachal Pradesh","latitude":32.2396,"longitude":77.1887,"temp":20.3,"humidity":93,"rain":0.3,"pressure":818.3,"uv_index":8.45,"wind_gusts":28.1,"aqi":29,"pm10":6.6,"pm2_5":6.6,"no2":25.9,"co":236.0,"o3":41.0,"so2":0.1,"mosquito_risk":6,"arthritis_risk":5,"migraine_risk":7,"frizz_risk":1,"updated_at":"2026-07-20T23:36:32.937891+05:30"},{"city":"Gurgaon","state":"Haryana","latitude":28.4595,"longitude":77.0266,"temp":26.5,"humidity":98,"rain":0.4,"pressure":977.2,"uv_index":7.15,"wind_gusts":32.0,"aqi":153,"pm10":79.2,"pm2_5":44.2,"no2":42.6,"co":696.0,"o3":25.0,"so2":17.5,"mosquito_risk":10,"arthritis_risk":5,"migraine_risk":7,"frizz_risk":1,"updated_at":"2026-07-20T23:36:32.937895+05:30"},{"city":"Noida","state":"Uttar Pradesh","latitude":28.5355,"longitude":77.391,"temp":26.7,"humidity":97,"rain":0.1,"pressure":980.4,"uv_index":6.5,"wind_gusts":31.0,"aqi":153,"pm10":79.2,"pm2_5":44.2,"no2":42.6,"co":498.0,"o3":25.0,"so2":17.5,"mosquito_risk":10,"arthritis_risk":5,"migraine_risk":7,"frizz_risk":1,"updated_at":"2026-07-20T23:36:32.937900+05:30"},{"city":"Ghaziabad","state":"Uttar Pradesh","latitude":28.6692,"longitude":77.4538,"temp":27.3,"humidity":95,"rain":0.2,"pressure":978.7,"uv_index":6.3,"wind_gusts":31.3,"aqi":148,"pm10":49.9,"pm2_5":34.2,"no2":14.3,"co":391.0,"o3":77.0,"so2":10.5,"mosquito_risk":10,"arthritis_risk":5,"migraine_risk":7,"frizz_risk":1,"updated_at":"2026-07-20T23:36:32.937904+05:30"},{"city":"Faridabad","state":"Haryana","latitude":28.4089,"longitude":77.3178,"temp":26.2,"humidity":99,"rain":0.4,"pressure":979.6,"uv_index":5.65,"wind_gusts":31.3,"aqi":153,"pm10":79.2,"pm2_5":44.2,"no2":42.6,"co":458.0,"o3":25.0,"so2":17.5,"mosquito_risk":10,"arthritis_risk":5,"migraine_risk":3,"frizz_risk":1,"updated_at":"2026-07-20T23:36:32.937908+05:30"},{"city":"Meerut","state":"Uttar Pradesh","latitude":28.9845,"longitude":77.7064,"temp":27.1,"humidity":89,"rain":0.0,"pressure":977.9,"uv_index":6.6,"wind_gusts":30.6,"aqi":148,"pm10":49.9,"pm2_5":34.2,"no2":14.3,"co":372.0,"o3":77.0,"so2":10.5,"mosquito_risk":7,"arthritis_risk":5,"migraine_risk":7,"frizz_risk":1,"updated_at":"2026-07-20T23:36:32.937912+05:30"},{"city":"Agra","state":"Uttar Pradesh","latitude":27.1767,"longitude":78.0081,"temp":25.3,"humidity":96,"rain":0.1,"pressure":984.6,"uv_index":2.05,"wind_gusts":30.2,"aqi":80,"pm10":42.0,"pm2_5":30.4,"no2":27.0,"co":393.0,"o3":42.0,"so2":8.4,"mosquito_risk":10,"arthritis_risk":5,"migraine_risk":3,"frizz_risk":1,"updated_at":"2026-07-20T23:36:32.937917+05:30"},{"city":"Varanasi","state":"Uttar Pradesh","latitude":25.3176,"longitude":82.9739,"temp":25.3,"humidity":96,"rain":0.5,"pressure":994.6,"uv_index":4.25,"wind_gusts":20.9,"aqi":90,"pm10":26.9,"pm2_5":26.5,"no2":19.6,"co":937.0,"o3":71.0,"so2":10.6,"mosquito_risk":10,"arthritis_risk":5,"migraine_risk":3,"frizz_risk":1,"updated_at":"2026-07-20T23:36:32.937921+05:30"},{"city":"Prayagraj","state":"Uttar Pradesh","latitude":25.4358,"longitude":81.8463,"temp":26.4,"humidity":95,"rain":0.2,"pressure":992.8,"uv_index":6.7,"wind_gusts":23.8,"aqi":92,"pm10":29.2,"pm2_5":27.0,"no2":18.9,"co":302.0,"o3":74.0,"so2":8.1,"mosquito_risk":10,"arthritis_risk":5,"migraine_risk":7,"frizz_risk":1,"updated_at":"2026-07-20T23:36:32.937925+05:30"},{"city":"Gorakhpur","state":"Uttar Pradesh","latitude":26.7606,"longitude":83.3732,"temp":26.1,"humidity":96,"rain":0.0,"pressure":994.9,"uv_index":8.15,"wind_gusts":27.7,"aqi":65,"pm10":19.8,"pm2_5":19.7,"no2":14.7,"co":403.0,"o3":76.0,"so2":8.7,"mosquito_risk":7,"arthritis_risk":5,"migraine_risk":7,"frizz_risk":1,"updated_at":"2026-07-20T23:36:32.937929+05:30"},{"city":"Bareilly","state":"Uttar Pradesh","latitude":28.367,"longitude":79.4304,"temp":26.0,"humidity":95,"rain":0.0,"pressure":983.6,"uv_index":1.25,"wind_gusts":37.1,"aqi":71,"pm10":17.1,"pm2_5":16.6,"no2":14.2,"co":451.0,"o3":67.0,"so2":6.9,"mosquito_risk":7,"arthritis_risk":5,"migraine_risk":3,"frizz_risk":1,"updated_at":"2026-07-20T23:36:32.937936+05:30"},{"city":"Aligarh","state":"Uttar Pradesh","latitude":27.8974,"longitude":78.088,"temp":25.4,"humidity":97,"rain":0.0,"pressure":982.2,"uv_index":2.25,"wind_gusts":28.8,"aqi":105,"pm10":79.9,"pm2_5":49.4,"no2":28.3,"co":271.0,"o3":42.0,"so2":10.8,"mosquito_risk":7,"arthritis_risk":5,"migraine_risk":3,"frizz_risk":1,"updated_at":"2026-07-20T23:36:32.937940+05:30"},{"city":"Moradabad","state":"Uttar Pradesh","latitude":28.8386,"longitude":78.7733,"temp":26.3,"humidity":94,"rain":0.0,"pressure":980.5,"uv_index":5.85,"wind_gusts":38.9,"aqi":76,"pm10":16.5,"pm2_5":15.7,"no2":12.8,"co":433.0,"o3":70.0,"so2":6.9,"mosquito_risk":7,"arthritis_risk":5,"migraine_risk":3,"frizz_risk":1,"updated_at":"2026-07-20T23:36:32.937945+05:30"},{"city":"Saharanpur","state":"Uttar Pradesh","latitude":29.9637,"longitude":77.546,"temp":26.1,"humidity":94,"rain":0.0,"pressure":972.5,"uv_index":5.1,"wind_gusts":33.8,"aqi":85,"pm10":29.3,"pm2_5":22.8,"no2":13.1,"co":442.0,"o3":76.0,"so2":7.0,"mosquito_risk":7,"arthritis_risk":5,"migraine_risk":3,"frizz_risk":1,"updated_at":"2026-07-20T23:36:32.937949+05:30"},{"city":"Jhansi","state":"Uttar Pradesh","latitude":25.4484,"longitude":78.5685,"temp":26.6,"humidity":94,"rain":0.3,"pressure":974.6,"uv_index":2.35,"wind_gusts":21.6,"aqi":65,"pm10":17.4,"pm2_5":14.6,"no2":12.3,"co":236.0,"o3":59.0,"so2":6.1,"mosquito_risk":10,"arthritis_risk":5,"migraine_risk":3,"frizz_risk":1,"updated_at":"2026-07-20T23:36:36.257204+05:30"},{"city":"Surat","state":"Gujarat","latitude":21.1702,"longitude":72.8311,"temp":25.8,"humidity":93,"rain":0.2,"pressure":1003.9,"uv_index":6.85,"wind_gusts":50.0,"aqi":64,"pm10":24.9,"pm2_5":18.2,"no2":22.9,"co":246.0,"o3":28.0,"so2":34.2,"mosquito_risk":10,"arthritis_risk":5,"migraine_risk":4,"frizz_risk":1,"updated_at":"2026-07-20T23:36:36.257268+05:30"},{"city":"Vadodara","state":"Gujarat","latitude":22.3072,"longitude":73.1812,"temp":27.4,"humidity":88,"rain":0.0,"pressure":1000.6,"uv_index":6.45,"wind_gusts":34.6,"aqi":56,"pm10":17.6,"pm2_5":13.7,"no2":19.0,"co":220.0,"o3":28.0,"so2":16.0,"mosquito_risk":7,"arthritis_risk":5,"migraine_risk":4,"frizz_risk":1,"updated_at":"2026-07-20T23:36:36.257275+05:30"},{"city":"Rajkot","state":"Gujarat","latitude":22.3039,"longitude":70.8022,"temp":27.3,"humidity":82,"rain":0.0,"pressure":990.4,"uv_index":6.55,"wind_gusts":45.4,"aqi":57,"pm10":20.7,"pm2_5":12.1,"no2":5.7,"co":122.0,"o3":42.0,"so2":4.9,"mosquito_risk":7,"arthritis_risk":5,"migraine_risk":7,"frizz_risk":1,"updated_at":"2026-07-20T23:36:36.257280+05:30"},{"city":"Thane","state":"Maharashtra","latitude":19.2183,"longitude":72.9781,"temp":24.8,"humidity":98,"rain":0.1,"pressure":1006.9,"uv_index":7.45,"wind_gusts":33.1,"aqi":56,"pm10":35.4,"pm2_5":15.9,"no2":7.6,"co":221.0,"o3":48.0,"so2":5.9,"mosquito_risk":6,"arthritis_risk":5,"migraine_risk":4,"frizz_risk":1,"updated_at":"2026-07-20T23:36:36.257285+05:30"},{"city":"Nagpur","state":"Maharashtra","latitude":21.1458,"longitude":79.0882,"temp":24.7,"humidity":96,"rain":0.1,"pressure":970.9,"uv_index":5.4,"wind_gusts":30.6,"aqi":64,"pm10":14.1,"pm2_5":11.7,"no2":14.0,"co":250.0,"o3":50.0,"so2":10.9,"mosquito_risk":6,"arthritis_risk":5,"migraine_risk":3,"frizz_risk":1,"updated_at":"2026-07-20T23:36:36.257290+05:30"},{"city":"Nashik","state":"Maharashtra","latitude":19.9975,"longitude":73.7898,"temp":22.6,"humidity":97,"rain":0.1,"pressure":943.4,"uv_index":6.35,"wind_gusts":50.0,"aqi":21,"pm10":3.7,"pm2_5":3.0,"no2":11.2,"co":150.0,"o3":32.0,"so2":6.6,"mosquito_risk":6,"arthritis_risk":5,"migraine_risk":7,"frizz_risk":1,"updated_at":"2026-07-20T23:36:36.257296+05:30"},{"city":"Aurangabad","state":"Maharashtra","latitude":19.8762,"longitude":75.3433,"temp":24.2,"humidity":85,"rain":0.0,"pressure":942.7,"uv_index":7.9,"wind_gusts":52.6,"aqi":27,"pm10":6.8,"pm2_5":5.3,"no2":9.3,"co":183.0,"o3":37.0,"so2":8.2,"mosquito_risk":3,"arthritis_risk":5,"migraine_risk":7,"frizz_risk":1,"updated_at":"2026-07-20T23:36:36.257301+05:30"},{"city":"Solapur","state":"Maharashtra","latitude":17.6599,"longitude":75.9064,"temp":24.3,"humidity":87,"rain":0.0,"pressure":957.1,"uv_index":7.6,"wind_gusts":44.6,"aqi":24,"pm10":5.2,"pm2_5":4.4,"no2":6.4,"co":150.0,"o3":35.0,"so2":2.7,"mosquito_risk":3,"arthritis_risk":5,"migraine_risk":7,"frizz_risk":1,"updated_at":"2026-07-20T23:36:36.257306+05:30"},{"city":"Kolhapur","state":"Maharashtra","latitude":16.705,"longitude":74.2433,"temp":23.0,"humidity":93,"rain":0.0,"pressure":948.3,"uv_index":7.8,"wind_gusts":52.6,"aqi":23,"pm10":8.3,"pm2_5":6.0,"no2":5.5,"co":139.0,"o3":37.0,"so2":2.5,"mosquito_risk":3,"arthritis_risk":5,"migraine_risk":7,"frizz_risk":1,"updated_at":"2026-07-20T23:36:36.257311+05:30"},{"city":"Goa","state":"Goa","latitude":15.2993,"longitude":74.124,"temp":23.5,"humidity":98,"rain":0.0,"pressure":1000.1,"uv_index":4.1,"wind_gusts":33.1,"aqi":56,"pm10":23.2,"pm2_5":14.7,"no2":4.9,"co":386.0,"o3":39.0,"so2":1.5,"mosquito_risk":3,"arthritis_risk":5,"migraine_risk":0,"frizz_risk":1,"updated_at":"2026-07-20T23:36:36.257316+05:30"},{"city":"Jodhpur","state":"Rajasthan","latitude":26.2389,"longitude":73.0243,"temp":31.2,"humidity":60,"rain":0.0,"pressure":978.0,"uv_index":7.75,"wind_gusts":35.6,"aqi":79,"pm10":112.7,"pm2_5":23.4,"no2":5.1,"co":140.0,"o3":65.0,"so2":2.4,"mosquito_risk":0,"arthritis_risk":5,"migraine_risk":7,"frizz_risk":1,"updated_at":"2026-07-20T23:36:36.257321+05:30"},{"city":"Udaipur","state":"Rajasthan","latitude":24.5854,"longitude":73.7125,"temp":24.5,"humidity":96,"rain":0.1,"pressure":942.5,"uv_index":6.05,"wind_gusts":32.4,"aqi":63,"pm10":17.2,"pm2_5":11.5,"no2":7.8,"co":165.0,"o3":63.0,"so2":7.7,"mosquito_risk":6,"arthritis_risk":5,"migraine_risk":7,"frizz_risk":1,"updated_at":"2026-07-20T23:36:36.257325+05:30"},{"city":"Kota","state":"Rajasthan","latitude":25.2138,"longitude":75.8648,"temp":27.8,"humidity":90,"rain":0.2,"pressure":974.6,"uv_index":1.35,"wind_gusts":27.0,"aqi":70,"pm10":30.5,"pm2_5":22.9,"no2":14.6,"co":221.0,"o3":55.0,"so2":7.8,"mosquito_risk":10,"arthritis_risk":5,"migraine_risk":3,"frizz_risk":1,"updated_at":"2026-07-20T23:36:36.257331+05:30"},{"city":"Bikaner","state":"Rajasthan","latitude":28.0229,"longitude":73.3119,"temp":33.8,"humidity":49,"rain":0.0,"pressure":975.4,"uv_index":8.35,"wind_gusts":35.3,"aqi":91,"pm10":77.3,"pm2_5":24.0,"no2":2.1,"co":121.0,"o3":66.0,"so2":2.1,"mosquito_risk":0,"arthritis_risk":5,"migraine_risk":7,"frizz_risk":1,"updated_at":"2026-07-20T23:36:36.257336+05:30"},{"city":"Ajmer","state":"Rajasthan","latitude":26.4499,"longitude":74.6399,"temp":27.7,"humidity":76,"rain":0.0,"pressure":950.5,"uv_index":7.45,"wind_gusts":37.4,"aqi":63,"pm10":17.1,"pm2_5":13.7,"no2":8.3,"co":207.0,"o3":74.0,"so2":6.6,"mosquito_risk":7,"arthritis_risk":5,"migraine_risk":7,"frizz_risk":1,"updated_at":"2026-07-20T23:36:36.257340+05:30"},{"city":"Gwalior","state":"Madhya Pradesh","latitude":26.2183,"longitude":78.1828,"temp":26.2,"humidity":97,"rain":0.0,"pressure":979.4,"uv_index":1.4,"wind_gusts":29.5,"aqi":70,"pm10":24.4,"pm2_5":20.1,"no2":15.4,"co":186.0,"o3":48.0,"so2":5.7,"mosquito_risk":7,"arthritis_risk":5,"migraine_risk":3,"frizz_risk":1,"updated_at":"2026-07-20T23:36:36.257345+05:30"},{"city":"Indore","state":"Madhya Pradesh","latitude":22.7196,"longitude":75.8577,"temp":23.9,"humidity":96,"rain":0.1,"pressure":945.1,"uv_index":5.4,"wind_gusts":31.7,"aqi":56,"pm10":10.8,"pm2_5":10.0,"no2":11.5,"co":278.0,"o3":53.0,"so2":5.6,"mosquito_risk":6,"arthritis_risk":5,"migraine_risk":3,"frizz_risk":1,"updated_at":"2026-07-20T23:36:36.257349+05:30"},{"city":"Bhopal","state":"Madhya Pradesh","latitude":23.2599,"longitude":77.4126,"temp":24.5,"humidity":93,"rain":0.0,"pressure":950.3,"uv_index":6.2,"wind_gusts":30.6,"aqi":63,"pm10":16.4,"pm2_5":13.3,"no2":8.6,"co":328.0,"o3":53.0,"so2":2.5,"mosquito_risk":3,"arthritis_risk":5,"migraine_risk":7,"frizz_risk":1,"updated_at":"2026-07-20T23:36:36.257354+05:30"},{"city":"Jabalpur","state":"Madhya Pradesh","latitude":23.1815,"longitude":79.9864,"temp":25.0,"humidity":97,"rain":0.1,"pressure":958.2,"uv_index":1.95,"wind_gusts":28.8,"aqi":69,"pm10":18.5,"pm2_5":16.4,"no2":12.3,"co":310.0,"o3":45.0,"so2":4.3,"mosquito_risk":10,"arthritis_risk":5,"migraine_risk":3,"frizz_risk":1,"updated_at":"2026-07-20T23:36:36.257358+05:30"},{"city":"Ujjain","state":"Madhya Pradesh","latitude":23.1765,"longitude":75.7885,"temp":24.3,"humidity":95,"rain":0.1,"pressure":950.7,"uv_index":5.15,"wind_gusts":29.5,"aqi":56,"pm10":11.3,"pm2_5":10.1,"no2":8.1,"co":256.0,"o3":59.0,"so2":4.8,"mosquito_risk":6,"arthritis_risk":5,"migraine_risk":3,"frizz_risk":1,"updated_at":"2026-07-20T23:36:36.257362+05:30"},{"city":"Visakhapatnam","state":"Andhra Pradesh","latitude":17.6868,"longitude":83.2185,"temp":27.5,"humidity":86,"rain":0.0,"pressure":1000.2,"uv_index":8.35,"wind_gusts":41.8,"aqi":76,"pm10":18.5,"pm2_5":16.9,"no2":25.1,"co":283.0,"o3":41.0,"so2":34.4,"mosquito_risk":7,"arthritis_risk":5,"migraine_risk":4,"frizz_risk":1,"updated_at":"2026-07-20T23:36:36.257366+05:30"},{"city":"Vijayawada","state":"Andhra Pradesh","latitude":16.5062,"longitude":80.648,"temp":27.9,"humidity":76,"rain":0.0,"pressure":1001.8,"uv_index":6.65,"wind_gusts":43.2,"aqi":58,"pm10":24.4,"pm2_5":20.1,"no2":14.9,"co":152.0,"o3":40.0,"so2":4.5,"mosquito_risk":7,"arthritis_risk":5,"migraine_risk":4,"frizz_risk":1,"updated_at":"2026-07-20T23:36:36.257370+05:30"},{"city":"Guntur","state":"Andhra Pradesh","latitude":16.3067,"longitude":80.4365,"temp":27.9,"humidity":74,"rain":0.0,"pressure":1003.2,"uv_index":6.5,"wind_gusts":43.9,"aqi":56,"pm10":23.9,"pm2_5":18.2,"no2":13.7,"co":177.0,"o3":42.0,"so2":5.4,"mosquito_risk":7,"arthritis_risk":5,"migraine_risk":4,"frizz_risk":1,"updated_at":"2026-07-20T23:36:36.257375+05:30"},{"city":"Nellore","state":"Andhra Pradesh","latitude":14.4426,"longitude":79.9865,"temp":26.1,"humidity":88,"rain":0.0,"pressure":1006.0,"uv_index":5.95,"wind_gusts":41.0,"aqi":65,"pm10":20.7,"pm2_5":12.0,"no2":9.1,"co":179.0,"o3":46.0,"so2":2.7,"mosquito_risk":7,"arthritis_risk":5,"migraine_risk":0,"frizz_risk":1,"updated_at":"2026-07-20T23:36:36.257380+05:30"},{"city":"Kurnool","state":"Andhra Pradesh","latitude":15.8281,"longitude":78.0373,"temp":25.6,"humidity":83,"rain":0.0,"pressure":977.5,"uv_index":8.15,"wind_gusts":49.3,"aqi":40,"pm10":12.1,"pm2_5":7.7,"no2":7.1,"co":152.0,"o3":43.0,"so2":2.2,"mosquito_risk":7,"arthritis_risk":5,"migraine_risk":7,"frizz_risk":1,"updated_at":"2026-07-20T23:36:36.257385+05:30"},{"city":"Kakinada","state":"Andhra Pradesh","latitude":16.9891,"longitude":82.2475,"temp":27.7,"humidity":85,"rain":0.0,"pressure":1005.0,"uv_index":7.95,"wind_gusts":50.0,"aqi":66,"pm10":21.0,"pm2_5":16.0,"no2":7.7,"co":344.0,"o3":64.0,"so2":4.8,"mosquito_risk":7,"arthritis_risk":5,"migraine_risk":4,"frizz_risk":1,"updated_at":"2026-07-20T23:36:36.257389+05:30"},{"city":"Tirupati","state":"Andhra Pradesh","latitude":13.6288,"longitude":79.4192,"temp":25.7,"humidity":87,"rain":0.0,"pressure":991.7,"uv_index":8.3,"wind_gusts":40.7,"aqi":65,"pm10":32.1,"pm2_5":24.4,"no2":29.4,"co":226.0,"o3":15.0,"so2":3.7,"mosquito_risk":7,"arthritis_risk":5,"migraine_risk":7,"frizz_risk":1,"updated_at":"2026-07-20T23:36:36.257393+05:30"},{"city":"Warangal","state":"Telangana","latitude":17.9689,"longitude":79.5941,"temp":24.9,"humidity":93,"rain":0.2,"pressure":978.0,"uv_index":5.15,"wind_gusts":41.8,"aqi":48,"pm10":8.9,"pm2_5":7.1,"no2":7.0,"co":147.0,"o3":49.0,"so2":2.8,"mosquito_risk":6,"arthritis_risk":5,"migraine_risk":3,"frizz_risk":1,"updated_at":"2026-07-20T23:36:36.257397+05:30"},{"city":"Nizamabad","state":"Telangana","latitude":18.6725,"longitude":78.0941,"temp":24.0,"humidity":97,"rain":0.1,"pressure":963.8,"uv_index":6.5,"wind_gusts":44.3,"aqi":37,"pm10":9.5,"pm2_5":7.5,"no2":7.5,"co":164.0,"o3":43.0,"so2":3.1,"mosquito_risk":6,"arthritis_risk":5,"migraine_risk":7,"frizz_risk":1,"updated_at":"2026-07-20T23:36:36.257402+05:30"},{"city":"Mysore","state":"Karnataka","latitude":12.2958,"longitude":76.6396,"temp":21.4,"humidity":91,"rain":0.0,"pressure":930.5,"uv_index":7.8,"wind_gusts":53.3,"aqi":26,"pm10":7.3,"pm2_5":5.6,"no2":9.3,"co":151.0,"o3":36.0,"so2":2.6,"mosquito_risk":3,"arthritis_risk":5,"migraine_risk":7,"frizz_risk":1,"updated_at":"2026-07-20T23:36:36.257406+05:30"},{"city":"Mangalore","state":"Karnataka","latitude":12.9141,"longitude":74.856,"temp":23.8,"humidity":98,"rain":0.0,"pressure":1009.7,"uv_index":8.55,"wind_gusts":31.0,"aqi":52,"pm10":19.8,"pm2_5":14.9,"no2":14.5,"co":271.0,"o3":23.0,"so2":4.5,"mosquito_risk":3,"arthritis_risk":0,"migraine_risk":4,"frizz_risk":1,"updated_at":"2026-07-20T23:36:36.257410+05:30"},{"city":"Hubli-Dharwad","state":"Karnataka","latitude":15.3647,"longitude":75.124,"temp":21.4,"humidity":97,"rain":0.0,"pressure":941.9,"uv_index":8.05,"wind_gusts":51.8,"aqi":20,"pm10":5.2,"pm2_5":3.5,"no2":5.7,"co":131.0,"o3":37.0,"so2":1.5,"mosquito_risk":3,"arthritis_risk":5,"migraine_risk":7,"frizz_risk":1,"updated_at":"2026-07-20T23:36:36.257416+05:30"},{"city":"Belgaum","state":"Karnataka","latitude":15.8497,"longitude":74.4977,"temp":21.1,"humidity":96,"rain":0.0,"pressure":926.4,"uv_index":4.85,"wind_gusts":56.9,"aqi":18,"pm10":5.7,"pm2_5":3.8,"no2":4.7,"co":118.0,"o3":39.0,"so2":2.0,"mosquito_risk":3,"arthritis_risk":5,"migraine_risk":3,"frizz_risk":1,"updated_at":"2026-07-20T23:36:39.585588+05:30"},{"city":"Coimbatore","state":"Tamil Nadu","latitude":11.0168,"longitude":76.9558,"temp":23.3,"humidity":92,"rain":0.0,"pressure":963.8,"uv_index":8.3,"wind_gusts":52.2,"aqi":33,"pm10":11.0,"pm2_5":9.2,"no2":11.7,"co":185.0,"o3":27.0,"so2":4.1,"mosquito_risk":3,"arthritis_risk":5,"migraine_risk":7,"frizz_risk":1,"updated_at":"2026-07-20T23:36:39.585618+05:30"},{"city":"Madurai","state":"Tamil Nadu","latitude":9.9252,"longitude":78.1198,"temp":29.7,"humidity":54,"rain":0.0,"pressure":994.3,"uv_index":7.65,"wind_gusts":34.6,"aqi":60,"pm10":25.3,"pm2_5":19.6,"no2":28.8,"co":163.0,"o3":24.0,"so2":7.7,"mosquito_risk":4,"arthritis_risk":5,"migraine_risk":7,"frizz_risk":1,"updated_at":"2026-07-20T23:36:39.585624+05:30"},{"city":"Trichy","state":"Tamil Nadu","latitude":10.7905,"longitude":78.7047,"temp":28.9,"humidity":60,"rain":0.0,"pressure":1001.0,"uv_index":8.1,"wind_gusts":56.2,"aqi":45,"pm10":14.1,"pm2_5":11.1,"no2":12.8,"co":136.0,"o3":38.0,"so2":5.0,"mosquito_risk":4,"arthritis_risk":5,"migraine_risk":4,"frizz_risk":1,"updated_at":"2026-07-20T23:36:39.585630+05:30"},{"city":"Salem","state":"Tamil Nadu","latitude":11.6643,"longitude":78.146,"temp":26.4,"humidity":77,"rain":0.0,"pressure":979.1,"uv_index":8.4,"wind_gusts":37.4,"aqi":58,"pm10":16.5,"pm2_5":12.5,"no2":15.1,"co":374.0,"o3":34.0,"so2":7.0,"mosquito_risk":7,"arthritis_risk":5,"migraine_risk":7,"frizz_risk":1,"updated_at":"2026-07-20T23:36:39.585634+05:30"},{"city":"Tirunelveli","state":"Tamil Nadu","latitude":8.7139,"longitude":77.7567,"temp":28.7,"humidity":64,"rain":0.0,"pressure":1005.3,"uv_index":8.6,"wind_gusts":43.9,"aqi":29,"pm10":7.8,"pm2_5":6.2,"no2":7.3,"co":164.0,"o3":36.0,"so2":2.6,"mosquito_risk":7,"arthritis_risk":5,"migraine_risk":4,"frizz_risk":1,"updated_at":"2026-07-20T23:36:39.585639+05:30"},{"city":"Vellore","state":"Tamil Nadu","latitude":12.9165,"longitude":79.1325,"temp":27.1,"humidity":81,"rain":0.0,"pressure":985.3,"uv_index":8.15,"wind_gusts":43.9,"aqi":67,"pm10":36.4,"pm2_5":30.3,"no2":33.7,"co":529.0,"o3":13.0,"so2":6.9,"mosquito_risk":7,"arthritis_risk":5,"migraine_risk":7,"frizz_risk":1,"updated_at":"2026-07-20T23:36:39.585644+05:30"},{"city":"Erode","state":"Tamil Nadu","latitude":11.341,"longitude":77.7172,"temp":26.7,"humidity":75,"rain":0.0,"pressure":991.0,"uv_index":7.95,"wind_gusts":43.2,"aqi":50,"pm10":18.0,"pm2_5":15.3,"no2":19.5,"co":196.0,"o3":26.0,"so2":5.2,"mosquito_risk":7,"arthritis_risk":5,"migraine_risk":7,"frizz_risk":1,"updated_at":"2026-07-20T23:36:39.585648+05:30"},{"city":"Kochi","state":"Kerala","latitude":9.9312,"longitude":76.2673,"temp":26.1,"humidity":91,"rain":0.0,"pressure":1011.9,"uv_index":7.8,"wind_gusts":27.4,"aqi":52,"pm10":20.0,"pm2_5":17.8,"no2":23.3,"co":372.0,"o3":10.0,"so2":6.2,"mosquito_risk":7,"arthritis_risk":0,"migraine_risk":4,"frizz_risk":1,"updated_at":"2026-07-20T23:36:39.585653+05:30"},{"city":"Thiruvananthapuram","state":"Kerala","latitude":8.5241,"longitude":76.9366,"temp":25.1,"humidity":90,"rain":0.0,"pressure":1011.2,"uv_index":7.7,"wind_gusts":41.8,"aqi":43,"pm10":13.6,"pm2_5":9.0,"no2":6.4,"co":137.0,"o3":39.0,"so2":2.6,"mosquito_risk":7,"arthritis_risk":0,"migraine_risk":4,"frizz_risk":1,"updated_at":"2026-07-20T23:36:39.585657+05:30"},{"city":"Kozhikode","state":"Kerala","latitude":11.2588,"longitude":75.7804,"temp":24.9,"humidity":94,"rain":0.0,"pressure":1011.2,"uv_index":7.8,"wind_gusts":21.6,"aqi":32,"pm10":11.2,"pm2_5":6.8,"no2":3.1,"co":211.0,"o3":46.0,"so2":1.9,"mosquito_risk":3,"arthritis_risk":0,"migraine_risk":4,"frizz_risk":1,"updated_at":"2026-07-20T23:36:39.585661+05:30"},{"city":"Thrissur","state":"Kerala","latitude":10.5276,"longitude":76.2144,"temp":24.6,"humidity":97,"rain":0.0,"pressure":1010.5,"uv_index":7.85,"wind_gusts":23.4,"aqi":48,"pm10":23.5,"pm2_5":19.8,"no2":17.9,"co":398.0,"o3":20.0,"so2":6.1,"mosquito_risk":3,"arthritis_risk":0,"migraine_risk":4,"frizz_risk":1,"updated_at":"2026-07-20T23:36:39.585666+05:30"},{"city":"Kannur","state":"Kerala","latitude":11.8745,"longitude":75.3704,"temp":24.7,"humidity":99,"rain":0.1,"pressure":1010.5,"uv_index":8.75,"wind_gusts":29.2,"aqi":41,"pm10":14.8,"pm2_5":11.6,"no2":15.9,"co":336.0,"o3":18.0,"so2":3.5,"mosquito_risk":6,"arthritis_risk":0,"migraine_risk":4,"frizz_risk":1,"updated_at":"2026-07-20T23:36:39.585670+05:30"},{"city":"Patna","state":"Bihar","latitude":25.5941,"longitude":85.1376,"temp":26.0,"humidity":95,"rain":0.1,"pressure":998.3,"uv_index":3.85,"wind_gusts":32.4,"aqi":80,"pm10":28.8,"pm2_5":28.6,"no2":19.2,"co":369.0,"o3":69.0,"so2":10.9,"mosquito_risk":10,"arthritis_risk":5,"migraine_risk":3,"frizz_risk":1,"updated_at":"2026-07-20T23:36:39.585675+05:30"},{"city":"Gaya","state":"Bihar","latitude":24.7914,"longitude":85.0002,"temp":24.8,"humidity":100,"rain":0.1,"pressure":991.7,"uv_index":1.6,"wind_gusts":26.6,"aqi":77,"pm10":36.3,"pm2_5":35.9,"no2":19.1,"co":435.0,"o3":59.0,"so2":13.0,"mosquito_risk":6,"arthritis_risk":5,"migraine_risk":3,"frizz_risk":1,"updated_at":"2026-07-20T23:36:39.585679+05:30"},{"city":"Muzaffarpur","state":"Bihar","latitude":26.1209,"longitude":85.3647,"temp":26.4,"humidity":91,"rain":0.0,"pressure":998.5,"uv_index":7.95,"wind_gusts":37.1,"aqi":69,"pm10":26.9,"pm2_5":26.8,"no2":18.5,"co":371.0,"o3":73.0,"so2":9.8,"mosquito_risk":7,"arthritis_risk":5,"migraine_risk":7,"frizz_risk":1,"updated_at":"2026-07-20T23:36:39.585683+05:30"},{"city":"Bhagalpur","state":"Bihar","latitude":25.2425,"longitude":87.0117,"temp":26.2,"humidity":97,"rain":0.0,"pressure":999.5,"uv_index":5.7,"wind_gusts":26.3,"aqi":70,"pm10":28.9,"pm2_5":27.6,"no2":17.9,"co":299.0,"o3":61.0,"so2":11.0,"mosquito_risk":7,"arthritis_risk":5,"migraine_risk":3,"frizz_risk":1,"updated_at":"2026-07-20T23:36:39.585687+05:30"},{"city":"Ranchi","state":"Jharkhand","latitude":23.3441,"longitude":85.3096,"temp":23.1,"humidity":98,"rain":0.1,"pressure":934.8,"uv_index":4.4,"wind_gusts":24.1,"aqi":80,"pm10":36.6,"pm2_5":33.2,"no2":9.1,"co":307.0,"o3":94.0,"so2":14.1,"mosquito_risk":6,"arthritis_risk":5,"migraine_risk":3,"frizz_risk":1,"updated_at":"2026-07-20T23:36:39.585691+05:30"},{"city":"Jamshedpur","state":"Jharkhand","latitude":22.8046,"longitude":86.2029,"temp":25.2,"humidity":98,"rain":0.2,"pressure":988.0,"uv_index":7.55,"wind_gusts":24.5,"aqi":98,"pm10":29.6,"pm2_5":26.4,"no2":12.5,"co":497.0,"o3":53.0,"so2":13.1,"mosquito_risk":10,"arthritis_risk":5,"migraine_risk":7,"frizz_risk":1,"updated_at":"2026-07-20T23:36:39.585695+05:30"},{"city":"Dhanbad","state":"Jharkhand","latitude":23.7957,"longitude":86.4304,"temp":25.2,"humidity":98,"rain":0.1,"pressure":977.4,"uv_index":7.4,"wind_gusts":23.0,"aqi":150,"pm10":64.3,"pm2_5":61.2,"no2":54.5,"co":337.0,"o3":26.0,"so2":100.2,"mosquito_risk":10,"arthritis_risk":5,"migraine_risk":7,"frizz_risk":1,"updated_at":"2026-07-20T23:36:39.585699+05:30"},{"city":"Bokaro","state":"Jharkhand","latitude":23.6693,"longitude":86.1511,"temp":25.6,"humidity":96,"rain":0.0,"pressure":981.1,"uv_index":7.15,"wind_gusts":24.5,"aqi":151,"pm10":74.7,"pm2_5":71.7,"no2":61.0,"co":912.0,"o3":18.0,"so2":117.5,"mosquito_risk":7,"arthritis_risk":5,"migraine_risk":7,"frizz_risk":1,"updated_at":"2026-07-20T23:36:39.585703+05:30"},{"city":"Bhubaneswar","state":"Odisha","latitude":20.2961,"longitude":85.8245,"temp":25.9,"humidity":98,"rain":0.1,"pressure":998.9,"uv_index":8.05,"wind_gusts":28.8,"aqi":90,"pm10":31.0,"pm2_5":27.5,"no2":11.0,"co":586.0,"o3":81.0,"so2":6.2,"mosquito_risk":10,"arthritis_risk":5,"migraine_risk":7,"frizz_risk":1,"updated_at":"2026-07-20T23:36:39.585707+05:30"},{"city":"Cuttack","state":"Odisha","latitude":20.4625,"longitude":85.8828,"temp":26.4,"humidity":96,"rain":0.0,"pressure":1000.6,"uv_index":8.45,"wind_gusts":25.9,"aqi":90,"pm10":31.0,"pm2_5":27.5,"no2":11.0,"co":446.0,"o3":81.0,"so2":6.2,"mosquito_risk":7,"arthritis_risk":5,"migraine_risk":4,"frizz_risk":1,"updated_at":"2026-07-20T23:36:39.585710+05:30"},{"city":"Rourkela","state":"Odisha","latitude":22.2604,"longitude":84.8536,"temp":25.3,"humidity":98,"rain":0.2,"pressure":981.9,"uv_index":5.8,"wind_gusts":25.6,"aqi":108,"pm10":45.3,"pm2_5":39.0,"no2":12.8,"co":365.0,"o3":80.0,"so2":15.0,"mosquito_risk":10,"arthritis_risk":5,"migraine_risk":3,"frizz_risk":1,"updated_at":"2026-07-20T23:36:39.585714+05:30"},{"city":"Raipur","state":"Chhattisgarh","latitude":21.2514,"longitude":81.6296,"temp":25.6,"humidity":97,"rain":0.1,"pressure":971.3,"uv_index":7.35,"wind_gusts":32.0,"aqi":90,"pm10":27.0,"pm2_5":25.2,"no2":29.8,"co":468.0,"o3":52.0,"so2":34.5,"mosquito_risk":10,"arthritis_risk":5,"migraine_risk":7,"frizz_risk":1,"updated_at":"2026-07-20T23:36:39.585718+05:30"},{"city":"Bhilai","state":"Chhattisgarh","latitude":21.1938,"longitude":81.3509,"temp":25.5,"humidity":98,"rain":0.0,"pressure":971.9,"uv_index":7.4,"wind_gusts":36.4,"aqi":84,"pm10":22.1,"pm2_5":20.4,"no2":20.8,"co":584.0,"o3":61.0,"so2":28.6,"mosquito_risk":7,"arthritis_risk":5,"migraine_risk":7,"frizz_risk":1,"updated_at":"2026-07-20T23:36:39.585722+05:30"},{"city":"Guwahati","state":"Assam","latitude":26.1158,"longitude":91.7086,"temp":25.7,"humidity":97,"rain":0.0,"pressure":1000.9,"uv_index":5.6,"wind_gusts":20.2,"aqi":47,"pm10":17.1,"pm2_5":16.6,"no2":13.8,"co":264.0,"o3":30.0,"so2":2.9,"mosquito_risk":7,"arthritis_risk":5,"migraine_risk":0,"frizz_risk":1,"updated_at":"2026-07-20T23:36:39.585725+05:30"},{"city":"Agartala","state":"Tripura","latitude":23.8315,"longitude":91.2868,"temp":25.2,"humidity":99,"rain":0.0,"pressure":1005.3,"uv_index":4.8,"wind_gusts":28.1,"aqi":52,"pm10":11.6,"pm2_5":10.7,"no2":11.9,"co":218.0,"o3":41.0,"so2":2.8,"mosquito_risk":7,"arthritis_risk":5,"migraine_risk":0,"frizz_risk":1,"updated_at":"2026-07-20T23:36:39.585729+05:30"},{"city":"Shillong","state":"Meghalaya","latitude":25.5788,"longitude":91.8933,"temp":18.5,"humidity":95,"rain":0.0,"pressure":856.7,"uv_index":4.15,"wind_gusts":24.1,"aqi":20,"pm10":1.6,"pm2_5":1.6,"no2":8.2,"co":240.0,"o3":38.0,"so2":2.4,"mosquito_risk":3,"arthritis_risk":10,"migraine_risk":3,"frizz_risk":1,"updated_at":"2026-07-20T23:36:39.585733+05:30"},{"city":"Imphal","state":"Manipur","latitude":24.817,"longitude":93.9368,"temp":21.5,"humidity":94,"rain":0.0,"pressure":922.9,"uv_index":2.2,"wind_gusts":19.8,"aqi":49,"pm10":15.1,"pm2_5":14.8,"no2":20.3,"co":288.0,"o3":32.0,"so2":3.3,"mosquito_risk":3,"arthritis_risk":5,"migraine_risk":3,"frizz_risk":1,"updated_at":"2026-07-20T23:36:39.585736+05:30"},{"city":"Aizawl","state":"Mizoram","latitude":23.7271,"longitude":92.7176,"temp":20.6,"humidity":91,"rain":0.1,"pressure":892.1,"uv_index":1.05,"wind_gusts":19.1,"aqi":27,"pm10":2.7,"pm2_5":2.6,"no2":8.3,"co":147.0,"o3":19.0,"so2":0.5,"mosquito_risk":6,"arthritis_risk":5,"migraine_risk":3,"frizz_risk":1,"updated_at":"2026-07-20T23:36:39.585741+05:30"},{"city":"Kohima","state":"Nagaland","latitude":25.6701,"longitude":94.1077,"temp":19.6,"humidity":94,"rain":0.0,"pressure":855.6,"uv_index":6.2,"wind_gusts":19.1,"aqi":21,"pm10":4.3,"pm2_5":4.1,"no2":7.5,"co":348.0,"o3":39.0,"so2":0.9,"mosquito_risk":3,"arthritis_risk":10,"migraine_risk":7,"frizz_risk":1,"updated_at":"2026-07-20T23:36:39.585745+05:30"},{"city":"Gangtok","state":"Sikkim","latitude":27.3314,"longitude":88.6138,"temp":18.2,"humidity":98,"rain":0.1,"pressure":838.1,"uv_index":7.25,"wind_gusts":25.2,"aqi":32,"pm10":4.9,"pm2_5":4.9,"no2":8.6,"co":305.0,"o3":60.0,"so2":0.7,"mosquito_risk":6,"arthritis_risk":10,"migraine_risk":7,"frizz_risk":1,"updated_at":"2026-07-20T23:36:39.585749+05:30"},{"city":"Siliguri","state":"West Bengal","latitude":26.7271,"longitude":88.3953,"temp":24.5,"humidity":97,"rain":0.0,"pressure":992.8,"uv_index":3.3,"wind_gusts":28.8,"aqi":44,"pm10":11.0,"pm2_5":10.9,"no2":11.9,"co":230.0,"o3":67.0,"so2":2.9,"mosquito_risk":3,"arthritis_risk":5,"migraine_risk":3,"frizz_risk":1,"updated_at":"2026-07-20T23:36:42.901847+05:30"},{"city":"Durgapur","state":"West Bengal","latitude":23.5204,"longitude":87.3119,"temp":25.7,"humidity":96,"rain":0.0,"pressure":992.8,"uv_index":8.7,"wind_gusts":23.8,"aqi":108,"pm10":44.7,"pm2_5":42.8,"no2":28.2,"co":298.0,"o3":49.0,"so2":30.4,"mosquito_risk":7,"arthritis_risk":5,"migraine_risk":7,"frizz_risk":1,"updated_at":"2026-07-20T23:36:42.901879+05:30"},{"city":"Asansol","state":"West Bengal","latitude":23.6739,"longitude":86.9524,"temp":25.8,"humidity":96,"rain":0.2,"pressure":991.3,"uv_index":7.95,"wind_gusts":23.8,"aqi":105,"pm10":50.1,"pm2_5":47.6,"no2":36.6,"co":525.0,"o3":42.0,"so2":42.1,"mosquito_risk":10,"arthritis_risk":5,"migraine_risk":7,"frizz_risk":1,"updated_at":"2026-07-20T23:36:42.901887+05:30"},{"city":"Pondicherry","state":"Puducherry","latitude":11.9139,"longitude":79.8145,"temp":27.4,"humidity":93,"rain":0.0,"pressure":1009.3,"uv_index":7.95,"wind_gusts":40.0,"aqi":71,"pm10":31.8,"pm2_5":24.2,"no2":21.0,"co":417.0,"o3":61.0,"so2":8.0,"mosquito_risk":7,"arthritis_risk":0,"migraine_risk":4,"frizz_risk":1,"updated_at":"2026-07-20T23:36:42.901894+05:30"},{"city":"Port Blair","state":"Andaman and Nicobar Islands","latitude":11.6234,"longitude":92.7265,"temp":27.0,"humidity":83,"rain":0.0,"pressure":1009.0,"uv_index":7.1,"wind_gusts":41.0,"aqi":57,"pm10":23.7,"pm2_5":11.5,"no2":0.2,"co":88.0,"o3":51.0,"so2":0.4,"mosquito_risk":7,"arthritis_risk":0,"migraine_risk":4,"frizz_risk":1,"updated_at":"2026-07-20T23:36:42.901900+05:30"},{"city":"Haridwar","state":"Uttarakhand","latitude":29.9457,"longitude":78.1642,"temp":26.0,"humidity":97,"rain":0.1,"pressure":971.0,"uv_index":5.15,"wind_gusts":36.4,"aqi":76,"pm10":22.6,"pm2_5":19.5,"no2":11.9,"co":441.0,"o3":73.0,"so2":6.3,"mosquito_risk":10,"arthritis_risk":5,"migraine_risk":3,"frizz_risk":1,"updated_at":"2026-07-20T23:36:42.901906+05:30"},{"city":"Rishikesh","state":"Uttarakhand","latitude":30.0869,"longitude":78.2676,"temp":25.6,"humidity":94,"rain":0.0,"pressure":963.8,"uv_index":5.25,"wind_gusts":20.2,"aqi":61,"pm10":13.5,"pm2_5":10.6,"no2":6.5,"co":361.0,"o3":97.0,"so2":3.8,"mosquito_risk":7,"arthritis_risk":5,"migraine_risk":3,"frizz_risk":1,"updated_at":"2026-07-20T23:36:42.901912+05:30"},{"city":"Nainital","state":"Uttarakhand","latitude":29.3919,"longitude":79.4542,"temp":16.7,"humidity":96,"rain":0.0,"pressure":804.2,"uv_index":1.0,"wind_gusts":30.6,"aqi":45,"pm10":8.2,"pm2_5":7.4,"no2":8.3,"co":304.0,"o3":76.0,"so2":1.5,"mosquito_risk":3,"arthritis_risk":10,"migraine_risk":3,"frizz_risk":0,"updated_at":"2026-07-20T23:36:42.901919+05:30"},{"city":"Mussoorie","state":"Uttarakhand","latitude":30.4599,"longitude":78.0664,"temp":17.0,"humidity":99,"rain":0.0,"pressure":801.9,"uv_index":4.85,"wind_gusts":23.8,"aqi":60,"pm10":17.2,"pm2_5":12.3,"no2":14.8,"co":372.0,"o3":75.0,"so2":5.2,"mosquito_risk":3,"arthritis_risk":10,"migraine_risk":3,"frizz_risk":1,"updated_at":"2026-07-20T23:36:42.901923+05:30"},{"city":"Dharamshala","state":"Himachal Pradesh","latitude":32.219,"longitude":76.3234,"temp":21.1,"humidity":96,"rain":0.2,"pressure":866.7,"uv_index":6.7,"wind_gusts":26.6,"aqi":34,"pm10":6.1,"pm2_5":4.6,"no2":12.6,"co":373.0,"o3":47.0,"so2":0.7,"mosquito_risk":6,"arthritis_risk":5,"migraine_risk":7,"frizz_risk":1,"updated_at":"2026-07-20T23:36:42.901928+05:30"},{"city":"Dalhousie","state":"Himachal Pradesh","latitude":32.5387,"longitude":75.971,"temp":17.8,"humidity":99,"rain":0.1,"pressure":802.8,"uv_index":4.45,"wind_gusts":23.8,"aqi":86,"pm10":55.2,"pm2_5":26.8,"no2":17.0,"co":673.0,"o3":80.0,"so2":2.2,"mosquito_risk":6,"arthritis_risk":10,"migraine_risk":3,"frizz_risk":1,"updated_at":"2026-07-20T23:36:42.901933+05:30"},{"city":"Patiala","state":"Punjab","latitude":30.3398,"longitude":76.3869,"temp":27.0,"humidity":89,"rain":0.0,"pressure":974.2,"uv_index":4.15,"wind_gusts":32.0,"aqi":152,"pm10":50.4,"pm2_5":36.3,"no2":21.4,"co":460.0,"o3":56.0,"so2":9.5,"mosquito_risk":7,"arthritis_risk":5,"migraine_risk":3,"frizz_risk":1,"updated_at":"2026-07-20T23:36:42.901937+05:30"},{"city":"Bhatinda","state":"Punjab","latitude":30.211,"longitude":74.9455,"temp":29.3,"humidity":82,"rain":0.0,"pressure":978.4,"uv_index":6.0,"wind_gusts":38.9,"aqi":382,"pm10":183.0,"pm2_5":83.6,"no2":17.1,"co":365.0,"o3":87.0,"so2":7.6,"mosquito_risk":7,"arthritis_risk":5,"migraine_risk":3,"frizz_risk":1,"updated_at":"2026-07-20T23:36:42.901941+05:30"},{"city":"Rohtak","state":"Haryana","latitude":28.8955,"longitude":76.6066,"temp":28.7,"humidity":87,"rain":0.0,"pressure":977.5,"uv_index":5.25,"wind_gusts":25.9,"aqi":334,"pm10":864.3,"pm2_5":133.2,"no2":47.3,"co":498.0,"o3":26.0,"so2":22.7,"mosquito_risk":7,"arthritis_risk":5,"migraine_risk":3,"frizz_risk":1,"updated_at":"2026-07-20T23:36:42.901946+05:30"},{"city":"Panipat","state":"Haryana","latitude":29.3909,"longitude":76.9635,"temp":26.8,"humidity":95,"rain":0.0,"pressure":976.5,"uv_index":5.2,"wind_gusts":35.6,"aqi":342,"pm10":705.9,"pm2_5":122.9,"no2":31.7,"co":471.0,"o3":47.0,"so2":19.0,"mosquito_risk":7,"arthritis_risk":5,"migraine_risk":3,"frizz_risk":1,"updated_at":"2026-07-20T23:36:42.901950+05:30"},{"city":"Mathura","state":"Uttar Pradesh","latitude":27.4924,"longitude":77.6737,"temp":25.7,"humidity":96,"rain":0.2,"pressure":983.4,"uv_index":2.3,"wind_gusts":28.8,"aqi":99,"pm10":48.7,"pm2_5":29.2,"no2":27.6,"co":391.0,"o3":43.0,"so2":5.6,"mosquito_risk":10,"arthritis_risk":5,"migraine_risk":3,"frizz_risk":1,"updated_at":"2026-07-20T23:36:42.901954+05:30"},{"city":"Vrindavan","state":"Uttar Pradesh","latitude":27.5823,"longitude":77.7027,"temp":25.9,"humidity":96,"rain":0.2,"pressure":983.8,"uv_index":2.7,"wind_gusts":27.7,"aqi":99,"pm10":48.7,"pm2_5":29.2,"no2":27.6,"co":372.0,"o3":43.0,"so2":5.6,"mosquito_risk":10,"arthritis_risk":5,"migraine_risk":3,"frizz_risk":1,"updated_at":"2026-07-20T23:36:42.901959+05:30"},{"city":"Ayodhya","state":"Uttar Pradesh","latitude":26.7922,"longitude":82.1998,"temp":25.5,"humidity":99,"rain":0.0,"pressure":992.9,"uv_index":7.5,"wind_gusts":21.6,"aqi":71,"pm10":20.0,"pm2_5":19.8,"no2":13.4,"co":400.0,"o3":85.0,"so2":5.3,"mosquito_risk":7,"arthritis_risk":5,"migraine_risk":7,"frizz_risk":1,"updated_at":"2026-07-20T23:36:42.901963+05:30"},{"city":"Ratlam","state":"Madhya Pradesh","latitude":23.3315,"longitude":75.0367,"temp":24.0,"humidity":98,"rain":0.1,"pressure":951.4,"uv_index":5.1,"wind_gusts":29.9,"aqi":54,"pm10":10.2,"pm2_5":8.6,"no2":8.5,"co":212.0,"o3":53.0,"so2":7.7,"mosquito_risk":6,"arthritis_risk":5,"migraine_risk":3,"frizz_risk":1,"updated_at":"2026-07-20T23:36:42.901967+05:30"},{"city":"Sagar","state":"Madhya Pradesh","latitude":23.8388,"longitude":78.7378,"temp":24.0,"humidity":98,"rain":0.2,"pressure":946.8,"uv_index":7.15,"wind_gusts":32.0,"aqi":59,"pm10":18.6,"pm2_5":16.8,"no2":12.7,"co":226.0,"o3":48.0,"so2":3.7,"mosquito_risk":6,"arthritis_risk":5,"migraine_risk":7,"frizz_risk":1,"updated_at":"2026-07-20T23:36:42.901972+05:30"},{"city":"Satna","state":"Madhya Pradesh","latitude":24.6005,"longitude":80.8322,"temp":25.0,"humidity":98,"rain":0.2,"pressure":968.0,"uv_index":1.9,"wind_gusts":28.1,"aqi":76,"pm10":18.5,"pm2_5":15.9,"no2":17.6,"co":351.0,"o3":37.0,"so2":3.8,"mosquito_risk":10,"arthritis_risk":5,"migraine_risk":3,"frizz_risk":1,"updated_at":"2026-07-20T23:36:42.901975+05:30"},{"city":"Akola","state":"Maharashtra","latitude":20.7002,"longitude":77.0082,"temp":25.5,"humidity":95,"rain":0.1,"pressure":972.8,"uv_index":8.15,"wind_gusts":43.2,"aqi":37,"pm10":7.8,"pm2_5":6.5,"no2":8.7,"co":207.0,"o3":47.0,"so2":4.4,"mosquito_risk":10,"arthritis_risk":5,"migraine_risk":7,"frizz_risk":1,"updated_at":"2026-07-20T23:36:42.901980+05:30"},{"city":"Amravati","state":"Maharashtra","latitude":20.9374,"longitude":77.7796,"temp":24.7,"humidity":98,"rain":0.1,"pressure":965.2,"uv_index":8.5,"wind_gusts":42.5,"aqi":41,"pm10":6.8,"pm2_5":5.7,"no2":8.6,"co":158.0,"o3":49.0,"so2":4.5,"mosquito_risk":6,"arthritis_risk":5,"migraine_risk":7,"frizz_risk":1,"updated_at":"2026-07-20T23:36:42.901985+05:30"},{"city":"Latur","state":"Maharashtra","latitude":18.4088,"longitude":76.5604,"temp":23.3,"humidity":93,"rain":0.1,"pressure":939.0,"uv_index":1.95,"wind_gusts":45.4,"aqi":29,"pm10":6.0,"pm2_5":4.9,"no2":5.9,"co":161.0,"o3":38.0,"so2":2.5,"mosquito_risk":6,"arthritis_risk":5,"migraine_risk":3,"frizz_risk":1,"updated_at":"2026-07-20T23:36:42.901989+05:30"},{"city":"Nanded","state":"Maharashtra","latitude":19.1383,"longitude":77.3091,"temp":24.7,"humidity":94,"rain":0.1,"pressure":967.5,"uv_index":2.5,"wind_gusts":40.7,"aqi":38,"pm10":8.8,"pm2_5":7.1,"no2":7.0,"co":161.0,"o3":44.0,"so2":3.1,"mosquito_risk":6,"arthritis_risk":5,"migraine_risk":3,"frizz_risk":1,"updated_at":"2026-07-20T23:36:42.901994+05:30"},{"city":"Gulbarga","state":"Karnataka","latitude":17.3297,"longitude":76.8343,"temp":24.1,"humidity":88,"rain":0.0,"pressure":958.8,"uv_index":6.6,"wind_gusts":48.2,"aqi":27,"pm10":5.4,"pm2_5":4.1,"no2":7.0,"co":149.0,"o3":36.0,"so2":2.9,"mosquito_risk":3,"arthritis_risk":5,"migraine_risk":7,"frizz_risk":1,"updated_at":"2026-07-20T23:36:42.901999+05:30"},{"city":"Bidar","state":"Karnataka","latitude":17.9104,"longitude":77.5199,"temp":22.8,"humidity":96,"rain":0.1,"pressure":934.9,"uv_index":6.9,"wind_gusts":43.6,"aqi":27,"pm10":7.8,"pm2_5":6.1,"no2":8.5,"co":142.0,"o3":36.0,"so2":2.6,"mosquito_risk":6,"arthritis_risk":5,"migraine_risk":7,"frizz_risk":1,"updated_at":"2026-07-20T23:36:42.902003+05:30"},{"city":"Hospet","state":"Karnataka","latitude":15.2689,"longitude":76.3909,"temp":23.5,"humidity":86,"rain":0.0,"pressure":957.0,"uv_index":8.15,"wind_gusts":52.6,"aqi":23,"pm10":5.2,"pm2_5":3.8,"no2":5.8,"co":131.0,"o3":37.0,"so2":1.9,"mosquito_risk":3,"arthritis_risk":5,"migraine_risk":7,"frizz_risk":1,"updated_at":"2026-07-20T23:36:42.902007+05:30"},{"city":"Tirupur","state":"Tamil Nadu","latitude":11.1085,"longitude":77.3411,"temp":24.6,"humidity":85,"rain":0.0,"pressure":977.3,"uv_index":8.65,"wind_gusts":55.4,"aqi":53,"pm10":22.6,"pm2_5":19.8,"no2":24.8,"co":161.0,"o3":20.0,"so2":7.0,"mosquito_risk":3,"arthritis_risk":5,"migraine_risk":7,"frizz_risk":1,"updated_at":"2026-07-20T23:36:42.902011+05:30"},{"city":"Alappuzha","state":"Kerala","latitude":9.4981,"longitude":76.3388,"temp":26.4,"humidity":88,"rain":0.0,"pressure":1012.0,"uv_index":8.5,"wind_gusts":27.0,"aqi":51,"pm10":19.0,"pm2_5":14.7,"no2":15.0,"co":89.0,"o3":28.0,"so2":4.7,"mosquito_risk":7,"arthritis_risk":0,"migraine_risk":4,"frizz_risk":1,"updated_at":"2026-07-20T23:36:42.902015+05:30"},{"city":"Munnar","state":"Kerala","latitude":10.0889,"longitude":77.0595,"temp":16.4,"humidity":87,"rain":0.0,"pressure":858.5,"uv_index":8.45,"wind_gusts":41.8,"aqi":25,"pm10":10.5,"pm2_5":8.6,"no2":11.3,"co":114.0,"o3":21.0,"so2":2.2,"mosquito_risk":3,"arthritis_risk":10,"migraine_risk":7,"frizz_risk":0,"updated_at":"2026-07-20T23:36:42.902019+05:30"},{"city":"Silchar","state":"Assam","latitude":24.8333,"longitude":92.7789,"temp":25.2,"humidity":96,"rain":0.1,"pressure":1004.5,"uv_index":1.95,"wind_gusts":23.0,"aqi":56,"pm10":10.6,"pm2_5":10.3,"no2":7.8,"co":193.0,"o3":44.0,"so2":2.7,"mosquito_risk":10,"arthritis_risk":5,"migraine_risk":0,"frizz_risk":1,"updated_at":"2026-07-20T23:36:42.902024+05:30"},{"city":"Dibrugarh","state":"Assam","latitude":27.4728,"longitude":94.912,"temp":25.1,"humidity":95,"rain":0.1,"pressure":995.4,"uv_index":8.05,"wind_gusts":24.5,"aqi":68,"pm10":12.5,"pm2_5":11.5,"no2":10.5,"co":250.0,"o3":48.0,"so2":1.2,"mosquito_risk":10,"arthritis_risk":5,"migraine_risk":7,"frizz_risk":1,"updated_at":"2026-07-20T23:36:42.902029+05:30"}]