[{"city":"Delhi","state":"Delhi","latitude":28.6139,"longitude":77.209,"temp":24.7,"humidity":87,"rain":0.0,"pressure":982.5,"uv_index":7.65,"wind_gusts":54.0,"aqi":276,"pm10":207.7,"pm2_5":74.7,"no2":40.4,"co":807.0,"o3":85.0,"so2":28.1,"mosquito_risk":3,"arthritis_risk":5,"migraine_risk":7,"frizz_risk":1,"updated_at":"2026-05-30T22:40:25.660173+05:30"},{"city":"Mumbai","state":"Maharashtra","latitude":19.076,"longitude":72.8777,"temp":30.8,"humidity":71,"rain":0.0,"pressure":1008.2,"uv_index":7.7,"wind_gusts":38.5,"aqi":60,"pm10":21.8,"pm2_5":13.4,"no2":5.8,"co":160.0,"o3":48.0,"so2":4.4,"mosquito_risk":3,"arthritis_risk":0,"migraine_risk":4,"frizz_risk":1,"updated_at":"2026-05-30T22:40:25.660211+05:30"},{"city":"Bangalore","state":"Karnataka","latitude":12.9716,"longitude":77.5946,"temp":22.2,"humidity":90,"rain":0.0,"pressure":913.3,"uv_index":9.05,"wind_gusts":29.5,"aqi":60,"pm10":24.8,"pm2_5":21.2,"no2":56.1,"co":930.0,"o3":29.0,"so2":9.9,"mosquito_risk":3,"arthritis_risk":5,"migraine_risk":7,"frizz_risk":1,"updated_at":"2026-05-30T22:40:25.660227+05:30"},{"city":"Hyderabad","state":"Telangana","latitude":17.385,"longitude":78.4867,"temp":31.3,"humidity":43,"rain":0.0,"pressure":952.8,"uv_index":8.95,"wind_gusts":43.6,"aqi":63,"pm10":23.2,"pm2_5":18.6,"no2":23.0,"co":1016.0,"o3":66.0,"so2":9.1,"mosquito_risk":0,"arthritis_risk":5,"migraine_risk":7,"frizz_risk":1,"updated_at":"2026-05-30T22:40:25.660236+05:30"},{"city":"Chennai","state":"Tamil Nadu","latitude":13.0827,"longitude":80.2707,"temp":30.0,"humidity":72,"rain":0.0,"pressure":1006.8,"uv_index":9.0,"wind_gusts":48.2,"aqi":137,"pm10":30.7,"pm2_5":25.2,"no2":12.3,"co":443.0,"o3":118.0,"so2":8.1,"mosquito_risk":7,"arthritis_risk":5,"migraine_risk":4,"frizz_risk":1,"updated_at":"2026-05-30T22:40:25.660244+05:30"},{"city":"Kolkata","state":"West Bengal","latitude":22.5726,"longitude":88.3639,"temp":27.4,"humidity":85,"rain":0.0,"pressure":1006.0,"uv_index":8.9,"wind_gusts":49.3,"aqi":140,"pm10":61.9,"pm2_5":53.4,"no2":29.1,"co":524.0,"o3":33.0,"so2":13.8,"mosquito_risk":7,"arthritis_risk":5,"migraine_risk":4,"frizz_risk":1,"updated_at":"2026-05-30T22:40:25.660252+05:30"},{"city":"Pune","state":"Maharashtra","latitude":18.5204,"longitude":73.8567,"temp":26.5,"humidity":80,"rain":0.0,"pressure":948.2,"uv_index":8.35,"wind_gusts":41.8,"aqi":44,"pm10":16.5,"pm2_5":11.2,"no2":7.1,"co":165.0,"o3":45.0,"so2":5.2,"mosquito_risk":7,"arthritis_risk":5,"migraine_risk":7,"frizz_risk":1,"updated_at":"2026-05-30T22:40:25.660258+05:30"},{"city":"Ahmedabad","state":"Gujarat","latitude":23.0225,"longitude":72.5714,"temp":27.9,"humidity":79,"rain":0.2,"pressure":1001.7,"uv_index":8.1,"wind_gusts":45.4,"aqi":73,"pm10":36.3,"pm2_5":20.8,"no2":5.4,"co":195.0,"o3":68.0,"so2":4.3,"mosquito_risk":10,"arthritis_risk":5,"migraine_risk":4,"frizz_risk":1,"updated_at":"2026-05-30T22:40:25.660266+05:30"},{"city":"Jaipur","state":"Rajasthan","latitude":26.9124,"longitude":75.7873,"temp":28.6,"humidity":47,"rain":0.0,"pressure":958.8,"uv_index":8.15,"wind_gusts":31.7,"aqi":100,"pm10":43.0,"pm2_5":24.4,"no2":11.7,"co":439.0,"o3":87.0,"so2":5.9,"mosquito_risk":4,"arthritis_risk":5,"migraine_risk":7,"frizz_risk":0,"updated_at":"2026-05-30T22:40:25.660276+05:30"},{"city":"Lucknow","state":"Uttar Pradesh","latitude":26.8467,"longitude":80.9462,"temp":26.3,"humidity":74,"rain":0.0,"pressure":993.7,"uv_index":8.15,"wind_gusts":34.9,"aqi":90,"pm10":39.7,"pm2_5":32.0,"no2":17.0,"co":376.0,"o3":82.0,"so2":8.1,"mosquito_risk":7,"arthritis_risk":5,"migraine_risk":7,"frizz_risk":1,"updated_at":"2026-05-30T22:40:25.660283+05:30"},{"city":"Kanpur","state":"Uttar Pradesh","latitude":26.4499,"longitude":80.3319,"temp":27.5,"humidity":65,"rain":0.0,"pressure":991.6,"uv_index":8.15,"wind_gusts":41.8,"aqi":125,"pm10":358.6,"pm2_5":61.2,"no2":9.6,"co":346.0,"o3":104.0,"so2":5.3,"mosquito_risk":7,"arthritis_risk":5,"migraine_risk":7,"frizz_risk":1,"updated_at":"2026-05-30T22:40:25.660290+05:30"},{"city":"Chandigarh","state":"Chandigarh","latitude":30.7333,"longitude":76.7794,"temp":23.6,"humidity":81,"rain":0.0,"pressure":968.9,"uv_index":7.0,"wind_gusts":41.4,"aqi":127,"pm10":79.2,"pm2_5":42.5,"no2":32.0,"co":929.0,"o3":85.0,"so2":8.7,"mosquito_risk":3,"arthritis_risk":5,"migraine_risk":7,"frizz_risk":1,"updated_at":"2026-05-30T22:40:25.660297+05:30"},{"city":"Srinagar","state":"Jammu and Kashmir","latitude":34.0837,"longitude":74.7973,"temp":16.2,"humidity":79,"rain":0.0,"pressure":840.0,"uv_index":8.95,"wind_gusts":27.4,"aqi":102,"pm10":61.7,"pm2_5":56.7,"no2":38.1,"co":1090.0,"o3":44.0,"so2":2.0,"mosquito_risk":3,"arthritis_risk":5,"migraine_risk":7,"frizz_risk":0,"updated_at":"2026-05-30T22:40:25.660304+05:30"},{"city":"Jammu","state":"Jammu and Kashmir","latitude":32.7266,"longitude":74.857,"temp":26.8,"humidity":43,"rain":0.0,"pressure":973.2,"uv_index":8.25,"wind_gusts":46.4,"aqi":134,"pm10":180.7,"pm2_5":77.5,"no2":47.0,"co":605.0,"o3":71.0,"so2":8.0,"mosquito_risk":4,"arthritis_risk":5,"migraine_risk":7,"frizz_risk":0,"updated_at":"2026-05-30T22:40:25.660311+05:30"},{"city":"Amritsar","state":"Punjab","latitude":31.634,"longitude":74.8723,"temp":24.8,"humidity":55,"rain":0.0,"pressure":981.1,"uv_index":8.35,"wind_gusts":51.8,"aqi":153,"pm10":124.8,"pm2_5":53.8,"no2":21.3,"co":667.0,"o3":84.0,"so2":7.0,"mosquito_risk":0,"arthritis_risk":5,"migraine_risk":7,"frizz_risk":0,"updated_at":"2026-05-30T22:40:25.660317+05:30"},{"city":"Ludhiana","state":"Punjab","latitude":30.901,"longitude":75.8573,"temp":23.5,"humidity":76,"rain":0.0,"pressure":978.8,"uv_index":7.75,"wind_gusts":49.0,"aqi":189,"pm10":224.9,"pm2_5":74.7,"no2":30.4,"co":895.0,"o3":96.0,"so2":12.7,"mosquito_risk":3,"arthritis_risk":5,"migraine_risk":7,"frizz_risk":1,"updated_at":"2026-05-30T22:40:25.660323+05:30"},{"city":"Jalandhar","state":"Punjab","latitude":31.326,"longitude":75.5762,"temp":22.9,"humidity":77,"rain":0.0,"pressure":979.8,"uv_index":7.15,"wind_gusts":44.6,"aqi":132,"pm10":126.7,"pm2_5":60.3,"no2":34.1,"co":702.0,"o3":71.0,"so2":7.9,"mosquito_risk":3,"arthritis_risk":5,"migraine_risk":7,"frizz_risk":1,"updated_at":"2026-05-30T22:40:25.660329+05:30"},{"city":"Dehradun","state":"Uttarakhand","latitude":30.6284,"longitude":78.0322,"temp":15.0,"humidity":81,"rain":0.0,"pressure":830.2,"uv_index":7.75,"wind_gusts":43.2,"aqi":108,"pm10":46.4,"pm2_5":30.7,"no2":31.1,"co":322.0,"o3":82.0,"so2":2.1,"mosquito_risk":3,"arthritis_risk":10,"migraine_risk":7,"frizz_risk":0,"updated_at":"2026-05-30T22:40:25.660336+05:30"},{"city":"Shimla","state":"Himachal Pradesh","latitude":31.1048,"longitude":77.1734,"temp":12.2,"humidity":70,"rain":0.0,"pressure":783.3,"uv_index":2.3,"wind_gusts":38.9,"aqi":123,"pm10":32.1,"pm2_5":15.7,"no2":12.9,"co":424.0,"o3":116.0,"so2":0.3,"mosquito_risk":3,"arthritis_risk":5,"migraine_risk":3,"frizz_risk":0,"updated_at":"2026-05-30T22:40:25.660344+05:30"},{"city":"Manali","state":"Himachal Pradesh","latitude":32.2396,"longitude":77.1887,"temp":14.9,"humidity":69,"rain":0.0,"pressure":818.7,"uv_index":8.1,"wind_gusts":36.4,"aqi":141,"pm10":25.7,"pm2_5":19.3,"no2":45.8,"co":289.0,"o3":106.0,"so2":0.7,"mosquito_risk":3,"arthritis_risk":5,"migraine_risk":7,"frizz_risk":0,"updated_at":"2026-05-30T22:40:25.660350+05:30"},{"city":"Gurgaon","state":"Haryana","latitude":28.4595,"longitude":77.0266,"temp":24.2,"humidity":89,"rain":0.0,"pressure":980.8,"uv_index":7.75,"wind_gusts":59.4,"aqi":1078,"pm10":379.0,"pm2_5":105.2,"no2":45.0,"co":1133.0,"o3":87.0,"so2":35.1,"mosquito_risk":3,"arthritis_risk":5,"migraine_risk":7,"frizz_risk":1,"updated_at":"2026-05-30T22:40:25.660356+05:30"},{"city":"Noida","state":"Uttar Pradesh","latitude":28.5355,"longitude":77.391,"temp":23.9,"humidity":91,"rain":0.0,"pressure":984.1,"uv_index":7.65,"wind_gusts":45.0,"aqi":1078,"pm10":379.0,"pm2_5":105.2,"no2":45.0,"co":942.0,"o3":87.0,"so2":35.1,"mosquito_risk":3,"arthritis_risk":5,"migraine_risk":7,"frizz_risk":1,"updated_at":"2026-05-30T22:40:25.660364+05:30"},{"city":"Ghaziabad","state":"Uttar Pradesh","latitude":28.6692,"longitude":77.4538,"temp":23.9,"humidity":89,"rain":0.0,"pressure":982.4,"uv_index":7.65,"wind_gusts":37.1,"aqi":128,"pm10":103.6,"pm2_5":54.5,"no2":25.5,"co":456.0,"o3":91.0,"so2":13.5,"mosquito_risk":3,"arthritis_risk":5,"migraine_risk":7,"frizz_risk":1,"updated_at":"2026-05-30T22:40:25.660371+05:30"},{"city":"Faridabad","state":"Haryana","latitude":28.4089,"longitude":77.3178,"temp":24.5,"humidity":90,"rain":0.0,"pressure":983.4,"uv_index":7.7,"wind_gusts":58.3,"aqi":1078,"pm10":379.0,"pm2_5":105.2,"no2":45.0,"co":778.0,"o3":87.0,"so2":35.1,"mosquito_risk":3,"arthritis_risk":5,"migraine_risk":7,"frizz_risk":1,"updated_at":"2026-05-30T22:40:25.660379+05:30"},{"city":"Meerut","state":"Uttar Pradesh","latitude":28.9845,"longitude":77.7064,"temp":23.9,"humidity":83,"rain":0.0,"pressure":981.2,"uv_index":7.55,"wind_gusts":40.0,"aqi":128,"pm10":103.6,"pm2_5":54.5,"no2":25.5,"co":494.0,"o3":91.0,"so2":13.5,"mosquito_risk":3,"arthritis_risk":5,"migraine_risk":7,"frizz_risk":1,"updated_at":"2026-05-30T22:40:25.660385+05:30"},{"city":"Agra","state":"Uttar Pradesh","latitude":27.1767,"longitude":78.0081,"temp":25.5,"humidity":81,"rain":0.0,"pressure":987.1,"uv_index":8.0,"wind_gusts":59.8,"aqi":254,"pm10":929.5,"pm2_5":128.1,"no2":16.7,"co":425.0,"o3":98.0,"so2":9.5,"mosquito_risk":7,"arthritis_risk":5,"migraine_risk":7,"frizz_risk":1,"updated_at":"2026-05-30T22:40:25.660391+05:30"},{"city":"Varanasi","state":"Uttar Pradesh","latitude":25.3176,"longitude":82.9739,"temp":28.1,"humidity":66,"rain":0.0,"pressure":996.9,"uv_index":8.55,"wind_gusts":36.7,"aqi":135,"pm10":56.1,"pm2_5":48.4,"no2":20.3,"co":646.0,"o3":99.0,"so2":13.7,"mosquito_risk":7,"arthritis_risk":5,"migraine_risk":7,"frizz_risk":1,"updated_at":"2026-05-30T22:40:25.660398+05:30"},{"city":"Prayagraj","state":"Uttar Pradesh","latitude":25.4358,"longitude":81.8463,"temp":28.7,"humidity":63,"rain":0.0,"pressure":995.4,"uv_index":8.55,"wind_gusts":31.7,"aqi":129,"pm10":32.6,"pm2_5":28.5,"no2":13.2,"co":449.0,"o3":104.0,"so2":7.8,"mosquito_risk":7,"arthritis_risk":5,"migraine_risk":7,"frizz_risk":1,"updated_at":"2026-05-30T22:40:25.660404+05:30"},{"city":"Gorakhpur","state":"Uttar Pradesh","latitude":26.7606,"longitude":83.3732,"temp":25.8,"humidity":76,"rain":0.0,"pressure":997.5,"uv_index":8.25,"wind_gusts":45.7,"aqi":84,"pm10":32.5,"pm2_5":26.8,"no2":16.7,"co":336.0,"o3":88.0,"so2":6.6,"mosquito_risk":7,"arthritis_risk":5,"migraine_risk":7,"frizz_risk":1,"updated_at":"2026-05-30T22:40:25.660433+05:30"},{"city":"Bareilly","state":"Uttar Pradesh","latitude":28.367,"longitude":79.4304,"temp":24.3,"humidity":71,"rain":0.0,"pressure":986.5,"uv_index":7.95,"wind_gusts":41.0,"aqi":135,"pm10":36.3,"pm2_5":31.9,"no2":20.4,"co":342.0,"o3":85.0,"so2":7.3,"mosquito_risk":3,"arthritis_risk":5,"migraine_risk":7,"frizz_risk":1,"updated_at":"2026-05-30T22:40:25.660442+05:30"},{"city":"Aligarh","state":"Uttar Pradesh","latitude":27.8974,"longitude":78.088,"temp":25.1,"humidity":76,"rain":0.0,"pressure":985.1,"uv_index":7.8,"wind_gusts":59.8,"aqi":181,"pm10":376.3,"pm2_5":72.2,"no2":16.9,"co":432.0,"o3":110.0,"so2":11.3,"mosquito_risk":7,"arthritis_risk":5,"migraine_risk":7,"frizz_risk":1,"updated_at":"2026-05-30T22:40:25.660448+05:30"},{"city":"Moradabad","state":"Uttar Pradesh","latitude":28.8386,"longitude":78.7733,"temp":25.1,"humidity":73,"rain":0.0,"pressure":983.9,"uv_index":7.75,"wind_gusts":65.9,"aqi":124,"pm10":42.3,"pm2_5":30.3,"no2":19.9,"co":388.0,"o3":99.0,"so2":10.5,"mosquito_risk":7,"arthritis_risk":5,"migraine_risk":7,"frizz_risk":1,"updated_at":"2026-05-30T22:40:25.660454+05:30"},{"city":"Saharanpur","state":"Uttar Pradesh","latitude":29.9637,"longitude":77.546,"temp":24.2,"humidity":75,"rain":0.0,"pressure":975.6,"uv_index":7.4,"wind_gusts":63.4,"aqi":113,"pm10":83.8,"pm2_5":64.7,"no2":46.5,"co":583.0,"o3":57.0,"so2":12.9,"mosquito_risk":3,"arthritis_risk":5,"migraine_risk":7,"frizz_risk":1,"updated_at":"2026-05-30T22:40:25.660460+05:30"},{"city":"Jhansi","state":"Uttar Pradesh","latitude":25.4484,"longitude":78.5685,"temp":29.1,"humidity":50,"rain":0.0,"pressure":977.1,"uv_index":8.4,"wind_gusts":26.3,"aqi":74,"pm10":29.2,"pm2_5":18.5,"no2":9.9,"co":235.0,"o3":72.0,"so2":4.7,"mosquito_risk":4,"arthritis_risk":5,"migraine_risk":7,"frizz_risk":1,"updated_at":"2026-05-30T22:40:28.893812+05:30"},{"city":"Surat","state":"Gujarat","latitude":21.1702,"longitude":72.8311,"temp":30.5,"humidity":73,"rain":0.0,"pressure":1005.4,"uv_index":7.65,"wind_gusts":55.4,"aqi":78,"pm10":31.1,"pm2_5":19.5,"no2":12.0,"co":210.0,"o3":43.0,"so2":20.1,"mosquito_risk":3,"arthritis_risk":5,"migraine_risk":4,"frizz_risk":1,"updated_at":"2026-05-30T22:40:28.893840+05:30"},{"city":"Vadodara","state":"Gujarat","latitude":22.3072,"longitude":73.1812,"temp":28.6,"humidity":75,"rain":0.0,"pressure":1004.3,"uv_index":8.05,"wind_gusts":52.6,"aqi":75,"pm10":27.4,"pm2_5":19.3,"no2":15.5,"co":190.0,"o3":35.0,"so2":15.0,"mosquito_risk":7,"arthritis_risk":5,"migraine_risk":4,"frizz_risk":1,"updated_at":"2026-05-30T22:40:28.893851+05:30"},{"city":"Rajkot","state":"Gujarat","latitude":22.3039,"longitude":70.8022,"temp":30.4,"humidity":64,"rain":0.0,"pressure":992.0,"uv_index":7.7,"wind_gusts":50.4,"aqi":67,"pm10":34.1,"pm2_5":18.5,"no2":3.4,"co":116.0,"o3":49.0,"so2":3.6,"mosquito_risk":3,"arthritis_risk":5,"migraine_risk":7,"frizz_risk":1,"updated_at":"2026-05-30T22:40:28.893859+05:30"},{"city":"Thane","state":"Maharashtra","latitude":19.2183,"longitude":72.9781,"temp":30.9,"humidity":70,"rain":0.0,"pressure":1007.5,"uv_index":7.8,"wind_gusts":38.5,"aqi":60,"pm10":21.8,"pm2_5":13.4,"no2":5.8,"co":161.0,"o3":48.0,"so2":4.4,"mosquito_risk":3,"arthritis_risk":5,"migraine_risk":4,"frizz_risk":1,"updated_at":"2026-05-30T22:40:28.893868+05:30"},{"city":"Nagpur","state":"Maharashtra","latitude":21.1458,"longitude":79.0882,"temp":34.3,"humidity":31,"rain":0.0,"pressure":971.6,"uv_index":8.85,"wind_gusts":45.7,"aqi":78,"pm10":54.1,"pm2_5":31.7,"no2":13.4,"co":260.0,"o3":67.0,"so2":10.9,"mosquito_risk":0,"arthritis_risk":5,"migraine_risk":7,"frizz_risk":0,"updated_at":"2026-05-30T22:40:28.893876+05:30"},{"city":"Nashik","state":"Maharashtra","latitude":19.9975,"longitude":73.7898,"temp":26.0,"humidity":79,"rain":0.0,"pressure":945.6,"uv_index":8.1,"wind_gusts":50.0,"aqi":57,"pm10":16.0,"pm2_5":10.3,"no2":5.2,"co":137.0,"o3":49.0,"so2":2.3,"mosquito_risk":7,"arthritis_risk":5,"migraine_risk":7,"frizz_risk":1,"updated_at":"2026-05-30T22:40:28.893884+05:30"},{"city":"Aurangabad","state":"Maharashtra","latitude":19.8762,"longitude":75.3433,"temp":30.5,"humidity":52,"rain":0.0,"pressure":944.2,"uv_index":8.95,"wind_gusts":44.3,"aqi":65,"pm10":24.3,"pm2_5":15.7,"no2":5.9,"co":143.0,"o3":75.0,"so2":7.2,"mosquito_risk":0,"arthritis_risk":5,"migraine_risk":7,"frizz_risk":1,"updated_at":"2026-05-30T22:40:28.893891+05:30"},{"city":"Solapur","state":"Maharashtra","latitude":17.6599,"longitude":75.9064,"temp":32.0,"humidity":39,"rain":0.0,"pressure":956.3,"uv_index":8.95,"wind_gusts":37.8,"aqi":44,"pm10":16.6,"pm2_5":12.3,"no2":10.4,"co":210.0,"o3":61.0,"so2":3.0,"mosquito_risk":0,"arthritis_risk":5,"migraine_risk":7,"frizz_risk":1,"updated_at":"2026-05-30T22:40:28.893899+05:30"},{"city":"Kolhapur","state":"Maharashtra","latitude":16.705,"longitude":74.2433,"temp":25.9,"humidity":84,"rain":0.0,"pressure":948.8,"uv_index":8.75,"wind_gusts":45.0,"aqi":35,"pm10":13.3,"pm2_5":9.9,"no2":5.6,"co":159.0,"o3":48.0,"so2":2.2,"mosquito_risk":7,"arthritis_risk":5,"migraine_risk":7,"frizz_risk":1,"updated_at":"2026-05-30T22:40:28.893906+05:30"},{"city":"Goa","state":"Goa","latitude":15.2993,"longitude":74.124,"temp":26.8,"humidity":99,"rain":0.0,"pressure":999.8,"uv_index":7.2,"wind_gusts":31.0,"aqi":52,"pm10":18.9,"pm2_5":13.6,"no2":4.3,"co":461.0,"o3":47.0,"so2":1.4,"mosquito_risk":7,"arthritis_risk":5,"migraine_risk":7,"frizz_risk":1,"updated_at":"2026-05-30T22:40:28.893914+05:30"},{"city":"Jodhpur","state":"Rajasthan","latitude":26.2389,"longitude":73.0243,"temp":31.9,"humidity":45,"rain":0.0,"pressure":980.0,"uv_index":8.35,"wind_gusts":51.1,"aqi":128,"pm10":165.8,"pm2_5":38.2,"no2":4.6,"co":241.0,"o3":92.0,"so2":2.5,"mosquito_risk":0,"arthritis_risk":5,"migraine_risk":7,"frizz_risk":1,"updated_at":"2026-05-30T22:40:28.893922+05:30"},{"city":"Udaipur","state":"Rajasthan","latitude":24.5854,"longitude":73.7125,"temp":28.0,"humidity":53,"rain":0.0,"pressure":945.7,"uv_index":8.75,"wind_gusts":54.4,"aqi":76,"pm10":63.3,"pm2_5":27.2,"no2":6.4,"co":216.0,"o3":79.0,"so2":4.7,"mosquito_risk":4,"arthritis_risk":5,"migraine_risk":7,"frizz_risk":1,"updated_at":"2026-05-30T22:40:28.893930+05:30"},{"city":"Kota","state":"Rajasthan","latitude":25.2138,"longitude":75.8648,"temp":26.1,"humidity":90,"rain":0.0,"pressure":976.5,"uv_index":8.3,"wind_gusts":38.9,"aqi":76,"pm10":35.6,"pm2_5":22.4,"no2":6.7,"co":257.0,"o3":95.0,"so2":5.3,"mosquito_risk":7,"arthritis_risk":5,"migraine_risk":7,"frizz_risk":1,"updated_at":"2026-05-30T22:40:28.893937+05:30"},{"city":"Bikaner","state":"Rajasthan","latitude":28.0229,"longitude":73.3119,"temp":32.0,"humidity":35,"rain":0.0,"pressure":979.5,"uv_index":8.35,"wind_gusts":44.6,"aqi":98,"pm10":58.7,"pm2_5":29.0,"no2":4.5,"co":211.0,"o3":93.0,"so2":4.5,"mosquito_risk":0,"arthritis_risk":5,"migraine_risk":7,"frizz_risk":0,"updated_at":"2026-05-30T22:40:28.893944+05:30"},{"city":"Ajmer","state":"Rajasthan","latitude":26.4499,"longitude":74.6399,"temp":27.7,"humidity":51,"rain":0.0,"pressure":952.8,"uv_index":8.3,"wind_gusts":39.2,"aqi":69,"pm10":31.9,"pm2_5":19.0,"no2":7.6,"co":252.0,"o3":81.0,"so2":2.7,"mosquito_risk":4,"arthritis_risk":5,"migraine_risk":7,"frizz_risk":1,"updated_at":"2026-05-30T22:40:28.893951+05:30"},{"city":"Gwalior","state":"Madhya Pradesh","latitude":26.2183,"longitude":78.1828,"temp":28.0,"humidity":60,"rain":0.0,"pressure":982.1,"uv_index":8.15,"wind_gusts":29.9,"aqi":75,"pm10":61.2,"pm2_5":26.1,"no2":10.0,"co":257.0,"o3":80.0,"so2":5.1,"mosquito_risk":4,"arthritis_risk":5,"migraine_risk":7,"frizz_risk":1,"updated_at":"2026-05-30T22:40:28.893957+05:30"},{"city":"Indore","state":"Madhya Pradesh","latitude":22.7196,"longitude":75.8577,"temp":31.1,"humidity":37,"rain":0.0,"pressure":947.1,"uv_index":8.6,"wind_gusts":46.4,"aqi":82,"pm10":54.9,"pm2_5":30.6,"no2":9.0,"co":271.0,"o3":73.0,"so2":5.9,"mosquito_risk":0,"arthritis_risk":5,"migraine_risk":7,"frizz_risk":0,"updated_at":"2026-05-30T22:40:28.893964+05:30"},{"city":"Bhopal","state":"Madhya Pradesh","latitude":23.2599,"longitude":77.4126,"temp":32.2,"humidity":34,"rain":0.0,"pressure":952.6,"uv_index":8.65,"wind_gusts":52.9,"aqi":73,"pm10":40.7,"pm2_5":24.3,"no2":8.3,"co":223.0,"o3":81.0,"so2":4.7,"mosquito_risk":0,"arthritis_risk":5,"migraine_risk":7,"frizz_risk":0,"updated_at":"2026-05-30T22:40:28.893970+05:30"},{"city":"Jabalpur","state":"Madhya Pradesh","latitude":23.1815,"longitude":79.9864,"temp":29.2,"humidity":61,"rain":0.0,"pressure":960.2,"uv_index":8.8,"wind_gusts":31.3,"aqi":68,"pm10":38.0,"pm2_5":21.3,"no2":8.8,"co":240.0,"o3":81.0,"so2":4.0,"mosquito_risk":7,"arthritis_risk":5,"migraine_risk":7,"frizz_risk":1,"updated_at":"2026-05-30T22:40:28.893977+05:30"},{"city":"Ujjain","state":"Madhya Pradesh","latitude":23.1765,"longitude":75.7885,"temp":31.0,"humidity":40,"rain":0.0,"pressure":952.6,"uv_index":8.55,"wind_gusts":46.8,"aqi":81,"pm10":56.7,"pm2_5":32.4,"no2":7.4,"co":259.0,"o3":67.0,"so2":4.9,"mosquito_risk":0,"arthritis_risk":5,"migraine_risk":7,"frizz_risk":0,"updated_at":"2026-05-30T22:40:28.893984+05:30"},{"city":"Visakhapatnam","state":"Andhra Pradesh","latitude":17.6868,"longitude":83.2185,"temp":31.4,"humidity":69,"rain":0.0,"pressure":1001.0,"uv_index":8.6,"wind_gusts":38.5,"aqi":106,"pm10":40.9,"pm2_5":33.3,"no2":29.5,"co":404.0,"o3":96.0,"so2":45.4,"mosquito_risk":3,"arthritis_risk":5,"migraine_risk":4,"frizz_risk":1,"updated_at":"2026-05-30T22:40:28.893992+05:30"},{"city":"Vijayawada","state":"Andhra Pradesh","latitude":16.5062,"longitude":80.648,"temp":31.6,"humidity":64,"rain":0.0,"pressure":1000.7,"uv_index":8.65,"wind_gusts":44.6,"aqi":87,"pm10":66.1,"pm2_5":56.8,"no2":30.4,"co":315.0,"o3":49.0,"so2":9.7,"mosquito_risk":3,"arthritis_risk":5,"migraine_risk":4,"frizz_risk":1,"updated_at":"2026-05-30T22:40:28.893999+05:30"},{"city":"Guntur","state":"Andhra Pradesh","latitude":16.3067,"longitude":80.4365,"temp":30.4,"humidity":68,"rain":0.0,"pressure":1001.9,"uv_index":8.65,"wind_gusts":33.1,"aqi":83,"pm10":79.9,"pm2_5":68.9,"no2":41.8,"co":284.0,"o3":39.0,"so2":10.5,"mosquito_risk":3,"arthritis_risk":5,"migraine_risk":4,"frizz_risk":1,"updated_at":"2026-05-30T22:40:28.894006+05:30"},{"city":"Nellore","state":"Andhra Pradesh","latitude":14.4426,"longitude":79.9865,"temp":29.9,"humidity":72,"rain":0.0,"pressure":1005.1,"uv_index":8.35,"wind_gusts":35.3,"aqi":76,"pm10":30.4,"pm2_5":25.0,"no2":13.7,"co":279.0,"o3":83.0,"so2":6.6,"mosquito_risk":7,"arthritis_risk":5,"migraine_risk":4,"frizz_risk":1,"updated_at":"2026-05-30T22:40:28.894014+05:30"},{"city":"Kurnool","state":"Andhra Pradesh","latitude":15.8281,"longitude":78.0373,"temp":28.4,"humidity":65,"rain":0.0,"pressure":977.4,"uv_index":9.0,"wind_gusts":41.4,"aqi":58,"pm10":21.8,"pm2_5":17.8,"no2":13.9,"co":252.0,"o3":76.0,"so2":6.9,"mosquito_risk":7,"arthritis_risk":5,"migraine_risk":7,"frizz_risk":1,"updated_at":"2026-05-30T22:40:28.894022+05:30"},{"city":"Kakinada","state":"Andhra Pradesh","latitude":16.9891,"longitude":82.2475,"temp":31.0,"humidity":68,"rain":0.0,"pressure":1004.7,"uv_index":7.5,"wind_gusts":38.5,"aqi":112,"pm10":30.9,"pm2_5":26.1,"no2":6.9,"co":394.0,"o3":119.0,"so2":5.8,"mosquito_risk":3,"arthritis_risk":5,"migraine_risk":4,"frizz_risk":1,"updated_at":"2026-05-30T22:40:28.894029+05:30"},{"city":"Tirupati","state":"Andhra Pradesh","latitude":13.6288,"longitude":79.4192,"temp":27.9,"humidity":71,"rain":0.0,"pressure":991.3,"uv_index":9.05,"wind_gusts":47.5,"aqi":72,"pm10":22.5,"pm2_5":19.4,"no2":23.1,"co":253.0,"o3":55.0,"so2":3.2,"mosquito_risk":7,"arthritis_risk":5,"migraine_risk":7,"frizz_risk":1,"updated_at":"2026-05-30T22:40:28.894036+05:30"},{"city":"Warangal","state":"Telangana","latitude":17.9689,"longitude":79.5941,"temp":30.1,"humidity":59,"rain":0.0,"pressure":976.9,"uv_index":9.05,"wind_gusts":45.7,"aqi":84,"pm10":58.9,"pm2_5":45.1,"no2":26.4,"co":510.0,"o3":43.0,"so2":6.7,"mosquito_risk":0,"arthritis_risk":5,"migraine_risk":7,"frizz_risk":1,"updated_at":"2026-05-30T22:40:28.894043+05:30"},{"city":"Nizamabad","state":"Telangana","latitude":18.6725,"longitude":78.0941,"temp":32.2,"humidity":39,"rain":0.0,"pressure":963.2,"uv_index":8.95,"wind_gusts":41.4,"aqi":79,"pm10":63.3,"pm2_5":34.9,"no2":19.1,"co":245.0,"o3":67.0,"so2":6.6,"mosquito_risk":0,"arthritis_risk":5,"migraine_risk":7,"frizz_risk":1,"updated_at":"2026-05-30T22:40:28.894051+05:30"},{"city":"Mysore","state":"Karnataka","latitude":12.2958,"longitude":76.6396,"temp":22.2,"humidity":93,"rain":0.1,"pressure":931.1,"uv_index":8.95,"wind_gusts":47.5,"aqi":45,"pm10":15.2,"pm2_5":13.9,"no2":19.9,"co":302.0,"o3":53.0,"so2":3.0,"mosquito_risk":6,"arthritis_risk":5,"migraine_risk":7,"frizz_risk":1,"updated_at":"2026-05-30T22:40:28.894058+05:30"},{"city":"Mangalore","state":"Karnataka","latitude":12.9141,"longitude":74.856,"temp":26.4,"humidity":94,"rain":0.0,"pressure":1009.3,"uv_index":8.35,"wind_gusts":33.5,"aqi":33,"pm10":13.9,"pm2_5":11.9,"no2":12.4,"co":411.0,"o3":40.0,"so2":3.4,"mosquito_risk":7,"arthritis_risk":0,"migraine_risk":4,"frizz_risk":1,"updated_at":"2026-05-30T22:40:28.894066+05:30"},{"city":"Hubli-Dharwad","state":"Karnataka","latitude":15.3647,"longitude":75.124,"temp":24.5,"humidity":90,"rain":0.0,"pressure":942.7,"uv_index":8.7,"wind_gusts":52.6,"aqi":34,"pm10":9.1,"pm2_5":7.0,"no2":5.8,"co":164.0,"o3":46.0,"so2":1.3,"mosquito_risk":3,"arthritis_risk":5,"migraine_risk":7,"frizz_risk":1,"updated_at":"2026-05-30T22:40:28.894074+05:30"},{"city":"Belgaum","state":"Karnataka","latitude":15.8497,"longitude":74.4977,"temp":24.1,"humidity":93,"rain":0.0,"pressure":927.4,"uv_index":8.6,"wind_gusts":39.2,"aqi":29,"pm10":11.6,"pm2_5":9.0,"no2":6.3,"co":145.0,"o3":45.0,"so2":1.7,"mosquito_risk":3,"arthritis_risk":5,"migraine_risk":7,"frizz_risk":1,"updated_at":"2026-05-30T22:40:32.133202+05:30"},{"city":"Coimbatore","state":"Tamil Nadu","latitude":11.0168,"longitude":76.9558,"temp":26.0,"humidity":82,"rain":0.0,"pressure":964.0,"uv_index":8.95,"wind_gusts":46.1,"aqi":35,"pm10":7.8,"pm2_5":7.4,"no2":8.9,"co":221.0,"o3":52.0,"so2":3.5,"mosquito_risk":7,"arthritis_risk":5,"migraine_risk":7,"frizz_risk":1,"updated_at":"2026-05-30T22:40:32.133234+05:30"},{"city":"Madurai","state":"Tamil Nadu","latitude":9.9252,"longitude":78.1198,"temp":29.9,"humidity":67,"rain":0.0,"pressure":994.0,"uv_index":8.6,"wind_gusts":28.1,"aqi":73,"pm10":46.7,"pm2_5":40.3,"no2":63.8,"co":216.0,"o3":0.0,"so2":9.5,"mosquito_risk":7,"arthritis_risk":5,"migraine_risk":7,"frizz_risk":1,"updated_at":"2026-05-30T22:40:32.133245+05:30"},{"city":"Trichy","state":"Tamil Nadu","latitude":10.7905,"longitude":78.7047,"temp":29.5,"humidity":66,"rain":0.0,"pressure":1001.1,"uv_index":8.8,"wind_gusts":41.4,"aqi":42,"pm10":24.9,"pm2_5":21.6,"no2":30.1,"co":343.0,"o3":28.0,"so2":6.0,"mosquito_risk":7,"arthritis_risk":5,"migraine_risk":4,"frizz_risk":1,"updated_at":"2026-05-30T22:40:32.133254+05:30"},{"city":"Salem","state":"Tamil Nadu","latitude":11.6643,"longitude":78.146,"temp":28.7,"humidity":61,"rain":0.0,"pressure":979.6,"uv_index":8.4,"wind_gusts":34.2,"aqi":86,"pm10":18.5,"pm2_5":13.7,"no2":14.1,"co":291.0,"o3":70.0,"so2":6.8,"mosquito_risk":7,"arthritis_risk":5,"migraine_risk":7,"frizz_risk":1,"updated_at":"2026-05-30T22:40:32.133263+05:30"},{"city":"Tirunelveli","state":"Tamil Nadu","latitude":8.7139,"longitude":77.7567,"temp":29.9,"humidity":64,"rain":0.0,"pressure":1004.3,"uv_index":8.5,"wind_gusts":33.8,"aqi":26,"pm10":8.5,"pm2_5":7.4,"no2":9.5,"co":168.0,"o3":35.0,"so2":2.1,"mosquito_risk":7,"arthritis_risk":5,"migraine_risk":4,"frizz_risk":1,"updated_at":"2026-05-30T22:40:32.133271+05:30"},{"city":"Vellore","state":"Tamil Nadu","latitude":12.9165,"longitude":79.1325,"temp":27.0,"humidity":84,"rain":0.0,"pressure":984.9,"uv_index":8.85,"wind_gusts":41.4,"aqi":75,"pm10":28.1,"pm2_5":23.8,"no2":15.4,"co":262.0,"o3":68.0,"so2":4.0,"mosquito_risk":7,"arthritis_risk":5,"migraine_risk":7,"frizz_risk":1,"updated_at":"2026-05-30T22:40:32.133280+05:30"},{"city":"Erode","state":"Tamil Nadu","latitude":11.341,"longitude":77.7172,"temp":26.9,"humidity":79,"rain":0.0,"pressure":991.2,"uv_index":8.85,"wind_gusts":35.3,"aqi":42,"pm10":13.1,"pm2_5":11.5,"no2":17.6,"co":385.0,"o3":44.0,"so2":4.2,"mosquito_risk":7,"arthritis_risk":5,"migraine_risk":7,"frizz_risk":1,"updated_at":"2026-05-30T22:40:32.133288+05:30"},{"city":"Kochi","state":"Kerala","latitude":9.9312,"longitude":76.2673,"temp":26.7,"humidity":92,"rain":0.1,"pressure":1011.5,"uv_index":8.05,"wind_gusts":24.5,"aqi":44,"pm10":25.3,"pm2_5":24.1,"no2":33.8,"co":261.0,"o3":9.0,"so2":7.4,"mosquito_risk":10,"arthritis_risk":0,"migraine_risk":4,"frizz_risk":1,"updated_at":"2026-05-30T22:40:32.133297+05:30"},{"city":"Thiruvananthapuram","state":"Kerala","latitude":8.5241,"longitude":76.9366,"temp":25.7,"humidity":93,"rain":0.1,"pressure":1011.2,"uv_index":7.65,"wind_gusts":31.7,"aqi":26,"pm10":8.6,"pm2_5":4.9,"no2":2.0,"co":243.0,"o3":50.0,"so2":0.6,"mosquito_risk":10,"arthritis_risk":0,"migraine_risk":4,"frizz_risk":1,"updated_at":"2026-05-30T22:40:32.133305+05:30"},{"city":"Kozhikode","state":"Kerala","latitude":11.2588,"longitude":75.7804,"temp":26.0,"humidity":100,"rain":0.0,"pressure":1010.5,"uv_index":8.5,"wind_gusts":26.6,"aqi":32,"pm10":5.6,"pm2_5":4.0,"no2":2.3,"co":456.0,"o3":65.0,"so2":1.1,"mosquito_risk":7,"arthritis_risk":0,"migraine_risk":4,"frizz_risk":1,"updated_at":"2026-05-30T22:40:32.133313+05:30"},{"city":"Thrissur","state":"Kerala","latitude":10.5276,"longitude":76.2144,"temp":25.9,"humidity":93,"rain":0.0,"pressure":1009.8,"uv_index":8.15,"wind_gusts":25.9,"aqi":38,"pm10":18.6,"pm2_5":17.7,"no2":21.8,"co":376.0,"o3":20.0,"so2":6.2,"mosquito_risk":7,"arthritis_risk":0,"migraine_risk":4,"frizz_risk":1,"updated_at":"2026-05-30T22:40:32.133322+05:30"},{"city":"Kannur","state":"Kerala","latitude":11.8745,"longitude":75.3704,"temp":26.6,"humidity":96,"rain":0.0,"pressure":1009.9,"uv_index":8.3,"wind_gusts":30.6,"aqi":29,"pm10":15.1,"pm2_5":13.6,"no2":19.7,"co":356.0,"o3":30.0,"so2":3.4,"mosquito_risk":7,"arthritis_risk":0,"migraine_risk":4,"frizz_risk":1,"updated_at":"2026-05-30T22:40:32.133330+05:30"},{"city":"Patna","state":"Bihar","latitude":25.5941,"longitude":85.1376,"temp":27.2,"humidity":80,"rain":0.0,"pressure":1000.3,"uv_index":8.7,"wind_gusts":30.6,"aqi":145,"pm10":59.4,"pm2_5":53.1,"no2":18.6,"co":552.0,"o3":105.0,"so2":16.8,"mosquito_risk":7,"arthritis_risk":5,"migraine_risk":4,"frizz_risk":1,"updated_at":"2026-05-30T22:40:32.133337+05:30"},{"city":"Gaya","state":"Bihar","latitude":24.7914,"longitude":85.0002,"temp":27.6,"humidity":71,"rain":0.0,"pressure":993.3,"uv_index":8.8,"wind_gusts":26.6,"aqi":164,"pm10":68.0,"pm2_5":60.8,"no2":9.9,"co":488.0,"o3":143.0,"so2":18.1,"mosquito_risk":7,"arthritis_risk":5,"migraine_risk":7,"frizz_risk":1,"updated_at":"2026-05-30T22:40:32.133344+05:30"},{"city":"Muzaffarpur","state":"Bihar","latitude":26.1209,"longitude":85.3647,"temp":26.6,"humidity":82,"rain":0.0,"pressure":1000.6,"uv_index":8.05,"wind_gusts":36.7,"aqi":134,"pm10":53.0,"pm2_5":48.9,"no2":21.0,"co":463.0,"o3":93.0,"so2":14.9,"mosquito_risk":7,"arthritis_risk":5,"migraine_risk":4,"frizz_risk":1,"updated_at":"2026-05-30T22:40:32.133352+05:30"},{"city":"Bhagalpur","state":"Bihar","latitude":25.2425,"longitude":87.0117,"temp":27.7,"humidity":82,"rain":0.0,"pressure":1001.1,"uv_index":8.7,"wind_gusts":21.6,"aqi":152,"pm10":99.9,"pm2_5":69.2,"no2":21.1,"co":412.0,"o3":100.0,"so2":21.0,"mosquito_risk":7,"arthritis_risk":5,"migraine_risk":4,"frizz_risk":1,"updated_at":"2026-05-30T22:40:32.133359+05:30"},{"city":"Ranchi","state":"Jharkhand","latitude":23.3441,"longitude":85.3096,"temp":24.1,"humidity":83,"rain":0.0,"pressure":937.7,"uv_index":9.25,"wind_gusts":26.3,"aqi":146,"pm10":50.3,"pm2_5":40.0,"no2":8.3,"co":326.0,"o3":128.0,"so2":8.0,"mosquito_risk":3,"arthritis_risk":5,"migraine_risk":7,"frizz_risk":1,"updated_at":"2026-05-30T22:40:32.133367+05:30"},{"city":"Jamshedpur","state":"Jharkhand","latitude":22.8046,"longitude":86.2029,"temp":26.5,"humidity":90,"rain":0.0,"pressure":990.9,"uv_index":9.05,"wind_gusts":24.1,"aqi":129,"pm10":43.1,"pm2_5":35.5,"no2":15.7,"co":500.0,"o3":71.0,"so2":12.8,"mosquito_risk":7,"arthritis_risk":5,"migraine_risk":7,"frizz_risk":1,"updated_at":"2026-05-30T22:40:32.133375+05:30"},{"city":"Dhanbad","state":"Jharkhand","latitude":23.7957,"longitude":86.4304,"temp":26.5,"humidity":89,"rain":0.0,"pressure":980.0,"uv_index":9.05,"wind_gusts":22.3,"aqi":161,"pm10":84.3,"pm2_5":75.9,"no2":51.1,"co":605.0,"o3":56.0,"so2":111.5,"mosquito_risk":7,"arthritis_risk":5,"migraine_risk":7,"frizz_risk":1,"updated_at":"2026-05-30T22:40:32.133383+05:30"},{"city":"Bokaro","state":"Jharkhand","latitude":23.6693,"longitude":86.1511,"temp":26.8,"humidity":85,"rain":0.0,"pressure":983.8,"uv_index":9.05,"wind_gusts":24.5,"aqi":165,"pm10":84.8,"pm2_5":75.4,"no2":41.0,"co":1422.0,"o3":80.0,"so2":106.5,"mosquito_risk":7,"arthritis_risk":5,"migraine_risk":7,"frizz_risk":1,"updated_at":"2026-05-30T22:40:32.133390+05:30"},{"city":"Bhubaneswar","state":"Odisha","latitude":20.2961,"longitude":85.8245,"temp":26.4,"humidity":92,"rain":0.0,"pressure":1001.2,"uv_index":9.0,"wind_gusts":38.9,"aqi":102,"pm10":33.8,"pm2_5":27.0,"no2":10.3,"co":466.0,"o3":71.0,"so2":5.1,"mosquito_risk":7,"arthritis_risk":5,"migraine_risk":4,"frizz_risk":1,"updated_at":"2026-05-30T22:40:32.133397+05:30"},{"city":"Cuttack","state":"Odisha","latitude":20.4625,"longitude":85.8828,"temp":27.2,"humidity":92,"rain":0.0,"pressure":1003.1,"uv_index":9.05,"wind_gusts":38.2,"aqi":102,"pm10":33.8,"pm2_5":27.0,"no2":10.3,"co":411.0,"o3":71.0,"so2":5.1,"mosquito_risk":7,"arthritis_risk":5,"migraine_risk":4,"frizz_risk":1,"updated_at":"2026-05-30T22:40:32.133405+05:30"},{"city":"Rourkela","state":"Odisha","latitude":22.2604,"longitude":84.8536,"temp":27.4,"humidity":82,"rain":0.0,"pressure":984.6,"uv_index":8.95,"wind_gusts":34.2,"aqi":149,"pm10":45.2,"pm2_5":36.8,"no2":11.2,"co":587.0,"o3":117.0,"so2":12.0,"mosquito_risk":7,"arthritis_risk":5,"migraine_risk":7,"frizz_risk":1,"updated_at":"2026-05-30T22:40:32.133431+05:30"},{"city":"Raipur","state":"Chhattisgarh","latitude":21.2514,"longitude":81.6296,"temp":28.5,"humidity":63,"rain":0.0,"pressure":973.3,"uv_index":8.95,"wind_gusts":57.2,"aqi":130,"pm10":53.2,"pm2_5":40.2,"no2":28.1,"co":274.0,"o3":89.0,"so2":42.0,"mosquito_risk":7,"arthritis_risk":5,"migraine_risk":7,"frizz_risk":1,"updated_at":"2026-05-30T22:40:32.133441+05:30"},{"city":"Bhilai","state":"Chhattisgarh","latitude":21.1938,"longitude":81.3509,"temp":28.5,"humidity":59,"rain":0.0,"pressure":973.9,"uv_index":8.95,"wind_gusts":51.8,"aqi":130,"pm10":55.5,"pm2_5":37.4,"no2":29.3,"co":295.0,"o3":75.0,"so2":40.7,"mosquito_risk":4,"arthritis_risk":5,"migraine_risk":7,"frizz_risk":1,"updated_at":"2026-05-30T22:40:32.133449+05:30"},{"city":"Guwahati","state":"Assam","latitude":26.1158,"longitude":91.7086,"temp":26.1,"humidity":92,"rain":0.0,"pressure":1001.5,"uv_index":8.7,"wind_gusts":21.6,"aqi":87,"pm10":49.9,"pm2_5":36.4,"no2":16.6,"co":460.0,"o3":30.0,"so2":2.3,"mosquito_risk":7,"arthritis_risk":5,"migraine_risk":4,"frizz_risk":1,"updated_at":"2026-05-30T22:40:32.133456+05:30"},{"city":"Agartala","state":"Tripura","latitude":23.8315,"longitude":91.2868,"temp":27.2,"humidity":82,"rain":0.0,"pressure":1006.1,"uv_index":8.85,"wind_gusts":20.5,"aqi":164,"pm10":177.9,"pm2_5":151.3,"no2":71.5,"co":659.0,"o3":42.0,"so2":17.3,"mosquito_risk":7,"arthritis_risk":5,"migraine_risk":4,"frizz_risk":1,"updated_at":"2026-05-30T22:40:32.133465+05:30"},{"city":"Shillong","state":"Meghalaya","latitude":25.5788,"longitude":91.8933,"temp":18.6,"humidity":89,"rain":0.0,"pressure":858.1,"uv_index":8.05,"wind_gusts":28.8,"aqi":77,"pm10":37.0,"pm2_5":21.9,"no2":14.9,"co":397.0,"o3":42.0,"so2":2.3,"mosquito_risk":3,"arthritis_risk":10,"migraine_risk":7,"frizz_risk":1,"updated_at":"2026-05-30T22:40:32.133473+05:30"},{"city":"Imphal","state":"Manipur","latitude":24.817,"longitude":93.9368,"temp":22.6,"humidity":96,"rain":0.0,"pressure":924.5,"uv_index":8.95,"wind_gusts":20.2,"aqi":108,"pm10":41.9,"pm2_5":30.5,"no2":18.3,"co":425.0,"o3":37.0,"so2":3.4,"mosquito_risk":3,"arthritis_risk":5,"migraine_risk":7,"frizz_risk":1,"updated_at":"2026-05-30T22:40:32.133481+05:30"},{"city":"Aizawl","state":"Mizoram","latitude":23.7271,"longitude":92.7176,"temp":20.5,"humidity":98,"rain":0.0,"pressure":892.5,"uv_index":9.1,"wind_gusts":20.5,"aqi":63,"pm10":30.0,"pm2_5":22.2,"no2":23.1,"co":398.0,"o3":31.0,"so2":3.0,"mosquito_risk":3,"arthritis_risk":5,"migraine_risk":7,"frizz_risk":1,"updated_at":"2026-05-30T22:40:32.133488+05:30"},{"city":"Kohima","state":"Nagaland","latitude":25.6701,"longitude":94.1077,"temp":19.5,"humidity":98,"rain":0.0,"pressure":857.1,"uv_index":7.4,"wind_gusts":19.1,"aqi":78,"pm10":26.7,"pm2_5":18.6,"no2":16.8,"co":424.0,"o3":36.0,"so2":1.6,"mosquito_risk":3,"arthritis_risk":10,"migraine_risk":7,"frizz_risk":1,"updated_at":"2026-05-30T22:40:32.133496+05:30"},{"city":"Gangtok","state":"Sikkim","latitude":27.3314,"longitude":88.6138,"temp":16.7,"humidity":79,"rain":0.0,"pressure":839.3,"uv_index":9.15,"wind_gusts":34.2,"aqi":64,"pm10":39.0,"pm2_5":24.4,"no2":19.7,"co":499.0,"o3":75.0,"so2":2.2,"mosquito_risk":3,"arthritis_risk":5,"migraine_risk":7,"frizz_risk":0,"updated_at":"2026-05-30T22:40:32.133504+05:30"},{"city":"Siliguri","state":"West Bengal","latitude":26.7271,"longitude":88.3953,"temp":26.5,"humidity":71,"rain":0.0,"pressure":993.6,"uv_index":8.7,"wind_gusts":50.4,"aqi":111,"pm10":94.5,"pm2_5":59.6,"no2":26.1,"co":1104.0,"o3":87.0,"so2":7.8,"mosquito_risk":7,"arthritis_risk":5,"migraine_risk":7,"frizz_risk":1,"updated_at":"2026-05-30T22:40:35.401646+05:30"},{"city":"Durgapur","state":"West Bengal","latitude":23.5204,"longitude":87.3119,"temp":26.8,"humidity":92,"rain":0.0,"pressure":995.1,"uv_index":8.9,"wind_gusts":28.4,"aqi":162,"pm10":68.5,"pm2_5":62.4,"no2":30.1,"co":742.0,"o3":80.0,"so2":36.3,"mosquito_risk":7,"arthritis_risk":5,"migraine_risk":7,"frizz_risk":1,"updated_at":"2026-05-30T22:40:35.401678+05:30"},{"city":"Asansol","state":"West Bengal","latitude":23.6739,"longitude":86.9524,"temp":26.4,"humidity":92,"rain":0.0,"pressure":993.6,"uv_index":8.95,"wind_gusts":31.3,"aqi":159,"pm10":70.1,"pm2_5":62.6,"no2":35.8,"co":569.0,"o3":73.0,"so2":50.8,"mosquito_risk":7,"arthritis_risk":5,"migraine_risk":7,"frizz_risk":1,"updated_at":"2026-05-30T22:40:35.401689+05:30"},{"city":"Pondicherry","state":"Puducherry","latitude":11.9139,"longitude":79.8145,"temp":28.0,"humidity":78,"rain":0.0,"pressure":1008.8,"uv_index":8.9,"wind_gusts":64.1,"aqi":116,"pm10":20.4,"pm2_5":15.6,"no2":11.0,"co":240.0,"o3":64.0,"so2":6.8,"mosquito_risk":7,"arthritis_risk":0,"migraine_risk":4,"frizz_risk":1,"updated_at":"2026-05-30T22:40:35.401698+05:30"},{"city":"Port Blair","state":"Andaman and Nicobar Islands","latitude":11.6234,"longitude":92.7265,"temp":25.8,"humidity":94,"rain":0.0,"pressure":1008.2,"uv_index":8.7,"wind_gusts":36.0,"aqi":33,"pm10":11.0,"pm2_5":6.4,"no2":0.3,"co":126.0,"o3":71.0,"so2":0.4,"mosquito_risk":7,"arthritis_risk":0,"migraine_risk":4,"frizz_risk":1,"updated_at":"2026-05-30T22:40:35.401706+05:30"},{"city":"Haridwar","state":"Uttarakhand","latitude":29.9457,"longitude":78.1642,"temp":24.2,"humidity":78,"rain":0.0,"pressure":974.1,"uv_index":7.5,"wind_gusts":59.4,"aqi":101,"pm10":55.1,"pm2_5":43.7,"no2":33.3,"co":395.0,"o3":45.0,"so2":7.1,"mosquito_risk":3,"arthritis_risk":5,"migraine_risk":7,"frizz_risk":1,"updated_at":"2026-05-30T22:40:35.401715+05:30"},{"city":"Rishikesh","state":"Uttarakhand","latitude":30.0869,"longitude":78.2676,"temp":22.9,"humidity":75,"rain":0.0,"pressure":966.7,"uv_index":7.6,"wind_gusts":57.6,"aqi":115,"pm10":45.3,"pm2_5":29.8,"no2":20.4,"co":430.0,"o3":84.0,"so2":4.2,"mosquito_risk":3,"arthritis_risk":5,"migraine_risk":7,"frizz_risk":1,"updated_at":"2026-05-30T22:40:35.401723+05:30"},{"city":"Nainital","state":"Uttarakhand","latitude":29.3919,"longitude":79.4542,"temp":12.2,"humidity":91,"rain":0.0,"pressure":804.2,"uv_index":7.85,"wind_gusts":33.8,"aqi":125,"pm10":24.6,"pm2_5":18.6,"no2":12.3,"co":370.0,"o3":108.0,"so2":2.9,"mosquito_risk":3,"arthritis_risk":10,"migraine_risk":7,"frizz_risk":0,"updated_at":"2026-05-30T22:40:35.401730+05:30"},{"city":"Mussoorie","state":"Uttarakhand","latitude":30.4599,"longitude":78.0664,"temp":13.6,"humidity":77,"rain":0.0,"pressure":802.4,"uv_index":8.0,"wind_gusts":49.0,"aqi":115,"pm10":58.8,"pm2_5":35.6,"no2":37.0,"co":391.0,"o3":81.0,"so2":7.4,"mosquito_risk":3,"arthritis_risk":5,"migraine_risk":7,"frizz_risk":0,"updated_at":"2026-05-30T22:40:35.401738+05:30"},{"city":"Dharamshala","state":"Himachal Pradesh","latitude":32.219,"longitude":76.3234,"temp":19.9,"humidity":53,"rain":0.0,"pressure":869.7,"uv_index":5.25,"wind_gusts":32.0,"aqi":78,"pm10":15.7,"pm2_5":11.6,"no2":17.6,"co":237.0,"o3":59.0,"so2":0.3,"mosquito_risk":0,"arthritis_risk":5,"migraine_risk":3,"frizz_risk":0,"updated_at":"2026-05-30T22:40:35.401745+05:30"},{"city":"Dalhousie","state":"Himachal Pradesh","latitude":32.5387,"longitude":75.971,"temp":12.8,"humidity":79,"rain":0.0,"pressure":803.5,"uv_index":7.3,"wind_gusts":25.9,"aqi":117,"pm10":57.3,"pm2_5":30.9,"no2":44.6,"co":594.0,"o3":65.0,"so2":3.1,"mosquito_risk":3,"arthritis_risk":5,"migraine_risk":7,"frizz_risk":0,"updated_at":"2026-05-30T22:40:35.401753+05:30"},{"city":"Patiala","state":"Punjab","latitude":30.3398,"longitude":76.3869,"temp":24.1,"humidity":74,"rain":0.0,"pressure":978.1,"uv_index":7.6,"wind_gusts":54.4,"aqi":897,"pm10":506.6,"pm2_5":85.7,"no2":10.8,"co":559.0,"o3":113.0,"so2":8.4,"mosquito_risk":3,"arthritis_risk":5,"migraine_risk":7,"frizz_risk":1,"updated_at":"2026-05-30T22:40:35.401761+05:30"},{"city":"Bhatinda","state":"Punjab","latitude":30.211,"longitude":74.9455,"temp":25.5,"humidity":61,"rain":0.0,"pressure":983.2,"uv_index":8.2,"wind_gusts":65.5,"aqi":931,"pm10":692.9,"pm2_5":159.3,"no2":19.5,"co":359.0,"o3":82.0,"so2":10.6,"mosquito_risk":7,"arthritis_risk":5,"migraine_risk":7,"frizz_risk":1,"updated_at":"2026-05-30T22:40:35.401768+05:30"},{"city":"Rohtak","state":"Haryana","latitude":28.8955,"longitude":76.6066,"temp":24.3,"humidity":79,"rain":0.0,"pressure":981.1,"uv_index":7.65,"wind_gusts":62.6,"aqi":676,"pm10":238.4,"pm2_5":85.0,"no2":44.3,"co":480.0,"o3":78.0,"so2":19.4,"mosquito_risk":3,"arthritis_risk":5,"migraine_risk":7,"frizz_risk":1,"updated_at":"2026-05-30T22:40:35.401775+05:30"},{"city":"Panipat","state":"Haryana","latitude":29.3909,"longitude":76.9635,"temp":24.0,"humidity":80,"rain":0.0,"pressure":980.1,"uv_index":7.5,"wind_gusts":61.6,"aqi":1209,"pm10":153.7,"pm2_5":62.4,"no2":26.3,"co":434.0,"o3":89.0,"so2":15.8,"mosquito_risk":3,"arthritis_risk":5,"migraine_risk":7,"frizz_risk":1,"updated_at":"2026-05-30T22:40:35.401782+05:30"},{"city":"Mathura","state":"Uttar Pradesh","latitude":27.4924,"longitude":77.6737,"temp":24.9,"humidity":79,"rain":0.0,"pressure":986.3,"uv_index":7.9,"wind_gusts":39.6,"aqi":308,"pm10":327.8,"pm2_5":80.1,"no2":35.3,"co":422.0,"o3":57.0,"so2":8.1,"mosquito_risk":3,"arthritis_risk":5,"migraine_risk":7,"frizz_risk":1,"updated_at":"2026-05-30T22:40:35.401789+05:30"},{"city":"Vrindavan","state":"Uttar Pradesh","latitude":27.5823,"longitude":77.7027,"temp":25.2,"humidity":76,"rain":0.0,"pressure":986.9,"uv_index":7.9,"wind_gusts":52.2,"aqi":308,"pm10":327.8,"pm2_5":80.1,"no2":35.3,"co":413.0,"o3":57.0,"so2":8.1,"mosquito_risk":7,"arthritis_risk":5,"migraine_risk":7,"frizz_risk":1,"updated_at":"2026-05-30T22:40:35.401796+05:30"},{"city":"Ayodhya","state":"Uttar Pradesh","latitude":26.7922,"longitude":82.1998,"temp":25.8,"humidity":76,"rain":0.0,"pressure":995.7,"uv_index":8.25,"wind_gusts":34.6,"aqi":78,"pm10":48.9,"pm2_5":40.6,"no2":29.9,"co":326.0,"o3":60.0,"so2":8.2,"mosquito_risk":7,"arthritis_risk":5,"migraine_risk":7,"frizz_risk":1,"updated_at":"2026-05-30T22:40:35.401803+05:30"},{"city":"Ratlam","state":"Madhya Pradesh","latitude":23.3315,"longitude":75.0367,"temp":27.6,"humidity":56,"rain":0.0,"pressure":953.2,"uv_index":8.45,"wind_gusts":48.2,"aqi":81,"pm10":54.2,"pm2_5":32.7,"no2":5.4,"co":191.0,"o3":73.0,"so2":4.8,"mosquito_risk":4,"arthritis_risk":5,"migraine_risk":7,"frizz_risk":1,"updated_at":"2026-05-30T22:40:35.401811+05:30"},{"city":"Sagar","state":"Madhya Pradesh","latitude":23.8388,"longitude":78.7378,"temp":29.2,"humidity":53,"rain":0.0,"pressure":949.3,"uv_index":8.7,"wind_gusts":33.8,"aqi":66,"pm10":25.8,"pm2_5":15.8,"no2":6.3,"co":205.0,"o3":94.0,"so2":4.0,"mosquito_risk":4,"arthritis_risk":5,"migraine_risk":7,"frizz_risk":1,"updated_at":"2026-05-30T22:40:35.401818+05:30"},{"city":"Satna","state":"Madhya Pradesh","latitude":24.6005,"longitude":80.8322,"temp":28.3,"humidity":55,"rain":0.0,"pressure":970.5,"uv_index":8.7,"wind_gusts":27.7,"aqi":96,"pm10":31.8,"pm2_5":23.8,"no2":7.8,"co":277.0,"o3":132.0,"so2":7.8,"mosquito_risk":4,"arthritis_risk":5,"migraine_risk":7,"frizz_risk":1,"updated_at":"2026-05-30T22:40:35.401825+05:30"},{"city":"Akola","state":"Maharashtra","latitude":20.7002,"longitude":77.0082,"temp":35.2,"humidity":29,"rain":0.0,"pressure":973.2,"uv_index":8.8,"wind_gusts":52.2,"aqi":76,"pm10":48.4,"pm2_5":26.3,"no2":9.1,"co":188.0,"o3":76.0,"so2":6.5,"mosquito_risk":0,"arthritis_risk":5,"migraine_risk":10,"frizz_risk":0,"updated_at":"2026-05-30T22:40:35.401833+05:30"},{"city":"Amravati","state":"Maharashtra","latitude":20.9374,"longitude":77.7796,"temp":33.5,"humidity":34,"rain":0.0,"pressure":965.8,"uv_index":8.8,"wind_gusts":48.2,"aqi":76,"pm10":52.2,"pm2_5":26.9,"no2":10.2,"co":209.0,"o3":73.0,"so2":6.9,"mosquito_risk":0,"arthritis_risk":5,"migraine_risk":7,"frizz_risk":0,"updated_at":"2026-05-30T22:40:35.401842+05:30"},{"city":"Latur","state":"Maharashtra","latitude":18.4088,"longitude":76.5604,"temp":30.8,"humidity":37,"rain":0.0,"pressure":939.2,"uv_index":8.95,"wind_gusts":37.8,"aqi":54,"pm10":27.1,"pm2_5":17.3,"no2":7.7,"co":300.0,"o3":79.0,"so2":3.7,"mosquito_risk":0,"arthritis_risk":5,"migraine_risk":7,"frizz_risk":0,"updated_at":"2026-05-30T22:40:35.401849+05:30"},{"city":"Nanded","state":"Maharashtra","latitude":19.1383,"longitude":77.3091,"temp":34.2,"humidity":35,"rain":0.0,"pressure":967.0,"uv_index":8.85,"wind_gusts":41.0,"aqi":75,"pm10":46.8,"pm2_5":25.3,"no2":10.3,"co":258.0,"o3":73.0,"so2":3.8,"mosquito_risk":0,"arthritis_risk":5,"migraine_risk":7,"frizz_risk":1,"updated_at":"2026-05-30T22:40:35.401856+05:30"},{"city":"Gulbarga","state":"Karnataka","latitude":17.3297,"longitude":76.8343,"temp":31.6,"humidity":38,"rain":0.0,"pressure":958.2,"uv_index":8.85,"wind_gusts":40.3,"aqi":49,"pm10":20.5,"pm2_5":15.4,"no2":14.5,"co":265.0,"o3":65.0,"so2":2.7,"mosquito_risk":0,"arthritis_risk":5,"migraine_risk":7,"frizz_risk":0,"updated_at":"2026-05-30T22:40:35.401863+05:30"},{"city":"Bidar","state":"Karnataka","latitude":17.9104,"longitude":77.5199,"temp":29.0,"humidity":53,"rain":0.0,"pressure":934.7,"uv_index":8.9,"wind_gusts":40.0,"aqi":66,"pm10":39.6,"pm2_5":32.7,"no2":39.4,"co":403.0,"o3":31.0,"so2":4.8,"mosquito_risk":4,"arthritis_risk":5,"migraine_risk":7,"frizz_risk":1,"updated_at":"2026-05-30T22:40:35.401870+05:30"},{"city":"Hospet","state":"Karnataka","latitude":15.2689,"longitude":76.3909,"temp":23.1,"humidity":94,"rain":0.0,"pressure":957.3,"uv_index":8.95,"wind_gusts":47.2,"aqi":42,"pm10":10.3,"pm2_5":8.8,"no2":8.8,"co":186.0,"o3":57.0,"so2":1.7,"mosquito_risk":3,"arthritis_risk":5,"migraine_risk":7,"frizz_risk":1,"updated_at":"2026-05-30T22:40:35.401877+05:30"},{"city":"Tirupur","state":"Tamil Nadu","latitude":11.1085,"longitude":77.3411,"temp":26.8,"humidity":79,"rain":0.0,"pressure":977.8,"uv_index":9.0,"wind_gusts":42.5,"aqi":39,"pm10":15.7,"pm2_5":13.7,"no2":20.2,"co":241.0,"o3":41.0,"so2":5.0,"mosquito_risk":7,"arthritis_risk":5,"migraine_risk":7,"frizz_risk":1,"updated_at":"2026-05-30T22:40:35.401884+05:30"},{"city":"Alappuzha","state":"Kerala","latitude":9.4981,"longitude":76.3388,"temp":26.8,"humidity":88,"rain":0.0,"pressure":1011.6,"uv_index":8.1,"wind_gusts":28.4,"aqi":32,"pm10":18.0,"pm2_5":16.1,"no2":14.1,"co":98.0,"o3":41.0,"so2":3.2,"mosquito_risk":7,"arthritis_risk":0,"migraine_risk":4,"frizz_risk":1,"updated_at":"2026-05-30T22:40:35.401892+05:30"},{"city":"Munnar","state":"Kerala","latitude":10.0889,"longitude":77.0595,"temp":18.0,"humidity":100,"rain":0.0,"pressure":858.7,"uv_index":5.95,"wind_gusts":28.4,"aqi":26,"pm10":9.1,"pm2_5":8.8,"no2":12.1,"co":182.0,"o3":31.0,"so2":1.8,"mosquito_risk":3,"arthritis_risk":10,"migraine_risk":3,"frizz_risk":1,"updated_at":"2026-05-30T22:40:35.401899+05:30"},{"city":"Silchar","state":"Assam","latitude":24.8333,"longitude":92.7789,"temp":27.3,"humidity":92,"rain":0.1,"pressure":1004.9,"uv_index":7.8,"wind_gusts":20.9,"aqi":139,"pm10":70.3,"pm2_5":55.1,"no2":12.7,"co":485.0,"o3":90.0,"so2":9.5,"mosquito_risk":10,"arthritis_risk":5,"migraine_risk":4,"frizz_risk":1,"updated_at":"2026-05-30T22:40:35.401907+05:30"},{"city":"Dibrugarh","state":"Assam","latitude":27.4728,"longitude":94.912,"temp":27.9,"humidity":86,"rain":0.0,"pressure":995.6,"uv_index":1.25,"wind_gusts":18.7,"aqi":111,"pm10":58.2,"pm2_5":49.6,"no2":28.2,"co":703.0,"o3":29.0,"so2":3.8,"mosquito_risk":7,"arthritis_risk":5,"migraine_risk":3,"frizz_risk":1,"updated_at":"2026-05-30T22:40:35.401914+05:30"}]