[{"city":"Delhi","state":"Delhi","latitude":28.6139,"longitude":77.209,"temp":35.5,"humidity":49,"rain":0.0,"pressure":974.5,"uv_index":7.75,"wind_gusts":37.1,"aqi":165,"pm10":285.9,"pm2_5":116.4,"no2":52.2,"co":650.0,"o3":50.0,"so2":30.3,"mosquito_risk":0,"arthritis_risk":5,"migraine_risk":10,"frizz_risk":1,"updated_at":"2026-06-29T00:54:30.786958+05:30"},{"city":"Mumbai","state":"Maharashtra","latitude":19.076,"longitude":72.8777,"temp":25.4,"humidity":94,"rain":0.2,"pressure":1005.0,"uv_index":1.85,"wind_gusts":35.3,"aqi":54,"pm10":18.4,"pm2_5":10.4,"no2":9.0,"co":299.0,"o3":44.0,"so2":7.2,"mosquito_risk":10,"arthritis_risk":5,"migraine_risk":0,"frizz_risk":1,"updated_at":"2026-06-29T00:54:30.786993+05:30"},{"city":"Bangalore","state":"Karnataka","latitude":12.9716,"longitude":77.5946,"temp":21.9,"humidity":89,"rain":0.0,"pressure":909.8,"uv_index":8.45,"wind_gusts":56.5,"aqi":33,"pm10":3.7,"pm2_5":3.6,"no2":9.5,"co":180.0,"o3":35.0,"so2":3.9,"mosquito_risk":3,"arthritis_risk":5,"migraine_risk":7,"frizz_risk":1,"updated_at":"2026-06-29T00:54:30.787008+05:30"},{"city":"Hyderabad","state":"Telangana","latitude":17.385,"longitude":78.4867,"temp":23.8,"humidity":95,"rain":0.0,"pressure":949.1,"uv_index":5.3,"wind_gusts":36.4,"aqi":52,"pm10":11.6,"pm2_5":10.7,"no2":13.5,"co":253.0,"o3":46.0,"so2":8.9,"mosquito_risk":3,"arthritis_risk":5,"migraine_risk":3,"frizz_risk":1,"updated_at":"2026-06-29T00:54:30.787017+05:30"},{"city":"Chennai","state":"Tamil Nadu","latitude":13.0827,"longitude":80.2707,"temp":26.2,"humidity":96,"rain":0.3,"pressure":1005.0,"uv_index":8.4,"wind_gusts":45.7,"aqi":64,"pm10":11.9,"pm2_5":10.0,"no2":9.3,"co":263.0,"o3":81.0,"so2":7.9,"mosquito_risk":10,"arthritis_risk":5,"migraine_risk":4,"frizz_risk":1,"updated_at":"2026-06-29T00:54:30.787026+05:30"},{"city":"Kolkata","state":"West Bengal","latitude":22.5726,"longitude":88.3639,"temp":28.3,"humidity":92,"rain":0.0,"pressure":999.5,"uv_index":8.9,"wind_gusts":30.2,"aqi":71,"pm10":31.8,"pm2_5":28.9,"no2":8.2,"co":247.0,"o3":101.0,"so2":8.5,"mosquito_risk":7,"arthritis_risk":5,"migraine_risk":7,"frizz_risk":1,"updated_at":"2026-06-29T00:54:30.787038+05:30"},{"city":"Pune","state":"Maharashtra","latitude":18.5204,"longitude":73.8567,"temp":23.5,"humidity":93,"rain":0.0,"pressure":944.3,"uv_index":5.45,"wind_gusts":38.9,"aqi":36,"pm10":5.4,"pm2_5":4.8,"no2":10.2,"co":140.0,"o3":34.0,"so2":7.2,"mosquito_risk":3,"arthritis_risk":5,"migraine_risk":3,"frizz_risk":1,"updated_at":"2026-06-29T00:54:30.787045+05:30"},{"city":"Ahmedabad","state":"Gujarat","latitude":23.0225,"longitude":72.5714,"temp":32.7,"humidity":55,"rain":0.0,"pressure":995.9,"uv_index":7.85,"wind_gusts":44.3,"aqi":68,"pm10":23.1,"pm2_5":13.9,"no2":5.5,"co":141.0,"o3":61.0,"so2":4.2,"mosquito_risk":0,"arthritis_risk":5,"migraine_risk":7,"frizz_risk":1,"updated_at":"2026-06-29T00:54:30.787052+05:30"},{"city":"Jaipur","state":"Rajasthan","latitude":26.9124,"longitude":75.7873,"temp":28.1,"humidity":71,"rain":0.0,"pressure":953.1,"uv_index":8.2,"wind_gusts":35.6,"aqi":143,"pm10":367.9,"pm2_5":79.2,"no2":7.2,"co":183.0,"o3":57.0,"so2":4.4,"mosquito_risk":7,"arthritis_risk":5,"migraine_risk":7,"frizz_risk":1,"updated_at":"2026-06-29T00:54:30.787058+05:30"},{"city":"Lucknow","state":"Uttar Pradesh","latitude":26.8467,"longitude":80.9462,"temp":30.2,"humidity":82,"rain":0.0,"pressure":985.0,"uv_index":7.85,"wind_gusts":28.4,"aqi":111,"pm10":116.4,"pm2_5":58.3,"no2":20.1,"co":248.0,"o3":67.0,"so2":10.0,"mosquito_risk":3,"arthritis_risk":5,"migraine_risk":7,"frizz_risk":1,"updated_at":"2026-06-29T00:54:30.787067+05:30"},{"city":"Kanpur","state":"Uttar Pradesh","latitude":26.4499,"longitude":80.3319,"temp":35.4,"humidity":45,"rain":0.0,"pressure":983.2,"uv_index":8.3,"wind_gusts":41.8,"aqi":107,"pm10":98.3,"pm2_5":48.2,"no2":25.1,"co":241.0,"o3":44.0,"so2":7.1,"mosquito_risk":0,"arthritis_risk":5,"migraine_risk":10,"frizz_risk":1,"updated_at":"2026-06-29T00:54:30.787074+05:30"},{"city":"Chandigarh","state":"Chandigarh","latitude":30.7333,"longitude":76.7794,"temp":30.5,"humidity":66,"rain":0.0,"pressure":960.4,"uv_index":7.85,"wind_gusts":27.0,"aqi":150,"pm10":76.4,"pm2_5":70.1,"no2":42.7,"co":712.0,"o3":38.0,"so2":10.6,"mosquito_risk":3,"arthritis_risk":5,"migraine_risk":7,"frizz_risk":1,"updated_at":"2026-06-29T00:54:30.787081+05:30"},{"city":"Srinagar","state":"Jammu and Kashmir","latitude":34.0837,"longitude":74.7973,"temp":21.8,"humidity":74,"rain":0.0,"pressure":836.2,"uv_index":9.1,"wind_gusts":22.7,"aqi":75,"pm10":40.2,"pm2_5":38.4,"no2":30.3,"co":652.0,"o3":4.0,"so2":0.2,"mosquito_risk":3,"arthritis_risk":5,"migraine_risk":7,"frizz_risk":1,"updated_at":"2026-06-29T00:54:30.787087+05:30"},{"city":"Jammu","state":"Jammu and Kashmir","latitude":32.7266,"longitude":74.857,"temp":32.5,"humidity":56,"rain":0.0,"pressure":963.8,"uv_index":8.7,"wind_gusts":29.9,"aqi":113,"pm10":51.9,"pm2_5":45.9,"no2":33.8,"co":396.0,"o3":26.0,"so2":5.4,"mosquito_risk":0,"arthritis_risk":5,"migraine_risk":7,"frizz_risk":1,"updated_at":"2026-06-29T00:54:30.787093+05:30"},{"city":"Amritsar","state":"Punjab","latitude":31.634,"longitude":74.8723,"temp":30.7,"humidity":77,"rain":0.0,"pressure":971.2,"uv_index":8.55,"wind_gusts":34.9,"aqi":155,"pm10":79.9,"pm2_5":63.1,"no2":39.9,"co":513.0,"o3":34.0,"so2":8.3,"mosquito_risk":3,"arthritis_risk":5,"migraine_risk":7,"frizz_risk":1,"updated_at":"2026-06-29T00:54:30.787099+05:30"},{"city":"Ludhiana","state":"Punjab","latitude":30.901,"longitude":75.8573,"temp":32.9,"humidity":61,"rain":0.0,"pressure":969.7,"uv_index":7.9,"wind_gusts":33.8,"aqi":162,"pm10":96.2,"pm2_5":74.7,"no2":36.2,"co":901.0,"o3":61.0,"so2":10.3,"mosquito_risk":3,"arthritis_risk":5,"migraine_risk":7,"frizz_risk":1,"updated_at":"2026-06-29T00:54:30.787105+05:30"},{"city":"Jalandhar","state":"Punjab","latitude":31.326,"longitude":75.5762,"temp":31.0,"humidity":77,"rain":0.0,"pressure":970.4,"uv_index":8.25,"wind_gusts":34.2,"aqi":163,"pm10":90.3,"pm2_5":75.0,"no2":41.3,"co":730.0,"o3":49.0,"so2":8.7,"mosquito_risk":3,"arthritis_risk":5,"migraine_risk":7,"frizz_risk":1,"updated_at":"2026-06-29T00:54:30.787111+05:30"},{"city":"Dehradun","state":"Uttarakhand","latitude":30.6284,"longitude":78.0322,"temp":18.1,"humidity":98,"rain":0.1,"pressure":826.1,"uv_index":6.45,"wind_gusts":27.7,"aqi":83,"pm10":45.3,"pm2_5":36.6,"no2":20.4,"co":259.0,"o3":61.0,"so2":1.1,"mosquito_risk":6,"arthritis_risk":10,"migraine_risk":7,"frizz_risk":1,"updated_at":"2026-06-29T00:54:30.787118+05:30"},{"city":"Shimla","state":"Himachal Pradesh","latitude":31.1048,"longitude":77.1734,"temp":15.7,"humidity":92,"rain":0.0,"pressure":780.1,"uv_index":6.2,"wind_gusts":41.4,"aqi":113,"pm10":50.8,"pm2_5":44.4,"no2":23.5,"co":351.0,"o3":37.0,"so2":0.0,"mosquito_risk":3,"arthritis_risk":10,"migraine_risk":7,"frizz_risk":0,"updated_at":"2026-06-29T00:54:30.787124+05:30"},{"city":"Manali","state":"Himachal Pradesh","latitude":32.2396,"longitude":77.1887,"temp":17.9,"humidity":65,"rain":0.0,"pressure":814.8,"uv_index":9.25,"wind_gusts":36.4,"aqi":54,"pm10":10.7,"pm2_5":9.1,"no2":66.9,"co":254.0,"o3":27.0,"so2":0.0,"mosquito_risk":3,"arthritis_risk":5,"migraine_risk":7,"frizz_risk":0,"updated_at":"2026-06-29T00:54:30.787136+05:30"},{"city":"Gurgaon","state":"Haryana","latitude":28.4595,"longitude":77.0266,"temp":32.3,"humidity":61,"rain":0.0,"pressure":972.7,"uv_index":7.8,"wind_gusts":36.7,"aqi":177,"pm10":271.9,"pm2_5":102.0,"no2":48.8,"co":872.0,"o3":61.0,"so2":33.3,"mosquito_risk":3,"arthritis_risk":5,"migraine_risk":7,"frizz_risk":1,"updated_at":"2026-06-29T00:54:30.787142+05:30"},{"city":"Noida","state":"Uttar Pradesh","latitude":28.5355,"longitude":77.391,"temp":31.3,"humidity":77,"rain":0.0,"pressure":975.7,"uv_index":7.8,"wind_gusts":29.2,"aqi":177,"pm10":271.9,"pm2_5":102.0,"no2":48.8,"co":1561.0,"o3":61.0,"so2":33.3,"mosquito_risk":3,"arthritis_risk":5,"migraine_risk":7,"frizz_risk":1,"updated_at":"2026-06-29T00:54:30.787150+05:30"},{"city":"Ghaziabad","state":"Uttar Pradesh","latitude":28.6692,"longitude":77.4538,"temp":31.9,"humidity":69,"rain":0.0,"pressure":974.0,"uv_index":7.8,"wind_gusts":29.9,"aqi":164,"pm10":209.5,"pm2_5":112.0,"no2":48.2,"co":883.0,"o3":65.0,"so2":30.2,"mosquito_risk":3,"arthritis_risk":5,"migraine_risk":7,"frizz_risk":1,"updated_at":"2026-06-29T00:54:30.787156+05:30"},{"city":"Faridabad","state":"Haryana","latitude":28.4089,"longitude":77.3178,"temp":34.4,"humidity":48,"rain":0.0,"pressure":975.2,"uv_index":7.85,"wind_gusts":40.0,"aqi":177,"pm10":271.9,"pm2_5":102.0,"no2":48.8,"co":1167.0,"o3":61.0,"so2":33.3,"mosquito_risk":0,"arthritis_risk":5,"migraine_risk":7,"frizz_risk":1,"updated_at":"2026-06-29T00:54:30.787162+05:30"},{"city":"Meerut","state":"Uttar Pradesh","latitude":28.9845,"longitude":77.7064,"temp":33.3,"humidity":60,"rain":0.0,"pressure":972.9,"uv_index":6.05,"wind_gusts":31.3,"aqi":164,"pm10":209.5,"pm2_5":112.0,"no2":48.2,"co":728.0,"o3":65.0,"so2":30.2,"mosquito_risk":0,"arthritis_risk":5,"migraine_risk":7,"frizz_risk":1,"updated_at":"2026-06-29T00:54:30.787168+05:30"},{"city":"Agra","state":"Uttar Pradesh","latitude":27.1767,"longitude":78.0081,"temp":32.6,"humidity":55,"rain":0.0,"pressure":979.5,"uv_index":8.1,"wind_gusts":40.3,"aqi":199,"pm10":129.5,"pm2_5":51.7,"no2":20.6,"co":222.0,"o3":47.0,"so2":7.3,"mosquito_risk":0,"arthritis_risk":5,"migraine_risk":7,"frizz_risk":1,"updated_at":"2026-06-29T00:54:30.787174+05:30"},{"city":"Varanasi","state":"Uttar Pradesh","latitude":25.3176,"longitude":82.9739,"temp":32.4,"humidity":60,"rain":0.0,"pressure":989.8,"uv_index":8.35,"wind_gusts":42.8,"aqi":110,"pm10":44.8,"pm2_5":37.6,"no2":19.7,"co":289.0,"o3":58.0,"so2":8.6,"mosquito_risk":0,"arthritis_risk":5,"migraine_risk":7,"frizz_risk":1,"updated_at":"2026-06-29T00:54:30.787180+05:30"},{"city":"Prayagraj","state":"Uttar Pradesh","latitude":25.4358,"longitude":81.8463,"temp":33.4,"humidity":56,"rain":0.0,"pressure":987.9,"uv_index":8.7,"wind_gusts":37.1,"aqi":100,"pm10":44.6,"pm2_5":32.5,"no2":16.3,"co":227.0,"o3":64.0,"so2":7.1,"mosquito_risk":0,"arthritis_risk":5,"migraine_risk":7,"frizz_risk":1,"updated_at":"2026-06-29T00:54:30.787187+05:30"},{"city":"Gorakhpur","state":"Uttar Pradesh","latitude":26.7606,"longitude":83.3732,"temp":29.9,"humidity":82,"rain":0.0,"pressure":989.3,"uv_index":8.6,"wind_gusts":28.1,"aqi":152,"pm10":69.2,"pm2_5":55.1,"no2":29.6,"co":479.0,"o3":58.0,"so2":9.2,"mosquito_risk":7,"arthritis_risk":5,"migraine_risk":7,"frizz_risk":1,"updated_at":"2026-06-29T00:54:30.787193+05:30"},{"city":"Bareilly","state":"Uttar Pradesh","latitude":28.367,"longitude":79.4304,"temp":31.2,"humidity":69,"rain":0.0,"pressure":978.5,"uv_index":7.55,"wind_gusts":35.6,"aqi":149,"pm10":76.4,"pm2_5":50.9,"no2":14.2,"co":862.0,"o3":94.0,"so2":9.4,"mosquito_risk":3,"arthritis_risk":5,"migraine_risk":7,"frizz_risk":1,"updated_at":"2026-06-29T00:54:30.787201+05:30"},{"city":"Aligarh","state":"Uttar Pradesh","latitude":27.8974,"longitude":78.088,"temp":32.0,"humidity":65,"rain":0.0,"pressure":976.6,"uv_index":7.25,"wind_gusts":33.8,"aqi":167,"pm10":206.8,"pm2_5":96.6,"no2":57.4,"co":624.0,"o3":15.0,"so2":13.0,"mosquito_risk":3,"arthritis_risk":5,"migraine_risk":7,"frizz_risk":1,"updated_at":"2026-06-29T00:54:30.787207+05:30"},{"city":"Moradabad","state":"Uttar Pradesh","latitude":28.8386,"longitude":78.7733,"temp":32.2,"humidity":63,"rain":0.0,"pressure":975.3,"uv_index":7.8,"wind_gusts":36.7,"aqi":162,"pm10":125.3,"pm2_5":72.4,"no2":30.8,"co":914.0,"o3":63.0,"so2":13.2,"mosquito_risk":3,"arthritis_risk":5,"migraine_risk":7,"frizz_risk":1,"updated_at":"2026-06-29T00:54:30.787214+05:30"},{"city":"Saharanpur","state":"Uttar Pradesh","latitude":29.9637,"longitude":77.546,"temp":31.0,"humidity":69,"rain":0.0,"pressure":967.5,"uv_index":7.45,"wind_gusts":29.9,"aqi":160,"pm10":124.8,"pm2_5":99.4,"no2":31.3,"co":656.0,"o3":80.0,"so2":19.4,"mosquito_risk":3,"arthritis_risk":5,"migraine_risk":7,"frizz_risk":1,"updated_at":"2026-06-29T00:54:30.787220+05:30"},{"city":"Jhansi","state":"Uttar Pradesh","latitude":25.4484,"longitude":78.5685,"temp":29.5,"humidity":73,"rain":0.0,"pressure":971.0,"uv_index":8.45,"wind_gusts":40.0,"aqi":73,"pm10":40.9,"pm2_5":24.4,"no2":7.7,"co":183.0,"o3":63.0,"so2":5.8,"mosquito_risk":7,"arthritis_risk":5,"migraine_risk":7,"frizz_risk":1,"updated_at":"2026-06-29T00:54:34.094755+05:30"},{"city":"Surat","state":"Gujarat","latitude":21.1702,"longitude":72.8311,"temp":30.1,"humidity":75,"rain":0.0,"pressure":1001.5,"uv_index":5.95,"wind_gusts":47.9,"aqi":75,"pm10":35.6,"pm2_5":20.4,"no2":14.5,"co":193.0,"o3":38.0,"so2":24.8,"mosquito_risk":3,"arthritis_risk":5,"migraine_risk":0,"frizz_risk":1,"updated_at":"2026-06-29T00:54:34.094789+05:30"},{"city":"Vadodara","state":"Gujarat","latitude":22.3072,"longitude":73.1812,"temp":30.7,"humidity":71,"rain":0.0,"pressure":998.4,"uv_index":6.0,"wind_gusts":48.2,"aqi":72,"pm10":28.4,"pm2_5":19.1,"no2":19.0,"co":176.0,"o3":29.0,"so2":21.1,"mosquito_risk":3,"arthritis_risk":5,"migraine_risk":3,"frizz_risk":1,"updated_at":"2026-06-29T00:54:34.094803+05:30"},{"city":"Rajkot","state":"Gujarat","latitude":22.3039,"longitude":70.8022,"temp":29.1,"humidity":71,"rain":0.0,"pressure":989.2,"uv_index":7.2,"wind_gusts":43.6,"aqi":64,"pm10":27.4,"pm2_5":13.6,"no2":5.1,"co":102.0,"o3":45.0,"so2":5.0,"mosquito_risk":7,"arthritis_risk":5,"migraine_risk":7,"frizz_risk":1,"updated_at":"2026-06-29T00:54:34.094814+05:30"},{"city":"Thane","state":"Maharashtra","latitude":19.2183,"longitude":72.9781,"temp":25.4,"humidity":98,"rain":0.0,"pressure":1004.2,"uv_index":1.55,"wind_gusts":30.6,"aqi":54,"pm10":18.4,"pm2_5":10.4,"no2":9.0,"co":214.0,"o3":44.0,"so2":7.2,"mosquito_risk":7,"arthritis_risk":5,"migraine_risk":0,"frizz_risk":1,"updated_at":"2026-06-29T00:54:34.094824+05:30"},{"city":"Nagpur","state":"Maharashtra","latitude":21.1458,"longitude":79.0882,"temp":27.6,"humidity":85,"rain":0.0,"pressure":968.0,"uv_index":8.5,"wind_gusts":32.4,"aqi":93,"pm10":29.2,"pm2_5":26.0,"no2":13.9,"co":216.0,"o3":65.0,"so2":12.0,"mosquito_risk":7,"arthritis_risk":5,"migraine_risk":7,"frizz_risk":1,"updated_at":"2026-06-29T00:54:34.094832+05:30"},{"city":"Nashik","state":"Maharashtra","latitude":19.9975,"longitude":73.7898,"temp":23.5,"humidity":91,"rain":0.0,"pressure":941.2,"uv_index":4.2,"wind_gusts":45.4,"aqi":47,"pm10":12.7,"pm2_5":7.9,"no2":6.8,"co":122.0,"o3":45.0,"so2":4.9,"mosquito_risk":3,"arthritis_risk":5,"migraine_risk":3,"frizz_risk":1,"updated_at":"2026-06-29T00:54:34.094841+05:30"},{"city":"Aurangabad","state":"Maharashtra","latitude":19.8762,"longitude":75.3433,"temp":24.4,"humidity":91,"rain":0.0,"pressure":940.0,"uv_index":6.85,"wind_gusts":50.0,"aqi":60,"pm10":21.1,"pm2_5":15.3,"no2":11.0,"co":157.0,"o3":43.0,"so2":4.8,"mosquito_risk":3,"arthritis_risk":5,"migraine_risk":7,"frizz_risk":1,"updated_at":"2026-06-29T00:54:34.094847+05:30"},{"city":"Solapur","state":"Maharashtra","latitude":17.6599,"longitude":75.9064,"temp":24.5,"humidity":96,"rain":0.0,"pressure":953.4,"uv_index":6.15,"wind_gusts":42.8,"aqi":40,"pm10":10.2,"pm2_5":9.2,"no2":7.2,"co":168.0,"o3":64.0,"so2":1.9,"mosquito_risk":3,"arthritis_risk":5,"migraine_risk":7,"frizz_risk":1,"updated_at":"2026-06-29T00:54:34.094854+05:30"},{"city":"Kolhapur","state":"Maharashtra","latitude":16.705,"longitude":74.2433,"temp":23.3,"humidity":93,"rain":0.0,"pressure":944.7,"uv_index":6.8,"wind_gusts":54.4,"aqi":23,"pm10":3.8,"pm2_5":3.7,"no2":5.6,"co":147.0,"o3":39.0,"so2":2.3,"mosquito_risk":3,"arthritis_risk":5,"migraine_risk":7,"frizz_risk":1,"updated_at":"2026-06-29T00:54:34.094860+05:30"},{"city":"Goa","state":"Goa","latitude":15.2993,"longitude":74.124,"temp":24.2,"humidity":99,"rain":0.5,"pressure":996.2,"uv_index":5.0,"wind_gusts":31.3,"aqi":29,"pm10":12.3,"pm2_5":8.4,"no2":2.7,"co":216.0,"o3":51.0,"so2":1.0,"mosquito_risk":6,"arthritis_risk":5,"migraine_risk":3,"frizz_risk":1,"updated_at":"2026-06-29T00:54:34.094867+05:30"},{"city":"Jodhpur","state":"Rajasthan","latitude":26.2389,"longitude":73.0243,"temp":32.9,"humidity":45,"rain":0.0,"pressure":975.9,"uv_index":8.45,"wind_gusts":44.6,"aqi":137,"pm10":178.3,"pm2_5":44.8,"no2":4.6,"co":138.0,"o3":53.0,"so2":1.5,"mosquito_risk":0,"arthritis_risk":5,"migraine_risk":7,"frizz_risk":1,"updated_at":"2026-06-29T00:54:34.094873+05:30"},{"city":"Udaipur","state":"Rajasthan","latitude":24.5854,"longitude":73.7125,"temp":28.0,"humidity":61,"rain":0.0,"pressure":940.8,"uv_index":8.85,"wind_gusts":33.5,"aqi":68,"pm10":36.9,"pm2_5":18.3,"no2":4.4,"co":138.0,"o3":61.0,"so2":2.0,"mosquito_risk":7,"arthritis_risk":5,"migraine_risk":7,"frizz_risk":1,"updated_at":"2026-06-29T00:54:34.094879+05:30"},{"city":"Kota","state":"Rajasthan","latitude":25.2138,"longitude":75.8648,"temp":30.9,"humidity":60,"rain":0.0,"pressure":971.8,"uv_index":8.35,"wind_gusts":44.3,"aqi":73,"pm10":23.9,"pm2_5":15.2,"no2":9.3,"co":210.0,"o3":52.0,"so2":3.2,"mosquito_risk":0,"arthritis_risk":5,"migraine_risk":7,"frizz_risk":1,"updated_at":"2026-06-29T00:54:34.094885+05:30"},{"city":"Bikaner","state":"Rajasthan","latitude":28.0229,"longitude":73.3119,"temp":34.4,"humidity":38,"rain":0.0,"pressure":973.4,"uv_index":8.45,"wind_gusts":40.3,"aqi":122,"pm10":148.5,"pm2_5":44.0,"no2":2.4,"co":114.0,"o3":65.0,"so2":2.8,"mosquito_risk":0,"arthritis_risk":5,"migraine_risk":7,"frizz_risk":1,"updated_at":"2026-06-29T00:54:34.094891+05:30"},{"city":"Ajmer","state":"Rajasthan","latitude":26.4499,"longitude":74.6399,"temp":30.7,"humidity":50,"rain":0.0,"pressure":948.2,"uv_index":8.2,"wind_gusts":51.1,"aqi":96,"pm10":51.2,"pm2_5":24.0,"no2":7.6,"co":146.0,"o3":54.0,"so2":3.8,"mosquito_risk":0,"arthritis_risk":5,"migraine_risk":7,"frizz_risk":1,"updated_at":"2026-06-29T00:54:34.094897+05:30"},{"city":"Gwalior","state":"Madhya Pradesh","latitude":26.2183,"longitude":78.1828,"temp":30.7,"humidity":64,"rain":0.0,"pressure":975.6,"uv_index":8.25,"wind_gusts":43.9,"aqi":88,"pm10":87.8,"pm2_5":40.9,"no2":7.2,"co":159.0,"o3":58.0,"so2":3.9,"mosquito_risk":3,"arthritis_risk":5,"migraine_risk":7,"frizz_risk":1,"updated_at":"2026-06-29T00:54:34.094903+05:30"},{"city":"Indore","state":"Madhya Pradesh","latitude":22.7196,"longitude":75.8577,"temp":25.6,"humidity":80,"rain":0.0,"pressure":943.0,"uv_index":8.4,"wind_gusts":45.0,"aqi":88,"pm10":51.0,"pm2_5":39.1,"no2":17.8,"co":290.0,"o3":45.0,"so2":7.4,"mosquito_risk":7,"arthritis_risk":5,"migraine_risk":7,"frizz_risk":1,"updated_at":"2026-06-29T00:54:34.094909+05:30"},{"city":"Bhopal","state":"Madhya Pradesh","latitude":23.2599,"longitude":77.4126,"temp":27.1,"humidity":81,"rain":0.0,"pressure":948.2,"uv_index":8.65,"wind_gusts":28.4,"aqi":85,"pm10":36.9,"pm2_5":28.2,"no2":7.5,"co":305.0,"o3":70.0,"so2":4.0,"mosquito_risk":7,"arthritis_risk":5,"migraine_risk":7,"frizz_risk":1,"updated_at":"2026-06-29T00:54:34.094915+05:30"},{"city":"Jabalpur","state":"Madhya Pradesh","latitude":23.1815,"longitude":79.9864,"temp":29.0,"humidity":72,"rain":0.0,"pressure":956.2,"uv_index":8.6,"wind_gusts":35.6,"aqi":80,"pm10":28.9,"pm2_5":25.0,"no2":7.7,"co":265.0,"o3":73.0,"so2":3.0,"mosquito_risk":7,"arthritis_risk":5,"migraine_risk":7,"frizz_risk":1,"updated_at":"2026-06-29T00:54:34.094921+05:30"},{"city":"Ujjain","state":"Madhya Pradesh","latitude":23.1765,"longitude":75.7885,"temp":26.8,"humidity":73,"rain":0.0,"pressure":948.6,"uv_index":3.7,"wind_gusts":38.9,"aqi":82,"pm10":49.7,"pm2_5":37.5,"no2":14.3,"co":304.0,"o3":45.0,"so2":5.1,"mosquito_risk":7,"arthritis_risk":5,"migraine_risk":3,"frizz_risk":1,"updated_at":"2026-06-29T00:54:34.094928+05:30"},{"city":"Visakhapatnam","state":"Andhra Pradesh","latitude":17.6868,"longitude":83.2185,"temp":28.2,"humidity":91,"rain":0.0,"pressure":998.7,"uv_index":8.25,"wind_gusts":40.7,"aqi":75,"pm10":30.6,"pm2_5":24.3,"no2":18.9,"co":313.0,"o3":87.0,"so2":31.9,"mosquito_risk":7,"arthritis_risk":5,"migraine_risk":7,"frizz_risk":1,"updated_at":"2026-06-29T00:54:34.094934+05:30"},{"city":"Vijayawada","state":"Andhra Pradesh","latitude":16.5062,"longitude":80.648,"temp":26.0,"humidity":95,"rain":0.3,"pressure":999.5,"uv_index":7.55,"wind_gusts":41.4,"aqi":70,"pm10":13.6,"pm2_5":11.7,"no2":5.2,"co":201.0,"o3":88.0,"so2":4.0,"mosquito_risk":10,"arthritis_risk":5,"migraine_risk":7,"frizz_risk":1,"updated_at":"2026-06-29T00:54:34.094940+05:30"},{"city":"Guntur","state":"Andhra Pradesh","latitude":16.3067,"longitude":80.4365,"temp":26.1,"humidity":95,"rain":0.1,"pressure":1000.4,"uv_index":7.55,"wind_gusts":31.0,"aqi":66,"pm10":11.5,"pm2_5":10.2,"no2":5.5,"co":192.0,"o3":83.0,"so2":2.7,"mosquito_risk":10,"arthritis_risk":5,"migraine_risk":4,"frizz_risk":1,"updated_at":"2026-06-29T00:54:34.094947+05:30"},{"city":"Nellore","state":"Andhra Pradesh","latitude":14.4426,"longitude":79.9865,"temp":25.8,"humidity":98,"rain":0.2,"pressure":1003.5,"uv_index":8.3,"wind_gusts":45.7,"aqi":57,"pm10":13.0,"pm2_5":8.7,"no2":5.7,"co":169.0,"o3":70.0,"so2":2.6,"mosquito_risk":10,"arthritis_risk":5,"migraine_risk":4,"frizz_risk":1,"updated_at":"2026-06-29T00:54:34.094954+05:30"},{"city":"Kurnool","state":"Andhra Pradesh","latitude":15.8281,"longitude":78.0373,"temp":25.1,"humidity":94,"rain":0.0,"pressure":973.6,"uv_index":6.7,"wind_gusts":44.3,"aqi":31,"pm10":4.9,"pm2_5":4.5,"no2":9.7,"co":143.0,"o3":39.0,"so2":4.5,"mosquito_risk":7,"arthritis_risk":5,"migraine_risk":7,"frizz_risk":1,"updated_at":"2026-06-29T00:54:34.094961+05:30"},{"city":"Kakinada","state":"Andhra Pradesh","latitude":16.9891,"longitude":82.2475,"temp":28.1,"humidity":92,"rain":0.0,"pressure":1003.0,"uv_index":8.65,"wind_gusts":50.0,"aqi":74,"pm10":28.6,"pm2_5":21.0,"no2":2.5,"co":218.0,"o3":110.0,"so2":3.5,"mosquito_risk":7,"arthritis_risk":5,"migraine_risk":4,"frizz_risk":1,"updated_at":"2026-06-29T00:54:34.094967+05:30"},{"city":"Tirupati","state":"Andhra Pradesh","latitude":13.6288,"longitude":79.4192,"temp":25.7,"humidity":97,"rain":0.0,"pressure":989.1,"uv_index":8.05,"wind_gusts":43.9,"aqi":53,"pm10":12.0,"pm2_5":9.3,"no2":9.0,"co":203.0,"o3":54.0,"so2":1.6,"mosquito_risk":7,"arthritis_risk":5,"migraine_risk":7,"frizz_risk":1,"updated_at":"2026-06-29T00:54:34.094972+05:30"},{"city":"Warangal","state":"Telangana","latitude":17.9689,"longitude":79.5941,"temp":26.5,"humidity":86,"rain":0.0,"pressure":974.8,"uv_index":6.1,"wind_gusts":30.2,"aqi":71,"pm10":14.7,"pm2_5":12.9,"no2":12.4,"co":210.0,"o3":55.0,"so2":2.9,"mosquito_risk":7,"arthritis_risk":5,"migraine_risk":7,"frizz_risk":1,"updated_at":"2026-06-29T00:54:34.094978+05:30"},{"city":"Nizamabad","state":"Telangana","latitude":18.6725,"longitude":78.0941,"temp":25.0,"humidity":92,"rain":0.0,"pressure":960.7,"uv_index":7.95,"wind_gusts":31.0,"aqi":79,"pm10":17.2,"pm2_5":15.0,"no2":7.4,"co":202.0,"o3":74.0,"so2":2.5,"mosquito_risk":7,"arthritis_risk":5,"migraine_risk":7,"frizz_risk":1,"updated_at":"2026-06-29T00:54:34.094984+05:30"},{"city":"Mysore","state":"Karnataka","latitude":12.2958,"longitude":76.6396,"temp":22.2,"humidity":90,"rain":0.0,"pressure":926.9,"uv_index":7.8,"wind_gusts":52.6,"aqi":22,"pm10":2.9,"pm2_5":2.8,"no2":6.4,"co":116.0,"o3":36.0,"so2":1.9,"mosquito_risk":3,"arthritis_risk":5,"migraine_risk":7,"frizz_risk":1,"updated_at":"2026-06-29T00:54:34.094990+05:30"},{"city":"Mangalore","state":"Karnataka","latitude":12.9141,"longitude":74.856,"temp":24.2,"humidity":97,"rain":0.4,"pressure":1006.2,"uv_index":5.6,"wind_gusts":35.6,"aqi":29,"pm10":9.1,"pm2_5":5.6,"no2":3.0,"co":144.0,"o3":48.0,"so2":1.1,"mosquito_risk":6,"arthritis_risk":5,"migraine_risk":0,"frizz_risk":1,"updated_at":"2026-06-29T00:54:34.094996+05:30"},{"city":"Hubli-Dharwad","state":"Karnataka","latitude":15.3647,"longitude":75.124,"temp":22.5,"humidity":94,"rain":0.0,"pressure":938.2,"uv_index":6.5,"wind_gusts":58.0,"aqi":20,"pm10":2.2,"pm2_5":1.9,"no2":4.2,"co":116.0,"o3":42.0,"so2":1.5,"mosquito_risk":3,"arthritis_risk":5,"migraine_risk":7,"frizz_risk":1,"updated_at":"2026-06-29T00:54:34.095002+05:30"},{"city":"Belgaum","state":"Karnataka","latitude":15.8497,"longitude":74.4977,"temp":21.2,"humidity":98,"rain":0.0,"pressure":922.6,"uv_index":7.9,"wind_gusts":52.2,"aqi":20,"pm10":2.5,"pm2_5":2.0,"no2":3.1,"co":117.0,"o3":45.0,"so2":1.0,"mosquito_risk":3,"arthritis_risk":5,"migraine_risk":7,"frizz_risk":1,"updated_at":"2026-06-29T00:54:37.392049+05:30"},{"city":"Coimbatore","state":"Tamil Nadu","latitude":11.0168,"longitude":76.9558,"temp":23.1,"humidity":92,"rain":0.0,"pressure":960.7,"uv_index":8.85,"wind_gusts":55.1,"aqi":23,"pm10":2.8,"pm2_5":2.5,"no2":4.4,"co":160.0,"o3":39.0,"so2":2.1,"mosquito_risk":3,"arthritis_risk":5,"migraine_risk":7,"frizz_risk":1,"updated_at":"2026-06-29T00:54:37.392075+05:30"},{"city":"Madurai","state":"Tamil Nadu","latitude":9.9252,"longitude":78.1198,"temp":28.9,"humidity":63,"rain":0.0,"pressure":991.6,"uv_index":8.75,"wind_gusts":31.7,"aqi":61,"pm10":19.7,"pm2_5":17.1,"no2":29.1,"co":139.0,"o3":9.0,"so2":6.3,"mosquito_risk":7,"arthritis_risk":5,"migraine_risk":7,"frizz_risk":1,"updated_at":"2026-06-29T00:54:37.392085+05:30"},{"city":"Trichy","state":"Tamil Nadu","latitude":10.7905,"longitude":78.7047,"temp":27.1,"humidity":76,"rain":0.0,"pressure":998.0,"uv_index":8.8,"wind_gusts":48.6,"aqi":47,"pm10":10.3,"pm2_5":8.7,"no2":12.2,"co":108.0,"o3":40.0,"so2":3.5,"mosquito_risk":7,"arthritis_risk":5,"migraine_risk":7,"frizz_risk":1,"updated_at":"2026-06-29T00:54:37.392093+05:30"},{"city":"Salem","state":"Tamil Nadu","latitude":11.6643,"longitude":78.146,"temp":25.2,"humidity":90,"rain":0.0,"pressure":976.0,"uv_index":8.75,"wind_gusts":37.4,"aqi":52,"pm10":12.1,"pm2_5":10.4,"no2":13.8,"co":277.0,"o3":35.0,"so2":6.3,"mosquito_risk":7,"arthritis_risk":5,"migraine_risk":7,"frizz_risk":1,"updated_at":"2026-06-29T00:54:37.392100+05:30"},{"city":"Tirunelveli","state":"Tamil Nadu","latitude":8.7139,"longitude":77.7567,"temp":28.7,"humidity":66,"rain":0.0,"pressure":1002.2,"uv_index":8.6,"wind_gusts":58.7,"aqi":26,"pm10":3.5,"pm2_5":3.0,"no2":5.0,"co":135.0,"o3":37.0,"so2":1.4,"mosquito_risk":7,"arthritis_risk":5,"migraine_risk":4,"frizz_risk":1,"updated_at":"2026-06-29T00:54:37.392107+05:30"},{"city":"Vellore","state":"Tamil Nadu","latitude":12.9165,"longitude":79.1325,"temp":25.9,"humidity":96,"rain":0.1,"pressure":982.5,"uv_index":8.45,"wind_gusts":45.4,"aqi":55,"pm10":14.1,"pm2_5":11.9,"no2":12.1,"co":171.0,"o3":41.0,"so2":3.0,"mosquito_risk":10,"arthritis_risk":5,"migraine_risk":7,"frizz_risk":1,"updated_at":"2026-06-29T00:54:37.392114+05:30"},{"city":"Erode","state":"Tamil Nadu","latitude":11.341,"longitude":77.7172,"temp":25.9,"humidity":79,"rain":0.0,"pressure":988.0,"uv_index":8.85,"wind_gusts":44.3,"aqi":39,"pm10":9.7,"pm2_5":9.0,"no2":13.6,"co":145.0,"o3":29.0,"so2":3.3,"mosquito_risk":7,"arthritis_risk":5,"migraine_risk":7,"frizz_risk":1,"updated_at":"2026-06-29T00:54:37.392120+05:30"},{"city":"Kochi","state":"Kerala","latitude":9.9312,"longitude":76.2673,"temp":25.2,"humidity":94,"rain":0.1,"pressure":1009.7,"uv_index":8.45,"wind_gusts":46.4,"aqi":40,"pm10":8.9,"pm2_5":7.1,"no2":8.9,"co":116.0,"o3":29.0,"so2":3.0,"mosquito_risk":10,"arthritis_risk":0,"migraine_risk":4,"frizz_risk":1,"updated_at":"2026-06-29T00:54:37.392127+05:30"},{"city":"Thiruvananthapuram","state":"Kerala","latitude":8.5241,"longitude":76.9366,"temp":24.2,"humidity":98,"rain":0.1,"pressure":1008.3,"uv_index":8.3,"wind_gusts":54.4,"aqi":32,"pm10":10.7,"pm2_5":6.1,"no2":2.2,"co":154.0,"o3":52.0,"so2":0.9,"mosquito_risk":6,"arthritis_risk":0,"migraine_risk":4,"frizz_risk":1,"updated_at":"2026-06-29T00:54:37.392134+05:30"},{"city":"Kozhikode","state":"Kerala","latitude":11.2588,"longitude":75.7804,"temp":24.0,"humidity":100,"rain":0.2,"pressure":1008.2,"uv_index":8.55,"wind_gusts":41.8,"aqi":30,"pm10":9.7,"pm2_5":5.2,"no2":0.9,"co":167.0,"o3":57.0,"so2":0.6,"mosquito_risk":6,"arthritis_risk":0,"migraine_risk":4,"frizz_risk":1,"updated_at":"2026-06-29T00:54:37.392140+05:30"},{"city":"Thrissur","state":"Kerala","latitude":10.5276,"longitude":76.2144,"temp":24.1,"humidity":97,"rain":0.1,"pressure":1007.9,"uv_index":8.4,"wind_gusts":44.3,"aqi":41,"pm10":6.3,"pm2_5":5.5,"no2":7.4,"co":186.0,"o3":32.0,"so2":2.3,"mosquito_risk":6,"arthritis_risk":5,"migraine_risk":4,"frizz_risk":1,"updated_at":"2026-06-29T00:54:37.392147+05:30"},{"city":"Kannur","state":"Kerala","latitude":11.8745,"longitude":75.3704,"temp":24.6,"humidity":97,"rain":0.4,"pressure":1007.2,"uv_index":8.45,"wind_gusts":47.5,"aqi":30,"pm10":10.4,"pm2_5":6.9,"no2":4.5,"co":158.0,"o3":42.0,"so2":1.4,"mosquito_risk":6,"arthritis_risk":5,"migraine_risk":4,"frizz_risk":1,"updated_at":"2026-06-29T00:54:37.392153+05:30"},{"city":"Patna","state":"Bihar","latitude":25.5941,"longitude":85.1376,"temp":28.2,"humidity":97,"rain":0.1,"pressure":993.6,"uv_index":7.6,"wind_gusts":23.8,"aqi":152,"pm10":55.6,"pm2_5":50.4,"no2":15.6,"co":331.0,"o3":89.0,"so2":8.8,"mosquito_risk":10,"arthritis_risk":5,"migraine_risk":7,"frizz_risk":1,"updated_at":"2026-06-29T00:54:37.392160+05:30"},{"city":"Gaya","state":"Bihar","latitude":24.7914,"longitude":85.0002,"temp":27.3,"humidity":95,"rain":0.1,"pressure":987.4,"uv_index":8.6,"wind_gusts":36.4,"aqi":121,"pm10":46.2,"pm2_5":44.0,"no2":16.6,"co":286.0,"o3":75.0,"so2":8.8,"mosquito_risk":10,"arthritis_risk":5,"migraine_risk":7,"frizz_risk":1,"updated_at":"2026-06-29T00:54:37.392166+05:30"},{"city":"Muzaffarpur","state":"Bihar","latitude":26.1209,"longitude":85.3647,"temp":27.4,"humidity":93,"rain":0.0,"pressure":993.6,"uv_index":7.6,"wind_gusts":22.7,"aqi":154,"pm10":52.4,"pm2_5":48.7,"no2":11.5,"co":327.0,"o3":102.0,"so2":6.5,"mosquito_risk":7,"arthritis_risk":5,"migraine_risk":7,"frizz_risk":1,"updated_at":"2026-06-29T00:54:37.392172+05:30"},{"city":"Bhagalpur","state":"Bihar","latitude":25.2425,"longitude":87.0117,"temp":28.2,"humidity":97,"rain":0.0,"pressure":994.1,"uv_index":7.8,"wind_gusts":24.8,"aqi":118,"pm10":48.5,"pm2_5":47.1,"no2":10.8,"co":285.0,"o3":106.0,"so2":12.8,"mosquito_risk":7,"arthritis_risk":5,"migraine_risk":7,"frizz_risk":1,"updated_at":"2026-06-29T00:54:37.392178+05:30"},{"city":"Ranchi","state":"Jharkhand","latitude":23.3441,"longitude":85.3096,"temp":25.2,"humidity":93,"rain":0.0,"pressure":932.5,"uv_index":9.0,"wind_gusts":41.8,"aqi":117,"pm10":47.7,"pm2_5":47.0,"no2":8.6,"co":322.0,"o3":109.0,"so2":11.6,"mosquito_risk":7,"arthritis_risk":5,"migraine_risk":7,"frizz_risk":1,"updated_at":"2026-06-29T00:54:37.392184+05:30"},{"city":"Jamshedpur","state":"Jharkhand","latitude":22.8046,"longitude":86.2029,"temp":28.2,"humidity":85,"rain":0.0,"pressure":985.0,"uv_index":8.75,"wind_gusts":37.1,"aqi":118,"pm10":50.8,"pm2_5":49.2,"no2":23.3,"co":788.0,"o3":66.0,"so2":28.6,"mosquito_risk":7,"arthritis_risk":5,"migraine_risk":7,"frizz_risk":1,"updated_at":"2026-06-29T00:54:37.392190+05:30"},{"city":"Dhanbad","state":"Jharkhand","latitude":23.7957,"longitude":86.4304,"temp":28.7,"humidity":84,"rain":0.0,"pressure":973.6,"uv_index":8.8,"wind_gusts":42.8,"aqi":155,"pm10":62.9,"pm2_5":61.9,"no2":41.6,"co":1837.0,"o3":66.0,"so2":113.1,"mosquito_risk":7,"arthritis_risk":5,"migraine_risk":7,"frizz_risk":1,"updated_at":"2026-06-29T00:54:37.392196+05:30"},{"city":"Bokaro","state":"Jharkhand","latitude":23.6693,"longitude":86.1511,"temp":29.4,"humidity":79,"rain":0.0,"pressure":977.5,"uv_index":8.75,"wind_gusts":46.1,"aqi":152,"pm10":50.6,"pm2_5":49.7,"no2":24.8,"co":1412.0,"o3":84.0,"so2":66.1,"mosquito_risk":7,"arthritis_risk":5,"migraine_risk":7,"frizz_risk":1,"updated_at":"2026-06-29T00:54:37.392202+05:30"},{"city":"Bhubaneswar","state":"Odisha","latitude":20.2961,"longitude":85.8245,"temp":27.5,"humidity":96,"rain":0.0,"pressure":997.4,"uv_index":7.15,"wind_gusts":40.3,"aqi":83,"pm10":32.9,"pm2_5":31.5,"no2":14.0,"co":176.0,"o3":75.0,"so2":7.5,"mosquito_risk":7,"arthritis_risk":5,"migraine_risk":7,"frizz_risk":1,"updated_at":"2026-06-29T00:54:37.392208+05:30"},{"city":"Cuttack","state":"Odisha","latitude":20.4625,"longitude":85.8828,"temp":27.7,"humidity":97,"rain":0.0,"pressure":999.1,"uv_index":7.8,"wind_gusts":37.4,"aqi":83,"pm10":32.9,"pm2_5":31.5,"no2":14.0,"co":191.0,"o3":75.0,"so2":7.5,"mosquito_risk":7,"arthritis_risk":5,"migraine_risk":7,"frizz_risk":1,"updated_at":"2026-06-29T00:54:37.392215+05:30"},{"city":"Rourkela","state":"Odisha","latitude":22.2604,"longitude":84.8536,"temp":27.9,"humidity":87,"rain":0.0,"pressure":980.1,"uv_index":7.5,"wind_gusts":43.6,"aqi":106,"pm10":43.1,"pm2_5":41.4,"no2":8.9,"co":257.0,"o3":108.0,"so2":15.4,"mosquito_risk":7,"arthritis_risk":5,"migraine_risk":7,"frizz_risk":1,"updated_at":"2026-06-29T00:54:37.392221+05:30"},{"city":"Raipur","state":"Chhattisgarh","latitude":21.2514,"longitude":81.6296,"temp":27.9,"humidity":87,"rain":0.0,"pressure":969.7,"uv_index":7.2,"wind_gusts":29.2,"aqi":114,"pm10":33.9,"pm2_5":31.4,"no2":23.6,"co":242.0,"o3":68.0,"so2":42.5,"mosquito_risk":7,"arthritis_risk":5,"migraine_risk":7,"frizz_risk":1,"updated_at":"2026-06-29T00:54:37.392227+05:30"},{"city":"Bhilai","state":"Chhattisgarh","latitude":21.1938,"longitude":81.3509,"temp":28.1,"humidity":81,"rain":0.0,"pressure":970.1,"uv_index":7.1,"wind_gusts":39.2,"aqi":108,"pm10":33.1,"pm2_5":30.4,"no2":22.0,"co":276.0,"o3":76.0,"so2":39.7,"mosquito_risk":7,"arthritis_risk":5,"migraine_risk":7,"frizz_risk":1,"updated_at":"2026-06-29T00:54:37.392233+05:30"},{"city":"Guwahati","state":"Assam","latitude":26.1158,"longitude":91.7086,"temp":26.3,"humidity":91,"rain":0.0,"pressure":995.2,"uv_index":5.9,"wind_gusts":27.0,"aqi":59,"pm10":17.3,"pm2_5":16.8,"no2":7.7,"co":314.0,"o3":64.0,"so2":2.8,"mosquito_risk":7,"arthritis_risk":5,"migraine_risk":3,"frizz_risk":1,"updated_at":"2026-06-29T00:54:37.392239+05:30"},{"city":"Agartala","state":"Tripura","latitude":23.8315,"longitude":91.2868,"temp":26.9,"humidity":92,"rain":0.0,"pressure":1001.1,"uv_index":7.6,"wind_gusts":36.7,"aqi":47,"pm10":13.6,"pm2_5":12.0,"no2":8.1,"co":164.0,"o3":42.0,"so2":1.9,"mosquito_risk":7,"arthritis_risk":5,"migraine_risk":4,"frizz_risk":1,"updated_at":"2026-06-29T00:54:37.392245+05:30"},{"city":"Shillong","state":"Meghalaya","latitude":25.5788,"longitude":91.8933,"temp":20.3,"humidity":95,"rain":0.1,"pressure":853.0,"uv_index":8.75,"wind_gusts":36.7,"aqi":33,"pm10":2.9,"pm2_5":2.8,"no2":5.6,"co":165.0,"o3":60.0,"so2":1.6,"mosquito_risk":6,"arthritis_risk":5,"migraine_risk":7,"frizz_risk":1,"updated_at":"2026-06-29T00:54:37.392251+05:30"},{"city":"Imphal","state":"Manipur","latitude":24.817,"longitude":93.9368,"temp":23.1,"humidity":100,"rain":0.0,"pressure":919.0,"uv_index":9.05,"wind_gusts":31.7,"aqi":46,"pm10":15.9,"pm2_5":15.7,"no2":11.1,"co":354.0,"o3":28.0,"so2":2.1,"mosquito_risk":3,"arthritis_risk":5,"migraine_risk":7,"frizz_risk":1,"updated_at":"2026-06-29T00:54:37.392257+05:30"},{"city":"Aizawl","state":"Mizoram","latitude":23.7271,"longitude":92.7176,"temp":20.2,"humidity":92,"rain":0.0,"pressure":888.9,"uv_index":8.15,"wind_gusts":37.1,"aqi":26,"pm10":3.3,"pm2_5":3.0,"no2":2.5,"co":119.0,"o3":43.0,"so2":0.7,"mosquito_risk":3,"arthritis_risk":5,"migraine_risk":7,"frizz_risk":1,"updated_at":"2026-06-29T00:54:37.392263+05:30"},{"city":"Kohima","state":"Nagaland","latitude":25.6701,"longitude":94.1077,"temp":20.0,"humidity":93,"rain":0.0,"pressure":851.4,"uv_index":8.95,"wind_gusts":20.9,"aqi":32,"pm10":6.4,"pm2_5":6.1,"no2":4.9,"co":258.0,"o3":41.0,"so2":0.9,"mosquito_risk":3,"arthritis_risk":5,"migraine_risk":7,"frizz_risk":1,"updated_at":"2026-06-29T00:54:37.392269+05:30"},{"city":"Gangtok","state":"Sikkim","latitude":27.3314,"longitude":88.6138,"temp":18.7,"humidity":96,"rain":1.3,"pressure":832.7,"uv_index":6.9,"wind_gusts":26.6,"aqi":46,"pm10":9.2,"pm2_5":8.5,"no2":6.6,"co":350.0,"o3":103.0,"so2":1.9,"mosquito_risk":6,"arthritis_risk":10,"migraine_risk":7,"frizz_risk":1,"updated_at":"2026-06-29T00:54:37.392275+05:30"},{"city":"Siliguri","state":"West Bengal","latitude":26.7271,"longitude":88.3953,"temp":25.0,"humidity":99,"rain":0.1,"pressure":986.7,"uv_index":8.05,"wind_gusts":20.9,"aqi":74,"pm10":25.1,"pm2_5":23.2,"no2":9.3,"co":409.0,"o3":105.0,"so2":2.8,"mosquito_risk":10,"arthritis_risk":5,"migraine_risk":7,"frizz_risk":1,"updated_at":"2026-06-29T00:54:40.898480+05:30"},{"city":"Durgapur","state":"West Bengal","latitude":23.5204,"longitude":87.3119,"temp":28.1,"humidity":90,"rain":0.0,"pressure":988.5,"uv_index":8.9,"wind_gusts":35.3,"aqi":151,"pm10":54.2,"pm2_5":53.3,"no2":26.3,"co":540.0,"o3":73.0,"so2":43.5,"mosquito_risk":7,"arthritis_risk":5,"migraine_risk":7,"frizz_risk":1,"updated_at":"2026-06-29T00:54:40.898514+05:30"},{"city":"Asansol","state":"West Bengal","latitude":23.6739,"longitude":86.9524,"temp":28.8,"humidity":86,"rain":0.0,"pressure":987.1,"uv_index":8.9,"wind_gusts":32.8,"aqi":145,"pm10":56.7,"pm2_5":55.9,"no2":31.3,"co":449.0,"o3":72.0,"so2":64.5,"mosquito_risk":7,"arthritis_risk":5,"migraine_risk":7,"frizz_risk":1,"updated_at":"2026-06-29T00:54:40.898528+05:30"},{"city":"Pondicherry","state":"Puducherry","latitude":11.9139,"longitude":79.8145,"temp":26.4,"humidity":89,"rain":0.0,"pressure":1006.6,"uv_index":8.7,"wind_gusts":46.4,"aqi":63,"pm10":11.3,"pm2_5":8.8,"no2":11.7,"co":310.0,"o3":63.0,"so2":11.2,"mosquito_risk":7,"arthritis_risk":5,"migraine_risk":4,"frizz_risk":1,"updated_at":"2026-06-29T00:54:40.898538+05:30"},{"city":"Port Blair","state":"Andaman and Nicobar Islands","latitude":11.6234,"longitude":92.7265,"temp":24.5,"humidity":98,"rain":0.1,"pressure":1006.6,"uv_index":8.6,"wind_gusts":46.8,"aqi":22,"pm10":10.9,"pm2_5":6.6,"no2":0.2,"co":83.0,"o3":51.0,"so2":0.2,"mosquito_risk":6,"arthritis_risk":5,"migraine_risk":4,"frizz_risk":1,"updated_at":"2026-06-29T00:54:40.898548+05:30"},{"city":"Haridwar","state":"Uttarakhand","latitude":29.9457,"longitude":78.1642,"temp":28.1,"humidity":74,"rain":0.1,"pressure":966.4,"uv_index":7.1,"wind_gusts":34.6,"aqi":153,"pm10":67.8,"pm2_5":56.8,"no2":18.0,"co":350.0,"o3":68.0,"so2":7.3,"mosquito_risk":10,"arthritis_risk":5,"migraine_risk":7,"frizz_risk":1,"updated_at":"2026-06-29T00:54:40.898557+05:30"},{"city":"Rishikesh","state":"Uttarakhand","latitude":30.0869,"longitude":78.2676,"temp":25.5,"humidity":95,"rain":0.1,"pressure":959.7,"uv_index":6.0,"wind_gusts":27.0,"aqi":130,"pm10":56.3,"pm2_5":38.9,"no2":9.3,"co":311.0,"o3":96.0,"so2":4.4,"mosquito_risk":10,"arthritis_risk":5,"migraine_risk":3,"frizz_risk":1,"updated_at":"2026-06-29T00:54:40.898566+05:30"},{"city":"Nainital","state":"Uttarakhand","latitude":29.3919,"longitude":79.4542,"temp":16.6,"humidity":97,"rain":0.0,"pressure":801.3,"uv_index":6.2,"wind_gusts":28.4,"aqi":129,"pm10":63.1,"pm2_5":39.8,"no2":9.8,"co":335.0,"o3":88.0,"so2":4.6,"mosquito_risk":3,"arthritis_risk":10,"migraine_risk":7,"frizz_risk":1,"updated_at":"2026-06-29T00:54:40.898578+05:30"},{"city":"Mussoorie","state":"Uttarakhand","latitude":30.4599,"longitude":78.0664,"temp":17.2,"humidity":97,"rain":0.0,"pressure":799.4,"uv_index":5.45,"wind_gusts":37.1,"aqi":128,"pm10":49.5,"pm2_5":40.5,"no2":18.3,"co":328.0,"o3":76.0,"so2":6.1,"mosquito_risk":3,"arthritis_risk":10,"migraine_risk":3,"frizz_risk":1,"updated_at":"2026-06-29T00:54:40.898586+05:30"},{"city":"Dharamshala","state":"Himachal Pradesh","latitude":32.219,"longitude":76.3234,"temp":22.7,"humidity":91,"rain":0.0,"pressure":864.3,"uv_index":7.9,"wind_gusts":31.3,"aqi":57,"pm10":16.9,"pm2_5":15.1,"no2":18.6,"co":375.0,"o3":34.0,"so2":0.1,"mosquito_risk":3,"arthritis_risk":5,"migraine_risk":7,"frizz_risk":1,"updated_at":"2026-06-29T00:54:40.898592+05:30"},{"city":"Dalhousie","state":"Himachal Pradesh","latitude":32.5387,"longitude":75.971,"temp":15.8,"humidity":99,"rain":0.0,"pressure":799.4,"uv_index":8.05,"wind_gusts":31.3,"aqi":90,"pm10":37.8,"pm2_5":31.4,"no2":18.7,"co":483.0,"o3":75.0,"so2":1.7,"mosquito_risk":3,"arthritis_risk":10,"migraine_risk":7,"frizz_risk":0,"updated_at":"2026-06-29T00:54:40.898599+05:30"},{"city":"Patiala","state":"Punjab","latitude":30.3398,"longitude":76.3869,"temp":32.3,"humidity":66,"rain":0.0,"pressure":969.4,"uv_index":7.3,"wind_gusts":34.6,"aqi":166,"pm10":143.4,"pm2_5":97.6,"no2":42.6,"co":767.0,"o3":39.0,"so2":9.8,"mosquito_risk":3,"arthritis_risk":5,"migraine_risk":7,"frizz_risk":1,"updated_at":"2026-06-29T00:54:40.898606+05:30"},{"city":"Bhatinda","state":"Punjab","latitude":30.211,"longitude":74.9455,"temp":33.2,"humidity":61,"rain":0.0,"pressure":974.4,"uv_index":8.3,"wind_gusts":28.8,"aqi":156,"pm10":101.0,"pm2_5":74.5,"no2":58.6,"co":461.0,"o3":23.0,"so2":10.0,"mosquito_risk":3,"arthritis_risk":5,"migraine_risk":7,"frizz_risk":1,"updated_at":"2026-06-29T00:54:40.898612+05:30"},{"city":"Rohtak","state":"Haryana","latitude":28.8955,"longitude":76.6066,"temp":31.8,"humidity":64,"rain":0.0,"pressure":973.0,"uv_index":7.75,"wind_gusts":32.0,"aqi":165,"pm10":277.5,"pm2_5":106.9,"no2":55.9,"co":580.0,"o3":46.0,"so2":16.9,"mosquito_risk":3,"arthritis_risk":5,"migraine_risk":7,"frizz_risk":1,"updated_at":"2026-06-29T00:54:40.898618+05:30"},{"city":"Panipat","state":"Haryana","latitude":29.3909,"longitude":76.9635,"temp":31.7,"humidity":68,"rain":0.0,"pressure":971.6,"uv_index":6.7,"wind_gusts":32.0,"aqi":177,"pm10":235.2,"pm2_5":98.3,"no2":39.5,"co":690.0,"o3":58.0,"so2":10.1,"mosquito_risk":3,"arthritis_risk":5,"migraine_risk":7,"frizz_risk":1,"updated_at":"2026-06-29T00:54:40.898625+05:30"},{"city":"Mathura","state":"Uttar Pradesh","latitude":27.4924,"longitude":77.6737,"temp":32.5,"humidity":57,"rain":0.0,"pressure":978.2,"uv_index":7.4,"wind_gusts":34.9,"aqi":186,"pm10":179.7,"pm2_5":61.7,"no2":35.1,"co":253.0,"o3":34.0,"so2":6.5,"mosquito_risk":0,"arthritis_risk":5,"migraine_risk":7,"frizz_risk":1,"updated_at":"2026-06-29T00:54:40.898630+05:30"},{"city":"Vrindavan","state":"Uttar Pradesh","latitude":27.5823,"longitude":77.7027,"temp":32.0,"humidity":61,"rain":0.0,"pressure":978.6,"uv_index":7.4,"wind_gusts":32.8,"aqi":186,"pm10":179.7,"pm2_5":61.7,"no2":35.1,"co":342.0,"o3":34.0,"so2":6.5,"mosquito_risk":3,"arthritis_risk":5,"migraine_risk":7,"frizz_risk":1,"updated_at":"2026-06-29T00:54:40.898636+05:30"},{"city":"Ayodhya","state":"Uttar Pradesh","latitude":26.7922,"longitude":82.1998,"temp":30.9,"humidity":76,"rain":0.0,"pressure":987.0,"uv_index":8.45,"wind_gusts":43.6,"aqi":139,"pm10":100.8,"pm2_5":71.5,"no2":38.5,"co":618.0,"o3":41.0,"so2":8.9,"mosquito_risk":3,"arthritis_risk":5,"migraine_risk":7,"frizz_risk":1,"updated_at":"2026-06-29T00:54:40.898642+05:30"},{"city":"Ratlam","state":"Madhya Pradesh","latitude":23.3315,"longitude":75.0367,"temp":26.6,"humidity":75,"rain":0.0,"pressure":949.6,"uv_index":8.5,"wind_gusts":39.2,"aqi":81,"pm10":52.0,"pm2_5":36.9,"no2":12.4,"co":224.0,"o3":58.0,"so2":7.2,"mosquito_risk":7,"arthritis_risk":5,"migraine_risk":7,"frizz_risk":1,"updated_at":"2026-06-29T00:54:40.898648+05:30"},{"city":"Sagar","state":"Madhya Pradesh","latitude":23.8388,"longitude":78.7378,"temp":27.3,"humidity":81,"rain":0.0,"pressure":944.7,"uv_index":8.1,"wind_gusts":37.8,"aqi":75,"pm10":35.9,"pm2_5":25.3,"no2":8.4,"co":195.0,"o3":68.0,"so2":3.2,"mosquito_risk":7,"arthritis_risk":5,"migraine_risk":7,"frizz_risk":1,"updated_at":"2026-06-29T00:54:40.898654+05:30"},{"city":"Satna","state":"Madhya Pradesh","latitude":24.6005,"longitude":80.8322,"temp":31.4,"humidity":57,"rain":0.0,"pressure":964.7,"uv_index":8.75,"wind_gusts":39.2,"aqi":78,"pm10":39.8,"pm2_5":31.7,"no2":18.9,"co":185.0,"o3":42.0,"so2":3.5,"mosquito_risk":0,"arthritis_risk":5,"migraine_risk":7,"frizz_risk":1,"updated_at":"2026-06-29T00:54:40.898661+05:30"},{"city":"Akola","state":"Maharashtra","latitude":20.7002,"longitude":77.0082,"temp":27.9,"humidity":79,"rain":0.0,"pressure":970.6,"uv_index":4.85,"wind_gusts":32.8,"aqi":80,"pm10":25.8,"pm2_5":19.8,"no2":9.8,"co":184.0,"o3":60.0,"so2":3.2,"mosquito_risk":7,"arthritis_risk":5,"migraine_risk":3,"frizz_risk":1,"updated_at":"2026-06-29T00:54:40.898668+05:30"},{"city":"Amravati","state":"Maharashtra","latitude":20.9374,"longitude":77.7796,"temp":26.5,"humidity":87,"rain":0.1,"pressure":962.6,"uv_index":6.4,"wind_gusts":31.0,"aqi":79,"pm10":24.2,"pm2_5":18.9,"no2":8.4,"co":194.0,"o3":66.0,"so2":3.1,"mosquito_risk":10,"arthritis_risk":5,"migraine_risk":7,"frizz_risk":1,"updated_at":"2026-06-29T00:54:40.898675+05:30"},{"city":"Latur","state":"Maharashtra","latitude":18.4088,"longitude":76.5604,"temp":23.8,"humidity":93,"rain":0.0,"pressure":935.8,"uv_index":6.9,"wind_gusts":32.8,"aqi":68,"pm10":18.9,"pm2_5":14.1,"no2":5.1,"co":187.0,"o3":84.0,"so2":1.2,"mosquito_risk":3,"arthritis_risk":5,"migraine_risk":7,"frizz_risk":1,"updated_at":"2026-06-29T00:54:40.898681+05:30"},{"city":"Nanded","state":"Maharashtra","latitude":19.1383,"longitude":77.3091,"temp":25.0,"humidity":95,"rain":0.0,"pressure":964.5,"uv_index":6.15,"wind_gusts":28.4,"aqi":68,"pm10":16.2,"pm2_5":13.6,"no2":6.8,"co":183.0,"o3":75.0,"so2":2.0,"mosquito_risk":7,"arthritis_risk":5,"migraine_risk":7,"frizz_risk":1,"updated_at":"2026-06-29T00:54:40.898687+05:30"},{"city":"Gulbarga","state":"Karnataka","latitude":17.3297,"longitude":76.8343,"temp":23.9,"humidity":96,"rain":0.0,"pressure":955.2,"uv_index":7.15,"wind_gusts":42.5,"aqi":35,"pm10":6.2,"pm2_5":5.6,"no2":8.3,"co":163.0,"o3":52.0,"so2":1.9,"mosquito_risk":3,"arthritis_risk":5,"migraine_risk":7,"frizz_risk":1,"updated_at":"2026-06-29T00:54:40.898693+05:30"},{"city":"Bidar","state":"Karnataka","latitude":17.9104,"longitude":77.5199,"temp":23.4,"humidity":97,"rain":0.0,"pressure":931.4,"uv_index":6.65,"wind_gusts":32.4,"aqi":53,"pm10":11.6,"pm2_5":10.2,"no2":9.4,"co":176.0,"o3":65.0,"so2":1.3,"mosquito_risk":3,"arthritis_risk":5,"migraine_risk":7,"frizz_risk":1,"updated_at":"2026-06-29T00:54:40.898700+05:30"},{"city":"Hospet","state":"Karnataka","latitude":15.2689,"longitude":76.3909,"temp":23.7,"humidity":91,"rain":0.0,"pressure":953.1,"uv_index":7.35,"wind_gusts":60.1,"aqi":22,"pm10":3.8,"pm2_5":3.0,"no2":5.0,"co":123.0,"o3":39.0,"so2":1.7,"mosquito_risk":3,"arthritis_risk":5,"migraine_risk":7,"frizz_risk":1,"updated_at":"2026-06-29T00:54:40.898706+05:30"},{"city":"Tirupur","state":"Tamil Nadu","latitude":11.1085,"longitude":77.3411,"temp":23.9,"humidity":88,"rain":0.0,"pressure":974.2,"uv_index":8.85,"wind_gusts":59.0,"aqi":42,"pm10":11.9,"pm2_5":11.1,"no2":16.2,"co":134.0,"o3":25.0,"so2":4.1,"mosquito_risk":3,"arthritis_risk":5,"migraine_risk":7,"frizz_risk":1,"updated_at":"2026-06-29T00:54:40.898711+05:30"},{"city":"Alappuzha","state":"Kerala","latitude":9.4981,"longitude":76.3388,"temp":25.3,"humidity":93,"rain":0.1,"pressure":1009.6,"uv_index":8.45,"wind_gusts":51.5,"aqi":39,"pm10":11.1,"pm2_5":7.3,"no2":5.2,"co":86.0,"o3":43.0,"so2":2.1,"mosquito_risk":10,"arthritis_risk":0,"migraine_risk":4,"frizz_risk":1,"updated_at":"2026-06-29T00:54:40.898718+05:30"},{"city":"Munnar","state":"Kerala","latitude":10.0889,"longitude":77.0595,"temp":17.0,"humidity":100,"rain":0.1,"pressure":855.8,"uv_index":8.8,"wind_gusts":47.5,"aqi":19,"pm10":2.3,"pm2_5":2.2,"no2":6.1,"co":89.0,"o3":26.0,"so2":1.4,"mosquito_risk":6,"arthritis_risk":10,"migraine_risk":7,"frizz_risk":1,"updated_at":"2026-06-29T00:54:40.898724+05:30"},{"city":"Silchar","state":"Assam","latitude":24.8333,"longitude":92.7789,"temp":25.7,"humidity":96,"rain":0.1,"pressure":1000.4,"uv_index":8.6,"wind_gusts":29.5,"aqi":51,"pm10":11.6,"pm2_5":11.0,"no2":6.0,"co":228.0,"o3":62.0,"so2":3.2,"mosquito_risk":10,"arthritis_risk":5,"migraine_risk":4,"frizz_risk":1,"updated_at":"2026-06-29T00:54:40.898730+05:30"},{"city":"Dibrugarh","state":"Assam","latitude":27.4728,"longitude":94.912,"temp":24.7,"humidity":97,"rain":0.2,"pressure":990.1,"uv_index":6.7,"wind_gusts":27.0,"aqi":53,"pm10":10.7,"pm2_5":9.9,"no2":9.0,"co":188.0,"o3":54.0,"so2":1.0,"mosquito_risk":6,"arthritis_risk":5,"migraine_risk":7,"frizz_risk":1,"updated_at":"2026-06-29T00:54:40.898736+05:30"}]