[{"city":"Delhi","state":"Delhi","latitude":28.6139,"longitude":77.209,"temp":32.3,"humidity":72,"rain":0.0,"pressure":976.2,"uv_index":7.4,"wind_gusts":20.2,"aqi":151,"pm10":59.4,"pm2_5":44.6,"no2":17.6,"co":507.0,"o3":154.0,"so2":32.2,"mosquito_risk":3,"arthritis_risk":5,"migraine_risk":7,"frizz_risk":1,"updated_at":"2026-07-05T10:28:07.641999+05:30"},{"city":"Mumbai","state":"Maharashtra","latitude":19.076,"longitude":72.8777,"temp":26.4,"humidity":92,"rain":0.8,"pressure":999.9,"uv_index":0.85,"wind_gusts":72.0,"aqi":29,"pm10":5.0,"pm2_5":3.7,"no2":5.2,"co":157.0,"o3":51.0,"so2":3.8,"mosquito_risk":10,"arthritis_risk":5,"migraine_risk":3,"frizz_risk":1,"updated_at":"2026-07-05T10:28:07.642037+05:30"},{"city":"Bangalore","state":"Karnataka","latitude":12.9716,"longitude":77.5946,"temp":25.0,"humidity":64,"rain":0.0,"pressure":911.2,"uv_index":5.15,"wind_gusts":70.6,"aqi":19,"pm10":6.4,"pm2_5":4.0,"no2":5.8,"co":239.0,"o3":45.0,"so2":3.1,"mosquito_risk":7,"arthritis_risk":5,"migraine_risk":3,"frizz_risk":1,"updated_at":"2026-07-05T10:28:07.642053+05:30"},{"city":"Hyderabad","state":"Telangana","latitude":17.385,"longitude":78.4867,"temp":26.9,"humidity":72,"rain":0.0,"pressure":948.2,"uv_index":3.4,"wind_gusts":72.0,"aqi":18,"pm10":4.1,"pm2_5":3.2,"no2":5.2,"co":181.0,"o3":41.0,"so2":3.7,"mosquito_risk":7,"arthritis_risk":5,"migraine_risk":3,"frizz_risk":1,"updated_at":"2026-07-05T10:28:07.642062+05:30"},{"city":"Chennai","state":"Tamil Nadu","latitude":13.0827,"longitude":80.2707,"temp":34.7,"humidity":42,"rain":0.0,"pressure":1004.8,"uv_index":8.25,"wind_gusts":56.5,"aqi":43,"pm10":10.6,"pm2_5":7.0,"no2":5.9,"co":155.0,"o3":61.0,"so2":8.9,"mosquito_risk":0,"arthritis_risk":5,"migraine_risk":4,"frizz_risk":1,"updated_at":"2026-07-05T10:28:07.642071+05:30"},{"city":"Kolkata","state":"West Bengal","latitude":22.5726,"longitude":88.3639,"temp":29.3,"humidity":82,"rain":0.1,"pressure":994.6,"uv_index":7.6,"wind_gusts":41.8,"aqi":42,"pm10":10.6,"pm2_5":8.9,"no2":3.8,"co":217.0,"o3":89.0,"so2":7.5,"mosquito_risk":10,"arthritis_risk":5,"migraine_risk":7,"frizz_risk":1,"updated_at":"2026-07-05T10:28:07.642079+05:30"},{"city":"Pune","state":"Maharashtra","latitude":18.5204,"longitude":73.8567,"temp":23.8,"humidity":90,"rain":0.1,"pressure":941.1,"uv_index":0.8,"wind_gusts":61.6,"aqi":20,"pm10":1.8,"pm2_5":1.8,"no2":4.6,"co":135.0,"o3":45.0,"so2":2.9,"mosquito_risk":6,"arthritis_risk":5,"migraine_risk":3,"frizz_risk":1,"updated_at":"2026-07-05T10:28:07.642085+05:30"},{"city":"Ahmedabad","state":"Gujarat","latitude":23.0225,"longitude":72.5714,"temp":29.3,"humidity":83,"rain":0.0,"pressure":994.2,"uv_index":6.85,"wind_gusts":26.6,"aqi":66,"pm10":40.7,"pm2_5":18.3,"no2":8.6,"co":253.0,"o3":54.0,"so2":6.5,"mosquito_risk":7,"arthritis_risk":5,"migraine_risk":7,"frizz_risk":1,"updated_at":"2026-07-05T10:28:07.642092+05:30"},{"city":"Jaipur","state":"Rajasthan","latitude":26.9124,"longitude":75.7873,"temp":31.5,"humidity":70,"rain":0.0,"pressure":953.1,"uv_index":7.35,"wind_gusts":23.0,"aqi":95,"pm10":34.9,"pm2_5":14.7,"no2":5.2,"co":340.0,"o3":127.0,"so2":6.0,"mosquito_risk":3,"arthritis_risk":5,"migraine_risk":7,"frizz_risk":1,"updated_at":"2026-07-05T10:28:07.642098+05:30"},{"city":"Lucknow","state":"Uttar Pradesh","latitude":26.8467,"longitude":80.9462,"temp":33.1,"humidity":71,"rain":0.0,"pressure":986.6,"uv_index":7.7,"wind_gusts":31.3,"aqi":92,"pm10":30.6,"pm2_5":30.0,"no2":5.5,"co":323.0,"o3":132.0,"so2":7.0,"mosquito_risk":3,"arthritis_risk":5,"migraine_risk":7,"frizz_risk":1,"updated_at":"2026-07-05T10:28:07.642110+05:30"},{"city":"Kanpur","state":"Uttar Pradesh","latitude":26.4499,"longitude":80.3319,"temp":30.7,"humidity":78,"rain":0.1,"pressure":985.0,"uv_index":8.1,"wind_gusts":28.4,"aqi":85,"pm10":32.7,"pm2_5":26.2,"no2":4.9,"co":282.0,"o3":130.0,"so2":6.6,"mosquito_risk":6,"arthritis_risk":5,"migraine_risk":7,"frizz_risk":1,"updated_at":"2026-07-05T10:28:07.642117+05:30"},{"city":"Chandigarh","state":"Chandigarh","latitude":30.7333,"longitude":76.7794,"temp":32.1,"humidity":68,"rain":0.0,"pressure":962.5,"uv_index":7.1,"wind_gusts":26.6,"aqi":151,"pm10":57.7,"pm2_5":54.4,"no2":6.0,"co":505.0,"o3":165.0,"so2":18.0,"mosquito_risk":3,"arthritis_risk":5,"migraine_risk":7,"frizz_risk":1,"updated_at":"2026-07-05T10:28:07.642124+05:30"},{"city":"Srinagar","state":"Jammu and Kashmir","latitude":34.0837,"longitude":74.7973,"temp":27.6,"humidity":46,"rain":0.0,"pressure":840.0,"uv_index":9.05,"wind_gusts":26.3,"aqi":85,"pm10":37.8,"pm2_5":26.7,"no2":4.4,"co":460.0,"o3":155.0,"so2":8.2,"mosquito_risk":4,"arthritis_risk":5,"migraine_risk":7,"frizz_risk":0,"updated_at":"2026-07-05T10:28:07.642131+05:30"},{"city":"Jammu","state":"Jammu and Kashmir","latitude":32.7266,"longitude":74.857,"temp":32.1,"humidity":68,"rain":0.0,"pressure":966.0,"uv_index":8.5,"wind_gusts":36.0,"aqi":123,"pm10":65.7,"pm2_5":51.5,"no2":5.0,"co":338.0,"o3":173.0,"so2":7.6,"mosquito_risk":3,"arthritis_risk":5,"migraine_risk":7,"frizz_risk":1,"updated_at":"2026-07-05T10:28:07.642137+05:30"},{"city":"Amritsar","state":"Punjab","latitude":31.634,"longitude":74.8723,"temp":30.7,"humidity":80,"rain":0.0,"pressure":973.8,"uv_index":8.4,"wind_gusts":54.7,"aqi":155,"pm10":91.3,"pm2_5":73.8,"no2":10.3,"co":444.0,"o3":142.0,"so2":11.9,"mosquito_risk":3,"arthritis_risk":5,"migraine_risk":7,"frizz_risk":1,"updated_at":"2026-07-05T10:28:07.642143+05:30"},{"city":"Ludhiana","state":"Punjab","latitude":30.901,"longitude":75.8573,"temp":31.5,"humidity":75,"rain":0.0,"pressure":971.9,"uv_index":7.8,"wind_gusts":31.7,"aqi":171,"pm10":96.9,"pm2_5":87.3,"no2":13.4,"co":536.0,"o3":146.0,"so2":18.7,"mosquito_risk":3,"arthritis_risk":5,"migraine_risk":7,"frizz_risk":1,"updated_at":"2026-07-05T10:28:07.642149+05:30"},{"city":"Jalandhar","state":"Punjab","latitude":31.326,"longitude":75.5762,"temp":31.5,"humidity":76,"rain":0.0,"pressure":973.0,"uv_index":7.45,"wind_gusts":20.9,"aqi":170,"pm10":92.7,"pm2_5":82.9,"no2":12.4,"co":451.0,"o3":146.0,"so2":9.4,"mosquito_risk":3,"arthritis_risk":5,"migraine_risk":7,"frizz_risk":1,"updated_at":"2026-07-05T10:28:07.642155+05:30"},{"city":"Dehradun","state":"Uttarakhand","latitude":30.6284,"longitude":78.0322,"temp":24.5,"humidity":69,"rain":0.0,"pressure":829.1,"uv_index":7.25,"wind_gusts":27.4,"aqi":47,"pm10":7.1,"pm2_5":7.0,"no2":0.4,"co":240.0,"o3":123.0,"so2":0.5,"mosquito_risk":3,"arthritis_risk":5,"migraine_risk":7,"frizz_risk":1,"updated_at":"2026-07-05T10:28:07.642161+05:30"},{"city":"Shimla","state":"Himachal Pradesh","latitude":31.1048,"longitude":77.1734,"temp":23.6,"humidity":57,"rain":0.0,"pressure":784.7,"uv_index":6.65,"wind_gusts":36.7,"aqi":61,"pm10":12.3,"pm2_5":11.9,"no2":1.1,"co":253.0,"o3":126.0,"so2":1.1,"mosquito_risk":0,"arthritis_risk":5,"migraine_risk":7,"frizz_risk":0,"updated_at":"2026-07-05T10:28:07.642167+05:30"},{"city":"Manali","state":"Himachal Pradesh","latitude":32.2396,"longitude":77.1887,"temp":26.9,"humidity":54,"rain":0.0,"pressure":818.4,"uv_index":9.4,"wind_gusts":34.9,"aqi":43,"pm10":3.0,"pm2_5":2.9,"no2":5.5,"co":216.0,"o3":108.0,"so2":0.5,"mosquito_risk":4,"arthritis_risk":5,"migraine_risk":7,"frizz_risk":1,"updated_at":"2026-07-05T10:28:07.642175+05:30"},{"city":"Gurgaon","state":"Haryana","latitude":28.4595,"longitude":77.0266,"temp":32.3,"humidity":71,"rain":0.1,"pressure":974.7,"uv_index":5.85,"wind_gusts":23.8,"aqi":146,"pm10":55.8,"pm2_5":40.5,"no2":11.4,"co":468.0,"o3":143.0,"so2":19.0,"mosquito_risk":6,"arthritis_risk":5,"migraine_risk":3,"frizz_risk":1,"updated_at":"2026-07-05T10:28:07.642181+05:30"},{"city":"Noida","state":"Uttar Pradesh","latitude":28.5355,"longitude":77.391,"temp":32.4,"humidity":73,"rain":0.0,"pressure":977.5,"uv_index":6.55,"wind_gusts":20.5,"aqi":146,"pm10":55.8,"pm2_5":40.5,"no2":11.4,"co":445.0,"o3":143.0,"so2":19.0,"mosquito_risk":3,"arthritis_risk":5,"migraine_risk":7,"frizz_risk":1,"updated_at":"2026-07-05T10:28:07.642187+05:30"},{"city":"Ghaziabad","state":"Uttar Pradesh","latitude":28.6692,"longitude":77.4538,"temp":32.1,"humidity":74,"rain":0.0,"pressure":976.0,"uv_index":7.05,"wind_gusts":22.7,"aqi":120,"pm10":36.6,"pm2_5":36.2,"no2":7.6,"co":367.0,"o3":147.0,"so2":14.9,"mosquito_risk":3,"arthritis_risk":5,"migraine_risk":7,"frizz_risk":1,"updated_at":"2026-07-05T10:28:07.642196+05:30"},{"city":"Faridabad","state":"Haryana","latitude":28.4089,"longitude":77.3178,"temp":32.3,"humidity":71,"rain":0.0,"pressure":977.0,"uv_index":5.8,"wind_gusts":22.7,"aqi":146,"pm10":55.8,"pm2_5":40.5,"no2":11.4,"co":459.0,"o3":143.0,"so2":19.0,"mosquito_risk":3,"arthritis_risk":5,"migraine_risk":3,"frizz_risk":1,"updated_at":"2026-07-05T10:28:07.642202+05:30"},{"city":"Meerut","state":"Uttar Pradesh","latitude":28.9845,"longitude":77.7064,"temp":31.6,"humidity":76,"rain":0.0,"pressure":975.0,"uv_index":7.65,"wind_gusts":24.5,"aqi":120,"pm10":36.6,"pm2_5":36.2,"no2":7.6,"co":371.0,"o3":147.0,"so2":14.9,"mosquito_risk":3,"arthritis_risk":5,"migraine_risk":7,"frizz_risk":1,"updated_at":"2026-07-05T10:28:07.642208+05:30"},{"city":"Agra","state":"Uttar Pradesh","latitude":27.1767,"longitude":78.0081,"temp":31.8,"humidity":75,"rain":0.0,"pressure":980.9,"uv_index":8.05,"wind_gusts":32.0,"aqi":93,"pm10":92.7,"pm2_5":34.5,"no2":8.5,"co":344.0,"o3":114.0,"so2":8.1,"mosquito_risk":3,"arthritis_risk":5,"migraine_risk":7,"frizz_risk":1,"updated_at":"2026-07-05T10:28:07.642214+05:30"},{"city":"Varanasi","state":"Uttar Pradesh","latitude":25.3176,"longitude":82.9739,"temp":35.4,"humidity":55,"rain":0.0,"pressure":989.1,"uv_index":6.25,"wind_gusts":45.0,"aqi":77,"pm10":24.3,"pm2_5":23.8,"no2":4.7,"co":288.0,"o3":135.0,"so2":12.4,"mosquito_risk":0,"arthritis_risk":5,"migraine_risk":10,"frizz_risk":1,"updated_at":"2026-07-05T10:28:07.642221+05:30"},{"city":"Prayagraj","state":"Uttar Pradesh","latitude":25.4358,"longitude":81.8463,"temp":33.7,"humidity":65,"rain":0.0,"pressure":988.1,"uv_index":8.05,"wind_gusts":35.3,"aqi":86,"pm10":25.1,"pm2_5":24.6,"no2":5.4,"co":287.0,"o3":131.0,"so2":8.2,"mosquito_risk":3,"arthritis_risk":5,"migraine_risk":7,"frizz_risk":1,"updated_at":"2026-07-05T10:28:07.642228+05:30"},{"city":"Gorakhpur","state":"Uttar Pradesh","latitude":26.7606,"longitude":83.3732,"temp":33.8,"humidity":62,"rain":0.0,"pressure":989.8,"uv_index":7.95,"wind_gusts":40.0,"aqi":103,"pm10":28.0,"pm2_5":27.7,"no2":4.3,"co":339.0,"o3":135.0,"so2":6.8,"mosquito_risk":3,"arthritis_risk":5,"migraine_risk":7,"frizz_risk":1,"updated_at":"2026-07-05T10:28:07.642234+05:30"},{"city":"Bareilly","state":"Uttar Pradesh","latitude":28.367,"longitude":79.4304,"temp":29.8,"humidity":81,"rain":0.0,"pressure":980.9,"uv_index":7.15,"wind_gusts":27.7,"aqi":96,"pm10":26.8,"pm2_5":26.4,"no2":5.9,"co":308.0,"o3":135.0,"so2":10.2,"mosquito_risk":7,"arthritis_risk":5,"migraine_risk":7,"frizz_risk":1,"updated_at":"2026-07-05T10:28:07.642242+05:30"},{"city":"Aligarh","state":"Uttar Pradesh","latitude":27.8974,"longitude":78.088,"temp":32.1,"humidity":72,"rain":0.0,"pressure":978.7,"uv_index":6.55,"wind_gusts":25.6,"aqi":101,"pm10":65.0,"pm2_5":32.5,"no2":7.8,"co":360.0,"o3":120.0,"so2":13.3,"mosquito_risk":3,"arthritis_risk":5,"migraine_risk":7,"frizz_risk":1,"updated_at":"2026-07-05T10:28:07.642248+05:30"},{"city":"Moradabad","state":"Uttar Pradesh","latitude":28.8386,"longitude":78.7733,"temp":29.8,"humidity":80,"rain":0.0,"pressure":977.7,"uv_index":7.3,"wind_gusts":30.6,"aqi":114,"pm10":23.3,"pm2_5":23.1,"no2":4.7,"co":312.0,"o3":143.0,"so2":9.1,"mosquito_risk":7,"arthritis_risk":5,"migraine_risk":7,"frizz_risk":1,"updated_at":"2026-07-05T10:28:07.642254+05:30"},{"city":"Saharanpur","state":"Uttar Pradesh","latitude":29.9637,"longitude":77.546,"temp":31.7,"humidity":75,"rain":0.0,"pressure":969.5,"uv_index":6.8,"wind_gusts":23.4,"aqi":151,"pm10":30.6,"pm2_5":30.5,"no2":5.4,"co":429.0,"o3":129.0,"so2":7.8,"mosquito_risk":3,"arthritis_risk":5,"migraine_risk":7,"frizz_risk":1,"updated_at":"2026-07-05T10:28:07.642261+05:30"},{"city":"Jhansi","state":"Uttar Pradesh","latitude":25.4484,"longitude":78.5685,"temp":31.7,"humidity":70,"rain":0.0,"pressure":971.0,"uv_index":7.7,"wind_gusts":28.8,"aqi":73,"pm10":23.1,"pm2_5":22.0,"no2":4.4,"co":237.0,"o3":124.0,"so2":10.1,"mosquito_risk":3,"arthritis_risk":5,"migraine_risk":7,"frizz_risk":1,"updated_at":"2026-07-05T10:28:10.983409+05:30"},{"city":"Surat","state":"Gujarat","latitude":21.1702,"longitude":72.8311,"temp":30.0,"humidity":75,"rain":0.0,"pressure":998.1,"uv_index":2.55,"wind_gusts":29.5,"aqi":75,"pm10":38.8,"pm2_5":26.7,"no2":33.3,"co":373.0,"o3":35.0,"so2":60.0,"mosquito_risk":7,"arthritis_risk":5,"migraine_risk":3,"frizz_risk":1,"updated_at":"2026-07-05T10:28:10.983437+05:30"},{"city":"Vadodara","state":"Gujarat","latitude":22.3072,"longitude":73.1812,"temp":27.2,"humidity":90,"rain":0.1,"pressure":996.6,"uv_index":6.35,"wind_gusts":29.2,"aqi":50,"pm10":24.1,"pm2_5":12.7,"no2":9.4,"co":221.0,"o3":61.0,"so2":5.5,"mosquito_risk":10,"arthritis_risk":5,"migraine_risk":7,"frizz_risk":1,"updated_at":"2026-07-05T10:28:10.983447+05:30"},{"city":"Rajkot","state":"Gujarat","latitude":22.3039,"longitude":70.8022,"temp":30.6,"humidity":72,"rain":0.0,"pressure":986.2,"uv_index":4.4,"wind_gusts":37.4,"aqi":71,"pm10":68.5,"pm2_5":22.6,"no2":3.4,"co":102.0,"o3":54.0,"so2":4.6,"mosquito_risk":3,"arthritis_risk":5,"migraine_risk":3,"frizz_risk":1,"updated_at":"2026-07-05T10:28:10.983456+05:30"},{"city":"Thane","state":"Maharashtra","latitude":19.2183,"longitude":72.9781,"temp":25.9,"humidity":95,"rain":0.5,"pressure":998.9,"uv_index":0.8,"wind_gusts":56.5,"aqi":29,"pm10":5.0,"pm2_5":3.7,"no2":5.2,"co":173.0,"o3":51.0,"so2":3.8,"mosquito_risk":10,"arthritis_risk":5,"migraine_risk":3,"frizz_risk":1,"updated_at":"2026-07-05T10:28:10.983465+05:30"},{"city":"Nagpur","state":"Maharashtra","latitude":21.1458,"longitude":79.0882,"temp":28.8,"humidity":78,"rain":0.0,"pressure":966.2,"uv_index":6.3,"wind_gusts":33.8,"aqi":48,"pm10":6.7,"pm2_5":6.2,"no2":10.4,"co":202.0,"o3":63.0,"so2":19.6,"mosquito_risk":7,"arthritis_risk":5,"migraine_risk":7,"frizz_risk":1,"updated_at":"2026-07-05T10:28:10.983472+05:30"},{"city":"Nashik","state":"Maharashtra","latitude":19.9975,"longitude":73.7898,"temp":24.4,"humidity":94,"rain":0.1,"pressure":937.4,"uv_index":0.8,"wind_gusts":49.0,"aqi":16,"pm10":2.3,"pm2_5":2.1,"no2":7.1,"co":159.0,"o3":45.0,"so2":6.2,"mosquito_risk":6,"arthritis_risk":5,"migraine_risk":3,"frizz_risk":1,"updated_at":"2026-07-05T10:28:10.983480+05:30"},{"city":"Aurangabad","state":"Maharashtra","latitude":19.8762,"longitude":75.3433,"temp":27.1,"humidity":76,"rain":0.0,"pressure":937.8,"uv_index":7.65,"wind_gusts":60.5,"aqi":16,"pm10":1.7,"pm2_5":1.6,"no2":2.6,"co":146.0,"o3":49.0,"so2":3.3,"mosquito_risk":7,"arthritis_risk":5,"migraine_risk":7,"frizz_risk":1,"updated_at":"2026-07-05T10:28:10.983486+05:30"},{"city":"Solapur","state":"Maharashtra","latitude":17.6599,"longitude":75.9064,"temp":24.9,"humidity":91,"rain":0.4,"pressure":952.4,"uv_index":1.6,"wind_gusts":64.1,"aqi":20,"pm10":2.3,"pm2_5":1.8,"no2":2.7,"co":111.0,"o3":46.0,"so2":1.6,"mosquito_risk":6,"arthritis_risk":5,"migraine_risk":3,"frizz_risk":1,"updated_at":"2026-07-05T10:28:10.983494+05:30"},{"city":"Kolhapur","state":"Maharashtra","latitude":16.705,"longitude":74.2433,"temp":23.1,"humidity":94,"rain":0.4,"pressure":943.7,"uv_index":3.5,"wind_gusts":61.2,"aqi":21,"pm10":2.9,"pm2_5":2.4,"no2":3.1,"co":120.0,"o3":46.0,"so2":1.1,"mosquito_risk":6,"arthritis_risk":5,"migraine_risk":3,"frizz_risk":1,"updated_at":"2026-07-05T10:28:10.983501+05:30"},{"city":"Goa","state":"Goa","latitude":15.2993,"longitude":74.124,"temp":25.4,"humidity":97,"rain":0.3,"pressure":996.9,"uv_index":7.8,"wind_gusts":37.4,"aqi":44,"pm10":30.6,"pm2_5":13.4,"no2":1.2,"co":175.0,"o3":53.0,"so2":0.6,"mosquito_risk":10,"arthritis_risk":5,"migraine_risk":7,"frizz_risk":1,"updated_at":"2026-07-05T10:28:10.983508+05:30"},{"city":"Jodhpur","state":"Rajasthan","latitude":26.2389,"longitude":73.0243,"temp":33.1,"humidity":58,"rain":0.0,"pressure":975.0,"uv_index":8.4,"wind_gusts":22.0,"aqi":137,"pm10":110.1,"pm2_5":34.8,"no2":3.0,"co":143.0,"o3":72.0,"so2":2.6,"mosquito_risk":0,"arthritis_risk":5,"migraine_risk":7,"frizz_risk":1,"updated_at":"2026-07-05T10:28:10.983515+05:30"},{"city":"Udaipur","state":"Rajasthan","latitude":24.5854,"longitude":73.7125,"temp":30.5,"humidity":62,"rain":0.0,"pressure":939.6,"uv_index":8.1,"wind_gusts":27.7,"aqi":68,"pm10":63.6,"pm2_5":21.6,"no2":2.6,"co":170.0,"o3":81.0,"so2":4.7,"mosquito_risk":3,"arthritis_risk":5,"migraine_risk":7,"frizz_risk":1,"updated_at":"2026-07-05T10:28:10.983521+05:30"},{"city":"Kota","state":"Rajasthan","latitude":25.2138,"longitude":75.8648,"temp":33.1,"humidity":64,"rain":0.1,"pressure":971.0,"uv_index":7.5,"wind_gusts":28.4,"aqi":79,"pm10":36.0,"pm2_5":19.6,"no2":4.6,"co":241.0,"o3":106.0,"so2":8.9,"mosquito_risk":6,"arthritis_risk":5,"migraine_risk":7,"frizz_risk":1,"updated_at":"2026-07-05T10:28:10.983528+05:30"},{"city":"Bikaner","state":"Rajasthan","latitude":28.0229,"longitude":73.3119,"temp":37.0,"humidity":41,"rain":0.0,"pressure":973.7,"uv_index":8.25,"wind_gusts":24.5,"aqi":118,"pm10":195.6,"pm2_5":55.6,"no2":1.9,"co":227.0,"o3":74.0,"so2":5.7,"mosquito_risk":0,"arthritis_risk":5,"migraine_risk":10,"frizz_risk":1,"updated_at":"2026-07-05T10:28:10.983535+05:30"},{"city":"Ajmer","state":"Rajasthan","latitude":26.4499,"longitude":74.6399,"temp":31.9,"humidity":60,"rain":0.0,"pressure":947.9,"uv_index":8.35,"wind_gusts":22.7,"aqi":100,"pm10":104.5,"pm2_5":38.5,"no2":4.2,"co":158.0,"o3":92.0,"so2":6.2,"mosquito_risk":0,"arthritis_risk":5,"migraine_risk":7,"frizz_risk":1,"updated_at":"2026-07-05T10:28:10.983543+05:30"},{"city":"Gwalior","state":"Madhya Pradesh","latitude":26.2183,"longitude":78.1828,"temp":31.1,"humidity":77,"rain":0.0,"pressure":976.2,"uv_index":6.95,"wind_gusts":29.5,"aqi":73,"pm10":27.9,"pm2_5":24.9,"no2":3.9,"co":250.0,"o3":120.0,"so2":4.6,"mosquito_risk":3,"arthritis_risk":5,"migraine_risk":7,"frizz_risk":1,"updated_at":"2026-07-05T10:28:10.983550+05:30"},{"city":"Indore","state":"Madhya Pradesh","latitude":22.7196,"longitude":75.8577,"temp":27.8,"humidity":77,"rain":0.1,"pressure":941.1,"uv_index":7.85,"wind_gusts":29.5,"aqi":62,"pm10":17.3,"pm2_5":14.8,"no2":4.8,"co":276.0,"o3":85.0,"so2":3.0,"mosquito_risk":10,"arthritis_risk":5,"migraine_risk":7,"frizz_risk":1,"updated_at":"2026-07-05T10:28:10.983557+05:30"},{"city":"Bhopal","state":"Madhya Pradesh","latitude":23.2599,"longitude":77.4126,"temp":29.9,"humidity":73,"rain":0.0,"pressure":946.7,"uv_index":8.4,"wind_gusts":27.7,"aqi":71,"pm10":33.6,"pm2_5":31.2,"no2":3.3,"co":285.0,"o3":103.0,"so2":4.0,"mosquito_risk":7,"arthritis_risk":5,"migraine_risk":7,"frizz_risk":1,"updated_at":"2026-07-05T10:28:10.983564+05:30"},{"city":"Jabalpur","state":"Madhya Pradesh","latitude":23.1815,"longitude":79.9864,"temp":29.3,"humidity":75,"rain":0.0,"pressure":954.2,"uv_index":8.25,"wind_gusts":25.6,"aqi":78,"pm10":23.3,"pm2_5":23.1,"no2":2.3,"co":218.0,"o3":119.0,"so2":5.5,"mosquito_risk":7,"arthritis_risk":5,"migraine_risk":7,"frizz_risk":1,"updated_at":"2026-07-05T10:28:10.983571+05:30"},{"city":"Ujjain","state":"Madhya Pradesh","latitude":23.1765,"longitude":75.7885,"temp":29.1,"humidity":74,"rain":0.1,"pressure":946.7,"uv_index":8.45,"wind_gusts":28.1,"aqi":60,"pm10":15.7,"pm2_5":12.6,"no2":2.9,"co":237.0,"o3":87.0,"so2":2.8,"mosquito_risk":10,"arthritis_risk":5,"migraine_risk":7,"frizz_risk":1,"updated_at":"2026-07-05T10:28:10.983578+05:30"},{"city":"Visakhapatnam","state":"Andhra Pradesh","latitude":17.6868,"longitude":83.2185,"temp":28.5,"humidity":75,"rain":0.0,"pressure":994.9,"uv_index":2.9,"wind_gusts":66.6,"aqi":34,"pm10":9.3,"pm2_5":8.5,"no2":11.5,"co":229.0,"o3":45.0,"so2":24.0,"mosquito_risk":7,"arthritis_risk":5,"migraine_risk":3,"frizz_risk":1,"updated_at":"2026-07-05T10:28:10.983585+05:30"},{"city":"Vijayawada","state":"Andhra Pradesh","latitude":16.5062,"longitude":80.648,"temp":28.0,"humidity":75,"rain":0.0,"pressure":998.0,"uv_index":4.05,"wind_gusts":47.9,"aqi":30,"pm10":10.3,"pm2_5":7.0,"no2":4.8,"co":128.0,"o3":42.0,"so2":4.6,"mosquito_risk":7,"arthritis_risk":5,"migraine_risk":3,"frizz_risk":1,"updated_at":"2026-07-05T10:28:10.983591+05:30"},{"city":"Guntur","state":"Andhra Pradesh","latitude":16.3067,"longitude":80.4365,"temp":29.0,"humidity":67,"rain":0.0,"pressure":999.3,"uv_index":3.1,"wind_gusts":51.8,"aqi":27,"pm10":8.8,"pm2_5":6.3,"no2":4.9,"co":125.0,"o3":40.0,"so2":4.2,"mosquito_risk":7,"arthritis_risk":5,"migraine_risk":3,"frizz_risk":1,"updated_at":"2026-07-05T10:28:10.983598+05:30"},{"city":"Nellore","state":"Andhra Pradesh","latitude":14.4426,"longitude":79.9865,"temp":32.6,"humidity":49,"rain":0.0,"pressure":1002.5,"uv_index":2.75,"wind_gusts":53.3,"aqi":25,"pm10":7.1,"pm2_5":4.3,"no2":3.7,"co":120.0,"o3":48.0,"so2":3.4,"mosquito_risk":0,"arthritis_risk":5,"migraine_risk":0,"frizz_risk":1,"updated_at":"2026-07-05T10:28:10.983606+05:30"},{"city":"Kurnool","state":"Andhra Pradesh","latitude":15.8281,"longitude":78.0373,"temp":29.3,"humidity":62,"rain":0.0,"pressure":973.7,"uv_index":2.7,"wind_gusts":73.8,"aqi":19,"pm10":5.6,"pm2_5":3.3,"no2":2.2,"co":106.0,"o3":49.0,"so2":2.4,"mosquito_risk":7,"arthritis_risk":5,"migraine_risk":3,"frizz_risk":1,"updated_at":"2026-07-05T10:28:10.983615+05:30"},{"city":"Kakinada","state":"Andhra Pradesh","latitude":16.9891,"longitude":82.2475,"temp":28.8,"humidity":73,"rain":0.0,"pressure":1001.3,"uv_index":4.3,"wind_gusts":59.8,"aqi":30,"pm10":7.0,"pm2_5":5.4,"no2":4.2,"co":164.0,"o3":54.0,"so2":5.0,"mosquito_risk":7,"arthritis_risk":5,"migraine_risk":0,"frizz_risk":1,"updated_at":"2026-07-05T10:28:10.983622+05:30"},{"city":"Tirupati","state":"Andhra Pradesh","latitude":13.6288,"longitude":79.4192,"temp":28.8,"humidity":63,"rain":0.0,"pressure":988.9,"uv_index":4.25,"wind_gusts":55.4,"aqi":33,"pm10":8.4,"pm2_5":4.8,"no2":3.0,"co":110.0,"o3":49.0,"so2":1.7,"mosquito_risk":7,"arthritis_risk":5,"migraine_risk":3,"frizz_risk":1,"updated_at":"2026-07-05T10:28:10.983629+05:30"},{"city":"Warangal","state":"Telangana","latitude":17.9689,"longitude":79.5941,"temp":27.0,"humidity":82,"rain":0.1,"pressure":973.1,"uv_index":1.4,"wind_gusts":55.8,"aqi":18,"pm10":4.3,"pm2_5":3.7,"no2":3.3,"co":136.0,"o3":46.0,"so2":2.7,"mosquito_risk":10,"arthritis_risk":5,"migraine_risk":3,"frizz_risk":1,"updated_at":"2026-07-05T10:28:10.983636+05:30"},{"city":"Nizamabad","state":"Telangana","latitude":18.6725,"longitude":78.0941,"temp":26.4,"humidity":81,"rain":0.0,"pressure":958.9,"uv_index":1.95,"wind_gusts":58.3,"aqi":18,"pm10":3.9,"pm2_5":3.5,"no2":3.1,"co":140.0,"o3":45.0,"so2":2.6,"mosquito_risk":7,"arthritis_risk":5,"migraine_risk":3,"frizz_risk":1,"updated_at":"2026-07-05T10:28:10.983643+05:30"},{"city":"Mysore","state":"Karnataka","latitude":12.2958,"longitude":76.6396,"temp":24.6,"humidity":73,"rain":0.0,"pressure":928.9,"uv_index":7.4,"wind_gusts":64.1,"aqi":20,"pm10":5.2,"pm2_5":2.9,"no2":2.7,"co":113.0,"o3":49.0,"so2":1.5,"mosquito_risk":3,"arthritis_risk":5,"migraine_risk":7,"frizz_risk":1,"updated_at":"2026-07-05T10:28:10.983649+05:30"},{"city":"Mangalore","state":"Karnataka","latitude":12.9141,"longitude":74.856,"temp":27.5,"humidity":76,"rain":0.1,"pressure":1008.0,"uv_index":6.55,"wind_gusts":59.4,"aqi":48,"pm10":24.0,"pm2_5":12.5,"no2":2.7,"co":98.0,"o3":47.0,"so2":1.7,"mosquito_risk":10,"arthritis_risk":0,"migraine_risk":4,"frizz_risk":1,"updated_at":"2026-07-05T10:28:10.983656+05:30"},{"city":"Hubli-Dharwad","state":"Karnataka","latitude":15.3647,"longitude":75.124,"temp":22.7,"humidity":92,"rain":0.1,"pressure":938.4,"uv_index":5.5,"wind_gusts":62.6,"aqi":21,"pm10":9.0,"pm2_5":4.8,"no2":2.4,"co":106.0,"o3":47.0,"so2":0.7,"mosquito_risk":6,"arthritis_risk":5,"migraine_risk":3,"frizz_risk":1,"updated_at":"2026-07-05T10:28:10.983663+05:30"},{"city":"Belgaum","state":"Karnataka","latitude":15.8497,"longitude":74.4977,"temp":22.4,"humidity":95,"rain":0.2,"pressure":922.4,"uv_index":2.85,"wind_gusts":60.1,"aqi":22,"pm10":2.0,"pm2_5":1.5,"no2":2.6,"co":112.0,"o3":47.0,"so2":0.9,"mosquito_risk":6,"arthritis_risk":5,"migraine_risk":3,"frizz_risk":1,"updated_at":"2026-07-05T10:28:14.634461+05:30"},{"city":"Coimbatore","state":"Tamil Nadu","latitude":11.0168,"longitude":76.9558,"temp":26.5,"humidity":73,"rain":0.0,"pressure":962.4,"uv_index":8.35,"wind_gusts":55.4,"aqi":19,"pm10":9.4,"pm2_5":4.4,"no2":2.2,"co":142.0,"o3":50.0,"so2":1.9,"mosquito_risk":7,"arthritis_risk":5,"migraine_risk":7,"frizz_risk":1,"updated_at":"2026-07-05T10:28:14.634493+05:30"},{"city":"Madurai","state":"Tamil Nadu","latitude":9.9252,"longitude":78.1198,"temp":33.3,"humidity":44,"rain":0.0,"pressure":992.6,"uv_index":7.3,"wind_gusts":70.6,"aqi":43,"pm10":15.0,"pm2_5":8.9,"no2":5.3,"co":113.0,"o3":54.0,"so2":3.9,"mosquito_risk":0,"arthritis_risk":5,"migraine_risk":7,"frizz_risk":1,"updated_at":"2026-07-05T10:28:14.634505+05:30"},{"city":"Trichy","state":"Tamil Nadu","latitude":10.7905,"longitude":78.7047,"temp":33.6,"humidity":44,"rain":0.0,"pressure":999.0,"uv_index":8.6,"wind_gusts":74.5,"aqi":30,"pm10":10.7,"pm2_5":6.6,"no2":4.9,"co":115.0,"o3":46.0,"so2":3.1,"mosquito_risk":0,"arthritis_risk":5,"migraine_risk":7,"frizz_risk":1,"updated_at":"2026-07-05T10:28:14.634513+05:30"},{"city":"Salem","state":"Tamil Nadu","latitude":11.6643,"longitude":78.146,"temp":29.9,"humidity":59,"rain":0.0,"pressure":977.2,"uv_index":8.2,"wind_gusts":41.8,"aqi":42,"pm10":12.9,"pm2_5":8.5,"no2":4.7,"co":135.0,"o3":65.0,"so2":7.3,"mosquito_risk":4,"arthritis_risk":5,"migraine_risk":7,"frizz_risk":1,"updated_at":"2026-07-05T10:28:14.634521+05:30"},{"city":"Tirunelveli","state":"Tamil Nadu","latitude":8.7139,"longitude":77.7567,"temp":34.1,"humidity":44,"rain":0.0,"pressure":1003.3,"uv_index":8.6,"wind_gusts":49.0,"aqi":25,"pm10":14.3,"pm2_5":7.2,"no2":1.8,"co":108.0,"o3":56.0,"so2":1.6,"mosquito_risk":0,"arthritis_risk":5,"migraine_risk":4,"frizz_risk":1,"updated_at":"2026-07-05T10:28:14.634529+05:30"},{"city":"Vellore","state":"Tamil Nadu","latitude":12.9165,"longitude":79.1325,"temp":32.9,"humidity":44,"rain":0.0,"pressure":982.6,"uv_index":8.35,"wind_gusts":58.7,"aqi":28,"pm10":7.4,"pm2_5":4.4,"no2":2.1,"co":113.0,"o3":59.0,"so2":2.4,"mosquito_risk":0,"arthritis_risk":5,"migraine_risk":7,"frizz_risk":1,"updated_at":"2026-07-05T10:28:14.634536+05:30"},{"city":"Erode","state":"Tamil Nadu","latitude":11.341,"longitude":77.7172,"temp":31.5,"humidity":52,"rain":0.0,"pressure":988.9,"uv_index":7.75,"wind_gusts":61.9,"aqi":32,"pm10":7.9,"pm2_5":5.1,"no2":2.6,"co":131.0,"o3":56.0,"so2":2.6,"mosquito_risk":0,"arthritis_risk":5,"migraine_risk":7,"frizz_risk":1,"updated_at":"2026-07-05T10:28:14.634543+05:30"},{"city":"Kochi","state":"Kerala","latitude":9.9312,"longitude":76.2673,"temp":29.3,"humidity":74,"rain":0.0,"pressure":1011.0,"uv_index":8.1,"wind_gusts":39.6,"aqi":51,"pm10":26.4,"pm2_5":13.4,"no2":5.7,"co":106.0,"o3":46.0,"so2":3.8,"mosquito_risk":7,"arthritis_risk":0,"migraine_risk":4,"frizz_risk":1,"updated_at":"2026-07-05T10:28:14.634550+05:30"},{"city":"Thiruvananthapuram","state":"Kerala","latitude":8.5241,"longitude":76.9366,"temp":28.8,"humidity":75,"rain":0.0,"pressure":1010.3,"uv_index":8.2,"wind_gusts":48.2,"aqi":39,"pm10":27.4,"pm2_5":13.0,"no2":2.0,"co":98.0,"o3":51.0,"so2":0.9,"mosquito_risk":7,"arthritis_risk":0,"migraine_risk":4,"frizz_risk":1,"updated_at":"2026-07-05T10:28:14.634557+05:30"},{"city":"Kozhikode","state":"Kerala","latitude":11.2588,"longitude":75.7804,"temp":25.8,"humidity":92,"rain":0.1,"pressure":1010.4,"uv_index":8.4,"wind_gusts":46.8,"aqi":42,"pm10":30.4,"pm2_5":13.2,"no2":0.8,"co":162.0,"o3":53.0,"so2":0.8,"mosquito_risk":10,"arthritis_risk":0,"migraine_risk":4,"frizz_risk":1,"updated_at":"2026-07-05T10:28:14.634564+05:30"},{"city":"Thrissur","state":"Kerala","latitude":10.5276,"longitude":76.2144,"temp":26.4,"humidity":93,"rain":0.0,"pressure":1009.4,"uv_index":6.2,"wind_gusts":46.1,"aqi":46,"pm10":18.5,"pm2_5":10.2,"no2":4.4,"co":160.0,"o3":46.0,"so2":2.6,"mosquito_risk":7,"arthritis_risk":0,"migraine_risk":4,"frizz_risk":1,"updated_at":"2026-07-05T10:28:14.634571+05:30"},{"city":"Kannur","state":"Kerala","latitude":11.8745,"longitude":75.3704,"temp":24.7,"humidity":96,"rain":0.4,"pressure":1009.4,"uv_index":7.3,"wind_gusts":50.8,"aqi":41,"pm10":22.1,"pm2_5":11.0,"no2":2.2,"co":138.0,"o3":52.0,"so2":1.6,"mosquito_risk":6,"arthritis_risk":0,"migraine_risk":4,"frizz_risk":1,"updated_at":"2026-07-05T10:28:14.634577+05:30"},{"city":"Patna","state":"Bihar","latitude":25.5941,"longitude":85.1376,"temp":33.4,"humidity":62,"rain":0.0,"pressure":992.0,"uv_index":7.25,"wind_gusts":50.0,"aqi":76,"pm10":19.8,"pm2_5":19.7,"no2":4.7,"co":237.0,"o3":138.0,"so2":7.9,"mosquito_risk":3,"arthritis_risk":5,"migraine_risk":7,"frizz_risk":1,"updated_at":"2026-07-05T10:28:14.634584+05:30"},{"city":"Gaya","state":"Bihar","latitude":24.7914,"longitude":85.0002,"temp":33.1,"humidity":63,"rain":0.0,"pressure":984.8,"uv_index":7.5,"wind_gusts":47.5,"aqi":64,"pm10":14.4,"pm2_5":14.1,"no2":3.1,"co":212.0,"o3":122.0,"so2":8.6,"mosquito_risk":3,"arthritis_risk":5,"migraine_risk":7,"frizz_risk":1,"updated_at":"2026-07-05T10:28:14.634590+05:30"},{"city":"Muzaffarpur","state":"Bihar","latitude":26.1209,"longitude":85.3647,"temp":32.7,"humidity":67,"rain":0.0,"pressure":992.4,"uv_index":8.4,"wind_gusts":52.9,"aqi":81,"pm10":18.7,"pm2_5":18.6,"no2":3.9,"co":242.0,"o3":137.0,"so2":6.3,"mosquito_risk":3,"arthritis_risk":5,"migraine_risk":7,"frizz_risk":1,"updated_at":"2026-07-05T10:28:14.634597+05:30"},{"city":"Bhagalpur","state":"Bihar","latitude":25.2425,"longitude":87.0117,"temp":32.5,"humidity":63,"rain":0.0,"pressure":992.5,"uv_index":8.45,"wind_gusts":49.3,"aqi":62,"pm10":6.4,"pm2_5":6.2,"no2":3.7,"co":196.0,"o3":95.0,"so2":6.8,"mosquito_risk":3,"arthritis_risk":5,"migraine_risk":7,"frizz_risk":1,"updated_at":"2026-07-05T10:28:14.634604+05:30"},{"city":"Ranchi","state":"Jharkhand","latitude":23.3441,"longitude":85.3096,"temp":26.1,"humidity":82,"rain":0.1,"pressure":928.2,"uv_index":5.85,"wind_gusts":48.2,"aqi":59,"pm10":7.0,"pm2_5":6.8,"no2":6.8,"co":200.0,"o3":77.0,"so2":14.1,"mosquito_risk":10,"arthritis_risk":5,"migraine_risk":3,"frizz_risk":1,"updated_at":"2026-07-05T10:28:14.634611+05:30"},{"city":"Jamshedpur","state":"Jharkhand","latitude":22.8046,"longitude":86.2029,"temp":27.4,"humidity":87,"rain":0.0,"pressure":979.5,"uv_index":6.85,"wind_gusts":47.9,"aqi":52,"pm10":10.4,"pm2_5":10.2,"no2":8.0,"co":213.0,"o3":75.0,"so2":13.2,"mosquito_risk":7,"arthritis_risk":5,"migraine_risk":7,"frizz_risk":1,"updated_at":"2026-07-05T10:28:14.634617+05:30"},{"city":"Dhanbad","state":"Jharkhand","latitude":23.7957,"longitude":86.4304,"temp":30.2,"humidity":71,"rain":0.0,"pressure":970.1,"uv_index":6.2,"wind_gusts":51.8,"aqi":69,"pm10":11.3,"pm2_5":10.8,"no2":10.1,"co":182.0,"o3":81.0,"so2":26.2,"mosquito_risk":3,"arthritis_risk":5,"migraine_risk":7,"frizz_risk":1,"updated_at":"2026-07-05T10:28:14.634624+05:30"},{"city":"Bokaro","state":"Jharkhand","latitude":23.6693,"longitude":86.1511,"temp":29.3,"humidity":77,"rain":0.1,"pressure":973.8,"uv_index":6.1,"wind_gusts":52.9,"aqi":68,"pm10":10.5,"pm2_5":10.0,"no2":10.3,"co":181.0,"o3":80.0,"so2":27.2,"mosquito_risk":10,"arthritis_risk":5,"migraine_risk":7,"frizz_risk":1,"updated_at":"2026-07-05T10:28:14.634631+05:30"},{"city":"Bhubaneswar","state":"Odisha","latitude":20.2961,"longitude":85.8245,"temp":25.7,"humidity":95,"rain":1.0,"pressure":989.7,"uv_index":7.0,"wind_gusts":44.6,"aqi":48,"pm10":6.5,"pm2_5":6.4,"no2":6.2,"co":246.0,"o3":72.0,"so2":6.3,"mosquito_risk":10,"arthritis_risk":5,"migraine_risk":7,"frizz_risk":1,"updated_at":"2026-07-05T10:28:14.634639+05:30"},{"city":"Cuttack","state":"Odisha","latitude":20.4625,"longitude":85.8828,"temp":26.4,"humidity":95,"rain":1.0,"pressure":990.9,"uv_index":7.5,"wind_gusts":41.0,"aqi":48,"pm10":6.5,"pm2_5":6.4,"no2":6.2,"co":242.0,"o3":72.0,"so2":6.3,"mosquito_risk":10,"arthritis_risk":5,"migraine_risk":7,"frizz_risk":1,"updated_at":"2026-07-05T10:28:14.634646+05:30"},{"city":"Rourkela","state":"Odisha","latitude":22.2604,"longitude":84.8536,"temp":30.6,"humidity":70,"rain":0.0,"pressure":973.2,"uv_index":7.8,"wind_gusts":54.7,"aqi":55,"pm10":7.2,"pm2_5":7.0,"no2":7.4,"co":303.0,"o3":75.0,"so2":17.5,"mosquito_risk":3,"arthritis_risk":5,"migraine_risk":7,"frizz_risk":1,"updated_at":"2026-07-05T10:28:14.634653+05:30"},{"city":"Raipur","state":"Chhattisgarh","latitude":21.2514,"longitude":81.6296,"temp":27.3,"humidity":88,"rain":0.0,"pressure":965.9,"uv_index":3.95,"wind_gusts":42.5,"aqi":74,"pm10":13.4,"pm2_5":13.4,"no2":20.9,"co":215.0,"o3":55.0,"so2":50.4,"mosquito_risk":7,"arthritis_risk":5,"migraine_risk":3,"frizz_risk":1,"updated_at":"2026-07-05T10:28:14.634659+05:30"},{"city":"Bhilai","state":"Chhattisgarh","latitude":21.1938,"longitude":81.3509,"temp":26.3,"humidity":89,"rain":0.1,"pressure":966.6,"uv_index":5.4,"wind_gusts":45.0,"aqi":68,"pm10":10.2,"pm2_5":10.2,"no2":14.9,"co":408.0,"o3":61.0,"so2":38.7,"mosquito_risk":10,"arthritis_risk":5,"migraine_risk":3,"frizz_risk":1,"updated_at":"2026-07-05T10:28:14.634666+05:30"},{"city":"Guwahati","state":"Assam","latitude":26.1158,"longitude":91.7086,"temp":32.6,"humidity":67,"rain":0.0,"pressure":994.0,"uv_index":8.4,"wind_gusts":38.2,"aqi":30,"pm10":7.0,"pm2_5":6.9,"no2":2.4,"co":207.0,"o3":81.0,"so2":1.9,"mosquito_risk":3,"arthritis_risk":5,"migraine_risk":7,"frizz_risk":1,"updated_at":"2026-07-05T10:28:14.634673+05:30"},{"city":"Agartala","state":"Tripura","latitude":23.8315,"longitude":91.2868,"temp":27.8,"humidity":96,"rain":0.2,"pressure":998.1,"uv_index":1.65,"wind_gusts":49.0,"aqi":31,"pm10":5.5,"pm2_5":5.2,"no2":2.7,"co":125.0,"o3":73.0,"so2":1.0,"mosquito_risk":10,"arthritis_risk":5,"migraine_risk":3,"frizz_risk":1,"updated_at":"2026-07-05T10:28:14.634679+05:30"},{"city":"Shillong","state":"Meghalaya","latitude":25.5788,"longitude":91.8933,"temp":25.1,"humidity":73,"rain":0.0,"pressure":854.7,"uv_index":7.95,"wind_gusts":42.5,"aqi":21,"pm10":2.3,"pm2_5":2.2,"no2":2.0,"co":136.0,"o3":61.0,"so2":1.0,"mosquito_risk":7,"arthritis_risk":5,"migraine_risk":7,"frizz_risk":1,"updated_at":"2026-07-05T10:28:14.634685+05:30"},{"city":"Imphal","state":"Manipur","latitude":24.817,"longitude":93.9368,"temp":27.7,"humidity":69,"rain":0.1,"pressure":919.7,"uv_index":4.4,"wind_gusts":36.4,"aqi":23,"pm10":2.6,"pm2_5":2.5,"no2":2.9,"co":166.0,"o3":52.0,"so2":1.3,"mosquito_risk":10,"arthritis_risk":5,"migraine_risk":3,"frizz_risk":1,"updated_at":"2026-07-05T10:28:14.634692+05:30"},{"city":"Aizawl","state":"Mizoram","latitude":23.7271,"longitude":92.7176,"temp":22.8,"humidity":94,"rain":0.5,"pressure":886.5,"uv_index":3.15,"wind_gusts":33.8,"aqi":21,"pm10":3.9,"pm2_5":3.8,"no2":0.9,"co":131.0,"o3":73.0,"so2":0.7,"mosquito_risk":6,"arthritis_risk":5,"migraine_risk":3,"frizz_risk":1,"updated_at":"2026-07-05T10:28:14.634699+05:30"},{"city":"Kohima","state":"Nagaland","latitude":25.6701,"longitude":94.1077,"temp":26.4,"humidity":65,"rain":0.0,"pressure":853.2,"uv_index":8.2,"wind_gusts":32.0,"aqi":21,"pm10":2.3,"pm2_5":2.2,"no2":0.8,"co":132.0,"o3":66.0,"so2":0.6,"mosquito_risk":7,"arthritis_risk":5,"migraine_risk":7,"frizz_risk":1,"updated_at":"2026-07-05T10:28:14.634705+05:30"},{"city":"Gangtok","state":"Sikkim","latitude":27.3314,"longitude":88.6138,"temp":23.7,"humidity":65,"rain":0.1,"pressure":836.1,"uv_index":8.5,"wind_gusts":29.9,"aqi":49,"pm10":11.3,"pm2_5":10.1,"no2":0.7,"co":182.0,"o3":110.0,"so2":1.2,"mosquito_risk":6,"arthritis_risk":5,"migraine_risk":7,"frizz_risk":1,"updated_at":"2026-07-05T10:28:14.634712+05:30"},{"city":"Siliguri","state":"West Bengal","latitude":26.7271,"longitude":88.3953,"temp":31.0,"humidity":72,"rain":0.1,"pressure":986.5,"uv_index":8.7,"wind_gusts":38.9,"aqi":73,"pm10":10.9,"pm2_5":10.4,"no2":1.4,"co":259.0,"o3":111.0,"so2":2.1,"mosquito_risk":6,"arthritis_risk":5,"migraine_risk":7,"frizz_risk":1,"updated_at":"2026-07-05T10:28:17.998538+05:30"},{"city":"Durgapur","state":"West Bengal","latitude":23.5204,"longitude":87.3119,"temp":30.2,"humidity":74,"rain":0.0,"pressure":984.4,"uv_index":7.65,"wind_gusts":50.4,"aqi":59,"pm10":9.6,"pm2_5":9.3,"no2":7.9,"co":205.0,"o3":79.0,"so2":13.5,"mosquito_risk":3,"arthritis_risk":5,"migraine_risk":7,"frizz_risk":1,"updated_at":"2026-07-05T10:28:17.998569+05:30"},{"city":"Asansol","state":"West Bengal","latitude":23.6739,"longitude":86.9524,"temp":30.9,"humidity":70,"rain":0.0,"pressure":983.2,"uv_index":8.0,"wind_gusts":49.3,"aqi":58,"pm10":9.8,"pm2_5":9.4,"no2":7.4,"co":201.0,"o3":84.0,"so2":13.2,"mosquito_risk":3,"arthritis_risk":5,"migraine_risk":7,"frizz_risk":1,"updated_at":"2026-07-05T10:28:17.998580+05:30"},{"city":"Pondicherry","state":"Puducherry","latitude":11.9139,"longitude":79.8145,"temp":32.4,"humidity":53,"rain":0.0,"pressure":1006.9,"uv_index":5.95,"wind_gusts":48.6,"aqi":43,"pm10":16.4,"pm2_5":10.9,"no2":8.9,"co":140.0,"o3":45.0,"so2":11.8,"mosquito_risk":0,"arthritis_risk":5,"migraine_risk":0,"frizz_risk":1,"updated_at":"2026-07-05T10:28:17.998589+05:30"},{"city":"Port Blair","state":"Andaman and Nicobar Islands","latitude":11.6234,"longitude":92.7265,"temp":29.8,"humidity":76,"rain":0.0,"pressure":1007.3,"uv_index":6.25,"wind_gusts":47.2,"aqi":51,"pm10":15.8,"pm2_5":8.9,"no2":0.3,"co":93.0,"o3":51.0,"so2":0.3,"mosquito_risk":7,"arthritis_risk":5,"migraine_risk":4,"frizz_risk":1,"updated_at":"2026-07-05T10:28:17.998597+05:30"},{"city":"Haridwar","state":"Uttarakhand","latitude":29.9457,"longitude":78.1642,"temp":32.6,"humidity":67,"rain":0.0,"pressure":968.1,"uv_index":6.95,"wind_gusts":31.0,"aqi":108,"pm10":19.9,"pm2_5":19.8,"no2":3.1,"co":316.0,"o3":125.0,"so2":6.3,"mosquito_risk":3,"arthritis_risk":5,"migraine_risk":7,"frizz_risk":1,"updated_at":"2026-07-05T10:28:17.998605+05:30"},{"city":"Rishikesh","state":"Uttarakhand","latitude":30.0869,"longitude":78.2676,"temp":31.7,"humidity":69,"rain":0.0,"pressure":960.9,"uv_index":7.05,"wind_gusts":29.5,"aqi":62,"pm10":9.8,"pm2_5":9.7,"no2":1.8,"co":263.0,"o3":119.0,"so2":3.5,"mosquito_risk":3,"arthritis_risk":5,"migraine_risk":7,"frizz_risk":1,"updated_at":"2026-07-05T10:28:17.998612+05:30"},{"city":"Nainital","state":"Uttarakhand","latitude":29.3919,"longitude":79.4542,"temp":22.2,"humidity":74,"rain":0.0,"pressure":805.0,"uv_index":6.7,"wind_gusts":25.9,"aqi":44,"pm10":7.8,"pm2_5":7.7,"no2":1.7,"co":227.0,"o3":114.0,"so2":1.5,"mosquito_risk":3,"arthritis_risk":5,"migraine_risk":7,"frizz_risk":1,"updated_at":"2026-07-05T10:28:17.998620+05:30"},{"city":"Mussoorie","state":"Uttarakhand","latitude":30.4599,"longitude":78.0664,"temp":23.1,"humidity":67,"rain":0.0,"pressure":802.6,"uv_index":7.2,"wind_gusts":32.0,"aqi":83,"pm10":22.6,"pm2_5":22.5,"no2":3.4,"co":265.0,"o3":151.0,"so2":7.7,"mosquito_risk":3,"arthritis_risk":5,"migraine_risk":7,"frizz_risk":1,"updated_at":"2026-07-05T10:28:17.998627+05:30"},{"city":"Dharamshala","state":"Himachal Pradesh","latitude":32.219,"longitude":76.3234,"temp":25.7,"humidity":77,"rain":0.0,"pressure":866.3,"uv_index":8.25,"wind_gusts":36.4,"aqi":40,"pm10":5.6,"pm2_5":5.0,"no2":1.2,"co":328.0,"o3":107.0,"so2":0.5,"mosquito_risk":7,"arthritis_risk":5,"migraine_risk":7,"frizz_risk":1,"updated_at":"2026-07-05T10:28:17.998635+05:30"},{"city":"Dalhousie","state":"Himachal Pradesh","latitude":32.5387,"longitude":75.971,"temp":21.8,"humidity":85,"rain":0.0,"pressure":803.5,"uv_index":8.05,"wind_gusts":21.6,"aqi":71,"pm10":10.7,"pm2_5":9.7,"no2":3.5,"co":337.0,"o3":143.0,"so2":1.5,"mosquito_risk":3,"arthritis_risk":5,"migraine_risk":7,"frizz_risk":1,"updated_at":"2026-07-05T10:28:17.998643+05:30"},{"city":"Patiala","state":"Punjab","latitude":30.3398,"longitude":76.3869,"temp":32.4,"humidity":69,"rain":0.0,"pressure":971.6,"uv_index":7.1,"wind_gusts":20.9,"aqi":165,"pm10":111.3,"pm2_5":87.1,"no2":11.1,"co":488.0,"o3":143.0,"so2":18.6,"mosquito_risk":3,"arthritis_risk":5,"migraine_risk":7,"frizz_risk":1,"updated_at":"2026-07-05T10:28:17.998651+05:30"},{"city":"Bhatinda","state":"Punjab","latitude":30.211,"longitude":74.9455,"temp":34.4,"humidity":57,"rain":0.0,"pressure":976.5,"uv_index":7.15,"wind_gusts":36.0,"aqi":157,"pm10":103.1,"pm2_5":54.8,"no2":8.1,"co":430.0,"o3":143.0,"so2":11.4,"mosquito_risk":0,"arthritis_risk":5,"migraine_risk":7,"frizz_risk":1,"updated_at":"2026-07-05T10:28:17.998658+05:30"},{"city":"Rohtak","state":"Haryana","latitude":28.8955,"longitude":76.6066,"temp":32.7,"humidity":70,"rain":0.0,"pressure":975.0,"uv_index":7.55,"wind_gusts":23.0,"aqi":157,"pm10":150.4,"pm2_5":62.6,"no2":12.3,"co":430.0,"o3":158.0,"so2":28.2,"mosquito_risk":3,"arthritis_risk":5,"migraine_risk":7,"frizz_risk":1,"updated_at":"2026-07-05T10:28:17.998665+05:30"},{"city":"Panipat","state":"Haryana","latitude":29.3909,"longitude":76.9635,"temp":32.6,"humidity":72,"rain":0.0,"pressure":973.7,"uv_index":7.5,"wind_gusts":23.4,"aqi":165,"pm10":173.7,"pm2_5":68.7,"no2":14.1,"co":520.0,"o3":140.0,"so2":33.6,"mosquito_risk":3,"arthritis_risk":5,"migraine_risk":7,"frizz_risk":1,"updated_at":"2026-07-05T10:28:17.998672+05:30"},{"city":"Mathura","state":"Uttar Pradesh","latitude":27.4924,"longitude":77.6737,"temp":31.6,"humidity":74,"rain":0.0,"pressure":979.9,"uv_index":7.35,"wind_gusts":32.0,"aqi":108,"pm10":45.1,"pm2_5":30.5,"no2":8.4,"co":352.0,"o3":113.0,"so2":6.9,"mosquito_risk":3,"arthritis_risk":5,"migraine_risk":7,"frizz_risk":1,"updated_at":"2026-07-05T10:28:17.998679+05:30"},{"city":"Vrindavan","state":"Uttar Pradesh","latitude":27.5823,"longitude":77.7027,"temp":31.6,"humidity":74,"rain":0.0,"pressure":980.3,"uv_index":7.3,"wind_gusts":30.6,"aqi":108,"pm10":45.1,"pm2_5":30.5,"no2":8.4,"co":354.0,"o3":113.0,"so2":6.9,"mosquito_risk":3,"arthritis_risk":5,"migraine_risk":7,"frizz_risk":1,"updated_at":"2026-07-05T10:28:17.998686+05:30"},{"city":"Ayodhya","state":"Uttar Pradesh","latitude":26.7922,"longitude":82.1998,"temp":31.5,"humidity":75,"rain":0.0,"pressure":988.3,"uv_index":7.5,"wind_gusts":41.0,"aqi":99,"pm10":34.7,"pm2_5":34.6,"no2":4.9,"co":328.0,"o3":138.0,"so2":7.8,"mosquito_risk":3,"arthritis_risk":5,"migraine_risk":7,"frizz_risk":1,"updated_at":"2026-07-05T10:28:17.998693+05:30"},{"city":"Ratlam","state":"Madhya Pradesh","latitude":23.3315,"longitude":75.0367,"temp":29.4,"humidity":70,"rain":0.0,"pressure":947.4,"uv_index":8.3,"wind_gusts":27.0,"aqi":52,"pm10":11.9,"pm2_5":9.1,"no2":2.3,"co":170.0,"o3":88.0,"so2":2.9,"mosquito_risk":7,"arthritis_risk":5,"migraine_risk":7,"frizz_risk":1,"updated_at":"2026-07-05T10:28:17.998700+05:30"},{"city":"Sagar","state":"Madhya Pradesh","latitude":23.8388,"longitude":78.7378,"temp":29.9,"humidity":72,"rain":0.0,"pressure":943.7,"uv_index":8.55,"wind_gusts":25.9,"aqi":75,"pm10":15.7,"pm2_5":15.4,"no2":1.5,"co":219.0,"o3":120.0,"so2":3.2,"mosquito_risk":7,"arthritis_risk":5,"migraine_risk":7,"frizz_risk":1,"updated_at":"2026-07-05T10:28:17.998707+05:30"},{"city":"Satna","state":"Madhya Pradesh","latitude":24.6005,"longitude":80.8322,"temp":31.7,"humidity":66,"rain":0.0,"pressure":964.1,"uv_index":8.15,"wind_gusts":31.0,"aqi":64,"pm10":15.0,"pm2_5":14.6,"no2":2.3,"co":204.0,"o3":116.0,"so2":4.4,"mosquito_risk":3,"arthritis_risk":5,"migraine_risk":7,"frizz_risk":1,"updated_at":"2026-07-05T10:28:17.998714+05:30"},{"city":"Akola","state":"Maharashtra","latitude":20.7002,"longitude":77.0082,"temp":29.2,"humidity":66,"rain":0.0,"pressure":968.4,"uv_index":7.55,"wind_gusts":45.7,"aqi":21,"pm10":4.8,"pm2_5":4.3,"no2":7.4,"co":142.0,"o3":44.0,"so2":10.4,"mosquito_risk":7,"arthritis_risk":5,"migraine_risk":7,"frizz_risk":1,"updated_at":"2026-07-05T10:28:17.998722+05:30"},{"city":"Amravati","state":"Maharashtra","latitude":20.9374,"longitude":77.7796,"temp":27.0,"humidity":82,"rain":0.1,"pressure":960.9,"uv_index":7.2,"wind_gusts":37.1,"aqi":21,"pm10":5.2,"pm2_5":4.5,"no2":8.2,"co":158.0,"o3":43.0,"so2":11.7,"mosquito_risk":10,"arthritis_risk":5,"migraine_risk":7,"frizz_risk":1,"updated_at":"2026-07-05T10:28:17.998730+05:30"},{"city":"Latur","state":"Maharashtra","latitude":18.4088,"longitude":76.5604,"temp":25.3,"humidity":82,"rain":0.1,"pressure":934.3,"uv_index":0.75,"wind_gusts":55.4,"aqi":19,"pm10":1.9,"pm2_5":1.9,"no2":2.5,"co":121.0,"o3":43.0,"so2":1.2,"mosquito_risk":10,"arthritis_risk":5,"migraine_risk":3,"frizz_risk":1,"updated_at":"2026-07-05T10:28:17.998737+05:30"},{"city":"Nanded","state":"Maharashtra","latitude":19.1383,"longitude":77.3091,"temp":27.8,"humidity":74,"rain":0.1,"pressure":962.6,"uv_index":3.45,"wind_gusts":49.7,"aqi":19,"pm10":3.4,"pm2_5":3.1,"no2":3.1,"co":147.0,"o3":49.0,"so2":3.5,"mosquito_risk":10,"arthritis_risk":5,"migraine_risk":3,"frizz_risk":1,"updated_at":"2026-07-05T10:28:17.998744+05:30"},{"city":"Gulbarga","state":"Karnataka","latitude":17.3297,"longitude":76.8343,"temp":25.9,"humidity":77,"rain":0.0,"pressure":954.3,"uv_index":1.7,"wind_gusts":63.4,"aqi":19,"pm10":4.1,"pm2_5":2.3,"no2":3.2,"co":107.0,"o3":47.0,"so2":2.1,"mosquito_risk":7,"arthritis_risk":5,"migraine_risk":3,"frizz_risk":1,"updated_at":"2026-07-05T10:28:17.998751+05:30"},{"city":"Bidar","state":"Karnataka","latitude":17.9104,"longitude":77.5199,"temp":26.4,"humidity":72,"rain":0.0,"pressure":930.5,"uv_index":2.05,"wind_gusts":69.1,"aqi":18,"pm10":3.0,"pm2_5":2.6,"no2":4.5,"co":114.0,"o3":40.0,"so2":1.7,"mosquito_risk":7,"arthritis_risk":5,"migraine_risk":3,"frizz_risk":1,"updated_at":"2026-07-05T10:28:17.998758+05:30"},{"city":"Hospet","state":"Karnataka","latitude":15.2689,"longitude":76.3909,"temp":27.8,"humidity":64,"rain":0.1,"pressure":953.5,"uv_index":4.85,"wind_gusts":80.3,"aqi":20,"pm10":4.6,"pm2_5":2.9,"no2":2.2,"co":105.0,"o3":47.0,"so2":1.2,"mosquito_risk":10,"arthritis_risk":5,"migraine_risk":3,"frizz_risk":1,"updated_at":"2026-07-05T10:28:17.998765+05:30"},{"city":"Tirupur","state":"Tamil Nadu","latitude":11.1085,"longitude":77.3411,"temp":28.6,"humidity":64,"rain":0.0,"pressure":975.6,"uv_index":8.25,"wind_gusts":71.6,"aqi":34,"pm10":7.9,"pm2_5":5.3,"no2":2.9,"co":125.0,"o3":56.0,"so2":3.2,"mosquito_risk":7,"arthritis_risk":5,"migraine_risk":7,"frizz_risk":1,"updated_at":"2026-07-05T10:28:17.998771+05:30"},{"city":"Alappuzha","state":"Kerala","latitude":9.4981,"longitude":76.3388,"temp":29.1,"humidity":74,"rain":0.1,"pressure":1011.1,"uv_index":8.1,"wind_gusts":40.0,"aqi":47,"pm10":28.3,"pm2_5":13.9,"no2":3.1,"co":88.0,"o3":53.0,"so2":2.3,"mosquito_risk":10,"arthritis_risk":0,"migraine_risk":4,"frizz_risk":1,"updated_at":"2026-07-05T10:28:17.998778+05:30"},{"city":"Munnar","state":"Kerala","latitude":10.0889,"longitude":77.0595,"temp":16.3,"humidity":99,"rain":0.2,"pressure":857.5,"uv_index":2.8,"wind_gusts":54.7,"aqi":16,"pm10":8.8,"pm2_5":4.3,"no2":1.9,"co":97.0,"o3":48.0,"so2":1.3,"mosquito_risk":6,"arthritis_risk":10,"migraine_risk":3,"frizz_risk":1,"updated_at":"2026-07-05T10:28:17.998786+05:30"},{"city":"Silchar","state":"Assam","latitude":24.8333,"longitude":92.7789,"temp":35.0,"humidity":56,"rain":0.0,"pressure":996.1,"uv_index":4.7,"wind_gusts":40.0,"aqi":42,"pm10":8.7,"pm2_5":8.4,"no2":3.0,"co":223.0,"o3":68.0,"so2":2.7,"mosquito_risk":0,"arthritis_risk":5,"migraine_risk":3,"frizz_risk":1,"updated_at":"2026-07-05T10:28:17.998793+05:30"},{"city":"Dibrugarh","state":"Assam","latitude":27.4728,"longitude":94.912,"temp":34.1,"humidity":62,"rain":0.0,"pressure":988.6,"uv_index":8.95,"wind_gusts":26.3,"aqi":48,"pm10":7.4,"pm2_5":7.1,"no2":0.3,"co":168.0,"o3":92.0,"so2":0.8,"mosquito_risk":3,"arthritis_risk":5,"migraine_risk":7,"frizz_risk":1,"updated_at":"2026-07-05T10:28:17.998800+05:30"}]