[{"city":"Delhi","state":"Delhi","latitude":28.6139,"longitude":77.209,"temp":21.5,"humidity":61,"rain":0.0,"pressure":983.4,"uv_index":6.15,"wind_gusts":48.6,"aqi":195,"pm10":551.3,"pm2_5":102.0,"mosquito_risk":3,"arthritis_risk":5,"migraine_risk":7,"frizz_risk":0,"updated_at":"2026-04-07T04:10:16.946319+05:30"},{"city":"Mumbai","state":"Maharashtra","latitude":19.076,"longitude":72.8777,"temp":27.5,"humidity":69,"rain":0.0,"pressure":1010.1,"uv_index":7.95,"wind_gusts":19.8,"aqi":63,"pm10":30.3,"pm2_5":17.4,"mosquito_risk":7,"arthritis_risk":0,"migraine_risk":4,"frizz_risk":1,"updated_at":"2026-04-07T04:10:16.946359+05:30"},{"city":"Bangalore","state":"Karnataka","latitude":12.9716,"longitude":77.5946,"temp":22.2,"humidity":77,"rain":0.0,"pressure":911.8,"uv_index":9.6,"wind_gusts":26.3,"aqi":58,"pm10":13.4,"pm2_5":12.6,"mosquito_risk":3,"arthritis_risk":5,"migraine_risk":7,"frizz_risk":1,"updated_at":"2026-04-07T04:10:16.946375+05:30"},{"city":"Hyderabad","state":"Telangana","latitude":17.385,"longitude":78.4867,"temp":25.1,"humidity":56,"rain":0.0,"pressure":952.4,"uv_index":9.2,"wind_gusts":32.4,"aqi":78,"pm10":22.1,"pm2_5":21.2,"mosquito_risk":4,"arthritis_risk":5,"migraine_risk":7,"frizz_risk":0,"updated_at":"2026-04-07T04:10:16.946385+05:30"},{"city":"Chennai","state":"Tamil Nadu","latitude":13.0827,"longitude":80.2707,"temp":28.1,"humidity":91,"rain":0.0,"pressure":1006.7,"uv_index":9.35,"wind_gusts":37.4,"aqi":67,"pm10":29.7,"pm2_5":23.3,"mosquito_risk":7,"arthritis_risk":5,"migraine_risk":4,"frizz_risk":1,"updated_at":"2026-04-07T04:10:16.946394+05:30"},{"city":"Kolkata","state":"West Bengal","latitude":22.5726,"longitude":88.3639,"temp":23.5,"humidity":95,"rain":0.0,"pressure":1006.9,"uv_index":8.45,"wind_gusts":24.5,"aqi":153,"pm10":54.8,"pm2_5":52.3,"mosquito_risk":3,"arthritis_risk":5,"migraine_risk":4,"frizz_risk":1,"updated_at":"2026-04-07T04:10:16.946404+05:30"},{"city":"Pune","state":"Maharashtra","latitude":18.5204,"longitude":73.8567,"temp":20.2,"humidity":88,"rain":0.0,"pressure":948.9,"uv_index":8.55,"wind_gusts":40.0,"aqi":76,"pm10":27.9,"pm2_5":24.4,"mosquito_risk":3,"arthritis_risk":5,"migraine_risk":7,"frizz_risk":1,"updated_at":"2026-04-07T04:10:16.946415+05:30"},{"city":"Ahmedabad","state":"Gujarat","latitude":23.0225,"longitude":72.5714,"temp":24.0,"humidity":76,"rain":0.0,"pressure":1003.1,"uv_index":7.9,"wind_gusts":42.8,"aqi":53,"pm10":32.0,"pm2_5":12.4,"mosquito_risk":3,"arthritis_risk":5,"migraine_risk":4,"frizz_risk":1,"updated_at":"2026-04-07T04:10:16.946423+05:30"},{"city":"Jaipur","state":"Rajasthan","latitude":26.9124,"longitude":75.7873,"temp":22.0,"humidity":59,"rain":0.0,"pressure":959.4,"uv_index":4.6,"wind_gusts":43.9,"aqi":126,"pm10":140.6,"pm2_5":29.1,"mosquito_risk":0,"arthritis_risk":5,"migraine_risk":3,"frizz_risk":0,"updated_at":"2026-04-07T04:10:16.946431+05:30"},{"city":"Lucknow","state":"Uttar Pradesh","latitude":26.8467,"longitude":80.9462,"temp":22.0,"humidity":61,"rain":0.0,"pressure":994.4,"uv_index":7.4,"wind_gusts":26.6,"aqi":110,"pm10":272.9,"pm2_5":68.0,"mosquito_risk":3,"arthritis_risk":5,"migraine_risk":7,"frizz_risk":0,"updated_at":"2026-04-07T04:10:16.946438+05:30"},{"city":"Kanpur","state":"Uttar Pradesh","latitude":26.4499,"longitude":80.3319,"temp":21.3,"humidity":71,"rain":0.0,"pressure":992.3,"uv_index":7.25,"wind_gusts":29.5,"aqi":145,"pm10":316.6,"pm2_5":71.7,"mosquito_risk":3,"arthritis_risk":5,"migraine_risk":7,"frizz_risk":0,"updated_at":"2026-04-07T04:10:16.946451+05:30"},{"city":"Chandigarh","state":"Chandigarh","latitude":30.7333,"longitude":76.7794,"temp":20.0,"humidity":53,"rain":0.0,"pressure":968.7,"uv_index":6.65,"wind_gusts":56.9,"aqi":56,"pm10":14.3,"pm2_5":11.9,"mosquito_risk":0,"arthritis_risk":5,"migraine_risk":7,"frizz_risk":0,"updated_at":"2026-04-07T04:10:16.946458+05:30"},{"city":"Srinagar","state":"Jammu and Kashmir","latitude":34.0837,"longitude":74.7973,"temp":6.8,"humidity":91,"rain":0.0,"pressure":836.3,"uv_index":7.7,"wind_gusts":32.8,"aqi":82,"pm10":40.3,"pm2_5":36.9,"mosquito_risk":3,"arthritis_risk":10,"migraine_risk":7,"frizz_risk":0,"updated_at":"2026-04-07T04:10:16.946466+05:30"},{"city":"Jammu","state":"Jammu and Kashmir","latitude":32.7266,"longitude":74.857,"temp":19.0,"humidity":66,"rain":0.0,"pressure":971.7,"uv_index":7.05,"wind_gusts":49.0,"aqi":71,"pm10":19.2,"pm2_5":16.6,"mosquito_risk":3,"arthritis_risk":5,"migraine_risk":7,"frizz_risk":0,"updated_at":"2026-04-07T04:10:16.946473+05:30"},{"city":"Amritsar","state":"Punjab","latitude":31.634,"longitude":74.8723,"temp":19.0,"humidity":70,"rain":0.0,"pressure":979.4,"uv_index":5.85,"wind_gusts":54.7,"aqi":87,"pm10":31.1,"pm2_5":30.2,"mosquito_risk":3,"arthritis_risk":5,"migraine_risk":3,"frizz_risk":0,"updated_at":"2026-04-07T04:10:16.946479+05:30"},{"city":"Ludhiana","state":"Punjab","latitude":30.901,"longitude":75.8573,"temp":20.1,"humidity":65,"rain":0.0,"pressure":978.5,"uv_index":6.15,"wind_gusts":56.5,"aqi":100,"pm10":89.4,"pm2_5":44.5,"mosquito_risk":3,"arthritis_risk":5,"migraine_risk":7,"frizz_risk":0,"updated_at":"2026-04-07T04:10:16.946486+05:30"},{"city":"Jalandhar","state":"Punjab","latitude":31.326,"longitude":75.5762,"temp":19.5,"humidity":67,"rain":0.0,"pressure":979.2,"uv_index":6.5,"wind_gusts":63.7,"aqi":87,"pm10":68.0,"pm2_5":41.1,"mosquito_risk":3,"arthritis_risk":5,"migraine_risk":7,"frizz_risk":0,"updated_at":"2026-04-07T04:10:16.946494+05:30"},{"city":"Dehradun","state":"Uttarakhand","latitude":30.6284,"longitude":78.0322,"temp":10.7,"humidity":69,"rain":0.0,"pressure":828.4,"uv_index":6.75,"wind_gusts":41.0,"aqi":38,"pm10":11.7,"pm2_5":8.9,"mosquito_risk":3,"arthritis_risk":5,"migraine_risk":7,"frizz_risk":0,"updated_at":"2026-04-07T04:10:16.946501+05:30"},{"city":"Shimla","state":"Himachal Pradesh","latitude":31.1048,"longitude":77.1734,"temp":9.4,"humidity":65,"rain":0.0,"pressure":781.5,"uv_index":6.75,"wind_gusts":60.5,"aqi":51,"pm10":10.5,"pm2_5":8.5,"mosquito_risk":3,"arthritis_risk":5,"migraine_risk":7,"frizz_risk":0,"updated_at":"2026-04-07T04:10:16.946508+05:30"},{"city":"Manali","state":"Himachal Pradesh","latitude":32.2396,"longitude":77.1887,"temp":10.3,"humidity":60,"rain":0.0,"pressure":815.5,"uv_index":9.4,"wind_gusts":31.0,"aqi":61,"pm10":10.6,"pm2_5":8.1,"mosquito_risk":0,"arthritis_risk":5,"migraine_risk":7,"frizz_risk":0,"updated_at":"2026-04-07T04:10:16.946514+05:30"},{"city":"Gurgaon","state":"Haryana","latitude":28.4595,"longitude":77.0266,"temp":19.5,"humidity":71,"rain":0.0,"pressure":981.4,"uv_index":5.7,"wind_gusts":44.6,"aqi":535,"pm10":416.3,"pm2_5":88.5,"mosquito_risk":3,"arthritis_risk":5,"migraine_risk":3,"frizz_risk":0,"updated_at":"2026-04-07T04:10:16.946521+05:30"},{"city":"Noida","state":"Uttar Pradesh","latitude":28.5355,"longitude":77.391,"temp":21.2,"humidity":65,"rain":0.0,"pressure":985.1,"uv_index":6.25,"wind_gusts":44.3,"aqi":535,"pm10":416.3,"pm2_5":88.5,"mosquito_risk":3,"arthritis_risk":5,"migraine_risk":7,"frizz_risk":0,"updated_at":"2026-04-07T04:10:16.946528+05:30"},{"city":"Ghaziabad","state":"Uttar Pradesh","latitude":28.6692,"longitude":77.4538,"temp":21.1,"humidity":65,"rain":0.0,"pressure":983.6,"uv_index":6.05,"wind_gusts":45.0,"aqi":152,"pm10":434.0,"pm2_5":103.1,"mosquito_risk":3,"arthritis_risk":5,"migraine_risk":7,"frizz_risk":0,"updated_at":"2026-04-07T04:10:16.946535+05:30"},{"city":"Faridabad","state":"Haryana","latitude":28.4089,"longitude":77.3178,"temp":20.4,"humidity":65,"rain":0.0,"pressure":984.2,"uv_index":6.6,"wind_gusts":43.6,"aqi":535,"pm10":416.3,"pm2_5":88.5,"mosquito_risk":3,"arthritis_risk":5,"migraine_risk":7,"frizz_risk":0,"updated_at":"2026-04-07T04:10:16.946541+05:30"},{"city":"Meerut","state":"Uttar Pradesh","latitude":28.9845,"longitude":77.7064,"temp":19.9,"humidity":72,"rain":0.0,"pressure":982.3,"uv_index":6.15,"wind_gusts":39.6,"aqi":152,"pm10":434.0,"pm2_5":103.1,"mosquito_risk":3,"arthritis_risk":5,"migraine_risk":7,"frizz_risk":0,"updated_at":"2026-04-07T04:10:16.946547+05:30"},{"city":"Agra","state":"Uttar Pradesh","latitude":27.1767,"longitude":78.0081,"temp":19.6,"humidity":79,"rain":0.0,"pressure":988.9,"uv_index":6.3,"wind_gusts":40.0,"aqi":306,"pm10":326.0,"pm2_5":56.3,"mosquito_risk":3,"arthritis_risk":5,"migraine_risk":7,"frizz_risk":0,"updated_at":"2026-04-07T04:10:16.946554+05:30"},{"city":"Varanasi","state":"Uttar Pradesh","latitude":25.3176,"longitude":82.9739,"temp":22.0,"humidity":60,"rain":0.0,"pressure":998.5,"uv_index":8.05,"wind_gusts":23.4,"aqi":80,"pm10":77.1,"pm2_5":31.1,"mosquito_risk":0,"arthritis_risk":5,"migraine_risk":7,"frizz_risk":0,"updated_at":"2026-04-07T04:10:16.946563+05:30"},{"city":"Prayagraj","state":"Uttar Pradesh","latitude":25.4358,"longitude":81.8463,"temp":22.5,"humidity":59,"rain":0.0,"pressure":997.0,"uv_index":7.9,"wind_gusts":18.7,"aqi":85,"pm10":146.7,"pm2_5":36.3,"mosquito_risk":0,"arthritis_risk":5,"migraine_risk":7,"frizz_risk":0,"updated_at":"2026-04-07T04:10:16.946570+05:30"},{"city":"Gorakhpur","state":"Uttar Pradesh","latitude":26.7606,"longitude":83.3732,"temp":21.5,"humidity":61,"rain":0.0,"pressure":998.4,"uv_index":7.85,"wind_gusts":24.1,"aqi":69,"pm10":27.2,"pm2_5":23.4,"mosquito_risk":3,"arthritis_risk":5,"migraine_risk":7,"frizz_risk":0,"updated_at":"2026-04-07T04:10:16.946576+05:30"},{"city":"Bareilly","state":"Uttar Pradesh","latitude":28.367,"longitude":79.4304,"temp":19.4,"humidity":72,"rain":0.0,"pressure":988.1,"uv_index":7.2,"wind_gusts":46.8,"aqi":77,"pm10":21.6,"pm2_5":18.2,"mosquito_risk":3,"arthritis_risk":5,"migraine_risk":7,"frizz_risk":0,"updated_at":"2026-04-07T04:10:16.946582+05:30"},{"city":"Aligarh","state":"Uttar Pradesh","latitude":27.8974,"longitude":78.088,"temp":19.5,"humidity":71,"rain":0.0,"pressure":986.6,"uv_index":6.6,"wind_gusts":34.9,"aqi":279,"pm10":415.4,"pm2_5":75.2,"mosquito_risk":3,"arthritis_risk":5,"migraine_risk":7,"frizz_risk":0,"updated_at":"2026-04-07T04:10:16.946590+05:30"},{"city":"Moradabad","state":"Uttar Pradesh","latitude":28.8386,"longitude":78.7733,"temp":19.4,"humidity":73,"rain":0.0,"pressure":984.8,"uv_index":7.0,"wind_gusts":36.0,"aqi":108,"pm10":31.9,"pm2_5":29.8,"mosquito_risk":3,"arthritis_risk":5,"migraine_risk":7,"frizz_risk":0,"updated_at":"2026-04-07T04:10:16.946598+05:30"},{"city":"Saharanpur","state":"Uttar Pradesh","latitude":29.9637,"longitude":77.546,"temp":18.8,"humidity":66,"rain":0.0,"pressure":976.3,"uv_index":6.45,"wind_gusts":39.2,"aqi":86,"pm10":28.2,"pm2_5":22.7,"mosquito_risk":3,"arthritis_risk":5,"migraine_risk":7,"frizz_risk":0,"updated_at":"2026-04-07T04:10:16.946604+05:30"},{"city":"Jhansi","state":"Uttar Pradesh","latitude":25.4484,"longitude":78.5685,"temp":21.0,"humidity":67,"rain":0.0,"pressure":978.6,"uv_index":7.8,"wind_gusts":28.8,"aqi":70,"pm10":29.0,"pm2_5":16.1,"mosquito_risk":3,"arthritis_risk":5,"migraine_risk":7,"frizz_risk":0,"updated_at":"2026-04-07T04:10:20.288074+05:30"},{"city":"Surat","state":"Gujarat","latitude":21.1702,"longitude":72.8311,"temp":25.9,"humidity":77,"rain":0.0,"pressure":1008.3,"uv_index":7.75,"wind_gusts":38.9,"aqi":74,"pm10":26.0,"pm2_5":19.7,"mosquito_risk":7,"arthritis_risk":0,"migraine_risk":4,"frizz_risk":1,"updated_at":"2026-04-07T04:10:20.288104+05:30"},{"city":"Vadodara","state":"Gujarat","latitude":22.3072,"longitude":73.1812,"temp":25.4,"humidity":77,"rain":0.0,"pressure":1005.5,"uv_index":8.0,"wind_gusts":46.4,"aqi":59,"pm10":14.0,"pm2_5":11.2,"mosquito_risk":7,"arthritis_risk":5,"migraine_risk":4,"frizz_risk":1,"updated_at":"2026-04-07T04:10:20.288113+05:30"},{"city":"Rajkot","state":"Gujarat","latitude":22.3039,"longitude":70.8022,"temp":23.2,"humidity":84,"rain":0.0,"pressure":995.0,"uv_index":7.7,"wind_gusts":53.6,"aqi":51,"pm10":20.4,"pm2_5":10.4,"mosquito_risk":3,"arthritis_risk":5,"migraine_risk":7,"frizz_risk":1,"updated_at":"2026-04-07T04:10:20.288121+05:30"},{"city":"Thane","state":"Maharashtra","latitude":19.2183,"longitude":72.9781,"temp":26.0,"humidity":74,"rain":0.0,"pressure":1009.6,"uv_index":7.95,"wind_gusts":34.6,"aqi":63,"pm10":30.3,"pm2_5":17.4,"mosquito_risk":7,"arthritis_risk":0,"migraine_risk":4,"frizz_risk":1,"updated_at":"2026-04-07T04:10:20.288129+05:30"},{"city":"Nagpur","state":"Maharashtra","latitude":21.1458,"longitude":79.0882,"temp":23.9,"humidity":54,"rain":0.0,"pressure":972.4,"uv_index":8.75,"wind_gusts":21.6,"aqi":57,"pm10":22.8,"pm2_5":18.9,"mosquito_risk":0,"arthritis_risk":5,"migraine_risk":7,"frizz_risk":0,"updated_at":"2026-04-07T04:10:20.288137+05:30"},{"city":"Nashik","state":"Maharashtra","latitude":19.9975,"longitude":73.7898,"temp":19.4,"humidity":91,"rain":0.0,"pressure":946.3,"uv_index":8.2,"wind_gusts":39.2,"aqi":53,"pm10":26.6,"pm2_5":14.4,"mosquito_risk":3,"arthritis_risk":10,"migraine_risk":7,"frizz_risk":1,"updated_at":"2026-04-07T04:10:20.288144+05:30"},{"city":"Aurangabad","state":"Maharashtra","latitude":19.8762,"longitude":75.3433,"temp":22.1,"humidity":65,"rain":0.0,"pressure":944.4,"uv_index":8.9,"wind_gusts":38.5,"aqi":57,"pm10":21.0,"pm2_5":13.1,"mosquito_risk":3,"arthritis_risk":5,"migraine_risk":7,"frizz_risk":0,"updated_at":"2026-04-07T04:10:20.288151+05:30"},{"city":"Solapur","state":"Maharashtra","latitude":17.6599,"longitude":75.9064,"temp":23.7,"humidity":66,"rain":0.0,"pressure":957.4,"uv_index":9.0,"wind_gusts":27.4,"aqi":49,"pm10":16.6,"pm2_5":15.8,"mosquito_risk":3,"arthritis_risk":5,"migraine_risk":7,"frizz_risk":1,"updated_at":"2026-04-07T04:10:20.288158+05:30"},{"city":"Kolhapur","state":"Maharashtra","latitude":16.705,"longitude":74.2433,"temp":17.0,"humidity":92,"rain":0.0,"pressure":947.9,"uv_index":9.05,"wind_gusts":40.7,"aqi":57,"pm10":18.4,"pm2_5":16.6,"mosquito_risk":3,"arthritis_risk":10,"migraine_risk":7,"frizz_risk":0,"updated_at":"2026-04-07T04:10:20.288165+05:30"},{"city":"Goa","state":"Goa","latitude":15.2993,"longitude":74.124,"temp":25.2,"humidity":80,"rain":0.0,"pressure":999.3,"uv_index":9.0,"wind_gusts":33.1,"aqi":60,"pm10":25.3,"pm2_5":19.6,"mosquito_risk":7,"arthritis_risk":5,"migraine_risk":7,"frizz_risk":1,"updated_at":"2026-04-07T04:10:20.288172+05:30"},{"city":"Jodhpur","state":"Rajasthan","latitude":26.2389,"longitude":73.0243,"temp":21.2,"humidity":70,"rain":0.0,"pressure":982.2,"uv_index":7.9,"wind_gusts":54.0,"aqi":99,"pm10":82.4,"pm2_5":23.7,"mosquito_risk":3,"arthritis_risk":5,"migraine_risk":7,"frizz_risk":0,"updated_at":"2026-04-07T04:10:20.288178+05:30"},{"city":"Udaipur","state":"Rajasthan","latitude":24.5854,"longitude":73.7125,"temp":21.2,"humidity":55,"rain":0.0,"pressure":945.7,"uv_index":8.5,"wind_gusts":61.2,"aqi":47,"pm10":26.2,"pm2_5":12.5,"mosquito_risk":0,"arthritis_risk":5,"migraine_risk":7,"frizz_risk":0,"updated_at":"2026-04-07T04:10:20.288184+05:30"},{"city":"Kota","state":"Rajasthan","latitude":25.2138,"longitude":75.8648,"temp":24.5,"humidity":47,"rain":0.0,"pressure":978.6,"uv_index":7.15,"wind_gusts":50.0,"aqi":62,"pm10":19.3,"pm2_5":12.9,"mosquito_risk":0,"arthritis_risk":5,"migraine_risk":7,"frizz_risk":0,"updated_at":"2026-04-07T04:10:20.288190+05:30"},{"city":"Bikaner","state":"Rajasthan","latitude":28.0229,"longitude":73.3119,"temp":24.3,"humidity":56,"rain":0.0,"pressure":979.5,"uv_index":7.65,"wind_gusts":45.4,"aqi":73,"pm10":273.8,"pm2_5":67.3,"mosquito_risk":0,"arthritis_risk":5,"migraine_risk":7,"frizz_risk":0,"updated_at":"2026-04-07T04:10:20.288196+05:30"},{"city":"Ajmer","state":"Rajasthan","latitude":26.4499,"longitude":74.6399,"temp":20.9,"humidity":51,"rain":0.0,"pressure":953.3,"uv_index":7.25,"wind_gusts":57.6,"aqi":54,"pm10":19.8,"pm2_5":8.6,"mosquito_risk":0,"arthritis_risk":5,"migraine_risk":7,"frizz_risk":0,"updated_at":"2026-04-07T04:10:20.288203+05:30"},{"city":"Gwalior","state":"Madhya Pradesh","latitude":26.2183,"longitude":78.1828,"temp":22.1,"humidity":68,"rain":0.0,"pressure":984.0,"uv_index":7.25,"wind_gusts":35.3,"aqi":78,"pm10":85.9,"pm2_5":30.9,"mosquito_risk":3,"arthritis_risk":5,"migraine_risk":7,"frizz_risk":0,"updated_at":"2026-04-07T04:10:20.288209+05:30"},{"city":"Indore","state":"Madhya Pradesh","latitude":22.7196,"longitude":75.8577,"temp":21.0,"humidity":64,"rain":0.0,"pressure":948.2,"uv_index":8.4,"wind_gusts":40.7,"aqi":54,"pm10":17.8,"pm2_5":13.9,"mosquito_risk":3,"arthritis_risk":5,"migraine_risk":7,"frizz_risk":0,"updated_at":"2026-04-07T04:10:20.288216+05:30"},{"city":"Bhopal","state":"Madhya Pradesh","latitude":23.2599,"longitude":77.4126,"temp":21.9,"humidity":51,"rain":0.0,"pressure":953.7,"uv_index":8.4,"wind_gusts":44.3,"aqi":52,"pm10":24.1,"pm2_5":16.4,"mosquito_risk":0,"arthritis_risk":5,"migraine_risk":7,"frizz_risk":0,"updated_at":"2026-04-07T04:10:20.288222+05:30"},{"city":"Jabalpur","state":"Madhya Pradesh","latitude":23.1815,"longitude":79.9864,"temp":23.7,"humidity":53,"rain":0.0,"pressure":961.4,"uv_index":8.5,"wind_gusts":34.6,"aqi":63,"pm10":40.3,"pm2_5":25.6,"mosquito_risk":0,"arthritis_risk":5,"migraine_risk":7,"frizz_risk":0,"updated_at":"2026-04-07T04:10:20.288228+05:30"},{"city":"Ujjain","state":"Madhya Pradesh","latitude":23.1765,"longitude":75.7885,"temp":21.4,"humidity":63,"rain":0.0,"pressure":954.1,"uv_index":8.3,"wind_gusts":42.5,"aqi":48,"pm10":17.8,"pm2_5":13.9,"mosquito_risk":3,"arthritis_risk":5,"migraine_risk":7,"frizz_risk":0,"updated_at":"2026-04-07T04:10:20.288235+05:30"},{"city":"Visakhapatnam","state":"Andhra Pradesh","latitude":17.6868,"longitude":83.2185,"temp":26.0,"humidity":92,"rain":0.0,"pressure":1003.7,"uv_index":9.1,"wind_gusts":31.3,"aqi":88,"pm10":28.1,"pm2_5":24.2,"mosquito_risk":7,"arthritis_risk":5,"migraine_risk":4,"frizz_risk":1,"updated_at":"2026-04-07T04:10:20.288241+05:30"},{"city":"Vijayawada","state":"Andhra Pradesh","latitude":16.5062,"longitude":80.648,"temp":26.7,"humidity":90,"rain":0.0,"pressure":1002.5,"uv_index":9.2,"wind_gusts":30.6,"aqi":74,"pm10":23.1,"pm2_5":20.3,"mosquito_risk":7,"arthritis_risk":5,"migraine_risk":4,"frizz_risk":1,"updated_at":"2026-04-07T04:10:20.288248+05:30"},{"city":"Guntur","state":"Andhra Pradesh","latitude":16.3067,"longitude":80.4365,"temp":27.0,"humidity":92,"rain":0.0,"pressure":1003.4,"uv_index":9.2,"wind_gusts":29.9,"aqi":86,"pm10":26.2,"pm2_5":22.9,"mosquito_risk":7,"arthritis_risk":5,"migraine_risk":4,"frizz_risk":1,"updated_at":"2026-04-07T04:10:20.288254+05:30"},{"city":"Nellore","state":"Andhra Pradesh","latitude":14.4426,"longitude":79.9865,"temp":27.5,"humidity":92,"rain":0.0,"pressure":1005.2,"uv_index":9.3,"wind_gusts":36.7,"aqi":77,"pm10":27.4,"pm2_5":24.6,"mosquito_risk":7,"arthritis_risk":5,"migraine_risk":4,"frizz_risk":1,"updated_at":"2026-04-07T04:10:20.288262+05:30"},{"city":"Kurnool","state":"Andhra Pradesh","latitude":15.8281,"longitude":78.0373,"temp":26.4,"humidity":43,"rain":0.0,"pressure":976.6,"uv_index":9.2,"wind_gusts":23.4,"aqi":66,"pm10":15.7,"pm2_5":15.0,"mosquito_risk":4,"arthritis_risk":5,"migraine_risk":7,"frizz_risk":0,"updated_at":"2026-04-07T04:10:20.288269+05:30"},{"city":"Kakinada","state":"Andhra Pradesh","latitude":16.9891,"longitude":82.2475,"temp":25.6,"humidity":95,"rain":0.0,"pressure":1007.4,"uv_index":9.15,"wind_gusts":24.5,"aqi":57,"pm10":20.5,"pm2_5":15.0,"mosquito_risk":7,"arthritis_risk":5,"migraine_risk":4,"frizz_risk":1,"updated_at":"2026-04-07T04:10:20.288276+05:30"},{"city":"Tirupati","state":"Andhra Pradesh","latitude":13.6288,"longitude":79.4192,"temp":26.4,"humidity":91,"rain":0.0,"pressure":991.7,"uv_index":9.4,"wind_gusts":28.1,"aqi":104,"pm10":43.2,"pm2_5":40.9,"mosquito_risk":7,"arthritis_risk":5,"migraine_risk":7,"frizz_risk":1,"updated_at":"2026-04-07T04:10:20.288282+05:30"},{"city":"Warangal","state":"Telangana","latitude":17.9689,"longitude":79.5941,"temp":26.0,"humidity":87,"rain":0.0,"pressure":978.4,"uv_index":9.05,"wind_gusts":31.3,"aqi":101,"pm10":44.7,"pm2_5":41.2,"mosquito_risk":7,"arthritis_risk":5,"migraine_risk":7,"frizz_risk":1,"updated_at":"2026-04-07T04:10:20.288288+05:30"},{"city":"Nizamabad","state":"Telangana","latitude":18.6725,"longitude":78.0941,"temp":25.3,"humidity":51,"rain":0.0,"pressure":964.6,"uv_index":9.0,"wind_gusts":30.2,"aqi":61,"pm10":25.0,"pm2_5":20.4,"mosquito_risk":4,"arthritis_risk":5,"migraine_risk":7,"frizz_risk":0,"updated_at":"2026-04-07T04:10:20.288294+05:30"},{"city":"Mysore","state":"Karnataka","latitude":12.2958,"longitude":76.6396,"temp":21.5,"humidity":87,"rain":0.0,"pressure":928.6,"uv_index":9.55,"wind_gusts":41.0,"aqi":60,"pm10":15.8,"pm2_5":13.4,"mosquito_risk":3,"arthritis_risk":5,"migraine_risk":7,"frizz_risk":1,"updated_at":"2026-04-07T04:10:20.288301+05:30"},{"city":"Mangalore","state":"Karnataka","latitude":12.9141,"longitude":74.856,"temp":29.0,"humidity":71,"rain":0.0,"pressure":1007.8,"uv_index":9.15,"wind_gusts":31.0,"aqi":59,"pm10":29.9,"pm2_5":19.3,"mosquito_risk":7,"arthritis_risk":5,"migraine_risk":4,"frizz_risk":1,"updated_at":"2026-04-07T04:10:20.288307+05:30"},{"city":"Hubli-Dharwad","state":"Karnataka","latitude":15.3647,"longitude":75.124,"temp":18.5,"humidity":91,"rain":0.0,"pressure":940.7,"uv_index":9.2,"wind_gusts":38.9,"aqi":42,"pm10":18.0,"pm2_5":12.3,"mosquito_risk":3,"arthritis_risk":10,"migraine_risk":7,"frizz_risk":1,"updated_at":"2026-04-07T04:10:20.288313+05:30"},{"city":"Belgaum","state":"Karnataka","latitude":15.8497,"longitude":74.4977,"temp":17.4,"humidity":87,"rain":0.0,"pressure":925.2,"uv_index":9.25,"wind_gusts":34.2,"aqi":54,"pm10":17.6,"pm2_5":15.1,"mosquito_risk":3,"arthritis_risk":10,"migraine_risk":7,"frizz_risk":0,"updated_at":"2026-04-07T04:10:23.627476+05:30"},{"city":"Coimbatore","state":"Tamil Nadu","latitude":11.0168,"longitude":76.9558,"temp":24.4,"humidity":78,"rain":0.0,"pressure":961.9,"uv_index":9.35,"wind_gusts":55.4,"aqi":69,"pm10":23.8,"pm2_5":18.6,"mosquito_risk":3,"arthritis_risk":5,"migraine_risk":7,"frizz_risk":1,"updated_at":"2026-04-07T04:10:23.627511+05:30"},{"city":"Madurai","state":"Tamil Nadu","latitude":9.9252,"longitude":78.1198,"temp":27.1,"humidity":94,"rain":0.0,"pressure":992.6,"uv_index":8.05,"wind_gusts":36.0,"aqi":99,"pm10":51.0,"pm2_5":47.7,"mosquito_risk":7,"arthritis_risk":5,"migraine_risk":7,"frizz_risk":1,"updated_at":"2026-04-07T04:10:23.627524+05:30"},{"city":"Trichy","state":"Tamil Nadu","latitude":10.7905,"longitude":78.7047,"temp":26.6,"humidity":91,"rain":0.0,"pressure":999.9,"uv_index":9.05,"wind_gusts":31.7,"aqi":93,"pm10":27.4,"pm2_5":25.7,"mosquito_risk":7,"arthritis_risk":5,"migraine_risk":7,"frizz_risk":1,"updated_at":"2026-04-07T04:10:23.627534+05:30"},{"city":"Salem","state":"Tamil Nadu","latitude":11.6643,"longitude":78.146,"temp":27.0,"humidity":76,"rain":0.0,"pressure":977.5,"uv_index":9.45,"wind_gusts":30.2,"aqi":74,"pm10":24.2,"pm2_5":20.4,"mosquito_risk":7,"arthritis_risk":5,"migraine_risk":7,"frizz_risk":1,"updated_at":"2026-04-07T04:10:23.627543+05:30"},{"city":"Tirunelveli","state":"Tamil Nadu","latitude":8.7139,"longitude":77.7567,"temp":27.1,"humidity":73,"rain":0.0,"pressure":1002.6,"uv_index":8.75,"wind_gusts":21.2,"aqi":70,"pm10":31.2,"pm2_5":23.2,"mosquito_risk":7,"arthritis_risk":5,"migraine_risk":4,"frizz_risk":1,"updated_at":"2026-04-07T04:10:23.627553+05:30"},{"city":"Vellore","state":"Tamil Nadu","latitude":12.9165,"longitude":79.1325,"temp":25.9,"humidity":86,"rain":0.0,"pressure":984.7,"uv_index":9.45,"wind_gusts":24.8,"aqi":116,"pm10":57.4,"pm2_5":54.5,"mosquito_risk":7,"arthritis_risk":5,"migraine_risk":7,"frizz_risk":1,"updated_at":"2026-04-07T04:10:23.627563+05:30"},{"city":"Erode","state":"Tamil Nadu","latitude":11.341,"longitude":77.7172,"temp":27.8,"humidity":72,"rain":0.0,"pressure":989.1,"uv_index":9.45,"wind_gusts":38.9,"aqi":70,"pm10":23.7,"pm2_5":18.9,"mosquito_risk":7,"arthritis_risk":5,"migraine_risk":7,"frizz_risk":1,"updated_at":"2026-04-07T04:10:23.627573+05:30"},{"city":"Kochi","state":"Kerala","latitude":9.9312,"longitude":76.2673,"temp":29.1,"humidity":74,"rain":0.0,"pressure":1009.3,"uv_index":8.9,"wind_gusts":40.3,"aqi":71,"pm10":27.1,"pm2_5":20.2,"mosquito_risk":7,"arthritis_risk":0,"migraine_risk":4,"frizz_risk":1,"updated_at":"2026-04-07T04:10:23.627582+05:30"},{"city":"Thiruvananthapuram","state":"Kerala","latitude":8.5241,"longitude":76.9366,"temp":28.6,"humidity":81,"rain":0.0,"pressure":1008.1,"uv_index":8.8,"wind_gusts":51.1,"aqi":62,"pm10":34.1,"pm2_5":20.7,"mosquito_risk":7,"arthritis_risk":0,"migraine_risk":4,"frizz_risk":1,"updated_at":"2026-04-07T04:10:23.627591+05:30"},{"city":"Kozhikode","state":"Kerala","latitude":11.2588,"longitude":75.7804,"temp":28.2,"humidity":80,"rain":0.0,"pressure":1008.8,"uv_index":9.15,"wind_gusts":37.4,"aqi":60,"pm10":25.3,"pm2_5":14.8,"mosquito_risk":7,"arthritis_risk":0,"migraine_risk":4,"frizz_risk":1,"updated_at":"2026-04-07T04:10:23.627599+05:30"},{"city":"Thrissur","state":"Kerala","latitude":10.5276,"longitude":76.2144,"temp":27.2,"humidity":83,"rain":0.0,"pressure":1007.7,"uv_index":9.2,"wind_gusts":39.6,"aqi":68,"pm10":27.8,"pm2_5":19.5,"mosquito_risk":7,"arthritis_risk":5,"migraine_risk":4,"frizz_risk":1,"updated_at":"2026-04-07T04:10:23.627609+05:30"},{"city":"Kannur","state":"Kerala","latitude":11.8745,"longitude":75.3704,"temp":27.0,"humidity":80,"rain":0.0,"pressure":1008.3,"uv_index":9.15,"wind_gusts":40.0,"aqi":58,"pm10":24.1,"pm2_5":14.9,"mosquito_risk":7,"arthritis_risk":0,"migraine_risk":4,"frizz_risk":1,"updated_at":"2026-04-07T04:10:23.627618+05:30"},{"city":"Patna","state":"Bihar","latitude":25.5941,"longitude":85.1376,"temp":22.7,"humidity":69,"rain":0.0,"pressure":1001.2,"uv_index":8.2,"wind_gusts":29.2,"aqi":74,"pm10":35.6,"pm2_5":30.4,"mosquito_risk":3,"arthritis_risk":5,"migraine_risk":4,"frizz_risk":1,"updated_at":"2026-04-07T04:10:23.627626+05:30"},{"city":"Gaya","state":"Bihar","latitude":24.7914,"longitude":85.0002,"temp":21.7,"humidity":75,"rain":0.0,"pressure":995.0,"uv_index":8.3,"wind_gusts":25.2,"aqi":65,"pm10":20.1,"pm2_5":14.4,"mosquito_risk":3,"arthritis_risk":5,"migraine_risk":7,"frizz_risk":1,"updated_at":"2026-04-07T04:10:23.627635+05:30"},{"city":"Muzaffarpur","state":"Bihar","latitude":26.1209,"longitude":85.3647,"temp":21.9,"humidity":70,"rain":0.0,"pressure":1001.5,"uv_index":8.15,"wind_gusts":27.4,"aqi":84,"pm10":54.0,"pm2_5":48.7,"mosquito_risk":3,"arthritis_risk":5,"migraine_risk":4,"frizz_risk":1,"updated_at":"2026-04-07T04:10:23.627643+05:30"},{"city":"Bhagalpur","state":"Bihar","latitude":25.2425,"longitude":87.0117,"temp":22.8,"humidity":76,"rain":0.0,"pressure":1002.2,"uv_index":8.05,"wind_gusts":22.0,"aqi":71,"pm10":24.7,"pm2_5":19.3,"mosquito_risk":3,"arthritis_risk":5,"migraine_risk":4,"frizz_risk":1,"updated_at":"2026-04-07T04:10:23.627651+05:30"},{"city":"Ranchi","state":"Jharkhand","latitude":23.3441,"longitude":85.3096,"temp":18.9,"humidity":88,"rain":0.0,"pressure":938.0,"uv_index":8.9,"wind_gusts":31.0,"aqi":70,"pm10":28.5,"pm2_5":22.8,"mosquito_risk":3,"arthritis_risk":10,"migraine_risk":7,"frizz_risk":1,"updated_at":"2026-04-07T04:10:23.627659+05:30"},{"city":"Jamshedpur","state":"Jharkhand","latitude":22.8046,"longitude":86.2029,"temp":21.8,"humidity":92,"rain":0.0,"pressure":992.0,"uv_index":8.75,"wind_gusts":33.1,"aqi":103,"pm10":54.4,"pm2_5":49.0,"mosquito_risk":3,"arthritis_risk":5,"migraine_risk":7,"frizz_risk":1,"updated_at":"2026-04-07T04:10:23.627667+05:30"},{"city":"Dhanbad","state":"Jharkhand","latitude":23.7957,"longitude":86.4304,"temp":21.6,"humidity":83,"rain":0.0,"pressure":980.7,"uv_index":8.65,"wind_gusts":27.7,"aqi":119,"pm10":61.5,"pm2_5":55.9,"mosquito_risk":3,"arthritis_risk":5,"migraine_risk":7,"frizz_risk":1,"updated_at":"2026-04-07T04:10:23.627676+05:30"},{"city":"Bokaro","state":"Jharkhand","latitude":23.6693,"longitude":86.1511,"temp":21.4,"humidity":87,"rain":0.0,"pressure":985.1,"uv_index":8.65,"wind_gusts":26.6,"aqi":105,"pm10":55.9,"pm2_5":49.1,"mosquito_risk":3,"arthritis_risk":5,"migraine_risk":7,"frizz_risk":1,"updated_at":"2026-04-07T04:10:23.627684+05:30"},{"city":"Bhubaneswar","state":"Odisha","latitude":20.2961,"longitude":85.8245,"temp":24.4,"humidity":95,"rain":0.0,"pressure":1003.0,"uv_index":8.95,"wind_gusts":42.8,"aqi":77,"pm10":27.0,"pm2_5":24.1,"mosquito_risk":3,"arthritis_risk":5,"migraine_risk":4,"frizz_risk":1,"updated_at":"2026-04-07T04:10:23.627692+05:30"},{"city":"Cuttack","state":"Odisha","latitude":20.4625,"longitude":85.8828,"temp":23.6,"humidity":95,"rain":0.0,"pressure":1005.2,"uv_index":9.0,"wind_gusts":37.8,"aqi":77,"pm10":27.0,"pm2_5":24.1,"mosquito_risk":3,"arthritis_risk":5,"migraine_risk":4,"frizz_risk":1,"updated_at":"2026-04-07T04:10:23.627700+05:30"},{"city":"Rourkela","state":"Odisha","latitude":22.2604,"longitude":84.8536,"temp":20.9,"humidity":89,"rain":0.0,"pressure":986.8,"uv_index":8.7,"wind_gusts":25.2,"aqi":98,"pm10":32.2,"pm2_5":27.8,"mosquito_risk":3,"arthritis_risk":5,"migraine_risk":7,"frizz_risk":1,"updated_at":"2026-04-07T04:10:23.627709+05:30"},{"city":"Raipur","state":"Chhattisgarh","latitude":21.2514,"longitude":81.6296,"temp":24.9,"humidity":76,"rain":0.0,"pressure":974.8,"uv_index":8.8,"wind_gusts":25.9,"aqi":124,"pm10":69.6,"pm2_5":62.4,"mosquito_risk":3,"arthritis_risk":5,"migraine_risk":7,"frizz_risk":1,"updated_at":"2026-04-07T04:10:23.627717+05:30"},{"city":"Bhilai","state":"Chhattisgarh","latitude":21.1938,"longitude":81.3509,"temp":24.7,"humidity":78,"rain":0.0,"pressure":975.0,"uv_index":8.8,"wind_gusts":22.0,"aqi":124,"pm10":75.9,"pm2_5":70.3,"mosquito_risk":3,"arthritis_risk":5,"migraine_risk":7,"frizz_risk":1,"updated_at":"2026-04-07T04:10:23.627725+05:30"},{"city":"Guwahati","state":"Assam","latitude":26.1158,"longitude":91.7086,"temp":23.5,"humidity":87,"rain":0.0,"pressure":1002.7,"uv_index":6.8,"wind_gusts":41.8,"aqi":99,"pm10":53.9,"pm2_5":46.0,"mosquito_risk":3,"arthritis_risk":5,"migraine_risk":4,"frizz_risk":1,"updated_at":"2026-04-07T04:10:23.627733+05:30"},{"city":"Agartala","state":"Tripura","latitude":23.8315,"longitude":91.2868,"temp":23.1,"humidity":91,"rain":0.0,"pressure":1007.4,"uv_index":8.0,"wind_gusts":38.9,"aqi":160,"pm10":89.4,"pm2_5":85.0,"mosquito_risk":3,"arthritis_risk":5,"migraine_risk":4,"frizz_risk":1,"updated_at":"2026-04-07T04:10:23.627741+05:30"},{"city":"Shillong","state":"Meghalaya","latitude":25.5788,"longitude":91.8933,"temp":13.2,"humidity":88,"rain":0.2,"pressure":855.8,"uv_index":5.0,"wind_gusts":39.2,"aqi":92,"pm10":43.2,"pm2_5":37.1,"mosquito_risk":6,"arthritis_risk":10,"migraine_risk":3,"frizz_risk":0,"updated_at":"2026-04-07T04:10:23.627750+05:30"},{"city":"Imphal","state":"Manipur","latitude":24.817,"longitude":93.9368,"temp":18.1,"humidity":80,"rain":0.0,"pressure":922.9,"uv_index":3.6,"wind_gusts":43.9,"aqi":117,"pm10":58.9,"pm2_5":51.6,"mosquito_risk":3,"arthritis_risk":5,"migraine_risk":3,"frizz_risk":0,"updated_at":"2026-04-07T04:10:23.627759+05:30"},{"city":"Aizawl","state":"Mizoram","latitude":23.7271,"longitude":92.7176,"temp":18.3,"humidity":83,"rain":0.0,"pressure":892.0,"uv_index":5.35,"wind_gusts":43.9,"aqi":116,"pm10":38.9,"pm2_5":35.5,"mosquito_risk":3,"arthritis_risk":10,"migraine_risk":3,"frizz_risk":0,"updated_at":"2026-04-07T04:10:23.627767+05:30"},{"city":"Kohima","state":"Nagaland","latitude":25.6701,"longitude":94.1077,"temp":15.5,"humidity":77,"rain":0.0,"pressure":854.7,"uv_index":3.8,"wind_gusts":59.4,"aqi":86,"pm10":47.5,"pm2_5":38.4,"mosquito_risk":3,"arthritis_risk":5,"migraine_risk":3,"frizz_risk":0,"updated_at":"2026-04-07T04:10:23.627776+05:30"},{"city":"Gangtok","state":"Sikkim","latitude":27.3314,"longitude":88.6138,"temp":11.1,"humidity":60,"rain":0.0,"pressure":835.1,"uv_index":8.45,"wind_gusts":25.9,"aqi":66,"pm10":32.1,"pm2_5":23.8,"mosquito_risk":0,"arthritis_risk":5,"migraine_risk":7,"frizz_risk":0,"updated_at":"2026-04-07T04:10:23.627783+05:30"},{"city":"Siliguri","state":"West Bengal","latitude":26.7271,"longitude":88.3953,"temp":20.4,"humidity":60,"rain":0.0,"pressure":994.2,"uv_index":8.1,"wind_gusts":26.3,"aqi":91,"pm10":43.0,"pm2_5":37.7,"mosquito_risk":0,"arthritis_risk":5,"migraine_risk":7,"frizz_risk":0,"updated_at":"2026-04-07T04:10:26.976670+05:30"},{"city":"Durgapur","state":"West Bengal","latitude":23.5204,"longitude":87.3119,"temp":22.6,"humidity":89,"rain":0.0,"pressure":995.8,"uv_index":8.6,"wind_gusts":16.9,"aqi":124,"pm10":58.7,"pm2_5":53.6,"mosquito_risk":3,"arthritis_risk":5,"migraine_risk":7,"frizz_risk":1,"updated_at":"2026-04-07T04:10:26.976702+05:30"},{"city":"Asansol","state":"West Bengal","latitude":23.6739,"longitude":86.9524,"temp":23.6,"humidity":83,"rain":0.0,"pressure":994.3,"uv_index":8.65,"wind_gusts":15.8,"aqi":112,"pm10":52.5,"pm2_5":47.4,"mosquito_risk":3,"arthritis_risk":5,"migraine_risk":7,"frizz_risk":1,"updated_at":"2026-04-07T04:10:26.976713+05:30"},{"city":"Pondicherry","state":"Puducherry","latitude":11.9139,"longitude":79.8145,"temp":27.0,"humidity":92,"rain":0.0,"pressure":1008.3,"uv_index":8.85,"wind_gusts":28.1,"aqi":74,"pm10":34.0,"pm2_5":28.1,"mosquito_risk":7,"arthritis_risk":0,"migraine_risk":4,"frizz_risk":1,"updated_at":"2026-04-07T04:10:26.976723+05:30"},{"city":"Port Blair","state":"Andaman and Nicobar Islands","latitude":11.6234,"longitude":92.7265,"temp":28.3,"humidity":73,"rain":0.0,"pressure":1007.9,"uv_index":9.2,"wind_gusts":13.0,"aqi":25,"pm10":6.9,"pm2_5":4.4,"mosquito_risk":7,"arthritis_risk":5,"migraine_risk":4,"frizz_risk":1,"updated_at":"2026-04-07T04:10:26.976733+05:30"},{"city":"Haridwar","state":"Uttarakhand","latitude":29.9457,"longitude":78.1642,"temp":18.8,"humidity":71,"rain":0.0,"pressure":975.4,"uv_index":6.2,"wind_gusts":49.7,"aqi":61,"pm10":21.1,"pm2_5":16.1,"mosquito_risk":3,"arthritis_risk":5,"migraine_risk":7,"frizz_risk":0,"updated_at":"2026-04-07T04:10:26.976741+05:30"},{"city":"Rishikesh","state":"Uttarakhand","latitude":30.0869,"longitude":78.2676,"temp":18.6,"humidity":64,"rain":0.0,"pressure":968.2,"uv_index":6.25,"wind_gusts":34.2,"aqi":48,"pm10":21.3,"pm2_5":14.0,"mosquito_risk":3,"arthritis_risk":5,"migraine_risk":7,"frizz_risk":0,"updated_at":"2026-04-07T04:10:26.976750+05:30"},{"city":"Nainital","state":"Uttarakhand","latitude":29.3919,"longitude":79.4542,"temp":14.8,"humidity":56,"rain":0.0,"pressure":805.0,"uv_index":5.9,"wind_gusts":33.1,"aqi":53,"pm10":14.8,"pm2_5":11.4,"mosquito_risk":0,"arthritis_risk":5,"migraine_risk":3,"frizz_risk":0,"updated_at":"2026-04-07T04:10:26.976758+05:30"},{"city":"Mussoorie","state":"Uttarakhand","latitude":30.4599,"longitude":78.0664,"temp":12.6,"humidity":58,"rain":0.0,"pressure":801.1,"uv_index":6.6,"wind_gusts":45.4,"aqi":56,"pm10":20.7,"pm2_5":17.1,"mosquito_risk":0,"arthritis_risk":5,"migraine_risk":7,"frizz_risk":0,"updated_at":"2026-04-07T04:10:26.976766+05:30"},{"city":"Dharamshala","state":"Himachal Pradesh","latitude":32.219,"longitude":76.3234,"temp":16.1,"humidity":53,"rain":0.0,"pressure":867.1,"uv_index":7.4,"wind_gusts":50.0,"aqi":57,"pm10":6.9,"pm2_5":5.0,"mosquito_risk":0,"arthritis_risk":5,"migraine_risk":7,"frizz_risk":0,"updated_at":"2026-04-07T04:10:26.976774+05:30"},{"city":"Dalhousie","state":"Himachal Pradesh","latitude":32.5387,"longitude":75.971,"temp":12.4,"humidity":53,"rain":0.0,"pressure":800.7,"uv_index":5.85,"wind_gusts":40.0,"aqi":54,"pm10":15.8,"pm2_5":14.3,"mosquito_risk":0,"arthritis_risk":5,"migraine_risk":3,"frizz_risk":0,"updated_at":"2026-04-07T04:10:26.976782+05:30"},{"city":"Patiala","state":"Punjab","latitude":30.3398,"longitude":76.3869,"temp":19.4,"humidity":69,"rain":0.0,"pressure":978.5,"uv_index":5.9,"wind_gusts":48.2,"aqi":113,"pm10":99.2,"pm2_5":56.3,"mosquito_risk":3,"arthritis_risk":5,"migraine_risk":3,"frizz_risk":0,"updated_at":"2026-04-07T04:10:26.976789+05:30"},{"city":"Bhatinda","state":"Punjab","latitude":30.211,"longitude":74.9455,"temp":19.5,"humidity":72,"rain":0.0,"pressure":982.2,"uv_index":6.3,"wind_gusts":51.1,"aqi":79,"pm10":47.5,"pm2_5":19.8,"mosquito_risk":3,"arthritis_risk":5,"migraine_risk":7,"frizz_risk":0,"updated_at":"2026-04-07T04:10:26.976840+05:30"},{"city":"Rohtak","state":"Haryana","latitude":28.8955,"longitude":76.6066,"temp":19.4,"humidity":71,"rain":0.0,"pressure":981.6,"uv_index":5.0,"wind_gusts":42.1,"aqi":341,"pm10":489.9,"pm2_5":97.1,"mosquito_risk":3,"arthritis_risk":5,"migraine_risk":3,"frizz_risk":0,"updated_at":"2026-04-07T04:10:26.976853+05:30"},{"city":"Panipat","state":"Haryana","latitude":29.3909,"longitude":76.9635,"temp":18.6,"humidity":73,"rain":0.0,"pressure":980.8,"uv_index":5.85,"wind_gusts":41.4,"aqi":386,"pm10":583.0,"pm2_5":108.0,"mosquito_risk":3,"arthritis_risk":5,"migraine_risk":3,"frizz_risk":0,"updated_at":"2026-04-07T04:10:26.976862+05:30"},{"city":"Mathura","state":"Uttar Pradesh","latitude":27.4924,"longitude":77.6737,"temp":19.6,"humidity":77,"rain":0.0,"pressure":988.0,"uv_index":6.1,"wind_gusts":36.4,"aqi":308,"pm10":284.1,"pm2_5":45.6,"mosquito_risk":3,"arthritis_risk":5,"migraine_risk":7,"frizz_risk":0,"updated_at":"2026-04-07T04:10:26.976870+05:30"},{"city":"Vrindavan","state":"Uttar Pradesh","latitude":27.5823,"longitude":77.7027,"temp":19.6,"humidity":73,"rain":0.0,"pressure":988.3,"uv_index":5.7,"wind_gusts":35.6,"aqi":308,"pm10":284.1,"pm2_5":45.6,"mosquito_risk":3,"arthritis_risk":5,"migraine_risk":3,"frizz_risk":0,"updated_at":"2026-04-07T04:10:26.976878+05:30"},{"city":"Ayodhya","state":"Uttar Pradesh","latitude":26.7922,"longitude":82.1998,"temp":20.7,"humidity":63,"rain":0.0,"pressure":996.4,"uv_index":7.6,"wind_gusts":23.8,"aqi":80,"pm10":126.7,"pm2_5":36.4,"mosquito_risk":3,"arthritis_risk":5,"migraine_risk":7,"frizz_risk":0,"updated_at":"2026-04-07T04:10:26.976885+05:30"},{"city":"Ratlam","state":"Madhya Pradesh","latitude":23.3315,"longitude":75.0367,"temp":21.6,"humidity":71,"rain":0.0,"pressure":954.8,"uv_index":8.25,"wind_gusts":41.4,"aqi":66,"pm10":20.0,"pm2_5":14.8,"mosquito_risk":3,"arthritis_risk":5,"migraine_risk":7,"frizz_risk":1,"updated_at":"2026-04-07T04:10:26.976893+05:30"},{"city":"Sagar","state":"Madhya Pradesh","latitude":23.8388,"longitude":78.7378,"temp":22.3,"humidity":59,"rain":0.0,"pressure":949.9,"uv_index":8.35,"wind_gusts":32.8,"aqi":50,"pm10":46.4,"pm2_5":15.2,"mosquito_risk":0,"arthritis_risk":5,"migraine_risk":7,"frizz_risk":0,"updated_at":"2026-04-07T04:10:26.976901+05:30"},{"city":"Satna","state":"Madhya Pradesh","latitude":24.6005,"longitude":80.8322,"temp":22.8,"humidity":53,"rain":0.0,"pressure":971.8,"uv_index":8.0,"wind_gusts":19.8,"aqi":68,"pm10":53.4,"pm2_5":17.7,"mosquito_risk":0,"arthritis_risk":5,"migraine_risk":7,"frizz_risk":0,"updated_at":"2026-04-07T04:10:26.976909+05:30"},{"city":"Akola","state":"Maharashtra","latitude":20.7002,"longitude":77.0082,"temp":24.1,"humidity":60,"rain":0.0,"pressure":975.5,"uv_index":8.7,"wind_gusts":34.2,"aqi":62,"pm10":17.9,"pm2_5":15.4,"mosquito_risk":0,"arthritis_risk":5,"migraine_risk":7,"frizz_risk":0,"updated_at":"2026-04-07T04:10:26.976919+05:30"},{"city":"Amravati","state":"Maharashtra","latitude":20.9374,"longitude":77.7796,"temp":24.0,"humidity":58,"rain":0.0,"pressure":967.1,"uv_index":8.7,"wind_gusts":29.2,"aqi":60,"pm10":16.9,"pm2_5":14.3,"mosquito_risk":0,"arthritis_risk":5,"migraine_risk":7,"frizz_risk":0,"updated_at":"2026-04-07T04:10:26.976932+05:30"},{"city":"Latur","state":"Maharashtra","latitude":18.4088,"longitude":76.5604,"temp":21.5,"humidity":67,"rain":0.0,"pressure":939.5,"uv_index":9.0,"wind_gusts":26.6,"aqi":56,"pm10":23.7,"pm2_5":19.1,"mosquito_risk":3,"arthritis_risk":5,"migraine_risk":7,"frizz_risk":0,"updated_at":"2026-04-07T04:10:26.976944+05:30"},{"city":"Nanded","state":"Maharashtra","latitude":19.1383,"longitude":77.3091,"temp":22.6,"humidity":66,"rain":0.0,"pressure":968.7,"uv_index":8.85,"wind_gusts":24.8,"aqi":56,"pm10":25.3,"pm2_5":21.4,"mosquito_risk":3,"arthritis_risk":5,"migraine_risk":7,"frizz_risk":0,"updated_at":"2026-04-07T04:10:26.976951+05:30"},{"city":"Gulbarga","state":"Karnataka","latitude":17.3297,"longitude":76.8343,"temp":25.4,"humidity":49,"rain":0.0,"pressure":958.6,"uv_index":9.05,"wind_gusts":27.7,"aqi":44,"pm10":8.4,"pm2_5":8.1,"mosquito_risk":4,"arthritis_risk":5,"migraine_risk":7,"frizz_risk":0,"updated_at":"2026-04-07T04:10:26.976959+05:30"},{"city":"Bidar","state":"Karnataka","latitude":17.9104,"longitude":77.5199,"temp":24.0,"humidity":43,"rain":0.0,"pressure":935.1,"uv_index":9.05,"wind_gusts":31.0,"aqi":61,"pm10":24.9,"pm2_5":21.3,"mosquito_risk":0,"arthritis_risk":5,"migraine_risk":7,"frizz_risk":0,"updated_at":"2026-04-07T04:10:26.976966+05:30"},{"city":"Hospet","state":"Karnataka","latitude":15.2689,"longitude":76.3909,"temp":23.6,"humidity":69,"rain":0.0,"pressure":956.4,"uv_index":9.25,"wind_gusts":26.6,"aqi":39,"pm10":15.4,"pm2_5":11.3,"mosquito_risk":3,"arthritis_risk":5,"migraine_risk":7,"frizz_risk":1,"updated_at":"2026-04-07T04:10:26.976973+05:30"},{"city":"Tirupur","state":"Tamil Nadu","latitude":11.1085,"longitude":77.3411,"temp":25.6,"humidity":78,"rain":0.0,"pressure":975.3,"uv_index":9.5,"wind_gusts":45.4,"aqi":74,"pm10":26.8,"pm2_5":22.3,"mosquito_risk":7,"arthritis_risk":5,"migraine_risk":7,"frizz_risk":1,"updated_at":"2026-04-07T04:10:26.976981+05:30"},{"city":"Alappuzha","state":"Kerala","latitude":9.4981,"longitude":76.3388,"temp":29.2,"humidity":74,"rain":0.0,"pressure":1009.3,"uv_index":8.65,"wind_gusts":40.3,"aqi":71,"pm10":29.6,"pm2_5":19.4,"mosquito_risk":7,"arthritis_risk":0,"migraine_risk":4,"frizz_risk":1,"updated_at":"2026-04-07T04:10:26.976988+05:30"},{"city":"Munnar","state":"Kerala","latitude":10.0889,"longitude":77.0595,"temp":20.0,"humidity":97,"rain":0.0,"pressure":856.8,"uv_index":9.75,"wind_gusts":38.9,"aqi":65,"pm10":28.6,"pm2_5":22.0,"mosquito_risk":3,"arthritis_risk":5,"migraine_risk":7,"frizz_risk":1,"updated_at":"2026-04-07T04:10:26.976996+05:30"},{"city":"Silchar","state":"Assam","latitude":24.8333,"longitude":92.7789,"temp":23.3,"humidity":87,"rain":0.0,"pressure":1006.1,"uv_index":6.7,"wind_gusts":26.3,"aqi":156,"pm10":79.6,"pm2_5":68.0,"mosquito_risk":3,"arthritis_risk":5,"migraine_risk":4,"frizz_risk":1,"updated_at":"2026-04-07T04:10:26.977004+05:30"},{"city":"Dibrugarh","state":"Assam","latitude":27.4728,"longitude":94.912,"temp":21.6,"humidity":88,"rain":0.0,"pressure":997.0,"uv_index":5.55,"wind_gusts":29.5,"aqi":87,"pm10":26.4,"pm2_5":20.7,"mosquito_risk":3,"arthritis_risk":5,"migraine_risk":3,"frizz_risk":1,"updated_at":"2026-04-07T04:10:26.977011+05:30"}]