[{"city":"Delhi","state":"Delhi","latitude":28.6139,"longitude":77.209,"temp":26.0,"humidity":49,"rain":0.0,"pressure":986.2,"uv_index":5.6,"aqi":152,"mosquito_risk":4,"arthritis_risk":5,"migraine_risk":3,"frizz_risk":0,"updated_at":"2026-02-27T11:24:56.648688+05:30"},{"city":"Mumbai","state":"Maharashtra","latitude":19.076,"longitude":72.8777,"temp":25.6,"humidity":67,"rain":0.0,"pressure":1011.4,"uv_index":7.3,"aqi":69,"mosquito_risk":7,"arthritis_risk":0,"migraine_risk":4,"frizz_risk":1,"updated_at":"2026-02-27T11:24:56.648734+05:30"},{"city":"Bangalore","state":"Karnataka","latitude":12.9716,"longitude":77.5946,"temp":27.6,"humidity":47,"rain":0.0,"pressure":913.2,"uv_index":8.95,"aqi":113,"mosquito_risk":4,"arthritis_risk":5,"migraine_risk":7,"frizz_risk":0,"updated_at":"2026-02-27T11:24:56.648749+05:30"},{"city":"Hyderabad","state":"Telangana","latitude":17.385,"longitude":78.4867,"temp":29.1,"humidity":51,"rain":0.0,"pressure":955.4,"uv_index":8.15,"aqi":132,"mosquito_risk":4,"arthritis_risk":5,"migraine_risk":7,"frizz_risk":1,"updated_at":"2026-02-27T11:24:56.648758+05:30"},{"city":"Chennai","state":"Tamil Nadu","latitude":13.0827,"longitude":80.2707,"temp":31.7,"humidity":52,"rain":0.0,"pressure":1009.1,"uv_index":8.65,"aqi":102,"mosquito_risk":0,"arthritis_risk":0,"migraine_risk":4,"frizz_risk":1,"updated_at":"2026-02-27T11:24:56.648766+05:30"},{"city":"Kolkata","state":"West Bengal","latitude":22.5726,"longitude":88.3639,"temp":28.7,"humidity":62,"rain":0.0,"pressure":1008.3,"uv_index":7.5,"aqi":165,"mosquito_risk":7,"arthritis_risk":0,"migraine_risk":4,"frizz_risk":1,"updated_at":"2026-02-27T11:24:56.648774+05:30"},{"city":"Pune","state":"Maharashtra","latitude":18.5204,"longitude":73.8567,"temp":29.6,"humidity":31,"rain":0.0,"pressure":950.5,"uv_index":7.85,"aqi":69,"mosquito_risk":4,"arthritis_risk":5,"migraine_risk":7,"frizz_risk":0,"updated_at":"2026-02-27T11:24:56.648782+05:30"},{"city":"Ahmedabad","state":"Gujarat","latitude":23.0225,"longitude":72.5714,"temp":27.0,"humidity":55,"rain":0.0,"pressure":1005.1,"uv_index":7.1,"aqi":63,"mosquito_risk":4,"arthritis_risk":5,"migraine_risk":4,"frizz_risk":1,"updated_at":"2026-02-27T11:24:56.648792+05:30"},{"city":"Jaipur","state":"Rajasthan","latitude":26.9124,"longitude":75.7873,"temp":28.3,"humidity":32,"rain":0.0,"pressure":962.4,"uv_index":6.4,"aqi":74,"mosquito_risk":4,"arthritis_risk":5,"migraine_risk":7,"frizz_risk":0,"updated_at":"2026-02-27T11:24:56.648802+05:30"},{"city":"Lucknow","state":"Uttar Pradesh","latitude":26.8467,"longitude":80.9462,"temp":26.6,"humidity":48,"rain":0.0,"pressure":996.9,"uv_index":6.05,"aqi":130,"mosquito_risk":4,"arthritis_risk":5,"migraine_risk":7,"frizz_risk":0,"updated_at":"2026-02-27T11:24:56.648809+05:30"},{"city":"Kanpur","state":"Uttar Pradesh","latitude":26.4499,"longitude":80.3319,"temp":27.1,"humidity":49,"rain":0.0,"pressure":995.2,"uv_index":6.05,"aqi":136,"mosquito_risk":4,"arthritis_risk":5,"migraine_risk":7,"frizz_risk":0,"updated_at":"2026-02-27T11:24:56.648816+05:30"},{"city":"Chandigarh","state":"Chandigarh","latitude":30.7333,"longitude":76.7794,"temp":24.1,"humidity":55,"rain":0.0,"pressure":970.9,"uv_index":5.5,"aqi":122,"mosquito_risk":0,"arthritis_risk":5,"migraine_risk":3,"frizz_risk":0,"updated_at":"2026-02-27T11:24:56.648824+05:30"},{"city":"Srinagar","state":"Jammu and Kashmir","latitude":34.0837,"longitude":74.7973,"temp":14.0,"humidity":38,"rain":0.0,"pressure":841.8,"uv_index":6.35,"aqi":154,"mosquito_risk":0,"arthritis_risk":5,"migraine_risk":7,"frizz_risk":1,"updated_at":"2026-02-27T11:24:56.648831+05:30"},{"city":"Jammu","state":"Jammu and Kashmir","latitude":32.7266,"longitude":74.857,"temp":24.6,"humidity":54,"rain":0.0,"pressure":974.2,"uv_index":6.05,"aqi":118,"mosquito_risk":0,"arthritis_risk":5,"migraine_risk":7,"frizz_risk":0,"updated_at":"2026-02-27T11:24:56.648838+05:30"},{"city":"Amritsar","state":"Punjab","latitude":31.634,"longitude":74.8723,"temp":23.9,"humidity":67,"rain":0.0,"pressure":983.0,"uv_index":6.0,"aqi":164,"mosquito_risk":3,"arthritis_risk":5,"migraine_risk":3,"frizz_risk":1,"updated_at":"2026-02-27T11:24:56.648844+05:30"},{"city":"Ludhiana","state":"Punjab","latitude":30.901,"longitude":75.8573,"temp":24.4,"humidity":59,"rain":0.0,"pressure":981.1,"uv_index":5.75,"aqi":175,"mosquito_risk":0,"arthritis_risk":5,"migraine_risk":3,"frizz_risk":0,"updated_at":"2026-02-27T11:24:56.648851+05:30"},{"city":"Jalandhar","state":"Punjab","latitude":31.326,"longitude":75.5762,"temp":24.1,"humidity":64,"rain":0.0,"pressure":982.2,"uv_index":5.9,"aqi":178,"mosquito_risk":3,"arthritis_risk":5,"migraine_risk":3,"frizz_risk":1,"updated_at":"2026-02-27T11:24:56.648858+05:30"},{"city":"Dehradun","state":"Uttarakhand","latitude":30.6284,"longitude":78.0322,"temp":17.2,"humidity":43,"rain":0.0,"pressure":830.3,"uv_index":5.85,"aqi":80,"mosquito_risk":0,"arthritis_risk":5,"migraine_risk":3,"frizz_risk":0,"updated_at":"2026-02-27T11:24:56.648864+05:30"},{"city":"Shimla","state":"Himachal Pradesh","latitude":31.1048,"longitude":77.1734,"temp":15.4,"humidity":40,"rain":0.0,"pressure":785.0,"uv_index":5.9,"aqi":96,"mosquito_risk":0,"arthritis_risk":5,"migraine_risk":3,"frizz_risk":0,"updated_at":"2026-02-27T11:24:56.648872+05:30"},{"city":"Manali","state":"Himachal Pradesh","latitude":32.2396,"longitude":77.1887,"temp":17.1,"humidity":22,"rain":0.0,"pressure":818.5,"uv_index":7.6,"aqi":79,"mosquito_risk":0,"arthritis_risk":5,"migraine_risk":7,"frizz_risk":1,"updated_at":"2026-02-27T11:24:56.648879+05:30"},{"city":"Gurgaon","state":"Haryana","latitude":28.4595,"longitude":77.0266,"temp":25.9,"humidity":56,"rain":0.0,"pressure":984.7,"uv_index":5.7,"aqi":187,"mosquito_risk":4,"arthritis_risk":5,"migraine_risk":3,"frizz_risk":1,"updated_at":"2026-02-27T11:24:56.648886+05:30"},{"city":"Noida","state":"Uttar Pradesh","latitude":28.5355,"longitude":77.391,"temp":26.4,"humidity":49,"rain":0.0,"pressure":987.8,"uv_index":5.6,"aqi":187,"mosquito_risk":4,"arthritis_risk":5,"migraine_risk":3,"frizz_risk":0,"updated_at":"2026-02-27T11:24:56.648893+05:30"},{"city":"Ghaziabad","state":"Uttar Pradesh","latitude":28.6692,"longitude":77.4538,"temp":24.7,"humidity":61,"rain":0.0,"pressure":985.9,"uv_index":5.55,"aqi":151,"mosquito_risk":3,"arthritis_risk":5,"migraine_risk":3,"frizz_risk":1,"updated_at":"2026-02-27T11:24:56.648899+05:30"},{"city":"Faridabad","state":"Haryana","latitude":28.4089,"longitude":77.3178,"temp":25.7,"humidity":58,"rain":0.0,"pressure":986.9,"uv_index":5.65,"aqi":187,"mosquito_risk":4,"arthritis_risk":5,"migraine_risk":3,"frizz_risk":1,"updated_at":"2026-02-27T11:24:56.648905+05:30"},{"city":"Meerut","state":"Uttar Pradesh","latitude":28.9845,"longitude":77.7064,"temp":24.8,"humidity":59,"rain":0.0,"pressure":984.5,"uv_index":5.45,"aqi":151,"mosquito_risk":0,"arthritis_risk":5,"migraine_risk":3,"frizz_risk":1,"updated_at":"2026-02-27T11:24:56.648912+05:30"},{"city":"Agra","state":"Uttar Pradesh","latitude":27.1767,"longitude":78.0081,"temp":27.4,"humidity":48,"rain":0.0,"pressure":991.0,"uv_index":5.9,"aqi":144,"mosquito_risk":4,"arthritis_risk":5,"migraine_risk":3,"frizz_risk":0,"updated_at":"2026-02-27T11:24:56.648919+05:30"},{"city":"Varanasi","state":"Uttar Pradesh","latitude":25.3176,"longitude":82.9739,"temp":28.0,"humidity":50,"rain":0.0,"pressure":1000.8,"uv_index":6.75,"aqi":128,"mosquito_risk":4,"arthritis_risk":5,"migraine_risk":4,"frizz_risk":1,"updated_at":"2026-02-27T11:24:56.648926+05:30"},{"city":"Prayagraj","state":"Uttar Pradesh","latitude":25.4358,"longitude":81.8463,"temp":28.2,"humidity":47,"rain":0.0,"pressure":999.3,"uv_index":6.6,"aqi":152,"mosquito_risk":4,"arthritis_risk":5,"migraine_risk":7,"frizz_risk":0,"updated_at":"2026-02-27T11:24:56.648933+05:30"},{"city":"Gorakhpur","state":"Uttar Pradesh","latitude":26.7606,"longitude":83.3732,"temp":25.5,"humidity":57,"rain":0.0,"pressure":1000.6,"uv_index":6.45,"aqi":155,"mosquito_risk":4,"arthritis_risk":5,"migraine_risk":4,"frizz_risk":1,"updated_at":"2026-02-27T11:24:56.648942+05:30"},{"city":"Bareilly","state":"Uttar Pradesh","latitude":28.367,"longitude":79.4304,"temp":24.1,"humidity":64,"rain":0.0,"pressure":989.9,"uv_index":5.75,"aqi":151,"mosquito_risk":3,"arthritis_risk":5,"migraine_risk":3,"frizz_risk":1,"updated_at":"2026-02-27T11:24:56.648948+05:30"},{"city":"Aligarh","state":"Uttar Pradesh","latitude":27.8974,"longitude":78.088,"temp":25.6,"humidity":60,"rain":0.0,"pressure":988.9,"uv_index":5.7,"aqi":155,"mosquito_risk":4,"arthritis_risk":5,"migraine_risk":3,"frizz_risk":1,"updated_at":"2026-02-27T11:24:56.648954+05:30"},{"city":"Moradabad","state":"Uttar Pradesh","latitude":28.8386,"longitude":78.7733,"temp":23.9,"humidity":63,"rain":0.0,"pressure":986.6,"uv_index":5.6,"aqi":151,"mosquito_risk":3,"arthritis_risk":5,"migraine_risk":3,"frizz_risk":1,"updated_at":"2026-02-27T11:24:56.648960+05:30"},{"city":"Saharanpur","state":"Uttar Pradesh","latitude":29.9637,"longitude":77.546,"temp":23.4,"humidity":58,"rain":0.0,"pressure":978.2,"uv_index":5.25,"aqi":157,"mosquito_risk":0,"arthritis_risk":5,"migraine_risk":3,"frizz_risk":0,"updated_at":"2026-02-27T11:24:56.648966+05:30"},{"city":"Jhansi","state":"Uttar Pradesh","latitude":25.4484,"longitude":78.5685,"temp":29.4,"humidity":37,"rain":0.0,"pressure":981.1,"uv_index":6.55,"aqi":76,"mosquito_risk":4,"arthritis_risk":5,"migraine_risk":7,"frizz_risk":0,"updated_at":"2026-02-27T11:24:59.981306+05:30"},{"city":"Surat","state":"Gujarat","latitude":21.1702,"longitude":72.8311,"temp":26.7,"humidity":54,"rain":0.0,"pressure":1009.9,"uv_index":7.05,"aqi":82,"mosquito_risk":4,"arthritis_risk":0,"migraine_risk":4,"frizz_risk":1,"updated_at":"2026-02-27T11:24:59.981336+05:30"},{"city":"Vadodara","state":"Gujarat","latitude":22.3072,"longitude":73.1812,"temp":28.5,"humidity":48,"rain":0.0,"pressure":1007.5,"uv_index":7.1,"aqi":66,"mosquito_risk":4,"arthritis_risk":5,"migraine_risk":4,"frizz_risk":1,"updated_at":"2026-02-27T11:24:59.981345+05:30"},{"city":"Rajkot","state":"Gujarat","latitude":22.3039,"longitude":70.8022,"temp":28.0,"humidity":46,"rain":0.0,"pressure":996.5,"uv_index":7.0,"aqi":59,"mosquito_risk":4,"arthritis_risk":5,"migraine_risk":7,"frizz_risk":0,"updated_at":"2026-02-27T11:24:59.981353+05:30"},{"city":"Thane","state":"Maharashtra","latitude":19.2183,"longitude":72.9781,"temp":27.4,"humidity":58,"rain":0.0,"pressure":1010.8,"uv_index":7.3,"aqi":69,"mosquito_risk":4,"arthritis_risk":0,"migraine_risk":4,"frizz_risk":1,"updated_at":"2026-02-27T11:24:59.981360+05:30"},{"city":"Nagpur","state":"Maharashtra","latitude":21.1458,"longitude":79.0882,"temp":29.0,"humidity":40,"rain":0.0,"pressure":976.4,"uv_index":7.45,"aqi":107,"mosquito_risk":4,"arthritis_risk":5,"migraine_risk":7,"frizz_risk":0,"updated_at":"2026-02-27T11:24:59.981366+05:30"},{"city":"Nashik","state":"Maharashtra","latitude":19.9975,"longitude":73.7898,"temp":25.0,"humidity":54,"rain":0.0,"pressure":947.7,"uv_index":7.5,"aqi":49,"mosquito_risk":4,"arthritis_risk":5,"migraine_risk":7,"frizz_risk":0,"updated_at":"2026-02-27T11:24:59.981372+05:30"},{"city":"Aurangabad","state":"Maharashtra","latitude":19.8762,"longitude":75.3433,"temp":28.9,"humidity":30,"rain":0.0,"pressure":946.5,"uv_index":7.8,"aqi":62,"mosquito_risk":4,"arthritis_risk":5,"migraine_risk":7,"frizz_risk":0,"updated_at":"2026-02-27T11:24:59.981380+05:30"},{"city":"Solapur","state":"Maharashtra","latitude":17.6599,"longitude":75.9064,"temp":28.4,"humidity":37,"rain":0.0,"pressure":959.5,"uv_index":8.1,"aqi":69,"mosquito_risk":4,"arthritis_risk":5,"migraine_risk":7,"frizz_risk":0,"updated_at":"2026-02-27T11:24:59.981387+05:30"},{"city":"Kolhapur","state":"Maharashtra","latitude":16.705,"longitude":74.2433,"temp":28.8,"humidity":30,"rain":0.0,"pressure":949.8,"uv_index":8.3,"aqi":50,"mosquito_risk":4,"arthritis_risk":5,"migraine_risk":7,"frizz_risk":0,"updated_at":"2026-02-27T11:24:59.981393+05:30"},{"city":"Goa","state":"Goa","latitude":15.2993,"longitude":74.124,"temp":31.1,"humidity":42,"rain":0.0,"pressure":999.7,"uv_index":8.3,"aqi":44,"mosquito_risk":0,"arthritis_risk":5,"migraine_risk":7,"frizz_risk":1,"updated_at":"2026-02-27T11:24:59.981400+05:30"},{"city":"Jodhpur","state":"Rajasthan","latitude":26.2389,"longitude":73.0243,"temp":28.7,"humidity":37,"rain":0.0,"pressure":984.8,"uv_index":6.7,"aqi":74,"mosquito_risk":4,"arthritis_risk":5,"migraine_risk":7,"frizz_risk":0,"updated_at":"2026-02-27T11:24:59.981407+05:30"},{"city":"Udaipur","state":"Rajasthan","latitude":24.5854,"longitude":73.7125,"temp":28.2,"humidity":32,"rain":0.0,"pressure":948.5,"uv_index":7.35,"aqi":71,"mosquito_risk":4,"arthritis_risk":5,"migraine_risk":7,"frizz_risk":0,"updated_at":"2026-02-27T11:24:59.981413+05:30"},{"city":"Kota","state":"Rajasthan","latitude":25.2138,"longitude":75.8648,"temp":28.0,"humidity":49,"rain":0.0,"pressure":981.3,"uv_index":6.75,"aqi":81,"mosquito_risk":4,"arthritis_risk":5,"migraine_risk":7,"frizz_risk":1,"updated_at":"2026-02-27T11:24:59.981420+05:30"},{"city":"Bikaner","state":"Rajasthan","latitude":28.0229,"longitude":73.3119,"temp":28.7,"humidity":30,"rain":0.0,"pressure":983.4,"uv_index":6.35,"aqi":56,"mosquito_risk":4,"arthritis_risk":5,"migraine_risk":7,"frizz_risk":0,"updated_at":"2026-02-27T11:24:59.981426+05:30"},{"city":"Ajmer","state":"Rajasthan","latitude":26.4499,"longitude":74.6399,"temp":28.1,"humidity":38,"rain":0.0,"pressure":956.6,"uv_index":6.7,"aqi":71,"mosquito_risk":4,"arthritis_risk":5,"migraine_risk":7,"frizz_risk":0,"updated_at":"2026-02-27T11:24:59.981432+05:30"},{"city":"Gwalior","state":"Madhya Pradesh","latitude":26.2183,"longitude":78.1828,"temp":28.6,"humidity":46,"rain":0.0,"pressure":986.2,"uv_index":6.25,"aqi":85,"mosquito_risk":4,"arthritis_risk":5,"migraine_risk":7,"frizz_risk":0,"updated_at":"2026-02-27T11:24:59.981438+05:30"},{"city":"Indore","state":"Madhya Pradesh","latitude":22.7196,"longitude":75.8577,"temp":26.8,"humidity":45,"rain":0.0,"pressure":950.7,"uv_index":7.25,"aqi":90,"mosquito_risk":4,"arthritis_risk":5,"migraine_risk":7,"frizz_risk":0,"updated_at":"2026-02-27T11:24:59.981444+05:30"},{"city":"Bhopal","state":"Madhya Pradesh","latitude":23.2599,"longitude":77.4126,"temp":28.5,"humidity":43,"rain":0.0,"pressure":956.4,"uv_index":7.1,"aqi":83,"mosquito_risk":4,"arthritis_risk":5,"migraine_risk":7,"frizz_risk":0,"updated_at":"2026-02-27T11:24:59.981450+05:30"},{"city":"Jabalpur","state":"Madhya Pradesh","latitude":23.1815,"longitude":79.9864,"temp":30.2,"humidity":32,"rain":0.0,"pressure":964.6,"uv_index":7.15,"aqi":73,"mosquito_risk":0,"arthritis_risk":5,"migraine_risk":7,"frizz_risk":0,"updated_at":"2026-02-27T11:24:59.981457+05:30"},{"city":"Ujjain","state":"Madhya Pradesh","latitude":23.1765,"longitude":75.7885,"temp":26.6,"humidity":45,"rain":0.0,"pressure":956.5,"uv_index":7.15,"aqi":95,"mosquito_risk":4,"arthritis_risk":5,"migraine_risk":7,"frizz_risk":0,"updated_at":"2026-02-27T11:24:59.981464+05:30"},{"city":"Visakhapatnam","state":"Andhra Pradesh","latitude":17.6868,"longitude":83.2185,"temp":31.0,"humidity":51,"rain":0.0,"pressure":1005.9,"uv_index":8.15,"aqi":115,"mosquito_risk":0,"arthritis_risk":5,"migraine_risk":4,"frizz_risk":1,"updated_at":"2026-02-27T11:24:59.981470+05:30"},{"city":"Vijayawada","state":"Andhra Pradesh","latitude":16.5062,"longitude":80.648,"temp":30.2,"humidity":62,"rain":0.0,"pressure":1004.9,"uv_index":8.2,"aqi":111,"mosquito_risk":3,"arthritis_risk":5,"migraine_risk":4,"frizz_risk":1,"updated_at":"2026-02-27T11:24:59.981477+05:30"},{"city":"Guntur","state":"Andhra Pradesh","latitude":16.3067,"longitude":80.4365,"temp":30.8,"humidity":59,"rain":0.0,"pressure":1006.1,"uv_index":8.2,"aqi":108,"mosquito_risk":0,"arthritis_risk":5,"migraine_risk":4,"frizz_risk":1,"updated_at":"2026-02-27T11:24:59.981483+05:30"},{"city":"Nellore","state":"Andhra Pradesh","latitude":14.4426,"longitude":79.9865,"temp":33.0,"humidity":42,"rain":0.0,"pressure":1007.4,"uv_index":8.45,"aqi":91,"mosquito_risk":0,"arthritis_risk":5,"migraine_risk":4,"frizz_risk":1,"updated_at":"2026-02-27T11:24:59.981491+05:30"},{"city":"Kurnool","state":"Andhra Pradesh","latitude":15.8281,"longitude":78.0373,"temp":31.6,"humidity":41,"rain":0.0,"pressure":978.9,"uv_index":8.25,"aqi":103,"mosquito_risk":0,"arthritis_risk":5,"migraine_risk":7,"frizz_risk":1,"updated_at":"2026-02-27T11:24:59.981498+05:30"},{"city":"Kakinada","state":"Andhra Pradesh","latitude":16.9891,"longitude":82.2475,"temp":31.5,"humidity":53,"rain":0.0,"pressure":1009.7,"uv_index":8.15,"aqi":90,"mosquito_risk":0,"arthritis_risk":0,"migraine_risk":4,"frizz_risk":1,"updated_at":"2026-02-27T11:24:59.981505+05:30"},{"city":"Tirupati","state":"Andhra Pradesh","latitude":13.6288,"longitude":79.4192,"temp":31.4,"humidity":39,"rain":0.0,"pressure":993.5,"uv_index":8.6,"aqi":109,"mosquito_risk":0,"arthritis_risk":5,"migraine_risk":7,"frizz_risk":0,"updated_at":"2026-02-27T11:24:59.981511+05:30"},{"city":"Warangal","state":"Telangana","latitude":17.9689,"longitude":79.5941,"temp":29.4,"humidity":64,"rain":0.0,"pressure":981.2,"uv_index":7.95,"aqi":154,"mosquito_risk":7,"arthritis_risk":5,"migraine_risk":7,"frizz_risk":1,"updated_at":"2026-02-27T11:24:59.981517+05:30"},{"city":"Nizamabad","state":"Telangana","latitude":18.6725,"longitude":78.0941,"temp":30.4,"humidity":45,"rain":0.0,"pressure":967.1,"uv_index":7.85,"aqi":150,"mosquito_risk":0,"arthritis_risk":5,"migraine_risk":7,"frizz_risk":1,"updated_at":"2026-02-27T11:24:59.981523+05:30"},{"city":"Mysore","state":"Karnataka","latitude":12.2958,"longitude":76.6396,"temp":27.8,"humidity":51,"rain":0.0,"pressure":929.8,"uv_index":8.85,"aqi":113,"mosquito_risk":4,"arthritis_risk":5,"migraine_risk":7,"frizz_risk":1,"updated_at":"2026-02-27T11:24:59.981529+05:30"},{"city":"Mangalore","state":"Karnataka","latitude":12.9141,"longitude":74.856,"temp":28.3,"humidity":76,"rain":0.0,"pressure":1008.0,"uv_index":8.55,"aqi":49,"mosquito_risk":7,"arthritis_risk":0,"migraine_risk":4,"frizz_risk":1,"updated_at":"2026-02-27T11:24:59.981535+05:30"},{"city":"Hubli-Dharwad","state":"Karnataka","latitude":15.3647,"longitude":75.124,"temp":30.5,"humidity":25,"rain":0.0,"pressure":942.7,"uv_index":8.45,"aqi":44,"mosquito_risk":0,"arthritis_risk":5,"migraine_risk":7,"frizz_risk":0,"updated_at":"2026-02-27T11:24:59.981541+05:30"},{"city":"Belgaum","state":"Karnataka","latitude":15.8497,"longitude":74.4977,"temp":29.9,"humidity":24,"rain":0.0,"pressure":927.6,"uv_index":8.55,"aqi":34,"mosquito_risk":4,"arthritis_risk":5,"migraine_risk":7,"frizz_risk":0,"updated_at":"2026-02-27T11:25:03.314625+05:30"},{"city":"Coimbatore","state":"Tamil Nadu","latitude":11.0168,"longitude":76.9558,"temp":28.1,"humidity":58,"rain":0.0,"pressure":963.5,"uv_index":5.45,"aqi":116,"mosquito_risk":4,"arthritis_risk":5,"migraine_risk":3,"frizz_risk":1,"updated_at":"2026-02-27T11:25:03.314655+05:30"},{"city":"Madurai","state":"Tamil Nadu","latitude":9.9252,"longitude":78.1198,"temp":28.5,"humidity":67,"rain":0.0,"pressure":994.8,"uv_index":8.95,"aqi":152,"mosquito_risk":7,"arthritis_risk":5,"migraine_risk":7,"frizz_risk":1,"updated_at":"2026-02-27T11:25:03.314665+05:30"},{"city":"Trichy","state":"Tamil Nadu","latitude":10.7905,"longitude":78.7047,"temp":28.8,"humidity":66,"rain":0.0,"pressure":1001.7,"uv_index":8.85,"aqi":108,"mosquito_risk":7,"arthritis_risk":5,"migraine_risk":4,"frizz_risk":1,"updated_at":"2026-02-27T11:25:03.314674+05:30"},{"city":"Salem","state":"Tamil Nadu","latitude":11.6643,"longitude":78.146,"temp":29.8,"humidity":58,"rain":0.0,"pressure":979.2,"uv_index":8.85,"aqi":120,"mosquito_risk":4,"arthritis_risk":5,"migraine_risk":7,"frizz_risk":1,"updated_at":"2026-02-27T11:25:03.314681+05:30"},{"city":"Tirunelveli","state":"Tamil Nadu","latitude":8.7139,"longitude":77.7567,"temp":30.9,"humidity":57,"rain":0.0,"pressure":1004.6,"uv_index":9.0,"aqi":108,"mosquito_risk":0,"arthritis_risk":5,"migraine_risk":4,"frizz_risk":1,"updated_at":"2026-02-27T11:25:03.314688+05:30"},{"city":"Vellore","state":"Tamil Nadu","latitude":12.9165,"longitude":79.1325,"temp":31.4,"humidity":37,"rain":0.0,"pressure":986.4,"uv_index":8.7,"aqi":110,"mosquito_risk":0,"arthritis_risk":5,"migraine_risk":7,"frizz_risk":0,"updated_at":"2026-02-27T11:25:03.314695+05:30"},{"city":"Erode","state":"Tamil Nadu","latitude":11.341,"longitude":77.7172,"temp":28.7,"humidity":69,"rain":0.0,"pressure":991.0,"uv_index":8.85,"aqi":112,"mosquito_risk":7,"arthritis_risk":5,"migraine_risk":7,"frizz_risk":1,"updated_at":"2026-02-27T11:25:03.314703+05:30"},{"city":"Kochi","state":"Kerala","latitude":9.9312,"longitude":76.2673,"temp":26.9,"humidity":80,"rain":0.0,"pressure":1010.1,"uv_index":8.8,"aqi":88,"mosquito_risk":7,"arthritis_risk":0,"migraine_risk":4,"frizz_risk":1,"updated_at":"2026-02-27T11:25:03.314709+05:30"},{"city":"Thiruvananthapuram","state":"Kerala","latitude":8.5241,"longitude":76.9366,"temp":27.6,"humidity":79,"rain":0.0,"pressure":1009.0,"uv_index":8.8,"aqi":76,"mosquito_risk":7,"arthritis_risk":0,"migraine_risk":4,"frizz_risk":1,"updated_at":"2026-02-27T11:25:03.314716+05:30"},{"city":"Kozhikode","state":"Kerala","latitude":11.2588,"longitude":75.7804,"temp":28.4,"humidity":73,"rain":0.0,"pressure":1009.3,"uv_index":8.7,"aqi":62,"mosquito_risk":7,"arthritis_risk":0,"migraine_risk":4,"frizz_risk":1,"updated_at":"2026-02-27T11:25:03.314722+05:30"},{"city":"Thrissur","state":"Kerala","latitude":10.5276,"longitude":76.2144,"temp":26.9,"humidity":80,"rain":0.0,"pressure":1008.6,"uv_index":8.8,"aqi":105,"mosquito_risk":7,"arthritis_risk":0,"migraine_risk":4,"frizz_risk":1,"updated_at":"2026-02-27T11:25:03.314729+05:30"},{"city":"Kannur","state":"Kerala","latitude":11.8745,"longitude":75.3704,"temp":30.7,"humidity":60,"rain":0.0,"pressure":1008.2,"uv_index":8.65,"aqi":61,"mosquito_risk":0,"arthritis_risk":0,"migraine_risk":4,"frizz_risk":1,"updated_at":"2026-02-27T11:25:03.314735+05:30"},{"city":"Patna","state":"Bihar","latitude":25.5941,"longitude":85.1376,"temp":27.0,"humidity":48,"rain":0.0,"pressure":1003.8,"uv_index":6.9,"aqi":152,"mosquito_risk":4,"arthritis_risk":5,"migraine_risk":4,"frizz_risk":0,"updated_at":"2026-02-27T11:25:03.314742+05:30"},{"city":"Gaya","state":"Bihar","latitude":24.7914,"longitude":85.0002,"temp":27.3,"humidity":46,"rain":0.0,"pressure":997.1,"uv_index":7.0,"aqi":108,"mosquito_risk":4,"arthritis_risk":5,"migraine_risk":7,"frizz_risk":0,"updated_at":"2026-02-27T11:25:03.314749+05:30"},{"city":"Muzaffarpur","state":"Bihar","latitude":26.1209,"longitude":85.3647,"temp":27.1,"humidity":51,"rain":0.0,"pressure":1003.7,"uv_index":6.85,"aqi":156,"mosquito_risk":4,"arthritis_risk":5,"migraine_risk":4,"frizz_risk":1,"updated_at":"2026-02-27T11:25:03.314755+05:30"},{"city":"Bhagalpur","state":"Bihar","latitude":25.2425,"longitude":87.0117,"temp":26.7,"humidity":51,"rain":0.0,"pressure":1004.2,"uv_index":6.9,"aqi":125,"mosquito_risk":4,"arthritis_risk":5,"migraine_risk":4,"frizz_risk":0,"updated_at":"2026-02-27T11:25:03.314761+05:30"},{"city":"Ranchi","state":"Jharkhand","latitude":23.3441,"longitude":85.3096,"temp":26.4,"humidity":29,"rain":0.0,"pressure":940.1,"uv_index":7.65,"aqi":76,"mosquito_risk":4,"arthritis_risk":5,"migraine_risk":7,"frizz_risk":0,"updated_at":"2026-02-27T11:25:03.314767+05:30"},{"city":"Jamshedpur","state":"Jharkhand","latitude":22.8046,"longitude":86.2029,"temp":28.5,"humidity":31,"rain":0.0,"pressure":993.8,"uv_index":7.55,"aqi":127,"mosquito_risk":4,"arthritis_risk":5,"migraine_risk":7,"frizz_risk":0,"updated_at":"2026-02-27T11:25:03.314774+05:30"},{"city":"Dhanbad","state":"Jharkhand","latitude":23.7957,"longitude":86.4304,"temp":29.5,"humidity":23,"rain":0.0,"pressure":982.5,"uv_index":7.4,"aqi":129,"mosquito_risk":4,"arthritis_risk":5,"migraine_risk":7,"frizz_risk":0,"updated_at":"2026-02-27T11:25:03.314780+05:30"},{"city":"Bokaro","state":"Jharkhand","latitude":23.6693,"longitude":86.1511,"temp":29.2,"humidity":25,"rain":0.0,"pressure":986.6,"uv_index":7.45,"aqi":130,"mosquito_risk":4,"arthritis_risk":5,"migraine_risk":7,"frizz_risk":0,"updated_at":"2026-02-27T11:25:03.314786+05:30"},{"city":"Bhubaneswar","state":"Odisha","latitude":20.2961,"longitude":85.8245,"temp":31.2,"humidity":38,"rain":0.0,"pressure":1005.1,"uv_index":7.85,"aqi":129,"mosquito_risk":0,"arthritis_risk":5,"migraine_risk":4,"frizz_risk":0,"updated_at":"2026-02-27T11:25:03.314793+05:30"},{"city":"Cuttack","state":"Odisha","latitude":20.4625,"longitude":85.8828,"temp":31.2,"humidity":40,"rain":0.0,"pressure":1006.9,"uv_index":7.9,"aqi":129,"mosquito_risk":0,"arthritis_risk":5,"migraine_risk":4,"frizz_risk":0,"updated_at":"2026-02-27T11:25:03.314799+05:30"},{"city":"Rourkela","state":"Odisha","latitude":22.2604,"longitude":84.8536,"temp":29.9,"humidity":30,"rain":0.0,"pressure":988.1,"uv_index":7.45,"aqi":88,"mosquito_risk":4,"arthritis_risk":5,"migraine_risk":7,"frizz_risk":0,"updated_at":"2026-02-27T11:25:03.314805+05:30"},{"city":"Raipur","state":"Chhattisgarh","latitude":21.2514,"longitude":81.6296,"temp":30.1,"humidity":32,"rain":0.0,"pressure":977.9,"uv_index":7.55,"aqi":144,"mosquito_risk":0,"arthritis_risk":5,"migraine_risk":7,"frizz_risk":0,"updated_at":"2026-02-27T11:25:03.314811+05:30"},{"city":"Bhilai","state":"Chhattisgarh","latitude":21.1938,"longitude":81.3509,"temp":29.5,"humidity":38,"rain":0.0,"pressure":978.3,"uv_index":7.55,"aqi":151,"mosquito_risk":4,"arthritis_risk":5,"migraine_risk":7,"frizz_risk":0,"updated_at":"2026-02-27T11:25:03.314817+05:30"},{"city":"Guwahati","state":"Assam","latitude":26.1158,"longitude":91.7086,"temp":25.0,"humidity":66,"rain":0.0,"pressure":1003.8,"uv_index":6.9,"aqi":149,"mosquito_risk":7,"arthritis_risk":5,"migraine_risk":4,"frizz_risk":1,"updated_at":"2026-02-27T11:25:03.314823+05:30"},{"city":"Agartala","state":"Tripura","latitude":23.8315,"longitude":91.2868,"temp":26.4,"humidity":65,"rain":0.0,"pressure":1008.6,"uv_index":7.25,"aqi":164,"mosquito_risk":7,"arthritis_risk":0,"migraine_risk":4,"frizz_risk":1,"updated_at":"2026-02-27T11:25:03.314830+05:30"},{"city":"Shillong","state":"Meghalaya","latitude":25.5788,"longitude":91.8933,"temp":14.4,"humidity":46,"rain":0.0,"pressure":855.4,"uv_index":5.45,"aqi":125,"mosquito_risk":0,"arthritis_risk":5,"migraine_risk":3,"frizz_risk":0,"updated_at":"2026-02-27T11:25:03.314836+05:30"},{"city":"Imphal","state":"Manipur","latitude":24.817,"longitude":93.9368,"temp":20.9,"humidity":42,"rain":0.0,"pressure":923.6,"uv_index":7.45,"aqi":158,"mosquito_risk":0,"arthritis_risk":5,"migraine_risk":7,"frizz_risk":0,"updated_at":"2026-02-27T11:25:03.314842+05:30"},{"city":"Aizawl","state":"Mizoram","latitude":23.7271,"longitude":92.7176,"temp":22.2,"humidity":37,"rain":0.0,"pressure":893.9,"uv_index":7.4,"aqi":173,"mosquito_risk":0,"arthritis_risk":5,"migraine_risk":7,"frizz_risk":0,"updated_at":"2026-02-27T11:25:03.314848+05:30"},{"city":"Kohima","state":"Nagaland","latitude":25.6701,"longitude":94.1077,"temp":14.4,"humidity":69,"rain":0.0,"pressure":854.3,"uv_index":5.85,"aqi":157,"mosquito_risk":3,"arthritis_risk":5,"migraine_risk":3,"frizz_risk":0,"updated_at":"2026-02-27T11:25:03.314854+05:30"},{"city":"Gangtok","state":"Sikkim","latitude":27.3314,"longitude":88.6138,"temp":13.3,"humidity":80,"rain":0.1,"pressure":836.4,"uv_index":5.15,"aqi":157,"mosquito_risk":6,"arthritis_risk":5,"migraine_risk":3,"frizz_risk":0,"updated_at":"2026-02-27T11:25:03.314861+05:30"},{"city":"Siliguri","state":"West Bengal","latitude":26.7271,"longitude":88.3953,"temp":20.8,"humidity":65,"rain":0.0,"pressure":996.0,"uv_index":6.85,"aqi":163,"mosquito_risk":3,"arthritis_risk":5,"migraine_risk":7,"frizz_risk":0,"updated_at":"2026-02-27T11:25:06.643339+05:30"},{"city":"Durgapur","state":"West Bengal","latitude":23.5204,"longitude":87.3119,"temp":30.2,"humidity":24,"rain":0.0,"pressure":997.6,"uv_index":7.4,"aqi":115,"mosquito_risk":0,"arthritis_risk":5,"migraine_risk":7,"frizz_risk":0,"updated_at":"2026-02-27T11:25:06.643374+05:30"},{"city":"Asansol","state":"West Bengal","latitude":23.6739,"longitude":86.9524,"temp":30.3,"humidity":23,"rain":0.0,"pressure":996.3,"uv_index":7.4,"aqi":103,"mosquito_risk":0,"arthritis_risk":5,"migraine_risk":7,"frizz_risk":0,"updated_at":"2026-02-27T11:25:06.643387+05:30"},{"city":"Pondicherry","state":"Puducherry","latitude":11.9139,"longitude":79.8145,"temp":30.7,"humidity":60,"rain":0.0,"pressure":1010.4,"uv_index":8.7,"aqi":95,"mosquito_risk":0,"arthritis_risk":0,"migraine_risk":4,"frizz_risk":1,"updated_at":"2026-02-27T11:25:06.643396+05:30"},{"city":"Port Blair","state":"Andaman and Nicobar Islands","latitude":11.6234,"longitude":92.7265,"temp":26.8,"humidity":82,"rain":0.0,"pressure":1006.0,"uv_index":8.65,"aqi":30,"mosquito_risk":7,"arthritis_risk":5,"migraine_risk":4,"frizz_risk":1,"updated_at":"2026-02-27T11:25:06.643405+05:30"},{"city":"Haridwar","state":"Uttarakhand","latitude":29.9457,"longitude":78.1642,"temp":24.4,"humidity":62,"rain":0.0,"pressure":976.6,"uv_index":5.3,"aqi":143,"mosquito_risk":3,"arthritis_risk":5,"migraine_risk":3,"frizz_risk":1,"updated_at":"2026-02-27T11:25:06.643413+05:30"},{"city":"Rishikesh","state":"Uttarakhand","latitude":30.0869,"longitude":78.2676,"temp":24.9,"humidity":57,"rain":0.0,"pressure":968.8,"uv_index":5.4,"aqi":119,"mosquito_risk":0,"arthritis_risk":5,"migraine_risk":3,"frizz_risk":0,"updated_at":"2026-02-27T11:25:06.643421+05:30"},{"city":"Nainital","state":"Uttarakhand","latitude":29.3919,"longitude":79.4542,"temp":17.4,"humidity":70,"rain":0.0,"pressure":806.6,"uv_index":6.2,"aqi":140,"mosquito_risk":3,"arthritis_risk":5,"migraine_risk":7,"frizz_risk":0,"updated_at":"2026-02-27T11:25:06.643429+05:30"},{"city":"Mussoorie","state":"Uttarakhand","latitude":30.4599,"longitude":78.0664,"temp":17.1,"humidity":63,"rain":0.0,"pressure":803.1,"uv_index":5.75,"aqi":116,"mosquito_risk":3,"arthritis_risk":5,"migraine_risk":3,"frizz_risk":0,"updated_at":"2026-02-27T11:25:06.643437+05:30"},{"city":"Dharamshala","state":"Himachal Pradesh","latitude":32.219,"longitude":76.3234,"temp":19.7,"humidity":56,"rain":0.0,"pressure":869.4,"uv_index":5.95,"aqi":73,"mosquito_risk":0,"arthritis_risk":5,"migraine_risk":3,"frizz_risk":0,"updated_at":"2026-02-27T11:25:06.643445+05:30"},{"city":"Dalhousie","state":"Himachal Pradesh","latitude":32.5387,"longitude":75.971,"temp":18.8,"humidity":34,"rain":0.0,"pressure":804.5,"uv_index":6.2,"aqi":133,"mosquito_risk":0,"arthritis_risk":5,"migraine_risk":7,"frizz_risk":0,"updated_at":"2026-02-27T11:25:06.643453+05:30"},{"city":"Patiala","state":"Punjab","latitude":30.3398,"longitude":76.3869,"temp":24.4,"humidity":63,"rain":0.0,"pressure":980.7,"uv_index":5.4,"aqi":167,"mosquito_risk":3,"arthritis_risk":5,"migraine_risk":3,"frizz_risk":1,"updated_at":"2026-02-27T11:25:06.643461+05:30"},{"city":"Bhatinda","state":"Punjab","latitude":30.211,"longitude":74.9455,"temp":25.7,"humidity":56,"rain":0.0,"pressure":986.1,"uv_index":6.1,"aqi":161,"mosquito_risk":4,"arthritis_risk":5,"migraine_risk":7,"frizz_risk":1,"updated_at":"2026-02-27T11:25:06.643468+05:30"},{"city":"Rohtak","state":"Haryana","latitude":28.8955,"longitude":76.6066,"temp":25.8,"humidity":54,"rain":0.0,"pressure":984.9,"uv_index":5.6,"aqi":154,"mosquito_risk":4,"arthritis_risk":5,"migraine_risk":3,"frizz_risk":0,"updated_at":"2026-02-27T11:25:06.643476+05:30"},{"city":"Panipat","state":"Haryana","latitude":29.3909,"longitude":76.9635,"temp":24.7,"humidity":63,"rain":0.0,"pressure":983.3,"uv_index":5.4,"aqi":182,"mosquito_risk":3,"arthritis_risk":5,"migraine_risk":3,"frizz_risk":1,"updated_at":"2026-02-27T11:25:06.643483+05:30"},{"city":"Mathura","state":"Uttar Pradesh","latitude":27.4924,"longitude":77.6737,"temp":26.5,"humidity":53,"rain":0.0,"pressure":990.0,"uv_index":5.85,"aqi":133,"mosquito_risk":4,"arthritis_risk":5,"migraine_risk":3,"frizz_risk":1,"updated_at":"2026-02-27T11:25:06.643490+05:30"},{"city":"Vrindavan","state":"Uttar Pradesh","latitude":27.5823,"longitude":77.7027,"temp":26.1,"humidity":55,"rain":0.0,"pressure":990.5,"uv_index":5.8,"aqi":133,"mosquito_risk":4,"arthritis_risk":5,"migraine_risk":3,"frizz_risk":1,"updated_at":"2026-02-27T11:25:06.643497+05:30"},{"city":"Ayodhya","state":"Uttar Pradesh","latitude":26.7922,"longitude":82.1998,"temp":26.2,"humidity":54,"rain":0.0,"pressure":998.7,"uv_index":6.2,"aqi":150,"mosquito_risk":4,"arthritis_risk":5,"migraine_risk":7,"frizz_risk":1,"updated_at":"2026-02-27T11:25:06.643504+05:30"},{"city":"Ratlam","state":"Madhya Pradesh","latitude":23.3315,"longitude":75.0367,"temp":25.7,"humidity":47,"rain":0.0,"pressure":957.5,"uv_index":7.1,"aqi":77,"mosquito_risk":4,"arthritis_risk":5,"migraine_risk":7,"frizz_risk":0,"updated_at":"2026-02-27T11:25:06.643512+05:30"},{"city":"Sagar","state":"Madhya Pradesh","latitude":23.8388,"longitude":78.7378,"temp":29.2,"humidity":34,"rain":0.0,"pressure":952.9,"uv_index":7.05,"aqi":61,"mosquito_risk":4,"arthritis_risk":5,"migraine_risk":7,"frizz_risk":0,"updated_at":"2026-02-27T11:25:06.643519+05:30"},{"city":"Satna","state":"Madhya Pradesh","latitude":24.6005,"longitude":80.8322,"temp":29.9,"humidity":28,"rain":0.0,"pressure":974.6,"uv_index":7.0,"aqi":72,"mosquito_risk":4,"arthritis_risk":5,"migraine_risk":7,"frizz_risk":0,"updated_at":"2026-02-27T11:25:06.643527+05:30"},{"city":"Akola","state":"Maharashtra","latitude":20.7002,"longitude":77.0082,"temp":29.9,"humidity":40,"rain":0.0,"pressure":977.8,"uv_index":7.55,"aqi":122,"mosquito_risk":4,"arthritis_risk":5,"migraine_risk":7,"frizz_risk":0,"updated_at":"2026-02-27T11:25:06.643535+05:30"},{"city":"Amravati","state":"Maharashtra","latitude":20.9374,"longitude":77.7796,"temp":30.6,"humidity":36,"rain":0.0,"pressure":970.0,"uv_index":7.5,"aqi":126,"mosquito_risk":0,"arthritis_risk":5,"migraine_risk":7,"frizz_risk":0,"updated_at":"2026-02-27T11:25:06.643544+05:30"},{"city":"Latur","state":"Maharashtra","latitude":18.4088,"longitude":76.5604,"temp":29.7,"humidity":36,"rain":0.0,"pressure":941.9,"uv_index":8.0,"aqi":115,"mosquito_risk":4,"arthritis_risk":5,"migraine_risk":7,"frizz_risk":0,"updated_at":"2026-02-27T11:25:06.643551+05:30"},{"city":"Nanded","state":"Maharashtra","latitude":19.1383,"longitude":77.3091,"temp":30.3,"humidity":43,"rain":0.0,"pressure":971.0,"uv_index":7.75,"aqi":151,"mosquito_risk":0,"arthritis_risk":5,"migraine_risk":7,"frizz_risk":1,"updated_at":"2026-02-27T11:25:06.643559+05:30"},{"city":"Gulbarga","state":"Karnataka","latitude":17.3297,"longitude":76.8343,"temp":30.5,"humidity":37,"rain":0.0,"pressure":960.9,"uv_index":8.1,"aqi":115,"mosquito_risk":0,"arthritis_risk":5,"migraine_risk":7,"frizz_risk":0,"updated_at":"2026-02-27T11:25:06.643566+05:30"},{"city":"Bidar","state":"Karnataka","latitude":17.9104,"longitude":77.5199,"temp":29.2,"humidity":42,"rain":0.0,"pressure":937.6,"uv_index":8.05,"aqi":140,"mosquito_risk":4,"arthritis_risk":5,"migraine_risk":7,"frizz_risk":0,"updated_at":"2026-02-27T11:25:06.643573+05:30"},{"city":"Hospet","state":"Karnataka","latitude":15.2689,"longitude":76.3909,"temp":30.8,"humidity":38,"rain":0.0,"pressure":957.4,"uv_index":8.4,"aqi":94,"mosquito_risk":0,"arthritis_risk":5,"migraine_risk":7,"frizz_risk":0,"updated_at":"2026-02-27T11:25:06.643580+05:30"},{"city":"Tirupur","state":"Tamil Nadu","latitude":11.1085,"longitude":77.3411,"temp":28.6,"humidity":64,"rain":0.0,"pressure":977.1,"uv_index":7.1,"aqi":138,"mosquito_risk":7,"arthritis_risk":5,"migraine_risk":7,"frizz_risk":1,"updated_at":"2026-02-27T11:25:06.643589+05:30"},{"city":"Alappuzha","state":"Kerala","latitude":9.4981,"longitude":76.3388,"temp":27.1,"humidity":80,"rain":0.0,"pressure":1010.0,"uv_index":8.7,"aqi":95,"mosquito_risk":7,"arthritis_risk":0,"migraine_risk":4,"frizz_risk":1,"updated_at":"2026-02-27T11:25:06.643596+05:30"},{"city":"Munnar","state":"Kerala","latitude":10.0889,"longitude":77.0595,"temp":25.0,"humidity":57,"rain":0.0,"pressure":858.7,"uv_index":6.35,"aqi":97,"mosquito_risk":4,"arthritis_risk":5,"migraine_risk":7,"frizz_risk":0,"updated_at":"2026-02-27T11:25:06.643604+05:30"},{"city":"Silchar","state":"Assam","latitude":24.8333,"longitude":92.7789,"temp":27.7,"humidity":50,"rain":0.0,"pressure":1007.0,"uv_index":7.2,"aqi":164,"mosquito_risk":4,"arthritis_risk":5,"migraine_risk":4,"frizz_risk":1,"updated_at":"2026-02-27T11:25:06.643612+05:30"},{"city":"Dibrugarh","state":"Assam","latitude":27.4728,"longitude":94.912,"temp":21.8,"humidity":71,"rain":0.0,"pressure":998.7,"uv_index":6.95,"aqi":153,"mosquito_risk":3,"arthritis_risk":5,"migraine_risk":7,"frizz_risk":1,"updated_at":"2026-02-27T11:25:06.643620+05:30"}]