[{"city":"Delhi","state":"Delhi","latitude":28.6139,"longitude":77.209,"temp":26.8,"humidity":42,"rain":0.0,"pressure":985.8,"uv_index":6.15,"wind_gusts":45.7,"aqi":190,"pm10":183.5,"pm2_5":46.0,"mosquito_risk":4,"arthritis_risk":5,"migraine_risk":7,"frizz_risk":0,"updated_at":"2026-03-15T12:32:24.569673+05:30"},{"city":"Mumbai","state":"Maharashtra","latitude":19.076,"longitude":72.8777,"temp":27.4,"humidity":79,"rain":0.0,"pressure":1011.7,"uv_index":7.7,"wind_gusts":19.4,"aqi":108,"pm10":96.6,"pm2_5":55.9,"mosquito_risk":7,"arthritis_risk":0,"migraine_risk":4,"frizz_risk":1,"updated_at":"2026-03-15T12:32:24.569717+05:30"},{"city":"Bangalore","state":"Karnataka","latitude":12.9716,"longitude":77.5946,"temp":29.6,"humidity":44,"rain":0.0,"pressure":915.2,"uv_index":9.3,"wind_gusts":19.1,"aqi":83,"pm10":28.2,"pm2_5":22.8,"mosquito_risk":4,"arthritis_risk":5,"migraine_risk":7,"frizz_risk":1,"updated_at":"2026-03-15T12:32:24.569732+05:30"},{"city":"Hyderabad","state":"Telangana","latitude":17.385,"longitude":78.4867,"temp":33.5,"humidity":34,"rain":0.0,"pressure":956.6,"uv_index":8.75,"wind_gusts":33.1,"aqi":93,"pm10":38.4,"pm2_5":26.5,"mosquito_risk":0,"arthritis_risk":5,"migraine_risk":7,"frizz_risk":0,"updated_at":"2026-03-15T12:32:24.569743+05:30"},{"city":"Chennai","state":"Tamil Nadu","latitude":13.0827,"longitude":80.2707,"temp":32.5,"humidity":50,"rain":0.0,"pressure":1011.1,"uv_index":9.05,"wind_gusts":31.3,"aqi":50,"pm10":12.3,"pm2_5":9.3,"mosquito_risk":0,"arthritis_risk":0,"migraine_risk":4,"frizz_risk":1,"updated_at":"2026-03-15T12:32:24.569752+05:30"},{"city":"Kolkata","state":"West Bengal","latitude":22.5726,"longitude":88.3639,"temp":31.0,"humidity":61,"rain":0.0,"pressure":1008.7,"uv_index":7.85,"wind_gusts":38.5,"aqi":64,"pm10":27.5,"pm2_5":19.3,"mosquito_risk":3,"arthritis_risk":0,"migraine_risk":4,"frizz_risk":1,"updated_at":"2026-03-15T12:32:24.569761+05:30"},{"city":"Pune","state":"Maharashtra","latitude":18.5204,"longitude":73.8567,"temp":35.3,"humidity":15,"rain":0.0,"pressure":951.8,"uv_index":8.25,"wind_gusts":41.0,"aqi":90,"pm10":33.8,"pm2_5":23.5,"mosquito_risk":0,"arthritis_risk":5,"migraine_risk":10,"frizz_risk":0,"updated_at":"2026-03-15T12:32:24.569773+05:30"},{"city":"Ahmedabad","state":"Gujarat","latitude":23.0225,"longitude":72.5714,"temp":34.3,"humidity":35,"rain":0.0,"pressure":1004.6,"uv_index":7.5,"wind_gusts":27.0,"aqi":71,"pm10":63.6,"pm2_5":22.0,"mosquito_risk":0,"arthritis_risk":5,"migraine_risk":4,"frizz_risk":1,"updated_at":"2026-03-15T12:32:24.569782+05:30"},{"city":"Jaipur","state":"Rajasthan","latitude":26.9124,"longitude":75.7873,"temp":33.3,"humidity":21,"rain":0.0,"pressure":960.8,"uv_index":6.95,"wind_gusts":47.5,"aqi":120,"pm10":217.9,"pm2_5":37.4,"mosquito_risk":0,"arthritis_risk":5,"migraine_risk":7,"frizz_risk":0,"updated_at":"2026-03-15T12:32:24.569789+05:30"},{"city":"Lucknow","state":"Uttar Pradesh","latitude":26.8467,"longitude":80.9462,"temp":25.9,"humidity":56,"rain":0.0,"pressure":998.8,"uv_index":6.35,"wind_gusts":49.7,"aqi":141,"pm10":41.9,"pm2_5":16.5,"mosquito_risk":4,"arthritis_risk":5,"migraine_risk":7,"frizz_risk":1,"updated_at":"2026-03-15T12:32:24.569797+05:30"},{"city":"Kanpur","state":"Uttar Pradesh","latitude":26.4499,"longitude":80.3319,"temp":26.8,"humidity":57,"rain":0.0,"pressure":995.0,"uv_index":6.6,"wind_gusts":47.2,"aqi":152,"pm10":213.3,"pm2_5":30.7,"mosquito_risk":4,"arthritis_risk":5,"migraine_risk":7,"frizz_risk":1,"updated_at":"2026-03-15T12:32:24.569804+05:30"},{"city":"Chandigarh","state":"Chandigarh","latitude":30.7333,"longitude":76.7794,"temp":19.0,"humidity":82,"rain":0.1,"pressure":972.7,"uv_index":6.0,"wind_gusts":35.3,"aqi":81,"pm10":52.7,"pm2_5":21.3,"mosquito_risk":6,"arthritis_risk":10,"migraine_risk":3,"frizz_risk":0,"updated_at":"2026-03-15T12:32:24.569813+05:30"},{"city":"Srinagar","state":"Jammu and Kashmir","latitude":34.0837,"longitude":74.7973,"temp":10.7,"humidity":72,"rain":0.1,"pressure":838.6,"uv_index":5.65,"wind_gusts":42.8,"aqi":94,"pm10":60.8,"pm2_5":28.8,"mosquito_risk":6,"arthritis_risk":5,"migraine_risk":3,"frizz_risk":0,"updated_at":"2026-03-15T12:32:24.569820+05:30"},{"city":"Jammu","state":"Jammu and Kashmir","latitude":32.7266,"longitude":74.857,"temp":19.7,"humidity":81,"rain":0.0,"pressure":975.6,"uv_index":4.6,"wind_gusts":51.8,"aqi":85,"pm10":73.3,"pm2_5":45.6,"mosquito_risk":3,"arthritis_risk":10,"migraine_risk":3,"frizz_risk":1,"updated_at":"2026-03-15T12:32:24.569828+05:30"},{"city":"Amritsar","state":"Punjab","latitude":31.634,"longitude":74.8723,"temp":18.8,"humidity":89,"rain":0.5,"pressure":982.8,"uv_index":4.95,"wind_gusts":41.4,"aqi":101,"pm10":50.5,"pm2_5":31.9,"mosquito_risk":6,"arthritis_risk":10,"migraine_risk":3,"frizz_risk":1,"updated_at":"2026-03-15T12:32:24.569835+05:30"},{"city":"Ludhiana","state":"Punjab","latitude":30.901,"longitude":75.8573,"temp":18.8,"humidity":84,"rain":0.1,"pressure":982.5,"uv_index":5.45,"wind_gusts":35.3,"aqi":116,"pm10":61.0,"pm2_5":30.3,"mosquito_risk":6,"arthritis_risk":10,"migraine_risk":3,"frizz_risk":0,"updated_at":"2026-03-15T12:32:24.569842+05:30"},{"city":"Jalandhar","state":"Punjab","latitude":31.326,"longitude":75.5762,"temp":20.1,"humidity":78,"rain":0.0,"pressure":983.4,"uv_index":5.45,"wind_gusts":29.5,"aqi":110,"pm10":57.5,"pm2_5":28.5,"mosquito_risk":3,"arthritis_risk":5,"migraine_risk":3,"frizz_risk":1,"updated_at":"2026-03-15T12:32:24.569852+05:30"},{"city":"Dehradun","state":"Uttarakhand","latitude":30.6284,"longitude":78.0322,"temp":11.7,"humidity":88,"rain":0.0,"pressure":831.1,"uv_index":5.75,"wind_gusts":38.5,"aqi":53,"pm10":27.0,"pm2_5":11.5,"mosquito_risk":3,"arthritis_risk":10,"migraine_risk":3,"frizz_risk":0,"updated_at":"2026-03-15T12:32:24.569859+05:30"},{"city":"Shimla","state":"Himachal Pradesh","latitude":31.1048,"longitude":77.1734,"temp":10.9,"humidity":86,"rain":0.0,"pressure":783.8,"uv_index":6.15,"wind_gusts":45.7,"aqi":64,"pm10":36.9,"pm2_5":17.2,"mosquito_risk":3,"arthritis_risk":10,"migraine_risk":7,"frizz_risk":0,"updated_at":"2026-03-15T12:32:24.569866+05:30"},{"city":"Manali","state":"Himachal Pradesh","latitude":32.2396,"longitude":77.1887,"temp":13.5,"humidity":61,"rain":0.0,"pressure":817.9,"uv_index":7.45,"wind_gusts":34.2,"aqi":47,"pm10":35.5,"pm2_5":10.4,"mosquito_risk":3,"arthritis_risk":5,"migraine_risk":7,"frizz_risk":0,"updated_at":"2026-03-15T12:32:24.569872+05:30"},{"city":"Gurgaon","state":"Haryana","latitude":28.4595,"longitude":77.0266,"temp":27.8,"humidity":39,"rain":0.0,"pressure":983.1,"uv_index":6.25,"wind_gusts":45.4,"aqi":411,"pm10":532.7,"pm2_5":87.1,"mosquito_risk":4,"arthritis_risk":5,"migraine_risk":7,"frizz_risk":0,"updated_at":"2026-03-15T12:32:24.569879+05:30"},{"city":"Noida","state":"Uttar Pradesh","latitude":28.5355,"longitude":77.391,"temp":27.3,"humidity":42,"rain":0.0,"pressure":987.5,"uv_index":6.15,"wind_gusts":44.6,"aqi":411,"pm10":532.7,"pm2_5":87.1,"mosquito_risk":4,"arthritis_risk":5,"migraine_risk":7,"frizz_risk":0,"updated_at":"2026-03-15T12:32:24.569886+05:30"},{"city":"Ghaziabad","state":"Uttar Pradesh","latitude":28.6692,"longitude":77.4538,"temp":26.7,"humidity":46,"rain":0.0,"pressure":985.4,"uv_index":6.15,"wind_gusts":40.7,"aqi":176,"pm10":161.1,"pm2_5":34.9,"mosquito_risk":4,"arthritis_risk":5,"migraine_risk":7,"frizz_risk":0,"updated_at":"2026-03-15T12:32:24.569893+05:30"},{"city":"Faridabad","state":"Haryana","latitude":28.4089,"longitude":77.3178,"temp":27.4,"humidity":43,"rain":0.0,"pressure":986.4,"uv_index":6.2,"wind_gusts":42.5,"aqi":411,"pm10":532.7,"pm2_5":87.1,"mosquito_risk":4,"arthritis_risk":5,"migraine_risk":7,"frizz_risk":0,"updated_at":"2026-03-15T12:32:24.569900+05:30"},{"city":"Meerut","state":"Uttar Pradesh","latitude":28.9845,"longitude":77.7064,"temp":25.3,"humidity":62,"rain":0.0,"pressure":984.8,"uv_index":6.0,"wind_gusts":32.0,"aqi":176,"pm10":161.1,"pm2_5":34.9,"mosquito_risk":7,"arthritis_risk":5,"migraine_risk":3,"frizz_risk":1,"updated_at":"2026-03-15T12:32:24.569907+05:30"},{"city":"Agra","state":"Uttar Pradesh","latitude":27.1767,"longitude":78.0081,"temp":29.8,"humidity":40,"rain":0.0,"pressure":990.0,"uv_index":6.6,"wind_gusts":45.7,"aqi":545,"pm10":732.0,"pm2_5":77.8,"mosquito_risk":4,"arthritis_risk":5,"migraine_risk":7,"frizz_risk":0,"updated_at":"2026-03-15T12:32:24.569916+05:30"},{"city":"Varanasi","state":"Uttar Pradesh","latitude":25.3176,"longitude":82.9739,"temp":32.8,"humidity":38,"rain":0.0,"pressure":999.3,"uv_index":7.35,"wind_gusts":34.2,"aqi":151,"pm10":85.2,"pm2_5":37.4,"mosquito_risk":0,"arthritis_risk":5,"migraine_risk":7,"frizz_risk":1,"updated_at":"2026-03-15T12:32:24.569928+05:30"},{"city":"Prayagraj","state":"Uttar Pradesh","latitude":25.4358,"longitude":81.8463,"temp":31.2,"humidity":45,"rain":0.0,"pressure":997.8,"uv_index":7.25,"wind_gusts":42.8,"aqi":128,"pm10":68.2,"pm2_5":32.7,"mosquito_risk":0,"arthritis_risk":5,"migraine_risk":7,"frizz_risk":1,"updated_at":"2026-03-15T12:32:24.569935+05:30"},{"city":"Gorakhpur","state":"Uttar Pradesh","latitude":26.7606,"longitude":83.3732,"temp":28.2,"humidity":56,"rain":0.0,"pressure":1000.8,"uv_index":7.1,"wind_gusts":39.2,"aqi":156,"pm10":66.4,"pm2_5":41.2,"mosquito_risk":4,"arthritis_risk":5,"migraine_risk":4,"frizz_risk":1,"updated_at":"2026-03-15T12:32:24.569941+05:30"},{"city":"Bareilly","state":"Uttar Pradesh","latitude":28.367,"longitude":79.4304,"temp":27.6,"humidity":51,"rain":0.0,"pressure":989.3,"uv_index":6.35,"wind_gusts":41.0,"aqi":147,"pm10":50.3,"pm2_5":23.0,"mosquito_risk":4,"arthritis_risk":5,"migraine_risk":7,"frizz_risk":1,"updated_at":"2026-03-15T12:32:24.569948+05:30"},{"city":"Aligarh","state":"Uttar Pradesh","latitude":27.8974,"longitude":78.088,"temp":28.5,"humidity":42,"rain":0.0,"pressure":988.8,"uv_index":6.3,"wind_gusts":51.5,"aqi":213,"pm10":694.8,"pm2_5":85.9,"mosquito_risk":4,"arthritis_risk":5,"migraine_risk":7,"frizz_risk":0,"updated_at":"2026-03-15T12:32:24.569955+05:30"},{"city":"Moradabad","state":"Uttar Pradesh","latitude":28.8386,"longitude":78.7733,"temp":22.1,"humidity":74,"rain":0.0,"pressure":988.8,"uv_index":6.2,"wind_gusts":41.0,"aqi":155,"pm10":60.5,"pm2_5":23.3,"mosquito_risk":3,"arthritis_risk":5,"migraine_risk":7,"frizz_risk":1,"updated_at":"2026-03-15T12:32:24.569961+05:30"},{"city":"Saharanpur","state":"Uttar Pradesh","latitude":29.9637,"longitude":77.546,"temp":18.6,"humidity":88,"rain":0.0,"pressure":979.8,"uv_index":5.8,"wind_gusts":33.1,"aqi":130,"pm10":56.0,"pm2_5":23.2,"mosquito_risk":3,"arthritis_risk":10,"migraine_risk":3,"frizz_risk":1,"updated_at":"2026-03-15T12:32:24.569968+05:30"},{"city":"Jhansi","state":"Uttar Pradesh","latitude":25.4484,"longitude":78.5685,"temp":31.9,"humidity":37,"rain":0.0,"pressure":979.2,"uv_index":7.2,"wind_gusts":49.3,"aqi":107,"pm10":101.0,"pm2_5":32.8,"mosquito_risk":0,"arthritis_risk":5,"migraine_risk":7,"frizz_risk":0,"updated_at":"2026-03-15T12:32:27.871641+05:30"},{"city":"Surat","state":"Gujarat","latitude":21.1702,"longitude":72.8311,"temp":31.1,"humidity":45,"rain":0.0,"pressure":1009.8,"uv_index":7.4,"wind_gusts":24.5,"aqi":135,"pm10":104.3,"pm2_5":54.4,"mosquito_risk":0,"arthritis_risk":0,"migraine_risk":4,"frizz_risk":1,"updated_at":"2026-03-15T12:32:27.871680+05:30"},{"city":"Vadodara","state":"Gujarat","latitude":22.3072,"longitude":73.1812,"temp":34.5,"humidity":34,"rain":0.0,"pressure":1007.1,"uv_index":7.5,"wind_gusts":24.5,"aqi":91,"pm10":77.8,"pm2_5":30.0,"mosquito_risk":0,"arthritis_risk":5,"migraine_risk":4,"frizz_risk":1,"updated_at":"2026-03-15T12:32:27.871692+05:30"},{"city":"Rajkot","state":"Gujarat","latitude":22.3039,"longitude":70.8022,"temp":34.5,"humidity":31,"rain":0.0,"pressure":996.9,"uv_index":7.35,"wind_gusts":37.8,"aqi":73,"pm10":81.3,"pm2_5":22.3,"mosquito_risk":0,"arthritis_risk":5,"migraine_risk":7,"frizz_risk":0,"updated_at":"2026-03-15T12:32:27.871702+05:30"},{"city":"Thane","state":"Maharashtra","latitude":19.2183,"longitude":72.9781,"temp":32.0,"humidity":49,"rain":0.0,"pressure":1011.2,"uv_index":7.7,"wind_gusts":33.5,"aqi":108,"pm10":96.6,"pm2_5":55.9,"mosquito_risk":0,"arthritis_risk":0,"migraine_risk":4,"frizz_risk":1,"updated_at":"2026-03-15T12:32:27.871710+05:30"},{"city":"Nagpur","state":"Maharashtra","latitude":21.1458,"longitude":79.0882,"temp":36.1,"humidity":23,"rain":0.0,"pressure":975.4,"uv_index":8.15,"wind_gusts":26.3,"aqi":120,"pm10":33.6,"pm2_5":29.1,"mosquito_risk":0,"arthritis_risk":5,"migraine_risk":10,"frizz_risk":0,"updated_at":"2026-03-15T12:32:27.871719+05:30"},{"city":"Nashik","state":"Maharashtra","latitude":19.9975,"longitude":73.7898,"temp":32.5,"humidity":23,"rain":0.0,"pressure":948.8,"uv_index":7.9,"wind_gusts":40.0,"aqi":74,"pm10":40.9,"pm2_5":17.2,"mosquito_risk":0,"arthritis_risk":5,"migraine_risk":7,"frizz_risk":0,"updated_at":"2026-03-15T12:32:27.871728+05:30"},{"city":"Aurangabad","state":"Maharashtra","latitude":19.8762,"longitude":75.3433,"temp":34.4,"humidity":18,"rain":0.0,"pressure":947.1,"uv_index":8.4,"wind_gusts":30.6,"aqi":69,"pm10":34.2,"pm2_5":19.3,"mosquito_risk":0,"arthritis_risk":5,"migraine_risk":7,"frizz_risk":0,"updated_at":"2026-03-15T12:32:27.871737+05:30"},{"city":"Solapur","state":"Maharashtra","latitude":17.6599,"longitude":75.9064,"temp":33.9,"humidity":24,"rain":0.0,"pressure":960.4,"uv_index":8.65,"wind_gusts":23.4,"aqi":118,"pm10":39.2,"pm2_5":33.3,"mosquito_risk":0,"arthritis_risk":5,"migraine_risk":7,"frizz_risk":0,"updated_at":"2026-03-15T12:32:27.871746+05:30"},{"city":"Kolhapur","state":"Maharashtra","latitude":16.705,"longitude":74.2433,"temp":30.3,"humidity":35,"rain":0.0,"pressure":951.6,"uv_index":8.05,"wind_gusts":40.3,"aqi":151,"pm10":40.3,"pm2_5":36.3,"mosquito_risk":0,"arthritis_risk":5,"migraine_risk":7,"frizz_risk":0,"updated_at":"2026-03-15T12:32:27.871754+05:30"},{"city":"Goa","state":"Goa","latitude":15.2993,"longitude":74.124,"temp":32.3,"humidity":60,"rain":0.0,"pressure":1001.2,"uv_index":8.75,"wind_gusts":32.8,"aqi":122,"pm10":42.0,"pm2_5":37.4,"mosquito_risk":0,"arthritis_risk":5,"migraine_risk":4,"frizz_risk":1,"updated_at":"2026-03-15T12:32:27.871763+05:30"},{"city":"Jodhpur","state":"Rajasthan","latitude":26.2389,"longitude":73.0243,"temp":34.9,"humidity":23,"rain":0.0,"pressure":984.2,"uv_index":7.25,"wind_gusts":32.0,"aqi":121,"pm10":104.1,"pm2_5":29.4,"mosquito_risk":0,"arthritis_risk":5,"migraine_risk":7,"frizz_risk":0,"updated_at":"2026-03-15T12:32:27.871771+05:30"},{"city":"Udaipur","state":"Rajasthan","latitude":24.5854,"longitude":73.7125,"temp":33.7,"humidity":19,"rain":0.0,"pressure":948.8,"uv_index":7.85,"wind_gusts":37.4,"aqi":62,"pm10":65.4,"pm2_5":20.2,"mosquito_risk":0,"arthritis_risk":5,"migraine_risk":7,"frizz_risk":0,"updated_at":"2026-03-15T12:32:27.871779+05:30"},{"city":"Kota","state":"Rajasthan","latitude":25.2138,"longitude":75.8648,"temp":36.5,"humidity":18,"rain":0.0,"pressure":979.6,"uv_index":7.3,"wind_gusts":37.8,"aqi":67,"pm10":52.3,"pm2_5":21.0,"mosquito_risk":0,"arthritis_risk":5,"migraine_risk":10,"frizz_risk":0,"updated_at":"2026-03-15T12:32:27.871788+05:30"},{"city":"Bikaner","state":"Rajasthan","latitude":28.0229,"longitude":73.3119,"temp":33.3,"humidity":23,"rain":0.0,"pressure":982.7,"uv_index":6.9,"wind_gusts":41.8,"aqi":69,"pm10":66.1,"pm2_5":19.0,"mosquito_risk":0,"arthritis_risk":5,"migraine_risk":7,"frizz_risk":0,"updated_at":"2026-03-15T12:32:27.871795+05:30"},{"city":"Ajmer","state":"Rajasthan","latitude":26.4499,"longitude":74.6399,"temp":33.4,"humidity":19,"rain":0.0,"pressure":955.9,"uv_index":7.25,"wind_gusts":40.3,"aqi":74,"pm10":50.8,"pm2_5":18.6,"mosquito_risk":0,"arthritis_risk":5,"migraine_risk":7,"frizz_risk":0,"updated_at":"2026-03-15T12:32:27.871801+05:30"},{"city":"Gwalior","state":"Madhya Pradesh","latitude":26.2183,"longitude":78.1828,"temp":30.4,"humidity":41,"rain":0.0,"pressure":984.7,"uv_index":6.9,"wind_gusts":33.8,"aqi":108,"pm10":66.1,"pm2_5":24.1,"mosquito_risk":0,"arthritis_risk":5,"migraine_risk":7,"frizz_risk":0,"updated_at":"2026-03-15T12:32:27.871809+05:30"},{"city":"Indore","state":"Madhya Pradesh","latitude":22.7196,"longitude":75.8577,"temp":34.0,"humidity":23,"rain":0.0,"pressure":950.6,"uv_index":7.8,"wind_gusts":36.0,"aqi":63,"pm10":42.4,"pm2_5":17.2,"mosquito_risk":0,"arthritis_risk":5,"migraine_risk":7,"frizz_risk":0,"updated_at":"2026-03-15T12:32:27.871816+05:30"},{"city":"Bhopal","state":"Madhya Pradesh","latitude":23.2599,"longitude":77.4126,"temp":34.7,"humidity":24,"rain":0.0,"pressure":955.6,"uv_index":7.7,"wind_gusts":42.8,"aqi":68,"pm10":51.1,"pm2_5":19.9,"mosquito_risk":0,"arthritis_risk":5,"migraine_risk":7,"frizz_risk":0,"updated_at":"2026-03-15T12:32:27.871822+05:30"},{"city":"Jabalpur","state":"Madhya Pradesh","latitude":23.1815,"longitude":79.9864,"temp":33.8,"humidity":23,"rain":0.0,"pressure":963.5,"uv_index":7.8,"wind_gusts":38.5,"aqi":63,"pm10":27.1,"pm2_5":14.1,"mosquito_risk":0,"arthritis_risk":5,"migraine_risk":7,"frizz_risk":0,"updated_at":"2026-03-15T12:32:27.871829+05:30"},{"city":"Ujjain","state":"Madhya Pradesh","latitude":23.1765,"longitude":75.7885,"temp":33.1,"humidity":30,"rain":0.0,"pressure":956.2,"uv_index":7.7,"wind_gusts":36.7,"aqi":63,"pm10":52.4,"pm2_5":19.7,"mosquito_risk":0,"arthritis_risk":5,"migraine_risk":7,"frizz_risk":0,"updated_at":"2026-03-15T12:32:27.871836+05:30"},{"city":"Visakhapatnam","state":"Andhra Pradesh","latitude":17.6868,"longitude":83.2185,"temp":31.8,"humidity":53,"rain":0.0,"pressure":1007.7,"uv_index":8.65,"wind_gusts":40.0,"aqi":62,"pm10":22.8,"pm2_5":17.6,"mosquito_risk":0,"arthritis_risk":5,"migraine_risk":4,"frizz_risk":1,"updated_at":"2026-03-15T12:32:27.871843+05:30"},{"city":"Vijayawada","state":"Andhra Pradesh","latitude":16.5062,"longitude":80.648,"temp":32.3,"humidity":54,"rain":0.0,"pressure":1006.5,"uv_index":8.75,"wind_gusts":29.2,"aqi":59,"pm10":16.1,"pm2_5":12.4,"mosquito_risk":0,"arthritis_risk":5,"migraine_risk":4,"frizz_risk":1,"updated_at":"2026-03-15T12:32:27.871850+05:30"},{"city":"Guntur","state":"Andhra Pradesh","latitude":16.3067,"longitude":80.4365,"temp":32.3,"humidity":53,"rain":0.0,"pressure":1007.7,"uv_index":8.75,"wind_gusts":30.2,"aqi":56,"pm10":16.7,"pm2_5":13.1,"mosquito_risk":0,"arthritis_risk":5,"migraine_risk":4,"frizz_risk":1,"updated_at":"2026-03-15T12:32:27.871857+05:30"},{"city":"Nellore","state":"Andhra Pradesh","latitude":14.4426,"longitude":79.9865,"temp":33.3,"humidity":50,"rain":0.0,"pressure":1009.3,"uv_index":8.95,"wind_gusts":29.2,"aqi":55,"pm10":21.1,"pm2_5":18.9,"mosquito_risk":0,"arthritis_risk":0,"migraine_risk":4,"frizz_risk":1,"updated_at":"2026-03-15T12:32:27.871864+05:30"},{"city":"Kurnool","state":"Andhra Pradesh","latitude":15.8281,"longitude":78.0373,"temp":35.7,"humidity":35,"rain":0.0,"pressure":979.7,"uv_index":8.75,"wind_gusts":20.2,"aqi":87,"pm10":34.5,"pm2_5":25.5,"mosquito_risk":0,"arthritis_risk":5,"migraine_risk":10,"frizz_risk":1,"updated_at":"2026-03-15T12:32:27.871871+05:30"},{"city":"Kakinada","state":"Andhra Pradesh","latitude":16.9891,"longitude":82.2475,"temp":33.3,"humidity":50,"rain":0.0,"pressure":1011.3,"uv_index":8.7,"wind_gusts":31.7,"aqi":57,"pm10":19.7,"pm2_5":13.7,"mosquito_risk":0,"arthritis_risk":0,"migraine_risk":4,"frizz_risk":1,"updated_at":"2026-03-15T12:32:27.871878+05:30"},{"city":"Tirupati","state":"Andhra Pradesh","latitude":13.6288,"longitude":79.4192,"temp":32.4,"humidity":44,"rain":0.0,"pressure":995.3,"uv_index":9.05,"wind_gusts":28.8,"aqi":71,"pm10":17.6,"pm2_5":15.5,"mosquito_risk":0,"arthritis_risk":5,"migraine_risk":7,"frizz_risk":1,"updated_at":"2026-03-15T12:32:27.871884+05:30"},{"city":"Warangal","state":"Telangana","latitude":17.9689,"longitude":79.5941,"temp":31.1,"humidity":55,"rain":0.0,"pressure":982.8,"uv_index":8.55,"wind_gusts":31.7,"aqi":78,"pm10":29.6,"pm2_5":22.8,"mosquito_risk":0,"arthritis_risk":5,"migraine_risk":7,"frizz_risk":1,"updated_at":"2026-03-15T12:32:27.871891+05:30"},{"city":"Nizamabad","state":"Telangana","latitude":18.6725,"longitude":78.0941,"temp":34.3,"humidity":34,"rain":0.0,"pressure":967.7,"uv_index":8.4,"wind_gusts":31.3,"aqi":119,"pm10":35.4,"pm2_5":28.2,"mosquito_risk":0,"arthritis_risk":5,"migraine_risk":7,"frizz_risk":1,"updated_at":"2026-03-15T12:32:27.871898+05:30"},{"city":"Mysore","state":"Karnataka","latitude":12.2958,"longitude":76.6396,"temp":31.2,"humidity":40,"rain":0.0,"pressure":931.8,"uv_index":9.3,"wind_gusts":28.4,"aqi":93,"pm10":26.0,"pm2_5":21.5,"mosquito_risk":0,"arthritis_risk":5,"migraine_risk":7,"frizz_risk":0,"updated_at":"2026-03-15T12:32:27.871904+05:30"},{"city":"Mangalore","state":"Karnataka","latitude":12.9141,"longitude":74.856,"temp":28.5,"humidity":81,"rain":0.0,"pressure":1009.8,"uv_index":8.95,"wind_gusts":28.1,"aqi":89,"pm10":32.9,"pm2_5":27.9,"mosquito_risk":7,"arthritis_risk":0,"migraine_risk":4,"frizz_risk":1,"updated_at":"2026-03-15T12:32:27.871911+05:30"},{"city":"Hubli-Dharwad","state":"Karnataka","latitude":15.3647,"longitude":75.124,"temp":32.5,"humidity":42,"rain":0.0,"pressure":944.3,"uv_index":8.95,"wind_gusts":45.4,"aqi":111,"pm10":49.9,"pm2_5":43.0,"mosquito_risk":0,"arthritis_risk":5,"migraine_risk":7,"frizz_risk":1,"updated_at":"2026-03-15T12:32:27.871918+05:30"},{"city":"Belgaum","state":"Karnataka","latitude":15.8497,"longitude":74.4977,"temp":31.7,"humidity":33,"rain":0.0,"pressure":929.3,"uv_index":9.0,"wind_gusts":37.1,"aqi":136,"pm10":41.2,"pm2_5":36.6,"mosquito_risk":0,"arthritis_risk":5,"migraine_risk":7,"frizz_risk":0,"updated_at":"2026-03-15T12:32:31.171278+05:30"},{"city":"Coimbatore","state":"Tamil Nadu","latitude":11.0168,"longitude":76.9558,"temp":32.9,"humidity":38,"rain":0.0,"pressure":965.1,"uv_index":9.3,"wind_gusts":34.6,"aqi":68,"pm10":17.3,"pm2_5":13.1,"mosquito_risk":0,"arthritis_risk":5,"migraine_risk":7,"frizz_risk":1,"updated_at":"2026-03-15T12:32:31.171311+05:30"},{"city":"Madurai","state":"Tamil Nadu","latitude":9.9252,"longitude":78.1198,"temp":34.2,"humidity":42,"rain":0.0,"pressure":995.9,"uv_index":9.25,"wind_gusts":28.4,"aqi":52,"pm10":8.3,"pm2_5":6.9,"mosquito_risk":0,"arthritis_risk":5,"migraine_risk":7,"frizz_risk":1,"updated_at":"2026-03-15T12:32:31.171324+05:30"},{"city":"Trichy","state":"Tamil Nadu","latitude":10.7905,"longitude":78.7047,"temp":33.2,"humidity":47,"rain":0.0,"pressure":1003.0,"uv_index":9.15,"wind_gusts":20.2,"aqi":57,"pm10":11.2,"pm2_5":10.0,"mosquito_risk":0,"arthritis_risk":5,"migraine_risk":4,"frizz_risk":1,"updated_at":"2026-03-15T12:32:31.171334+05:30"},{"city":"Salem","state":"Tamil Nadu","latitude":11.6643,"longitude":78.146,"temp":32.1,"humidity":49,"rain":0.0,"pressure":980.6,"uv_index":9.2,"wind_gusts":13.3,"aqi":72,"pm10":20.4,"pm2_5":18.3,"mosquito_risk":0,"arthritis_risk":5,"migraine_risk":7,"frizz_risk":1,"updated_at":"2026-03-15T12:32:31.171343+05:30"},{"city":"Tirunelveli","state":"Tamil Nadu","latitude":8.7139,"longitude":77.7567,"temp":34.9,"humidity":41,"rain":0.0,"pressure":1006.0,"uv_index":9.25,"wind_gusts":34.9,"aqi":50,"pm10":7.5,"pm2_5":6.5,"mosquito_risk":0,"arthritis_risk":5,"migraine_risk":4,"frizz_risk":1,"updated_at":"2026-03-15T12:32:31.171351+05:30"},{"city":"Vellore","state":"Tamil Nadu","latitude":12.9165,"longitude":79.1325,"temp":32.9,"humidity":40,"rain":0.0,"pressure":988.1,"uv_index":9.1,"wind_gusts":29.9,"aqi":97,"pm10":23.9,"pm2_5":22.1,"mosquito_risk":0,"arthritis_risk":5,"migraine_risk":7,"frizz_risk":1,"updated_at":"2026-03-15T12:32:31.171361+05:30"},{"city":"Erode","state":"Tamil Nadu","latitude":11.341,"longitude":77.7172,"temp":33.8,"humidity":41,"rain":0.0,"pressure":992.2,"uv_index":9.2,"wind_gusts":21.2,"aqi":49,"pm10":11.8,"pm2_5":10.0,"mosquito_risk":0,"arthritis_risk":5,"migraine_risk":7,"frizz_risk":1,"updated_at":"2026-03-15T12:32:31.171369+05:30"},{"city":"Kochi","state":"Kerala","latitude":9.9312,"longitude":76.2673,"temp":28.1,"humidity":80,"rain":0.0,"pressure":1011.4,"uv_index":9.1,"wind_gusts":32.8,"aqi":76,"pm10":19.6,"pm2_5":17.9,"mosquito_risk":7,"arthritis_risk":0,"migraine_risk":4,"frizz_risk":1,"updated_at":"2026-03-15T12:32:31.171378+05:30"},{"city":"Thiruvananthapuram","state":"Kerala","latitude":8.5241,"longitude":76.9366,"temp":28.4,"humidity":75,"rain":0.0,"pressure":1010.6,"uv_index":9.1,"wind_gusts":27.0,"aqi":45,"pm10":12.1,"pm2_5":11.2,"mosquito_risk":7,"arthritis_risk":0,"migraine_risk":4,"frizz_risk":1,"updated_at":"2026-03-15T12:32:31.171386+05:30"},{"city":"Kozhikode","state":"Kerala","latitude":11.2588,"longitude":75.7804,"temp":29.6,"humidity":74,"rain":0.0,"pressure":1010.7,"uv_index":9.0,"wind_gusts":30.6,"aqi":80,"pm10":25.1,"pm2_5":22.8,"mosquito_risk":7,"arthritis_risk":0,"migraine_risk":4,"frizz_risk":1,"updated_at":"2026-03-15T12:32:31.171393+05:30"},{"city":"Thrissur","state":"Kerala","latitude":10.5276,"longitude":76.2144,"temp":33.6,"humidity":52,"rain":0.0,"pressure":1009.4,"uv_index":9.05,"wind_gusts":39.6,"aqi":76,"pm10":21.0,"pm2_5":18.3,"mosquito_risk":0,"arthritis_risk":0,"migraine_risk":4,"frizz_risk":1,"updated_at":"2026-03-15T12:32:31.171402+05:30"},{"city":"Kannur","state":"Kerala","latitude":11.8745,"longitude":75.3704,"temp":30.4,"humidity":69,"rain":0.0,"pressure":1010.2,"uv_index":9.0,"wind_gusts":33.8,"aqi":84,"pm10":25.7,"pm2_5":22.5,"mosquito_risk":3,"arthritis_risk":0,"migraine_risk":4,"frizz_risk":1,"updated_at":"2026-03-15T12:32:31.171410+05:30"},{"city":"Patna","state":"Bihar","latitude":25.5941,"longitude":85.1376,"temp":31.6,"humidity":47,"rain":0.0,"pressure":1003.9,"uv_index":7.55,"wind_gusts":28.1,"aqi":160,"pm10":111.5,"pm2_5":54.9,"mosquito_risk":0,"arthritis_risk":5,"migraine_risk":4,"frizz_risk":1,"updated_at":"2026-03-15T12:32:31.171418+05:30"},{"city":"Gaya","state":"Bihar","latitude":24.7914,"longitude":85.0002,"temp":32.3,"humidity":51,"rain":0.0,"pressure":995.5,"uv_index":7.65,"wind_gusts":32.0,"aqi":138,"pm10":88.7,"pm2_5":35.6,"mosquito_risk":0,"arthritis_risk":5,"migraine_risk":7,"frizz_risk":1,"updated_at":"2026-03-15T12:32:31.171426+05:30"},{"city":"Muzaffarpur","state":"Bihar","latitude":26.1209,"longitude":85.3647,"temp":30.9,"humidity":51,"rain":0.0,"pressure":1004.0,"uv_index":7.5,"wind_gusts":34.6,"aqi":160,"pm10":103.8,"pm2_5":58.8,"mosquito_risk":0,"arthritis_risk":5,"migraine_risk":4,"frizz_risk":1,"updated_at":"2026-03-15T12:32:31.171434+05:30"},{"city":"Bhagalpur","state":"Bihar","latitude":25.2425,"longitude":87.0117,"temp":31.5,"humidity":64,"rain":0.0,"pressure":1003.3,"uv_index":7.55,"wind_gusts":32.4,"aqi":151,"pm10":86.6,"pm2_5":55.3,"mosquito_risk":3,"arthritis_risk":5,"migraine_risk":4,"frizz_risk":1,"updated_at":"2026-03-15T12:32:31.171442+05:30"},{"city":"Ranchi","state":"Jharkhand","latitude":23.3441,"longitude":85.3096,"temp":25.4,"humidity":62,"rain":0.0,"pressure":941.0,"uv_index":8.3,"wind_gusts":45.7,"aqi":93,"pm10":47.4,"pm2_5":42.5,"mosquito_risk":7,"arthritis_risk":5,"migraine_risk":7,"frizz_risk":1,"updated_at":"2026-03-15T12:32:31.171450+05:30"},{"city":"Jamshedpur","state":"Jharkhand","latitude":22.8046,"longitude":86.2029,"temp":34.2,"humidity":47,"rain":0.0,"pressure":992.1,"uv_index":8.2,"wind_gusts":38.2,"aqi":118,"pm10":54.2,"pm2_5":45.4,"mosquito_risk":0,"arthritis_risk":5,"migraine_risk":7,"frizz_risk":1,"updated_at":"2026-03-15T12:32:31.171457+05:30"},{"city":"Dhanbad","state":"Jharkhand","latitude":23.7957,"longitude":86.4304,"temp":34.3,"humidity":39,"rain":0.0,"pressure":981.4,"uv_index":8.05,"wind_gusts":35.3,"aqi":157,"pm10":75.2,"pm2_5":67.5,"mosquito_risk":0,"arthritis_risk":5,"migraine_risk":7,"frizz_risk":1,"updated_at":"2026-03-15T12:32:31.171465+05:30"},{"city":"Bokaro","state":"Jharkhand","latitude":23.6693,"longitude":86.1511,"temp":32.8,"humidity":41,"rain":0.0,"pressure":986.2,"uv_index":8.0,"wind_gusts":37.8,"aqi":150,"pm10":65.4,"pm2_5":56.6,"mosquito_risk":0,"arthritis_risk":5,"migraine_risk":7,"frizz_risk":1,"updated_at":"2026-03-15T12:32:31.171474+05:30"},{"city":"Bhubaneswar","state":"Odisha","latitude":20.2961,"longitude":85.8245,"temp":31.5,"humidity":58,"rain":0.0,"pressure":1006.2,"uv_index":8.5,"wind_gusts":41.8,"aqi":57,"pm10":26.4,"pm2_5":18.5,"mosquito_risk":0,"arthritis_risk":5,"migraine_risk":4,"frizz_risk":1,"updated_at":"2026-03-15T12:32:31.171482+05:30"},{"city":"Cuttack","state":"Odisha","latitude":20.4625,"longitude":85.8828,"temp":32.9,"humidity":55,"rain":0.0,"pressure":1007.5,"uv_index":8.55,"wind_gusts":35.6,"aqi":57,"pm10":26.4,"pm2_5":18.5,"mosquito_risk":0,"arthritis_risk":5,"migraine_risk":4,"frizz_risk":1,"updated_at":"2026-03-15T12:32:31.171490+05:30"},{"city":"Rourkela","state":"Odisha","latitude":22.2604,"longitude":84.8536,"temp":34.9,"humidity":36,"rain":0.0,"pressure":987.1,"uv_index":8.1,"wind_gusts":54.0,"aqi":129,"pm10":55.3,"pm2_5":49.4,"mosquito_risk":0,"arthritis_risk":5,"migraine_risk":7,"frizz_risk":1,"updated_at":"2026-03-15T12:32:31.171497+05:30"},{"city":"Raipur","state":"Chhattisgarh","latitude":21.2514,"longitude":81.6296,"temp":35.6,"humidity":28,"rain":0.0,"pressure":976.6,"uv_index":8.2,"wind_gusts":41.8,"aqi":148,"pm10":43.8,"pm2_5":35.9,"mosquito_risk":0,"arthritis_risk":5,"migraine_risk":10,"frizz_risk":0,"updated_at":"2026-03-15T12:32:31.171505+05:30"},{"city":"Bhilai","state":"Chhattisgarh","latitude":21.1938,"longitude":81.3509,"temp":35.8,"humidity":30,"rain":0.0,"pressure":977.1,"uv_index":8.2,"wind_gusts":42.1,"aqi":132,"pm10":44.6,"pm2_5":35.7,"mosquito_risk":0,"arthritis_risk":5,"migraine_risk":10,"frizz_risk":0,"updated_at":"2026-03-15T12:32:31.171513+05:30"},{"city":"Guwahati","state":"Assam","latitude":26.1158,"longitude":91.7086,"temp":24.6,"humidity":80,"rain":0.0,"pressure":1004.7,"uv_index":7.4,"wind_gusts":40.7,"aqi":78,"pm10":25.4,"pm2_5":18.9,"mosquito_risk":3,"arthritis_risk":5,"migraine_risk":4,"frizz_risk":1,"updated_at":"2026-03-15T12:32:31.171521+05:30"},{"city":"Agartala","state":"Tripura","latitude":23.8315,"longitude":91.2868,"temp":27.1,"humidity":71,"rain":0.0,"pressure":1010.2,"uv_index":7.75,"wind_gusts":38.2,"aqi":62,"pm10":23.6,"pm2_5":16.8,"mosquito_risk":7,"arthritis_risk":0,"migraine_risk":4,"frizz_risk":1,"updated_at":"2026-03-15T12:32:31.171529+05:30"},{"city":"Shillong","state":"Meghalaya","latitude":25.5788,"longitude":91.8933,"temp":15.9,"humidity":75,"rain":0.0,"pressure":858.7,"uv_index":7.85,"wind_gusts":85.0,"aqi":65,"pm10":20.1,"pm2_5":13.0,"mosquito_risk":3,"arthritis_risk":5,"migraine_risk":7,"frizz_risk":0,"updated_at":"2026-03-15T12:32:31.171538+05:30"},{"city":"Imphal","state":"Manipur","latitude":24.817,"longitude":93.9368,"temp":18.1,"humidity":84,"rain":0.0,"pressure":927.1,"uv_index":8.15,"wind_gusts":76.7,"aqi":95,"pm10":46.6,"pm2_5":30.3,"mosquito_risk":3,"arthritis_risk":10,"migraine_risk":7,"frizz_risk":0,"updated_at":"2026-03-15T12:32:31.171546+05:30"},{"city":"Aizawl","state":"Mizoram","latitude":23.7271,"longitude":92.7176,"temp":21.7,"humidity":69,"rain":0.0,"pressure":897.7,"uv_index":8.1,"wind_gusts":64.4,"aqi":93,"pm10":25.8,"pm2_5":17.2,"mosquito_risk":3,"arthritis_risk":5,"migraine_risk":7,"frizz_risk":0,"updated_at":"2026-03-15T12:32:31.171554+05:30"},{"city":"Kohima","state":"Nagaland","latitude":25.6701,"longitude":94.1077,"temp":18.0,"humidity":67,"rain":0.0,"pressure":857.5,"uv_index":7.8,"wind_gusts":111.2,"aqi":77,"pm10":33.1,"pm2_5":21.7,"mosquito_risk":3,"arthritis_risk":5,"migraine_risk":7,"frizz_risk":0,"updated_at":"2026-03-15T12:32:31.171591+05:30"},{"city":"Gangtok","state":"Sikkim","latitude":27.3314,"longitude":88.6138,"temp":17.7,"humidity":68,"rain":0.0,"pressure":839.5,"uv_index":7.05,"wind_gusts":20.9,"aqi":93,"pm10":61.9,"pm2_5":36.6,"mosquito_risk":3,"arthritis_risk":5,"migraine_risk":7,"frizz_risk":0,"updated_at":"2026-03-15T12:32:31.171612+05:30"},{"city":"Siliguri","state":"West Bengal","latitude":26.7271,"longitude":88.3953,"temp":23.1,"humidity":73,"rain":0.0,"pressure":996.7,"uv_index":7.4,"wind_gusts":31.7,"aqi":119,"pm10":128.1,"pm2_5":76.6,"mosquito_risk":3,"arthritis_risk":5,"migraine_risk":7,"frizz_risk":1,"updated_at":"2026-03-15T12:32:34.471664+05:30"},{"city":"Durgapur","state":"West Bengal","latitude":23.5204,"longitude":87.3119,"temp":34.3,"humidity":48,"rain":0.0,"pressure":996.6,"uv_index":8.05,"wind_gusts":37.8,"aqi":112,"pm10":68.7,"pm2_5":61.5,"mosquito_risk":0,"arthritis_risk":5,"migraine_risk":7,"frizz_risk":1,"updated_at":"2026-03-15T12:32:34.471702+05:30"},{"city":"Asansol","state":"West Bengal","latitude":23.6739,"longitude":86.9524,"temp":34.3,"humidity":49,"rain":0.0,"pressure":995.0,"uv_index":8.05,"wind_gusts":33.5,"aqi":128,"pm10":75.2,"pm2_5":67.5,"mosquito_risk":0,"arthritis_risk":5,"migraine_risk":7,"frizz_risk":1,"updated_at":"2026-03-15T12:32:34.471712+05:30"},{"city":"Pondicherry","state":"Puducherry","latitude":11.9139,"longitude":79.8145,"temp":33.1,"humidity":51,"rain":0.0,"pressure":1011.8,"uv_index":9.0,"wind_gusts":27.0,"aqi":42,"pm10":9.8,"pm2_5":6.9,"mosquito_risk":0,"arthritis_risk":0,"migraine_risk":4,"frizz_risk":1,"updated_at":"2026-03-15T12:32:34.471720+05:30"},{"city":"Port Blair","state":"Andaman and Nicobar Islands","latitude":11.6234,"longitude":92.7265,"temp":27.9,"humidity":79,"rain":0.0,"pressure":1010.1,"uv_index":8.95,"wind_gusts":21.6,"aqi":73,"pm10":13.8,"pm2_5":10.7,"mosquito_risk":7,"arthritis_risk":0,"migraine_risk":4,"frizz_risk":1,"updated_at":"2026-03-15T12:32:34.471728+05:30"},{"city":"Haridwar","state":"Uttarakhand","latitude":29.9457,"longitude":78.1642,"temp":21.2,"humidity":75,"rain":0.0,"pressure":978.3,"uv_index":5.3,"wind_gusts":28.8,"aqi":87,"pm10":44.2,"pm2_5":16.5,"mosquito_risk":3,"arthritis_risk":5,"migraine_risk":3,"frizz_risk":1,"updated_at":"2026-03-15T12:32:34.471736+05:30"},{"city":"Rishikesh","state":"Uttarakhand","latitude":30.0869,"longitude":78.2676,"temp":21.6,"humidity":71,"rain":0.0,"pressure":971.1,"uv_index":5.2,"wind_gusts":29.2,"aqi":65,"pm10":36.8,"pm2_5":12.2,"mosquito_risk":3,"arthritis_risk":5,"migraine_risk":3,"frizz_risk":1,"updated_at":"2026-03-15T12:32:34.471743+05:30"},{"city":"Nainital","state":"Uttarakhand","latitude":29.3919,"longitude":79.4542,"temp":21.0,"humidity":50,"rain":0.0,"pressure":808.8,"uv_index":4.8,"wind_gusts":49.3,"aqi":84,"pm10":42.8,"pm2_5":16.2,"mosquito_risk":0,"arthritis_risk":5,"migraine_risk":3,"frizz_risk":0,"updated_at":"2026-03-15T12:32:34.471750+05:30"},{"city":"Mussoorie","state":"Uttarakhand","latitude":30.4599,"longitude":78.0664,"temp":12.3,"humidity":87,"rain":0.0,"pressure":803.2,"uv_index":6.0,"wind_gusts":54.7,"aqi":73,"pm10":35.3,"pm2_5":13.4,"mosquito_risk":3,"arthritis_risk":10,"migraine_risk":3,"frizz_risk":0,"updated_at":"2026-03-15T12:32:34.471759+05:30"},{"city":"Dharamshala","state":"Himachal Pradesh","latitude":32.219,"longitude":76.3234,"temp":18.1,"humidity":54,"rain":0.0,"pressure":869.4,"uv_index":4.5,"wind_gusts":32.8,"aqi":52,"pm10":39.7,"pm2_5":16.8,"mosquito_risk":0,"arthritis_risk":5,"migraine_risk":3,"frizz_risk":0,"updated_at":"2026-03-15T12:32:34.471766+05:30"},{"city":"Dalhousie","state":"Himachal Pradesh","latitude":32.5387,"longitude":75.971,"temp":13.9,"humidity":60,"rain":0.0,"pressure":802.8,"uv_index":3.65,"wind_gusts":35.6,"aqi":71,"pm10":45.8,"pm2_5":29.7,"mosquito_risk":0,"arthritis_risk":5,"migraine_risk":3,"frizz_risk":0,"updated_at":"2026-03-15T12:32:34.471773+05:30"},{"city":"Patiala","state":"Punjab","latitude":30.3398,"longitude":76.3869,"temp":19.5,"humidity":85,"rain":0.0,"pressure":982.3,"uv_index":5.9,"wind_gusts":34.9,"aqi":123,"pm10":54.1,"pm2_5":25.4,"mosquito_risk":3,"arthritis_risk":10,"migraine_risk":3,"frizz_risk":1,"updated_at":"2026-03-15T12:32:34.471780+05:30"},{"city":"Bhatinda","state":"Punjab","latitude":30.211,"longitude":74.9455,"temp":23.6,"humidity":69,"rain":0.0,"pressure":986.2,"uv_index":6.45,"wind_gusts":45.0,"aqi":87,"pm10":62.9,"pm2_5":24.9,"mosquito_risk":3,"arthritis_risk":5,"migraine_risk":7,"frizz_risk":1,"updated_at":"2026-03-15T12:32:34.471787+05:30"},{"city":"Rohtak","state":"Haryana","latitude":28.8955,"longitude":76.6066,"temp":28.6,"humidity":36,"rain":0.0,"pressure":983.3,"uv_index":6.1,"wind_gusts":51.5,"aqi":176,"pm10":164.4,"pm2_5":48.3,"mosquito_risk":4,"arthritis_risk":5,"migraine_risk":7,"frizz_risk":0,"updated_at":"2026-03-15T12:32:34.471793+05:30"},{"city":"Panipat","state":"Haryana","latitude":29.3909,"longitude":76.9635,"temp":24.9,"humidity":59,"rain":0.0,"pressure":982.9,"uv_index":5.85,"wind_gusts":36.0,"aqi":231,"pm10":99.7,"pm2_5":33.1,"mosquito_risk":0,"arthritis_risk":5,"migraine_risk":3,"frizz_risk":1,"updated_at":"2026-03-15T12:32:34.471799+05:30"},{"city":"Mathura","state":"Uttar Pradesh","latitude":27.4924,"longitude":77.6737,"temp":30.0,"humidity":35,"rain":0.0,"pressure":989.1,"uv_index":6.5,"wind_gusts":39.6,"aqi":322,"pm10":637.0,"pm2_5":78.9,"mosquito_risk":4,"arthritis_risk":5,"migraine_risk":7,"frizz_risk":0,"updated_at":"2026-03-15T12:32:34.471807+05:30"},{"city":"Vrindavan","state":"Uttar Pradesh","latitude":27.5823,"longitude":77.7027,"temp":29.6,"humidity":36,"rain":0.0,"pressure":989.4,"uv_index":6.45,"wind_gusts":38.5,"aqi":322,"pm10":637.0,"pm2_5":78.9,"mosquito_risk":4,"arthritis_risk":5,"migraine_risk":7,"frizz_risk":0,"updated_at":"2026-03-15T12:32:34.471813+05:30"},{"city":"Ayodhya","state":"Uttar Pradesh","latitude":26.7922,"longitude":82.1998,"temp":30.2,"humidity":38,"rain":0.0,"pressure":998.4,"uv_index":6.9,"wind_gusts":47.2,"aqi":133,"pm10":40.5,"pm2_5":18.2,"mosquito_risk":0,"arthritis_risk":5,"migraine_risk":7,"frizz_risk":0,"updated_at":"2026-03-15T12:32:34.471820+05:30"},{"city":"Ratlam","state":"Madhya Pradesh","latitude":23.3315,"longitude":75.0367,"temp":33.1,"humidity":30,"rain":0.0,"pressure":957.3,"uv_index":7.65,"wind_gusts":38.2,"aqi":62,"pm10":54.9,"pm2_5":19.8,"mosquito_risk":0,"arthritis_risk":5,"migraine_risk":7,"frizz_risk":0,"updated_at":"2026-03-15T12:32:34.471826+05:30"},{"city":"Sagar","state":"Madhya Pradesh","latitude":23.8388,"longitude":78.7378,"temp":34.0,"humidity":25,"rain":0.0,"pressure":951.7,"uv_index":7.65,"wind_gusts":39.6,"aqi":56,"pm10":37.4,"pm2_5":15.6,"mosquito_risk":0,"arthritis_risk":5,"migraine_risk":7,"frizz_risk":0,"updated_at":"2026-03-15T12:32:34.471833+05:30"},{"city":"Satna","state":"Madhya Pradesh","latitude":24.6005,"longitude":80.8322,"temp":36.9,"humidity":18,"rain":0.0,"pressure":971.8,"uv_index":7.6,"wind_gusts":50.0,"aqi":84,"pm10":62.6,"pm2_5":28.8,"mosquito_risk":0,"arthritis_risk":5,"migraine_risk":10,"frizz_risk":0,"updated_at":"2026-03-15T12:32:34.471839+05:30"},{"city":"Akola","state":"Maharashtra","latitude":20.7002,"longitude":77.0082,"temp":35.3,"humidity":22,"rain":0.0,"pressure":977.8,"uv_index":8.15,"wind_gusts":26.3,"aqi":78,"pm10":36.4,"pm2_5":21.3,"mosquito_risk":0,"arthritis_risk":5,"migraine_risk":10,"frizz_risk":0,"updated_at":"2026-03-15T12:32:34.471847+05:30"},{"city":"Amravati","state":"Maharashtra","latitude":20.9374,"longitude":77.7796,"temp":35.4,"humidity":21,"rain":0.0,"pressure":970.0,"uv_index":8.1,"wind_gusts":27.4,"aqi":87,"pm10":31.0,"pm2_5":18.5,"mosquito_risk":0,"arthritis_risk":5,"migraine_risk":10,"frizz_risk":0,"updated_at":"2026-03-15T12:32:34.471853+05:30"},{"city":"Latur","state":"Maharashtra","latitude":18.4088,"longitude":76.5604,"temp":34.2,"humidity":19,"rain":0.0,"pressure":943.1,"uv_index":8.55,"wind_gusts":26.3,"aqi":136,"pm10":46.6,"pm2_5":37.7,"mosquito_risk":0,"arthritis_risk":5,"migraine_risk":7,"frizz_risk":0,"updated_at":"2026-03-15T12:32:34.471861+05:30"},{"city":"Nanded","state":"Maharashtra","latitude":19.1383,"longitude":77.3091,"temp":36.1,"humidity":22,"rain":0.0,"pressure":971.7,"uv_index":8.35,"wind_gusts":18.4,"aqi":141,"pm10":36.7,"pm2_5":30.2,"mosquito_risk":0,"arthritis_risk":5,"migraine_risk":10,"frizz_risk":0,"updated_at":"2026-03-15T12:32:34.471867+05:30"},{"city":"Gulbarga","state":"Karnataka","latitude":17.3297,"longitude":76.8343,"temp":33.7,"humidity":36,"rain":0.0,"pressure":961.7,"uv_index":8.65,"wind_gusts":20.9,"aqi":103,"pm10":41.3,"pm2_5":33.1,"mosquito_risk":0,"arthritis_risk":5,"migraine_risk":7,"frizz_risk":1,"updated_at":"2026-03-15T12:32:34.471873+05:30"},{"city":"Bidar","state":"Karnataka","latitude":17.9104,"longitude":77.5199,"temp":33.2,"humidity":38,"rain":0.0,"pressure":938.7,"uv_index":6.6,"wind_gusts":27.7,"aqi":101,"pm10":36.9,"pm2_5":28.8,"mosquito_risk":0,"arthritis_risk":5,"migraine_risk":7,"frizz_risk":1,"updated_at":"2026-03-15T12:32:34.471879+05:30"},{"city":"Hospet","state":"Karnataka","latitude":15.2689,"longitude":76.3909,"temp":31.8,"humidity":48,"rain":0.0,"pressure":959.2,"uv_index":8.9,"wind_gusts":32.0,"aqi":115,"pm10":40.6,"pm2_5":33.4,"mosquito_risk":0,"arthritis_risk":5,"migraine_risk":7,"frizz_risk":1,"updated_at":"2026-03-15T12:32:34.471885+05:30"},{"city":"Tirupur","state":"Tamil Nadu","latitude":11.1085,"longitude":77.3411,"temp":33.4,"humidity":41,"rain":0.0,"pressure":978.6,"uv_index":9.3,"wind_gusts":27.7,"aqi":56,"pm10":12.7,"pm2_5":10.4,"mosquito_risk":0,"arthritis_risk":5,"migraine_risk":7,"frizz_risk":1,"updated_at":"2026-03-15T12:32:34.471891+05:30"},{"city":"Alappuzha","state":"Kerala","latitude":9.4981,"longitude":76.3388,"temp":28.1,"humidity":79,"rain":0.0,"pressure":1011.4,"uv_index":9.1,"wind_gusts":28.1,"aqi":68,"pm10":18.7,"pm2_5":17.8,"mosquito_risk":7,"arthritis_risk":0,"migraine_risk":4,"frizz_risk":1,"updated_at":"2026-03-15T12:32:34.471897+05:30"},{"city":"Munnar","state":"Kerala","latitude":10.0889,"longitude":77.0595,"temp":29.7,"humidity":38,"rain":0.0,"pressure":861.5,"uv_index":9.55,"wind_gusts":34.6,"aqi":56,"pm10":8.4,"pm2_5":6.7,"mosquito_risk":4,"arthritis_risk":5,"migraine_risk":7,"frizz_risk":0,"updated_at":"2026-03-15T12:32:34.471904+05:30"},{"city":"Silchar","state":"Assam","latitude":24.8333,"longitude":92.7789,"temp":24.6,"humidity":77,"rain":0.0,"pressure":1010.5,"uv_index":7.65,"wind_gusts":44.3,"aqi":111,"pm10":18.7,"pm2_5":15.6,"mosquito_risk":3,"arthritis_risk":0,"migraine_risk":4,"frizz_risk":1,"updated_at":"2026-03-15T12:32:34.471911+05:30"},{"city":"Dibrugarh","state":"Assam","latitude":27.4728,"longitude":94.912,"temp":20.8,"humidity":88,"rain":0.0,"pressure":998.9,"uv_index":4.5,"wind_gusts":36.0,"aqi":69,"pm10":23.1,"pm2_5":17.2,"mosquito_risk":3,"arthritis_risk":5,"migraine_risk":3,"frizz_risk":1,"updated_at":"2026-03-15T12:32:34.471918+05:30"}]