[{"city":"Delhi","state":"Delhi","latitude":28.6139,"longitude":77.209,"temp":30.1,"humidity":40,"rain":0.0,"pressure":983.6,"uv_index":5.3,"wind_gusts":24.5,"aqi":138,"pm10":227.2,"pm2_5":37.1,"mosquito_risk":0,"arthritis_risk":5,"migraine_risk":3,"frizz_risk":0,"updated_at":"2026-03-31T17:24:12.030221+05:30"},{"city":"Mumbai","state":"Maharashtra","latitude":19.076,"longitude":72.8777,"temp":27.8,"humidity":77,"rain":0.0,"pressure":1006.5,"uv_index":8.0,"wind_gusts":25.2,"aqi":64,"pm10":24.6,"pm2_5":14.0,"mosquito_risk":7,"arthritis_risk":5,"migraine_risk":4,"frizz_risk":1,"updated_at":"2026-03-31T17:24:12.030262+05:30"},{"city":"Bangalore","state":"Karnataka","latitude":12.9716,"longitude":77.5946,"temp":32.4,"humidity":25,"rain":0.0,"pressure":909.9,"uv_index":9.55,"wind_gusts":32.0,"aqi":132,"pm10":32.5,"pm2_5":25.0,"mosquito_risk":0,"arthritis_risk":5,"migraine_risk":7,"frizz_risk":0,"updated_at":"2026-03-31T17:24:12.030277+05:30"},{"city":"Hyderabad","state":"Telangana","latitude":17.385,"longitude":78.4867,"temp":30.9,"humidity":52,"rain":0.0,"pressure":952.5,"uv_index":9.05,"wind_gusts":37.4,"aqi":133,"pm10":45.2,"pm2_5":38.2,"mosquito_risk":0,"arthritis_risk":5,"migraine_risk":7,"frizz_risk":1,"updated_at":"2026-03-31T17:24:12.030286+05:30"},{"city":"Chennai","state":"Tamil Nadu","latitude":13.0827,"longitude":80.2707,"temp":30.0,"humidity":63,"rain":0.0,"pressure":1006.2,"uv_index":9.25,"wind_gusts":29.2,"aqi":49,"pm10":14.5,"pm2_5":10.7,"mosquito_risk":7,"arthritis_risk":5,"migraine_risk":4,"frizz_risk":1,"updated_at":"2026-03-31T17:24:12.030295+05:30"},{"city":"Kolkata","state":"West Bengal","latitude":22.5726,"longitude":88.3639,"temp":28.5,"humidity":78,"rain":0.0,"pressure":1005.7,"uv_index":7.35,"wind_gusts":27.0,"aqi":97,"pm10":33.1,"pm2_5":28.0,"mosquito_risk":7,"arthritis_risk":5,"migraine_risk":4,"frizz_risk":1,"updated_at":"2026-03-31T17:24:12.030303+05:30"},{"city":"Pune","state":"Maharashtra","latitude":18.5204,"longitude":73.8567,"temp":33.4,"humidity":42,"rain":0.0,"pressure":946.8,"uv_index":8.55,"wind_gusts":28.4,"aqi":115,"pm10":42.6,"pm2_5":31.8,"mosquito_risk":0,"arthritis_risk":5,"migraine_risk":7,"frizz_risk":1,"updated_at":"2026-03-31T17:24:12.030315+05:30"},{"city":"Ahmedabad","state":"Gujarat","latitude":23.0225,"longitude":72.5714,"temp":35.8,"humidity":33,"rain":0.0,"pressure":999.5,"uv_index":7.8,"wind_gusts":27.0,"aqi":61,"pm10":31.8,"pm2_5":12.4,"mosquito_risk":0,"arthritis_risk":5,"migraine_risk":10,"frizz_risk":1,"updated_at":"2026-03-31T17:24:12.030322+05:30"},{"city":"Jaipur","state":"Rajasthan","latitude":26.9124,"longitude":75.7873,"temp":24.4,"humidity":69,"rain":0.0,"pressure":960.9,"uv_index":7.45,"wind_gusts":42.8,"aqi":63,"pm10":67.1,"pm2_5":12.7,"mosquito_risk":3,"arthritis_risk":5,"migraine_risk":7,"frizz_risk":1,"updated_at":"2026-03-31T17:24:12.030330+05:30"},{"city":"Lucknow","state":"Uttar Pradesh","latitude":26.8467,"longitude":80.9462,"temp":34.4,"humidity":27,"rain":0.0,"pressure":992.6,"uv_index":7.3,"wind_gusts":27.0,"aqi":155,"pm10":135.5,"pm2_5":27.0,"mosquito_risk":0,"arthritis_risk":5,"migraine_risk":7,"frizz_risk":0,"updated_at":"2026-03-31T17:24:12.030338+05:30"},{"city":"Kanpur","state":"Uttar Pradesh","latitude":26.4499,"longitude":80.3319,"temp":32.2,"humidity":39,"rain":0.0,"pressure":991.5,"uv_index":7.3,"wind_gusts":23.8,"aqi":540,"pm10":273.8,"pm2_5":31.7,"mosquito_risk":0,"arthritis_risk":5,"migraine_risk":7,"frizz_risk":1,"updated_at":"2026-03-31T17:24:12.030344+05:30"},{"city":"Chandigarh","state":"Chandigarh","latitude":30.7333,"longitude":76.7794,"temp":27.8,"humidity":52,"rain":0.0,"pressure":969.3,"uv_index":6.05,"wind_gusts":23.4,"aqi":104,"pm10":69.6,"pm2_5":24.6,"mosquito_risk":4,"arthritis_risk":5,"migraine_risk":7,"frizz_risk":1,"updated_at":"2026-03-31T17:24:12.030352+05:30"},{"city":"Srinagar","state":"Jammu and Kashmir","latitude":34.0837,"longitude":74.7973,"temp":16.5,"humidity":57,"rain":0.0,"pressure":841.9,"uv_index":7.65,"wind_gusts":16.9,"aqi":71,"pm10":15.1,"pm2_5":7.2,"mosquito_risk":0,"arthritis_risk":5,"migraine_risk":7,"frizz_risk":0,"updated_at":"2026-03-31T17:24:12.030358+05:30"},{"city":"Jammu","state":"Jammu and Kashmir","latitude":32.7266,"longitude":74.857,"temp":30.5,"humidity":27,"rain":0.0,"pressure":972.7,"uv_index":6.85,"wind_gusts":38.2,"aqi":67,"pm10":62.6,"pm2_5":19.7,"mosquito_risk":0,"arthritis_risk":5,"migraine_risk":7,"frizz_risk":0,"updated_at":"2026-03-31T17:24:12.030365+05:30"},{"city":"Amritsar","state":"Punjab","latitude":31.634,"longitude":74.8723,"temp":28.1,"humidity":42,"rain":0.0,"pressure":981.4,"uv_index":6.05,"wind_gusts":27.4,"aqi":120,"pm10":88.2,"pm2_5":29.4,"mosquito_risk":4,"arthritis_risk":5,"migraine_risk":7,"frizz_risk":0,"updated_at":"2026-03-31T17:24:12.030372+05:30"},{"city":"Ludhiana","state":"Punjab","latitude":30.901,"longitude":75.8573,"temp":28.7,"humidity":42,"rain":0.0,"pressure":979.5,"uv_index":6.35,"wind_gusts":25.9,"aqi":255,"pm10":153.7,"pm2_5":34.2,"mosquito_risk":4,"arthritis_risk":5,"migraine_risk":7,"frizz_risk":0,"updated_at":"2026-03-31T17:24:12.030378+05:30"},{"city":"Jalandhar","state":"Punjab","latitude":31.326,"longitude":75.5762,"temp":28.8,"humidity":38,"rain":0.0,"pressure":980.3,"uv_index":6.25,"wind_gusts":22.0,"aqi":176,"pm10":125.3,"pm2_5":33.8,"mosquito_risk":4,"arthritis_risk":5,"migraine_risk":7,"frizz_risk":0,"updated_at":"2026-03-31T17:24:12.030386+05:30"},{"city":"Dehradun","state":"Uttarakhand","latitude":30.6284,"longitude":78.0322,"temp":19.2,"humidity":50,"rain":0.0,"pressure":831.0,"uv_index":6.5,"wind_gusts":34.9,"aqi":50,"pm10":22.6,"pm2_5":8.5,"mosquito_risk":0,"arthritis_risk":5,"migraine_risk":7,"frizz_risk":0,"updated_at":"2026-03-31T17:24:12.030392+05:30"},{"city":"Shimla","state":"Himachal Pradesh","latitude":31.1048,"longitude":77.1734,"temp":17.0,"humidity":53,"rain":0.0,"pressure":786.0,"uv_index":6.4,"wind_gusts":32.0,"aqi":57,"pm10":35.2,"pm2_5":14.6,"mosquito_risk":0,"arthritis_risk":5,"migraine_risk":7,"frizz_risk":0,"updated_at":"2026-03-31T17:24:12.030399+05:30"},{"city":"Manali","state":"Himachal Pradesh","latitude":32.2396,"longitude":77.1887,"temp":17.1,"humidity":69,"rain":0.0,"pressure":820.7,"uv_index":9.0,"wind_gusts":38.2,"aqi":75,"pm10":7.6,"pm2_5":3.1,"mosquito_risk":3,"arthritis_risk":5,"migraine_risk":7,"frizz_risk":0,"updated_at":"2026-03-31T17:24:12.030405+05:30"},{"city":"Gurgaon","state":"Haryana","latitude":28.4595,"longitude":77.0266,"temp":29.7,"humidity":42,"rain":0.0,"pressure":982.1,"uv_index":6.05,"wind_gusts":25.6,"aqi":180,"pm10":351.1,"pm2_5":46.1,"mosquito_risk":4,"arthritis_risk":5,"migraine_risk":7,"frizz_risk":0,"updated_at":"2026-03-31T17:24:12.030411+05:30"},{"city":"Noida","state":"Uttar Pradesh","latitude":28.5355,"longitude":77.391,"temp":30.4,"humidity":39,"rain":0.0,"pressure":985.0,"uv_index":5.5,"wind_gusts":26.3,"aqi":180,"pm10":351.1,"pm2_5":46.1,"mosquito_risk":0,"arthritis_risk":5,"migraine_risk":3,"frizz_risk":0,"updated_at":"2026-03-31T17:24:12.030417+05:30"},{"city":"Ghaziabad","state":"Uttar Pradesh","latitude":28.6692,"longitude":77.4538,"temp":29.6,"humidity":43,"rain":0.0,"pressure":983.2,"uv_index":5.6,"wind_gusts":22.7,"aqi":128,"pm10":234.2,"pm2_5":41.6,"mosquito_risk":4,"arthritis_risk":5,"migraine_risk":3,"frizz_risk":0,"updated_at":"2026-03-31T17:24:12.030422+05:30"},{"city":"Faridabad","state":"Haryana","latitude":28.4089,"longitude":77.3178,"temp":30.1,"humidity":39,"rain":0.0,"pressure":984.3,"uv_index":5.95,"wind_gusts":29.9,"aqi":180,"pm10":351.1,"pm2_5":46.1,"mosquito_risk":0,"arthritis_risk":5,"migraine_risk":3,"frizz_risk":0,"updated_at":"2026-03-31T17:24:12.030429+05:30"},{"city":"Meerut","state":"Uttar Pradesh","latitude":28.9845,"longitude":77.7064,"temp":29.9,"humidity":38,"rain":0.0,"pressure":981.7,"uv_index":5.7,"wind_gusts":22.3,"aqi":128,"pm10":234.2,"pm2_5":41.6,"mosquito_risk":4,"arthritis_risk":5,"migraine_risk":3,"frizz_risk":0,"updated_at":"2026-03-31T17:24:12.030435+05:30"},{"city":"Agra","state":"Uttar Pradesh","latitude":27.1767,"longitude":78.0081,"temp":30.5,"humidity":43,"rain":0.0,"pressure":988.3,"uv_index":7.15,"wind_gusts":34.2,"aqi":392,"pm10":457.3,"pm2_5":41.3,"mosquito_risk":0,"arthritis_risk":5,"migraine_risk":7,"frizz_risk":1,"updated_at":"2026-03-31T17:24:12.030442+05:30"},{"city":"Varanasi","state":"Uttar Pradesh","latitude":25.3176,"longitude":82.9739,"temp":35.1,"humidity":29,"rain":0.0,"pressure":996.4,"uv_index":7.45,"wind_gusts":22.7,"aqi":135,"pm10":119.2,"pm2_5":40.6,"mosquito_risk":0,"arthritis_risk":5,"migraine_risk":10,"frizz_risk":0,"updated_at":"2026-03-31T17:24:12.030454+05:30"},{"city":"Prayagraj","state":"Uttar Pradesh","latitude":25.4358,"longitude":81.8463,"temp":35.0,"humidity":28,"rain":0.0,"pressure":995.0,"uv_index":7.55,"wind_gusts":19.8,"aqi":151,"pm10":110.1,"pm2_5":34.5,"mosquito_risk":0,"arthritis_risk":5,"migraine_risk":7,"frizz_risk":0,"updated_at":"2026-03-31T17:24:12.030463+05:30"},{"city":"Gorakhpur","state":"Uttar Pradesh","latitude":26.7606,"longitude":83.3732,"temp":33.0,"humidity":38,"rain":0.0,"pressure":996.3,"uv_index":7.35,"wind_gusts":22.0,"aqi":159,"pm10":46.7,"pm2_5":23.5,"mosquito_risk":0,"arthritis_risk":5,"migraine_risk":7,"frizz_risk":1,"updated_at":"2026-03-31T17:24:12.030470+05:30"},{"city":"Bareilly","state":"Uttar Pradesh","latitude":28.367,"longitude":79.4304,"temp":31.3,"humidity":38,"rain":0.0,"pressure":986.5,"uv_index":6.4,"wind_gusts":32.0,"aqi":97,"pm10":61.7,"pm2_5":18.9,"mosquito_risk":0,"arthritis_risk":5,"migraine_risk":7,"frizz_risk":0,"updated_at":"2026-03-31T17:24:12.030477+05:30"},{"city":"Aligarh","state":"Uttar Pradesh","latitude":27.8974,"longitude":78.088,"temp":30.6,"humidity":44,"rain":0.0,"pressure":985.9,"uv_index":6.4,"wind_gusts":25.2,"aqi":418,"pm10":310.1,"pm2_5":39.0,"mosquito_risk":0,"arthritis_risk":5,"migraine_risk":7,"frizz_risk":1,"updated_at":"2026-03-31T17:24:12.030485+05:30"},{"city":"Moradabad","state":"Uttar Pradesh","latitude":28.8386,"longitude":78.7733,"temp":30.2,"humidity":38,"rain":0.0,"pressure":983.6,"uv_index":6.25,"wind_gusts":28.4,"aqi":106,"pm10":68.7,"pm2_5":21.0,"mosquito_risk":0,"arthritis_risk":5,"migraine_risk":7,"frizz_risk":0,"updated_at":"2026-03-31T17:24:12.030491+05:30"},{"city":"Saharanpur","state":"Uttar Pradesh","latitude":29.9637,"longitude":77.546,"temp":28.6,"humidity":40,"rain":0.0,"pressure":976.0,"uv_index":5.65,"wind_gusts":25.2,"aqi":152,"pm10":137.4,"pm2_5":35.6,"mosquito_risk":4,"arthritis_risk":5,"migraine_risk":3,"frizz_risk":0,"updated_at":"2026-03-31T17:24:12.030497+05:30"},{"city":"Jhansi","state":"Uttar Pradesh","latitude":25.4484,"longitude":78.5685,"temp":29.7,"humidity":46,"rain":0.0,"pressure":978.1,"uv_index":7.8,"wind_gusts":56.2,"aqi":48,"pm10":22.2,"pm2_5":10.4,"mosquito_risk":4,"arthritis_risk":5,"migraine_risk":7,"frizz_risk":1,"updated_at":"2026-03-31T17:24:15.286669+05:30"},{"city":"Surat","state":"Gujarat","latitude":21.1702,"longitude":72.8311,"temp":29.5,"humidity":67,"rain":0.0,"pressure":1005.0,"uv_index":7.8,"wind_gusts":28.4,"aqi":86,"pm10":38.8,"pm2_5":31.9,"mosquito_risk":7,"arthritis_risk":5,"migraine_risk":4,"frizz_risk":1,"updated_at":"2026-03-31T17:24:15.286696+05:30"},{"city":"Vadodara","state":"Gujarat","latitude":22.3072,"longitude":73.1812,"temp":36.1,"humidity":28,"rain":0.0,"pressure":1001.6,"uv_index":8.0,"wind_gusts":27.4,"aqi":76,"pm10":19.8,"pm2_5":11.3,"mosquito_risk":0,"arthritis_risk":5,"migraine_risk":7,"frizz_risk":0,"updated_at":"2026-03-31T17:24:15.286706+05:30"},{"city":"Rajkot","state":"Gujarat","latitude":22.3039,"longitude":70.8022,"temp":33.9,"humidity":35,"rain":0.0,"pressure":992.2,"uv_index":7.75,"wind_gusts":34.2,"aqi":61,"pm10":69.8,"pm2_5":25.3,"mosquito_risk":0,"arthritis_risk":5,"migraine_risk":7,"frizz_risk":1,"updated_at":"2026-03-31T17:24:15.286715+05:30"},{"city":"Thane","state":"Maharashtra","latitude":19.2183,"longitude":72.9781,"temp":29.1,"humidity":67,"rain":0.0,"pressure":1006.0,"uv_index":8.0,"wind_gusts":37.1,"aqi":64,"pm10":24.6,"pm2_5":14.0,"mosquito_risk":7,"arthritis_risk":5,"migraine_risk":4,"frizz_risk":1,"updated_at":"2026-03-31T17:24:15.286722+05:30"},{"city":"Nagpur","state":"Maharashtra","latitude":21.1458,"longitude":79.0882,"temp":34.5,"humidity":34,"rain":0.0,"pressure":971.7,"uv_index":8.55,"wind_gusts":20.2,"aqi":71,"pm10":28.9,"pm2_5":20.1,"mosquito_risk":0,"arthritis_risk":5,"migraine_risk":7,"frizz_risk":1,"updated_at":"2026-03-31T17:24:15.286728+05:30"},{"city":"Nashik","state":"Maharashtra","latitude":19.9975,"longitude":73.7898,"temp":32.2,"humidity":43,"rain":0.0,"pressure":943.9,"uv_index":8.25,"wind_gusts":31.0,"aqi":68,"pm10":20.7,"pm2_5":12.9,"mosquito_risk":0,"arthritis_risk":5,"migraine_risk":7,"frizz_risk":1,"updated_at":"2026-03-31T17:24:15.286735+05:30"},{"city":"Aurangabad","state":"Maharashtra","latitude":19.8762,"longitude":75.3433,"temp":33.1,"humidity":33,"rain":0.0,"pressure":942.8,"uv_index":8.75,"wind_gusts":27.7,"aqi":79,"pm10":30.3,"pm2_5":21.4,"mosquito_risk":0,"arthritis_risk":5,"migraine_risk":7,"frizz_risk":0,"updated_at":"2026-03-31T17:24:15.286742+05:30"},{"city":"Solapur","state":"Maharashtra","latitude":17.6599,"longitude":75.9064,"temp":34.3,"humidity":29,"rain":0.0,"pressure":955.3,"uv_index":8.9,"wind_gusts":24.8,"aqi":108,"pm10":39.8,"pm2_5":30.3,"mosquito_risk":0,"arthritis_risk":5,"migraine_risk":7,"frizz_risk":0,"updated_at":"2026-03-31T17:24:15.286748+05:30"},{"city":"Kolhapur","state":"Maharashtra","latitude":16.705,"longitude":74.2433,"temp":30.1,"humidity":58,"rain":0.0,"pressure":946.5,"uv_index":9.0,"wind_gusts":26.6,"aqi":97,"pm10":41.4,"pm2_5":33.3,"mosquito_risk":0,"arthritis_risk":5,"migraine_risk":7,"frizz_risk":1,"updated_at":"2026-03-31T17:24:15.286755+05:30"},{"city":"Goa","state":"Goa","latitude":15.2993,"longitude":74.124,"temp":30.8,"humidity":66,"rain":0.0,"pressure":995.2,"uv_index":9.0,"wind_gusts":34.2,"aqi":77,"pm10":38.1,"pm2_5":25.1,"mosquito_risk":3,"arthritis_risk":5,"migraine_risk":7,"frizz_risk":1,"updated_at":"2026-03-31T17:24:15.286761+05:30"},{"city":"Jodhpur","state":"Rajasthan","latitude":26.2389,"longitude":73.0243,"temp":33.8,"humidity":30,"rain":0.0,"pressure":981.1,"uv_index":7.7,"wind_gusts":38.5,"aqi":69,"pm10":129.0,"pm2_5":20.5,"mosquito_risk":0,"arthritis_risk":5,"migraine_risk":7,"frizz_risk":0,"updated_at":"2026-03-31T17:24:15.286768+05:30"},{"city":"Udaipur","state":"Rajasthan","latitude":24.5854,"longitude":73.7125,"temp":31.4,"humidity":31,"rain":0.0,"pressure":945.3,"uv_index":8.2,"wind_gusts":37.4,"aqi":45,"pm10":22.5,"pm2_5":9.5,"mosquito_risk":0,"arthritis_risk":5,"migraine_risk":7,"frizz_risk":0,"updated_at":"2026-03-31T17:24:15.286774+05:30"},{"city":"Kota","state":"Rajasthan","latitude":25.2138,"longitude":75.8648,"temp":28.5,"humidity":53,"rain":0.0,"pressure":978.6,"uv_index":7.8,"wind_gusts":40.0,"aqi":49,"pm10":15.7,"pm2_5":9.1,"mosquito_risk":4,"arthritis_risk":5,"migraine_risk":7,"frizz_risk":1,"updated_at":"2026-03-31T17:24:15.286782+05:30"},{"city":"Bikaner","state":"Rajasthan","latitude":28.0229,"longitude":73.3119,"temp":33.9,"humidity":19,"rain":0.0,"pressure":980.5,"uv_index":6.55,"wind_gusts":38.5,"aqi":60,"pm10":56.0,"pm2_5":16.9,"mosquito_risk":0,"arthritis_risk":5,"migraine_risk":7,"frizz_risk":0,"updated_at":"2026-03-31T17:24:15.286789+05:30"},{"city":"Ajmer","state":"Rajasthan","latitude":26.4499,"longitude":74.6399,"temp":29.9,"humidity":43,"rain":0.0,"pressure":954.1,"uv_index":7.65,"wind_gusts":38.5,"aqi":43,"pm10":28.1,"pm2_5":12.3,"mosquito_risk":4,"arthritis_risk":5,"migraine_risk":7,"frizz_risk":0,"updated_at":"2026-03-31T17:24:15.286796+05:30"},{"city":"Gwalior","state":"Madhya Pradesh","latitude":26.2183,"longitude":78.1828,"temp":25.3,"humidity":71,"rain":0.0,"pressure":983.8,"uv_index":7.35,"wind_gusts":38.9,"aqi":41,"pm10":13.0,"pm2_5":5.4,"mosquito_risk":7,"arthritis_risk":5,"migraine_risk":7,"frizz_risk":1,"updated_at":"2026-03-31T17:24:15.286803+05:30"},{"city":"Indore","state":"Madhya Pradesh","latitude":22.7196,"longitude":75.8577,"temp":34.2,"humidity":25,"rain":0.0,"pressure":946.2,"uv_index":8.3,"wind_gusts":25.6,"aqi":83,"pm10":22.9,"pm2_5":16.6,"mosquito_risk":0,"arthritis_risk":5,"migraine_risk":7,"frizz_risk":0,"updated_at":"2026-03-31T17:24:15.286809+05:30"},{"city":"Bhopal","state":"Madhya Pradesh","latitude":23.2599,"longitude":77.4126,"temp":35.1,"humidity":22,"rain":0.0,"pressure":951.8,"uv_index":8.25,"wind_gusts":26.6,"aqi":69,"pm10":19.4,"pm2_5":13.0,"mosquito_risk":0,"arthritis_risk":5,"migraine_risk":10,"frizz_risk":0,"updated_at":"2026-03-31T17:24:15.286815+05:30"},{"city":"Jabalpur","state":"Madhya Pradesh","latitude":23.1815,"longitude":79.9864,"temp":33.7,"humidity":32,"rain":0.0,"pressure":960.4,"uv_index":8.35,"wind_gusts":37.4,"aqi":63,"pm10":55.4,"pm2_5":15.2,"mosquito_risk":0,"arthritis_risk":5,"migraine_risk":7,"frizz_risk":0,"updated_at":"2026-03-31T17:24:15.286822+05:30"},{"city":"Ujjain","state":"Madhya Pradesh","latitude":23.1765,"longitude":75.7885,"temp":34.3,"humidity":27,"rain":0.0,"pressure":951.9,"uv_index":8.2,"wind_gusts":25.6,"aqi":70,"pm10":25.1,"pm2_5":17.6,"mosquito_risk":0,"arthritis_risk":5,"migraine_risk":7,"frizz_risk":0,"updated_at":"2026-03-31T17:24:15.286829+05:30"},{"city":"Visakhapatnam","state":"Andhra Pradesh","latitude":17.6868,"longitude":83.2185,"temp":30.0,"humidity":63,"rain":0.0,"pressure":1003.3,"uv_index":9.0,"wind_gusts":35.6,"aqi":64,"pm10":24.4,"pm2_5":20.1,"mosquito_risk":7,"arthritis_risk":5,"migraine_risk":4,"frizz_risk":1,"updated_at":"2026-03-31T17:24:15.286836+05:30"},{"city":"Vijayawada","state":"Andhra Pradesh","latitude":16.5062,"longitude":80.648,"temp":33.7,"humidity":47,"rain":0.0,"pressure":1000.9,"uv_index":9.05,"wind_gusts":22.7,"aqi":58,"pm10":24.0,"pm2_5":19.1,"mosquito_risk":0,"arthritis_risk":5,"migraine_risk":4,"frizz_risk":1,"updated_at":"2026-03-31T17:24:15.286842+05:30"},{"city":"Guntur","state":"Andhra Pradesh","latitude":16.3067,"longitude":80.4365,"temp":33.4,"humidity":50,"rain":0.0,"pressure":1002.1,"uv_index":9.1,"wind_gusts":28.8,"aqi":59,"pm10":23.6,"pm2_5":18.5,"mosquito_risk":0,"arthritis_risk":5,"migraine_risk":4,"frizz_risk":1,"updated_at":"2026-03-31T17:24:15.286848+05:30"},{"city":"Nellore","state":"Andhra Pradesh","latitude":14.4426,"longitude":79.9865,"temp":30.6,"humidity":60,"rain":0.0,"pressure":1004.8,"uv_index":9.2,"wind_gusts":28.1,"aqi":54,"pm10":17.2,"pm2_5":13.2,"mosquito_risk":0,"arthritis_risk":5,"migraine_risk":4,"frizz_risk":1,"updated_at":"2026-03-31T17:24:15.286855+05:30"},{"city":"Kurnool","state":"Andhra Pradesh","latitude":15.8281,"longitude":78.0373,"temp":35.2,"humidity":38,"rain":0.0,"pressure":974.6,"uv_index":9.1,"wind_gusts":33.1,"aqi":96,"pm10":34.8,"pm2_5":27.5,"mosquito_risk":0,"arthritis_risk":5,"migraine_risk":10,"frizz_risk":1,"updated_at":"2026-03-31T17:24:15.286895+05:30"},{"city":"Kakinada","state":"Andhra Pradesh","latitude":16.9891,"longitude":82.2475,"temp":31.1,"humidity":61,"rain":0.0,"pressure":1006.5,"uv_index":9.05,"wind_gusts":33.8,"aqi":49,"pm10":18.1,"pm2_5":13.0,"mosquito_risk":3,"arthritis_risk":5,"migraine_risk":4,"frizz_risk":1,"updated_at":"2026-03-31T17:24:15.286903+05:30"},{"city":"Tirupati","state":"Andhra Pradesh","latitude":13.6288,"longitude":79.4192,"temp":33.9,"humidity":37,"rain":0.0,"pressure":989.5,"uv_index":9.3,"wind_gusts":37.1,"aqi":77,"pm10":25.0,"pm2_5":19.6,"mosquito_risk":0,"arthritis_risk":5,"migraine_risk":7,"frizz_risk":1,"updated_at":"2026-03-31T17:24:15.286911+05:30"},{"city":"Warangal","state":"Telangana","latitude":17.9689,"longitude":79.5941,"temp":32.0,"humidity":55,"rain":0.0,"pressure":977.7,"uv_index":8.9,"wind_gusts":26.3,"aqi":135,"pm10":57.4,"pm2_5":46.3,"mosquito_risk":0,"arthritis_risk":5,"migraine_risk":7,"frizz_risk":1,"updated_at":"2026-03-31T17:24:15.286917+05:30"},{"city":"Nizamabad","state":"Telangana","latitude":18.6725,"longitude":78.0941,"temp":33.7,"humidity":38,"rain":0.0,"pressure":963.4,"uv_index":8.8,"wind_gusts":33.5,"aqi":101,"pm10":49.9,"pm2_5":39.8,"mosquito_risk":0,"arthritis_risk":5,"migraine_risk":7,"frizz_risk":1,"updated_at":"2026-03-31T17:24:15.286924+05:30"},{"city":"Mysore","state":"Karnataka","latitude":12.2958,"longitude":76.6396,"temp":31.5,"humidity":36,"rain":0.0,"pressure":926.1,"uv_index":9.5,"wind_gusts":28.4,"aqi":140,"pm10":29.5,"pm2_5":22.9,"mosquito_risk":0,"arthritis_risk":5,"migraine_risk":7,"frizz_risk":0,"updated_at":"2026-03-31T17:24:15.286931+05:30"},{"city":"Mangalore","state":"Karnataka","latitude":12.9141,"longitude":74.856,"temp":29.7,"humidity":79,"rain":0.0,"pressure":1003.8,"uv_index":8.85,"wind_gusts":27.0,"aqi":93,"pm10":23.6,"pm2_5":17.8,"mosquito_risk":7,"arthritis_risk":5,"migraine_risk":4,"frizz_risk":1,"updated_at":"2026-03-31T17:24:15.286938+05:30"},{"city":"Hubli-Dharwad","state":"Karnataka","latitude":15.3647,"longitude":75.124,"temp":27.4,"humidity":62,"rain":0.0,"pressure":939.2,"uv_index":9.1,"wind_gusts":28.1,"aqi":109,"pm10":41.7,"pm2_5":34.9,"mosquito_risk":7,"arthritis_risk":5,"migraine_risk":7,"frizz_risk":1,"updated_at":"2026-03-31T17:24:15.286945+05:30"},{"city":"Belgaum","state":"Karnataka","latitude":15.8497,"longitude":74.4977,"temp":27.9,"humidity":63,"rain":0.0,"pressure":924.3,"uv_index":9.1,"wind_gusts":36.0,"aqi":115,"pm10":44.6,"pm2_5":35.3,"mosquito_risk":7,"arthritis_risk":5,"migraine_risk":7,"frizz_risk":1,"updated_at":"2026-03-31T17:24:18.546852+05:30"},{"city":"Coimbatore","state":"Tamil Nadu","latitude":11.0168,"longitude":76.9558,"temp":34.4,"humidity":26,"rain":0.0,"pressure":959.0,"uv_index":9.45,"wind_gusts":38.9,"aqi":106,"pm10":16.6,"pm2_5":11.8,"mosquito_risk":0,"arthritis_risk":5,"migraine_risk":7,"frizz_risk":0,"updated_at":"2026-03-31T17:24:18.546923+05:30"},{"city":"Madurai","state":"Tamil Nadu","latitude":9.9252,"longitude":78.1198,"temp":35.9,"humidity":32,"rain":0.0,"pressure":989.9,"uv_index":9.25,"wind_gusts":32.4,"aqi":75,"pm10":18.1,"pm2_5":10.8,"mosquito_risk":0,"arthritis_risk":5,"migraine_risk":10,"frizz_risk":1,"updated_at":"2026-03-31T17:24:18.546936+05:30"},{"city":"Trichy","state":"Tamil Nadu","latitude":10.7905,"longitude":78.7047,"temp":34.7,"humidity":38,"rain":0.0,"pressure":997.1,"uv_index":9.35,"wind_gusts":25.9,"aqi":57,"pm10":18.3,"pm2_5":13.3,"mosquito_risk":0,"arthritis_risk":5,"migraine_risk":7,"frizz_risk":1,"updated_at":"2026-03-31T17:24:18.546945+05:30"},{"city":"Salem","state":"Tamil Nadu","latitude":11.6643,"longitude":78.146,"temp":35.5,"humidity":26,"rain":0.0,"pressure":974.6,"uv_index":9.45,"wind_gusts":36.0,"aqi":93,"pm10":27.3,"pm2_5":18.3,"mosquito_risk":0,"arthritis_risk":5,"migraine_risk":10,"frizz_risk":0,"updated_at":"2026-03-31T17:24:18.546958+05:30"},{"city":"Tirunelveli","state":"Tamil Nadu","latitude":8.7139,"longitude":77.7567,"temp":32.4,"humidity":55,"rain":0.0,"pressure":1000.5,"uv_index":8.75,"wind_gusts":46.4,"aqi":99,"pm10":20.8,"pm2_5":16.7,"mosquito_risk":0,"arthritis_risk":5,"migraine_risk":4,"frizz_risk":1,"updated_at":"2026-03-31T17:24:18.546967+05:30"},{"city":"Vellore","state":"Tamil Nadu","latitude":12.9165,"longitude":79.1325,"temp":33.2,"humidity":38,"rain":0.0,"pressure":982.6,"uv_index":9.35,"wind_gusts":33.5,"aqi":96,"pm10":22.1,"pm2_5":16.6,"mosquito_risk":0,"arthritis_risk":5,"migraine_risk":7,"frizz_risk":1,"updated_at":"2026-03-31T17:24:18.546975+05:30"},{"city":"Erode","state":"Tamil Nadu","latitude":11.341,"longitude":77.7172,"temp":37.1,"humidity":28,"rain":0.0,"pressure":985.3,"uv_index":9.4,"wind_gusts":27.0,"aqi":60,"pm10":19.1,"pm2_5":12.6,"mosquito_risk":0,"arthritis_risk":5,"migraine_risk":10,"frizz_risk":0,"updated_at":"2026-03-31T17:24:18.546983+05:30"},{"city":"Kochi","state":"Kerala","latitude":9.9312,"longitude":76.2673,"temp":30.1,"humidity":76,"rain":0.0,"pressure":1005.6,"uv_index":9.2,"wind_gusts":28.4,"aqi":150,"pm10":44.7,"pm2_5":39.7,"mosquito_risk":3,"arthritis_risk":5,"migraine_risk":4,"frizz_risk":1,"updated_at":"2026-03-31T17:24:18.546992+05:30"},{"city":"Thiruvananthapuram","state":"Kerala","latitude":8.5241,"longitude":76.9366,"temp":29.8,"humidity":74,"rain":0.0,"pressure":1005.3,"uv_index":9.05,"wind_gusts":26.6,"aqi":116,"pm10":26.4,"pm2_5":22.2,"mosquito_risk":7,"arthritis_risk":5,"migraine_risk":4,"frizz_risk":1,"updated_at":"2026-03-31T17:24:18.547001+05:30"},{"city":"Kozhikode","state":"Kerala","latitude":11.2588,"longitude":75.7804,"temp":30.6,"humidity":77,"rain":0.0,"pressure":1004.6,"uv_index":8.65,"wind_gusts":28.8,"aqi":138,"pm10":31.0,"pm2_5":25.6,"mosquito_risk":3,"arthritis_risk":5,"migraine_risk":4,"frizz_risk":1,"updated_at":"2026-03-31T17:24:18.547010+05:30"},{"city":"Thrissur","state":"Kerala","latitude":10.5276,"longitude":76.2144,"temp":31.5,"humidity":69,"rain":0.0,"pressure":1003.7,"uv_index":8.85,"wind_gusts":36.7,"aqi":130,"pm10":35.2,"pm2_5":29.6,"mosquito_risk":3,"arthritis_risk":5,"migraine_risk":4,"frizz_risk":1,"updated_at":"2026-03-31T17:24:18.547019+05:30"},{"city":"Kannur","state":"Kerala","latitude":11.8745,"longitude":75.3704,"temp":30.9,"humidity":71,"rain":0.0,"pressure":1004.5,"uv_index":9.05,"wind_gusts":28.8,"aqi":127,"pm10":31.3,"pm2_5":24.2,"mosquito_risk":3,"arthritis_risk":5,"migraine_risk":4,"frizz_risk":1,"updated_at":"2026-03-31T17:24:18.547027+05:30"},{"city":"Patna","state":"Bihar","latitude":25.5941,"longitude":85.1376,"temp":30.9,"humidity":58,"rain":0.0,"pressure":1000.2,"uv_index":7.95,"wind_gusts":23.0,"aqi":165,"pm10":81.0,"pm2_5":40.2,"mosquito_risk":0,"arthritis_risk":5,"migraine_risk":4,"frizz_risk":1,"updated_at":"2026-03-31T17:24:18.547034+05:30"},{"city":"Gaya","state":"Bihar","latitude":24.7914,"longitude":85.0002,"temp":32.1,"humidity":45,"rain":0.0,"pressure":993.2,"uv_index":8.05,"wind_gusts":18.0,"aqi":140,"pm10":60.8,"pm2_5":26.0,"mosquito_risk":0,"arthritis_risk":5,"migraine_risk":7,"frizz_risk":1,"updated_at":"2026-03-31T17:24:18.547042+05:30"},{"city":"Muzaffarpur","state":"Bihar","latitude":26.1209,"longitude":85.3647,"temp":29.6,"humidity":63,"rain":0.0,"pressure":1000.5,"uv_index":7.8,"wind_gusts":26.6,"aqi":170,"pm10":87.3,"pm2_5":48.5,"mosquito_risk":7,"arthritis_risk":5,"migraine_risk":4,"frizz_risk":1,"updated_at":"2026-03-31T17:24:18.547050+05:30"},{"city":"Bhagalpur","state":"Bihar","latitude":25.2425,"longitude":87.0117,"temp":29.7,"humidity":67,"rain":0.0,"pressure":1001.0,"uv_index":8.1,"wind_gusts":21.6,"aqi":164,"pm10":92.9,"pm2_5":68.2,"mosquito_risk":7,"arthritis_risk":5,"migraine_risk":4,"frizz_risk":1,"updated_at":"2026-03-31T17:24:18.547057+05:30"},{"city":"Ranchi","state":"Jharkhand","latitude":23.3441,"longitude":85.3096,"temp":25.0,"humidity":68,"rain":0.0,"pressure":938.2,"uv_index":8.45,"wind_gusts":23.8,"aqi":97,"pm10":27.0,"pm2_5":9.7,"mosquito_risk":7,"arthritis_risk":5,"migraine_risk":7,"frizz_risk":1,"updated_at":"2026-03-31T17:24:18.547065+05:30"},{"city":"Jamshedpur","state":"Jharkhand","latitude":22.8046,"longitude":86.2029,"temp":31.8,"humidity":50,"rain":0.0,"pressure":990.8,"uv_index":8.65,"wind_gusts":27.0,"aqi":152,"pm10":54.0,"pm2_5":35.2,"mosquito_risk":0,"arthritis_risk":5,"migraine_risk":7,"frizz_risk":1,"updated_at":"2026-03-31T17:24:18.547077+05:30"},{"city":"Dhanbad","state":"Jharkhand","latitude":23.7957,"longitude":86.4304,"temp":27.9,"humidity":65,"rain":0.0,"pressure":980.0,"uv_index":8.55,"wind_gusts":27.0,"aqi":164,"pm10":55.2,"pm2_5":31.8,"mosquito_risk":7,"arthritis_risk":5,"migraine_risk":7,"frizz_risk":1,"updated_at":"2026-03-31T17:24:18.547085+05:30"},{"city":"Bokaro","state":"Jharkhand","latitude":23.6693,"longitude":86.1511,"temp":28.7,"humidity":69,"rain":0.0,"pressure":983.9,"uv_index":8.55,"wind_gusts":25.2,"aqi":161,"pm10":45.5,"pm2_5":23.8,"mosquito_risk":7,"arthritis_risk":5,"migraine_risk":7,"frizz_risk":1,"updated_at":"2026-03-31T17:24:18.547092+05:30"},{"city":"Bhubaneswar","state":"Odisha","latitude":20.2961,"longitude":85.8245,"temp":31.2,"humidity":65,"rain":0.0,"pressure":1001.7,"uv_index":8.85,"wind_gusts":26.6,"aqi":137,"pm10":53.6,"pm2_5":44.4,"mosquito_risk":3,"arthritis_risk":5,"migraine_risk":4,"frizz_risk":1,"updated_at":"2026-03-31T17:24:18.547100+05:30"},{"city":"Cuttack","state":"Odisha","latitude":20.4625,"longitude":85.8828,"temp":31.6,"humidity":62,"rain":0.0,"pressure":1003.5,"uv_index":8.85,"wind_gusts":30.6,"aqi":137,"pm10":53.6,"pm2_5":44.4,"mosquito_risk":3,"arthritis_risk":5,"migraine_risk":4,"frizz_risk":1,"updated_at":"2026-03-31T17:24:18.547108+05:30"},{"city":"Rourkela","state":"Odisha","latitude":22.2604,"longitude":84.8536,"temp":33.8,"humidity":40,"rain":0.0,"pressure":984.0,"uv_index":8.35,"wind_gusts":16.9,"aqi":111,"pm10":38.5,"pm2_5":19.5,"mosquito_risk":0,"arthritis_risk":5,"migraine_risk":7,"frizz_risk":1,"updated_at":"2026-03-31T17:24:18.547116+05:30"},{"city":"Raipur","state":"Chhattisgarh","latitude":21.2514,"longitude":81.6296,"temp":34.8,"humidity":29,"rain":0.0,"pressure":973.6,"uv_index":7.9,"wind_gusts":33.1,"aqi":116,"pm10":124.3,"pm2_5":37.8,"mosquito_risk":0,"arthritis_risk":5,"migraine_risk":7,"frizz_risk":0,"updated_at":"2026-03-31T17:24:18.547124+05:30"},{"city":"Bhilai","state":"Chhattisgarh","latitude":21.1938,"longitude":81.3509,"temp":34.8,"humidity":28,"rain":0.0,"pressure":973.8,"uv_index":8.45,"wind_gusts":29.2,"aqi":92,"pm10":94.3,"pm2_5":33.3,"mosquito_risk":0,"arthritis_risk":5,"migraine_risk":7,"frizz_risk":0,"updated_at":"2026-03-31T17:24:18.547132+05:30"},{"city":"Guwahati","state":"Assam","latitude":26.1158,"longitude":91.7086,"temp":26.8,"humidity":76,"rain":0.0,"pressure":1001.8,"uv_index":8.0,"wind_gusts":19.8,"aqi":125,"pm10":45.2,"pm2_5":32.0,"mosquito_risk":7,"arthritis_risk":5,"migraine_risk":4,"frizz_risk":1,"updated_at":"2026-03-31T17:24:18.547139+05:30"},{"city":"Agartala","state":"Tripura","latitude":23.8315,"longitude":91.2868,"temp":25.5,"humidity":89,"rain":0.0,"pressure":1006.9,"uv_index":8.3,"wind_gusts":20.9,"aqi":100,"pm10":32.7,"pm2_5":28.8,"mosquito_risk":7,"arthritis_risk":5,"migraine_risk":4,"frizz_risk":1,"updated_at":"2026-03-31T17:24:18.547148+05:30"},{"city":"Shillong","state":"Meghalaya","latitude":25.5788,"longitude":91.8933,"temp":16.4,"humidity":81,"rain":0.0,"pressure":856.5,"uv_index":8.35,"wind_gusts":39.6,"aqi":100,"pm10":27.6,"pm2_5":19.2,"mosquito_risk":3,"arthritis_risk":10,"migraine_risk":7,"frizz_risk":0,"updated_at":"2026-03-31T17:24:18.547155+05:30"},{"city":"Imphal","state":"Manipur","latitude":24.817,"longitude":93.9368,"temp":19.2,"humidity":88,"rain":0.0,"pressure":924.1,"uv_index":8.6,"wind_gusts":59.4,"aqi":70,"pm10":20.1,"pm2_5":16.4,"mosquito_risk":3,"arthritis_risk":10,"migraine_risk":7,"frizz_risk":1,"updated_at":"2026-03-31T17:24:18.547164+05:30"},{"city":"Aizawl","state":"Mizoram","latitude":23.7271,"longitude":92.7176,"temp":20.1,"humidity":88,"rain":0.0,"pressure":893.5,"uv_index":8.55,"wind_gusts":40.7,"aqi":123,"pm10":41.0,"pm2_5":33.6,"mosquito_risk":3,"arthritis_risk":5,"migraine_risk":7,"frizz_risk":1,"updated_at":"2026-03-31T17:24:18.547171+05:30"},{"city":"Kohima","state":"Nagaland","latitude":25.6701,"longitude":94.1077,"temp":16.9,"humidity":89,"rain":0.0,"pressure":855.2,"uv_index":8.45,"wind_gusts":78.1,"aqi":73,"pm10":17.9,"pm2_5":11.8,"mosquito_risk":3,"arthritis_risk":10,"migraine_risk":7,"frizz_risk":0,"updated_at":"2026-03-31T17:24:18.547177+05:30"},{"city":"Gangtok","state":"Sikkim","latitude":27.3314,"longitude":88.6138,"temp":17.0,"humidity":85,"rain":0.0,"pressure":837.5,"uv_index":8.25,"wind_gusts":19.4,"aqi":132,"pm10":18.1,"pm2_5":14.1,"mosquito_risk":3,"arthritis_risk":10,"migraine_risk":7,"frizz_risk":0,"updated_at":"2026-03-31T17:24:18.547183+05:30"},{"city":"Siliguri","state":"West Bengal","latitude":26.7271,"longitude":88.3953,"temp":23.1,"humidity":74,"rain":0.0,"pressure":994.4,"uv_index":6.8,"wind_gusts":20.5,"aqi":162,"pm10":73.1,"pm2_5":54.2,"mosquito_risk":3,"arthritis_risk":5,"migraine_risk":7,"frizz_risk":1,"updated_at":"2026-03-31T17:24:21.803739+05:30"},{"city":"Durgapur","state":"West Bengal","latitude":23.5204,"longitude":87.3119,"temp":29.0,"humidity":70,"rain":0.0,"pressure":995.3,"uv_index":8.5,"wind_gusts":20.9,"aqi":159,"pm10":82.9,"pm2_5":64.5,"mosquito_risk":7,"arthritis_risk":5,"migraine_risk":7,"frizz_risk":1,"updated_at":"2026-03-31T17:24:21.803768+05:30"},{"city":"Asansol","state":"West Bengal","latitude":23.6739,"longitude":86.9524,"temp":28.9,"humidity":67,"rain":0.0,"pressure":993.7,"uv_index":8.5,"wind_gusts":16.2,"aqi":157,"pm10":67.3,"pm2_5":44.6,"mosquito_risk":7,"arthritis_risk":5,"migraine_risk":7,"frizz_risk":1,"updated_at":"2026-03-31T17:24:21.803780+05:30"},{"city":"Pondicherry","state":"Puducherry","latitude":11.9139,"longitude":79.8145,"temp":30.6,"humidity":59,"rain":0.0,"pressure":1006.8,"uv_index":9.25,"wind_gusts":27.4,"aqi":43,"pm10":13.7,"pm2_5":9.8,"mosquito_risk":0,"arthritis_risk":5,"migraine_risk":4,"frizz_risk":1,"updated_at":"2026-03-31T17:24:21.803789+05:30"},{"city":"Port Blair","state":"Andaman and Nicobar Islands","latitude":11.6234,"longitude":92.7265,"temp":28.2,"humidity":81,"rain":0.0,"pressure":1007.1,"uv_index":9.15,"wind_gusts":12.2,"aqi":41,"pm10":6.2,"pm2_5":4.8,"mosquito_risk":7,"arthritis_risk":5,"migraine_risk":4,"frizz_risk":1,"updated_at":"2026-03-31T17:24:21.803798+05:30"},{"city":"Haridwar","state":"Uttarakhand","latitude":29.9457,"longitude":78.1642,"temp":29.5,"humidity":35,"rain":0.0,"pressure":974.5,"uv_index":6.05,"wind_gusts":25.2,"aqi":92,"pm10":83.4,"pm2_5":26.7,"mosquito_risk":4,"arthritis_risk":5,"migraine_risk":7,"frizz_risk":0,"updated_at":"2026-03-31T17:24:21.803807+05:30"},{"city":"Rishikesh","state":"Uttarakhand","latitude":30.0869,"longitude":78.2676,"temp":28.5,"humidity":36,"rain":0.0,"pressure":967.4,"uv_index":6.05,"wind_gusts":25.2,"aqi":65,"pm10":49.5,"pm2_5":17.3,"mosquito_risk":4,"arthritis_risk":5,"migraine_risk":7,"frizz_risk":0,"updated_at":"2026-03-31T17:24:21.803815+05:30"},{"city":"Nainital","state":"Uttarakhand","latitude":29.3919,"longitude":79.4542,"temp":22.9,"humidity":28,"rain":0.0,"pressure":808.1,"uv_index":7.3,"wind_gusts":44.3,"aqi":73,"pm10":38.5,"pm2_5":13.7,"mosquito_risk":0,"arthritis_risk":5,"migraine_risk":7,"frizz_risk":0,"updated_at":"2026-03-31T17:24:21.803824+05:30"},{"city":"Mussoorie","state":"Uttarakhand","latitude":30.4599,"longitude":78.0664,"temp":19.9,"humidity":44,"rain":0.0,"pressure":804.0,"uv_index":6.4,"wind_gusts":32.0,"aqi":65,"pm10":47.3,"pm2_5":17.0,"mosquito_risk":0,"arthritis_risk":5,"migraine_risk":7,"frizz_risk":0,"updated_at":"2026-03-31T17:24:21.803832+05:30"},{"city":"Dharamshala","state":"Himachal Pradesh","latitude":32.219,"longitude":76.3234,"temp":22.7,"humidity":47,"rain":0.0,"pressure":869.8,"uv_index":6.75,"wind_gusts":22.7,"aqi":47,"pm10":26.6,"pm2_5":8.0,"mosquito_risk":0,"arthritis_risk":5,"migraine_risk":7,"frizz_risk":0,"updated_at":"2026-03-31T17:24:21.803840+05:30"},{"city":"Dalhousie","state":"Himachal Pradesh","latitude":32.5387,"longitude":75.971,"temp":19.8,"humidity":43,"rain":0.0,"pressure":804.7,"uv_index":7.4,"wind_gusts":27.4,"aqi":66,"pm10":48.8,"pm2_5":14.3,"mosquito_risk":0,"arthritis_risk":5,"migraine_risk":7,"frizz_risk":0,"updated_at":"2026-03-31T17:24:21.803848+05:30"},{"city":"Patiala","state":"Punjab","latitude":30.3398,"longitude":76.3869,"temp":28.7,"humidity":40,"rain":0.0,"pressure":978.8,"uv_index":5.3,"wind_gusts":19.8,"aqi":353,"pm10":711.5,"pm2_5":75.7,"mosquito_risk":4,"arthritis_risk":5,"migraine_risk":3,"frizz_risk":0,"updated_at":"2026-03-31T17:24:21.803887+05:30"},{"city":"Bhatinda","state":"Punjab","latitude":30.211,"longitude":74.9455,"temp":28.1,"humidity":46,"rain":0.0,"pressure":984.7,"uv_index":6.65,"wind_gusts":31.7,"aqi":117,"pm10":113.9,"pm2_5":28.2,"mosquito_risk":4,"arthritis_risk":5,"migraine_risk":7,"frizz_risk":0,"updated_at":"2026-03-31T17:24:21.803898+05:30"},{"city":"Rohtak","state":"Haryana","latitude":28.8955,"longitude":76.6066,"temp":29.2,"humidity":45,"rain":0.0,"pressure":982.6,"uv_index":6.35,"wind_gusts":25.9,"aqi":121,"pm10":229.1,"pm2_5":32.1,"mosquito_risk":4,"arthritis_risk":5,"migraine_risk":7,"frizz_risk":1,"updated_at":"2026-03-31T17:24:21.803906+05:30"},{"city":"Panipat","state":"Haryana","latitude":29.3909,"longitude":76.9635,"temp":29.5,"humidity":39,"rain":0.0,"pressure":980.9,"uv_index":5.25,"wind_gusts":17.3,"aqi":139,"pm10":447.0,"pm2_5":51.3,"mosquito_risk":4,"arthritis_risk":5,"migraine_risk":3,"frizz_risk":0,"updated_at":"2026-03-31T17:24:21.803914+05:30"},{"city":"Mathura","state":"Uttar Pradesh","latitude":27.4924,"longitude":77.6737,"temp":30.8,"humidity":42,"rain":0.0,"pressure":987.2,"uv_index":6.9,"wind_gusts":24.1,"aqi":142,"pm10":230.5,"pm2_5":27.4,"mosquito_risk":0,"arthritis_risk":5,"migraine_risk":7,"frizz_risk":1,"updated_at":"2026-03-31T17:24:21.803922+05:30"},{"city":"Vrindavan","state":"Uttar Pradesh","latitude":27.5823,"longitude":77.7027,"temp":30.8,"humidity":41,"rain":0.0,"pressure":987.5,"uv_index":6.7,"wind_gusts":24.8,"aqi":142,"pm10":230.5,"pm2_5":27.4,"mosquito_risk":0,"arthritis_risk":5,"migraine_risk":7,"frizz_risk":0,"updated_at":"2026-03-31T17:24:21.803930+05:30"},{"city":"Ayodhya","state":"Uttar Pradesh","latitude":26.7922,"longitude":82.1998,"temp":34.3,"humidity":28,"rain":0.0,"pressure":994.6,"uv_index":7.15,"wind_gusts":25.2,"aqi":128,"pm10":41.2,"pm2_5":19.2,"mosquito_risk":0,"arthritis_risk":5,"migraine_risk":7,"frizz_risk":0,"updated_at":"2026-03-31T17:24:21.803938+05:30"},{"city":"Ratlam","state":"Madhya Pradesh","latitude":23.3315,"longitude":75.0367,"temp":34.6,"humidity":29,"rain":0.0,"pressure":952.6,"uv_index":8.15,"wind_gusts":29.5,"aqi":61,"pm10":21.4,"pm2_5":14.3,"mosquito_risk":0,"arthritis_risk":5,"migraine_risk":7,"frizz_risk":0,"updated_at":"2026-03-31T17:24:21.803945+05:30"},{"city":"Sagar","state":"Madhya Pradesh","latitude":23.8388,"longitude":78.7378,"temp":34.3,"humidity":27,"rain":0.0,"pressure":948.7,"uv_index":8.2,"wind_gusts":32.0,"aqi":49,"pm10":17.1,"pm2_5":7.1,"mosquito_risk":0,"arthritis_risk":5,"migraine_risk":7,"frizz_risk":0,"updated_at":"2026-03-31T17:24:21.803953+05:30"},{"city":"Satna","state":"Madhya Pradesh","latitude":24.6005,"longitude":80.8322,"temp":34.1,"humidity":31,"rain":0.0,"pressure":970.9,"uv_index":7.95,"wind_gusts":22.7,"aqi":132,"pm10":87.5,"pm2_5":20.6,"mosquito_risk":0,"arthritis_risk":5,"migraine_risk":7,"frizz_risk":0,"updated_at":"2026-03-31T17:24:21.803961+05:30"},{"city":"Akola","state":"Maharashtra","latitude":20.7002,"longitude":77.0082,"temp":36.9,"humidity":23,"rain":0.0,"pressure":972.8,"uv_index":8.55,"wind_gusts":18.0,"aqi":87,"pm10":17.5,"pm2_5":13.2,"mosquito_risk":0,"arthritis_risk":5,"migraine_risk":10,"frizz_risk":0,"updated_at":"2026-03-31T17:24:21.803969+05:30"},{"city":"Amravati","state":"Maharashtra","latitude":20.9374,"longitude":77.7796,"temp":36.2,"humidity":26,"rain":0.0,"pressure":965.3,"uv_index":8.55,"wind_gusts":17.3,"aqi":85,"pm10":14.8,"pm2_5":11.4,"mosquito_risk":0,"arthritis_risk":5,"migraine_risk":10,"frizz_risk":0,"updated_at":"2026-03-31T17:24:21.803978+05:30"},{"city":"Latur","state":"Maharashtra","latitude":18.4088,"longitude":76.5604,"temp":33.5,"humidity":30,"rain":0.0,"pressure":938.4,"uv_index":8.85,"wind_gusts":29.2,"aqi":99,"pm10":38.6,"pm2_5":28.3,"mosquito_risk":0,"arthritis_risk":5,"migraine_risk":7,"frizz_risk":0,"updated_at":"2026-03-31T17:24:21.803987+05:30"},{"city":"Nanded","state":"Maharashtra","latitude":19.1383,"longitude":77.3091,"temp":35.5,"humidity":31,"rain":0.0,"pressure":966.7,"uv_index":8.7,"wind_gusts":23.0,"aqi":86,"pm10":35.6,"pm2_5":26.1,"mosquito_risk":0,"arthritis_risk":5,"migraine_risk":10,"frizz_risk":0,"updated_at":"2026-03-31T17:24:21.803995+05:30"},{"city":"Gulbarga","state":"Karnataka","latitude":17.3297,"longitude":76.8343,"temp":34.3,"humidity":34,"rain":0.0,"pressure":956.9,"uv_index":8.95,"wind_gusts":28.1,"aqi":119,"pm10":45.5,"pm2_5":37.1,"mosquito_risk":0,"arthritis_risk":5,"migraine_risk":7,"frizz_risk":1,"updated_at":"2026-03-31T17:24:21.804003+05:30"},{"city":"Bidar","state":"Karnataka","latitude":17.9104,"longitude":77.5199,"temp":32.2,"humidity":40,"rain":0.0,"pressure":934.5,"uv_index":8.95,"wind_gusts":34.6,"aqi":111,"pm10":55.5,"pm2_5":43.5,"mosquito_risk":0,"arthritis_risk":5,"migraine_risk":7,"frizz_risk":1,"updated_at":"2026-03-31T17:24:21.804010+05:30"},{"city":"Hospet","state":"Karnataka","latitude":15.2689,"longitude":76.3909,"temp":32.9,"humidity":42,"rain":0.0,"pressure":953.8,"uv_index":9.15,"wind_gusts":40.3,"aqi":155,"pm10":46.2,"pm2_5":41.0,"mosquito_risk":0,"arthritis_risk":5,"migraine_risk":7,"frizz_risk":1,"updated_at":"2026-03-31T17:24:21.804018+05:30"},{"city":"Tirupur","state":"Tamil Nadu","latitude":11.1085,"longitude":77.3411,"temp":35.7,"humidity":28,"rain":0.0,"pressure":972.1,"uv_index":9.5,"wind_gusts":30.6,"aqi":86,"pm10":17.9,"pm2_5":12.5,"mosquito_risk":0,"arthritis_risk":5,"migraine_risk":10,"frizz_risk":0,"updated_at":"2026-03-31T17:24:21.804025+05:30"},{"city":"Alappuzha","state":"Kerala","latitude":9.4981,"longitude":76.3388,"temp":29.9,"humidity":77,"rain":0.0,"pressure":1005.6,"uv_index":9.2,"wind_gusts":24.8,"aqi":185,"pm10":42.6,"pm2_5":38.4,"mosquito_risk":7,"arthritis_risk":5,"migraine_risk":4,"frizz_risk":1,"updated_at":"2026-03-31T17:24:21.804033+05:30"},{"city":"Munnar","state":"Kerala","latitude":10.0889,"longitude":77.0595,"temp":21.9,"humidity":80,"rain":1.2,"pressure":855.5,"uv_index":9.7,"wind_gusts":29.9,"aqi":78,"pm10":19.3,"pm2_5":13.4,"mosquito_risk":6,"arthritis_risk":5,"migraine_risk":7,"frizz_risk":1,"updated_at":"2026-03-31T17:24:21.804041+05:30"},{"city":"Silchar","state":"Assam","latitude":24.8333,"longitude":92.7789,"temp":24.3,"humidity":87,"rain":0.0,"pressure":1006.4,"uv_index":8.35,"wind_gusts":25.6,"aqi":83,"pm10":20.7,"pm2_5":17.4,"mosquito_risk":3,"arthritis_risk":5,"migraine_risk":4,"frizz_risk":1,"updated_at":"2026-03-31T17:24:21.804049+05:30"},{"city":"Dibrugarh","state":"Assam","latitude":27.4728,"longitude":94.912,"temp":27.0,"humidity":66,"rain":0.0,"pressure":995.6,"uv_index":8.15,"wind_gusts":16.2,"aqi":96,"pm10":18.2,"pm2_5":14.1,"mosquito_risk":7,"arthritis_risk":5,"migraine_risk":7,"frizz_risk":1,"updated_at":"2026-03-31T17:24:21.804057+05:30"}]