[{"city":"Delhi","state":"Delhi","latitude":28.6139,"longitude":77.209,"temp":30.2,"humidity":82,"rain":0.0,"pressure":973.3,"uv_index":7.65,"wind_gusts":29.5,"aqi":637,"pm10":447.0,"pm2_5":139.2,"no2":50.0,"co":728.0,"o3":34.0,"so2":22.3,"mosquito_risk":3,"arthritis_risk":5,"migraine_risk":7,"frizz_risk":1,"updated_at":"2026-07-12T21:35:07.148216+05:30"},{"city":"Mumbai","state":"Maharashtra","latitude":19.076,"longitude":72.8777,"temp":28.1,"humidity":85,"rain":0.0,"pressure":1006.3,"uv_index":6.6,"wind_gusts":56.5,"aqi":52,"pm10":33.2,"pm2_5":14.0,"no2":6.0,"co":160.0,"o3":44.0,"so2":5.2,"mosquito_risk":7,"arthritis_risk":5,"migraine_risk":4,"frizz_risk":1,"updated_at":"2026-07-12T21:35:07.148290+05:30"},{"city":"Bangalore","state":"Karnataka","latitude":12.9716,"longitude":77.5946,"temp":24.5,"humidity":72,"rain":0.0,"pressure":911.6,"uv_index":8.8,"wind_gusts":48.2,"aqi":49,"pm10":17.8,"pm2_5":11.1,"no2":11.2,"co":229.0,"o3":48.0,"so2":4.6,"mosquito_risk":3,"arthritis_risk":5,"migraine_risk":7,"frizz_risk":1,"updated_at":"2026-07-12T21:35:07.148309+05:30"},{"city":"Hyderabad","state":"Telangana","latitude":17.385,"longitude":78.4867,"temp":29.7,"humidity":52,"rain":0.0,"pressure":949.8,"uv_index":8.95,"wind_gusts":50.0,"aqi":58,"pm10":30.6,"pm2_5":19.2,"no2":10.7,"co":293.0,"o3":56.0,"so2":5.0,"mosquito_risk":4,"arthritis_risk":5,"migraine_risk":7,"frizz_risk":1,"updated_at":"2026-07-12T21:35:07.148319+05:30"},{"city":"Chennai","state":"Tamil Nadu","latitude":13.0827,"longitude":80.2707,"temp":30.8,"humidity":77,"rain":0.0,"pressure":1003.8,"uv_index":8.85,"wind_gusts":34.2,"aqi":85,"pm10":33.1,"pm2_5":21.1,"no2":6.3,"co":166.0,"o3":107.0,"so2":7.4,"mosquito_risk":3,"arthritis_risk":5,"migraine_risk":4,"frizz_risk":1,"updated_at":"2026-07-12T21:35:07.148327+05:30"},{"city":"Kolkata","state":"West Bengal","latitude":22.5726,"longitude":88.3639,"temp":28.7,"humidity":89,"rain":0.0,"pressure":998.4,"uv_index":8.5,"wind_gusts":25.2,"aqi":146,"pm10":76.4,"pm2_5":63.6,"no2":15.4,"co":465.0,"o3":76.0,"so2":13.0,"mosquito_risk":7,"arthritis_risk":5,"migraine_risk":7,"frizz_risk":1,"updated_at":"2026-07-12T21:35:07.148336+05:30"},{"city":"Pune","state":"Maharashtra","latitude":18.5204,"longitude":73.8567,"temp":23.7,"humidity":87,"rain":0.0,"pressure":945.9,"uv_index":8.25,"wind_gusts":58.0,"aqi":34,"pm10":20.4,"pm2_5":9.7,"no2":7.1,"co":133.0,"o3":36.0,"so2":5.4,"mosquito_risk":3,"arthritis_risk":5,"migraine_risk":7,"frizz_risk":1,"updated_at":"2026-07-12T21:35:07.148345+05:30"},{"city":"Ahmedabad","state":"Gujarat","latitude":23.0225,"longitude":72.5714,"temp":31.3,"humidity":61,"rain":0.0,"pressure":995.4,"uv_index":8.1,"wind_gusts":51.8,"aqi":66,"pm10":40.3,"pm2_5":19.9,"no2":5.1,"co":125.0,"o3":52.0,"so2":4.0,"mosquito_risk":3,"arthritis_risk":5,"migraine_risk":7,"frizz_risk":1,"updated_at":"2026-07-12T21:35:07.148352+05:30"},{"city":"Jaipur","state":"Rajasthan","latitude":26.9124,"longitude":75.7873,"temp":30.1,"humidity":59,"rain":0.0,"pressure":951.6,"uv_index":8.15,"wind_gusts":37.8,"aqi":383,"pm10":298.0,"pm2_5":69.6,"no2":13.1,"co":228.0,"o3":60.0,"so2":6.0,"mosquito_risk":0,"arthritis_risk":5,"migraine_risk":7,"frizz_risk":1,"updated_at":"2026-07-12T21:35:07.148359+05:30"},{"city":"Lucknow","state":"Uttar Pradesh","latitude":26.8467,"longitude":80.9462,"temp":30.7,"humidity":68,"rain":0.0,"pressure":984.3,"uv_index":8.2,"wind_gusts":36.7,"aqi":131,"pm10":89.9,"pm2_5":43.5,"no2":13.5,"co":228.0,"o3":64.0,"so2":7.7,"mosquito_risk":3,"arthritis_risk":5,"migraine_risk":7,"frizz_risk":1,"updated_at":"2026-07-12T21:35:07.148370+05:30"},{"city":"Kanpur","state":"Uttar Pradesh","latitude":26.4499,"longitude":80.3319,"temp":30.9,"humidity":63,"rain":0.0,"pressure":982.8,"uv_index":7.75,"wind_gusts":40.0,"aqi":112,"pm10":97.3,"pm2_5":39.3,"no2":10.7,"co":172.0,"o3":75.0,"so2":7.5,"mosquito_risk":3,"arthritis_risk":5,"migraine_risk":7,"frizz_risk":1,"updated_at":"2026-07-12T21:35:07.148378+05:30"},{"city":"Chandigarh","state":"Chandigarh","latitude":30.7333,"longitude":76.7794,"temp":28.5,"humidity":84,"rain":0.0,"pressure":959.3,"uv_index":7.7,"wind_gusts":52.9,"aqi":159,"pm10":180.7,"pm2_5":92.0,"no2":33.3,"co":708.0,"o3":92.0,"so2":20.1,"mosquito_risk":7,"arthritis_risk":5,"migraine_risk":7,"frizz_risk":1,"updated_at":"2026-07-12T21:35:07.148385+05:30"},{"city":"Srinagar","state":"Jammu and Kashmir","latitude":34.0837,"longitude":74.7973,"temp":17.4,"humidity":95,"rain":0.0,"pressure":837.1,"uv_index":8.65,"wind_gusts":28.8,"aqi":66,"pm10":29.3,"pm2_5":27.1,"no2":30.3,"co":489.0,"o3":45.0,"so2":3.8,"mosquito_risk":3,"arthritis_risk":10,"migraine_risk":7,"frizz_risk":1,"updated_at":"2026-07-12T21:35:07.148393+05:30"},{"city":"Jammu","state":"Jammu and Kashmir","latitude":32.7266,"longitude":74.857,"temp":26.8,"humidity":86,"rain":0.0,"pressure":963.3,"uv_index":8.6,"wind_gusts":30.6,"aqi":133,"pm10":124.3,"pm2_5":74.7,"no2":41.5,"co":715.0,"o3":82.0,"so2":8.7,"mosquito_risk":7,"arthritis_risk":5,"migraine_risk":7,"frizz_risk":1,"updated_at":"2026-07-12T21:35:07.148399+05:30"},{"city":"Amritsar","state":"Punjab","latitude":31.634,"longitude":74.8723,"temp":27.8,"humidity":84,"rain":0.0,"pressure":971.2,"uv_index":8.45,"wind_gusts":37.1,"aqi":159,"pm10":170.9,"pm2_5":96.4,"no2":37.5,"co":996.0,"o3":42.0,"so2":7.8,"mosquito_risk":7,"arthritis_risk":5,"migraine_risk":7,"frizz_risk":1,"updated_at":"2026-07-12T21:35:07.148406+05:30"},{"city":"Ludhiana","state":"Punjab","latitude":30.901,"longitude":75.8573,"temp":29.6,"humidity":81,"rain":0.0,"pressure":968.8,"uv_index":7.9,"wind_gusts":41.0,"aqi":170,"pm10":153.2,"pm2_5":86.1,"no2":34.4,"co":512.0,"o3":57.0,"so2":9.4,"mosquito_risk":7,"arthritis_risk":5,"migraine_risk":7,"frizz_risk":1,"updated_at":"2026-07-12T21:35:07.148412+05:30"},{"city":"Jalandhar","state":"Punjab","latitude":31.326,"longitude":75.5762,"temp":28.2,"humidity":83,"rain":0.0,"pressure":970.1,"uv_index":8.15,"wind_gusts":47.9,"aqi":161,"pm10":133.6,"pm2_5":85.9,"no2":36.6,"co":790.0,"o3":52.0,"so2":7.4,"mosquito_risk":7,"arthritis_risk":5,"migraine_risk":7,"frizz_risk":1,"updated_at":"2026-07-12T21:35:07.148419+05:30"},{"city":"Dehradun","state":"Uttarakhand","latitude":30.6284,"longitude":78.0322,"temp":19.7,"humidity":97,"rain":0.0,"pressure":824.7,"uv_index":7.5,"wind_gusts":31.7,"aqi":95,"pm10":102.4,"pm2_5":50.1,"no2":16.1,"co":283.0,"o3":99.0,"so2":5.9,"mosquito_risk":3,"arthritis_risk":10,"migraine_risk":7,"frizz_risk":1,"updated_at":"2026-07-12T21:35:07.148428+05:30"},{"city":"Shimla","state":"Himachal Pradesh","latitude":31.1048,"longitude":77.1734,"temp":16.8,"humidity":86,"rain":0.0,"pressure":779.2,"uv_index":8.25,"wind_gusts":47.9,"aqi":99,"pm10":89.6,"pm2_5":45.5,"no2":14.0,"co":336.0,"o3":104.0,"so2":8.4,"mosquito_risk":3,"arthritis_risk":10,"migraine_risk":7,"frizz_risk":0,"updated_at":"2026-07-12T21:35:07.148436+05:30"},{"city":"Manali","state":"Himachal Pradesh","latitude":32.2396,"longitude":77.1887,"temp":20.5,"humidity":80,"rain":0.0,"pressure":814.7,"uv_index":8.6,"wind_gusts":35.3,"aqi":120,"pm10":16.9,"pm2_5":14.7,"no2":27.0,"co":270.0,"o3":112.0,"so2":0.3,"mosquito_risk":3,"arthritis_risk":5,"migraine_risk":7,"frizz_risk":1,"updated_at":"2026-07-12T21:35:07.148445+05:30"},{"city":"Gurgaon","state":"Haryana","latitude":28.4595,"longitude":77.0266,"temp":29.5,"humidity":84,"rain":0.0,"pressure":971.7,"uv_index":7.7,"wind_gusts":32.4,"aqi":759,"pm10":1087.8,"pm2_5":220.7,"no2":31.6,"co":354.0,"o3":47.0,"so2":12.0,"mosquito_risk":7,"arthritis_risk":5,"migraine_risk":7,"frizz_risk":1,"updated_at":"2026-07-12T21:35:07.148451+05:30"},{"city":"Noida","state":"Uttar Pradesh","latitude":28.5355,"longitude":77.391,"temp":30.0,"humidity":82,"rain":0.0,"pressure":974.8,"uv_index":7.7,"wind_gusts":28.1,"aqi":759,"pm10":1087.8,"pm2_5":220.7,"no2":31.6,"co":365.0,"o3":47.0,"so2":12.0,"mosquito_risk":7,"arthritis_risk":5,"migraine_risk":7,"frizz_risk":1,"updated_at":"2026-07-12T21:35:07.148458+05:30"},{"city":"Ghaziabad","state":"Uttar Pradesh","latitude":28.6692,"longitude":77.4538,"temp":30.1,"humidity":82,"rain":0.0,"pressure":973.1,"uv_index":7.7,"wind_gusts":29.5,"aqi":528,"pm10":488.0,"pm2_5":153.2,"no2":40.3,"co":726.0,"o3":46.0,"so2":21.4,"mosquito_risk":3,"arthritis_risk":5,"migraine_risk":7,"frizz_risk":1,"updated_at":"2026-07-12T21:35:07.148466+05:30"},{"city":"Faridabad","state":"Haryana","latitude":28.4089,"longitude":77.3178,"temp":30.1,"humidity":82,"rain":0.0,"pressure":974.1,"uv_index":7.75,"wind_gusts":31.3,"aqi":759,"pm10":1087.8,"pm2_5":220.7,"no2":31.6,"co":315.0,"o3":47.0,"so2":12.0,"mosquito_risk":3,"arthritis_risk":5,"migraine_risk":7,"frizz_risk":1,"updated_at":"2026-07-12T21:35:07.148473+05:30"},{"city":"Meerut","state":"Uttar Pradesh","latitude":28.9845,"longitude":77.7064,"temp":29.6,"humidity":80,"rain":0.0,"pressure":971.8,"uv_index":7.55,"wind_gusts":36.4,"aqi":528,"pm10":488.0,"pm2_5":153.2,"no2":40.3,"co":419.0,"o3":46.0,"so2":21.4,"mosquito_risk":7,"arthritis_risk":5,"migraine_risk":7,"frizz_risk":1,"updated_at":"2026-07-12T21:35:07.148479+05:30"},{"city":"Agra","state":"Uttar Pradesh","latitude":27.1767,"longitude":78.0081,"temp":30.6,"humidity":65,"rain":0.0,"pressure":978.3,"uv_index":8.0,"wind_gusts":38.2,"aqi":137,"pm10":166.2,"pm2_5":48.2,"no2":15.4,"co":223.0,"o3":58.0,"so2":6.4,"mosquito_risk":3,"arthritis_risk":5,"migraine_risk":7,"frizz_risk":1,"updated_at":"2026-07-12T21:35:07.148486+05:30"},{"city":"Varanasi","state":"Uttar Pradesh","latitude":25.3176,"longitude":82.9739,"temp":30.8,"humidity":72,"rain":0.0,"pressure":989.0,"uv_index":8.25,"wind_gusts":37.1,"aqi":95,"pm10":52.2,"pm2_5":36.0,"no2":15.5,"co":336.0,"o3":63.0,"so2":10.0,"mosquito_risk":3,"arthritis_risk":5,"migraine_risk":7,"frizz_risk":1,"updated_at":"2026-07-12T21:35:07.148493+05:30"},{"city":"Prayagraj","state":"Uttar Pradesh","latitude":25.4358,"longitude":81.8463,"temp":31.2,"humidity":63,"rain":0.0,"pressure":987.9,"uv_index":8.45,"wind_gusts":42.8,"aqi":95,"pm10":46.7,"pm2_5":29.7,"no2":8.9,"co":179.0,"o3":79.0,"so2":7.5,"mosquito_risk":3,"arthritis_risk":5,"migraine_risk":7,"frizz_risk":1,"updated_at":"2026-07-12T21:35:07.148501+05:30"},{"city":"Gorakhpur","state":"Uttar Pradesh","latitude":26.7606,"longitude":83.3732,"temp":26.9,"humidity":94,"rain":0.3,"pressure":988.7,"uv_index":7.65,"wind_gusts":38.5,"aqi":132,"pm10":73.3,"pm2_5":50.6,"no2":19.7,"co":309.0,"o3":66.0,"so2":6.8,"mosquito_risk":10,"arthritis_risk":5,"migraine_risk":7,"frizz_risk":1,"updated_at":"2026-07-12T21:35:07.148508+05:30"},{"city":"Bareilly","state":"Uttar Pradesh","latitude":28.367,"longitude":79.4304,"temp":29.7,"humidity":81,"rain":0.0,"pressure":976.9,"uv_index":8.0,"wind_gusts":31.7,"aqi":171,"pm10":338.1,"pm2_5":126.7,"no2":17.5,"co":251.0,"o3":64.0,"so2":8.0,"mosquito_risk":7,"arthritis_risk":5,"migraine_risk":7,"frizz_risk":1,"updated_at":"2026-07-12T21:35:07.148516+05:30"},{"city":"Aligarh","state":"Uttar Pradesh","latitude":27.8974,"longitude":78.088,"temp":31.0,"humidity":68,"rain":0.0,"pressure":975.9,"uv_index":7.85,"wind_gusts":36.0,"aqi":580,"pm10":521.5,"pm2_5":117.3,"no2":13.1,"co":194.0,"o3":67.0,"so2":5.5,"mosquito_risk":3,"arthritis_risk":5,"migraine_risk":7,"frizz_risk":1,"updated_at":"2026-07-12T21:35:07.148523+05:30"},{"city":"Moradabad","state":"Uttar Pradesh","latitude":28.8386,"longitude":78.7733,"temp":30.1,"humidity":82,"rain":0.0,"pressure":973.9,"uv_index":7.8,"wind_gusts":36.4,"aqi":216,"pm10":625.8,"pm2_5":194.2,"no2":33.2,"co":411.0,"o3":61.0,"so2":15.6,"mosquito_risk":3,"arthritis_risk":5,"migraine_risk":7,"frizz_risk":1,"updated_at":"2026-07-12T21:35:07.148530+05:30"},{"city":"Saharanpur","state":"Uttar Pradesh","latitude":29.9637,"longitude":77.546,"temp":29.3,"humidity":87,"rain":0.0,"pressure":966.3,"uv_index":7.35,"wind_gusts":33.1,"aqi":175,"pm10":245.9,"pm2_5":139.7,"no2":56.5,"co":377.0,"o3":42.0,"so2":21.0,"mosquito_risk":7,"arthritis_risk":5,"migraine_risk":7,"frizz_risk":1,"updated_at":"2026-07-12T21:35:07.148537+05:30"},{"city":"Jhansi","state":"Uttar Pradesh","latitude":25.4484,"longitude":78.5685,"temp":29.5,"humidity":66,"rain":0.0,"pressure":970.3,"uv_index":8.35,"wind_gusts":44.6,"aqi":83,"pm10":50.9,"pm2_5":28.6,"no2":7.0,"co":150.0,"o3":71.0,"so2":6.2,"mosquito_risk":7,"arthritis_risk":5,"migraine_risk":7,"frizz_risk":1,"updated_at":"2026-07-12T21:35:10.567298+05:30"},{"city":"Surat","state":"Gujarat","latitude":21.1702,"longitude":72.8311,"temp":28.7,"humidity":82,"rain":0.0,"pressure":1002.3,"uv_index":5.85,"wind_gusts":68.4,"aqi":58,"pm10":30.0,"pm2_5":15.8,"no2":12.3,"co":182.0,"o3":37.0,"so2":20.7,"mosquito_risk":7,"arthritis_risk":5,"migraine_risk":0,"frizz_risk":1,"updated_at":"2026-07-12T21:35:10.567334+05:30"},{"city":"Vadodara","state":"Gujarat","latitude":22.3072,"longitude":73.1812,"temp":28.8,"humidity":81,"rain":0.0,"pressure":998.6,"uv_index":8.05,"wind_gusts":62.3,"aqi":58,"pm10":34.1,"pm2_5":18.9,"no2":9.0,"co":114.0,"o3":40.0,"so2":9.0,"mosquito_risk":7,"arthritis_risk":5,"migraine_risk":7,"frizz_risk":1,"updated_at":"2026-07-12T21:35:10.567347+05:30"},{"city":"Rajkot","state":"Gujarat","latitude":22.3039,"longitude":70.8022,"temp":28.6,"humidity":74,"rain":0.0,"pressure":987.9,"uv_index":7.7,"wind_gusts":61.6,"aqi":58,"pm10":33.6,"pm2_5":16.1,"no2":3.0,"co":100.0,"o3":46.0,"so2":2.6,"mosquito_risk":7,"arthritis_risk":5,"migraine_risk":7,"frizz_risk":1,"updated_at":"2026-07-12T21:35:10.567358+05:30"},{"city":"Thane","state":"Maharashtra","latitude":19.2183,"longitude":72.9781,"temp":27.4,"humidity":89,"rain":0.0,"pressure":1005.5,"uv_index":6.05,"wind_gusts":52.6,"aqi":52,"pm10":33.2,"pm2_5":14.0,"no2":6.0,"co":194.0,"o3":44.0,"so2":5.2,"mosquito_risk":7,"arthritis_risk":5,"migraine_risk":4,"frizz_risk":1,"updated_at":"2026-07-12T21:35:10.567369+05:30"},{"city":"Nagpur","state":"Maharashtra","latitude":21.1458,"longitude":79.0882,"temp":28.9,"humidity":72,"rain":0.0,"pressure":968.3,"uv_index":7.6,"wind_gusts":42.1,"aqi":73,"pm10":44.9,"pm2_5":25.5,"no2":11.8,"co":195.0,"o3":59.0,"so2":11.4,"mosquito_risk":7,"arthritis_risk":5,"migraine_risk":7,"frizz_risk":1,"updated_at":"2026-07-12T21:35:10.567379+05:30"},{"city":"Nashik","state":"Maharashtra","latitude":19.9975,"longitude":73.7898,"temp":23.7,"humidity":90,"rain":0.0,"pressure":942.3,"uv_index":8.05,"wind_gusts":65.5,"aqi":36,"pm10":21.1,"pm2_5":10.8,"no2":7.8,"co":122.0,"o3":39.0,"so2":5.8,"mosquito_risk":3,"arthritis_risk":5,"migraine_risk":7,"frizz_risk":1,"updated_at":"2026-07-12T21:35:10.567389+05:30"},{"city":"Aurangabad","state":"Maharashtra","latitude":19.8762,"longitude":75.3433,"temp":25.7,"humidity":74,"rain":0.0,"pressure":941.0,"uv_index":8.9,"wind_gusts":55.4,"aqi":53,"pm10":29.5,"pm2_5":14.3,"no2":6.0,"co":138.0,"o3":56.0,"so2":7.9,"mosquito_risk":7,"arthritis_risk":5,"migraine_risk":7,"frizz_risk":1,"updated_at":"2026-07-12T21:35:10.567399+05:30"},{"city":"Solapur","state":"Maharashtra","latitude":17.6599,"longitude":75.9064,"temp":27.5,"humidity":61,"rain":0.0,"pressure":955.4,"uv_index":8.85,"wind_gusts":50.0,"aqi":49,"pm10":21.4,"pm2_5":10.7,"no2":4.1,"co":135.0,"o3":46.0,"so2":2.2,"mosquito_risk":7,"arthritis_risk":5,"migraine_risk":7,"frizz_risk":1,"updated_at":"2026-07-12T21:35:10.567409+05:30"},{"city":"Kolhapur","state":"Maharashtra","latitude":16.705,"longitude":74.2433,"temp":23.2,"humidity":93,"rain":0.0,"pressure":947.0,"uv_index":8.3,"wind_gusts":54.4,"aqi":33,"pm10":16.5,"pm2_5":9.4,"no2":5.5,"co":141.0,"o3":37.0,"so2":2.6,"mosquito_risk":3,"arthritis_risk":5,"migraine_risk":7,"frizz_risk":1,"updated_at":"2026-07-12T21:35:10.567418+05:30"},{"city":"Goa","state":"Goa","latitude":15.2993,"longitude":74.124,"temp":26.4,"humidity":93,"rain":0.0,"pressure":998.1,"uv_index":7.4,"wind_gusts":37.4,"aqi":54,"pm10":26.4,"pm2_5":14.2,"no2":3.7,"co":285.0,"o3":40.0,"so2":1.5,"mosquito_risk":7,"arthritis_risk":5,"migraine_risk":7,"frizz_risk":1,"updated_at":"2026-07-12T21:35:10.567428+05:30"},{"city":"Jodhpur","state":"Rajasthan","latitude":26.2389,"longitude":73.0243,"temp":33.7,"humidity":49,"rain":0.0,"pressure":973.1,"uv_index":8.4,"wind_gusts":51.8,"aqi":171,"pm10":217.9,"pm2_5":51.9,"no2":3.7,"co":128.0,"o3":67.0,"so2":2.5,"mosquito_risk":0,"arthritis_risk":5,"migraine_risk":7,"frizz_risk":1,"updated_at":"2026-07-12T21:35:10.567437+05:30"},{"city":"Udaipur","state":"Rajasthan","latitude":24.5854,"longitude":73.7125,"temp":27.9,"humidity":70,"rain":0.0,"pressure":939.5,"uv_index":8.8,"wind_gusts":56.2,"aqi":72,"pm10":41.8,"pm2_5":22.4,"no2":4.5,"co":130.0,"o3":73.0,"so2":5.2,"mosquito_risk":7,"arthritis_risk":5,"migraine_risk":7,"frizz_risk":1,"updated_at":"2026-07-12T21:35:10.567447+05:30"},{"city":"Kota","state":"Rajasthan","latitude":25.2138,"longitude":75.8648,"temp":30.7,"humidity":59,"rain":0.0,"pressure":971.2,"uv_index":8.25,"wind_gusts":37.1,"aqi":81,"pm10":53.0,"pm2_5":30.3,"no2":6.2,"co":162.0,"o3":79.0,"so2":6.4,"mosquito_risk":0,"arthritis_risk":5,"migraine_risk":7,"frizz_risk":1,"updated_at":"2026-07-12T21:35:10.567456+05:30"},{"city":"Bikaner","state":"Rajasthan","latitude":28.0229,"longitude":73.3119,"temp":33.1,"humidity":52,"rain":0.0,"pressure":972.2,"uv_index":8.45,"wind_gusts":41.4,"aqi":158,"pm10":327.8,"pm2_5":83.8,"no2":2.9,"co":141.0,"o3":65.0,"so2":2.9,"mosquito_risk":0,"arthritis_risk":5,"migraine_risk":7,"frizz_risk":1,"updated_at":"2026-07-12T21:35:10.567465+05:30"},{"city":"Ajmer","state":"Rajasthan","latitude":26.4499,"longitude":74.6399,"temp":29.2,"humidity":61,"rain":0.0,"pressure":946.5,"uv_index":8.35,"wind_gusts":48.6,"aqi":78,"pm10":47.7,"pm2_5":27.4,"no2":6.0,"co":148.0,"o3":68.0,"so2":3.7,"mosquito_risk":7,"arthritis_risk":5,"migraine_risk":7,"frizz_risk":1,"updated_at":"2026-07-12T21:35:10.567474+05:30"},{"city":"Gwalior","state":"Madhya Pradesh","latitude":26.2183,"longitude":78.1828,"temp":29.1,"humidity":70,"rain":0.0,"pressure":974.7,"uv_index":8.2,"wind_gusts":43.2,"aqi":82,"pm10":55.1,"pm2_5":30.9,"no2":8.3,"co":161.0,"o3":72.0,"so2":6.5,"mosquito_risk":7,"arthritis_risk":5,"migraine_risk":7,"frizz_risk":1,"updated_at":"2026-07-12T21:35:10.567483+05:30"},{"city":"Indore","state":"Madhya Pradesh","latitude":22.7196,"longitude":75.8577,"temp":26.4,"humidity":80,"rain":0.0,"pressure":943.5,"uv_index":8.55,"wind_gusts":54.0,"aqi":65,"pm10":41.6,"pm2_5":24.4,"no2":6.4,"co":207.0,"o3":66.0,"so2":7.4,"mosquito_risk":7,"arthritis_risk":5,"migraine_risk":7,"frizz_risk":1,"updated_at":"2026-07-12T21:35:10.567491+05:30"},{"city":"Bhopal","state":"Madhya Pradesh","latitude":23.2599,"longitude":77.4126,"temp":28.0,"humidity":69,"rain":0.0,"pressure":948.4,"uv_index":7.85,"wind_gusts":43.2,"aqi":70,"pm10":48.9,"pm2_5":29.8,"no2":6.4,"co":223.0,"o3":71.0,"so2":5.4,"mosquito_risk":7,"arthritis_risk":5,"migraine_risk":7,"frizz_risk":1,"updated_at":"2026-07-12T21:35:10.567499+05:30"},{"city":"Jabalpur","state":"Madhya Pradesh","latitude":23.1815,"longitude":79.9864,"temp":27.3,"humidity":73,"rain":0.0,"pressure":955.8,"uv_index":6.5,"wind_gusts":39.2,"aqi":73,"pm10":47.3,"pm2_5":25.6,"no2":5.5,"co":198.0,"o3":68.0,"so2":4.8,"mosquito_risk":7,"arthritis_risk":5,"migraine_risk":7,"frizz_risk":1,"updated_at":"2026-07-12T21:35:10.567507+05:30"},{"city":"Ujjain","state":"Madhya Pradesh","latitude":23.1765,"longitude":75.7885,"temp":27.0,"humidity":78,"rain":0.0,"pressure":948.8,"uv_index":8.35,"wind_gusts":54.0,"aqi":65,"pm10":39.9,"pm2_5":23.7,"no2":4.9,"co":180.0,"o3":66.0,"so2":6.5,"mosquito_risk":7,"arthritis_risk":5,"migraine_risk":7,"frizz_risk":1,"updated_at":"2026-07-12T21:35:10.567516+05:30"},{"city":"Visakhapatnam","state":"Andhra Pradesh","latitude":17.6868,"longitude":83.2185,"temp":31.2,"humidity":59,"rain":0.0,"pressure":998.1,"uv_index":8.7,"wind_gusts":41.8,"aqi":96,"pm10":45.4,"pm2_5":27.5,"no2":21.8,"co":284.0,"o3":55.0,"so2":35.9,"mosquito_risk":0,"arthritis_risk":5,"migraine_risk":7,"frizz_risk":1,"updated_at":"2026-07-12T21:35:10.567524+05:30"},{"city":"Vijayawada","state":"Andhra Pradesh","latitude":16.5062,"longitude":80.648,"temp":32.3,"humidity":58,"rain":0.0,"pressure":997.9,"uv_index":7.6,"wind_gusts":45.4,"aqi":87,"pm10":48.5,"pm2_5":32.5,"no2":14.9,"co":329.0,"o3":49.0,"so2":6.4,"mosquito_risk":0,"arthritis_risk":5,"migraine_risk":7,"frizz_risk":1,"updated_at":"2026-07-12T21:35:10.567533+05:30"},{"city":"Guntur","state":"Andhra Pradesh","latitude":16.3067,"longitude":80.4365,"temp":33.0,"humidity":46,"rain":0.0,"pressure":999.4,"uv_index":8.2,"wind_gusts":48.2,"aqi":80,"pm10":48.0,"pm2_5":31.5,"no2":15.0,"co":294.0,"o3":48.0,"so2":6.3,"mosquito_risk":0,"arthritis_risk":5,"migraine_risk":7,"frizz_risk":1,"updated_at":"2026-07-12T21:35:10.567541+05:30"},{"city":"Nellore","state":"Andhra Pradesh","latitude":14.4426,"longitude":79.9865,"temp":31.0,"humidity":66,"rain":0.0,"pressure":1002.3,"uv_index":7.95,"wind_gusts":45.7,"aqi":69,"pm10":41.0,"pm2_5":24.5,"no2":7.5,"co":200.0,"o3":91.0,"so2":5.2,"mosquito_risk":3,"arthritis_risk":5,"migraine_risk":4,"frizz_risk":1,"updated_at":"2026-07-12T21:35:10.567550+05:30"},{"city":"Kurnool","state":"Andhra Pradesh","latitude":15.8281,"longitude":78.0373,"temp":31.6,"humidity":43,"rain":0.0,"pressure":973.9,"uv_index":8.35,"wind_gusts":48.2,"aqi":54,"pm10":24.7,"pm2_5":13.2,"no2":6.5,"co":130.0,"o3":59.0,"so2":5.7,"mosquito_risk":0,"arthritis_risk":5,"migraine_risk":7,"frizz_risk":1,"updated_at":"2026-07-12T21:35:10.567559+05:30"},{"city":"Kakinada","state":"Andhra Pradesh","latitude":16.9891,"longitude":82.2475,"temp":31.0,"humidity":61,"rain":0.0,"pressure":1002.5,"uv_index":8.65,"wind_gusts":49.0,"aqi":87,"pm10":44.0,"pm2_5":24.6,"no2":7.3,"co":249.0,"o3":79.0,"so2":4.9,"mosquito_risk":3,"arthritis_risk":5,"migraine_risk":4,"frizz_risk":1,"updated_at":"2026-07-12T21:35:10.567568+05:30"},{"city":"Tirupati","state":"Andhra Pradesh","latitude":13.6288,"longitude":79.4192,"temp":31.2,"humidity":58,"rain":0.0,"pressure":988.0,"uv_index":8.65,"wind_gusts":33.1,"aqi":78,"pm10":86.1,"pm2_5":50.5,"no2":44.6,"co":309.0,"o3":28.0,"so2":8.0,"mosquito_risk":0,"arthritis_risk":5,"migraine_risk":7,"frizz_risk":1,"updated_at":"2026-07-12T21:35:10.567576+05:30"},{"city":"Warangal","state":"Telangana","latitude":17.9689,"longitude":79.5941,"temp":28.6,"humidity":74,"rain":0.0,"pressure":974.3,"uv_index":8.9,"wind_gusts":43.6,"aqi":73,"pm10":59.8,"pm2_5":39.3,"no2":17.5,"co":399.0,"o3":37.0,"so2":6.1,"mosquito_risk":7,"arthritis_risk":5,"migraine_risk":7,"frizz_risk":1,"updated_at":"2026-07-12T21:35:10.567584+05:30"},{"city":"Nizamabad","state":"Telangana","latitude":18.6725,"longitude":78.0941,"temp":28.6,"humidity":64,"rain":0.0,"pressure":960.7,"uv_index":8.9,"wind_gusts":45.7,"aqi":62,"pm10":40.0,"pm2_5":24.7,"no2":9.8,"co":308.0,"o3":55.0,"so2":5.2,"mosquito_risk":7,"arthritis_risk":5,"migraine_risk":7,"frizz_risk":1,"updated_at":"2026-07-12T21:35:10.567593+05:30"},{"city":"Mysore","state":"Karnataka","latitude":12.2958,"longitude":76.6396,"temp":22.5,"humidity":88,"rain":0.0,"pressure":928.4,"uv_index":8.65,"wind_gusts":44.3,"aqi":41,"pm10":13.4,"pm2_5":7.8,"no2":6.6,"co":138.0,"o3":44.0,"so2":2.4,"mosquito_risk":3,"arthritis_risk":5,"migraine_risk":7,"frizz_risk":1,"updated_at":"2026-07-12T21:35:10.567601+05:30"},{"city":"Mangalore","state":"Karnataka","latitude":12.9141,"longitude":74.856,"temp":26.9,"humidity":84,"rain":0.1,"pressure":1007.5,"uv_index":5.45,"wind_gusts":42.1,"aqi":42,"pm10":18.5,"pm2_5":10.4,"no2":5.0,"co":132.0,"o3":38.0,"so2":2.3,"mosquito_risk":10,"arthritis_risk":5,"migraine_risk":0,"frizz_risk":1,"updated_at":"2026-07-12T21:35:10.567610+05:30"},{"city":"Hubli-Dharwad","state":"Karnataka","latitude":15.3647,"longitude":75.124,"temp":23.4,"humidity":89,"rain":0.0,"pressure":940.3,"uv_index":8.8,"wind_gusts":50.4,"aqi":30,"pm10":12.0,"pm2_5":6.5,"no2":4.6,"co":121.0,"o3":38.0,"so2":1.6,"mosquito_risk":3,"arthritis_risk":5,"migraine_risk":7,"frizz_risk":1,"updated_at":"2026-07-12T21:35:10.567619+05:30"},{"city":"Belgaum","state":"Karnataka","latitude":15.8497,"longitude":74.4977,"temp":21.7,"humidity":95,"rain":0.0,"pressure":925.0,"uv_index":8.5,"wind_gusts":50.8,"aqi":31,"pm10":11.7,"pm2_5":6.5,"no2":5.2,"co":103.0,"o3":35.0,"so2":1.9,"mosquito_risk":3,"arthritis_risk":5,"migraine_risk":7,"frizz_risk":1,"updated_at":"2026-07-12T21:35:13.959209+05:30"},{"city":"Coimbatore","state":"Tamil Nadu","latitude":11.0168,"longitude":76.9558,"temp":24.3,"humidity":91,"rain":0.0,"pressure":961.1,"uv_index":8.2,"wind_gusts":56.5,"aqi":42,"pm10":10.2,"pm2_5":8.0,"no2":6.8,"co":174.0,"o3":37.0,"so2":3.2,"mosquito_risk":3,"arthritis_risk":5,"migraine_risk":7,"frizz_risk":1,"updated_at":"2026-07-12T21:35:13.959244+05:30"},{"city":"Madurai","state":"Tamil Nadu","latitude":9.9252,"longitude":78.1198,"temp":30.7,"humidity":56,"rain":0.0,"pressure":991.1,"uv_index":8.0,"wind_gusts":39.2,"aqi":67,"pm10":17.3,"pm2_5":9.5,"no2":7.3,"co":141.0,"o3":49.0,"so2":3.6,"mosquito_risk":0,"arthritis_risk":5,"migraine_risk":7,"frizz_risk":1,"updated_at":"2026-07-12T21:35:13.959283+05:30"},{"city":"Trichy","state":"Tamil Nadu","latitude":10.7905,"longitude":78.7047,"temp":30.7,"humidity":55,"rain":0.0,"pressure":997.9,"uv_index":8.4,"wind_gusts":55.8,"aqi":52,"pm10":24.6,"pm2_5":14.3,"no2":11.8,"co":120.0,"o3":40.0,"so2":4.2,"mosquito_risk":0,"arthritis_risk":5,"migraine_risk":7,"frizz_risk":1,"updated_at":"2026-07-12T21:35:13.959295+05:30"},{"city":"Salem","state":"Tamil Nadu","latitude":11.6643,"longitude":78.146,"temp":27.8,"humidity":74,"rain":0.0,"pressure":976.4,"uv_index":8.65,"wind_gusts":33.5,"aqi":63,"pm10":20.5,"pm2_5":12.4,"no2":9.5,"co":230.0,"o3":47.0,"so2":5.1,"mosquito_risk":7,"arthritis_risk":5,"migraine_risk":7,"frizz_risk":1,"updated_at":"2026-07-12T21:35:13.959306+05:30"},{"city":"Tirunelveli","state":"Tamil Nadu","latitude":8.7139,"longitude":77.7567,"temp":29.5,"humidity":61,"rain":0.0,"pressure":1001.9,"uv_index":7.95,"wind_gusts":46.4,"aqi":32,"pm10":10.9,"pm2_5":6.6,"no2":4.6,"co":127.0,"o3":41.0,"so2":2.0,"mosquito_risk":7,"arthritis_risk":5,"migraine_risk":4,"frizz_risk":1,"updated_at":"2026-07-12T21:35:13.959316+05:30"},{"city":"Vellore","state":"Tamil Nadu","latitude":12.9165,"longitude":79.1325,"temp":33.2,"humidity":43,"rain":0.0,"pressure":981.5,"uv_index":8.45,"wind_gusts":41.0,"aqi":67,"pm10":41.2,"pm2_5":24.3,"no2":11.7,"co":273.0,"o3":55.0,"so2":4.4,"mosquito_risk":0,"arthritis_risk":5,"migraine_risk":7,"frizz_risk":1,"updated_at":"2026-07-12T21:35:13.959326+05:30"},{"city":"Erode","state":"Tamil Nadu","latitude":11.341,"longitude":77.7172,"temp":27.9,"humidity":71,"rain":0.0,"pressure":988.0,"uv_index":8.55,"wind_gusts":51.8,"aqi":54,"pm10":21.8,"pm2_5":13.7,"no2":13.2,"co":156.0,"o3":36.0,"so2":3.5,"mosquito_risk":7,"arthritis_risk":5,"migraine_risk":7,"frizz_risk":1,"updated_at":"2026-07-12T21:35:13.959336+05:30"},{"city":"Kochi","state":"Kerala","latitude":9.9312,"longitude":76.2673,"temp":27.5,"humidity":85,"rain":0.0,"pressure":1009.9,"uv_index":7.9,"wind_gusts":42.1,"aqi":48,"pm10":18.8,"pm2_5":14.1,"no2":12.5,"co":117.0,"o3":26.0,"so2":4.4,"mosquito_risk":7,"arthritis_risk":0,"migraine_risk":4,"frizz_risk":1,"updated_at":"2026-07-12T21:35:13.959345+05:30"},{"city":"Thiruvananthapuram","state":"Kerala","latitude":8.5241,"longitude":76.9366,"temp":26.2,"humidity":88,"rain":0.0,"pressure":1009.2,"uv_index":7.65,"wind_gusts":49.3,"aqi":36,"pm10":14.4,"pm2_5":8.6,"no2":3.7,"co":109.0,"o3":42.0,"so2":1.4,"mosquito_risk":7,"arthritis_risk":0,"migraine_risk":4,"frizz_risk":1,"updated_at":"2026-07-12T21:35:13.959355+05:30"},{"city":"Kozhikode","state":"Kerala","latitude":11.2588,"longitude":75.7804,"temp":25.4,"humidity":95,"rain":0.0,"pressure":1009.1,"uv_index":8.05,"wind_gusts":44.3,"aqi":35,"pm10":19.3,"pm2_5":8.8,"no2":1.6,"co":126.0,"o3":48.0,"so2":1.2,"mosquito_risk":7,"arthritis_risk":0,"migraine_risk":4,"frizz_risk":1,"updated_at":"2026-07-12T21:35:13.959364+05:30"},{"city":"Thrissur","state":"Kerala","latitude":10.5276,"longitude":76.2144,"temp":26.0,"humidity":92,"rain":0.0,"pressure":1008.3,"uv_index":7.8,"wind_gusts":39.2,"aqi":42,"pm10":20.0,"pm2_5":14.5,"no2":9.1,"co":150.0,"o3":30.0,"so2":3.6,"mosquito_risk":7,"arthritis_risk":0,"migraine_risk":4,"frizz_risk":1,"updated_at":"2026-07-12T21:35:13.959373+05:30"},{"city":"Kannur","state":"Kerala","latitude":11.8745,"longitude":75.3704,"temp":26.1,"humidity":92,"rain":0.0,"pressure":1008.2,"uv_index":7.8,"wind_gusts":46.8,"aqi":40,"pm10":16.1,"pm2_5":9.0,"no2":5.6,"co":150.0,"o3":36.0,"so2":1.9,"mosquito_risk":7,"arthritis_risk":0,"migraine_risk":4,"frizz_risk":1,"updated_at":"2026-07-12T21:35:13.959383+05:30"},{"city":"Patna","state":"Bihar","latitude":25.5941,"longitude":85.1376,"temp":30.2,"humidity":76,"rain":0.0,"pressure":991.6,"uv_index":8.25,"wind_gusts":38.5,"aqi":140,"pm10":110.6,"pm2_5":67.1,"no2":24.0,"co":321.0,"o3":56.0,"so2":11.5,"mosquito_risk":3,"arthritis_risk":5,"migraine_risk":7,"frizz_risk":1,"updated_at":"2026-07-12T21:35:13.959392+05:30"},{"city":"Gaya","state":"Bihar","latitude":24.7914,"longitude":85.0002,"temp":29.7,"humidity":76,"rain":0.0,"pressure":985.8,"uv_index":8.8,"wind_gusts":38.9,"aqi":116,"pm10":78.5,"pm2_5":53.6,"no2":21.0,"co":389.0,"o3":46.0,"so2":8.9,"mosquito_risk":7,"arthritis_risk":5,"migraine_risk":7,"frizz_risk":1,"updated_at":"2026-07-12T21:35:13.959402+05:30"},{"city":"Muzaffarpur","state":"Bihar","latitude":26.1209,"longitude":85.3647,"temp":28.4,"humidity":92,"rain":0.0,"pressure":991.9,"uv_index":7.2,"wind_gusts":42.5,"aqi":142,"pm10":121.1,"pm2_5":75.4,"no2":27.8,"co":574.0,"o3":54.0,"so2":11.6,"mosquito_risk":7,"arthritis_risk":5,"migraine_risk":7,"frizz_risk":1,"updated_at":"2026-07-12T21:35:13.959411+05:30"},{"city":"Bhagalpur","state":"Bihar","latitude":25.2425,"longitude":87.0117,"temp":30.6,"humidity":82,"rain":0.0,"pressure":992.9,"uv_index":8.35,"wind_gusts":40.3,"aqi":122,"pm10":84.8,"pm2_5":61.0,"no2":30.9,"co":490.0,"o3":41.0,"so2":11.9,"mosquito_risk":3,"arthritis_risk":5,"migraine_risk":7,"frizz_risk":1,"updated_at":"2026-07-12T21:35:13.959420+05:30"},{"city":"Ranchi","state":"Jharkhand","latitude":23.3441,"longitude":85.3096,"temp":24.9,"humidity":91,"rain":0.0,"pressure":931.3,"uv_index":9.25,"wind_gusts":37.8,"aqi":96,"pm10":60.3,"pm2_5":42.6,"no2":16.4,"co":231.0,"o3":60.0,"so2":9.0,"mosquito_risk":3,"arthritis_risk":5,"migraine_risk":7,"frizz_risk":1,"updated_at":"2026-07-12T21:35:13.959429+05:30"},{"city":"Jamshedpur","state":"Jharkhand","latitude":22.8046,"longitude":86.2029,"temp":26.1,"humidity":96,"rain":0.1,"pressure":984.6,"uv_index":9.05,"wind_gusts":29.2,"aqi":113,"pm10":56.5,"pm2_5":38.6,"no2":17.4,"co":217.0,"o3":68.0,"so2":19.2,"mosquito_risk":10,"arthritis_risk":5,"migraine_risk":7,"frizz_risk":1,"updated_at":"2026-07-12T21:35:13.959439+05:30"},{"city":"Dhanbad","state":"Jharkhand","latitude":23.7957,"longitude":86.4304,"temp":27.2,"humidity":94,"rain":0.0,"pressure":973.1,"uv_index":8.8,"wind_gusts":29.5,"aqi":152,"pm10":146.7,"pm2_5":120.6,"no2":67.9,"co":270.0,"o3":23.0,"so2":218.6,"mosquito_risk":7,"arthritis_risk":5,"migraine_risk":7,"frizz_risk":1,"updated_at":"2026-07-12T21:35:13.959448+05:30"},{"city":"Bokaro","state":"Jharkhand","latitude":23.6693,"longitude":86.1511,"temp":27.8,"humidity":83,"rain":0.0,"pressure":976.8,"uv_index":8.95,"wind_gusts":32.4,"aqi":150,"pm10":133.6,"pm2_5":109.2,"no2":53.4,"co":241.0,"o3":35.0,"so2":176.2,"mosquito_risk":7,"arthritis_risk":5,"migraine_risk":7,"frizz_risk":1,"updated_at":"2026-07-12T21:35:13.959457+05:30"},{"city":"Bhubaneswar","state":"Odisha","latitude":20.2961,"longitude":85.8245,"temp":29.0,"humidity":84,"rain":0.0,"pressure":996.1,"uv_index":8.5,"wind_gusts":37.1,"aqi":118,"pm10":49.6,"pm2_5":36.8,"no2":14.1,"co":373.0,"o3":74.0,"so2":7.9,"mosquito_risk":7,"arthritis_risk":5,"migraine_risk":7,"frizz_risk":1,"updated_at":"2026-07-12T21:35:13.959466+05:30"},{"city":"Cuttack","state":"Odisha","latitude":20.4625,"longitude":85.8828,"temp":29.3,"humidity":84,"rain":0.1,"pressure":998.0,"uv_index":8.4,"wind_gusts":39.6,"aqi":118,"pm10":49.6,"pm2_5":36.8,"no2":14.1,"co":354.0,"o3":74.0,"so2":7.9,"mosquito_risk":10,"arthritis_risk":5,"migraine_risk":7,"frizz_risk":1,"updated_at":"2026-07-12T21:35:13.959475+05:30"},{"city":"Rourkela","state":"Odisha","latitude":22.2604,"longitude":84.8536,"temp":26.9,"humidity":90,"rain":0.0,"pressure":978.4,"uv_index":8.85,"wind_gusts":32.8,"aqi":105,"pm10":45.5,"pm2_5":34.6,"no2":10.6,"co":634.0,"o3":102.0,"so2":18.7,"mosquito_risk":7,"arthritis_risk":5,"migraine_risk":7,"frizz_risk":1,"updated_at":"2026-07-12T21:35:13.959484+05:30"},{"city":"Raipur","state":"Chhattisgarh","latitude":21.2514,"longitude":81.6296,"temp":28.5,"humidity":67,"rain":0.0,"pressure":969.2,"uv_index":6.1,"wind_gusts":45.7,"aqi":95,"pm10":53.3,"pm2_5":34.7,"no2":20.3,"co":400.0,"o3":68.0,"so2":38.4,"mosquito_risk":7,"arthritis_risk":5,"migraine_risk":7,"frizz_risk":1,"updated_at":"2026-07-12T21:35:13.959494+05:30"},{"city":"Bhilai","state":"Chhattisgarh","latitude":21.1938,"longitude":81.3509,"temp":28.1,"humidity":69,"rain":0.0,"pressure":969.7,"uv_index":7.4,"wind_gusts":47.5,"aqi":89,"pm10":52.3,"pm2_5":32.6,"no2":15.8,"co":534.0,"o3":70.0,"so2":30.0,"mosquito_risk":7,"arthritis_risk":5,"migraine_risk":7,"frizz_risk":1,"updated_at":"2026-07-12T21:35:13.959503+05:30"},{"city":"Guwahati","state":"Assam","latitude":26.1158,"longitude":91.7086,"temp":26.5,"humidity":99,"rain":0.0,"pressure":994.2,"uv_index":4.15,"wind_gusts":18.7,"aqi":35,"pm10":16.8,"pm2_5":16.5,"no2":10.3,"co":332.0,"o3":51.0,"so2":3.0,"mosquito_risk":7,"arthritis_risk":5,"migraine_risk":3,"frizz_risk":1,"updated_at":"2026-07-12T21:35:13.959512+05:30"},{"city":"Agartala","state":"Tripura","latitude":23.8315,"longitude":91.2868,"temp":26.2,"humidity":99,"rain":0.0,"pressure":999.4,"uv_index":7.9,"wind_gusts":31.7,"aqi":85,"pm10":43.2,"pm2_5":37.6,"no2":11.7,"co":254.0,"o3":81.0,"so2":5.7,"mosquito_risk":7,"arthritis_risk":5,"migraine_risk":7,"frizz_risk":1,"updated_at":"2026-07-12T21:35:13.959521+05:30"},{"city":"Shillong","state":"Meghalaya","latitude":25.5788,"longitude":91.8933,"temp":21.2,"humidity":95,"rain":0.0,"pressure":852.5,"uv_index":3.55,"wind_gusts":39.6,"aqi":38,"pm10":4.7,"pm2_5":4.2,"no2":5.7,"co":277.0,"o3":71.0,"so2":3.5,"mosquito_risk":3,"arthritis_risk":5,"migraine_risk":3,"frizz_risk":1,"updated_at":"2026-07-12T21:35:13.959529+05:30"},{"city":"Imphal","state":"Manipur","latitude":24.817,"longitude":93.9368,"temp":24.3,"humidity":95,"rain":0.0,"pressure":918.0,"uv_index":7.15,"wind_gusts":20.5,"aqi":48,"pm10":27.4,"pm2_5":23.6,"no2":16.6,"co":481.0,"o3":50.0,"so2":5.5,"mosquito_risk":3,"arthritis_risk":5,"migraine_risk":7,"frizz_risk":1,"updated_at":"2026-07-12T21:35:13.959538+05:30"},{"city":"Aizawl","state":"Mizoram","latitude":23.7271,"longitude":92.7176,"temp":20.6,"humidity":94,"rain":0.0,"pressure":887.3,"uv_index":7.8,"wind_gusts":36.7,"aqi":51,"pm10":14.8,"pm2_5":9.0,"no2":2.3,"co":167.0,"o3":70.0,"so2":2.6,"mosquito_risk":3,"arthritis_risk":5,"migraine_risk":7,"frizz_risk":1,"updated_at":"2026-07-12T21:35:13.959547+05:30"},{"city":"Kohima","state":"Nagaland","latitude":25.6701,"longitude":94.1077,"temp":21.3,"humidity":95,"rain":0.1,"pressure":851.1,"uv_index":8.05,"wind_gusts":19.4,"aqi":32,"pm10":9.2,"pm2_5":8.2,"no2":9.1,"co":237.0,"o3":49.0,"so2":1.9,"mosquito_risk":6,"arthritis_risk":5,"migraine_risk":7,"frizz_risk":1,"updated_at":"2026-07-12T21:35:13.959556+05:30"},{"city":"Gangtok","state":"Sikkim","latitude":27.3314,"longitude":88.6138,"temp":19.8,"humidity":95,"rain":0.2,"pressure":833.1,"uv_index":4.0,"wind_gusts":30.2,"aqi":49,"pm10":2.7,"pm2_5":2.7,"no2":3.7,"co":300.0,"o3":109.0,"so2":1.1,"mosquito_risk":6,"arthritis_risk":10,"migraine_risk":3,"frizz_risk":1,"updated_at":"2026-07-12T21:35:13.959565+05:30"},{"city":"Siliguri","state":"West Bengal","latitude":26.7271,"longitude":88.3953,"temp":26.0,"humidity":96,"rain":0.1,"pressure":985.5,"uv_index":7.9,"wind_gusts":23.4,"aqi":52,"pm10":21.1,"pm2_5":19.6,"no2":8.1,"co":483.0,"o3":100.0,"so2":3.2,"mosquito_risk":10,"arthritis_risk":5,"migraine_risk":7,"frizz_risk":1,"updated_at":"2026-07-12T21:35:17.371062+05:30"},{"city":"Durgapur","state":"West Bengal","latitude":23.5204,"longitude":87.3119,"temp":28.0,"humidity":93,"rain":0.1,"pressure":987.8,"uv_index":5.2,"wind_gusts":28.1,"aqi":152,"pm10":86.4,"pm2_5":71.9,"no2":37.6,"co":984.0,"o3":53.0,"so2":47.7,"mosquito_risk":10,"arthritis_risk":5,"migraine_risk":3,"frizz_risk":1,"updated_at":"2026-07-12T21:35:17.371100+05:30"},{"city":"Asansol","state":"West Bengal","latitude":23.6739,"longitude":86.9524,"temp":27.7,"humidity":94,"rain":0.1,"pressure":986.5,"uv_index":8.3,"wind_gusts":28.8,"aqi":139,"pm10":81.7,"pm2_5":63.1,"no2":41.5,"co":496.0,"o3":45.0,"so2":55.3,"mosquito_risk":10,"arthritis_risk":5,"migraine_risk":7,"frizz_risk":1,"updated_at":"2026-07-12T21:35:17.371114+05:30"},{"city":"Pondicherry","state":"Puducherry","latitude":11.9139,"longitude":79.8145,"temp":31.2,"humidity":68,"rain":0.0,"pressure":1005.1,"uv_index":8.65,"wind_gusts":45.0,"aqi":67,"pm10":32.0,"pm2_5":18.8,"no2":10.8,"co":201.0,"o3":75.0,"so2":7.8,"mosquito_risk":3,"arthritis_risk":5,"migraine_risk":4,"frizz_risk":1,"updated_at":"2026-07-12T21:35:17.371125+05:30"},{"city":"Port Blair","state":"Andaman and Nicobar Islands","latitude":11.6234,"longitude":92.7265,"temp":27.7,"humidity":84,"rain":0.1,"pressure":1005.8,"uv_index":8.7,"wind_gusts":55.8,"aqi":51,"pm10":23.8,"pm2_5":10.3,"no2":0.3,"co":84.0,"o3":47.0,"so2":0.4,"mosquito_risk":10,"arthritis_risk":5,"migraine_risk":4,"frizz_risk":1,"updated_at":"2026-07-12T21:35:17.371136+05:30"},{"city":"Haridwar","state":"Uttarakhand","latitude":29.9457,"longitude":78.1642,"temp":29.3,"humidity":85,"rain":0.0,"pressure":964.5,"uv_index":7.45,"wind_gusts":37.4,"aqi":160,"pm10":169.5,"pm2_5":95.0,"no2":30.5,"co":428.0,"o3":55.0,"so2":12.3,"mosquito_risk":7,"arthritis_risk":5,"migraine_risk":7,"frizz_risk":1,"updated_at":"2026-07-12T21:35:17.371146+05:30"},{"city":"Rishikesh","state":"Uttarakhand","latitude":30.0869,"longitude":78.2676,"temp":28.0,"humidity":86,"rain":0.0,"pressure":957.5,"uv_index":7.6,"wind_gusts":29.9,"aqi":139,"pm10":118.5,"pm2_5":60.3,"no2":13.0,"co":338.0,"o3":95.0,"so2":8.8,"mosquito_risk":7,"arthritis_risk":5,"migraine_risk":7,"frizz_risk":1,"updated_at":"2026-07-12T21:35:17.371157+05:30"},{"city":"Nainital","state":"Uttarakhand","latitude":29.3919,"longitude":79.4542,"temp":17.6,"humidity":100,"rain":0.0,"pressure":800.0,"uv_index":6.3,"wind_gusts":32.8,"aqi":153,"pm10":191.4,"pm2_5":78.2,"no2":13.0,"co":278.0,"o3":88.0,"so2":5.7,"mosquito_risk":3,"arthritis_risk":10,"migraine_risk":7,"frizz_risk":1,"updated_at":"2026-07-12T21:35:17.371167+05:30"},{"city":"Mussoorie","state":"Uttarakhand","latitude":30.4599,"longitude":78.0664,"temp":17.4,"humidity":100,"rain":0.0,"pressure":797.3,"uv_index":8.0,"wind_gusts":43.2,"aqi":134,"pm10":113.4,"pm2_5":63.8,"no2":17.7,"co":325.0,"o3":93.0,"so2":10.4,"mosquito_risk":3,"arthritis_risk":10,"migraine_risk":7,"frizz_risk":1,"updated_at":"2026-07-12T21:35:17.371176+05:30"},{"city":"Dharamshala","state":"Himachal Pradesh","latitude":32.219,"longitude":76.3234,"temp":21.7,"humidity":73,"rain":0.0,"pressure":862.2,"uv_index":8.45,"wind_gusts":28.8,"aqi":77,"pm10":30.7,"pm2_5":20.4,"no2":12.6,"co":410.0,"o3":66.0,"so2":1.4,"mosquito_risk":3,"arthritis_risk":5,"migraine_risk":7,"frizz_risk":1,"updated_at":"2026-07-12T21:35:17.371186+05:30"},{"city":"Dalhousie","state":"Himachal Pradesh","latitude":32.5387,"longitude":75.971,"temp":17.7,"humidity":82,"rain":0.0,"pressure":798.7,"uv_index":8.65,"wind_gusts":25.6,"aqi":106,"pm10":73.1,"pm2_5":45.5,"no2":31.0,"co":621.0,"o3":86.0,"so2":3.6,"mosquito_risk":3,"arthritis_risk":10,"migraine_risk":7,"frizz_risk":0,"updated_at":"2026-07-12T21:35:17.371196+05:30"},{"city":"Patiala","state":"Punjab","latitude":30.3398,"longitude":76.3869,"temp":29.2,"humidity":86,"rain":0.0,"pressure":968.3,"uv_index":7.5,"wind_gusts":29.9,"aqi":169,"pm10":203.5,"pm2_5":116.6,"no2":36.8,"co":623.0,"o3":59.0,"so2":11.7,"mosquito_risk":7,"arthritis_risk":5,"migraine_risk":7,"frizz_risk":1,"updated_at":"2026-07-12T21:35:17.371206+05:30"},{"city":"Bhatinda","state":"Punjab","latitude":30.211,"longitude":74.9455,"temp":31.8,"humidity":76,"rain":0.0,"pressure":973.7,"uv_index":8.25,"wind_gusts":37.1,"aqi":370,"pm10":286.8,"pm2_5":143.9,"no2":36.9,"co":438.0,"o3":58.0,"so2":10.1,"mosquito_risk":3,"arthritis_risk":5,"migraine_risk":7,"frizz_risk":1,"updated_at":"2026-07-12T21:35:17.371215+05:30"},{"city":"Rohtak","state":"Haryana","latitude":28.8955,"longitude":76.6066,"temp":29.8,"humidity":85,"rain":0.0,"pressure":972.0,"uv_index":7.65,"wind_gusts":37.8,"aqi":1049,"pm10":1166.0,"pm2_5":192.8,"no2":20.3,"co":375.0,"o3":54.0,"so2":4.9,"mosquito_risk":7,"arthritis_risk":5,"migraine_risk":7,"frizz_risk":1,"updated_at":"2026-07-12T21:35:17.371225+05:30"},{"city":"Panipat","state":"Haryana","latitude":29.3909,"longitude":76.9635,"temp":29.5,"humidity":80,"rain":0.0,"pressure":970.6,"uv_index":7.45,"wind_gusts":44.6,"aqi":1457,"pm10":1139.9,"pm2_5":220.7,"no2":29.1,"co":630.0,"o3":39.0,"so2":6.4,"mosquito_risk":7,"arthritis_risk":5,"migraine_risk":7,"frizz_risk":1,"updated_at":"2026-07-12T21:35:17.371234+05:30"},{"city":"Mathura","state":"Uttar Pradesh","latitude":27.4924,"longitude":77.6737,"temp":31.4,"humidity":59,"rain":0.0,"pressure":977.2,"uv_index":7.95,"wind_gusts":36.7,"aqi":865,"pm10":1087.8,"pm2_5":154.1,"no2":14.1,"co":189.0,"o3":65.0,"so2":4.3,"mosquito_risk":0,"arthritis_risk":5,"migraine_risk":7,"frizz_risk":1,"updated_at":"2026-07-12T21:35:17.371243+05:30"},{"city":"Vrindavan","state":"Uttar Pradesh","latitude":27.5823,"longitude":77.7027,"temp":31.5,"humidity":59,"rain":0.0,"pressure":977.7,"uv_index":7.9,"wind_gusts":36.0,"aqi":865,"pm10":1087.8,"pm2_5":154.1,"no2":14.1,"co":188.0,"o3":65.0,"so2":4.3,"mosquito_risk":0,"arthritis_risk":5,"migraine_risk":7,"frizz_risk":1,"updated_at":"2026-07-12T21:35:17.371289+05:30"},{"city":"Ayodhya","state":"Uttar Pradesh","latitude":26.7922,"longitude":82.1998,"temp":27.1,"humidity":96,"rain":0.1,"pressure":986.8,"uv_index":7.05,"wind_gusts":36.4,"aqi":135,"pm10":136.0,"pm2_5":71.5,"no2":24.4,"co":423.0,"o3":50.0,"so2":8.6,"mosquito_risk":10,"arthritis_risk":5,"migraine_risk":7,"frizz_risk":1,"updated_at":"2026-07-12T21:35:17.371301+05:30"},{"city":"Ratlam","state":"Madhya Pradesh","latitude":23.3315,"longitude":75.0367,"temp":26.8,"humidity":80,"rain":0.0,"pressure":949.3,"uv_index":8.45,"wind_gusts":58.0,"aqi":64,"pm10":33.6,"pm2_5":19.8,"no2":4.6,"co":133.0,"o3":65.0,"so2":7.0,"mosquito_risk":7,"arthritis_risk":5,"migraine_risk":7,"frizz_risk":1,"updated_at":"2026-07-12T21:35:17.371309+05:30"},{"city":"Sagar","state":"Madhya Pradesh","latitude":23.8388,"longitude":78.7378,"temp":27.1,"humidity":73,"rain":0.0,"pressure":944.4,"uv_index":7.65,"wind_gusts":43.2,"aqi":73,"pm10":48.8,"pm2_5":27.2,"no2":4.6,"co":171.0,"o3":72.0,"so2":3.6,"mosquito_risk":7,"arthritis_risk":5,"migraine_risk":7,"frizz_risk":1,"updated_at":"2026-07-12T21:35:17.371316+05:30"},{"city":"Satna","state":"Madhya Pradesh","latitude":24.6005,"longitude":80.8322,"temp":29.1,"humidity":65,"rain":0.0,"pressure":964.7,"uv_index":8.5,"wind_gusts":45.7,"aqi":78,"pm10":42.5,"pm2_5":25.1,"no2":6.0,"co":166.0,"o3":71.0,"so2":3.7,"mosquito_risk":7,"arthritis_risk":5,"migraine_risk":7,"frizz_risk":1,"updated_at":"2026-07-12T21:35:17.371324+05:30"},{"city":"Akola","state":"Maharashtra","latitude":20.7002,"longitude":77.0082,"temp":30.4,"humidity":58,"rain":0.0,"pressure":970.7,"uv_index":7.9,"wind_gusts":45.0,"aqi":59,"pm10":39.8,"pm2_5":21.0,"no2":7.5,"co":126.0,"o3":58.0,"so2":6.9,"mosquito_risk":0,"arthritis_risk":5,"migraine_risk":7,"frizz_risk":1,"updated_at":"2026-07-12T21:35:17.371332+05:30"},{"city":"Amravati","state":"Maharashtra","latitude":20.9374,"longitude":77.7796,"temp":29.5,"humidity":64,"rain":0.0,"pressure":962.5,"uv_index":5.85,"wind_gusts":44.3,"aqi":60,"pm10":39.8,"pm2_5":21.0,"no2":8.6,"co":182.0,"o3":60.0,"so2":8.0,"mosquito_risk":7,"arthritis_risk":5,"migraine_risk":3,"frizz_risk":1,"updated_at":"2026-07-12T21:35:17.371341+05:30"},{"city":"Latur","state":"Maharashtra","latitude":18.4088,"longitude":76.5604,"temp":26.9,"humidity":62,"rain":0.0,"pressure":937.3,"uv_index":8.85,"wind_gusts":46.8,"aqi":51,"pm10":27.6,"pm2_5":13.2,"no2":3.4,"co":128.0,"o3":58.0,"so2":2.5,"mosquito_risk":7,"arthritis_risk":5,"migraine_risk":7,"frizz_risk":1,"updated_at":"2026-07-12T21:35:17.371348+05:30"},{"city":"Nanded","state":"Maharashtra","latitude":19.1383,"longitude":77.3091,"temp":29.6,"humidity":60,"rain":0.0,"pressure":964.8,"uv_index":8.85,"wind_gusts":39.6,"aqi":57,"pm10":34.2,"pm2_5":19.4,"no2":5.5,"co":145.0,"o3":67.0,"so2":3.9,"mosquito_risk":4,"arthritis_risk":5,"migraine_risk":7,"frizz_risk":1,"updated_at":"2026-07-12T21:35:17.371356+05:30"},{"city":"Gulbarga","state":"Karnataka","latitude":17.3297,"longitude":76.8343,"temp":27.8,"humidity":59,"rain":0.0,"pressure":956.5,"uv_index":8.75,"wind_gusts":49.7,"aqi":51,"pm10":21.6,"pm2_5":11.4,"no2":5.4,"co":125.0,"o3":51.0,"so2":2.7,"mosquito_risk":4,"arthritis_risk":5,"migraine_risk":7,"frizz_risk":1,"updated_at":"2026-07-12T21:35:17.371363+05:30"},{"city":"Bidar","state":"Karnataka","latitude":17.9104,"longitude":77.5199,"temp":27.7,"humidity":58,"rain":0.0,"pressure":932.6,"uv_index":8.9,"wind_gusts":47.9,"aqi":56,"pm10":30.2,"pm2_5":17.0,"no2":6.8,"co":160.0,"o3":59.0,"so2":2.5,"mosquito_risk":4,"arthritis_risk":5,"migraine_risk":7,"frizz_risk":1,"updated_at":"2026-07-12T21:35:17.371371+05:30"},{"city":"Hospet","state":"Karnataka","latitude":15.2689,"longitude":76.3909,"temp":26.5,"humidity":71,"rain":0.0,"pressure":954.8,"uv_index":8.55,"wind_gusts":52.9,"aqi":37,"pm10":15.5,"pm2_5":8.4,"no2":4.2,"co":122.0,"o3":44.0,"so2":1.8,"mosquito_risk":7,"arthritis_risk":5,"migraine_risk":7,"frizz_risk":1,"updated_at":"2026-07-12T21:35:17.371378+05:30"},{"city":"Tirupur","state":"Tamil Nadu","latitude":11.1085,"longitude":77.3411,"temp":25.8,"humidity":83,"rain":0.0,"pressure":974.4,"uv_index":8.4,"wind_gusts":61.9,"aqi":57,"pm10":25.1,"pm2_5":16.6,"no2":16.8,"co":150.0,"o3":32.0,"so2":4.8,"mosquito_risk":7,"arthritis_risk":5,"migraine_risk":7,"frizz_risk":1,"updated_at":"2026-07-12T21:35:17.371385+05:30"},{"city":"Alappuzha","state":"Kerala","latitude":9.4981,"longitude":76.3388,"temp":27.6,"humidity":84,"rain":0.0,"pressure":1010.0,"uv_index":7.9,"wind_gusts":42.8,"aqi":43,"pm10":15.5,"pm2_5":9.5,"no2":6.3,"co":80.0,"o3":40.0,"so2":2.7,"mosquito_risk":7,"arthritis_risk":0,"migraine_risk":4,"frizz_risk":1,"updated_at":"2026-07-12T21:35:17.371392+05:30"},{"city":"Munnar","state":"Kerala","latitude":10.0889,"longitude":77.0595,"temp":16.4,"humidity":99,"rain":0.0,"pressure":857.0,"uv_index":8.05,"wind_gusts":38.5,"aqi":34,"pm10":10.4,"pm2_5":7.1,"no2":6.6,"co":99.0,"o3":34.0,"so2":2.0,"mosquito_risk":3,"arthritis_risk":10,"migraine_risk":7,"frizz_risk":1,"updated_at":"2026-07-12T21:35:17.371400+05:30"},{"city":"Silchar","state":"Assam","latitude":24.8333,"longitude":92.7789,"temp":26.3,"humidity":99,"rain":0.1,"pressure":998.6,"uv_index":6.4,"wind_gusts":30.2,"aqi":73,"pm10":32.1,"pm2_5":21.8,"no2":6.8,"co":260.0,"o3":75.0,"so2":5.8,"mosquito_risk":10,"arthritis_risk":5,"migraine_risk":7,"frizz_risk":1,"updated_at":"2026-07-12T21:35:17.371408+05:30"},{"city":"Dibrugarh","state":"Assam","latitude":27.4728,"longitude":94.912,"temp":26.7,"humidity":98,"rain":0.1,"pressure":989.0,"uv_index":3.7,"wind_gusts":23.8,"aqi":45,"pm10":17.3,"pm2_5":17.1,"no2":14.6,"co":308.0,"o3":43.0,"so2":2.4,"mosquito_risk":10,"arthritis_risk":5,"migraine_risk":3,"frizz_risk":1,"updated_at":"2026-07-12T21:35:17.371415+05:30"}]