[{"city":"Delhi","state":"Delhi","latitude":28.6139,"longitude":77.209,"temp":34.8,"humidity":22,"rain":0.0,"pressure":976.9,"uv_index":7.75,"wind_gusts":56.9,"aqi":582,"pm10":933.2,"pm2_5":181.6,"no2":61.1,"co":1142.0,"o3":37.0,"so2":23.8,"mosquito_risk":0,"arthritis_risk":5,"migraine_risk":7,"frizz_risk":0,"updated_at":"2026-05-28T00:57:17.048940+05:30"},{"city":"Mumbai","state":"Maharashtra","latitude":19.076,"longitude":72.8777,"temp":30.5,"humidity":70,"rain":0.0,"pressure":1009.2,"uv_index":7.8,"wind_gusts":38.5,"aqi":41,"pm10":27.1,"pm2_5":11.9,"no2":5.7,"co":167.0,"o3":47.0,"so2":3.9,"mosquito_risk":3,"arthritis_risk":0,"migraine_risk":4,"frizz_risk":1,"updated_at":"2026-05-28T00:57:17.048980+05:30"},{"city":"Bangalore","state":"Karnataka","latitude":12.9716,"longitude":77.5946,"temp":22.2,"humidity":88,"rain":0.0,"pressure":912.6,"uv_index":9.25,"wind_gusts":34.9,"aqi":73,"pm10":22.3,"pm2_5":20.6,"no2":29.9,"co":435.0,"o3":51.0,"so2":7.8,"mosquito_risk":3,"arthritis_risk":5,"migraine_risk":7,"frizz_risk":1,"updated_at":"2026-05-28T00:57:17.049017+05:30"},{"city":"Hyderabad","state":"Telangana","latitude":17.385,"longitude":78.4867,"temp":27.0,"humidity":70,"rain":0.0,"pressure":952.7,"uv_index":9.1,"wind_gusts":31.0,"aqi":69,"pm10":29.3,"pm2_5":24.6,"no2":17.6,"co":378.0,"o3":76.0,"so2":10.6,"mosquito_risk":7,"arthritis_risk":5,"migraine_risk":7,"frizz_risk":1,"updated_at":"2026-05-28T00:57:17.049027+05:30"},{"city":"Chennai","state":"Tamil Nadu","latitude":13.0827,"longitude":80.2707,"temp":30.0,"humidity":79,"rain":0.0,"pressure":1006.9,"uv_index":8.8,"wind_gusts":37.8,"aqi":112,"pm10":20.1,"pm2_5":15.5,"no2":11.2,"co":218.0,"o3":64.0,"so2":8.1,"mosquito_risk":7,"arthritis_risk":5,"migraine_risk":4,"frizz_risk":1,"updated_at":"2026-05-28T00:57:17.049035+05:30"},{"city":"Kolkata","state":"West Bengal","latitude":22.5726,"longitude":88.3639,"temp":26.8,"humidity":92,"rain":0.0,"pressure":1003.9,"uv_index":8.9,"wind_gusts":57.6,"aqi":116,"pm10":41.8,"pm2_5":34.5,"no2":11.2,"co":375.0,"o3":71.0,"so2":7.2,"mosquito_risk":7,"arthritis_risk":5,"migraine_risk":4,"frizz_risk":1,"updated_at":"2026-05-28T00:57:17.049043+05:30"},{"city":"Pune","state":"Maharashtra","latitude":18.5204,"longitude":73.8567,"temp":25.2,"humidity":86,"rain":0.0,"pressure":948.9,"uv_index":8.4,"wind_gusts":39.2,"aqi":46,"pm10":12.5,"pm2_5":10.2,"no2":12.6,"co":178.0,"o3":45.0,"so2":12.8,"mosquito_risk":7,"arthritis_risk":5,"migraine_risk":7,"frizz_risk":1,"updated_at":"2026-05-28T00:57:17.049050+05:30"},{"city":"Ahmedabad","state":"Gujarat","latitude":23.0225,"longitude":72.5714,"temp":31.4,"humidity":68,"rain":0.0,"pressure":1001.0,"uv_index":8.1,"wind_gusts":41.4,"aqi":69,"pm10":33.8,"pm2_5":19.4,"no2":6.9,"co":171.0,"o3":58.0,"so2":5.0,"mosquito_risk":3,"arthritis_risk":5,"migraine_risk":4,"frizz_risk":1,"updated_at":"2026-05-28T00:57:17.049056+05:30"},{"city":"Jaipur","state":"Rajasthan","latitude":26.9124,"longitude":75.7873,"temp":35.0,"humidity":25,"rain":0.0,"pressure":956.0,"uv_index":8.25,"wind_gusts":45.7,"aqi":183,"pm10":409.8,"pm2_5":77.8,"no2":4.7,"co":190.0,"o3":81.0,"so2":3.9,"mosquito_risk":0,"arthritis_risk":5,"migraine_risk":7,"frizz_risk":0,"updated_at":"2026-05-28T00:57:17.049068+05:30"},{"city":"Lucknow","state":"Uttar Pradesh","latitude":26.8467,"longitude":80.9462,"temp":31.5,"humidity":50,"rain":0.0,"pressure":989.3,"uv_index":8.2,"wind_gusts":43.2,"aqi":136,"pm10":70.8,"pm2_5":44.5,"no2":12.6,"co":434.0,"o3":116.0,"so2":14.3,"mosquito_risk":0,"arthritis_risk":5,"migraine_risk":7,"frizz_risk":1,"updated_at":"2026-05-28T00:57:17.049075+05:30"},{"city":"Kanpur","state":"Uttar Pradesh","latitude":26.4499,"longitude":80.3319,"temp":32.9,"humidity":46,"rain":0.0,"pressure":987.0,"uv_index":8.2,"wind_gusts":39.6,"aqi":254,"pm10":198.4,"pm2_5":65.7,"no2":22.3,"co":466.0,"o3":87.0,"so2":14.0,"mosquito_risk":0,"arthritis_risk":5,"migraine_risk":7,"frizz_risk":1,"updated_at":"2026-05-28T00:57:17.049082+05:30"},{"city":"Chandigarh","state":"Chandigarh","latitude":30.7333,"longitude":76.7794,"temp":30.1,"humidity":29,"rain":0.0,"pressure":962.6,"uv_index":7.75,"wind_gusts":52.9,"aqi":66,"pm10":38.0,"pm2_5":30.6,"no2":32.2,"co":443.0,"o3":49.0,"so2":8.5,"mosquito_risk":0,"arthritis_risk":5,"migraine_risk":7,"frizz_risk":0,"updated_at":"2026-05-28T00:57:17.049088+05:30"},{"city":"Srinagar","state":"Jammu and Kashmir","latitude":34.0837,"longitude":74.7973,"temp":13.7,"humidity":84,"rain":0.0,"pressure":838.8,"uv_index":6.5,"wind_gusts":27.0,"aqi":79,"pm10":38.8,"pm2_5":24.9,"no2":22.6,"co":655.0,"o3":45.0,"so2":3.0,"mosquito_risk":3,"arthritis_risk":10,"migraine_risk":7,"frizz_risk":0,"updated_at":"2026-05-28T00:57:17.049095+05:30"},{"city":"Jammu","state":"Jammu and Kashmir","latitude":32.7266,"longitude":74.857,"temp":28.0,"humidity":33,"rain":0.0,"pressure":966.5,"uv_index":8.45,"wind_gusts":37.1,"aqi":73,"pm10":38.8,"pm2_5":30.0,"no2":39.5,"co":546.0,"o3":26.0,"so2":4.6,"mosquito_risk":4,"arthritis_risk":5,"migraine_risk":7,"frizz_risk":0,"updated_at":"2026-05-28T00:57:17.049102+05:30"},{"city":"Amritsar","state":"Punjab","latitude":31.634,"longitude":74.8723,"temp":31.3,"humidity":32,"rain":0.0,"pressure":974.5,"uv_index":8.4,"wind_gusts":42.8,"aqi":94,"pm10":69.8,"pm2_5":58.1,"no2":54.4,"co":715.0,"o3":38.0,"so2":14.5,"mosquito_risk":0,"arthritis_risk":5,"migraine_risk":7,"frizz_risk":0,"updated_at":"2026-05-28T00:57:17.049108+05:30"},{"city":"Ludhiana","state":"Punjab","latitude":30.901,"longitude":75.8573,"temp":31.8,"humidity":28,"rain":0.0,"pressure":972.4,"uv_index":8.0,"wind_gusts":40.3,"aqi":78,"pm10":49.9,"pm2_5":39.6,"no2":27.4,"co":770.0,"o3":59.0,"so2":9.1,"mosquito_risk":0,"arthritis_risk":5,"migraine_risk":7,"frizz_risk":0,"updated_at":"2026-05-28T00:57:17.049114+05:30"},{"city":"Jalandhar","state":"Punjab","latitude":31.326,"longitude":75.5762,"temp":30.6,"humidity":32,"rain":0.0,"pressure":973.6,"uv_index":8.2,"wind_gusts":48.6,"aqi":87,"pm10":89.2,"pm2_5":56.9,"no2":37.8,"co":729.0,"o3":61.0,"so2":11.2,"mosquito_risk":0,"arthritis_risk":5,"migraine_risk":7,"frizz_risk":0,"updated_at":"2026-05-28T00:57:17.049120+05:30"},{"city":"Dehradun","state":"Uttarakhand","latitude":30.6284,"longitude":78.0322,"temp":18.6,"humidity":37,"rain":0.0,"pressure":827.2,"uv_index":8.2,"wind_gusts":39.2,"aqi":82,"pm10":36.1,"pm2_5":22.5,"no2":33.8,"co":164.0,"o3":50.0,"so2":1.6,"mosquito_risk":0,"arthritis_risk":5,"migraine_risk":7,"frizz_risk":0,"updated_at":"2026-05-28T00:57:17.049126+05:30"},{"city":"Shimla","state":"Himachal Pradesh","latitude":31.1048,"longitude":77.1734,"temp":16.2,"humidity":36,"rain":0.0,"pressure":782.2,"uv_index":8.25,"wind_gusts":48.6,"aqi":81,"pm10":39.1,"pm2_5":18.9,"no2":20.4,"co":233.0,"o3":88.0,"so2":1.9,"mosquito_risk":0,"arthritis_risk":5,"migraine_risk":7,"frizz_risk":0,"updated_at":"2026-05-28T00:57:17.049134+05:30"},{"city":"Manali","state":"Himachal Pradesh","latitude":32.2396,"longitude":77.1887,"temp":11.7,"humidity":52,"rain":0.0,"pressure":814.4,"uv_index":9.55,"wind_gusts":47.9,"aqi":58,"pm10":20.1,"pm2_5":13.8,"no2":77.5,"co":263.0,"o3":51.0,"so2":0.2,"mosquito_risk":0,"arthritis_risk":5,"migraine_risk":7,"frizz_risk":0,"updated_at":"2026-05-28T00:57:17.049140+05:30"},{"city":"Gurgaon","state":"Haryana","latitude":28.4595,"longitude":77.0266,"temp":32.2,"humidity":31,"rain":0.0,"pressure":975.0,"uv_index":7.85,"wind_gusts":39.6,"aqi":920,"pm10":635.2,"pm2_5":147.6,"no2":78.8,"co":1171.0,"o3":18.0,"so2":25.5,"mosquito_risk":0,"arthritis_risk":5,"migraine_risk":7,"frizz_risk":0,"updated_at":"2026-05-28T00:57:17.049147+05:30"},{"city":"Noida","state":"Uttar Pradesh","latitude":28.5355,"longitude":77.391,"temp":32.2,"humidity":38,"rain":0.0,"pressure":978.3,"uv_index":7.75,"wind_gusts":59.0,"aqi":920,"pm10":635.2,"pm2_5":147.6,"no2":78.8,"co":1211.0,"o3":18.0,"so2":25.5,"mosquito_risk":0,"arthritis_risk":5,"migraine_risk":7,"frizz_risk":0,"updated_at":"2026-05-28T00:57:17.049154+05:30"},{"city":"Ghaziabad","state":"Uttar Pradesh","latitude":28.6692,"longitude":77.4538,"temp":31.4,"humidity":42,"rain":0.0,"pressure":976.6,"uv_index":7.75,"wind_gusts":69.1,"aqi":392,"pm10":903.4,"pm2_5":177.0,"no2":37.9,"co":643.0,"o3":58.0,"so2":22.2,"mosquito_risk":0,"arthritis_risk":5,"migraine_risk":7,"frizz_risk":1,"updated_at":"2026-05-28T00:57:17.049160+05:30"},{"city":"Faridabad","state":"Haryana","latitude":28.4089,"longitude":77.3178,"temp":34.2,"humidity":25,"rain":0.0,"pressure":977.7,"uv_index":7.8,"wind_gusts":63.7,"aqi":920,"pm10":635.2,"pm2_5":147.6,"no2":78.8,"co":1057.0,"o3":18.0,"so2":25.5,"mosquito_risk":0,"arthritis_risk":5,"migraine_risk":7,"frizz_risk":0,"updated_at":"2026-05-28T00:57:17.049167+05:30"},{"city":"Meerut","state":"Uttar Pradesh","latitude":28.9845,"longitude":77.7064,"temp":28.8,"humidity":48,"rain":0.0,"pressure":975.5,"uv_index":7.65,"wind_gusts":46.1,"aqi":392,"pm10":903.4,"pm2_5":177.0,"no2":37.9,"co":847.0,"o3":58.0,"so2":22.2,"mosquito_risk":4,"arthritis_risk":5,"migraine_risk":7,"frizz_risk":1,"updated_at":"2026-05-28T00:57:17.049173+05:30"},{"city":"Agra","state":"Uttar Pradesh","latitude":27.1767,"longitude":78.0081,"temp":33.5,"humidity":26,"rain":0.0,"pressure":982.2,"uv_index":8.1,"wind_gusts":56.5,"aqi":703,"pm10":724.6,"pm2_5":143.9,"no2":56.6,"co":576.0,"o3":35.0,"so2":21.5,"mosquito_risk":0,"arthritis_risk":5,"migraine_risk":7,"frizz_risk":0,"updated_at":"2026-05-28T00:57:17.049183+05:30"},{"city":"Varanasi","state":"Uttar Pradesh","latitude":25.3176,"longitude":82.9739,"temp":31.0,"humidity":55,"rain":0.0,"pressure":993.5,"uv_index":8.7,"wind_gusts":36.7,"aqi":163,"pm10":57.9,"pm2_5":51.1,"no2":8.1,"co":391.0,"o3":147.0,"so2":19.4,"mosquito_risk":0,"arthritis_risk":5,"migraine_risk":7,"frizz_risk":1,"updated_at":"2026-05-28T00:57:17.049190+05:30"},{"city":"Prayagraj","state":"Uttar Pradesh","latitude":25.4358,"longitude":81.8463,"temp":32.8,"humidity":50,"rain":0.0,"pressure":991.5,"uv_index":8.6,"wind_gusts":33.8,"aqi":131,"pm10":62.9,"pm2_5":49.6,"no2":8.8,"co":425.0,"o3":148.0,"so2":15.7,"mosquito_risk":0,"arthritis_risk":5,"migraine_risk":7,"frizz_risk":1,"updated_at":"2026-05-28T00:57:17.049197+05:30"},{"city":"Gorakhpur","state":"Uttar Pradesh","latitude":26.7606,"longitude":83.3732,"temp":27.9,"humidity":65,"rain":0.0,"pressure":995.3,"uv_index":8.6,"wind_gusts":40.7,"aqi":137,"pm10":34.8,"pm2_5":30.0,"no2":9.4,"co":376.0,"o3":112.0,"so2":10.9,"mosquito_risk":7,"arthritis_risk":5,"migraine_risk":7,"frizz_risk":1,"updated_at":"2026-05-28T00:57:17.049206+05:30"},{"city":"Bareilly","state":"Uttar Pradesh","latitude":28.367,"longitude":79.4304,"temp":29.5,"humidity":58,"rain":0.0,"pressure":982.2,"uv_index":8.05,"wind_gusts":75.6,"aqi":119,"pm10":45.9,"pm2_5":33.5,"no2":17.3,"co":527.0,"o3":89.0,"so2":9.0,"mosquito_risk":4,"arthritis_risk":5,"migraine_risk":7,"frizz_risk":1,"updated_at":"2026-05-28T00:57:17.049213+05:30"},{"city":"Aligarh","state":"Uttar Pradesh","latitude":27.8974,"longitude":78.088,"temp":31.5,"humidity":37,"rain":0.0,"pressure":979.5,"uv_index":7.9,"wind_gusts":57.2,"aqi":621,"pm10":670.6,"pm2_5":154.1,"no2":44.2,"co":600.0,"o3":46.0,"so2":13.5,"mosquito_risk":0,"arthritis_risk":5,"migraine_risk":7,"frizz_risk":0,"updated_at":"2026-05-28T00:57:17.049219+05:30"},{"city":"Moradabad","state":"Uttar Pradesh","latitude":28.8386,"longitude":78.7733,"temp":29.9,"humidity":52,"rain":0.0,"pressure":978.6,"uv_index":7.85,"wind_gusts":82.4,"aqi":127,"pm10":52.5,"pm2_5":51.5,"no2":30.7,"co":574.0,"o3":80.0,"so2":16.0,"mosquito_risk":4,"arthritis_risk":5,"migraine_risk":7,"frizz_risk":1,"updated_at":"2026-05-28T00:57:17.049226+05:30"},{"city":"Saharanpur","state":"Uttar Pradesh","latitude":29.9637,"longitude":77.546,"temp":30.2,"humidity":43,"rain":0.0,"pressure":969.8,"uv_index":7.5,"wind_gusts":46.4,"aqi":103,"pm10":168.6,"pm2_5":55.9,"no2":28.5,"co":467.0,"o3":69.0,"so2":11.5,"mosquito_risk":0,"arthritis_risk":5,"migraine_risk":7,"frizz_risk":1,"updated_at":"2026-05-28T00:57:17.049232+05:30"},{"city":"Jhansi","state":"Uttar Pradesh","latitude":25.4484,"longitude":78.5685,"temp":33.7,"humidity":28,"rain":0.0,"pressure":972.7,"uv_index":8.45,"wind_gusts":46.4,"aqi":74,"pm10":34.2,"pm2_5":20.0,"no2":6.6,"co":171.0,"o3":60.0,"so2":3.0,"mosquito_risk":0,"arthritis_risk":5,"migraine_risk":7,"frizz_risk":0,"updated_at":"2026-05-28T00:57:20.324031+05:30"},{"city":"Surat","state":"Gujarat","latitude":21.1702,"longitude":72.8311,"temp":29.8,"humidity":77,"rain":0.0,"pressure":1007.0,"uv_index":7.7,"wind_gusts":50.0,"aqi":79,"pm10":45.1,"pm2_5":22.8,"no2":14.7,"co":248.0,"o3":40.0,"so2":25.2,"mosquito_risk":7,"arthritis_risk":5,"migraine_risk":4,"frizz_risk":1,"updated_at":"2026-05-28T00:57:20.324062+05:30"},{"city":"Vadodara","state":"Gujarat","latitude":22.3072,"longitude":73.1812,"temp":29.8,"humidity":78,"rain":0.0,"pressure":1003.7,"uv_index":8.05,"wind_gusts":45.4,"aqi":76,"pm10":37.0,"pm2_5":23.7,"no2":21.9,"co":206.0,"o3":28.0,"so2":24.7,"mosquito_risk":7,"arthritis_risk":5,"migraine_risk":4,"frizz_risk":1,"updated_at":"2026-05-28T00:57:20.324073+05:30"},{"city":"Rajkot","state":"Gujarat","latitude":22.3039,"longitude":70.8022,"temp":28.6,"humidity":76,"rain":0.0,"pressure":994.0,"uv_index":7.7,"wind_gusts":48.2,"aqi":69,"pm10":39.0,"pm2_5":20.7,"no2":5.0,"co":122.0,"o3":45.0,"so2":5.2,"mosquito_risk":7,"arthritis_risk":5,"migraine_risk":7,"frizz_risk":1,"updated_at":"2026-05-28T00:57:20.324083+05:30"},{"city":"Thane","state":"Maharashtra","latitude":19.2183,"longitude":72.9781,"temp":30.1,"humidity":73,"rain":0.0,"pressure":1008.6,"uv_index":7.8,"wind_gusts":37.8,"aqi":41,"pm10":27.1,"pm2_5":11.9,"no2":5.7,"co":184.0,"o3":47.0,"so2":3.9,"mosquito_risk":3,"arthritis_risk":0,"migraine_risk":4,"frizz_risk":1,"updated_at":"2026-05-28T00:57:20.324092+05:30"},{"city":"Nagpur","state":"Maharashtra","latitude":21.1458,"longitude":79.0882,"temp":34.8,"humidity":19,"rain":0.0,"pressure":970.0,"uv_index":8.8,"wind_gusts":43.2,"aqi":69,"pm10":27.3,"pm2_5":18.7,"no2":14.5,"co":255.0,"o3":64.0,"so2":8.8,"mosquito_risk":0,"arthritis_risk":5,"migraine_risk":7,"frizz_risk":0,"updated_at":"2026-05-28T00:57:20.324100+05:30"},{"city":"Nashik","state":"Maharashtra","latitude":19.9975,"longitude":73.7898,"temp":24.1,"humidity":89,"rain":0.0,"pressure":946.3,"uv_index":8.15,"wind_gusts":39.6,"aqi":37,"pm10":19.8,"pm2_5":10.6,"no2":7.7,"co":144.0,"o3":42.0,"so2":4.3,"mosquito_risk":3,"arthritis_risk":5,"migraine_risk":7,"frizz_risk":1,"updated_at":"2026-05-28T00:57:20.324109+05:30"},{"city":"Aurangabad","state":"Maharashtra","latitude":19.8762,"longitude":75.3433,"temp":28.6,"humidity":62,"rain":0.0,"pressure":944.5,"uv_index":9.0,"wind_gusts":44.3,"aqi":45,"pm10":22.6,"pm2_5":15.1,"no2":7.3,"co":142.0,"o3":56.0,"so2":4.4,"mosquito_risk":7,"arthritis_risk":5,"migraine_risk":7,"frizz_risk":1,"updated_at":"2026-05-28T00:57:20.324118+05:30"},{"city":"Solapur","state":"Maharashtra","latitude":17.6599,"longitude":75.9064,"temp":29.6,"humidity":54,"rain":0.0,"pressure":957.5,"uv_index":8.95,"wind_gusts":38.2,"aqi":50,"pm10":15.3,"pm2_5":13.5,"no2":16.4,"co":193.0,"o3":60.0,"so2":5.9,"mosquito_risk":4,"arthritis_risk":5,"migraine_risk":7,"frizz_risk":1,"updated_at":"2026-05-28T00:57:20.324127+05:30"},{"city":"Kolhapur","state":"Maharashtra","latitude":16.705,"longitude":74.2433,"temp":25.0,"humidity":88,"rain":0.0,"pressure":949.3,"uv_index":8.8,"wind_gusts":43.6,"aqi":33,"pm10":8.1,"pm2_5":6.3,"no2":5.7,"co":169.0,"o3":44.0,"so2":2.3,"mosquito_risk":7,"arthritis_risk":5,"migraine_risk":7,"frizz_risk":1,"updated_at":"2026-05-28T00:57:20.324135+05:30"},{"city":"Goa","state":"Goa","latitude":15.2993,"longitude":74.124,"temp":27.0,"humidity":95,"rain":0.0,"pressure":999.3,"uv_index":7.05,"wind_gusts":25.9,"aqi":37,"pm10":15.5,"pm2_5":12.0,"no2":5.9,"co":421.0,"o3":40.0,"so2":1.7,"mosquito_risk":7,"arthritis_risk":5,"migraine_risk":7,"frizz_risk":1,"updated_at":"2026-05-28T00:57:20.324144+05:30"},{"city":"Jodhpur","state":"Rajasthan","latitude":26.2389,"longitude":73.0243,"temp":34.3,"humidity":33,"rain":0.0,"pressure":979.6,"uv_index":8.4,"wind_gusts":51.1,"aqi":164,"pm10":214.2,"pm2_5":48.3,"no2":5.2,"co":167.0,"o3":63.0,"so2":2.3,"mosquito_risk":0,"arthritis_risk":5,"migraine_risk":7,"frizz_risk":0,"updated_at":"2026-05-28T00:57:20.324152+05:30"},{"city":"Udaipur","state":"Rajasthan","latitude":24.5854,"longitude":73.7125,"temp":31.9,"humidity":36,"rain":0.0,"pressure":945.3,"uv_index":8.8,"wind_gusts":50.8,"aqi":65,"pm10":52.7,"pm2_5":20.7,"no2":3.9,"co":146.0,"o3":73.0,"so2":2.6,"mosquito_risk":0,"arthritis_risk":5,"migraine_risk":7,"frizz_risk":0,"updated_at":"2026-05-28T00:57:20.324161+05:30"},{"city":"Kota","state":"Rajasthan","latitude":25.2138,"longitude":75.8648,"temp":35.4,"humidity":26,"rain":0.0,"pressure":975.7,"uv_index":8.35,"wind_gusts":44.6,"aqi":74,"pm10":43.2,"pm2_5":24.6,"no2":8.3,"co":190.0,"o3":62.0,"so2":5.2,"mosquito_risk":0,"arthritis_risk":5,"migraine_risk":10,"frizz_risk":0,"updated_at":"2026-05-28T00:57:20.324170+05:30"},{"city":"Bikaner","state":"Rajasthan","latitude":28.0229,"longitude":73.3119,"temp":36.6,"humidity":20,"rain":0.0,"pressure":977.1,"uv_index":8.45,"wind_gusts":43.9,"aqi":136,"pm10":182.1,"pm2_5":56.9,"no2":2.2,"co":134.0,"o3":85.0,"so2":4.1,"mosquito_risk":0,"arthritis_risk":5,"migraine_risk":10,"frizz_risk":0,"updated_at":"2026-05-28T00:57:20.324179+05:30"},{"city":"Ajmer","state":"Rajasthan","latitude":26.4499,"longitude":74.6399,"temp":33.0,"humidity":32,"rain":0.0,"pressure":951.9,"uv_index":8.35,"wind_gusts":54.4,"aqi":73,"pm10":68.0,"pm2_5":23.7,"no2":4.8,"co":165.0,"o3":78.0,"so2":4.3,"mosquito_risk":0,"arthritis_risk":5,"migraine_risk":7,"frizz_risk":0,"updated_at":"2026-05-28T00:57:20.324187+05:30"},{"city":"Gwalior","state":"Madhya Pradesh","latitude":26.2183,"longitude":78.1828,"temp":35.7,"humidity":22,"rain":0.0,"pressure":977.7,"uv_index":8.25,"wind_gusts":49.3,"aqi":91,"pm10":48.2,"pm2_5":28.6,"no2":16.8,"co":239.0,"o3":47.0,"so2":6.5,"mosquito_risk":0,"arthritis_risk":5,"migraine_risk":10,"frizz_risk":0,"updated_at":"2026-05-28T00:57:20.324195+05:30"},{"city":"Indore","state":"Madhya Pradesh","latitude":22.7196,"longitude":75.8577,"temp":32.0,"humidity":38,"rain":0.0,"pressure":947.0,"uv_index":8.65,"wind_gusts":46.1,"aqi":67,"pm10":51.8,"pm2_5":27.6,"no2":5.8,"co":248.0,"o3":94.0,"so2":7.7,"mosquito_risk":0,"arthritis_risk":5,"migraine_risk":7,"frizz_risk":0,"updated_at":"2026-05-28T00:57:20.324203+05:30"},{"city":"Bhopal","state":"Madhya Pradesh","latitude":23.2599,"longitude":77.4126,"temp":33.5,"humidity":27,"rain":0.0,"pressure":951.4,"uv_index":8.7,"wind_gusts":38.5,"aqi":67,"pm10":34.6,"pm2_5":21.9,"no2":6.5,"co":180.0,"o3":72.0,"so2":4.8,"mosquito_risk":0,"arthritis_risk":5,"migraine_risk":7,"frizz_risk":0,"updated_at":"2026-05-28T00:57:20.324211+05:30"},{"city":"Jabalpur","state":"Madhya Pradesh","latitude":23.1815,"longitude":79.9864,"temp":33.2,"humidity":23,"rain":0.0,"pressure":957.8,"uv_index":8.85,"wind_gusts":36.4,"aqi":75,"pm10":47.1,"pm2_5":26.5,"no2":16.7,"co":241.0,"o3":59.0,"so2":5.1,"mosquito_risk":0,"arthritis_risk":5,"migraine_risk":7,"frizz_risk":0,"updated_at":"2026-05-28T00:57:20.324219+05:30"},{"city":"Ujjain","state":"Madhya Pradesh","latitude":23.1765,"longitude":75.7885,"temp":32.5,"humidity":31,"rain":0.0,"pressure":952.3,"uv_index":8.6,"wind_gusts":47.9,"aqi":69,"pm10":57.3,"pm2_5":28.9,"no2":4.2,"co":225.0,"o3":96.0,"so2":7.7,"mosquito_risk":0,"arthritis_risk":5,"migraine_risk":7,"frizz_risk":0,"updated_at":"2026-05-28T00:57:20.324228+05:30"},{"city":"Visakhapatnam","state":"Andhra Pradesh","latitude":17.6868,"longitude":83.2185,"temp":31.7,"humidity":74,"rain":0.0,"pressure":1000.4,"uv_index":9.0,"wind_gusts":45.0,"aqi":138,"pm10":52.0,"pm2_5":41.6,"no2":30.5,"co":599.0,"o3":74.0,"so2":31.7,"mosquito_risk":3,"arthritis_risk":5,"migraine_risk":4,"frizz_risk":1,"updated_at":"2026-05-28T00:57:20.324236+05:30"},{"city":"Vijayawada","state":"Andhra Pradesh","latitude":16.5062,"longitude":80.648,"temp":31.5,"humidity":57,"rain":0.0,"pressure":1000.4,"uv_index":8.65,"wind_gusts":32.8,"aqi":85,"pm10":45.3,"pm2_5":39.8,"no2":19.2,"co":421.0,"o3":70.0,"so2":8.4,"mosquito_risk":0,"arthritis_risk":5,"migraine_risk":4,"frizz_risk":1,"updated_at":"2026-05-28T00:57:20.324244+05:30"},{"city":"Guntur","state":"Andhra Pradesh","latitude":16.3067,"longitude":80.4365,"temp":30.7,"humidity":60,"rain":0.0,"pressure":1001.8,"uv_index":8.3,"wind_gusts":30.2,"aqi":76,"pm10":42.3,"pm2_5":35.7,"no2":19.2,"co":320.0,"o3":70.0,"so2":8.6,"mosquito_risk":0,"arthritis_risk":5,"migraine_risk":4,"frizz_risk":1,"updated_at":"2026-05-28T00:57:20.324253+05:30"},{"city":"Nellore","state":"Andhra Pradesh","latitude":14.4426,"longitude":79.9865,"temp":28.5,"humidity":63,"rain":0.0,"pressure":1005.3,"uv_index":9.0,"wind_gusts":36.7,"aqi":91,"pm10":33.3,"pm2_5":31.0,"no2":10.8,"co":288.0,"o3":116.0,"so2":10.7,"mosquito_risk":7,"arthritis_risk":5,"migraine_risk":4,"frizz_risk":1,"updated_at":"2026-05-28T00:57:20.324262+05:30"},{"city":"Kurnool","state":"Andhra Pradesh","latitude":15.8281,"longitude":78.0373,"temp":27.5,"humidity":65,"rain":0.0,"pressure":976.9,"uv_index":9.0,"wind_gusts":60.1,"aqi":60,"pm10":17.0,"pm2_5":15.3,"no2":14.4,"co":231.0,"o3":62.0,"so2":7.9,"mosquito_risk":7,"arthritis_risk":5,"migraine_risk":7,"frizz_risk":1,"updated_at":"2026-05-28T00:57:20.324270+05:30"},{"city":"Kakinada","state":"Andhra Pradesh","latitude":16.9891,"longitude":82.2475,"temp":31.3,"humidity":69,"rain":0.0,"pressure":1004.6,"uv_index":9.0,"wind_gusts":40.0,"aqi":107,"pm10":33.6,"pm2_5":26.6,"no2":6.8,"co":383.0,"o3":117.0,"so2":4.8,"mosquito_risk":3,"arthritis_risk":5,"migraine_risk":4,"frizz_risk":1,"updated_at":"2026-05-28T00:57:20.324279+05:30"},{"city":"Tirupati","state":"Andhra Pradesh","latitude":13.6288,"longitude":79.4192,"temp":26.6,"humidity":77,"rain":0.0,"pressure":991.3,"uv_index":9.05,"wind_gusts":41.8,"aqi":75,"pm10":48.5,"pm2_5":41.7,"no2":37.3,"co":460.0,"o3":43.0,"so2":9.5,"mosquito_risk":7,"arthritis_risk":5,"migraine_risk":7,"frizz_risk":1,"updated_at":"2026-05-28T00:57:20.324287+05:30"},{"city":"Warangal","state":"Telangana","latitude":17.9689,"longitude":79.5941,"temp":30.5,"humidity":57,"rain":0.0,"pressure":976.4,"uv_index":9.05,"wind_gusts":32.4,"aqi":86,"pm10":41.0,"pm2_5":35.4,"no2":21.0,"co":438.0,"o3":56.0,"so2":6.9,"mosquito_risk":0,"arthritis_risk":5,"migraine_risk":7,"frizz_risk":1,"updated_at":"2026-05-28T00:57:20.324295+05:30"},{"city":"Nizamabad","state":"Telangana","latitude":18.6725,"longitude":78.0941,"temp":30.5,"humidity":54,"rain":0.0,"pressure":963.3,"uv_index":9.0,"wind_gusts":34.6,"aqi":64,"pm10":41.4,"pm2_5":31.9,"no2":24.6,"co":359.0,"o3":45.0,"so2":5.8,"mosquito_risk":0,"arthritis_risk":5,"migraine_risk":7,"frizz_risk":1,"updated_at":"2026-05-28T00:57:20.324303+05:30"},{"city":"Mysore","state":"Karnataka","latitude":12.2958,"longitude":76.6396,"temp":22.6,"humidity":91,"rain":0.0,"pressure":929.7,"uv_index":9.1,"wind_gusts":41.8,"aqi":52,"pm10":7.5,"pm2_5":7.1,"no2":8.4,"co":198.0,"o3":58.0,"so2":2.5,"mosquito_risk":3,"arthritis_risk":5,"migraine_risk":7,"frizz_risk":1,"updated_at":"2026-05-28T00:57:20.324312+05:30"},{"city":"Mangalore","state":"Karnataka","latitude":12.9141,"longitude":74.856,"temp":25.8,"humidity":96,"rain":0.0,"pressure":1008.6,"uv_index":8.65,"wind_gusts":32.8,"aqi":52,"pm10":15.0,"pm2_5":12.8,"no2":13.4,"co":309.0,"o3":37.0,"so2":3.8,"mosquito_risk":7,"arthritis_risk":0,"migraine_risk":4,"frizz_risk":1,"updated_at":"2026-05-28T00:57:20.324320+05:30"},{"city":"Hubli-Dharwad","state":"Karnataka","latitude":15.3647,"longitude":75.124,"temp":24.4,"humidity":93,"rain":0.0,"pressure":942.2,"uv_index":9.0,"wind_gusts":45.4,"aqi":31,"pm10":6.0,"pm2_5":5.0,"no2":6.9,"co":154.0,"o3":39.0,"so2":1.5,"mosquito_risk":3,"arthritis_risk":5,"migraine_risk":7,"frizz_risk":1,"updated_at":"2026-05-28T00:57:20.324328+05:30"},{"city":"Belgaum","state":"Karnataka","latitude":15.8497,"longitude":74.4977,"temp":23.1,"humidity":98,"rain":0.0,"pressure":926.8,"uv_index":9.0,"wind_gusts":36.4,"aqi":30,"pm10":8.3,"pm2_5":6.7,"no2":7.1,"co":148.0,"o3":37.0,"so2":1.6,"mosquito_risk":3,"arthritis_risk":5,"migraine_risk":7,"frizz_risk":1,"updated_at":"2026-05-28T00:57:23.629351+05:30"},{"city":"Coimbatore","state":"Tamil Nadu","latitude":11.0168,"longitude":76.9558,"temp":25.5,"humidity":82,"rain":0.0,"pressure":963.1,"uv_index":8.4,"wind_gusts":46.1,"aqi":36,"pm10":6.1,"pm2_5":5.4,"no2":5.3,"co":171.0,"o3":62.0,"so2":2.5,"mosquito_risk":7,"arthritis_risk":5,"migraine_risk":7,"frizz_risk":1,"updated_at":"2026-05-28T00:57:23.629382+05:30"},{"city":"Madurai","state":"Tamil Nadu","latitude":9.9252,"longitude":78.1198,"temp":28.4,"humidity":71,"rain":0.0,"pressure":993.7,"uv_index":7.9,"wind_gusts":51.5,"aqi":89,"pm10":37.0,"pm2_5":33.8,"no2":37.3,"co":167.0,"o3":22.0,"so2":6.6,"mosquito_risk":7,"arthritis_risk":5,"migraine_risk":7,"frizz_risk":1,"updated_at":"2026-05-28T00:57:23.629393+05:30"},{"city":"Trichy","state":"Tamil Nadu","latitude":10.7905,"longitude":78.7047,"temp":29.2,"humidity":67,"rain":0.0,"pressure":999.9,"uv_index":7.95,"wind_gusts":44.3,"aqi":55,"pm10":20.8,"pm2_5":18.7,"no2":16.4,"co":226.0,"o3":55.0,"so2":4.8,"mosquito_risk":7,"arthritis_risk":5,"migraine_risk":7,"frizz_risk":1,"updated_at":"2026-05-28T00:57:23.629402+05:30"},{"city":"Salem","state":"Tamil Nadu","latitude":11.6643,"longitude":78.146,"temp":28.6,"humidity":65,"rain":0.0,"pressure":978.0,"uv_index":8.0,"wind_gusts":36.0,"aqi":69,"pm10":12.4,"pm2_5":11.1,"no2":14.8,"co":300.0,"o3":47.0,"so2":6.4,"mosquito_risk":7,"arthritis_risk":5,"migraine_risk":7,"frizz_risk":1,"updated_at":"2026-05-28T00:57:23.629410+05:30"},{"city":"Tirunelveli","state":"Tamil Nadu","latitude":8.7139,"longitude":77.7567,"temp":28.6,"humidity":69,"rain":0.0,"pressure":1004.2,"uv_index":7.8,"wind_gusts":41.8,"aqi":26,"pm10":9.9,"pm2_5":8.3,"no2":8.5,"co":190.0,"o3":38.0,"so2":2.0,"mosquito_risk":7,"arthritis_risk":5,"migraine_risk":4,"frizz_risk":1,"updated_at":"2026-05-28T00:57:23.629418+05:30"},{"city":"Vellore","state":"Tamil Nadu","latitude":12.9165,"longitude":79.1325,"temp":26.0,"humidity":87,"rain":0.0,"pressure":984.5,"uv_index":8.85,"wind_gusts":34.2,"aqi":87,"pm10":43.5,"pm2_5":36.9,"no2":25.4,"co":309.0,"o3":61.0,"so2":14.3,"mosquito_risk":7,"arthritis_risk":5,"migraine_risk":7,"frizz_risk":1,"updated_at":"2026-05-28T00:57:23.629427+05:30"},{"city":"Erode","state":"Tamil Nadu","latitude":11.341,"longitude":77.7172,"temp":27.2,"humidity":76,"rain":0.0,"pressure":989.5,"uv_index":8.05,"wind_gusts":39.2,"aqi":51,"pm10":7.6,"pm2_5":7.1,"no2":11.3,"co":200.0,"o3":48.0,"so2":3.8,"mosquito_risk":7,"arthritis_risk":5,"migraine_risk":7,"frizz_risk":1,"updated_at":"2026-05-28T00:57:23.629435+05:30"},{"city":"Kochi","state":"Kerala","latitude":9.9312,"longitude":76.2673,"temp":25.9,"humidity":99,"rain":0.0,"pressure":1010.7,"uv_index":6.4,"wind_gusts":25.9,"aqi":52,"pm10":17.5,"pm2_5":15.8,"no2":19.6,"co":336.0,"o3":22.0,"so2":5.4,"mosquito_risk":7,"arthritis_risk":0,"migraine_risk":4,"frizz_risk":1,"updated_at":"2026-05-28T00:57:23.629443+05:30"},{"city":"Thiruvananthapuram","state":"Kerala","latitude":8.5241,"longitude":76.9366,"temp":25.0,"humidity":96,"rain":0.0,"pressure":1010.2,"uv_index":6.55,"wind_gusts":33.1,"aqi":26,"pm10":13.0,"pm2_5":7.6,"no2":4.3,"co":324.0,"o3":50.0,"so2":1.8,"mosquito_risk":7,"arthritis_risk":0,"migraine_risk":4,"frizz_risk":1,"updated_at":"2026-05-28T00:57:23.629450+05:30"},{"city":"Kozhikode","state":"Kerala","latitude":11.2588,"longitude":75.7804,"temp":25.2,"humidity":100,"rain":0.0,"pressure":1010.1,"uv_index":8.3,"wind_gusts":31.7,"aqi":30,"pm10":8.8,"pm2_5":6.3,"no2":3.3,"co":636.0,"o3":57.0,"so2":1.9,"mosquito_risk":7,"arthritis_risk":0,"migraine_risk":4,"frizz_risk":1,"updated_at":"2026-05-28T00:57:23.629458+05:30"},{"city":"Thrissur","state":"Kerala","latitude":10.5276,"longitude":76.2144,"temp":24.6,"humidity":100,"rain":0.0,"pressure":1009.1,"uv_index":7.45,"wind_gusts":28.8,"aqi":48,"pm10":16.2,"pm2_5":14.8,"no2":16.4,"co":262.0,"o3":28.0,"so2":5.4,"mosquito_risk":3,"arthritis_risk":0,"migraine_risk":4,"frizz_risk":1,"updated_at":"2026-05-28T00:57:23.629467+05:30"},{"city":"Kannur","state":"Kerala","latitude":11.8745,"longitude":75.3704,"temp":26.1,"humidity":94,"rain":0.1,"pressure":1009.2,"uv_index":8.65,"wind_gusts":32.0,"aqi":45,"pm10":10.4,"pm2_5":8.7,"no2":8.9,"co":253.0,"o3":42.0,"so2":2.8,"mosquito_risk":10,"arthritis_risk":0,"migraine_risk":4,"frizz_risk":1,"updated_at":"2026-05-28T00:57:23.629475+05:30"},{"city":"Patna","state":"Bihar","latitude":25.5941,"longitude":85.1376,"temp":27.5,"humidity":68,"rain":0.0,"pressure":998.3,"uv_index":8.75,"wind_gusts":45.0,"aqi":105,"pm10":37.1,"pm2_5":33.3,"no2":11.4,"co":340.0,"o3":105.0,"so2":18.3,"mosquito_risk":7,"arthritis_risk":5,"migraine_risk":7,"frizz_risk":1,"updated_at":"2026-05-28T00:57:23.629482+05:30"},{"city":"Gaya","state":"Bihar","latitude":24.7914,"longitude":85.0002,"temp":29.2,"humidity":62,"rain":0.0,"pressure":991.0,"uv_index":8.8,"wind_gusts":37.4,"aqi":137,"pm10":40.3,"pm2_5":37.3,"no2":9.1,"co":390.0,"o3":111.0,"so2":15.8,"mosquito_risk":7,"arthritis_risk":5,"migraine_risk":7,"frizz_risk":1,"updated_at":"2026-05-28T00:57:23.629490+05:30"},{"city":"Muzaffarpur","state":"Bihar","latitude":26.1209,"longitude":85.3647,"temp":26.2,"humidity":76,"rain":0.0,"pressure":999.0,"uv_index":8.7,"wind_gusts":38.5,"aqi":90,"pm10":31.5,"pm2_5":27.9,"no2":11.5,"co":371.0,"o3":97.0,"so2":12.3,"mosquito_risk":7,"arthritis_risk":5,"migraine_risk":7,"frizz_risk":1,"updated_at":"2026-05-28T00:57:23.629497+05:30"},{"city":"Bhagalpur","state":"Bihar","latitude":25.2425,"longitude":87.0117,"temp":26.1,"humidity":81,"rain":0.0,"pressure":1000.2,"uv_index":8.65,"wind_gusts":46.4,"aqi":99,"pm10":31.4,"pm2_5":28.7,"no2":13.8,"co":344.0,"o3":85.0,"so2":11.8,"mosquito_risk":7,"arthritis_risk":5,"migraine_risk":4,"frizz_risk":1,"updated_at":"2026-05-28T00:57:23.629504+05:30"},{"city":"Ranchi","state":"Jharkhand","latitude":23.3441,"longitude":85.3096,"temp":24.4,"humidity":66,"rain":0.0,"pressure":934.7,"uv_index":9.05,"wind_gusts":45.0,"aqi":126,"pm10":67.5,"pm2_5":57.7,"no2":11.4,"co":333.0,"o3":128.0,"so2":33.9,"mosquito_risk":3,"arthritis_risk":5,"migraine_risk":7,"frizz_risk":1,"updated_at":"2026-05-28T00:57:23.629512+05:30"},{"city":"Jamshedpur","state":"Jharkhand","latitude":22.8046,"longitude":86.2029,"temp":27.2,"humidity":78,"rain":0.0,"pressure":988.4,"uv_index":9.05,"wind_gusts":58.3,"aqi":153,"pm10":45.9,"pm2_5":40.9,"no2":9.6,"co":259.0,"o3":99.0,"so2":11.6,"mosquito_risk":7,"arthritis_risk":5,"migraine_risk":7,"frizz_risk":1,"updated_at":"2026-05-28T00:57:23.629520+05:30"},{"city":"Dhanbad","state":"Jharkhand","latitude":23.7957,"longitude":86.4304,"temp":25.1,"humidity":82,"rain":0.0,"pressure":977.9,"uv_index":9.0,"wind_gusts":42.1,"aqi":160,"pm10":88.9,"pm2_5":77.3,"no2":38.1,"co":814.0,"o3":74.0,"so2":80.5,"mosquito_risk":7,"arthritis_risk":5,"migraine_risk":7,"frizz_risk":1,"updated_at":"2026-05-28T00:57:23.629528+05:30"},{"city":"Bokaro","state":"Jharkhand","latitude":23.6693,"longitude":86.1511,"temp":26.0,"humidity":80,"rain":0.0,"pressure":981.6,"uv_index":9.0,"wind_gusts":45.4,"aqi":161,"pm10":96.9,"pm2_5":85.9,"no2":40.8,"co":793.0,"o3":80.0,"so2":94.8,"mosquito_risk":7,"arthritis_risk":5,"migraine_risk":7,"frizz_risk":1,"updated_at":"2026-05-28T00:57:23.629535+05:30"},{"city":"Bhubaneswar","state":"Odisha","latitude":20.2961,"longitude":85.8245,"temp":27.8,"humidity":90,"rain":0.0,"pressure":1000.1,"uv_index":9.05,"wind_gusts":39.2,"aqi":102,"pm10":41.6,"pm2_5":33.4,"no2":9.3,"co":329.0,"o3":90.0,"so2":5.7,"mosquito_risk":7,"arthritis_risk":5,"migraine_risk":4,"frizz_risk":1,"updated_at":"2026-05-28T00:57:23.629543+05:30"},{"city":"Cuttack","state":"Odisha","latitude":20.4625,"longitude":85.8828,"temp":27.4,"humidity":90,"rain":0.0,"pressure":1001.9,"uv_index":9.1,"wind_gusts":35.6,"aqi":102,"pm10":41.6,"pm2_5":33.4,"no2":9.3,"co":355.0,"o3":90.0,"so2":5.7,"mosquito_risk":7,"arthritis_risk":5,"migraine_risk":4,"frizz_risk":1,"updated_at":"2026-05-28T00:57:23.629551+05:30"},{"city":"Rourkela","state":"Odisha","latitude":22.2604,"longitude":84.8536,"temp":27.6,"humidity":76,"rain":0.0,"pressure":982.3,"uv_index":8.9,"wind_gusts":24.5,"aqi":150,"pm10":81.5,"pm2_5":58.7,"no2":30.5,"co":593.0,"o3":59.0,"so2":26.4,"mosquito_risk":7,"arthritis_risk":5,"migraine_risk":7,"frizz_risk":1,"updated_at":"2026-05-28T00:57:23.629558+05:30"},{"city":"Raipur","state":"Chhattisgarh","latitude":21.2514,"longitude":81.6296,"temp":34.2,"humidity":28,"rain":0.0,"pressure":970.4,"uv_index":8.95,"wind_gusts":34.6,"aqi":100,"pm10":47.7,"pm2_5":36.0,"no2":34.0,"co":547.0,"o3":56.0,"so2":50.6,"mosquito_risk":0,"arthritis_risk":5,"migraine_risk":7,"frizz_risk":0,"updated_at":"2026-05-28T00:57:23.629566+05:30"},{"city":"Bhilai","state":"Chhattisgarh","latitude":21.1938,"longitude":81.3509,"temp":32.5,"humidity":33,"rain":0.0,"pressure":971.0,"uv_index":8.95,"wind_gusts":34.9,"aqi":92,"pm10":40.2,"pm2_5":30.3,"no2":25.2,"co":629.0,"o3":66.0,"so2":37.2,"mosquito_risk":0,"arthritis_risk":5,"migraine_risk":7,"frizz_risk":0,"updated_at":"2026-05-28T00:57:23.629574+05:30"},{"city":"Guwahati","state":"Assam","latitude":26.1158,"longitude":91.7086,"temp":22.5,"humidity":96,"rain":0.0,"pressure":1001.8,"uv_index":8.75,"wind_gusts":19.4,"aqi":74,"pm10":65.0,"pm2_5":62.6,"no2":28.1,"co":548.0,"o3":20.0,"so2":0.7,"mosquito_risk":3,"arthritis_risk":5,"migraine_risk":4,"frizz_risk":1,"updated_at":"2026-05-28T00:57:23.629582+05:30"},{"city":"Agartala","state":"Tripura","latitude":23.8315,"longitude":91.2868,"temp":23.1,"humidity":96,"rain":0.0,"pressure":1005.8,"uv_index":8.85,"wind_gusts":28.8,"aqi":79,"pm10":28.6,"pm2_5":25.2,"no2":14.5,"co":324.0,"o3":43.0,"so2":2.5,"mosquito_risk":3,"arthritis_risk":5,"migraine_risk":4,"frizz_risk":1,"updated_at":"2026-05-28T00:57:23.629589+05:30"},{"city":"Shillong","state":"Meghalaya","latitude":25.5788,"longitude":91.8933,"temp":15.8,"humidity":92,"rain":0.0,"pressure":855.5,"uv_index":8.15,"wind_gusts":19.4,"aqi":51,"pm10":11.9,"pm2_5":8.7,"no2":6.9,"co":335.0,"o3":70.0,"so2":2.9,"mosquito_risk":3,"arthritis_risk":10,"migraine_risk":7,"frizz_risk":0,"updated_at":"2026-05-28T00:57:23.629596+05:30"},{"city":"Imphal","state":"Manipur","latitude":24.817,"longitude":93.9368,"temp":21.4,"humidity":98,"rain":0.0,"pressure":922.9,"uv_index":9.25,"wind_gusts":28.1,"aqi":88,"pm10":69.4,"pm2_5":56.6,"no2":42.3,"co":816.0,"o3":23.0,"so2":8.1,"mosquito_risk":3,"arthritis_risk":5,"migraine_risk":7,"frizz_risk":1,"updated_at":"2026-05-28T00:57:23.629604+05:30"},{"city":"Aizawl","state":"Mizoram","latitude":23.7271,"longitude":92.7176,"temp":17.1,"humidity":94,"rain":0.0,"pressure":891.3,"uv_index":9.05,"wind_gusts":24.1,"aqi":63,"pm10":16.9,"pm2_5":12.0,"no2":8.7,"co":320.0,"o3":29.0,"so2":0.9,"mosquito_risk":3,"arthritis_risk":10,"migraine_risk":7,"frizz_risk":1,"updated_at":"2026-05-28T00:57:23.629611+05:30"},{"city":"Kohima","state":"Nagaland","latitude":25.6701,"longitude":94.1077,"temp":17.4,"humidity":93,"rain":0.0,"pressure":854.5,"uv_index":9.2,"wind_gusts":24.1,"aqi":69,"pm10":33.6,"pm2_5":23.2,"no2":16.9,"co":352.0,"o3":26.0,"so2":1.3,"mosquito_risk":3,"arthritis_risk":10,"migraine_risk":7,"frizz_risk":1,"updated_at":"2026-05-28T00:57:23.629619+05:30"},{"city":"Gangtok","state":"Sikkim","latitude":27.3314,"longitude":88.6138,"temp":14.5,"humidity":89,"rain":0.0,"pressure":837.1,"uv_index":8.3,"wind_gusts":39.2,"aqi":62,"pm10":20.8,"pm2_5":15.7,"no2":9.5,"co":757.0,"o3":109.0,"so2":3.1,"mosquito_risk":3,"arthritis_risk":10,"migraine_risk":7,"frizz_risk":0,"updated_at":"2026-05-28T00:57:23.629626+05:30"},{"city":"Siliguri","state":"West Bengal","latitude":26.7271,"longitude":88.3953,"temp":23.0,"humidity":84,"rain":0.0,"pressure":993.1,"uv_index":6.85,"wind_gusts":25.9,"aqi":72,"pm10":45.9,"pm2_5":34.8,"no2":19.1,"co":367.0,"o3":89.0,"so2":7.6,"mosquito_risk":3,"arthritis_risk":5,"migraine_risk":7,"frizz_risk":1,"updated_at":"2026-05-28T00:57:26.923026+05:30"},{"city":"Durgapur","state":"West Bengal","latitude":23.5204,"longitude":87.3119,"temp":25.5,"humidity":93,"rain":0.0,"pressure":993.2,"uv_index":8.95,"wind_gusts":39.2,"aqi":154,"pm10":77.5,"pm2_5":65.4,"no2":23.1,"co":534.0,"o3":89.0,"so2":30.3,"mosquito_risk":7,"arthritis_risk":5,"migraine_risk":7,"frizz_risk":1,"updated_at":"2026-05-28T00:57:26.923062+05:30"},{"city":"Asansol","state":"West Bengal","latitude":23.6739,"longitude":86.9524,"temp":25.0,"humidity":93,"rain":0.0,"pressure":991.8,"uv_index":8.95,"wind_gusts":34.6,"aqi":155,"pm10":79.4,"pm2_5":68.0,"no2":26.9,"co":594.0,"o3":81.0,"so2":41.8,"mosquito_risk":7,"arthritis_risk":5,"migraine_risk":7,"frizz_risk":1,"updated_at":"2026-05-28T00:57:26.923077+05:30"},{"city":"Pondicherry","state":"Puducherry","latitude":11.9139,"longitude":79.8145,"temp":29.0,"humidity":79,"rain":0.0,"pressure":1008.1,"uv_index":7.45,"wind_gusts":51.8,"aqi":75,"pm10":12.0,"pm2_5":9.1,"no2":11.0,"co":227.0,"o3":47.0,"so2":7.3,"mosquito_risk":7,"arthritis_risk":0,"migraine_risk":4,"frizz_risk":1,"updated_at":"2026-05-28T00:57:26.923089+05:30"},{"city":"Port Blair","state":"Andaman and Nicobar Islands","latitude":11.6234,"longitude":92.7265,"temp":24.9,"humidity":96,"rain":0.1,"pressure":1007.5,"uv_index":8.6,"wind_gusts":29.5,"aqi":32,"pm10":7.6,"pm2_5":3.9,"no2":0.3,"co":117.0,"o3":74.0,"so2":0.3,"mosquito_risk":6,"arthritis_risk":5,"migraine_risk":4,"frizz_risk":1,"updated_at":"2026-05-28T00:57:26.923101+05:30"},{"city":"Haridwar","state":"Uttarakhand","latitude":29.9457,"longitude":78.1642,"temp":27.6,"humidity":47,"rain":0.0,"pressure":968.7,"uv_index":7.6,"wind_gusts":41.0,"aqi":162,"pm10":87.8,"pm2_5":45.2,"no2":21.1,"co":384.0,"o3":122.0,"so2":15.6,"mosquito_risk":4,"arthritis_risk":5,"migraine_risk":7,"frizz_risk":0,"updated_at":"2026-05-28T00:57:26.923112+05:30"},{"city":"Rishikesh","state":"Uttarakhand","latitude":30.0869,"longitude":78.2676,"temp":23.1,"humidity":62,"rain":0.0,"pressure":961.1,"uv_index":7.7,"wind_gusts":34.2,"aqi":173,"pm10":57.9,"pm2_5":38.3,"no2":16.4,"co":497.0,"o3":134.0,"so2":9.9,"mosquito_risk":3,"arthritis_risk":5,"migraine_risk":7,"frizz_risk":0,"updated_at":"2026-05-28T00:57:26.923123+05:30"},{"city":"Nainital","state":"Uttarakhand","latitude":29.3919,"longitude":79.4542,"temp":15.6,"humidity":71,"rain":0.0,"pressure":803.4,"uv_index":8.5,"wind_gusts":33.1,"aqi":140,"pm10":39.8,"pm2_5":32.8,"no2":22.6,"co":360.0,"o3":96.0,"so2":7.7,"mosquito_risk":3,"arthritis_risk":5,"migraine_risk":7,"frizz_risk":0,"updated_at":"2026-05-28T00:57:26.923133+05:30"},{"city":"Mussoorie","state":"Uttarakhand","latitude":30.4599,"longitude":78.0664,"temp":18.4,"humidity":38,"rain":0.0,"pressure":800.9,"uv_index":8.1,"wind_gusts":48.2,"aqi":133,"pm10":50.6,"pm2_5":36.6,"no2":38.8,"co":220.0,"o3":75.0,"so2":12.3,"mosquito_risk":0,"arthritis_risk":5,"migraine_risk":7,"frizz_risk":0,"updated_at":"2026-05-28T00:57:26.923143+05:30"},{"city":"Dharamshala","state":"Himachal Pradesh","latitude":32.219,"longitude":76.3234,"temp":24.3,"humidity":29,"rain":0.0,"pressure":866.7,"uv_index":8.3,"wind_gusts":39.2,"aqi":51,"pm10":24.3,"pm2_5":15.0,"no2":15.6,"co":185.0,"o3":49.0,"so2":0.8,"mosquito_risk":0,"arthritis_risk":5,"migraine_risk":7,"frizz_risk":0,"updated_at":"2026-05-28T00:57:26.923154+05:30"},{"city":"Dalhousie","state":"Himachal Pradesh","latitude":32.5387,"longitude":75.971,"temp":13.7,"humidity":52,"rain":0.0,"pressure":800.2,"uv_index":8.6,"wind_gusts":42.8,"aqi":66,"pm10":31.9,"pm2_5":23.3,"no2":45.9,"co":348.0,"o3":13.0,"so2":1.9,"mosquito_risk":0,"arthritis_risk":5,"migraine_risk":7,"frizz_risk":0,"updated_at":"2026-05-28T00:57:26.923165+05:30"},{"city":"Patiala","state":"Punjab","latitude":30.3398,"longitude":76.3869,"temp":32.5,"humidity":25,"rain":0.0,"pressure":972.1,"uv_index":7.65,"wind_gusts":55.1,"aqi":472,"pm10":339.0,"pm2_5":73.8,"no2":20.5,"co":362.0,"o3":68.0,"so2":9.7,"mosquito_risk":0,"arthritis_risk":5,"migraine_risk":7,"frizz_risk":0,"updated_at":"2026-05-28T00:57:26.923176+05:30"},{"city":"Bhatinda","state":"Punjab","latitude":30.211,"longitude":74.9455,"temp":33.4,"humidity":25,"rain":0.0,"pressure":977.7,"uv_index":8.35,"wind_gusts":57.2,"aqi":82,"pm10":49.8,"pm2_5":33.1,"no2":23.2,"co":594.0,"o3":71.0,"so2":6.8,"mosquito_risk":0,"arthritis_risk":5,"migraine_risk":7,"frizz_risk":0,"updated_at":"2026-05-28T00:57:26.923187+05:30"},{"city":"Rohtak","state":"Haryana","latitude":28.8955,"longitude":76.6066,"temp":31.0,"humidity":33,"rain":0.0,"pressure":975.2,"uv_index":7.8,"wind_gusts":57.2,"aqi":774,"pm10":774.9,"pm2_5":158.8,"no2":74.4,"co":1074.0,"o3":17.0,"so2":15.3,"mosquito_risk":0,"arthritis_risk":5,"migraine_risk":7,"frizz_risk":0,"updated_at":"2026-05-28T00:57:26.923197+05:30"},{"city":"Panipat","state":"Haryana","latitude":29.3909,"longitude":76.9635,"temp":32.4,"humidity":24,"rain":0.0,"pressure":974.0,"uv_index":7.65,"wind_gusts":51.8,"aqi":1363,"pm10":1184.6,"pm2_5":216.5,"no2":43.6,"co":450.0,"o3":51.0,"so2":11.0,"mosquito_risk":0,"arthritis_risk":5,"migraine_risk":7,"frizz_risk":0,"updated_at":"2026-05-28T00:57:26.923207+05:30"},{"city":"Mathura","state":"Uttar Pradesh","latitude":27.4924,"longitude":77.6737,"temp":32.5,"humidity":35,"rain":0.0,"pressure":981.0,"uv_index":8.05,"wind_gusts":67.7,"aqi":639,"pm10":523.4,"pm2_5":119.7,"no2":58.7,"co":687.0,"o3":27.0,"so2":11.1,"mosquito_risk":0,"arthritis_risk":5,"migraine_risk":7,"frizz_risk":0,"updated_at":"2026-05-28T00:57:26.923218+05:30"},{"city":"Vrindavan","state":"Uttar Pradesh","latitude":27.5823,"longitude":77.7027,"temp":31.8,"humidity":39,"rain":0.0,"pressure":981.3,"uv_index":8.0,"wind_gusts":65.5,"aqi":639,"pm10":523.4,"pm2_5":119.7,"no2":58.7,"co":671.0,"o3":27.0,"so2":11.1,"mosquito_risk":0,"arthritis_risk":5,"migraine_risk":7,"frizz_risk":0,"updated_at":"2026-05-28T00:57:26.923228+05:30"},{"city":"Ayodhya","state":"Uttar Pradesh","latitude":26.7922,"longitude":82.1998,"temp":29.1,"humidity":62,"rain":0.0,"pressure":992.5,"uv_index":8.35,"wind_gusts":40.7,"aqi":140,"pm10":47.0,"pm2_5":38.2,"no2":7.7,"co":386.0,"o3":136.0,"so2":13.0,"mosquito_risk":7,"arthritis_risk":5,"migraine_risk":7,"frizz_risk":1,"updated_at":"2026-05-28T00:57:26.923238+05:30"},{"city":"Ratlam","state":"Madhya Pradesh","latitude":23.3315,"longitude":75.0367,"temp":31.2,"humidity":44,"rain":0.0,"pressure":953.9,"uv_index":8.5,"wind_gusts":49.3,"aqi":70,"pm10":57.9,"pm2_5":29.0,"no2":4.6,"co":211.0,"o3":90.0,"so2":9.0,"mosquito_risk":0,"arthritis_risk":5,"migraine_risk":7,"frizz_risk":1,"updated_at":"2026-05-28T00:57:26.923248+05:30"},{"city":"Sagar","state":"Madhya Pradesh","latitude":23.8388,"longitude":78.7378,"temp":33.2,"humidity":23,"rain":0.0,"pressure":947.1,"uv_index":8.7,"wind_gusts":40.0,"aqi":70,"pm10":46.1,"pm2_5":23.6,"no2":7.6,"co":182.0,"o3":75.0,"so2":4.2,"mosquito_risk":0,"arthritis_risk":5,"migraine_risk":7,"frizz_risk":0,"updated_at":"2026-05-28T00:57:26.923259+05:30"},{"city":"Satna","state":"Madhya Pradesh","latitude":24.6005,"longitude":80.8322,"temp":31.5,"humidity":50,"rain":0.0,"pressure":967.2,"uv_index":8.75,"wind_gusts":51.1,"aqi":79,"pm10":109.7,"pm2_5":37.3,"no2":16.8,"co":232.0,"o3":71.0,"so2":5.3,"mosquito_risk":0,"arthritis_risk":5,"migraine_risk":7,"frizz_risk":1,"updated_at":"2026-05-28T00:57:26.923270+05:30"},{"city":"Akola","state":"Maharashtra","latitude":20.7002,"longitude":77.0082,"temp":33.2,"humidity":38,"rain":0.0,"pressure":973.5,"uv_index":8.8,"wind_gusts":42.5,"aqi":57,"pm10":36.0,"pm2_5":22.5,"no2":9.3,"co":181.0,"o3":82.0,"so2":9.6,"mosquito_risk":0,"arthritis_risk":5,"migraine_risk":7,"frizz_risk":1,"updated_at":"2026-05-28T00:57:26.923281+05:30"},{"city":"Amravati","state":"Maharashtra","latitude":20.9374,"longitude":77.7796,"temp":32.8,"humidity":28,"rain":0.0,"pressure":965.4,"uv_index":8.85,"wind_gusts":39.2,"aqi":58,"pm10":31.5,"pm2_5":20.0,"no2":10.8,"co":196.0,"o3":71.0,"so2":7.1,"mosquito_risk":0,"arthritis_risk":5,"migraine_risk":7,"frizz_risk":0,"updated_at":"2026-05-28T00:57:26.923292+05:30"},{"city":"Latur","state":"Maharashtra","latitude":18.4088,"longitude":76.5604,"temp":28.9,"humidity":49,"rain":0.0,"pressure":939.5,"uv_index":8.95,"wind_gusts":31.3,"aqi":60,"pm10":26.0,"pm2_5":22.4,"no2":23.6,"co":291.0,"o3":52.0,"so2":5.5,"mosquito_risk":4,"arthritis_risk":5,"migraine_risk":7,"frizz_risk":1,"updated_at":"2026-05-28T00:57:26.923301+05:30"},{"city":"Nanded","state":"Maharashtra","latitude":19.1383,"longitude":77.3091,"temp":31.5,"humidity":43,"rain":0.0,"pressure":967.3,"uv_index":8.9,"wind_gusts":34.2,"aqi":55,"pm10":27.8,"pm2_5":23.2,"no2":20.6,"co":257.0,"o3":52.0,"so2":7.4,"mosquito_risk":0,"arthritis_risk":5,"migraine_risk":7,"frizz_risk":1,"updated_at":"2026-05-28T00:57:26.923309+05:30"},{"city":"Gulbarga","state":"Karnataka","latitude":17.3297,"longitude":76.8343,"temp":27.6,"humidity":65,"rain":0.0,"pressure":958.3,"uv_index":8.95,"wind_gusts":38.2,"aqi":52,"pm10":20.9,"pm2_5":18.0,"no2":24.4,"co":224.0,"o3":45.0,"so2":4.2,"mosquito_risk":7,"arthritis_risk":5,"migraine_risk":7,"frizz_risk":1,"updated_at":"2026-05-28T00:57:26.923318+05:30"},{"city":"Bidar","state":"Karnataka","latitude":17.9104,"longitude":77.5199,"temp":27.6,"humidity":60,"rain":0.0,"pressure":935.0,"uv_index":8.15,"wind_gusts":33.1,"aqi":66,"pm10":33.1,"pm2_5":26.7,"no2":26.1,"co":384.0,"o3":58.0,"so2":6.5,"mosquito_risk":4,"arthritis_risk":5,"migraine_risk":7,"frizz_risk":1,"updated_at":"2026-05-28T00:57:26.923325+05:30"},{"city":"Hospet","state":"Karnataka","latitude":15.2689,"longitude":76.3909,"temp":25.3,"humidity":91,"rain":0.0,"pressure":956.8,"uv_index":8.9,"wind_gusts":40.7,"aqi":39,"pm10":6.9,"pm2_5":6.3,"no2":7.0,"co":158.0,"o3":51.0,"so2":1.6,"mosquito_risk":7,"arthritis_risk":5,"migraine_risk":7,"frizz_risk":1,"updated_at":"2026-05-28T00:57:26.923334+05:30"},{"city":"Tirupur","state":"Tamil Nadu","latitude":11.1085,"longitude":77.3411,"temp":26.0,"humidity":81,"rain":0.0,"pressure":976.0,"uv_index":8.1,"wind_gusts":48.6,"aqi":52,"pm10":8.9,"pm2_5":8.4,"no2":11.9,"co":149.0,"o3":49.0,"so2":4.3,"mosquito_risk":7,"arthritis_risk":5,"migraine_risk":7,"frizz_risk":1,"updated_at":"2026-05-28T00:57:26.923342+05:30"},{"city":"Alappuzha","state":"Kerala","latitude":9.4981,"longitude":76.3388,"temp":25.9,"humidity":98,"rain":0.0,"pressure":1010.8,"uv_index":7.7,"wind_gusts":32.8,"aqi":38,"pm10":15.5,"pm2_5":12.6,"no2":13.1,"co":140.0,"o3":39.0,"so2":3.5,"mosquito_risk":7,"arthritis_risk":0,"migraine_risk":4,"frizz_risk":1,"updated_at":"2026-05-28T00:57:26.923350+05:30"},{"city":"Munnar","state":"Kerala","latitude":10.0889,"longitude":77.0595,"temp":17.4,"humidity":98,"rain":0.0,"pressure":858.1,"uv_index":7.5,"wind_gusts":25.2,"aqi":35,"pm10":6.7,"pm2_5":6.2,"no2":8.7,"co":139.0,"o3":37.0,"so2":1.7,"mosquito_risk":3,"arthritis_risk":10,"migraine_risk":7,"frizz_risk":1,"updated_at":"2026-05-28T00:57:26.923359+05:30"},{"city":"Silchar","state":"Assam","latitude":24.8333,"longitude":92.7789,"temp":23.5,"humidity":97,"rain":0.0,"pressure":1004.9,"uv_index":8.9,"wind_gusts":23.8,"aqi":90,"pm10":47.3,"pm2_5":35.5,"no2":10.8,"co":567.0,"o3":68.0,"so2":5.5,"mosquito_risk":3,"arthritis_risk":5,"migraine_risk":4,"frizz_risk":1,"updated_at":"2026-05-28T00:57:26.923368+05:30"},{"city":"Dibrugarh","state":"Assam","latitude":27.4728,"longitude":94.912,"temp":26.1,"humidity":87,"rain":0.0,"pressure":994.4,"uv_index":8.6,"wind_gusts":38.2,"aqi":90,"pm10":61.0,"pm2_5":51.2,"no2":33.4,"co":577.0,"o3":0.0,"so2":2.2,"mosquito_risk":7,"arthritis_risk":5,"migraine_risk":7,"frizz_risk":1,"updated_at":"2026-05-28T00:57:26.923376+05:30"}]