[{"city":"Delhi","state":"Delhi","latitude":28.6139,"longitude":77.209,"temp":24.9,"humidity":53,"rain":0.0,"pressure":990.0,"uv_index":6.45,"wind_gusts":29.2,"aqi":153,"pm10":129.0,"pm2_5":56.6,"mosquito_risk":0,"arthritis_risk":5,"migraine_risk":7,"frizz_risk":0,"updated_at":"2026-03-22T11:26:11.564306+05:30"},{"city":"Mumbai","state":"Maharashtra","latitude":19.076,"longitude":72.8777,"temp":29.8,"humidity":50,"rain":0.0,"pressure":1011.7,"uv_index":7.9,"wind_gusts":30.2,"aqi":84,"pm10":33.8,"pm2_5":26.6,"mosquito_risk":4,"arthritis_risk":0,"migraine_risk":4,"frizz_risk":1,"updated_at":"2026-03-22T11:26:11.564345+05:30"},{"city":"Bangalore","state":"Karnataka","latitude":12.9716,"longitude":77.5946,"temp":28.4,"humidity":51,"rain":0.0,"pressure":915.2,"uv_index":9.45,"wind_gusts":25.2,"aqi":102,"pm10":39.6,"pm2_5":30.4,"mosquito_risk":4,"arthritis_risk":5,"migraine_risk":7,"frizz_risk":1,"updated_at":"2026-03-22T11:26:11.564360+05:30"},{"city":"Hyderabad","state":"Telangana","latitude":17.385,"longitude":78.4867,"temp":30.2,"humidity":49,"rain":0.0,"pressure":957.9,"uv_index":8.9,"wind_gusts":29.5,"aqi":95,"pm10":46.8,"pm2_5":28.6,"mosquito_risk":0,"arthritis_risk":5,"migraine_risk":7,"frizz_risk":1,"updated_at":"2026-03-22T11:26:11.564370+05:30"},{"city":"Chennai","state":"Tamil Nadu","latitude":13.0827,"longitude":80.2707,"temp":32.2,"humidity":54,"rain":0.0,"pressure":1011.1,"uv_index":9.2,"wind_gusts":32.4,"aqi":41,"pm10":14.5,"pm2_5":8.6,"mosquito_risk":0,"arthritis_risk":0,"migraine_risk":4,"frizz_risk":1,"updated_at":"2026-03-22T11:26:11.564378+05:30"},{"city":"Kolkata","state":"West Bengal","latitude":22.5726,"longitude":88.3639,"temp":25.6,"humidity":61,"rain":0.0,"pressure":1012.4,"uv_index":8.25,"wind_gusts":20.5,"aqi":105,"pm10":50.1,"pm2_5":47.5,"mosquito_risk":7,"arthritis_risk":0,"migraine_risk":4,"frizz_risk":1,"updated_at":"2026-03-22T11:26:11.564387+05:30"},{"city":"Pune","state":"Maharashtra","latitude":18.5204,"longitude":73.8567,"temp":32.1,"humidity":27,"rain":0.0,"pressure":952.7,"uv_index":8.45,"wind_gusts":27.4,"aqi":78,"pm10":9.7,"pm2_5":9.1,"mosquito_risk":0,"arthritis_risk":5,"migraine_risk":7,"frizz_risk":0,"updated_at":"2026-03-22T11:26:11.564400+05:30"},{"city":"Ahmedabad","state":"Gujarat","latitude":23.0225,"longitude":72.5714,"temp":32.1,"humidity":32,"rain":0.0,"pressure":1007.9,"uv_index":7.55,"wind_gusts":22.0,"aqi":74,"pm10":30.4,"pm2_5":19.5,"mosquito_risk":0,"arthritis_risk":5,"migraine_risk":4,"frizz_risk":0,"updated_at":"2026-03-22T11:26:11.564408+05:30"},{"city":"Jaipur","state":"Rajasthan","latitude":26.9124,"longitude":75.7873,"temp":27.1,"humidity":45,"rain":0.0,"pressure":966.5,"uv_index":7.2,"wind_gusts":27.4,"aqi":85,"pm10":137.8,"pm2_5":30.7,"mosquito_risk":4,"arthritis_risk":5,"migraine_risk":7,"frizz_risk":0,"updated_at":"2026-03-22T11:26:11.564415+05:30"},{"city":"Lucknow","state":"Uttar Pradesh","latitude":26.8467,"longitude":80.9462,"temp":25.7,"humidity":53,"rain":0.0,"pressure":1000.2,"uv_index":6.95,"wind_gusts":26.6,"aqi":111,"pm10":27.8,"pm2_5":23.7,"mosquito_risk":4,"arthritis_risk":5,"migraine_risk":4,"frizz_risk":0,"updated_at":"2026-03-22T11:26:11.564423+05:30"},{"city":"Kanpur","state":"Uttar Pradesh","latitude":26.4499,"longitude":80.3319,"temp":25.4,"humidity":62,"rain":0.0,"pressure":998.6,"uv_index":7.0,"wind_gusts":27.0,"aqi":123,"pm10":113.6,"pm2_5":35.2,"mosquito_risk":7,"arthritis_risk":5,"migraine_risk":7,"frizz_risk":1,"updated_at":"2026-03-22T11:26:11.564431+05:30"},{"city":"Chandigarh","state":"Chandigarh","latitude":30.7333,"longitude":76.7794,"temp":23.5,"humidity":61,"rain":0.0,"pressure":974.9,"uv_index":6.35,"wind_gusts":34.2,"aqi":86,"pm10":37.5,"pm2_5":27.8,"mosquito_risk":3,"arthritis_risk":5,"migraine_risk":7,"frizz_risk":0,"updated_at":"2026-03-22T11:26:11.564438+05:30"},{"city":"Srinagar","state":"Jammu and Kashmir","latitude":34.0837,"longitude":74.7973,"temp":13.8,"humidity":55,"rain":0.0,"pressure":845.3,"uv_index":7.5,"wind_gusts":14.0,"aqi":110,"pm10":34.1,"pm2_5":28.2,"mosquito_risk":0,"arthritis_risk":5,"migraine_risk":7,"frizz_risk":0,"updated_at":"2026-03-22T11:26:11.564445+05:30"},{"city":"Jammu","state":"Jammu and Kashmir","latitude":32.7266,"longitude":74.857,"temp":23.3,"humidity":54,"rain":0.0,"pressure":978.8,"uv_index":6.85,"wind_gusts":22.7,"aqi":99,"pm10":37.3,"pm2_5":29.6,"mosquito_risk":0,"arthritis_risk":5,"migraine_risk":7,"frizz_risk":0,"updated_at":"2026-03-22T11:26:11.564452+05:30"},{"city":"Amritsar","state":"Punjab","latitude":31.634,"longitude":74.8723,"temp":23.1,"humidity":59,"rain":0.0,"pressure":987.7,"uv_index":7.0,"wind_gusts":19.8,"aqi":156,"pm10":78.5,"pm2_5":64.5,"mosquito_risk":0,"arthritis_risk":5,"migraine_risk":7,"frizz_risk":0,"updated_at":"2026-03-22T11:26:11.564458+05:30"},{"city":"Ludhiana","state":"Punjab","latitude":30.901,"longitude":75.8573,"temp":23.1,"humidity":61,"rain":0.0,"pressure":985.7,"uv_index":6.6,"wind_gusts":27.0,"aqi":128,"pm10":71.9,"pm2_5":61.5,"mosquito_risk":3,"arthritis_risk":5,"migraine_risk":7,"frizz_risk":0,"updated_at":"2026-03-22T11:26:11.564464+05:30"},{"city":"Jalandhar","state":"Punjab","latitude":31.326,"longitude":75.5762,"temp":22.3,"humidity":64,"rain":0.0,"pressure":986.9,"uv_index":6.75,"wind_gusts":22.3,"aqi":145,"pm10":82.0,"pm2_5":68.7,"mosquito_risk":3,"arthritis_risk":5,"migraine_risk":7,"frizz_risk":0,"updated_at":"2026-03-22T11:26:11.564473+05:30"},{"city":"Dehradun","state":"Uttarakhand","latitude":30.6284,"longitude":78.0322,"temp":15.3,"humidity":68,"rain":0.0,"pressure":832.3,"uv_index":6.8,"wind_gusts":22.3,"aqi":42,"pm10":11.5,"pm2_5":5.6,"mosquito_risk":3,"arthritis_risk":5,"migraine_risk":7,"frizz_risk":0,"updated_at":"2026-03-22T11:26:11.564480+05:30"},{"city":"Shimla","state":"Himachal Pradesh","latitude":31.1048,"longitude":77.1734,"temp":14.7,"humidity":57,"rain":0.0,"pressure":787.2,"uv_index":6.85,"wind_gusts":37.1,"aqi":66,"pm10":17.2,"pm2_5":9.1,"mosquito_risk":0,"arthritis_risk":5,"migraine_risk":7,"frizz_risk":0,"updated_at":"2026-03-22T11:26:11.564487+05:30"},{"city":"Manali","state":"Himachal Pradesh","latitude":32.2396,"longitude":77.1887,"temp":17.3,"humidity":18,"rain":0.0,"pressure":820.8,"uv_index":8.85,"wind_gusts":33.8,"aqi":62,"pm10":8.6,"pm2_5":5.3,"mosquito_risk":0,"arthritis_risk":5,"migraine_risk":7,"frizz_risk":1,"updated_at":"2026-03-22T11:26:11.564494+05:30"},{"city":"Gurgaon","state":"Haryana","latitude":28.4595,"longitude":77.0266,"temp":24.9,"humidity":58,"rain":0.0,"pressure":988.5,"uv_index":6.55,"wind_gusts":24.1,"aqi":212,"pm10":538.3,"pm2_5":87.8,"mosquito_risk":0,"arthritis_risk":5,"migraine_risk":7,"frizz_risk":1,"updated_at":"2026-03-22T11:26:11.564500+05:30"},{"city":"Noida","state":"Uttar Pradesh","latitude":28.5355,"longitude":77.391,"temp":25.2,"humidity":52,"rain":0.0,"pressure":991.5,"uv_index":6.45,"wind_gusts":28.4,"aqi":212,"pm10":538.3,"pm2_5":87.8,"mosquito_risk":4,"arthritis_risk":5,"migraine_risk":7,"frizz_risk":0,"updated_at":"2026-03-22T11:26:11.564507+05:30"},{"city":"Ghaziabad","state":"Uttar Pradesh","latitude":28.6692,"longitude":77.4538,"temp":24.5,"humidity":58,"rain":0.0,"pressure":989.5,"uv_index":6.45,"wind_gusts":29.5,"aqi":142,"pm10":70.3,"pm2_5":53.0,"mosquito_risk":0,"arthritis_risk":5,"migraine_risk":7,"frizz_risk":0,"updated_at":"2026-03-22T11:26:11.564514+05:30"},{"city":"Faridabad","state":"Haryana","latitude":28.4089,"longitude":77.3178,"temp":25.1,"humidity":56,"rain":0.0,"pressure":990.8,"uv_index":6.5,"wind_gusts":25.6,"aqi":212,"pm10":538.3,"pm2_5":87.8,"mosquito_risk":4,"arthritis_risk":5,"migraine_risk":7,"frizz_risk":0,"updated_at":"2026-03-22T11:26:11.564521+05:30"},{"city":"Meerut","state":"Uttar Pradesh","latitude":28.9845,"longitude":77.7064,"temp":24.6,"humidity":55,"rain":0.0,"pressure":988.0,"uv_index":6.3,"wind_gusts":33.1,"aqi":142,"pm10":70.3,"pm2_5":53.0,"mosquito_risk":0,"arthritis_risk":5,"migraine_risk":7,"frizz_risk":0,"updated_at":"2026-03-22T11:26:11.564527+05:30"},{"city":"Agra","state":"Uttar Pradesh","latitude":27.1767,"longitude":78.0081,"temp":28.2,"humidity":44,"rain":0.0,"pressure":994.9,"uv_index":6.65,"wind_gusts":28.1,"aqi":520,"pm10":435.9,"pm2_5":80.3,"mosquito_risk":4,"arthritis_risk":5,"migraine_risk":7,"frizz_risk":0,"updated_at":"2026-03-22T11:26:11.564534+05:30"},{"city":"Varanasi","state":"Uttar Pradesh","latitude":25.3176,"longitude":82.9739,"temp":25.4,"humidity":56,"rain":0.0,"pressure":1004.5,"uv_index":7.1,"wind_gusts":28.4,"aqi":102,"pm10":74.7,"pm2_5":27.0,"mosquito_risk":4,"arthritis_risk":5,"migraine_risk":4,"frizz_risk":0,"updated_at":"2026-03-22T11:26:11.564544+05:30"},{"city":"Prayagraj","state":"Uttar Pradesh","latitude":25.4358,"longitude":81.8463,"temp":25.7,"humidity":54,"rain":0.0,"pressure":1003.0,"uv_index":7.5,"wind_gusts":26.6,"aqi":123,"pm10":43.5,"pm2_5":24.8,"mosquito_risk":4,"arthritis_risk":5,"migraine_risk":4,"frizz_risk":0,"updated_at":"2026-03-22T11:26:11.564553+05:30"},{"city":"Gorakhpur","state":"Uttar Pradesh","latitude":26.7606,"longitude":83.3732,"temp":23.6,"humidity":63,"rain":0.0,"pressure":1004.4,"uv_index":7.25,"wind_gusts":11.2,"aqi":159,"pm10":54.4,"pm2_5":46.7,"mosquito_risk":3,"arthritis_risk":5,"migraine_risk":4,"frizz_risk":1,"updated_at":"2026-03-22T11:26:11.564560+05:30"},{"city":"Bareilly","state":"Uttar Pradesh","latitude":28.367,"longitude":79.4304,"temp":25.0,"humidity":63,"rain":0.0,"pressure":993.3,"uv_index":6.65,"wind_gusts":31.0,"aqi":106,"pm10":57.4,"pm2_5":38.5,"mosquito_risk":7,"arthritis_risk":5,"migraine_risk":7,"frizz_risk":1,"updated_at":"2026-03-22T11:26:11.564566+05:30"},{"city":"Aligarh","state":"Uttar Pradesh","latitude":27.8974,"longitude":78.088,"temp":25.9,"humidity":54,"rain":0.0,"pressure":992.6,"uv_index":6.6,"wind_gusts":27.7,"aqi":186,"pm10":170.0,"pm2_5":60.3,"mosquito_risk":4,"arthritis_risk":5,"migraine_risk":7,"frizz_risk":0,"updated_at":"2026-03-22T11:26:11.564573+05:30"},{"city":"Moradabad","state":"Uttar Pradesh","latitude":28.8386,"longitude":78.7733,"temp":24.5,"humidity":65,"rain":0.0,"pressure":990.1,"uv_index":6.5,"wind_gusts":31.3,"aqi":137,"pm10":86.8,"pm2_5":63.1,"mosquito_risk":3,"arthritis_risk":5,"migraine_risk":7,"frizz_risk":1,"updated_at":"2026-03-22T11:26:11.564579+05:30"},{"city":"Saharanpur","state":"Uttar Pradesh","latitude":29.9637,"longitude":77.546,"temp":23.7,"humidity":63,"rain":0.0,"pressure":981.7,"uv_index":6.15,"wind_gusts":36.0,"aqi":139,"pm10":72.6,"pm2_5":58.8,"mosquito_risk":3,"arthritis_risk":5,"migraine_risk":7,"frizz_risk":1,"updated_at":"2026-03-22T11:26:11.564585+05:30"},{"city":"Jhansi","state":"Uttar Pradesh","latitude":25.4484,"longitude":78.5685,"temp":27.7,"humidity":43,"rain":0.0,"pressure":985.0,"uv_index":7.45,"wind_gusts":28.4,"aqi":72,"pm10":209.5,"pm2_5":41.1,"mosquito_risk":4,"arthritis_risk":5,"migraine_risk":7,"frizz_risk":0,"updated_at":"2026-03-22T11:26:14.911234+05:30"},{"city":"Surat","state":"Gujarat","latitude":21.1702,"longitude":72.8311,"temp":31.3,"humidity":41,"rain":0.0,"pressure":1011.7,"uv_index":7.65,"wind_gusts":25.2,"aqi":96,"pm10":61.5,"pm2_5":49.8,"mosquito_risk":0,"arthritis_risk":0,"migraine_risk":4,"frizz_risk":1,"updated_at":"2026-03-22T11:26:14.911261+05:30"},{"city":"Vadodara","state":"Gujarat","latitude":22.3072,"longitude":73.1812,"temp":33.5,"humidity":27,"rain":0.0,"pressure":1009.9,"uv_index":7.8,"wind_gusts":18.7,"aqi":69,"pm10":36.0,"pm2_5":22.6,"mosquito_risk":0,"arthritis_risk":0,"migraine_risk":4,"frizz_risk":0,"updated_at":"2026-03-22T11:26:14.911270+05:30"},{"city":"Rajkot","state":"Gujarat","latitude":22.3039,"longitude":70.8022,"temp":30.3,"humidity":55,"rain":0.0,"pressure":1000.2,"uv_index":7.6,"wind_gusts":26.3,"aqi":59,"pm10":49.9,"pm2_5":21.0,"mosquito_risk":0,"arthritis_risk":5,"migraine_risk":4,"frizz_risk":1,"updated_at":"2026-03-22T11:26:14.911278+05:30"},{"city":"Thane","state":"Maharashtra","latitude":19.2183,"longitude":72.9781,"temp":34.3,"humidity":26,"rain":0.0,"pressure":1011.2,"uv_index":7.85,"wind_gusts":42.5,"aqi":84,"pm10":33.8,"pm2_5":26.6,"mosquito_risk":0,"arthritis_risk":0,"migraine_risk":4,"frizz_risk":0,"updated_at":"2026-03-22T11:26:14.911284+05:30"},{"city":"Nagpur","state":"Maharashtra","latitude":21.1458,"longitude":79.0882,"temp":29.3,"humidity":30,"rain":0.0,"pressure":979.6,"uv_index":8.35,"wind_gusts":19.4,"aqi":46,"pm10":19.3,"pm2_5":11.5,"mosquito_risk":4,"arthritis_risk":5,"migraine_risk":7,"frizz_risk":0,"updated_at":"2026-03-22T11:26:14.911290+05:30"},{"city":"Nashik","state":"Maharashtra","latitude":19.9975,"longitude":73.7898,"temp":29.3,"humidity":34,"rain":0.0,"pressure":950.1,"uv_index":8.05,"wind_gusts":29.2,"aqi":52,"pm10":15.0,"pm2_5":8.4,"mosquito_risk":4,"arthritis_risk":5,"migraine_risk":7,"frizz_risk":0,"updated_at":"2026-03-22T11:26:14.911296+05:30"},{"city":"Aurangabad","state":"Maharashtra","latitude":19.8762,"longitude":75.3433,"temp":30.1,"humidity":25,"rain":0.0,"pressure":949.2,"uv_index":8.6,"wind_gusts":27.0,"aqi":54,"pm10":11.1,"pm2_5":9.4,"mosquito_risk":0,"arthritis_risk":5,"migraine_risk":7,"frizz_risk":0,"updated_at":"2026-03-22T11:26:14.911303+05:30"},{"city":"Solapur","state":"Maharashtra","latitude":17.6599,"longitude":75.9064,"temp":32.3,"humidity":29,"rain":0.0,"pressure":961.6,"uv_index":8.75,"wind_gusts":24.5,"aqi":67,"pm10":43.0,"pm2_5":30.4,"mosquito_risk":0,"arthritis_risk":5,"migraine_risk":7,"frizz_risk":0,"updated_at":"2026-03-22T11:26:14.911309+05:30"},{"city":"Kolhapur","state":"Maharashtra","latitude":16.705,"longitude":74.2433,"temp":30.2,"humidity":39,"rain":0.0,"pressure":951.7,"uv_index":8.85,"wind_gusts":32.0,"aqi":89,"pm10":28.3,"pm2_5":19.4,"mosquito_risk":0,"arthritis_risk":5,"migraine_risk":7,"frizz_risk":0,"updated_at":"2026-03-22T11:26:14.911315+05:30"},{"city":"Goa","state":"Goa","latitude":15.2993,"longitude":74.124,"temp":31.9,"humidity":54,"rain":0.0,"pressure":1000.9,"uv_index":8.85,"wind_gusts":36.7,"aqi":89,"pm10":41.3,"pm2_5":23.3,"mosquito_risk":0,"arthritis_risk":5,"migraine_risk":4,"frizz_risk":1,"updated_at":"2026-03-22T11:26:14.911320+05:30"},{"city":"Jodhpur","state":"Rajasthan","latitude":26.2389,"longitude":73.0243,"temp":28.8,"humidity":43,"rain":0.0,"pressure":989.5,"uv_index":7.55,"wind_gusts":25.6,"aqi":65,"pm10":57.2,"pm2_5":19.4,"mosquito_risk":4,"arthritis_risk":5,"migraine_risk":7,"frizz_risk":0,"updated_at":"2026-03-22T11:26:14.911327+05:30"},{"city":"Udaipur","state":"Rajasthan","latitude":24.5854,"longitude":73.7125,"temp":28.5,"humidity":34,"rain":0.0,"pressure":952.5,"uv_index":8.15,"wind_gusts":29.2,"aqi":58,"pm10":38.2,"pm2_5":13.5,"mosquito_risk":4,"arthritis_risk":5,"migraine_risk":7,"frizz_risk":0,"updated_at":"2026-03-22T11:26:14.911333+05:30"},{"city":"Kota","state":"Rajasthan","latitude":25.2138,"longitude":75.8648,"temp":30.6,"humidity":32,"rain":0.0,"pressure":985.3,"uv_index":7.45,"wind_gusts":11.9,"aqi":81,"pm10":38.2,"pm2_5":20.9,"mosquito_risk":0,"arthritis_risk":5,"migraine_risk":7,"frizz_risk":0,"updated_at":"2026-03-22T11:26:14.911339+05:30"},{"city":"Bikaner","state":"Rajasthan","latitude":28.0229,"longitude":73.3119,"temp":26.7,"humidity":49,"rain":0.0,"pressure":988.6,"uv_index":7.2,"wind_gusts":16.9,"aqi":61,"pm10":109.4,"pm2_5":27.8,"mosquito_risk":4,"arthritis_risk":5,"migraine_risk":7,"frizz_risk":0,"updated_at":"2026-03-22T11:26:14.911345+05:30"},{"city":"Ajmer","state":"Rajasthan","latitude":26.4499,"longitude":74.6399,"temp":27.9,"humidity":40,"rain":0.0,"pressure":960.9,"uv_index":7.5,"wind_gusts":27.0,"aqi":70,"pm10":42.5,"pm2_5":18.5,"mosquito_risk":4,"arthritis_risk":5,"migraine_risk":7,"frizz_risk":0,"updated_at":"2026-03-22T11:26:14.911350+05:30"},{"city":"Gwalior","state":"Madhya Pradesh","latitude":26.2183,"longitude":78.1828,"temp":27.8,"humidity":44,"rain":0.0,"pressure":990.3,"uv_index":7.15,"wind_gusts":26.6,"aqi":133,"pm10":227.2,"pm2_5":51.1,"mosquito_risk":4,"arthritis_risk":5,"migraine_risk":7,"frizz_risk":0,"updated_at":"2026-03-22T11:26:14.911357+05:30"},{"city":"Indore","state":"Madhya Pradesh","latitude":22.7196,"longitude":75.8577,"temp":29.1,"humidity":29,"rain":0.0,"pressure":953.8,"uv_index":8.05,"wind_gusts":17.6,"aqi":58,"pm10":18.6,"pm2_5":11.3,"mosquito_risk":4,"arthritis_risk":5,"migraine_risk":7,"frizz_risk":0,"updated_at":"2026-03-22T11:26:14.911363+05:30"},{"city":"Bhopal","state":"Madhya Pradesh","latitude":23.2599,"longitude":77.4126,"temp":29.8,"humidity":28,"rain":0.0,"pressure":959.7,"uv_index":7.95,"wind_gusts":25.2,"aqi":49,"pm10":19.7,"pm2_5":10.2,"mosquito_risk":4,"arthritis_risk":5,"migraine_risk":7,"frizz_risk":0,"updated_at":"2026-03-22T11:26:14.911369+05:30"},{"city":"Jabalpur","state":"Madhya Pradesh","latitude":23.1815,"longitude":79.9864,"temp":27.6,"humidity":36,"rain":0.0,"pressure":968.0,"uv_index":8.05,"wind_gusts":29.9,"aqi":52,"pm10":70.3,"pm2_5":19.7,"mosquito_risk":4,"arthritis_risk":5,"migraine_risk":7,"frizz_risk":0,"updated_at":"2026-03-22T11:26:14.911375+05:30"},{"city":"Ujjain","state":"Madhya Pradesh","latitude":23.1765,"longitude":75.7885,"temp":28.5,"humidity":35,"rain":0.0,"pressure":959.7,"uv_index":8.0,"wind_gusts":13.3,"aqi":65,"pm10":20.7,"pm2_5":12.8,"mosquito_risk":4,"arthritis_risk":5,"migraine_risk":7,"frizz_risk":0,"updated_at":"2026-03-22T11:26:14.911381+05:30"},{"city":"Visakhapatnam","state":"Andhra Pradesh","latitude":17.6868,"longitude":83.2185,"temp":32.5,"humidity":51,"rain":0.0,"pressure":1007.9,"uv_index":8.85,"wind_gusts":34.2,"aqi":80,"pm10":25.4,"pm2_5":21.4,"mosquito_risk":0,"arthritis_risk":5,"migraine_risk":4,"frizz_risk":1,"updated_at":"2026-03-22T11:26:14.911387+05:30"},{"city":"Vijayawada","state":"Andhra Pradesh","latitude":16.5062,"longitude":80.648,"temp":30.0,"humidity":66,"rain":0.0,"pressure":1007.9,"uv_index":8.9,"wind_gusts":22.3,"aqi":63,"pm10":21.3,"pm2_5":13.9,"mosquito_risk":7,"arthritis_risk":5,"migraine_risk":4,"frizz_risk":1,"updated_at":"2026-03-22T11:26:14.911393+05:30"},{"city":"Guntur","state":"Andhra Pradesh","latitude":16.3067,"longitude":80.4365,"temp":30.4,"humidity":66,"rain":0.0,"pressure":1008.9,"uv_index":8.9,"wind_gusts":19.4,"aqi":67,"pm10":21.7,"pm2_5":13.7,"mosquito_risk":3,"arthritis_risk":0,"migraine_risk":4,"frizz_risk":1,"updated_at":"2026-03-22T11:26:14.911399+05:30"},{"city":"Nellore","state":"Andhra Pradesh","latitude":14.4426,"longitude":79.9865,"temp":32.8,"humidity":52,"rain":0.0,"pressure":1009.7,"uv_index":9.05,"wind_gusts":30.2,"aqi":51,"pm10":22.5,"pm2_5":15.0,"mosquito_risk":0,"arthritis_risk":0,"migraine_risk":4,"frizz_risk":1,"updated_at":"2026-03-22T11:26:14.911405+05:30"},{"city":"Kurnool","state":"Andhra Pradesh","latitude":15.8281,"longitude":78.0373,"temp":33.5,"humidity":47,"rain":0.0,"pressure":980.7,"uv_index":8.95,"wind_gusts":20.2,"aqi":72,"pm10":29.6,"pm2_5":23.0,"mosquito_risk":0,"arthritis_risk":5,"migraine_risk":7,"frizz_risk":1,"updated_at":"2026-03-22T11:26:14.911412+05:30"},{"city":"Kakinada","state":"Andhra Pradesh","latitude":16.9891,"longitude":82.2475,"temp":32.2,"humidity":53,"rain":0.0,"pressure":1012.0,"uv_index":8.3,"wind_gusts":27.0,"aqi":35,"pm10":18.1,"pm2_5":11.9,"mosquito_risk":0,"arthritis_risk":0,"migraine_risk":4,"frizz_risk":1,"updated_at":"2026-03-22T11:26:14.911418+05:30"},{"city":"Tirupati","state":"Andhra Pradesh","latitude":13.6288,"longitude":79.4192,"temp":30.9,"humidity":57,"rain":0.0,"pressure":995.8,"uv_index":9.2,"wind_gusts":29.2,"aqi":74,"pm10":22.3,"pm2_5":15.6,"mosquito_risk":0,"arthritis_risk":5,"migraine_risk":7,"frizz_risk":1,"updated_at":"2026-03-22T11:26:14.911423+05:30"},{"city":"Warangal","state":"Telangana","latitude":17.9689,"longitude":79.5941,"temp":28.9,"humidity":65,"rain":0.0,"pressure":984.0,"uv_index":8.75,"wind_gusts":19.8,"aqi":107,"pm10":39.7,"pm2_5":29.8,"mosquito_risk":7,"arthritis_risk":5,"migraine_risk":7,"frizz_risk":1,"updated_at":"2026-03-22T11:26:14.911429+05:30"},{"city":"Nizamabad","state":"Telangana","latitude":18.6725,"longitude":78.0941,"temp":31.0,"humidity":43,"rain":0.0,"pressure":969.8,"uv_index":8.65,"wind_gusts":27.4,"aqi":87,"pm10":20.3,"pm2_5":16.9,"mosquito_risk":0,"arthritis_risk":5,"migraine_risk":7,"frizz_risk":1,"updated_at":"2026-03-22T11:26:14.911435+05:30"},{"city":"Mysore","state":"Karnataka","latitude":12.2958,"longitude":76.6396,"temp":29.8,"humidity":47,"rain":0.0,"pressure":931.9,"uv_index":9.4,"wind_gusts":33.1,"aqi":96,"pm10":29.2,"pm2_5":23.1,"mosquito_risk":4,"arthritis_risk":5,"migraine_risk":7,"frizz_risk":1,"updated_at":"2026-03-22T11:26:14.911440+05:30"},{"city":"Mangalore","state":"Karnataka","latitude":12.9141,"longitude":74.856,"temp":29.0,"humidity":79,"rain":0.0,"pressure":1009.6,"uv_index":9.05,"wind_gusts":28.1,"aqi":71,"pm10":35.5,"pm2_5":20.4,"mosquito_risk":7,"arthritis_risk":0,"migraine_risk":4,"frizz_risk":1,"updated_at":"2026-03-22T11:26:14.911446+05:30"},{"city":"Hubli-Dharwad","state":"Karnataka","latitude":15.3647,"longitude":75.124,"temp":32.4,"humidity":29,"rain":0.0,"pressure":944.3,"uv_index":9.05,"wind_gusts":27.4,"aqi":65,"pm10":27.8,"pm2_5":16.2,"mosquito_risk":0,"arthritis_risk":5,"migraine_risk":7,"frizz_risk":0,"updated_at":"2026-03-22T11:26:14.911452+05:30"},{"city":"Belgaum","state":"Karnataka","latitude":15.8497,"longitude":74.4977,"temp":31.5,"humidity":27,"rain":0.0,"pressure":929.4,"uv_index":9.1,"wind_gusts":36.7,"aqi":67,"pm10":24.2,"pm2_5":14.9,"mosquito_risk":0,"arthritis_risk":5,"migraine_risk":7,"frizz_risk":0,"updated_at":"2026-03-22T11:26:18.257107+05:30"},{"city":"Coimbatore","state":"Tamil Nadu","latitude":11.0168,"longitude":76.9558,"temp":31.8,"humidity":43,"rain":0.0,"pressure":965.2,"uv_index":9.4,"wind_gusts":30.6,"aqi":75,"pm10":26.0,"pm2_5":18.0,"mosquito_risk":0,"arthritis_risk":5,"migraine_risk":7,"frizz_risk":1,"updated_at":"2026-03-22T11:26:18.257135+05:30"},{"city":"Madurai","state":"Tamil Nadu","latitude":9.9252,"longitude":78.1198,"temp":32.2,"humidity":52,"rain":0.0,"pressure":996.6,"uv_index":9.35,"wind_gusts":29.5,"aqi":64,"pm10":21.7,"pm2_5":14.1,"mosquito_risk":0,"arthritis_risk":5,"migraine_risk":7,"frizz_risk":1,"updated_at":"2026-03-22T11:26:18.257147+05:30"},{"city":"Trichy","state":"Tamil Nadu","latitude":10.7905,"longitude":78.7047,"temp":31.7,"humidity":56,"rain":0.0,"pressure":1003.4,"uv_index":9.25,"wind_gusts":24.1,"aqi":68,"pm10":17.3,"pm2_5":12.3,"mosquito_risk":0,"arthritis_risk":5,"migraine_risk":4,"frizz_risk":1,"updated_at":"2026-03-22T11:26:18.257156+05:30"},{"city":"Salem","state":"Tamil Nadu","latitude":11.6643,"longitude":78.146,"temp":30.2,"humidity":59,"rain":0.0,"pressure":981.2,"uv_index":9.3,"wind_gusts":20.9,"aqi":78,"pm10":29.3,"pm2_5":22.1,"mosquito_risk":0,"arthritis_risk":5,"migraine_risk":7,"frizz_risk":1,"updated_at":"2026-03-22T11:26:18.257164+05:30"},{"city":"Tirunelveli","state":"Tamil Nadu","latitude":8.7139,"longitude":77.7567,"temp":32.5,"humidity":53,"rain":0.0,"pressure":1006.6,"uv_index":9.3,"wind_gusts":29.5,"aqi":70,"pm10":16.7,"pm2_5":11.6,"mosquito_risk":0,"arthritis_risk":5,"migraine_risk":4,"frizz_risk":1,"updated_at":"2026-03-22T11:26:18.257172+05:30"},{"city":"Vellore","state":"Tamil Nadu","latitude":12.9165,"longitude":79.1325,"temp":32.2,"humidity":47,"rain":0.0,"pressure":988.4,"uv_index":9.25,"wind_gusts":35.3,"aqi":99,"pm10":30.2,"pm2_5":23.3,"mosquito_risk":0,"arthritis_risk":5,"migraine_risk":7,"frizz_risk":1,"updated_at":"2026-03-22T11:26:18.257180+05:30"},{"city":"Erode","state":"Tamil Nadu","latitude":11.341,"longitude":77.7172,"temp":31.4,"humidity":58,"rain":0.0,"pressure":992.7,"uv_index":9.3,"wind_gusts":32.8,"aqi":58,"pm10":21.9,"pm2_5":15.2,"mosquito_risk":0,"arthritis_risk":5,"migraine_risk":7,"frizz_risk":1,"updated_at":"2026-03-22T11:26:18.257189+05:30"},{"city":"Kochi","state":"Kerala","latitude":9.9312,"longitude":76.2673,"temp":28.4,"humidity":79,"rain":0.0,"pressure":1011.3,"uv_index":9.15,"wind_gusts":31.7,"aqi":71,"pm10":20.0,"pm2_5":16.7,"mosquito_risk":7,"arthritis_risk":0,"migraine_risk":4,"frizz_risk":1,"updated_at":"2026-03-22T11:26:18.257197+05:30"},{"city":"Thiruvananthapuram","state":"Kerala","latitude":8.5241,"longitude":76.9366,"temp":28.5,"humidity":78,"rain":0.0,"pressure":1010.6,"uv_index":9.15,"wind_gusts":25.9,"aqi":57,"pm10":20.1,"pm2_5":17.5,"mosquito_risk":7,"arthritis_risk":0,"migraine_risk":4,"frizz_risk":1,"updated_at":"2026-03-22T11:26:18.257205+05:30"},{"city":"Kozhikode","state":"Kerala","latitude":11.2588,"longitude":75.7804,"temp":30.2,"humidity":72,"rain":0.0,"pressure":1010.7,"uv_index":9.05,"wind_gusts":28.4,"aqi":60,"pm10":27.5,"pm2_5":19.2,"mosquito_risk":3,"arthritis_risk":0,"migraine_risk":4,"frizz_risk":1,"updated_at":"2026-03-22T11:26:18.257212+05:30"},{"city":"Thrissur","state":"Kerala","latitude":10.5276,"longitude":76.2144,"temp":33.9,"humidity":52,"rain":0.0,"pressure":1009.5,"uv_index":9.15,"wind_gusts":33.5,"aqi":63,"pm10":19.5,"pm2_5":14.8,"mosquito_risk":0,"arthritis_risk":0,"migraine_risk":4,"frizz_risk":1,"updated_at":"2026-03-22T11:26:18.257221+05:30"},{"city":"Kannur","state":"Kerala","latitude":11.8745,"longitude":75.3704,"temp":31.5,"humidity":62,"rain":0.0,"pressure":1010.2,"uv_index":9.1,"wind_gusts":31.7,"aqi":65,"pm10":35.3,"pm2_5":20.8,"mosquito_risk":3,"arthritis_risk":0,"migraine_risk":4,"frizz_risk":1,"updated_at":"2026-03-22T11:26:18.257229+05:30"},{"city":"Patna","state":"Bihar","latitude":25.5941,"longitude":85.1376,"temp":24.1,"humidity":57,"rain":0.0,"pressure":1007.5,"uv_index":7.7,"wind_gusts":20.9,"aqi":161,"pm10":72.2,"pm2_5":62.6,"mosquito_risk":0,"arthritis_risk":5,"migraine_risk":4,"frizz_risk":0,"updated_at":"2026-03-22T11:26:18.257237+05:30"},{"city":"Gaya","state":"Bihar","latitude":24.7914,"longitude":85.0002,"temp":24.4,"humidity":58,"rain":0.0,"pressure":1000.5,"uv_index":7.8,"wind_gusts":22.7,"aqi":147,"pm10":47.4,"pm2_5":35.3,"mosquito_risk":0,"arthritis_risk":5,"migraine_risk":4,"frizz_risk":0,"updated_at":"2026-03-22T11:26:18.257245+05:30"},{"city":"Muzaffarpur","state":"Bihar","latitude":26.1209,"longitude":85.3647,"temp":22.5,"humidity":68,"rain":0.0,"pressure":1007.7,"uv_index":7.0,"wind_gusts":13.3,"aqi":164,"pm10":64.3,"pm2_5":58.1,"mosquito_risk":3,"arthritis_risk":5,"migraine_risk":4,"frizz_risk":1,"updated_at":"2026-03-22T11:26:18.257253+05:30"},{"city":"Bhagalpur","state":"Bihar","latitude":25.2425,"longitude":87.0117,"temp":22.7,"humidity":68,"rain":0.0,"pressure":1008.4,"uv_index":7.05,"wind_gusts":17.3,"aqi":153,"pm10":61.0,"pm2_5":54.2,"mosquito_risk":3,"arthritis_risk":0,"migraine_risk":4,"frizz_risk":1,"updated_at":"2026-03-22T11:26:18.257260+05:30"},{"city":"Ranchi","state":"Jharkhand","latitude":23.3441,"longitude":85.3096,"temp":22.9,"humidity":45,"rain":0.0,"pressure":942.6,"uv_index":8.45,"wind_gusts":29.9,"aqi":88,"pm10":74.0,"pm2_5":18.9,"mosquito_risk":0,"arthritis_risk":5,"migraine_risk":7,"frizz_risk":0,"updated_at":"2026-03-22T11:26:18.257269+05:30"},{"city":"Jamshedpur","state":"Jharkhand","latitude":22.8046,"longitude":86.2029,"temp":26.8,"humidity":48,"rain":0.0,"pressure":997.0,"uv_index":8.35,"wind_gusts":19.8,"aqi":116,"pm10":43.7,"pm2_5":31.4,"mosquito_risk":4,"arthritis_risk":5,"migraine_risk":7,"frizz_risk":0,"updated_at":"2026-03-22T11:26:18.257276+05:30"},{"city":"Dhanbad","state":"Jharkhand","latitude":23.7957,"longitude":86.4304,"temp":24.5,"humidity":49,"rain":0.0,"pressure":986.0,"uv_index":8.2,"wind_gusts":23.8,"aqi":144,"pm10":46.9,"pm2_5":35.9,"mosquito_risk":0,"arthritis_risk":5,"migraine_risk":7,"frizz_risk":0,"updated_at":"2026-03-22T11:26:18.257282+05:30"},{"city":"Bokaro","state":"Jharkhand","latitude":23.6693,"longitude":86.1511,"temp":24.5,"humidity":50,"rain":0.0,"pressure":990.0,"uv_index":8.25,"wind_gusts":24.5,"aqi":150,"pm10":50.2,"pm2_5":30.3,"mosquito_risk":0,"arthritis_risk":5,"migraine_risk":7,"frizz_risk":0,"updated_at":"2026-03-22T11:26:18.257289+05:30"},{"city":"Bhubaneswar","state":"Odisha","latitude":20.2961,"longitude":85.8245,"temp":28.5,"humidity":59,"rain":0.0,"pressure":1008.2,"uv_index":8.65,"wind_gusts":28.8,"aqi":96,"pm10":43.2,"pm2_5":34.9,"mosquito_risk":4,"arthritis_risk":0,"migraine_risk":4,"frizz_risk":1,"updated_at":"2026-03-22T11:26:18.257295+05:30"},{"city":"Cuttack","state":"Odisha","latitude":20.4625,"longitude":85.8828,"temp":28.6,"humidity":58,"rain":0.0,"pressure":1010.1,"uv_index":8.65,"wind_gusts":20.9,"aqi":96,"pm10":43.2,"pm2_5":34.9,"mosquito_risk":4,"arthritis_risk":0,"migraine_risk":4,"frizz_risk":1,"updated_at":"2026-03-22T11:26:18.257301+05:30"},{"city":"Rourkela","state":"Odisha","latitude":22.2604,"longitude":84.8536,"temp":27.5,"humidity":42,"rain":0.0,"pressure":991.2,"uv_index":8.25,"wind_gusts":19.4,"aqi":92,"pm10":43.2,"pm2_5":24.7,"mosquito_risk":4,"arthritis_risk":5,"migraine_risk":7,"frizz_risk":0,"updated_at":"2026-03-22T11:26:18.257307+05:30"},{"city":"Raipur","state":"Chhattisgarh","latitude":21.2514,"longitude":81.6296,"temp":29.4,"humidity":28,"rain":0.0,"pressure":980.9,"uv_index":8.4,"wind_gusts":18.4,"aqi":87,"pm10":21.0,"pm2_5":17.1,"mosquito_risk":4,"arthritis_risk":5,"migraine_risk":7,"frizz_risk":0,"updated_at":"2026-03-22T11:26:18.257313+05:30"},{"city":"Bhilai","state":"Chhattisgarh","latitude":21.1938,"longitude":81.3509,"temp":29.7,"humidity":27,"rain":0.0,"pressure":981.1,"uv_index":8.4,"wind_gusts":15.1,"aqi":71,"pm10":25.7,"pm2_5":20.7,"mosquito_risk":4,"arthritis_risk":5,"migraine_risk":7,"frizz_risk":0,"updated_at":"2026-03-22T11:26:18.257320+05:30"},{"city":"Guwahati","state":"Assam","latitude":26.1158,"longitude":91.7086,"temp":24.6,"humidity":66,"rain":0.0,"pressure":1006.7,"uv_index":7.6,"wind_gusts":18.0,"aqi":91,"pm10":29.6,"pm2_5":24.7,"mosquito_risk":3,"arthritis_risk":5,"migraine_risk":4,"frizz_risk":1,"updated_at":"2026-03-22T11:26:18.257325+05:30"},{"city":"Agartala","state":"Tripura","latitude":23.8315,"longitude":91.2868,"temp":26.3,"humidity":58,"rain":0.0,"pressure":1011.5,"uv_index":7.85,"wind_gusts":21.6,"aqi":138,"pm10":49.6,"pm2_5":40.7,"mosquito_risk":4,"arthritis_risk":0,"migraine_risk":4,"frizz_risk":1,"updated_at":"2026-03-22T11:26:18.257332+05:30"},{"city":"Shillong","state":"Meghalaya","latitude":25.5788,"longitude":91.8933,"temp":15.3,"humidity":60,"rain":0.0,"pressure":857.8,"uv_index":6.7,"wind_gusts":21.2,"aqi":65,"pm10":15.0,"pm2_5":11.4,"mosquito_risk":0,"arthritis_risk":5,"migraine_risk":7,"frizz_risk":0,"updated_at":"2026-03-22T11:26:18.257338+05:30"},{"city":"Imphal","state":"Manipur","latitude":24.817,"longitude":93.9368,"temp":17.9,"humidity":81,"rain":0.0,"pressure":925.5,"uv_index":8.15,"wind_gusts":51.8,"aqi":78,"pm10":6.8,"pm2_5":5.9,"mosquito_risk":3,"arthritis_risk":10,"migraine_risk":7,"frizz_risk":0,"updated_at":"2026-03-22T11:26:18.257345+05:30"},{"city":"Aizawl","state":"Mizoram","latitude":23.7271,"longitude":92.7176,"temp":19.2,"humidity":71,"rain":0.0,"pressure":896.0,"uv_index":8.2,"wind_gusts":44.6,"aqi":76,"pm10":5.5,"pm2_5":4.7,"mosquito_risk":3,"arthritis_risk":5,"migraine_risk":7,"frizz_risk":0,"updated_at":"2026-03-22T11:26:18.257351+05:30"},{"city":"Kohima","state":"Nagaland","latitude":25.6701,"longitude":94.1077,"temp":14.8,"humidity":86,"rain":0.0,"pressure":856.3,"uv_index":7.8,"wind_gusts":56.9,"aqi":68,"pm10":13.0,"pm2_5":11.8,"mosquito_risk":3,"arthritis_risk":10,"migraine_risk":7,"frizz_risk":0,"updated_at":"2026-03-22T11:26:18.257358+05:30"},{"city":"Gangtok","state":"Sikkim","latitude":27.3314,"longitude":88.6138,"temp":15.6,"humidity":70,"rain":0.0,"pressure":839.6,"uv_index":7.85,"wind_gusts":23.0,"aqi":71,"pm10":10.9,"pm2_5":8.5,"mosquito_risk":3,"arthritis_risk":5,"migraine_risk":7,"frizz_risk":0,"updated_at":"2026-03-22T11:26:18.257364+05:30"},{"city":"Siliguri","state":"West Bengal","latitude":26.7271,"longitude":88.3953,"temp":20.5,"humidity":67,"rain":0.0,"pressure":999.2,"uv_index":7.25,"wind_gusts":17.3,"aqi":130,"pm10":19.3,"pm2_5":17.0,"mosquito_risk":3,"arthritis_risk":5,"migraine_risk":7,"frizz_risk":0,"updated_at":"2026-03-22T11:26:21.607691+05:30"},{"city":"Durgapur","state":"West Bengal","latitude":23.5204,"longitude":87.3119,"temp":25.3,"humidity":54,"rain":0.0,"pressure":1001.5,"uv_index":7.95,"wind_gusts":19.8,"aqi":110,"pm10":49.8,"pm2_5":43.3,"mosquito_risk":4,"arthritis_risk":5,"migraine_risk":4,"frizz_risk":0,"updated_at":"2026-03-22T11:26:21.607719+05:30"},{"city":"Asansol","state":"West Bengal","latitude":23.6739,"longitude":86.9524,"temp":25.2,"humidity":53,"rain":0.0,"pressure":1000.0,"uv_index":8.2,"wind_gusts":21.6,"aqi":111,"pm10":50.2,"pm2_5":42.6,"mosquito_risk":4,"arthritis_risk":5,"migraine_risk":4,"frizz_risk":0,"updated_at":"2026-03-22T11:26:21.607729+05:30"},{"city":"Pondicherry","state":"Puducherry","latitude":11.9139,"longitude":79.8145,"temp":32.1,"humidity":59,"rain":0.0,"pressure":1012.0,"uv_index":9.15,"wind_gusts":29.5,"aqi":39,"pm10":13.4,"pm2_5":8.1,"mosquito_risk":0,"arthritis_risk":0,"migraine_risk":4,"frizz_risk":1,"updated_at":"2026-03-22T11:26:21.607736+05:30"},{"city":"Port Blair","state":"Andaman and Nicobar Islands","latitude":11.6234,"longitude":92.7265,"temp":28.9,"humidity":73,"rain":0.0,"pressure":1009.8,"uv_index":9.1,"wind_gusts":20.9,"aqi":45,"pm10":12.2,"pm2_5":10.1,"mosquito_risk":7,"arthritis_risk":0,"migraine_risk":4,"frizz_risk":1,"updated_at":"2026-03-22T11:26:21.607744+05:30"},{"city":"Haridwar","state":"Uttarakhand","latitude":29.9457,"longitude":78.1642,"temp":24.3,"humidity":65,"rain":0.0,"pressure":980.0,"uv_index":6.25,"wind_gusts":24.5,"aqi":89,"pm10":37.8,"pm2_5":30.6,"mosquito_risk":3,"arthritis_risk":5,"migraine_risk":7,"frizz_risk":1,"updated_at":"2026-03-22T11:26:21.607751+05:30"},{"city":"Rishikesh","state":"Uttarakhand","latitude":30.0869,"longitude":78.2676,"temp":23.7,"humidity":64,"rain":0.0,"pressure":972.2,"uv_index":6.35,"wind_gusts":23.0,"aqi":56,"pm10":20.8,"pm2_5":15.3,"mosquito_risk":3,"arthritis_risk":5,"migraine_risk":7,"frizz_risk":1,"updated_at":"2026-03-22T11:26:21.607758+05:30"},{"city":"Nainital","state":"Uttarakhand","latitude":29.3919,"longitude":79.4542,"temp":16.7,"humidity":73,"rain":0.0,"pressure":808.8,"uv_index":7.1,"wind_gusts":40.3,"aqi":63,"pm10":19.0,"pm2_5":13.9,"mosquito_risk":3,"arthritis_risk":5,"migraine_risk":7,"frizz_risk":0,"updated_at":"2026-03-22T11:26:21.607764+05:30"},{"city":"Mussoorie","state":"Uttarakhand","latitude":30.4599,"longitude":78.0664,"temp":15.2,"humidity":71,"rain":0.0,"pressure":804.8,"uv_index":6.65,"wind_gusts":24.5,"aqi":67,"pm10":31.5,"pm2_5":25.1,"mosquito_risk":3,"arthritis_risk":5,"migraine_risk":7,"frizz_risk":0,"updated_at":"2026-03-22T11:26:21.607771+05:30"},{"city":"Dharamshala","state":"Himachal Pradesh","latitude":32.219,"longitude":76.3234,"temp":18.0,"humidity":57,"rain":0.0,"pressure":872.2,"uv_index":6.55,"wind_gusts":20.9,"aqi":81,"pm10":18.5,"pm2_5":7.4,"mosquito_risk":0,"arthritis_risk":5,"migraine_risk":7,"frizz_risk":0,"updated_at":"2026-03-22T11:26:21.607778+05:30"},{"city":"Dalhousie","state":"Himachal Pradesh","latitude":32.5387,"longitude":75.971,"temp":16.2,"humidity":46,"rain":0.0,"pressure":806.4,"uv_index":6.85,"wind_gusts":19.1,"aqi":83,"pm10":30.4,"pm2_5":21.5,"mosquito_risk":0,"arthritis_risk":5,"migraine_risk":7,"frizz_risk":0,"updated_at":"2026-03-22T11:26:21.607786+05:30"},{"city":"Patiala","state":"Punjab","latitude":30.3398,"longitude":76.3869,"temp":24.0,"humidity":57,"rain":0.0,"pressure":984.9,"uv_index":6.25,"wind_gusts":31.7,"aqi":138,"pm10":61.7,"pm2_5":52.2,"mosquito_risk":0,"arthritis_risk":5,"migraine_risk":7,"frizz_risk":0,"updated_at":"2026-03-22T11:26:21.607793+05:30"},{"city":"Bhatinda","state":"Punjab","latitude":30.211,"longitude":74.9455,"temp":24.8,"humidity":56,"rain":0.0,"pressure":990.9,"uv_index":6.8,"wind_gusts":21.6,"aqi":152,"pm10":85.0,"pm2_5":68.5,"mosquito_risk":0,"arthritis_risk":5,"migraine_risk":7,"frizz_risk":0,"updated_at":"2026-03-22T11:26:21.607799+05:30"},{"city":"Rohtak","state":"Haryana","latitude":28.8955,"longitude":76.6066,"temp":24.8,"humidity":58,"rain":0.0,"pressure":988.9,"uv_index":6.45,"wind_gusts":25.6,"aqi":156,"pm10":85.4,"pm2_5":48.4,"mosquito_risk":0,"arthritis_risk":5,"migraine_risk":7,"frizz_risk":0,"updated_at":"2026-03-22T11:26:21.607806+05:30"},{"city":"Panipat","state":"Haryana","latitude":29.3909,"longitude":76.9635,"temp":24.8,"humidity":56,"rain":0.0,"pressure":987.1,"uv_index":6.25,"wind_gusts":32.0,"aqi":173,"pm10":57.9,"pm2_5":48.4,"mosquito_risk":0,"arthritis_risk":5,"migraine_risk":7,"frizz_risk":0,"updated_at":"2026-03-22T11:26:21.607812+05:30"},{"city":"Mathura","state":"Uttar Pradesh","latitude":27.4924,"longitude":77.6737,"temp":27.4,"humidity":49,"rain":0.0,"pressure":993.9,"uv_index":6.15,"wind_gusts":25.6,"aqi":432,"pm10":302.7,"pm2_5":64.7,"mosquito_risk":4,"arthritis_risk":5,"migraine_risk":7,"frizz_risk":0,"updated_at":"2026-03-22T11:26:21.607819+05:30"},{"city":"Vrindavan","state":"Uttar Pradesh","latitude":27.5823,"longitude":77.7027,"temp":26.7,"humidity":53,"rain":0.0,"pressure":994.4,"uv_index":6.65,"wind_gusts":25.2,"aqi":432,"pm10":302.7,"pm2_5":64.7,"mosquito_risk":4,"arthritis_risk":5,"migraine_risk":7,"frizz_risk":1,"updated_at":"2026-03-22T11:26:21.607825+05:30"},{"city":"Ayodhya","state":"Uttar Pradesh","latitude":26.7922,"longitude":82.1998,"temp":24.8,"humidity":58,"rain":0.0,"pressure":1002.2,"uv_index":7.05,"wind_gusts":20.2,"aqi":105,"pm10":35.4,"pm2_5":29.8,"mosquito_risk":0,"arthritis_risk":5,"migraine_risk":4,"frizz_risk":0,"updated_at":"2026-03-22T11:26:21.607832+05:30"},{"city":"Ratlam","state":"Madhya Pradesh","latitude":23.3315,"longitude":75.0367,"temp":29.0,"humidity":34,"rain":0.0,"pressure":960.4,"uv_index":7.95,"wind_gusts":19.1,"aqi":60,"pm10":21.2,"pm2_5":12.5,"mosquito_risk":4,"arthritis_risk":5,"migraine_risk":7,"frizz_risk":0,"updated_at":"2026-03-22T11:26:21.607838+05:30"},{"city":"Sagar","state":"Madhya Pradesh","latitude":23.8388,"longitude":78.7378,"temp":28.3,"humidity":33,"rain":0.0,"pressure":956.4,"uv_index":7.95,"wind_gusts":30.2,"aqi":52,"pm10":75.9,"pm2_5":20.2,"mosquito_risk":4,"arthritis_risk":5,"migraine_risk":7,"frizz_risk":0,"updated_at":"2026-03-22T11:26:21.607844+05:30"},{"city":"Satna","state":"Madhya Pradesh","latitude":24.6005,"longitude":80.8322,"temp":25.4,"humidity":53,"rain":0.0,"pressure":977.9,"uv_index":7.9,"wind_gusts":33.5,"aqi":62,"pm10":161.6,"pm2_5":31.3,"mosquito_risk":4,"arthritis_risk":5,"migraine_risk":7,"frizz_risk":0,"updated_at":"2026-03-22T11:26:21.607851+05:30"},{"city":"Akola","state":"Maharashtra","latitude":20.7002,"longitude":77.0082,"temp":30.9,"humidity":28,"rain":0.0,"pressure":981.1,"uv_index":8.3,"wind_gusts":21.2,"aqi":51,"pm10":11.4,"pm2_5":8.9,"mosquito_risk":0,"arthritis_risk":5,"migraine_risk":7,"frizz_risk":0,"updated_at":"2026-03-22T11:26:21.607858+05:30"},{"city":"Amravati","state":"Maharashtra","latitude":20.9374,"longitude":77.7796,"temp":31.3,"humidity":25,"rain":0.0,"pressure":973.3,"uv_index":8.3,"wind_gusts":22.3,"aqi":44,"pm10":11.4,"pm2_5":8.8,"mosquito_risk":0,"arthritis_risk":5,"migraine_risk":7,"frizz_risk":0,"updated_at":"2026-03-22T11:26:21.607866+05:30"},{"city":"Latur","state":"Maharashtra","latitude":18.4088,"longitude":76.5604,"temp":30.8,"humidity":27,"rain":0.0,"pressure":944.5,"uv_index":8.7,"wind_gusts":28.8,"aqi":66,"pm10":22.5,"pm2_5":16.2,"mosquito_risk":0,"arthritis_risk":5,"migraine_risk":7,"frizz_risk":0,"updated_at":"2026-03-22T11:26:21.607872+05:30"},{"city":"Nanded","state":"Maharashtra","latitude":19.1383,"longitude":77.3091,"temp":32.8,"humidity":26,"rain":0.0,"pressure":973.8,"uv_index":8.5,"wind_gusts":28.4,"aqi":66,"pm10":7.3,"pm2_5":7.2,"mosquito_risk":0,"arthritis_risk":5,"migraine_risk":7,"frizz_risk":0,"updated_at":"2026-03-22T11:26:21.607879+05:30"},{"city":"Gulbarga","state":"Karnataka","latitude":17.3297,"longitude":76.8343,"temp":32.5,"humidity":40,"rain":0.0,"pressure":962.8,"uv_index":8.75,"wind_gusts":18.4,"aqi":76,"pm10":36.8,"pm2_5":26.8,"mosquito_risk":0,"arthritis_risk":5,"migraine_risk":7,"frizz_risk":1,"updated_at":"2026-03-22T11:26:21.607885+05:30"},{"city":"Bidar","state":"Karnataka","latitude":17.9104,"longitude":77.5199,"temp":31.0,"humidity":41,"rain":0.0,"pressure":939.9,"uv_index":8.75,"wind_gusts":22.7,"aqi":84,"pm10":53.6,"pm2_5":37.0,"mosquito_risk":0,"arthritis_risk":5,"migraine_risk":7,"frizz_risk":1,"updated_at":"2026-03-22T11:26:21.607891+05:30"},{"city":"Hospet","state":"Karnataka","latitude":15.2689,"longitude":76.3909,"temp":31.1,"humidity":44,"rain":0.0,"pressure":959.3,"uv_index":9.0,"wind_gusts":15.1,"aqi":72,"pm10":35.9,"pm2_5":22.4,"mosquito_risk":0,"arthritis_risk":5,"migraine_risk":7,"frizz_risk":1,"updated_at":"2026-03-22T11:26:21.607897+05:30"},{"city":"Tirupur","state":"Tamil Nadu","latitude":11.1085,"longitude":77.3411,"temp":32.4,"humidity":46,"rain":0.0,"pressure":978.8,"uv_index":9.4,"wind_gusts":29.9,"aqi":67,"pm10":21.3,"pm2_5":14.6,"mosquito_risk":0,"arthritis_risk":5,"migraine_risk":7,"frizz_risk":1,"updated_at":"2026-03-22T11:26:21.607904+05:30"},{"city":"Alappuzha","state":"Kerala","latitude":9.4981,"longitude":76.3388,"temp":28.4,"humidity":78,"rain":0.0,"pressure":1011.3,"uv_index":9.1,"wind_gusts":31.7,"aqi":62,"pm10":21.5,"pm2_5":18.5,"mosquito_risk":7,"arthritis_risk":0,"migraine_risk":4,"frizz_risk":1,"updated_at":"2026-03-22T11:26:21.607910+05:30"},{"city":"Munnar","state":"Kerala","latitude":10.0889,"longitude":77.0595,"temp":29.4,"humidity":40,"rain":0.0,"pressure":861.7,"uv_index":8.65,"wind_gusts":28.4,"aqi":68,"pm10":25.6,"pm2_5":15.2,"mosquito_risk":4,"arthritis_risk":5,"migraine_risk":7,"frizz_risk":0,"updated_at":"2026-03-22T11:26:21.607917+05:30"},{"city":"Silchar","state":"Assam","latitude":24.8333,"longitude":92.7789,"temp":24.4,"humidity":77,"rain":0.0,"pressure":1010.1,"uv_index":7.95,"wind_gusts":23.4,"aqi":96,"pm10":13.5,"pm2_5":11.7,"mosquito_risk":3,"arthritis_risk":0,"migraine_risk":4,"frizz_risk":1,"updated_at":"2026-03-22T11:26:21.607924+05:30"},{"city":"Dibrugarh","state":"Assam","latitude":27.4728,"longitude":94.912,"temp":21.2,"humidity":88,"rain":0.0,"pressure":1000.1,"uv_index":3.55,"wind_gusts":28.4,"aqi":120,"pm10":45.6,"pm2_5":35.2,"mosquito_risk":3,"arthritis_risk":5,"migraine_risk":0,"frizz_risk":1,"updated_at":"2026-03-22T11:26:21.607930+05:30"}]