[{"city":"Delhi","state":"Delhi","latitude":28.6139,"longitude":77.209,"temp":24.4,"humidity":63,"rain":0.0,"pressure":986.9,"uv_index":5.85,"wind_gusts":32.8,"aqi":284,"pm10":689.2,"pm2_5":117.1,"mosquito_risk":3,"arthritis_risk":5,"migraine_risk":3,"frizz_risk":1,"updated_at":"2026-03-04T21:15:38.363206+05:30"},{"city":"Mumbai","state":"Maharashtra","latitude":19.076,"longitude":72.8777,"temp":28.9,"humidity":65,"rain":0.0,"pressure":1010.7,"uv_index":7.35,"wind_gusts":24.5,"aqi":210,"pm10":38.1,"pm2_5":36.6,"mosquito_risk":7,"arthritis_risk":0,"migraine_risk":4,"frizz_risk":1,"updated_at":"2026-03-04T21:15:38.363249+05:30"},{"city":"Bangalore","state":"Karnataka","latitude":12.9716,"longitude":77.5946,"temp":24.4,"humidity":44,"rain":0.0,"pressure":914.4,"uv_index":9.1,"wind_gusts":35.3,"aqi":122,"pm10":30.6,"pm2_5":29.9,"mosquito_risk":0,"arthritis_risk":5,"migraine_risk":7,"frizz_risk":0,"updated_at":"2026-03-04T21:15:38.363265+05:30"},{"city":"Hyderabad","state":"Telangana","latitude":17.385,"longitude":78.4867,"temp":26.0,"humidity":52,"rain":0.0,"pressure":956.4,"uv_index":8.4,"wind_gusts":25.6,"aqi":143,"pm10":33.8,"pm2_5":31.8,"mosquito_risk":4,"arthritis_risk":5,"migraine_risk":7,"frizz_risk":0,"updated_at":"2026-03-04T21:15:38.363275+05:30"},{"city":"Chennai","state":"Tamil Nadu","latitude":13.0827,"longitude":80.2707,"temp":25.6,"humidity":83,"rain":0.0,"pressure":1011.1,"uv_index":8.8,"wind_gusts":29.5,"aqi":98,"pm10":19.7,"pm2_5":17.3,"mosquito_risk":7,"arthritis_risk":0,"migraine_risk":4,"frizz_risk":1,"updated_at":"2026-03-04T21:15:38.363284+05:30"},{"city":"Kolkata","state":"West Bengal","latitude":22.5726,"longitude":88.3639,"temp":24.2,"humidity":61,"rain":0.0,"pressure":1008.5,"uv_index":7.75,"wind_gusts":18.7,"aqi":166,"pm10":131.8,"pm2_5":96.4,"mosquito_risk":3,"arthritis_risk":0,"migraine_risk":4,"frizz_risk":1,"updated_at":"2026-03-04T21:15:38.363292+05:30"},{"city":"Pune","state":"Maharashtra","latitude":18.5204,"longitude":73.8567,"temp":27.2,"humidity":44,"rain":0.0,"pressure":951.4,"uv_index":7.95,"wind_gusts":30.2,"aqi":133,"pm10":21.7,"pm2_5":21.2,"mosquito_risk":4,"arthritis_risk":5,"migraine_risk":7,"frizz_risk":0,"updated_at":"2026-03-04T21:15:38.363304+05:30"},{"city":"Ahmedabad","state":"Gujarat","latitude":23.0225,"longitude":72.5714,"temp":28.0,"humidity":35,"rain":0.0,"pressure":1006.3,"uv_index":7.2,"wind_gusts":19.8,"aqi":93,"pm10":29.0,"pm2_5":26.0,"mosquito_risk":4,"arthritis_risk":5,"migraine_risk":4,"frizz_risk":0,"updated_at":"2026-03-04T21:15:38.363312+05:30"},{"city":"Jaipur","state":"Rajasthan","latitude":26.9124,"longitude":75.7873,"temp":27.1,"humidity":23,"rain":0.0,"pressure":964.5,"uv_index":6.6,"wind_gusts":32.0,"aqi":92,"pm10":90.6,"pm2_5":35.7,"mosquito_risk":4,"arthritis_risk":5,"migraine_risk":7,"frizz_risk":0,"updated_at":"2026-03-04T21:15:38.363320+05:30"},{"city":"Lucknow","state":"Uttar Pradesh","latitude":26.8467,"longitude":80.9462,"temp":23.5,"humidity":67,"rain":0.0,"pressure":997.7,"uv_index":6.35,"wind_gusts":24.8,"aqi":161,"pm10":164.8,"pm2_5":71.9,"mosquito_risk":3,"arthritis_risk":5,"migraine_risk":7,"frizz_risk":1,"updated_at":"2026-03-04T21:15:38.363328+05:30"},{"city":"Kanpur","state":"Uttar Pradesh","latitude":26.4499,"longitude":80.3319,"temp":22.9,"humidity":65,"rain":0.0,"pressure":995.9,"uv_index":6.35,"wind_gusts":27.0,"aqi":177,"pm10":274.7,"pm2_5":80.1,"mosquito_risk":3,"arthritis_risk":5,"migraine_risk":7,"frizz_risk":0,"updated_at":"2026-03-04T21:15:38.363335+05:30"},{"city":"Chandigarh","state":"Chandigarh","latitude":30.7333,"longitude":76.7794,"temp":21.2,"humidity":72,"rain":0.0,"pressure":972.2,"uv_index":5.75,"wind_gusts":34.9,"aqi":128,"pm10":43.1,"pm2_5":38.9,"mosquito_risk":3,"arthritis_risk":5,"migraine_risk":3,"frizz_risk":0,"updated_at":"2026-03-04T21:15:38.363342+05:30"},{"city":"Srinagar","state":"Jammu and Kashmir","latitude":34.0837,"longitude":74.7973,"temp":10.3,"humidity":76,"rain":0.0,"pressure":843.9,"uv_index":6.15,"wind_gusts":15.5,"aqi":148,"pm10":108.5,"pm2_5":81.5,"mosquito_risk":3,"arthritis_risk":5,"migraine_risk":7,"frizz_risk":0,"updated_at":"2026-03-04T21:15:38.363349+05:30"},{"city":"Jammu","state":"Jammu and Kashmir","latitude":32.7266,"longitude":74.857,"temp":23.4,"humidity":59,"rain":0.0,"pressure":976.3,"uv_index":6.35,"wind_gusts":22.3,"aqi":116,"pm10":67.8,"pm2_5":55.3,"mosquito_risk":0,"arthritis_risk":5,"migraine_risk":7,"frizz_risk":0,"updated_at":"2026-03-04T21:15:38.363356+05:30"},{"city":"Amritsar","state":"Punjab","latitude":31.634,"longitude":74.8723,"temp":20.8,"humidity":67,"rain":0.0,"pressure":984.4,"uv_index":6.3,"wind_gusts":22.0,"aqi":151,"pm10":66.6,"pm2_5":52.3,"mosquito_risk":3,"arthritis_risk":5,"migraine_risk":7,"frizz_risk":0,"updated_at":"2026-03-04T21:15:38.363362+05:30"},{"city":"Ludhiana","state":"Punjab","latitude":30.901,"longitude":75.8573,"temp":23.1,"humidity":73,"rain":0.0,"pressure":982.8,"uv_index":5.95,"wind_gusts":28.8,"aqi":154,"pm10":102.2,"pm2_5":69.4,"mosquito_risk":3,"arthritis_risk":5,"migraine_risk":3,"frizz_risk":1,"updated_at":"2026-03-04T21:15:38.363369+05:30"},{"city":"Jalandhar","state":"Punjab","latitude":31.326,"longitude":75.5762,"temp":21.8,"humidity":67,"rain":0.0,"pressure":983.7,"uv_index":6.15,"wind_gusts":27.0,"aqi":155,"pm10":91.5,"pm2_5":66.8,"mosquito_risk":3,"arthritis_risk":5,"migraine_risk":7,"frizz_risk":0,"updated_at":"2026-03-04T21:15:38.363379+05:30"},{"city":"Dehradun","state":"Uttarakhand","latitude":30.6284,"longitude":78.0322,"temp":14.4,"humidity":74,"rain":0.0,"pressure":831.8,"uv_index":6.1,"wind_gusts":29.2,"aqi":95,"pm10":28.9,"pm2_5":21.2,"mosquito_risk":3,"arthritis_risk":5,"migraine_risk":7,"frizz_risk":0,"updated_at":"2026-03-04T21:15:38.363386+05:30"},{"city":"Shimla","state":"Himachal Pradesh","latitude":31.1048,"longitude":77.1734,"temp":13.7,"humidity":49,"rain":0.0,"pressure":786.7,"uv_index":6.15,"wind_gusts":50.4,"aqi":99,"pm10":31.3,"pm2_5":22.5,"mosquito_risk":0,"arthritis_risk":5,"migraine_risk":7,"frizz_risk":0,"updated_at":"2026-03-04T21:15:38.363395+05:30"},{"city":"Manali","state":"Himachal Pradesh","latitude":32.2396,"longitude":77.1887,"temp":18.2,"humidity":29,"rain":0.0,"pressure":824.2,"uv_index":7.75,"wind_gusts":32.8,"aqi":103,"pm10":28.1,"pm2_5":15.5,"mosquito_risk":0,"arthritis_risk":5,"migraine_risk":7,"frizz_risk":1,"updated_at":"2026-03-04T21:15:38.363402+05:30"},{"city":"Gurgaon","state":"Haryana","latitude":28.4595,"longitude":77.0266,"temp":21.1,"humidity":74,"rain":0.0,"pressure":985.3,"uv_index":5.95,"wind_gusts":31.0,"aqi":1178,"pm10":1441.7,"pm2_5":187.7,"mosquito_risk":3,"arthritis_risk":5,"migraine_risk":3,"frizz_risk":1,"updated_at":"2026-03-04T21:15:38.363409+05:30"},{"city":"Noida","state":"Uttar Pradesh","latitude":28.5355,"longitude":77.391,"temp":24.4,"humidity":60,"rain":0.0,"pressure":988.4,"uv_index":5.85,"wind_gusts":32.0,"aqi":1178,"pm10":1441.7,"pm2_5":187.7,"mosquito_risk":0,"arthritis_risk":5,"migraine_risk":3,"frizz_risk":1,"updated_at":"2026-03-04T21:15:38.363415+05:30"},{"city":"Ghaziabad","state":"Uttar Pradesh","latitude":28.6692,"longitude":77.4538,"temp":23.9,"humidity":66,"rain":0.0,"pressure":986.4,"uv_index":5.8,"wind_gusts":29.5,"aqi":193,"pm10":597.9,"pm2_5":107.8,"mosquito_risk":3,"arthritis_risk":5,"migraine_risk":3,"frizz_risk":1,"updated_at":"2026-03-04T21:15:38.363421+05:30"},{"city":"Faridabad","state":"Haryana","latitude":28.4089,"longitude":77.3178,"temp":24.3,"humidity":56,"rain":0.0,"pressure":987.7,"uv_index":5.9,"wind_gusts":29.9,"aqi":1178,"pm10":1441.7,"pm2_5":187.7,"mosquito_risk":0,"arthritis_risk":5,"migraine_risk":3,"frizz_risk":0,"updated_at":"2026-03-04T21:15:38.363428+05:30"},{"city":"Meerut","state":"Uttar Pradesh","latitude":28.9845,"longitude":77.7064,"temp":22.2,"humidity":75,"rain":0.0,"pressure":985.1,"uv_index":5.7,"wind_gusts":32.0,"aqi":193,"pm10":597.9,"pm2_5":107.8,"mosquito_risk":3,"arthritis_risk":5,"migraine_risk":3,"frizz_risk":1,"updated_at":"2026-03-04T21:15:38.363434+05:30"},{"city":"Agra","state":"Uttar Pradesh","latitude":27.1767,"longitude":78.0081,"temp":22.3,"humidity":58,"rain":0.0,"pressure":991.6,"uv_index":6.2,"wind_gusts":32.8,"aqi":419,"pm10":676.1,"pm2_5":99.7,"mosquito_risk":0,"arthritis_risk":5,"migraine_risk":7,"frizz_risk":0,"updated_at":"2026-03-04T21:15:38.363441+05:30"},{"city":"Varanasi","state":"Uttar Pradesh","latitude":25.3176,"longitude":82.9739,"temp":22.2,"humidity":73,"rain":0.0,"pressure":1001.5,"uv_index":7.0,"wind_gusts":18.4,"aqi":152,"pm10":170.4,"pm2_5":81.7,"mosquito_risk":3,"arthritis_risk":5,"migraine_risk":4,"frizz_risk":1,"updated_at":"2026-03-04T21:15:38.363450+05:30"},{"city":"Prayagraj","state":"Uttar Pradesh","latitude":25.4358,"longitude":81.8463,"temp":23.3,"humidity":64,"rain":0.0,"pressure":1000.0,"uv_index":6.85,"wind_gusts":23.4,"aqi":154,"pm10":111.3,"pm2_5":63.8,"mosquito_risk":3,"arthritis_risk":5,"migraine_risk":4,"frizz_risk":1,"updated_at":"2026-03-04T21:15:38.363457+05:30"},{"city":"Gorakhpur","state":"Uttar Pradesh","latitude":26.7606,"longitude":83.3732,"temp":22.1,"humidity":72,"rain":0.0,"pressure":1001.1,"uv_index":6.7,"wind_gusts":12.2,"aqi":165,"pm10":156.0,"pm2_5":112.7,"mosquito_risk":3,"arthritis_risk":5,"migraine_risk":4,"frizz_risk":1,"updated_at":"2026-03-04T21:15:38.363464+05:30"},{"city":"Bareilly","state":"Uttar Pradesh","latitude":28.367,"longitude":79.4304,"temp":21.3,"humidity":75,"rain":0.0,"pressure":990.7,"uv_index":6.05,"wind_gusts":20.5,"aqi":162,"pm10":102.7,"pm2_5":81.7,"mosquito_risk":3,"arthritis_risk":5,"migraine_risk":7,"frizz_risk":1,"updated_at":"2026-03-04T21:15:38.363473+05:30"},{"city":"Aligarh","state":"Uttar Pradesh","latitude":27.8974,"longitude":78.088,"temp":21.6,"humidity":66,"rain":0.0,"pressure":989.2,"uv_index":5.95,"wind_gusts":28.8,"aqi":609,"pm10":1024.5,"pm2_5":165.3,"mosquito_risk":3,"arthritis_risk":5,"migraine_risk":3,"frizz_risk":0,"updated_at":"2026-03-04T21:15:38.363479+05:30"},{"city":"Moradabad","state":"Uttar Pradesh","latitude":28.8386,"longitude":78.7733,"temp":22.6,"humidity":77,"rain":0.0,"pressure":987.6,"uv_index":5.85,"wind_gusts":23.4,"aqi":157,"pm10":179.7,"pm2_5":92.0,"mosquito_risk":3,"arthritis_risk":5,"migraine_risk":3,"frizz_risk":1,"updated_at":"2026-03-04T21:15:38.363485+05:30"},{"city":"Saharanpur","state":"Uttar Pradesh","latitude":29.9637,"longitude":77.546,"temp":21.8,"humidity":79,"rain":0.0,"pressure":979.1,"uv_index":5.5,"wind_gusts":39.2,"aqi":151,"pm10":175.1,"pm2_5":62.2,"mosquito_risk":3,"arthritis_risk":5,"migraine_risk":3,"frizz_risk":1,"updated_at":"2026-03-04T21:15:38.363492+05:30"},{"city":"Jhansi","state":"Uttar Pradesh","latitude":25.4484,"longitude":78.5685,"temp":25.9,"humidity":40,"rain":0.0,"pressure":982.3,"uv_index":6.8,"wind_gusts":31.7,"aqi":76,"pm10":34.6,"pm2_5":25.4,"mosquito_risk":4,"arthritis_risk":5,"migraine_risk":7,"frizz_risk":0,"updated_at":"2026-03-04T21:15:41.713877+05:30"},{"city":"Surat","state":"Gujarat","latitude":21.1702,"longitude":72.8311,"temp":27.6,"humidity":47,"rain":0.0,"pressure":1009.8,"uv_index":7.05,"wind_gusts":27.7,"aqi":143,"pm10":51.0,"pm2_5":48.0,"mosquito_risk":4,"arthritis_risk":0,"migraine_risk":4,"frizz_risk":0,"updated_at":"2026-03-04T21:15:41.713907+05:30"},{"city":"Vadodara","state":"Gujarat","latitude":22.3072,"longitude":73.1812,"temp":30.4,"humidity":52,"rain":0.0,"pressure":1008.1,"uv_index":7.2,"wind_gusts":18.7,"aqi":145,"pm10":45.4,"pm2_5":41.3,"mosquito_risk":0,"arthritis_risk":0,"migraine_risk":4,"frizz_risk":1,"updated_at":"2026-03-04T21:15:41.713917+05:30"},{"city":"Rajkot","state":"Gujarat","latitude":22.3039,"longitude":70.8022,"temp":27.8,"humidity":46,"rain":0.0,"pressure":999.1,"uv_index":7.0,"wind_gusts":25.9,"aqi":111,"pm10":28.5,"pm2_5":27.1,"mosquito_risk":4,"arthritis_risk":5,"migraine_risk":7,"frizz_risk":0,"updated_at":"2026-03-04T21:15:41.713924+05:30"},{"city":"Thane","state":"Maharashtra","latitude":19.2183,"longitude":72.9781,"temp":29.4,"humidity":43,"rain":0.0,"pressure":1010.0,"uv_index":7.35,"wind_gusts":35.3,"aqi":210,"pm10":38.1,"pm2_5":36.6,"mosquito_risk":4,"arthritis_risk":0,"migraine_risk":4,"frizz_risk":0,"updated_at":"2026-03-04T21:15:41.713931+05:30"},{"city":"Nagpur","state":"Maharashtra","latitude":21.1458,"longitude":79.0882,"temp":27.3,"humidity":41,"rain":0.0,"pressure":976.4,"uv_index":7.75,"wind_gusts":23.0,"aqi":92,"pm10":42.7,"pm2_5":37.4,"mosquito_risk":4,"arthritis_risk":5,"migraine_risk":7,"frizz_risk":0,"updated_at":"2026-03-04T21:15:41.713939+05:30"},{"city":"Nashik","state":"Maharashtra","latitude":19.9975,"longitude":73.7898,"temp":26.4,"humidity":37,"rain":0.0,"pressure":948.8,"uv_index":7.55,"wind_gusts":23.4,"aqi":132,"pm10":26.8,"pm2_5":26.3,"mosquito_risk":4,"arthritis_risk":5,"migraine_risk":7,"frizz_risk":0,"updated_at":"2026-03-04T21:15:41.713946+05:30"},{"city":"Aurangabad","state":"Maharashtra","latitude":19.8762,"longitude":75.3433,"temp":26.7,"humidity":40,"rain":0.0,"pressure":947.4,"uv_index":8.05,"wind_gusts":22.7,"aqi":139,"pm10":27.3,"pm2_5":26.7,"mosquito_risk":4,"arthritis_risk":5,"migraine_risk":7,"frizz_risk":0,"updated_at":"2026-03-04T21:15:41.713953+05:30"},{"city":"Solapur","state":"Maharashtra","latitude":17.6599,"longitude":75.9064,"temp":26.7,"humidity":52,"rain":0.0,"pressure":959.7,"uv_index":8.3,"wind_gusts":18.0,"aqi":142,"pm10":21.7,"pm2_5":20.7,"mosquito_risk":4,"arthritis_risk":5,"migraine_risk":7,"frizz_risk":1,"updated_at":"2026-03-04T21:15:41.713960+05:30"},{"city":"Kolhapur","state":"Maharashtra","latitude":16.705,"longitude":74.2433,"temp":24.1,"humidity":65,"rain":0.0,"pressure":950.8,"uv_index":8.45,"wind_gusts":37.8,"aqi":156,"pm10":51.1,"pm2_5":50.5,"mosquito_risk":3,"arthritis_risk":5,"migraine_risk":7,"frizz_risk":1,"updated_at":"2026-03-04T21:15:41.713967+05:30"},{"city":"Goa","state":"Goa","latitude":15.2993,"longitude":74.124,"temp":27.4,"humidity":85,"rain":0.0,"pressure":1001.0,"uv_index":8.5,"wind_gusts":35.6,"aqi":116,"pm10":45.5,"pm2_5":40.6,"mosquito_risk":7,"arthritis_risk":5,"migraine_risk":4,"frizz_risk":1,"updated_at":"2026-03-04T21:15:41.713974+05:30"},{"city":"Jodhpur","state":"Rajasthan","latitude":26.2389,"longitude":73.0243,"temp":27.3,"humidity":37,"rain":0.0,"pressure":987.6,"uv_index":6.9,"wind_gusts":18.0,"aqi":91,"pm10":76.8,"pm2_5":30.9,"mosquito_risk":4,"arthritis_risk":5,"migraine_risk":7,"frizz_risk":0,"updated_at":"2026-03-04T21:15:41.713981+05:30"},{"city":"Udaipur","state":"Rajasthan","latitude":24.5854,"longitude":73.7125,"temp":23.9,"humidity":39,"rain":0.0,"pressure":951.4,"uv_index":7.5,"wind_gusts":23.8,"aqi":96,"pm10":31.2,"pm2_5":19.1,"mosquito_risk":0,"arthritis_risk":5,"migraine_risk":7,"frizz_risk":0,"updated_at":"2026-03-04T21:15:41.713987+05:30"},{"city":"Kota","state":"Rajasthan","latitude":25.2138,"longitude":75.8648,"temp":26.4,"humidity":38,"rain":0.0,"pressure":983.3,"uv_index":6.9,"wind_gusts":17.6,"aqi":81,"pm10":50.2,"pm2_5":33.9,"mosquito_risk":4,"arthritis_risk":5,"migraine_risk":7,"frizz_risk":0,"updated_at":"2026-03-04T21:15:41.713994+05:30"},{"city":"Bikaner","state":"Rajasthan","latitude":28.0229,"longitude":73.3119,"temp":26.6,"humidity":38,"rain":0.0,"pressure":986.7,"uv_index":6.55,"wind_gusts":23.8,"aqi":67,"pm10":56.9,"pm2_5":20.4,"mosquito_risk":4,"arthritis_risk":5,"migraine_risk":7,"frizz_risk":0,"updated_at":"2026-03-04T21:15:41.714001+05:30"},{"city":"Ajmer","state":"Rajasthan","latitude":26.4499,"longitude":74.6399,"temp":26.0,"humidity":33,"rain":0.0,"pressure":959.3,"uv_index":6.85,"wind_gusts":23.4,"aqi":73,"pm10":59.5,"pm2_5":26.1,"mosquito_risk":4,"arthritis_risk":5,"migraine_risk":7,"frizz_risk":0,"updated_at":"2026-03-04T21:15:41.714007+05:30"},{"city":"Gwalior","state":"Madhya Pradesh","latitude":26.2183,"longitude":78.1828,"temp":24.6,"humidity":56,"rain":0.0,"pressure":987.5,"uv_index":6.5,"wind_gusts":29.2,"aqi":80,"pm10":67.8,"pm2_5":31.4,"mosquito_risk":0,"arthritis_risk":5,"migraine_risk":7,"frizz_risk":0,"updated_at":"2026-03-04T21:15:41.714013+05:30"},{"city":"Indore","state":"Madhya Pradesh","latitude":22.7196,"longitude":75.8577,"temp":23.0,"humidity":51,"rain":0.0,"pressure":951.9,"uv_index":7.45,"wind_gusts":20.5,"aqi":91,"pm10":34.8,"pm2_5":28.3,"mosquito_risk":0,"arthritis_risk":5,"migraine_risk":7,"frizz_risk":0,"updated_at":"2026-03-04T21:15:41.714019+05:30"},{"city":"Bhopal","state":"Madhya Pradesh","latitude":23.2599,"longitude":77.4126,"temp":21.9,"humidity":43,"rain":0.0,"pressure":957.6,"uv_index":7.3,"wind_gusts":23.0,"aqi":73,"pm10":22.5,"pm2_5":17.9,"mosquito_risk":0,"arthritis_risk":5,"migraine_risk":7,"frizz_risk":0,"updated_at":"2026-03-04T21:15:41.714025+05:30"},{"city":"Jabalpur","state":"Madhya Pradesh","latitude":23.1815,"longitude":79.9864,"temp":25.7,"humidity":36,"rain":0.0,"pressure":965.3,"uv_index":7.45,"wind_gusts":23.4,"aqi":76,"pm10":26.5,"pm2_5":18.3,"mosquito_risk":4,"arthritis_risk":5,"migraine_risk":7,"frizz_risk":0,"updated_at":"2026-03-04T21:15:41.714031+05:30"},{"city":"Ujjain","state":"Madhya Pradesh","latitude":23.1765,"longitude":75.7885,"temp":24.0,"humidity":45,"rain":0.0,"pressure":957.8,"uv_index":7.35,"wind_gusts":19.4,"aqi":106,"pm10":50.9,"pm2_5":41.8,"mosquito_risk":0,"arthritis_risk":5,"migraine_risk":7,"frizz_risk":0,"updated_at":"2026-03-04T21:15:41.714038+05:30"},{"city":"Visakhapatnam","state":"Andhra Pradesh","latitude":17.6868,"longitude":83.2185,"temp":25.4,"humidity":82,"rain":0.0,"pressure":1006.7,"uv_index":8.4,"wind_gusts":36.7,"aqi":132,"pm10":33.6,"pm2_5":29.7,"mosquito_risk":7,"arthritis_risk":5,"migraine_risk":4,"frizz_risk":1,"updated_at":"2026-03-04T21:15:41.714044+05:30"},{"city":"Vijayawada","state":"Andhra Pradesh","latitude":16.5062,"longitude":80.648,"temp":26.2,"humidity":68,"rain":0.0,"pressure":1006.1,"uv_index":8.45,"wind_gusts":22.0,"aqi":123,"pm10":35.7,"pm2_5":34.3,"mosquito_risk":7,"arthritis_risk":5,"migraine_risk":4,"frizz_risk":1,"updated_at":"2026-03-04T21:15:41.714051+05:30"},{"city":"Guntur","state":"Andhra Pradesh","latitude":16.3067,"longitude":80.4365,"temp":25.9,"humidity":74,"rain":0.0,"pressure":1007.3,"uv_index":8.45,"wind_gusts":25.6,"aqi":112,"pm10":42.1,"pm2_5":40.7,"mosquito_risk":7,"arthritis_risk":5,"migraine_risk":4,"frizz_risk":1,"updated_at":"2026-03-04T21:15:41.714057+05:30"},{"city":"Nellore","state":"Andhra Pradesh","latitude":14.4426,"longitude":79.9865,"temp":25.2,"humidity":85,"rain":0.0,"pressure":1009.4,"uv_index":8.65,"wind_gusts":29.9,"aqi":105,"pm10":17.4,"pm2_5":15.2,"mosquito_risk":7,"arthritis_risk":0,"migraine_risk":4,"frizz_risk":1,"updated_at":"2026-03-04T21:15:41.714064+05:30"},{"city":"Kurnool","state":"Andhra Pradesh","latitude":15.8281,"longitude":78.0373,"temp":30.1,"humidity":44,"rain":0.0,"pressure":979.5,"uv_index":8.45,"wind_gusts":27.0,"aqi":128,"pm10":19.2,"pm2_5":18.5,"mosquito_risk":0,"arthritis_risk":5,"migraine_risk":7,"frizz_risk":1,"updated_at":"2026-03-04T21:15:41.714071+05:30"},{"city":"Kakinada","state":"Andhra Pradesh","latitude":16.9891,"longitude":82.2475,"temp":24.2,"humidity":80,"rain":0.0,"pressure":1010.5,"uv_index":8.4,"wind_gusts":33.8,"aqi":99,"pm10":29.9,"pm2_5":26.1,"mosquito_risk":3,"arthritis_risk":0,"migraine_risk":4,"frizz_risk":1,"updated_at":"2026-03-04T21:15:41.714078+05:30"},{"city":"Tirupati","state":"Andhra Pradesh","latitude":13.6288,"longitude":79.4192,"temp":26.0,"humidity":53,"rain":0.0,"pressure":995.4,"uv_index":8.8,"wind_gusts":34.6,"aqi":139,"pm10":37.5,"pm2_5":36.6,"mosquito_risk":4,"arthritis_risk":5,"migraine_risk":7,"frizz_risk":0,"updated_at":"2026-03-04T21:15:41.714084+05:30"},{"city":"Warangal","state":"Telangana","latitude":17.9689,"longitude":79.5941,"temp":27.8,"humidity":41,"rain":0.0,"pressure":981.6,"uv_index":8.2,"wind_gusts":20.5,"aqi":130,"pm10":35.4,"pm2_5":33.2,"mosquito_risk":4,"arthritis_risk":5,"migraine_risk":7,"frizz_risk":0,"updated_at":"2026-03-04T21:15:41.714090+05:30"},{"city":"Nizamabad","state":"Telangana","latitude":18.6725,"longitude":78.0941,"temp":24.9,"humidity":52,"rain":0.0,"pressure":967.7,"uv_index":8.1,"wind_gusts":26.3,"aqi":128,"pm10":39.6,"pm2_5":36.6,"mosquito_risk":0,"arthritis_risk":5,"migraine_risk":7,"frizz_risk":0,"updated_at":"2026-03-04T21:15:41.714097+05:30"},{"city":"Mysore","state":"Karnataka","latitude":12.2958,"longitude":76.6396,"temp":25.8,"humidity":36,"rain":0.0,"pressure":930.8,"uv_index":9.15,"wind_gusts":40.3,"aqi":117,"pm10":34.8,"pm2_5":33.9,"mosquito_risk":4,"arthritis_risk":5,"migraine_risk":7,"frizz_risk":0,"updated_at":"2026-03-04T21:15:41.714103+05:30"},{"city":"Mangalore","state":"Karnataka","latitude":12.9141,"longitude":74.856,"temp":28.4,"humidity":80,"rain":0.0,"pressure":1010.0,"uv_index":8.75,"wind_gusts":29.2,"aqi":103,"pm10":39.2,"pm2_5":34.2,"mosquito_risk":7,"arthritis_risk":0,"migraine_risk":4,"frizz_risk":1,"updated_at":"2026-03-04T21:15:41.714109+05:30"},{"city":"Hubli-Dharwad","state":"Karnataka","latitude":15.3647,"longitude":75.124,"temp":26.7,"humidity":46,"rain":0.0,"pressure":943.4,"uv_index":8.65,"wind_gusts":25.6,"aqi":158,"pm10":22.6,"pm2_5":22.2,"mosquito_risk":4,"arthritis_risk":5,"migraine_risk":7,"frizz_risk":0,"updated_at":"2026-03-04T21:15:41.714115+05:30"},{"city":"Belgaum","state":"Karnataka","latitude":15.8497,"longitude":74.4977,"temp":24.6,"humidity":77,"rain":0.0,"pressure":928.7,"uv_index":8.7,"wind_gusts":32.4,"aqi":162,"pm10":38.0,"pm2_5":37.3,"mosquito_risk":3,"arthritis_risk":5,"migraine_risk":7,"frizz_risk":1,"updated_at":"2026-03-04T21:15:45.055540+05:30"},{"city":"Coimbatore","state":"Tamil Nadu","latitude":11.0168,"longitude":76.9558,"temp":24.0,"humidity":55,"rain":0.0,"pressure":964.6,"uv_index":9.15,"wind_gusts":43.2,"aqi":134,"pm10":38.4,"pm2_5":37.4,"mosquito_risk":0,"arthritis_risk":5,"migraine_risk":7,"frizz_risk":0,"updated_at":"2026-03-04T21:15:45.055574+05:30"},{"city":"Madurai","state":"Tamil Nadu","latitude":9.9252,"longitude":78.1198,"temp":26.9,"humidity":64,"rain":0.0,"pressure":996.4,"uv_index":9.1,"wind_gusts":25.9,"aqi":89,"pm10":28.3,"pm2_5":27.8,"mosquito_risk":7,"arthritis_risk":5,"migraine_risk":7,"frizz_risk":1,"updated_at":"2026-03-04T21:15:45.055584+05:30"},{"city":"Trichy","state":"Tamil Nadu","latitude":10.7905,"longitude":78.7047,"temp":26.0,"humidity":72,"rain":0.0,"pressure":1003.2,"uv_index":9.0,"wind_gusts":31.0,"aqi":95,"pm10":22.7,"pm2_5":21.8,"mosquito_risk":7,"arthritis_risk":5,"migraine_risk":4,"frizz_risk":1,"updated_at":"2026-03-04T21:15:45.055592+05:30"},{"city":"Salem","state":"Tamil Nadu","latitude":11.6643,"longitude":78.146,"temp":27.7,"humidity":44,"rain":0.0,"pressure":980.4,"uv_index":9.0,"wind_gusts":37.8,"aqi":113,"pm10":22.4,"pm2_5":21.7,"mosquito_risk":4,"arthritis_risk":5,"migraine_risk":7,"frizz_risk":0,"updated_at":"2026-03-04T21:15:45.055601+05:30"},{"city":"Tirunelveli","state":"Tamil Nadu","latitude":8.7139,"longitude":77.7567,"temp":26.1,"humidity":77,"rain":0.0,"pressure":1006.5,"uv_index":9.15,"wind_gusts":41.4,"aqi":80,"pm10":18.7,"pm2_5":17.7,"mosquito_risk":7,"arthritis_risk":5,"migraine_risk":4,"frizz_risk":1,"updated_at":"2026-03-04T21:15:45.055609+05:30"},{"city":"Vellore","state":"Tamil Nadu","latitude":12.9165,"longitude":79.1325,"temp":25.8,"humidity":53,"rain":0.0,"pressure":988.3,"uv_index":8.85,"wind_gusts":38.9,"aqi":127,"pm10":29.1,"pm2_5":28.3,"mosquito_risk":4,"arthritis_risk":5,"migraine_risk":7,"frizz_risk":0,"updated_at":"2026-03-04T21:15:45.055616+05:30"},{"city":"Erode","state":"Tamil Nadu","latitude":11.341,"longitude":77.7172,"temp":28.7,"humidity":43,"rain":0.0,"pressure":991.8,"uv_index":9.05,"wind_gusts":31.0,"aqi":135,"pm10":29.2,"pm2_5":28.6,"mosquito_risk":4,"arthritis_risk":5,"migraine_risk":7,"frizz_risk":0,"updated_at":"2026-03-04T21:15:45.055623+05:30"},{"city":"Kochi","state":"Kerala","latitude":9.9312,"longitude":76.2673,"temp":28.0,"humidity":77,"rain":0.0,"pressure":1011.8,"uv_index":8.95,"wind_gusts":34.6,"aqi":116,"pm10":42.3,"pm2_5":40.5,"mosquito_risk":7,"arthritis_risk":0,"migraine_risk":4,"frizz_risk":1,"updated_at":"2026-03-04T21:15:45.055631+05:30"},{"city":"Thiruvananthapuram","state":"Kerala","latitude":8.5241,"longitude":76.9366,"temp":28.2,"humidity":76,"rain":0.0,"pressure":1010.9,"uv_index":9.0,"wind_gusts":27.4,"aqi":130,"pm10":24.0,"pm2_5":21.5,"mosquito_risk":7,"arthritis_risk":0,"migraine_risk":4,"frizz_risk":1,"updated_at":"2026-03-04T21:15:45.055638+05:30"},{"city":"Kozhikode","state":"Kerala","latitude":11.2588,"longitude":75.7804,"temp":28.7,"humidity":79,"rain":0.0,"pressure":1010.9,"uv_index":8.85,"wind_gusts":31.0,"aqi":93,"pm10":33.4,"pm2_5":28.8,"mosquito_risk":7,"arthritis_risk":0,"migraine_risk":4,"frizz_risk":1,"updated_at":"2026-03-04T21:15:45.055645+05:30"},{"city":"Thrissur","state":"Kerala","latitude":10.5276,"longitude":76.2144,"temp":27.1,"humidity":87,"rain":0.0,"pressure":1010.1,"uv_index":8.9,"wind_gusts":37.8,"aqi":130,"pm10":33.2,"pm2_5":31.3,"mosquito_risk":7,"arthritis_risk":0,"migraine_risk":4,"frizz_risk":1,"updated_at":"2026-03-04T21:15:45.055653+05:30"},{"city":"Kannur","state":"Kerala","latitude":11.8745,"longitude":75.3704,"temp":28.2,"humidity":77,"rain":0.0,"pressure":1010.2,"uv_index":8.8,"wind_gusts":33.5,"aqi":94,"pm10":40.6,"pm2_5":34.8,"mosquito_risk":7,"arthritis_risk":0,"migraine_risk":4,"frizz_risk":1,"updated_at":"2026-03-04T21:15:45.055661+05:30"},{"city":"Patna","state":"Bihar","latitude":25.5941,"longitude":85.1376,"temp":24.7,"humidity":62,"rain":0.0,"pressure":1004.2,"uv_index":7.2,"wind_gusts":15.5,"aqi":167,"pm10":136.4,"pm2_5":103.1,"mosquito_risk":3,"arthritis_risk":5,"migraine_risk":4,"frizz_risk":1,"updated_at":"2026-03-04T21:15:45.055668+05:30"},{"city":"Gaya","state":"Bihar","latitude":24.7914,"longitude":85.0002,"temp":21.5,"humidity":67,"rain":0.0,"pressure":997.5,"uv_index":7.25,"wind_gusts":17.6,"aqi":151,"pm10":139.7,"pm2_5":79.4,"mosquito_risk":3,"arthritis_risk":5,"migraine_risk":7,"frizz_risk":0,"updated_at":"2026-03-04T21:15:45.055675+05:30"},{"city":"Muzaffarpur","state":"Bihar","latitude":26.1209,"longitude":85.3647,"temp":22.5,"humidity":65,"rain":0.0,"pressure":1004.2,"uv_index":7.15,"wind_gusts":14.0,"aqi":168,"pm10":122.9,"pm2_5":97.1,"mosquito_risk":3,"arthritis_risk":5,"migraine_risk":4,"frizz_risk":0,"updated_at":"2026-03-04T21:15:45.055682+05:30"},{"city":"Bhagalpur","state":"Bihar","latitude":25.2425,"longitude":87.0117,"temp":22.7,"humidity":62,"rain":0.0,"pressure":1004.9,"uv_index":7.2,"wind_gusts":8.3,"aqi":165,"pm10":113.9,"pm2_5":82.4,"mosquito_risk":3,"arthritis_risk":5,"migraine_risk":4,"frizz_risk":0,"updated_at":"2026-03-04T21:15:45.055689+05:30"},{"city":"Ranchi","state":"Jharkhand","latitude":23.3441,"longitude":85.3096,"temp":21.3,"humidity":46,"rain":0.0,"pressure":940.4,"uv_index":7.9,"wind_gusts":30.6,"aqi":111,"pm10":101.5,"pm2_5":35.4,"mosquito_risk":0,"arthritis_risk":5,"migraine_risk":7,"frizz_risk":0,"updated_at":"2026-03-04T21:15:45.055695+05:30"},{"city":"Jamshedpur","state":"Jharkhand","latitude":22.8046,"longitude":86.2029,"temp":25.7,"humidity":52,"rain":0.0,"pressure":993.6,"uv_index":7.85,"wind_gusts":19.1,"aqi":150,"pm10":132.7,"pm2_5":65.7,"mosquito_risk":4,"arthritis_risk":5,"migraine_risk":7,"frizz_risk":0,"updated_at":"2026-03-04T21:15:45.055702+05:30"},{"city":"Dhanbad","state":"Jharkhand","latitude":23.7957,"longitude":86.4304,"temp":24.6,"humidity":39,"rain":0.0,"pressure":982.9,"uv_index":7.7,"wind_gusts":23.4,"aqi":149,"pm10":112.5,"pm2_5":64.7,"mosquito_risk":0,"arthritis_risk":5,"migraine_risk":7,"frizz_risk":0,"updated_at":"2026-03-04T21:15:45.055709+05:30"},{"city":"Bokaro","state":"Jharkhand","latitude":23.6693,"longitude":86.1511,"temp":23.7,"humidity":43,"rain":0.0,"pressure":987.2,"uv_index":7.7,"wind_gusts":23.8,"aqi":151,"pm10":135.5,"pm2_5":65.0,"mosquito_risk":0,"arthritis_risk":5,"migraine_risk":7,"frizz_risk":0,"updated_at":"2026-03-04T21:15:45.055715+05:30"},{"city":"Bhubaneswar","state":"Odisha","latitude":20.2961,"longitude":85.8245,"temp":25.4,"humidity":84,"rain":0.0,"pressure":1004.7,"uv_index":8.15,"wind_gusts":26.6,"aqi":161,"pm10":75.9,"pm2_5":65.7,"mosquito_risk":7,"arthritis_risk":5,"migraine_risk":4,"frizz_risk":1,"updated_at":"2026-03-04T21:15:45.055722+05:30"},{"city":"Cuttack","state":"Odisha","latitude":20.4625,"longitude":85.8828,"temp":25.6,"humidity":67,"rain":0.0,"pressure":1006.6,"uv_index":8.15,"wind_gusts":27.0,"aqi":161,"pm10":75.9,"pm2_5":65.7,"mosquito_risk":7,"arthritis_risk":5,"migraine_risk":4,"frizz_risk":1,"updated_at":"2026-03-04T21:15:45.055729+05:30"},{"city":"Rourkela","state":"Odisha","latitude":22.2604,"longitude":84.8536,"temp":26.7,"humidity":47,"rain":0.0,"pressure":987.9,"uv_index":7.75,"wind_gusts":21.2,"aqi":123,"pm10":66.1,"pm2_5":42.6,"mosquito_risk":4,"arthritis_risk":5,"migraine_risk":7,"frizz_risk":0,"updated_at":"2026-03-04T21:15:45.055735+05:30"},{"city":"Raipur","state":"Chhattisgarh","latitude":21.2514,"longitude":81.6296,"temp":26.2,"humidity":41,"rain":0.0,"pressure":977.6,"uv_index":7.8,"wind_gusts":19.8,"aqi":127,"pm10":65.2,"pm2_5":54.9,"mosquito_risk":4,"arthritis_risk":5,"migraine_risk":7,"frizz_risk":0,"updated_at":"2026-03-04T21:15:45.055741+05:30"},{"city":"Bhilai","state":"Chhattisgarh","latitude":21.1938,"longitude":81.3509,"temp":24.2,"humidity":51,"rain":0.0,"pressure":977.8,"uv_index":7.8,"wind_gusts":16.9,"aqi":112,"pm10":61.2,"pm2_5":51.5,"mosquito_risk":0,"arthritis_risk":5,"migraine_risk":7,"frizz_risk":0,"updated_at":"2026-03-04T21:15:45.055748+05:30"},{"city":"Guwahati","state":"Assam","latitude":26.1158,"longitude":91.7086,"temp":24.0,"humidity":68,"rain":0.0,"pressure":1004.8,"uv_index":7.1,"wind_gusts":18.4,"aqi":149,"pm10":61.2,"pm2_5":55.1,"mosquito_risk":3,"arthritis_risk":5,"migraine_risk":4,"frizz_risk":1,"updated_at":"2026-03-04T21:15:45.055754+05:30"},{"city":"Agartala","state":"Tripura","latitude":23.8315,"longitude":91.2868,"temp":21.1,"humidity":68,"rain":0.0,"pressure":1008.8,"uv_index":7.5,"wind_gusts":20.9,"aqi":163,"pm10":100.8,"pm2_5":78.2,"mosquito_risk":3,"arthritis_risk":0,"migraine_risk":4,"frizz_risk":0,"updated_at":"2026-03-04T21:15:45.055778+05:30"},{"city":"Shillong","state":"Meghalaya","latitude":25.5788,"longitude":91.8933,"temp":11.3,"humidity":93,"rain":0.0,"pressure":857.1,"uv_index":7.5,"wind_gusts":29.9,"aqi":131,"pm10":53.0,"pm2_5":46.4,"mosquito_risk":3,"arthritis_risk":10,"migraine_risk":7,"frizz_risk":0,"updated_at":"2026-03-04T21:15:45.055786+05:30"},{"city":"Imphal","state":"Manipur","latitude":24.817,"longitude":93.9368,"temp":15.0,"humidity":69,"rain":0.0,"pressure":924.5,"uv_index":7.7,"wind_gusts":21.2,"aqi":134,"pm10":68.7,"pm2_5":62.2,"mosquito_risk":3,"arthritis_risk":5,"migraine_risk":7,"frizz_risk":0,"updated_at":"2026-03-04T21:15:45.055793+05:30"},{"city":"Aizawl","state":"Mizoram","latitude":23.7271,"longitude":92.7176,"temp":15.6,"humidity":70,"rain":0.0,"pressure":893.2,"uv_index":7.7,"wind_gusts":22.0,"aqi":160,"pm10":106.4,"pm2_5":92.9,"mosquito_risk":3,"arthritis_risk":5,"migraine_risk":7,"frizz_risk":0,"updated_at":"2026-03-04T21:15:45.055799+05:30"},{"city":"Kohima","state":"Nagaland","latitude":25.6701,"longitude":94.1077,"temp":14.0,"humidity":77,"rain":0.0,"pressure":855.9,"uv_index":7.55,"wind_gusts":38.5,"aqi":150,"pm10":78.9,"pm2_5":68.5,"mosquito_risk":3,"arthritis_risk":5,"migraine_risk":7,"frizz_risk":0,"updated_at":"2026-03-04T21:15:45.055806+05:30"},{"city":"Gangtok","state":"Sikkim","latitude":27.3314,"longitude":88.6138,"temp":13.2,"humidity":77,"rain":0.0,"pressure":839.4,"uv_index":7.45,"wind_gusts":22.7,"aqi":133,"pm10":68.2,"pm2_5":57.0,"mosquito_risk":3,"arthritis_risk":5,"migraine_risk":7,"frizz_risk":0,"updated_at":"2026-03-04T21:15:45.055812+05:30"},{"city":"Siliguri","state":"West Bengal","latitude":26.7271,"longitude":88.3953,"temp":20.0,"humidity":68,"rain":0.0,"pressure":997.8,"uv_index":7.1,"wind_gusts":19.8,"aqi":157,"pm10":82.0,"pm2_5":65.9,"mosquito_risk":3,"arthritis_risk":5,"migraine_risk":7,"frizz_risk":0,"updated_at":"2026-03-04T21:15:48.404543+05:30"},{"city":"Durgapur","state":"West Bengal","latitude":23.5204,"longitude":87.3119,"temp":24.9,"humidity":42,"rain":0.0,"pressure":998.0,"uv_index":7.7,"wind_gusts":20.5,"aqi":133,"pm10":97.3,"pm2_5":63.8,"mosquito_risk":0,"arthritis_risk":5,"migraine_risk":7,"frizz_risk":0,"updated_at":"2026-03-04T21:15:48.404573+05:30"},{"city":"Asansol","state":"West Bengal","latitude":23.6739,"longitude":86.9524,"temp":25.5,"humidity":41,"rain":0.0,"pressure":996.6,"uv_index":7.7,"wind_gusts":20.9,"aqi":130,"pm10":86.4,"pm2_5":51.7,"mosquito_risk":4,"arthritis_risk":5,"migraine_risk":7,"frizz_risk":0,"updated_at":"2026-03-04T21:15:48.404584+05:30"},{"city":"Pondicherry","state":"Puducherry","latitude":11.9139,"longitude":79.8145,"temp":23.7,"humidity":91,"rain":0.0,"pressure":1012.4,"uv_index":8.85,"wind_gusts":29.2,"aqi":88,"pm10":20.9,"pm2_5":17.6,"mosquito_risk":3,"arthritis_risk":0,"migraine_risk":4,"frizz_risk":1,"updated_at":"2026-03-04T21:15:48.404592+05:30"},{"city":"Port Blair","state":"Andaman and Nicobar Islands","latitude":11.6234,"longitude":92.7265,"temp":27.2,"humidity":72,"rain":0.0,"pressure":1008.8,"uv_index":8.8,"wind_gusts":25.6,"aqi":98,"pm10":37.5,"pm2_5":32.5,"mosquito_risk":7,"arthritis_risk":0,"migraine_risk":4,"frizz_risk":1,"updated_at":"2026-03-04T21:15:48.404600+05:30"},{"city":"Haridwar","state":"Uttarakhand","latitude":29.9457,"longitude":78.1642,"temp":20.7,"humidity":79,"rain":0.0,"pressure":977.8,"uv_index":5.6,"wind_gusts":19.8,"aqi":154,"pm10":122.0,"pm2_5":53.9,"mosquito_risk":3,"arthritis_risk":5,"migraine_risk":3,"frizz_risk":1,"updated_at":"2026-03-04T21:15:48.404607+05:30"},{"city":"Rishikesh","state":"Uttarakhand","latitude":30.0869,"longitude":78.2676,"temp":20.5,"humidity":71,"rain":0.0,"pressure":970.7,"uv_index":5.65,"wind_gusts":22.7,"aqi":166,"pm10":53.1,"pm2_5":39.2,"mosquito_risk":3,"arthritis_risk":5,"migraine_risk":3,"frizz_risk":0,"updated_at":"2026-03-04T21:15:48.404614+05:30"},{"city":"Nainital","state":"Uttarakhand","latitude":29.3919,"longitude":79.4542,"temp":16.7,"humidity":75,"rain":0.0,"pressure":808.2,"uv_index":6.45,"wind_gusts":57.2,"aqi":167,"pm10":86.8,"pm2_5":63.8,"mosquito_risk":3,"arthritis_risk":5,"migraine_risk":7,"frizz_risk":0,"updated_at":"2026-03-04T21:15:48.404621+05:30"},{"city":"Mussoorie","state":"Uttarakhand","latitude":30.4599,"longitude":78.0664,"temp":16.0,"humidity":70,"rain":0.0,"pressure":804.8,"uv_index":6.0,"wind_gusts":35.6,"aqi":168,"pm10":61.9,"pm2_5":45.9,"mosquito_risk":3,"arthritis_risk":5,"migraine_risk":3,"frizz_risk":0,"updated_at":"2026-03-04T21:15:48.404627+05:30"},{"city":"Dharamshala","state":"Himachal Pradesh","latitude":32.219,"longitude":76.3234,"temp":21.6,"humidity":41,"rain":0.0,"pressure":872.9,"uv_index":6.25,"wind_gusts":27.7,"aqi":101,"pm10":30.3,"pm2_5":20.4,"mosquito_risk":0,"arthritis_risk":5,"migraine_risk":7,"frizz_risk":0,"updated_at":"2026-03-04T21:15:48.404634+05:30"},{"city":"Dalhousie","state":"Himachal Pradesh","latitude":32.5387,"longitude":75.971,"temp":17.4,"humidity":58,"rain":0.0,"pressure":806.8,"uv_index":6.45,"wind_gusts":22.0,"aqi":119,"pm10":54.1,"pm2_5":46.1,"mosquito_risk":0,"arthritis_risk":5,"migraine_risk":7,"frizz_risk":0,"updated_at":"2026-03-04T21:15:48.404642+05:30"},{"city":"Patiala","state":"Punjab","latitude":30.3398,"longitude":76.3869,"temp":21.6,"humidity":80,"rain":0.0,"pressure":982.0,"uv_index":5.65,"wind_gusts":30.6,"aqi":180,"pm10":433.1,"pm2_5":91.3,"mosquito_risk":3,"arthritis_risk":5,"migraine_risk":3,"frizz_risk":1,"updated_at":"2026-03-04T21:15:48.404649+05:30"},{"city":"Bhatinda","state":"Punjab","latitude":30.211,"longitude":74.9455,"temp":22.2,"humidity":72,"rain":0.0,"pressure":987.7,"uv_index":6.3,"wind_gusts":22.7,"aqi":152,"pm10":63.3,"pm2_5":41.8,"mosquito_risk":3,"arthritis_risk":5,"migraine_risk":7,"frizz_risk":1,"updated_at":"2026-03-04T21:15:48.404655+05:30"},{"city":"Rohtak","state":"Haryana","latitude":28.8955,"longitude":76.6066,"temp":21.7,"humidity":74,"rain":0.0,"pressure":985.6,"uv_index":5.85,"wind_gusts":31.0,"aqi":402,"pm10":814.0,"pm2_5":125.3,"mosquito_risk":3,"arthritis_risk":5,"migraine_risk":3,"frizz_risk":1,"updated_at":"2026-03-04T21:15:48.404661+05:30"},{"city":"Panipat","state":"Haryana","latitude":29.3909,"longitude":76.9635,"temp":21.5,"humidity":79,"rain":0.0,"pressure":984.1,"uv_index":5.65,"wind_gusts":31.0,"aqi":926,"pm10":1426.8,"pm2_5":184.9,"mosquito_risk":3,"arthritis_risk":5,"migraine_risk":3,"frizz_risk":1,"updated_at":"2026-03-04T21:15:48.404668+05:30"},{"city":"Mathura","state":"Uttar Pradesh","latitude":27.4924,"longitude":77.6737,"temp":24.5,"humidity":50,"rain":0.0,"pressure":990.7,"uv_index":6.1,"wind_gusts":29.9,"aqi":485,"pm10":709.7,"pm2_5":106.6,"mosquito_risk":0,"arthritis_risk":5,"migraine_risk":7,"frizz_risk":0,"updated_at":"2026-03-04T21:15:48.404675+05:30"},{"city":"Vrindavan","state":"Uttar Pradesh","latitude":27.5823,"longitude":77.7027,"temp":21.9,"humidity":60,"rain":0.0,"pressure":991.1,"uv_index":6.1,"wind_gusts":31.7,"aqi":485,"pm10":709.7,"pm2_5":106.6,"mosquito_risk":0,"arthritis_risk":5,"migraine_risk":7,"frizz_risk":0,"updated_at":"2026-03-04T21:15:48.404682+05:30"},{"city":"Ayodhya","state":"Uttar Pradesh","latitude":26.7922,"longitude":82.1998,"temp":23.2,"humidity":65,"rain":0.0,"pressure":999.2,"uv_index":6.5,"wind_gusts":9.7,"aqi":164,"pm10":241.2,"pm2_5":106.2,"mosquito_risk":3,"arthritis_risk":5,"migraine_risk":7,"frizz_risk":1,"updated_at":"2026-03-04T21:15:48.404689+05:30"},{"city":"Ratlam","state":"Madhya Pradesh","latitude":23.3315,"longitude":75.0367,"temp":24.3,"humidity":54,"rain":0.0,"pressure":958.6,"uv_index":7.3,"wind_gusts":21.2,"aqi":104,"pm10":36.3,"pm2_5":29.3,"mosquito_risk":0,"arthritis_risk":5,"migraine_risk":7,"frizz_risk":0,"updated_at":"2026-03-04T21:15:48.404695+05:30"},{"city":"Sagar","state":"Madhya Pradesh","latitude":23.8388,"longitude":78.7378,"temp":25.3,"humidity":32,"rain":0.0,"pressure":954.1,"uv_index":7.25,"wind_gusts":25.6,"aqi":89,"pm10":22.2,"pm2_5":15.9,"mosquito_risk":4,"arthritis_risk":5,"migraine_risk":7,"frizz_risk":0,"updated_at":"2026-03-04T21:15:48.404701+05:30"},{"city":"Satna","state":"Madhya Pradesh","latitude":24.6005,"longitude":80.8322,"temp":23.9,"humidity":46,"rain":0.0,"pressure":975.3,"uv_index":7.25,"wind_gusts":34.9,"aqi":112,"pm10":46.4,"pm2_5":30.0,"mosquito_risk":0,"arthritis_risk":5,"migraine_risk":7,"frizz_risk":0,"updated_at":"2026-03-04T21:15:48.404707+05:30"},{"city":"Akola","state":"Maharashtra","latitude":20.7002,"longitude":77.0082,"temp":26.5,"humidity":40,"rain":0.0,"pressure":978.3,"uv_index":7.8,"wind_gusts":18.7,"aqi":117,"pm10":36.3,"pm2_5":32.9,"mosquito_risk":4,"arthritis_risk":5,"migraine_risk":7,"frizz_risk":0,"updated_at":"2026-03-04T21:15:48.404714+05:30"},{"city":"Amravati","state":"Maharashtra","latitude":20.9374,"longitude":77.7796,"temp":26.3,"humidity":55,"rain":0.0,"pressure":970.4,"uv_index":7.75,"wind_gusts":16.2,"aqi":117,"pm10":35.6,"pm2_5":31.4,"mosquito_risk":4,"arthritis_risk":5,"migraine_risk":7,"frizz_risk":1,"updated_at":"2026-03-04T21:15:48.404722+05:30"},{"city":"Latur","state":"Maharashtra","latitude":18.4088,"longitude":76.5604,"temp":25.6,"humidity":49,"rain":0.0,"pressure":942.7,"uv_index":8.25,"wind_gusts":19.8,"aqi":141,"pm10":32.2,"pm2_5":29.9,"mosquito_risk":4,"arthritis_risk":5,"migraine_risk":7,"frizz_risk":0,"updated_at":"2026-03-04T21:15:48.404729+05:30"},{"city":"Nanded","state":"Maharashtra","latitude":19.1383,"longitude":77.3091,"temp":26.7,"humidity":52,"rain":0.0,"pressure":971.5,"uv_index":8.0,"wind_gusts":13.0,"aqi":121,"pm10":28.4,"pm2_5":26.4,"mosquito_risk":4,"arthritis_risk":5,"migraine_risk":7,"frizz_risk":1,"updated_at":"2026-03-04T21:15:48.404735+05:30"},{"city":"Gulbarga","state":"Karnataka","latitude":17.3297,"longitude":76.8343,"temp":28.5,"humidity":39,"rain":0.0,"pressure":961.4,"uv_index":8.35,"wind_gusts":23.0,"aqi":151,"pm10":19.2,"pm2_5":18.0,"mosquito_risk":4,"arthritis_risk":5,"migraine_risk":7,"frizz_risk":0,"updated_at":"2026-03-04T21:15:48.404741+05:30"},{"city":"Bidar","state":"Karnataka","latitude":17.9104,"longitude":77.5199,"temp":25.7,"humidity":46,"rain":0.0,"pressure":938.4,"uv_index":8.3,"wind_gusts":25.9,"aqi":131,"pm10":36.1,"pm2_5":33.2,"mosquito_risk":4,"arthritis_risk":5,"migraine_risk":7,"frizz_risk":0,"updated_at":"2026-03-04T21:15:48.404747+05:30"},{"city":"Hospet","state":"Karnataka","latitude":15.2689,"longitude":76.3909,"temp":29.7,"humidity":35,"rain":0.0,"pressure":958.5,"uv_index":8.6,"wind_gusts":25.9,"aqi":167,"pm10":31.9,"pm2_5":31.2,"mosquito_risk":4,"arthritis_risk":5,"migraine_risk":7,"frizz_risk":0,"updated_at":"2026-03-04T21:15:48.404752+05:30"},{"city":"Tirupur","state":"Tamil Nadu","latitude":11.1085,"longitude":77.3411,"temp":28.5,"humidity":38,"rain":0.0,"pressure":978.2,"uv_index":9.15,"wind_gusts":32.4,"aqi":154,"pm10":45.2,"pm2_5":44.1,"mosquito_risk":4,"arthritis_risk":5,"migraine_risk":7,"frizz_risk":0,"updated_at":"2026-03-04T21:15:48.404795+05:30"},{"city":"Alappuzha","state":"Kerala","latitude":9.4981,"longitude":76.3388,"temp":27.9,"humidity":77,"rain":0.0,"pressure":1011.9,"uv_index":8.95,"wind_gusts":30.2,"aqi":115,"pm10":34.6,"pm2_5":32.1,"mosquito_risk":7,"arthritis_risk":0,"migraine_risk":4,"frizz_risk":1,"updated_at":"2026-03-04T21:15:48.404805+05:30"},{"city":"Munnar","state":"Kerala","latitude":10.0889,"longitude":77.0595,"temp":20.2,"humidity":79,"rain":0.0,"pressure":859.0,"uv_index":9.45,"wind_gusts":24.5,"aqi":89,"pm10":29.7,"pm2_5":29.2,"mosquito_risk":3,"arthritis_risk":5,"migraine_risk":7,"frizz_risk":1,"updated_at":"2026-03-04T21:15:48.404813+05:30"},{"city":"Silchar","state":"Assam","latitude":24.8333,"longitude":92.7789,"temp":24.2,"humidity":58,"rain":0.0,"pressure":1007.2,"uv_index":7.45,"wind_gusts":14.4,"aqi":151,"pm10":79.4,"pm2_5":69.8,"mosquito_risk":0,"arthritis_risk":5,"migraine_risk":4,"frizz_risk":0,"updated_at":"2026-03-04T21:15:48.404820+05:30"},{"city":"Dibrugarh","state":"Assam","latitude":27.4728,"longitude":94.912,"temp":23.5,"humidity":74,"rain":0.0,"pressure":997.5,"uv_index":7.15,"wind_gusts":9.0,"aqi":129,"pm10":68.5,"pm2_5":58.9,"mosquito_risk":3,"arthritis_risk":5,"migraine_risk":7,"frizz_risk":1,"updated_at":"2026-03-04T21:15:48.404826+05:30"}]