[{"city":"Delhi","state":"Delhi","latitude":28.6139,"longitude":77.209,"temp":32.4,"humidity":67,"rain":0.0,"pressure":975.0,"uv_index":7.0,"wind_gusts":20.9,"aqi":138,"pm10":96.9,"pm2_5":82.0,"no2":66.5,"co":1477.0,"o3":55.0,"so2":40.5,"mosquito_risk":3,"arthritis_risk":5,"migraine_risk":7,"frizz_risk":1,"updated_at":"2026-07-04T23:33:54.204144+05:30"},{"city":"Mumbai","state":"Maharashtra","latitude":19.076,"longitude":72.8777,"temp":26.6,"humidity":91,"rain":0.6,"pressure":1001.5,"uv_index":0.3,"wind_gusts":46.1,"aqi":29,"pm10":11.9,"pm2_5":6.2,"no2":3.7,"co":168.0,"o3":51.0,"so2":2.4,"mosquito_risk":10,"arthritis_risk":5,"migraine_risk":0,"frizz_risk":1,"updated_at":"2026-07-04T23:33:54.204182+05:30"},{"city":"Bangalore","state":"Karnataka","latitude":12.9716,"longitude":77.5946,"temp":21.7,"humidity":85,"rain":0.0,"pressure":910.6,"uv_index":5.8,"wind_gusts":66.2,"aqi":22,"pm10":3.3,"pm2_5":3.0,"no2":10.1,"co":227.0,"o3":37.0,"so2":3.1,"mosquito_risk":3,"arthritis_risk":5,"migraine_risk":3,"frizz_risk":1,"updated_at":"2026-07-04T23:33:54.204197+05:30"},{"city":"Hyderabad","state":"Telangana","latitude":17.385,"longitude":78.4867,"temp":24.2,"humidity":84,"rain":0.0,"pressure":947.7,"uv_index":2.8,"wind_gusts":59.0,"aqi":24,"pm10":2.7,"pm2_5":2.5,"no2":7.0,"co":166.0,"o3":39.0,"so2":3.1,"mosquito_risk":3,"arthritis_risk":5,"migraine_risk":3,"frizz_risk":1,"updated_at":"2026-07-04T23:33:54.204207+05:30"},{"city":"Chennai","state":"Tamil Nadu","latitude":13.0827,"longitude":80.2707,"temp":30.0,"humidity":63,"rain":0.0,"pressure":1004.1,"uv_index":2.15,"wind_gusts":41.4,"aqi":38,"pm10":15.0,"pm2_5":11.8,"no2":18.3,"co":349.0,"o3":42.0,"so2":10.3,"mosquito_risk":7,"arthritis_risk":5,"migraine_risk":0,"frizz_risk":1,"updated_at":"2026-07-04T23:33:54.204215+05:30"},{"city":"Kolkata","state":"West Bengal","latitude":22.5726,"longitude":88.3639,"temp":27.8,"humidity":88,"rain":0.0,"pressure":994.5,"uv_index":7.5,"wind_gusts":50.4,"aqi":42,"pm10":11.1,"pm2_5":10.2,"no2":9.0,"co":223.0,"o3":58.0,"so2":7.6,"mosquito_risk":7,"arthritis_risk":5,"migraine_risk":7,"frizz_risk":1,"updated_at":"2026-07-04T23:33:54.204223+05:30"},{"city":"Pune","state":"Maharashtra","latitude":18.5204,"longitude":73.8567,"temp":22.9,"humidity":93,"rain":0.2,"pressure":941.5,"uv_index":0.55,"wind_gusts":44.6,"aqi":21,"pm10":1.6,"pm2_5":1.6,"no2":5.2,"co":123.0,"o3":46.0,"so2":2.3,"mosquito_risk":6,"arthritis_risk":5,"migraine_risk":3,"frizz_risk":1,"updated_at":"2026-07-04T23:33:54.204230+05:30"},{"city":"Ahmedabad","state":"Gujarat","latitude":23.0225,"longitude":72.5714,"temp":26.9,"humidity":91,"rain":0.0,"pressure":994.2,"uv_index":5.85,"wind_gusts":24.5,"aqi":59,"pm10":31.3,"pm2_5":17.9,"no2":18.5,"co":229.0,"o3":42.0,"so2":5.6,"mosquito_risk":7,"arthritis_risk":5,"migraine_risk":3,"frizz_risk":1,"updated_at":"2026-07-04T23:33:54.204237+05:30"},{"city":"Jaipur","state":"Rajasthan","latitude":26.9124,"longitude":75.7873,"temp":29.0,"humidity":77,"rain":0.0,"pressure":952.2,"uv_index":7.4,"wind_gusts":21.6,"aqi":111,"pm10":56.2,"pm2_5":38.2,"no2":29.1,"co":439.0,"o3":58.0,"so2":10.1,"mosquito_risk":7,"arthritis_risk":5,"migraine_risk":7,"frizz_risk":1,"updated_at":"2026-07-04T23:33:54.204243+05:30"},{"city":"Lucknow","state":"Uttar Pradesh","latitude":26.8467,"longitude":80.9462,"temp":30.9,"humidity":78,"rain":0.0,"pressure":985.1,"uv_index":7.7,"wind_gusts":25.2,"aqi":92,"pm10":40.6,"pm2_5":39.9,"no2":27.2,"co":406.0,"o3":54.0,"so2":11.8,"mosquito_risk":3,"arthritis_risk":5,"migraine_risk":7,"frizz_risk":1,"updated_at":"2026-07-04T23:33:54.204254+05:30"},{"city":"Kanpur","state":"Uttar Pradesh","latitude":26.4499,"longitude":80.3319,"temp":31.3,"humidity":75,"rain":0.0,"pressure":983.3,"uv_index":8.05,"wind_gusts":24.5,"aqi":91,"pm10":33.3,"pm2_5":32.4,"no2":23.7,"co":291.0,"o3":62.0,"so2":8.4,"mosquito_risk":3,"arthritis_risk":5,"migraine_risk":7,"frizz_risk":1,"updated_at":"2026-07-04T23:33:54.204261+05:30"},{"city":"Chandigarh","state":"Chandigarh","latitude":30.7333,"longitude":76.7794,"temp":28.2,"humidity":90,"rain":0.0,"pressure":960.9,"uv_index":7.1,"wind_gusts":23.0,"aqi":97,"pm10":86.1,"pm2_5":85.0,"no2":64.2,"co":1990.0,"o3":34.0,"so2":21.4,"mosquito_risk":7,"arthritis_risk":5,"migraine_risk":7,"frizz_risk":1,"updated_at":"2026-07-04T23:33:54.204268+05:30"},{"city":"Srinagar","state":"Jammu and Kashmir","latitude":34.0837,"longitude":74.7973,"temp":22.0,"humidity":70,"rain":0.0,"pressure":835.7,"uv_index":9.0,"wind_gusts":22.7,"aqi":79,"pm10":54.9,"pm2_5":48.7,"no2":45.4,"co":1039.0,"o3":26.0,"so2":3.1,"mosquito_risk":3,"arthritis_risk":5,"migraine_risk":7,"frizz_risk":1,"updated_at":"2026-07-04T23:33:54.204277+05:30"},{"city":"Jammu","state":"Jammu and Kashmir","latitude":32.7266,"longitude":74.857,"temp":30.4,"humidity":66,"rain":0.0,"pressure":964.2,"uv_index":8.6,"wind_gusts":29.9,"aqi":108,"pm10":68.2,"pm2_5":64.5,"no2":70.4,"co":594.0,"o3":29.0,"so2":9.1,"mosquito_risk":3,"arthritis_risk":5,"migraine_risk":7,"frizz_risk":1,"updated_at":"2026-07-04T23:33:54.204283+05:30"},{"city":"Amritsar","state":"Punjab","latitude":31.634,"longitude":74.8723,"temp":31.0,"humidity":74,"rain":0.0,"pressure":971.9,"uv_index":8.45,"wind_gusts":29.2,"aqi":116,"pm10":51.3,"pm2_5":46.4,"no2":20.3,"co":508.0,"o3":93.0,"so2":7.0,"mosquito_risk":3,"arthritis_risk":5,"migraine_risk":7,"frizz_risk":1,"updated_at":"2026-07-04T23:33:54.204289+05:30"},{"city":"Ludhiana","state":"Punjab","latitude":30.901,"longitude":75.8573,"temp":29.7,"humidity":87,"rain":0.0,"pressure":970.1,"uv_index":7.95,"wind_gusts":36.4,"aqi":137,"pm10":99.4,"pm2_5":95.2,"no2":59.5,"co":1202.0,"o3":43.0,"so2":14.3,"mosquito_risk":7,"arthritis_risk":5,"migraine_risk":7,"frizz_risk":1,"updated_at":"2026-07-04T23:33:54.204295+05:30"},{"city":"Jalandhar","state":"Punjab","latitude":31.326,"longitude":75.5762,"temp":30.1,"humidity":83,"rain":0.0,"pressure":971.0,"uv_index":8.2,"wind_gusts":34.2,"aqi":138,"pm10":94.1,"pm2_5":87.3,"no2":57.1,"co":760.0,"o3":48.0,"so2":10.3,"mosquito_risk":3,"arthritis_risk":5,"migraine_risk":7,"frizz_risk":1,"updated_at":"2026-07-04T23:33:54.204301+05:30"},{"city":"Dehradun","state":"Uttarakhand","latitude":30.6284,"longitude":78.0322,"temp":19.4,"humidity":100,"rain":0.0,"pressure":826.6,"uv_index":7.15,"wind_gusts":26.3,"aqi":45,"pm10":18.8,"pm2_5":18.7,"no2":33.8,"co":310.0,"o3":45.0,"so2":1.6,"mosquito_risk":3,"arthritis_risk":10,"migraine_risk":7,"frizz_risk":1,"updated_at":"2026-07-04T23:33:54.204307+05:30"},{"city":"Shimla","state":"Himachal Pradesh","latitude":31.1048,"longitude":77.1734,"temp":16.0,"humidity":96,"rain":0.0,"pressure":780.0,"uv_index":7.4,"wind_gusts":28.1,"aqi":47,"pm10":28.4,"pm2_5":28.2,"no2":29.7,"co":504.0,"o3":44.0,"so2":0.0,"mosquito_risk":3,"arthritis_risk":10,"migraine_risk":7,"frizz_risk":0,"updated_at":"2026-07-04T23:33:54.204313+05:30"},{"city":"Manali","state":"Himachal Pradesh","latitude":32.2396,"longitude":77.1887,"temp":20.1,"humidity":89,"rain":0.0,"pressure":815.8,"uv_index":9.45,"wind_gusts":33.5,"aqi":52,"pm10":9.0,"pm2_5":9.0,"no2":104.8,"co":345.0,"o3":17.0,"so2":0.0,"mosquito_risk":3,"arthritis_risk":5,"migraine_risk":7,"frizz_risk":1,"updated_at":"2026-07-04T23:33:54.204324+05:30"},{"city":"Gurgaon","state":"Haryana","latitude":28.4595,"longitude":77.0266,"temp":30.6,"humidity":79,"rain":0.0,"pressure":973.4,"uv_index":6.4,"wind_gusts":21.2,"aqi":145,"pm10":75.7,"pm2_5":55.1,"no2":44.4,"co":1418.0,"o3":67.0,"so2":27.3,"mosquito_risk":3,"arthritis_risk":5,"migraine_risk":7,"frizz_risk":1,"updated_at":"2026-07-04T23:33:54.204330+05:30"},{"city":"Noida","state":"Uttar Pradesh","latitude":28.5355,"longitude":77.391,"temp":30.2,"humidity":85,"rain":0.0,"pressure":976.3,"uv_index":6.8,"wind_gusts":22.0,"aqi":145,"pm10":75.7,"pm2_5":55.1,"no2":44.4,"co":2244.0,"o3":67.0,"so2":27.3,"mosquito_risk":3,"arthritis_risk":5,"migraine_risk":7,"frizz_risk":1,"updated_at":"2026-07-04T23:33:54.204337+05:30"},{"city":"Ghaziabad","state":"Uttar Pradesh","latitude":28.6692,"longitude":77.4538,"temp":30.4,"humidity":82,"rain":0.0,"pressure":974.6,"uv_index":7.55,"wind_gusts":22.0,"aqi":121,"pm10":75.4,"pm2_5":75.4,"no2":53.3,"co":975.0,"o3":35.0,"so2":15.5,"mosquito_risk":3,"arthritis_risk":5,"migraine_risk":7,"frizz_risk":1,"updated_at":"2026-07-04T23:33:54.204343+05:30"},{"city":"Faridabad","state":"Haryana","latitude":28.4089,"longitude":77.3178,"temp":32.0,"humidity":70,"rain":0.0,"pressure":975.8,"uv_index":6.75,"wind_gusts":26.3,"aqi":145,"pm10":75.7,"pm2_5":55.1,"no2":44.4,"co":888.0,"o3":67.0,"so2":27.3,"mosquito_risk":3,"arthritis_risk":5,"migraine_risk":7,"frizz_risk":1,"updated_at":"2026-07-04T23:33:54.204349+05:30"},{"city":"Meerut","state":"Uttar Pradesh","latitude":28.9845,"longitude":77.7064,"temp":30.2,"humidity":87,"rain":0.0,"pressure":973.5,"uv_index":7.0,"wind_gusts":26.6,"aqi":121,"pm10":75.4,"pm2_5":75.4,"no2":53.3,"co":960.0,"o3":35.0,"so2":15.5,"mosquito_risk":3,"arthritis_risk":5,"migraine_risk":7,"frizz_risk":1,"updated_at":"2026-07-04T23:33:54.204355+05:30"},{"city":"Agra","state":"Uttar Pradesh","latitude":27.1767,"longitude":78.0081,"temp":30.6,"humidity":80,"rain":0.0,"pressure":979.3,"uv_index":6.65,"wind_gusts":22.3,"aqi":106,"pm10":41.9,"pm2_5":39.0,"no2":21.3,"co":478.0,"o3":83.0,"so2":7.6,"mosquito_risk":3,"arthritis_risk":5,"migraine_risk":7,"frizz_risk":1,"updated_at":"2026-07-04T23:33:54.204361+05:30"},{"city":"Varanasi","state":"Uttar Pradesh","latitude":25.3176,"longitude":82.9739,"temp":30.5,"humidity":79,"rain":0.0,"pressure":988.6,"uv_index":8.7,"wind_gusts":31.0,"aqi":81,"pm10":34.9,"pm2_5":34.8,"no2":21.6,"co":454.0,"o3":67.0,"so2":11.8,"mosquito_risk":3,"arthritis_risk":5,"migraine_risk":7,"frizz_risk":1,"updated_at":"2026-07-04T23:33:54.204367+05:30"},{"city":"Prayagraj","state":"Uttar Pradesh","latitude":25.4358,"longitude":81.8463,"temp":31.2,"humidity":74,"rain":0.0,"pressure":987.1,"uv_index":8.15,"wind_gusts":30.2,"aqi":87,"pm10":32.0,"pm2_5":31.8,"no2":19.9,"co":255.0,"o3":74.0,"so2":10.1,"mosquito_risk":3,"arthritis_risk":5,"migraine_risk":7,"frizz_risk":1,"updated_at":"2026-07-04T23:33:54.204374+05:30"},{"city":"Gorakhpur","state":"Uttar Pradesh","latitude":26.7606,"longitude":83.3732,"temp":31.2,"humidity":72,"rain":0.0,"pressure":988.9,"uv_index":8.55,"wind_gusts":28.8,"aqi":90,"pm10":34.5,"pm2_5":34.3,"no2":18.5,"co":425.0,"o3":80.0,"so2":9.3,"mosquito_risk":3,"arthritis_risk":5,"migraine_risk":7,"frizz_risk":1,"updated_at":"2026-07-04T23:33:54.204380+05:30"},{"city":"Bareilly","state":"Uttar Pradesh","latitude":28.367,"longitude":79.4304,"temp":30.7,"humidity":78,"rain":0.0,"pressure":979.1,"uv_index":7.9,"wind_gusts":25.2,"aqi":103,"pm10":84.8,"pm2_5":83.1,"no2":69.2,"co":530.0,"o3":24.0,"so2":18.3,"mosquito_risk":3,"arthritis_risk":5,"migraine_risk":7,"frizz_risk":1,"updated_at":"2026-07-04T23:33:54.204388+05:30"},{"city":"Aligarh","state":"Uttar Pradesh","latitude":27.8974,"longitude":78.088,"temp":30.5,"humidity":82,"rain":0.0,"pressure":977.4,"uv_index":7.8,"wind_gusts":25.2,"aqi":118,"pm10":58.9,"pm2_5":54.7,"no2":31.4,"co":654.0,"o3":82.0,"so2":15.2,"mosquito_risk":3,"arthritis_risk":5,"migraine_risk":7,"frizz_risk":1,"updated_at":"2026-07-04T23:33:54.204394+05:30"},{"city":"Moradabad","state":"Uttar Pradesh","latitude":28.8386,"longitude":78.7733,"temp":30.5,"humidity":84,"rain":0.0,"pressure":976.0,"uv_index":7.7,"wind_gusts":22.7,"aqi":118,"pm10":78.5,"pm2_5":78.2,"no2":52.9,"co":1083.0,"o3":39.0,"so2":15.2,"mosquito_risk":3,"arthritis_risk":5,"migraine_risk":7,"frizz_risk":1,"updated_at":"2026-07-04T23:33:54.204421+05:30"},{"city":"Saharanpur","state":"Uttar Pradesh","latitude":29.9637,"longitude":77.546,"temp":29.3,"humidity":88,"rain":0.0,"pressure":968.1,"uv_index":6.7,"wind_gusts":27.4,"aqi":113,"pm10":112.9,"pm2_5":112.0,"no2":77.6,"co":969.0,"o3":29.0,"so2":29.7,"mosquito_risk":7,"arthritis_risk":5,"migraine_risk":7,"frizz_risk":1,"updated_at":"2026-07-04T23:33:54.204428+05:30"},{"city":"Jhansi","state":"Uttar Pradesh","latitude":25.4484,"longitude":78.5685,"temp":26.6,"humidity":95,"rain":0.3,"pressure":970.6,"uv_index":6.75,"wind_gusts":30.2,"aqi":73,"pm10":24.6,"pm2_5":24.4,"no2":15.1,"co":276.0,"o3":72.0,"so2":5.3,"mosquito_risk":10,"arthritis_risk":5,"migraine_risk":7,"frizz_risk":1,"updated_at":"2026-07-04T23:33:57.488182+05:30"},{"city":"Surat","state":"Gujarat","latitude":21.1702,"longitude":72.8311,"temp":26.3,"humidity":97,"rain":0.0,"pressure":998.8,"uv_index":0.9,"wind_gusts":28.8,"aqi":68,"pm10":18.5,"pm2_5":15.7,"no2":26.8,"co":410.0,"o3":38.0,"so2":36.2,"mosquito_risk":7,"arthritis_risk":5,"migraine_risk":3,"frizz_risk":1,"updated_at":"2026-07-04T23:33:57.488210+05:30"},{"city":"Vadodara","state":"Gujarat","latitude":22.3072,"longitude":73.1812,"temp":26.4,"humidity":95,"rain":0.1,"pressure":996.4,"uv_index":1.05,"wind_gusts":27.7,"aqi":53,"pm10":18.0,"pm2_5":12.7,"no2":18.6,"co":254.0,"o3":47.0,"so2":7.0,"mosquito_risk":10,"arthritis_risk":5,"migraine_risk":3,"frizz_risk":1,"updated_at":"2026-07-04T23:33:57.488220+05:30"},{"city":"Rajkot","state":"Gujarat","latitude":22.3039,"longitude":70.8022,"temp":28.4,"humidity":83,"rain":0.0,"pressure":986.1,"uv_index":6.55,"wind_gusts":33.8,"aqi":60,"pm10":37.1,"pm2_5":18.3,"no2":7.7,"co":121.0,"o3":41.0,"so2":7.0,"mosquito_risk":7,"arthritis_risk":5,"migraine_risk":7,"frizz_risk":1,"updated_at":"2026-07-04T23:33:57.488228+05:30"},{"city":"Thane","state":"Maharashtra","latitude":19.2183,"longitude":72.9781,"temp":25.6,"humidity":96,"rain":0.3,"pressure":1000.8,"uv_index":0.4,"wind_gusts":31.0,"aqi":29,"pm10":11.9,"pm2_5":6.2,"no2":3.7,"co":175.0,"o3":51.0,"so2":2.4,"mosquito_risk":10,"arthritis_risk":5,"migraine_risk":0,"frizz_risk":1,"updated_at":"2026-07-04T23:33:57.488235+05:30"},{"city":"Nagpur","state":"Maharashtra","latitude":21.1458,"longitude":79.0882,"temp":25.2,"humidity":96,"rain":0.0,"pressure":965.6,"uv_index":8.3,"wind_gusts":29.5,"aqi":47,"pm10":10.8,"pm2_5":10.4,"no2":16.7,"co":217.0,"o3":50.0,"so2":13.1,"mosquito_risk":7,"arthritis_risk":5,"migraine_risk":7,"frizz_risk":1,"updated_at":"2026-07-04T23:33:57.488242+05:30"},{"city":"Nashik","state":"Maharashtra","latitude":19.9975,"longitude":73.7898,"temp":22.9,"humidity":97,"rain":0.1,"pressure":938.1,"uv_index":1.15,"wind_gusts":40.7,"aqi":22,"pm10":4.3,"pm2_5":3.2,"no2":7.6,"co":195.0,"o3":48.0,"so2":1.3,"mosquito_risk":6,"arthritis_risk":5,"migraine_risk":3,"frizz_risk":1,"updated_at":"2026-07-04T23:33:57.488249+05:30"},{"city":"Aurangabad","state":"Maharashtra","latitude":19.8762,"longitude":75.3433,"temp":23.1,"humidity":98,"rain":0.2,"pressure":937.4,"uv_index":1.7,"wind_gusts":40.0,"aqi":28,"pm10":8.0,"pm2_5":7.9,"no2":16.8,"co":212.0,"o3":32.0,"so2":8.2,"mosquito_risk":6,"arthritis_risk":5,"migraine_risk":3,"frizz_risk":1,"updated_at":"2026-07-04T23:33:57.488256+05:30"},{"city":"Solapur","state":"Maharashtra","latitude":17.6599,"longitude":75.9064,"temp":23.4,"humidity":92,"rain":0.1,"pressure":952.3,"uv_index":1.05,"wind_gusts":45.0,"aqi":21,"pm10":2.2,"pm2_5":2.1,"no2":4.7,"co":127.0,"o3":43.0,"so2":1.5,"mosquito_risk":6,"arthritis_risk":5,"migraine_risk":3,"frizz_risk":1,"updated_at":"2026-07-04T23:33:57.488263+05:30"},{"city":"Kolhapur","state":"Maharashtra","latitude":16.705,"longitude":74.2433,"temp":21.9,"humidity":94,"rain":0.2,"pressure":943.9,"uv_index":1.3,"wind_gusts":51.5,"aqi":22,"pm10":3.2,"pm2_5":2.4,"no2":3.2,"co":117.0,"o3":48.0,"so2":1.2,"mosquito_risk":6,"arthritis_risk":5,"migraine_risk":3,"frizz_risk":1,"updated_at":"2026-07-04T23:33:57.488270+05:30"},{"city":"Goa","state":"Goa","latitude":15.2993,"longitude":74.124,"temp":24.2,"humidity":99,"rain":0.3,"pressure":997.3,"uv_index":3.8,"wind_gusts":37.8,"aqi":47,"pm10":21.1,"pm2_5":10.2,"no2":1.3,"co":155.0,"o3":53.0,"so2":0.5,"mosquito_risk":6,"arthritis_risk":5,"migraine_risk":3,"frizz_risk":1,"updated_at":"2026-07-04T23:33:57.488277+05:30"},{"city":"Jodhpur","state":"Rajasthan","latitude":26.2389,"longitude":73.0243,"temp":30.0,"humidity":69,"rain":0.0,"pressure":973.9,"uv_index":7.85,"wind_gusts":27.4,"aqi":151,"pm10":184.4,"pm2_5":49.9,"no2":9.5,"co":211.0,"o3":59.0,"so2":5.5,"mosquito_risk":7,"arthritis_risk":5,"migraine_risk":7,"frizz_risk":1,"updated_at":"2026-07-04T23:33:57.488283+05:30"},{"city":"Udaipur","state":"Rajasthan","latitude":24.5854,"longitude":73.7125,"temp":25.5,"humidity":95,"rain":0.0,"pressure":938.6,"uv_index":4.0,"wind_gusts":34.9,"aqi":66,"pm10":54.8,"pm2_5":27.2,"no2":14.6,"co":260.0,"o3":39.0,"so2":3.8,"mosquito_risk":7,"arthritis_risk":5,"migraine_risk":3,"frizz_risk":1,"updated_at":"2026-07-04T23:33:57.488290+05:30"},{"city":"Kota","state":"Rajasthan","latitude":25.2138,"longitude":75.8648,"temp":27.4,"humidity":92,"rain":0.0,"pressure":970.5,"uv_index":7.2,"wind_gusts":30.6,"aqi":87,"pm10":74.3,"pm2_5":52.4,"no2":35.9,"co":302.0,"o3":35.0,"so2":9.0,"mosquito_risk":7,"arthritis_risk":5,"migraine_risk":7,"frizz_risk":1,"updated_at":"2026-07-04T23:33:57.488296+05:30"},{"city":"Bikaner","state":"Rajasthan","latitude":28.0229,"longitude":73.3119,"temp":33.7,"humidity":52,"rain":0.0,"pressure":972.0,"uv_index":7.05,"wind_gusts":31.3,"aqi":109,"pm10":48.1,"pm2_5":30.6,"no2":6.1,"co":268.0,"o3":85.0,"so2":4.3,"mosquito_risk":0,"arthritis_risk":5,"migraine_risk":7,"frizz_risk":1,"updated_at":"2026-07-04T23:33:57.488303+05:30"},{"city":"Ajmer","state":"Rajasthan","latitude":26.4499,"longitude":74.6399,"temp":27.6,"humidity":83,"rain":0.0,"pressure":947.0,"uv_index":7.25,"wind_gusts":33.5,"aqi":120,"pm10":78.2,"pm2_5":38.8,"no2":13.2,"co":260.0,"o3":60.0,"so2":4.6,"mosquito_risk":7,"arthritis_risk":5,"migraine_risk":7,"frizz_risk":1,"updated_at":"2026-07-04T23:33:57.488310+05:30"},{"city":"Gwalior","state":"Madhya Pradesh","latitude":26.2183,"longitude":78.1828,"temp":26.3,"humidity":95,"rain":0.2,"pressure":975.8,"uv_index":7.65,"wind_gusts":35.6,"aqi":74,"pm10":23.9,"pm2_5":23.3,"no2":13.4,"co":237.0,"o3":73.0,"so2":4.0,"mosquito_risk":10,"arthritis_risk":5,"migraine_risk":7,"frizz_risk":1,"updated_at":"2026-07-04T23:33:57.488317+05:30"},{"city":"Indore","state":"Madhya Pradesh","latitude":22.7196,"longitude":75.8577,"temp":23.8,"humidity":97,"rain":0.3,"pressure":940.6,"uv_index":7.45,"wind_gusts":31.3,"aqi":50,"pm10":32.4,"pm2_5":24.3,"no2":16.7,"co":372.0,"o3":48.0,"so2":5.8,"mosquito_risk":6,"arthritis_risk":5,"migraine_risk":7,"frizz_risk":1,"updated_at":"2026-07-04T23:33:57.488323+05:30"},{"city":"Bhopal","state":"Madhya Pradesh","latitude":23.2599,"longitude":77.4126,"temp":25.2,"humidity":96,"rain":0.2,"pressure":946.0,"uv_index":8.5,"wind_gusts":29.9,"aqi":54,"pm10":15.0,"pm2_5":14.5,"no2":12.1,"co":409.0,"o3":63.0,"so2":3.0,"mosquito_risk":10,"arthritis_risk":5,"migraine_risk":7,"frizz_risk":1,"updated_at":"2026-07-04T23:33:57.488330+05:30"},{"city":"Jabalpur","state":"Madhya Pradesh","latitude":23.1815,"longitude":79.9864,"temp":24.7,"humidity":99,"rain":0.1,"pressure":953.1,"uv_index":8.8,"wind_gusts":28.1,"aqi":65,"pm10":17.5,"pm2_5":17.3,"no2":7.4,"co":278.0,"o3":84.0,"so2":3.6,"mosquito_risk":6,"arthritis_risk":5,"migraine_risk":7,"frizz_risk":1,"updated_at":"2026-07-04T23:33:57.488337+05:30"},{"city":"Ujjain","state":"Madhya Pradesh","latitude":23.1765,"longitude":75.7885,"temp":24.9,"humidity":96,"rain":0.0,"pressure":946.2,"uv_index":7.4,"wind_gusts":30.6,"aqi":51,"pm10":35.2,"pm2_5":22.4,"no2":8.8,"co":353.0,"o3":60.0,"so2":3.6,"mosquito_risk":3,"arthritis_risk":5,"migraine_risk":7,"frizz_risk":1,"updated_at":"2026-07-04T23:33:57.488343+05:30"},{"city":"Visakhapatnam","state":"Andhra Pradesh","latitude":17.6868,"longitude":83.2185,"temp":25.7,"humidity":92,"rain":0.1,"pressure":994.1,"uv_index":2.7,"wind_gusts":61.9,"aqi":37,"pm10":7.7,"pm2_5":6.5,"no2":11.5,"co":203.0,"o3":44.0,"so2":16.5,"mosquito_risk":10,"arthritis_risk":5,"migraine_risk":3,"frizz_risk":1,"updated_at":"2026-07-04T23:33:57.488350+05:30"},{"city":"Vijayawada","state":"Andhra Pradesh","latitude":16.5062,"longitude":80.648,"temp":29.5,"humidity":64,"rain":0.0,"pressure":996.9,"uv_index":2.0,"wind_gusts":57.6,"aqi":32,"pm10":7.7,"pm2_5":6.0,"no2":6.6,"co":146.0,"o3":46.0,"so2":4.4,"mosquito_risk":7,"arthritis_risk":5,"migraine_risk":3,"frizz_risk":1,"updated_at":"2026-07-04T23:33:57.488357+05:30"},{"city":"Guntur","state":"Andhra Pradesh","latitude":16.3067,"longitude":80.4365,"temp":29.7,"humidity":62,"rain":0.0,"pressure":998.5,"uv_index":2.05,"wind_gusts":49.7,"aqi":28,"pm10":6.3,"pm2_5":5.0,"no2":7.0,"co":130.0,"o3":44.0,"so2":4.4,"mosquito_risk":7,"arthritis_risk":5,"migraine_risk":3,"frizz_risk":1,"updated_at":"2026-07-04T23:33:57.488364+05:30"},{"city":"Nellore","state":"Andhra Pradesh","latitude":14.4426,"longitude":79.9865,"temp":31.2,"humidity":50,"rain":0.0,"pressure":1002.0,"uv_index":1.65,"wind_gusts":57.6,"aqi":27,"pm10":6.8,"pm2_5":4.1,"no2":4.2,"co":107.0,"o3":48.0,"so2":3.1,"mosquito_risk":0,"arthritis_risk":5,"migraine_risk":0,"frizz_risk":1,"updated_at":"2026-07-04T23:33:57.488371+05:30"},{"city":"Kurnool","state":"Andhra Pradesh","latitude":15.8281,"longitude":78.0373,"temp":25.2,"humidity":82,"rain":0.1,"pressure":973.4,"uv_index":1.15,"wind_gusts":56.2,"aqi":24,"pm10":2.5,"pm2_5":2.2,"no2":6.6,"co":119.0,"o3":38.0,"so2":2.7,"mosquito_risk":10,"arthritis_risk":5,"migraine_risk":3,"frizz_risk":1,"updated_at":"2026-07-04T23:33:57.488379+05:30"},{"city":"Kakinada","state":"Andhra Pradesh","latitude":16.9891,"longitude":82.2475,"temp":27.7,"humidity":76,"rain":0.0,"pressure":1000.4,"uv_index":1.75,"wind_gusts":79.9,"aqi":33,"pm10":10.3,"pm2_5":7.5,"no2":6.6,"co":174.0,"o3":52.0,"so2":4.8,"mosquito_risk":7,"arthritis_risk":5,"migraine_risk":0,"frizz_risk":1,"updated_at":"2026-07-04T23:33:57.488385+05:30"},{"city":"Tirupati","state":"Andhra Pradesh","latitude":13.6288,"longitude":79.4192,"temp":29.7,"humidity":54,"rain":0.0,"pressure":988.3,"uv_index":2.6,"wind_gusts":50.4,"aqi":26,"pm10":6.8,"pm2_5":4.9,"no2":7.0,"co":134.0,"o3":44.0,"so2":2.1,"mosquito_risk":4,"arthritis_risk":5,"migraine_risk":3,"frizz_risk":1,"updated_at":"2026-07-04T23:33:57.488392+05:30"},{"city":"Warangal","state":"Telangana","latitude":17.9689,"longitude":79.5941,"temp":26.7,"humidity":75,"rain":0.0,"pressure":972.4,"uv_index":2.25,"wind_gusts":53.6,"aqi":25,"pm10":4.0,"pm2_5":3.8,"no2":6.8,"co":136.0,"o3":41.0,"so2":2.6,"mosquito_risk":7,"arthritis_risk":5,"migraine_risk":3,"frizz_risk":1,"updated_at":"2026-07-04T23:33:57.488398+05:30"},{"city":"Nizamabad","state":"Telangana","latitude":18.6725,"longitude":78.0941,"temp":25.0,"humidity":85,"rain":0.0,"pressure":958.8,"uv_index":1.9,"wind_gusts":52.9,"aqi":25,"pm10":3.8,"pm2_5":3.7,"no2":7.1,"co":147.0,"o3":39.0,"so2":3.1,"mosquito_risk":7,"arthritis_risk":5,"migraine_risk":3,"frizz_risk":1,"updated_at":"2026-07-04T23:33:57.488426+05:30"},{"city":"Mysore","state":"Karnataka","latitude":12.2958,"longitude":76.6396,"temp":22.0,"humidity":90,"rain":0.0,"pressure":928.0,"uv_index":8.05,"wind_gusts":68.0,"aqi":22,"pm10":2.4,"pm2_5":2.2,"no2":7.2,"co":118.0,"o3":39.0,"so2":1.8,"mosquito_risk":3,"arthritis_risk":5,"migraine_risk":7,"frizz_risk":1,"updated_at":"2026-07-04T23:33:57.488434+05:30"},{"city":"Mangalore","state":"Karnataka","latitude":12.9141,"longitude":74.856,"temp":24.3,"humidity":94,"rain":0.2,"pressure":1007.7,"uv_index":8.15,"wind_gusts":63.0,"aqi":42,"pm10":18.8,"pm2_5":13.1,"no2":11.8,"co":126.0,"o3":28.0,"so2":3.1,"mosquito_risk":6,"arthritis_risk":5,"migraine_risk":4,"frizz_risk":1,"updated_at":"2026-07-04T23:33:57.488440+05:30"},{"city":"Hubli-Dharwad","state":"Karnataka","latitude":15.3647,"longitude":75.124,"temp":21.7,"humidity":97,"rain":0.1,"pressure":938.3,"uv_index":1.9,"wind_gusts":60.1,"aqi":21,"pm10":1.9,"pm2_5":1.4,"no2":3.1,"co":101.0,"o3":44.0,"so2":0.7,"mosquito_risk":6,"arthritis_risk":5,"migraine_risk":3,"frizz_risk":1,"updated_at":"2026-07-04T23:33:57.488447+05:30"},{"city":"Belgaum","state":"Karnataka","latitude":15.8497,"longitude":74.4977,"temp":21.3,"humidity":97,"rain":0.2,"pressure":922.6,"uv_index":1.95,"wind_gusts":58.3,"aqi":21,"pm10":2.0,"pm2_5":1.4,"no2":2.9,"co":112.0,"o3":47.0,"so2":1.0,"mosquito_risk":6,"arthritis_risk":5,"migraine_risk":3,"frizz_risk":1,"updated_at":"2026-07-04T23:34:00.737104+05:30"},{"city":"Coimbatore","state":"Tamil Nadu","latitude":11.0168,"longitude":76.9558,"temp":24.0,"humidity":83,"rain":0.0,"pressure":961.7,"uv_index":5.85,"wind_gusts":56.9,"aqi":22,"pm10":4.3,"pm2_5":3.2,"no2":5.6,"co":131.0,"o3":40.0,"so2":2.0,"mosquito_risk":3,"arthritis_risk":5,"migraine_risk":3,"frizz_risk":1,"updated_at":"2026-07-04T23:34:00.737132+05:30"},{"city":"Madurai","state":"Tamil Nadu","latitude":9.9252,"longitude":78.1198,"temp":28.7,"humidity":60,"rain":0.0,"pressure":992.9,"uv_index":2.15,"wind_gusts":47.5,"aqi":29,"pm10":10.3,"pm2_5":7.5,"no2":12.4,"co":116.0,"o3":37.0,"so2":3.7,"mosquito_risk":4,"arthritis_risk":5,"migraine_risk":3,"frizz_risk":1,"updated_at":"2026-07-04T23:34:00.737142+05:30"},{"city":"Trichy","state":"Tamil Nadu","latitude":10.7905,"longitude":78.7047,"temp":29.5,"humidity":56,"rain":0.0,"pressure":999.1,"uv_index":6.05,"wind_gusts":60.1,"aqi":25,"pm10":11.4,"pm2_5":6.1,"no2":4.7,"co":111.0,"o3":43.0,"so2":1.8,"mosquito_risk":4,"arthritis_risk":5,"migraine_risk":7,"frizz_risk":1,"updated_at":"2026-07-04T23:34:00.737150+05:30"},{"city":"Salem","state":"Tamil Nadu","latitude":11.6643,"longitude":78.146,"temp":25.6,"humidity":77,"rain":0.0,"pressure":977.0,"uv_index":7.15,"wind_gusts":38.2,"aqi":34,"pm10":11.7,"pm2_5":10.1,"no2":17.8,"co":213.0,"o3":28.0,"so2":5.4,"mosquito_risk":7,"arthritis_risk":5,"migraine_risk":7,"frizz_risk":1,"updated_at":"2026-07-04T23:34:00.737157+05:30"},{"city":"Tirunelveli","state":"Tamil Nadu","latitude":8.7139,"longitude":77.7567,"temp":29.0,"humidity":61,"rain":0.0,"pressure":1004.0,"uv_index":3.25,"wind_gusts":56.5,"aqi":21,"pm10":9.0,"pm2_5":6.3,"no2":8.1,"co":119.0,"o3":33.0,"so2":1.8,"mosquito_risk":7,"arthritis_risk":5,"migraine_risk":0,"frizz_risk":1,"updated_at":"2026-07-04T23:34:00.737163+05:30"},{"city":"Vellore","state":"Tamil Nadu","latitude":12.9165,"longitude":79.1325,"temp":29.1,"humidity":55,"rain":0.0,"pressure":982.4,"uv_index":2.35,"wind_gusts":56.2,"aqi":27,"pm10":5.1,"pm2_5":3.9,"no2":6.5,"co":129.0,"o3":43.0,"so2":2.5,"mosquito_risk":4,"arthritis_risk":5,"migraine_risk":3,"frizz_risk":1,"updated_at":"2026-07-04T23:34:00.737170+05:30"},{"city":"Erode","state":"Tamil Nadu","latitude":11.341,"longitude":77.7172,"temp":26.0,"humidity":79,"rain":0.0,"pressure":988.8,"uv_index":6.3,"wind_gusts":51.1,"aqi":24,"pm10":9.4,"pm2_5":7.7,"no2":12.9,"co":142.0,"o3":33.0,"so2":3.0,"mosquito_risk":7,"arthritis_risk":5,"migraine_risk":7,"frizz_risk":1,"updated_at":"2026-07-04T23:34:00.737177+05:30"},{"city":"Kochi","state":"Kerala","latitude":9.9312,"longitude":76.2673,"temp":26.7,"humidity":90,"rain":0.0,"pressure":1010.6,"uv_index":6.9,"wind_gusts":44.6,"aqi":41,"pm10":25.4,"pm2_5":16.7,"no2":19.4,"co":105.0,"o3":19.0,"so2":5.0,"mosquito_risk":7,"arthritis_risk":0,"migraine_risk":4,"frizz_risk":1,"updated_at":"2026-07-04T23:34:00.737183+05:30"},{"city":"Thiruvananthapuram","state":"Kerala","latitude":8.5241,"longitude":76.9366,"temp":24.5,"humidity":96,"rain":0.1,"pressure":1010.6,"uv_index":7.35,"wind_gusts":52.6,"aqi":32,"pm10":25.7,"pm2_5":12.1,"no2":2.8,"co":96.0,"o3":48.0,"so2":1.0,"mosquito_risk":6,"arthritis_risk":0,"migraine_risk":4,"frizz_risk":1,"updated_at":"2026-07-04T23:34:00.737190+05:30"},{"city":"Kozhikode","state":"Kerala","latitude":11.2588,"longitude":75.7804,"temp":24.2,"humidity":98,"rain":0.4,"pressure":1009.9,"uv_index":5.85,"wind_gusts":37.1,"aqi":31,"pm10":18.3,"pm2_5":8.9,"no2":1.2,"co":168.0,"o3":53.0,"so2":0.7,"mosquito_risk":6,"arthritis_risk":0,"migraine_risk":0,"frizz_risk":1,"updated_at":"2026-07-04T23:34:00.737196+05:30"},{"city":"Thrissur","state":"Kerala","latitude":10.5276,"longitude":76.2144,"temp":24.4,"humidity":99,"rain":0.1,"pressure":1009.1,"uv_index":7.8,"wind_gusts":43.6,"aqi":39,"pm10":18.7,"pm2_5":12.5,"no2":11.1,"co":138.0,"o3":30.0,"so2":3.5,"mosquito_risk":6,"arthritis_risk":0,"migraine_risk":4,"frizz_risk":1,"updated_at":"2026-07-04T23:34:00.737203+05:30"},{"city":"Kannur","state":"Kerala","latitude":11.8745,"longitude":75.3704,"temp":24.2,"humidity":96,"rain":0.0,"pressure":1008.8,"uv_index":8.5,"wind_gusts":47.5,"aqi":36,"pm10":12.4,"pm2_5":7.9,"no2":12.1,"co":185.0,"o3":25.0,"so2":2.4,"mosquito_risk":3,"arthritis_risk":0,"migraine_risk":4,"frizz_risk":1,"updated_at":"2026-07-04T23:34:00.737210+05:30"},{"city":"Patna","state":"Bihar","latitude":25.5941,"longitude":85.1376,"temp":30.8,"humidity":77,"rain":0.0,"pressure":991.5,"uv_index":8.5,"wind_gusts":37.8,"aqi":69,"pm10":22.5,"pm2_5":22.3,"no2":15.2,"co":390.0,"o3":86.0,"so2":10.6,"mosquito_risk":3,"arthritis_risk":5,"migraine_risk":7,"frizz_risk":1,"updated_at":"2026-07-04T23:34:00.737216+05:30"},{"city":"Gaya","state":"Bihar","latitude":24.7914,"longitude":85.0002,"temp":30.2,"humidity":77,"rain":0.0,"pressure":984.6,"uv_index":8.5,"wind_gusts":38.5,"aqi":60,"pm10":22.5,"pm2_5":22.1,"no2":14.7,"co":261.0,"o3":65.0,"so2":9.3,"mosquito_risk":3,"arthritis_risk":5,"migraine_risk":7,"frizz_risk":1,"updated_at":"2026-07-04T23:34:00.737223+05:30"},{"city":"Muzaffarpur","state":"Bihar","latitude":26.1209,"longitude":85.3647,"temp":30.5,"humidity":79,"rain":0.0,"pressure":991.8,"uv_index":8.1,"wind_gusts":31.0,"aqi":77,"pm10":26.4,"pm2_5":26.1,"no2":17.6,"co":415.0,"o3":78.0,"so2":8.9,"mosquito_risk":3,"arthritis_risk":5,"migraine_risk":7,"frizz_risk":1,"updated_at":"2026-07-04T23:34:00.737229+05:30"},{"city":"Bhagalpur","state":"Bihar","latitude":25.2425,"longitude":87.0117,"temp":29.7,"humidity":81,"rain":0.0,"pressure":992.2,"uv_index":7.6,"wind_gusts":38.9,"aqi":61,"pm10":16.1,"pm2_5":15.8,"no2":11.9,"co":214.0,"o3":74.0,"so2":5.6,"mosquito_risk":7,"arthritis_risk":5,"migraine_risk":7,"frizz_risk":1,"updated_at":"2026-07-04T23:34:00.737235+05:30"},{"city":"Ranchi","state":"Jharkhand","latitude":23.3441,"longitude":85.3096,"temp":24.0,"humidity":95,"rain":0.1,"pressure":928.7,"uv_index":7.15,"wind_gusts":52.9,"aqi":64,"pm10":17.0,"pm2_5":16.9,"no2":10.4,"co":230.0,"o3":71.0,"so2":15.6,"mosquito_risk":6,"arthritis_risk":5,"migraine_risk":7,"frizz_risk":1,"updated_at":"2026-07-04T23:34:00.737242+05:30"},{"city":"Jamshedpur","state":"Jharkhand","latitude":22.8046,"longitude":86.2029,"temp":26.3,"humidity":92,"rain":0.0,"pressure":980.0,"uv_index":7.45,"wind_gusts":48.6,"aqi":58,"pm10":18.5,"pm2_5":17.7,"no2":20.9,"co":465.0,"o3":54.0,"so2":26.2,"mosquito_risk":7,"arthritis_risk":5,"migraine_risk":7,"frizz_risk":1,"updated_at":"2026-07-04T23:34:00.737248+05:30"},{"city":"Dhanbad","state":"Jharkhand","latitude":23.7957,"longitude":86.4304,"temp":27.3,"humidity":86,"rain":0.0,"pressure":970.5,"uv_index":6.2,"wind_gusts":53.6,"aqi":78,"pm10":31.4,"pm2_5":31.0,"no2":34.7,"co":196.0,"o3":45.0,"so2":78.4,"mosquito_risk":7,"arthritis_risk":5,"migraine_risk":7,"frizz_risk":1,"updated_at":"2026-07-04T23:34:00.737255+05:30"},{"city":"Bokaro","state":"Jharkhand","latitude":23.6693,"longitude":86.1511,"temp":26.8,"humidity":88,"rain":0.0,"pressure":974.2,"uv_index":5.1,"wind_gusts":51.1,"aqi":80,"pm10":34.2,"pm2_5":33.8,"no2":37.1,"co":223.0,"o3":44.0,"so2":87.4,"mosquito_risk":7,"arthritis_risk":5,"migraine_risk":3,"frizz_risk":1,"updated_at":"2026-07-04T23:34:00.737261+05:30"},{"city":"Bhubaneswar","state":"Odisha","latitude":20.2961,"longitude":85.8245,"temp":25.8,"humidity":98,"rain":0.1,"pressure":990.0,"uv_index":2.95,"wind_gusts":31.0,"aqi":57,"pm10":14.6,"pm2_5":14.1,"no2":15.5,"co":231.0,"o3":46.0,"so2":5.3,"mosquito_risk":10,"arthritis_risk":5,"migraine_risk":3,"frizz_risk":1,"updated_at":"2026-07-04T23:34:00.737267+05:30"},{"city":"Cuttack","state":"Odisha","latitude":20.4625,"longitude":85.8828,"temp":26.2,"humidity":96,"rain":0.1,"pressure":991.7,"uv_index":2.3,"wind_gusts":43.6,"aqi":57,"pm10":14.6,"pm2_5":14.1,"no2":15.5,"co":240.0,"o3":46.0,"so2":5.3,"mosquito_risk":10,"arthritis_risk":5,"migraine_risk":3,"frizz_risk":1,"updated_at":"2026-07-04T23:34:00.737274+05:30"},{"city":"Rourkela","state":"Odisha","latitude":22.2604,"longitude":84.8536,"temp":26.6,"humidity":91,"rain":0.0,"pressure":974.2,"uv_index":6.7,"wind_gusts":51.8,"aqi":58,"pm10":14.4,"pm2_5":14.3,"no2":10.4,"co":282.0,"o3":77.0,"so2":10.5,"mosquito_risk":7,"arthritis_risk":5,"migraine_risk":7,"frizz_risk":1,"updated_at":"2026-07-04T23:34:00.737280+05:30"},{"city":"Raipur","state":"Chhattisgarh","latitude":21.2514,"longitude":81.6296,"temp":25.0,"humidity":98,"rain":0.1,"pressure":965.8,"uv_index":7.3,"wind_gusts":29.5,"aqi":69,"pm10":19.3,"pm2_5":19.2,"no2":27.0,"co":275.0,"o3":62.0,"so2":39.3,"mosquito_risk":10,"arthritis_risk":5,"migraine_risk":7,"frizz_risk":1,"updated_at":"2026-07-04T23:34:00.737286+05:30"},{"city":"Bhilai","state":"Chhattisgarh","latitude":21.1938,"longitude":81.3509,"temp":25.2,"humidity":97,"rain":0.2,"pressure":966.5,"uv_index":6.8,"wind_gusts":33.1,"aqi":65,"pm10":15.9,"pm2_5":15.8,"no2":19.7,"co":577.0,"o3":70.0,"so2":30.4,"mosquito_risk":10,"arthritis_risk":5,"migraine_risk":7,"frizz_risk":1,"updated_at":"2026-07-04T23:34:00.737292+05:30"},{"city":"Guwahati","state":"Assam","latitude":26.1158,"longitude":91.7086,"temp":28.2,"humidity":93,"rain":0.0,"pressure":993.4,"uv_index":8.7,"wind_gusts":33.1,"aqi":36,"pm10":12.9,"pm2_5":12.7,"no2":11.5,"co":278.0,"o3":34.0,"so2":1.6,"mosquito_risk":7,"arthritis_risk":5,"migraine_risk":7,"frizz_risk":1,"updated_at":"2026-07-04T23:34:00.737298+05:30"},{"city":"Agartala","state":"Tripura","latitude":23.8315,"longitude":91.2868,"temp":27.8,"humidity":84,"rain":0.0,"pressure":998.2,"uv_index":8.55,"wind_gusts":29.9,"aqi":42,"pm10":8.2,"pm2_5":7.9,"no2":8.2,"co":131.0,"o3":39.0,"so2":1.8,"mosquito_risk":7,"arthritis_risk":5,"migraine_risk":7,"frizz_risk":1,"updated_at":"2026-07-04T23:34:00.737305+05:30"},{"city":"Shillong","state":"Meghalaya","latitude":25.5788,"longitude":91.8933,"temp":20.5,"humidity":93,"rain":0.0,"pressure":852.6,"uv_index":8.3,"wind_gusts":34.9,"aqi":28,"pm10":2.5,"pm2_5":2.4,"no2":6.9,"co":188.0,"o3":46.0,"so2":1.1,"mosquito_risk":3,"arthritis_risk":5,"migraine_risk":7,"frizz_risk":1,"updated_at":"2026-07-04T23:34:00.737311+05:30"},{"city":"Imphal","state":"Manipur","latitude":24.817,"longitude":93.9368,"temp":24.1,"humidity":88,"rain":0.0,"pressure":918.9,"uv_index":7.75,"wind_gusts":31.3,"aqi":24,"pm10":7.5,"pm2_5":7.4,"no2":8.3,"co":375.0,"o3":35.0,"so2":1.5,"mosquito_risk":3,"arthritis_risk":5,"migraine_risk":7,"frizz_risk":1,"updated_at":"2026-07-04T23:34:00.737317+05:30"},{"city":"Aizawl","state":"Mizoram","latitude":23.7271,"longitude":92.7176,"temp":21.4,"humidity":99,"rain":0.1,"pressure":886.6,"uv_index":8.7,"wind_gusts":26.3,"aqi":21,"pm10":3.3,"pm2_5":3.2,"no2":6.8,"co":271.0,"o3":26.0,"so2":0.5,"mosquito_risk":6,"arthritis_risk":5,"migraine_risk":7,"frizz_risk":1,"updated_at":"2026-07-04T23:34:00.737323+05:30"},{"city":"Kohima","state":"Nagaland","latitude":25.6701,"longitude":94.1077,"temp":20.7,"humidity":86,"rain":0.0,"pressure":850.6,"uv_index":9.1,"wind_gusts":29.2,"aqi":22,"pm10":8.2,"pm2_5":8.1,"no2":13.2,"co":163.0,"o3":20.0,"so2":0.9,"mosquito_risk":3,"arthritis_risk":5,"migraine_risk":7,"frizz_risk":1,"updated_at":"2026-07-04T23:34:00.737329+05:30"},{"city":"Gangtok","state":"Sikkim","latitude":27.3314,"longitude":88.6138,"temp":19.7,"humidity":96,"rain":0.1,"pressure":834.8,"uv_index":8.5,"wind_gusts":36.0,"aqi":44,"pm10":12.9,"pm2_5":12.5,"no2":10.6,"co":293.0,"o3":83.0,"so2":1.6,"mosquito_risk":6,"arthritis_risk":10,"migraine_risk":7,"frizz_risk":1,"updated_at":"2026-07-04T23:34:00.737336+05:30"},{"city":"Siliguri","state":"West Bengal","latitude":26.7271,"longitude":88.3953,"temp":27.1,"humidity":92,"rain":0.1,"pressure":984.8,"uv_index":8.7,"wind_gusts":24.1,"aqi":68,"pm10":27.3,"pm2_5":26.7,"no2":19.2,"co":344.0,"o3":73.0,"so2":4.7,"mosquito_risk":10,"arthritis_risk":5,"migraine_risk":7,"frizz_risk":1,"updated_at":"2026-07-04T23:34:04.083487+05:30"},{"city":"Durgapur","state":"West Bengal","latitude":23.5204,"longitude":87.3119,"temp":28.5,"humidity":79,"rain":0.0,"pressure":985.0,"uv_index":6.95,"wind_gusts":52.6,"aqi":64,"pm10":23.1,"pm2_5":22.3,"no2":21.2,"co":254.0,"o3":55.0,"so2":20.3,"mosquito_risk":7,"arthritis_risk":5,"migraine_risk":7,"frizz_risk":1,"updated_at":"2026-07-04T23:34:04.083522+05:30"},{"city":"Asansol","state":"West Bengal","latitude":23.6739,"longitude":86.9524,"temp":27.4,"humidity":89,"rain":0.0,"pressure":983.8,"uv_index":5.6,"wind_gusts":52.9,"aqi":62,"pm10":19.6,"pm2_5":19.1,"no2":21.6,"co":315.0,"o3":55.0,"so2":19.9,"mosquito_risk":7,"arthritis_risk":5,"migraine_risk":3,"frizz_risk":1,"updated_at":"2026-07-04T23:34:04.083533+05:30"},{"city":"Pondicherry","state":"Puducherry","latitude":11.9139,"longitude":79.8145,"temp":29.3,"humidity":65,"rain":0.0,"pressure":1006.4,"uv_index":5.25,"wind_gusts":41.0,"aqi":42,"pm10":11.7,"pm2_5":9.3,"no2":14.7,"co":248.0,"o3":43.0,"so2":10.8,"mosquito_risk":7,"arthritis_risk":5,"migraine_risk":0,"frizz_risk":1,"updated_at":"2026-07-04T23:34:04.083541+05:30"},{"city":"Port Blair","state":"Andaman and Nicobar Islands","latitude":11.6234,"longitude":92.7265,"temp":26.1,"humidity":94,"rain":0.1,"pressure":1007.1,"uv_index":5.1,"wind_gusts":57.2,"aqi":43,"pm10":10.7,"pm2_5":6.2,"no2":0.3,"co":93.0,"o3":60.0,"so2":0.4,"mosquito_risk":10,"arthritis_risk":5,"migraine_risk":0,"frizz_risk":1,"updated_at":"2026-07-04T23:34:04.083550+05:30"},{"city":"Haridwar","state":"Uttarakhand","latitude":29.9457,"longitude":78.1642,"temp":29.3,"humidity":86,"rain":0.0,"pressure":966.7,"uv_index":6.55,"wind_gusts":20.5,"aqi":107,"pm10":65.0,"pm2_5":65.0,"no2":36.4,"co":526.0,"o3":70.0,"so2":18.8,"mosquito_risk":7,"arthritis_risk":5,"migraine_risk":7,"frizz_risk":1,"updated_at":"2026-07-04T23:34:04.083558+05:30"},{"city":"Rishikesh","state":"Uttarakhand","latitude":30.0869,"longitude":78.2676,"temp":28.4,"humidity":84,"rain":0.0,"pressure":959.7,"uv_index":6.7,"wind_gusts":24.8,"aqi":97,"pm10":36.0,"pm2_5":35.9,"no2":14.0,"co":457.0,"o3":108.0,"so2":10.0,"mosquito_risk":7,"arthritis_risk":5,"migraine_risk":7,"frizz_risk":1,"updated_at":"2026-07-04T23:34:04.083566+05:30"},{"city":"Nainital","state":"Uttarakhand","latitude":29.3919,"longitude":79.4542,"temp":17.3,"humidity":100,"rain":0.0,"pressure":802.3,"uv_index":6.65,"wind_gusts":27.0,"aqi":66,"pm10":23.2,"pm2_5":22.8,"no2":18.1,"co":429.0,"o3":59.0,"so2":3.6,"mosquito_risk":3,"arthritis_risk":10,"migraine_risk":7,"frizz_risk":1,"updated_at":"2026-07-04T23:34:04.083573+05:30"},{"city":"Mussoorie","state":"Uttarakhand","latitude":30.4599,"longitude":78.0664,"temp":17.8,"humidity":100,"rain":0.0,"pressure":799.6,"uv_index":6.75,"wind_gusts":33.5,"aqi":83,"pm10":44.5,"pm2_5":44.4,"no2":38.2,"co":443.0,"o3":74.0,"so2":13.8,"mosquito_risk":3,"arthritis_risk":10,"migraine_risk":7,"frizz_risk":1,"updated_at":"2026-07-04T23:34:04.083581+05:30"},{"city":"Dharamshala","state":"Himachal Pradesh","latitude":32.219,"longitude":76.3234,"temp":23.6,"humidity":89,"rain":0.0,"pressure":864.6,"uv_index":8.45,"wind_gusts":29.2,"aqi":50,"pm10":15.8,"pm2_5":15.7,"no2":19.8,"co":417.0,"o3":28.0,"so2":0.2,"mosquito_risk":3,"arthritis_risk":5,"migraine_risk":7,"frizz_risk":1,"updated_at":"2026-07-04T23:34:04.083588+05:30"},{"city":"Dalhousie","state":"Himachal Pradesh","latitude":32.5387,"longitude":75.971,"temp":17.6,"humidity":98,"rain":0.0,"pressure":800.1,"uv_index":8.65,"wind_gusts":33.1,"aqi":118,"pm10":50.2,"pm2_5":48.4,"no2":42.5,"co":662.0,"o3":54.0,"so2":2.7,"mosquito_risk":3,"arthritis_risk":10,"migraine_risk":7,"frizz_risk":1,"updated_at":"2026-07-04T23:34:04.083596+05:30"},{"city":"Patiala","state":"Punjab","latitude":30.3398,"longitude":76.3869,"temp":29.3,"humidity":88,"rain":0.0,"pressure":969.8,"uv_index":7.25,"wind_gusts":28.4,"aqi":123,"pm10":118.7,"pm2_5":118.0,"no2":80.0,"co":1018.0,"o3":20.0,"so2":18.1,"mosquito_risk":7,"arthritis_risk":5,"migraine_risk":7,"frizz_risk":1,"updated_at":"2026-07-04T23:34:04.083603+05:30"},{"city":"Bhatinda","state":"Punjab","latitude":30.211,"longitude":74.9455,"temp":31.4,"humidity":70,"rain":0.0,"pressure":974.8,"uv_index":7.95,"wind_gusts":26.3,"aqi":128,"pm10":63.6,"pm2_5":51.6,"no2":30.7,"co":554.0,"o3":65.0,"so2":14.1,"mosquito_risk":3,"arthritis_risk":5,"migraine_risk":7,"frizz_risk":1,"updated_at":"2026-07-04T23:34:04.083609+05:30"},{"city":"Rohtak","state":"Haryana","latitude":28.8955,"longitude":76.6066,"temp":30.7,"humidity":78,"rain":0.0,"pressure":973.6,"uv_index":6.25,"wind_gusts":19.4,"aqi":159,"pm10":282.2,"pm2_5":102.0,"no2":51.5,"co":712.0,"o3":61.0,"so2":35.1,"mosquito_risk":3,"arthritis_risk":5,"migraine_risk":7,"frizz_risk":1,"updated_at":"2026-07-04T23:34:04.083616+05:30"},{"city":"Panipat","state":"Haryana","latitude":29.3909,"longitude":76.9635,"temp":30.0,"humidity":85,"rain":0.0,"pressure":972.4,"uv_index":6.5,"wind_gusts":22.3,"aqi":233,"pm10":429.3,"pm2_5":144.8,"no2":70.3,"co":1140.0,"o3":36.0,"so2":30.3,"mosquito_risk":7,"arthritis_risk":5,"migraine_risk":7,"frizz_risk":1,"updated_at":"2026-07-04T23:34:04.083623+05:30"},{"city":"Mathura","state":"Uttar Pradesh","latitude":27.4924,"longitude":77.6737,"temp":31.0,"humidity":79,"rain":0.0,"pressure":978.6,"uv_index":6.7,"wind_gusts":22.0,"aqi":113,"pm10":45.5,"pm2_5":39.0,"no2":22.2,"co":648.0,"o3":98.0,"so2":5.8,"mosquito_risk":3,"arthritis_risk":5,"migraine_risk":7,"frizz_risk":1,"updated_at":"2026-07-04T23:34:04.083630+05:30"},{"city":"Vrindavan","state":"Uttar Pradesh","latitude":27.5823,"longitude":77.7027,"temp":31.1,"humidity":77,"rain":0.0,"pressure":979.0,"uv_index":7.05,"wind_gusts":22.7,"aqi":113,"pm10":45.5,"pm2_5":39.0,"no2":22.2,"co":577.0,"o3":98.0,"so2":5.8,"mosquito_risk":3,"arthritis_risk":5,"migraine_risk":7,"frizz_risk":1,"updated_at":"2026-07-04T23:34:04.083637+05:30"},{"city":"Ayodhya","state":"Uttar Pradesh","latitude":26.7922,"longitude":82.1998,"temp":31.3,"humidity":73,"rain":0.0,"pressure":986.9,"uv_index":8.05,"wind_gusts":26.3,"aqi":95,"pm10":35.9,"pm2_5":35.5,"no2":18.9,"co":465.0,"o3":76.0,"so2":8.4,"mosquito_risk":3,"arthritis_risk":5,"migraine_risk":7,"frizz_risk":1,"updated_at":"2026-07-04T23:34:04.083644+05:30"},{"city":"Ratlam","state":"Madhya Pradesh","latitude":23.3315,"longitude":75.0367,"temp":24.3,"humidity":98,"rain":0.1,"pressure":947.1,"uv_index":6.1,"wind_gusts":36.4,"aqi":47,"pm10":34.9,"pm2_5":21.1,"no2":7.8,"co":188.0,"o3":58.0,"so2":3.0,"mosquito_risk":6,"arthritis_risk":5,"migraine_risk":7,"frizz_risk":1,"updated_at":"2026-07-04T23:34:04.083651+05:30"},{"city":"Sagar","state":"Madhya Pradesh","latitude":23.8388,"longitude":78.7378,"temp":24.3,"humidity":99,"rain":0.0,"pressure":943.2,"uv_index":8.0,"wind_gusts":24.8,"aqi":58,"pm10":18.3,"pm2_5":18.1,"no2":7.6,"co":253.0,"o3":86.0,"so2":3.0,"mosquito_risk":3,"arthritis_risk":5,"migraine_risk":7,"frizz_risk":1,"updated_at":"2026-07-04T23:34:04.083658+05:30"},{"city":"Satna","state":"Madhya Pradesh","latitude":24.6005,"longitude":80.8322,"temp":27.3,"humidity":89,"rain":0.0,"pressure":963.0,"uv_index":7.15,"wind_gusts":31.3,"aqi":75,"pm10":20.5,"pm2_5":20.1,"no2":15.3,"co":294.0,"o3":71.0,"so2":4.7,"mosquito_risk":7,"arthritis_risk":5,"migraine_risk":7,"frizz_risk":1,"updated_at":"2026-07-04T23:34:04.083666+05:30"},{"city":"Akola","state":"Maharashtra","latitude":20.7002,"longitude":77.0082,"temp":24.2,"humidity":96,"rain":0.0,"pressure":968.4,"uv_index":6.95,"wind_gusts":40.0,"aqi":33,"pm10":10.2,"pm2_5":8.6,"no2":12.1,"co":202.0,"o3":56.0,"so2":8.7,"mosquito_risk":3,"arthritis_risk":5,"migraine_risk":7,"frizz_risk":1,"updated_at":"2026-07-04T23:34:04.083673+05:30"},{"city":"Amravati","state":"Maharashtra","latitude":20.9374,"longitude":77.7796,"temp":24.9,"humidity":92,"rain":0.1,"pressure":960.0,"uv_index":7.25,"wind_gusts":47.2,"aqi":34,"pm10":9.5,"pm2_5":7.9,"no2":11.8,"co":177.0,"o3":58.0,"so2":9.7,"mosquito_risk":6,"arthritis_risk":5,"migraine_risk":7,"frizz_risk":1,"updated_at":"2026-07-04T23:34:04.083681+05:30"},{"city":"Latur","state":"Maharashtra","latitude":18.4088,"longitude":76.5604,"temp":23.2,"humidity":92,"rain":0.0,"pressure":934.0,"uv_index":2.4,"wind_gusts":47.5,"aqi":22,"pm10":2.3,"pm2_5":2.2,"no2":4.6,"co":131.0,"o3":43.0,"so2":1.5,"mosquito_risk":3,"arthritis_risk":5,"migraine_risk":3,"frizz_risk":1,"updated_at":"2026-07-04T23:34:04.083688+05:30"},{"city":"Nanded","state":"Maharashtra","latitude":19.1383,"longitude":77.3091,"temp":25.5,"humidity":84,"rain":0.0,"pressure":962.4,"uv_index":1.75,"wind_gusts":46.1,"aqi":26,"pm10":3.7,"pm2_5":3.6,"no2":7.6,"co":147.0,"o3":39.0,"so2":3.2,"mosquito_risk":7,"arthritis_risk":5,"migraine_risk":3,"frizz_risk":1,"updated_at":"2026-07-04T23:34:04.083695+05:30"},{"city":"Gulbarga","state":"Karnataka","latitude":17.3297,"longitude":76.8343,"temp":23.7,"humidity":88,"rain":0.1,"pressure":954.2,"uv_index":1.5,"wind_gusts":60.5,"aqi":22,"pm10":2.4,"pm2_5":2.2,"no2":6.5,"co":135.0,"o3":39.0,"so2":1.9,"mosquito_risk":6,"arthritis_risk":5,"migraine_risk":3,"frizz_risk":1,"updated_at":"2026-07-04T23:34:04.083702+05:30"},{"city":"Bidar","state":"Karnataka","latitude":17.9104,"longitude":77.5199,"temp":23.1,"humidity":90,"rain":0.0,"pressure":930.2,"uv_index":1.35,"wind_gusts":55.1,"aqi":22,"pm10":2.3,"pm2_5":2.2,"no2":6.5,"co":128.0,"o3":39.0,"so2":2.0,"mosquito_risk":3,"arthritis_risk":5,"migraine_risk":3,"frizz_risk":1,"updated_at":"2026-07-04T23:34:04.083710+05:30"},{"city":"Hospet","state":"Karnataka","latitude":15.2689,"longitude":76.3909,"temp":22.9,"humidity":94,"rain":0.2,"pressure":953.2,"uv_index":1.7,"wind_gusts":68.8,"aqi":23,"pm10":2.4,"pm2_5":1.8,"no2":3.9,"co":112.0,"o3":43.0,"so2":1.1,"mosquito_risk":6,"arthritis_risk":5,"migraine_risk":3,"frizz_risk":1,"updated_at":"2026-07-04T23:34:04.083717+05:30"},{"city":"Tirupur","state":"Tamil Nadu","latitude":11.1085,"longitude":77.3411,"temp":24.9,"humidity":84,"rain":0.0,"pressure":975.0,"uv_index":7.75,"wind_gusts":59.4,"aqi":26,"pm10":10.1,"pm2_5":8.8,"no2":15.5,"co":126.0,"o3":29.0,"so2":3.8,"mosquito_risk":3,"arthritis_risk":5,"migraine_risk":7,"frizz_risk":1,"updated_at":"2026-07-04T23:34:04.083723+05:30"},{"city":"Alappuzha","state":"Kerala","latitude":9.4981,"longitude":76.3388,"temp":27.2,"humidity":85,"rain":0.0,"pressure":1010.8,"uv_index":6.75,"wind_gusts":44.6,"aqi":38,"pm10":22.9,"pm2_5":12.4,"no2":8.3,"co":85.0,"o3":38.0,"so2":2.2,"mosquito_risk":7,"arthritis_risk":0,"migraine_risk":4,"frizz_risk":1,"updated_at":"2026-07-04T23:34:04.083729+05:30"},{"city":"Munnar","state":"Kerala","latitude":10.0889,"longitude":77.0595,"temp":16.7,"humidity":100,"rain":0.2,"pressure":857.4,"uv_index":3.75,"wind_gusts":59.8,"aqi":20,"pm10":5.7,"pm2_5":3.8,"no2":6.7,"co":100.0,"o3":31.0,"so2":1.7,"mosquito_risk":6,"arthritis_risk":10,"migraine_risk":3,"frizz_risk":1,"updated_at":"2026-07-04T23:34:04.083736+05:30"},{"city":"Silchar","state":"Assam","latitude":24.8333,"longitude":92.7789,"temp":27.0,"humidity":96,"rain":0.0,"pressure":998.3,"uv_index":8.65,"wind_gusts":29.9,"aqi":48,"pm10":16.7,"pm2_5":16.6,"no2":9.8,"co":257.0,"o3":36.0,"so2":3.9,"mosquito_risk":7,"arthritis_risk":5,"migraine_risk":7,"frizz_risk":1,"updated_at":"2026-07-04T23:34:04.083743+05:30"},{"city":"Dibrugarh","state":"Assam","latitude":27.4728,"longitude":94.912,"temp":29.2,"humidity":76,"rain":0.0,"pressure":988.3,"uv_index":8.9,"wind_gusts":28.4,"aqi":56,"pm10":37.0,"pm2_5":36.4,"no2":32.6,"co":177.0,"o3":11.0,"so2":2.9,"mosquito_risk":7,"arthritis_risk":5,"migraine_risk":7,"frizz_risk":1,"updated_at":"2026-07-04T23:34:04.083749+05:30"}]