[{"city":"Delhi","state":"Delhi","latitude":28.6139,"longitude":77.209,"temp":39.1,"humidity":29,"rain":0.0,"pressure":975.7,"uv_index":7.8,"wind_gusts":46.8,"aqi":396,"pm10":581.1,"pm2_5":95.5,"no2":3.7,"co":211.0,"o3":137.0,"so2":10.2,"mosquito_risk":0,"arthritis_risk":5,"migraine_risk":10,"frizz_risk":1,"updated_at":"2026-06-21T16:02:06.224787+05:30"},{"city":"Mumbai","state":"Maharashtra","latitude":19.076,"longitude":72.8777,"temp":32.7,"humidity":55,"rain":0.0,"pressure":1004.8,"uv_index":7.7,"wind_gusts":35.3,"aqi":50,"pm10":21.4,"pm2_5":14.3,"no2":4.3,"co":128.0,"o3":93.0,"so2":7.2,"mosquito_risk":0,"arthritis_risk":5,"migraine_risk":4,"frizz_risk":1,"updated_at":"2026-06-21T16:02:06.224830+05:30"},{"city":"Bangalore","state":"Karnataka","latitude":12.9716,"longitude":77.5946,"temp":28.0,"humidity":64,"rain":0.0,"pressure":909.5,"uv_index":7.55,"wind_gusts":27.0,"aqi":66,"pm10":11.4,"pm2_5":8.4,"no2":6.5,"co":311.0,"o3":83.0,"so2":3.0,"mosquito_risk":7,"arthritis_risk":5,"migraine_risk":7,"frizz_risk":1,"updated_at":"2026-06-21T16:02:06.224843+05:30"},{"city":"Hyderabad","state":"Telangana","latitude":17.385,"longitude":78.4867,"temp":33.7,"humidity":42,"rain":0.0,"pressure":950.3,"uv_index":9.0,"wind_gusts":31.3,"aqi":73,"pm10":29.5,"pm2_5":20.5,"no2":2.3,"co":236.0,"o3":124.0,"so2":4.2,"mosquito_risk":0,"arthritis_risk":5,"migraine_risk":7,"frizz_risk":1,"updated_at":"2026-06-21T16:02:06.224852+05:30"},{"city":"Chennai","state":"Tamil Nadu","latitude":13.0827,"longitude":80.2707,"temp":32.3,"humidity":71,"rain":0.0,"pressure":1003.6,"uv_index":6.05,"wind_gusts":38.5,"aqi":86,"pm10":30.3,"pm2_5":22.3,"no2":4.4,"co":222.0,"o3":135.0,"so2":8.5,"mosquito_risk":3,"arthritis_risk":5,"migraine_risk":4,"frizz_risk":1,"updated_at":"2026-06-21T16:02:06.224860+05:30"},{"city":"Kolkata","state":"West Bengal","latitude":22.5726,"longitude":88.3639,"temp":29.7,"humidity":85,"rain":0.0,"pressure":1000.1,"uv_index":7.0,"wind_gusts":31.7,"aqi":112,"pm10":35.9,"pm2_5":29.9,"no2":5.3,"co":304.0,"o3":136.0,"so2":9.8,"mosquito_risk":7,"arthritis_risk":5,"migraine_risk":4,"frizz_risk":1,"updated_at":"2026-06-21T16:02:06.224867+05:30"},{"city":"Pune","state":"Maharashtra","latitude":18.5204,"longitude":73.8567,"temp":30.6,"humidity":53,"rain":0.1,"pressure":945.3,"uv_index":8.25,"wind_gusts":45.7,"aqi":49,"pm10":15.9,"pm2_5":10.3,"no2":1.7,"co":121.0,"o3":90.0,"so2":4.4,"mosquito_risk":3,"arthritis_risk":5,"migraine_risk":7,"frizz_risk":1,"updated_at":"2026-06-21T16:02:06.224873+05:30"},{"city":"Ahmedabad","state":"Gujarat","latitude":23.0225,"longitude":72.5714,"temp":39.4,"humidity":30,"rain":0.0,"pressure":995.9,"uv_index":8.05,"wind_gusts":42.8,"aqi":74,"pm10":57.9,"pm2_5":21.0,"no2":1.0,"co":122.0,"o3":86.0,"so2":3.0,"mosquito_risk":0,"arthritis_risk":5,"migraine_risk":10,"frizz_risk":1,"updated_at":"2026-06-21T16:02:06.224878+05:30"},{"city":"Jaipur","state":"Rajasthan","latitude":26.9124,"longitude":75.7873,"temp":35.7,"humidity":39,"rain":0.0,"pressure":954.3,"uv_index":7.45,"wind_gusts":38.9,"aqi":116,"pm10":176.0,"pm2_5":44.5,"no2":0.6,"co":123.0,"o3":87.0,"so2":2.0,"mosquito_risk":0,"arthritis_risk":5,"migraine_risk":10,"frizz_risk":1,"updated_at":"2026-06-21T16:02:06.224883+05:30"},{"city":"Lucknow","state":"Uttar Pradesh","latitude":26.8467,"longitude":80.9462,"temp":39.3,"humidity":32,"rain":0.0,"pressure":984.8,"uv_index":8.0,"wind_gusts":39.2,"aqi":210,"pm10":290.6,"pm2_5":75.7,"no2":1.2,"co":149.0,"o3":140.0,"so2":6.6,"mosquito_risk":0,"arthritis_risk":5,"migraine_risk":10,"frizz_risk":1,"updated_at":"2026-06-21T16:02:06.224892+05:30"},{"city":"Kanpur","state":"Uttar Pradesh","latitude":26.4499,"longitude":80.3319,"temp":39.6,"humidity":29,"rain":0.0,"pressure":983.6,"uv_index":8.15,"wind_gusts":44.6,"aqi":388,"pm10":343.7,"pm2_5":70.3,"no2":1.3,"co":135.0,"o3":123.0,"so2":4.8,"mosquito_risk":0,"arthritis_risk":5,"migraine_risk":10,"frizz_risk":1,"updated_at":"2026-06-21T16:02:06.224898+05:30"},{"city":"Chandigarh","state":"Chandigarh","latitude":30.7333,"longitude":76.7794,"temp":34.9,"humidity":34,"rain":0.0,"pressure":962.4,"uv_index":7.8,"wind_gusts":43.9,"aqi":144,"pm10":23.2,"pm2_5":17.4,"no2":1.8,"co":318.0,"o3":171.0,"so2":8.0,"mosquito_risk":0,"arthritis_risk":5,"migraine_risk":7,"frizz_risk":1,"updated_at":"2026-06-21T16:02:06.224903+05:30"},{"city":"Srinagar","state":"Jammu and Kashmir","latitude":34.0837,"longitude":74.7973,"temp":25.2,"humidity":45,"rain":0.0,"pressure":840.5,"uv_index":8.55,"wind_gusts":24.8,"aqi":80,"pm10":16.5,"pm2_5":10.6,"no2":1.1,"co":233.0,"o3":137.0,"so2":1.4,"mosquito_risk":4,"arthritis_risk":5,"migraine_risk":7,"frizz_risk":0,"updated_at":"2026-06-21T16:02:06.224909+05:30"},{"city":"Jammu","state":"Jammu and Kashmir","latitude":32.7266,"longitude":74.857,"temp":36.6,"humidity":24,"rain":0.0,"pressure":966.8,"uv_index":8.6,"wind_gusts":46.1,"aqi":87,"pm10":14.0,"pm2_5":9.3,"no2":0.6,"co":218.0,"o3":153.0,"so2":2.0,"mosquito_risk":0,"arthritis_risk":5,"migraine_risk":10,"frizz_risk":0,"updated_at":"2026-06-21T16:02:06.224915+05:30"},{"city":"Amritsar","state":"Punjab","latitude":31.634,"longitude":74.8723,"temp":33.6,"humidity":47,"rain":0.0,"pressure":974.3,"uv_index":8.45,"wind_gusts":30.2,"aqi":110,"pm10":62.2,"pm2_5":31.0,"no2":2.0,"co":329.0,"o3":158.0,"so2":6.9,"mosquito_risk":0,"arthritis_risk":5,"migraine_risk":7,"frizz_risk":1,"updated_at":"2026-06-21T16:02:06.224923+05:30"},{"city":"Ludhiana","state":"Punjab","latitude":30.901,"longitude":75.8573,"temp":34.4,"humidity":40,"rain":0.0,"pressure":972.3,"uv_index":8.05,"wind_gusts":58.3,"aqi":144,"pm10":52.9,"pm2_5":26.8,"no2":1.5,"co":276.0,"o3":154.0,"so2":4.6,"mosquito_risk":0,"arthritis_risk":5,"migraine_risk":7,"frizz_risk":1,"updated_at":"2026-06-21T16:02:06.224927+05:30"},{"city":"Jalandhar","state":"Punjab","latitude":31.326,"longitude":75.5762,"temp":34.9,"humidity":40,"rain":0.0,"pressure":973.3,"uv_index":8.2,"wind_gusts":39.6,"aqi":143,"pm10":62.2,"pm2_5":28.3,"no2":1.8,"co":290.0,"o3":158.0,"so2":4.8,"mosquito_risk":0,"arthritis_risk":5,"migraine_risk":7,"frizz_risk":1,"updated_at":"2026-06-21T16:02:06.224931+05:30"},{"city":"Dehradun","state":"Uttarakhand","latitude":30.6284,"longitude":78.0322,"temp":23.7,"humidity":56,"rain":0.1,"pressure":828.7,"uv_index":8.25,"wind_gusts":28.1,"aqi":106,"pm10":30.5,"pm2_5":21.9,"no2":1.7,"co":262.0,"o3":150.0,"so2":3.4,"mosquito_risk":3,"arthritis_risk":5,"migraine_risk":7,"frizz_risk":0,"updated_at":"2026-06-21T16:02:06.224939+05:30"},{"city":"Shimla","state":"Himachal Pradesh","latitude":31.1048,"longitude":77.1734,"temp":21.6,"humidity":42,"rain":0.1,"pressure":784.2,"uv_index":8.35,"wind_gusts":44.6,"aqi":103,"pm10":26.1,"pm2_5":17.6,"no2":0.4,"co":192.0,"o3":151.0,"so2":4.9,"mosquito_risk":3,"arthritis_risk":5,"migraine_risk":7,"frizz_risk":0,"updated_at":"2026-06-21T16:02:06.224944+05:30"},{"city":"Manali","state":"Himachal Pradesh","latitude":32.2396,"longitude":77.1887,"temp":23.1,"humidity":45,"rain":0.0,"pressure":818.0,"uv_index":9.75,"wind_gusts":37.1,"aqi":117,"pm10":14.4,"pm2_5":9.0,"no2":3.1,"co":131.0,"o3":158.0,"so2":0.4,"mosquito_risk":0,"arthritis_risk":5,"migraine_risk":7,"frizz_risk":0,"updated_at":"2026-06-21T16:02:06.224951+05:30"},{"city":"Gurgaon","state":"Haryana","latitude":28.4595,"longitude":77.0266,"temp":38.2,"humidity":31,"rain":0.0,"pressure":974.5,"uv_index":7.85,"wind_gusts":54.0,"aqi":988,"pm10":1065.4,"pm2_5":137.4,"no2":2.7,"co":159.0,"o3":122.0,"so2":7.1,"mosquito_risk":0,"arthritis_risk":5,"migraine_risk":10,"frizz_risk":1,"updated_at":"2026-06-21T16:02:06.224957+05:30"},{"city":"Noida","state":"Uttar Pradesh","latitude":28.5355,"longitude":77.391,"temp":38.1,"humidity":33,"rain":0.0,"pressure":977.0,"uv_index":7.85,"wind_gusts":26.6,"aqi":988,"pm10":1065.4,"pm2_5":137.4,"no2":2.7,"co":222.0,"o3":122.0,"so2":7.1,"mosquito_risk":0,"arthritis_risk":5,"migraine_risk":10,"frizz_risk":1,"updated_at":"2026-06-21T16:02:06.224962+05:30"},{"city":"Ghaziabad","state":"Uttar Pradesh","latitude":28.6692,"longitude":77.4538,"temp":37.4,"humidity":35,"rain":0.0,"pressure":975.3,"uv_index":7.8,"wind_gusts":30.2,"aqi":328,"pm10":415.4,"pm2_5":86.8,"no2":3.3,"co":200.0,"o3":162.0,"so2":13.9,"mosquito_risk":0,"arthritis_risk":5,"migraine_risk":10,"frizz_risk":1,"updated_at":"2026-06-21T16:02:06.224967+05:30"},{"city":"Faridabad","state":"Haryana","latitude":28.4089,"longitude":77.3178,"temp":38.2,"humidity":31,"rain":0.0,"pressure":976.4,"uv_index":7.85,"wind_gusts":51.1,"aqi":988,"pm10":1065.4,"pm2_5":137.4,"no2":2.7,"co":182.0,"o3":122.0,"so2":7.1,"mosquito_risk":0,"arthritis_risk":5,"migraine_risk":10,"frizz_risk":1,"updated_at":"2026-06-21T16:02:06.224971+05:30"},{"city":"Meerut","state":"Uttar Pradesh","latitude":28.9845,"longitude":77.7064,"temp":36.8,"humidity":36,"rain":0.0,"pressure":974.4,"uv_index":7.7,"wind_gusts":34.6,"aqi":328,"pm10":415.4,"pm2_5":86.8,"no2":3.3,"co":243.0,"o3":162.0,"so2":13.9,"mosquito_risk":0,"arthritis_risk":5,"migraine_risk":10,"frizz_risk":1,"updated_at":"2026-06-21T16:02:06.224976+05:30"},{"city":"Agra","state":"Uttar Pradesh","latitude":27.1767,"longitude":78.0081,"temp":38.2,"humidity":30,"rain":0.0,"pressure":980.6,"uv_index":8.15,"wind_gusts":37.8,"aqi":882,"pm10":855.0,"pm2_5":104.5,"no2":2.9,"co":127.0,"o3":99.0,"so2":2.5,"mosquito_risk":0,"arthritis_risk":5,"migraine_risk":10,"frizz_risk":1,"updated_at":"2026-06-21T16:02:06.224982+05:30"},{"city":"Varanasi","state":"Uttar Pradesh","latitude":25.3176,"longitude":82.9739,"temp":38.1,"humidity":38,"rain":0.0,"pressure":988.8,"uv_index":8.75,"wind_gusts":38.5,"aqi":117,"pm10":174.2,"pm2_5":52.0,"no2":1.7,"co":173.0,"o3":136.0,"so2":6.8,"mosquito_risk":0,"arthritis_risk":5,"migraine_risk":10,"frizz_risk":1,"updated_at":"2026-06-21T16:02:06.224987+05:30"},{"city":"Prayagraj","state":"Uttar Pradesh","latitude":25.4358,"longitude":81.8463,"temp":39.7,"humidity":33,"rain":0.0,"pressure":987.5,"uv_index":8.7,"wind_gusts":41.0,"aqi":118,"pm10":224.4,"pm2_5":61.5,"no2":1.5,"co":140.0,"o3":136.0,"so2":7.3,"mosquito_risk":0,"arthritis_risk":5,"migraine_risk":10,"frizz_risk":1,"updated_at":"2026-06-21T16:02:06.224991+05:30"},{"city":"Gorakhpur","state":"Uttar Pradesh","latitude":26.7606,"longitude":83.3732,"temp":37.7,"humidity":41,"rain":0.0,"pressure":987.8,"uv_index":8.7,"wind_gusts":37.1,"aqi":158,"pm10":242.1,"pm2_5":74.0,"no2":2.9,"co":180.0,"o3":166.0,"so2":8.3,"mosquito_risk":0,"arthritis_risk":5,"migraine_risk":10,"frizz_risk":1,"updated_at":"2026-06-21T16:02:06.224997+05:30"},{"city":"Bareilly","state":"Uttar Pradesh","latitude":28.367,"longitude":79.4304,"temp":37.3,"humidity":35,"rain":0.0,"pressure":978.5,"uv_index":8.15,"wind_gusts":36.4,"aqi":158,"pm10":104.8,"pm2_5":49.4,"no2":1.4,"co":207.0,"o3":163.0,"so2":8.1,"mosquito_risk":0,"arthritis_risk":5,"migraine_risk":10,"frizz_risk":1,"updated_at":"2026-06-21T16:02:06.225004+05:30"},{"city":"Aligarh","state":"Uttar Pradesh","latitude":27.8974,"longitude":78.088,"temp":37.0,"humidity":38,"rain":0.0,"pressure":978.4,"uv_index":8.0,"wind_gusts":31.0,"aqi":621,"pm10":882.9,"pm2_5":122.9,"no2":2.1,"co":161.0,"o3":125.0,"so2":6.5,"mosquito_risk":0,"arthritis_risk":5,"migraine_risk":10,"frizz_risk":1,"updated_at":"2026-06-21T16:02:06.225009+05:30"},{"city":"Moradabad","state":"Uttar Pradesh","latitude":28.8386,"longitude":78.7733,"temp":36.9,"humidity":39,"rain":0.0,"pressure":975.8,"uv_index":7.95,"wind_gusts":40.0,"aqi":170,"pm10":102.4,"pm2_5":51.9,"no2":1.7,"co":271.0,"o3":165.0,"so2":9.1,"mosquito_risk":0,"arthritis_risk":5,"migraine_risk":10,"frizz_risk":1,"updated_at":"2026-06-21T16:02:06.225014+05:30"},{"city":"Saharanpur","state":"Uttar Pradesh","latitude":29.9637,"longitude":77.546,"temp":36.1,"humidity":32,"rain":0.0,"pressure":968.5,"uv_index":7.45,"wind_gusts":43.9,"aqi":166,"pm10":107.6,"pm2_5":34.8,"no2":2.5,"co":278.0,"o3":176.0,"so2":11.0,"mosquito_risk":0,"arthritis_risk":5,"migraine_risk":10,"frizz_risk":1,"updated_at":"2026-06-21T16:02:06.225018+05:30"},{"city":"Jhansi","state":"Uttar Pradesh","latitude":25.4484,"longitude":78.5685,"temp":37.2,"humidity":37,"rain":0.0,"pressure":971.7,"uv_index":6.5,"wind_gusts":42.1,"aqi":91,"pm10":60.1,"pm2_5":24.9,"no2":0.9,"co":121.0,"o3":95.0,"so2":3.1,"mosquito_risk":0,"arthritis_risk":5,"migraine_risk":10,"frizz_risk":1,"updated_at":"2026-06-21T16:02:09.572976+05:30"},{"city":"Surat","state":"Gujarat","latitude":21.1702,"longitude":72.8311,"temp":34.0,"humidity":52,"rain":0.0,"pressure":1002.4,"uv_index":7.6,"wind_gusts":44.3,"aqi":59,"pm10":25.7,"pm2_5":16.9,"no2":9.0,"co":208.0,"o3":54.0,"so2":30.0,"mosquito_risk":0,"arthritis_risk":5,"migraine_risk":4,"frizz_risk":1,"updated_at":"2026-06-21T16:02:09.573008+05:30"},{"city":"Vadodara","state":"Gujarat","latitude":22.3072,"longitude":73.1812,"temp":38.4,"humidity":35,"rain":0.0,"pressure":998.6,"uv_index":8.0,"wind_gusts":45.0,"aqi":57,"pm10":25.7,"pm2_5":13.0,"no2":1.3,"co":118.0,"o3":90.0,"so2":2.8,"mosquito_risk":0,"arthritis_risk":5,"migraine_risk":10,"frizz_risk":1,"updated_at":"2026-06-21T16:02:09.573016+05:30"},{"city":"Rajkot","state":"Gujarat","latitude":22.3039,"longitude":70.8022,"temp":39.5,"humidity":24,"rain":0.0,"pressure":988.1,"uv_index":7.5,"wind_gusts":40.3,"aqi":65,"pm10":80.6,"pm2_5":26.0,"no2":0.9,"co":106.0,"o3":90.0,"so2":3.3,"mosquito_risk":0,"arthritis_risk":5,"migraine_risk":10,"frizz_risk":0,"updated_at":"2026-06-21T16:02:09.573023+05:30"},{"city":"Thane","state":"Maharashtra","latitude":19.2183,"longitude":72.9781,"temp":34.6,"humidity":47,"rain":0.0,"pressure":1003.8,"uv_index":7.7,"wind_gusts":33.5,"aqi":50,"pm10":21.4,"pm2_5":14.3,"no2":4.3,"co":127.0,"o3":93.0,"so2":7.2,"mosquito_risk":0,"arthritis_risk":5,"migraine_risk":4,"frizz_risk":1,"updated_at":"2026-06-21T16:02:09.573030+05:30"},{"city":"Nagpur","state":"Maharashtra","latitude":21.1458,"longitude":79.0882,"temp":38.2,"humidity":31,"rain":0.0,"pressure":968.1,"uv_index":8.7,"wind_gusts":45.0,"aqi":68,"pm10":48.8,"pm2_5":24.8,"no2":4.0,"co":126.0,"o3":116.0,"so2":11.7,"mosquito_risk":0,"arthritis_risk":5,"migraine_risk":10,"frizz_risk":1,"updated_at":"2026-06-21T16:02:09.573036+05:30"},{"city":"Nashik","state":"Maharashtra","latitude":19.9975,"longitude":73.7898,"temp":31.5,"humidity":49,"rain":0.0,"pressure":942.5,"uv_index":8.05,"wind_gusts":46.8,"aqi":34,"pm10":14.8,"pm2_5":9.6,"no2":1.3,"co":108.0,"o3":81.0,"so2":2.5,"mosquito_risk":0,"arthritis_risk":5,"migraine_risk":7,"frizz_risk":1,"updated_at":"2026-06-21T16:02:09.573042+05:30"},{"city":"Aurangabad","state":"Maharashtra","latitude":19.8762,"longitude":75.3433,"temp":36.6,"humidity":27,"rain":0.0,"pressure":940.5,"uv_index":8.95,"wind_gusts":35.3,"aqi":43,"pm10":20.5,"pm2_5":12.9,"no2":1.0,"co":132.0,"o3":106.0,"so2":3.1,"mosquito_risk":0,"arthritis_risk":5,"migraine_risk":10,"frizz_risk":0,"updated_at":"2026-06-21T16:02:09.573048+05:30"},{"city":"Solapur","state":"Maharashtra","latitude":17.6599,"longitude":75.9064,"temp":35.5,"humidity":37,"rain":0.0,"pressure":953.4,"uv_index":8.9,"wind_gusts":39.2,"aqi":55,"pm10":19.4,"pm2_5":11.8,"no2":1.2,"co":116.0,"o3":109.0,"so2":1.8,"mosquito_risk":0,"arthritis_risk":5,"migraine_risk":10,"frizz_risk":1,"updated_at":"2026-06-21T16:02:09.573054+05:30"},{"city":"Kolhapur","state":"Maharashtra","latitude":16.705,"longitude":74.2433,"temp":28.9,"humidity":67,"rain":0.1,"pressure":944.9,"uv_index":8.6,"wind_gusts":36.0,"aqi":40,"pm10":6.0,"pm2_5":4.9,"no2":1.5,"co":134.0,"o3":72.0,"so2":1.0,"mosquito_risk":10,"arthritis_risk":5,"migraine_risk":7,"frizz_risk":1,"updated_at":"2026-06-21T16:02:09.573060+05:30"},{"city":"Goa","state":"Goa","latitude":15.2993,"longitude":74.124,"temp":29.6,"humidity":78,"rain":0.0,"pressure":995.0,"uv_index":6.3,"wind_gusts":34.9,"aqi":34,"pm10":5.8,"pm2_5":4.1,"no2":0.7,"co":107.0,"o3":52.0,"so2":0.6,"mosquito_risk":7,"arthritis_risk":5,"migraine_risk":7,"frizz_risk":1,"updated_at":"2026-06-21T16:02:09.573066+05:30"},{"city":"Jodhpur","state":"Rajasthan","latitude":26.2389,"longitude":73.0243,"temp":38.0,"humidity":33,"rain":0.0,"pressure":976.6,"uv_index":8.4,"wind_gusts":44.6,"aqi":135,"pm10":245.9,"pm2_5":48.1,"no2":0.4,"co":107.0,"o3":78.0,"so2":1.3,"mosquito_risk":0,"arthritis_risk":5,"migraine_risk":10,"frizz_risk":1,"updated_at":"2026-06-21T16:02:09.573072+05:30"},{"city":"Udaipur","state":"Rajasthan","latitude":24.5854,"longitude":73.7125,"temp":32.7,"humidity":44,"rain":0.0,"pressure":942.5,"uv_index":8.8,"wind_gusts":41.4,"aqi":75,"pm10":49.4,"pm2_5":18.9,"no2":0.5,"co":108.0,"o3":78.0,"so2":1.7,"mosquito_risk":0,"arthritis_risk":5,"migraine_risk":7,"frizz_risk":1,"updated_at":"2026-06-21T16:02:09.573077+05:30"},{"city":"Kota","state":"Rajasthan","latitude":25.2138,"longitude":75.8648,"temp":36.4,"humidity":40,"rain":0.0,"pressure":973.3,"uv_index":8.35,"wind_gusts":37.4,"aqi":98,"pm10":71.9,"pm2_5":28.5,"no2":0.6,"co":115.0,"o3":99.0,"so2":3.6,"mosquito_risk":0,"arthritis_risk":5,"migraine_risk":10,"frizz_risk":1,"updated_at":"2026-06-21T16:02:09.573099+05:30"},{"city":"Bikaner","state":"Rajasthan","latitude":28.0229,"longitude":73.3119,"temp":39.3,"humidity":27,"rain":0.0,"pressure":974.8,"uv_index":8.45,"wind_gusts":70.9,"aqi":152,"pm10":196.5,"pm2_5":54.0,"no2":0.2,"co":105.0,"o3":84.0,"so2":1.8,"mosquito_risk":0,"arthritis_risk":5,"migraine_risk":10,"frizz_risk":1,"updated_at":"2026-06-21T16:02:09.573105+05:30"},{"city":"Ajmer","state":"Rajasthan","latitude":26.4499,"longitude":74.6399,"temp":34.5,"humidity":38,"rain":0.0,"pressure":949.5,"uv_index":8.3,"wind_gusts":48.2,"aqi":87,"pm10":128.5,"pm2_5":36.0,"no2":0.3,"co":109.0,"o3":84.0,"so2":2.0,"mosquito_risk":0,"arthritis_risk":5,"migraine_risk":7,"frizz_risk":1,"updated_at":"2026-06-21T16:02:09.573111+05:30"},{"city":"Gwalior","state":"Madhya Pradesh","latitude":26.2183,"longitude":78.1828,"temp":37.6,"humidity":33,"rain":0.0,"pressure":976.6,"uv_index":4.75,"wind_gusts":46.4,"aqi":95,"pm10":136.0,"pm2_5":37.3,"no2":0.7,"co":124.0,"o3":93.0,"so2":2.0,"mosquito_risk":0,"arthritis_risk":5,"migraine_risk":6,"frizz_risk":1,"updated_at":"2026-06-21T16:02:09.573117+05:30"},{"city":"Indore","state":"Madhya Pradesh","latitude":22.7196,"longitude":75.8577,"temp":33.0,"humidity":47,"rain":0.0,"pressure":944.4,"uv_index":8.5,"wind_gusts":37.1,"aqi":76,"pm10":85.0,"pm2_5":36.7,"no2":1.0,"co":137.0,"o3":97.0,"so2":2.9,"mosquito_risk":0,"arthritis_risk":5,"migraine_risk":7,"frizz_risk":1,"updated_at":"2026-06-21T16:02:09.573122+05:30"},{"city":"Bhopal","state":"Madhya Pradesh","latitude":23.2599,"longitude":77.4126,"temp":33.9,"humidity":45,"rain":0.0,"pressure":949.3,"uv_index":8.0,"wind_gusts":32.4,"aqi":76,"pm10":73.1,"pm2_5":30.4,"no2":0.6,"co":140.0,"o3":101.0,"so2":3.6,"mosquito_risk":0,"arthritis_risk":5,"migraine_risk":7,"frizz_risk":1,"updated_at":"2026-06-21T16:02:09.573127+05:30"},{"city":"Jabalpur","state":"Madhya Pradesh","latitude":23.1815,"longitude":79.9864,"temp":32.6,"humidity":51,"rain":0.0,"pressure":957.3,"uv_index":8.4,"wind_gusts":36.7,"aqi":75,"pm10":69.4,"pm2_5":31.2,"no2":1.0,"co":145.0,"o3":106.0,"so2":2.6,"mosquito_risk":0,"arthritis_risk":5,"migraine_risk":7,"frizz_risk":1,"updated_at":"2026-06-21T16:02:09.573133+05:30"},{"city":"Ujjain","state":"Madhya Pradesh","latitude":23.1765,"longitude":75.7885,"temp":34.8,"humidity":40,"rain":0.0,"pressure":949.9,"uv_index":7.8,"wind_gusts":40.3,"aqi":77,"pm10":65.0,"pm2_5":27.7,"no2":0.6,"co":122.0,"o3":97.0,"so2":3.4,"mosquito_risk":0,"arthritis_risk":5,"migraine_risk":7,"frizz_risk":1,"updated_at":"2026-06-21T16:02:09.573138+05:30"},{"city":"Visakhapatnam","state":"Andhra Pradesh","latitude":17.6868,"longitude":83.2185,"temp":31.9,"humidity":64,"rain":0.0,"pressure":998.6,"uv_index":5.55,"wind_gusts":39.2,"aqi":111,"pm10":39.5,"pm2_5":35.2,"no2":12.5,"co":382.0,"o3":167.0,"so2":36.2,"mosquito_risk":3,"arthritis_risk":5,"migraine_risk":3,"frizz_risk":1,"updated_at":"2026-06-21T16:02:09.573144+05:30"},{"city":"Vijayawada","state":"Andhra Pradesh","latitude":16.5062,"longitude":80.648,"temp":29.8,"humidity":77,"rain":0.0,"pressure":998.9,"uv_index":6.05,"wind_gusts":40.3,"aqi":91,"pm10":31.1,"pm2_5":23.5,"no2":4.1,"co":175.0,"o3":125.0,"so2":8.7,"mosquito_risk":7,"arthritis_risk":5,"migraine_risk":7,"frizz_risk":1,"updated_at":"2026-06-21T16:02:09.573149+05:30"},{"city":"Guntur","state":"Andhra Pradesh","latitude":16.3067,"longitude":80.4365,"temp":32.7,"humidity":59,"rain":0.0,"pressure":999.9,"uv_index":5.55,"wind_gusts":24.1,"aqi":94,"pm10":30.4,"pm2_5":21.4,"no2":3.9,"co":173.0,"o3":119.0,"so2":6.9,"mosquito_risk":0,"arthritis_risk":5,"migraine_risk":3,"frizz_risk":1,"updated_at":"2026-06-21T16:02:09.573155+05:30"},{"city":"Nellore","state":"Andhra Pradesh","latitude":14.4426,"longitude":79.9865,"temp":32.7,"humidity":64,"rain":0.0,"pressure":1002.0,"uv_index":4.55,"wind_gusts":31.7,"aqi":76,"pm10":33.2,"pm2_5":24.5,"no2":2.8,"co":167.0,"o3":153.0,"so2":4.7,"mosquito_risk":3,"arthritis_risk":5,"migraine_risk":0,"frizz_risk":1,"updated_at":"2026-06-21T16:02:09.573160+05:30"},{"city":"Kurnool","state":"Andhra Pradesh","latitude":15.8281,"longitude":78.0373,"temp":35.7,"humidity":39,"rain":0.0,"pressure":972.8,"uv_index":8.15,"wind_gusts":40.7,"aqi":58,"pm10":21.4,"pm2_5":13.1,"no2":1.2,"co":130.0,"o3":109.0,"so2":3.3,"mosquito_risk":0,"arthritis_risk":5,"migraine_risk":10,"frizz_risk":1,"updated_at":"2026-06-21T16:02:09.573167+05:30"},{"city":"Kakinada","state":"Andhra Pradesh","latitude":16.9891,"longitude":82.2475,"temp":31.9,"humidity":69,"rain":0.0,"pressure":1003.5,"uv_index":2.85,"wind_gusts":42.8,"aqi":81,"pm10":31.1,"pm2_5":26.2,"no2":2.9,"co":238.0,"o3":149.0,"so2":5.5,"mosquito_risk":3,"arthritis_risk":5,"migraine_risk":0,"frizz_risk":1,"updated_at":"2026-06-21T16:02:09.573172+05:30"},{"city":"Tirupati","state":"Andhra Pradesh","latitude":13.6288,"longitude":79.4192,"temp":28.4,"humidity":86,"rain":0.3,"pressure":988.1,"uv_index":7.65,"wind_gusts":37.4,"aqi":74,"pm10":26.3,"pm2_5":17.6,"no2":2.6,"co":158.0,"o3":127.0,"so2":2.1,"mosquito_risk":10,"arthritis_risk":5,"migraine_risk":7,"frizz_risk":1,"updated_at":"2026-06-21T16:02:09.573178+05:30"},{"city":"Warangal","state":"Telangana","latitude":17.9689,"longitude":79.5941,"temp":32.5,"humidity":56,"rain":0.0,"pressure":975.3,"uv_index":8.7,"wind_gusts":34.2,"aqi":79,"pm10":38.4,"pm2_5":27.0,"no2":1.5,"co":154.0,"o3":141.0,"so2":5.3,"mosquito_risk":0,"arthritis_risk":5,"migraine_risk":7,"frizz_risk":1,"updated_at":"2026-06-21T16:02:09.573183+05:30"},{"city":"Nizamabad","state":"Telangana","latitude":18.6725,"longitude":78.0941,"temp":36.7,"humidity":36,"rain":0.0,"pressure":960.9,"uv_index":8.95,"wind_gusts":36.0,"aqi":64,"pm10":23.3,"pm2_5":16.7,"no2":1.2,"co":135.0,"o3":117.0,"so2":4.8,"mosquito_risk":0,"arthritis_risk":5,"migraine_risk":10,"frizz_risk":1,"updated_at":"2026-06-21T16:02:09.573189+05:30"},{"city":"Mysore","state":"Karnataka","latitude":12.2958,"longitude":76.6396,"temp":27.8,"humidity":67,"rain":0.2,"pressure":926.0,"uv_index":8.35,"wind_gusts":39.2,"aqi":40,"pm10":4.1,"pm2_5":3.4,"no2":2.5,"co":133.0,"o3":67.0,"so2":1.3,"mosquito_risk":10,"arthritis_risk":5,"migraine_risk":7,"frizz_risk":1,"updated_at":"2026-06-21T16:02:09.573194+05:30"},{"city":"Mangalore","state":"Karnataka","latitude":12.9141,"longitude":74.856,"temp":26.9,"humidity":87,"rain":0.1,"pressure":1004.9,"uv_index":7.4,"wind_gusts":31.0,"aqi":27,"pm10":4.3,"pm2_5":2.9,"no2":1.2,"co":100.0,"o3":55.0,"so2":1.2,"mosquito_risk":10,"arthritis_risk":5,"migraine_risk":4,"frizz_risk":1,"updated_at":"2026-06-21T16:02:09.573199+05:30"},{"city":"Hubli-Dharwad","state":"Karnataka","latitude":15.3647,"longitude":75.124,"temp":27.5,"humidity":71,"rain":0.0,"pressure":938.6,"uv_index":8.65,"wind_gusts":49.0,"aqi":26,"pm10":2.9,"pm2_5":2.2,"no2":1.6,"co":107.0,"o3":63.0,"so2":0.7,"mosquito_risk":7,"arthritis_risk":5,"migraine_risk":7,"frizz_risk":1,"updated_at":"2026-06-21T16:02:09.573204+05:30"},{"city":"Belgaum","state":"Karnataka","latitude":15.8497,"longitude":74.4977,"temp":26.4,"humidity":78,"rain":0.1,"pressure":923.4,"uv_index":8.85,"wind_gusts":35.6,"aqi":40,"pm10":3.2,"pm2_5":2.6,"no2":1.2,"co":115.0,"o3":68.0,"so2":1.3,"mosquito_risk":10,"arthritis_risk":5,"migraine_risk":7,"frizz_risk":1,"updated_at":"2026-06-21T16:02:12.918560+05:30"},{"city":"Coimbatore","state":"Tamil Nadu","latitude":11.0168,"longitude":76.9558,"temp":28.1,"humidity":71,"rain":0.1,"pressure":960.1,"uv_index":8.15,"wind_gusts":52.6,"aqi":37,"pm10":4.3,"pm2_5":3.9,"no2":1.9,"co":130.0,"o3":66.0,"so2":1.7,"mosquito_risk":10,"arthritis_risk":5,"migraine_risk":7,"frizz_risk":1,"updated_at":"2026-06-21T16:02:12.918593+05:30"},{"city":"Madurai","state":"Tamil Nadu","latitude":9.9252,"longitude":78.1198,"temp":29.5,"humidity":69,"rain":0.2,"pressure":991.3,"uv_index":8.2,"wind_gusts":44.3,"aqi":69,"pm10":25.3,"pm2_5":16.2,"no2":3.8,"co":143.0,"o3":111.0,"so2":2.7,"mosquito_risk":10,"arthritis_risk":5,"migraine_risk":7,"frizz_risk":1,"updated_at":"2026-06-21T16:02:12.918602+05:30"},{"city":"Trichy","state":"Tamil Nadu","latitude":10.7905,"longitude":78.7047,"temp":33.6,"humidity":51,"rain":0.0,"pressure":996.4,"uv_index":8.5,"wind_gusts":28.8,"aqi":65,"pm10":30.0,"pm2_5":18.2,"no2":3.0,"co":154.0,"o3":122.0,"so2":3.3,"mosquito_risk":0,"arthritis_risk":5,"migraine_risk":7,"frizz_risk":1,"updated_at":"2026-06-21T16:02:12.918609+05:30"},{"city":"Salem","state":"Tamil Nadu","latitude":11.6643,"longitude":78.146,"temp":34.3,"humidity":45,"rain":0.0,"pressure":974.1,"uv_index":7.8,"wind_gusts":34.2,"aqi":68,"pm10":11.3,"pm2_5":8.7,"no2":2.6,"co":130.0,"o3":106.0,"so2":5.7,"mosquito_risk":0,"arthritis_risk":5,"migraine_risk":7,"frizz_risk":1,"updated_at":"2026-06-21T16:02:12.918616+05:30"},{"city":"Tirunelveli","state":"Tamil Nadu","latitude":8.7139,"longitude":77.7567,"temp":27.8,"humidity":86,"rain":0.2,"pressure":1001.5,"uv_index":8.65,"wind_gusts":35.6,"aqi":37,"pm10":4.1,"pm2_5":3.4,"no2":1.8,"co":113.0,"o3":61.0,"so2":0.7,"mosquito_risk":10,"arthritis_risk":5,"migraine_risk":4,"frizz_risk":1,"updated_at":"2026-06-21T16:02:12.918623+05:30"},{"city":"Vellore","state":"Tamil Nadu","latitude":12.9165,"longitude":79.1325,"temp":31.7,"humidity":57,"rain":0.1,"pressure":981.2,"uv_index":6.25,"wind_gusts":28.8,"aqi":92,"pm10":27.0,"pm2_5":18.0,"no2":3.6,"co":159.0,"o3":135.0,"so2":3.8,"mosquito_risk":3,"arthritis_risk":5,"migraine_risk":7,"frizz_risk":1,"updated_at":"2026-06-21T16:02:12.918628+05:30"},{"city":"Erode","state":"Tamil Nadu","latitude":11.341,"longitude":77.7172,"temp":33.8,"humidity":48,"rain":0.1,"pressure":985.5,"uv_index":8.3,"wind_gusts":47.5,"aqi":54,"pm10":5.7,"pm2_5":4.9,"no2":2.0,"co":123.0,"o3":85.0,"so2":1.7,"mosquito_risk":3,"arthritis_risk":5,"migraine_risk":7,"frizz_risk":1,"updated_at":"2026-06-21T16:02:12.918634+05:30"},{"city":"Kochi","state":"Kerala","latitude":9.9312,"longitude":76.2673,"temp":26.7,"humidity":86,"rain":0.1,"pressure":1008.3,"uv_index":8.35,"wind_gusts":36.7,"aqi":51,"pm10":6.2,"pm2_5":4.7,"no2":2.5,"co":94.0,"o3":59.0,"so2":2.3,"mosquito_risk":10,"arthritis_risk":0,"migraine_risk":4,"frizz_risk":1,"updated_at":"2026-06-21T16:02:12.918640+05:30"},{"city":"Thiruvananthapuram","state":"Kerala","latitude":8.5241,"longitude":76.9366,"temp":26.7,"humidity":87,"rain":0.1,"pressure":1007.7,"uv_index":7.6,"wind_gusts":34.9,"aqi":29,"pm10":6.4,"pm2_5":3.9,"no2":1.3,"co":89.0,"o3":61.0,"so2":0.6,"mosquito_risk":10,"arthritis_risk":5,"migraine_risk":4,"frizz_risk":1,"updated_at":"2026-06-21T16:02:12.918646+05:30"},{"city":"Kozhikode","state":"Kerala","latitude":11.2588,"longitude":75.7804,"temp":25.6,"humidity":94,"rain":0.2,"pressure":1007.4,"uv_index":7.65,"wind_gusts":44.6,"aqi":26,"pm10":5.3,"pm2_5":3.1,"no2":0.5,"co":92.0,"o3":58.0,"so2":0.5,"mosquito_risk":10,"arthritis_risk":5,"migraine_risk":4,"frizz_risk":1,"updated_at":"2026-06-21T16:02:12.918651+05:30"},{"city":"Thrissur","state":"Kerala","latitude":10.5276,"longitude":76.2144,"temp":25.9,"humidity":91,"rain":0.1,"pressure":1006.6,"uv_index":7.85,"wind_gusts":32.0,"aqi":48,"pm10":5.9,"pm2_5":5.0,"no2":2.2,"co":92.0,"o3":51.0,"so2":1.4,"mosquito_risk":10,"arthritis_risk":5,"migraine_risk":4,"frizz_risk":1,"updated_at":"2026-06-21T16:02:12.918657+05:30"},{"city":"Kannur","state":"Kerala","latitude":11.8745,"longitude":75.3704,"temp":26.0,"humidity":94,"rain":0.1,"pressure":1006.1,"uv_index":8.35,"wind_gusts":34.2,"aqi":24,"pm10":4.5,"pm2_5":3.0,"no2":1.2,"co":90.0,"o3":55.0,"so2":0.8,"mosquito_risk":10,"arthritis_risk":5,"migraine_risk":4,"frizz_risk":1,"updated_at":"2026-06-21T16:02:12.918663+05:30"},{"city":"Patna","state":"Bihar","latitude":25.5941,"longitude":85.1376,"temp":37.8,"humidity":39,"rain":0.0,"pressure":991.3,"uv_index":8.6,"wind_gusts":31.3,"aqi":165,"pm10":178.3,"pm2_5":59.3,"no2":3.9,"co":232.0,"o3":171.0,"so2":8.4,"mosquito_risk":0,"arthritis_risk":5,"migraine_risk":10,"frizz_risk":1,"updated_at":"2026-06-21T16:02:12.918668+05:30"},{"city":"Gaya","state":"Bihar","latitude":24.7914,"longitude":85.0002,"temp":36.7,"humidity":41,"rain":0.0,"pressure":985.6,"uv_index":8.6,"wind_gusts":33.8,"aqi":125,"pm10":214.2,"pm2_5":56.6,"no2":2.9,"co":208.0,"o3":142.0,"so2":6.4,"mosquito_risk":0,"arthritis_risk":5,"migraine_risk":10,"frizz_risk":1,"updated_at":"2026-06-21T16:02:12.918674+05:30"},{"city":"Muzaffarpur","state":"Bihar","latitude":26.1209,"longitude":85.3647,"temp":34.5,"humidity":61,"rain":0.0,"pressure":991.2,"uv_index":8.45,"wind_gusts":39.6,"aqi":165,"pm10":150.9,"pm2_5":58.9,"no2":4.4,"co":264.0,"o3":184.0,"so2":10.4,"mosquito_risk":3,"arthritis_risk":5,"migraine_risk":7,"frizz_risk":1,"updated_at":"2026-06-21T16:02:12.918679+05:30"},{"city":"Bhagalpur","state":"Bihar","latitude":25.2425,"longitude":87.0117,"temp":34.4,"humidity":67,"rain":0.0,"pressure":992.3,"uv_index":8.4,"wind_gusts":24.5,"aqi":145,"pm10":129.9,"pm2_5":47.4,"no2":4.7,"co":224.0,"o3":168.0,"so2":13.3,"mosquito_risk":3,"arthritis_risk":5,"migraine_risk":7,"frizz_risk":1,"updated_at":"2026-06-21T16:02:12.918683+05:30"},{"city":"Ranchi","state":"Jharkhand","latitude":23.3441,"longitude":85.3096,"temp":31.4,"humidity":55,"rain":0.0,"pressure":932.8,"uv_index":6.9,"wind_gusts":33.5,"aqi":105,"pm10":58.7,"pm2_5":27.1,"no2":2.6,"co":165.0,"o3":133.0,"so2":6.4,"mosquito_risk":0,"arthritis_risk":5,"migraine_risk":7,"frizz_risk":1,"updated_at":"2026-06-21T16:02:12.918689+05:30"},{"city":"Jamshedpur","state":"Jharkhand","latitude":22.8046,"longitude":86.2029,"temp":33.5,"humidity":59,"rain":0.0,"pressure":984.7,"uv_index":8.6,"wind_gusts":22.3,"aqi":130,"pm10":49.5,"pm2_5":44.8,"no2":4.9,"co":251.0,"o3":181.0,"so2":23.5,"mosquito_risk":0,"arthritis_risk":5,"migraine_risk":7,"frizz_risk":1,"updated_at":"2026-06-21T16:02:12.918694+05:30"},{"city":"Dhanbad","state":"Jharkhand","latitude":23.7957,"longitude":86.4304,"temp":33.5,"humidity":58,"rain":0.1,"pressure":973.2,"uv_index":5.9,"wind_gusts":37.8,"aqi":150,"pm10":70.3,"pm2_5":59.1,"no2":14.9,"co":228.0,"o3":196.0,"so2":59.6,"mosquito_risk":3,"arthritis_risk":5,"migraine_risk":3,"frizz_risk":1,"updated_at":"2026-06-21T16:02:12.918699+05:30"},{"city":"Bokaro","state":"Jharkhand","latitude":23.6693,"longitude":86.1511,"temp":33.6,"humidity":63,"rain":0.1,"pressure":976.8,"uv_index":5.0,"wind_gusts":36.0,"aqi":120,"pm10":72.4,"pm2_5":42.4,"no2":12.8,"co":223.0,"o3":163.0,"so2":45.2,"mosquito_risk":6,"arthritis_risk":5,"migraine_risk":3,"frizz_risk":1,"updated_at":"2026-06-21T16:02:12.918704+05:30"},{"city":"Bhubaneswar","state":"Odisha","latitude":20.2961,"longitude":85.8245,"temp":27.1,"humidity":95,"rain":0.0,"pressure":998.2,"uv_index":8.55,"wind_gusts":38.9,"aqi":95,"pm10":41.1,"pm2_5":35.4,"no2":7.0,"co":276.0,"o3":118.0,"so2":10.7,"mosquito_risk":7,"arthritis_risk":5,"migraine_risk":7,"frizz_risk":1,"updated_at":"2026-06-21T16:02:12.918709+05:30"},{"city":"Cuttack","state":"Odisha","latitude":20.4625,"longitude":85.8828,"temp":29.1,"humidity":83,"rain":0.0,"pressure":999.9,"uv_index":8.5,"wind_gusts":38.5,"aqi":95,"pm10":41.1,"pm2_5":35.4,"no2":7.0,"co":318.0,"o3":118.0,"so2":10.7,"mosquito_risk":7,"arthritis_risk":5,"migraine_risk":7,"frizz_risk":1,"updated_at":"2026-06-21T16:02:12.918714+05:30"},{"city":"Rourkela","state":"Odisha","latitude":22.2604,"longitude":84.8536,"temp":33.9,"humidity":54,"rain":0.0,"pressure":979.3,"uv_index":8.7,"wind_gusts":42.8,"aqi":142,"pm10":44.6,"pm2_5":38.5,"no2":3.1,"co":195.0,"o3":174.0,"so2":13.0,"mosquito_risk":0,"arthritis_risk":5,"migraine_risk":7,"frizz_risk":1,"updated_at":"2026-06-21T16:02:12.918719+05:30"},{"city":"Raipur","state":"Chhattisgarh","latitude":21.2514,"longitude":81.6296,"temp":38.8,"humidity":32,"rain":0.0,"pressure":968.7,"uv_index":8.85,"wind_gusts":43.9,"aqi":84,"pm10":29.6,"pm2_5":20.8,"no2":4.1,"co":140.0,"o3":134.0,"so2":17.5,"mosquito_risk":0,"arthritis_risk":5,"migraine_risk":10,"frizz_risk":1,"updated_at":"2026-06-21T16:02:12.918724+05:30"},{"city":"Bhilai","state":"Chhattisgarh","latitude":21.1938,"longitude":81.3509,"temp":37.8,"humidity":34,"rain":0.0,"pressure":969.4,"uv_index":8.5,"wind_gusts":49.3,"aqi":78,"pm10":31.2,"pm2_5":19.3,"no2":4.4,"co":302.0,"o3":118.0,"so2":14.3,"mosquito_risk":0,"arthritis_risk":5,"migraine_risk":10,"frizz_risk":1,"updated_at":"2026-06-21T16:02:12.918729+05:30"},{"city":"Guwahati","state":"Assam","latitude":26.1158,"longitude":91.7086,"temp":28.7,"humidity":85,"rain":0.1,"pressure":994.4,"uv_index":7.95,"wind_gusts":25.6,"aqi":118,"pm10":14.8,"pm2_5":13.3,"no2":3.5,"co":299.0,"o3":90.0,"so2":2.5,"mosquito_risk":10,"arthritis_risk":5,"migraine_risk":7,"frizz_risk":1,"updated_at":"2026-06-21T16:02:12.918734+05:30"},{"city":"Agartala","state":"Tripura","latitude":23.8315,"longitude":91.2868,"temp":27.7,"humidity":91,"rain":0.1,"pressure":1001.1,"uv_index":8.7,"wind_gusts":40.0,"aqi":63,"pm10":17.0,"pm2_5":14.2,"no2":4.2,"co":192.0,"o3":109.0,"so2":2.0,"mosquito_risk":10,"arthritis_risk":5,"migraine_risk":4,"frizz_risk":1,"updated_at":"2026-06-21T16:02:12.918739+05:30"},{"city":"Shillong","state":"Meghalaya","latitude":25.5788,"longitude":91.8933,"temp":22.9,"humidity":82,"rain":0.2,"pressure":853.7,"uv_index":6.8,"wind_gusts":37.8,"aqi":54,"pm10":12.7,"pm2_5":10.3,"no2":3.0,"co":210.0,"o3":97.0,"so2":2.0,"mosquito_risk":6,"arthritis_risk":5,"migraine_risk":7,"frizz_risk":1,"updated_at":"2026-06-21T16:02:12.918744+05:30"},{"city":"Imphal","state":"Manipur","latitude":24.817,"longitude":93.9368,"temp":28.2,"humidity":68,"rain":0.0,"pressure":918.4,"uv_index":8.75,"wind_gusts":28.1,"aqi":81,"pm10":16.5,"pm2_5":12.3,"no2":2.9,"co":186.0,"o3":80.0,"so2":1.2,"mosquito_risk":7,"arthritis_risk":5,"migraine_risk":7,"frizz_risk":1,"updated_at":"2026-06-21T16:02:12.918748+05:30"},{"city":"Aizawl","state":"Mizoram","latitude":23.7271,"longitude":92.7176,"temp":25.5,"humidity":69,"rain":0.1,"pressure":888.8,"uv_index":9.0,"wind_gusts":33.1,"aqi":40,"pm10":9.7,"pm2_5":7.2,"no2":1.2,"co":162.0,"o3":75.0,"so2":0.5,"mosquito_risk":10,"arthritis_risk":5,"migraine_risk":7,"frizz_risk":1,"updated_at":"2026-06-21T16:02:12.918753+05:30"},{"city":"Kohima","state":"Nagaland","latitude":25.6701,"longitude":94.1077,"temp":21.5,"humidity":96,"rain":0.0,"pressure":851.8,"uv_index":8.6,"wind_gusts":24.1,"aqi":54,"pm10":10.0,"pm2_5":7.5,"no2":1.4,"co":200.0,"o3":81.0,"so2":0.8,"mosquito_risk":3,"arthritis_risk":5,"migraine_risk":7,"frizz_risk":1,"updated_at":"2026-06-21T16:02:12.918758+05:30"},{"city":"Gangtok","state":"Sikkim","latitude":27.3314,"longitude":88.6138,"temp":20.2,"humidity":93,"rain":0.1,"pressure":833.1,"uv_index":8.25,"wind_gusts":22.3,"aqi":108,"pm10":7.3,"pm2_5":6.3,"no2":2.0,"co":330.0,"o3":132.0,"so2":3.6,"mosquito_risk":6,"arthritis_risk":5,"migraine_risk":7,"frizz_risk":1,"updated_at":"2026-06-21T16:02:12.918763+05:30"},{"city":"Siliguri","state":"West Bengal","latitude":26.7271,"longitude":88.3953,"temp":26.6,"humidity":95,"rain":0.3,"pressure":985.9,"uv_index":7.35,"wind_gusts":25.9,"aqi":116,"pm10":11.1,"pm2_5":9.5,"no2":3.9,"co":455.0,"o3":133.0,"so2":7.1,"mosquito_risk":10,"arthritis_risk":5,"migraine_risk":7,"frizz_risk":1,"updated_at":"2026-06-21T16:02:16.264070+05:30"},{"city":"Durgapur","state":"West Bengal","latitude":23.5204,"longitude":87.3119,"temp":33.0,"humidity":62,"rain":0.0,"pressure":988.2,"uv_index":8.65,"wind_gusts":34.2,"aqi":154,"pm10":75.4,"pm2_5":58.6,"no2":18.3,"co":425.0,"o3":171.0,"so2":62.9,"mosquito_risk":3,"arthritis_risk":5,"migraine_risk":7,"frizz_risk":1,"updated_at":"2026-06-21T16:02:16.264123+05:30"},{"city":"Asansol","state":"West Bengal","latitude":23.6739,"longitude":86.9524,"temp":33.5,"humidity":56,"rain":0.0,"pressure":986.8,"uv_index":8.05,"wind_gusts":40.7,"aqi":149,"pm10":69.8,"pm2_5":58.0,"no2":14.9,"co":382.0,"o3":187.0,"so2":52.0,"mosquito_risk":0,"arthritis_risk":5,"migraine_risk":7,"frizz_risk":1,"updated_at":"2026-06-21T16:02:16.264132+05:30"},{"city":"Pondicherry","state":"Puducherry","latitude":11.9139,"longitude":79.8145,"temp":30.5,"humidity":81,"rain":0.0,"pressure":1004.9,"uv_index":7.9,"wind_gusts":38.9,"aqi":71,"pm10":30.4,"pm2_5":21.7,"no2":2.8,"co":169.0,"o3":139.0,"so2":8.2,"mosquito_risk":3,"arthritis_risk":5,"migraine_risk":4,"frizz_risk":1,"updated_at":"2026-06-21T16:02:16.264139+05:30"},{"city":"Port Blair","state":"Andaman and Nicobar Islands","latitude":11.6234,"longitude":92.7265,"temp":29.4,"humidity":73,"rain":0.0,"pressure":1006.7,"uv_index":7.8,"wind_gusts":33.8,"aqi":57,"pm10":25.6,"pm2_5":10.5,"no2":0.3,"co":95.0,"o3":43.0,"so2":0.5,"mosquito_risk":7,"arthritis_risk":5,"migraine_risk":4,"frizz_risk":1,"updated_at":"2026-06-21T16:02:16.264145+05:30"},{"city":"Haridwar","state":"Uttarakhand","latitude":29.9457,"longitude":78.1642,"temp":36.5,"humidity":33,"rain":0.0,"pressure":966.4,"uv_index":7.6,"wind_gusts":33.5,"aqi":157,"pm10":44.8,"pm2_5":28.1,"no2":1.3,"co":296.0,"o3":179.0,"so2":9.0,"mosquito_risk":0,"arthritis_risk":5,"migraine_risk":10,"frizz_risk":1,"updated_at":"2026-06-21T16:02:16.264151+05:30"},{"city":"Rishikesh","state":"Uttarakhand","latitude":30.0869,"longitude":78.2676,"temp":35.6,"humidity":34,"rain":0.0,"pressure":959.3,"uv_index":7.7,"wind_gusts":24.1,"aqi":135,"pm10":31.4,"pm2_5":24.8,"no2":0.8,"co":258.0,"o3":173.0,"so2":7.0,"mosquito_risk":0,"arthritis_risk":5,"migraine_risk":10,"frizz_risk":1,"updated_at":"2026-06-21T16:02:16.264157+05:30"},{"city":"Nainital","state":"Uttarakhand","latitude":29.3919,"longitude":79.4542,"temp":23.7,"humidity":49,"rain":0.0,"pressure":804.5,"uv_index":8.6,"wind_gusts":32.4,"aqi":131,"pm10":53.0,"pm2_5":29.5,"no2":1.1,"co":240.0,"o3":163.0,"so2":5.9,"mosquito_risk":0,"arthritis_risk":5,"migraine_risk":7,"frizz_risk":0,"updated_at":"2026-06-21T16:02:16.264163+05:30"},{"city":"Mussoorie","state":"Uttarakhand","latitude":30.4599,"longitude":78.0664,"temp":21.6,"humidity":58,"rain":0.0,"pressure":801.6,"uv_index":8.15,"wind_gusts":42.5,"aqi":139,"pm10":28.8,"pm2_5":23.2,"no2":1.0,"co":233.0,"o3":175.0,"so2":7.4,"mosquito_risk":0,"arthritis_risk":5,"migraine_risk":7,"frizz_risk":0,"updated_at":"2026-06-21T16:02:16.264169+05:30"},{"city":"Dharamshala","state":"Himachal Pradesh","latitude":32.219,"longitude":76.3234,"temp":25.0,"humidity":52,"rain":0.0,"pressure":866.3,"uv_index":8.5,"wind_gusts":45.7,"aqi":90,"pm10":13.1,"pm2_5":7.9,"no2":0.4,"co":202.0,"o3":137.0,"so2":0.6,"mosquito_risk":4,"arthritis_risk":5,"migraine_risk":7,"frizz_risk":0,"updated_at":"2026-06-21T16:02:16.264175+05:30"},{"city":"Dalhousie","state":"Himachal Pradesh","latitude":32.5387,"longitude":75.971,"temp":20.3,"humidity":64,"rain":0.0,"pressure":803.7,"uv_index":8.75,"wind_gusts":40.0,"aqi":93,"pm10":14.3,"pm2_5":9.0,"no2":0.6,"co":180.0,"o3":140.0,"so2":1.4,"mosquito_risk":3,"arthritis_risk":5,"migraine_risk":7,"frizz_risk":0,"updated_at":"2026-06-21T16:02:16.264183+05:30"},{"city":"Patiala","state":"Punjab","latitude":30.3398,"longitude":76.3869,"temp":34.0,"humidity":43,"rain":0.0,"pressure":971.9,"uv_index":7.7,"wind_gusts":60.5,"aqi":349,"pm10":464.7,"pm2_5":69.2,"no2":1.6,"co":265.0,"o3":160.0,"so2":6.5,"mosquito_risk":0,"arthritis_risk":5,"migraine_risk":7,"frizz_risk":1,"updated_at":"2026-06-21T16:02:16.264191+05:30"},{"city":"Bhatinda","state":"Punjab","latitude":30.211,"longitude":74.9455,"temp":31.7,"humidity":56,"rain":0.0,"pressure":976.8,"uv_index":8.3,"wind_gusts":69.5,"aqi":152,"pm10":117.8,"pm2_5":46.6,"no2":1.9,"co":149.0,"o3":158.0,"so2":10.2,"mosquito_risk":0,"arthritis_risk":5,"migraine_risk":7,"frizz_risk":1,"updated_at":"2026-06-21T16:02:16.264196+05:30"},{"city":"Rohtak","state":"Haryana","latitude":28.8955,"longitude":76.6066,"temp":36.3,"humidity":37,"rain":0.1,"pressure":975.0,"uv_index":7.75,"wind_gusts":37.8,"aqi":433,"pm10":689.2,"pm2_5":94.3,"no2":1.1,"co":148.0,"o3":115.0,"so2":3.4,"mosquito_risk":3,"arthritis_risk":5,"migraine_risk":10,"frizz_risk":1,"updated_at":"2026-06-21T16:02:16.264202+05:30"},{"city":"Panipat","state":"Haryana","latitude":29.3909,"longitude":76.9635,"temp":34.5,"humidity":44,"rain":0.0,"pressure":973.4,"uv_index":7.65,"wind_gusts":38.5,"aqi":1298,"pm10":964.9,"pm2_5":129.9,"no2":2.7,"co":214.0,"o3":138.0,"so2":10.5,"mosquito_risk":0,"arthritis_risk":5,"migraine_risk":7,"frizz_risk":1,"updated_at":"2026-06-21T16:02:16.264207+05:30"},{"city":"Mathura","state":"Uttar Pradesh","latitude":27.4924,"longitude":77.6737,"temp":36.7,"humidity":38,"rain":0.0,"pressure":979.9,"uv_index":8.1,"wind_gusts":34.6,"aqi":713,"pm10":501.1,"pm2_5":78.5,"no2":1.4,"co":133.0,"o3":97.0,"so2":2.0,"mosquito_risk":0,"arthritis_risk":5,"migraine_risk":10,"frizz_risk":1,"updated_at":"2026-06-21T16:02:16.264213+05:30"},{"city":"Vrindavan","state":"Uttar Pradesh","latitude":27.5823,"longitude":77.7027,"temp":36.7,"humidity":39,"rain":0.0,"pressure":980.2,"uv_index":8.05,"wind_gusts":33.5,"aqi":713,"pm10":501.1,"pm2_5":78.5,"no2":1.4,"co":138.0,"o3":97.0,"so2":2.0,"mosquito_risk":0,"arthritis_risk":5,"migraine_risk":10,"frizz_risk":1,"updated_at":"2026-06-21T16:02:16.264218+05:30"},{"city":"Ayodhya","state":"Uttar Pradesh","latitude":26.7922,"longitude":82.1998,"temp":37.9,"humidity":38,"rain":0.0,"pressure":986.1,"uv_index":8.45,"wind_gusts":37.8,"aqi":162,"pm10":206.3,"pm2_5":66.1,"no2":1.5,"co":167.0,"o3":144.0,"so2":6.8,"mosquito_risk":0,"arthritis_risk":5,"migraine_risk":10,"frizz_risk":1,"updated_at":"2026-06-21T16:02:16.264224+05:30"},{"city":"Ratlam","state":"Madhya Pradesh","latitude":23.3315,"longitude":75.0367,"temp":34.5,"humidity":41,"rain":0.0,"pressure":950.7,"uv_index":8.45,"wind_gusts":40.7,"aqi":72,"pm10":51.9,"pm2_5":22.8,"no2":0.5,"co":113.0,"o3":94.0,"so2":3.2,"mosquito_risk":0,"arthritis_risk":5,"migraine_risk":7,"frizz_risk":1,"updated_at":"2026-06-21T16:02:16.264230+05:30"},{"city":"Sagar","state":"Madhya Pradesh","latitude":23.8388,"longitude":78.7378,"temp":31.6,"humidity":54,"rain":0.0,"pressure":946.1,"uv_index":6.75,"wind_gusts":42.1,"aqi":82,"pm10":68.7,"pm2_5":29.6,"no2":0.8,"co":130.0,"o3":104.0,"so2":2.9,"mosquito_risk":0,"arthritis_risk":5,"migraine_risk":7,"frizz_risk":1,"updated_at":"2026-06-21T16:02:16.264236+05:30"},{"city":"Satna","state":"Madhya Pradesh","latitude":24.6005,"longitude":80.8322,"temp":36.4,"humidity":38,"rain":0.0,"pressure":965.3,"uv_index":8.3,"wind_gusts":43.9,"aqi":83,"pm10":104.8,"pm2_5":37.1,"no2":0.5,"co":139.0,"o3":106.0,"so2":3.1,"mosquito_risk":0,"arthritis_risk":5,"migraine_risk":10,"frizz_risk":1,"updated_at":"2026-06-21T16:02:16.264242+05:30"},{"city":"Akola","state":"Maharashtra","latitude":20.7002,"longitude":77.0082,"temp":38.5,"humidity":30,"rain":0.0,"pressure":970.2,"uv_index":8.8,"wind_gusts":42.8,"aqi":58,"pm10":25.6,"pm2_5":14.6,"no2":1.0,"co":108.0,"o3":107.0,"so2":5.2,"mosquito_risk":0,"arthritis_risk":5,"migraine_risk":10,"frizz_risk":1,"updated_at":"2026-06-21T16:02:16.264248+05:30"},{"city":"Amravati","state":"Maharashtra","latitude":20.9374,"longitude":77.7796,"temp":37.5,"humidity":32,"rain":0.0,"pressure":962.7,"uv_index":8.4,"wind_gusts":42.5,"aqi":60,"pm10":24.6,"pm2_5":14.6,"no2":1.3,"co":109.0,"o3":112.0,"so2":6.4,"mosquito_risk":0,"arthritis_risk":5,"migraine_risk":10,"frizz_risk":1,"updated_at":"2026-06-21T16:02:16.264254+05:30"},{"city":"Latur","state":"Maharashtra","latitude":18.4088,"longitude":76.5604,"temp":35.8,"humidity":34,"rain":0.0,"pressure":936.4,"uv_index":6.85,"wind_gusts":27.4,"aqi":68,"pm10":32.4,"pm2_5":21.6,"no2":0.9,"co":116.0,"o3":107.0,"so2":2.4,"mosquito_risk":0,"arthritis_risk":5,"migraine_risk":10,"frizz_risk":1,"updated_at":"2026-06-21T16:02:16.264259+05:30"},{"city":"Nanded","state":"Maharashtra","latitude":19.1383,"longitude":77.3091,"temp":36.2,"humidity":35,"rain":0.0,"pressure":964.4,"uv_index":8.0,"wind_gusts":35.3,"aqi":61,"pm10":19.8,"pm2_5":12.9,"no2":1.0,"co":128.0,"o3":102.0,"so2":2.2,"mosquito_risk":0,"arthritis_risk":5,"migraine_risk":10,"frizz_risk":1,"updated_at":"2026-06-21T16:02:16.264264+05:30"},{"city":"Gulbarga","state":"Karnataka","latitude":17.3297,"longitude":76.8343,"temp":35.9,"humidity":35,"rain":0.0,"pressure":955.0,"uv_index":8.55,"wind_gusts":47.9,"aqi":56,"pm10":21.5,"pm2_5":13.4,"no2":1.2,"co":121.0,"o3":114.0,"so2":2.3,"mosquito_risk":0,"arthritis_risk":5,"migraine_risk":10,"frizz_risk":1,"updated_at":"2026-06-21T16:02:16.264269+05:30"},{"city":"Bidar","state":"Karnataka","latitude":17.9104,"longitude":77.5199,"temp":32.8,"humidity":45,"rain":0.1,"pressure":932.6,"uv_index":8.85,"wind_gusts":30.2,"aqi":68,"pm10":25.4,"pm2_5":19.1,"no2":1.8,"co":133.0,"o3":117.0,"so2":3.8,"mosquito_risk":3,"arthritis_risk":5,"migraine_risk":7,"frizz_risk":1,"updated_at":"2026-06-21T16:02:16.264274+05:30"},{"city":"Hospet","state":"Karnataka","latitude":15.2689,"longitude":76.3909,"temp":32.6,"humidity":50,"rain":0.0,"pressure":952.3,"uv_index":8.6,"wind_gusts":43.6,"aqi":38,"pm10":9.1,"pm2_5":6.1,"no2":1.5,"co":115.0,"o3":80.0,"so2":1.8,"mosquito_risk":0,"arthritis_risk":5,"migraine_risk":7,"frizz_risk":1,"updated_at":"2026-06-21T16:02:16.264279+05:30"},{"city":"Tirupur","state":"Tamil Nadu","latitude":11.1085,"longitude":77.3411,"temp":30.1,"humidity":64,"rain":0.0,"pressure":972.7,"uv_index":8.1,"wind_gusts":56.2,"aqi":55,"pm10":5.9,"pm2_5":5.1,"no2":2.0,"co":117.0,"o3":85.0,"so2":2.3,"mosquito_risk":3,"arthritis_risk":5,"migraine_risk":7,"frizz_risk":1,"updated_at":"2026-06-21T16:02:16.264284+05:30"},{"city":"Alappuzha","state":"Kerala","latitude":9.4981,"longitude":76.3388,"temp":26.6,"humidity":87,"rain":0.0,"pressure":1008.2,"uv_index":8.15,"wind_gusts":38.9,"aqi":35,"pm10":6.8,"pm2_5":4.6,"no2":2.0,"co":85.0,"o3":57.0,"so2":1.4,"mosquito_risk":7,"arthritis_risk":0,"migraine_risk":4,"frizz_risk":1,"updated_at":"2026-06-21T16:02:16.264290+05:30"},{"city":"Munnar","state":"Kerala","latitude":10.0889,"longitude":77.0595,"temp":17.6,"humidity":95,"rain":0.5,"pressure":855.8,"uv_index":8.4,"wind_gusts":31.0,"aqi":52,"pm10":2.8,"pm2_5":2.6,"no2":1.9,"co":104.0,"o3":56.0,"so2":0.8,"mosquito_risk":6,"arthritis_risk":10,"migraine_risk":7,"frizz_risk":1,"updated_at":"2026-06-21T16:02:16.264295+05:30"},{"city":"Silchar","state":"Assam","latitude":24.8333,"longitude":92.7789,"temp":27.7,"humidity":92,"rain":0.4,"pressure":999.4,"uv_index":8.85,"wind_gusts":34.2,"aqi":85,"pm10":15.7,"pm2_5":12.2,"no2":2.1,"co":207.0,"o3":87.0,"so2":2.4,"mosquito_risk":10,"arthritis_risk":5,"migraine_risk":7,"frizz_risk":1,"updated_at":"2026-06-21T16:02:16.264301+05:30"},{"city":"Dibrugarh","state":"Assam","latitude":27.4728,"longitude":94.912,"temp":26.5,"humidity":97,"rain":0.1,"pressure":988.5,"uv_index":4.65,"wind_gusts":35.3,"aqi":80,"pm10":24.7,"pm2_5":19.3,"no2":2.7,"co":230.0,"o3":112.0,"so2":1.9,"mosquito_risk":10,"arthritis_risk":5,"migraine_risk":3,"frizz_risk":1,"updated_at":"2026-06-21T16:02:16.264306+05:30"}]