[{"city":"Delhi","state":"Delhi","latitude":28.6139,"longitude":77.209,"temp":37.7,"humidity":25,"rain":0.0,"pressure":982.1,"uv_index":7.6,"wind_gusts":40.0,"aqi":163,"pm10":403.3,"pm2_5":72.9,"no2":4.1,"co":382.0,"o3":237.0,"so2":23.6,"mosquito_risk":0,"arthritis_risk":5,"migraine_risk":10,"frizz_risk":0,"updated_at":"2026-05-10T14:26:19.391252+05:30"},{"city":"Mumbai","state":"Maharashtra","latitude":19.076,"longitude":72.8777,"temp":35.9,"humidity":42,"rain":0.0,"pressure":1004.1,"uv_index":7.9,"wind_gusts":47.2,"aqi":91,"pm10":59.6,"pm2_5":36.3,"no2":8.5,"co":286.0,"o3":208.0,"so2":24.2,"mosquito_risk":0,"arthritis_risk":5,"migraine_risk":7,"frizz_risk":1,"updated_at":"2026-05-10T14:26:19.391298+05:30"},{"city":"Bangalore","state":"Karnataka","latitude":12.9716,"longitude":77.5946,"temp":33.4,"humidity":26,"rain":0.0,"pressure":909.7,"uv_index":9.45,"wind_gusts":42.1,"aqi":60,"pm10":20.4,"pm2_5":11.3,"no2":2.1,"co":230.0,"o3":135.0,"so2":3.1,"mosquito_risk":0,"arthritis_risk":5,"migraine_risk":7,"frizz_risk":0,"updated_at":"2026-05-10T14:26:19.391314+05:30"},{"city":"Hyderabad","state":"Telangana","latitude":17.385,"longitude":78.4867,"temp":36.9,"humidity":23,"rain":0.0,"pressure":950.8,"uv_index":9.25,"wind_gusts":36.0,"aqi":61,"pm10":43.5,"pm2_5":20.4,"no2":1.8,"co":248.0,"o3":155.0,"so2":5.5,"mosquito_risk":0,"arthritis_risk":5,"migraine_risk":10,"frizz_risk":0,"updated_at":"2026-05-10T14:26:19.391329+05:30"},{"city":"Chennai","state":"Tamil Nadu","latitude":13.0827,"longitude":80.2707,"temp":31.5,"humidity":64,"rain":0.0,"pressure":1004.3,"uv_index":9.1,"wind_gusts":41.8,"aqi":23,"pm10":5.8,"pm2_5":3.9,"no2":1.5,"co":144.0,"o3":56.0,"so2":3.7,"mosquito_risk":3,"arthritis_risk":5,"migraine_risk":4,"frizz_risk":1,"updated_at":"2026-05-10T14:26:19.391339+05:30"},{"city":"Kolkata","state":"West Bengal","latitude":22.5726,"longitude":88.3639,"temp":30.5,"humidity":61,"rain":0.0,"pressure":1005.5,"uv_index":8.9,"wind_gusts":19.1,"aqi":156,"pm10":34.7,"pm2_5":27.9,"no2":3.3,"co":383.0,"o3":150.0,"so2":10.7,"mosquito_risk":3,"arthritis_risk":5,"migraine_risk":4,"frizz_risk":1,"updated_at":"2026-05-10T14:26:19.391348+05:30"},{"city":"Pune","state":"Maharashtra","latitude":18.5204,"longitude":73.8567,"temp":40.7,"humidity":11,"rain":0.0,"pressure":944.9,"uv_index":8.5,"wind_gusts":38.5,"aqi":88,"pm10":29.2,"pm2_5":13.7,"no2":0.9,"co":187.0,"o3":159.0,"so2":5.0,"mosquito_risk":0,"arthritis_risk":5,"migraine_risk":10,"frizz_risk":0,"updated_at":"2026-05-10T14:26:19.391356+05:30"},{"city":"Ahmedabad","state":"Gujarat","latitude":23.0225,"longitude":72.5714,"temp":42.7,"humidity":15,"rain":0.0,"pressure":998.4,"uv_index":8.1,"wind_gusts":38.9,"aqi":57,"pm10":46.9,"pm2_5":16.6,"no2":1.8,"co":214.0,"o3":140.0,"so2":4.3,"mosquito_risk":0,"arthritis_risk":5,"migraine_risk":10,"frizz_risk":0,"updated_at":"2026-05-10T14:26:19.391373+05:30"},{"city":"Jaipur","state":"Rajasthan","latitude":26.9124,"longitude":75.7873,"temp":38.0,"humidity":24,"rain":0.0,"pressure":959.0,"uv_index":8.15,"wind_gusts":28.4,"aqi":167,"pm10":347.4,"pm2_5":61.2,"no2":1.0,"co":293.0,"o3":179.0,"so2":8.1,"mosquito_risk":0,"arthritis_risk":5,"migraine_risk":10,"frizz_risk":0,"updated_at":"2026-05-10T14:26:19.391381+05:30"},{"city":"Lucknow","state":"Uttar Pradesh","latitude":26.8467,"longitude":80.9462,"temp":35.7,"humidity":30,"rain":0.0,"pressure":992.5,"uv_index":8.05,"wind_gusts":35.3,"aqi":118,"pm10":62.2,"pm2_5":34.0,"no2":1.1,"co":314.0,"o3":189.0,"so2":9.0,"mosquito_risk":0,"arthritis_risk":5,"migraine_risk":10,"frizz_risk":0,"updated_at":"2026-05-10T14:26:19.391390+05:30"},{"city":"Kanpur","state":"Uttar Pradesh","latitude":26.4499,"longitude":80.3319,"temp":37.0,"humidity":26,"rain":0.0,"pressure":990.2,"uv_index":8.1,"wind_gusts":33.8,"aqi":154,"pm10":199.3,"pm2_5":46.6,"no2":1.3,"co":338.0,"o3":204.0,"so2":11.4,"mosquito_risk":0,"arthritis_risk":5,"migraine_risk":10,"frizz_risk":0,"updated_at":"2026-05-10T14:26:19.391397+05:30"},{"city":"Chandigarh","state":"Chandigarh","latitude":30.7333,"longitude":76.7794,"temp":33.7,"humidity":35,"rain":0.0,"pressure":969.7,"uv_index":7.7,"wind_gusts":39.2,"aqi":139,"pm10":155.1,"pm2_5":50.5,"no2":1.9,"co":318.0,"o3":218.0,"so2":14.7,"mosquito_risk":0,"arthritis_risk":5,"migraine_risk":7,"frizz_risk":0,"updated_at":"2026-05-10T14:26:19.391405+05:30"},{"city":"Srinagar","state":"Jammu and Kashmir","latitude":34.0837,"longitude":74.7973,"temp":25.8,"humidity":37,"rain":0.0,"pressure":843.6,"uv_index":8.45,"wind_gusts":18.0,"aqi":93,"pm10":60.5,"pm2_5":19.5,"no2":1.2,"co":392.0,"o3":165.0,"so2":3.1,"mosquito_risk":4,"arthritis_risk":5,"migraine_risk":7,"frizz_risk":0,"updated_at":"2026-05-10T14:26:19.391414+05:30"},{"city":"Jammu","state":"Jammu and Kashmir","latitude":32.7266,"longitude":74.857,"temp":36.1,"humidity":32,"rain":0.0,"pressure":972.8,"uv_index":8.1,"wind_gusts":33.8,"aqi":152,"pm10":233.8,"pm2_5":62.9,"no2":0.9,"co":324.0,"o3":191.0,"so2":10.7,"mosquito_risk":0,"arthritis_risk":5,"migraine_risk":10,"frizz_risk":1,"updated_at":"2026-05-10T14:26:19.391421+05:30"},{"city":"Amritsar","state":"Punjab","latitude":31.634,"longitude":74.8723,"temp":38.0,"humidity":29,"rain":0.0,"pressure":980.0,"uv_index":8.35,"wind_gusts":29.9,"aqi":160,"pm10":336.2,"pm2_5":84.8,"no2":1.3,"co":372.0,"o3":198.0,"so2":17.6,"mosquito_risk":0,"arthritis_risk":5,"migraine_risk":10,"frizz_risk":1,"updated_at":"2026-05-10T14:26:19.391429+05:30"},{"city":"Ludhiana","state":"Punjab","latitude":30.901,"longitude":75.8573,"temp":37.5,"humidity":25,"rain":0.0,"pressure":978.2,"uv_index":7.95,"wind_gusts":34.9,"aqi":164,"pm10":661.2,"pm2_5":101.3,"no2":1.5,"co":338.0,"o3":210.0,"so2":16.7,"mosquito_risk":0,"arthritis_risk":5,"migraine_risk":10,"frizz_risk":0,"updated_at":"2026-05-10T14:26:19.391437+05:30"},{"city":"Jalandhar","state":"Punjab","latitude":31.326,"longitude":75.5762,"temp":36.6,"humidity":30,"rain":0.0,"pressure":979.4,"uv_index":8.15,"wind_gusts":33.5,"aqi":157,"pm10":476.8,"pm2_5":87.3,"no2":1.1,"co":349.0,"o3":202.0,"so2":15.4,"mosquito_risk":0,"arthritis_risk":5,"migraine_risk":10,"frizz_risk":1,"updated_at":"2026-05-10T14:26:19.391444+05:30"},{"city":"Dehradun","state":"Uttarakhand","latitude":30.6284,"longitude":78.0322,"temp":21.0,"humidity":61,"rain":0.0,"pressure":833.7,"uv_index":8.1,"wind_gusts":26.6,"aqi":90,"pm10":102.4,"pm2_5":40.0,"no2":0.8,"co":260.0,"o3":174.0,"so2":6.7,"mosquito_risk":3,"arthritis_risk":5,"migraine_risk":7,"frizz_risk":0,"updated_at":"2026-05-10T14:26:19.391458+05:30"},{"city":"Shimla","state":"Himachal Pradesh","latitude":31.1048,"longitude":77.1734,"temp":19.3,"humidity":61,"rain":0.0,"pressure":788.3,"uv_index":8.15,"wind_gusts":42.5,"aqi":125,"pm10":129.9,"pm2_5":53.1,"no2":1.1,"co":258.0,"o3":200.0,"so2":14.9,"mosquito_risk":3,"arthritis_risk":5,"migraine_risk":7,"frizz_risk":0,"updated_at":"2026-05-10T14:26:19.391465+05:30"},{"city":"Manali","state":"Himachal Pradesh","latitude":32.2396,"longitude":77.1887,"temp":20.8,"humidity":59,"rain":0.0,"pressure":821.1,"uv_index":9.8,"wind_gusts":44.6,"aqi":93,"pm10":36.7,"pm2_5":11.6,"no2":1.5,"co":236.0,"o3":183.0,"so2":0.9,"mosquito_risk":0,"arthritis_risk":5,"migraine_risk":7,"frizz_risk":0,"updated_at":"2026-05-10T14:26:19.391473+05:30"},{"city":"Gurgaon","state":"Haryana","latitude":28.4595,"longitude":77.0266,"temp":36.8,"humidity":28,"rain":0.0,"pressure":980.7,"uv_index":7.7,"wind_gusts":31.0,"aqi":741,"pm10":1028.2,"pm2_5":120.1,"no2":3.0,"co":333.0,"o3":209.0,"so2":15.3,"mosquito_risk":0,"arthritis_risk":5,"migraine_risk":10,"frizz_risk":0,"updated_at":"2026-05-10T14:26:19.391480+05:30"},{"city":"Noida","state":"Uttar Pradesh","latitude":28.5355,"longitude":77.391,"temp":35.5,"humidity":33,"rain":0.0,"pressure":984.0,"uv_index":7.65,"wind_gusts":29.2,"aqi":741,"pm10":1028.2,"pm2_5":120.1,"no2":3.0,"co":333.0,"o3":209.0,"so2":15.3,"mosquito_risk":0,"arthritis_risk":5,"migraine_risk":10,"frizz_risk":1,"updated_at":"2026-05-10T14:26:19.391487+05:30"},{"city":"Ghaziabad","state":"Uttar Pradesh","latitude":28.6692,"longitude":77.4538,"temp":35.3,"humidity":32,"rain":0.0,"pressure":982.4,"uv_index":7.6,"wind_gusts":32.4,"aqi":138,"pm10":235.6,"pm2_5":49.9,"no2":1.8,"co":313.0,"o3":197.0,"so2":9.6,"mosquito_risk":0,"arthritis_risk":5,"migraine_risk":10,"frizz_risk":1,"updated_at":"2026-05-10T14:26:19.391493+05:30"},{"city":"Faridabad","state":"Haryana","latitude":28.4089,"longitude":77.3178,"temp":35.4,"humidity":31,"rain":0.0,"pressure":983.2,"uv_index":7.65,"wind_gusts":30.2,"aqi":741,"pm10":1028.2,"pm2_5":120.1,"no2":3.0,"co":324.0,"o3":209.0,"so2":15.3,"mosquito_risk":0,"arthritis_risk":5,"migraine_risk":10,"frizz_risk":0,"updated_at":"2026-05-10T14:26:19.391500+05:30"},{"city":"Meerut","state":"Uttar Pradesh","latitude":28.9845,"longitude":77.7064,"temp":33.7,"humidity":39,"rain":0.0,"pressure":981.7,"uv_index":7.55,"wind_gusts":31.0,"aqi":138,"pm10":235.6,"pm2_5":49.9,"no2":1.8,"co":321.0,"o3":197.0,"so2":9.6,"mosquito_risk":0,"arthritis_risk":5,"migraine_risk":7,"frizz_risk":1,"updated_at":"2026-05-10T14:26:19.391507+05:30"},{"city":"Agra","state":"Uttar Pradesh","latitude":27.1767,"longitude":78.0081,"temp":36.7,"humidity":31,"rain":0.0,"pressure":986.8,"uv_index":7.95,"wind_gusts":26.3,"aqi":630,"pm10":434.9,"pm2_5":64.5,"no2":1.3,"co":329.0,"o3":193.0,"so2":10.7,"mosquito_risk":0,"arthritis_risk":5,"migraine_risk":10,"frizz_risk":1,"updated_at":"2026-05-10T14:26:19.391514+05:30"},{"city":"Varanasi","state":"Uttar Pradesh","latitude":25.3176,"longitude":82.9739,"temp":35.7,"humidity":28,"rain":0.0,"pressure":995.6,"uv_index":8.6,"wind_gusts":32.8,"aqi":139,"pm10":55.3,"pm2_5":34.9,"no2":1.8,"co":290.0,"o3":224.0,"so2":14.4,"mosquito_risk":0,"arthritis_risk":5,"migraine_risk":10,"frizz_risk":0,"updated_at":"2026-05-10T14:26:19.391522+05:30"},{"city":"Prayagraj","state":"Uttar Pradesh","latitude":25.4358,"longitude":81.8463,"temp":36.9,"humidity":27,"rain":0.0,"pressure":993.9,"uv_index":8.45,"wind_gusts":32.8,"aqi":145,"pm10":61.0,"pm2_5":39.3,"no2":1.8,"co":348.0,"o3":221.0,"so2":13.7,"mosquito_risk":0,"arthritis_risk":5,"migraine_risk":10,"frizz_risk":0,"updated_at":"2026-05-10T14:26:19.391532+05:30"},{"city":"Gorakhpur","state":"Uttar Pradesh","latitude":26.7606,"longitude":83.3732,"temp":33.2,"humidity":39,"rain":0.0,"pressure":996.6,"uv_index":8.4,"wind_gusts":33.8,"aqi":107,"pm10":45.9,"pm2_5":29.5,"no2":1.3,"co":336.0,"o3":179.0,"so2":5.8,"mosquito_risk":0,"arthritis_risk":5,"migraine_risk":7,"frizz_risk":1,"updated_at":"2026-05-10T14:26:19.391540+05:30"},{"city":"Bareilly","state":"Uttar Pradesh","latitude":28.367,"longitude":79.4304,"temp":33.7,"humidity":37,"rain":0.0,"pressure":986.8,"uv_index":7.9,"wind_gusts":29.5,"aqi":111,"pm10":126.2,"pm2_5":34.1,"no2":1.5,"co":294.0,"o3":187.0,"so2":9.3,"mosquito_risk":0,"arthritis_risk":5,"migraine_risk":7,"frizz_risk":1,"updated_at":"2026-05-10T14:26:19.391547+05:30"},{"city":"Aligarh","state":"Uttar Pradesh","latitude":27.8974,"longitude":78.088,"temp":35.5,"humidity":32,"rain":0.0,"pressure":984.8,"uv_index":7.75,"wind_gusts":28.4,"aqi":300,"pm10":437.7,"pm2_5":63.1,"no2":1.4,"co":309.0,"o3":191.0,"so2":10.3,"mosquito_risk":0,"arthritis_risk":5,"migraine_risk":10,"frizz_risk":1,"updated_at":"2026-05-10T14:26:19.391554+05:30"},{"city":"Moradabad","state":"Uttar Pradesh","latitude":28.8386,"longitude":78.7733,"temp":33.2,"humidity":39,"rain":0.0,"pressure":984.3,"uv_index":7.75,"wind_gusts":31.7,"aqi":121,"pm10":63.1,"pm2_5":36.7,"no2":2.1,"co":320.0,"o3":212.0,"so2":16.8,"mosquito_risk":0,"arthritis_risk":5,"migraine_risk":7,"frizz_risk":1,"updated_at":"2026-05-10T14:26:19.391561+05:30"},{"city":"Saharanpur","state":"Uttar Pradesh","latitude":29.9637,"longitude":77.546,"temp":32.2,"humidity":43,"rain":0.0,"pressure":976.6,"uv_index":7.35,"wind_gusts":31.7,"aqi":139,"pm10":139.2,"pm2_5":46.1,"no2":1.1,"co":324.0,"o3":191.0,"so2":13.3,"mosquito_risk":0,"arthritis_risk":5,"migraine_risk":7,"frizz_risk":1,"updated_at":"2026-05-10T14:26:19.391567+05:30"},{"city":"Jhansi","state":"Uttar Pradesh","latitude":25.4484,"longitude":78.5685,"temp":37.2,"humidity":26,"rain":0.0,"pressure":976.2,"uv_index":8.4,"wind_gusts":25.9,"aqi":122,"pm10":174.6,"pm2_5":44.1,"no2":1.4,"co":290.0,"o3":200.0,"so2":20.1,"mosquito_risk":0,"arthritis_risk":5,"migraine_risk":10,"frizz_risk":0,"updated_at":"2026-05-10T14:26:22.624067+05:30"},{"city":"Surat","state":"Gujarat","latitude":21.1702,"longitude":72.8311,"temp":42.2,"humidity":20,"rain":0.0,"pressure":1002.7,"uv_index":7.7,"wind_gusts":34.2,"aqi":100,"pm10":60.8,"pm2_5":36.2,"no2":31.6,"co":171.0,"o3":116.0,"so2":84.5,"mosquito_risk":0,"arthritis_risk":5,"migraine_risk":7,"frizz_risk":0,"updated_at":"2026-05-10T14:26:22.624098+05:30"},{"city":"Vadodara","state":"Gujarat","latitude":22.3072,"longitude":73.1812,"temp":43.3,"humidity":14,"rain":0.0,"pressure":1000.1,"uv_index":8.1,"wind_gusts":31.7,"aqi":79,"pm10":40.7,"pm2_5":17.8,"no2":2.0,"co":197.0,"o3":166.0,"so2":8.9,"mosquito_risk":0,"arthritis_risk":5,"migraine_risk":7,"frizz_risk":0,"updated_at":"2026-05-10T14:26:22.624108+05:30"},{"city":"Rajkot","state":"Gujarat","latitude":22.3039,"longitude":70.8022,"temp":41.3,"humidity":15,"rain":0.0,"pressure":991.7,"uv_index":7.7,"wind_gusts":39.2,"aqi":53,"pm10":47.8,"pm2_5":14.6,"no2":0.9,"co":141.0,"o3":127.0,"so2":4.2,"mosquito_risk":0,"arthritis_risk":5,"migraine_risk":10,"frizz_risk":0,"updated_at":"2026-05-10T14:26:22.624118+05:30"},{"city":"Thane","state":"Maharashtra","latitude":19.2183,"longitude":72.9781,"temp":41.5,"humidity":22,"rain":0.0,"pressure":1002.6,"uv_index":7.9,"wind_gusts":45.4,"aqi":91,"pm10":59.6,"pm2_5":36.3,"no2":8.5,"co":196.0,"o3":208.0,"so2":24.2,"mosquito_risk":0,"arthritis_risk":5,"migraine_risk":7,"frizz_risk":0,"updated_at":"2026-05-10T14:26:22.624126+05:30"},{"city":"Nagpur","state":"Maharashtra","latitude":21.1458,"longitude":79.0882,"temp":40.5,"humidity":16,"rain":0.0,"pressure":969.7,"uv_index":8.9,"wind_gusts":32.8,"aqi":118,"pm10":51.3,"pm2_5":28.1,"no2":4.1,"co":216.0,"o3":196.0,"so2":20.9,"mosquito_risk":0,"arthritis_risk":5,"migraine_risk":10,"frizz_risk":0,"updated_at":"2026-05-10T14:26:22.624134+05:30"},{"city":"Nashik","state":"Maharashtra","latitude":19.9975,"longitude":73.7898,"temp":39.9,"humidity":13,"rain":0.0,"pressure":942.9,"uv_index":8.2,"wind_gusts":43.9,"aqi":71,"pm10":27.1,"pm2_5":11.4,"no2":1.3,"co":167.0,"o3":155.0,"so2":7.8,"mosquito_risk":0,"arthritis_risk":5,"migraine_risk":10,"frizz_risk":0,"updated_at":"2026-05-10T14:26:22.624142+05:30"},{"city":"Aurangabad","state":"Maharashtra","latitude":19.8762,"longitude":75.3433,"temp":39.7,"humidity":13,"rain":0.0,"pressure":941.8,"uv_index":9.05,"wind_gusts":43.9,"aqi":75,"pm10":35.7,"pm2_5":12.3,"no2":0.9,"co":175.0,"o3":150.0,"so2":6.6,"mosquito_risk":0,"arthritis_risk":5,"migraine_risk":10,"frizz_risk":0,"updated_at":"2026-05-10T14:26:22.624150+05:30"},{"city":"Solapur","state":"Maharashtra","latitude":17.6599,"longitude":75.9064,"temp":39.7,"humidity":17,"rain":0.0,"pressure":954.0,"uv_index":9.1,"wind_gusts":36.4,"aqi":79,"pm10":40.3,"pm2_5":22.1,"no2":1.3,"co":190.0,"o3":168.0,"so2":6.4,"mosquito_risk":0,"arthritis_risk":5,"migraine_risk":10,"frizz_risk":0,"updated_at":"2026-05-10T14:26:22.624158+05:30"},{"city":"Kolhapur","state":"Maharashtra","latitude":16.705,"longitude":74.2433,"temp":39.2,"humidity":17,"rain":0.0,"pressure":944.7,"uv_index":8.95,"wind_gusts":40.7,"aqi":125,"pm10":44.2,"pm2_5":28.1,"no2":1.1,"co":243.0,"o3":174.0,"so2":6.3,"mosquito_risk":0,"arthritis_risk":5,"migraine_risk":10,"frizz_risk":0,"updated_at":"2026-05-10T14:26:22.624166+05:30"},{"city":"Goa","state":"Goa","latitude":15.2993,"longitude":74.124,"temp":36.2,"humidity":47,"rain":0.0,"pressure":993.0,"uv_index":7.25,"wind_gusts":46.8,"aqi":81,"pm10":35.7,"pm2_5":21.9,"no2":0.9,"co":207.0,"o3":133.0,"so2":2.7,"mosquito_risk":0,"arthritis_risk":5,"migraine_risk":10,"frizz_risk":1,"updated_at":"2026-05-10T14:26:22.624174+05:30"},{"city":"Jodhpur","state":"Rajasthan","latitude":26.2389,"longitude":73.0243,"temp":43.3,"humidity":12,"rain":0.0,"pressure":980.1,"uv_index":8.4,"wind_gusts":32.8,"aqi":90,"pm10":128.5,"pm2_5":24.5,"no2":0.5,"co":160.0,"o3":139.0,"so2":2.3,"mosquito_risk":0,"arthritis_risk":5,"migraine_risk":10,"frizz_risk":0,"updated_at":"2026-05-10T14:26:22.624182+05:30"},{"city":"Udaipur","state":"Rajasthan","latitude":24.5854,"longitude":73.7125,"temp":40.0,"humidity":13,"rain":0.0,"pressure":945.2,"uv_index":8.8,"wind_gusts":38.5,"aqi":47,"pm10":79.9,"pm2_5":12.5,"no2":0.5,"co":145.0,"o3":133.0,"so2":2.9,"mosquito_risk":0,"arthritis_risk":5,"migraine_risk":10,"frizz_risk":0,"updated_at":"2026-05-10T14:26:22.624189+05:30"},{"city":"Kota","state":"Rajasthan","latitude":25.2138,"longitude":75.8648,"temp":40.9,"humidity":17,"rain":0.0,"pressure":976.3,"uv_index":8.35,"wind_gusts":33.5,"aqi":93,"pm10":147.6,"pm2_5":40.6,"no2":1.6,"co":266.0,"o3":190.0,"so2":20.9,"mosquito_risk":0,"arthritis_risk":5,"migraine_risk":10,"frizz_risk":0,"updated_at":"2026-05-10T14:26:22.624197+05:30"},{"city":"Bikaner","state":"Rajasthan","latitude":28.0229,"longitude":73.3119,"temp":42.3,"humidity":15,"rain":0.0,"pressure":979.2,"uv_index":8.3,"wind_gusts":32.0,"aqi":111,"pm10":107.1,"pm2_5":28.5,"no2":0.6,"co":242.0,"o3":161.0,"so2":9.2,"mosquito_risk":0,"arthritis_risk":5,"migraine_risk":10,"frizz_risk":0,"updated_at":"2026-05-10T14:26:22.624205+05:30"},{"city":"Ajmer","state":"Rajasthan","latitude":26.4499,"longitude":74.6399,"temp":39.8,"humidity":17,"rain":0.0,"pressure":953.6,"uv_index":8.3,"wind_gusts":33.1,"aqi":95,"pm10":120.6,"pm2_5":32.7,"no2":0.7,"co":260.0,"o3":172.0,"so2":10.2,"mosquito_risk":0,"arthritis_risk":5,"migraine_risk":10,"frizz_risk":0,"updated_at":"2026-05-10T14:26:22.624235+05:30"},{"city":"Gwalior","state":"Madhya Pradesh","latitude":26.2183,"longitude":78.1828,"temp":37.0,"humidity":27,"rain":0.0,"pressure":981.6,"uv_index":8.15,"wind_gusts":26.3,"aqi":131,"pm10":136.4,"pm2_5":38.4,"no2":0.7,"co":293.0,"o3":182.0,"so2":9.0,"mosquito_risk":0,"arthritis_risk":5,"migraine_risk":10,"frizz_risk":0,"updated_at":"2026-05-10T14:26:22.624244+05:30"},{"city":"Indore","state":"Madhya Pradesh","latitude":22.7196,"longitude":75.8577,"temp":40.6,"humidity":11,"rain":0.0,"pressure":945.7,"uv_index":8.65,"wind_gusts":46.1,"aqi":66,"pm10":62.2,"pm2_5":20.0,"no2":0.6,"co":221.0,"o3":161.0,"so2":5.6,"mosquito_risk":0,"arthritis_risk":5,"migraine_risk":10,"frizz_risk":0,"updated_at":"2026-05-10T14:26:22.624253+05:30"},{"city":"Bhopal","state":"Madhya Pradesh","latitude":23.2599,"longitude":77.4126,"temp":39.8,"humidity":13,"rain":0.0,"pressure":951.4,"uv_index":8.65,"wind_gusts":46.4,"aqi":82,"pm10":92.0,"pm2_5":26.6,"no2":0.5,"co":239.0,"o3":164.0,"so2":5.2,"mosquito_risk":0,"arthritis_risk":5,"migraine_risk":10,"frizz_risk":0,"updated_at":"2026-05-10T14:26:22.624261+05:30"},{"city":"Jabalpur","state":"Madhya Pradesh","latitude":23.1815,"longitude":79.9864,"temp":39.1,"humidity":18,"rain":0.0,"pressure":958.4,"uv_index":8.8,"wind_gusts":32.8,"aqi":110,"pm10":72.9,"pm2_5":24.9,"no2":1.2,"co":247.0,"o3":188.0,"so2":6.4,"mosquito_risk":0,"arthritis_risk":5,"migraine_risk":10,"frizz_risk":0,"updated_at":"2026-05-10T14:26:22.624268+05:30"},{"city":"Ujjain","state":"Madhya Pradesh","latitude":23.1765,"longitude":75.7885,"temp":41.2,"humidity":11,"rain":0.0,"pressure":951.6,"uv_index":8.6,"wind_gusts":46.4,"aqi":60,"pm10":54.7,"pm2_5":18.2,"no2":0.5,"co":216.0,"o3":157.0,"so2":7.3,"mosquito_risk":0,"arthritis_risk":5,"migraine_risk":10,"frizz_risk":0,"updated_at":"2026-05-10T14:26:22.624277+05:30"},{"city":"Visakhapatnam","state":"Andhra Pradesh","latitude":17.6868,"longitude":83.2185,"temp":33.2,"humidity":52,"rain":0.0,"pressure":1001.0,"uv_index":9.1,"wind_gusts":35.6,"aqi":72,"pm10":17.0,"pm2_5":13.4,"no2":16.6,"co":604.0,"o3":46.0,"so2":21.0,"mosquito_risk":0,"arthritis_risk":5,"migraine_risk":4,"frizz_risk":1,"updated_at":"2026-05-10T14:26:22.624285+05:30"},{"city":"Vijayawada","state":"Andhra Pradesh","latitude":16.5062,"longitude":80.648,"temp":37.7,"humidity":33,"rain":0.0,"pressure":998.8,"uv_index":9.05,"wind_gusts":41.0,"aqi":50,"pm10":21.7,"pm2_5":12.1,"no2":1.4,"co":171.0,"o3":105.0,"so2":5.2,"mosquito_risk":0,"arthritis_risk":5,"migraine_risk":10,"frizz_risk":1,"updated_at":"2026-05-10T14:26:22.624292+05:30"},{"city":"Guntur","state":"Andhra Pradesh","latitude":16.3067,"longitude":80.4365,"temp":38.7,"humidity":32,"rain":0.0,"pressure":999.7,"uv_index":8.85,"wind_gusts":41.0,"aqi":48,"pm10":27.4,"pm2_5":15.6,"no2":1.3,"co":189.0,"o3":121.0,"so2":5.3,"mosquito_risk":0,"arthritis_risk":5,"migraine_risk":10,"frizz_risk":1,"updated_at":"2026-05-10T14:26:22.624300+05:30"},{"city":"Nellore","state":"Andhra Pradesh","latitude":14.4426,"longitude":79.9865,"temp":34.0,"humidity":51,"rain":0.0,"pressure":1002.8,"uv_index":8.95,"wind_gusts":40.0,"aqi":26,"pm10":9.8,"pm2_5":5.8,"no2":0.8,"co":133.0,"o3":69.0,"so2":1.6,"mosquito_risk":0,"arthritis_risk":5,"migraine_risk":4,"frizz_risk":1,"updated_at":"2026-05-10T14:26:22.624308+05:30"},{"city":"Kurnool","state":"Andhra Pradesh","latitude":15.8281,"longitude":78.0373,"temp":39.2,"humidity":21,"rain":0.0,"pressure":973.1,"uv_index":9.0,"wind_gusts":40.0,"aqi":38,"pm10":27.0,"pm2_5":14.1,"no2":0.8,"co":169.0,"o3":127.0,"so2":2.4,"mosquito_risk":0,"arthritis_risk":5,"migraine_risk":10,"frizz_risk":0,"updated_at":"2026-05-10T14:26:22.624317+05:30"},{"city":"Kakinada","state":"Andhra Pradesh","latitude":16.9891,"longitude":82.2475,"temp":32.2,"humidity":58,"rain":0.0,"pressure":1004.7,"uv_index":9.05,"wind_gusts":38.5,"aqi":31,"pm10":9.2,"pm2_5":5.9,"no2":0.5,"co":148.0,"o3":62.0,"so2":0.5,"mosquito_risk":0,"arthritis_risk":5,"migraine_risk":4,"frizz_risk":1,"updated_at":"2026-05-10T14:26:22.624324+05:30"},{"city":"Tirupati","state":"Andhra Pradesh","latitude":13.6288,"longitude":79.4192,"temp":36.3,"humidity":34,"rain":0.0,"pressure":987.4,"uv_index":9.15,"wind_gusts":45.7,"aqi":58,"pm10":9.1,"pm2_5":5.4,"no2":0.7,"co":144.0,"o3":77.0,"so2":0.8,"mosquito_risk":0,"arthritis_risk":5,"migraine_risk":10,"frizz_risk":1,"updated_at":"2026-05-10T14:26:22.624332+05:30"},{"city":"Warangal","state":"Telangana","latitude":17.9689,"longitude":79.5941,"temp":37.8,"humidity":29,"rain":0.0,"pressure":975.7,"uv_index":9.15,"wind_gusts":42.8,"aqi":65,"pm10":31.5,"pm2_5":19.7,"no2":1.5,"co":208.0,"o3":139.0,"so2":5.9,"mosquito_risk":0,"arthritis_risk":5,"migraine_risk":10,"frizz_risk":1,"updated_at":"2026-05-10T14:26:22.624340+05:30"},{"city":"Nizamabad","state":"Telangana","latitude":18.6725,"longitude":78.0941,"temp":38.0,"humidity":22,"rain":0.0,"pressure":961.9,"uv_index":9.1,"wind_gusts":29.9,"aqi":89,"pm10":43.2,"pm2_5":22.4,"no2":1.0,"co":197.0,"o3":161.0,"so2":5.8,"mosquito_risk":0,"arthritis_risk":5,"migraine_risk":10,"frizz_risk":0,"updated_at":"2026-05-10T14:26:22.624348+05:30"},{"city":"Mysore","state":"Karnataka","latitude":12.2958,"longitude":76.6396,"temp":33.4,"humidity":33,"rain":0.0,"pressure":925.9,"uv_index":9.3,"wind_gusts":36.4,"aqi":54,"pm10":22.6,"pm2_5":14.2,"no2":1.6,"co":183.0,"o3":145.0,"so2":4.6,"mosquito_risk":0,"arthritis_risk":5,"migraine_risk":7,"frizz_risk":0,"updated_at":"2026-05-10T14:26:22.624356+05:30"},{"city":"Mangalore","state":"Karnataka","latitude":12.9141,"longitude":74.856,"temp":31.7,"humidity":71,"rain":0.0,"pressure":1002.3,"uv_index":9.0,"wind_gusts":39.6,"aqi":67,"pm10":24.4,"pm2_5":16.6,"no2":1.4,"co":202.0,"o3":139.0,"so2":2.7,"mosquito_risk":3,"arthritis_risk":5,"migraine_risk":4,"frizz_risk":1,"updated_at":"2026-05-10T14:26:22.624363+05:30"},{"city":"Hubli-Dharwad","state":"Karnataka","latitude":15.3647,"longitude":75.124,"temp":36.6,"humidity":24,"rain":0.0,"pressure":938.5,"uv_index":7.95,"wind_gusts":38.9,"aqi":66,"pm10":37.0,"pm2_5":17.9,"no2":1.4,"co":189.0,"o3":156.0,"so2":3.1,"mosquito_risk":0,"arthritis_risk":5,"migraine_risk":10,"frizz_risk":0,"updated_at":"2026-05-10T14:26:22.624372+05:30"},{"city":"Belgaum","state":"Karnataka","latitude":15.8497,"longitude":74.4977,"temp":37.0,"humidity":20,"rain":0.0,"pressure":923.9,"uv_index":8.25,"wind_gusts":37.1,"aqi":101,"pm10":47.1,"pm2_5":25.3,"no2":1.6,"co":196.0,"o3":178.0,"so2":5.7,"mosquito_risk":0,"arthritis_risk":5,"migraine_risk":10,"frizz_risk":0,"updated_at":"2026-05-10T14:26:25.853264+05:30"},{"city":"Coimbatore","state":"Tamil Nadu","latitude":11.0168,"longitude":76.9558,"temp":31.7,"humidity":56,"rain":0.0,"pressure":958.0,"uv_index":8.65,"wind_gusts":30.6,"aqi":57,"pm10":12.8,"pm2_5":8.6,"no2":1.1,"co":167.0,"o3":123.0,"so2":3.3,"mosquito_risk":0,"arthritis_risk":5,"migraine_risk":7,"frizz_risk":1,"updated_at":"2026-05-10T14:26:25.853298+05:30"},{"city":"Madurai","state":"Tamil Nadu","latitude":9.9252,"longitude":78.1198,"temp":33.4,"humidity":50,"rain":0.0,"pressure":988.8,"uv_index":5.2,"wind_gusts":31.7,"aqi":58,"pm10":9.1,"pm2_5":8.8,"no2":1.2,"co":184.0,"o3":107.0,"so2":5.3,"mosquito_risk":0,"arthritis_risk":5,"migraine_risk":3,"frizz_risk":1,"updated_at":"2026-05-10T14:26:25.853312+05:30"},{"city":"Trichy","state":"Tamil Nadu","latitude":10.7905,"longitude":78.7047,"temp":33.7,"humidity":53,"rain":0.0,"pressure":995.4,"uv_index":2.8,"wind_gusts":36.4,"aqi":49,"pm10":14.0,"pm2_5":13.6,"no2":3.4,"co":152.0,"o3":98.0,"so2":11.3,"mosquito_risk":0,"arthritis_risk":5,"migraine_risk":3,"frizz_risk":1,"updated_at":"2026-05-10T14:26:25.853322+05:30"},{"city":"Salem","state":"Tamil Nadu","latitude":11.6643,"longitude":78.146,"temp":34.2,"humidity":46,"rain":0.0,"pressure":973.1,"uv_index":9.05,"wind_gusts":41.0,"aqi":56,"pm10":12.7,"pm2_5":10.8,"no2":2.2,"co":154.0,"o3":113.0,"so2":8.5,"mosquito_risk":0,"arthritis_risk":5,"migraine_risk":7,"frizz_risk":1,"updated_at":"2026-05-10T14:26:25.853333+05:30"},{"city":"Tirunelveli","state":"Tamil Nadu","latitude":8.7139,"longitude":77.7567,"temp":29.2,"humidity":73,"rain":0.1,"pressure":999.8,"uv_index":4.3,"wind_gusts":29.5,"aqi":57,"pm10":7.3,"pm2_5":7.1,"no2":1.6,"co":159.0,"o3":92.0,"so2":6.0,"mosquito_risk":10,"arthritis_risk":5,"migraine_risk":3,"frizz_risk":1,"updated_at":"2026-05-10T14:26:25.853343+05:30"},{"city":"Vellore","state":"Tamil Nadu","latitude":12.9165,"longitude":79.1325,"temp":35.0,"humidity":42,"rain":0.0,"pressure":980.8,"uv_index":9.25,"wind_gusts":41.4,"aqi":71,"pm10":9.2,"pm2_5":7.4,"no2":1.2,"co":152.0,"o3":102.0,"so2":3.9,"mosquito_risk":0,"arthritis_risk":5,"migraine_risk":7,"frizz_risk":1,"updated_at":"2026-05-10T14:26:25.853352+05:30"},{"city":"Erode","state":"Tamil Nadu","latitude":11.341,"longitude":77.7172,"temp":33.2,"humidity":53,"rain":0.0,"pressure":984.9,"uv_index":7.2,"wind_gusts":37.8,"aqi":66,"pm10":13.3,"pm2_5":11.6,"no2":1.8,"co":180.0,"o3":124.0,"so2":6.4,"mosquito_risk":0,"arthritis_risk":5,"migraine_risk":7,"frizz_risk":1,"updated_at":"2026-05-10T14:26:25.853362+05:30"},{"city":"Kochi","state":"Kerala","latitude":9.9312,"longitude":76.2673,"temp":30.2,"humidity":74,"rain":0.1,"pressure":1004.9,"uv_index":8.8,"wind_gusts":32.4,"aqi":75,"pm10":19.5,"pm2_5":19.0,"no2":3.0,"co":302.0,"o3":170.0,"so2":4.5,"mosquito_risk":6,"arthritis_risk":5,"migraine_risk":4,"frizz_risk":1,"updated_at":"2026-05-10T14:26:25.853371+05:30"},{"city":"Thiruvananthapuram","state":"Kerala","latitude":8.5241,"longitude":76.9366,"temp":27.6,"humidity":81,"rain":0.0,"pressure":1004.8,"uv_index":5.4,"wind_gusts":21.2,"aqi":72,"pm10":12.2,"pm2_5":10.9,"no2":1.5,"co":267.0,"o3":156.0,"so2":2.4,"mosquito_risk":7,"arthritis_risk":5,"migraine_risk":0,"frizz_risk":1,"updated_at":"2026-05-10T14:26:25.853380+05:30"},{"city":"Kozhikode","state":"Kerala","latitude":11.2588,"longitude":75.7804,"temp":31.3,"humidity":71,"rain":0.0,"pressure":1003.3,"uv_index":8.85,"wind_gusts":35.6,"aqi":72,"pm10":18.0,"pm2_5":16.4,"no2":1.3,"co":222.0,"o3":165.0,"so2":3.4,"mosquito_risk":3,"arthritis_risk":5,"migraine_risk":4,"frizz_risk":1,"updated_at":"2026-05-10T14:26:25.853390+05:30"},{"city":"Thrissur","state":"Kerala","latitude":10.5276,"longitude":76.2144,"temp":32.4,"humidity":62,"rain":0.1,"pressure":1002.6,"uv_index":9.0,"wind_gusts":32.8,"aqi":76,"pm10":11.4,"pm2_5":10.7,"no2":1.2,"co":227.0,"o3":116.0,"so2":4.2,"mosquito_risk":6,"arthritis_risk":5,"migraine_risk":4,"frizz_risk":1,"updated_at":"2026-05-10T14:26:25.853401+05:30"},{"city":"Kannur","state":"Kerala","latitude":11.8745,"longitude":75.3704,"temp":31.1,"humidity":72,"rain":0.0,"pressure":1002.8,"uv_index":7.5,"wind_gusts":39.6,"aqi":56,"pm10":18.4,"pm2_5":13.8,"no2":1.6,"co":220.0,"o3":150.0,"so2":2.2,"mosquito_risk":3,"arthritis_risk":5,"migraine_risk":4,"frizz_risk":1,"updated_at":"2026-05-10T14:26:25.853410+05:30"},{"city":"Patna","state":"Bihar","latitude":25.5941,"longitude":85.1376,"temp":31.0,"humidity":45,"rain":0.0,"pressure":999.9,"uv_index":8.65,"wind_gusts":28.8,"aqi":154,"pm10":65.4,"pm2_5":50.3,"no2":2.3,"co":331.0,"o3":228.0,"so2":22.8,"mosquito_risk":0,"arthritis_risk":5,"migraine_risk":7,"frizz_risk":1,"updated_at":"2026-05-10T14:26:25.853419+05:30"},{"city":"Gaya","state":"Bihar","latitude":24.7914,"longitude":85.0002,"temp":34.0,"humidity":33,"rain":0.0,"pressure":992.5,"uv_index":8.7,"wind_gusts":26.3,"aqi":132,"pm10":60.1,"pm2_5":31.9,"no2":1.6,"co":246.0,"o3":217.0,"so2":12.5,"mosquito_risk":0,"arthritis_risk":5,"migraine_risk":7,"frizz_risk":0,"updated_at":"2026-05-10T14:26:25.853428+05:30"},{"city":"Muzaffarpur","state":"Bihar","latitude":26.1209,"longitude":85.3647,"temp":30.6,"humidity":53,"rain":0.0,"pressure":1000.2,"uv_index":8.55,"wind_gusts":34.2,"aqi":129,"pm10":59.3,"pm2_5":45.6,"no2":2.1,"co":331.0,"o3":212.0,"so2":14.9,"mosquito_risk":0,"arthritis_risk":5,"migraine_risk":4,"frizz_risk":1,"updated_at":"2026-05-10T14:26:25.853436+05:30"},{"city":"Bhagalpur","state":"Bihar","latitude":25.2425,"longitude":87.0117,"temp":31.3,"humidity":47,"rain":0.0,"pressure":1000.6,"uv_index":8.6,"wind_gusts":24.5,"aqi":154,"pm10":58.8,"pm2_5":48.2,"no2":3.9,"co":339.0,"o3":231.0,"so2":13.9,"mosquito_risk":0,"arthritis_risk":5,"migraine_risk":4,"frizz_risk":1,"updated_at":"2026-05-10T14:26:25.853443+05:30"},{"city":"Ranchi","state":"Jharkhand","latitude":23.3441,"longitude":85.3096,"temp":28.5,"humidity":45,"rain":0.0,"pressure":937.2,"uv_index":9.15,"wind_gusts":38.2,"aqi":104,"pm10":47.4,"pm2_5":29.7,"no2":1.2,"co":241.0,"o3":182.0,"so2":17.6,"mosquito_risk":4,"arthritis_risk":5,"migraine_risk":7,"frizz_risk":0,"updated_at":"2026-05-10T14:26:25.853451+05:30"},{"city":"Jamshedpur","state":"Jharkhand","latitude":22.8046,"longitude":86.2029,"temp":29.1,"humidity":55,"rain":0.0,"pressure":990.4,"uv_index":8.95,"wind_gusts":43.9,"aqi":115,"pm10":51.1,"pm2_5":39.1,"no2":6.0,"co":387.0,"o3":204.0,"so2":26.7,"mosquito_risk":4,"arthritis_risk":5,"migraine_risk":7,"frizz_risk":1,"updated_at":"2026-05-10T14:26:25.853459+05:30"},{"city":"Dhanbad","state":"Jharkhand","latitude":23.7957,"longitude":86.4304,"temp":28.2,"humidity":60,"rain":0.0,"pressure":979.8,"uv_index":8.9,"wind_gusts":36.0,"aqi":155,"pm10":71.2,"pm2_5":56.2,"no2":21.3,"co":334.0,"o3":209.0,"so2":60.1,"mosquito_risk":4,"arthritis_risk":5,"migraine_risk":7,"frizz_risk":1,"updated_at":"2026-05-10T14:26:25.853466+05:30"},{"city":"Bokaro","state":"Jharkhand","latitude":23.6693,"longitude":86.1511,"temp":32.4,"humidity":38,"rain":0.0,"pressure":982.6,"uv_index":8.9,"wind_gusts":45.7,"aqi":154,"pm10":67.1,"pm2_5":48.7,"no2":20.4,"co":589.0,"o3":211.0,"so2":61.2,"mosquito_risk":0,"arthritis_risk":5,"migraine_risk":7,"frizz_risk":1,"updated_at":"2026-05-10T14:26:25.853473+05:30"},{"city":"Bhubaneswar","state":"Odisha","latitude":20.2961,"longitude":85.8245,"temp":31.5,"humidity":59,"rain":0.0,"pressure":1001.3,"uv_index":9.05,"wind_gusts":34.9,"aqi":52,"pm10":19.1,"pm2_5":10.3,"no2":1.5,"co":168.0,"o3":108.0,"so2":3.1,"mosquito_risk":0,"arthritis_risk":5,"migraine_risk":4,"frizz_risk":1,"updated_at":"2026-05-10T14:26:25.853480+05:30"},{"city":"Cuttack","state":"Odisha","latitude":20.4625,"longitude":85.8828,"temp":33.0,"humidity":55,"rain":0.0,"pressure":1002.7,"uv_index":9.1,"wind_gusts":37.4,"aqi":52,"pm10":19.1,"pm2_5":10.3,"no2":1.5,"co":169.0,"o3":108.0,"so2":3.1,"mosquito_risk":0,"arthritis_risk":5,"migraine_risk":4,"frizz_risk":1,"updated_at":"2026-05-10T14:26:25.853488+05:30"},{"city":"Rourkela","state":"Odisha","latitude":22.2604,"longitude":84.8536,"temp":30.4,"humidity":48,"rain":0.0,"pressure":983.9,"uv_index":8.9,"wind_gusts":55.8,"aqi":113,"pm10":56.3,"pm2_5":30.0,"no2":1.4,"co":277.0,"o3":183.0,"so2":25.7,"mosquito_risk":0,"arthritis_risk":5,"migraine_risk":7,"frizz_risk":1,"updated_at":"2026-05-10T14:26:25.853496+05:30"},{"city":"Raipur","state":"Chhattisgarh","latitude":21.2514,"longitude":81.6296,"temp":38.3,"humidity":23,"rain":0.0,"pressure":972.0,"uv_index":8.9,"wind_gusts":29.5,"aqi":124,"pm10":65.7,"pm2_5":36.3,"no2":9.0,"co":398.0,"o3":236.0,"so2":7.6,"mosquito_risk":0,"arthritis_risk":5,"migraine_risk":10,"frizz_risk":0,"updated_at":"2026-05-10T14:26:25.853504+05:30"},{"city":"Bhilai","state":"Chhattisgarh","latitude":21.1938,"longitude":81.3509,"temp":37.6,"humidity":25,"rain":0.0,"pressure":972.6,"uv_index":8.95,"wind_gusts":30.2,"aqi":102,"pm10":59.1,"pm2_5":32.2,"no2":10.6,"co":440.0,"o3":190.0,"so2":6.6,"mosquito_risk":0,"arthritis_risk":5,"migraine_risk":10,"frizz_risk":0,"updated_at":"2026-05-10T14:26:25.853512+05:30"},{"city":"Guwahati","state":"Assam","latitude":26.1158,"longitude":91.7086,"temp":29.6,"humidity":61,"rain":0.0,"pressure":1000.8,"uv_index":8.65,"wind_gusts":27.7,"aqi":89,"pm10":42.1,"pm2_5":28.3,"no2":0.9,"co":269.0,"o3":147.0,"so2":2.4,"mosquito_risk":7,"arthritis_risk":5,"migraine_risk":4,"frizz_risk":1,"updated_at":"2026-05-10T14:26:25.853520+05:30"},{"city":"Agartala","state":"Tripura","latitude":23.8315,"longitude":91.2868,"temp":24.6,"humidity":92,"rain":0.3,"pressure":1006.6,"uv_index":8.25,"wind_gusts":33.1,"aqi":151,"pm10":45.2,"pm2_5":34.7,"no2":3.2,"co":345.0,"o3":236.0,"so2":4.4,"mosquito_risk":6,"arthritis_risk":5,"migraine_risk":4,"frizz_risk":1,"updated_at":"2026-05-10T14:26:25.853527+05:30"},{"city":"Shillong","state":"Meghalaya","latitude":25.5788,"longitude":91.8933,"temp":19.7,"humidity":73,"rain":0.0,"pressure":858.0,"uv_index":8.45,"wind_gusts":29.2,"aqi":90,"pm10":37.1,"pm2_5":23.5,"no2":1.0,"co":236.0,"o3":158.0,"so2":3.7,"mosquito_risk":3,"arthritis_risk":5,"migraine_risk":7,"frizz_risk":0,"updated_at":"2026-05-10T14:26:25.853535+05:30"},{"city":"Imphal","state":"Manipur","latitude":24.817,"longitude":93.9368,"temp":26.0,"humidity":57,"rain":0.0,"pressure":923.4,"uv_index":7.85,"wind_gusts":29.5,"aqi":99,"pm10":31.3,"pm2_5":17.9,"no2":0.8,"co":236.0,"o3":117.0,"so2":2.3,"mosquito_risk":4,"arthritis_risk":5,"migraine_risk":7,"frizz_risk":1,"updated_at":"2026-05-10T14:26:25.853542+05:30"},{"city":"Aizawl","state":"Mizoram","latitude":23.7271,"longitude":92.7176,"temp":25.2,"humidity":47,"rain":0.0,"pressure":892.9,"uv_index":6.35,"wind_gusts":24.5,"aqi":96,"pm10":49.4,"pm2_5":31.5,"no2":0.5,"co":260.0,"o3":152.0,"so2":4.7,"mosquito_risk":4,"arthritis_risk":5,"migraine_risk":7,"frizz_risk":0,"updated_at":"2026-05-10T14:26:25.853549+05:30"},{"city":"Kohima","state":"Nagaland","latitude":25.6701,"longitude":94.1077,"temp":21.6,"humidity":71,"rain":0.0,"pressure":856.0,"uv_index":7.95,"wind_gusts":28.4,"aqi":77,"pm10":41.9,"pm2_5":24.7,"no2":1.0,"co":205.0,"o3":129.0,"so2":1.2,"mosquito_risk":3,"arthritis_risk":5,"migraine_risk":7,"frizz_risk":0,"updated_at":"2026-05-10T14:26:25.853556+05:30"},{"city":"Gangtok","state":"Sikkim","latitude":27.3314,"longitude":88.6138,"temp":15.2,"humidity":90,"rain":0.1,"pressure":838.4,"uv_index":7.1,"wind_gusts":30.2,"aqi":61,"pm10":19.3,"pm2_5":11.3,"no2":0.4,"co":197.0,"o3":132.0,"so2":0.8,"mosquito_risk":6,"arthritis_risk":10,"migraine_risk":7,"frizz_risk":0,"updated_at":"2026-05-10T14:26:25.853563+05:30"},{"city":"Siliguri","state":"West Bengal","latitude":26.7271,"longitude":88.3953,"temp":32.0,"humidity":37,"rain":0.0,"pressure":992.4,"uv_index":8.0,"wind_gusts":26.6,"aqi":89,"pm10":34.8,"pm2_5":17.5,"no2":0.8,"co":294.0,"o3":153.0,"so2":2.1,"mosquito_risk":0,"arthritis_risk":5,"migraine_risk":7,"frizz_risk":0,"updated_at":"2026-05-10T14:26:29.078258+05:30"},{"city":"Durgapur","state":"West Bengal","latitude":23.5204,"longitude":87.3119,"temp":31.4,"humidity":59,"rain":0.0,"pressure":994.0,"uv_index":8.85,"wind_gusts":43.2,"aqi":153,"pm10":75.9,"pm2_5":63.1,"no2":19.3,"co":270.0,"o3":207.0,"so2":59.7,"mosquito_risk":0,"arthritis_risk":5,"migraine_risk":7,"frizz_risk":1,"updated_at":"2026-05-10T14:26:29.078292+05:30"},{"city":"Asansol","state":"West Bengal","latitude":23.6739,"longitude":86.9524,"temp":31.0,"humidity":56,"rain":0.0,"pressure":992.9,"uv_index":8.9,"wind_gusts":51.5,"aqi":151,"pm10":70.3,"pm2_5":56.1,"no2":17.8,"co":361.0,"o3":205.0,"so2":54.9,"mosquito_risk":0,"arthritis_risk":5,"migraine_risk":7,"frizz_risk":1,"updated_at":"2026-05-10T14:26:29.078305+05:30"},{"city":"Pondicherry","state":"Puducherry","latitude":11.9139,"longitude":79.8145,"temp":29.8,"humidity":75,"rain":0.1,"pressure":1004.9,"uv_index":8.55,"wind_gusts":43.6,"aqi":27,"pm10":5.9,"pm2_5":4.2,"no2":1.0,"co":150.0,"o3":69.0,"so2":1.4,"mosquito_risk":10,"arthritis_risk":5,"migraine_risk":4,"frizz_risk":1,"updated_at":"2026-05-10T14:26:29.078315+05:30"},{"city":"Port Blair","state":"Andaman and Nicobar Islands","latitude":11.6234,"longitude":92.7265,"temp":30.0,"humidity":73,"rain":0.0,"pressure":1004.1,"uv_index":8.05,"wind_gusts":27.0,"aqi":27,"pm10":2.2,"pm2_5":1.5,"no2":0.3,"co":134.0,"o3":59.0,"so2":0.1,"mosquito_risk":7,"arthritis_risk":5,"migraine_risk":4,"frizz_risk":1,"updated_at":"2026-05-10T14:26:29.078325+05:30"},{"city":"Haridwar","state":"Uttarakhand","latitude":29.9457,"longitude":78.1642,"temp":32.0,"humidity":42,"rain":0.0,"pressure":975.1,"uv_index":7.5,"wind_gusts":26.3,"aqi":122,"pm10":112.0,"pm2_5":44.8,"no2":1.2,"co":298.0,"o3":189.0,"so2":10.0,"mosquito_risk":0,"arthritis_risk":5,"migraine_risk":7,"frizz_risk":1,"updated_at":"2026-05-10T14:26:29.078334+05:30"},{"city":"Rishikesh","state":"Uttarakhand","latitude":30.0869,"longitude":78.2676,"temp":30.3,"humidity":45,"rain":0.0,"pressure":967.8,"uv_index":7.55,"wind_gusts":20.9,"aqi":118,"pm10":88.5,"pm2_5":40.5,"no2":1.3,"co":283.0,"o3":188.0,"so2":8.3,"mosquito_risk":0,"arthritis_risk":5,"migraine_risk":7,"frizz_risk":1,"updated_at":"2026-05-10T14:26:29.078343+05:30"},{"city":"Nainital","state":"Uttarakhand","latitude":29.3919,"longitude":79.4542,"temp":18.7,"humidity":68,"rain":0.0,"pressure":808.3,"uv_index":7.65,"wind_gusts":27.4,"aqi":102,"pm10":47.5,"pm2_5":27.3,"no2":0.9,"co":270.0,"o3":168.0,"so2":4.6,"mosquito_risk":3,"arthritis_risk":5,"migraine_risk":7,"frizz_risk":0,"updated_at":"2026-05-10T14:26:29.078352+05:30"},{"city":"Mussoorie","state":"Uttarakhand","latitude":30.4599,"longitude":78.0664,"temp":19.3,"humidity":67,"rain":0.0,"pressure":806.2,"uv_index":7.95,"wind_gusts":38.5,"aqi":110,"pm10":91.7,"pm2_5":41.1,"no2":1.4,"co":267.0,"o3":180.0,"so2":5.8,"mosquito_risk":3,"arthritis_risk":5,"migraine_risk":7,"frizz_risk":0,"updated_at":"2026-05-10T14:26:29.078361+05:30"},{"city":"Dharamshala","state":"Himachal Pradesh","latitude":32.219,"longitude":76.3234,"temp":24.2,"humidity":61,"rain":0.0,"pressure":871.6,"uv_index":7.75,"wind_gusts":35.6,"aqi":102,"pm10":104.5,"pm2_5":40.2,"no2":0.5,"co":298.0,"o3":173.0,"so2":6.9,"mosquito_risk":3,"arthritis_risk":5,"migraine_risk":7,"frizz_risk":1,"updated_at":"2026-05-10T14:26:29.078369+05:30"},{"city":"Dalhousie","state":"Himachal Pradesh","latitude":32.5387,"longitude":75.971,"temp":21.5,"humidity":59,"rain":0.1,"pressure":808.5,"uv_index":8.1,"wind_gusts":37.1,"aqi":139,"pm10":171.8,"pm2_5":51.0,"no2":1.0,"co":290.0,"o3":186.0,"so2":10.0,"mosquito_risk":3,"arthritis_risk":5,"migraine_risk":7,"frizz_risk":0,"updated_at":"2026-05-10T14:26:29.078379+05:30"},{"city":"Patiala","state":"Punjab","latitude":30.3398,"longitude":76.3869,"temp":34.5,"humidity":35,"rain":0.0,"pressure":978.5,"uv_index":7.6,"wind_gusts":34.9,"aqi":344,"pm10":953.7,"pm2_5":121.5,"no2":1.8,"co":321.0,"o3":222.0,"so2":20.7,"mosquito_risk":0,"arthritis_risk":5,"migraine_risk":7,"frizz_risk":1,"updated_at":"2026-05-10T14:26:29.078387+05:30"},{"city":"Bhatinda","state":"Punjab","latitude":30.211,"longitude":74.9455,"temp":38.8,"humidity":25,"rain":0.0,"pressure":982.6,"uv_index":8.25,"wind_gusts":30.2,"aqi":368,"pm10":389.3,"pm2_5":85.4,"no2":2.2,"co":334.0,"o3":215.0,"so2":20.0,"mosquito_risk":0,"arthritis_risk":5,"migraine_risk":10,"frizz_risk":0,"updated_at":"2026-05-10T14:26:29.078397+05:30"},{"city":"Rohtak","state":"Haryana","latitude":28.8955,"longitude":76.6066,"temp":37.3,"humidity":26,"rain":0.0,"pressure":981.1,"uv_index":7.65,"wind_gusts":30.6,"aqi":387,"pm10":614.7,"pm2_5":94.5,"no2":2.3,"co":333.0,"o3":232.0,"so2":18.5,"mosquito_risk":0,"arthritis_risk":5,"migraine_risk":10,"frizz_risk":0,"updated_at":"2026-05-10T14:26:29.078405+05:30"},{"city":"Panipat","state":"Haryana","latitude":29.3909,"longitude":76.9635,"temp":34.7,"humidity":34,"rain":0.0,"pressure":980.6,"uv_index":7.5,"wind_gusts":32.4,"aqi":680,"pm10":910.8,"pm2_5":115.3,"no2":3.0,"co":315.0,"o3":237.0,"so2":23.7,"mosquito_risk":0,"arthritis_risk":5,"migraine_risk":7,"frizz_risk":1,"updated_at":"2026-05-10T14:26:29.078412+05:30"},{"city":"Mathura","state":"Uttar Pradesh","latitude":27.4924,"longitude":77.6737,"temp":36.4,"humidity":31,"rain":0.0,"pressure":985.9,"uv_index":7.9,"wind_gusts":24.8,"aqi":542,"pm10":519.7,"pm2_5":69.4,"no2":1.2,"co":309.0,"o3":187.0,"so2":7.7,"mosquito_risk":0,"arthritis_risk":5,"migraine_risk":10,"frizz_risk":1,"updated_at":"2026-05-10T14:26:29.078418+05:30"},{"city":"Vrindavan","state":"Uttar Pradesh","latitude":27.5823,"longitude":77.7027,"temp":36.5,"humidity":31,"rain":0.0,"pressure":986.4,"uv_index":7.9,"wind_gusts":25.6,"aqi":542,"pm10":519.7,"pm2_5":69.4,"no2":1.2,"co":312.0,"o3":187.0,"so2":7.7,"mosquito_risk":0,"arthritis_risk":5,"migraine_risk":10,"frizz_risk":1,"updated_at":"2026-05-10T14:26:29.078426+05:30"},{"city":"Ayodhya","state":"Uttar Pradesh","latitude":26.7922,"longitude":82.1998,"temp":34.5,"humidity":35,"rain":0.0,"pressure":994.3,"uv_index":8.2,"wind_gusts":37.1,"aqi":104,"pm10":52.2,"pm2_5":28.6,"no2":0.8,"co":303.0,"o3":179.0,"so2":6.3,"mosquito_risk":0,"arthritis_risk":5,"migraine_risk":7,"frizz_risk":1,"updated_at":"2026-05-10T14:26:29.078433+05:30"},{"city":"Ratlam","state":"Madhya Pradesh","latitude":23.3315,"longitude":75.0367,"temp":41.0,"humidity":12,"rain":0.0,"pressure":952.5,"uv_index":8.5,"wind_gusts":42.1,"aqi":52,"pm10":40.5,"pm2_5":13.8,"no2":0.5,"co":183.0,"o3":149.0,"so2":6.3,"mosquito_risk":0,"arthritis_risk":5,"migraine_risk":10,"frizz_risk":0,"updated_at":"2026-05-10T14:26:29.078440+05:30"},{"city":"Sagar","state":"Madhya Pradesh","latitude":23.8388,"longitude":78.7378,"temp":37.4,"humidity":21,"rain":0.0,"pressure":948.2,"uv_index":8.65,"wind_gusts":36.0,"aqi":103,"pm10":159.3,"pm2_5":37.3,"no2":0.4,"co":235.0,"o3":170.0,"so2":5.6,"mosquito_risk":0,"arthritis_risk":5,"migraine_risk":10,"frizz_risk":0,"updated_at":"2026-05-10T14:26:29.078447+05:30"},{"city":"Satna","state":"Madhya Pradesh","latitude":24.6005,"longitude":80.8322,"temp":37.8,"humidity":22,"rain":0.0,"pressure":968.7,"uv_index":8.65,"wind_gusts":28.1,"aqi":136,"pm10":60.3,"pm2_5":29.8,"no2":1.2,"co":295.0,"o3":204.0,"so2":10.6,"mosquito_risk":0,"arthritis_risk":5,"migraine_risk":10,"frizz_risk":0,"updated_at":"2026-05-10T14:26:29.078453+05:30"},{"city":"Akola","state":"Maharashtra","latitude":20.7002,"longitude":77.0082,"temp":41.5,"humidity":14,"rain":0.0,"pressure":971.4,"uv_index":8.85,"wind_gusts":36.0,"aqi":85,"pm10":45.4,"pm2_5":16.4,"no2":1.5,"co":197.0,"o3":173.0,"so2":12.3,"mosquito_risk":0,"arthritis_risk":5,"migraine_risk":10,"frizz_risk":0,"updated_at":"2026-05-10T14:26:29.078461+05:30"},{"city":"Amravati","state":"Maharashtra","latitude":20.9374,"longitude":77.7796,"temp":40.7,"humidity":14,"rain":0.0,"pressure":963.9,"uv_index":8.85,"wind_gusts":46.4,"aqi":88,"pm10":49.1,"pm2_5":17.5,"no2":1.9,"co":212.0,"o3":179.0,"so2":7.2,"mosquito_risk":0,"arthritis_risk":5,"migraine_risk":10,"frizz_risk":0,"updated_at":"2026-05-10T14:26:29.078469+05:30"},{"city":"Latur","state":"Maharashtra","latitude":18.4088,"longitude":76.5604,"temp":39.5,"humidity":15,"rain":0.0,"pressure":937.2,"uv_index":9.1,"wind_gusts":41.0,"aqi":88,"pm10":36.0,"pm2_5":19.8,"no2":1.0,"co":200.0,"o3":163.0,"so2":9.2,"mosquito_risk":0,"arthritis_risk":5,"migraine_risk":10,"frizz_risk":0,"updated_at":"2026-05-10T14:26:29.078475+05:30"},{"city":"Nanded","state":"Maharashtra","latitude":19.1383,"longitude":77.3091,"temp":39.8,"humidity":16,"rain":0.0,"pressure":965.2,"uv_index":9.0,"wind_gusts":36.7,"aqi":94,"pm10":38.2,"pm2_5":20.5,"no2":1.2,"co":205.0,"o3":179.0,"so2":9.2,"mosquito_risk":0,"arthritis_risk":5,"migraine_risk":10,"frizz_risk":0,"updated_at":"2026-05-10T14:26:29.078482+05:30"},{"city":"Gulbarga","state":"Karnataka","latitude":17.3297,"longitude":76.8343,"temp":39.0,"humidity":22,"rain":0.0,"pressure":955.8,"uv_index":9.1,"wind_gusts":35.3,"aqi":65,"pm10":44.7,"pm2_5":21.5,"no2":1.6,"co":197.0,"o3":161.0,"so2":7.0,"mosquito_risk":0,"arthritis_risk":5,"migraine_risk":10,"frizz_risk":0,"updated_at":"2026-05-10T14:26:29.078488+05:30"},{"city":"Bidar","state":"Karnataka","latitude":17.9104,"longitude":77.5199,"temp":36.6,"humidity":22,"rain":0.0,"pressure":933.7,"uv_index":9.1,"wind_gusts":31.7,"aqi":76,"pm10":46.2,"pm2_5":21.0,"no2":1.1,"co":210.0,"o3":155.0,"so2":4.4,"mosquito_risk":0,"arthritis_risk":5,"migraine_risk":10,"frizz_risk":0,"updated_at":"2026-05-10T14:26:29.078495+05:30"},{"city":"Hospet","state":"Karnataka","latitude":15.2689,"longitude":76.3909,"temp":36.3,"humidity":29,"rain":0.0,"pressure":953.0,"uv_index":8.8,"wind_gusts":34.2,"aqi":55,"pm10":34.3,"pm2_5":19.1,"no2":3.1,"co":182.0,"o3":154.0,"so2":8.2,"mosquito_risk":0,"arthritis_risk":5,"migraine_risk":10,"frizz_risk":0,"updated_at":"2026-05-10T14:26:29.078502+05:30"},{"city":"Tirupur","state":"Tamil Nadu","latitude":11.1085,"longitude":77.3411,"temp":33.7,"humidity":48,"rain":0.0,"pressure":971.3,"uv_index":7.1,"wind_gusts":30.2,"aqi":69,"pm10":13.2,"pm2_5":10.4,"no2":1.6,"co":167.0,"o3":128.0,"so2":5.0,"mosquito_risk":0,"arthritis_risk":5,"migraine_risk":7,"frizz_risk":1,"updated_at":"2026-05-10T14:26:29.078508+05:30"},{"city":"Alappuzha","state":"Kerala","latitude":9.4981,"longitude":76.3388,"temp":28.5,"humidity":83,"rain":0.1,"pressure":1005.3,"uv_index":8.2,"wind_gusts":25.9,"aqi":80,"pm10":20.6,"pm2_5":19.9,"no2":2.5,"co":204.0,"o3":184.0,"so2":6.1,"mosquito_risk":10,"arthritis_risk":5,"migraine_risk":4,"frizz_risk":1,"updated_at":"2026-05-10T14:26:29.078515+05:30"},{"city":"Munnar","state":"Kerala","latitude":10.0889,"longitude":77.0595,"temp":21.4,"humidity":78,"rain":0.0,"pressure":855.0,"uv_index":8.2,"wind_gusts":24.8,"aqi":41,"pm10":5.3,"pm2_5":5.0,"no2":1.0,"co":149.0,"o3":88.0,"so2":1.8,"mosquito_risk":3,"arthritis_risk":5,"migraine_risk":7,"frizz_risk":1,"updated_at":"2026-05-10T14:26:29.078522+05:30"},{"city":"Silchar","state":"Assam","latitude":24.8333,"longitude":92.7789,"temp":30.9,"humidity":59,"rain":0.0,"pressure":1003.2,"uv_index":8.55,"wind_gusts":27.4,"aqi":138,"pm10":54.0,"pm2_5":34.2,"no2":1.2,"co":328.0,"o3":170.0,"so2":7.7,"mosquito_risk":0,"arthritis_risk":5,"migraine_risk":4,"frizz_risk":1,"updated_at":"2026-05-10T14:26:29.078529+05:30"},{"city":"Dibrugarh","state":"Assam","latitude":27.4728,"longitude":94.912,"temp":32.4,"humidity":49,"rain":0.0,"pressure":993.0,"uv_index":8.8,"wind_gusts":42.5,"aqi":105,"pm10":38.8,"pm2_5":26.0,"no2":0.9,"co":278.0,"o3":156.0,"so2":1.8,"mosquito_risk":0,"arthritis_risk":5,"migraine_risk":7,"frizz_risk":1,"updated_at":"2026-05-10T14:26:29.078536+05:30"}]