[{"city":"Delhi","state":"Delhi","latitude":28.6139,"longitude":77.209,"temp":31.0,"humidity":36,"rain":0.0,"pressure":985.4,"uv_index":6.0,"wind_gusts":25.9,"aqi":167,"pm10":318.5,"pm2_5":51.3,"mosquito_risk":0,"arthritis_risk":5,"migraine_risk":3,"frizz_risk":0,"updated_at":"2026-03-08T18:25:47.734999+05:30"},{"city":"Mumbai","state":"Maharashtra","latitude":19.076,"longitude":72.8777,"temp":28.3,"humidity":69,"rain":0.0,"pressure":1007.2,"uv_index":7.5,"wind_gusts":25.6,"aqi":217,"pm10":56.1,"pm2_5":53.9,"mosquito_risk":7,"arthritis_risk":5,"migraine_risk":4,"frizz_risk":1,"updated_at":"2026-03-08T18:25:47.735069+05:30"},{"city":"Bangalore","state":"Karnataka","latitude":12.9716,"longitude":77.5946,"temp":30.3,"humidity":23,"rain":0.0,"pressure":911.6,"uv_index":9.25,"wind_gusts":28.4,"aqi":164,"pm10":35.6,"pm2_5":28.6,"mosquito_risk":0,"arthritis_risk":5,"migraine_risk":7,"frizz_risk":0,"updated_at":"2026-03-08T18:25:47.735086+05:30"},{"city":"Hyderabad","state":"Telangana","latitude":17.385,"longitude":78.4867,"temp":32.6,"humidity":32,"rain":0.0,"pressure":953.6,"uv_index":8.55,"wind_gusts":24.5,"aqi":151,"pm10":30.3,"pm2_5":21.5,"mosquito_risk":0,"arthritis_risk":5,"migraine_risk":7,"frizz_risk":0,"updated_at":"2026-03-08T18:25:47.735095+05:30"},{"city":"Chennai","state":"Tamil Nadu","latitude":13.0827,"longitude":80.2707,"temp":28.5,"humidity":68,"rain":0.0,"pressure":1008.1,"uv_index":8.95,"wind_gusts":32.4,"aqi":77,"pm10":32.7,"pm2_5":21.7,"mosquito_risk":7,"arthritis_risk":0,"migraine_risk":4,"frizz_risk":1,"updated_at":"2026-03-08T18:25:47.735105+05:30"},{"city":"Kolkata","state":"West Bengal","latitude":22.5726,"longitude":88.3639,"temp":26.5,"humidity":76,"rain":0.0,"pressure":1009.3,"uv_index":7.3,"wind_gusts":15.8,"aqi":151,"pm10":66.8,"pm2_5":60.1,"mosquito_risk":7,"arthritis_risk":0,"migraine_risk":4,"frizz_risk":1,"updated_at":"2026-03-08T18:25:47.735114+05:30"},{"city":"Pune","state":"Maharashtra","latitude":18.5204,"longitude":73.8567,"temp":36.2,"humidity":15,"rain":0.0,"pressure":948.1,"uv_index":8.05,"wind_gusts":30.6,"aqi":135,"pm10":13.6,"pm2_5":11.6,"mosquito_risk":0,"arthritis_risk":5,"migraine_risk":10,"frizz_risk":0,"updated_at":"2026-03-08T18:25:47.735127+05:30"},{"city":"Ahmedabad","state":"Gujarat","latitude":23.0225,"longitude":72.5714,"temp":35.3,"humidity":19,"rain":0.0,"pressure":1003.4,"uv_index":7.35,"wind_gusts":21.2,"aqi":130,"pm10":16.1,"pm2_5":13.5,"mosquito_risk":0,"arthritis_risk":5,"migraine_risk":7,"frizz_risk":0,"updated_at":"2026-03-08T18:25:47.735136+05:30"},{"city":"Jaipur","state":"Rajasthan","latitude":26.9124,"longitude":75.7873,"temp":33.4,"humidity":9,"rain":0.0,"pressure":962.5,"uv_index":6.75,"wind_gusts":25.9,"aqi":97,"pm10":106.2,"pm2_5":16.3,"mosquito_risk":0,"arthritis_risk":5,"migraine_risk":7,"frizz_risk":1,"updated_at":"2026-03-08T18:25:47.735146+05:30"},{"city":"Lucknow","state":"Uttar Pradesh","latitude":26.8467,"longitude":80.9462,"temp":30.2,"humidity":50,"rain":0.0,"pressure":996.2,"uv_index":6.5,"wind_gusts":19.4,"aqi":180,"pm10":119.7,"pm2_5":64.0,"mosquito_risk":0,"arthritis_risk":5,"migraine_risk":7,"frizz_risk":1,"updated_at":"2026-03-08T18:25:47.735155+05:30"},{"city":"Kanpur","state":"Uttar Pradesh","latitude":26.4499,"longitude":80.3319,"temp":29.2,"humidity":53,"rain":0.0,"pressure":994.4,"uv_index":6.5,"wind_gusts":16.9,"aqi":173,"pm10":149.9,"pm2_5":59.1,"mosquito_risk":4,"arthritis_risk":5,"migraine_risk":7,"frizz_risk":1,"updated_at":"2026-03-08T18:25:47.735163+05:30"},{"city":"Chandigarh","state":"Chandigarh","latitude":30.7333,"longitude":76.7794,"temp":26.3,"humidity":58,"rain":0.0,"pressure":971.3,"uv_index":5.9,"wind_gusts":28.1,"aqi":154,"pm10":58.8,"pm2_5":46.2,"mosquito_risk":4,"arthritis_risk":5,"migraine_risk":3,"frizz_risk":1,"updated_at":"2026-03-08T18:25:47.735171+05:30"},{"city":"Srinagar","state":"Jammu and Kashmir","latitude":34.0837,"longitude":74.7973,"temp":19.4,"humidity":38,"rain":0.0,"pressure":846.2,"uv_index":6.8,"wind_gusts":17.6,"aqi":125,"pm10":27.4,"pm2_5":15.0,"mosquito_risk":0,"arthritis_risk":5,"migraine_risk":7,"frizz_risk":0,"updated_at":"2026-03-08T18:25:47.735179+05:30"},{"city":"Jammu","state":"Jammu and Kashmir","latitude":32.7266,"longitude":74.857,"temp":28.2,"humidity":54,"rain":0.0,"pressure":975.6,"uv_index":6.45,"wind_gusts":25.2,"aqi":108,"pm10":43.4,"pm2_5":25.8,"mosquito_risk":4,"arthritis_risk":5,"migraine_risk":7,"frizz_risk":1,"updated_at":"2026-03-08T18:25:47.735187+05:30"},{"city":"Amritsar","state":"Punjab","latitude":31.634,"longitude":74.8723,"temp":28.4,"humidity":58,"rain":0.0,"pressure":983.7,"uv_index":6.45,"wind_gusts":19.1,"aqi":164,"pm10":71.5,"pm2_5":41.8,"mosquito_risk":4,"arthritis_risk":5,"migraine_risk":7,"frizz_risk":1,"updated_at":"2026-03-08T18:25:47.735195+05:30"},{"city":"Ludhiana","state":"Punjab","latitude":30.901,"longitude":75.8573,"temp":28.6,"humidity":58,"rain":0.0,"pressure":981.7,"uv_index":6.15,"wind_gusts":25.2,"aqi":172,"pm10":77.3,"pm2_5":47.0,"mosquito_risk":4,"arthritis_risk":5,"migraine_risk":7,"frizz_risk":1,"updated_at":"2026-03-08T18:25:47.735202+05:30"},{"city":"Jalandhar","state":"Punjab","latitude":31.326,"longitude":75.5762,"temp":28.7,"humidity":56,"rain":0.0,"pressure":982.8,"uv_index":6.3,"wind_gusts":23.4,"aqi":171,"pm10":88.7,"pm2_5":43.4,"mosquito_risk":4,"arthritis_risk":5,"migraine_risk":7,"frizz_risk":1,"updated_at":"2026-03-08T18:25:47.735212+05:30"},{"city":"Dehradun","state":"Uttarakhand","latitude":30.6284,"longitude":78.0322,"temp":19.0,"humidity":82,"rain":0.0,"pressure":833.3,"uv_index":6.3,"wind_gusts":37.1,"aqi":96,"pm10":34.8,"pm2_5":21.4,"mosquito_risk":3,"arthritis_risk":10,"migraine_risk":7,"frizz_risk":0,"updated_at":"2026-03-08T18:25:47.735220+05:30"},{"city":"Shimla","state":"Himachal Pradesh","latitude":31.1048,"longitude":77.1734,"temp":17.6,"humidity":71,"rain":0.0,"pressure":788.7,"uv_index":6.3,"wind_gusts":46.4,"aqi":111,"pm10":30.4,"pm2_5":16.4,"mosquito_risk":3,"arthritis_risk":5,"migraine_risk":7,"frizz_risk":0,"updated_at":"2026-03-08T18:25:47.735227+05:30"},{"city":"Manali","state":"Himachal Pradesh","latitude":32.2396,"longitude":77.1887,"temp":19.4,"humidity":52,"rain":0.0,"pressure":824.8,"uv_index":8.05,"wind_gusts":30.6,"aqi":94,"pm10":27.6,"pm2_5":10.7,"mosquito_risk":0,"arthritis_risk":5,"migraine_risk":7,"frizz_risk":0,"updated_at":"2026-03-08T18:25:47.735235+05:30"},{"city":"Gurgaon","state":"Haryana","latitude":28.4595,"longitude":77.0266,"temp":29.2,"humidity":43,"rain":0.0,"pressure":983.8,"uv_index":6.1,"wind_gusts":20.5,"aqi":229,"pm10":1255.4,"pm2_5":129.9,"mosquito_risk":4,"arthritis_risk":5,"migraine_risk":7,"frizz_risk":0,"updated_at":"2026-03-08T18:25:47.735242+05:30"},{"city":"Noida","state":"Uttar Pradesh","latitude":28.5355,"longitude":77.391,"temp":31.0,"humidity":35,"rain":0.0,"pressure":986.8,"uv_index":6.0,"wind_gusts":25.9,"aqi":229,"pm10":1255.4,"pm2_5":129.9,"mosquito_risk":0,"arthritis_risk":5,"migraine_risk":3,"frizz_risk":0,"updated_at":"2026-03-08T18:25:47.735249+05:30"},{"city":"Ghaziabad","state":"Uttar Pradesh","latitude":28.6692,"longitude":77.4538,"temp":30.1,"humidity":42,"rain":0.0,"pressure":984.9,"uv_index":5.95,"wind_gusts":25.6,"aqi":172,"pm10":197.9,"pm2_5":45.1,"mosquito_risk":0,"arthritis_risk":5,"migraine_risk":3,"frizz_risk":0,"updated_at":"2026-03-08T18:25:47.735258+05:30"},{"city":"Faridabad","state":"Haryana","latitude":28.4089,"longitude":77.3178,"temp":29.5,"humidity":39,"rain":0.0,"pressure":986.0,"uv_index":6.05,"wind_gusts":22.0,"aqi":229,"pm10":1255.4,"pm2_5":129.9,"mosquito_risk":4,"arthritis_risk":5,"migraine_risk":7,"frizz_risk":0,"updated_at":"2026-03-08T18:25:47.735265+05:30"},{"city":"Meerut","state":"Uttar Pradesh","latitude":28.9845,"longitude":77.7064,"temp":29.1,"humidity":49,"rain":0.0,"pressure":983.5,"uv_index":5.85,"wind_gusts":28.4,"aqi":172,"pm10":197.9,"pm2_5":45.1,"mosquito_risk":4,"arthritis_risk":5,"migraine_risk":3,"frizz_risk":1,"updated_at":"2026-03-08T18:25:47.735272+05:30"},{"city":"Agra","state":"Uttar Pradesh","latitude":27.1767,"longitude":78.0081,"temp":30.3,"humidity":34,"rain":0.0,"pressure":989.9,"uv_index":6.4,"wind_gusts":20.9,"aqi":157,"pm10":384.6,"pm2_5":52.9,"mosquito_risk":0,"arthritis_risk":5,"migraine_risk":7,"frizz_risk":0,"updated_at":"2026-03-08T18:25:47.735280+05:30"},{"city":"Varanasi","state":"Uttar Pradesh","latitude":25.3176,"longitude":82.9739,"temp":28.5,"humidity":63,"rain":0.0,"pressure":1000.4,"uv_index":7.2,"wind_gusts":11.2,"aqi":180,"pm10":88.5,"pm2_5":78.5,"mosquito_risk":7,"arthritis_risk":5,"migraine_risk":4,"frizz_risk":1,"updated_at":"2026-03-08T18:25:47.735290+05:30"},{"city":"Prayagraj","state":"Uttar Pradesh","latitude":25.4358,"longitude":81.8463,"temp":28.2,"humidity":57,"rain":0.0,"pressure":999.0,"uv_index":7.05,"wind_gusts":13.3,"aqi":188,"pm10":92.9,"pm2_5":78.2,"mosquito_risk":4,"arthritis_risk":5,"migraine_risk":7,"frizz_risk":1,"updated_at":"2026-03-08T18:25:47.735297+05:30"},{"city":"Gorakhpur","state":"Uttar Pradesh","latitude":26.7606,"longitude":83.3732,"temp":27.5,"humidity":66,"rain":0.0,"pressure":1000.0,"uv_index":6.9,"wind_gusts":13.7,"aqi":173,"pm10":76.1,"pm2_5":66.4,"mosquito_risk":7,"arthritis_risk":5,"migraine_risk":4,"frizz_risk":1,"updated_at":"2026-03-08T18:25:47.735304+05:30"},{"city":"Bareilly","state":"Uttar Pradesh","latitude":28.367,"longitude":79.4304,"temp":29.3,"humidity":56,"rain":0.0,"pressure":988.9,"uv_index":6.2,"wind_gusts":21.6,"aqi":172,"pm10":93.4,"pm2_5":57.0,"mosquito_risk":4,"arthritis_risk":5,"migraine_risk":7,"frizz_risk":1,"updated_at":"2026-03-08T18:25:47.735311+05:30"},{"city":"Aligarh","state":"Uttar Pradesh","latitude":27.8974,"longitude":78.088,"temp":29.6,"humidity":38,"rain":0.0,"pressure":987.7,"uv_index":6.1,"wind_gusts":24.5,"aqi":184,"pm10":362.3,"pm2_5":74.3,"mosquito_risk":4,"arthritis_risk":5,"migraine_risk":7,"frizz_risk":0,"updated_at":"2026-03-08T18:25:47.735320+05:30"},{"city":"Moradabad","state":"Uttar Pradesh","latitude":28.8386,"longitude":78.7733,"temp":28.9,"humidity":51,"rain":0.0,"pressure":985.6,"uv_index":6.0,"wind_gusts":25.2,"aqi":181,"pm10":100.6,"pm2_5":64.7,"mosquito_risk":4,"arthritis_risk":5,"migraine_risk":3,"frizz_risk":1,"updated_at":"2026-03-08T18:25:47.735327+05:30"},{"city":"Saharanpur","state":"Uttar Pradesh","latitude":29.9637,"longitude":77.546,"temp":27.9,"humidity":56,"rain":0.0,"pressure":977.7,"uv_index":5.65,"wind_gusts":34.2,"aqi":172,"pm10":143.9,"pm2_5":53.0,"mosquito_risk":4,"arthritis_risk":5,"migraine_risk":3,"frizz_risk":1,"updated_at":"2026-03-08T18:25:47.735333+05:30"},{"city":"Jhansi","state":"Uttar Pradesh","latitude":25.4484,"longitude":78.5685,"temp":31.1,"humidity":29,"rain":0.0,"pressure":980.6,"uv_index":6.95,"wind_gusts":26.3,"aqi":111,"pm10":30.6,"pm2_5":15.3,"mosquito_risk":0,"arthritis_risk":5,"migraine_risk":7,"frizz_risk":0,"updated_at":"2026-03-08T18:25:50.956481+05:30"},{"city":"Surat","state":"Gujarat","latitude":21.1702,"longitude":72.8311,"temp":33.2,"humidity":34,"rain":0.0,"pressure":1006.7,"uv_index":7.25,"wind_gusts":27.0,"aqi":143,"pm10":39.7,"pm2_5":39.1,"mosquito_risk":0,"arthritis_risk":5,"migraine_risk":4,"frizz_risk":0,"updated_at":"2026-03-08T18:25:50.956511+05:30"},{"city":"Vadodara","state":"Gujarat","latitude":22.3072,"longitude":73.1812,"temp":36.9,"humidity":20,"rain":0.0,"pressure":1004.9,"uv_index":7.35,"wind_gusts":19.4,"aqi":114,"pm10":13.4,"pm2_5":12.8,"mosquito_risk":0,"arthritis_risk":5,"migraine_risk":7,"frizz_risk":0,"updated_at":"2026-03-08T18:25:50.956521+05:30"},{"city":"Rajkot","state":"Gujarat","latitude":22.3039,"longitude":70.8022,"temp":34.3,"humidity":30,"rain":0.0,"pressure":996.0,"uv_index":7.15,"wind_gusts":22.3,"aqi":91,"pm10":26.0,"pm2_5":16.1,"mosquito_risk":0,"arthritis_risk":5,"migraine_risk":7,"frizz_risk":0,"updated_at":"2026-03-08T18:25:50.956529+05:30"},{"city":"Thane","state":"Maharashtra","latitude":19.2183,"longitude":72.9781,"temp":30.7,"humidity":51,"rain":0.0,"pressure":1006.8,"uv_index":7.5,"wind_gusts":33.1,"aqi":217,"pm10":56.1,"pm2_5":53.9,"mosquito_risk":0,"arthritis_risk":5,"migraine_risk":4,"frizz_risk":1,"updated_at":"2026-03-08T18:25:50.956536+05:30"},{"city":"Nagpur","state":"Maharashtra","latitude":21.1458,"longitude":79.0882,"temp":31.9,"humidity":28,"rain":0.0,"pressure":973.9,"uv_index":7.9,"wind_gusts":25.6,"aqi":128,"pm10":33.4,"pm2_5":22.6,"mosquito_risk":0,"arthritis_risk":5,"migraine_risk":7,"frizz_risk":0,"updated_at":"2026-03-08T18:25:50.956543+05:30"},{"city":"Nashik","state":"Maharashtra","latitude":19.9975,"longitude":73.7898,"temp":34.2,"humidity":18,"rain":0.0,"pressure":946.1,"uv_index":7.7,"wind_gusts":27.7,"aqi":138,"pm10":11.8,"pm2_5":10.9,"mosquito_risk":0,"arthritis_risk":5,"migraine_risk":7,"frizz_risk":0,"updated_at":"2026-03-08T18:25:50.956550+05:30"},{"city":"Aurangabad","state":"Maharashtra","latitude":19.8762,"longitude":75.3433,"temp":34.3,"humidity":17,"rain":0.0,"pressure":944.7,"uv_index":8.2,"wind_gusts":31.7,"aqi":127,"pm10":18.5,"pm2_5":12.7,"mosquito_risk":0,"arthritis_risk":5,"migraine_risk":7,"frizz_risk":0,"updated_at":"2026-03-08T18:25:50.956557+05:30"},{"city":"Solapur","state":"Maharashtra","latitude":17.6599,"longitude":75.9064,"temp":33.4,"humidity":32,"rain":0.0,"pressure":956.7,"uv_index":8.45,"wind_gusts":19.8,"aqi":153,"pm10":21.4,"pm2_5":16.4,"mosquito_risk":0,"arthritis_risk":5,"migraine_risk":7,"frizz_risk":0,"updated_at":"2026-03-08T18:25:50.956564+05:30"},{"city":"Kolhapur","state":"Maharashtra","latitude":16.705,"longitude":74.2433,"temp":32.8,"humidity":22,"rain":0.0,"pressure":947.3,"uv_index":8.6,"wind_gusts":37.1,"aqi":172,"pm10":28.8,"pm2_5":25.1,"mosquito_risk":0,"arthritis_risk":5,"migraine_risk":7,"frizz_risk":0,"updated_at":"2026-03-08T18:25:50.956571+05:30"},{"city":"Goa","state":"Goa","latitude":15.2993,"longitude":74.124,"temp":28.4,"humidity":77,"rain":0.0,"pressure":997.2,"uv_index":8.65,"wind_gusts":35.6,"aqi":133,"pm10":36.9,"pm2_5":32.0,"mosquito_risk":7,"arthritis_risk":5,"migraine_risk":7,"frizz_risk":1,"updated_at":"2026-03-08T18:25:50.956578+05:30"},{"city":"Jodhpur","state":"Rajasthan","latitude":26.2389,"longitude":73.0243,"temp":34.0,"humidity":22,"rain":0.0,"pressure":985.4,"uv_index":7.05,"wind_gusts":18.7,"aqi":76,"pm10":24.0,"pm2_5":6.6,"mosquito_risk":0,"arthritis_risk":5,"migraine_risk":7,"frizz_risk":0,"updated_at":"2026-03-08T18:25:50.956585+05:30"},{"city":"Udaipur","state":"Rajasthan","latitude":24.5854,"longitude":73.7125,"temp":32.7,"humidity":20,"rain":0.0,"pressure":949.4,"uv_index":7.7,"wind_gusts":19.8,"aqi":103,"pm10":4.4,"pm2_5":4.1,"mosquito_risk":0,"arthritis_risk":5,"migraine_risk":7,"frizz_risk":0,"updated_at":"2026-03-08T18:25:50.956591+05:30"},{"city":"Kota","state":"Rajasthan","latitude":25.2138,"longitude":75.8648,"temp":33.5,"humidity":27,"rain":0.0,"pressure":981.0,"uv_index":7.05,"wind_gusts":11.2,"aqi":105,"pm10":11.0,"pm2_5":10.8,"mosquito_risk":0,"arthritis_risk":5,"migraine_risk":7,"frizz_risk":0,"updated_at":"2026-03-08T18:25:50.956598+05:30"},{"city":"Bikaner","state":"Rajasthan","latitude":28.0229,"longitude":73.3119,"temp":34.2,"humidity":23,"rain":0.0,"pressure":984.5,"uv_index":6.75,"wind_gusts":19.4,"aqi":56,"pm10":54.9,"pm2_5":11.4,"mosquito_risk":0,"arthritis_risk":5,"migraine_risk":7,"frizz_risk":0,"updated_at":"2026-03-08T18:25:50.956604+05:30"},{"city":"Ajmer","state":"Rajasthan","latitude":26.4499,"longitude":74.6399,"temp":32.2,"humidity":23,"rain":0.0,"pressure":957.3,"uv_index":7.05,"wind_gusts":23.0,"aqi":83,"pm10":14.0,"pm2_5":5.5,"mosquito_risk":0,"arthritis_risk":5,"migraine_risk":7,"frizz_risk":0,"updated_at":"2026-03-08T18:25:50.956611+05:30"},{"city":"Gwalior","state":"Madhya Pradesh","latitude":26.2183,"longitude":78.1828,"temp":30.8,"humidity":43,"rain":0.0,"pressure":985.8,"uv_index":6.65,"wind_gusts":23.4,"aqi":99,"pm10":28.3,"pm2_5":12.3,"mosquito_risk":0,"arthritis_risk":5,"migraine_risk":7,"frizz_risk":1,"updated_at":"2026-03-08T18:25:50.956617+05:30"},{"city":"Indore","state":"Madhya Pradesh","latitude":22.7196,"longitude":75.8577,"temp":30.2,"humidity":27,"rain":0.0,"pressure":950.1,"uv_index":7.6,"wind_gusts":23.0,"aqi":111,"pm10":12.1,"pm2_5":11.0,"mosquito_risk":0,"arthritis_risk":5,"migraine_risk":7,"frizz_risk":0,"updated_at":"2026-03-08T18:25:50.956623+05:30"},{"city":"Bhopal","state":"Madhya Pradesh","latitude":23.2599,"longitude":77.4126,"temp":30.0,"humidity":34,"rain":0.0,"pressure":956.0,"uv_index":7.5,"wind_gusts":22.7,"aqi":104,"pm10":23.6,"pm2_5":11.9,"mosquito_risk":4,"arthritis_risk":5,"migraine_risk":7,"frizz_risk":0,"updated_at":"2026-03-08T18:25:50.956629+05:30"},{"city":"Jabalpur","state":"Madhya Pradesh","latitude":23.1815,"longitude":79.9864,"temp":30.2,"humidity":38,"rain":0.0,"pressure":963.8,"uv_index":7.6,"wind_gusts":24.8,"aqi":133,"pm10":66.1,"pm2_5":37.5,"mosquito_risk":0,"arthritis_risk":5,"migraine_risk":7,"frizz_risk":0,"updated_at":"2026-03-08T18:25:50.956636+05:30"},{"city":"Ujjain","state":"Madhya Pradesh","latitude":23.1765,"longitude":75.7885,"temp":30.2,"humidity":34,"rain":0.0,"pressure":956.1,"uv_index":7.5,"wind_gusts":19.1,"aqi":106,"pm10":16.4,"pm2_5":15.8,"mosquito_risk":0,"arthritis_risk":5,"migraine_risk":7,"frizz_risk":0,"updated_at":"2026-03-08T18:25:50.956643+05:30"},{"city":"Visakhapatnam","state":"Andhra Pradesh","latitude":17.6868,"longitude":83.2185,"temp":26.9,"humidity":72,"rain":0.0,"pressure":1006.0,"uv_index":8.25,"wind_gusts":38.9,"aqi":95,"pm10":34.3,"pm2_5":26.6,"mosquito_risk":7,"arthritis_risk":5,"migraine_risk":4,"frizz_risk":1,"updated_at":"2026-03-08T18:25:50.956649+05:30"},{"city":"Vijayawada","state":"Andhra Pradesh","latitude":16.5062,"longitude":80.648,"temp":30.8,"humidity":54,"rain":0.0,"pressure":1003.3,"uv_index":8.6,"wind_gusts":28.4,"aqi":98,"pm10":39.5,"pm2_5":31.9,"mosquito_risk":0,"arthritis_risk":5,"migraine_risk":4,"frizz_risk":1,"updated_at":"2026-03-08T18:25:50.956655+05:30"},{"city":"Guntur","state":"Andhra Pradesh","latitude":16.3067,"longitude":80.4365,"temp":28.7,"humidity":63,"rain":0.0,"pressure":1004.8,"uv_index":8.6,"wind_gusts":27.4,"aqi":98,"pm10":41.7,"pm2_5":32.8,"mosquito_risk":7,"arthritis_risk":5,"migraine_risk":4,"frizz_risk":1,"updated_at":"2026-03-08T18:25:50.956662+05:30"},{"city":"Nellore","state":"Andhra Pradesh","latitude":14.4426,"longitude":79.9865,"temp":28.1,"humidity":68,"rain":0.0,"pressure":1006.7,"uv_index":8.8,"wind_gusts":33.1,"aqi":93,"pm10":37.6,"pm2_5":27.4,"mosquito_risk":7,"arthritis_risk":5,"migraine_risk":4,"frizz_risk":1,"updated_at":"2026-03-08T18:25:50.956669+05:30"},{"city":"Kurnool","state":"Andhra Pradesh","latitude":15.8281,"longitude":78.0373,"temp":35.3,"humidity":18,"rain":0.0,"pressure":976.2,"uv_index":8.6,"wind_gusts":25.6,"aqi":143,"pm10":36.6,"pm2_5":25.6,"mosquito_risk":0,"arthritis_risk":5,"migraine_risk":10,"frizz_risk":0,"updated_at":"2026-03-08T18:25:50.956676+05:30"},{"city":"Kakinada","state":"Andhra Pradesh","latitude":16.9891,"longitude":82.2475,"temp":27.6,"humidity":68,"rain":0.0,"pressure":1009.3,"uv_index":8.55,"wind_gusts":33.8,"aqi":79,"pm10":33.6,"pm2_5":23.2,"mosquito_risk":7,"arthritis_risk":0,"migraine_risk":4,"frizz_risk":1,"updated_at":"2026-03-08T18:25:50.956683+05:30"},{"city":"Tirupati","state":"Andhra Pradesh","latitude":13.6288,"longitude":79.4192,"temp":31.5,"humidity":42,"rain":0.0,"pressure":991.4,"uv_index":8.95,"wind_gusts":31.3,"aqi":117,"pm10":43.9,"pm2_5":33.3,"mosquito_risk":0,"arthritis_risk":5,"migraine_risk":7,"frizz_risk":1,"updated_at":"2026-03-08T18:25:50.956689+05:30"},{"city":"Warangal","state":"Telangana","latitude":17.9689,"longitude":79.5941,"temp":31.9,"humidity":47,"rain":0.0,"pressure":979.2,"uv_index":8.35,"wind_gusts":27.7,"aqi":121,"pm10":47.3,"pm2_5":35.7,"mosquito_risk":0,"arthritis_risk":5,"migraine_risk":7,"frizz_risk":1,"updated_at":"2026-03-08T18:25:50.956695+05:30"},{"city":"Nizamabad","state":"Telangana","latitude":18.6725,"longitude":78.0941,"temp":32.3,"humidity":36,"rain":0.0,"pressure":965.2,"uv_index":8.25,"wind_gusts":31.0,"aqi":144,"pm10":36.4,"pm2_5":24.5,"mosquito_risk":0,"arthritis_risk":5,"migraine_risk":7,"frizz_risk":0,"updated_at":"2026-03-08T18:25:50.956701+05:30"},{"city":"Mysore","state":"Karnataka","latitude":12.2958,"longitude":76.6396,"temp":31.2,"humidity":26,"rain":0.0,"pressure":927.9,"uv_index":9.25,"wind_gusts":29.9,"aqi":160,"pm10":37.3,"pm2_5":30.6,"mosquito_risk":0,"arthritis_risk":5,"migraine_risk":7,"frizz_risk":0,"updated_at":"2026-03-08T18:25:50.956707+05:30"},{"city":"Mangalore","state":"Karnataka","latitude":12.9141,"longitude":74.856,"temp":28.7,"humidity":79,"rain":0.0,"pressure":1006.0,"uv_index":8.85,"wind_gusts":25.2,"aqi":120,"pm10":37.1,"pm2_5":34.2,"mosquito_risk":7,"arthritis_risk":5,"migraine_risk":4,"frizz_risk":1,"updated_at":"2026-03-08T18:25:50.956714+05:30"},{"city":"Hubli-Dharwad","state":"Karnataka","latitude":15.3647,"longitude":75.124,"temp":33.5,"humidity":20,"rain":0.0,"pressure":940.1,"uv_index":8.8,"wind_gusts":27.7,"aqi":170,"pm10":27.6,"pm2_5":22.5,"mosquito_risk":0,"arthritis_risk":5,"migraine_risk":7,"frizz_risk":0,"updated_at":"2026-03-08T18:25:50.956720+05:30"},{"city":"Belgaum","state":"Karnataka","latitude":15.8497,"longitude":74.4977,"temp":29.3,"humidity":52,"rain":0.0,"pressure":925.6,"uv_index":8.85,"wind_gusts":33.8,"aqi":178,"pm10":24.7,"pm2_5":20.7,"mosquito_risk":4,"arthritis_risk":5,"migraine_risk":7,"frizz_risk":1,"updated_at":"2026-03-08T18:25:54.174350+05:30"},{"city":"Coimbatore","state":"Tamil Nadu","latitude":11.0168,"longitude":76.9558,"temp":32.0,"humidity":29,"rain":0.0,"pressure":960.9,"uv_index":9.2,"wind_gusts":40.0,"aqi":151,"pm10":35.3,"pm2_5":28.4,"mosquito_risk":0,"arthritis_risk":5,"migraine_risk":7,"frizz_risk":0,"updated_at":"2026-03-08T18:25:54.174384+05:30"},{"city":"Madurai","state":"Tamil Nadu","latitude":9.9252,"longitude":78.1198,"temp":33.2,"humidity":36,"rain":0.0,"pressure":991.8,"uv_index":9.15,"wind_gusts":28.8,"aqi":111,"pm10":35.3,"pm2_5":27.3,"mosquito_risk":0,"arthritis_risk":5,"migraine_risk":7,"frizz_risk":1,"updated_at":"2026-03-08T18:25:54.174396+05:30"},{"city":"Trichy","state":"Tamil Nadu","latitude":10.7905,"longitude":78.7047,"temp":32.7,"humidity":34,"rain":0.0,"pressure":999.0,"uv_index":9.05,"wind_gusts":31.0,"aqi":98,"pm10":39.5,"pm2_5":29.2,"mosquito_risk":0,"arthritis_risk":5,"migraine_risk":7,"frizz_risk":0,"updated_at":"2026-03-08T18:25:54.174405+05:30"},{"city":"Salem","state":"Tamil Nadu","latitude":11.6643,"longitude":78.146,"temp":32.7,"humidity":35,"rain":0.0,"pressure":976.4,"uv_index":9.1,"wind_gusts":22.0,"aqi":151,"pm10":39.9,"pm2_5":31.5,"mosquito_risk":0,"arthritis_risk":5,"migraine_risk":7,"frizz_risk":0,"updated_at":"2026-03-08T18:25:54.174414+05:30"},{"city":"Tirunelveli","state":"Tamil Nadu","latitude":8.7139,"longitude":77.7567,"temp":31.2,"humidity":53,"rain":0.0,"pressure":1002.6,"uv_index":9.15,"wind_gusts":41.0,"aqi":129,"pm10":40.2,"pm2_5":29.6,"mosquito_risk":0,"arthritis_risk":5,"migraine_risk":4,"frizz_risk":1,"updated_at":"2026-03-08T18:25:54.174423+05:30"},{"city":"Vellore","state":"Tamil Nadu","latitude":12.9165,"longitude":79.1325,"temp":31.1,"humidity":36,"rain":0.0,"pressure":984.4,"uv_index":9.0,"wind_gusts":35.6,"aqi":134,"pm10":44.1,"pm2_5":34.3,"mosquito_risk":0,"arthritis_risk":5,"migraine_risk":7,"frizz_risk":0,"updated_at":"2026-03-08T18:25:54.174431+05:30"},{"city":"Erode","state":"Tamil Nadu","latitude":11.341,"longitude":77.7172,"temp":34.4,"humidity":33,"rain":0.0,"pressure":987.5,"uv_index":9.1,"wind_gusts":22.3,"aqi":120,"pm10":39.7,"pm2_5":32.1,"mosquito_risk":0,"arthritis_risk":5,"migraine_risk":7,"frizz_risk":0,"updated_at":"2026-03-08T18:25:54.174440+05:30"},{"city":"Kochi","state":"Kerala","latitude":9.9312,"longitude":76.2673,"temp":28.7,"humidity":78,"rain":0.0,"pressure":1007.6,"uv_index":9.0,"wind_gusts":35.6,"aqi":135,"pm10":38.1,"pm2_5":35.4,"mosquito_risk":7,"arthritis_risk":5,"migraine_risk":4,"frizz_risk":1,"updated_at":"2026-03-08T18:25:54.174449+05:30"},{"city":"Thiruvananthapuram","state":"Kerala","latitude":8.5241,"longitude":76.9366,"temp":28.4,"humidity":80,"rain":0.0,"pressure":1007.5,"uv_index":9.05,"wind_gusts":31.7,"aqi":117,"pm10":30.4,"pm2_5":26.8,"mosquito_risk":7,"arthritis_risk":5,"migraine_risk":4,"frizz_risk":1,"updated_at":"2026-03-08T18:25:54.174457+05:30"},{"city":"Kozhikode","state":"Kerala","latitude":11.2588,"longitude":75.7804,"temp":29.0,"humidity":76,"rain":0.0,"pressure":1007.0,"uv_index":8.8,"wind_gusts":29.5,"aqi":96,"pm10":27.3,"pm2_5":24.7,"mosquito_risk":7,"arthritis_risk":5,"migraine_risk":4,"frizz_risk":1,"updated_at":"2026-03-08T18:25:54.174465+05:30"},{"city":"Thrissur","state":"Kerala","latitude":10.5276,"longitude":76.2144,"temp":29.3,"humidity":74,"rain":0.0,"pressure":1006.3,"uv_index":9.0,"wind_gusts":36.7,"aqi":125,"pm10":36.9,"pm2_5":32.7,"mosquito_risk":7,"arthritis_risk":5,"migraine_risk":4,"frizz_risk":1,"updated_at":"2026-03-08T18:25:54.174473+05:30"},{"city":"Kannur","state":"Kerala","latitude":11.8745,"longitude":75.3704,"temp":29.1,"humidity":74,"rain":0.0,"pressure":1006.8,"uv_index":8.9,"wind_gusts":28.4,"aqi":101,"pm10":31.0,"pm2_5":28.1,"mosquito_risk":7,"arthritis_risk":5,"migraine_risk":4,"frizz_risk":1,"updated_at":"2026-03-08T18:25:54.174481+05:30"},{"city":"Patna","state":"Bihar","latitude":25.5941,"longitude":85.1376,"temp":28.6,"humidity":58,"rain":0.0,"pressure":1003.4,"uv_index":7.35,"wind_gusts":18.0,"aqi":173,"pm10":95.5,"pm2_5":86.1,"mosquito_risk":4,"arthritis_risk":5,"migraine_risk":4,"frizz_risk":1,"updated_at":"2026-03-08T18:25:54.174489+05:30"},{"city":"Gaya","state":"Bihar","latitude":24.7914,"longitude":85.0002,"temp":26.8,"humidity":72,"rain":0.0,"pressure":996.6,"uv_index":7.45,"wind_gusts":17.6,"aqi":160,"pm10":82.2,"pm2_5":73.6,"mosquito_risk":7,"arthritis_risk":5,"migraine_risk":7,"frizz_risk":1,"updated_at":"2026-03-08T18:25:54.174497+05:30"},{"city":"Muzaffarpur","state":"Bihar","latitude":26.1209,"longitude":85.3647,"temp":27.0,"humidity":62,"rain":0.0,"pressure":1003.7,"uv_index":7.3,"wind_gusts":19.1,"aqi":176,"pm10":94.8,"pm2_5":85.9,"mosquito_risk":7,"arthritis_risk":5,"migraine_risk":4,"frizz_risk":1,"updated_at":"2026-03-08T18:25:54.174503+05:30"},{"city":"Bhagalpur","state":"Bihar","latitude":25.2425,"longitude":87.0117,"temp":26.9,"humidity":70,"rain":0.0,"pressure":1004.5,"uv_index":7.35,"wind_gusts":15.8,"aqi":163,"pm10":95.7,"pm2_5":79.6,"mosquito_risk":7,"arthritis_risk":5,"migraine_risk":4,"frizz_risk":1,"updated_at":"2026-03-08T18:25:54.174510+05:30"},{"city":"Ranchi","state":"Jharkhand","latitude":23.3441,"longitude":85.3096,"temp":27.6,"humidity":45,"rain":0.0,"pressure":940.0,"uv_index":8.1,"wind_gusts":23.0,"aqi":161,"pm10":95.9,"pm2_5":74.5,"mosquito_risk":4,"arthritis_risk":5,"migraine_risk":7,"frizz_risk":0,"updated_at":"2026-03-08T18:25:54.174517+05:30"},{"city":"Jamshedpur","state":"Jharkhand","latitude":22.8046,"longitude":86.2029,"temp":30.0,"humidity":54,"rain":0.0,"pressure":992.9,"uv_index":8.0,"wind_gusts":20.9,"aqi":156,"pm10":104.1,"pm2_5":85.0,"mosquito_risk":4,"arthritis_risk":5,"migraine_risk":7,"frizz_risk":1,"updated_at":"2026-03-08T18:25:54.174524+05:30"},{"city":"Dhanbad","state":"Jharkhand","latitude":23.7957,"longitude":86.4304,"temp":29.8,"humidity":43,"rain":0.0,"pressure":982.5,"uv_index":7.85,"wind_gusts":22.7,"aqi":167,"pm10":112.5,"pm2_5":98.0,"mosquito_risk":4,"arthritis_risk":5,"migraine_risk":7,"frizz_risk":0,"updated_at":"2026-03-08T18:25:54.174530+05:30"},{"city":"Bokaro","state":"Jharkhand","latitude":23.6693,"longitude":86.1511,"temp":28.8,"humidity":48,"rain":0.0,"pressure":986.4,"uv_index":7.85,"wind_gusts":17.6,"aqi":169,"pm10":111.3,"pm2_5":95.2,"mosquito_risk":4,"arthritis_risk":5,"migraine_risk":7,"frizz_risk":1,"updated_at":"2026-03-08T18:25:54.174537+05:30"},{"city":"Bhubaneswar","state":"Odisha","latitude":20.2961,"longitude":85.8245,"temp":27.5,"humidity":67,"rain":0.0,"pressure":1005.4,"uv_index":8.25,"wind_gusts":32.4,"aqi":125,"pm10":43.3,"pm2_5":34.9,"mosquito_risk":7,"arthritis_risk":5,"migraine_risk":4,"frizz_risk":1,"updated_at":"2026-03-08T18:25:54.174543+05:30"},{"city":"Cuttack","state":"Odisha","latitude":20.4625,"longitude":85.8828,"temp":29.6,"humidity":58,"rain":0.0,"pressure":1006.8,"uv_index":8.3,"wind_gusts":27.7,"aqi":125,"pm10":43.3,"pm2_5":34.9,"mosquito_risk":4,"arthritis_risk":5,"migraine_risk":4,"frizz_risk":1,"updated_at":"2026-03-08T18:25:54.174549+05:30"},{"city":"Rourkela","state":"Odisha","latitude":22.2604,"longitude":84.8536,"temp":31.9,"humidity":37,"rain":0.0,"pressure":986.3,"uv_index":7.9,"wind_gusts":22.7,"aqi":165,"pm10":108.5,"pm2_5":81.5,"mosquito_risk":0,"arthritis_risk":5,"migraine_risk":7,"frizz_risk":0,"updated_at":"2026-03-08T18:25:54.174557+05:30"},{"city":"Raipur","state":"Chhattisgarh","latitude":21.2514,"longitude":81.6296,"temp":32.5,"humidity":29,"rain":0.0,"pressure":975.7,"uv_index":8.0,"wind_gusts":23.4,"aqi":173,"pm10":66.8,"pm2_5":54.1,"mosquito_risk":0,"arthritis_risk":5,"migraine_risk":7,"frizz_risk":0,"updated_at":"2026-03-08T18:25:54.174564+05:30"},{"city":"Bhilai","state":"Chhattisgarh","latitude":21.1938,"longitude":81.3509,"temp":32.3,"humidity":33,"rain":0.0,"pressure":975.9,"uv_index":8.0,"wind_gusts":23.4,"aqi":158,"pm10":58.4,"pm2_5":46.7,"mosquito_risk":0,"arthritis_risk":5,"migraine_risk":7,"frizz_risk":0,"updated_at":"2026-03-08T18:25:54.174570+05:30"},{"city":"Guwahati","state":"Assam","latitude":26.1158,"longitude":91.7086,"temp":26.4,"humidity":67,"rain":0.0,"pressure":1004.3,"uv_index":7.3,"wind_gusts":22.7,"aqi":153,"pm10":68.5,"pm2_5":57.7,"mosquito_risk":7,"arthritis_risk":5,"migraine_risk":4,"frizz_risk":1,"updated_at":"2026-03-08T18:25:54.174577+05:30"},{"city":"Agartala","state":"Tripura","latitude":23.8315,"longitude":91.2868,"temp":25.9,"humidity":69,"rain":0.0,"pressure":1009.4,"uv_index":7.6,"wind_gusts":18.7,"aqi":153,"pm10":65.0,"pm2_5":55.9,"mosquito_risk":7,"arthritis_risk":0,"migraine_risk":4,"frizz_risk":1,"updated_at":"2026-03-08T18:25:54.174583+05:30"},{"city":"Shillong","state":"Meghalaya","latitude":25.5788,"longitude":91.8933,"temp":14.1,"humidity":89,"rain":0.1,"pressure":858.4,"uv_index":7.35,"wind_gusts":26.6,"aqi":127,"pm10":46.2,"pm2_5":38.2,"mosquito_risk":6,"arthritis_risk":10,"migraine_risk":7,"frizz_risk":0,"updated_at":"2026-03-08T18:25:54.174590+05:30"},{"city":"Imphal","state":"Manipur","latitude":24.817,"longitude":93.9368,"temp":19.8,"humidity":76,"rain":0.0,"pressure":925.8,"uv_index":7.9,"wind_gusts":32.0,"aqi":159,"pm10":64.3,"pm2_5":57.6,"mosquito_risk":3,"arthritis_risk":5,"migraine_risk":7,"frizz_risk":0,"updated_at":"2026-03-08T18:25:54.174597+05:30"},{"city":"Aizawl","state":"Mizoram","latitude":23.7271,"longitude":92.7176,"temp":19.8,"humidity":74,"rain":0.0,"pressure":895.2,"uv_index":7.85,"wind_gusts":31.0,"aqi":152,"pm10":64.0,"pm2_5":57.4,"mosquito_risk":3,"arthritis_risk":5,"migraine_risk":7,"frizz_risk":0,"updated_at":"2026-03-08T18:25:54.174603+05:30"},{"city":"Kohima","state":"Nagaland","latitude":25.6701,"longitude":94.1077,"temp":15.4,"humidity":89,"rain":0.0,"pressure":857.1,"uv_index":7.0,"wind_gusts":51.8,"aqi":161,"pm10":95.2,"pm2_5":86.1,"mosquito_risk":3,"arthritis_risk":10,"migraine_risk":7,"frizz_risk":0,"updated_at":"2026-03-08T18:25:54.174610+05:30"},{"city":"Gangtok","state":"Sikkim","latitude":27.3314,"longitude":88.6138,"temp":15.1,"humidity":85,"rain":0.0,"pressure":840.3,"uv_index":5.1,"wind_gusts":16.2,"aqi":156,"pm10":59.3,"pm2_5":43.9,"mosquito_risk":3,"arthritis_risk":10,"migraine_risk":3,"frizz_risk":0,"updated_at":"2026-03-08T18:25:54.174616+05:30"},{"city":"Siliguri","state":"West Bengal","latitude":26.7271,"longitude":88.3953,"temp":22.3,"humidity":67,"rain":0.0,"pressure":997.9,"uv_index":7.3,"wind_gusts":15.8,"aqi":156,"pm10":74.7,"pm2_5":55.9,"mosquito_risk":3,"arthritis_risk":5,"migraine_risk":7,"frizz_risk":0,"updated_at":"2026-03-08T18:25:57.393998+05:30"},{"city":"Durgapur","state":"West Bengal","latitude":23.5204,"longitude":87.3119,"temp":29.2,"humidity":49,"rain":0.0,"pressure":997.9,"uv_index":7.85,"wind_gusts":20.9,"aqi":160,"pm10":104.8,"pm2_5":89.6,"mosquito_risk":4,"arthritis_risk":5,"migraine_risk":7,"frizz_risk":1,"updated_at":"2026-03-08T18:25:57.394052+05:30"},{"city":"Asansol","state":"West Bengal","latitude":23.6739,"longitude":86.9524,"temp":29.5,"humidity":48,"rain":0.0,"pressure":996.3,"uv_index":7.85,"wind_gusts":19.8,"aqi":160,"pm10":104.3,"pm2_5":89.6,"mosquito_risk":4,"arthritis_risk":5,"migraine_risk":7,"frizz_risk":1,"updated_at":"2026-03-08T18:25:57.394066+05:30"},{"city":"Pondicherry","state":"Puducherry","latitude":11.9139,"longitude":79.8145,"temp":28.2,"humidity":69,"rain":0.0,"pressure":1008.9,"uv_index":8.95,"wind_gusts":32.4,"aqi":74,"pm10":27.4,"pm2_5":17.1,"mosquito_risk":7,"arthritis_risk":0,"migraine_risk":4,"frizz_risk":1,"updated_at":"2026-03-08T18:25:57.394076+05:30"},{"city":"Port Blair","state":"Andaman and Nicobar Islands","latitude":11.6234,"longitude":92.7265,"temp":27.6,"humidity":76,"rain":0.0,"pressure":1008.7,"uv_index":8.9,"wind_gusts":25.2,"aqi":87,"pm10":37.4,"pm2_5":28.5,"mosquito_risk":7,"arthritis_risk":0,"migraine_risk":4,"frizz_risk":1,"updated_at":"2026-03-08T18:25:57.394085+05:30"},{"city":"Haridwar","state":"Uttarakhand","latitude":29.9457,"longitude":78.1642,"temp":29.0,"humidity":47,"rain":0.0,"pressure":976.5,"uv_index":5.75,"wind_gusts":26.6,"aqi":172,"pm10":80.3,"pm2_5":55.5,"mosquito_risk":4,"arthritis_risk":5,"migraine_risk":3,"frizz_risk":1,"updated_at":"2026-03-08T18:25:57.394094+05:30"},{"city":"Rishikesh","state":"Uttarakhand","latitude":30.0869,"longitude":78.2676,"temp":27.7,"humidity":59,"rain":0.0,"pressure":969.4,"uv_index":5.8,"wind_gusts":22.3,"aqi":157,"pm10":68.9,"pm2_5":51.9,"mosquito_risk":4,"arthritis_risk":5,"migraine_risk":3,"frizz_risk":1,"updated_at":"2026-03-08T18:25:57.394103+05:30"},{"city":"Nainital","state":"Uttarakhand","latitude":29.3919,"longitude":79.4542,"temp":20.1,"humidity":66,"rain":0.0,"pressure":809.0,"uv_index":6.65,"wind_gusts":63.0,"aqi":172,"pm10":94.8,"pm2_5":67.5,"mosquito_risk":3,"arthritis_risk":5,"migraine_risk":7,"frizz_risk":0,"updated_at":"2026-03-08T18:25:57.394112+05:30"},{"city":"Mussoorie","state":"Uttarakhand","latitude":30.4599,"longitude":78.0664,"temp":19.2,"humidity":77,"rain":0.0,"pressure":805.8,"uv_index":6.15,"wind_gusts":48.6,"aqi":163,"pm10":71.2,"pm2_5":55.3,"mosquito_risk":3,"arthritis_risk":5,"migraine_risk":7,"frizz_risk":0,"updated_at":"2026-03-08T18:25:57.394121+05:30"},{"city":"Dharamshala","state":"Himachal Pradesh","latitude":32.219,"longitude":76.3234,"temp":23.3,"humidity":55,"rain":0.0,"pressure":873.1,"uv_index":6.4,"wind_gusts":24.8,"aqi":61,"pm10":32.5,"pm2_5":12.8,"mosquito_risk":0,"arthritis_risk":5,"migraine_risk":7,"frizz_risk":0,"updated_at":"2026-03-08T18:25:57.394129+05:30"},{"city":"Dalhousie","state":"Himachal Pradesh","latitude":32.5387,"longitude":75.971,"temp":21.6,"humidity":44,"rain":0.0,"pressure":808.2,"uv_index":6.65,"wind_gusts":23.4,"aqi":100,"pm10":33.3,"pm2_5":16.7,"mosquito_risk":0,"arthritis_risk":5,"migraine_risk":7,"frizz_risk":0,"updated_at":"2026-03-08T18:25:57.394139+05:30"},{"city":"Patiala","state":"Punjab","latitude":30.3398,"longitude":76.3869,"temp":27.6,"humidity":61,"rain":0.0,"pressure":980.7,"uv_index":5.65,"wind_gusts":26.3,"aqi":168,"pm10":359.5,"pm2_5":72.4,"mosquito_risk":7,"arthritis_risk":5,"migraine_risk":3,"frizz_risk":1,"updated_at":"2026-03-08T18:25:57.394147+05:30"},{"city":"Bhatinda","state":"Punjab","latitude":30.211,"longitude":74.9455,"temp":29.9,"humidity":49,"rain":0.0,"pressure":986.4,"uv_index":6.5,"wind_gusts":16.9,"aqi":150,"pm10":80.6,"pm2_5":38.6,"mosquito_risk":4,"arthritis_risk":5,"migraine_risk":7,"frizz_risk":1,"updated_at":"2026-03-08T18:25:57.394156+05:30"},{"city":"Rohtak","state":"Haryana","latitude":28.8955,"longitude":76.6066,"temp":28.4,"humidity":49,"rain":0.0,"pressure":984.2,"uv_index":6.0,"wind_gusts":20.9,"aqi":169,"pm10":383.7,"pm2_5":54.2,"mosquito_risk":4,"arthritis_risk":5,"migraine_risk":3,"frizz_risk":1,"updated_at":"2026-03-08T18:25:57.394164+05:30"},{"city":"Panipat","state":"Haryana","latitude":29.3909,"longitude":76.9635,"temp":28.4,"humidity":53,"rain":0.0,"pressure":982.7,"uv_index":5.8,"wind_gusts":26.3,"aqi":170,"pm10":827.0,"pm2_5":94.3,"mosquito_risk":4,"arthritis_risk":5,"migraine_risk":3,"frizz_risk":1,"updated_at":"2026-03-08T18:25:57.394173+05:30"},{"city":"Mathura","state":"Uttar Pradesh","latitude":27.4924,"longitude":77.6737,"temp":30.5,"humidity":41,"rain":0.0,"pressure":988.9,"uv_index":6.3,"wind_gusts":22.7,"aqi":158,"pm10":294.3,"pm2_5":48.9,"mosquito_risk":0,"arthritis_risk":5,"migraine_risk":7,"frizz_risk":0,"updated_at":"2026-03-08T18:25:57.394181+05:30"},{"city":"Vrindavan","state":"Uttar Pradesh","latitude":27.5823,"longitude":77.7027,"temp":30.5,"humidity":41,"rain":0.0,"pressure":989.4,"uv_index":6.25,"wind_gusts":23.8,"aqi":158,"pm10":294.3,"pm2_5":48.9,"mosquito_risk":0,"arthritis_risk":5,"migraine_risk":7,"frizz_risk":0,"updated_at":"2026-03-08T18:25:57.394189+05:30"},{"city":"Ayodhya","state":"Uttar Pradesh","latitude":26.7922,"longitude":82.1998,"temp":29.0,"humidity":56,"rain":0.0,"pressure":998.2,"uv_index":6.65,"wind_gusts":11.2,"aqi":185,"pm10":102.7,"pm2_5":82.7,"mosquito_risk":4,"arthritis_risk":5,"migraine_risk":7,"frizz_risk":1,"updated_at":"2026-03-08T18:25:57.394198+05:30"},{"city":"Ratlam","state":"Madhya Pradesh","latitude":23.3315,"longitude":75.0367,"temp":31.4,"humidity":33,"rain":0.0,"pressure":956.7,"uv_index":7.5,"wind_gusts":21.6,"aqi":108,"pm10":12.1,"pm2_5":11.8,"mosquito_risk":0,"arthritis_risk":5,"migraine_risk":7,"frizz_risk":0,"updated_at":"2026-03-08T18:25:57.394206+05:30"},{"city":"Sagar","state":"Madhya Pradesh","latitude":23.8388,"longitude":78.7378,"temp":30.5,"humidity":37,"rain":0.0,"pressure":952.6,"uv_index":7.45,"wind_gusts":21.6,"aqi":104,"pm10":28.3,"pm2_5":13.2,"mosquito_risk":0,"arthritis_risk":5,"migraine_risk":7,"frizz_risk":0,"updated_at":"2026-03-08T18:25:57.394214+05:30"},{"city":"Satna","state":"Madhya Pradesh","latitude":24.6005,"longitude":80.8322,"temp":30.1,"humidity":34,"rain":0.0,"pressure":974.0,"uv_index":7.4,"wind_gusts":25.2,"aqi":159,"pm10":61.9,"pm2_5":38.9,"mosquito_risk":0,"arthritis_risk":5,"migraine_risk":7,"frizz_risk":0,"updated_at":"2026-03-08T18:25:57.394223+05:30"},{"city":"Akola","state":"Maharashtra","latitude":20.7002,"longitude":77.0082,"temp":35.3,"humidity":26,"rain":0.0,"pressure":975.2,"uv_index":7.95,"wind_gusts":16.2,"aqi":123,"pm10":22.9,"pm2_5":15.1,"mosquito_risk":0,"arthritis_risk":5,"migraine_risk":10,"frizz_risk":0,"updated_at":"2026-03-08T18:25:57.394231+05:30"},{"city":"Amravati","state":"Maharashtra","latitude":20.9374,"longitude":77.7796,"temp":33.6,"humidity":27,"rain":0.0,"pressure":967.5,"uv_index":7.9,"wind_gusts":20.5,"aqi":111,"pm10":20.8,"pm2_5":13.2,"mosquito_risk":0,"arthritis_risk":5,"migraine_risk":7,"frizz_risk":0,"updated_at":"2026-03-08T18:25:57.394239+05:30"},{"city":"Latur","state":"Maharashtra","latitude":18.4088,"longitude":76.5604,"temp":32.0,"humidity":26,"rain":0.0,"pressure":940.1,"uv_index":8.4,"wind_gusts":24.1,"aqi":154,"pm10":25.7,"pm2_5":19.6,"mosquito_risk":0,"arthritis_risk":5,"migraine_risk":7,"frizz_risk":0,"updated_at":"2026-03-08T18:25:57.394246+05:30"},{"city":"Nanded","state":"Maharashtra","latitude":19.1383,"longitude":77.3091,"temp":33.3,"humidity":28,"rain":0.0,"pressure":968.6,"uv_index":8.15,"wind_gusts":25.2,"aqi":138,"pm10":27.0,"pm2_5":17.8,"mosquito_risk":0,"arthritis_risk":5,"migraine_risk":7,"frizz_risk":0,"updated_at":"2026-03-08T18:25:57.394252+05:30"},{"city":"Gulbarga","state":"Karnataka","latitude":17.3297,"longitude":76.8343,"temp":35.3,"humidity":18,"rain":0.0,"pressure":958.3,"uv_index":8.45,"wind_gusts":28.4,"aqi":161,"pm10":25.9,"pm2_5":18.6,"mosquito_risk":0,"arthritis_risk":5,"migraine_risk":10,"frizz_risk":0,"updated_at":"2026-03-08T18:25:57.394259+05:30"},{"city":"Bidar","state":"Karnataka","latitude":17.9104,"longitude":77.5199,"temp":32.3,"humidity":20,"rain":0.0,"pressure":936.1,"uv_index":8.4,"wind_gusts":29.5,"aqi":149,"pm10":30.3,"pm2_5":21.2,"mosquito_risk":0,"arthritis_risk":5,"migraine_risk":7,"frizz_risk":0,"updated_at":"2026-03-08T18:25:57.394266+05:30"},{"city":"Hospet","state":"Karnataka","latitude":15.2689,"longitude":76.3909,"temp":34.4,"humidity":25,"rain":0.0,"pressure":955.2,"uv_index":8.75,"wind_gusts":25.6,"aqi":174,"pm10":36.1,"pm2_5":27.8,"mosquito_risk":0,"arthritis_risk":5,"migraine_risk":7,"frizz_risk":0,"updated_at":"2026-03-08T18:25:57.394272+05:30"},{"city":"Tirupur","state":"Tamil Nadu","latitude":11.1085,"longitude":77.3411,"temp":34.0,"humidity":26,"rain":0.0,"pressure":974.1,"uv_index":9.2,"wind_gusts":29.2,"aqi":143,"pm10":41.0,"pm2_5":33.3,"mosquito_risk":0,"arthritis_risk":5,"migraine_risk":7,"frizz_risk":0,"updated_at":"2026-03-08T18:25:57.394279+05:30"},{"city":"Alappuzha","state":"Kerala","latitude":9.4981,"longitude":76.3388,"temp":28.8,"humidity":80,"rain":0.0,"pressure":1007.7,"uv_index":9.0,"wind_gusts":32.0,"aqi":158,"pm10":32.8,"pm2_5":30.9,"mosquito_risk":7,"arthritis_risk":5,"migraine_risk":4,"frizz_risk":1,"updated_at":"2026-03-08T18:25:57.394286+05:30"},{"city":"Munnar","state":"Kerala","latitude":10.0889,"longitude":77.0595,"temp":24.4,"humidity":70,"rain":0.0,"pressure":857.4,"uv_index":9.5,"wind_gusts":21.2,"aqi":113,"pm10":39.3,"pm2_5":32.1,"mosquito_risk":3,"arthritis_risk":5,"migraine_risk":7,"frizz_risk":1,"updated_at":"2026-03-08T18:25:57.394293+05:30"},{"city":"Silchar","state":"Assam","latitude":24.8333,"longitude":92.7789,"temp":26.7,"humidity":67,"rain":0.0,"pressure":1007.6,"uv_index":7.6,"wind_gusts":19.4,"aqi":163,"pm10":67.3,"pm2_5":60.5,"mosquito_risk":7,"arthritis_risk":5,"migraine_risk":4,"frizz_risk":1,"updated_at":"2026-03-08T18:25:57.394300+05:30"},{"city":"Dibrugarh","state":"Assam","latitude":27.4728,"longitude":94.912,"temp":26.1,"humidity":67,"rain":0.0,"pressure":998.5,"uv_index":6.15,"wind_gusts":24.8,"aqi":160,"pm10":73.6,"pm2_5":61.9,"mosquito_risk":7,"arthritis_risk":5,"migraine_risk":7,"frizz_risk":1,"updated_at":"2026-03-08T18:25:57.394307+05:30"}]