[{"city":"Delhi","state":"Delhi","latitude":28.6139,"longitude":77.209,"temp":21.6,"humidity":57,"rain":0.0,"pressure":985.3,"uv_index":5.7,"wind_gusts":31.7,"aqi":157,"pm10":403.3,"pm2_5":86.4,"mosquito_risk":0,"arthritis_risk":5,"migraine_risk":3,"frizz_risk":0,"updated_at":"2026-03-01T20:57:51.655483+05:30"},{"city":"Mumbai","state":"Maharashtra","latitude":19.076,"longitude":72.8777,"temp":26.3,"humidity":71,"rain":0.0,"pressure":1010.4,"uv_index":7.25,"wind_gusts":24.1,"aqi":89,"pm10":50.3,"pm2_5":27.1,"mosquito_risk":7,"arthritis_risk":0,"migraine_risk":4,"frizz_risk":1,"updated_at":"2026-03-01T20:57:51.655524+05:30"},{"city":"Bangalore","state":"Karnataka","latitude":12.9716,"longitude":77.5946,"temp":25.4,"humidity":49,"rain":0.0,"pressure":912.4,"uv_index":9.05,"wind_gusts":22.7,"aqi":152,"pm10":53.8,"pm2_5":53.1,"mosquito_risk":4,"arthritis_risk":5,"migraine_risk":7,"frizz_risk":0,"updated_at":"2026-03-01T20:57:51.655540+05:30"},{"city":"Hyderabad","state":"Telangana","latitude":17.385,"longitude":78.4867,"temp":27.0,"humidity":57,"rain":0.0,"pressure":954.5,"uv_index":8.3,"wind_gusts":27.4,"aqi":126,"pm10":74.0,"pm2_5":73.6,"mosquito_risk":4,"arthritis_risk":5,"migraine_risk":7,"frizz_risk":1,"updated_at":"2026-03-01T20:57:51.655550+05:30"},{"city":"Chennai","state":"Tamil Nadu","latitude":13.0827,"longitude":80.2707,"temp":26.3,"humidity":74,"rain":0.0,"pressure":1009.7,"uv_index":8.75,"wind_gusts":33.1,"aqi":137,"pm10":45.1,"pm2_5":41.3,"mosquito_risk":7,"arthritis_risk":0,"migraine_risk":4,"frizz_risk":1,"updated_at":"2026-03-01T20:57:51.655558+05:30"},{"city":"Kolkata","state":"West Bengal","latitude":22.5726,"longitude":88.3639,"temp":24.5,"humidity":79,"rain":0.0,"pressure":1007.1,"uv_index":7.6,"wind_gusts":25.2,"aqi":97,"pm10":48.4,"pm2_5":46.8,"mosquito_risk":3,"arthritis_risk":5,"migraine_risk":4,"frizz_risk":1,"updated_at":"2026-03-01T20:57:51.655567+05:30"},{"city":"Pune","state":"Maharashtra","latitude":18.5204,"longitude":73.8567,"temp":24.3,"humidity":68,"rain":0.0,"pressure":949.4,"uv_index":7.8,"wind_gusts":34.2,"aqi":161,"pm10":34.7,"pm2_5":31.2,"mosquito_risk":3,"arthritis_risk":5,"migraine_risk":7,"frizz_risk":1,"updated_at":"2026-03-01T20:57:51.655578+05:30"},{"city":"Ahmedabad","state":"Gujarat","latitude":23.0225,"longitude":72.5714,"temp":27.4,"humidity":48,"rain":0.0,"pressure":1003.7,"uv_index":7.05,"wind_gusts":21.2,"aqi":95,"pm10":48.9,"pm2_5":36.1,"mosquito_risk":4,"arthritis_risk":5,"migraine_risk":4,"frizz_risk":0,"updated_at":"2026-03-01T20:57:51.655586+05:30"},{"city":"Jaipur","state":"Rajasthan","latitude":26.9124,"longitude":75.7873,"temp":24.8,"humidity":29,"rain":0.0,"pressure":962.0,"uv_index":6.45,"wind_gusts":25.2,"aqi":87,"pm10":75.2,"pm2_5":36.2,"mosquito_risk":0,"arthritis_risk":5,"migraine_risk":7,"frizz_risk":0,"updated_at":"2026-03-01T20:57:51.655594+05:30"},{"city":"Lucknow","state":"Uttar Pradesh","latitude":26.8467,"longitude":80.9462,"temp":21.9,"humidity":41,"rain":0.0,"pressure":995.1,"uv_index":6.2,"wind_gusts":38.5,"aqi":126,"pm10":148.1,"pm2_5":44.0,"mosquito_risk":0,"arthritis_risk":5,"migraine_risk":7,"frizz_risk":0,"updated_at":"2026-03-01T20:57:51.655602+05:30"},{"city":"Kanpur","state":"Uttar Pradesh","latitude":26.4499,"longitude":80.3319,"temp":19.6,"humidity":50,"rain":0.0,"pressure":993.8,"uv_index":6.2,"wind_gusts":31.3,"aqi":152,"pm10":248.7,"pm2_5":52.2,"mosquito_risk":0,"arthritis_risk":5,"migraine_risk":7,"frizz_risk":0,"updated_at":"2026-03-01T20:57:51.655611+05:30"},{"city":"Chandigarh","state":"Chandigarh","latitude":30.7333,"longitude":76.7794,"temp":17.5,"humidity":58,"rain":0.0,"pressure":970.7,"uv_index":5.6,"wind_gusts":31.0,"aqi":100,"pm10":39.9,"pm2_5":35.4,"mosquito_risk":0,"arthritis_risk":5,"migraine_risk":3,"frizz_risk":0,"updated_at":"2026-03-01T20:57:51.655618+05:30"},{"city":"Srinagar","state":"Jammu and Kashmir","latitude":34.0837,"longitude":74.7973,"temp":8.2,"humidity":61,"rain":0.0,"pressure":838.6,"uv_index":6.45,"wind_gusts":15.1,"aqi":149,"pm10":77.8,"pm2_5":67.5,"mosquito_risk":3,"arthritis_risk":5,"migraine_risk":7,"frizz_risk":0,"updated_at":"2026-03-01T20:57:51.655625+05:30"},{"city":"Jammu","state":"Jammu and Kashmir","latitude":32.7266,"longitude":74.857,"temp":20.6,"humidity":58,"rain":0.0,"pressure":974.8,"uv_index":6.15,"wind_gusts":25.2,"aqi":99,"pm10":57.0,"pm2_5":48.0,"mosquito_risk":0,"arthritis_risk":5,"migraine_risk":7,"frizz_risk":0,"updated_at":"2026-03-01T20:57:51.655633+05:30"},{"city":"Amritsar","state":"Punjab","latitude":31.634,"longitude":74.8723,"temp":19.6,"humidity":63,"rain":0.0,"pressure":983.3,"uv_index":6.1,"wind_gusts":20.5,"aqi":128,"pm10":62.4,"pm2_5":44.8,"mosquito_risk":3,"arthritis_risk":5,"migraine_risk":7,"frizz_risk":0,"updated_at":"2026-03-01T20:57:51.655639+05:30"},{"city":"Ludhiana","state":"Punjab","latitude":30.901,"longitude":75.8573,"temp":20.4,"humidity":53,"rain":0.0,"pressure":981.5,"uv_index":5.8,"wind_gusts":25.9,"aqi":154,"pm10":88.7,"pm2_5":62.9,"mosquito_risk":0,"arthritis_risk":5,"migraine_risk":3,"frizz_risk":0,"updated_at":"2026-03-01T20:57:51.655646+05:30"},{"city":"Jalandhar","state":"Punjab","latitude":31.326,"longitude":75.5762,"temp":20.2,"humidity":56,"rain":0.0,"pressure":982.5,"uv_index":5.95,"wind_gusts":23.0,"aqi":156,"pm10":81.0,"pm2_5":64.3,"mosquito_risk":0,"arthritis_risk":5,"migraine_risk":3,"frizz_risk":0,"updated_at":"2026-03-01T20:57:51.655656+05:30"},{"city":"Dehradun","state":"Uttarakhand","latitude":30.6284,"longitude":78.0322,"temp":10.6,"humidity":65,"rain":0.0,"pressure":827.6,"uv_index":5.95,"wind_gusts":32.4,"aqi":93,"pm10":26.8,"pm2_5":21.7,"mosquito_risk":3,"arthritis_risk":5,"migraine_risk":3,"frizz_risk":0,"updated_at":"2026-03-01T20:57:51.655663+05:30"},{"city":"Shimla","state":"Himachal Pradesh","latitude":31.1048,"longitude":77.1734,"temp":9.2,"humidity":55,"rain":0.0,"pressure":782.2,"uv_index":6.0,"wind_gusts":50.4,"aqi":92,"pm10":27.3,"pm2_5":20.5,"mosquito_risk":0,"arthritis_risk":5,"migraine_risk":3,"frizz_risk":0,"updated_at":"2026-03-01T20:57:51.655670+05:30"},{"city":"Manali","state":"Himachal Pradesh","latitude":32.2396,"longitude":77.1887,"temp":11.6,"humidity":86,"rain":0.0,"pressure":818.1,"uv_index":7.6,"wind_gusts":34.9,"aqi":96,"pm10":22.4,"pm2_5":15.1,"mosquito_risk":3,"arthritis_risk":10,"migraine_risk":7,"frizz_risk":0,"updated_at":"2026-03-01T20:57:51.655677+05:30"},{"city":"Gurgaon","state":"Haryana","latitude":28.4595,"longitude":77.0266,"temp":19.1,"humidity":64,"rain":0.0,"pressure":983.6,"uv_index":5.8,"wind_gusts":31.0,"aqi":534,"pm10":633.3,"pm2_5":111.8,"mosquito_risk":3,"arthritis_risk":5,"migraine_risk":3,"frizz_risk":0,"updated_at":"2026-03-01T20:57:51.655684+05:30"},{"city":"Noida","state":"Uttar Pradesh","latitude":28.5355,"longitude":77.391,"temp":21.8,"humidity":55,"rain":0.0,"pressure":986.8,"uv_index":5.75,"wind_gusts":31.3,"aqi":534,"pm10":633.3,"pm2_5":111.8,"mosquito_risk":0,"arthritis_risk":5,"migraine_risk":3,"frizz_risk":0,"updated_at":"2026-03-01T20:57:51.655691+05:30"},{"city":"Ghaziabad","state":"Uttar Pradesh","latitude":28.6692,"longitude":77.4538,"temp":21.1,"humidity":59,"rain":0.0,"pressure":984.8,"uv_index":5.7,"wind_gusts":28.1,"aqi":153,"pm10":353.0,"pm2_5":76.8,"mosquito_risk":0,"arthritis_risk":5,"migraine_risk":3,"frizz_risk":0,"updated_at":"2026-03-01T20:57:51.655697+05:30"},{"city":"Faridabad","state":"Haryana","latitude":28.4089,"longitude":77.3178,"temp":20.8,"humidity":54,"rain":0.0,"pressure":986.0,"uv_index":5.75,"wind_gusts":28.8,"aqi":534,"pm10":633.3,"pm2_5":111.8,"mosquito_risk":0,"arthritis_risk":5,"migraine_risk":3,"frizz_risk":0,"updated_at":"2026-03-01T20:57:51.655704+05:30"},{"city":"Meerut","state":"Uttar Pradesh","latitude":28.9845,"longitude":77.7064,"temp":18.5,"humidity":62,"rain":0.0,"pressure":983.4,"uv_index":5.6,"wind_gusts":31.7,"aqi":153,"pm10":353.0,"pm2_5":76.8,"mosquito_risk":3,"arthritis_risk":5,"migraine_risk":3,"frizz_risk":0,"updated_at":"2026-03-01T20:57:51.655711+05:30"},{"city":"Agra","state":"Uttar Pradesh","latitude":27.1767,"longitude":78.0081,"temp":20.5,"humidity":52,"rain":0.0,"pressure":990.0,"uv_index":6.05,"wind_gusts":27.4,"aqi":198,"pm10":463.8,"pm2_5":73.1,"mosquito_risk":0,"arthritis_risk":5,"migraine_risk":7,"frizz_risk":0,"updated_at":"2026-03-01T20:57:51.655717+05:30"},{"city":"Varanasi","state":"Uttar Pradesh","latitude":25.3176,"longitude":82.9739,"temp":20.7,"humidity":64,"rain":0.0,"pressure":999.2,"uv_index":6.85,"wind_gusts":26.6,"aqi":139,"pm10":58.6,"pm2_5":39.9,"mosquito_risk":3,"arthritis_risk":5,"migraine_risk":7,"frizz_risk":0,"updated_at":"2026-03-01T20:57:51.655727+05:30"},{"city":"Prayagraj","state":"Uttar Pradesh","latitude":25.4358,"longitude":81.8463,"temp":21.2,"humidity":55,"rain":0.0,"pressure":997.8,"uv_index":6.7,"wind_gusts":28.1,"aqi":138,"pm10":59.5,"pm2_5":30.9,"mosquito_risk":0,"arthritis_risk":5,"migraine_risk":7,"frizz_risk":0,"updated_at":"2026-03-01T20:57:51.655734+05:30"},{"city":"Gorakhpur","state":"Uttar Pradesh","latitude":26.7606,"longitude":83.3732,"temp":19.9,"humidity":54,"rain":0.0,"pressure":998.1,"uv_index":6.55,"wind_gusts":32.4,"aqi":109,"pm10":36.6,"pm2_5":31.1,"mosquito_risk":0,"arthritis_risk":5,"migraine_risk":7,"frizz_risk":0,"updated_at":"2026-03-01T20:57:51.655743+05:30"},{"city":"Bareilly","state":"Uttar Pradesh","latitude":28.367,"longitude":79.4304,"temp":18.8,"humidity":62,"rain":0.0,"pressure":988.3,"uv_index":5.9,"wind_gusts":35.6,"aqi":128,"pm10":102.7,"pm2_5":42.1,"mosquito_risk":3,"arthritis_risk":5,"migraine_risk":3,"frizz_risk":0,"updated_at":"2026-03-01T20:57:51.655749+05:30"},{"city":"Aligarh","state":"Uttar Pradesh","latitude":27.8974,"longitude":78.088,"temp":19.3,"humidity":54,"rain":0.0,"pressure":987.7,"uv_index":5.8,"wind_gusts":31.3,"aqi":264,"pm10":622.1,"pm2_5":105.5,"mosquito_risk":0,"arthritis_risk":5,"migraine_risk":3,"frizz_risk":0,"updated_at":"2026-03-01T20:57:51.655756+05:30"},{"city":"Moradabad","state":"Uttar Pradesh","latitude":28.8386,"longitude":78.7733,"temp":18.6,"humidity":59,"rain":0.0,"pressure":985.2,"uv_index":5.7,"wind_gusts":33.8,"aqi":128,"pm10":79.4,"pm2_5":36.8,"mosquito_risk":0,"arthritis_risk":5,"migraine_risk":3,"frizz_risk":0,"updated_at":"2026-03-01T20:57:51.655762+05:30"},{"city":"Saharanpur","state":"Uttar Pradesh","latitude":29.9637,"longitude":77.546,"temp":18.1,"humidity":58,"rain":0.0,"pressure":977.0,"uv_index":5.35,"wind_gusts":38.2,"aqi":136,"pm10":84.5,"pm2_5":39.8,"mosquito_risk":0,"arthritis_risk":5,"migraine_risk":3,"frizz_risk":0,"updated_at":"2026-03-01T20:57:51.655767+05:30"},{"city":"Jhansi","state":"Uttar Pradesh","latitude":25.4484,"longitude":78.5685,"temp":21.7,"humidity":57,"rain":0.0,"pressure":980.1,"uv_index":6.65,"wind_gusts":24.5,"aqi":75,"pm10":50.2,"pm2_5":26.5,"mosquito_risk":0,"arthritis_risk":5,"migraine_risk":7,"frizz_risk":0,"updated_at":"2026-03-01T20:57:54.961925+05:30"},{"city":"Surat","state":"Gujarat","latitude":21.1702,"longitude":72.8311,"temp":24.9,"humidity":69,"rain":0.0,"pressure":1008.4,"uv_index":6.95,"wind_gusts":28.4,"aqi":108,"pm10":77.5,"pm2_5":66.1,"mosquito_risk":3,"arthritis_risk":0,"migraine_risk":4,"frizz_risk":1,"updated_at":"2026-03-01T20:57:54.961955+05:30"},{"city":"Vadodara","state":"Gujarat","latitude":22.3072,"longitude":73.1812,"temp":27.0,"humidity":56,"rain":0.0,"pressure":1006.0,"uv_index":7.05,"wind_gusts":11.9,"aqi":126,"pm10":59.8,"pm2_5":51.1,"mosquito_risk":4,"arthritis_risk":5,"migraine_risk":4,"frizz_risk":1,"updated_at":"2026-03-01T20:57:54.961964+05:30"},{"city":"Rajkot","state":"Gujarat","latitude":22.3039,"longitude":70.8022,"temp":26.2,"humidity":38,"rain":0.0,"pressure":996.2,"uv_index":6.9,"wind_gusts":23.4,"aqi":101,"pm10":39.7,"pm2_5":26.7,"mosquito_risk":4,"arthritis_risk":5,"migraine_risk":7,"frizz_risk":0,"updated_at":"2026-03-01T20:57:54.961972+05:30"},{"city":"Thane","state":"Maharashtra","latitude":19.2183,"longitude":72.9781,"temp":24.7,"humidity":75,"rain":0.0,"pressure":1009.8,"uv_index":7.25,"wind_gusts":36.4,"aqi":89,"pm10":50.3,"pm2_5":27.1,"mosquito_risk":3,"arthritis_risk":0,"migraine_risk":4,"frizz_risk":1,"updated_at":"2026-03-01T20:57:54.961979+05:30"},{"city":"Nagpur","state":"Maharashtra","latitude":21.1458,"longitude":79.0882,"temp":26.2,"humidity":51,"rain":0.0,"pressure":974.4,"uv_index":7.65,"wind_gusts":30.6,"aqi":97,"pm10":36.0,"pm2_5":35.3,"mosquito_risk":4,"arthritis_risk":5,"migraine_risk":7,"frizz_risk":0,"updated_at":"2026-03-01T20:57:54.961986+05:30"},{"city":"Nashik","state":"Maharashtra","latitude":19.9975,"longitude":73.7898,"temp":23.7,"humidity":60,"rain":0.0,"pressure":946.5,"uv_index":7.45,"wind_gusts":28.8,"aqi":91,"pm10":25.7,"pm2_5":21.8,"mosquito_risk":0,"arthritis_risk":5,"migraine_risk":7,"frizz_risk":0,"updated_at":"2026-03-01T20:57:54.961993+05:30"},{"city":"Aurangabad","state":"Maharashtra","latitude":19.8762,"longitude":75.3433,"temp":26.8,"humidity":40,"rain":0.0,"pressure":944.9,"uv_index":7.95,"wind_gusts":28.8,"aqi":116,"pm10":32.6,"pm2_5":31.5,"mosquito_risk":4,"arthritis_risk":5,"migraine_risk":7,"frizz_risk":0,"updated_at":"2026-03-01T20:57:54.962000+05:30"},{"city":"Solapur","state":"Maharashtra","latitude":17.6599,"longitude":75.9064,"temp":27.1,"humidity":52,"rain":0.0,"pressure":957.7,"uv_index":8.25,"wind_gusts":19.8,"aqi":146,"pm10":34.8,"pm2_5":34.2,"mosquito_risk":4,"arthritis_risk":5,"migraine_risk":7,"frizz_risk":1,"updated_at":"2026-03-01T20:57:54.962007+05:30"},{"city":"Kolhapur","state":"Maharashtra","latitude":16.705,"longitude":74.2433,"temp":22.5,"humidity":66,"rain":0.0,"pressure":948.7,"uv_index":8.35,"wind_gusts":38.2,"aqi":120,"pm10":32.1,"pm2_5":31.4,"mosquito_risk":3,"arthritis_risk":5,"migraine_risk":7,"frizz_risk":0,"updated_at":"2026-03-01T20:57:54.962013+05:30"},{"city":"Goa","state":"Goa","latitude":15.2993,"longitude":74.124,"temp":26.2,"humidity":70,"rain":0.0,"pressure":1000.0,"uv_index":8.4,"wind_gusts":35.3,"aqi":62,"pm10":26.3,"pm2_5":21.8,"mosquito_risk":7,"arthritis_risk":5,"migraine_risk":4,"frizz_risk":1,"updated_at":"2026-03-01T20:57:54.962037+05:30"},{"city":"Jodhpur","state":"Rajasthan","latitude":26.2389,"longitude":73.0243,"temp":26.1,"humidity":38,"rain":0.0,"pressure":984.8,"uv_index":6.75,"wind_gusts":18.0,"aqi":87,"pm10":46.1,"pm2_5":26.1,"mosquito_risk":4,"arthritis_risk":5,"migraine_risk":7,"frizz_risk":0,"updated_at":"2026-03-01T20:57:54.962045+05:30"},{"city":"Udaipur","state":"Rajasthan","latitude":24.5854,"longitude":73.7125,"temp":24.1,"humidity":51,"rain":0.0,"pressure":948.5,"uv_index":7.35,"wind_gusts":25.2,"aqi":81,"pm10":28.3,"pm2_5":18.3,"mosquito_risk":0,"arthritis_risk":5,"migraine_risk":7,"frizz_risk":0,"updated_at":"2026-03-01T20:57:54.962052+05:30"},{"city":"Kota","state":"Rajasthan","latitude":25.2138,"longitude":75.8648,"temp":25.1,"humidity":48,"rain":0.0,"pressure":980.8,"uv_index":6.8,"wind_gusts":20.2,"aqi":82,"pm10":47.6,"pm2_5":33.1,"mosquito_risk":4,"arthritis_risk":5,"migraine_risk":7,"frizz_risk":0,"updated_at":"2026-03-01T20:57:54.962059+05:30"},{"city":"Bikaner","state":"Rajasthan","latitude":28.0229,"longitude":73.3119,"temp":26.0,"humidity":36,"rain":0.0,"pressure":984.1,"uv_index":6.45,"wind_gusts":16.2,"aqi":72,"pm10":31.5,"pm2_5":19.6,"mosquito_risk":4,"arthritis_risk":5,"migraine_risk":7,"frizz_risk":0,"updated_at":"2026-03-01T20:57:54.962066+05:30"},{"city":"Ajmer","state":"Rajasthan","latitude":26.4499,"longitude":74.6399,"temp":23.3,"humidity":41,"rain":0.0,"pressure":956.4,"uv_index":6.7,"wind_gusts":17.6,"aqi":85,"pm10":49.1,"pm2_5":30.5,"mosquito_risk":0,"arthritis_risk":5,"migraine_risk":7,"frizz_risk":0,"updated_at":"2026-03-01T20:57:54.962072+05:30"},{"city":"Gwalior","state":"Madhya Pradesh","latitude":26.2183,"longitude":78.1828,"temp":23.2,"humidity":52,"rain":0.0,"pressure":985.4,"uv_index":6.35,"wind_gusts":28.8,"aqi":97,"pm10":106.9,"pm2_5":31.3,"mosquito_risk":0,"arthritis_risk":5,"migraine_risk":7,"frizz_risk":0,"updated_at":"2026-03-01T20:57:54.962079+05:30"},{"city":"Indore","state":"Madhya Pradesh","latitude":22.7196,"longitude":75.8577,"temp":22.0,"humidity":60,"rain":0.0,"pressure":949.3,"uv_index":7.35,"wind_gusts":22.3,"aqi":79,"pm10":38.3,"pm2_5":33.8,"mosquito_risk":0,"arthritis_risk":5,"migraine_risk":7,"frizz_risk":0,"updated_at":"2026-03-01T20:57:54.962086+05:30"},{"city":"Bhopal","state":"Madhya Pradesh","latitude":23.2599,"longitude":77.4126,"temp":22.8,"humidity":54,"rain":0.0,"pressure":955.5,"uv_index":7.2,"wind_gusts":25.9,"aqi":83,"pm10":25.3,"pm2_5":22.5,"mosquito_risk":0,"arthritis_risk":5,"migraine_risk":7,"frizz_risk":0,"updated_at":"2026-03-01T20:57:54.962093+05:30"},{"city":"Jabalpur","state":"Madhya Pradesh","latitude":23.1815,"longitude":79.9864,"temp":21.9,"humidity":60,"rain":0.0,"pressure":962.9,"uv_index":7.3,"wind_gusts":39.2,"aqi":75,"pm10":24.7,"pm2_5":23.7,"mosquito_risk":0,"arthritis_risk":5,"migraine_risk":7,"frizz_risk":0,"updated_at":"2026-03-01T20:57:54.962099+05:30"},{"city":"Ujjain","state":"Madhya Pradesh","latitude":23.1765,"longitude":75.7885,"temp":22.5,"humidity":64,"rain":0.0,"pressure":955.4,"uv_index":7.2,"wind_gusts":20.5,"aqi":86,"pm10":47.8,"pm2_5":41.8,"mosquito_risk":3,"arthritis_risk":5,"migraine_risk":7,"frizz_risk":0,"updated_at":"2026-03-01T20:57:54.962106+05:30"},{"city":"Visakhapatnam","state":"Andhra Pradesh","latitude":17.6868,"longitude":83.2185,"temp":26.0,"humidity":75,"rain":0.0,"pressure":1006.2,"uv_index":8.3,"wind_gusts":39.2,"aqi":151,"pm10":50.9,"pm2_5":47.3,"mosquito_risk":7,"arthritis_risk":5,"migraine_risk":4,"frizz_risk":1,"updated_at":"2026-03-01T20:57:54.962113+05:30"},{"city":"Vijayawada","state":"Andhra Pradesh","latitude":16.5062,"longitude":80.648,"temp":26.1,"humidity":67,"rain":0.0,"pressure":1004.6,"uv_index":8.4,"wind_gusts":28.1,"aqi":147,"pm10":40.0,"pm2_5":38.5,"mosquito_risk":7,"arthritis_risk":5,"migraine_risk":4,"frizz_risk":1,"updated_at":"2026-03-01T20:57:54.962120+05:30"},{"city":"Guntur","state":"Andhra Pradesh","latitude":16.3067,"longitude":80.4365,"temp":25.5,"humidity":76,"rain":0.0,"pressure":1006.0,"uv_index":8.4,"wind_gusts":28.4,"aqi":142,"pm10":38.6,"pm2_5":37.4,"mosquito_risk":7,"arthritis_risk":5,"migraine_risk":4,"frizz_risk":1,"updated_at":"2026-03-01T20:57:54.962127+05:30"},{"city":"Nellore","state":"Andhra Pradesh","latitude":14.4426,"longitude":79.9865,"temp":26.2,"humidity":75,"rain":0.0,"pressure":1008.3,"uv_index":8.6,"wind_gusts":31.0,"aqi":136,"pm10":39.0,"pm2_5":36.6,"mosquito_risk":7,"arthritis_risk":0,"migraine_risk":4,"frizz_risk":1,"updated_at":"2026-03-01T20:57:54.962135+05:30"},{"city":"Kurnool","state":"Andhra Pradesh","latitude":15.8281,"longitude":78.0373,"temp":30.2,"humidity":37,"rain":0.0,"pressure":977.5,"uv_index":8.4,"wind_gusts":20.5,"aqi":131,"pm10":36.2,"pm2_5":35.9,"mosquito_risk":0,"arthritis_risk":5,"migraine_risk":7,"frizz_risk":0,"updated_at":"2026-03-01T20:57:54.962142+05:30"},{"city":"Kakinada","state":"Andhra Pradesh","latitude":16.9891,"longitude":82.2475,"temp":24.9,"humidity":80,"rain":0.0,"pressure":1009.9,"uv_index":8.3,"wind_gusts":33.5,"aqi":151,"pm10":45.3,"pm2_5":41.8,"mosquito_risk":3,"arthritis_risk":0,"migraine_risk":4,"frizz_risk":1,"updated_at":"2026-03-01T20:57:54.962149+05:30"},{"city":"Tirupati","state":"Andhra Pradesh","latitude":13.6288,"longitude":79.4192,"temp":26.0,"humidity":57,"rain":0.0,"pressure":994.0,"uv_index":8.7,"wind_gusts":28.4,"aqi":151,"pm10":42.5,"pm2_5":41.4,"mosquito_risk":4,"arthritis_risk":5,"migraine_risk":7,"frizz_risk":1,"updated_at":"2026-03-01T20:57:54.962155+05:30"},{"city":"Warangal","state":"Telangana","latitude":17.9689,"longitude":79.5941,"temp":27.5,"humidity":61,"rain":0.0,"pressure":979.9,"uv_index":8.1,"wind_gusts":27.7,"aqi":139,"pm10":73.1,"pm2_5":72.6,"mosquito_risk":7,"arthritis_risk":5,"migraine_risk":7,"frizz_risk":1,"updated_at":"2026-03-01T20:57:54.962161+05:30"},{"city":"Nizamabad","state":"Telangana","latitude":18.6725,"longitude":78.0941,"temp":29.2,"humidity":41,"rain":0.0,"pressure":965.8,"uv_index":8.0,"wind_gusts":20.9,"aqi":114,"pm10":43.0,"pm2_5":42.6,"mosquito_risk":4,"arthritis_risk":5,"migraine_risk":7,"frizz_risk":0,"updated_at":"2026-03-01T20:57:54.962168+05:30"},{"city":"Mysore","state":"Karnataka","latitude":12.2958,"longitude":76.6396,"temp":25.6,"humidity":57,"rain":0.0,"pressure":929.2,"uv_index":9.05,"wind_gusts":36.0,"aqi":143,"pm10":71.7,"pm2_5":70.5,"mosquito_risk":4,"arthritis_risk":5,"migraine_risk":7,"frizz_risk":1,"updated_at":"2026-03-01T20:57:54.962175+05:30"},{"city":"Mangalore","state":"Karnataka","latitude":12.9141,"longitude":74.856,"temp":28.3,"humidity":73,"rain":0.0,"pressure":1008.4,"uv_index":8.65,"wind_gusts":32.0,"aqi":49,"pm10":18.0,"pm2_5":13.1,"mosquito_risk":7,"arthritis_risk":0,"migraine_risk":4,"frizz_risk":1,"updated_at":"2026-03-01T20:57:54.962182+05:30"},{"city":"Hubli-Dharwad","state":"Karnataka","latitude":15.3647,"longitude":75.124,"temp":23.7,"humidity":64,"rain":0.0,"pressure":941.5,"uv_index":8.55,"wind_gusts":33.5,"aqi":131,"pm10":38.3,"pm2_5":37.5,"mosquito_risk":3,"arthritis_risk":5,"migraine_risk":7,"frizz_risk":1,"updated_at":"2026-03-01T20:57:54.962189+05:30"},{"city":"Belgaum","state":"Karnataka","latitude":15.8497,"longitude":74.4977,"temp":21.8,"humidity":71,"rain":0.0,"pressure":926.5,"uv_index":8.6,"wind_gusts":38.5,"aqi":126,"pm10":20.0,"pm2_5":18.9,"mosquito_risk":3,"arthritis_risk":5,"migraine_risk":7,"frizz_risk":1,"updated_at":"2026-03-01T20:57:58.265723+05:30"},{"city":"Coimbatore","state":"Tamil Nadu","latitude":11.0168,"longitude":76.9558,"temp":25.5,"humidity":74,"rain":0.0,"pressure":962.8,"uv_index":9.05,"wind_gusts":34.9,"aqi":146,"pm10":59.0,"pm2_5":58.2,"mosquito_risk":7,"arthritis_risk":5,"migraine_risk":7,"frizz_risk":1,"updated_at":"2026-03-01T20:57:58.265755+05:30"},{"city":"Madurai","state":"Tamil Nadu","latitude":9.9252,"longitude":78.1198,"temp":26.9,"humidity":60,"rain":0.0,"pressure":995.0,"uv_index":9.0,"wind_gusts":26.3,"aqi":148,"pm10":33.9,"pm2_5":32.8,"mosquito_risk":4,"arthritis_risk":5,"migraine_risk":7,"frizz_risk":1,"updated_at":"2026-03-01T20:57:58.265767+05:30"},{"city":"Trichy","state":"Tamil Nadu","latitude":10.7905,"longitude":78.7047,"temp":27.1,"humidity":68,"rain":0.0,"pressure":1001.5,"uv_index":8.9,"wind_gusts":27.7,"aqi":146,"pm10":42.4,"pm2_5":41.0,"mosquito_risk":7,"arthritis_risk":5,"migraine_risk":4,"frizz_risk":1,"updated_at":"2026-03-01T20:57:58.265776+05:30"},{"city":"Salem","state":"Tamil Nadu","latitude":11.6643,"longitude":78.146,"temp":28.9,"humidity":50,"rain":0.0,"pressure":978.5,"uv_index":8.95,"wind_gusts":26.3,"aqi":149,"pm10":43.4,"pm2_5":42.4,"mosquito_risk":4,"arthritis_risk":5,"migraine_risk":7,"frizz_risk":1,"updated_at":"2026-03-01T20:57:58.265784+05:30"},{"city":"Tirunelveli","state":"Tamil Nadu","latitude":8.7139,"longitude":77.7567,"temp":26.5,"humidity":76,"rain":0.0,"pressure":1005.0,"uv_index":9.05,"wind_gusts":43.6,"aqi":134,"pm10":38.6,"pm2_5":37.4,"mosquito_risk":7,"arthritis_risk":5,"migraine_risk":4,"frizz_risk":1,"updated_at":"2026-03-01T20:57:58.265793+05:30"},{"city":"Vellore","state":"Tamil Nadu","latitude":12.9165,"longitude":79.1325,"temp":26.2,"humidity":62,"rain":0.0,"pressure":986.6,"uv_index":8.8,"wind_gusts":36.7,"aqi":154,"pm10":44.2,"pm2_5":43.0,"mosquito_risk":7,"arthritis_risk":5,"migraine_risk":7,"frizz_risk":1,"updated_at":"2026-03-01T20:57:58.265801+05:30"},{"city":"Erode","state":"Tamil Nadu","latitude":11.341,"longitude":77.7172,"temp":29.7,"humidity":43,"rain":0.0,"pressure":989.7,"uv_index":8.95,"wind_gusts":27.7,"aqi":139,"pm10":42.3,"pm2_5":41.3,"mosquito_risk":4,"arthritis_risk":5,"migraine_risk":7,"frizz_risk":0,"updated_at":"2026-03-01T20:57:58.265808+05:30"},{"city":"Kochi","state":"Kerala","latitude":9.9312,"longitude":76.2673,"temp":28.5,"humidity":75,"rain":0.0,"pressure":1010.0,"uv_index":8.9,"wind_gusts":36.4,"aqi":105,"pm10":37.4,"pm2_5":35.5,"mosquito_risk":7,"arthritis_risk":0,"migraine_risk":4,"frizz_risk":1,"updated_at":"2026-03-01T20:57:58.265817+05:30"},{"city":"Thiruvananthapuram","state":"Kerala","latitude":8.5241,"longitude":76.9366,"temp":27.4,"humidity":80,"rain":0.0,"pressure":1009.6,"uv_index":8.95,"wind_gusts":24.1,"aqi":148,"pm10":22.7,"pm2_5":19.3,"mosquito_risk":7,"arthritis_risk":0,"migraine_risk":4,"frizz_risk":1,"updated_at":"2026-03-01T20:57:58.265826+05:30"},{"city":"Kozhikode","state":"Kerala","latitude":11.2588,"longitude":75.7804,"temp":28.4,"humidity":73,"rain":0.0,"pressure":1009.1,"uv_index":8.75,"wind_gusts":31.3,"aqi":57,"pm10":17.2,"pm2_5":12.0,"mosquito_risk":7,"arthritis_risk":0,"migraine_risk":4,"frizz_risk":1,"updated_at":"2026-03-01T20:57:58.265834+05:30"},{"city":"Thrissur","state":"Kerala","latitude":10.5276,"longitude":76.2144,"temp":27.2,"humidity":82,"rain":0.0,"pressure":1008.3,"uv_index":8.85,"wind_gusts":40.3,"aqi":106,"pm10":27.2,"pm2_5":24.9,"mosquito_risk":7,"arthritis_risk":0,"migraine_risk":4,"frizz_risk":1,"updated_at":"2026-03-01T20:57:58.265842+05:30"},{"city":"Kannur","state":"Kerala","latitude":11.8745,"longitude":75.3704,"temp":27.7,"humidity":72,"rain":0.0,"pressure":1008.8,"uv_index":8.75,"wind_gusts":38.2,"aqi":50,"pm10":17.1,"pm2_5":12.7,"mosquito_risk":7,"arthritis_risk":0,"migraine_risk":4,"frizz_risk":1,"updated_at":"2026-03-01T20:57:58.265850+05:30"},{"city":"Patna","state":"Bihar","latitude":25.5941,"longitude":85.1376,"temp":23.4,"humidity":57,"rain":0.0,"pressure":1001.3,"uv_index":7.0,"wind_gusts":28.8,"aqi":132,"pm10":89.9,"pm2_5":61.7,"mosquito_risk":0,"arthritis_risk":5,"migraine_risk":4,"frizz_risk":0,"updated_at":"2026-03-01T20:57:58.265858+05:30"},{"city":"Gaya","state":"Bihar","latitude":24.7914,"longitude":85.0002,"temp":23.9,"humidity":56,"rain":0.0,"pressure":995.2,"uv_index":7.1,"wind_gusts":19.1,"aqi":116,"pm10":90.8,"pm2_5":57.0,"mosquito_risk":0,"arthritis_risk":5,"migraine_risk":7,"frizz_risk":0,"updated_at":"2026-03-01T20:57:58.265866+05:30"},{"city":"Muzaffarpur","state":"Bihar","latitude":26.1209,"longitude":85.3647,"temp":21.9,"humidity":60,"rain":0.0,"pressure":1001.1,"uv_index":6.95,"wind_gusts":31.0,"aqi":127,"pm10":77.3,"pm2_5":51.6,"mosquito_risk":0,"arthritis_risk":5,"migraine_risk":4,"frizz_risk":0,"updated_at":"2026-03-01T20:57:58.265873+05:30"},{"city":"Bhagalpur","state":"Bihar","latitude":25.2425,"longitude":87.0117,"temp":22.1,"humidity":65,"rain":0.0,"pressure":1002.0,"uv_index":7.05,"wind_gusts":22.3,"aqi":133,"pm10":93.8,"pm2_5":56.5,"mosquito_risk":3,"arthritis_risk":5,"migraine_risk":4,"frizz_risk":0,"updated_at":"2026-03-01T20:57:58.265880+05:30"},{"city":"Ranchi","state":"Jharkhand","latitude":23.3441,"longitude":85.3096,"temp":23.1,"humidity":48,"rain":0.0,"pressure":938.7,"uv_index":7.75,"wind_gusts":24.5,"aqi":99,"pm10":35.6,"pm2_5":33.9,"mosquito_risk":0,"arthritis_risk":5,"migraine_risk":7,"frizz_risk":0,"updated_at":"2026-03-01T20:57:58.265888+05:30"},{"city":"Jamshedpur","state":"Jharkhand","latitude":22.8046,"longitude":86.2029,"temp":26.0,"humidity":51,"rain":0.0,"pressure":991.6,"uv_index":7.7,"wind_gusts":10.8,"aqi":152,"pm10":72.4,"pm2_5":68.7,"mosquito_risk":4,"arthritis_risk":5,"migraine_risk":7,"frizz_risk":0,"updated_at":"2026-03-01T20:57:58.265894+05:30"},{"city":"Dhanbad","state":"Jharkhand","latitude":23.7957,"longitude":86.4304,"temp":26.4,"humidity":33,"rain":0.0,"pressure":981.0,"uv_index":7.55,"wind_gusts":24.1,"aqi":155,"pm10":72.4,"pm2_5":65.0,"mosquito_risk":4,"arthritis_risk":5,"migraine_risk":7,"frizz_risk":0,"updated_at":"2026-03-01T20:57:58.265902+05:30"},{"city":"Bokaro","state":"Jharkhand","latitude":23.6693,"longitude":86.1511,"temp":24.0,"humidity":45,"rain":0.0,"pressure":985.1,"uv_index":7.55,"wind_gusts":22.0,"aqi":155,"pm10":72.9,"pm2_5":67.1,"mosquito_risk":0,"arthritis_risk":5,"migraine_risk":7,"frizz_risk":0,"updated_at":"2026-03-01T20:57:58.265910+05:30"},{"city":"Bhubaneswar","state":"Odisha","latitude":20.2961,"longitude":85.8245,"temp":25.1,"humidity":84,"rain":0.0,"pressure":1004.1,"uv_index":8.05,"wind_gusts":27.0,"aqi":112,"pm10":52.9,"pm2_5":51.3,"mosquito_risk":7,"arthritis_risk":5,"migraine_risk":4,"frizz_risk":1,"updated_at":"2026-03-01T20:57:58.265917+05:30"},{"city":"Cuttack","state":"Odisha","latitude":20.4625,"longitude":85.8828,"temp":25.7,"humidity":76,"rain":0.0,"pressure":1005.8,"uv_index":8.05,"wind_gusts":27.0,"aqi":112,"pm10":52.9,"pm2_5":51.3,"mosquito_risk":7,"arthritis_risk":5,"migraine_risk":4,"frizz_risk":1,"updated_at":"2026-03-01T20:57:58.265925+05:30"},{"city":"Rourkela","state":"Odisha","latitude":22.2604,"longitude":84.8536,"temp":25.5,"humidity":56,"rain":0.0,"pressure":985.3,"uv_index":7.6,"wind_gusts":18.0,"aqi":150,"pm10":84.1,"pm2_5":82.9,"mosquito_risk":4,"arthritis_risk":5,"migraine_risk":7,"frizz_risk":1,"updated_at":"2026-03-01T20:57:58.265932+05:30"},{"city":"Raipur","state":"Chhattisgarh","latitude":21.2514,"longitude":81.6296,"temp":26.8,"humidity":42,"rain":0.0,"pressure":975.3,"uv_index":7.75,"wind_gusts":27.4,"aqi":154,"pm10":56.7,"pm2_5":56.3,"mosquito_risk":4,"arthritis_risk":5,"migraine_risk":7,"frizz_risk":0,"updated_at":"2026-03-01T20:57:58.265938+05:30"},{"city":"Bhilai","state":"Chhattisgarh","latitude":21.1938,"longitude":81.3509,"temp":25.6,"humidity":46,"rain":0.0,"pressure":975.5,"uv_index":7.75,"wind_gusts":28.1,"aqi":154,"pm10":35.3,"pm2_5":35.0,"mosquito_risk":4,"arthritis_risk":5,"migraine_risk":7,"frizz_risk":0,"updated_at":"2026-03-01T20:57:58.265944+05:30"},{"city":"Guwahati","state":"Assam","latitude":26.1158,"longitude":91.7086,"temp":21.5,"humidity":83,"rain":0.0,"pressure":1003.3,"uv_index":7.0,"wind_gusts":32.0,"aqi":160,"pm10":79.2,"pm2_5":68.9,"mosquito_risk":3,"arthritis_risk":5,"migraine_risk":4,"frizz_risk":1,"updated_at":"2026-03-01T20:57:58.265949+05:30"},{"city":"Agartala","state":"Tripura","latitude":23.8315,"longitude":91.2868,"temp":23.3,"humidity":73,"rain":0.0,"pressure":1007.3,"uv_index":7.35,"wind_gusts":27.4,"aqi":119,"pm10":49.9,"pm2_5":46.8,"mosquito_risk":3,"arthritis_risk":5,"migraine_risk":4,"frizz_risk":1,"updated_at":"2026-03-01T20:57:58.265955+05:30"},{"city":"Shillong","state":"Meghalaya","latitude":25.5788,"longitude":91.8933,"temp":9.6,"humidity":87,"rain":0.0,"pressure":854.0,"uv_index":6.8,"wind_gusts":56.9,"aqi":141,"pm10":74.0,"pm2_5":57.9,"mosquito_risk":3,"arthritis_risk":10,"migraine_risk":7,"frizz_risk":0,"updated_at":"2026-03-01T20:57:58.265961+05:30"},{"city":"Imphal","state":"Manipur","latitude":24.817,"longitude":93.9368,"temp":14.5,"humidity":73,"rain":0.0,"pressure":923.2,"uv_index":7.55,"wind_gusts":49.3,"aqi":153,"pm10":85.7,"pm2_5":69.8,"mosquito_risk":3,"arthritis_risk":5,"migraine_risk":7,"frizz_risk":0,"updated_at":"2026-03-01T20:57:58.265967+05:30"},{"city":"Aizawl","state":"Mizoram","latitude":23.7271,"longitude":92.7176,"temp":16.8,"humidity":66,"rain":0.0,"pressure":892.7,"uv_index":7.55,"wind_gusts":40.3,"aqi":129,"pm10":66.4,"pm2_5":52.3,"mosquito_risk":3,"arthritis_risk":5,"migraine_risk":7,"frizz_risk":0,"updated_at":"2026-03-01T20:57:58.265973+05:30"},{"city":"Kohima","state":"Nagaland","latitude":25.6701,"longitude":94.1077,"temp":12.7,"humidity":80,"rain":0.0,"pressure":853.8,"uv_index":7.4,"wind_gusts":70.9,"aqi":154,"pm10":100.1,"pm2_5":79.9,"mosquito_risk":3,"arthritis_risk":5,"migraine_risk":7,"frizz_risk":0,"updated_at":"2026-03-01T20:57:58.265979+05:30"},{"city":"Gangtok","state":"Sikkim","latitude":27.3314,"longitude":88.6138,"temp":11.1,"humidity":86,"rain":0.0,"pressure":835.2,"uv_index":5.3,"wind_gusts":12.6,"aqi":132,"pm10":78.9,"pm2_5":59.3,"mosquito_risk":3,"arthritis_risk":10,"migraine_risk":3,"frizz_risk":0,"updated_at":"2026-03-01T20:57:58.265985+05:30"},{"city":"Siliguri","state":"West Bengal","latitude":26.7271,"longitude":88.3953,"temp":19.3,"humidity":67,"rain":0.0,"pressure":994.8,"uv_index":7.0,"wind_gusts":31.0,"aqi":173,"pm10":131.3,"pm2_5":97.6,"mosquito_risk":3,"arthritis_risk":5,"migraine_risk":7,"frizz_risk":0,"updated_at":"2026-03-01T20:58:01.574637+05:30"},{"city":"Durgapur","state":"West Bengal","latitude":23.5204,"longitude":87.3119,"temp":27.3,"humidity":36,"rain":0.0,"pressure":995.9,"uv_index":7.55,"wind_gusts":26.3,"aqi":146,"pm10":68.2,"pm2_5":59.8,"mosquito_risk":4,"arthritis_risk":5,"migraine_risk":7,"frizz_risk":0,"updated_at":"2026-03-01T20:58:01.574667+05:30"},{"city":"Asansol","state":"West Bengal","latitude":23.6739,"longitude":86.9524,"temp":28.1,"humidity":32,"rain":0.0,"pressure":994.5,"uv_index":7.5,"wind_gusts":22.7,"aqi":129,"pm10":56.6,"pm2_5":48.2,"mosquito_risk":4,"arthritis_risk":5,"migraine_risk":7,"frizz_risk":0,"updated_at":"2026-03-01T20:58:01.574677+05:30"},{"city":"Pondicherry","state":"Puducherry","latitude":11.9139,"longitude":79.8145,"temp":24.3,"humidity":87,"rain":0.0,"pressure":1010.7,"uv_index":8.8,"wind_gusts":28.1,"aqi":133,"pm10":44.7,"pm2_5":40.5,"mosquito_risk":3,"arthritis_risk":0,"migraine_risk":4,"frizz_risk":1,"updated_at":"2026-03-01T20:58:01.574685+05:30"},{"city":"Port Blair","state":"Andaman and Nicobar Islands","latitude":11.6234,"longitude":92.7265,"temp":27.7,"humidity":68,"rain":0.0,"pressure":1007.9,"uv_index":8.75,"wind_gusts":25.6,"aqi":74,"pm10":25.6,"pm2_5":22.4,"mosquito_risk":7,"arthritis_risk":5,"migraine_risk":4,"frizz_risk":1,"updated_at":"2026-03-01T20:58:01.574694+05:30"},{"city":"Haridwar","state":"Uttarakhand","latitude":29.9457,"longitude":78.1642,"temp":19.3,"humidity":58,"rain":0.0,"pressure":975.6,"uv_index":5.4,"wind_gusts":37.1,"aqi":106,"pm10":45.5,"pm2_5":31.7,"mosquito_risk":0,"arthritis_risk":5,"migraine_risk":3,"frizz_risk":0,"updated_at":"2026-03-01T20:58:01.574701+05:30"},{"city":"Rishikesh","state":"Uttarakhand","latitude":30.0869,"longitude":78.2676,"temp":17.1,"humidity":63,"rain":0.0,"pressure":968.0,"uv_index":5.5,"wind_gusts":34.9,"aqi":115,"pm10":28.3,"pm2_5":23.3,"mosquito_risk":3,"arthritis_risk":5,"migraine_risk":3,"frizz_risk":0,"updated_at":"2026-03-01T20:58:01.574708+05:30"},{"city":"Nainital","state":"Uttarakhand","latitude":29.3919,"longitude":79.4542,"temp":14.3,"humidity":52,"rain":0.0,"pressure":804.4,"uv_index":6.3,"wind_gusts":40.0,"aqi":121,"pm10":33.8,"pm2_5":24.3,"mosquito_risk":0,"arthritis_risk":5,"migraine_risk":7,"frizz_risk":0,"updated_at":"2026-03-01T20:58:01.574715+05:30"},{"city":"Mussoorie","state":"Uttarakhand","latitude":30.4599,"longitude":78.0664,"temp":12.3,"humidity":54,"rain":0.0,"pressure":800.5,"uv_index":5.85,"wind_gusts":39.6,"aqi":110,"pm10":33.4,"pm2_5":29.2,"mosquito_risk":0,"arthritis_risk":5,"migraine_risk":3,"frizz_risk":0,"updated_at":"2026-03-01T20:58:01.574723+05:30"},{"city":"Dharamshala","state":"Himachal Pradesh","latitude":32.219,"longitude":76.3234,"temp":16.3,"humidity":52,"rain":0.0,"pressure":869.4,"uv_index":6.05,"wind_gusts":27.4,"aqi":107,"pm10":39.9,"pm2_5":29.3,"mosquito_risk":0,"arthritis_risk":5,"migraine_risk":7,"frizz_risk":0,"updated_at":"2026-03-01T20:58:01.574729+05:30"},{"city":"Dalhousie","state":"Himachal Pradesh","latitude":32.5387,"longitude":75.971,"temp":13.7,"humidity":40,"rain":0.0,"pressure":803.1,"uv_index":6.25,"wind_gusts":30.2,"aqi":104,"pm10":59.8,"pm2_5":50.4,"mosquito_risk":0,"arthritis_risk":5,"migraine_risk":7,"frizz_risk":0,"updated_at":"2026-03-01T20:58:01.574736+05:30"},{"city":"Patiala","state":"Punjab","latitude":30.3398,"longitude":76.3869,"temp":18.2,"humidity":63,"rain":0.0,"pressure":980.5,"uv_index":5.5,"wind_gusts":28.4,"aqi":154,"pm10":311.1,"pm2_5":78.0,"mosquito_risk":3,"arthritis_risk":5,"migraine_risk":3,"frizz_risk":0,"updated_at":"2026-03-01T20:58:01.574742+05:30"},{"city":"Bhatinda","state":"Punjab","latitude":30.211,"longitude":74.9455,"temp":20.9,"humidity":62,"rain":0.0,"pressure":986.3,"uv_index":6.2,"wind_gusts":21.2,"aqi":153,"pm10":97.3,"pm2_5":73.8,"mosquito_risk":3,"arthritis_risk":5,"migraine_risk":7,"frizz_risk":0,"updated_at":"2026-03-01T20:58:01.574749+05:30"},{"city":"Rohtak","state":"Haryana","latitude":28.8955,"longitude":76.6066,"temp":20.1,"humidity":64,"rain":0.0,"pressure":984.0,"uv_index":5.7,"wind_gusts":30.6,"aqi":160,"pm10":421.0,"pm2_5":88.0,"mosquito_risk":3,"arthritis_risk":5,"migraine_risk":3,"frizz_risk":0,"updated_at":"2026-03-01T20:58:01.574755+05:30"},{"city":"Panipat","state":"Haryana","latitude":29.3909,"longitude":76.9635,"temp":18.5,"humidity":64,"rain":0.0,"pressure":982.5,"uv_index":5.5,"wind_gusts":29.9,"aqi":335,"pm10":817.7,"pm2_5":125.7,"mosquito_risk":3,"arthritis_risk":5,"migraine_risk":3,"frizz_risk":0,"updated_at":"2026-03-01T20:58:01.574761+05:30"},{"city":"Mathura","state":"Uttar Pradesh","latitude":27.4924,"longitude":77.6737,"temp":21.3,"humidity":47,"rain":0.0,"pressure":989.2,"uv_index":5.95,"wind_gusts":25.6,"aqi":228,"pm10":448.0,"pm2_5":76.4,"mosquito_risk":0,"arthritis_risk":5,"migraine_risk":3,"frizz_risk":0,"updated_at":"2026-03-01T20:58:01.574767+05:30"},{"city":"Vrindavan","state":"Uttar Pradesh","latitude":27.5823,"longitude":77.7027,"temp":19.8,"humidity":53,"rain":0.0,"pressure":989.6,"uv_index":5.95,"wind_gusts":28.4,"aqi":228,"pm10":448.0,"pm2_5":76.4,"mosquito_risk":0,"arthritis_risk":5,"migraine_risk":3,"frizz_risk":0,"updated_at":"2026-03-01T20:58:01.574774+05:30"},{"city":"Ayodhya","state":"Uttar Pradesh","latitude":26.7922,"longitude":82.1998,"temp":20.4,"humidity":45,"rain":0.0,"pressure":996.7,"uv_index":6.35,"wind_gusts":36.4,"aqi":111,"pm10":52.5,"pm2_5":29.6,"mosquito_risk":0,"arthritis_risk":5,"migraine_risk":7,"frizz_risk":0,"updated_at":"2026-03-01T20:58:01.574781+05:30"},{"city":"Ratlam","state":"Madhya Pradesh","latitude":23.3315,"longitude":75.0367,"temp":24.6,"humidity":53,"rain":0.0,"pressure":956.2,"uv_index":7.2,"wind_gusts":27.7,"aqi":79,"pm10":39.1,"pm2_5":33.1,"mosquito_risk":0,"arthritis_risk":5,"migraine_risk":7,"frizz_risk":0,"updated_at":"2026-03-01T20:58:01.574787+05:30"},{"city":"Sagar","state":"Madhya Pradesh","latitude":23.8388,"longitude":78.7378,"temp":23.6,"humidity":49,"rain":0.0,"pressure":951.7,"uv_index":7.15,"wind_gusts":20.2,"aqi":93,"pm10":26.8,"pm2_5":20.0,"mosquito_risk":0,"arthritis_risk":5,"migraine_risk":7,"frizz_risk":0,"updated_at":"2026-03-01T20:58:01.574793+05:30"},{"city":"Satna","state":"Madhya Pradesh","latitude":24.6005,"longitude":80.8322,"temp":22.4,"humidity":47,"rain":0.0,"pressure":973.2,"uv_index":7.1,"wind_gusts":31.7,"aqi":92,"pm10":38.8,"pm2_5":22.9,"mosquito_risk":0,"arthritis_risk":5,"migraine_risk":7,"frizz_risk":0,"updated_at":"2026-03-01T20:58:01.574800+05:30"},{"city":"Akola","state":"Maharashtra","latitude":20.7002,"longitude":77.0082,"temp":26.3,"humidity":43,"rain":0.0,"pressure":976.4,"uv_index":7.7,"wind_gusts":28.4,"aqi":109,"pm10":27.0,"pm2_5":26.1,"mosquito_risk":4,"arthritis_risk":5,"migraine_risk":7,"frizz_risk":0,"updated_at":"2026-03-01T20:58:01.574807+05:30"},{"city":"Amravati","state":"Maharashtra","latitude":20.9374,"longitude":77.7796,"temp":25.4,"humidity":49,"rain":0.0,"pressure":968.6,"uv_index":7.65,"wind_gusts":27.4,"aqi":109,"pm10":22.5,"pm2_5":21.8,"mosquito_risk":4,"arthritis_risk":5,"migraine_risk":7,"frizz_risk":0,"updated_at":"2026-03-01T20:58:01.574814+05:30"},{"city":"Latur","state":"Maharashtra","latitude":18.4088,"longitude":76.5604,"temp":26.3,"humidity":55,"rain":0.0,"pressure":940.7,"uv_index":8.15,"wind_gusts":25.6,"aqi":125,"pm10":28.9,"pm2_5":28.6,"mosquito_risk":4,"arthritis_risk":5,"migraine_risk":7,"frizz_risk":1,"updated_at":"2026-03-01T20:58:01.574820+05:30"},{"city":"Nanded","state":"Maharashtra","latitude":19.1383,"longitude":77.3091,"temp":27.5,"humidity":51,"rain":0.0,"pressure":969.4,"uv_index":7.9,"wind_gusts":15.5,"aqi":113,"pm10":24.8,"pm2_5":24.4,"mosquito_risk":4,"arthritis_risk":5,"migraine_risk":7,"frizz_risk":1,"updated_at":"2026-03-01T20:58:01.574826+05:30"},{"city":"Gulbarga","state":"Karnataka","latitude":17.3297,"longitude":76.8343,"temp":29.6,"humidity":45,"rain":0.0,"pressure":959.6,"uv_index":8.25,"wind_gusts":17.6,"aqi":152,"pm10":43.5,"pm2_5":43.1,"mosquito_risk":4,"arthritis_risk":5,"migraine_risk":7,"frizz_risk":1,"updated_at":"2026-03-01T20:58:01.574831+05:30"},{"city":"Bidar","state":"Karnataka","latitude":17.9104,"longitude":77.5199,"temp":28.5,"humidity":46,"rain":0.0,"pressure":936.7,"uv_index":8.2,"wind_gusts":20.5,"aqi":142,"pm10":39.7,"pm2_5":39.3,"mosquito_risk":4,"arthritis_risk":5,"migraine_risk":7,"frizz_risk":0,"updated_at":"2026-03-01T20:58:01.574837+05:30"},{"city":"Hospet","state":"Karnataka","latitude":15.2689,"longitude":76.3909,"temp":31.1,"humidity":37,"rain":0.0,"pressure":956.5,"uv_index":8.55,"wind_gusts":24.5,"aqi":167,"pm10":47.7,"pm2_5":47.3,"mosquito_risk":0,"arthritis_risk":5,"migraine_risk":7,"frizz_risk":0,"updated_at":"2026-03-01T20:58:01.574844+05:30"},{"city":"Tirupur","state":"Tamil Nadu","latitude":11.1085,"longitude":77.3411,"temp":29.5,"humidity":43,"rain":0.0,"pressure":975.9,"uv_index":9.05,"wind_gusts":21.2,"aqi":152,"pm10":64.3,"pm2_5":63.1,"mosquito_risk":4,"arthritis_risk":5,"migraine_risk":7,"frizz_risk":0,"updated_at":"2026-03-01T20:58:01.574850+05:30"},{"city":"Alappuzha","state":"Kerala","latitude":9.4981,"longitude":76.3388,"temp":28.3,"humidity":77,"rain":0.0,"pressure":1010.2,"uv_index":8.9,"wind_gusts":34.9,"aqi":106,"pm10":28.0,"pm2_5":24.4,"mosquito_risk":7,"arthritis_risk":0,"migraine_risk":4,"frizz_risk":1,"updated_at":"2026-03-01T20:58:01.574856+05:30"},{"city":"Munnar","state":"Kerala","latitude":10.0889,"longitude":77.0595,"temp":20.7,"humidity":94,"rain":0.0,"pressure":857.6,"uv_index":9.35,"wind_gusts":25.2,"aqi":131,"pm10":53.9,"pm2_5":53.0,"mosquito_risk":3,"arthritis_risk":5,"migraine_risk":7,"frizz_risk":1,"updated_at":"2026-03-01T20:58:01.574863+05:30"},{"city":"Silchar","state":"Assam","latitude":24.8333,"longitude":92.7789,"temp":23.0,"humidity":68,"rain":0.0,"pressure":1006.2,"uv_index":7.3,"wind_gusts":20.5,"aqi":157,"pm10":101.3,"pm2_5":79.9,"mosquito_risk":3,"arthritis_risk":5,"migraine_risk":4,"frizz_risk":1,"updated_at":"2026-03-01T20:58:01.574869+05:30"},{"city":"Dibrugarh","state":"Assam","latitude":27.4728,"longitude":94.912,"temp":20.0,"humidity":83,"rain":0.0,"pressure":998.5,"uv_index":7.0,"wind_gusts":13.7,"aqi":158,"pm10":97.1,"pm2_5":86.4,"mosquito_risk":3,"arthritis_risk":5,"migraine_risk":7,"frizz_risk":1,"updated_at":"2026-03-01T20:58:01.574876+05:30"}]