[{"city":"Delhi","state":"Delhi","latitude":28.6139,"longitude":77.209,"temp":30.0,"humidity":49,"rain":0.0,"pressure":976.8,"uv_index":7.1,"wind_gusts":43.6,"aqi":163,"pm10":141.6,"pm2_5":59.0,"no2":27.6,"co":1776.0,"o3":78.0,"so2":20.9,"mosquito_risk":4,"arthritis_risk":5,"migraine_risk":7,"frizz_risk":1,"updated_at":"2026-06-05T02:28:30.350646+05:30"},{"city":"Mumbai","state":"Maharashtra","latitude":19.076,"longitude":72.8777,"temp":30.3,"humidity":71,"rain":0.0,"pressure":1004.1,"uv_index":7.65,"wind_gusts":40.3,"aqi":59,"pm10":38.4,"pm2_5":16.5,"no2":9.0,"co":170.0,"o3":45.0,"so2":9.1,"mosquito_risk":3,"arthritis_risk":5,"migraine_risk":4,"frizz_risk":1,"updated_at":"2026-06-05T02:28:30.350686+05:30"},{"city":"Bangalore","state":"Karnataka","latitude":12.9716,"longitude":77.5946,"temp":20.9,"humidity":93,"rain":0.0,"pressure":909.4,"uv_index":8.9,"wind_gusts":49.3,"aqi":30,"pm10":5.5,"pm2_5":4.7,"no2":11.5,"co":191.0,"o3":34.0,"so2":4.5,"mosquito_risk":3,"arthritis_risk":5,"migraine_risk":7,"frizz_risk":1,"updated_at":"2026-06-05T02:28:30.350701+05:30"},{"city":"Hyderabad","state":"Telangana","latitude":17.385,"longitude":78.4867,"temp":28.1,"humidity":64,"rain":0.0,"pressure":949.6,"uv_index":5.75,"wind_gusts":48.6,"aqi":66,"pm10":16.5,"pm2_5":12.5,"no2":9.4,"co":263.0,"o3":71.0,"so2":4.6,"mosquito_risk":7,"arthritis_risk":5,"migraine_risk":3,"frizz_risk":1,"updated_at":"2026-06-05T02:28:30.350710+05:30"},{"city":"Chennai","state":"Tamil Nadu","latitude":13.0827,"longitude":80.2707,"temp":31.7,"humidity":56,"rain":0.0,"pressure":1003.0,"uv_index":8.95,"wind_gusts":38.9,"aqi":57,"pm10":13.8,"pm2_5":11.0,"no2":15.7,"co":266.0,"o3":59.0,"so2":7.6,"mosquito_risk":0,"arthritis_risk":5,"migraine_risk":4,"frizz_risk":1,"updated_at":"2026-06-05T02:28:30.350719+05:30"},{"city":"Kolkata","state":"West Bengal","latitude":22.5726,"longitude":88.3639,"temp":30.6,"humidity":89,"rain":0.0,"pressure":999.7,"uv_index":8.9,"wind_gusts":30.2,"aqi":129,"pm10":37.6,"pm2_5":33.3,"no2":9.5,"co":459.0,"o3":84.0,"so2":6.9,"mosquito_risk":3,"arthritis_risk":5,"migraine_risk":7,"frizz_risk":1,"updated_at":"2026-06-05T02:28:30.350727+05:30"},{"city":"Pune","state":"Maharashtra","latitude":18.5204,"longitude":73.8567,"temp":25.0,"humidity":84,"rain":0.0,"pressure":944.8,"uv_index":8.25,"wind_gusts":42.8,"aqi":54,"pm10":7.9,"pm2_5":5.6,"no2":9.0,"co":136.0,"o3":43.0,"so2":7.7,"mosquito_risk":7,"arthritis_risk":5,"migraine_risk":7,"frizz_risk":1,"updated_at":"2026-06-05T02:28:30.350734+05:30"},{"city":"Ahmedabad","state":"Gujarat","latitude":23.0225,"longitude":72.5714,"temp":32.3,"humidity":61,"rain":0.0,"pressure":996.8,"uv_index":8.05,"wind_gusts":38.9,"aqi":74,"pm10":28.2,"pm2_5":18.9,"no2":7.5,"co":181.0,"o3":47.0,"so2":4.6,"mosquito_risk":3,"arthritis_risk":5,"migraine_risk":7,"frizz_risk":1,"updated_at":"2026-06-05T02:28:30.350741+05:30"},{"city":"Jaipur","state":"Rajasthan","latitude":26.9124,"longitude":75.7873,"temp":27.8,"humidity":59,"rain":0.0,"pressure":954.2,"uv_index":8.2,"wind_gusts":34.9,"aqi":115,"pm10":111.1,"pm2_5":32.6,"no2":9.9,"co":222.0,"o3":55.0,"so2":5.1,"mosquito_risk":4,"arthritis_risk":5,"migraine_risk":7,"frizz_risk":1,"updated_at":"2026-06-05T02:28:30.350752+05:30"},{"city":"Lucknow","state":"Uttar Pradesh","latitude":26.8467,"longitude":80.9462,"temp":30.2,"humidity":58,"rain":0.0,"pressure":986.7,"uv_index":8.4,"wind_gusts":36.7,"aqi":155,"pm10":113.9,"pm2_5":81.0,"no2":52.0,"co":632.0,"o3":35.0,"so2":20.4,"mosquito_risk":0,"arthritis_risk":5,"migraine_risk":7,"frizz_risk":1,"updated_at":"2026-06-05T02:28:30.350759+05:30"},{"city":"Kanpur","state":"Uttar Pradesh","latitude":26.4499,"longitude":80.3319,"temp":31.2,"humidity":57,"rain":0.0,"pressure":985.0,"uv_index":8.1,"wind_gusts":35.6,"aqi":151,"pm10":93.4,"pm2_5":54.1,"no2":34.8,"co":758.0,"o3":47.0,"so2":12.0,"mosquito_risk":0,"arthritis_risk":5,"migraine_risk":7,"frizz_risk":1,"updated_at":"2026-06-05T02:28:30.350766+05:30"},{"city":"Chandigarh","state":"Chandigarh","latitude":30.7333,"longitude":76.7794,"temp":25.5,"humidity":68,"rain":0.0,"pressure":962.2,"uv_index":7.7,"wind_gusts":25.9,"aqi":123,"pm10":52.4,"pm2_5":45.8,"no2":29.1,"co":1163.0,"o3":56.0,"so2":10.0,"mosquito_risk":7,"arthritis_risk":5,"migraine_risk":7,"frizz_risk":1,"updated_at":"2026-06-05T02:28:30.350775+05:30"},{"city":"Srinagar","state":"Jammu and Kashmir","latitude":34.0837,"longitude":74.7973,"temp":13.6,"humidity":99,"rain":0.0,"pressure":838.7,"uv_index":9.0,"wind_gusts":29.2,"aqi":83,"pm10":47.5,"pm2_5":42.0,"no2":28.7,"co":325.0,"o3":24.0,"so2":1.3,"mosquito_risk":3,"arthritis_risk":10,"migraine_risk":7,"frizz_risk":0,"updated_at":"2026-06-05T02:28:30.350783+05:30"},{"city":"Jammu","state":"Jammu and Kashmir","latitude":32.7266,"longitude":74.857,"temp":24.5,"humidity":69,"rain":0.0,"pressure":967.0,"uv_index":8.6,"wind_gusts":23.8,"aqi":98,"pm10":64.3,"pm2_5":52.6,"no2":54.1,"co":583.0,"o3":0.0,"so2":5.0,"mosquito_risk":3,"arthritis_risk":5,"migraine_risk":7,"frizz_risk":1,"updated_at":"2026-06-05T02:28:30.350789+05:30"},{"city":"Amritsar","state":"Punjab","latitude":31.634,"longitude":74.8723,"temp":26.1,"humidity":67,"rain":0.0,"pressure":974.6,"uv_index":8.4,"wind_gusts":24.1,"aqi":144,"pm10":67.3,"pm2_5":55.1,"no2":26.3,"co":1015.0,"o3":63.0,"so2":6.9,"mosquito_risk":7,"arthritis_risk":5,"migraine_risk":7,"frizz_risk":1,"updated_at":"2026-06-05T02:28:30.350796+05:30"},{"city":"Ludhiana","state":"Punjab","latitude":30.901,"longitude":75.8573,"temp":26.8,"humidity":69,"rain":0.0,"pressure":971.9,"uv_index":7.95,"wind_gusts":29.5,"aqi":151,"pm10":65.9,"pm2_5":52.9,"no2":23.2,"co":821.0,"o3":72.0,"so2":11.9,"mosquito_risk":7,"arthritis_risk":5,"migraine_risk":7,"frizz_risk":1,"updated_at":"2026-06-05T02:28:30.350802+05:30"},{"city":"Jalandhar","state":"Punjab","latitude":31.326,"longitude":75.5762,"temp":26.1,"humidity":71,"rain":0.0,"pressure":973.5,"uv_index":8.2,"wind_gusts":23.4,"aqi":145,"pm10":67.1,"pm2_5":54.0,"no2":30.2,"co":1422.0,"o3":58.0,"so2":7.3,"mosquito_risk":7,"arthritis_risk":5,"migraine_risk":7,"frizz_risk":1,"updated_at":"2026-06-05T02:28:30.350809+05:30"},{"city":"Dehradun","state":"Uttarakhand","latitude":30.6284,"longitude":78.0322,"temp":14.1,"humidity":98,"rain":0.0,"pressure":825.5,"uv_index":3.85,"wind_gusts":33.1,"aqi":56,"pm10":23.6,"pm2_5":15.8,"no2":27.4,"co":221.0,"o3":28.0,"so2":0.7,"mosquito_risk":3,"arthritis_risk":10,"migraine_risk":3,"frizz_risk":0,"updated_at":"2026-06-05T02:28:30.350816+05:30"},{"city":"Shimla","state":"Himachal Pradesh","latitude":31.1048,"longitude":77.1734,"temp":12.5,"humidity":95,"rain":0.0,"pressure":778.8,"uv_index":4.35,"wind_gusts":40.7,"aqi":83,"pm10":22.2,"pm2_5":16.2,"no2":12.7,"co":361.0,"o3":96.0,"so2":0.3,"mosquito_risk":3,"arthritis_risk":10,"migraine_risk":3,"frizz_risk":0,"updated_at":"2026-06-05T02:28:30.350825+05:30"},{"city":"Manali","state":"Himachal Pradesh","latitude":32.2396,"longitude":77.1887,"temp":15.5,"humidity":82,"rain":0.1,"pressure":815.3,"uv_index":5.0,"wind_gusts":34.2,"aqi":59,"pm10":3.9,"pm2_5":3.9,"no2":21.6,"co":278.0,"o3":102.0,"so2":0.0,"mosquito_risk":6,"arthritis_risk":10,"migraine_risk":3,"frizz_risk":0,"updated_at":"2026-06-05T02:28:30.350832+05:30"},{"city":"Gurgaon","state":"Haryana","latitude":28.4595,"longitude":77.0266,"temp":28.9,"humidity":56,"rain":0.0,"pressure":975.1,"uv_index":7.05,"wind_gusts":48.2,"aqi":515,"pm10":129.5,"pm2_5":54.2,"no2":32.6,"co":1658.0,"o3":57.0,"so2":17.2,"mosquito_risk":4,"arthritis_risk":5,"migraine_risk":7,"frizz_risk":1,"updated_at":"2026-06-05T02:28:30.350841+05:30"},{"city":"Noida","state":"Uttar Pradesh","latitude":28.5355,"longitude":77.391,"temp":28.5,"humidity":59,"rain":0.0,"pressure":978.2,"uv_index":7.2,"wind_gusts":26.6,"aqi":515,"pm10":129.5,"pm2_5":54.2,"no2":32.6,"co":2475.0,"o3":57.0,"so2":17.2,"mosquito_risk":4,"arthritis_risk":5,"migraine_risk":7,"frizz_risk":1,"updated_at":"2026-06-05T02:28:30.350847+05:30"},{"city":"Ghaziabad","state":"Uttar Pradesh","latitude":28.6692,"longitude":77.4538,"temp":27.7,"humidity":62,"rain":0.0,"pressure":976.5,"uv_index":7.35,"wind_gusts":25.6,"aqi":158,"pm10":140.6,"pm2_5":61.7,"no2":23.1,"co":846.0,"o3":86.0,"so2":17.8,"mosquito_risk":7,"arthritis_risk":5,"migraine_risk":7,"frizz_risk":1,"updated_at":"2026-06-05T02:28:30.350854+05:30"},{"city":"Faridabad","state":"Haryana","latitude":28.4089,"longitude":77.3178,"temp":29.2,"humidity":53,"rain":0.0,"pressure":977.5,"uv_index":7.15,"wind_gusts":27.7,"aqi":515,"pm10":129.5,"pm2_5":54.2,"no2":32.6,"co":1708.0,"o3":57.0,"so2":17.2,"mosquito_risk":4,"arthritis_risk":5,"migraine_risk":7,"frizz_risk":1,"updated_at":"2026-06-05T02:28:30.350860+05:30"},{"city":"Meerut","state":"Uttar Pradesh","latitude":28.9845,"longitude":77.7064,"temp":27.5,"humidity":62,"rain":0.0,"pressure":975.6,"uv_index":7.55,"wind_gusts":27.4,"aqi":158,"pm10":140.6,"pm2_5":61.7,"no2":23.1,"co":692.0,"o3":86.0,"so2":17.8,"mosquito_risk":7,"arthritis_risk":5,"migraine_risk":7,"frizz_risk":1,"updated_at":"2026-06-05T02:28:30.350867+05:30"},{"city":"Agra","state":"Uttar Pradesh","latitude":27.1767,"longitude":78.0081,"temp":28.4,"humidity":59,"rain":0.0,"pressure":981.7,"uv_index":7.7,"wind_gusts":36.4,"aqi":171,"pm10":96.4,"pm2_5":35.9,"no2":11.9,"co":451.0,"o3":67.0,"so2":5.1,"mosquito_risk":4,"arthritis_risk":5,"migraine_risk":7,"frizz_risk":1,"updated_at":"2026-06-05T02:28:30.350873+05:30"},{"city":"Varanasi","state":"Uttar Pradesh","latitude":25.3176,"longitude":82.9739,"temp":31.2,"humidity":55,"rain":0.0,"pressure":991.3,"uv_index":8.8,"wind_gusts":24.1,"aqi":133,"pm10":74.7,"pm2_5":59.8,"no2":48.3,"co":1158.0,"o3":17.0,"so2":15.8,"mosquito_risk":0,"arthritis_risk":5,"migraine_risk":7,"frizz_risk":1,"updated_at":"2026-06-05T02:28:30.350880+05:30"},{"city":"Prayagraj","state":"Uttar Pradesh","latitude":25.4358,"longitude":81.8463,"temp":30.8,"humidity":58,"rain":0.0,"pressure":989.5,"uv_index":8.75,"wind_gusts":31.0,"aqi":139,"pm10":120.1,"pm2_5":89.2,"no2":83.3,"co":493.0,"o3":4.0,"so2":25.3,"mosquito_risk":0,"arthritis_risk":5,"migraine_risk":7,"frizz_risk":1,"updated_at":"2026-06-05T02:28:30.350887+05:30"},{"city":"Gorakhpur","state":"Uttar Pradesh","latitude":26.7606,"longitude":83.3732,"temp":28.9,"humidity":71,"rain":0.0,"pressure":990.7,"uv_index":8.4,"wind_gusts":23.8,"aqi":152,"pm10":122.5,"pm2_5":87.3,"no2":59.9,"co":610.0,"o3":18.0,"so2":17.0,"mosquito_risk":7,"arthritis_risk":5,"migraine_risk":7,"frizz_risk":1,"updated_at":"2026-06-05T02:28:30.350899+05:30"},{"city":"Bareilly","state":"Uttar Pradesh","latitude":28.367,"longitude":79.4304,"temp":27.4,"humidity":70,"rain":0.0,"pressure":980.8,"uv_index":8.15,"wind_gusts":24.5,"aqi":144,"pm10":74.7,"pm2_5":58.7,"no2":39.2,"co":752.0,"o3":49.0,"so2":11.5,"mosquito_risk":7,"arthritis_risk":5,"migraine_risk":7,"frizz_risk":1,"updated_at":"2026-06-05T02:28:30.350905+05:30"},{"city":"Aligarh","state":"Uttar Pradesh","latitude":27.8974,"longitude":78.088,"temp":27.6,"humidity":67,"rain":0.0,"pressure":979.4,"uv_index":8.0,"wind_gusts":33.5,"aqi":154,"pm10":104.8,"pm2_5":45.2,"no2":31.5,"co":839.0,"o3":52.0,"so2":9.9,"mosquito_risk":7,"arthritis_risk":5,"migraine_risk":7,"frizz_risk":1,"updated_at":"2026-06-05T02:28:30.350912+05:30"},{"city":"Moradabad","state":"Uttar Pradesh","latitude":28.8386,"longitude":78.7733,"temp":28.1,"humidity":66,"rain":0.0,"pressure":977.6,"uv_index":7.6,"wind_gusts":28.1,"aqi":156,"pm10":202.1,"pm2_5":100.8,"no2":55.3,"co":759.0,"o3":50.0,"so2":22.7,"mosquito_risk":7,"arthritis_risk":5,"migraine_risk":7,"frizz_risk":1,"updated_at":"2026-06-05T02:28:30.350918+05:30"},{"city":"Saharanpur","state":"Uttar Pradesh","latitude":29.9637,"longitude":77.546,"temp":26.1,"humidity":73,"rain":0.0,"pressure":969.5,"uv_index":6.1,"wind_gusts":26.6,"aqi":146,"pm10":161.1,"pm2_5":95.9,"no2":72.7,"co":633.0,"o3":12.0,"so2":20.0,"mosquito_risk":7,"arthritis_risk":5,"migraine_risk":7,"frizz_risk":1,"updated_at":"2026-06-05T02:28:30.350924+05:30"},{"city":"Jhansi","state":"Uttar Pradesh","latitude":25.4484,"longitude":78.5685,"temp":30.1,"humidity":47,"rain":0.0,"pressure":972.2,"uv_index":8.5,"wind_gusts":39.2,"aqi":82,"pm10":46.4,"pm2_5":23.7,"no2":4.6,"co":188.0,"o3":64.0,"so2":2.8,"mosquito_risk":0,"arthritis_risk":5,"migraine_risk":7,"frizz_risk":1,"updated_at":"2026-06-05T02:28:33.603255+05:30"},{"city":"Surat","state":"Gujarat","latitude":21.1702,"longitude":72.8311,"temp":29.7,"humidity":80,"rain":0.0,"pressure":1002.2,"uv_index":7.45,"wind_gusts":51.5,"aqi":75,"pm10":42.1,"pm2_5":23.3,"no2":15.2,"co":228.0,"o3":39.0,"so2":26.3,"mosquito_risk":7,"arthritis_risk":5,"migraine_risk":4,"frizz_risk":1,"updated_at":"2026-06-05T02:28:33.603291+05:30"},{"city":"Vadodara","state":"Gujarat","latitude":22.3072,"longitude":73.1812,"temp":29.9,"humidity":75,"rain":0.0,"pressure":999.7,"uv_index":8.0,"wind_gusts":48.6,"aqi":78,"pm10":31.8,"pm2_5":19.6,"no2":14.8,"co":143.0,"o3":35.0,"so2":17.7,"mosquito_risk":7,"arthritis_risk":5,"migraine_risk":7,"frizz_risk":1,"updated_at":"2026-06-05T02:28:33.603302+05:30"},{"city":"Rajkot","state":"Gujarat","latitude":22.3039,"longitude":70.8022,"temp":29.2,"humidity":73,"rain":0.0,"pressure":989.1,"uv_index":7.55,"wind_gusts":48.2,"aqi":64,"pm10":43.7,"pm2_5":20.5,"no2":2.4,"co":104.0,"o3":49.0,"so2":1.8,"mosquito_risk":7,"arthritis_risk":5,"migraine_risk":7,"frizz_risk":1,"updated_at":"2026-06-05T02:28:33.603310+05:30"},{"city":"Thane","state":"Maharashtra","latitude":19.2183,"longitude":72.9781,"temp":29.5,"humidity":77,"rain":0.0,"pressure":1003.6,"uv_index":7.55,"wind_gusts":38.2,"aqi":59,"pm10":38.4,"pm2_5":16.5,"no2":9.0,"co":199.0,"o3":45.0,"so2":9.1,"mosquito_risk":7,"arthritis_risk":5,"migraine_risk":4,"frizz_risk":1,"updated_at":"2026-06-05T02:28:33.603320+05:30"},{"city":"Nagpur","state":"Maharashtra","latitude":21.1458,"longitude":79.0882,"temp":31.7,"humidity":42,"rain":0.0,"pressure":968.0,"uv_index":8.9,"wind_gusts":63.0,"aqi":87,"pm10":50.8,"pm2_5":31.7,"no2":11.7,"co":242.0,"o3":73.0,"so2":11.0,"mosquito_risk":0,"arthritis_risk":5,"migraine_risk":7,"frizz_risk":1,"updated_at":"2026-06-05T02:28:33.603327+05:30"},{"city":"Nashik","state":"Maharashtra","latitude":19.9975,"longitude":73.7898,"temp":24.7,"humidity":88,"rain":0.0,"pressure":941.8,"uv_index":8.0,"wind_gusts":43.6,"aqi":61,"pm10":18.5,"pm2_5":10.6,"no2":12.0,"co":170.0,"o3":34.0,"so2":11.6,"mosquito_risk":3,"arthritis_risk":5,"migraine_risk":7,"frizz_risk":1,"updated_at":"2026-06-05T02:28:33.603336+05:30"},{"city":"Aurangabad","state":"Maharashtra","latitude":19.8762,"longitude":75.3433,"temp":27.5,"humidity":67,"rain":0.0,"pressure":941.0,"uv_index":8.95,"wind_gusts":45.4,"aqi":69,"pm10":22.8,"pm2_5":14.8,"no2":7.1,"co":139.0,"o3":76.0,"so2":9.4,"mosquito_risk":7,"arthritis_risk":5,"migraine_risk":7,"frizz_risk":1,"updated_at":"2026-06-05T02:28:33.603343+05:30"},{"city":"Solapur","state":"Maharashtra","latitude":17.6599,"longitude":75.9064,"temp":28.0,"humidity":67,"rain":0.0,"pressure":954.0,"uv_index":8.9,"wind_gusts":34.2,"aqi":55,"pm10":7.4,"pm2_5":6.6,"no2":8.4,"co":185.0,"o3":44.0,"so2":2.6,"mosquito_risk":7,"arthritis_risk":5,"migraine_risk":7,"frizz_risk":1,"updated_at":"2026-06-05T02:28:33.603351+05:30"},{"city":"Kolhapur","state":"Maharashtra","latitude":16.705,"longitude":74.2433,"temp":23.6,"humidity":92,"rain":0.0,"pressure":945.0,"uv_index":7.5,"wind_gusts":46.1,"aqi":41,"pm10":7.7,"pm2_5":6.5,"no2":6.6,"co":135.0,"o3":42.0,"so2":2.0,"mosquito_risk":3,"arthritis_risk":5,"migraine_risk":7,"frizz_risk":1,"updated_at":"2026-06-05T02:28:33.603359+05:30"},{"city":"Goa","state":"Goa","latitude":15.2993,"longitude":74.124,"temp":25.4,"humidity":96,"rain":0.1,"pressure":995.2,"uv_index":6.1,"wind_gusts":25.9,"aqi":31,"pm10":13.6,"pm2_5":9.7,"no2":5.1,"co":214.0,"o3":47.0,"so2":0.9,"mosquito_risk":10,"arthritis_risk":5,"migraine_risk":7,"frizz_risk":1,"updated_at":"2026-06-05T02:28:33.603366+05:30"},{"city":"Jodhpur","state":"Rajasthan","latitude":26.2389,"longitude":73.0243,"temp":32.5,"humidity":49,"rain":0.0,"pressure":976.0,"uv_index":8.45,"wind_gusts":45.0,"aqi":131,"pm10":144.8,"pm2_5":39.9,"no2":4.5,"co":163.0,"o3":65.0,"so2":2.2,"mosquito_risk":0,"arthritis_risk":5,"migraine_risk":7,"frizz_risk":1,"updated_at":"2026-06-05T02:28:33.603374+05:30"},{"city":"Udaipur","state":"Rajasthan","latitude":24.5854,"longitude":73.7125,"temp":27.7,"humidity":68,"rain":0.0,"pressure":941.5,"uv_index":8.8,"wind_gusts":46.8,"aqi":78,"pm10":32.4,"pm2_5":21.8,"no2":8.2,"co":175.0,"o3":60.0,"so2":11.2,"mosquito_risk":7,"arthritis_risk":5,"migraine_risk":7,"frizz_risk":1,"updated_at":"2026-06-05T02:28:33.603382+05:30"},{"city":"Kota","state":"Rajasthan","latitude":25.2138,"longitude":75.8648,"temp":29.6,"humidity":56,"rain":0.0,"pressure":973.4,"uv_index":8.4,"wind_gusts":48.2,"aqi":79,"pm10":34.5,"pm2_5":22.6,"no2":6.7,"co":171.0,"o3":71.0,"so2":6.6,"mosquito_risk":4,"arthritis_risk":5,"migraine_risk":7,"frizz_risk":1,"updated_at":"2026-06-05T02:28:33.603389+05:30"},{"city":"Bikaner","state":"Rajasthan","latitude":28.0229,"longitude":73.3119,"temp":29.7,"humidity":52,"rain":0.0,"pressure":974.0,"uv_index":8.45,"wind_gusts":40.7,"aqi":136,"pm10":163.9,"pm2_5":56.3,"no2":3.6,"co":142.0,"o3":63.0,"so2":3.5,"mosquito_risk":4,"arthritis_risk":5,"migraine_risk":7,"frizz_risk":1,"updated_at":"2026-06-05T02:28:33.603397+05:30"},{"city":"Ajmer","state":"Rajasthan","latitude":26.4499,"longitude":74.6399,"temp":25.6,"humidity":69,"rain":0.1,"pressure":948.7,"uv_index":8.35,"wind_gusts":43.6,"aqi":74,"pm10":40.5,"pm2_5":23.1,"no2":9.0,"co":152.0,"o3":47.0,"so2":4.1,"mosquito_risk":10,"arthritis_risk":5,"migraine_risk":7,"frizz_risk":1,"updated_at":"2026-06-05T02:28:33.603404+05:30"},{"city":"Gwalior","state":"Madhya Pradesh","latitude":26.2183,"longitude":78.1828,"temp":29.8,"humidity":52,"rain":0.0,"pressure":977.2,"uv_index":7.95,"wind_gusts":55.1,"aqi":89,"pm10":71.0,"pm2_5":29.6,"no2":7.0,"co":153.0,"o3":60.0,"so2":3.1,"mosquito_risk":4,"arthritis_risk":5,"migraine_risk":7,"frizz_risk":1,"updated_at":"2026-06-05T02:28:33.603411+05:30"},{"city":"Indore","state":"Madhya Pradesh","latitude":22.7196,"longitude":75.8577,"temp":27.8,"humidity":67,"rain":0.0,"pressure":944.0,"uv_index":8.65,"wind_gusts":43.6,"aqi":87,"pm10":41.4,"pm2_5":30.2,"no2":9.4,"co":269.0,"o3":74.0,"so2":8.9,"mosquito_risk":7,"arthritis_risk":5,"migraine_risk":7,"frizz_risk":1,"updated_at":"2026-06-05T02:28:33.603418+05:30"},{"city":"Bhopal","state":"Madhya Pradesh","latitude":23.2599,"longitude":77.4126,"temp":26.8,"humidity":69,"rain":0.0,"pressure":949.0,"uv_index":8.7,"wind_gusts":47.9,"aqi":82,"pm10":33.1,"pm2_5":23.9,"no2":10.5,"co":329.0,"o3":50.0,"so2":4.2,"mosquito_risk":7,"arthritis_risk":5,"migraine_risk":7,"frizz_risk":1,"updated_at":"2026-06-05T02:28:33.603425+05:30"},{"city":"Jabalpur","state":"Madhya Pradesh","latitude":23.1815,"longitude":79.9864,"temp":29.0,"humidity":48,"rain":0.0,"pressure":956.4,"uv_index":8.9,"wind_gusts":70.6,"aqi":93,"pm10":44.1,"pm2_5":27.5,"no2":15.5,"co":345.0,"o3":73.0,"so2":6.3,"mosquito_risk":4,"arthritis_risk":5,"migraine_risk":7,"frizz_risk":1,"updated_at":"2026-06-05T02:28:33.603432+05:30"},{"city":"Ujjain","state":"Madhya Pradesh","latitude":23.1765,"longitude":75.7885,"temp":28.0,"humidity":64,"rain":0.0,"pressure":949.5,"uv_index":8.6,"wind_gusts":45.0,"aqi":85,"pm10":40.9,"pm2_5":28.3,"no2":4.6,"co":302.0,"o3":86.0,"so2":8.8,"mosquito_risk":7,"arthritis_risk":5,"migraine_risk":7,"frizz_risk":1,"updated_at":"2026-06-05T02:28:33.603440+05:30"},{"city":"Visakhapatnam","state":"Andhra Pradesh","latitude":17.6868,"longitude":83.2185,"temp":30.6,"humidity":74,"rain":0.0,"pressure":997.9,"uv_index":9.05,"wind_gusts":38.9,"aqi":99,"pm10":40.9,"pm2_5":35.4,"no2":35.7,"co":398.0,"o3":80.0,"so2":43.0,"mosquito_risk":3,"arthritis_risk":5,"migraine_risk":7,"frizz_risk":1,"updated_at":"2026-06-05T02:28:33.603448+05:30"},{"city":"Vijayawada","state":"Andhra Pradesh","latitude":16.5062,"longitude":80.648,"temp":27.6,"humidity":90,"rain":0.1,"pressure":998.0,"uv_index":9.0,"wind_gusts":61.6,"aqi":76,"pm10":22.1,"pm2_5":18.8,"no2":8.3,"co":259.0,"o3":86.0,"so2":4.5,"mosquito_risk":10,"arthritis_risk":5,"migraine_risk":7,"frizz_risk":1,"updated_at":"2026-06-05T02:28:33.603455+05:30"},{"city":"Guntur","state":"Andhra Pradesh","latitude":16.3067,"longitude":80.4365,"temp":26.8,"humidity":91,"rain":0.0,"pressure":999.4,"uv_index":9.05,"wind_gusts":54.4,"aqi":70,"pm10":21.0,"pm2_5":18.6,"no2":11.9,"co":238.0,"o3":71.0,"so2":4.6,"mosquito_risk":7,"arthritis_risk":5,"migraine_risk":7,"frizz_risk":1,"updated_at":"2026-06-05T02:28:33.603463+05:30"},{"city":"Nellore","state":"Andhra Pradesh","latitude":14.4426,"longitude":79.9865,"temp":27.7,"humidity":92,"rain":0.0,"pressure":1002.0,"uv_index":8.75,"wind_gusts":40.7,"aqi":54,"pm10":17.2,"pm2_5":13.2,"no2":8.8,"co":149.0,"o3":66.0,"so2":4.8,"mosquito_risk":7,"arthritis_risk":5,"migraine_risk":4,"frizz_risk":1,"updated_at":"2026-06-05T02:28:33.603493+05:30"},{"city":"Kurnool","state":"Andhra Pradesh","latitude":15.8281,"longitude":78.0373,"temp":28.9,"humidity":62,"rain":0.0,"pressure":973.6,"uv_index":8.85,"wind_gusts":41.8,"aqi":45,"pm10":5.6,"pm2_5":5.0,"no2":11.2,"co":174.0,"o3":40.0,"so2":5.0,"mosquito_risk":7,"arthritis_risk":5,"migraine_risk":7,"frizz_risk":1,"updated_at":"2026-06-05T02:28:33.603502+05:30"},{"city":"Kakinada","state":"Andhra Pradesh","latitude":16.9891,"longitude":82.2475,"temp":29.2,"humidity":71,"rain":0.0,"pressure":1002.4,"uv_index":9.05,"wind_gusts":52.9,"aqi":93,"pm10":25.6,"pm2_5":19.7,"no2":3.3,"co":290.0,"o3":112.0,"so2":4.1,"mosquito_risk":7,"arthritis_risk":5,"migraine_risk":4,"frizz_risk":1,"updated_at":"2026-06-05T02:28:33.603510+05:30"},{"city":"Tirupati","state":"Andhra Pradesh","latitude":13.6288,"longitude":79.4192,"temp":27.4,"humidity":85,"rain":0.0,"pressure":987.6,"uv_index":8.3,"wind_gusts":39.6,"aqi":44,"pm10":12.5,"pm2_5":10.2,"no2":13.3,"co":203.0,"o3":41.0,"so2":2.5,"mosquito_risk":7,"arthritis_risk":5,"migraine_risk":7,"frizz_risk":1,"updated_at":"2026-06-05T02:28:33.603517+05:30"},{"city":"Warangal","state":"Telangana","latitude":17.9689,"longitude":79.5941,"temp":28.3,"humidity":68,"rain":0.0,"pressure":974.6,"uv_index":8.75,"wind_gusts":39.2,"aqi":76,"pm10":28.8,"pm2_5":25.0,"no2":15.1,"co":272.0,"o3":60.0,"so2":4.8,"mosquito_risk":7,"arthritis_risk":5,"migraine_risk":7,"frizz_risk":1,"updated_at":"2026-06-05T02:28:33.603525+05:30"},{"city":"Nizamabad","state":"Telangana","latitude":18.6725,"longitude":78.0941,"temp":29.6,"humidity":58,"rain":0.0,"pressure":960.4,"uv_index":5.2,"wind_gusts":39.2,"aqi":77,"pm10":24.6,"pm2_5":19.0,"no2":7.6,"co":255.0,"o3":81.0,"so2":2.6,"mosquito_risk":4,"arthritis_risk":5,"migraine_risk":3,"frizz_risk":1,"updated_at":"2026-06-05T02:28:33.603532+05:30"},{"city":"Mysore","state":"Karnataka","latitude":12.2958,"longitude":76.6396,"temp":22.0,"humidity":91,"rain":0.0,"pressure":926.4,"uv_index":5.25,"wind_gusts":57.6,"aqi":22,"pm10":3.2,"pm2_5":2.8,"no2":5.9,"co":146.0,"o3":40.0,"so2":1.7,"mosquito_risk":3,"arthritis_risk":5,"migraine_risk":3,"frizz_risk":1,"updated_at":"2026-06-05T02:28:33.603539+05:30"},{"city":"Mangalore","state":"Karnataka","latitude":12.9141,"longitude":74.856,"temp":24.8,"humidity":96,"rain":0.2,"pressure":1005.3,"uv_index":3.45,"wind_gusts":32.0,"aqi":30,"pm10":12.3,"pm2_5":6.5,"no2":4.1,"co":162.0,"o3":44.0,"so2":1.5,"mosquito_risk":6,"arthritis_risk":5,"migraine_risk":0,"frizz_risk":1,"updated_at":"2026-06-05T02:28:33.603546+05:30"},{"city":"Hubli-Dharwad","state":"Karnataka","latitude":15.3647,"longitude":75.124,"temp":23.1,"humidity":92,"rain":0.0,"pressure":938.4,"uv_index":1.85,"wind_gusts":41.0,"aqi":24,"pm10":2.3,"pm2_5":1.6,"no2":2.9,"co":109.0,"o3":51.0,"so2":0.8,"mosquito_risk":3,"arthritis_risk":5,"migraine_risk":3,"frizz_risk":1,"updated_at":"2026-06-05T02:28:33.603554+05:30"},{"city":"Belgaum","state":"Karnataka","latitude":15.8497,"longitude":74.4977,"temp":22.7,"humidity":90,"rain":0.0,"pressure":923.0,"uv_index":6.15,"wind_gusts":44.3,"aqi":25,"pm10":4.5,"pm2_5":3.2,"no2":3.7,"co":113.0,"o3":51.0,"so2":1.3,"mosquito_risk":3,"arthritis_risk":5,"migraine_risk":7,"frizz_risk":1,"updated_at":"2026-06-05T02:28:36.920832+05:30"},{"city":"Coimbatore","state":"Tamil Nadu","latitude":11.0168,"longitude":76.9558,"temp":24.0,"humidity":88,"rain":0.0,"pressure":959.9,"uv_index":2.3,"wind_gusts":65.2,"aqi":21,"pm10":2.2,"pm2_5":1.9,"no2":4.9,"co":118.0,"o3":39.0,"so2":2.2,"mosquito_risk":3,"arthritis_risk":5,"migraine_risk":3,"frizz_risk":1,"updated_at":"2026-06-05T02:28:36.920864+05:30"},{"city":"Madurai","state":"Tamil Nadu","latitude":9.9252,"longitude":78.1198,"temp":28.3,"humidity":66,"rain":0.0,"pressure":990.9,"uv_index":8.0,"wind_gusts":55.1,"aqi":38,"pm10":11.3,"pm2_5":11.0,"no2":21.5,"co":203.0,"o3":16.0,"so2":4.7,"mosquito_risk":7,"arthritis_risk":5,"migraine_risk":7,"frizz_risk":1,"updated_at":"2026-06-05T02:28:36.920876+05:30"},{"city":"Trichy","state":"Tamil Nadu","latitude":10.7905,"longitude":78.7047,"temp":29.0,"humidity":61,"rain":0.0,"pressure":997.4,"uv_index":8.15,"wind_gusts":58.3,"aqi":25,"pm10":3.8,"pm2_5":3.4,"no2":7.6,"co":127.0,"o3":32.0,"so2":2.8,"mosquito_risk":7,"arthritis_risk":5,"migraine_risk":7,"frizz_risk":1,"updated_at":"2026-06-05T02:28:36.920885+05:30"},{"city":"Salem","state":"Tamil Nadu","latitude":11.6643,"longitude":78.146,"temp":26.6,"humidity":76,"rain":0.0,"pressure":975.5,"uv_index":6.5,"wind_gusts":41.8,"aqi":44,"pm10":10.4,"pm2_5":9.5,"no2":18.0,"co":238.0,"o3":28.0,"so2":6.2,"mosquito_risk":7,"arthritis_risk":5,"migraine_risk":7,"frizz_risk":1,"updated_at":"2026-06-05T02:28:36.920893+05:30"},{"city":"Tirunelveli","state":"Tamil Nadu","latitude":8.7139,"longitude":77.7567,"temp":27.6,"humidity":76,"rain":0.0,"pressure":1002.1,"uv_index":8.35,"wind_gusts":47.2,"aqi":19,"pm10":4.4,"pm2_5":3.5,"no2":5.9,"co":169.0,"o3":34.0,"so2":1.5,"mosquito_risk":7,"arthritis_risk":5,"migraine_risk":4,"frizz_risk":1,"updated_at":"2026-06-05T02:28:36.920902+05:30"},{"city":"Vellore","state":"Tamil Nadu","latitude":12.9165,"longitude":79.1325,"temp":28.2,"humidity":66,"rain":0.0,"pressure":981.3,"uv_index":9.05,"wind_gusts":46.8,"aqi":47,"pm10":14.8,"pm2_5":13.0,"no2":17.4,"co":178.0,"o3":34.0,"so2":5.0,"mosquito_risk":7,"arthritis_risk":5,"migraine_risk":7,"frizz_risk":1,"updated_at":"2026-06-05T02:28:36.920909+05:30"},{"city":"Erode","state":"Tamil Nadu","latitude":11.341,"longitude":77.7172,"temp":26.0,"humidity":80,"rain":0.0,"pressure":987.2,"uv_index":6.85,"wind_gusts":46.4,"aqi":26,"pm10":5.1,"pm2_5":4.7,"no2":9.3,"co":132.0,"o3":36.0,"so2":3.2,"mosquito_risk":7,"arthritis_risk":5,"migraine_risk":7,"frizz_risk":1,"updated_at":"2026-06-05T02:28:36.920917+05:30"},{"city":"Kochi","state":"Kerala","latitude":9.9312,"longitude":76.2673,"temp":26.1,"humidity":91,"rain":0.1,"pressure":1008.7,"uv_index":6.05,"wind_gusts":41.0,"aqi":31,"pm10":9.9,"pm2_5":6.4,"no2":8.6,"co":110.0,"o3":34.0,"so2":2.5,"mosquito_risk":10,"arthritis_risk":0,"migraine_risk":4,"frizz_risk":1,"updated_at":"2026-06-05T02:28:36.920925+05:30"},{"city":"Thiruvananthapuram","state":"Kerala","latitude":8.5241,"longitude":76.9366,"temp":25.0,"humidity":93,"rain":0.4,"pressure":1008.0,"uv_index":6.45,"wind_gusts":47.9,"aqi":24,"pm10":13.5,"pm2_5":6.2,"no2":1.5,"co":92.0,"o3":50.0,"so2":0.4,"mosquito_risk":10,"arthritis_risk":0,"migraine_risk":4,"frizz_risk":1,"updated_at":"2026-06-05T02:28:36.920932+05:30"},{"city":"Kozhikode","state":"Kerala","latitude":11.2588,"longitude":75.7804,"temp":24.3,"humidity":99,"rain":0.4,"pressure":1007.5,"uv_index":7.45,"wind_gusts":26.3,"aqi":26,"pm10":12.2,"pm2_5":5.0,"no2":0.7,"co":168.0,"o3":55.0,"so2":0.3,"mosquito_risk":6,"arthritis_risk":5,"migraine_risk":4,"frizz_risk":1,"updated_at":"2026-06-05T02:28:36.920940+05:30"},{"city":"Thrissur","state":"Kerala","latitude":10.5276,"longitude":76.2144,"temp":24.2,"humidity":98,"rain":0.4,"pressure":1006.8,"uv_index":6.4,"wind_gusts":31.7,"aqi":33,"pm10":11.1,"pm2_5":7.8,"no2":8.2,"co":215.0,"o3":35.0,"so2":2.5,"mosquito_risk":6,"arthritis_risk":5,"migraine_risk":4,"frizz_risk":1,"updated_at":"2026-06-05T02:28:36.920948+05:30"},{"city":"Kannur","state":"Kerala","latitude":11.8745,"longitude":75.3704,"temp":24.9,"humidity":97,"rain":0.2,"pressure":1006.1,"uv_index":6.75,"wind_gusts":36.7,"aqi":25,"pm10":11.8,"pm2_5":6.1,"no2":3.4,"co":156.0,"o3":44.0,"so2":1.2,"mosquito_risk":6,"arthritis_risk":5,"migraine_risk":4,"frizz_risk":1,"updated_at":"2026-06-05T02:28:36.920956+05:30"},{"city":"Patna","state":"Bihar","latitude":25.5941,"longitude":85.1376,"temp":29.6,"humidity":75,"rain":0.0,"pressure":993.9,"uv_index":8.9,"wind_gusts":31.7,"aqi":159,"pm10":67.3,"pm2_5":58.7,"no2":24.9,"co":538.0,"o3":69.0,"so2":13.2,"mosquito_risk":7,"arthritis_risk":5,"migraine_risk":7,"frizz_risk":1,"updated_at":"2026-06-05T02:28:36.920963+05:30"},{"city":"Gaya","state":"Bihar","latitude":24.7914,"longitude":85.0002,"temp":25.8,"humidity":87,"rain":0.0,"pressure":988.7,"uv_index":8.95,"wind_gusts":46.4,"aqi":153,"pm10":77.5,"pm2_5":66.6,"no2":23.3,"co":484.0,"o3":71.0,"so2":10.4,"mosquito_risk":7,"arthritis_risk":5,"migraine_risk":7,"frizz_risk":1,"updated_at":"2026-06-05T02:28:36.920969+05:30"},{"city":"Muzaffarpur","state":"Bihar","latitude":26.1209,"longitude":85.3647,"temp":28.1,"humidity":71,"rain":0.0,"pressure":994.3,"uv_index":8.85,"wind_gusts":31.3,"aqi":164,"pm10":85.7,"pm2_5":75.7,"no2":29.3,"co":778.0,"o3":61.0,"so2":15.1,"mosquito_risk":7,"arthritis_risk":5,"migraine_risk":7,"frizz_risk":1,"updated_at":"2026-06-05T02:28:36.920976+05:30"},{"city":"Bhagalpur","state":"Bihar","latitude":25.2425,"longitude":87.0117,"temp":29.7,"humidity":72,"rain":0.0,"pressure":995.1,"uv_index":6.95,"wind_gusts":24.5,"aqi":155,"pm10":75.9,"pm2_5":71.2,"no2":11.3,"co":508.0,"o3":131.0,"so2":28.7,"mosquito_risk":7,"arthritis_risk":5,"migraine_risk":7,"frizz_risk":1,"updated_at":"2026-06-05T02:28:36.920983+05:30"},{"city":"Ranchi","state":"Jharkhand","latitude":23.3441,"longitude":85.3096,"temp":25.0,"humidity":78,"rain":0.0,"pressure":932.5,"uv_index":9.3,"wind_gusts":36.4,"aqi":118,"pm10":75.2,"pm2_5":64.0,"no2":33.7,"co":318.0,"o3":55.0,"so2":7.4,"mosquito_risk":7,"arthritis_risk":5,"migraine_risk":7,"frizz_risk":1,"updated_at":"2026-06-05T02:28:36.920990+05:30"},{"city":"Jamshedpur","state":"Jharkhand","latitude":22.8046,"longitude":86.2029,"temp":28.2,"humidity":81,"rain":0.0,"pressure":985.0,"uv_index":9.1,"wind_gusts":32.0,"aqi":154,"pm10":75.0,"pm2_5":65.4,"no2":33.3,"co":727.0,"o3":70.0,"so2":41.2,"mosquito_risk":7,"arthritis_risk":5,"migraine_risk":7,"frizz_risk":1,"updated_at":"2026-06-05T02:28:36.920997+05:30"},{"city":"Dhanbad","state":"Jharkhand","latitude":23.7957,"longitude":86.4304,"temp":30.0,"humidity":69,"rain":0.0,"pressure":974.2,"uv_index":9.1,"wind_gusts":27.7,"aqi":167,"pm10":114.6,"pm2_5":107.1,"no2":80.5,"co":830.0,"o3":28.0,"so2":212.5,"mosquito_risk":7,"arthritis_risk":5,"migraine_risk":7,"frizz_risk":1,"updated_at":"2026-06-05T02:28:36.921005+05:30"},{"city":"Bokaro","state":"Jharkhand","latitude":23.6693,"longitude":86.1511,"temp":29.3,"humidity":66,"rain":0.0,"pressure":977.9,"uv_index":9.1,"wind_gusts":25.9,"aqi":159,"pm10":88.2,"pm2_5":79.2,"no2":42.8,"co":1550.0,"o3":61.0,"so2":166.1,"mosquito_risk":7,"arthritis_risk":5,"migraine_risk":7,"frizz_risk":1,"updated_at":"2026-06-05T02:28:36.921013+05:30"},{"city":"Bhubaneswar","state":"Odisha","latitude":20.2961,"longitude":85.8245,"temp":29.4,"humidity":94,"rain":0.0,"pressure":996.1,"uv_index":6.8,"wind_gusts":24.1,"aqi":98,"pm10":34.7,"pm2_5":32.5,"no2":8.5,"co":450.0,"o3":109.0,"so2":8.4,"mosquito_risk":7,"arthritis_risk":5,"migraine_risk":7,"frizz_risk":1,"updated_at":"2026-06-05T02:28:36.921020+05:30"},{"city":"Cuttack","state":"Odisha","latitude":20.4625,"longitude":85.8828,"temp":29.5,"humidity":91,"rain":0.0,"pressure":998.0,"uv_index":7.95,"wind_gusts":27.0,"aqi":98,"pm10":34.7,"pm2_5":32.5,"no2":8.5,"co":652.0,"o3":109.0,"so2":8.4,"mosquito_risk":7,"arthritis_risk":5,"migraine_risk":7,"frizz_risk":1,"updated_at":"2026-06-05T02:28:36.921027+05:30"},{"city":"Rourkela","state":"Odisha","latitude":22.2604,"longitude":84.8536,"temp":28.6,"humidity":81,"rain":0.0,"pressure":979.8,"uv_index":8.75,"wind_gusts":29.5,"aqi":153,"pm10":68.2,"pm2_5":57.9,"no2":18.1,"co":455.0,"o3":88.0,"so2":13.9,"mosquito_risk":7,"arthritis_risk":5,"migraine_risk":7,"frizz_risk":1,"updated_at":"2026-06-05T02:28:36.921035+05:30"},{"city":"Raipur","state":"Chhattisgarh","latitude":21.2514,"longitude":81.6296,"temp":31.9,"humidity":46,"rain":0.0,"pressure":969.2,"uv_index":9.0,"wind_gusts":32.0,"aqi":118,"pm10":67.1,"pm2_5":56.9,"no2":54.2,"co":302.0,"o3":37.0,"so2":64.4,"mosquito_risk":0,"arthritis_risk":5,"migraine_risk":7,"frizz_risk":1,"updated_at":"2026-06-05T02:28:36.921041+05:30"},{"city":"Bhilai","state":"Chhattisgarh","latitude":21.1938,"longitude":81.3509,"temp":31.1,"humidity":50,"rain":0.0,"pressure":969.6,"uv_index":9.0,"wind_gusts":33.1,"aqi":112,"pm10":65.7,"pm2_5":53.8,"no2":44.5,"co":488.0,"o3":46.0,"so2":49.4,"mosquito_risk":0,"arthritis_risk":5,"migraine_risk":7,"frizz_risk":1,"updated_at":"2026-06-05T02:28:36.921048+05:30"},{"city":"Guwahati","state":"Assam","latitude":26.1158,"longitude":91.7086,"temp":24.1,"humidity":98,"rain":0.0,"pressure":998.3,"uv_index":8.8,"wind_gusts":25.6,"aqi":108,"pm10":44.2,"pm2_5":41.2,"no2":9.8,"co":534.0,"o3":68.0,"so2":4.3,"mosquito_risk":3,"arthritis_risk":5,"migraine_risk":7,"frizz_risk":1,"updated_at":"2026-06-05T02:28:36.921055+05:30"},{"city":"Agartala","state":"Tripura","latitude":23.8315,"longitude":91.2868,"temp":27.4,"humidity":91,"rain":0.0,"pressure":1001.4,"uv_index":8.9,"wind_gusts":42.8,"aqi":109,"pm10":46.8,"pm2_5":43.7,"no2":15.9,"co":271.0,"o3":57.0,"so2":2.6,"mosquito_risk":7,"arthritis_risk":5,"migraine_risk":4,"frizz_risk":1,"updated_at":"2026-06-05T02:28:36.921061+05:30"},{"city":"Shillong","state":"Meghalaya","latitude":25.5788,"longitude":91.8933,"temp":17.8,"humidity":97,"rain":0.0,"pressure":853.5,"uv_index":7.9,"wind_gusts":20.9,"aqi":63,"pm10":9.4,"pm2_5":8.4,"no2":4.2,"co":293.0,"o3":104.0,"so2":4.2,"mosquito_risk":3,"arthritis_risk":10,"migraine_risk":7,"frizz_risk":1,"updated_at":"2026-06-05T02:28:36.921069+05:30"},{"city":"Imphal","state":"Manipur","latitude":24.817,"longitude":93.9368,"temp":21.3,"humidity":98,"rain":0.0,"pressure":919.2,"uv_index":9.3,"wind_gusts":27.7,"aqi":95,"pm10":50.9,"pm2_5":47.7,"no2":21.8,"co":851.0,"o3":25.0,"so2":4.0,"mosquito_risk":3,"arthritis_risk":5,"migraine_risk":7,"frizz_risk":1,"updated_at":"2026-06-05T02:28:36.921076+05:30"},{"city":"Aizawl","state":"Mizoram","latitude":23.7271,"longitude":92.7176,"temp":19.9,"humidity":96,"rain":0.0,"pressure":888.6,"uv_index":8.7,"wind_gusts":28.4,"aqi":79,"pm10":21.5,"pm2_5":17.5,"no2":10.6,"co":261.0,"o3":36.0,"so2":1.6,"mosquito_risk":3,"arthritis_risk":10,"migraine_risk":7,"frizz_risk":1,"updated_at":"2026-06-05T02:28:36.921082+05:30"},{"city":"Kohima","state":"Nagaland","latitude":25.6701,"longitude":94.1077,"temp":17.7,"humidity":93,"rain":0.0,"pressure":851.7,"uv_index":9.25,"wind_gusts":29.9,"aqi":67,"pm10":24.1,"pm2_5":20.7,"no2":8.8,"co":310.0,"o3":60.0,"so2":2.0,"mosquito_risk":3,"arthritis_risk":10,"migraine_risk":7,"frizz_risk":1,"updated_at":"2026-06-05T02:28:36.921089+05:30"},{"city":"Gangtok","state":"Sikkim","latitude":27.3314,"longitude":88.6138,"temp":16.8,"humidity":91,"rain":0.2,"pressure":834.2,"uv_index":9.25,"wind_gusts":39.2,"aqi":81,"pm10":9.1,"pm2_5":8.3,"no2":6.5,"co":471.0,"o3":109.0,"so2":1.9,"mosquito_risk":6,"arthritis_risk":10,"migraine_risk":7,"frizz_risk":0,"updated_at":"2026-06-05T02:28:36.921097+05:30"},{"city":"Siliguri","state":"West Bengal","latitude":26.7271,"longitude":88.3953,"temp":22.2,"humidity":98,"rain":0.0,"pressure":989.0,"uv_index":8.8,"wind_gusts":29.9,"aqi":152,"pm10":42.4,"pm2_5":38.6,"no2":14.0,"co":353.0,"o3":106.0,"so2":5.6,"mosquito_risk":3,"arthritis_risk":5,"migraine_risk":7,"frizz_risk":1,"updated_at":"2026-06-05T02:28:40.329247+05:30"},{"city":"Durgapur","state":"West Bengal","latitude":23.5204,"longitude":87.3119,"temp":29.2,"humidity":93,"rain":0.0,"pressure":989.1,"uv_index":9.0,"wind_gusts":42.8,"aqi":168,"pm10":71.0,"pm2_5":68.0,"no2":30.9,"co":528.0,"o3":58.0,"so2":36.6,"mosquito_risk":7,"arthritis_risk":5,"migraine_risk":7,"frizz_risk":1,"updated_at":"2026-06-05T02:28:40.329278+05:30"},{"city":"Asansol","state":"West Bengal","latitude":23.6739,"longitude":86.9524,"temp":29.0,"humidity":88,"rain":0.0,"pressure":987.6,"uv_index":9.0,"wind_gusts":29.9,"aqi":164,"pm10":66.1,"pm2_5":61.9,"no2":34.2,"co":898.0,"o3":63.0,"so2":41.7,"mosquito_risk":7,"arthritis_risk":5,"migraine_risk":7,"frizz_risk":1,"updated_at":"2026-06-05T02:28:40.329289+05:30"},{"city":"Pondicherry","state":"Puducherry","latitude":11.9139,"longitude":79.8145,"temp":29.9,"humidity":61,"rain":0.0,"pressure":1004.8,"uv_index":8.8,"wind_gusts":40.7,"aqi":60,"pm10":20.7,"pm2_5":18.4,"no2":22.1,"co":293.0,"o3":45.0,"so2":7.4,"mosquito_risk":7,"arthritis_risk":5,"migraine_risk":4,"frizz_risk":1,"updated_at":"2026-06-05T02:28:40.329298+05:30"},{"city":"Port Blair","state":"Andaman and Nicobar Islands","latitude":11.6234,"longitude":92.7265,"temp":25.1,"humidity":97,"rain":0.3,"pressure":1003.6,"uv_index":2.65,"wind_gusts":41.4,"aqi":29,"pm10":7.4,"pm2_5":4.5,"no2":0.2,"co":96.0,"o3":64.0,"so2":0.4,"mosquito_risk":10,"arthritis_risk":5,"migraine_risk":0,"frizz_risk":1,"updated_at":"2026-06-05T02:28:40.329307+05:30"},{"city":"Haridwar","state":"Uttarakhand","latitude":29.9457,"longitude":78.1642,"temp":26.5,"humidity":66,"rain":0.0,"pressure":967.8,"uv_index":7.4,"wind_gusts":31.3,"aqi":110,"pm10":69.2,"pm2_5":46.3,"no2":29.4,"co":338.0,"o3":37.0,"so2":6.3,"mosquito_risk":7,"arthritis_risk":5,"migraine_risk":7,"frizz_risk":1,"updated_at":"2026-06-05T02:28:40.329315+05:30"},{"city":"Rishikesh","state":"Uttarakhand","latitude":30.0869,"longitude":78.2676,"temp":23.5,"humidity":87,"rain":0.0,"pressure":960.8,"uv_index":5.5,"wind_gusts":29.2,"aqi":77,"pm10":66.6,"pm2_5":28.5,"no2":11.0,"co":352.0,"o3":91.0,"so2":4.0,"mosquito_risk":3,"arthritis_risk":5,"migraine_risk":3,"frizz_risk":1,"updated_at":"2026-06-05T02:28:40.329323+05:30"},{"city":"Nainital","state":"Uttarakhand","latitude":29.3919,"longitude":79.4542,"temp":12.4,"humidity":99,"rain":0.1,"pressure":801.5,"uv_index":6.5,"wind_gusts":25.2,"aqi":79,"pm10":23.5,"pm2_5":20.4,"no2":17.2,"co":270.0,"o3":71.0,"so2":2.5,"mosquito_risk":6,"arthritis_risk":10,"migraine_risk":7,"frizz_risk":0,"updated_at":"2026-06-05T02:28:40.329331+05:30"},{"city":"Mussoorie","state":"Uttarakhand","latitude":30.4599,"longitude":78.0664,"temp":12.5,"humidity":96,"rain":0.0,"pressure":797.4,"uv_index":4.25,"wind_gusts":34.2,"aqi":80,"pm10":45.6,"pm2_5":26.4,"no2":28.7,"co":283.0,"o3":52.0,"so2":4.9,"mosquito_risk":3,"arthritis_risk":10,"migraine_risk":3,"frizz_risk":0,"updated_at":"2026-06-05T02:28:40.329339+05:30"},{"city":"Dharamshala","state":"Himachal Pradesh","latitude":32.219,"longitude":76.3234,"temp":21.6,"humidity":58,"rain":0.0,"pressure":864.7,"uv_index":7.9,"wind_gusts":46.1,"aqi":45,"pm10":7.5,"pm2_5":6.7,"no2":12.5,"co":345.0,"o3":62.0,"so2":0.0,"mosquito_risk":0,"arthritis_risk":5,"migraine_risk":7,"frizz_risk":0,"updated_at":"2026-06-05T02:28:40.329346+05:30"},{"city":"Dalhousie","state":"Himachal Pradesh","latitude":32.5387,"longitude":75.971,"temp":16.5,"humidity":68,"rain":0.0,"pressure":800.7,"uv_index":8.2,"wind_gusts":37.4,"aqi":63,"pm10":28.7,"pm2_5":25.1,"no2":35.3,"co":401.0,"o3":27.0,"so2":1.1,"mosquito_risk":3,"arthritis_risk":5,"migraine_risk":7,"frizz_risk":0,"updated_at":"2026-06-05T02:28:40.329355+05:30"},{"city":"Patiala","state":"Punjab","latitude":30.3398,"longitude":76.3869,"temp":26.8,"humidity":66,"rain":0.0,"pressure":971.6,"uv_index":7.65,"wind_gusts":33.1,"aqi":192,"pm10":80.8,"pm2_5":53.8,"no2":14.1,"co":737.0,"o3":94.0,"so2":15.1,"mosquito_risk":7,"arthritis_risk":5,"migraine_risk":7,"frizz_risk":1,"updated_at":"2026-06-05T02:28:40.329362+05:30"},{"city":"Bhatinda","state":"Punjab","latitude":30.211,"longitude":74.9455,"temp":27.6,"humidity":60,"rain":0.0,"pressure":977.1,"uv_index":8.25,"wind_gusts":31.3,"aqi":152,"pm10":443.3,"pm2_5":112.9,"no2":15.6,"co":476.0,"o3":83.0,"so2":8.5,"mosquito_risk":4,"arthritis_risk":5,"migraine_risk":7,"frizz_risk":1,"updated_at":"2026-06-05T02:28:40.329368+05:30"},{"city":"Rohtak","state":"Haryana","latitude":28.8955,"longitude":76.6066,"temp":28.1,"humidity":60,"rain":0.0,"pressure":975.5,"uv_index":6.6,"wind_gusts":28.1,"aqi":183,"pm10":118.7,"pm2_5":48.7,"no2":25.9,"co":795.0,"o3":56.0,"so2":6.9,"mosquito_risk":4,"arthritis_risk":5,"migraine_risk":7,"frizz_risk":1,"updated_at":"2026-06-05T02:28:40.329375+05:30"},{"city":"Panipat","state":"Haryana","latitude":29.3909,"longitude":76.9635,"temp":27.1,"humidity":66,"rain":0.0,"pressure":973.9,"uv_index":6.95,"wind_gusts":31.7,"aqi":441,"pm10":218.4,"pm2_5":73.3,"no2":15.0,"co":574.0,"o3":93.0,"so2":8.2,"mosquito_risk":7,"arthritis_risk":5,"migraine_risk":7,"frizz_risk":1,"updated_at":"2026-06-05T02:28:40.329382+05:30"},{"city":"Mathura","state":"Uttar Pradesh","latitude":27.4924,"longitude":77.6737,"temp":27.4,"humidity":71,"rain":0.0,"pressure":980.9,"uv_index":8.1,"wind_gusts":28.8,"aqi":180,"pm10":86.6,"pm2_5":32.6,"no2":9.0,"co":376.0,"o3":65.0,"so2":2.3,"mosquito_risk":7,"arthritis_risk":5,"migraine_risk":7,"frizz_risk":1,"updated_at":"2026-06-05T02:28:40.329389+05:30"},{"city":"Vrindavan","state":"Uttar Pradesh","latitude":27.5823,"longitude":77.7027,"temp":27.9,"humidity":66,"rain":0.0,"pressure":981.5,"uv_index":8.05,"wind_gusts":28.4,"aqi":180,"pm10":86.6,"pm2_5":32.6,"no2":9.0,"co":398.0,"o3":65.0,"so2":2.3,"mosquito_risk":7,"arthritis_risk":5,"migraine_risk":7,"frizz_risk":1,"updated_at":"2026-06-05T02:28:40.329397+05:30"},{"city":"Ayodhya","state":"Uttar Pradesh","latitude":26.7922,"longitude":82.1998,"temp":29.0,"humidity":73,"rain":0.0,"pressure":988.8,"uv_index":8.45,"wind_gusts":24.1,"aqi":154,"pm10":156.0,"pm2_5":97.8,"no2":82.1,"co":793.0,"o3":11.0,"so2":19.8,"mosquito_risk":7,"arthritis_risk":5,"migraine_risk":7,"frizz_risk":1,"updated_at":"2026-06-05T02:28:40.329403+05:30"},{"city":"Ratlam","state":"Madhya Pradesh","latitude":23.3315,"longitude":75.0367,"temp":27.2,"humidity":73,"rain":0.0,"pressure":950.7,"uv_index":8.5,"wind_gusts":44.6,"aqi":83,"pm10":39.7,"pm2_5":27.0,"no2":4.9,"co":195.0,"o3":81.0,"so2":11.3,"mosquito_risk":7,"arthritis_risk":5,"migraine_risk":7,"frizz_risk":1,"updated_at":"2026-06-05T02:28:40.329410+05:30"},{"city":"Sagar","state":"Madhya Pradesh","latitude":23.8388,"longitude":78.7378,"temp":27.6,"humidity":54,"rain":0.0,"pressure":945.4,"uv_index":8.2,"wind_gusts":44.3,"aqi":81,"pm10":33.2,"pm2_5":23.6,"no2":7.0,"co":173.0,"o3":73.0,"so2":4.6,"mosquito_risk":4,"arthritis_risk":5,"migraine_risk":7,"frizz_risk":1,"updated_at":"2026-06-05T02:28:40.329417+05:30"},{"city":"Satna","state":"Madhya Pradesh","latitude":24.6005,"longitude":80.8322,"temp":28.5,"humidity":68,"rain":0.0,"pressure":965.4,"uv_index":8.85,"wind_gusts":38.2,"aqi":87,"pm10":61.9,"pm2_5":38.2,"no2":41.6,"co":413.0,"o3":29.0,"so2":5.8,"mosquito_risk":7,"arthritis_risk":5,"migraine_risk":7,"frizz_risk":1,"updated_at":"2026-06-05T02:28:40.329424+05:30"},{"city":"Akola","state":"Maharashtra","latitude":20.7002,"longitude":77.0082,"temp":28.5,"humidity":66,"rain":0.0,"pressure":970.8,"uv_index":8.75,"wind_gusts":46.8,"aqi":80,"pm10":39.3,"pm2_5":24.8,"no2":10.2,"co":188.0,"o3":65.0,"so2":4.3,"mosquito_risk":7,"arthritis_risk":5,"migraine_risk":7,"frizz_risk":1,"updated_at":"2026-06-05T02:28:40.329432+05:30"},{"city":"Amravati","state":"Maharashtra","latitude":20.9374,"longitude":77.7796,"temp":30.2,"humidity":53,"rain":0.0,"pressure":962.5,"uv_index":8.8,"wind_gusts":67.7,"aqi":86,"pm10":56.3,"pm2_5":34.2,"no2":18.4,"co":177.0,"o3":50.0,"so2":5.3,"mosquito_risk":0,"arthritis_risk":5,"migraine_risk":7,"frizz_risk":1,"updated_at":"2026-06-05T02:28:40.329441+05:30"},{"city":"Latur","state":"Maharashtra","latitude":18.4088,"longitude":76.5604,"temp":27.6,"humidity":63,"rain":0.0,"pressure":936.4,"uv_index":8.95,"wind_gusts":52.2,"aqi":63,"pm10":13.3,"pm2_5":10.8,"no2":7.7,"co":188.0,"o3":60.0,"so2":2.4,"mosquito_risk":7,"arthritis_risk":5,"migraine_risk":7,"frizz_risk":1,"updated_at":"2026-06-05T02:28:40.329449+05:30"},{"city":"Nanded","state":"Maharashtra","latitude":19.1383,"longitude":77.3091,"temp":27.7,"humidity":68,"rain":0.1,"pressure":965.0,"uv_index":8.55,"wind_gusts":33.1,"aqi":79,"pm10":30.2,"pm2_5":21.1,"no2":11.6,"co":222.0,"o3":68.0,"so2":6.0,"mosquito_risk":10,"arthritis_risk":5,"migraine_risk":7,"frizz_risk":1,"updated_at":"2026-06-05T02:28:40.329462+05:30"},{"city":"Gulbarga","state":"Karnataka","latitude":17.3297,"longitude":76.8343,"temp":27.8,"humidity":65,"rain":0.0,"pressure":955.6,"uv_index":7.1,"wind_gusts":31.7,"aqi":57,"pm10":7.6,"pm2_5":7.0,"no2":12.1,"co":195.0,"o3":43.0,"so2":2.6,"mosquito_risk":7,"arthritis_risk":5,"migraine_risk":7,"frizz_risk":1,"updated_at":"2026-06-05T02:28:40.329488+05:30"},{"city":"Bidar","state":"Karnataka","latitude":17.9104,"longitude":77.5199,"temp":27.3,"humidity":65,"rain":0.0,"pressure":932.0,"uv_index":7.6,"wind_gusts":41.4,"aqi":64,"pm10":15.0,"pm2_5":11.7,"no2":9.8,"co":181.0,"o3":67.0,"so2":2.7,"mosquito_risk":7,"arthritis_risk":5,"migraine_risk":7,"frizz_risk":1,"updated_at":"2026-06-05T02:28:40.329496+05:30"},{"city":"Hospet","state":"Karnataka","latitude":15.2689,"longitude":76.3909,"temp":24.7,"humidity":83,"rain":0.0,"pressure":953.3,"uv_index":8.9,"wind_gusts":39.2,"aqi":27,"pm10":4.7,"pm2_5":3.8,"no2":5.3,"co":143.0,"o3":43.0,"so2":1.2,"mosquito_risk":3,"arthritis_risk":5,"migraine_risk":7,"frizz_risk":1,"updated_at":"2026-06-05T02:28:40.329503+05:30"},{"city":"Tirupur","state":"Tamil Nadu","latitude":11.1085,"longitude":77.3411,"temp":24.2,"humidity":90,"rain":0.0,"pressure":973.2,"uv_index":5.8,"wind_gusts":65.2,"aqi":30,"pm10":6.0,"pm2_5":5.5,"no2":10.7,"co":129.0,"o3":34.0,"so2":3.9,"mosquito_risk":3,"arthritis_risk":5,"migraine_risk":3,"frizz_risk":1,"updated_at":"2026-06-05T02:28:40.329510+05:30"},{"city":"Alappuzha","state":"Kerala","latitude":9.4981,"longitude":76.3388,"temp":26.7,"humidity":91,"rain":0.3,"pressure":1008.5,"uv_index":3.95,"wind_gusts":40.7,"aqi":27,"pm10":13.2,"pm2_5":6.5,"no2":3.3,"co":87.0,"o3":47.0,"so2":1.0,"mosquito_risk":10,"arthritis_risk":0,"migraine_risk":0,"frizz_risk":1,"updated_at":"2026-06-05T02:28:40.329517+05:30"},{"city":"Munnar","state":"Kerala","latitude":10.0889,"longitude":77.0595,"temp":17.3,"humidity":99,"rain":0.2,"pressure":855.7,"uv_index":2.75,"wind_gusts":56.5,"aqi":16,"pm10":2.0,"pm2_5":1.9,"no2":7.7,"co":101.0,"o3":25.0,"so2":1.7,"mosquito_risk":6,"arthritis_risk":10,"migraine_risk":3,"frizz_risk":1,"updated_at":"2026-06-05T02:28:40.329525+05:30"},{"city":"Silchar","state":"Assam","latitude":24.8333,"longitude":92.7789,"temp":25.0,"humidity":99,"rain":0.0,"pressure":1000.8,"uv_index":8.95,"wind_gusts":28.1,"aqi":118,"pm10":45.9,"pm2_5":40.9,"no2":13.5,"co":318.0,"o3":61.0,"so2":4.6,"mosquito_risk":7,"arthritis_risk":5,"migraine_risk":4,"frizz_risk":1,"updated_at":"2026-06-05T02:28:40.329532+05:30"},{"city":"Dibrugarh","state":"Assam","latitude":27.4728,"longitude":94.912,"temp":23.3,"humidity":92,"rain":0.0,"pressure":992.1,"uv_index":9.0,"wind_gusts":17.3,"aqi":82,"pm10":21.0,"pm2_5":19.4,"no2":11.7,"co":317.0,"o3":55.0,"so2":1.0,"mosquito_risk":3,"arthritis_risk":5,"migraine_risk":7,"frizz_risk":1,"updated_at":"2026-06-05T02:28:40.329539+05:30"}]