[{"city":"Delhi","state":"Delhi","latitude":28.6139,"longitude":77.209,"temp":29.0,"humidity":84,"rain":0.0,"pressure":976.7,"uv_index":6.7,"wind_gusts":29.9,"aqi":198,"pm10":291.5,"pm2_5":95.2,"no2":34.1,"co":244.0,"o3":39.0,"so2":27.3,"mosquito_risk":7,"arthritis_risk":5,"migraine_risk":7,"frizz_risk":1,"updated_at":"2026-07-20T04:25:37.183164+05:30"},{"city":"Mumbai","state":"Maharashtra","latitude":19.076,"longitude":72.8777,"temp":25.3,"humidity":93,"rain":0.3,"pressure":1005.8,"uv_index":7.7,"wind_gusts":45.0,"aqi":58,"pm10":21.2,"pm2_5":9.5,"no2":5.6,"co":116.0,"o3":44.0,"so2":5.0,"mosquito_risk":10,"arthritis_risk":5,"migraine_risk":4,"frizz_risk":1,"updated_at":"2026-07-20T04:25:37.183200+05:30"},{"city":"Bangalore","state":"Karnataka","latitude":12.9716,"longitude":77.5946,"temp":20.9,"humidity":91,"rain":0.0,"pressure":911.0,"uv_index":8.5,"wind_gusts":51.1,"aqi":50,"pm10":5.4,"pm2_5":4.0,"no2":6.2,"co":139.0,"o3":35.0,"so2":3.5,"mosquito_risk":3,"arthritis_risk":5,"migraine_risk":7,"frizz_risk":1,"updated_at":"2026-07-20T04:25:37.183215+05:30"},{"city":"Hyderabad","state":"Telangana","latitude":17.385,"longitude":78.4867,"temp":23.2,"humidity":90,"rain":0.0,"pressure":950.2,"uv_index":5.05,"wind_gusts":49.0,"aqi":40,"pm10":4.5,"pm2_5":3.5,"no2":6.0,"co":132.0,"o3":34.0,"so2":3.4,"mosquito_risk":3,"arthritis_risk":5,"migraine_risk":3,"frizz_risk":1,"updated_at":"2026-07-20T04:25:37.183224+05:30"},{"city":"Chennai","state":"Tamil Nadu","latitude":13.0827,"longitude":80.2707,"temp":27.5,"humidity":86,"rain":0.0,"pressure":1005.3,"uv_index":7.75,"wind_gusts":37.1,"aqi":75,"pm10":27.1,"pm2_5":18.7,"no2":11.8,"co":243.0,"o3":55.0,"so2":9.5,"mosquito_risk":7,"arthritis_risk":5,"migraine_risk":4,"frizz_risk":1,"updated_at":"2026-07-20T04:25:37.183233+05:30"},{"city":"Kolkata","state":"West Bengal","latitude":22.5726,"longitude":88.3639,"temp":26.9,"humidity":92,"rain":0.0,"pressure":1001.6,"uv_index":3.5,"wind_gusts":29.9,"aqi":67,"pm10":36.2,"pm2_5":26.3,"no2":7.3,"co":219.0,"o3":76.0,"so2":5.2,"mosquito_risk":7,"arthritis_risk":5,"migraine_risk":0,"frizz_risk":1,"updated_at":"2026-07-20T04:25:37.183240+05:30"},{"city":"Pune","state":"Maharashtra","latitude":18.5204,"longitude":73.8567,"temp":23.0,"humidity":88,"rain":0.0,"pressure":945.0,"uv_index":8.05,"wind_gusts":47.2,"aqi":22,"pm10":1.8,"pm2_5":1.6,"no2":5.6,"co":115.0,"o3":34.0,"so2":5.4,"mosquito_risk":3,"arthritis_risk":5,"migraine_risk":7,"frizz_risk":1,"updated_at":"2026-07-20T04:25:37.183247+05:30"},{"city":"Ahmedabad","state":"Gujarat","latitude":23.0225,"longitude":72.5714,"temp":26.7,"humidity":93,"rain":0.1,"pressure":997.2,"uv_index":6.1,"wind_gusts":34.6,"aqi":65,"pm10":23.4,"pm2_5":13.9,"no2":9.6,"co":144.0,"o3":33.0,"so2":4.2,"mosquito_risk":10,"arthritis_risk":5,"migraine_risk":7,"frizz_risk":1,"updated_at":"2026-07-20T04:25:37.183254+05:30"},{"city":"Jaipur","state":"Rajasthan","latitude":26.9124,"longitude":75.7873,"temp":29.7,"humidity":65,"rain":0.0,"pressure":954.5,"uv_index":5.35,"wind_gusts":29.5,"aqi":128,"pm10":343.7,"pm2_5":61.9,"no2":10.6,"co":162.0,"o3":50.0,"so2":5.7,"mosquito_risk":7,"arthritis_risk":5,"migraine_risk":3,"frizz_risk":1,"updated_at":"2026-07-20T04:25:37.183260+05:30"},{"city":"Lucknow","state":"Uttar Pradesh","latitude":26.8467,"longitude":80.9462,"temp":25.7,"humidity":96,"rain":0.1,"pressure":988.0,"uv_index":6.15,"wind_gusts":26.6,"aqi":142,"pm10":58.1,"pm2_5":43.5,"no2":23.2,"co":262.0,"o3":49.0,"so2":9.3,"mosquito_risk":10,"arthritis_risk":5,"migraine_risk":7,"frizz_risk":1,"updated_at":"2026-07-20T04:25:37.183271+05:30"},{"city":"Kanpur","state":"Uttar Pradesh","latitude":26.4499,"longitude":80.3319,"temp":26.6,"humidity":97,"rain":0.3,"pressure":986.3,"uv_index":5.45,"wind_gusts":32.4,"aqi":133,"pm10":46.7,"pm2_5":31.2,"no2":17.2,"co":299.0,"o3":51.0,"so2":2.7,"mosquito_risk":10,"arthritis_risk":5,"migraine_risk":3,"frizz_risk":1,"updated_at":"2026-07-20T04:25:37.183279+05:30"},{"city":"Chandigarh","state":"Chandigarh","latitude":30.7333,"longitude":76.7794,"temp":26.9,"humidity":90,"rain":0.0,"pressure":963.1,"uv_index":1.6,"wind_gusts":29.9,"aqi":163,"pm10":116.6,"pm2_5":61.2,"no2":15.7,"co":259.0,"o3":68.0,"so2":14.2,"mosquito_risk":7,"arthritis_risk":5,"migraine_risk":3,"frizz_risk":1,"updated_at":"2026-07-20T04:25:37.183286+05:30"},{"city":"Srinagar","state":"Jammu and Kashmir","latitude":34.0837,"longitude":74.7973,"temp":20.6,"humidity":99,"rain":0.0,"pressure":838.3,"uv_index":8.7,"wind_gusts":20.9,"aqi":73,"pm10":32.9,"pm2_5":29.9,"no2":22.2,"co":386.0,"o3":27.0,"so2":1.8,"mosquito_risk":3,"arthritis_risk":5,"migraine_risk":7,"frizz_risk":1,"updated_at":"2026-07-20T04:25:37.183293+05:30"},{"city":"Jammu","state":"Jammu and Kashmir","latitude":32.7266,"longitude":74.857,"temp":26.9,"humidity":96,"rain":0.1,"pressure":966.5,"uv_index":6.85,"wind_gusts":22.3,"aqi":139,"pm10":59.3,"pm2_5":31.9,"no2":15.4,"co":276.0,"o3":60.0,"so2":3.5,"mosquito_risk":10,"arthritis_risk":5,"migraine_risk":7,"frizz_risk":1,"updated_at":"2026-07-20T04:25:37.183300+05:30"},{"city":"Amritsar","state":"Punjab","latitude":31.634,"longitude":74.8723,"temp":29.3,"humidity":86,"rain":0.0,"pressure":973.7,"uv_index":6.85,"wind_gusts":36.7,"aqi":174,"pm10":145.3,"pm2_5":82.2,"no2":17.4,"co":554.0,"o3":53.0,"so2":8.7,"mosquito_risk":7,"arthritis_risk":5,"migraine_risk":7,"frizz_risk":1,"updated_at":"2026-07-20T04:25:37.183305+05:30"},{"city":"Ludhiana","state":"Punjab","latitude":30.901,"longitude":75.8573,"temp":28.6,"humidity":89,"rain":0.0,"pressure":972.0,"uv_index":7.0,"wind_gusts":35.3,"aqi":189,"pm10":497.3,"pm2_5":142.5,"no2":16.7,"co":405.0,"o3":73.0,"so2":16.5,"mosquito_risk":7,"arthritis_risk":5,"migraine_risk":7,"frizz_risk":1,"updated_at":"2026-07-20T04:25:37.183311+05:30"},{"city":"Jalandhar","state":"Punjab","latitude":31.326,"longitude":75.5762,"temp":28.8,"humidity":87,"rain":0.0,"pressure":973.1,"uv_index":7.9,"wind_gusts":36.0,"aqi":176,"pm10":350.2,"pm2_5":133.6,"no2":23.3,"co":433.0,"o3":52.0,"so2":19.1,"mosquito_risk":7,"arthritis_risk":5,"migraine_risk":7,"frizz_risk":1,"updated_at":"2026-07-20T04:25:37.183318+05:30"},{"city":"Dehradun","state":"Uttarakhand","latitude":30.6284,"longitude":78.0322,"temp":18.6,"humidity":99,"rain":0.0,"pressure":827.2,"uv_index":2.65,"wind_gusts":19.4,"aqi":54,"pm10":28.8,"pm2_5":12.2,"no2":7.9,"co":248.0,"o3":65.0,"so2":1.0,"mosquito_risk":3,"arthritis_risk":10,"migraine_risk":3,"frizz_risk":1,"updated_at":"2026-07-20T04:25:37.183324+05:30"},{"city":"Shimla","state":"Himachal Pradesh","latitude":31.1048,"longitude":77.1734,"temp":16.8,"humidity":95,"rain":0.1,"pressure":781.9,"uv_index":2.75,"wind_gusts":26.6,"aqi":82,"pm10":39.9,"pm2_5":16.5,"no2":10.7,"co":214.0,"o3":64.0,"so2":4.4,"mosquito_risk":6,"arthritis_risk":10,"migraine_risk":3,"frizz_risk":0,"updated_at":"2026-07-20T04:25:37.183330+05:30"},{"city":"Manali","state":"Himachal Pradesh","latitude":32.2396,"longitude":77.1887,"temp":20.1,"humidity":98,"rain":0.0,"pressure":816.5,"uv_index":7.8,"wind_gusts":31.0,"aqi":44,"pm10":7.2,"pm2_5":6.8,"no2":20.2,"co":206.0,"o3":25.0,"so2":0.0,"mosquito_risk":3,"arthritis_risk":5,"migraine_risk":7,"frizz_risk":1,"updated_at":"2026-07-20T04:25:37.183339+05:30"},{"city":"Gurgaon","state":"Haryana","latitude":28.4595,"longitude":77.0266,"temp":29.1,"humidity":81,"rain":0.0,"pressure":975.0,"uv_index":6.75,"wind_gusts":25.2,"aqi":327,"pm10":665.0,"pm2_5":141.1,"no2":17.1,"co":257.0,"o3":59.0,"so2":10.8,"mosquito_risk":7,"arthritis_risk":5,"migraine_risk":7,"frizz_risk":1,"updated_at":"2026-07-20T04:25:37.183345+05:30"},{"city":"Noida","state":"Uttar Pradesh","latitude":28.5355,"longitude":77.391,"temp":27.9,"humidity":90,"rain":0.0,"pressure":978.3,"uv_index":6.95,"wind_gusts":35.6,"aqi":327,"pm10":665.0,"pm2_5":141.1,"no2":17.1,"co":270.0,"o3":59.0,"so2":10.8,"mosquito_risk":7,"arthritis_risk":5,"migraine_risk":7,"frizz_risk":1,"updated_at":"2026-07-20T04:25:37.183351+05:30"},{"city":"Ghaziabad","state":"Uttar Pradesh","latitude":28.6692,"longitude":77.4538,"temp":27.9,"humidity":92,"rain":0.0,"pressure":976.6,"uv_index":7.4,"wind_gusts":32.0,"aqi":178,"pm10":136.9,"pm2_5":62.9,"no2":23.5,"co":353.0,"o3":39.0,"so2":9.3,"mosquito_risk":7,"arthritis_risk":5,"migraine_risk":7,"frizz_risk":1,"updated_at":"2026-07-20T04:25:37.183359+05:30"},{"city":"Faridabad","state":"Haryana","latitude":28.4089,"longitude":77.3178,"temp":28.4,"humidity":87,"rain":0.0,"pressure":977.6,"uv_index":6.85,"wind_gusts":36.7,"aqi":327,"pm10":665.0,"pm2_5":141.1,"no2":17.1,"co":263.0,"o3":59.0,"so2":10.8,"mosquito_risk":7,"arthritis_risk":5,"migraine_risk":7,"frizz_risk":1,"updated_at":"2026-07-20T04:25:37.183365+05:30"},{"city":"Meerut","state":"Uttar Pradesh","latitude":28.9845,"longitude":77.7064,"temp":26.2,"humidity":97,"rain":0.1,"pressure":975.8,"uv_index":5.25,"wind_gusts":30.6,"aqi":178,"pm10":136.9,"pm2_5":62.9,"no2":23.5,"co":391.0,"o3":39.0,"so2":9.3,"mosquito_risk":10,"arthritis_risk":5,"migraine_risk":3,"frizz_risk":1,"updated_at":"2026-07-20T04:25:37.183371+05:30"},{"city":"Agra","state":"Uttar Pradesh","latitude":27.1767,"longitude":78.0081,"temp":28.3,"humidity":87,"rain":0.0,"pressure":981.7,"uv_index":4.35,"wind_gusts":30.2,"aqi":122,"pm10":23.7,"pm2_5":17.8,"no2":9.2,"co":183.0,"o3":68.0,"so2":3.8,"mosquito_risk":7,"arthritis_risk":5,"migraine_risk":3,"frizz_risk":1,"updated_at":"2026-07-20T04:25:37.183377+05:30"},{"city":"Varanasi","state":"Uttar Pradesh","latitude":25.3176,"longitude":82.9739,"temp":25.7,"humidity":97,"rain":0.1,"pressure":993.1,"uv_index":6.9,"wind_gusts":25.9,"aqi":109,"pm10":61.0,"pm2_5":58.9,"no2":37.2,"co":502.0,"o3":27.0,"so2":17.0,"mosquito_risk":10,"arthritis_risk":5,"migraine_risk":7,"frizz_risk":1,"updated_at":"2026-07-20T04:25:37.183384+05:30"},{"city":"Prayagraj","state":"Uttar Pradesh","latitude":25.4358,"longitude":81.8463,"temp":27.2,"humidity":91,"rain":0.1,"pressure":991.1,"uv_index":7.6,"wind_gusts":29.9,"aqi":121,"pm10":54.5,"pm2_5":52.0,"no2":40.3,"co":223.0,"o3":15.0,"so2":11.9,"mosquito_risk":10,"arthritis_risk":5,"migraine_risk":7,"frizz_risk":1,"updated_at":"2026-07-20T04:25:37.183391+05:30"},{"city":"Gorakhpur","state":"Uttar Pradesh","latitude":26.7606,"longitude":83.3732,"temp":25.3,"humidity":98,"rain":0.1,"pressure":993.0,"uv_index":7.65,"wind_gusts":24.1,"aqi":73,"pm10":24.7,"pm2_5":24.6,"no2":11.5,"co":388.0,"o3":76.0,"so2":6.8,"mosquito_risk":10,"arthritis_risk":5,"migraine_risk":7,"frizz_risk":1,"updated_at":"2026-07-20T04:25:37.183397+05:30"},{"city":"Bareilly","state":"Uttar Pradesh","latitude":28.367,"longitude":79.4304,"temp":25.5,"humidity":96,"rain":0.0,"pressure":981.9,"uv_index":7.05,"wind_gusts":27.4,"aqi":124,"pm10":35.2,"pm2_5":27.0,"no2":15.6,"co":269.0,"o3":68.0,"so2":7.6,"mosquito_risk":7,"arthritis_risk":5,"migraine_risk":7,"frizz_risk":1,"updated_at":"2026-07-20T04:25:37.183405+05:30"},{"city":"Aligarh","state":"Uttar Pradesh","latitude":27.8974,"longitude":78.088,"temp":27.7,"humidity":94,"rain":0.0,"pressure":979.6,"uv_index":5.85,"wind_gusts":21.6,"aqi":164,"pm10":64.7,"pm2_5":37.3,"no2":17.4,"co":219.0,"o3":52.0,"so2":7.0,"mosquito_risk":7,"arthritis_risk":5,"migraine_risk":3,"frizz_risk":1,"updated_at":"2026-07-20T04:25:37.183412+05:30"},{"city":"Moradabad","state":"Uttar Pradesh","latitude":28.8386,"longitude":78.7733,"temp":25.9,"humidity":97,"rain":0.0,"pressure":978.7,"uv_index":5.3,"wind_gusts":24.8,"aqi":151,"pm10":36.0,"pm2_5":21.4,"no2":8.5,"co":272.0,"o3":91.0,"so2":5.9,"mosquito_risk":7,"arthritis_risk":5,"migraine_risk":3,"frizz_risk":1,"updated_at":"2026-07-20T04:25:37.183417+05:30"},{"city":"Saharanpur","state":"Uttar Pradesh","latitude":29.9637,"longitude":77.546,"temp":25.2,"humidity":96,"rain":0.5,"pressure":970.4,"uv_index":5.3,"wind_gusts":27.0,"aqi":162,"pm10":108.5,"pm2_5":58.7,"no2":12.4,"co":246.0,"o3":77.0,"so2":13.8,"mosquito_risk":10,"arthritis_risk":5,"migraine_risk":3,"frizz_risk":1,"updated_at":"2026-07-20T04:25:37.183423+05:30"},{"city":"Jhansi","state":"Uttar Pradesh","latitude":25.4484,"longitude":78.5685,"temp":27.1,"humidity":95,"rain":0.0,"pressure":972.7,"uv_index":1.55,"wind_gusts":29.5,"aqi":87,"pm10":26.4,"pm2_5":18.9,"no2":9.5,"co":187.0,"o3":60.0,"so2":4.0,"mosquito_risk":7,"arthritis_risk":5,"migraine_risk":3,"frizz_risk":1,"updated_at":"2026-07-20T04:25:40.431242+05:30"},{"city":"Surat","state":"Gujarat","latitude":21.1702,"longitude":72.8311,"temp":25.5,"humidity":95,"rain":0.2,"pressure":1002.2,"uv_index":7.3,"wind_gusts":49.3,"aqi":67,"pm10":19.4,"pm2_5":13.4,"no2":19.2,"co":246.0,"o3":26.0,"so2":27.2,"mosquito_risk":10,"arthritis_risk":5,"migraine_risk":4,"frizz_risk":1,"updated_at":"2026-07-20T04:25:40.431277+05:30"},{"city":"Vadodara","state":"Gujarat","latitude":22.3072,"longitude":73.1812,"temp":26.0,"humidity":95,"rain":0.0,"pressure":999.9,"uv_index":7.65,"wind_gusts":45.0,"aqi":64,"pm10":17.7,"pm2_5":12.3,"no2":15.7,"co":130.0,"o3":26.0,"so2":14.6,"mosquito_risk":7,"arthritis_risk":5,"migraine_risk":7,"frizz_risk":1,"updated_at":"2026-07-20T04:25:40.431288+05:30"},{"city":"Rajkot","state":"Gujarat","latitude":22.3039,"longitude":70.8022,"temp":26.1,"humidity":89,"rain":0.0,"pressure":988.8,"uv_index":6.8,"wind_gusts":51.1,"aqi":60,"pm10":16.8,"pm2_5":8.4,"no2":5.4,"co":102.0,"o3":37.0,"so2":4.1,"mosquito_risk":7,"arthritis_risk":5,"migraine_risk":7,"frizz_risk":1,"updated_at":"2026-07-20T04:25:40.431296+05:30"},{"city":"Thane","state":"Maharashtra","latitude":19.2183,"longitude":72.9781,"temp":24.5,"humidity":98,"rain":0.1,"pressure":1005.1,"uv_index":7.35,"wind_gusts":42.8,"aqi":58,"pm10":21.2,"pm2_5":9.5,"no2":5.6,"co":140.0,"o3":44.0,"so2":5.0,"mosquito_risk":6,"arthritis_risk":5,"migraine_risk":4,"frizz_risk":1,"updated_at":"2026-07-20T04:25:40.431304+05:30"},{"city":"Nagpur","state":"Maharashtra","latitude":21.1458,"longitude":79.0882,"temp":25.8,"humidity":88,"rain":0.0,"pressure":969.3,"uv_index":6.95,"wind_gusts":34.6,"aqi":66,"pm10":30.5,"pm2_5":21.5,"no2":17.4,"co":187.0,"o3":28.0,"so2":9.1,"mosquito_risk":7,"arthritis_risk":5,"migraine_risk":7,"frizz_risk":1,"updated_at":"2026-07-20T04:25:40.431312+05:30"},{"city":"Nashik","state":"Maharashtra","latitude":19.9975,"longitude":73.7898,"temp":22.2,"humidity":96,"rain":0.0,"pressure":941.6,"uv_index":7.95,"wind_gusts":51.8,"aqi":23,"pm10":3.4,"pm2_5":2.4,"no2":9.6,"co":126.0,"o3":30.0,"so2":10.9,"mosquito_risk":3,"arthritis_risk":5,"migraine_risk":7,"frizz_risk":1,"updated_at":"2026-07-20T04:25:40.431319+05:30"},{"city":"Aurangabad","state":"Maharashtra","latitude":19.8762,"longitude":75.3433,"temp":22.9,"humidity":91,"rain":0.0,"pressure":940.6,"uv_index":7.2,"wind_gusts":48.2,"aqi":32,"pm10":5.4,"pm2_5":3.6,"no2":8.9,"co":141.0,"o3":30.0,"so2":8.3,"mosquito_risk":3,"arthritis_risk":5,"migraine_risk":7,"frizz_risk":1,"updated_at":"2026-07-20T04:25:40.431326+05:30"},{"city":"Solapur","state":"Maharashtra","latitude":17.6599,"longitude":75.9064,"temp":23.9,"humidity":88,"rain":0.0,"pressure":954.8,"uv_index":5.45,"wind_gusts":53.3,"aqi":36,"pm10":4.2,"pm2_5":3.6,"no2":6.8,"co":133.0,"o3":28.0,"so2":2.2,"mosquito_risk":3,"arthritis_risk":5,"migraine_risk":3,"frizz_risk":1,"updated_at":"2026-07-20T04:25:40.431333+05:30"},{"city":"Kolhapur","state":"Maharashtra","latitude":16.705,"longitude":74.2433,"temp":22.2,"humidity":92,"rain":0.0,"pressure":946.1,"uv_index":7.05,"wind_gusts":53.6,"aqi":28,"pm10":2.2,"pm2_5":2.1,"no2":3.7,"co":106.0,"o3":36.0,"so2":1.9,"mosquito_risk":3,"arthritis_risk":5,"migraine_risk":7,"frizz_risk":1,"updated_at":"2026-07-20T04:25:40.431340+05:30"},{"city":"Goa","state":"Goa","latitude":15.2993,"longitude":74.124,"temp":23.6,"humidity":98,"rain":0.1,"pressure":997.7,"uv_index":7.75,"wind_gusts":36.0,"aqi":60,"pm10":23.0,"pm2_5":13.1,"no2":3.7,"co":199.0,"o3":39.0,"so2":1.3,"mosquito_risk":6,"arthritis_risk":5,"migraine_risk":7,"frizz_risk":1,"updated_at":"2026-07-20T04:25:40.431348+05:30"},{"city":"Jodhpur","state":"Rajasthan","latitude":26.2389,"longitude":73.0243,"temp":29.9,"humidity":62,"rain":0.0,"pressure":976.9,"uv_index":7.8,"wind_gusts":40.0,"aqi":92,"pm10":59.0,"pm2_5":18.9,"no2":7.2,"co":119.0,"o3":49.0,"so2":2.9,"mosquito_risk":7,"arthritis_risk":5,"migraine_risk":7,"frizz_risk":1,"updated_at":"2026-07-20T04:25:40.431355+05:30"},{"city":"Udaipur","state":"Rajasthan","latitude":24.5854,"longitude":73.7125,"temp":24.8,"humidity":87,"rain":0.0,"pressure":941.5,"uv_index":7.2,"wind_gusts":29.5,"aqi":65,"pm10":24.4,"pm2_5":15.0,"no2":10.3,"co":136.0,"o3":46.0,"so2":14.5,"mosquito_risk":3,"arthritis_risk":5,"migraine_risk":7,"frizz_risk":1,"updated_at":"2026-07-20T04:25:40.431363+05:30"},{"city":"Kota","state":"Rajasthan","latitude":25.2138,"longitude":75.8648,"temp":27.5,"humidity":83,"rain":0.1,"pressure":973.7,"uv_index":2.25,"wind_gusts":21.6,"aqi":76,"pm10":28.2,"pm2_5":19.6,"no2":9.8,"co":194.0,"o3":60.0,"so2":6.5,"mosquito_risk":10,"arthritis_risk":5,"migraine_risk":3,"frizz_risk":1,"updated_at":"2026-07-20T04:25:40.431370+05:30"},{"city":"Bikaner","state":"Rajasthan","latitude":28.0229,"longitude":73.3119,"temp":31.7,"humidity":50,"rain":0.0,"pressure":975.1,"uv_index":7.7,"wind_gusts":39.6,"aqi":113,"pm10":108.7,"pm2_5":32.7,"no2":2.1,"co":110.0,"o3":59.0,"so2":1.3,"mosquito_risk":0,"arthritis_risk":5,"migraine_risk":7,"frizz_risk":1,"updated_at":"2026-07-20T04:25:40.431377+05:30"},{"city":"Ajmer","state":"Rajasthan","latitude":26.4499,"longitude":74.6399,"temp":28.6,"humidity":62,"rain":0.0,"pressure":949.4,"uv_index":7.25,"wind_gusts":37.4,"aqi":69,"pm10":24.8,"pm2_5":16.5,"no2":9.5,"co":138.0,"o3":47.0,"so2":4.9,"mosquito_risk":7,"arthritis_risk":5,"migraine_risk":7,"frizz_risk":1,"updated_at":"2026-07-20T04:25:40.431384+05:30"},{"city":"Gwalior","state":"Madhya Pradesh","latitude":26.2183,"longitude":78.1828,"temp":26.8,"humidity":95,"rain":0.3,"pressure":977.5,"uv_index":0.5,"wind_gusts":24.1,"aqi":82,"pm10":23.3,"pm2_5":16.0,"no2":7.5,"co":164.0,"o3":64.0,"so2":5.3,"mosquito_risk":10,"arthritis_risk":5,"migraine_risk":3,"frizz_risk":1,"updated_at":"2026-07-20T04:25:40.431391+05:30"},{"city":"Indore","state":"Madhya Pradesh","latitude":22.7196,"longitude":75.8577,"temp":24.4,"humidity":89,"rain":0.0,"pressure":943.8,"uv_index":6.0,"wind_gusts":37.1,"aqi":61,"pm10":18.5,"pm2_5":14.1,"no2":8.9,"co":185.0,"o3":50.0,"so2":7.9,"mosquito_risk":3,"arthritis_risk":5,"migraine_risk":3,"frizz_risk":1,"updated_at":"2026-07-20T04:25:40.431398+05:30"},{"city":"Bhopal","state":"Madhya Pradesh","latitude":23.2599,"longitude":77.4126,"temp":24.4,"humidity":94,"rain":0.4,"pressure":949.4,"uv_index":4.75,"wind_gusts":29.2,"aqi":71,"pm10":24.1,"pm2_5":18.9,"no2":11.4,"co":186.0,"o3":44.0,"so2":3.3,"mosquito_risk":6,"arthritis_risk":5,"migraine_risk":3,"frizz_risk":1,"updated_at":"2026-07-20T04:25:40.431405+05:30"},{"city":"Jabalpur","state":"Madhya Pradesh","latitude":23.1815,"longitude":79.9864,"temp":24.9,"humidity":93,"rain":0.0,"pressure":957.0,"uv_index":4.7,"wind_gusts":25.9,"aqi":85,"pm10":32.6,"pm2_5":23.4,"no2":6.7,"co":251.0,"o3":73.0,"so2":2.8,"mosquito_risk":3,"arthritis_risk":5,"migraine_risk":3,"frizz_risk":1,"updated_at":"2026-07-20T04:25:40.431412+05:30"},{"city":"Ujjain","state":"Madhya Pradesh","latitude":23.1765,"longitude":75.7885,"temp":24.6,"humidity":90,"rain":0.0,"pressure":949.4,"uv_index":4.25,"wind_gusts":34.2,"aqi":62,"pm10":17.0,"pm2_5":13.2,"no2":8.3,"co":207.0,"o3":51.0,"so2":9.0,"mosquito_risk":3,"arthritis_risk":5,"migraine_risk":3,"frizz_risk":1,"updated_at":"2026-07-20T04:25:40.431420+05:30"},{"city":"Visakhapatnam","state":"Andhra Pradesh","latitude":17.6868,"longitude":83.2185,"temp":25.5,"humidity":96,"rain":0.0,"pressure":999.0,"uv_index":8.0,"wind_gusts":38.2,"aqi":81,"pm10":22.9,"pm2_5":18.9,"no2":18.9,"co":290.0,"o3":42.0,"so2":28.0,"mosquito_risk":7,"arthritis_risk":5,"migraine_risk":7,"frizz_risk":1,"updated_at":"2026-07-20T04:25:40.431427+05:30"},{"city":"Vijayawada","state":"Andhra Pradesh","latitude":16.5062,"longitude":80.648,"temp":28.1,"humidity":71,"rain":0.0,"pressure":999.2,"uv_index":6.5,"wind_gusts":41.4,"aqi":61,"pm10":20.9,"pm2_5":14.7,"no2":8.3,"co":187.0,"o3":44.0,"so2":3.6,"mosquito_risk":7,"arthritis_risk":5,"migraine_risk":7,"frizz_risk":1,"updated_at":"2026-07-20T04:25:40.431434+05:30"},{"city":"Guntur","state":"Andhra Pradesh","latitude":16.3067,"longitude":80.4365,"temp":28.0,"humidity":70,"rain":0.0,"pressure":1000.6,"uv_index":7.1,"wind_gusts":51.8,"aqi":56,"pm10":19.8,"pm2_5":13.2,"no2":7.5,"co":183.0,"o3":44.0,"so2":4.3,"mosquito_risk":7,"arthritis_risk":5,"migraine_risk":4,"frizz_risk":1,"updated_at":"2026-07-20T04:25:40.431441+05:30"},{"city":"Nellore","state":"Andhra Pradesh","latitude":14.4426,"longitude":79.9865,"temp":27.7,"humidity":73,"rain":0.0,"pressure":1003.8,"uv_index":8.1,"wind_gusts":34.9,"aqi":62,"pm10":25.4,"pm2_5":14.9,"no2":7.8,"co":183.0,"o3":42.0,"so2":6.4,"mosquito_risk":7,"arthritis_risk":5,"migraine_risk":4,"frizz_risk":1,"updated_at":"2026-07-20T04:25:40.431449+05:30"},{"city":"Kurnool","state":"Andhra Pradesh","latitude":15.8281,"longitude":78.0373,"temp":24.9,"humidity":88,"rain":0.0,"pressure":975.1,"uv_index":7.1,"wind_gusts":70.2,"aqi":42,"pm10":5.0,"pm2_5":4.0,"no2":7.8,"co":135.0,"o3":31.0,"so2":1.8,"mosquito_risk":3,"arthritis_risk":5,"migraine_risk":7,"frizz_risk":1,"updated_at":"2026-07-20T04:25:40.431457+05:30"},{"city":"Kakinada","state":"Andhra Pradesh","latitude":16.9891,"longitude":82.2475,"temp":27.3,"humidity":82,"rain":0.0,"pressure":1003.5,"uv_index":8.55,"wind_gusts":46.8,"aqi":64,"pm10":26.3,"pm2_5":20.0,"no2":8.0,"co":144.0,"o3":61.0,"so2":5.0,"mosquito_risk":7,"arthritis_risk":5,"migraine_risk":4,"frizz_risk":1,"updated_at":"2026-07-20T04:25:40.431464+05:30"},{"city":"Tirupati","state":"Andhra Pradesh","latitude":13.6288,"longitude":79.4192,"temp":26.7,"humidity":76,"rain":0.0,"pressure":989.4,"uv_index":3.6,"wind_gusts":34.9,"aqi":61,"pm10":27.1,"pm2_5":16.6,"no2":18.3,"co":138.0,"o3":19.0,"so2":3.1,"mosquito_risk":7,"arthritis_risk":5,"migraine_risk":3,"frizz_risk":1,"updated_at":"2026-07-20T04:25:40.431471+05:30"},{"city":"Warangal","state":"Telangana","latitude":17.9689,"longitude":79.5941,"temp":25.1,"humidity":87,"rain":0.0,"pressure":975.2,"uv_index":4.85,"wind_gusts":40.7,"aqi":57,"pm10":12.9,"pm2_5":9.7,"no2":7.5,"co":135.0,"o3":41.0,"so2":2.7,"mosquito_risk":7,"arthritis_risk":5,"migraine_risk":3,"frizz_risk":1,"updated_at":"2026-07-20T04:25:40.431478+05:30"},{"city":"Nizamabad","state":"Telangana","latitude":18.6725,"longitude":78.0941,"temp":23.5,"humidity":92,"rain":0.0,"pressure":961.6,"uv_index":4.15,"wind_gusts":45.4,"aqi":52,"pm10":7.0,"pm2_5":5.6,"no2":7.8,"co":142.0,"o3":35.0,"so2":5.4,"mosquito_risk":3,"arthritis_risk":5,"migraine_risk":3,"frizz_risk":1,"updated_at":"2026-07-20T04:25:40.431485+05:30"},{"city":"Mysore","state":"Karnataka","latitude":12.2958,"longitude":76.6396,"temp":21.1,"humidity":91,"rain":0.0,"pressure":928.2,"uv_index":8.85,"wind_gusts":49.3,"aqi":36,"pm10":3.1,"pm2_5":2.5,"no2":4.7,"co":113.0,"o3":32.0,"so2":1.8,"mosquito_risk":3,"arthritis_risk":5,"migraine_risk":7,"frizz_risk":1,"updated_at":"2026-07-20T04:25:40.431491+05:30"},{"city":"Mangalore","state":"Karnataka","latitude":12.9141,"longitude":74.856,"temp":23.1,"humidity":99,"rain":0.2,"pressure":1008.1,"uv_index":8.6,"wind_gusts":39.6,"aqi":55,"pm10":22.4,"pm2_5":10.5,"no2":4.7,"co":119.0,"o3":31.0,"so2":1.7,"mosquito_risk":6,"arthritis_risk":0,"migraine_risk":4,"frizz_risk":1,"updated_at":"2026-07-20T04:25:40.431499+05:30"},{"city":"Hubli-Dharwad","state":"Karnataka","latitude":15.3647,"longitude":75.124,"temp":22.1,"humidity":94,"rain":0.0,"pressure":939.7,"uv_index":5.85,"wind_gusts":57.6,"aqi":25,"pm10":1.1,"pm2_5":0.8,"no2":2.6,"co":99.0,"o3":37.0,"so2":1.0,"mosquito_risk":3,"arthritis_risk":5,"migraine_risk":3,"frizz_risk":1,"updated_at":"2026-07-20T04:25:40.431505+05:30"},{"city":"Belgaum","state":"Karnataka","latitude":15.8497,"longitude":74.4977,"temp":20.7,"humidity":98,"rain":0.0,"pressure":924.0,"uv_index":7.95,"wind_gusts":54.0,"aqi":24,"pm10":1.9,"pm2_5":1.5,"no2":3.1,"co":110.0,"o3":37.0,"so2":1.6,"mosquito_risk":3,"arthritis_risk":5,"migraine_risk":7,"frizz_risk":1,"updated_at":"2026-07-20T04:25:43.673598+05:30"},{"city":"Coimbatore","state":"Tamil Nadu","latitude":11.0168,"longitude":76.9558,"temp":22.6,"humidity":95,"rain":0.0,"pressure":961.5,"uv_index":8.75,"wind_gusts":51.5,"aqi":41,"pm10":7.3,"pm2_5":5.3,"no2":6.3,"co":136.0,"o3":27.0,"so2":2.8,"mosquito_risk":3,"arthritis_risk":5,"migraine_risk":7,"frizz_risk":1,"updated_at":"2026-07-20T04:25:43.673627+05:30"},{"city":"Madurai","state":"Tamil Nadu","latitude":9.9252,"longitude":78.1198,"temp":27.5,"humidity":67,"rain":0.0,"pressure":992.5,"uv_index":5.65,"wind_gusts":37.4,"aqi":67,"pm10":25.8,"pm2_5":21.3,"no2":28.0,"co":131.0,"o3":8.0,"so2":5.9,"mosquito_risk":7,"arthritis_risk":5,"migraine_risk":3,"frizz_risk":1,"updated_at":"2026-07-20T04:25:43.673638+05:30"},{"city":"Trichy","state":"Tamil Nadu","latitude":10.7905,"longitude":78.7047,"temp":27.4,"humidity":71,"rain":0.0,"pressure":999.2,"uv_index":6.85,"wind_gusts":51.5,"aqi":53,"pm10":9.7,"pm2_5":6.4,"no2":5.6,"co":108.0,"o3":31.0,"so2":2.8,"mosquito_risk":7,"arthritis_risk":5,"migraine_risk":7,"frizz_risk":1,"updated_at":"2026-07-20T04:25:43.673647+05:30"},{"city":"Salem","state":"Tamil Nadu","latitude":11.6643,"longitude":78.146,"temp":24.5,"humidity":95,"rain":0.0,"pressure":977.2,"uv_index":7.7,"wind_gusts":31.7,"aqi":59,"pm10":18.2,"pm2_5":13.9,"no2":16.7,"co":364.0,"o3":23.0,"so2":7.4,"mosquito_risk":3,"arthritis_risk":5,"migraine_risk":7,"frizz_risk":1,"updated_at":"2026-07-20T04:25:43.673655+05:30"},{"city":"Tirunelveli","state":"Tamil Nadu","latitude":8.7139,"longitude":77.7567,"temp":27.7,"humidity":71,"rain":0.0,"pressure":1003.2,"uv_index":7.8,"wind_gusts":44.3,"aqi":34,"pm10":7.2,"pm2_5":5.4,"no2":5.5,"co":130.0,"o3":31.0,"so2":2.1,"mosquito_risk":7,"arthritis_risk":5,"migraine_risk":4,"frizz_risk":1,"updated_at":"2026-07-20T04:25:43.673663+05:30"},{"city":"Vellore","state":"Tamil Nadu","latitude":12.9165,"longitude":79.1325,"temp":28.1,"humidity":62,"rain":0.0,"pressure":983.1,"uv_index":8.05,"wind_gusts":43.9,"aqi":73,"pm10":37.4,"pm2_5":27.5,"no2":26.0,"co":161.0,"o3":12.0,"so2":4.9,"mosquito_risk":7,"arthritis_risk":5,"migraine_risk":7,"frizz_risk":1,"updated_at":"2026-07-20T04:25:43.673671+05:30"},{"city":"Erode","state":"Tamil Nadu","latitude":11.341,"longitude":77.7172,"temp":24.9,"humidity":84,"rain":0.0,"pressure":989.1,"uv_index":8.05,"wind_gusts":33.8,"aqi":53,"pm10":13.8,"pm2_5":10.6,"no2":12.3,"co":132.0,"o3":26.0,"so2":3.8,"mosquito_risk":3,"arthritis_risk":5,"migraine_risk":7,"frizz_risk":1,"updated_at":"2026-07-20T04:25:43.673678+05:30"},{"city":"Kochi","state":"Kerala","latitude":9.9312,"longitude":76.2673,"temp":23.9,"humidity":97,"rain":0.1,"pressure":1010.5,"uv_index":8.35,"wind_gusts":35.3,"aqi":53,"pm10":13.2,"pm2_5":8.3,"no2":7.4,"co":153.0,"o3":26.0,"so2":2.8,"mosquito_risk":6,"arthritis_risk":0,"migraine_risk":4,"frizz_risk":1,"updated_at":"2026-07-20T04:25:43.673686+05:30"},{"city":"Thiruvananthapuram","state":"Kerala","latitude":8.5241,"longitude":76.9366,"temp":23.6,"humidity":99,"rain":0.0,"pressure":1009.6,"uv_index":7.1,"wind_gusts":45.0,"aqi":48,"pm10":13.3,"pm2_5":7.3,"no2":3.0,"co":114.0,"o3":43.0,"so2":1.9,"mosquito_risk":3,"arthritis_risk":0,"migraine_risk":4,"frizz_risk":1,"updated_at":"2026-07-20T04:25:43.673692+05:30"},{"city":"Kozhikode","state":"Kerala","latitude":11.2588,"longitude":75.7804,"temp":23.5,"humidity":98,"rain":0.1,"pressure":1009.5,"uv_index":8.3,"wind_gusts":32.4,"aqi":38,"pm10":14.7,"pm2_5":6.0,"no2":1.3,"co":106.0,"o3":47.0,"so2":1.0,"mosquito_risk":6,"arthritis_risk":0,"migraine_risk":4,"frizz_risk":1,"updated_at":"2026-07-20T04:25:43.673699+05:30"},{"city":"Thrissur","state":"Kerala","latitude":10.5276,"longitude":76.2144,"temp":24.1,"humidity":99,"rain":0.1,"pressure":1008.8,"uv_index":8.25,"wind_gusts":37.4,"aqi":53,"pm10":11.5,"pm2_5":7.1,"no2":4.3,"co":155.0,"o3":33.0,"so2":1.9,"mosquito_risk":6,"arthritis_risk":0,"migraine_risk":4,"frizz_risk":1,"updated_at":"2026-07-20T04:25:43.673707+05:30"},{"city":"Kannur","state":"Kerala","latitude":11.8745,"longitude":75.3704,"temp":23.4,"humidity":98,"rain":0.4,"pressure":1008.7,"uv_index":8.75,"wind_gusts":28.8,"aqi":47,"pm10":12.4,"pm2_5":5.4,"no2":4.1,"co":136.0,"o3":35.0,"so2":1.3,"mosquito_risk":6,"arthritis_risk":0,"migraine_risk":4,"frizz_risk":1,"updated_at":"2026-07-20T04:25:43.673714+05:30"},{"city":"Patna","state":"Bihar","latitude":25.5941,"longitude":85.1376,"temp":26.0,"humidity":98,"rain":0.1,"pressure":995.9,"uv_index":8.35,"wind_gusts":23.4,"aqi":80,"pm10":37.6,"pm2_5":37.1,"no2":12.5,"co":342.0,"o3":79.0,"so2":11.4,"mosquito_risk":10,"arthritis_risk":5,"migraine_risk":7,"frizz_risk":1,"updated_at":"2026-07-20T04:25:43.673721+05:30"},{"city":"Gaya","state":"Bihar","latitude":24.7914,"longitude":85.0002,"temp":25.8,"humidity":98,"rain":0.1,"pressure":989.1,"uv_index":3.4,"wind_gusts":21.6,"aqi":74,"pm10":43.2,"pm2_5":42.7,"no2":16.2,"co":431.0,"o3":58.0,"so2":10.4,"mosquito_risk":10,"arthritis_risk":5,"migraine_risk":3,"frizz_risk":1,"updated_at":"2026-07-20T04:25:43.673728+05:30"},{"city":"Muzaffarpur","state":"Bihar","latitude":26.1209,"longitude":85.3647,"temp":25.8,"humidity":97,"rain":0.2,"pressure":996.5,"uv_index":7.15,"wind_gusts":27.7,"aqi":71,"pm10":21.0,"pm2_5":20.8,"no2":9.8,"co":390.0,"o3":84.0,"so2":7.8,"mosquito_risk":10,"arthritis_risk":5,"migraine_risk":7,"frizz_risk":1,"updated_at":"2026-07-20T04:25:43.673734+05:30"},{"city":"Bhagalpur","state":"Bihar","latitude":25.2425,"longitude":87.0117,"temp":26.6,"humidity":97,"rain":0.1,"pressure":997.3,"uv_index":1.55,"wind_gusts":33.8,"aqi":80,"pm10":26.3,"pm2_5":25.4,"no2":12.2,"co":296.0,"o3":67.0,"so2":11.2,"mosquito_risk":10,"arthritis_risk":5,"migraine_risk":3,"frizz_risk":1,"updated_at":"2026-07-20T04:25:43.673741+05:30"},{"city":"Ranchi","state":"Jharkhand","latitude":23.3441,"longitude":85.3096,"temp":23.0,"humidity":98,"rain":0.0,"pressure":933.1,"uv_index":4.1,"wind_gusts":26.3,"aqi":70,"pm10":23.6,"pm2_5":20.1,"no2":6.3,"co":276.0,"o3":85.0,"so2":5.4,"mosquito_risk":3,"arthritis_risk":5,"migraine_risk":3,"frizz_risk":1,"updated_at":"2026-07-20T04:25:43.673749+05:30"},{"city":"Jamshedpur","state":"Jharkhand","latitude":22.8046,"longitude":86.2029,"temp":25.5,"humidity":98,"rain":0.1,"pressure":986.1,"uv_index":3.65,"wind_gusts":24.1,"aqi":89,"pm10":37.0,"pm2_5":33.2,"no2":18.0,"co":415.0,"o3":52.0,"so2":19.6,"mosquito_risk":10,"arthritis_risk":5,"migraine_risk":3,"frizz_risk":1,"updated_at":"2026-07-20T04:25:43.673756+05:30"},{"city":"Dhanbad","state":"Jharkhand","latitude":23.7957,"longitude":86.4304,"temp":25.1,"humidity":100,"rain":0.0,"pressure":975.2,"uv_index":3.25,"wind_gusts":27.4,"aqi":140,"pm10":60.3,"pm2_5":56.3,"no2":40.5,"co":557.0,"o3":34.0,"so2":105.1,"mosquito_risk":7,"arthritis_risk":5,"migraine_risk":3,"frizz_risk":1,"updated_at":"2026-07-20T04:25:43.673763+05:30"},{"city":"Bokaro","state":"Jharkhand","latitude":23.6693,"longitude":86.1511,"temp":25.4,"humidity":97,"rain":0.0,"pressure":979.2,"uv_index":3.15,"wind_gusts":23.8,"aqi":138,"pm10":66.1,"pm2_5":63.6,"no2":43.3,"co":3866.0,"o3":32.0,"so2":106.6,"mosquito_risk":7,"arthritis_risk":5,"migraine_risk":3,"frizz_risk":1,"updated_at":"2026-07-20T04:25:43.673770+05:30"},{"city":"Bhubaneswar","state":"Odisha","latitude":20.2961,"longitude":85.8245,"temp":26.5,"humidity":99,"rain":0.0,"pressure":997.5,"uv_index":8.5,"wind_gusts":27.7,"aqi":85,"pm10":37.3,"pm2_5":32.7,"no2":10.2,"co":300.0,"o3":87.0,"so2":6.7,"mosquito_risk":7,"arthritis_risk":5,"migraine_risk":7,"frizz_risk":1,"updated_at":"2026-07-20T04:25:43.673777+05:30"},{"city":"Cuttack","state":"Odisha","latitude":20.4625,"longitude":85.8828,"temp":27.1,"humidity":97,"rain":0.0,"pressure":999.4,"uv_index":8.6,"wind_gusts":22.0,"aqi":85,"pm10":37.3,"pm2_5":32.7,"no2":10.2,"co":306.0,"o3":87.0,"so2":6.7,"mosquito_risk":7,"arthritis_risk":5,"migraine_risk":7,"frizz_risk":1,"updated_at":"2026-07-20T04:25:43.673784+05:30"},{"city":"Rourkela","state":"Odisha","latitude":22.2604,"longitude":84.8536,"temp":25.4,"humidity":98,"rain":0.0,"pressure":980.5,"uv_index":8.05,"wind_gusts":28.8,"aqi":79,"pm10":28.8,"pm2_5":21.4,"no2":6.4,"co":264.0,"o3":99.0,"so2":3.8,"mosquito_risk":7,"arthritis_risk":5,"migraine_risk":7,"frizz_risk":1,"updated_at":"2026-07-20T04:25:43.673791+05:30"},{"city":"Raipur","state":"Chhattisgarh","latitude":21.2514,"longitude":81.6296,"temp":25.7,"humidity":93,"rain":0.0,"pressure":969.9,"uv_index":7.3,"wind_gusts":31.7,"aqi":92,"pm10":26.1,"pm2_5":22.8,"no2":19.4,"co":512.0,"o3":58.0,"so2":28.8,"mosquito_risk":7,"arthritis_risk":5,"migraine_risk":7,"frizz_risk":1,"updated_at":"2026-07-20T04:25:43.673798+05:30"},{"city":"Bhilai","state":"Chhattisgarh","latitude":21.1938,"longitude":81.3509,"temp":25.4,"humidity":94,"rain":0.0,"pressure":970.4,"uv_index":7.9,"wind_gusts":32.4,"aqi":85,"pm10":25.5,"pm2_5":23.5,"no2":18.6,"co":601.0,"o3":54.0,"so2":27.5,"mosquito_risk":7,"arthritis_risk":5,"migraine_risk":7,"frizz_risk":1,"updated_at":"2026-07-20T04:25:43.673805+05:30"},{"city":"Guwahati","state":"Assam","latitude":26.1158,"longitude":91.7086,"temp":24.4,"humidity":98,"rain":0.1,"pressure":999.2,"uv_index":1.7,"wind_gusts":22.0,"aqi":55,"pm10":7.1,"pm2_5":6.7,"no2":9.7,"co":186.0,"o3":32.0,"so2":1.3,"mosquito_risk":6,"arthritis_risk":5,"migraine_risk":3,"frizz_risk":1,"updated_at":"2026-07-20T04:25:43.673812+05:30"},{"city":"Agartala","state":"Tripura","latitude":23.8315,"longitude":91.2868,"temp":24.8,"humidity":98,"rain":0.1,"pressure":1003.5,"uv_index":7.6,"wind_gusts":35.6,"aqi":50,"pm10":9.8,"pm2_5":8.4,"no2":9.5,"co":153.0,"o3":31.0,"so2":2.6,"mosquito_risk":6,"arthritis_risk":5,"migraine_risk":4,"frizz_risk":1,"updated_at":"2026-07-20T04:25:43.673819+05:30"},{"city":"Shillong","state":"Meghalaya","latitude":25.5788,"longitude":91.8933,"temp":19.1,"humidity":98,"rain":0.2,"pressure":855.2,"uv_index":1.8,"wind_gusts":19.1,"aqi":22,"pm10":0.7,"pm2_5":0.7,"no2":4.4,"co":178.0,"o3":38.0,"so2":1.2,"mosquito_risk":6,"arthritis_risk":10,"migraine_risk":3,"frizz_risk":1,"updated_at":"2026-07-20T04:25:43.673826+05:30"},{"city":"Imphal","state":"Manipur","latitude":24.817,"longitude":93.9368,"temp":21.5,"humidity":98,"rain":0.0,"pressure":921.3,"uv_index":1.1,"wind_gusts":26.3,"aqi":43,"pm10":6.8,"pm2_5":6.5,"no2":6.4,"co":257.0,"o3":31.0,"so2":0.9,"mosquito_risk":3,"arthritis_risk":5,"migraine_risk":3,"frizz_risk":1,"updated_at":"2026-07-20T04:25:43.673832+05:30"},{"city":"Aizawl","state":"Mizoram","latitude":23.7271,"longitude":92.7176,"temp":18.7,"humidity":97,"rain":0.0,"pressure":889.9,"uv_index":0.65,"wind_gusts":20.2,"aqi":46,"pm10":10.2,"pm2_5":6.9,"no2":2.9,"co":118.0,"o3":33.0,"so2":0.4,"mosquito_risk":3,"arthritis_risk":10,"migraine_risk":3,"frizz_risk":1,"updated_at":"2026-07-20T04:25:43.673838+05:30"},{"city":"Kohima","state":"Nagaland","latitude":25.6701,"longitude":94.1077,"temp":19.6,"humidity":97,"rain":0.8,"pressure":853.9,"uv_index":2.15,"wind_gusts":21.2,"aqi":19,"pm10":2.6,"pm2_5":2.6,"no2":4.6,"co":172.0,"o3":34.0,"so2":0.4,"mosquito_risk":6,"arthritis_risk":10,"migraine_risk":3,"frizz_risk":1,"updated_at":"2026-07-20T04:25:43.673846+05:30"},{"city":"Gangtok","state":"Sikkim","latitude":27.3314,"longitude":88.6138,"temp":18.3,"humidity":97,"rain":0.3,"pressure":836.2,"uv_index":3.8,"wind_gusts":28.8,"aqi":39,"pm10":3.5,"pm2_5":3.4,"no2":3.3,"co":198.0,"o3":84.0,"so2":0.7,"mosquito_risk":6,"arthritis_risk":10,"migraine_risk":3,"frizz_risk":1,"updated_at":"2026-07-20T04:25:43.673852+05:30"},{"city":"Siliguri","state":"West Bengal","latitude":26.7271,"longitude":88.3953,"temp":24.6,"humidity":99,"rain":0.1,"pressure":990.3,"uv_index":2.5,"wind_gusts":24.1,"aqi":51,"pm10":7.1,"pm2_5":6.9,"no2":5.4,"co":215.0,"o3":82.0,"so2":1.1,"mosquito_risk":6,"arthritis_risk":5,"migraine_risk":3,"frizz_risk":1,"updated_at":"2026-07-20T04:25:46.924588+05:30"},{"city":"Durgapur","state":"West Bengal","latitude":23.5204,"longitude":87.3119,"temp":25.5,"humidity":97,"rain":0.1,"pressure":990.7,"uv_index":5.5,"wind_gusts":30.2,"aqi":106,"pm10":38.3,"pm2_5":32.5,"no2":20.2,"co":302.0,"o3":60.0,"so2":27.9,"mosquito_risk":10,"arthritis_risk":5,"migraine_risk":3,"frizz_risk":1,"updated_at":"2026-07-20T04:25:46.924616+05:30"},{"city":"Asansol","state":"West Bengal","latitude":23.6739,"longitude":86.9524,"temp":25.3,"humidity":98,"rain":0.0,"pressure":989.2,"uv_index":1.6,"wind_gusts":24.8,"aqi":104,"pm10":34.3,"pm2_5":29.9,"no2":20.9,"co":382.0,"o3":59.0,"so2":29.3,"mosquito_risk":7,"arthritis_risk":5,"migraine_risk":3,"frizz_risk":1,"updated_at":"2026-07-20T04:25:46.924626+05:30"},{"city":"Pondicherry","state":"Puducherry","latitude":11.9139,"longitude":79.8145,"temp":27.4,"humidity":75,"rain":0.0,"pressure":1007.2,"uv_index":8.0,"wind_gusts":38.5,"aqi":70,"pm10":16.1,"pm2_5":11.2,"no2":11.0,"co":188.0,"o3":51.0,"so2":10.0,"mosquito_risk":7,"arthritis_risk":5,"migraine_risk":4,"frizz_risk":1,"updated_at":"2026-07-20T04:25:46.924634+05:30"},{"city":"Port Blair","state":"Andaman and Nicobar Islands","latitude":11.6234,"longitude":92.7265,"temp":26.7,"humidity":83,"rain":0.0,"pressure":1007.1,"uv_index":8.35,"wind_gusts":44.3,"aqi":53,"pm10":14.0,"pm2_5":7.9,"no2":0.1,"co":81.0,"o3":44.0,"so2":0.4,"mosquito_risk":7,"arthritis_risk":5,"migraine_risk":4,"frizz_risk":1,"updated_at":"2026-07-20T04:25:46.924642+05:30"},{"city":"Haridwar","state":"Uttarakhand","latitude":29.9457,"longitude":78.1642,"temp":24.9,"humidity":98,"rain":0.0,"pressure":969.1,"uv_index":2.2,"wind_gusts":25.2,"aqi":155,"pm10":77.3,"pm2_5":45.5,"no2":8.4,"co":231.0,"o3":90.0,"so2":13.8,"mosquito_risk":3,"arthritis_risk":5,"migraine_risk":3,"frizz_risk":1,"updated_at":"2026-07-20T04:25:46.924648+05:30"},{"city":"Rishikesh","state":"Uttarakhand","latitude":30.0869,"longitude":78.2676,"temp":24.9,"humidity":98,"rain":0.0,"pressure":961.9,"uv_index":0.6,"wind_gusts":17.3,"aqi":131,"pm10":23.6,"pm2_5":12.2,"no2":5.0,"co":208.0,"o3":111.0,"so2":13.2,"mosquito_risk":3,"arthritis_risk":5,"migraine_risk":3,"frizz_risk":1,"updated_at":"2026-07-20T04:25:46.924655+05:30"},{"city":"Nainital","state":"Uttarakhand","latitude":29.3919,"longitude":79.4542,"temp":17.3,"humidity":99,"rain":0.9,"pressure":803.1,"uv_index":6.4,"wind_gusts":34.6,"aqi":62,"pm10":12.5,"pm2_5":9.7,"no2":4.0,"co":229.0,"o3":105.0,"so2":1.8,"mosquito_risk":6,"arthritis_risk":10,"migraine_risk":7,"frizz_risk":1,"updated_at":"2026-07-20T04:25:46.924662+05:30"},{"city":"Mussoorie","state":"Uttarakhand","latitude":30.4599,"longitude":78.0664,"temp":17.1,"humidity":100,"rain":0.1,"pressure":800.0,"uv_index":0.8,"wind_gusts":28.4,"aqi":97,"pm10":46.7,"pm2_5":22.1,"no2":6.7,"co":250.0,"o3":109.0,"so2":9.5,"mosquito_risk":6,"arthritis_risk":10,"migraine_risk":3,"frizz_risk":1,"updated_at":"2026-07-20T04:25:46.924668+05:30"},{"city":"Dharamshala","state":"Himachal Pradesh","latitude":32.219,"longitude":76.3234,"temp":21.5,"humidity":99,"rain":1.1,"pressure":864.9,"uv_index":5.95,"wind_gusts":27.7,"aqi":44,"pm10":18.3,"pm2_5":7.8,"no2":8.6,"co":250.0,"o3":54.0,"so2":0.8,"mosquito_risk":6,"arthritis_risk":5,"migraine_risk":3,"frizz_risk":1,"updated_at":"2026-07-20T04:25:46.924675+05:30"},{"city":"Dalhousie","state":"Himachal Pradesh","latitude":32.5387,"longitude":75.971,"temp":18.5,"humidity":98,"rain":1.0,"pressure":801.5,"uv_index":3.05,"wind_gusts":25.6,"aqi":92,"pm10":60.1,"pm2_5":24.2,"no2":6.3,"co":253.0,"o3":89.0,"so2":1.9,"mosquito_risk":6,"arthritis_risk":10,"migraine_risk":3,"frizz_risk":1,"updated_at":"2026-07-20T04:25:46.924682+05:30"},{"city":"Patiala","state":"Punjab","latitude":30.3398,"longitude":76.3869,"temp":27.9,"humidity":93,"rain":0.0,"pressure":971.8,"uv_index":5.05,"wind_gusts":35.6,"aqi":250,"pm10":367.9,"pm2_5":101.7,"no2":15.9,"co":385.0,"o3":75.0,"so2":15.5,"mosquito_risk":7,"arthritis_risk":5,"migraine_risk":3,"frizz_risk":1,"updated_at":"2026-07-20T04:25:46.924688+05:30"},{"city":"Bhatinda","state":"Punjab","latitude":30.211,"longitude":74.9455,"temp":31.6,"humidity":68,"rain":0.0,"pressure":976.3,"uv_index":5.9,"wind_gusts":34.2,"aqi":186,"pm10":976.0,"pm2_5":254.3,"no2":20.1,"co":264.0,"o3":48.0,"so2":8.0,"mosquito_risk":3,"arthritis_risk":5,"migraine_risk":3,"frizz_risk":1,"updated_at":"2026-07-20T04:25:46.924694+05:30"},{"city":"Rohtak","state":"Haryana","latitude":28.8955,"longitude":76.6066,"temp":29.4,"humidity":79,"rain":0.0,"pressure":975.0,"uv_index":4.55,"wind_gusts":23.4,"aqi":559,"pm10":558.8,"pm2_5":131.3,"no2":21.0,"co":384.0,"o3":50.0,"so2":11.5,"mosquito_risk":7,"arthritis_risk":5,"migraine_risk":3,"frizz_risk":1,"updated_at":"2026-07-20T04:25:46.924700+05:30"},{"city":"Panipat","state":"Haryana","latitude":29.3909,"longitude":76.9635,"temp":27.1,"humidity":93,"rain":0.0,"pressure":974.3,"uv_index":6.8,"wind_gusts":32.8,"aqi":666,"pm10":455.4,"pm2_5":122.9,"no2":27.8,"co":502.0,"o3":36.0,"so2":18.0,"mosquito_risk":7,"arthritis_risk":5,"migraine_risk":7,"frizz_risk":1,"updated_at":"2026-07-20T04:25:46.924706+05:30"},{"city":"Mathura","state":"Uttar Pradesh","latitude":27.4924,"longitude":77.6737,"temp":28.6,"humidity":82,"rain":0.0,"pressure":980.7,"uv_index":1.1,"wind_gusts":25.6,"aqi":185,"pm10":192.3,"pm2_5":43.0,"no2":10.2,"co":176.0,"o3":68.0,"so2":3.3,"mosquito_risk":7,"arthritis_risk":5,"migraine_risk":3,"frizz_risk":1,"updated_at":"2026-07-20T04:25:46.924713+05:30"},{"city":"Vrindavan","state":"Uttar Pradesh","latitude":27.5823,"longitude":77.7027,"temp":28.6,"humidity":82,"rain":0.0,"pressure":981.2,"uv_index":1.8,"wind_gusts":28.8,"aqi":185,"pm10":192.3,"pm2_5":43.0,"no2":10.2,"co":176.0,"o3":68.0,"so2":3.3,"mosquito_risk":7,"arthritis_risk":5,"migraine_risk":3,"frizz_risk":1,"updated_at":"2026-07-20T04:25:46.924719+05:30"},{"city":"Ayodhya","state":"Uttar Pradesh","latitude":26.7922,"longitude":82.1998,"temp":25.4,"humidity":98,"rain":0.1,"pressure":990.6,"uv_index":7.75,"wind_gusts":23.4,"aqi":86,"pm10":30.9,"pm2_5":30.9,"no2":15.4,"co":357.0,"o3":75.0,"so2":6.8,"mosquito_risk":10,"arthritis_risk":5,"migraine_risk":7,"frizz_risk":1,"updated_at":"2026-07-20T04:25:46.924725+05:30"},{"city":"Ratlam","state":"Madhya Pradesh","latitude":23.3315,"longitude":75.0367,"temp":24.9,"humidity":90,"rain":0.0,"pressure":950.3,"uv_index":5.25,"wind_gusts":35.3,"aqi":62,"pm10":12.8,"pm2_5":9.6,"no2":8.2,"co":162.0,"o3":45.0,"so2":10.9,"mosquito_risk":3,"arthritis_risk":5,"migraine_risk":3,"frizz_risk":1,"updated_at":"2026-07-20T04:25:46.924732+05:30"},{"city":"Sagar","state":"Madhya Pradesh","latitude":23.8388,"longitude":78.7378,"temp":24.4,"humidity":90,"rain":0.0,"pressure":945.5,"uv_index":5.95,"wind_gusts":29.5,"aqi":78,"pm10":26.8,"pm2_5":20.8,"no2":7.1,"co":228.0,"o3":60.0,"so2":2.4,"mosquito_risk":3,"arthritis_risk":5,"migraine_risk":3,"frizz_risk":1,"updated_at":"2026-07-20T04:25:46.924738+05:30"},{"city":"Satna","state":"Madhya Pradesh","latitude":24.6005,"longitude":80.8322,"temp":25.7,"humidity":98,"rain":0.0,"pressure":966.2,"uv_index":1.75,"wind_gusts":29.9,"aqi":95,"pm10":65.4,"pm2_5":37.0,"no2":16.2,"co":221.0,"o3":36.0,"so2":5.7,"mosquito_risk":7,"arthritis_risk":5,"migraine_risk":3,"frizz_risk":1,"updated_at":"2026-07-20T04:25:46.924744+05:30"},{"city":"Akola","state":"Maharashtra","latitude":20.7002,"longitude":77.0082,"temp":25.8,"humidity":85,"rain":0.0,"pressure":971.7,"uv_index":8.3,"wind_gusts":42.5,"aqi":50,"pm10":7.8,"pm2_5":6.2,"no2":9.1,"co":128.0,"o3":33.0,"so2":6.7,"mosquito_risk":7,"arthritis_risk":5,"migraine_risk":7,"frizz_risk":1,"updated_at":"2026-07-20T04:25:46.924751+05:30"},{"city":"Amravati","state":"Maharashtra","latitude":20.9374,"longitude":77.7796,"temp":24.6,"humidity":93,"rain":0.1,"pressure":963.7,"uv_index":7.65,"wind_gusts":41.8,"aqi":51,"pm10":7.9,"pm2_5":6.2,"no2":9.3,"co":139.0,"o3":37.0,"so2":8.0,"mosquito_risk":6,"arthritis_risk":5,"migraine_risk":7,"frizz_risk":1,"updated_at":"2026-07-20T04:25:46.924758+05:30"},{"city":"Latur","state":"Maharashtra","latitude":18.4088,"longitude":76.5604,"temp":22.7,"humidity":94,"rain":0.2,"pressure":936.6,"uv_index":1.0,"wind_gusts":50.8,"aqi":34,"pm10":3.8,"pm2_5":3.2,"no2":5.9,"co":117.0,"o3":31.0,"so2":2.4,"mosquito_risk":6,"arthritis_risk":5,"migraine_risk":3,"frizz_risk":1,"updated_at":"2026-07-20T04:25:46.924765+05:30"},{"city":"Nanded","state":"Maharashtra","latitude":19.1383,"longitude":77.3091,"temp":23.8,"humidity":95,"rain":0.0,"pressure":965.5,"uv_index":2.2,"wind_gusts":41.8,"aqi":51,"pm10":5.6,"pm2_5":4.4,"no2":6.1,"co":143.0,"o3":33.0,"so2":3.0,"mosquito_risk":3,"arthritis_risk":5,"migraine_risk":3,"frizz_risk":1,"updated_at":"2026-07-20T04:25:46.924771+05:30"},{"city":"Gulbarga","state":"Karnataka","latitude":17.3297,"longitude":76.8343,"temp":23.3,"humidity":94,"rain":0.0,"pressure":956.3,"uv_index":5.3,"wind_gusts":54.4,"aqi":33,"pm10":4.3,"pm2_5":3.2,"no2":6.5,"co":114.0,"o3":30.0,"so2":2.5,"mosquito_risk":3,"arthritis_risk":5,"migraine_risk":3,"frizz_risk":1,"updated_at":"2026-07-20T04:25:46.924777+05:30"},{"city":"Bidar","state":"Karnataka","latitude":17.9104,"longitude":77.5199,"temp":22.1,"humidity":97,"rain":0.0,"pressure":932.4,"uv_index":2.4,"wind_gusts":48.6,"aqi":48,"pm10":4.5,"pm2_5":3.5,"no2":5.9,"co":123.0,"o3":32.0,"so2":1.9,"mosquito_risk":3,"arthritis_risk":5,"migraine_risk":3,"frizz_risk":1,"updated_at":"2026-07-20T04:25:46.924783+05:30"},{"city":"Hospet","state":"Karnataka","latitude":15.2689,"longitude":76.3909,"temp":23.4,"humidity":87,"rain":0.0,"pressure":954.9,"uv_index":6.8,"wind_gusts":54.7,"aqi":34,"pm10":1.7,"pm2_5":1.4,"no2":3.9,"co":106.0,"o3":35.0,"so2":1.4,"mosquito_risk":3,"arthritis_risk":5,"migraine_risk":7,"frizz_risk":1,"updated_at":"2026-07-20T04:25:46.924789+05:30"},{"city":"Tirupur","state":"Tamil Nadu","latitude":11.1085,"longitude":77.3411,"temp":23.3,"humidity":92,"rain":0.0,"pressure":975.2,"uv_index":7.35,"wind_gusts":51.8,"aqi":56,"pm10":15.9,"pm2_5":12.5,"no2":15.3,"co":121.0,"o3":21.0,"so2":4.8,"mosquito_risk":3,"arthritis_risk":5,"migraine_risk":7,"frizz_risk":1,"updated_at":"2026-07-20T04:25:46.924795+05:30"},{"city":"Alappuzha","state":"Kerala","latitude":9.4981,"longitude":76.3388,"temp":24.6,"humidity":96,"rain":0.1,"pressure":1010.5,"uv_index":8.4,"wind_gusts":37.8,"aqi":52,"pm10":15.5,"pm2_5":8.5,"no2":4.8,"co":90.0,"o3":39.0,"so2":2.3,"mosquito_risk":6,"arthritis_risk":0,"migraine_risk":4,"frizz_risk":1,"updated_at":"2026-07-20T04:25:46.924801+05:30"},{"city":"Munnar","state":"Kerala","latitude":10.0889,"longitude":77.0595,"temp":16.1,"humidity":100,"rain":0.0,"pressure":856.5,"uv_index":8.0,"wind_gusts":41.0,"aqi":27,"pm10":4.8,"pm2_5":3.3,"no2":3.2,"co":92.0,"o3":29.0,"so2":1.2,"mosquito_risk":3,"arthritis_risk":10,"migraine_risk":7,"frizz_risk":0,"updated_at":"2026-07-20T04:25:46.924807+05:30"},{"city":"Silchar","state":"Assam","latitude":24.8333,"longitude":92.7789,"temp":25.1,"humidity":96,"rain":0.2,"pressure":1003.2,"uv_index":1.15,"wind_gusts":21.2,"aqi":62,"pm10":17.9,"pm2_5":14.2,"no2":6.9,"co":205.0,"o3":47.0,"so2":3.5,"mosquito_risk":10,"arthritis_risk":5,"migraine_risk":0,"frizz_risk":1,"updated_at":"2026-07-20T04:25:46.924814+05:30"},{"city":"Dibrugarh","state":"Assam","latitude":27.4728,"longitude":94.912,"temp":24.0,"humidity":99,"rain":0.0,"pressure":993.6,"uv_index":8.35,"wind_gusts":27.0,"aqi":68,"pm10":39.9,"pm2_5":38.1,"no2":36.9,"co":208.0,"o3":7.0,"so2":3.1,"mosquito_risk":3,"arthritis_risk":5,"migraine_risk":7,"frizz_risk":1,"updated_at":"2026-07-20T04:25:46.924820+05:30"}]